[2021-01-29 11:05:20.538] $GPGGA,20506.2,,,,,0,0,0,,M,,M,0,0000*55
[2021-01-29 11:05:20.569] $GPGGA,20506.3,,,,,0,0,0,,M,,M,0,0000*54
[2021-01-29 11:05:20.569] $GPGGA,20506.4,,,,,0,0,0,,M,,M,0,0000*53
[2021-01-29 11:05:20.569] $GPGGA,20506.5,,,,,0,0,0,,M,,M,0,0000*52
[2021-01-29 11:05:20.569] $GPGGA,20506.6,,,,,0,0,0,,M,,M,0,0000*51
[2021-01-29 11:05:20.569] $GPGGA,20506.7,,,,,0,0,0,,M,,M,0,0000*50
[2021-01-29 11:05:20.569] $GPGGA,20506.8,,,,,0,0,0,,M,,M,0,0000*5F
[2021-01-29 11:05:20.569] $GPGGA,20506.9,,,,,0,0,0,,M,,M,0,0000*5E
[2021-01-29 11:05:20.569] $GPGGA,20507,,,,,0,0,0,,M,,M,0,0000*56
[2021-01-29 11:05:20.569] $GPGGA,20507.1,,,,,0,0,0,,M,,M,0,0000*57
[2021-01-29 11:05:20.569] $GPGGA,20507.2,,,,,0,0,0,,M,,M,0,0000*54
[2021-01-29 11:05:20.569] $GPGGA,20507.3,,,,,0,0,0,,M,,M,0,0000*55
[2021-01-29 11:05:20.569] $GPGGA,20507.4,,,,,0,0,0,,M,,M,0,0000*52
[2021-01-29 11:05:20.569] $GPGGA,20507.5,,,,,0,0,0,,M,,M,0,0000*53
[2021-01-29 11:05:20.569] $GPGGA,20507.6,,,,,0,0,0,,M,,M,0,0000*50
[2021-01-29 11:05:20.569] $GPGGA,20507.7,,,,,0,0,0,,M,,M,0,0000*51
[2021-01-29 11:05:20.569] $GPGGA,20507.8,,,,,0,0,0,,M,,M,0,0000*5E
[2021-01-29 11:05:20.569] $GPGGA,20507.9,,,,,0,0,0,,M,,M,0,0000*5F
[2021-01-29 11:05:20.569] $GPGGA,20508,,,,,0,0,0,,M,,M,0,0000*59
[2021-01-29 11:05:20.569] $GPGGA,20508.1,,,,,0,0,0,,M,,M,0,0000*58
[2021-01-29 11:05:20.569] $GPGGA,20508.2,,,,,0,0,0,,M,,M,0,0000*5B
[2021-01-29 11:05:20.569] $GPGGA,20508.3,,,,,0,0,0,,M,,M,0,0000*5A
[2021-01-29 11:05:20.585] $GPGGA,20508.4,,,,,0,0,0,,M,,M,0,0000*5D
[2021-01-29 11:05:20.585] $GPGGA,20508.5,,,,,0,0,0,,M,,M,0,0000*5C
[2021-01-29 11:05:20.585] $GPGGA,20508.6,,,,,0,0,0,,M,,M,0,0000*5F
[2021-01-29 11:05:20.585] $GPGGA,20508.7,,,,,0,0,0,,M,,M,0,0000*5E
[2021-01-29 11:05:20.585] $GPGGA,20508.8,,,,,0,0,0,,M,,M,0,0000*51
[2021-01-29 11:05:20.585] $GPGGA,20508.9,,,,,0,0,0,,M,,M,0,0000*50
[2021-01-29 11:05:20.585] $GPGGA,20509,,,,,0,0,0,,M,,M,0,0000*58
[2021-01-29 11:05:20.585] $GPGGA,20509.1,,,,,0,0,0,,M,,M,0,0000*59
[2021-01-29 11:05:20.585] $GPGGA,20509.2,,,,,0,0,0,,M,,M,0,0000*5A
[2021-01-29 11:05:20.585] $GPGGA,20509.3,,,,,0,0,0,,M,,M,0,0000*5B
[2021-01-29 11:05:20.585] $GPGGA,20509.4,,,,,0,0,0,,M,,M,0,0000*5C
[2021-01-29 11:05:20.585] $GPGGA,20509.5,,,,,0,0,0,,M,,M,0,0000*5D
[2021-01-29 11:05:20.585] $GPGGA,20509.6,,,,,0,0,0,,M,,M,0,0000*5E
[2021-01-29 11:05:20.585] $GPGGA,20509.7,,,,,0,0,0,,M,,M,0,0000*5F
[2021-01-29 11:05:20.585] $GPGGA,20509.8,,,,,0,0,0,,M,,M,0,0000*50
[2021-01-29 11:05:20.585] $GPGGA,20509.9,,,,,0,0,0,,M,,M,0,0000*51
[2021-01-29 11:05:20.585] $GPGGA,20510,,,,,0,0,0,,M,,M,0,0000*50
[2021-01-29 11:05:20.585] $GPGGA,20510.1,,,,,0,0,0,,M,,M,0,0000*51
[2021-01-29 11:05:20.585] $GPGGA,20510.2,,,,,0,0,0,,M,,M,0,0000*52
[2021-01-29 11:05:20.585] $GPGGA,20510.3,,,,,0,0,0,,M,,M,0,0000*53
[2021-01-29 11:05:20.585] $GPGGA,20510.4,,,,,0,0,0,,M,,M,0,0000*54
[2021-01-29 11:05:20.585] $GPGGA,20510.5,,,,,0,0,0,,M,,M,0,0000*55
[2021-01-29 11:05:20.600] $GPGGA,20510.6,,,,,0,0,0,,M,,M,0,0000*56
[2021-01-29 11:05:20.600] $GPGGA,20510.7,,,,,0,0,0,,M,,M,0,0000*57
[2021-01-29 11:05:20.600] $GPGGA,20510.8,,,,,0,0,0,,M,,M,0,0000*58
[2021-01-29 11:05:20.600] $GPGGA,20510.9,,,,,0,0,0,,M,,M,0,0000*59
[2021-01-29 11:05:20.600] $GPGGA,20511,,,,,0,0,0,,M,,M,0,0000*51
[2021-01-29 11:05:20.600] $GPGGA,20511.1,,,,,0,0,0,,M,,M,0,0000*50
[2021-01-29 11:05:20.600] $GPGGA,20511.2,,,,,0,0,0,,M,,M,0,0000*53
[2021-01-29 11:05:20.600] $GPGGA,20511.3,,,,,0,0,0,,M,,M,0,0000*52
[2021-01-29 11:05:20.600] $GPGGA,20511.4,,,,,0,0,0,,M,,M,0,0000*55
[2021-01-29 11:05:20.600] $GPGGA,20511.5,,,,,0,0,0,,M,,M,0,0000*54
[2021-01-29 11:05:20.600] $GPGGA,20511.6,,,,,0,0,0,,M,,M,0,0000*57
[2021-01-29 11:05:20.600] $GPGGA,20511.7,,,,,0,0,0,,M,,M,0,0000*56
[2021-01-29 11:05:20.600] $GPGGA,20511.8,,,,,0,0,0,,M,,M,0,0000*59
[2021-01-29 11:05:20.600] $GPGGA,20511.9,,,,,0,0,0,,M,,M,0,0000*58
[2021-01-29 11:05:20.600] $GPGGA,20512,,,,,0,0,0,,M,,M,0,0000*52
[2021-01-29 11:05:20.600] $GPGGA,20512.1,,,,,0,0,0,,M,,M,0,0000*53
[2021-01-29 11:05:20.600] $GPGGA,20512.2,,,,,0,0,0,,M,,M,0,0000*50
[2021-01-29 11:05:20.600] $GPGGA,20512.3,,,,,0,0,0,,M,,M,0,0000*51
[2021-01-29 11:05:20.600] $GPGGA,20512.4,,,,,0,0,0,,M,,M,0,0000*56
[2021-01-29 11:05:20.600] $GPGGA,20512.5,,,,,0,0,0,,M,,M,0,0000*57
[2021-01-29 11:05:20.600] $GPGGA,20512.6,,,,,0,0,0,,M,,M,0,0000*54
[2021-01-29 11:05:20.616] $GPGGA,20512.7,,,,,0,0,0,,M,,M,0,0000*55
[2021-01-29 11:05:20.616] $GPGGA,20512.8,,,,,0,0,0,,M,,M,0,0000*5A
[2021-01-29 11:05:20.616] $GPGGA,20512.9,,,,,0,0,0,,M,,M,0,0000*5B
[2021-01-29 11:05:20.616] $GPGGA,20513,,,,,0,0,0,,M,,M,0,0000*53
[2021-01-29 11:05:20.616] $GPGGA,20513.1,,,,,0,0,0,,M,,M,0,0000*52
[2021-01-29 11:05:20.616] $GPGGA,20513.2,,,,,0,0,0,,M,,M,0,0000*51
[2021-01-29 11:05:20.616] $GPGGA,20513.3,,,,,0,0,0,,M,,M,0,0000*50
[2021-01-29 11:05:20.616] $GPGGA,20513.4,,,,,0,0,0,,M,,M,0,0000*57
[2021-01-29 11:05:20.616] $GPGGA,20513.5,,,,,0,0,0,,M,,M,0,0000*56
[2021-01-29 11:05:20.616] $GPGGA,20513.6,,,,,0,0,0,,M,,M,0,0000*55
[2021-01-29 11:05:20.616] $GPGGA,20513.7,,,,,0,0,0,,M,,M,0,0000*54
[2021-01-29 11:05:20.616] $GPGGA,20513.8,,,,,0,0,0,,M,,M,0,0000*5B
[2021-01-29 11:05:20.616] $GPGGA,20513.9,,,,,0,0,0,,M,,M,0,0000*5A
[2021-01-29 11:05:20.616] $GPGGA,20514,,,,,0,0,0,,M,,M,0,0000*54
[2021-01-29 11:05:20.616] $GPGGA,20514.1,,,,,0,0,0,,M,,M,0,0000*55
[2021-01-29 11:05:20.616] $GPGGA,20514.2,,,,,0,0,0,,M,,M,0,0000*56
[2021-01-29 11:05:20.616] $GPGGA,20514.3,,,,,0,0,0,,M,,M,0,0000*57
[2021-01-29 11:05:20.616] $GPGGA,20514.4,,,,,0,0,0,,M,,M,0,0000*50
[2021-01-29 11:05:20.616] $GPGGA,20514.5,,,,,0,0,0,,M,,M,0,0000*51
[2021-01-29 11:05:20.616] $GPGGA,20514.6,,,,,0,0,0,,M,,M,0,0000*52
[2021-01-29 11:05:20.616] $GPGGA,20514.7,,,,,0,0,0,,M,,M,0,0000*53
[2021-01-29 11:05:20.616] $GPGGA,20514.8,,,,,0,0,0,,M,,M,0,0000*5C
[2021-01-29 11:05:20.632] $GPGGA,20514.9,,,,,0,0,0,,M,,M,0,0000*5D
[2021-01-29 11:05:20.632] $GPGGA,20515,,,,,0,0,0,,M,,M,0,0000*55
[2021-01-29 11:05:20.632] $GPGGA,20515.1,,,,,0,0,0,,M,,M,0,0000*54
[2021-01-29 11:05:20.632] $GPGGA,20515.2,,,,,0,0,0,,M,,M,0,0000*57
[2021-01-29 11:05:20.632] $GPGGA,20515.3,,,,,0,0,0,,M,,M,0,0000*56
[2021-01-29 11:05:20.632] $GPGGA,20515.4,,,,,0,0,0,,M,,M,0,0000*51
[2021-01-29 11:05:20.632] $GPGGA,20515.5,,,,,0,0,0,,M,,M,0,0000*50
[2021-01-29 11:05:20.632] $GPGGA,20515.6,,,,,0,0,0,,M,,M,0,0000*53
[2021-01-29 11:05:20.632] $GPGGA,20515.7,,,,,0,0,0,,M,,M,0,0000*52
[2021-01-29 11:05:20.632] $GPGGA,20515.8,,,,,0,0,0,,M,,M,0,0000*5D
[2021-01-29 11:05:20.632] $GPGGA,20515.9,,,,,0,0,0,,M,,M,0,0000*5C
[2021-01-29 11:05:20.632] $GPGGA,20516,,,,,0,0,0,,M,,M,0,0000*56
[2021-01-29 11:05:20.632] $GPGGA,20516.1,,,,,0,0,0,,M,,M,0,0000*57
[2021-01-29 11:05:20.632] $GPGGA,20516.2,,,,,0,0,0,,M,,M,0,0000*54
[2021-01-29 11:05:20.632] $GPGGA,20516.3,,,,,0,0,0,,M,,M,0,0000*55
[2021-01-29 11:05:20.632] $GPGGA,20516.4,,,,,0,0,0,,M,,M,0,0000*52
[2021-01-29 11:05:20.632] $GPGGA,20516.5,,,,,0,0,0,,M,,M,0,0000*53
[2021-01-29 11:05:20.632] $GPGGA,20516.6,,,,,0,0,0,,M,,M,0,0000*50
[2021-01-29 11:05:20.632] $GPGGA,20516.7,,,,,0,0,0,,M,,M,0,0000*51
[2021-01-29 11:05:20.632] $GPGGA,20516.8,,,,,0,0,0,,M,,M,0,0000*5E
[2021-01-29 11:05:20.632] $GPGGA,20516.9,,,,,0,0,0,,M,,M,0,0000*5F
[2021-01-29 11:05:20.663] $GPGGA,20517,,,,,0,0,0,,M,,M,0,0000*57
[2021-01-29 11:05:20.663] $GPGGA,20517.1,,,,,0,0,0,,M,,M,0,0000*56
[2021-01-29 11:05:20.663] $GPGGA,20517.2,,,,,0,0,0,,M,,M,0,0000*55
[2021-01-29 11:05:20.663] $GPGGA,20517.3,,,,,0,0,0,,M,,M,0,0000*54
[2021-01-29 11:05:20.663] $GPGGA,20517.4,,,,,0,0,0,,M,,M,0,0000*53
[2021-01-29 11:05:20.663] $GPGGA,20517.5,,,,,0,0,0,,M,,M,0,0000*52
[2021-01-29 11:05:20.663] $GPGGA,20517.6,,,,,0,0,0,,M,,M,0,0000*51
[2021-01-29 11:05:20.663] $GPGGA,20517.7,,,,,0,0,0,,M,,M,0,0000*50
[2021-01-29 11:05:20.663] $GPGGA,20517.8,,,,,0,0,0,,M,,M,0,0000*5F
[2021-01-29 11:05:20.663] $GPGGA,20517.9,,,,,0,0,0,,M,,M,0,0000*5E
[2021-01-29 11:05:20.663] $GPGGA,20518,,,,,0,0,0,,M,,M,0,0000*58
[2021-01-29 11:05:20.663] $GPGGA,20518.1,,,,,0,0,0,,M,,M,0,0000*59
[2021-01-29 11:05:20.663] $GPGGA,20518.2,,,,,0,0,0,,M,,M,0,0000*5A
[2021-01-29 11:05:20.663] $GPGGA,20518.3,,,,,0,0,0,,M,,M,0,0000*5B
[2021-01-29 11:05:20.663] $GPGGA,20518.4,,,,,0,0,0,,M,,M,0,0000*5C
[2021-01-29 11:05:20.663] $GPGGA,20518.5,,,,,0,0,0,,M,,M,0,0000*5D
[2021-01-29 11:05:20.663] $GPGGA,20518.6,,,,,0,0,0,,M,,M,0,0000*5E
[2021-01-29 11:05:20.663] $GPGGA,20518.7,,,,,0,0,0,,M,,M,0,0000*5F
[2021-01-29 11:05:20.663] $GPGGA,20518.8,,,,,0,0,0,,M,,M,0,0000*50
[2021-01-29 11:05:20.663] $GPGGA,20518.9,,,,,0,0,0,,M,,M,0,0000*51
[2021-01-29 11:05:20.663] $GPGGA,20519,,,,,0,0,0,,M,,M,0,0000*59
[2021-01-29 11:05:20.663] $GPGGA,20519.1,,,,,0,0,0,,M,,M,0,0000*58
[2021-01-29 11:05:20.663] $GPGGA,20519.2,,,,,0,0,0,,M,,M,0,0000*5B
[2021-01-29 11:05:20.663] $GPGGA,20519.3,,,,,0,0,0,,M,,M,0,0000*5A
[2021-01-29 11:05:20.757] $GPGGA,20519.4,,,,,0,0,0,,M,,M,0,0000*5D
[2021-01-29 11:05:20.866] $GPGGA,20519.5,,,,,0,0,0,,M,,M,0,0000*5C
[2021-01-29 11:05:20.960] $GPGGA,20519.6,,,,,0,0,0,,M,,M,0,0000*5F
[2021-01-29 11:05:21.069] $GPGGA,20519.7,,,,,0,0,0,,M,,M,0,0000*5E
[2021-01-29 11:05:21.163] $GPGGA,20519.8,,,,,0,0,0,,M,,M,0,0000*51
[2021-01-29 11:05:21.264] $GPGGA,20519.9,,,,,0,0,0,,M,,M,0,0000*50
[2021-01-29 11:05:21.353] $GPGGA,20520,,,,,0,0,0,,M,,M,0,0000*53
[2021-01-29 11:05:21.462] $GPGGA,20520.1,,,,,0,0,0,,M,,M,0,0000*52
[2021-01-29 11:05:21.556] $GPGGA,20520.2,,,,,0,0,0,,M,,M,0,0000*51
[2021-01-29 11:05:21.665] $GPGGA,20520.3,,,,,0,0,0,,M,,M,0,0000*50
[2021-01-29 11:05:21.759] $GPGGA,20520.4,,,,,0,0,0,,M,,M,0,0000*57
[2021-01-29 11:05:21.853] $GPGGA,20520.5,,,,,0,0,0,,M,,M,0,0000*56
[2021-01-29 11:05:21.962] $GPGGA,20520.6,,,,,0,0,0,,M,,M,0,0000*55
[2021-01-29 11:05:22.056] $GPGGA,20520.7,,,,,0,0,0,,M,,M,0,0000*54
[2021-01-29 11:05:22.165] $GPGGA,20520.8,,,,,0,0,0,,M,,M,0,0000*5B
[2021-01-29 11:05:22.268] $GPGGA,20520.9,,,,,0,0,0,,M,,M,0,0000*5A
[2021-01-29 11:05:22.368] $GPGGA,20521,,,,,0,0,0,,M,,M,0,0000*52
[2021-01-29 11:05:22.462] $GPGGA,20521.1,,,,,0,0,0,,M,,M,0,0000*53
[2021-01-29 11:05:22.556] $GPGGA,20521.2,,,,,0,0,0,,M,,M,0,0000*50
[2021-01-29 11:05:22.665] $GPGGA,20521.3,,,,,0,0,0,,M,,M,0,0000*51
[2021-01-29 11:05:22.759] $GPGGA,20521.4,,,,,0,0,0,,M,,M,0,0000*56
[2021-01-29 11:05:22.853] $GPGGA,20521.5,,,,,0,0,0,,M,,M,0,0000*57
[2021-01-29 11:05:22.962] $GPGGA,20521.6,,,,,0,0,0,,M,,M,0,0000*54
[2021-01-29 11:05:23.056] $GPGGA,20521.7,,,,,0,0,0,,M,,M,0,0000*55
[2021-01-29 11:05:23.165] $GPGGA,20521.8,,,,,0,0,0,,M,,M,0,0000*5A
[2021-01-29 11:05:23.259] $GPGGA,20521.9,,,,,0,0,0,,M,,M,0,0000*5B
[2021-01-29 11:05:23.370] $GPGGA,20522,,,,,0,0,0,,M,,M,0,0000*51
[2021-01-29 11:05:23.464] $GPGGA,20522.1,,,,,0,0,0,,M,,M,0,0000*50
[2021-01-29 11:05:23.558] $GPGGA,20522.2,,,,,0,0,0,,M,,M,0,0000*53
[2021-01-29 11:05:23.667] $GPGGA,20522.3,,,,,0,0,0,,M,,M,0,0000*52
[2021-01-29 11:05:23.761] $GPGGA,20522.4,,,,,0,0,0,,M,,M,0,0000*55
[2021-01-29 11:05:23.870] $GPGGA,20522.5,,,,,0,0,0,,M,,M,0,0000*54
[2021-01-29 11:05:23.964] $GPGGA,20522.6,,,,,0,0,0,,M,,M,0,0000*57
[2021-01-29 11:05:24.058] $GPGGA,20522.7,,,,,0,0,0,,M,,M,0,0000*56
[2021-01-29 11:05:24.151] $GPGGA,20522.8,,,,,0,0,0,,M,,M,0,0000*59
[2021-01-29 11:05:24.269] $GPGGA,20522.9,,,,,0,0,0,,M,,M,0,0000*58
[2021-01-29 11:05:24.357] $GPGGA,20523,,,,,0,0,0,,M,,M,0,0000*50
[2021-01-29 11:05:24.466] $GPGGA,20523.1,,,,,0,0,0,,M,,M,0,0000*51
[2021-01-29 11:05:24.560] $GPGGA,20523.2,,,,,0,0,0,,M,,M,0,0000*52
[2021-01-29 11:05:24.669] $GPGGA,20523.3,,,,,0,0,0,,M,,M,0,0000*53
[2021-01-29 11:05:24.763] $GPGGA,20523.4,,,,,0,0,0,,M,,M,0,0000*54
[2021-01-29 11:05:24.857] $GPGGA,20523.5,,,,,0,0,0,,M,,M,0,0000*55
[2021-01-29 11:05:24.951] $GPGGA,20523.6,,,,,0,0,0,,M,,M,0,0000*56
[2021-01-29 11:05:25.060] $GPGGA,20523.7,,,,,0,0,0,,M,,M,0,0000*57
[2021-01-29 11:05:25.154] $GPGGA,20523.8,,,,,0,0,0,,M,,M,0,0000*58
[2021-01-29 11:05:25.263] $GPGGA,20523.9,,,,,0,0,0,,M,,M,0,0000*59
[2021-01-29 11:05:25.356] $GPGGA,20524,,,,,0,0,0,,M,,M,0,0000*57
[2021-01-29 11:05:25.466] $GPGGA,20524.1,,,,,0,0,0,,M,,M,0,0000*56
[2021-01-29 11:05:25.559] $GPGGA,20524.2,,,,,0,0,0,,M,,M,0,0000*55
[2021-01-29 11:05:25.653] $GPGGA,20524.3,,,,,0,0,0,,M,,M,0,0000*54
[2021-01-29 11:05:25.762] $GPGGA,20524.4,,,,,0,0,0,,M,,M,0,0000*53
[2021-01-29 11:05:25.856] $GPGGA,20524.5,,,,,0,0,0,,M,,M,0,0000*52
[2021-01-29 11:05:25.966] $GPGGA,20524.6,,,,,0,0,0,,M,,M,0,0000*51
[2021-01-29 11:05:26.059] $GPGGA,20524.7,,,,,0,0,0,,M,,M,0,0000*50
[2021-01-29 11:05:26.169] $GPGGA,20524.8,,,,,0,0,0,,M,,M,0,0000*5F
[2021-01-29 11:05:26.265] $GPGGA,20524.9,,,,,0,0,0,,M,,M,0,0000*5E
[2021-01-29 11:05:26.359] $GPGGA,20525,,,,,0,0,0,,M,,M,0,0000*56
[2021-01-29 11:05:26.452] $GPGGA,20525.1,,,,,0,0,0,,M,,M,0,0000*57
[2021-01-29 11:05:26.562] $GPGGA,20525.2,,,,,0,0,0,,M,,M,0,0000*54
[2021-01-29 11:05:26.655] $GPGGA,20525.3,,,,,0,0,0,,M,,M,0,0000*55
[2021-01-29 11:05:26.765] $GPGGA,20525.4,,,,,0,0,0,,M,,M,0,0000*52
[2021-01-29 11:05:26.859] $GPGGA,20525.5,,,,,0,0,0,,M,,M,0,0000*53
[2021-01-29 11:05:26.952] $GPGGA,20525.6,,,,,0,0,0,,M,,M,0,0000*50
[2021-01-29 11:05:27.062] $GPGGA,20525.7,,,,,0,0,0,,M,,M,0,0000*51
[2021-01-29 11:05:27.155] $GPGGA,20525.8,,,,,0,0,0,,M,,M,0,0000*5E
[2021-01-29 11:05:27.266] $GPGGA,20525.9,,,,,0,0,0,,M,,M,0,0000*5F
[2021-01-29 11:05:27.360] $GPGGA,20526,,,,,0,0,0,,M,,M,0,0000*55
[2021-01-29 11:05:27.469] $GPGGA,20526.1,,,,,0,0,0,,M,,M,0,0000*54
[2021-01-29 11:05:27.563] $GPGGA,20526.2,,,,,0,0,0,,M,,M,0,0000*57
[2021-01-29 11:05:27.656] $GPGGA,20526.3,,,,,0,0,0,,M,,M,0,0000*56
[2021-01-29 11:05:27.766] $GPGGA,20526.4,,,,,0,0,0,,M,,M,0,0000*51
[2021-01-29 11:05:27.860] $GPGGA,20526.5,,,,,0,0,0,,M,,M,0,0000*50
[2021-01-29 11:05:27.953] $GPGGA,20526.6,,,,,0,0,0,,M,,M,0,0000*53
[2021-01-29 11:05:28.063] $GPGGA,20526.7,,,,,0,0,0,,M,,M,0,0000*52
[2021-01-29 11:05:28.156] $GPGGA,20526.8,,,,,0,0,0,,M,,M,0,0000*5D
[2021-01-29 11:05:28.268] $GPGGA,20526.9,,,,,0,0,0,,M,,M,0,0000*5C
[2021-01-29 11:05:28.362] $GPGGA,20527,,,,,0,0,0,,M,,M,0,0000*54
[2021-01-29 11:05:28.471] $GPGGA,20527.1,,,,,0,0,0,,M,,M,0,0000*55
[2021-01-29 11:05:28.565] $GPGGA,20527.2,,,,,0,0,0,,M,,M,0,0000*56
[2021-01-29 11:05:28.659] $GPGGA,20527.3,,,,,0,0,0,,M,,M,0,0000*57
[2021-01-29 11:05:28.752] $GPGGA,20527.4,,,,,0,0,0,,M,,M,0,0000*50
[2021-01-29 11:05:28.862] $GPGGA,20527.5,,,,,0,0,0,,M,,M,0,0000*51
[2021-01-29 11:05:28.971] $GPGGA,20527.6,,,,,0,0,0,,M,,M,0,0000*52
[2021-01-29 11:05:29.065] $GPGGA,20527.7,,,,,0,0,0,,M,,M,0,0000*53
[2021-01-29 11:05:29.174] $GPGGA,20527.8,,,,,0,0,0,,M,,M,0,0000*5C
[2021-01-29 11:05:29.262] $GPGGA,20527.9,,,,,0,0,0,,M,,M,0,0000*5D
[2021-01-29 11:05:29.364] $GPGGA,20528,,,,,0,0,0,,M,,M,0,0000*5B
[2021-01-29 11:05:29.457] $GPGGA,20528.1,,,,,0,0,0,,M,,M,0,0000*5A
[2021-01-29 11:05:29.567] $GPGGA,20528.2,,,,,0,0,0,,M,,M,0,0000*59
[2021-01-29 11:05:29.660] $GPGGA,20528.3,,,,,0,0,0,,M,,M,0,0000*58
[2021-01-29 11:05:29.770] $GPGGA,20528.4,,,,,0,0,0,,M,,M,0,0000*5F
[2021-01-29 11:05:29.863] $GPGGA,20528.5,,,,,0,0,0,,M,,M,0,0000*5E
[2021-01-29 11:05:29.957] $GPGGA,20528.6,,,,,0,0,0,,M,,M,0,0000*5D
[2021-01-29 11:05:30.051] $GPGGA,20528.7,,,,,0,0,0,,M,,M,0,0000*5C
[2021-01-29 11:05:30.160] $GPGGA,20528.8,,,,,0,0,0,,M,,M,0,0000*53
[2021-01-29 11:05:30.264] $GPGGA,20528.9,,,,,0,0,0,,M,,M,0,0000*52
[2021-01-29 11:05:30.365] $GPGGA,20529,,,,,0,0,0,,M,,M,0,0000*5A
[2021-01-29 11:05:30.459] $GPGGA,20529.1,,,,,0,0,0,,M,,M,0,0000*5B
[2021-01-29 11:05:30.569] $GPGGA,20529.2,,,,,0,0,0,,M,,M,0,0000*58
[2021-01-29 11:05:30.662] $GPGGA,20529.3,,,,,0,0,0,,M,,M,0,0000*59
[2021-01-29 11:05:30.756] $GPGGA,20529.4,,,,,0,0,0,,M,,M,0,0000*5E
[2021-01-29 11:05:30.865] $GPGGA,20529.5,,,,,0,0,0,,M,,M,0,0000*5F
[2021-01-29 11:05:30.959] $GPGGA,20529.6,,,,,0,0,0,,M,,M,0,0000*5C
[2021-01-29 11:05:31.069] $GPGGA,20529.7,,,,,0,0,0,,M,,M,0,0000*5D
[2021-01-29 11:05:31.162] $GPGGA,20529.8,,,,,0,0,0,,M,,M,0,0000*52
[2021-01-29 11:05:31.263] $GPGGA,20529.9,,,,,0,0,0,,M,,M,0,0000*53
[2021-01-29 11:05:31.366] $GPGGA,20530,,,,,0,0,0,,M,,M,0,0000*52
[2021-01-29 11:05:31.460] $GPGGA,20530.1,,,,,0,0,0,,M,,M,0,0000*53
[2021-01-29 11:05:31.554] $GPGGA,20530.2,,,,,0,0,0,,M,,M,0,0000*50
[2021-01-29 11:05:31.663] $GPGGA,20530.3,,,,,0,0,0,,M,,M,0,0000*51
[2021-01-29 11:05:31.757] $GPGGA,20530.4,,,,,0,0,0,,M,,M,0,0000*56
[2021-01-29 11:05:31.866] $GPGGA,20530.5,,,,,0,0,0,,M,,M,0,0000*57
[2021-01-29 11:05:31.960] $GPGGA,20530.6,,,,,0,0,0,,M,,M,0,0000*54
[2021-01-29 11:05:32.069] $GPGGA,20530.7,,,,,0,0,0,,M,,M,0,0000*55
[2021-01-29 11:05:32.163] $GPGGA,20530.8,,,,,0,0,0,,M,,M,0,0000*5A
[2021-01-29 11:05:32.267] $GPGGA,20530.9,,,,,0,0,0,,M,,M,0,0000*5B
[2021-01-29 11:05:32.353] $GPGGA,20531,,,,,0,0,0,,M,,M,0,0000*53
[2021-01-29 11:05:32.463] $GPGGA,20531.1,,,,,0,0,0,,M,,M,0,0000*52
[2021-01-29 11:05:32.556] $GPGGA,20531.2,,,,,0,0,0,,M,,M,0,0000*51
[2021-01-29 11:05:32.666] $GPGGA,20531.3,,,,,0,0,0,,M,,M,0,0000*50
[2021-01-29 11:05:32.759] $GPGGA,20531.4,,,,,0,0,0,,M,,M,0,0000*57
[2021-01-29 11:05:32.853] $GPGGA,20531.5,,,,,0,0,0,,M,,M,0,0000*56
[2021-01-29 11:05:32.963] $GPGGA,20531.6,,,,,0,0,0,,M,,M,0,0000*55
[2021-01-29 11:05:33.056] $GPGGA,20531.7,,,,,0,0,0,,M,,M,0,0000*54
[2021-01-29 11:05:33.166] $GPGGA,20531.8,,,,,0,0,0,,M,,M,0,0000*5B
[2021-01-29 11:05:33.267] $GPGGA,20531.9,,,,,0,0,0,,M,,M,0,0000*5A
[2021-01-29 11:05:33.370] $GPGGA,20532,,,,,0,0,0,,M,,M,0,0000*50
[2021-01-29 11:05:33.463] $GPGGA,20532.1,,,,,0,0,0,,M,,M,0,0000*51
[2021-01-29 11:05:33.557] $GPGGA,20532.2,,,,,0,0,0,,M,,M,0,0000*52
[2021-01-29 11:05:33.651] $GPGGA,20532.3,,,,,0,0,0,,M,,M,0,0000*53
[2021-01-29 11:05:33.760] $GPGGA,20532.4,,,,,0,0,0,,M,,M,0,0000*54
[2021-01-29 11:05:33.854] $GPGGA,20532.5,,,,,0,0,0,,M,,M,0,0000*55
[2021-01-29 11:05:33.963] $GPGGA,20532.6,,,,,0,0,0,,M,,M,0,0000*56
[2021-01-29 11:05:34.057] $GPGGA,20532.7,,,,,0,0,0,,M,,M,0,0000*57
[2021-01-29 11:05:34.167] $GPGGA,20532.8,,,,,0,0,0,,M,,M,0,0000*58
[2021-01-29 11:05:34.261] $GPGGA,20532.9,,,,,0,0,0,,M,,M,0,0000*59
[2021-01-29 11:05:34.355] $GPGGA,20533,,,,,0,0,0,,M,,M,0,0000*51
[2021-01-29 11:05:34.464] $GPGGA,20533.1,,,,,0,0,0,,M,,M,0,0000*50
[2021-01-29 11:05:34.558] $GPGGA,20533.2,,,,,0,0,0,,M,,M,0,0000*53
[2021-01-29 11:05:34.668] $GPGGA,20533.3,,,,,0,0,0,,M,,M,0,0000*52
[2021-01-29 11:05:34.761] $GPGGA,20533.4,,,,,0,0,0,,M,,M,0,0000*55
[2021-01-29 11:05:34.871] $GPGGA,20533.5,,,,,0,0,0,,M,,M,0,0000*54
[2021-01-29 11:05:34.964] $GPGGA,20533.6,,,,,0,0,0,,M,,M,0,0000*57
[2021-01-29 11:05:35.058] $GPGGA,20533.7,,,,,0,0,0,,M,,M,0,0000*56
[2021-01-29 11:05:35.152] $GPGGA,20533.8,,,,,0,0,0,,M,,M,0,0000*59
[2021-01-29 11:05:35.270] $GPGGA,20533.9,,,,,0,0,0,,M,,M,0,0000*58
[2021-01-29 11:05:35.357] $GPGGA,20534,,,,,0,0,0,,M,,M,0,0000*56
[2021-01-29 11:05:35.466] $GPGGA,20534.1,,,,,0,0,0,,M,,M,0,0000*57
[2021-01-29 11:05:35.560] $GPGGA,20534.2,,,,,0,0,0,,M,,M,0,0000*54
[2021-01-29 11:05:35.669] $GPGGA,20534.3,,,,,0,0,0,,M,,M,0,0000*55
[2021-01-29 11:05:35.763] $GPGGA,20534.4,,,,,0,0,0,,M,,M,0,0000*52
[2021-01-29 11:05:35.857] $GPGGA,20534.5,,,,,0,0,0,,M,,M,0,0000*53
[2021-01-29 11:05:35.951] $GPGGA,20534.6,,,,,0,0,0,,M,,M,0,0000*50
[2021-01-29 11:05:36.060] $GPGGA,20534.7,,,,,0,0,0,,M,,M,0,0000*51
[2021-01-29 11:05:36.169] $GPGGA,20534.8,,,,,0,0,0,,M,,M,0,0000*5E
[2021-01-29 11:05:36.264] $GPGGA,20534.9,,,,,0,0,0,,M,,M,0,0000*5F
[2021-01-29 11:05:36.373] $GPGGA,20535,,,,,0,0,0,,M,,M,0,0000*57
[2021-01-29 11:05:36.467] $GPGGA,20535.1,,,,,0,0,0,,M,,M,0,0000*56
[2021-01-29 11:05:36.561] $GPGGA,20535.2,,,,,0,0,0,,M,,M,0,0000*55
[2021-01-29 11:05:36.654] $GPGGA,20535.3,,,,,0,0,0,,M,,M,0,0000*54
[2021-01-29 11:05:36.764] $GPGGA,20535.4,,,,,0,0,0,,M,,M,0,0000*53
[2021-01-29 11:05:36.857] $GPGGA,20535.5,,,,,0,0,0,,M,,M,0,0000*52
[2021-01-29 11:05:36.967] $GPGGA,20535.6,,,,,0,0,0,,M,,M,0,0000*51
[2021-01-29 11:05:37.061] $GPGGA,20535.7,,,,,0,0,0,,M,,M,0,0000*50
[2021-01-29 11:05:37.170] $GPGGA,20535.8,,,,,0,0,0,,M,,M,0,0000*5F
[2021-01-29 11:05:37.265] $GPGGA,20535.9,,,,,0,0,0,,M,,M,0,0000*5E
[2021-01-29 11:05:37.359] $GPGGA,20536,,,,,0,0,0,,M,,M,0,0000*54
[2021-01-29 11:05:37.453] $GPGGA,20536.1,,,,,0,0,0,,M,,M,0,0000*55
[2021-01-29 11:05:37.562] $GPGGA,20536.2,,,,,0,0,0,,M,,M,0,0000*56
[2021-01-29 11:05:37.656] $GPGGA,20536.3,,,,,0,0,0,,M,,M,0,0000*57
[2021-01-29 11:05:37.765] $GPGGA,20536.4,,,,,0,0,0,,M,,M,0,0000*50
[2021-01-29 11:05:37.859] $GPGGA,20536.5,,,,,0,0,0,,M,,M,0,0000*51
[2021-01-29 11:05:37.968] $GPGGA,20536.6,,,,,0,0,0,,M,,M,0,0000*52
[2021-01-29 11:05:38.062] $GPGGA,20536.7,,,,,0,0,0,,M,,M,0,0000*53
[2021-01-29 11:05:38.156] $GPGGA,20536.8,,,,,0,0,0,,M,,M,0,0000*5C
[2021-01-29 11:05:38.267] $GPGGA,20536.9,,,,,0,0,0,,M,,M,0,0000*5D
[2021-01-29 11:05:38.361] $GPGGA,20537,,,,,0,0,0,,M,,M,0,0000*55
[2021-01-29 11:05:38.470] $GPGGA,20537.1,,,,,0,0,0,,M,,M,0,0000*54
[2021-01-29 11:05:38.564] $GPGGA,20537.2,,,,,0,0,0,,M,,M,0,0000*57
[2021-01-29 11:05:38.657] $GPGGA,20537.3,,,,,0,0,0,,M,,M,0,0000*56
[2021-01-29 11:05:38.751] $GPGGA,20537.4,,,,,0,0,0,,M,,M,0,0000*51
[2021-01-29 11:05:38.861] $GPGGA,20537.5,,,,,0,0,0,,M,,M,0,0000*50
[2021-01-29 11:05:38.954] $GPGGA,20537.6,,,,,0,0,0,,M,,M,0,0000*53
[2021-01-29 11:05:39.064] $GPGGA,20537.7,,,,,0,0,0,,M,,M,0,0000*52
[2021-01-29 11:05:39.157] $GPGGA,20537.8,,,,,0,0,0,,M,,M,0,0000*5D
[2021-01-29 11:05:39.269] $GPGGA,20537.9,,,,,0,0,0,,M,,M,0,0000*5C
[2021-01-29 11:05:39.363] $GPGGA,20538,,,,,0,0,0,,M,,M,0,0000*5A
[2021-01-29 11:05:39.456] $GPGGA,20538.1,,,,,0,0,0,,M,,M,0,0000*5B
[2021-01-29 11:05:39.550] $GPGGA,20538.2,,,,,0,0,0,,M,,M,0,0000*58
[2021-01-29 11:05:39.660] $GPGGA,20538.3,,,,,0,0,0,,M,,M,0,0000*59
[2021-01-29 11:05:39.769] $GPGGA,20538.4,,,,,0,0,0,,M,,M,0,0000*5E
[2021-01-29 11:05:39.863] $GPGGA,20538.5,,,,,0,0,0,,M,,M,0,0000*5F
[2021-01-29 11:05:39.956] $GPGGA,20538.6,,,,,0,0,0,,M,,M,0,0000*5C
[2021-01-29 11:05:40.066] $GPGGA,20538.7,,,,,0,0,0,,M,,M,0,0000*5D
[2021-01-29 11:05:40.159] $GPGGA,20538.8,,,,,0,0,0,,M,,M,0,0000*52
[2021-01-29 11:05:40.261] $GPGGA,20538.9,,,,,0,0,0,,M,,M,0,0000*53
[2021-01-29 11:05:40.365] $GPGGA,20539,,,,,0,0,0,,M,,M,0,0000*5B
[2021-01-29 11:05:40.458] $GPGGA,20539.1,,,,,0,0,0,,M,,M,0,0000*5A
[2021-01-29 11:05:40.568] $GPGGA,20539.2,,,,,0,0,0,,M,,M,0,0000*59
[2021-01-29 11:05:40.661] $GPGGA,20539.3,,,,,0,0,0,,M,,M,0,0000*58
[2021-01-29 11:05:40.755] $GPGGA,20539.4,,,,,0,0,0,,M,,M,0,0000*5F
[2021-01-29 11:05:40.864] $GPGGA,20539.5,,,,,0,0,0,,M,,M,0,0000*5E
[2021-01-29 11:05:40.958] $GPGGA,20539.6,,,,,0,0,0,,M,,M,0,0000*5D
[2021-01-29 11:05:41.052] $GPGGA,20539.7,,,,,0,0,0,,M,,M,0,0000*5C
[2021-01-29 11:05:41.161] $GPGGA,20539.8,,,,,0,0,0,,M,,M,0,0000*53
[2021-01-29 11:05:41.263] $GPGGA,20539.9,,,,,0,0,0,,M,,M,0,0000*52
[2021-01-29 11:05:41.366] $GPGGA,20540,,,,,0,0,0,,M,,M,0,0000*55
[2021-01-29 11:05:41.459] $GPGGA,20540.1,,,,,0,0,0,,M,,M,0,0000*54
[2021-01-29 11:05:41.569] $GPGGA,20540.2,,,,,0,0,0,,M,,M,0,0000*57
[2021-01-29 11:05:41.663] $GPGGA,20540.3,,,,,0,0,0,,M,,M,0,0000*56
[2021-01-29 11:05:41.756] $GPGGA,20540.4,,,,,0,0,0,,M,,M,0,0000*51
[2021-01-29 11:05:41.866] $GPGGA,20540.5,,,,,0,0,0,,M,,M,0,0000*50
[2021-01-29 11:05:41.959] $GPGGA,20540.6,,,,,0,0,0,,M,,M,0,0000*53
[2021-01-29 11:05:42.069] $GPGGA,20540.7,,,,,0,0,0,,M,,M,0,0000*52
[2021-01-29 11:05:42.163] $GPGGA,20540.8,,,,,0,0,0,,M,,M,0,0000*5D
[2021-01-29 11:05:42.266] $GPGGA,20540.9,,,,,0,0,0,,M,,M,0,0000*5C
[2021-01-29 11:05:42.352] $GPGGA,20541,,,,,0,0,0,,M,,M,0,0000*54
[2021-01-29 11:05:42.461] $GPGGA,20541.1,,,,,0,0,0,,M,,M,0,0000*55
[2021-01-29 11:05:42.555] $GPGGA,20541.2,,,,,0,0,0,,M,,M,0,0000*56
[2021-01-29 11:05:42.664] $GPGGA,20541.3,,,,,0,0,0,,M,,M,0,0000*57
[2021-01-29 11:05:42.758] $GPGGA,20541.4,,,,,0,0,0,,M,,M,0,0000*50
[2021-01-29 11:05:42.867] $GPGGA,20541.5,,,,,0,0,0,,M,,M,0,0000*51
[2021-01-29 11:05:42.961] $GPGGA,20541.6,,,,,0,0,0,,M,,M,0,0000*52
[2021-01-29 11:05:43.055] $GPGGA,20541.7,,,,,0,0,0,,M,,M,0,0000*53
[2021-01-29 11:05:43.164] $GPGGA,20541.8,,,,,0,0,0,,M,,M,0,0000*5C
[2021-01-29 11:05:43.268] $GPGGA,20541.9,,,,,0,0,0,,M,,M,0,0000*5D
[2021-01-29 11:05:43.369] $GPGGA,20542,,,,,0,0,0,,M,,M,0,0000*57
[2021-01-29 11:05:43.463] $GPGGA,20542.1,,,,,0,0,0,,M,,M,0,0000*56
[2021-01-29 11:05:43.572] $GPGGA,20542.2,,,,,0,0,0,,M,,M,0,0000*55
[2021-01-29 11:05:43.666] $GPGGA,20542.3,,,,,0,0,0,,M,,M,0,0000*54
[2021-01-29 11:05:43.760] $GPGGA,20542.4,,,,,0,0,0,,M,,M,0,0000*53
[2021-01-29 11:05:43.853] $GPGGA,20542.5,,,,,0,0,0,,M,,M,0,0000*52
[2021-01-29 11:05:43.963] $GPGGA,20542.6,,,,,0,0,0,,M,,M,0,0000*51
[2021-01-29 11:05:44.057] $GPGGA,20542.7,,,,,0,0,0,,M,,M,0,0000*50
[2021-01-29 11:05:44.166] $GPGGA,20542.8,,,,,0,0,0,,M,,M,0,0000*5F
[2021-01-29 11:05:44.260] $GPGGA,20542.9,,,,,0,0,0,,M,,M,0,0000*5E
[2021-01-29 11:05:44.370] $GPGGA,20543,,,,,0,0,0,,M,,M,0,0000*56
[2021-01-29 11:05:44.464] $GPGGA,20543.1,,,,,0,0,0,,M,,M,0,0000*57
[2021-01-29 11:05:44.558] $GPGGA,20543.2,,,,,0,0,0,,M,,M,0,0000*54
[2021-01-29 11:05:44.652] $GPGGA,20543.3,,,,,0,0,0,,M,,M,0,0000*55
[2021-01-29 11:05:44.761] $GPGGA,20543.4,,,,,0,0,0,,M,,M,0,0000*52
[2021-01-29 11:05:44.855] $GPGGA,20543.5,,,,,0,0,0,,M,,M,0,0000*53
[2021-01-29 11:05:44.964] $GPGGA,20543.6,,,,,0,0,0,,M,,M,0,0000*50
[2021-01-29 11:05:45.058] $GPGGA,20543.7,,,,,0,0,0,,M,,M,0,0000*51
[2021-01-29 11:05:45.167] $GPGGA,20543.8,,,,,0,0,0,,M,,M,0,0000*5E
[2021-01-29 11:05:45.269] $GPGGA,20543.9,,,,,0,0,0,,M,,M,0,0000*5F
[2021-01-29 11:05:45.357] $GPGGA,20544,,,,,0,0,0,,M,,M,0,0000*51
[2021-01-29 11:05:45.467] $GPGGA,20544.1,,,,,0,0,0,,M,,M,0,0000*50
[2021-01-29 11:05:45.560] $GPGGA,20544.2,,,,,0,0,0,,M,,M,0,0000*53
[2021-01-29 11:05:45.670] $GPGGA,20544.3,,,,,0,0,0,,M,,M,0,0000*52
[2021-01-29 11:05:45.763] $GPGGA,20544.4,,,,,0,0,0,,M,,M,0,0000*55
[2021-01-29 11:05:45.873] $GPGGA,20544.5,,,,,0,0,0,,M,,M,0,0000*54
[2021-01-29 11:05:45.967] $GPGGA,20544.6,,,,,0,0,0,,M,,M,0,0000*57
[2021-01-29 11:05:46.060] $GPGGA,20544.7,,,,,0,0,0,,M,,M,0,0000*56
[2021-01-29 11:05:46.154] $GPGGA,20544.8,,,,,0,0,0,,M,,M,0,0000*59
[2021-01-29 11:05:46.263] $GPGGA,20544.9,,,,,0,0,0,,M,,M,0,0000*58
[2021-01-29 11:05:46.357] $GPGGA,20545,,,,,0,0,0,,M,,M,0,0000*50
[2021-01-29 11:05:46.466] $GPGGA,20545.1,,,,,0,0,0,,M,,M,0,0000*51
[2021-01-29 11:05:46.560] $GPGGA,20545.2,,,,,0,0,0,,M,,M,0,0000*52
[2021-01-29 11:05:46.669] $GPGGA,20545.3,,,,,0,0,0,,M,,M,0,0000*53
[2021-01-29 11:05:46.763] $GPGGA,20545.4,,,,,0,0,0,,M,,M,0,0000*54
[2021-01-29 11:05:46.857] $GPGGA,20545.5,,,,,0,0,0,,M,,M,0,0000*55
[2021-01-29 11:05:46.966] $GPGGA,20545.6,,,,,0,0,0,,M,,M,0,0000*56
[2021-01-29 11:05:47.060] $GPGGA,20545.7,,,,,0,0,0,,M,,M,0,0000*57
[2021-01-29 11:05:47.169] $GPGGA,20545.8,,,,,0,0,0,,M,,M,0,0000*58
[2021-01-29 11:05:47.265] $GPGGA,20545.9,,,,,0,0,0,,M,,M,0,0000*59
[2021-01-29 11:05:47.358] $GPGGA,20546,,,,,0,0,0,,M,,M,0,0000*53
[2021-01-29 11:05:47.468] $GPGGA,20546.1,,,,,0,0,0,,M,,M,0,0000*52
[2021-01-29 11:05:47.562] $GPGGA,20546.2,,,,,0,0,0,,M,,M,0,0000*51
[2021-01-29 11:05:47.655] $GPGGA,20546.3,,,,,0,0,0,,M,,M,0,0000*50
[2021-01-29 11:05:47.765] $GPGGA,20546.4,,,,,0,0,0,,M,,M,0,0000*57
[2021-01-29 11:05:47.858] $GPGGA,20546.5,,,,,0,0,0,,M,,M,0,0000*56
[2021-01-29 11:05:47.968] $GPGGA,20546.6,,,,,0,0,0,,M,,M,0,0000*55
[2021-01-29 11:05:48.062] $GPGGA,20546.7,,,,,0,0,0,,M,,M,0,0000*54
[2021-01-29 11:05:48.171] $GPGGA,20546.8,,,,,0,0,0,,M,,M,0,0000*5B
[2021-01-29 11:05:48.267] $GPGGA,20546.9,,,,,0,0,0,,M,,M,0,0000*5A
[2021-01-29 11:05:48.360] $GPGGA,20547,,,,,0,0,0,,M,,M,0,0000*52
[2021-01-29 11:05:48.454] $GPGGA,20547.1,,,,,0,0,0,,M,,M,0,0000*53
[2021-01-29 11:05:48.563] $GPGGA,20547.2,,,,,0,0,0,,M,,M,0,0000*50
[2021-01-29 11:05:48.657] $GPGGA,20547.3,,,,,0,0,0,,M,,M,0,0000*51
[2021-01-29 11:05:48.767] $GPGGA,20547.4,,,,,0,0,0,,M,,M,0,0000*56
[2021-01-29 11:05:48.860] $GPGGA,20547.5,,,,,0,0,0,,M,,M,0,0000*57
[2021-01-29 11:05:48.970] $GPGGA,20547.6,,,,,0,0,0,,M,,M,0,0000*54
[2021-01-29 11:05:49.063] $GPGGA,20547.7,,,,,0,0,0,,M,,M,0,0000*55
[2021-01-29 11:05:49.157] $GPGGA,20547.8,,,,,0,0,0,,M,,M,0,0000*5A
[2021-01-29 11:05:49.269] $GPGGA,20547.9,,,,,0,0,0,,M,,M,0,0000*5B
[2021-01-29 11:05:49.363] $GPGGA,20548,,,,,0,0,0,,M,,M,0,0000*5D
[2021-01-29 11:05:49.472] $GPGGA,20548.1,,,,,0,0,0,,M,,M,0,0000*5C
[2021-01-29 11:05:49.566] $GPGGA,20548.2,,,,,0,0,0,,M,,M,0,0000*5F
[2021-01-29 11:05:49.660] $GPGGA,20548.3,,,,,0,0,0,,M,,M,0,0000*5E
[2021-01-29 11:05:49.753] $GPGGA,20548.4,,,,,0,0,0,,M,,M,0,0000*59
[2021-01-29 11:05:49.863] $GPGGA,20548.5,,,,,0,0,0,,M,,M,0,0000*58
[2021-01-29 11:05:49.956] $GPGGA,20548.6,,,,,0,0,0,,M,,M,0,0000*5B
[2021-01-29 11:05:50.066] $GPGGA,20548.7,,,,,0,0,0,,M,,M,0,0000*5A
[2021-01-29 11:05:50.160] $GPGGA,20548.8,,,,,0,0,0,,M,,M,0,0000*55
[2021-01-29 11:05:50.270] $GPGGA,20548.9,,,,,0,0,0,,M,,M,0,0000*54
[2021-01-29 11:05:50.364] $GPGGA,20549,,,,,0,0,0,,M,,M,0,0000*5C
[2021-01-29 11:05:50.489] $GPGGA,20549.1,,,,,0,0,0,,M,,M,0,0000*5D
[2021-01-29 11:05:50.567] $GPGGA,20549.2,,,,,0,0,0,,M,,M,0,0000*5E
[2021-01-29 11:05:50.661] $GPGGA,20549.3,4327.731888,N,14148.33076,E,1,7,1.6,119.8199,M,31.83,M,,*65
[2021-01-29 11:05:50.770] $GPGGA,20549.4,4327.731921,N,14148.33081,E,1,7,1.6,119.8377,M,31.83,M,,*64
[2021-01-29 11:05:50.864] $GPGGA,20549.5,4327.731898,N,14148.33082,E,1,7,1.6,119.5269,M,31.83,M,,*6E
[2021-01-29 11:05:50.973] $GPGGA,20549.6,4327.731891,N,14148.33082,E,1,7,1.6,119.2178,M,31.83,M,,*68
[2021-01-29 11:05:51.067] $GPGGA,20549.7,4327.731895,N,14148.33081,E,1,7,1.6,119.1205,M,31.83,M,,*60
[2021-01-29 11:05:51.176] $GPGGA,20549.8,4327.731975,N,14148.33076,E,1,7,1.6,119.7635,M,31.83,M,,*62
[2021-01-29 11:05:51.271] $GPGGA,20549.9,4327.731934,N,14148.33077,E,1,7,1.6,119.7555,M,31.83,M,,*6C
[2021-01-29 11:05:51.365] $GPGGA,20550,4327.73184,N,14148.33085,E,1,7,1.6,120.1945,M,31.83,M,,*65
[2021-01-29 11:05:51.459] $GPGGA,20550.1,4327.731743,N,14148.33085,E,1,7,1.6,120.0417,M,31.83,M,,*6F
[2021-01-29 11:05:51.568] $GPGGA,20550.2,4327.731781,N,14148.33088,E,1,7,1.6,120.2026,M,31.83,M,,*64
[2021-01-29 11:05:51.662] $GPGGA,20550.3,4327.731893,N,14148.33091,E,1,7,1.6,120.6081,M,31.83,M,,*67
[2021-01-29 11:05:51.771] $GPGGA,20550.4,4327.731841,N,14148.33086,E,1,7,1.6,120.2471,M,31.83,M,,*6F
[2021-01-29 11:05:51.865] $GPGGA,20550.5,4327.731791,N,14148.33098,E,1,7,1.6,119.97,M,31.83,M,,*69
[2021-01-29 11:05:51.974] $GPGGA,20550.6,4327.731892,N,14148.33098,E,1,7,1.6,120.4698,M,31.83,M,,*66
[2021-01-29 11:05:52.068] $GPGGA,20550.7,4327.731935,N,14148.33095,E,1,7,1.6,120.8881,M,31.83,M,,*62
[2021-01-29 11:05:52.162] $GPGGA,20550.8,4327.732063,N,14148.33083,E,1,7,1.6,120.7434,M,31.83,M,,*6E
[2021-01-29 11:05:52.274] $GPGGA,20550.9,4327.732217,N,14148.33075,E,1,7,1.6,120.8537,M,31.83,M,,*6A
[2021-01-29 11:05:52.368] $GPGGA,20551,4327.732231,N,14148.33066,E,1,7,1.6,120.9366,M,31.83,M,,*66
[2021-01-29 11:05:52.477] $GPGGA,20551.1,4327.732208,N,14148.33064,E,1,7,1.6,120.8738,M,31.83,M,,*6C
[2021-01-29 11:05:52.555] $GPGGA,20551.2,4327.732313,N,14148.33046,E,1,7,1.6,120.064,M,31.83,M,,*69
[2021-01-29 11:05:52.664] $GPGGA,20551.3,4327.732162,N,14148.33059,E,1,7,1.6,120.1716,M,31.83,M,,*62
[2021-01-29 11:05:52.758] $GPGGA,20551.4,4327.732014,N,14148.33061,E,1,7,1.6,119.4701,M,31.83,M,,*6E
[2021-01-29 11:05:52.868] $GPGGA,20551.5,4327.731881,N,14148.33067,E,1,7,1.6,119.3981,M,31.83,M,,*6C
[2021-01-29 11:05:52.961] $GPGGA,20551.6,4327.73184,N,14148.33075,E,1,7,1.6,119.1365,M,31.83,M,,*63
[2021-01-29 11:05:53.071] $GPGGA,20551.7,4327.731966,N,14148.3307,E,1,7,1.6,119.8361,M,31.83,M,,*6A
[2021-01-29 11:05:53.164] $GPGGA,20551.8,4327.731917,N,14148.33071,E,1,7,1.6,119.4921,M,31.83,M,,*68
[2021-01-29 11:05:53.276] $GPGGA,20551.9,4327.7318,N,14148.33093,E,1,7,1.6,119.6854,M,31.83,M,,*60
[2021-01-29 11:05:53.354] $GPGGA,20552,4327.731948,N,14148.33092,E,1,7,1.6,119.3699,M,31.83,M,,*6C
[2021-01-29 11:05:53.463] $GPGGA,20552.1,4327.73192,N,14148.33078,E,1,7,1.6,119.1411,M,31.83,M,,*66
[2021-01-29 11:05:53.572] $GPGGA,20552.2,4327.731874,N,14148.33088,E,1,7,1.6,119.5157,M,31.83,M,,*63
[2021-01-29 11:05:53.666] $GPGGA,20552.3,4327.732016,N,14148.33073,E,1,7,1.6,119.3825,M,31.83,M,,*65
[2021-01-29 11:05:53.760] $GPGGA,20552.4,4327.732012,N,14148.33066,E,1,7,1.6,119.4954,M,31.83,M,,*6F
[2021-01-29 11:05:53.869] $GPGGA,20552.5,4327.731938,N,14148.33079,E,1,7,1.6,119.9714,M,31.83,M,,*62
[2021-01-29 11:05:53.963] $GPGGA,20552.6,4327.731943,N,14148.33079,E,1,7,1.6,119.8979,M,31.83,M,,*6C
[2021-01-29 11:05:54.072] $GPGGA,20552.7,4327.732064,N,14148.33082,E,1,7,1.6,120.0799,M,31.83,M,,*69
[2021-01-29 11:05:54.166] $GPGGA,20552.8,4327.732091,N,14148.33065,E,1,7,1.6,120.0706,M,31.83,M,,*61
[2021-01-29 11:05:54.269] $GPGGA,20552.9,4327.732107,N,14148.33069,E,1,7,1.6,120.0858,M,31.83,M,,*6C
[2021-01-29 11:05:54.370] $GPGGA,20553,4327.732081,N,14148.33068,E,1,7,1.6,120.2778,M,31.83,M,,*64
[2021-01-29 11:05:54.464] $GPGGA,20553.1,4327.732081,N,14148.33059,E,1,7,1.6,120.2339,M,31.83,M,,*6F
[2021-01-29 11:05:54.558] $GPGGA,20553.2,4327.732169,N,14148.33059,E,1,7,1.6,120.2179,M,31.83,M,,*6B
[2021-01-29 11:05:54.667] $GPGGA,20553.3,4327.732162,N,14148.33062,E,1,7,1.6,120.345,M,31.83,M,,*6A
[2021-01-29 11:05:54.761] $GPGGA,20553.4,4327.732066,N,14148.33065,E,1,7,1.6,120.2952,M,31.83,M,,*6D
[2021-01-29 11:05:54.870] $GPGGA,20553.5,4327.732015,N,14148.33076,E,1,7,1.6,120.4804,M,31.83,M,,*64
[2021-01-29 11:05:54.964] $GPGGA,20553.6,4327.732094,N,14148.33079,E,1,7,1.6,120.4176,M,31.83,M,,*6F
[2021-01-29 11:05:55.058] $GPGGA,20553.7,4327.732072,N,14148.33086,E,1,7,1.6,120.2764,M,31.83,M,,*6A
[2021-01-29 11:05:55.167] $GPGGA,20553.8,4327.732186,N,14148.33073,E,1,7,1.6,120.3402,M,31.83,M,,*64
[2021-01-29 11:05:55.271] $GPGGA,20553.9,4327.732225,N,14148.33088,E,1,7,1.6,120.8323,M,31.83,M,,*68
[2021-01-29 11:05:55.371] $GPGGA,20554,4327.732091,N,14148.33094,E,1,7,1.6,120.0744,M,31.83,M,,*6A
[2021-01-29 11:05:55.465] $GPGGA,20554.1,4327.732062,N,14148.33093,E,1,7,1.6,119.944,M,31.83,M,,*64
[2021-01-29 11:05:55.575] $GPGGA,20554.2,4327.731933,N,14148.33107,E,1,7,1.6,119.9472,M,31.83,M,,*6A
[2021-01-29 11:05:55.668] $GPGGA,20554.3,4327.732031,N,14148.33098,E,1,7,1.6,120.145,M,31.83,M,,*6E
[2021-01-29 11:05:55.762] $GPGGA,20554.4,4327.732067,N,14148.331,E,1,7,1.6,120.0226,M,31.83,M,,*6A
[2021-01-29 11:05:55.871] $GPGGA,20554.5,4327.732149,N,14148.33091,E,1,7,1.6,120.701,M,31.83,M,,*69
[2021-01-29 11:05:55.965] $GPGGA,20554.6,4327.732005,N,14148.3311,E,1,7,1.6,120.3188,M,31.83,M,,*6A
[2021-01-29 11:05:56.075] $GPGGA,20554.7,4327.732093,N,14148.33103,E,1,7,1.6,120.3956,M,31.83,M,,*6A
[2021-01-29 11:05:56.168] $GPGGA,20554.8,4327.73203,N,14148.33108,E,1,7,1.6,120.7597,M,31.83,M,,*60
[2021-01-29 11:05:56.262] $GPGGA,20554.9,4327.732087,N,14148.33102,E,1,7,1.6,120.7199,M,31.83,M,,*6F
[2021-01-29 11:05:56.372] $GPGGA,20555,4327.732043,N,14148.33098,E,1,7,1.6,120.465,M,31.83,M,,*6E
[2021-01-29 11:05:56.466] $GPGGA,20555.1,4327.731975,N,14148.33101,E,1,7,1.6,120.8375,M,31.83,M,,*6B
[2021-01-29 11:05:56.559] $GPGGA,20555.2,4327.732092,N,14148.3309,E,1,7,1.6,120.6809,M,31.83,M,,*66
[2021-01-29 11:05:56.669] $GPGGA,20555.3,4327.732014,N,14148.33098,E,1,7,1.6,120.5455,M,31.83,M,,*6B
[2021-01-29 11:05:56.762] $GPGGA,20555.4,4327.732089,N,14148.33085,E,1,7,1.6,120.941,M,31.83,M,,*6A
[2021-01-29 11:05:56.872] $GPGGA,20555.5,4327.732135,N,14148.33086,E,1,7,1.6,121.0374,M,31.83,M,,*68
[2021-01-29 11:05:56.966] $GPGGA,20555.6,4327.732001,N,14148.33084,E,1,7,1.6,121.0069,M,31.83,M,,*69
[2021-01-29 11:05:57.059] $GPGGA,20555.7,4327.732071,N,14148.33075,E,1,7,1.6,120.746,M,31.83,M,,*69
[2021-01-29 11:05:57.169] $GPGGA,20555.8,4327.732144,N,14148.33079,E,1,7,1.6,120.5471,M,31.83,M,,*61
[2021-01-29 11:05:57.264] $GPGGA,20555.9,4327.732241,N,14148.33084,E,1,7,1.6,120.3921,M,31.83,M,,*6F
[2021-01-29 11:05:57.358] $GPGGA,20556,4327.732184,N,14148.33075,E,1,7,1.6,120.2407,M,31.83,M,,*63
[2021-01-29 11:05:57.467] $GPGGA,20556.1,4327.732097,N,14148.3309,E,1,7,1.6,120.1975,M,31.83,M,,*68
[2021-01-29 11:05:57.561] $GPGGA,20556.2,4327.731953,N,14148.33108,E,1,7,1.6,120.0121,M,31.83,M,,*68
[2021-01-29 11:05:57.670] $GPGGA,20556.3,4327.731955,N,14148.33107,E,1,7,1.6,120.2923,M,31.83,M,,*6A
[2021-01-29 11:05:57.764] $GPGGA,20556.4,4327.731897,N,14148.33115,E,1,7,1.6,120.7571,M,31.83,M,,*60
[2021-01-29 11:05:57.858] $GPGGA,20556.5,4327.732001,N,14148.33103,E,1,7,1.6,120.6521,M,31.83,M,,*62
[2021-01-29 11:05:57.967] $GPGGA,20556.6,4327.731988,N,14148.33096,E,1,7,1.6,120.2721,M,31.83,M,,*64
[2021-01-29 11:05:58.061] $GPGGA,20556.7,4327.731956,N,14148.33096,E,1,7,1.6,120.3586,M,31.83,M,,*6D
[2021-01-29 11:05:58.170] $GPGGA,20556.8,4327.731899,N,14148.33101,E,1,7,1.6,120.6367,M,31.83,M,,*67
[2021-01-29 11:05:58.266] $GPGGA,20556.9,4327.731869,N,14148.33099,E,1,7,1.6,120.6464,M,31.83,M,,*6D
[2021-01-29 11:05:58.359] $GPGGA,20557,4327.731912,N,14148.33105,E,1,7,1.6,120.4913,M,31.83,M,,*6A
[2021-01-29 11:05:58.469] $GPGGA,20557.1,4327.731819,N,14148.33108,E,1,7,1.6,120.6021,M,31.83,M,,*64
[2021-01-29 11:05:58.563] $GPGGA,20557.2,4327.731743,N,14148.33116,E,1,7,1.6,120.7606,M,31.83,M,,*6E
[2021-01-29 11:05:58.656] $GPGGA,20557.3,4327.73191,N,14148.33108,E,1,7,1.6,120.9893,M,31.83,M,,*65
[2021-01-29 11:05:58.766] $GPGGA,20557.4,4327.731846,N,14148.33109,E,1,7,1.6,120.5213,M,31.83,M,,*6F
[2021-01-29 11:05:58.859] $GPGGA,20557.5,4327.731875,N,14148.33114,E,1,7,1.6,120.9374,M,31.83,M,,*6D
[2021-01-29 11:05:58.969] $GPGGA,20557.6,4327.731816,N,14148.33115,E,1,7,1.6,120.6966,M,31.83,M,,*6A
[2021-01-29 11:05:59.062] $GPGGA,20557.7,4327.731783,N,14148.33112,E,1,7,1.6,120.7495,M,31.83,M,,*6D
[2021-01-29 11:05:59.156] $GPGGA,20557.8,4327.731823,N,14148.33104,E,1,7,1.6,120.8942,M,31.83,M,,*6A
[2021-01-29 11:05:59.268] $GPGGA,20557.9,4327.731862,N,14148.33101,E,1,7,1.6,121.3199,M,31.83,M,,*6E
[2021-01-29 11:05:59.362] $GPGGA,20558,4327.732092,N,14148.33077,E,1,7,1.6,121.1065,M,31.83,M,,*68
[2021-01-29 11:05:59.471] $GPGGA,20558.1,4327.732093,N,14148.33076,E,1,7,1.6,120.709,M,31.83,M,,*62
[2021-01-29 11:05:59.565] $GPGGA,20558.2,4327.73208,N,14148.33071,E,1,7,1.6,120.9531,M,31.83,M,,*61
[2021-01-29 11:05:59.659] $GPGGA,20558.3,4327.732084,N,14148.33071,E,1,7,1.6,120.8905,M,31.83,M,,*6D
[2021-01-29 11:05:59.768] $GPGGA,20558.4,4327.732068,N,14148.33076,E,1,7,1.6,121.2446,M,31.83,M,,*60
[2021-01-29 11:05:59.877] $GPGGA,20558.5,4327.732117,N,14148.33078,E,1,7,1.6,121.5421,M,31.83,M,,*62
[2021-01-29 11:05:59.971] $GPGGA,20558.6,4327.732056,N,14148.33085,E,1,7,1.6,121.2615,M,31.83,M,,*67
[2021-01-29 11:06:00.065] $GPGGA,20558.7,4327.732002,N,14148.33087,E,1,7,1.6,120.6731,M,31.83,M,,*61
[2021-01-29 11:06:00.159] $GPGGA,20558.8,4327.732004,N,14148.33093,E,1,7,1.6,120.8233,M,31.83,M,,*63
[2021-01-29 11:06:00.269] $GPGGA,20558.9,4327.731916,N,14148.3309,E,1,7,1.6,120.136,M,31.83,M,,*6F
[2021-01-29 11:06:00.363] $GPGGA,20559,4327.731932,N,14148.33074,E,1,7,1.6,119.6114,M,31.83,M,,*60
[2021-01-29 11:06:00.472] $GPGGA,20559.1,4327.731877,N,14148.33072,E,1,7,1.6,119.5506,M,31.83,M,,*65
[2021-01-29 11:06:00.566] $GPGGA,20559.2,4327.731852,N,14148.33077,E,1,7,1.6,119.7796,M,31.83,M,,*6F
[2021-01-29 11:06:00.660] $GPGGA,20559.3,4327.731782,N,14148.33081,E,1,7,1.6,119.8283,M,31.83,M,,*6C
[2021-01-29 11:06:00.769] $GPGGA,20559.4,4327.731797,N,14148.33077,E,1,7,1.6,120.0027,M,31.83,M,,*65
[2021-01-29 11:06:00.863] $GPGGA,20559.5,4327.731799,N,14148.33079,E,1,7,1.6,119.7827,M,31.83,M,,*68
[2021-01-29 11:06:00.956] $GPGGA,20559.6,4327.731766,N,14148.33077,E,1,7,1.6,119.6632,M,31.83,M,,*6C
[2021-01-29 11:06:01.066] $GPGGA,20559.7,4327.73177,N,14148.33084,E,1,7,1.6,119.8794,M,31.83,M,,*64
[2021-01-29 11:06:01.160] $GPGGA,20559.8,4327.731809,N,14148.33089,E,1,7,1.6,120.2909,M,31.83,M,,*68
[2021-01-29 11:06:01.270] $GPGGA,20559.9,4327.731711,N,14148.33085,E,1,7,1.6,120.1297,M,31.83,M,,*65
[2021-01-29 11:06:01.367] $GPGGA,20600,4327.731539,N,14148.33086,E,1,8,1.6,120.0986,M,31.83,M,,*6B
[2021-01-29 11:06:01.461] $GPGGA,20600.1,4327.731587,N,14148.33085,E,1,8,1.6,119.5815,M,31.83,M,,*65
[2021-01-29 11:06:01.570] $GPGGA,20600.2,4327.731707,N,14148.33077,E,1,8,1.6,119.5875,M,31.83,M,,*6C
[2021-01-29 11:06:01.664] $GPGGA,20600.3,4327.731835,N,14148.33076,E,1,8,1.6,119.195,M,31.83,M,,*6A
[2021-01-29 11:06:01.773] $GPGGA,20600.4,4327.73186,N,14148.33077,E,1,8,1.6,119.4996,M,31.83,M,,*61
[2021-01-29 11:06:01.867] $GPGGA,20600.5,4327.731759,N,14148.33076,E,1,8,1.6,119.8226,M,31.83,M,,*6B
[2021-01-29 11:06:01.961] $GPGGA,20600.6,4327.731859,N,14148.33085,E,1,8,1.6,119.8821,M,31.83,M,,*64
[2021-01-29 11:06:02.070] $GPGGA,20600.7,4327.73013,N,14148.33047,E,1,9,1.4,105.0771,M,31.83,M,,*6A
[2021-01-29 11:06:02.164] $GPGGA,20600.8,4327.730126,N,14148.33047,E,1,9,1.4,105.4702,M,31.83,M,,*69
[2021-01-29 11:06:02.272] $GPGGA,20600.9,4327.73016,N,14148.33041,E,1,9,1.4,105.6973,M,31.83,M,,*64
[2021-01-29 11:06:02.366] $GPGGA,20601,4327.730154,N,14148.3304,E,1,9,1.4,105.4786,M,31.83,M,,*6A
[2021-01-29 11:06:02.460] $GPGGA,20601.1,4327.730144,N,14148.33031,E,1,9,1.4,105.2556,M,31.83,M,,*68
[2021-01-29 11:06:02.569] $GPGGA,20601.2,4327.730112,N,14148.33035,E,1,9,1.4,105.4011,M,31.83,M,,*64
[2021-01-29 11:06:02.663] $GPGGA,20601.3,4327.72967,N,14148.33034,E,1,10,1.4,103.9917,M,31.83,M,,*67
[2021-01-29 11:06:02.772] $GPGGA,20601.4,4327.729637,N,14148.33038,E,1,10,1.4,104.045,M,31.83,M,,*6C
[2021-01-29 11:06:02.866] $GPGGA,20601.5,4327.729694,N,14148.33026,E,1,10,1.4,103.8225,M,31.83,M,,*60
[2021-01-29 11:06:02.960] $GPGGA,20601.6,4327.729712,N,14148.33023,E,1,10,1.4,103.7006,M,31.83,M,,*6C
[2021-01-29 11:06:03.069] $GPGGA,20601.7,4327.729669,N,14148.33017,E,1,10,1.4,103.6437,M,31.83,M,,*6A
[2021-01-29 11:06:03.163] $GPGGA,20601.8,4327.729724,N,14148.33021,E,1,10,1.4,103.9664,M,31.83,M,,*65
[2021-01-29 11:06:03.274] $GPGGA,20601.9,4327.729633,N,14148.33013,E,1,10,1.4,103.7913,M,31.83,M,,*61
[2021-01-29 11:06:03.368] $GPGGA,20602,4327.72987,N,14148.3299,E,1,11,1.3,103.194,M,31.83,M,,*6D
[2021-01-29 11:06:03.461] $GPGGA,20602.1,4327.729853,N,14148.33002,E,1,11,1.3,103.3397,M,31.83,M,,*65
[2021-01-29 11:06:03.571] $GPGGA,20602.2,4327.729837,N,14148.33004,E,1,11,1.3,103.2105,M,31.83,M,,*6B
[2021-01-29 11:06:03.664] $GPGGA,20602.3,4327.729834,N,14148.3301,E,1,11,1.3,103.3295,M,31.83,M,,*6F
[2021-01-29 11:06:03.758] $GPGGA,20602.4,4327.729809,N,14148.33007,E,1,11,1.3,103.3074,M,31.83,M,,*62
[2021-01-29 11:06:03.868] $GPGGA,20602.5,4327.729923,N,14148.32998,E,1,11,1.3,103.3072,M,31.83,M,,*6E
[2021-01-29 11:06:03.961] $GPGGA,20602.6,4327.729934,N,14148.33002,E,1,11,1.3,103.3137,M,31.83,M,,*65
[2021-01-29 11:06:04.071] $GPGGA,20602.7,4327.730006,N,14148.32998,E,1,11,1.3,103.4511,M,31.83,M,,*6B
[2021-01-29 11:06:04.164] $GPGGA,20602.8,4327.729903,N,14148.32997,E,1,11,1.3,103.4017,M,31.83,M,,*62
[2021-01-29 11:06:04.267] $GPGGA,20602.9,4327.729902,N,14148.32995,E,1,11,1.3,103.2905,M,31.83,M,,*68
[2021-01-29 11:06:04.370] $GPGGA,20603,4327.729901,N,14148.32997,E,1,11,1.3,103.1325,M,31.83,M,,*67
[2021-01-29 11:06:04.464] $GPGGA,20603.1,4327.729903,N,14148.32999,E,1,11,1.3,103.0533,M,31.83,M,,*60
[2021-01-29 11:06:04.558] $GPGGA,20603.2,4327.729884,N,14148.32998,E,1,11,1.3,102.7128,M,31.83,M,,*65
[2021-01-29 11:06:04.667] $GPGGA,20603.3,4327.729896,N,14148.33001,E,1,11,1.3,102.5253,M,31.83,M,,*66
[2021-01-29 11:06:04.761] $GPGGA,20603.4,4327.72991,N,14148.33007,E,1,11,1.3,103.235,M,31.83,M,,*6E
[2021-01-29 11:06:04.870] $GPGGA,20603.5,4327.729807,N,14148.3301,E,1,11,1.3,103.0261,M,31.83,M,,*6A
[2021-01-29 11:06:04.964] $GPGGA,20603.6,4327.729803,N,14148.33014,E,1,11,1.3,103.3911,M,31.83,M,,*62
[2021-01-29 11:06:05.073] $GPGGA,20603.7,4327.729792,N,14148.33012,E,1,11,1.3,103.4858,M,31.83,M,,*6E
[2021-01-29 11:06:05.167] $GPGGA,20603.8,4327.729774,N,14148.33005,E,1,11,1.3,103.8709,M,31.83,M,,*6C
[2021-01-29 11:06:05.270] $GPGGA,20603.9,4327.729824,N,14148.33,E,1,11,1.3,104.1683,M,31.83,M,,*6A
[2021-01-29 11:06:05.373] $GPGGA,20604,4327.729848,N,14148.32998,E,1,11,1.3,103.6412,M,31.83,M,,*6B
[2021-01-29 11:06:05.467] $GPGGA,20604.1,4327.729731,N,14148.32995,E,1,11,1.3,104.0488,M,31.83,M,,*69
[2021-01-29 11:06:05.561] $GPGGA,20604.2,4327.729747,N,14148.32999,E,1,11,1.3,104.2354,M,31.83,M,,*69
[2021-01-29 11:06:05.670] $GPGGA,20604.3,4327.729795,N,14148.32996,E,1,11,1.3,104.1847,M,31.83,M,,*66
[2021-01-29 11:06:05.764] $GPGGA,20604.4,4327.729813,N,14148.33001,E,1,11,1.3,104.1169,M,31.83,M,,*68
[2021-01-29 11:06:05.858] $GPGGA,20604.5,4327.729839,N,14148.33003,E,1,11,1.3,104.1,M,31.83,M,,*61
[2021-01-29 11:06:05.967] $GPGGA,20604.6,4327.729928,N,14148.33003,E,1,11,1.3,103.6538,M,31.83,M,,*6F
[2021-01-29 11:06:06.061] $GPGGA,20604.7,4327.729908,N,14148.32997,E,1,11,1.3,103.8502,M,31.83,M,,*6D
[2021-01-29 11:06:06.170] $GPGGA,20604.8,4327.729714,N,14148.32966,E,1,12,1.2,105.1879,M,31.83,M,,*63
[2021-01-29 11:06:06.262] $GPGGA,20604.9,4327.729745,N,14148.32968,E,1,12,1.2,105.3167,M,31.83,M,,*64
[2021-01-29 11:06:06.371] $GPGGA,20605,4327.729753,N,14148.3297,E,1,12,1.2,105.5823,M,31.83,M,,*6D
[2021-01-29 11:06:06.465] $GPGGA,20605.1,4327.72987,N,14148.3296,E,1,12,1.2,105.3575,M,31.83,M,,*62
[2021-01-29 11:06:06.559] $GPGGA,20605.2,4327.729851,N,14148.32964,E,1,12,1.2,105.5161,M,31.83,M,,*62
[2021-01-29 11:06:06.668] $GPGGA,20605.3,4327.729776,N,14148.32963,E,1,12,1.2,105.8381,M,31.83,M,,*6D
[2021-01-29 11:06:06.762] $GPGGA,20605.4,4327.729787,N,14148.3297,E,1,12,1.2,105.9001,M,31.83,M,,*69
[2021-01-29 11:06:06.871] $GPGGA,20605.5,4327.729775,N,14148.32968,E,1,12,1.2,105.8613,M,31.83,M,,*61
[2021-01-29 11:06:06.965] $GPGGA,20605.6,4327.729798,N,14148.32974,E,1,12,1.2,105.818,M,31.83,M,,*67
[2021-01-29 11:06:07.059] $GPGGA,20605.7,4327.72981,N,14148.32978,E,1,12,1.2,106.2445,M,31.83,M,,*6D
[2021-01-29 11:06:07.168] $GPGGA,20605.8,4327.729876,N,14148.32972,E,1,12,1.2,106.2278,M,31.83,M,,*63
[2021-01-29 11:06:07.271] $GPGGA,20605.9,4327.729857,N,14148.32961,E,1,12,1.2,105.9128,M,31.83,M,,*6E
[2021-01-29 11:06:07.359] $GPGGA,20606,4327.729887,N,14148.32958,E,1,12,1.2,106.1456,M,31.83,M,,*6C
[2021-01-29 11:06:07.468] $GPGGA,20606.1,4327.729852,N,14148.32961,E,1,12,1.2,106.2622,M,31.83,M,,*64
[2021-01-29 11:06:07.562] $GPGGA,20606.2,4327.729813,N,14148.32962,E,1,12,1.2,105.9024,M,31.83,M,,*60
[2021-01-29 11:06:07.671] $GPGGA,20606.3,4327.729832,N,14148.32964,E,1,12,1.2,106.1707,M,31.83,M,,*64
[2021-01-29 11:06:07.765] $GPGGA,20606.4,4327.729861,N,14148.32966,E,1,12,1.2,105.9475,M,31.83,M,,*69
[2021-01-29 11:06:07.859] $GPGGA,20606.5,4327.729708,N,14148.32969,E,1,12,1.2,105.9049,M,31.83,M,,*6A
[2021-01-29 11:06:07.968] $GPGGA,20606.6,4327.729732,N,14148.32969,E,1,12,1.2,105.3412,M,31.83,M,,*69
[2021-01-29 11:06:08.062] $GPGGA,20606.7,4327.729681,N,14148.32971,E,1,12,1.2,105.8543,M,31.83,M,,*62
[2021-01-29 11:06:08.171] $GPGGA,20606.8,4327.729656,N,14148.32972,E,1,12,1.2,105.1831,M,31.83,M,,*60
[2021-01-29 11:06:08.265] $GPGGA,20606.9,4327.729649,N,14148.32969,E,1,12,1.2,104.9691,M,31.83,M,,*64
[2021-01-29 11:06:08.375] $GPGGA,20607,4327.729682,N,14148.32961,E,1,12,1.2,105.2081,M,31.83,M,,*69
[2021-01-29 11:06:08.468] $GPGGA,20607.1,4327.729629,N,14148.32962,E,1,12,1.2,104.7779,M,31.83,M,,*6D
[2021-01-29 11:06:08.562] $GPGGA,20607.2,4327.729723,N,14148.32968,E,1,12,1.2,105.1657,M,31.83,M,,*64
[2021-01-29 11:06:08.671] $GPGGA,20607.3,4327.729669,N,14148.32968,E,1,12,1.2,105.3849,M,31.83,M,,*6F
[2021-01-29 11:06:08.765] $GPGGA,20607.4,4327.729689,N,14148.32969,E,1,12,1.2,105.376,M,31.83,M,,*6B
[2021-01-29 11:06:08.859] $GPGGA,20607.5,4327.729626,N,14148.32964,E,1,12,1.2,105.3437,M,31.83,M,,*65
[2021-01-29 11:06:08.968] $GPGGA,20607.6,4327.729606,N,14148.32963,E,1,12,1.2,105.2169,M,31.83,M,,*68
[2021-01-29 11:06:09.062] $GPGGA,20607.7,4327.729709,N,14148.3296,E,1,12,1.2,104.9396,M,31.83,M,,*6F
[2021-01-29 11:06:09.171] $GPGGA,20607.8,4327.72968,N,14148.3296,E,1,12,1.2,104.9525,M,31.83,M,,*6D
[2021-01-29 11:06:09.267] $GPGGA,20607.9,4327.729697,N,14148.32964,E,1,12,1.2,104.7149,M,31.83,M,,*62
[2021-01-29 11:06:09.360] $GPGGA,20608,4327.729724,N,14148.32965,E,1,12,1.2,104.2643,M,31.83,M,,*60
[2021-01-29 11:06:09.470] $GPGGA,20608.1,4327.729659,N,14148.32959,E,1,12,1.2,104.108,M,31.83,M,,*65
[2021-01-29 11:06:09.564] $GPGGA,20608.2,4327.72959,N,14148.3296,E,1,12,1.2,104.6013,M,31.83,M,,*63
[2021-01-29 11:06:09.657] $GPGGA,20608.3,4327.729614,N,14148.32963,E,1,12,1.2,104.9522,M,31.83,M,,*65
[2021-01-29 11:06:09.767] $GPGGA,20608.4,4327.72963,N,14148.32969,E,1,12,1.2,105.1101,M,31.83,M,,*6A
[2021-01-29 11:06:09.860] $GPGGA,20608.5,4327.729605,N,14148.3298,E,1,12,1.2,104.7212,M,31.83,M,,*62
[2021-01-29 11:06:09.970] $GPGGA,20608.6,4327.729648,N,14148.32972,E,1,12,1.2,104.7569,M,31.83,M,,*61
[2021-01-29 11:06:10.064] $GPGGA,20608.7,4327.729616,N,14148.32975,E,1,12,1.2,105.2398,M,31.83,M,,*6A
[2021-01-29 11:06:10.173] $GPGGA,20608.8,4327.729655,N,14148.32972,E,1,12,1.2,105.449,M,31.83,M,,*63
[2021-01-29 11:06:10.268] $GPGGA,20608.9,4327.729619,N,14148.32968,E,1,12,1.2,105.572,M,31.83,M,,*6D
[2021-01-29 11:06:10.362] $GPGGA,20609,4327.729575,N,14148.3297,E,1,12,1.2,105.6682,M,31.83,M,,*6E
[2021-01-29 11:06:10.471] $GPGGA,20609.1,4327.729595,N,14148.3298,E,1,12,1.2,105.762,M,31.83,M,,*6D
[2021-01-29 11:06:10.565] $GPGGA,20609.2,4327.729555,N,14148.32974,E,1,12,1.2,105.8917,M,31.83,M,,*6F
[2021-01-29 11:06:10.675] $GPGGA,20609.3,4327.72961,N,14148.32972,E,1,12,1.2,105.6822,M,31.83,M,,*6C
[2021-01-29 11:06:10.768] $GPGGA,20609.4,4327.729681,N,14148.32965,E,1,12,1.2,105.389,M,31.83,M,,*6E
[2021-01-29 11:06:10.862] $GPGGA,20609.5,4327.729699,N,14148.32974,E,1,12,1.2,105.4123,M,31.83,M,,*69
[2021-01-29 11:06:10.971] $GPGGA,20609.6,4327.729662,N,14148.32977,E,1,12,1.2,105.3814,M,31.83,M,,*69
[2021-01-29 11:06:11.081] $GPGGA,20609.7,4327.729603,N,14148.32975,E,1,12,1.2,104.864,M,31.83,M,,*6E
[2021-01-29 11:06:11.159] $GPGGA,20609.8,4327.729644,N,14148.32974,E,1,12,1.2,104.418,M,31.83,M,,*6D
[2021-01-29 11:06:11.273] $GPGGA,20609.9,4327.729631,N,14148.32966,E,1,12,1.2,105.0063,M,31.83,M,,*61
[2021-01-29 11:06:11.365] $GPGGA,20610,4327.729554,N,14148.32964,E,1,12,1.2,105.0208,M,31.83,M,,*62
[2021-01-29 11:06:11.474] $GPGGA,20610.1,4327.72956,N,14148.32967,E,1,12,1.2,104.6193,M,31.83,M,,*68
[2021-01-29 11:06:11.568] $GPGGA,20610.2,4327.729565,N,14148.32963,E,1,12,1.2,104.5271,M,31.83,M,,*6D
[2021-01-29 11:06:11.662] $GPGGA,20610.3,4327.729587,N,14148.32964,E,1,12,1.2,104.9537,M,31.83,M,,*6C
[2021-01-29 11:06:11.771] $GPGGA,20610.4,4327.729584,N,14148.32964,E,1,12,1.2,105.3431,M,31.83,M,,*6A
[2021-01-29 11:06:11.865] $GPGGA,20610.5,4327.729712,N,14148.32966,E,1,12,1.2,105.3509,M,31.83,M,,*65
[2021-01-29 11:06:11.974] $GPGGA,20610.6,4327.729727,N,14148.3297,E,1,12,1.2,105.3235,M,31.83,M,,*6A
[2021-01-29 11:06:12.068] $GPGGA,20610.7,4327.729523,N,14148.32995,E,1,13,1.1,105.883,M,31.83,M,,*65
[2021-01-29 11:06:12.162] $GPGGA,20610.8,4327.729501,N,14148.32995,E,1,13,1.1,105.8735,M,31.83,M,,*6B
[2021-01-29 11:06:12.272] $GPGGA,20610.9,4327.729479,N,14148.32999,E,1,13,1.1,106.008,M,31.83,M,,*66
[2021-01-29 11:06:12.366] $GPGGA,20611,4327.729501,N,14148.32992,E,1,13,1.1,105.7206,M,31.83,M,,*6B
[2021-01-29 11:06:12.459] $GPGGA,20611.1,4327.729445,N,14148.32989,E,1,13,1.1,105.7697,M,31.83,M,,*63
[2021-01-29 11:06:12.569] $GPGGA,20611.2,4327.729393,N,14148.32981,E,1,13,1.1,105.8482,M,31.83,M,,*65
[2021-01-29 11:06:12.663] $GPGGA,20611.3,4327.729413,N,14148.32979,E,1,13,1.1,105.8268,M,31.83,M,,*63
[2021-01-29 11:06:12.772] $GPGGA,20611.4,4327.729366,N,14148.3298,E,1,13,1.1,105.8837,M,31.83,M,,*62
[2021-01-29 11:06:12.866] $GPGGA,20611.5,4327.729351,N,14148.32982,E,1,13,1.1,105.7842,M,31.83,M,,*63
[2021-01-29 11:06:12.975] $GPGGA,20611.6,4327.729356,N,14148.32983,E,1,13,1.1,105.5068,M,31.83,M,,*6D
[2021-01-29 11:06:13.069] $GPGGA,20611.7,4327.72951,N,14148.32973,E,1,13,1.1,105.2746,M,31.83,M,,*67
[2021-01-29 11:06:13.163] $GPGGA,20611.8,4327.729537,N,14148.32983,E,1,13,1.1,105.0666,M,31.83,M,,*69
[2021-01-29 11:06:13.274] $GPGGA,20611.9,4327.72954,N,14148.32988,E,1,13,1.1,105.129,M,31.83,M,,*64
[2021-01-29 11:06:13.368] $GPGGA,20612,4327.729496,N,14148.32985,E,1,13,1.1,105.1751,M,31.83,M,,*65
[2021-01-29 11:06:13.462] $GPGGA,20612.1,4327.729523,N,14148.32979,E,1,13,1.1,105.2857,M,31.83,M,,*6F
[2021-01-29 11:06:13.571] $GPGGA,20612.2,4327.729508,N,14148.32981,E,1,13,1.1,105.3947,M,31.83,M,,*60
[2021-01-29 11:06:13.665] $GPGGA,20612.3,4327.729545,N,14148.32985,E,1,13,1.1,105.2187,M,31.83,M,,*66
[2021-01-29 11:06:13.758] $GPGGA,20612.4,4327.72956,N,14148.32977,E,1,13,1.1,104.8983,M,31.83,M,,*69
[2021-01-29 11:06:13.868] $GPGGA,20612.5,4327.729542,N,14148.32972,E,1,13,1.1,104.8925,M,31.83,M,,*6D
[2021-01-29 11:06:13.961] $GPGGA,20612.6,4327.729622,N,14148.32973,E,1,13,1.1,104.829,M,31.83,M,,*60
[2021-01-29 11:06:14.071] $GPGGA,20612.7,4327.729691,N,14148.3297,E,1,13,1.1,104.8764,M,31.83,M,,*6B
[2021-01-29 11:06:14.165] $GPGGA,20612.8,4327.729708,N,14148.32966,E,1,13,1.1,104.8972,M,31.83,M,,*6D
[2021-01-29 11:06:14.258] $GPGGA,20612.9,4327.729659,N,14148.32965,E,1,13,1.1,104.9827,M,31.83,M,,*62
[2021-01-29 11:06:14.369] $GPGGA,20613,4327.729594,N,14148.32971,E,1,13,1.1,105.3147,M,31.83,M,,*6A
[2021-01-29 11:06:14.463] $GPGGA,20613.1,4327.729606,N,14148.3297,E,1,13,1.1,105.2811,M,31.83,M,,*6D
[2021-01-29 11:06:14.572] $GPGGA,20613.2,4327.729635,N,14148.3297,E,1,13,1.1,104.6691,M,31.83,M,,*6A
[2021-01-29 11:06:14.666] $GPGGA,20613.3,4327.729625,N,14148.32965,E,1,13,1.1,104.2599,M,31.83,M,,*65
[2021-01-29 11:06:14.760] $GPGGA,20613.4,4327.729648,N,14148.32972,E,1,13,1.1,104.3319,M,31.83,M,,*64
[2021-01-29 11:06:14.869] $GPGGA,20613.5,4327.729634,N,14148.32969,E,1,13,1.1,104.516,M,31.83,M,,*65
[2021-01-29 11:06:14.963] $GPGGA,20613.6,4327.729626,N,14148.32967,E,1,13,1.1,104.7587,M,31.83,M,,*62
[2021-01-29 11:06:15.072] $GPGGA,20613.7,4327.729679,N,14148.32962,E,1,13,1.1,104.5779,M,31.83,M,,*60
[2021-01-29 11:06:15.166] $GPGGA,20613.8,4327.729661,N,14148.32961,E,1,13,1.1,104.851,M,31.83,M,,*61
[2021-01-29 11:06:15.267] $GPGGA,20613.9,4327.72964,N,14148.32957,E,1,13,1.1,105.1541,M,31.83,M,,*64
[2021-01-29 11:06:15.355] $GPGGA,20614,4327.729634,N,14148.32959,E,1,13,1.1,105.1987,M,31.83,M,,*6B
[2021-01-29 11:06:15.464] $GPGGA,20614.1,4327.729526,N,14148.32959,E,1,13,1.1,105.1233,M,31.83,M,,*62
[2021-01-29 11:06:15.574] $GPGGA,20614.2,4327.729538,N,14148.32952,E,1,13,1.1,105.1237,M,31.83,M,,*69
[2021-01-29 11:06:15.667] $GPGGA,20614.3,4327.729524,N,14148.3296,E,1,13,1.1,105.3184,M,31.83,M,,*66
[2021-01-29 11:06:15.777] $GPGGA,20614.4,4327.729527,N,14148.32961,E,1,13,1.1,105.284,M,31.83,M,,*6A
[2021-01-29 11:06:15.870] $GPGGA,20614.5,4327.729523,N,14148.32973,E,1,13,1.1,105.4788,M,31.83,M,,*6D
[2021-01-29 11:06:15.964] $GPGGA,20614.6,4327.729501,N,14148.32982,E,1,13,1.1,106.0791,M,31.83,M,,*62
[2021-01-29 11:06:16.074] $GPGGA,20614.7,4327.729505,N,14148.32983,E,1,13,1.1,106.2188,M,31.83,M,,*63
[2021-01-29 11:06:16.167] $GPGGA,20614.8,4327.729509,N,14148.32979,E,1,13,1.1,105.7165,M,31.83,M,,*6A
[2021-01-29 11:06:16.269] $GPGGA,20614.9,4327.72957,N,14148.32976,E,1,13,1.1,105.3582,M,31.83,M,,*64
[2021-01-29 11:06:16.372] $GPGGA,20615,4327.729639,N,14148.32973,E,1,13,1.1,105.2123,M,31.83,M,,*6F
[2021-01-29 11:06:16.466] $GPGGA,20615.1,4327.729614,N,14148.32974,E,1,13,1.1,105.3377,M,31.83,M,,*6D
[2021-01-29 11:06:16.560] $GPGGA,20615.2,4327.729597,N,14148.32973,E,1,13,1.1,105.0907,M,31.83,M,,*65
[2021-01-29 11:06:16.669] $GPGGA,20615.3,4327.729572,N,14148.32966,E,1,13,1.1,104.9615,M,31.83,M,,*6F
[2021-01-29 11:06:16.763] $GPGGA,20615.4,4327.729667,N,14148.32956,E,1,13,1.1,105.0928,M,31.83,M,,*6F
[2021-01-29 11:06:16.872] $GPGGA,20615.5,4327.729621,N,14148.32952,E,1,13,1.1,105.1455,M,31.83,M,,*6A
[2021-01-29 11:06:16.966] $GPGGA,20615.6,4327.729612,N,14148.32951,E,1,13,1.1,105.3084,M,31.83,M,,*60
[2021-01-29 11:06:17.060] $GPGGA,20615.7,4327.729618,N,14148.32949,E,1,13,1.1,105.0718,M,31.83,M,,*69
[2021-01-29 11:06:17.169] $GPGGA,20615.8,4327.729505,N,14148.32951,E,1,13,1.1,105.2694,M,31.83,M,,*6B
[2021-01-29 11:06:17.263] $GPGGA,20615.9,4327.729562,N,14148.32948,E,1,13,1.1,105.2063,M,31.83,M,,*61
[2021-01-29 11:06:17.356] $GPGGA,20616,4327.729561,N,14148.32951,E,1,13,1.1,105.2662,M,31.83,M,,*63
[2021-01-29 11:06:17.466] $GPGGA,20616.1,4327.729589,N,14148.32951,E,1,13,1.1,105.1926,M,31.83,M,,*63
[2021-01-29 11:06:17.559] $GPGGA,20616.2,4327.729559,N,14148.32954,E,1,13,1.1,104.9973,M,31.83,M,,*67
[2021-01-29 11:06:17.669] $GPGGA,20616.3,4327.729563,N,14148.32962,E,1,13,1.1,104.7271,M,31.83,M,,*69
[2021-01-29 11:06:17.763] $GPGGA,20616.4,4327.729606,N,14148.32969,E,1,13,1.1,105.065,M,31.83,M,,*61
[2021-01-29 11:06:17.872] $GPGGA,20616.5,4327.729642,N,14148.32969,E,1,13,1.1,104.8436,M,31.83,M,,*6D
[2021-01-29 11:06:17.966] $GPGGA,20616.6,4327.729606,N,14148.3297,E,1,13,1.1,104.6921,M,31.83,M,,*68
[2021-01-29 11:06:18.075] $GPGGA,20616.7,4327.729673,N,14148.32959,E,1,13,1.1,104.8624,M,31.83,M,,*6F
[2021-01-29 11:06:18.169] $GPGGA,20616.8,4327.729668,N,14148.3296,E,1,13,1.1,104.795,M,31.83,M,,*67
[2021-01-29 11:06:18.265] $GPGGA,20616.9,4327.729591,N,14148.32965,E,1,13,1.1,104.8837,M,31.83,M,,*60
[2021-01-29 11:06:18.358] $GPGGA,20617,4327.729547,N,14148.32965,E,1,13,1.1,104.927,M,31.83,M,,*67
[2021-01-29 11:06:18.468] $GPGGA,20617.1,4327.729227,N,14148.32995,E,1,14,0.9,107.1658,M,31.83,M,,*66
[2021-01-29 11:06:18.562] $GPGGA,20617.2,4327.729214,N,14148.33001,E,1,14,0.9,107.1969,M,31.83,M,,*65
[2021-01-29 11:06:18.671] $GPGGA,20617.3,4327.729197,N,14148.3301,E,1,14,0.9,107.5108,M,31.83,M,,*63
[2021-01-29 11:06:18.765] $GPGGA,20617.4,4327.729231,N,14148.33008,E,1,14,0.9,107.4333,M,31.83,M,,*6C
[2021-01-29 11:06:18.858] $GPGGA,20617.5,4327.729181,N,14148.33005,E,1,14,0.9,107.6329,M,31.83,M,,*6D
[2021-01-29 11:06:18.968] $GPGGA,20617.6,4327.72919,N,14148.33003,E,1,14,0.9,107.2267,M,31.83,M,,*60
[2021-01-29 11:06:19.062] $GPGGA,20617.7,4327.729186,N,14148.33002,E,1,14,0.9,106.7252,M,31.83,M,,*6C
[2021-01-29 11:06:19.171] $GPGGA,20617.8,4327.729255,N,14148.32995,E,1,14,0.9,106.3833,M,31.83,M,,*66
[2021-01-29 11:06:19.266] $GPGGA,20617.9,4327.729349,N,14148.32995,E,1,14,0.9,106.4747,M,31.83,M,,*68
[2021-01-29 11:06:19.376] $GPGGA,20618,4327.729361,N,14148.32991,E,1,14,0.9,106.4671,M,31.83,M,,*63
[2021-01-29 11:06:19.469] $GPGGA,20618.1,4327.729389,N,14148.32996,E,1,14,0.9,106.4484,M,31.83,M,,*68
[2021-01-29 11:06:19.579] $GPGGA,20618.2,4327.7293,N,14148.33004,E,1,14,0.9,106.9437,M,31.83,M,,*6B
[2021-01-29 11:06:19.657] $GPGGA,20618.3,4327.7293,N,14148.3301,E,1,14,0.9,106.8636,M,31.83,M,,*63
[2021-01-29 11:06:19.766] $GPGGA,20618.4,4327.729265,N,14148.33007,E,1,14,0.9,106.8172,M,31.83,M,,*6E
[2021-01-29 11:06:19.876] $GPGGA,20618.5,4327.729217,N,14148.33004,E,1,14,0.9,107.0573,M,31.83,M,,*6D
[2021-01-29 11:06:19.969] $GPGGA,20618.6,4327.729334,N,14148.32991,E,1,14,0.9,106.9954,M,31.83,M,,*64
[2021-01-29 11:06:20.063] $GPGGA,20618.7,4327.729241,N,14148.33005,E,1,14,0.9,107.251,M,31.83,M,,*67
[2021-01-29 11:06:20.172] $GPGGA,20618.8,4327.729282,N,14148.33,E,1,14,0.9,107.2222,M,31.83,M,,*62
[2021-01-29 11:06:20.271] $GPGGA,20618.9,4327.729282,N,14148.32996,E,1,14,0.9,107.1954,M,31.83,M,,*69
[2021-01-29 11:06:20.365] $GPGGA,20619,4327.729272,N,14148.32995,E,1,14,0.9,107.3706,M,31.83,M,,*67
[2021-01-29 11:06:20.459] $GPGGA,20619.1,4327.729286,N,14148.32995,E,1,14,0.9,107.3545,M,31.83,M,,*6D
[2021-01-29 11:06:20.568] $GPGGA,20619.2,4327.729278,N,14148.32993,E,1,14,0.9,107.1356,M,31.83,M,,*6C
[2021-01-29 11:06:20.662] $GPGGA,20619.3,4327.729176,N,14148.32996,E,1,14,0.9,107.1423,M,31.83,M,,*6D
[2021-01-29 11:06:20.771] $GPGGA,20619.4,4327.729205,N,14148.32996,E,1,14,0.9,107.2284,M,31.83,M,,*6F
[2021-01-29 11:06:20.865] $GPGGA,20619.5,4327.729181,N,14148.32987,E,1,14,0.9,106.8821,M,31.83,M,,*68
[2021-01-29 11:06:20.959] $GPGGA,20619.6,4327.729188,N,14148.33,E,1,14,0.9,107.0194,M,31.83,M,,*6B
[2021-01-29 11:06:21.068] $GPGGA,20619.7,4327.729198,N,14148.32996,E,1,14,0.9,107.1889,M,31.83,M,,*68
[2021-01-29 11:06:21.162] $GPGGA,20619.8,4327.729159,N,14148.32996,E,1,14,0.9,106.8556,M,31.83,M,,*69
[2021-01-29 11:06:21.270] $GPGGA,20619.9,4327.729194,N,14148.32996,E,1,14,0.9,107.1014,M,31.83,M,,*61
[2021-01-29 11:06:21.364] $GPGGA,20620,4327.729215,N,14148.32994,E,1,14,0.9,107.3672,M,31.83,M,,*69
