
[2021-01-29 11:04:30.603] $GPGGA,,,,,,,,,,M,,M,,*56
[2021-01-29 11:04:30.619] $GPGGA,,,,,,,,,,M,,M,,*56
[2021-01-29 11:04:30.619] $GPGGA,,,,,,,,,,M,,M,,*56
[2021-01-29 11:04:30.619] $GPGGA,,,,,,,,,,M,,M,,*56
[2021-01-29 11:04:30.619] $GPGGA,,,,,,,,,,M,,M,,*56
[2021-01-29 11:04:30.619] $GPGGA,,,,,,,,,,M,,M,,*56
[2021-01-29 11:04:30.619] $GPGGA,,,,,,,,,,M,,M,,*56
[2021-01-29 11:04:30.619] $GPGGA,,,,,,,,,,M,,M,,*56
[2021-01-29 11:04:30.619] $GPGGA,,,,,,,,,,M,,M,,*56
[2021-01-29 11:04:30.619] $GPGGA,,,,,,,,,,M,,M,,*56
[2021-01-29 11:04:30.619] $GPGGA,,,,,,,,,,M,,M,,*56
[2021-01-29 11:04:30.619] $GPGGA,,,,,,,,,,M,,M,,*56
[2021-01-29 11:04:30.619] $GPGGA,,,,,,,,,,M,,M,,*56
[2021-01-29 11:04:30.619] $GPGGA,,,,,,,,,,M,,M,,*56
[2021-01-29 11:04:30.619] $GPGGA,,,,,,,,,,M,,M,,*56
[2021-01-29 11:04:30.619] $GPGGA,,,,,,,,,,M,,M,,*56
[2021-01-29 11:04:30.619] $GPGGA,,,,,,,,,,M,,M,,*56
[2021-01-29 11:04:30.619] $GPGGA,,,,,,,,,,M,,M,,*56
[2021-01-29 11:04:30.619] $GPGGA,,,,,,,,,,M,,M,,*56
[2021-01-29 11:04:30.619] $GPGGA,,,,,,,,,,M,,M,,*56
[2021-01-29 11:04:30.619] $GPGGA,,,,,,,,,,M,,M,,*56
[2021-01-29 11:04:30.619] $GPGGA,,,,,,,,,,M,,M,,*56
[2021-01-29 11:04:30.619] $GPGGA,,,,,,,,,,M,,M,,*56
[2021-01-29 11:04:30.619] $GPGGA,,,,,,,,,,M,,M,,*56
[2021-01-29 11:04:30.619] $GPGGA,,,,,,,,,,M,,M,,*56
[2021-01-29 11:04:30.619] $GPGGA,,,,,,,,,,M,,M,,*56
[2021-01-29 11:04:30.619] $GPGGA,,,,,,,,,,M,,M,,*56
[2021-01-29 11:04:30.619] $GPGGA,,,,,,,,,,M,,M,,*56
[2021-01-29 11:04:30.619] $GPGGA,,,,,,,,,,M,,M,,*56
[2021-01-29 11:04:30.619] $GPGGA,,,,,,,,,,M,,M,,*56
[2021-01-29 11:04:30.619] $GPGGA,,,,,,,,,,M,,M,,*56
[2021-01-29 11:04:30.619] $GPGGA,,,,,,,,,,M,,M,,*56
[2021-01-29 11:04:30.619] $GPGGA,,,,,,,,,,M,,M,,*56
[2021-01-29 11:04:30.619] $GPGGA,,,,,,,,,,M,,M,,*56
[2021-01-29 11:04:30.619] $GPGGA,,,,,,,,,,M,,M,,*56
[2021-01-29 11:04:30.619] $GPGGA,,,,,,,,,,M,,M,,*56
[2021-01-29 11:04:30.619] $GPGGA,,,,,,,,,,M,,M,,*56
[2021-01-29 11:04:30.619] $GPGGA,,,,,,,,,,M,,M,,*56
[2021-01-29 11:04:30.619] $GPGGA,,,,,,,,,,M,,M,,*56
[2021-01-29 11:04:30.619] $GPGGA,,,,,,,,,,M,,M,,*56
[2021-01-29 11:04:30.619] $GPGGA,,,,,,,,,,M,,M,,*56
[2021-01-29 11:04:30.619] $GPGGA,,,,,,,,,,M,,M,,*56
[2021-01-29 11:04:30.619] $GPGGA,,,,,,,,,,M,,M,,*56
[2021-01-29 11:04:30.619] $GPGGA,,,,,,,,,,M,,M,,*56
[2021-01-29 11:04:30.619] $GPGGA,,,,,,,,,,M,,M,,*56
[2021-01-29 11:04:30.619] $GPGGA,,,,,,,,,,M,,M,,*56
[2021-01-29 11:04:30.619] $GPGGA,,,,,,,,,,M,,M,,*56
[2021-01-29 11:04:30.619] $GPGGA,,,,,,,,,,M,,M,,*56
[2021-01-29 11:04:30.619] $GPGGA,,,,,,,,,,M,,M,,*56
[2021-01-29 11:04:30.619] $GPGGA,,,,,,,,,,M,,M,,*56
[2021-01-29 11:04:30.619] $GPGGA,,,,,,,,,,M,,M,,*56
[2021-01-29 11:04:30.619] $GPGGA,,,,,,,,,,M,,M,,*56
[2021-01-29 11:04:30.619] $GPGGA,,,,,,,,,,M,,M,,*56
[2021-01-29 11:04:30.619] $GPGGA,,,,,,,,,,M,,M,,*56
[2021-01-29 11:04:30.619] $GPGGA,,,,,,,,,,M,,M,,*56
[2021-01-29 11:04:30.619] $GPGGA,,,,,,,,,,M,,M,,*56
[2021-01-29 11:04:30.619] $GPGGA,,,,,,,,,,M,,M,,*56
[2021-01-29 11:04:30.619] $GPGGA,,,,,,,,,,M,,M,,*56
[2021-01-29 11:04:30.619] $GPGGA,,,,,,,,,,M,,M,,*56
[2021-01-29 11:04:30.619] $GPGGA,,,,,,,,,,M,,M,,*56
[2021-01-29 11:04:30.619] $GPGGA,,,,,,,,,,M,,M,,*56
[2021-01-29 11:04:30.619] $GPGGA,,,,,,,,,,M,,M,,*56
[2021-01-29 11:04:30.619] $GPGGA,,,,,,,,,,M,,M,,*56
[2021-01-29 11:04:30.619] $GPGGA,,,,,,,,,,M,,M,,*56
[2021-01-29 11:04:30.619] $GPGGA,,,,,,,,,,M,,M,,*56
[2021-01-29 11:04:30.619] $GPGGA,,,,,,,,,,M,,M,,*56
[2021-01-29 11:04:30.619] $GPGGA,,,,,,,,,,M,,M,,*56
[2021-01-29 11:04:30.619] $GPGGA,,,,,,,,,,M,,M,,*56
[2021-01-29 11:04:30.619] $GPGGA,,,,,,,,,,M,,M,,*56
[2021-01-29 11:04:30.619] $GPGGA,,,,,,,,,,M,,M,,*56
[2021-01-29 11:04:30.619] $GPGGA,,,,,,,,,,M,,M,,*56
[2021-01-29 11:04:30.619] $GPGGA,,,,,,,,,,M,,M,,*56
[2021-01-29 11:04:30.619] $GPGGA,,,,,,,,,,M,,M,,*56
[2021-01-29 11:04:30.619] $GPGGA,,,,,,,,,,M,,M,,*56
[2021-01-29 11:04:30.791] $GPGGA,,,,,,,,,,M,,M,,*56
[2021-01-29 11:04:30.978] $GPGGA,,,,,,,,,,M,,M,,*56
[2021-01-29 11:04:31.181] $GPGGA,,,,,,,,,,M,,M,,*56
[2021-01-29 11:04:31.370] $GPGGA,,,,,,,,,,M,,M,,*56
[2021-01-29 11:04:31.589] $GPGGA,,,,,,,,,,M,,M,,*56
[2021-01-29 11:04:31.776] $GPGGA,,,,,,,,,,M,,M,,*56
[2021-01-29 11:04:31.979] $GPGGA,,,,,,,,,,M,,M,,*56
[2021-01-29 11:04:32.183] $GPGGA,,,,,,,,,,M,,M,,*56
[2021-01-29 11:04:32.389] $GPGGA,,,,,,,,,,M,,M,,*56
[2021-01-29 11:04:32.576] $GPGGA,,,,,,,,,,M,,M,,*56
[2021-01-29 11:04:32.779] $GPGGA,,,,,,,,,,M,,M,,*56
[2021-01-29 11:04:32.982] $GPGGA,,,,,,,,,,M,,M,,*56
[2021-01-29 11:04:33.186] $GPGGA,,,,,,,,,,M,,M,,*56
[2021-01-29 11:04:33.373] $GPGGA,,,,,,,,,,M,,M,,*56
[2021-01-29 11:04:33.591] $GPGGA,,,,,,,,,,M,,M,,*56
[2021-01-29 11:04:33.779] $GPGGA,,,,,,,,,,M,,M,,*56
[2021-01-29 11:04:33.982] $GPGGA,,,,,,,,,,M,,M,,*56
[2021-01-29 11:04:34.169] $GPGGA,,,,,,,,,,M,,M,,*56
[2021-01-29 11:04:34.389] $GPGGA,,,,,,,,,,M,,M,,*56
[2021-01-29 11:04:34.576] $GPGGA,,,,,,,,,,M,,M,,*56
[2021-01-29 11:04:34.779] $GPGGA,,,,,,,,,,M,,M,,*56
[2021-01-29 11:04:34.982] $GPGGA,,,,,,,,,,M,,M,,*56
[2021-01-29 11:04:35.186] $GPGGA,,,,,,,,,,M,,M,,*56
[2021-01-29 11:04:35.375] $GPGGA,,,,,,,,,,M,,M,,*56
[2021-01-29 11:04:35.578] $GPGGA,,,,,,,,,,M,,M,,*56
[2021-01-29 11:04:35.781] $GPGGA,,,,,,,,,,M,,M,,*56
[2021-01-29 11:04:35.984] $GPGGA,,,,,,,,,,M,,M,,*56
[2021-01-29 11:04:36.172] $GPGGA,,,,,,,,,,M,,M,,*56
[2021-01-29 11:04:36.378] $GPGGA,,,,,,,,,,M,,M,,*56
[2021-01-29 11:04:36.581] $GPGGA,,,,,,,,,,M,,M,,*56
[2021-01-29 11:04:36.784] $GPGGA,,,,,,,,,,M,,M,,*56
[2021-01-29 11:04:36.971] $GPGGA,,,,,,,,,,M,,M,,*56
[2021-01-29 11:04:37.190] $GPGGA,,,,,,,,,,M,,M,,*56
[2021-01-29 11:04:37.383] $GPGGA,,,,,,,,,,M,,M,,*56
[2021-01-29 11:04:37.586] $GPGGA,,,,,,,,,,M,,M,,*56
[2021-01-29 11:04:37.773] $GPGGA,,,,,,,,,,M,,M,,*56
[2021-01-29 11:04:37.976] $GPGGA,,,,,,,,,,M,,M,,*56
[2021-01-29 11:04:38.180] $GPGGA,,,,,,,,,,M,,M,,*56
[2021-01-29 11:04:38.381] $GPGGA,,,,,,,,,,M,,M,,*56
[2021-01-29 11:04:38.568] $GPGGA,,,,,,,,,,M,,M,,*56
[2021-01-29 11:04:38.787] $GPGGA,,,,,,,,,,M,,M,,*56
[2021-01-29 11:04:38.974] $GPGGA,,,,,,,,,,M,,M,,*56
[2021-01-29 11:04:39.178] $GPGGA,,,,,,,,,,M,,M,,*56
[2021-01-29 11:04:39.381] $GPGGA,,,,,,,,,,M,,M,,*56
[2021-01-29 11:04:39.584] $GPGGA,,,,,,,,,,M,,M,,*56
[2021-01-29 11:04:39.772] $GPGGA,,,,,,,,,,M,,M,,*56
[2021-01-29 11:04:39.991] $GPGGA,,,,,,,,,,M,,M,,*56
[2021-01-29 11:04:40.178] $GPGGA,,,,,,,,,,M,,M,,*56
[2021-01-29 11:04:40.384] $GPGGA,,,,,,,,,,M,,M,,*56
[2021-01-29 11:04:40.572] $GPGGA,,,,,,,,,,M,,M,,*56
[2021-01-29 11:04:40.775] $GPGGA,,,,,,,,,,M,,M,,*56
[2021-01-29 11:04:40.978] $GPGGA,,,,,,,,,,M,,M,,*56
[2021-01-29 11:04:41.181] $GPGGA,,,,,,,,,,M,,M,,*56
[2021-01-29 11:04:41.371] $GPGGA,,,,,,,,,,M,,M,,*56
[2021-01-29 11:04:41.589] $GPGGA,,,,,,,,,,M,,M,,*56
[2021-01-29 11:04:41.777] $GPGGA,,,,,,,,,,M,,M,,*56
[2021-01-29 11:04:41.980] $GPGGA,,,,,,,,,,M,,M,,*56
[2021-01-29 11:04:42.167] $GPGGA,,,,,,,,,,M,,M,,*56
[2021-01-29 11:04:42.387] $GPGGA,,,,,,,,,,M,,M,,*56
[2021-01-29 11:04:42.574] $GPGGA,,,,,,,,,,M,,M,,*56
[2021-01-29 11:04:42.777] $GPGGA,,,,,,,,,,M,,M,,*56
[2021-01-29 11:04:42.980] $GPGGA,,,,,,,,,,M,,M,,*56
[2021-01-29 11:04:43.184] $GPGGA,,,,,,,,,,M,,M,,*56
[2021-01-29 11:04:43.372] $GPGGA,,,,,,,,,,M,,M,,*56
[2021-01-29 11:04:43.575] $GPGGA,,,,,,,,,,M,,M,,*56
[2021-01-29 11:04:43.778] $GPGGA,,,,,,,,,,M,,M,,*56
[2021-01-29 11:04:43.981] $GPGGA,,,,,,,,,,M,,M,,*56
[2021-01-29 11:04:44.169] $GPGGA,,,,,,,,,,M,,M,,*56
[2021-01-29 11:04:44.388] $GPGGA,,,,,,,,,,M,,M,,*56
[2021-01-29 11:04:44.575] $GPGGA,,,,,,,,,,M,,M,,*56
[2021-01-29 11:04:44.779] $GPGGA,,,,,,,,,,M,,M,,*56
[2021-01-29 11:04:44.966] $GPGGA,,,,,,,,,,M,,M,,*56
[2021-01-29 11:04:45.185] $GPGGA,,,,,,,,,,M,,M,,*56
[2021-01-29 11:04:45.374] $GPGGA,,,,,,,,,,M,,M,,*56
[2021-01-29 11:04:45.577] $GPGGA,,,,,,,,,,M,,M,,*56
[2021-01-29 11:04:45.796] $GPGGA,,,,,,,,,,M,,M,,*56
[2021-01-29 11:04:45.983] $GPGGA,,,,,,,,,,M,,M,,*56
[2021-01-29 11:04:46.171] $GPGGA,,,,,,,,,,M,,M,,*56
[2021-01-29 11:04:46.376] $GPGGA,,,,,,,,,,M,,M,,*56
[2021-01-29 11:04:46.579] $GPGGA,,,,,,,,,,M,,M,,*56
[2021-01-29 11:04:46.782] $GPGGA,,,,,,,,,,M,,M,,*56
[2021-01-29 11:04:46.970] $GPGGA,,,,,,,,,,M,,M,,*56
[2021-01-29 11:04:47.188] $GPGGA,,,,,,,,,,M,,M,,*56
[2021-01-29 11:04:47.393] $GPGGA,,,,,,,,,,M,,M,,*56
[2021-01-29 11:04:47.581] $GPGGA,,,,,,,,,,M,,M,,*56
[2021-01-29 11:04:47.768] $GPGGA,,,,,,,,,,M,,M,,*56
[2021-01-29 11:04:47.987] $GPGGA,,,,,,,,,,M,,M,,*56
[2021-01-29 11:04:48.190] $GPGGA,,,,,,,,,,M,,M,,*56
[2021-01-29 11:04:48.380] $GPGGA,,,,,,,,,,M,,M,,*56
[2021-01-29 11:04:48.584] $GPGGA,,,,,,,,,,M,,M,,*56
[2021-01-29 11:04:48.787] $GPGGA,,,,,,,,,,M,,M,,*56
[2021-01-29 11:04:48.990] $GPGGA,,,,,,,,,,M,,M,,*56
[2021-01-29 11:04:49.177] $GPGGA,,,,,,,,,,M,,M,,*56
[2021-01-29 11:04:49.396] $GPGGA,,,,,,,,,,M,,M,,*56
[2021-01-29 11:04:49.584] $GPGGA,,,,,,,,,,M,,M,,*56
[2021-01-29 11:04:49.787] $GPGGA,,,,,,,,,,M,,M,,*56
[2021-01-29 11:04:49.974] $GPGGA,,,,,,,,,,M,,M,,*56
[2021-01-29 11:04:50.193] $GPGGA,,,,,,,,,,M,,M,,*56
[2021-01-29 11:04:50.383] $GPGGA,,,,,,,,,,M,,M,,*56
[2021-01-29 11:04:50.586] $GPGGA,,,,,,,,,,M,,M,,*56
[2021-01-29 11:04:50.773] $GPGGA,,,,,,,,,,M,,M,,*56
[2021-01-29 11:04:50.992] $GPGGA,,,,,,,,,,M,,M,,*56
[2021-01-29 11:04:51.179] $GPGGA,,,,,,,,,,M,,M,,*56
[2021-01-29 11:04:51.385] $GPGGA,,,,,,,,,,M,,M,,*56
[2021-01-29 11:04:51.588] $GPGGA,,,,,,,,,,M,,M,,*56
[2021-01-29 11:04:51.791] $GPGGA,,,,,,,,,,M,,M,,*56
[2021-01-29 11:04:51.978] $GPGGA,,,,,,,,,,M,,M,,*56
[2021-01-29 11:04:52.181] $GPGGA,,,,,,,,,,M,,M,,*56
[2021-01-29 11:04:52.387] $GPGGA,,,,,,,,,,M,,M,,*56
[2021-01-29 11:04:52.590] $GPGGA,,,,,,,,,,M,,M,,*56
[2021-01-29 11:04:52.777] $GPGGA,,,,,,,,,,M,,M,,*56
[2021-01-29 11:04:52.980] $GPGGA,,,,,,,,,,M,,M,,*56
[2021-01-29 11:04:53.183] $GPGGA,,,,,,,,,,M,,M,,*56
[2021-01-29 11:04:53.386] $GPGGA,,,,,,,,,,M,,M,,*56
[2021-01-29 11:04:53.573] $GPGGA,,,,,,,,,,M,,M,,*56
[2021-01-29 11:04:53.792] $GPGGA,,,,,,,,,,M,,M,,*56
[2021-01-29 11:04:53.979] $GPGGA,,,,,,,,,,M,,M,,*56
[2021-01-29 11:04:54.183] $GPGGA,,,,,,,,,,M,,M,,*56
[2021-01-29 11:04:54.373] $GPGGA,,,,,,,,,,M,,M,,*56
[2021-01-29 11:04:54.592] $GPGGA,,,,,,,,,,M,,M,,*56
[2021-01-29 11:04:54.779] $GPGGA,,,,,,,,,,M,,M,,*56
[2021-01-29 11:04:54.982] $GPGGA,,,,,,,,,,M,,M,,*56
[2021-01-29 11:04:55.185] $GPGGA,,,,,,,,,,M,,M,,*56
[2021-01-29 11:04:55.389] $GPGGA,,,,,,,,,,M,,M,,*56
[2021-01-29 11:04:55.577] $GPGGA,,,,,,,,,,M,,M,,*56
[2021-01-29 11:04:55.780] $GPGGA,,,,,,,,,,M,,M,,*56
[2021-01-29 11:04:55.983] $GPGGA,,,,,,,,,,M,,M,,*56
[2021-01-29 11:04:56.186] $GPGGA,,,,,,,,,,M,,M,,*56
[2021-01-29 11:04:56.377] $GPGGA,,,,,,,,,,M,,M,,*56
[2021-01-29 11:04:56.580] $GPGGA,,,,,,,,,,M,,M,,*56
[2021-01-29 11:04:56.783] $GPGGA,,,,,,,,,,M,,M,,*56
[2021-01-29 11:04:56.986] $GPGGA,,,,,,,,,,M,,M,,*56
[2021-01-29 11:04:57.173] $GPGGA,,,,,,,,,,M,,M,,*56
[2021-01-29 11:04:57.393] $GPGGA,,,,,,,,,,M,,M,,*56
[2021-01-29 11:04:57.580] $GPGGA,,,,,,,,,,M,,M,,*56
[2021-01-29 11:04:57.783] $GPGGA,,,,,,,,,,M,,M,,*56
[2021-01-29 11:04:57.971] $GPGGA,,,,,,,,,,M,,M,,*56
[2021-01-29 11:04:58.189] $GPGGA,,,,,,,,,,M,,M,,*56
[2021-01-29 11:04:58.379] $GPGGA,,,,,,,,,,M,,M,,*56
[2021-01-29 11:04:58.582] $GPGGA,,,,,,,,,,M,,M,,*56
[2021-01-29 11:04:58.786] $GPGGA,,,,,,,,,,M,,M,,*56
[2021-01-29 11:04:58.989] $GPGGA,,,,,,,,,,M,,M,,*56
[2021-01-29 11:04:59.176] $GPGGA,,,,,,,,,,M,,M,,*56
[2021-01-29 11:04:59.380] $GPGGA,,,,,,,,,,M,,M,,*56
[2021-01-29 11:04:59.583] $GPGGA,,,,,,,,,,M,,M,,*56
[2021-01-29 11:04:59.787] $GPGGA,,,,,,,,,,M,,M,,*56
[2021-01-29 11:04:59.974] $GPGGA,,,,,,,,,,M,,M,,*56
[2021-01-29 11:05:00.193] $GPGGA,,,,,,,,,,M,,M,,*56
[2021-01-29 11:05:00.382] $GPGGA,,,,,,,,,,M,,M,,*56
[2021-01-29 11:05:00.585] $GPGGA,,,,,,,,,,M,,M,,*56
[2021-01-29 11:05:00.773] $GPGGA,,,,,,,,,,M,,M,,*56
[2021-01-29 11:05:00.992] $GPGGA,,,,,,,,,,M,,M,,*56
[2021-01-29 11:05:01.179] $GPGGA,,,,,,,,,,M,,M,,*56
[2021-01-29 11:05:01.383] $GPGGA,,,,,,,,,,M,,M,,*56
[2021-01-29 11:05:01.571] $GPGGA,,,,,,,,,,M,,M,,*56
[2021-01-29 11:05:01.789] $GPGGA,,,,,,,,,,M,,M,,*56
[2021-01-29 11:05:01.977] $GPGGA,,,,,,,,,,M,,M,,*56
[2021-01-29 11:05:02.180] $GPGGA,,,,,,,,,,M,,M,,*56
[2021-01-29 11:05:02.385] $GPGGA,,,,,,,,,,M,,M,,*56
[2021-01-29 11:05:02.588] $GPGGA,,,,,,,,,,M,,M,,*56
[2021-01-29 11:05:02.775] $GPGGA,,,,,,,,,,M,,M,,*56
[2021-01-29 11:05:02.979] $GPGGA,,,,,,,,,,M,,M,,*56
[2021-01-29 11:05:03.182] $GPGGA,,,,,,,,,,M,,M,,*56
[2021-01-29 11:05:03.386] $GPGGA,,,,,,,,,,M,,M,,*56
[2021-01-29 11:05:03.574] $GPGGA,,,,,,,,,,M,,M,,*56
[2021-01-29 11:05:03.793] $GPGGA,,,,,,,,,,M,,M,,*56
[2021-01-29 11:05:03.980] $GPGGA,,,,,,,,,,M,,M,,*56
[2021-01-29 11:05:04.183] $GPGGA,,,,,,,,,,M,,M,,*56
[2021-01-29 11:05:04.372] $GPGGA,,,,,,,,,,M,,M,,*56
[2021-01-29 11:05:04.591] $GPGGA,,,,,,,,,,M,,M,,*56
[2021-01-29 11:05:04.779] $GPGGA,,,,,,,,,,M,,M,,*56
[2021-01-29 11:05:04.982] $GPGGA,,,,,,,,,,M,,M,,*56
[2021-01-29 11:05:05.185] $GPGGA,,,,,,,,,,M,,M,,*56
[2021-01-29 11:05:05.391] $GPGGA,,,,,,,,,,M,,M,,*56
[2021-01-29 11:05:05.579] $GPGGA,,,,,,,,,,M,,M,,*56
[2021-01-29 11:05:05.782] $GPGGA,,,,,,,,,,M,,M,,*56
[2021-01-29 11:05:05.985] $GPGGA,,,,,,,,,,M,,M,,*56
[2021-01-29 11:05:06.188] $GPGGA,,,,,,,,,,M,,M,,*56
[2021-01-29 11:05:06.374] $GPGGA,,,,,,,,,,M,,M,,*56
[2021-01-29 11:05:06.578] $GPGGA,,,,,,,,,,M,,M,,*56
[2021-01-29 11:05:06.781] $GPGGA,,,,,,,,,,M,,M,,*56
[2021-01-29 11:05:06.984] $GPGGA,,,,,,,,,,M,,M,,*56
[2021-01-29 11:05:07.171] $GPGGA,,,,,,,,,,M,,M,,*56
[2021-01-29 11:05:07.392] $GPGGA,,,,,,,,,,M,,M,,*56
[2021-01-29 11:05:07.580] $GPGGA,,,,,,,,,,M,,M,,*56
[2021-01-29 11:05:07.783] $GPGGA,,,,,,,,,,M,,M,,*56
[2021-01-29 11:05:07.970] $GPGGA,,,,,,,,,,M,,M,,*56
[2021-01-29 11:05:08.189] $GPGGA,,,,,,,,,,M,,M,,*56
[2021-01-29 11:05:08.378] $GPGGA,,,,,,,,,,M,,M,,*56
[2021-01-29 11:05:08.581] $GPGGA,,,,,,,,,,M,,M,,*56
[2021-01-29 11:05:08.784] $GPGGA,,,,,,,,,,M,,M,,*56
[2021-01-29 11:05:08.987] $GPGGA,,,,,,,,,,M,,M,,*56
[2021-01-29 11:05:09.174] $GPGGA,,,,,,,,,,M,,M,,*56
[2021-01-29 11:05:09.380] $GPGGA,,,,,,,,,,M,,M,,*56
[2021-01-29 11:05:09.583] $GPGGA,,,,,,,,,,M,,M,,*56
[2021-01-29 11:05:09.786] $GPGGA,,,,,,,,,,M,,M,,*56
[2021-01-29 11:05:09.974] $GPGGA,,,,,,,,,,M,,M,,*56
[2021-01-29 11:05:10.193] $GPGGA,,,,,,,,,,M,,M,,*56
[2021-01-29 11:05:10.382] $GPGGA,,,,,,,,,,M,,M,,*56
[2021-01-29 11:05:10.585] $GPGGA,,,,,,,,,,M,,M,,*56
[2021-01-29 11:05:10.773] $GPGGA,,,,,,,,,,M,,M,,*56
[2021-01-29 11:05:10.992] $GPGGA,,,,,,,,,,M,,M,,*56
[2021-01-29 11:05:11.179] $GPGGA,,,,,,,,,,M,,M,,*56
[2021-01-29 11:05:11.383] $GPGGA,,,,,,,,,,M,,M,,*56
[2021-01-29 11:05:11.570] $GPGGA,,,,,,,,,,M,,M,,*56
[2021-01-29 11:05:11.789] $GPGGA,,,,,,,,,,M,,M,,*56
[2021-01-29 11:05:11.976] $GPGGA,,,,,,,,,,M,,M,,*56
[2021-01-29 11:05:12.180] $GPGGA,,,,,,,,,,M,,M,,*56
[2021-01-29 11:05:12.369] $GPGGA,,,,,,,,,,M,,M,,*56
[2021-01-29 11:05:12.588] $GPGGA,,,,,,,,,,M,,M,,*56
[2021-01-29 11:05:12.775] $GPGGA,,,,,,,,,,M,,M,,*56
[2021-01-29 11:05:12.978] $GPGGA,,,,,,,,,,M,,M,,*56
[2021-01-29 11:05:13.181] $GPGGA,,,,,,,,,,M,,M,,*56
[2021-01-29 11:05:13.387] $GPGGA,,,,,,,,,,M,,M,,*56
[2021-01-29 11:05:13.574] $GPGGA,,,,,,,,,,M,,M,,*56
[2021-01-29 11:05:13.777] $GPGGA,,,,,,,,,,M,,M,,*56
[2021-01-29 11:05:13.980] $GPGGA,,,,,,,,,,M,,M,,*56
[2021-01-29 11:05:14.184] $GPGGA,,,,,,,,,,M,,M,,*56
[2021-01-29 11:05:14.371] $GPGGA,,,,,,,,,,M,,M,,*56
[2021-01-29 11:05:14.590] $GPGGA,,,,,,,,,,M,,M,,*56
[2021-01-29 11:05:14.777] $GPGGA,,,,,,,,,,M,,M,,*56
[2021-01-29 11:05:14.980] $GPGGA,,,,,,,,,,M,,M,,*56
[2021-01-29 11:05:15.168] $GPGGA,,,,,,,,,,M,,M,,*56
[2021-01-29 11:05:15.389] $GPGGA,,,,,,,,,,M,,M,,*56
[2021-01-29 11:05:15.577] $GPGGA,,,,,,,,,,M,,M,,*56
[2021-01-29 11:05:15.780] $GPGGA,,,,,,,,,,M,,M,,*56
[2021-01-29 11:05:15.967] $GPGGA,,,,,,,,,,M,,M,,*56
[2021-01-29 11:05:16.186] $GPGGA,,,,,,,,,,M,,M,,*56
[2021-01-29 11:05:16.374] $GPGGA,,,,,,,,,,M,,M,,*56
[2021-01-29 11:05:16.577] $GPGGA,,,,,,,,,,M,,M,,*56
[2021-01-29 11:05:16.781] $GPGGA,,,,,,,,,,M,,M,,*56
[2021-01-29 11:05:16.984] $GPGGA,,,,,,,,,,M,,M,,*56
[2021-01-29 11:05:17.171] $GPGGA,,,,,,,,,,M,,M,,*56
[2021-01-29 11:05:17.376] $GPGGA,,,,,,,,,,M,,M,,*56
[2021-01-29 11:05:17.579] $GPGGA,,,,,,,,,,M,,M,,*56
[2021-01-29 11:05:17.782] $GPGGA,,,,,,,,,,M,,M,,*56
[2021-01-29 11:05:17.969] $GPGGA,,,,,,,,,,M,,M,,*56
[2021-01-29 11:05:18.188] $GPGGA,,,,,,,,,,M,,M,,*56
[2021-01-29 11:05:18.393] $GPGGA,,,,,,,,,,M,,M,,*56
[2021-01-29 11:05:18.581] $GPGGA,,,,,,,,,,M,,M,,*56
[2021-01-29 11:05:18.768] $GPGGA,,,,,,,,,,M,,M,,*56
[2021-01-29 11:05:18.987] $GPGGA,,,,,,,,,,M,,M,,*56
[2021-01-29 11:05:19.175] $GPGGA,,,,,,,,,,M,,M,,*56
[2021-01-29 11:05:19.380] $GPGGA,,,,,,,,,,M,,M,,*56
[2021-01-29 11:05:19.567] $GPGGA,,,,,,,,,,M,,M,,*56
[2021-01-29 11:05:19.786] $GPGGA,,,,,,,,,,M,,M,,*56
[2021-01-29 11:05:19.973] $GPGGA,,,,,,,,,,M,,M,,*56
[2021-01-29 11:05:20.177] $GPGGA,,,,,,,,,,M,,M,,*56
[2021-01-29 11:05:20.397] $GPGGA,,,,,,,,,,M,,M,,*56
[2021-01-29 11:05:20.585] $GPGGA,,,,,,,,,,M,,M,,*56
[2021-01-29 11:05:20.788] $GPGGA,,,,,,,,,,M,,M,,*56
[2021-01-29 11:05:20.975] $GPGGA,,,,,,,,,,M,,M,,*56
[2021-01-29 11:05:21.194] $GPGGA,,,,,,,,,,M,,M,,*56
[2021-01-29 11:05:21.384] $GPGGA,,,,,,,,,,M,,M,,*56
[2021-01-29 11:05:21.587] $GPGGA,,,,,,,,,,M,,M,,*56
[2021-01-29 11:05:21.774] $GPGGA,,,,,,,,,,M,,M,,*56
[2021-01-29 11:05:21.993] $GPGGA,,,,,,,,,,M,,M,,*56
[2021-01-29 11:05:22.181] $GPGGA,,,,,,,,,,M,,M,,*56
[2021-01-29 11:05:22.368] $GPGGA,,,,,,,,,,M,,M,,*56
[2021-01-29 11:05:22.587] $GPGGA,,,,,,,,,,M,,M,,*56
[2021-01-29 11:05:22.790] $GPGGA,,,,,,,,,,M,,M,,*56
[2021-01-29 11:05:22.978] $GPGGA,,,,,,,,,,M,,M,,*56
[2021-01-29 11:05:23.181] $GPGGA,,,,,,,,,,M,,M,,*56
[2021-01-29 11:05:23.386] $GPGGA,,,,,,,,,,M,,M,,*56
[2021-01-29 11:05:23.589] $GPGGA,,,,,,,,,,M,,M,,*56
[2021-01-29 11:05:23.776] $GPGGA,,,,,,,,,,M,,M,,*56
[2021-01-29 11:05:23.995] $GPGGA,,,,,,,,,,M,,M,,*56
[2021-01-29 11:05:24.183] $GPGGA,,,,,,,,,,M,,M,,*56
[2021-01-29 11:05:24.388] $GPGGA,,,,,,,,,,M,,M,,*56
[2021-01-29 11:05:24.576] $GPGGA,,,,,,,,,,M,,M,,*56
[2021-01-29 11:05:24.795] $GPGGA,,,,,,,,,,M,,M,,*56
[2021-01-29 11:05:24.982] $GPGGA,,,,,,,,,,M,,M,,*56
[2021-01-29 11:05:25.185] $GPGGA,,,,,,,,,,M,,M,,*56
[2021-01-29 11:05:25.388] $GPGGA,,,,,,,,,,M,,M,,*56
[2021-01-29 11:05:25.591] $GPGGA,,,,,,,,,,M,,M,,*56
[2021-01-29 11:05:25.778] $GPGGA,,,,,,,,,,M,,M,,*56
[2021-01-29 11:05:25.981] $GPGGA,,,,,,,,,,M,,M,,*56
[2021-01-29 11:05:26.184] $GPGGA,,,,,,,,,,M,,M,,*56
[2021-01-29 11:05:26.390] $GPGGA,,,,,,,,,,M,,M,,*56
[2021-01-29 11:05:26.577] $GPGGA,,,,,,,,,,M,,M,,*56
[2021-01-29 11:05:26.780] $GPGGA,,,,,,,,,,M,,M,,*56
[2021-01-29 11:05:26.983] $GPGGA,,,,,,,,,,M,,M,,*56
[2021-01-29 11:05:27.187] $GPGGA,,,,,,,,,,M,,M,,*56
[2021-01-29 11:05:27.375] $GPGGA,,,,,,,,,,M,,M,,*56
[2021-01-29 11:05:27.594] $GPGGA,,,,,,,,,,M,,M,,*56
[2021-01-29 11:05:27.781] $GPGGA,,,,,,,,,,M,,M,,*56
[2021-01-29 11:05:27.984] $GPGGA,,,,,,,,,,M,,M,,*56
[2021-01-29 11:05:28.188] $GPGGA,,,,,,,,,,M,,M,,*56
[2021-01-29 11:05:28.393] $GPGGA,,,,,,,,,,M,,M,,*56
[2021-01-29 11:05:28.580] $GPGGA,,,,,,,,,,M,,M,,*56
[2021-01-29 11:05:28.784] $GPGGA,,,,,,,,,,M,,M,,*56
[2021-01-29 11:05:28.987] $GPGGA,,,,,,,,,,M,,M,,*56
[2021-01-29 11:05:29.190] $GPGGA,,,,,,,,,,M,,M,,*56
[2021-01-29 11:05:29.379] $GPGGA,,,,,,,,,,M,,M,,*56
[2021-01-29 11:05:29.582] $GPGGA,,,,,,,,,,M,,M,,*56
[2021-01-29 11:05:29.785] $GPGGA,,,,,,,,,,M,,M,,*56
[2021-01-29 11:05:29.989] $GPGGA,,,,,,,,,,M,,M,,*56
[2021-01-29 11:05:30.176] $GPGGA,,,,,,,,,,M,,M,,*56
[2021-01-29 11:05:30.381] $GPGGA,,,,,,,,,,M,,M,,*56
[2021-01-29 11:05:30.584] $GPGGA,,,,,,,,,,M,,M,,*56
[2021-01-29 11:05:30.787] $GPGGA,,,,,,,,,,M,,M,,*56
[2021-01-29 11:05:30.975] $GPGGA,,,,,,,,,,M,,M,,*56
[2021-01-29 11:05:31.194] $GPGGA,,,,,,,,,,M,,M,,*56
[2021-01-29 11:05:31.382] $GPGGA,,,,,,,,,,M,,M,,*56
[2021-01-29 11:05:31.585] $GPGGA,,,,,,,,,,M,,M,,*56
[2021-01-29 11:05:31.772] $GPGGA,,,,,,,,,,M,,M,,*56
[2021-01-29 11:05:31.991] $GPGGA,,,,,,,,,,M,,M,,*56
[2021-01-29 11:05:32.179] $GPGGA,,,,,,,,,,M,,M,,*56
[2021-01-29 11:05:32.384] $GPGGA,,,,,,,,,,M,,M,,*56
[2021-01-29 11:05:32.572] $GPGGA,,,,,,,,,,M,,M,,*56
[2021-01-29 11:05:32.791] $GPGGA,,,,,,,,,,M,,M,,*56
[2021-01-29 11:05:32.978] $GPGGA,,,,,,,,,,M,,M,,*56
[2021-01-29 11:05:33.181] $GPGGA,,,,,,,,,,M,,M,,*56
[2021-01-29 11:05:33.385] $GPGGA,,,,,,,,,,M,,M,,*56
[2021-01-29 11:05:33.588] $GPGGA,,,,,,,,,,M,,M,,*56
[2021-01-29 11:05:33.776] $GPGGA,,,,,,,,,,M,,M,,*56
[2021-01-29 11:05:33.979] $GPGGA,,,,,,,,,,M,,M,,*56
[2021-01-29 11:05:34.182] $GPGGA,,,,,,,,,,M,,M,,*56
[2021-01-29 11:05:34.371] $GPGGA,,,,,,,,,,M,,M,,*56
[2021-01-29 11:05:34.574] $GPGGA,,,,,,,,,,M,,M,,*56
[2021-01-29 11:05:34.777] $GPGGA,,,,,,,,,,M,,M,,*56
[2021-01-29 11:05:34.980] $GPGGA,,,,,,,,,,M,,M,,*56
[2021-01-29 11:05:35.168] $GPGGA,,,,,,,,,,M,,M,,*56
[2021-01-29 11:05:35.372] $GPGGA,,,,,,,,,,M,,M,,*56
[2021-01-29 11:05:35.576] $GPGGA,,,,,,,,,,M,,M,,*56
[2021-01-29 11:05:35.779] $GPGGA,,,,,,,,,,M,,M,,*56
[2021-01-29 11:05:35.966] $GPGGA,,,,,,,,,,M,,M,,*56
[2021-01-29 11:05:36.185] $GPGGA,,,,,,,,,,M,,M,,*56
[2021-01-29 11:05:36.373] $GPGGA,,,,,,,,,,M,,M,,*56
[2021-01-29 11:05:36.576] $GPGGA,,,,,,,,,,M,,M,,*56
[2021-01-29 11:05:36.779] $GPGGA,,,,,,,,,,M,,M,,*56
[2021-01-29 11:05:36.982] $GPGGA,,,,,,,,,,M,,M,,*56
[2021-01-29 11:05:37.170] $GPGGA,,,,,,,,,,M,,M,,*56
[2021-01-29 11:05:37.375] $GPGGA,,,,,,,,,,M,,M,,*56
[2021-01-29 11:05:37.578] $GPGGA,,,,,,,,,,M,,M,,*56
[2021-01-29 11:05:37.781] $GPGGA,,,,,,,,,,M,,M,,*56
[2021-01-29 11:05:37.968] $GPGGA,,,,,,,,,,M,,M,,*56
[2021-01-29 11:05:38.171] $GPGGA,,,,,,,,,,M,,M,,*56
[2021-01-29 11:05:38.376] $GPGGA,,,,,,,,,,M,,M,,*56
[2021-01-29 11:05:38.579] $GPGGA,,,,,,,,,,M,,M,,*56
[2021-01-29 11:05:38.767] $GPGGA,,,,,,,,,,M,,M,,*56
[2021-01-29 11:05:38.970] $GPGGA,,,,,,,,,,M,,M,,*56
[2021-01-29 11:05:39.173] $GPGGA,,,,,,,,,,M,,M,,*56
[2021-01-29 11:05:39.378] $GPGGA,,,,,,,,,,M,,M,,*56
[2021-01-29 11:05:39.566] $GPGGA,,,,,,,,,,M,,M,,*56
[2021-01-29 11:05:39.784] $GPGGA,,,,,,,,,,M,,M,,*56
[2021-01-29 11:05:39.972] $GPGGA,,,,,,,,,,M,,M,,*56
[2021-01-29 11:05:40.175] $GPGGA,,,,,,,,,,M,,M,,*56
[2021-01-29 11:05:40.365] $GPGGA,,,,,,,,,,M,,M,,*56
[2021-01-29 11:05:40.583] $GPGGA,,,,,,,,,,M,,M,,*56
[2021-01-29 11:05:40.771] $GPGGA,,,,,,,,,,M,,M,,*56
[2021-01-29 11:05:40.974] $GPGGA,,,,,,,,,,M,,M,,*56
[2021-01-29 11:05:41.177] $GPGGA,,,,,,,,,,M,,M,,*56
[2021-01-29 11:05:41.381] $GPGGA,,,,,,,,,,M,,M,,*56
[2021-01-29 11:05:41.569] $GPGGA,,,,,,,,,,M,,M,,*56
[2021-01-29 11:05:41.772] $GPGGA,,,,,,,,,,M,,M,,*56
[2021-01-29 11:05:41.975] $GPGGA,,,,,,,,,,M,,M,,*56
[2021-01-29 11:05:42.178] $GPGGA,,,,,,,,,,M,,M,,*56
[2021-01-29 11:05:42.383] $GPGGA,,,,,,,,,,M,,M,,*56
[2021-01-29 11:05:42.570] $GPGGA,,,,,,,,,,M,,M,,*56
[2021-01-29 11:05:42.773] $GPGGA,,,,,,,,,,M,,M,,*56
[2021-01-29 11:05:42.976] $GPGGA,,,,,,,,,,M,,M,,*56
[2021-01-29 11:05:43.164] $GPGGA,,,,,,,,,,M,,M,,*56
[2021-01-29 11:05:43.385] $GPGGA,,,,,,,,,,M,,M,,*56
[2021-01-29 11:05:43.588] $GPGGA,,,,,,,,,,M,,M,,*56
[2021-01-29 11:05:43.775] $GPGGA,,,,,,,,,,M,,M,,*56
[2021-01-29 11:05:43.963] $GPGGA,,,,,,,,,,M,,M,,*56
[2021-01-29 11:05:44.182] $GPGGA,,,,,,,,,,M,,M,,*56
[2021-01-29 11:05:44.386] $GPGGA,,,,,,,,,,M,,M,,*56
[2021-01-29 11:05:44.573] $GPGGA,,,,,,,,,,M,,M,,*56
[2021-01-29 11:05:44.777] $GPGGA,,,,,,,,,,M,,M,,*56
[2021-01-29 11:05:44.980] $GPGGA,,,,,,,,,,M,,M,,*56
[2021-01-29 11:05:45.183] $GPGGA,,,,,,,,,,M,,M,,*56
[2021-01-29 11:05:45.373] $GPGGA,,,,,,,,,,M,,M,,*56
[2021-01-29 11:05:45.576] $GPGGA,,,,,,,,,,M,,M,,*56
[2021-01-29 11:05:45.779] $GPGGA,,,,,,,,,,M,,M,,*56
[2021-01-29 11:05:45.982] $GPGGA,,,,,,,,,,M,,M,,*56
[2021-01-29 11:05:46.170] $GPGGA,,,,,,,,,,M,,M,,*56
[2021-01-29 11:05:46.388] $GPGGA,,,,,,,,,,M,,M,,*56
[2021-01-29 11:05:46.575] $GPGGA,,,,,,,,,,M,,M,,*56
[2021-01-29 11:05:46.779] $GPGGA,,,,,,,,,,M,,M,,*56
[2021-01-29 11:05:46.982] $GPGGA,,,,,,,,,,M,,M,,*56
[2021-01-29 11:05:47.185] $GPGGA,,,,,,,,,,M,,M,,*56
[2021-01-29 11:05:47.374] $GPGGA,,,,,,,,,,M,,M,,*56
[2021-01-29 11:05:47.577] $GPGGA,,,,,,,,,,M,,M,,*56
[2021-01-29 11:05:47.780] $GPGGA,,,,,,,,,,M,,M,,*56
[2021-01-29 11:05:47.983] $GPGGA,,,,,,,,,,M,,M,,*56
[2021-01-29 11:05:48.171] $GPGGA,,,,,,,,,,M,,M,,*56
[2021-01-29 11:05:48.376] $GPGGA,,,,,,,,,,M,,M,,*56
[2021-01-29 11:05:48.579] $GPGGA,,,,,,,,,,M,,M,,*56
[2021-01-29 11:05:48.782] $GPGGA,,,,,,,,,,M,,M,,*56
[2021-01-29 11:05:49.001] $GPGGA,,,,,,,,,,M,,M,,*56
[2021-01-29 11:05:49.188] $GPGGA,,,,,,,,,,M,,M,,*56
[2021-01-29 11:05:49.378] $GPGGA,,,,,,,,,,M,,M,,*56
[2021-01-29 11:05:49.581] $GPGGA,,,,,,,,,,M,,M,,*56
[2021-01-29 11:05:49.769] $GPGGA,,,,,,,,,,M,,M,,*56
[2021-01-29 11:05:49.988] $GPGGA,,,,,,,,,,M,,M,,*56
[2021-01-29 11:05:50.175] $GPGGA,,,,,,,,,,M,,M,,*56
[2021-01-29 11:05:50.379] $GPGGA,,,,,,,,,,M,,M,,*56
[2021-01-29 11:05:50.567] $GPGGA,,,,,,,,,,M,,M,,*56
[2021-01-29 11:05:50.785] $GPGGA,,,,,,,,,,M,,M,,*56
[2021-01-29 11:05:50.973] $GPGGA,,,,,,,,,,M,,M,,*56
[2021-01-29 11:05:51.176] $GPGGA,,,,,,,,,,M,,M,,*56
[2021-01-29 11:05:51.380] $GPGGA,,,,,,,,,,M,,M,,*56
[2021-01-29 11:05:51.584] $GPGGA,,,,,,,,,,M,,M,,*56
[2021-01-29 11:05:51.771] $GPGGA,,,,,,,,,,M,,M,,*56
[2021-01-29 11:05:51.990] $GPGGA,,,,,,,,,,M,,M,,*56
[2021-01-29 11:05:52.177] $GPGGA,,,,,,,,,,M,,M,,*56
[2021-01-29 11:05:52.383] $GPGGA,,,,,,,,,,M,,M,,*56
[2021-01-29 11:05:52.571] $GPGGA,,,,,,,,,,M,,M,,*56
[2021-01-29 11:05:52.774] $GPGGA,,,,,,,,,,M,,M,,*56
[2021-01-29 11:05:52.977] $GPGGA,,,,,,,,,,M,,M,,*56
[2021-01-29 11:05:53.180] $GPGGA,,,,,,,,,,M,,M,,*56
[2021-01-29 11:05:53.385] $GPGGA,,,,,,,,,,M,,M,,*56
[2021-01-29 11:05:53.588] $GPGGA,,,,,,,,,,M,,M,,*56
[2021-01-29 11:05:53.776] $GPGGA,,,,,,,,,,M,,M,,*56
[2021-01-29 11:05:53.979] $GPGGA,,,,,,,,,,M,,M,,*56
[2021-01-29 11:05:54.182] $GPGGA,,,,,,,,,,M,,M,,*56
[2021-01-29 11:05:54.386] $GPGGA,,,,,,,,,,M,,M,,*56
[2021-01-29 11:05:54.573] $GPGGA,,,,,,,,,,M,,M,,*56
[2021-01-29 11:05:54.776] $GPGGA,,,,,,,,,,M,,M,,*56
[2021-01-29 11:05:54.979] $GPGGA,,,,,,,,,,M,,M,,*56
[2021-01-29 11:05:55.183] $GPGGA,,,,,,,,,,M,,M,,*56
[2021-01-29 11:05:55.371] $GPGGA,,,,,,,,,,M,,M,,*56
[2021-01-29 11:05:55.575] $GPGGA,,,,,,,,,,M,,M,,*56
[2021-01-29 11:05:55.778] $GPGGA,,,,,,,,,,M,,M,,*56
[2021-01-29 11:05:55.981] $GPGGA,,,,,,,,,,M,,M,,*56
[2021-01-29 11:05:56.184] $GPGGA,,,,,,,,,,M,,M,,*56
[2021-01-29 11:05:56.387] $GPGGA,,,,,,,,,,M,,M,,*56
[2021-01-29 11:05:56.575] $GPGGA,,,,,,,,,,M,,M,,*56
[2021-01-29 11:05:56.778] $GPGGA,,,,,,,,,,M,,M,,*56
[2021-01-29 11:05:56.981] $GPGGA,,,,,,,,,,M,,M,,*56
[2021-01-29 11:05:57.184] $GPGGA,,,,,,,,,,M,,M,,*56
[2021-01-29 11:05:57.373] $GPGGA,,,,,,,,,,M,,M,,*56
[2021-01-29 11:05:57.576] $GPGGA,,,,,,,,,,M,,M,,*56
[2021-01-29 11:05:57.780] $GPGGA,,,,,,,,,,M,,M,,*56
[2021-01-29 11:05:57.983] $GPGGA,,,,,,,,,,M,,M,,*56
[2021-01-29 11:05:58.170] $GPGGA,,,,,,,,,,M,,M,,*56
[2021-01-29 11:05:58.391] $GPGGA,,,,,,,,,,M,,M,,*56
[2021-01-29 11:05:58.578] $GPGGA,,,,,,,,,,M,,M,,*56
[2021-01-29 11:05:58.781] $GPGGA,,,,,,,,,,M,,M,,*56
[2021-01-29 11:05:58.969] $GPGGA,,,,,,,,,,M,,M,,*56
[2021-01-29 11:05:59.187] $GPGGA,,,,,,,,,,M,,M,,*56
[2021-01-29 11:05:59.377] $GPGGA,,,,,,,,,,M,,M,,*56
[2021-01-29 11:05:59.580] $GPGGA,,,,,,,,,,M,,M,,*56
[2021-01-29 11:05:59.768] $GPGGA,,,,,,,,,,M,,M,,*56
[2021-01-29 11:05:59.987] $GPGGA,,,,,,,,,,M,,M,,*56
[2021-01-29 11:06:00.174] $GPGGA,,,,,,,,,,M,,M,,*56
[2021-01-29 11:06:00.378] $GPGGA,,,,,,,,,,M,,M,,*56
[2021-01-29 11:06:00.581] $GPGGA,,,,,,,,,,M,,M,,*56
[2021-01-29 11:06:00.785] $GPGGA,,,,,,,,,,M,,M,,*56
[2021-01-29 11:06:00.972] $GPGGA,,,,,,,,,,M,,M,,*56
[2021-01-29 11:06:01.175] $GPGGA,,,,,,,,,,M,,M,,*56
[2021-01-29 11:06:01.383] $GPGGA,,,,,,,,,,M,,M,,*56
[2021-01-29 11:06:01.586] $GPGGA,,,,,,,,,,M,,M,,*56
[2021-01-29 11:06:01.773] $GPGGA,,,,,,,,,,M,,M,,*56
[2021-01-29 11:06:01.976] $GPGGA,,,,,,,,,,M,,M,,*56
[2021-01-29 11:06:02.180] $GPGGA,,,,,,,,,,M,,M,,*56
[2021-01-29 11:06:02.382] $GPGGA,,,,,,,,,,M,,M,,*56
[2021-01-29 11:06:02.569] $GPGGA,,,,,,,,,,M,,M,,*56
[2021-01-29 11:06:02.788] $GPGGA,,,,,,,,,,M,,M,,*56
[2021-01-29 11:06:02.975] $GPGGA,,,,,,,,,,M,,M,,*56
[2021-01-29 11:06:03.178] $GPGGA,,,,,,,,,,M,,M,,*56
[2021-01-29 11:06:03.383] $GPGGA,,,,,,,,,,M,,M,,*56
[2021-01-29 11:06:03.586] $GPGGA,,,,,,,,,,M,,M,,*56
[2021-01-29 11:06:03.774] $GPGGA,,,,,,,,,,M,,M,,*56
[2021-01-29 11:06:03.977] $GPGGA,,,,,,,,,,M,,M,,*56
[2021-01-29 11:06:04.180] $GPGGA,,,,,,,,,,M,,M,,*56
[2021-01-29 11:06:04.386] $GPGGA,,,,,,,,,,M,,M,,*56
[2021-01-29 11:06:04.573] $GPGGA,,,,,,,,,,M,,M,,*56
[2021-01-29 11:06:04.777] $GPGGA,,,,,,,,,,M,,M,,*56
[2021-01-29 11:06:04.980] $GPGGA,,,,,,,,,,M,,M,,*56
[2021-01-29 11:06:05.183] $GPGGA,,,,,,,,,,M,,M,,*56
[2021-01-29 11:06:05.373] $GPGGA,,,,,,,,,,M,,M,,*56
[2021-01-29 11:06:05.576] $GPGGA,,,,,,,,,,M,,M,,*56
[2021-01-29 11:06:05.780] $GPGGA,,,,,,,,,,M,,M,,*56
[2021-01-29 11:06:05.983] $GPGGA,,,,,,,,,,M,,M,,*56
[2021-01-29 11:06:06.170] $GPGGA,,,,,,,,,,M,,M,,*56
[2021-01-29 11:06:06.387] $GPGGA,,,,,,,,,,M,,M,,*56
[2021-01-29 11:06:06.574] $GPGGA,,,,,,,,,,M,,M,,*56
[2021-01-29 11:06:06.777] $GPGGA,,,,,,,,,,M,,M,,*56
[2021-01-29 11:06:06.981] $GPGGA,,,,,,,,,,M,,M,,*56
[2021-01-29 11:06:07.184] $GPGGA,,,,,,,,,,M,,M,,*56
[2021-01-29 11:06:07.374] $GPGGA,,,,,,,,,,M,,M,,*56
[2021-01-29 11:06:07.577] $GPGGA,,,,,,,,,,M,,M,,*56
[2021-01-29 11:06:07.780] $GPGGA,,,,,,,,,,M,,M,,*56
[2021-01-29 11:06:07.984] $GPGGA,,,,,,,,,,M,,M,,*56
[2021-01-29 11:06:08.171] $GPGGA,,,,,,,,,,M,,M,,*56
[2021-01-29 11:06:08.375] $GPGGA,,,,,,,,,,M,,M,,*56
[2021-01-29 11:06:08.578] $GPGGA,,,,,,,,,,M,,M,,*56
[2021-01-29 11:06:08.781] $GPGGA,,,,,,,,,,M,,M,,*56
[2021-01-29 11:06:08.999] $GPGGA,,,,,,,,,,M,,M,,*56
[2021-01-29 11:06:09.187] $GPGGA,,,,,,,,,,M,,M,,*56
[2021-01-29 11:06:09.376] $GPGGA,,,,,,,,,,M,,M,,*56
[2021-01-29 11:06:09.579] $GPGGA,,,,,,,,,,M,,M,,*56
[2021-01-29 11:06:09.767] $GPGGA,,,,,,,,,,M,,M,,*56
[2021-01-29 11:06:09.985] $GPGGA,020608.60,4327.73894045,N,14148.32414267,E,1,03,26.0,113.446,M,31.590,M,,*53
[2021-01-29 11:06:10.189] $GPGGA,020608.80,4327.73898030,N,14148.32411809,E,1,03,26.0,113.589,M,31.590,M,,*56
[2021-01-29 11:06:10.284] $GPGGA,020608.90,4327.73899599,N,14148.32410733,E,1,03,26.0,113.589,M,31.590,M,,*57
[2021-01-29 11:06:10.393] $GPGGA,020609.00,4327.73942336,N,14148.32383745,E,1,03,26.0,113.591,M,31.590,M,,*5E
[2021-01-29 11:06:10.471] $GPGGA,020609.10,4327.73941971,N,14148.32384611,E,1,03,26.0,113.591,M,31.590,M,,*52
[2021-01-29 11:06:10.596] $GPGGA,020609.20,4327.73970408,N,14148.32366538,E,1,03,26.0,113.590,M,31.590,M,,*55
[2021-01-29 11:06:10.675] $GPGGA,020609.30,4327.73967761,N,14148.32368422,E,1,03,26.0,113.590,M,31.590,M,,*5A
[2021-01-29 11:06:10.784] $GPGGA,020609.40,4327.73994437,N,14148.32352018,E,1,03,26.0,113.590,M,31.590,M,,*55
[2021-01-29 11:06:10.878] $GPGGA,020609.50,4327.73988258,N,14148.32355826,E,1,03,26.0,113.590,M,31.590,M,,*54
[2021-01-29 11:06:10.987] $GPGGA,020609.60,4327.73970578,N,14148.32366941,E,1,03,26.1,113.589,M,31.590,M,,*5C
[2021-01-29 11:06:11.081] $GPGGA,020609.70,4327.73970355,N,14148.32367142,E,1,03,26.1,113.589,M,31.590,M,,*5E
[2021-01-29 11:06:11.190] $GPGGA,020609.80,4327.73936723,N,14148.32387626,E,1,03,26.1,113.588,M,31.590,M,,*5C
[2021-01-29 11:06:11.273] $GPGGA,020609.90,4327.73935540,N,14148.32388469,E,1,03,26.1,113.587,M,31.590,M,,*50
[2021-01-29 11:06:11.396] $GPGGA,020610.00,4327.73881207,N,14148.32422265,E,1,03,26.1,113.586,M,31.590,M,,*57
[2021-01-29 11:06:11.474] $GPGGA,020610.10,4327.73873582,N,14148.32427380,E,1,03,26.1,113.586,M,31.590,M,,*5E
[2021-01-29 11:06:11.599] $GPGGA,020610.20,4327.73856316,N,14148.32437710,E,1,03,26.1,113.589,M,31.590,M,,*52
[2021-01-29 11:06:11.678] $GPGGA,020610.30,4327.73858708,N,14148.32436030,E,1,03,26.1,113.589,M,31.590,M,,*52
[2021-01-29 11:06:11.787] $GPGGA,020610.40,4327.73820081,N,14148.32460700,E,1,03,26.1,113.587,M,31.590,M,,*55
[2021-01-29 11:06:11.865] $GPGGA,020610.50,4327.73821935,N,14148.32459077,E,1,03,26.1,113.587,M,31.590,M,,*5E
[2021-01-29 11:06:11.990] $GPGGA,020610.60,4327.73799603,N,14148.32473106,E,1,03,26.0,113.588,M,31.590,M,,*5A
[2021-01-29 11:06:12.068] $GPGGA,020610.70,4327.73800557,N,14148.32472278,E,1,03,26.0,113.588,M,31.590,M,,*5D
[2021-01-29 11:06:12.193] $GPGGA,020610.80,4327.73790683,N,14148.32478550,E,1,03,26.0,113.589,M,31.590,M,,*58
[2021-01-29 11:06:12.272] $GPGGA,020610.90,4327.73789997,N,14148.32478894,E,1,03,26.0,113.589,M,31.590,M,,*5E
[2021-01-29 11:06:12.397] $GPGGA,020611.00,4327.73773000,N,14148.32489327,E,1,03,26.0,113.589,M,31.590,M,,*59
[2021-01-29 11:06:12.475] $GPGGA,020611.10,4327.73775236,N,14148.32488326,E,1,03,26.0,113.589,M,31.590,M,,*59
[2021-01-29 11:06:12.584] $GPGGA,020611.20,4327.73734580,N,14148.32513882,E,1,03,26.0,113.587,M,31.590,M,,*5D
[2021-01-29 11:06:12.678] $GPGGA,020611.30,4327.73741820,N,14148.32509129,E,1,03,26.0,113.588,M,31.590,M,,*55
[2021-01-29 11:06:12.788] $GPGGA,020611.40,4327.73708434,N,14148.32529889,E,1,03,26.0,113.588,M,31.590,M,,*57
[2021-01-29 11:06:12.866] $GPGGA,020611.50,4327.73709457,N,14148.32528719,E,1,03,26.0,113.588,M,31.590,M,,*55
[2021-01-29 11:06:12.991] $GNGGA,020611.60,4327.72955605,N,14148.33015423,E,1,06,1.4,112.037,M,31.590,M,,*7F
[2021-01-29 11:06:13.084] $GNGGA,020611.70,4327.72955512,N,14148.33015400,E,1,05,1.4,112.037,M,31.590,M,,*79
[2021-01-29 11:06:13.194] $GPGGA,020611.80,4327.72959462,N,14148.32976633,E,2,05,1.6,112.764,M,31.590,M,6.8,0137*48
[2021-01-29 11:06:13.290] $GPGGA,020611.90,4327.72959712,N,14148.32976626,E,2,05,1.6,112.764,M,31.590,M,6.8,0137*49
[2021-01-29 11:06:13.383] $GPGGA,020612.00,4327.72963159,N,14148.32962858,E,2,06,1.4,113.135,M,31.590,M,7.0,0137*4A
[2021-01-29 11:06:13.493] $GPGGA,020612.10,4327.72963190,N,14148.32962504,E,2,06,1.4,113.134,M,31.590,M,7.0,0137*4B
[2021-01-29 11:06:13.602] $GPGGA,020612.20,4327.72964844,N,14148.32954834,E,2,06,1.4,113.188,M,31.590,M,7.2,0137*41
[2021-01-29 11:06:13.696] $GPGGA,020612.30,4327.72964950,N,14148.32954636,E,2,06,1.4,113.180,M,31.590,M,7.2,0137*40
[2021-01-29 11:06:13.790] $GPGGA,020612.40,4327.72966658,N,14148.32949195,E,2,06,1.4,113.164,M,31.590,M,3.4,0137*48
[2021-01-29 11:06:13.899] $GPGGA,020612.50,4327.72967155,N,14148.32949148,E,2,06,1.4,113.161,M,31.590,M,3.4,0137*47
[2021-01-29 11:06:13.993] $GPGGA,020612.60,4327.72968350,N,14148.32945153,E,2,06,1.4,113.110,M,31.590,M,3.6,0137*4E
[2021-01-29 11:06:14.086] $GPGGA,020612.70,4327.72968372,N,14148.32944856,E,2,06,1.4,113.114,M,31.590,M,3.6,0137*46
[2021-01-29 11:06:14.196] $GPGGA,020612.80,4327.72968804,N,14148.32941371,E,2,06,1.4,113.038,M,31.590,M,3.8,0137*49
[2021-01-29 11:06:14.291] $GPGGA,020612.90,4327.72969165,N,14148.32941449,E,2,06,1.4,113.036,M,31.590,M,3.8,0137*45
[2021-01-29 11:06:14.400] $GPGGA,020613.00,4327.72969872,N,14148.32938559,E,2,06,1.4,112.990,M,31.590,M,4.0,0137*47
[2021-01-29 11:06:14.494] $GPGGA,020613.10,4327.72969963,N,14148.32938749,E,2,06,1.4,112.990,M,31.590,M,4.0,0137*44
[2021-01-29 11:06:14.588] $GPGGA,020613.20,4327.72970490,N,14148.32936731,E,2,06,1.4,112.985,M,31.590,M,4.2,0137*49
[2021-01-29 11:06:14.697] $GPGGA,020613.30,4327.72970335,N,14148.32936585,E,2,06,1.4,112.995,M,31.590,M,4.2,0137*4C
[2021-01-29 11:06:14.791] $GPGGA,020613.40,4327.72970773,N,14148.32934921,E,2,06,1.4,113.004,M,31.590,M,4.4,0137*4B
[2021-01-29 11:06:14.885] $GPGGA,020613.50,4327.72970621,N,14148.32934949,E,2,06,1.4,113.008,M,31.590,M,4.4,0137*4E
[2021-01-29 11:06:14.994] $GPGGA,020613.60,4327.72971220,N,14148.32933361,E,2,06,1.4,113.018,M,31.590,M,4.6,0137*4D
[2021-01-29 11:06:15.088] $GPGGA,020613.70,4327.72971422,N,14148.32933452,E,2,06,1.4,113.004,M,31.590,M,4.6,0137*42
[2021-01-29 11:06:15.197] $GPGGA,020613.80,4327.72971938,N,14148.32931815,E,2,06,1.4,113.021,M,31.590,M,4.8,0137*4F
[2021-01-29 11:06:15.292] $GPGGA,020613.90,4327.72971891,N,14148.32932206,E,2,06,1.4,113.013,M,31.590,M,4.8,0137*46
[2021-01-29 11:06:15.402] $GPGGA,020614.00,4327.72972485,N,14148.32930633,E,2,06,1.4,113.033,M,31.590,M,5.0,0137*49
[2021-01-29 11:06:15.496] $GPGGA,020614.10,4327.72972476,N,14148.32930710,E,2,06,1.4,113.036,M,31.590,M,5.0,0137*41
[2021-01-29 11:06:15.589] $GPGGA,020614.20,4327.72973353,N,14148.32929345,E,2,06,1.4,113.057,M,31.590,M,5.2,0137*4A
[2021-01-29 11:06:15.683] $GPGGA,020614.30,4327.72973340,N,14148.32929408,E,2,06,1.4,113.058,M,31.590,M,5.2,0137*48
[2021-01-29 11:06:15.792] $GPGGA,020614.40,4327.72973885,N,14148.32928197,E,2,06,1.4,113.081,M,31.590,M,5.4,0137*4D
[2021-01-29 11:06:15.886] $GPGGA,020614.50,4327.72974143,N,14148.32928370,E,2,06,1.4,113.070,M,31.590,M,5.4,0137*4D
[2021-01-29 11:06:15.995] $GPGGA,020614.60,4327.72974499,N,14148.32927309,E,2,06,1.4,113.099,M,31.590,M,5.6,0137*48
[2021-01-29 11:06:16.089] $GPGGA,020614.70,4327.72974544,N,14148.32927253,E,2,06,1.4,113.101,M,31.590,M,5.6,0137*46
[2021-01-29 11:06:16.199] $GPGGA,020614.80,4327.72974547,N,14148.32926168,E,2,07,1.4,113.093,M,31.590,M,5.8,0137*45
[2021-01-29 11:06:16.294] $GPGGA,020614.90,4327.72974539,N,14148.32926310,E,2,06,1.4,113.105,M,31.590,M,5.8,0137*4F
[2021-01-29 11:06:16.404] $GPGGA,020615.00,4327.72974062,N,14148.32925351,E,2,07,1.4,113.063,M,31.590,M,6.0,0137*41
[2021-01-29 11:06:16.497] $GPGGA,020615.10,4327.72974224,N,14148.32925206,E,2,07,1.4,113.063,M,31.590,M,6.0,0137*43
[2021-01-29 11:06:16.591] $GPGGA,020615.20,4327.72973975,N,14148.32924526,E,2,08,1.3,113.032,M,31.590,M,6.2,0137*42
[2021-01-29 11:06:16.685] $GPGGA,020615.30,4327.72974051,N,14148.32924317,E,2,07,1.3,113.023,M,31.590,M,6.2,0137*40
[2021-01-29 11:06:16.794] $GPGGA,020615.40,4327.72973917,N,14148.32923818,E,2,08,1.3,112.999,M,31.590,M,6.4,0137*48
[2021-01-29 11:06:16.888] $GPGGA,020615.50,4327.72973842,N,14148.32924057,E,2,08,1.3,113.008,M,31.590,M,6.4,0137*4C
[2021-01-29 11:06:16.997] $GPGGA,020615.60,4327.72973662,N,14148.32923763,E,2,08,1.3,112.991,M,31.590,M,6.6,0137*4E
[2021-01-29 11:06:17.091] $GPGGA,020615.70,4327.72973764,N,14148.32924101,E,2,08,1.3,112.986,M,31.590,M,6.6,0137*4B
[2021-01-29 11:06:17.200] $GPGGA,020615.80,4327.72973075,N,14148.32923852,E,2,08,1.3,112.946,M,31.590,M,6.8,0137*49
[2021-01-29 11:06:17.294] $GPGGA,020615.90,4327.72973303,N,14148.32923863,E,2,08,1.3,112.948,M,31.590,M,6.8,0137*46
[2021-01-29 11:06:17.388] $GPGGA,020616.00,4327.72972630,N,14148.32923916,E,2,08,1.3,112.905,M,31.590,M,7.0,0137*4B
[2021-01-29 11:06:17.481] $GPGGA,020616.10,4327.72972844,N,14148.32923687,E,2,08,1.3,112.912,M,31.590,M,7.0,0137*46
[2021-01-29 11:06:17.591] $GPGGA,020616.20,4327.72972058,N,14148.32923815,E,2,08,1.3,112.879,M,31.590,M,7.2,0137*4B
[2021-01-29 11:06:17.684] $GPGGA,020616.30,4327.72972082,N,14148.32923863,E,2,08,1.3,112.877,M,31.590,M,7.2,0137*42
[2021-01-29 11:06:17.794] $GPGGA,020616.40,4327.72971334,N,14148.32924009,E,2,08,1.3,112.863,M,31.590,M,6.4,0137*49
[2021-01-29 11:06:17.888] $GPGGA,020616.50,4327.72971320,N,14148.32923941,E,2,08,1.3,112.858,M,31.590,M,6.4,0137*47
[2021-01-29 11:06:17.997] $GPGGA,020616.60,4327.72970684,N,14148.32924095,E,2,08,1.3,112.838,M,31.590,M,6.6,0137*4D
[2021-01-29 11:06:18.091] $GPGGA,020616.70,4327.72970844,N,14148.32923935,E,2,08,1.3,112.839,M,31.590,M,6.6,0137*4B
[2021-01-29 11:06:18.200] $GPGGA,020616.80,4327.72970206,N,14148.32924260,E,2,08,1.3,112.816,M,31.590,M,6.8,0137*47
[2021-01-29 11:06:18.296] $GPGGA,020616.90,4327.72970250,N,14148.32924256,E,2,08,1.3,112.820,M,31.590,M,6.8,0137*45
[2021-01-29 11:06:18.390] $GPGGA,020617.00,4327.72969543,N,14148.32924629,E,2,08,1.3,112.810,M,31.590,M,7.0,0137*46
[2021-01-29 11:06:18.483] $GPGGA,020617.10,4327.72969526,N,14148.32924561,E,2,08,1.3,112.819,M,31.590,M,7.0,0137*42
[2021-01-29 11:06:18.593] $GPGGA,020617.20,4327.72968927,N,14148.32924876,E,2,08,1.3,112.812,M,31.590,M,7.2,0137*4F
[2021-01-29 11:06:18.687] $GPGGA,020617.30,4327.72968680,N,14148.32924781,E,2,08,1.3,112.814,M,31.590,M,7.2,0137*4D
[2021-01-29 11:06:18.796] $GPGGA,020617.40,4327.72968288,N,14148.32925196,E,2,08,1.3,112.801,M,31.590,M,6.4,0137*44
[2021-01-29 11:06:18.890] $GPGGA,020617.50,4327.72968243,N,14148.32925327,E,2,08,1.3,112.802,M,31.590,M,6.4,0137*49
[2021-01-29 11:06:18.999] $GPGGA,020617.60,4327.72967906,N,14148.32925673,E,2,08,1.3,112.794,M,31.590,M,6.6,0137*49
[2021-01-29 11:06:19.093] $GPGGA,020617.70,4327.72967944,N,14148.32925870,E,2,08,1.3,112.802,M,31.590,M,6.6,0137*43
[2021-01-29 11:06:19.202] $GPGGA,020617.80,4327.72967592,N,14148.32926024,E,2,08,1.3,112.801,M,31.590,M,6.8,0137*4C
[2021-01-29 11:06:19.282] $GPGGA,020617.90,4327.72967654,N,14148.32926404,E,2,08,1.3,112.811,M,31.590,M,6.8,0137*43
[2021-01-29 11:06:19.391] $GPGGA,020618.00,4327.72967361,N,14148.32926631,E,2,08,1.3,112.811,M,31.590,M,7.0,0137*4B
[2021-01-29 11:06:19.485] $GPGGA,020618.10,4327.72967328,N,14148.32926638,E,2,08,1.3,112.811,M,31.590,M,7.0,0137*4E
[2021-01-29 11:06:19.594] $GPGGA,020618.20,4327.72967177,N,14148.32926844,E,2,08,1.3,112.812,M,31.590,M,7.2,0137*41
[2021-01-29 11:06:19.688] $GPGGA,020618.30,4327.72967403,N,14148.32926869,E,2,08,1.3,112.803,M,31.590,M,7.2,0137*49
[2021-01-29 11:06:19.797] $GPGGA,020618.40,4327.72967302,N,14148.32927057,E,2,08,1.3,112.802,M,31.590,M,3.4,0137*4F
[2021-01-29 11:06:19.891] $GPGGA,020618.50,4327.72967508,N,14148.32926914,E,2,08,1.3,112.813,M,31.590,M,3.4,0137*4D
[2021-01-29 11:06:20.001] $GPGGA,020618.60,4327.72967730,N,14148.32926751,E,2,08,1.3,112.822,M,31.590,M,3.6,0137*48
[2021-01-29 11:06:20.094] $GPGGA,020618.70,4327.72967641,N,14148.32926680,E,2,08,1.3,112.832,M,31.590,M,3.6,0137*42
[2021-01-29 11:06:20.204] $GPGGA,020618.80,4327.72967596,N,14148.32926157,E,2,07,1.3,112.831,M,31.590,M,3.8,0137*4B
[2021-01-29 11:06:20.287] $GPGGA,020618.90,4327.72967661,N,14148.32926270,E,2,07,1.3,112.835,M,31.590,M,3.8,0137*43
[2021-01-29 11:06:20.396] $GPGGA,020619.00,4327.72967620,N,14148.32925838,E,2,07,1.3,112.839,M,31.590,M,4.0,0137*48
[2021-01-29 11:06:20.490] $GPGGA,020619.10,4327.72967220,N,14148.32926019,E,2,07,1.3,112.827,M,31.590,M,4.0,0137*4A
[2021-01-29 11:06:20.599] $GPGGA,020619.20,4327.72967255,N,14148.32925697,E,2,07,1.3,112.830,M,31.590,M,4.2,0137*4C
[2021-01-29 11:06:20.693] $GPGGA,020619.30,4327.72967135,N,14148.32925715,E,2,07,1.3,112.832,M,31.590,M,4.2,0137*41
[2021-01-29 11:06:20.803] $GPGGA,020619.40,4327.72967173,N,14148.32925243,E,2,07,1.3,112.829,M,31.590,M,4.4,0137*4E
[2021-01-29 11:06:20.896] $GPGGA,020619.50,4327.72967061,N,14148.32925144,E,2,07,1.3,112.825,M,31.590,M,4.4,0137*45
[2021-01-29 11:06:20.990] $GPGGA,020619.60,4327.72967097,N,14148.32924822,E,2,07,1.3,112.830,M,31.590,M,4.6,0137*41
[2021-01-29 11:06:21.084] $GPGGA,020619.70,4327.72967214,N,14148.32924875,E,2,07,1.3,112.827,M,31.590,M,4.6,0137*4D
[2021-01-29 11:06:21.193] $GPGGA,020619.80,4327.72967265,N,14148.32924550,E,2,07,1.3,112.837,M,31.590,M,4.8,0137*41
[2021-01-29 11:06:21.285] $GPGGA,020619.90,4327.72967275,N,14148.32924382,E,2,07,1.3,112.838,M,31.590,M,4.8,0137*47
[2021-01-29 11:06:21.395] $GPGGA,020620.00,4327.72967335,N,14148.32923871,E,2,07,1.3,112.837,M,31.590,M,5.0,0137*47
[2021-01-29 11:06:21.489] $GPGGA,020620.10,4327.72967301,N,14148.32924026,E,2,07,1.3,112.837,M,31.590,M,5.0,0137*4C
[2021-01-29 11:06:21.598] $GPGGA,020620.20,4327.72967415,N,14148.32923635,E,2,07,1.3,112.840,M,31.590,M,5.2,0137*4C
[2021-01-29 11:06:21.692] $GPGGA,020620.30,4327.72967327,N,14148.32923643,E,2,07,1.3,112.837,M,31.590,M,5.2,0137*4A
[2021-01-29 11:06:21.801] $GPGGA,020620.40,4327.72967268,N,14148.32923293,E,2,07,1.3,112.839,M,31.590,M,5.4,0137*46
[2021-01-29 11:06:21.895] $GPGGA,020620.50,4327.72967411,N,14148.32923026,E,2,07,1.3,112.837,M,31.590,M,5.4,0137*4D
[2021-01-29 11:06:21.988] $GPGGA,020620.60,4327.72967316,N,14148.32922523,E,2,07,1.3,112.831,M,31.590,M,5.6,0137*4B
[2021-01-29 11:06:22.098] $GPGGA,020620.70,4327.72967564,N,14148.32922399,E,2,07,1.3,112.831,M,31.590,M,5.6,0137*4E
[2021-01-29 11:06:22.192] $GPGGA,020620.80,4327.72967582,N,14148.32922083,E,2,07,1.3,112.832,M,31.590,M,5.8,0137*4C
[2021-01-29 11:06:22.287] $GPGGA,020620.90,4327.72967584,N,14148.32921841,E,2,07,1.3,112.836,M,31.590,M,5.8,0137*4A
[2021-01-29 11:06:22.396] $GPGGA,020621.00,4327.72967548,N,14148.32921606,E,2,07,1.3,112.842,M,31.590,M,6.0,0137*47
[2021-01-29 11:06:22.490] $GPGGA,020621.10,4327.72967342,N,14148.32921495,E,2,07,1.3,112.852,M,31.590,M,6.0,0137*43
[2021-01-29 11:06:22.599] $GPGGA,020621.20,4327.72967399,N,14148.32921159,E,2,07,1.3,112.857,M,31.590,M,6.2,0137*44
[2021-01-29 11:06:22.693] $GPGGA,020621.30,4327.72967091,N,14148.32920968,E,2,07,1.3,112.858,M,31.590,M,6.2,0137*4A
[2021-01-29 11:06:22.802] $GPGGA,020621.40,4327.72967139,N,14148.32920725,E,2,07,1.3,112.862,M,31.590,M,6.4,0137*46
[2021-01-29 11:06:22.896] $GPGGA,020621.50,4327.72966910,N,14148.32920271,E,2,07,1.3,112.876,M,31.590,M,6.4,0137*44
[2021-01-29 11:06:22.990] $GPGGA,020621.60,4327.72966645,N,14148.32920014,E,2,07,1.3,112.881,M,31.590,M,6.6,0137*43
[2021-01-29 11:06:23.084] $GPGGA,020621.70,4327.72966493,N,14148.32919815,E,2,07,1.3,112.891,M,31.590,M,6.6,0137*49
[2021-01-29 11:06:23.193] $GPGGA,020621.80,4327.72966285,N,14148.32919549,E,2,07,1.3,112.903,M,31.590,M,6.8,0137*47
[2021-01-29 11:06:23.289] $GPGGA,020621.90,4327.72966245,N,14148.32919275,E,2,07,1.3,112.911,M,31.590,M,6.8,0137*41
[2021-01-29 11:06:23.382] $GPGGA,020622.00,4327.72966080,N,14148.32918990,E,2,07,1.3,112.917,M,31.590,M,7.0,0137*4E
[2021-01-29 11:06:23.492] $GPGGA,020622.10,4327.72966140,N,14148.32918965,E,2,07,1.3,112.910,M,31.590,M,7.0,0137*4F
[2021-01-29 11:06:23.601] $GPGGA,020622.20,4327.72966038,N,14148.32918862,E,2,07,1.3,112.912,M,31.590,M,7.2,0137*44
[2021-01-29 11:06:23.695] $GPGGA,020622.30,4327.72966196,N,14148.32918819,E,2,07,1.3,112.913,M,31.590,M,7.2,0137*4D
[2021-01-29 11:06:23.789] $GPGGA,020622.40,4327.72966010,N,14148.32918805,E,2,07,1.3,112.919,M,31.590,M,6.4,0137*45
[2021-01-29 11:06:23.898] $GPGGA,020622.50,4327.72966007,N,14148.32918428,E,2,07,1.3,112.921,M,31.590,M,6.4,0137*4A
[2021-01-29 11:06:23.992] $GPGGA,020622.60,4327.72965887,N,14148.32918379,E,2,07,1.3,112.924,M,31.590,M,6.6,0137*4E
[2021-01-29 11:06:24.085] $GPGGA,020622.70,4327.72965858,N,14148.32918525,E,2,07,1.3,112.929,M,31.590,M,6.6,0137*4F
[2021-01-29 11:06:24.195] $GPGGA,020622.80,4327.72965578,N,14148.32918472,E,2,07,1.3,112.923,M,31.590,M,6.8,0137*48
[2021-01-29 11:06:24.290] $GPGGA,020622.90,4327.72965570,N,14148.32918450,E,2,07,1.3,112.927,M,31.590,M,6.8,0137*45
[2021-01-29 11:06:24.399] $GPGGA,020623.00,4327.72965291,N,14148.32918466,E,2,07,1.3,112.925,M,31.590,M,7.0,0137*4B
[2021-01-29 11:06:24.493] $GPGGA,020623.10,4327.72965401,N,14148.32918407,E,2,07,1.3,112.921,M,31.590,M,7.0,0137*46
[2021-01-29 11:06:24.602] $GPGGA,020623.20,4327.72965044,N,14148.32918231,E,2,07,1.3,112.920,M,31.590,M,7.2,0137*40
[2021-01-29 11:06:24.696] $GPGGA,020623.30,4327.72964904,N,14148.32918242,E,2,07,1.3,112.937,M,31.590,M,7.2,0137*4F
[2021-01-29 11:06:24.790] $GPGGA,020623.40,4327.72964576,N,14148.32917990,E,2,07,1.3,112.940,M,31.590,M,6.4,0137*4D
[2021-01-29 11:06:24.884] $GPGGA,020623.50,4327.72964644,N,14148.32917957,E,2,07,1.3,112.936,M,31.590,M,6.4,0137*44
[2021-01-29 11:06:24.993] $GPGGA,020623.60,4327.72964336,N,14148.32917875,E,2,07,1.3,112.939,M,31.590,M,6.6,0137*4B
[2021-01-29 11:06:25.087] $GPGGA,020623.70,4327.72964549,N,14148.32917796,E,2,07,1.3,112.931,M,31.590,M,6.6,0137*4E
[2021-01-29 11:06:25.196] $GPGGA,020623.80,4327.72964220,N,14148.32917717,E,2,07,1.3,112.930,M,31.590,M,6.8,0137*4F
[2021-01-29 11:06:25.292] $GPGGA,020623.90,4327.72964135,N,14148.32917563,E,2,07,1.3,112.938,M,31.590,M,6.8,0137*40
[2021-01-29 11:06:25.402] $GPGGA,020624.00,4327.72963864,N,14148.32917303,E,2,07,1.3,112.939,M,31.590,M,7.0,0137*4C
[2021-01-29 11:06:25.495] $GPGGA,020624.10,4327.72963801,N,14148.32917249,E,2,07,1.3,112.937,M,31.590,M,7.0,0137*4F
[2021-01-29 11:06:25.589] $GPGGA,020624.20,4327.72963683,N,14148.32917062,E,2,07,1.3,112.935,M,31.590,M,7.2,0137*43
[2021-01-29 11:06:25.683] $GPGGA,020624.30,4327.72963694,N,14148.32917185,E,2,07,1.3,112.945,M,31.590,M,7.2,0137*4B
[2021-01-29 11:06:25.792] $GPGGA,020624.40,4327.72963400,N,14148.32916988,E,2,07,1.3,112.940,M,31.590,M,3.4,0137*40
[2021-01-29 11:06:25.886] $GPGGA,020624.50,4327.72963498,N,14148.32916730,E,2,07,1.3,112.940,M,31.590,M,3.4,0137*4D
[2021-01-29 11:06:25.995] $GPGGA,020624.60,4327.72963234,N,14148.32916589,E,2,07,1.3,112.940,M,31.590,M,3.6,0137*4C
[2021-01-29 11:06:26.089] $GPGGA,020624.70,4327.72963375,N,14148.32916555,E,2,07,1.3,112.938,M,31.590,M,3.6,0137*47
[2021-01-29 11:06:26.199] $GPGGA,020624.80,4327.72963127,N,14148.32916550,E,2,07,1.3,112.938,M,31.590,M,3.8,0137*46
[2021-01-29 11:06:26.294] $GPGGA,020624.90,4327.72963057,N,14148.32916468,E,2,07,1.3,112.938,M,31.590,M,3.8,0137*4B
[2021-01-29 11:06:26.403] $GPGGA,020625.00,4327.72962858,N,14148.32916427,E,2,07,1.3,112.937,M,31.590,M,4.0,0137*4E
[2021-01-29 11:06:26.497] $GPGGA,020625.10,4327.72962503,N,14148.32916542,E,2,07,1.3,112.952,M,31.590,M,4.0,0137*4D
[2021-01-29 11:06:26.591] $GPGGA,020625.20,4327.72962419,N,14148.32916383,E,2,07,1.3,112.951,M,31.590,M,4.2,0137*4E
[2021-01-29 11:06:26.684] $GPGGA,020625.30,4327.72962473,N,14148.32916223,E,2,07,1.3,112.956,M,31.590,M,4.2,0137*4F
[2021-01-29 11:06:26.794] $GPGGA,020625.40,4327.72962313,N,14148.32916026,E,2,07,1.3,112.950,M,31.590,M,4.4,0137*4E
[2021-01-29 11:06:26.888] $GPGGA,020625.50,4327.72962475,N,14148.32916230,E,2,07,1.3,112.949,M,31.590,M,4.4,0137*45
[2021-01-29 11:06:26.997] $GPGGA,020625.60,4327.72962337,N,14148.32916156,E,2,07,1.3,112.944,M,31.590,M,4.6,0137*4B
[2021-01-29 11:06:27.091] $GPGGA,020625.70,4327.72962541,N,14148.32915959,E,2,07,1.3,112.951,M,31.590,M,4.6,0137*4D
[2021-01-29 11:06:27.200] $GPGGA,020625.80,4327.72962462,N,14148.32915844,E,2,07,1.3,112.953,M,31.590,M,4.8,0137*43
[2021-01-29 11:06:27.294] $GPGGA,020625.90,4327.72962516,N,14148.32916001,E,2,07,1.3,112.949,M,31.590,M,4.8,0137*41
[2021-01-29 11:06:27.403] $GPGGA,020626.00,4327.72962506,N,14148.32915918,E,2,07,1.3,112.946,M,31.590,M,5.0,0137*4E
[2021-01-29 11:06:27.497] $GPGGA,020626.10,4327.72962447,N,14148.32915956,E,2,07,1.3,112.942,M,31.590,M,5.0,0137*45
[2021-01-29 11:06:27.591] $GPGGA,020626.20,4327.72962356,N,14148.32915961,E,2,07,1.3,112.935,M,31.590,M,5.2,0137*47
[2021-01-29 11:06:27.684] $GPGGA,020626.30,4327.72962300,N,14148.32916139,E,2,07,1.3,112.942,M,31.590,M,5.2,0137*43
[2021-01-29 11:06:27.794] $GPGGA,020626.40,4327.72962299,N,14148.32916108,E,2,07,1.3,112.934,M,31.590,M,5.4,0137*40
[2021-01-29 11:06:27.887] $GPGGA,020626.50,4327.72962313,N,14148.32916174,E,2,07,1.3,112.940,M,31.590,M,5.4,0137*4A
[2021-01-29 11:06:27.997] $GPGGA,020626.60,4327.72962296,N,14148.32916249,E,2,07,1.3,112.930,M,31.590,M,5.6,0137*4D
[2021-01-29 11:06:28.091] $GPGGA,020626.70,4327.72962300,N,14148.32916142,E,2,07,1.3,112.942,M,31.590,M,5.6,0137*4F
[2021-01-29 11:06:28.200] $GPGGA,020626.80,4327.72962252,N,14148.32916308,E,2,07,1.3,112.933,M,31.590,M,5.8,0137*42
[2021-01-29 11:06:28.295] $GPGGA,020626.90,4327.72962269,N,14148.32916498,E,2,07,1.3,112.931,M,31.590,M,5.8,0137*47
[2021-01-29 11:06:28.405] $GPGGA,020627.00,4327.72962104,N,14148.32916389,E,2,07,1.3,112.922,M,31.590,M,6.0,0137*49
[2021-01-29 11:06:28.483] $GPGGA,020627.10,4327.72962153,N,14148.32916537,E,2,07,1.3,112.917,M,31.590,M,6.0,0137*4F
[2021-01-29 11:06:28.592] $GPGGA,020627.20,4327.72962028,N,14148.32916485,E,2,07,1.3,112.910,M,31.590,M,6.2,0137*4C
[2021-01-29 11:06:28.686] $GPGGA,020627.30,4327.72962080,N,14148.32916750,E,2,07,1.3,112.903,M,31.590,M,6.2,0137*46
[2021-01-29 11:06:28.795] $GPGGA,020627.40,4327.72962102,N,14148.32916794,E,2,07,1.3,112.902,M,31.590,M,6.4,0137*45
[2021-01-29 11:06:28.889] $GPGGA,020627.50,4327.72962101,N,14148.32916739,E,2,07,1.3,112.903,M,31.590,M,6.4,0137*41
[2021-01-29 11:06:28.998] $GPGGA,020627.60,4327.72961983,N,14148.32916609,E,2,07,1.3,112.898,M,31.590,M,6.6,0137*40
[2021-01-29 11:06:29.092] $GPGGA,020627.70,4327.72962174,N,14148.32916333,E,2,07,1.3,112.902,M,31.590,M,6.6,0137*4C
[2021-01-29 11:06:29.202] $GPGGA,020627.80,4327.72962111,N,14148.32916294,E,2,07,1.3,112.899,M,31.590,M,6.8,0137*41
[2021-01-29 11:06:29.281] $GPGGA,020627.90,4327.72962319,N,14148.32916180,E,2,07,1.3,112.895,M,31.590,M,6.8,0137*40
[2021-01-29 11:06:29.390] $GPGGA,020628.00,4327.72962195,N,14148.32916159,E,2,07,1.3,112.897,M,31.590,M,7.0,0137*4F
[2021-01-29 11:06:29.484] $GPGGA,020628.10,4327.72962163,N,14148.32916165,E,2,07,1.3,112.894,M,31.590,M,7.0,0137*4B
[2021-01-29 11:06:29.593] $GPGGA,020628.20,4327.72962113,N,14148.32916092,E,2,07,1.3,112.895,M,31.590,M,7.2,0137*45
[2021-01-29 11:06:29.687] $GPGGA,020628.30,4327.72962184,N,14148.32916278,E,2,07,1.3,112.895,M,31.590,M,7.2,0137*4C
[2021-01-29 11:06:29.796] $GPGGA,020628.40,4327.72961989,N,14148.32916102,E,2,07,1.3,112.894,M,31.590,M,6.4,0137*45
[2021-01-29 11:06:29.890] $GPGGA,020628.50,4327.72962176,N,14148.32916299,E,2,07,1.3,112.907,M,31.590,M,6.4,0137*45
[2021-01-29 11:06:30.000] $GPGGA,020628.60,4327.72962041,N,14148.32916182,E,2,07,1.3,112.904,M,31.590,M,6.6,0137*4B
[2021-01-29 11:06:30.093] $GPGGA,020628.70,4327.72962353,N,14148.32915917,E,2,07,1.3,112.905,M,31.590,M,6.6,0137*4C
[2021-01-29 11:06:30.203] $GPGGA,020628.80,4327.72962362,N,14148.32915911,E,2,07,1.3,112.901,M,31.590,M,6.8,0137*4D
[2021-01-29 11:06:30.284] $GPGGA,020628.90,4327.72962262,N,14148.32915791,E,2,07,1.3,112.922,M,31.590,M,6.8,0137*4A
[2021-01-29 11:06:30.393] $GPGGA,020629.00,4327.72962205,N,14148.32915833,E,2,07,1.3,112.923,M,31.590,M,7.0,0137*4C
[2021-01-29 11:06:30.487] $GPGGA,020629.10,4327.72961994,N,14148.32915653,E,2,07,1.3,112.925,M,31.590,M,7.0,0137*43
[2021-01-29 11:06:30.596] $GPGGA,020629.20,4327.72961919,N,14148.32915714,E,2,07,1.3,112.928,M,31.590,M,7.2,0137*48
[2021-01-29 11:06:30.690] $GPGGA,020629.30,4327.72961803,N,14148.32915822,E,2,07,1.3,112.930,M,31.590,M,7.2,0137*40
[2021-01-29 11:06:30.799] $GPGGA,020629.40,4327.72961672,N,14148.32915895,E,2,07,1.3,112.933,M,31.590,M,6.4,0137*47
[2021-01-29 11:06:30.893] $GPGGA,020629.50,4327.72961907,N,14148.32915784,E,2,07,1.3,112.923,M,31.590,M,6.4,0137*45
[2021-01-29 11:06:31.002] $GPGGA,020629.60,4327.72961946,N,14148.32915818,E,2,07,1.3,112.920,M,31.590,M,6.6,0137*48
[2021-01-29 11:06:31.096] $GPGGA,020629.70,4327.72961919,N,14148.32915851,E,2,07,1.3,112.922,M,31.590,M,6.6,0137*4C
[2021-01-29 11:06:31.197] $GPGGA,020629.80,4327.72961834,N,14148.32915809,E,2,07,1.3,112.919,M,31.590,M,6.8,0137*46
[2021-01-29 11:06:31.294] $GPGGA,020629.90,4327.72961807,N,14148.32915982,E,2,07,1.3,112.923,M,31.590,M,6.8,0137*4C
[2021-01-29 11:06:31.395] $GPGGA,020630.00,4327.72961456,N,14148.32915922,E,2,07,1.3,112.924,M,31.590,M,7.0,0137*41
[2021-01-29 11:06:31.495] $GPGGA,020630.10,4327.72961546,N,14148.32916052,E,2,07,1.3,112.911,M,31.590,M,7.0,0137*4B
[2021-01-29 11:06:31.595] $GPGGA,020630.20,4327.72961361,N,14148.32916124,E,2,07,1.3,112.900,M,31.590,M,7.2,0137*49
[2021-01-29 11:06:31.700] $GPGGA,020630.30,4327.72961277,N,14148.32916171,E,2,07,1.3,112.910,M,31.590,M,7.2,0137*4F
[2021-01-29 11:06:31.800] $GPGGA,020630.40,4327.72961089,N,14148.32916201,E,2,07,1.3,112.904,M,31.590,M,3.4,0137*48
[2021-01-29 11:06:31.895] $GPGGA,020630.50,4327.72960988,N,14148.32916400,E,2,07,1.3,112.906,M,31.590,M,3.4,0137*45
[2021-01-29 11:06:32.002] $GPGGA,020630.60,4327.72960885,N,14148.32916464,E,2,07,1.3,112.906,M,31.590,M,3.6,0137*4A
[2021-01-29 11:06:32.095] $GPGGA,020630.70,4327.72961018,N,14148.32916461,E,2,07,1.3,112.905,M,31.590,M,3.6,0137*40
[2021-01-29 11:06:32.195] $GPGGA,020630.80,4327.72960334,N,14148.32916260,E,2,05,1.7,112.895,M,31.590,M,3.8,0137*44
[2021-01-29 11:06:32.291] $GPGGA,020630.90,4327.72960281,N,14148.32916308,E,2,05,1.7,112.900,M,31.590,M,3.8,0137*48
[2021-01-29 11:06:32.402] $GPGGA,020631.00,4327.72959475,N,14148.32916076,E,2,05,1.7,112.896,M,31.590,M,4.0,0137*4C
[2021-01-29 11:06:32.492] $GPGGA,020631.10,4327.72959536,N,14148.32916057,E,2,05,1.7,112.892,M,31.590,M,4.0,0137*4C
[2021-01-29 11:06:32.596] $GPGGA,020631.20,4327.72958604,N,14148.32915819,E,2,05,1.7,112.892,M,31.590,M,4.2,0137*4F
[2021-01-29 11:06:32.687] $GPGGA,020631.30,4327.72958488,N,14148.32915631,E,2,05,1.7,112.900,M,31.590,M,4.2,0137*46
[2021-01-29 11:06:32.797] $GPGGA,020631.40,4327.72957670,N,14148.32915395,E,2,05,1.7,112.897,M,31.590,M,4.4,0137*49
[2021-01-29 11:06:32.897] $GPGGA,020631.50,4327.72957731,N,14148.32915300,E,2,05,1.7,112.914,M,31.590,M,4.4,0137*4A
[2021-01-29 11:06:33.002] $GPGGA,020631.60,4327.72956986,N,14148.32915064,E,2,05,1.7,112.911,M,31.590,M,4.6,0137*4C
[2021-01-29 11:06:33.096] $GPGGA,020631.70,4327.72957211,N,14148.32914757,E,2,05,1.7,112.917,M,31.590,M,4.6,0137*49
[2021-01-29 11:06:33.201] $GPGGA,020631.80,4327.72956352,N,14148.32914577,E,2,05,1.7,112.916,M,31.590,M,4.8,0137*4E
[2021-01-29 11:06:33.297] $GPGGA,020631.90,4327.72956274,N,14148.32914801,E,2,05,1.7,112.911,M,31.590,M,4.8,0137*41
[2021-01-29 11:06:33.387] $GPGGA,020632.00,4327.72955336,N,14148.32914694,E,2,05,1.7,112.909,M,31.590,M,5.0,0137*4D
[2021-01-29 11:06:33.496] $GPGGA,020632.10,4327.72955229,N,14148.32914664,E,2,05,1.7,112.914,M,31.590,M,5.0,0137*40
[2021-01-29 11:06:33.597] $GPGGA,020632.20,4327.72954294,N,14148.32914555,E,2,05,1.7,112.909,M,31.590,M,5.2,0137*4B
[2021-01-29 11:06:33.712] $GPGGA,020632.30,4327.72954210,N,14148.32914215,E,2,05,1.7,112.919,M,31.590,M,5.2,0137*44
[2021-01-29 11:06:33.797] $GPGGA,020632.40,4327.72953283,N,14148.32914469,E,2,05,1.7,112.919,M,31.590,M,5.4,0137*45
[2021-01-29 11:06:33.896] $GPGGA,020632.50,4327.72953127,N,14148.32914346,E,2,05,1.7,112.921,M,31.590,M,5.4,0137*48
[2021-01-29 11:06:33.997] $GPGGA,020632.60,4327.72951993,N,14148.32914448,E,2,05,1.7,112.919,M,31.590,M,5.6,0137*4E
[2021-01-29 11:06:34.096] $GPGGA,020632.70,4327.72952089,N,14148.32914580,E,2,05,1.7,112.911,M,31.590,M,5.6,0137*43
[2021-01-29 11:06:34.190] $GPGGA,020632.80,4327.72956558,N,14148.32917042,E,5,06,1.4,110.599,M,31.590,M,0.8,0202*4E
[2021-01-29 11:06:34.284] $GPGGA,020632.90,4327.72956531,N,14148.32917158,E,5,06,1.4,110.600,M,31.590,M,0.9,0202*48
[2021-01-29 11:06:34.393] $GPGGA,020633.00,4327.72956653,N,14148.32916897,E,5,06,1.4,110.613,M,31.590,M,1.0,0202*46
[2021-01-29 11:06:34.503] $GPGGA,020633.10,4327.72956696,N,14148.32917123,E,5,06,1.4,110.595,M,31.590,M,1.1,0202*45
[2021-01-29 11:06:34.596] $GPGGA,020633.20,4327.72956343,N,14148.32917212,E,5,06,1.4,110.613,M,31.590,M,1.2,0202*44
[2021-01-29 11:06:34.690] $GPGGA,020633.30,4327.72956999,N,14148.32916874,E,5,06,1.4,110.600,M,31.590,M,1.3,0202*40
[2021-01-29 11:06:34.800] $GPGGA,020633.40,4327.72956614,N,14148.32917149,E,5,06,1.4,110.594,M,31.590,M,1.4,0202*42
[2021-01-29 11:06:34.893] $GPGGA,020633.50,4327.72956639,N,14148.32917219,E,5,06,1.4,110.592,M,31.590,M,1.5,0202*4D
[2021-01-29 11:06:35.003] $GPGGA,020633.60,4327.72956475,N,14148.32917039,E,5,06,1.4,110.609,M,31.590,M,1.6,0202*46
[2021-01-29 11:06:35.096] $GPGGA,020633.70,4327.72956639,N,14148.32917246,E,5,06,1.4,110.593,M,31.590,M,1.7,0202*46
[2021-01-29 11:06:35.206] $GPGGA,020633.80,4327.72949696,N,14148.32931947,E,5,06,1.4,110.993,M,31.590,M,0.8,0202*4E
[2021-01-29 11:06:35.294] $GPGGA,020633.90,4327.72949673,N,14148.32931591,E,5,06,1.4,110.983,M,31.590,M,0.9,0202*43
[2021-01-29 11:06:35.403] $GPGGA,020634.00,4327.72949480,N,14148.32932126,E,5,06,1.4,110.992,M,31.590,M,1.0,0202*40
[2021-01-29 11:06:35.497] $GPGGA,020634.10,4327.72949639,N,14148.32931851,E,5,06,1.4,110.969,M,31.590,M,1.1,0202*4E
[2021-01-29 11:06:35.591] $GPGGA,020634.20,4327.72949367,N,14148.32932137,E,5,06,1.4,110.989,M,31.590,M,1.2,0202*44
[2021-01-29 11:06:35.685] $GPGGA,020634.30,4327.72949557,N,14148.32931870,E,5,06,1.4,110.988,M,31.590,M,1.3,0202*49
[2021-01-29 11:06:35.794] $GPGGA,020634.40,4327.72949563,N,14148.32932019,E,5,06,1.4,110.987,M,31.590,M,1.4,0202*45
[2021-01-29 11:06:35.888] $GPGGA,020634.50,4327.72949701,N,14148.32931799,E,5,06,1.4,110.978,M,31.590,M,1.5,0202*4F
[2021-01-29 11:06:35.997] $GPGGA,020634.60,4327.72949477,N,14148.32932344,E,5,06,1.4,111.000,M,31.590,M,1.6,0202*4D
[2021-01-29 11:06:36.091] $GPGGA,020634.70,4327.72949494,N,14148.32931987,E,5,06,1.4,110.989,M,31.590,M,1.7,0202*4F
[2021-01-29 11:06:36.200] $GPGGA,020634.80,4327.72949644,N,14148.32932102,E,5,06,1.4,110.978,M,31.590,M,1.8,0202*48
[2021-01-29 11:06:36.292] $GPGGA,020634.90,4327.72949304,N,14148.32932112,E,5,06,1.4,110.988,M,31.590,M,1.9,0202*47
