[2021-01-29 11:06:33.896] $GPGGA,20632.5,4327.729489,N,14148.32931,E,4,6,1.6,110.902,M,31.59,M,2.5,0000*41
[2021-01-29 11:06:34.007] $GPGGA,20632.6,4327.729488,N,14148.32932,E,4,6,1.6,110.906,M,31.59,M,2.6,0000*44
[2021-01-29 11:06:34.096] $GPGGA,20632.7,4327.729494,N,14148.32931,E,4,6,1.6,110.923,M,31.59,M,1.7,0000*42
[2021-01-29 11:06:34.190] $GPGGA,20632.8,4327.729495,N,14148.32931,E,4,6,1.6,110.921,M,31.59,M,1.8,0000*42
[2021-01-29 11:06:34.300] $GPGGA,20632.9,4327.729492,N,14148.32931,E,4,6,1.6,110.925,M,31.59,M,1.9,0000*4B
[2021-01-29 11:06:34.409] $GPGGA,20633,4327.729494,N,14148.32931,E,4,6,1.6,110.928,M,31.59,M,2,0000*4D
[2021-01-29 11:06:34.503] $GPGGA,20633.1,4327.729495,N,14148.32931,E,4,6,1.6,110.926,M,31.59,M,2.1,0000*40
[2021-01-29 11:06:34.612] $GPGGA,20633.2,4327.729492,N,14148.32931,E,4,6,1.6,110.921,M,31.59,M,2.2,0000*41
[2021-01-29 11:06:34.690] $GPGGA,20633.3,4327.729494,N,14148.32931,E,4,6,1.6,110.922,M,31.59,M,2.3,0000*4D
[2021-01-29 11:06:34.800] $GPGGA,20633.4,4327.729492,N,14148.32932,E,4,6,1.6,110.924,M,31.59,M,2.4,0000*47
[2021-01-29 11:06:34.893] $GPGGA,20633.5,4327.729494,N,14148.32931,E,4,6,1.6,110.921,M,31.59,M,2.5,0000*49
[2021-01-29 11:06:35.003] $GPGGA,20633.6,4327.729493,N,14148.32931,E,4,6,1.6,110.923,M,31.59,M,2.6,0000*44
[2021-01-29 11:06:35.096] $GPGGA,20633.7,4327.729494,N,14148.32932,E,4,6,1.6,110.915,M,31.59,M,2.7,0000*45
[2021-01-29 11:06:35.206] $GPGGA,20633.8,4327.729491,N,14148.32932,E,4,6,1.6,110.906,M,31.59,M,1.8,0000*45
[2021-01-29 11:06:35.294] $GPGGA,20633.9,4327.729492,N,14148.32932,E,4,6,1.6,110.898,M,31.59,M,1.9,0000*46
[2021-01-29 11:06:35.403] $GPGGA,20634,4327.729492,N,14148.32932,E,4,6,1.6,110.895,M,31.59,M,2,0000*4D
[2021-01-29 11:06:35.497] $GPGGA,20634.1,4327.729493,N,14148.32932,E,4,6,1.6,110.897,M,31.59,M,2.1,0000*4B
[2021-01-29 11:06:35.607] $GPGGA,20634.2,4327.729491,N,14148.32932,E,4,6,1.6,110.892,M,31.59,M,2.2,0000*4D
[2021-01-29 11:06:35.700] $GPGGA,20634.3,4327.729493,N,14148.32932,E,4,6,1.6,110.904,M,31.59,M,2.3,0000*40
[2021-01-29 11:06:35.810] $GPGGA,20634.4,4327.729492,N,14148.32932,E,4,6,1.6,110.888,M,31.59,M,2.4,0000*44
[2021-01-29 11:06:35.903] $GPGGA,20634.5,4327.72949,N,14148.32932,E,4,6,1.6,110.9,M,31.59,M,2.5,0000*4C
[2021-01-29 11:06:35.997] $GPGGA,20634.6,4327.729492,N,14148.32932,E,4,6,1.6,110.895,M,31.59,M,2.6,0000*42
[2021-01-29 11:06:36.106] $GPGGA,20634.7,4327.729493,N,14148.32932,E,4,6,1.6,110.91,M,31.59,M,1.7,0000*41
[2021-01-29 11:06:36.200] $GPGGA,20634.8,4327.72949,N,14148.32932,E,4,6,1.6,110.914,M,31.59,M,1.8,0000*49
[2021-01-29 11:06:36.292] $GPGGA,20634.9,4327.729493,N,14148.32932,E,4,6,1.6,110.91,M,31.59,M,1.9,0000*44
[2021-01-29 11:06:36.401] $GPGGA,20635,4327.729492,N,14148.32932,E,4,6,1.6,110.915,M,31.59,M,2,0000*44
[2021-01-29 11:06:36.495] $GPGGA,20635.1,4327.729493,N,14148.32932,E,4,6,1.6,110.915,M,31.59,M,2.1,0000*42
[2021-01-29 11:06:36.604] $GPGGA,20635.2,4327.729492,N,14148.32932,E,4,6,1.6,110.912,M,31.59,M,2.2,0000*49
[2021-01-29 11:06:36.698] $GPGGA,20635.3,4327.729491,N,14148.32932,E,4,6,1.6,110.914,M,31.59,M,2.3,0000*46
[2021-01-29 11:06:36.807] $GPGGA,20635.4,4327.729492,N,14148.32932,E,4,6,1.6,110.924,M,31.59,M,2.4,0000*47
[2021-01-29 11:06:36.901] $GPGGA,20635.5,4327.729492,N,14148.32932,E,4,6,1.6,110.911,M,31.59,M,2.5,0000*44
[2021-01-29 11:06:37.010] $GPGGA,20635.6,4327.729494,N,14148.32932,E,4,6,1.6,110.915,M,31.59,M,2.6,0000*42
[2021-01-29 11:06:37.104] $GPGGA,20635.7,4327.729491,N,14148.32931,E,4,6,1.6,110.926,M,31.59,M,1.7,0000*45
[2021-01-29 11:06:37.198] $GPGGA,20635.8,4327.729494,N,14148.32931,E,4,6,1.6,110.914,M,31.59,M,1.8,0000*4A
[2021-01-29 11:06:37.295] $GPGGA,20635.9,4327.729492,N,14148.32931,E,4,6,1.6,110.925,M,31.59,M,1.9,0000*43
[2021-01-29 11:06:37.404] $GPGGA,20636,4327.729494,N,14148.32932,E,4,6,1.6,110.923,M,31.59,M,2,0000*4C
[2021-01-29 11:06:37.498] $GPGGA,20636.1,4327.729492,N,14148.32931,E,4,6,1.6,110.917,M,31.59,M,2.1,0000*49
[2021-01-29 11:06:37.607] $GPGGA,20636.2,4327.729495,N,14148.32931,E,4,6,1.6,110.921,M,31.59,M,2.2,0000*4F
[2021-01-29 11:06:37.701] $GPGGA,20636.3,4327.729494,N,14148.32932,E,4,6,1.6,110.918,M,31.59,M,2.3,0000*4E
[2021-01-29 11:06:37.810] $GPGGA,20636.4,4327.729495,N,14148.32931,E,4,6,1.6,110.916,M,31.59,M,2.4,0000*4F
[2021-01-29 11:06:37.904] $GPGGA,20636.5,4327.729494,N,14148.32931,E,4,6,1.6,110.922,M,31.59,M,2.5,0000*42
[2021-01-29 11:06:37.998] $GPGGA,20636.6,4327.729494,N,14148.32932,E,4,6,1.6,110.914,M,31.59,M,2.6,0000*40
[2021-01-29 11:06:38.091] $GPGGA,20636.7,4327.729494,N,14148.32931,E,4,6,1.6,110.916,M,31.59,M,1.7,0000*45
[2021-01-29 11:06:38.201] $GPGGA,20636.8,4327.729493,N,14148.32931,E,4,6,1.6,110.913,M,31.59,M,1.8,0000*4E
[2021-01-29 11:06:38.295] $GPGGA,20636.9,4327.729491,N,14148.32932,E,4,6,1.6,110.905,M,31.59,M,1.9,0000*49
[2021-01-29 11:06:38.404] $GPGGA,20637,4327.729493,N,14148.32931,E,4,6,1.6,110.91,M,31.59,M,2,0000*4D
[2021-01-29 11:06:38.498] $GPGGA,20637.1,4327.729492,N,14148.32931,E,4,6,1.6,110.916,M,31.59,M,2.1,0000*4B
[2021-01-29 11:06:38.607] $GPGGA,20637.2,4327.729491,N,14148.32931,E,4,6,1.6,110.907,M,31.59,M,2.2,0000*46
[2021-01-29 11:06:38.701] $GPGGA,20637.3,4327.729492,N,14148.32931,E,4,6,1.6,110.909,M,31.59,M,2.3,0000*45
[2021-01-29 11:06:38.810] $GPGGA,20637.4,4327.729491,N,14148.32932,E,4,6,1.6,110.91,M,31.59,M,2.4,0000*48
[2021-01-29 11:06:38.904] $GPGGA,20637.5,4327.729491,N,14148.32931,E,4,6,1.6,110.903,M,31.59,M,2.5,0000*4A
[2021-01-29 11:06:38.998] $GPGGA,20637.6,4327.729492,N,14148.32932,E,4,6,1.6,110.909,M,31.59,M,2.6,0000*4B
[2021-01-29 11:06:39.092] $GPGGA,20637.7,4327.729492,N,14148.32932,E,4,6,1.6,110.915,M,31.59,M,1.7,0000*45
[2021-01-29 11:06:39.201] $GPGGA,20637.8,4327.729492,N,14148.32931,E,4,6,1.6,110.913,M,31.59,M,1.8,0000*41
[2021-01-29 11:06:39.296] $GPGGA,20637.9,4327.729491,N,14148.32932,E,4,6,1.6,110.919,M,31.59,M,1.9,0000*4F
[2021-01-29 11:06:39.406] $GPGGA,20638,4327.729491,N,14148.32931,E,4,6,1.6,110.91,M,31.59,M,2,0000*4A
[2021-01-29 11:06:39.500] $GPGGA,20638.1,4327.729493,N,14148.32931,E,4,6,1.6,110.911,M,31.59,M,2.1,0000*4E
[2021-01-29 11:06:39.609] $GPGGA,20638.2,4327.729491,N,14148.32932,E,4,6,1.6,110.92,M,31.59,M,2.2,0000*4F
[2021-01-29 11:06:39.703] $GPGGA,20638.3,4327.729492,N,14148.32932,E,4,6,1.6,110.919,M,31.59,M,2.3,0000*46
[2021-01-29 11:06:39.796] $GPGGA,20638.4,4327.729491,N,14148.32931,E,4,6,1.6,110.918,M,31.59,M,2.4,0000*44
[2021-01-29 11:06:39.906] $GPGGA,20638.5,4327.729491,N,14148.32932,E,4,6,1.6,110.918,M,31.59,M,2.5,0000*44
[2021-01-29 11:06:40.000] $GPGGA,20638.6,4327.72949,N,14148.32931,E,4,6,1.6,110.914,M,31.59,M,2.6,0000*44
[2021-01-29 11:06:40.093] $GPGGA,20638.7,4327.729491,N,14148.32932,E,4,6,1.6,110.909,M,31.59,M,1.7,0000*4A
[2021-01-29 11:06:40.203] $GPGGA,20638.8,4327.729492,N,14148.32932,E,4,6,1.6,110.909,M,31.59,M,1.8,0000*4A
[2021-01-29 11:06:40.298] $GPGGA,20638.9,4327.729489,N,14148.32932,E,4,6,1.6,110.916,M,31.59,M,1.9,0000*43
[2021-01-29 11:06:40.408] $GPGGA,20639,4327.729492,N,14148.32932,E,4,6,1.6,110.909,M,31.59,M,2,0000*4E
[2021-01-29 11:06:40.501] $GPGGA,20639.1,4327.729493,N,14148.32932,E,4,6,1.6,110.917,M,31.59,M,2.1,0000*47
[2021-01-29 11:06:40.611] $GPGGA,20639.2,4327.729491,N,14148.32932,E,4,6,1.6,110.914,M,31.59,M,2.2,0000*4E
[2021-01-29 11:06:40.704] $GPGGA,20639.3,4327.72949,N,14148.32932,E,4,6,1.6,110.919,M,31.59,M,2.3,0000*43
[2021-01-29 11:06:40.798] $GPGGA,20639.4,4327.72949,N,14148.32931,E,4,6,1.6,110.907,M,31.59,M,2.4,0000*44
[2021-01-29 11:06:40.892] $GPGGA,20639.5,4327.729493,N,14148.32931,E,4,6,1.6,110.922,M,31.59,M,2.5,0000*4C
[2021-01-29 11:06:41.001] $GPGGA,20639.6,4327.729489,N,14148.32932,E,4,6,1.6,110.915,M,31.59,M,2.6,0000*4F
[2021-01-29 11:06:41.095] $GPGGA,20639.7,4327.729492,N,14148.32931,E,4,6,1.6,110.923,M,31.59,M,1.7,0000*4E
[2021-01-29 11:06:41.204] $GPGGA,20639.8,4327.729491,N,14148.32931,E,4,6,1.6,110.926,M,31.59,M,1.8,0000*4E
[2021-01-29 11:06:41.300] $GPGGA,20639.9,4327.72949,N,14148.32931,E,4,6,1.6,110.916,M,31.59,M,1.9,0000*4F
[2021-01-29 11:06:41.409] $GPGGA,20640,4327.72949,N,14148.32932,E,4,6,1.6,110.927,M,31.59,M,2,0000*45
[2021-01-29 11:06:41.503] $GPGGA,20640.1,4327.729491,N,14148.32931,E,4,6,1.6,110.924,M,31.59,M,2.1,0000*42
[2021-01-29 11:06:41.612] $GPGGA,20640.2,4327.72949,N,14148.32932,E,4,6,1.6,110.922,M,31.59,M,2.2,0000*49
[2021-01-29 11:06:41.706] $GPGGA,20640.3,4327.729491,N,14148.32931,E,4,6,1.6,110.92,M,31.59,M,2.3,0000*41
[2021-01-29 11:06:41.800] $GPGGA,20640.4,4327.729491,N,14148.32932,E,4,6,1.6,110.927,M,31.59,M,2.4,0000*4C
[2021-01-29 11:06:41.909] $GPGGA,20640.5,4327.729491,N,14148.32932,E,4,6,1.6,110.926,M,31.59,M,2.5,0000*45
[2021-01-29 11:06:42.003] $GPGGA,20640.6,4327.72949,N,14148.32931,E,4,6,1.6,110.92,M,31.59,M,2.6,0000*4F
[2021-01-29 11:06:42.096] $GPGGA,20640.7,4327.729488,N,14148.32931,E,4,6,1.6,110.891,M,31.59,M,1.7,0000*4F
[2021-01-29 11:06:42.206] $GPGGA,20640.8,4327.729489,N,14148.32931,E,4,6,1.6,110.896,M,31.59,M,1.8,0000*42
[2021-01-29 11:06:42.301] $GPGGA,20640.9,4327.729488,N,14148.32932,E,4,6,1.6,110.895,M,31.59,M,1.9,0000*4C
[2021-01-29 11:06:42.411] $GPGGA,20641,4327.729489,N,14148.32931,E,4,6,1.6,110.891,M,31.59,M,2,0000*44
[2021-01-29 11:06:42.505] $GPGGA,20641.1,4327.729488,N,14148.32932,E,4,6,1.6,110.889,M,31.59,M,2.1,0000*4F
[2021-01-29 11:06:42.598] $GPGGA,20641.2,4327.729489,N,14148.32931,E,4,6,1.6,110.897,M,31.59,M,2.2,0000*4C
[2021-01-29 11:06:42.708] $GPGGA,20641.3,4327.729489,N,14148.32932,E,4,6,1.6,110.885,M,31.59,M,2.3,0000*40
[2021-01-29 11:06:42.801] $GPGGA,20641.4,4327.729488,N,14148.32931,E,4,6,1.6,110.9,M,31.59,M,2.4,0000*4F
[2021-01-29 11:06:42.895] $GPGGA,20641.5,4327.729489,N,14148.32932,E,4,6,1.6,110.89,M,31.59,M,2.5,0000*47
[2021-01-29 11:06:43.005] $GPGGA,20641.6,4327.729489,N,14148.32931,E,4,6,1.6,110.89,M,31.59,M,2.6,0000*43
[2021-01-29 11:06:43.098] $GPGGA,20641.7,4327.729493,N,14148.32932,E,4,6,1.6,110.896,M,31.59,M,1.7,0000*43
[2021-01-29 11:06:43.208] $GPGGA,20641.8,4327.729491,N,14148.32932,E,4,6,1.6,110.904,M,31.59,M,1.8,0000*41
[2021-01-29 11:06:43.304] $GPGGA,20641.9,4327.729493,N,14148.32931,E,4,6,1.6,110.899,M,31.59,M,1.9,0000*45
[2021-01-29 11:06:43.398] $GPGGA,20642,4327.729491,N,14148.32931,E,4,6,1.6,110.896,M,31.59,M,2,0000*40
[2021-01-29 11:06:43.476] $GPGGA,20642.1,4327.729491,N,14148.32932,E,4,6,1.6,110.898,M,31.59,M,2.1,0000*49
[2021-01-29 11:06:43.601] $GPGGA,20642.2,4327.729492,N,14148.32932,E,4,6,1.6,110.896,M,31.59,M,2.2,0000*4E
[2021-01-29 11:06:43.695] $GPGGA,20642.3,4327.729492,N,14148.32931,E,4,6,1.6,110.897,M,31.59,M,2.3,0000*42
[2021-01-29 11:06:43.804] $GPGGA,20642.4,4327.729492,N,14148.32932,E,4,6,1.6,110.899,M,31.59,M,2.4,0000*41
[2021-01-29 11:06:43.898] $GPGGA,20642.5,4327.729492,N,14148.32932,E,4,6,1.6,110.903,M,31.59,M,2.5,0000*43
[2021-01-29 11:06:44.007] $GPGGA,20642.6,4327.729491,N,14148.32931,E,4,6,1.6,110.9,M,31.59,M,2.6,0000*47
[2021-01-29 11:06:44.101] $GPGGA,20642.7,4327.72949,N,14148.32932,E,4,6,1.6,110.898,M,31.59,M,1.7,0000*4F
[2021-01-29 11:06:44.210] $GPGGA,20642.8,4327.729488,N,14148.32932,E,4,6,1.6,110.896,M,31.59,M,1.8,0000*42
[2021-01-29 11:06:44.290] $GPGGA,20642.9,4327.729489,N,14148.32932,E,4,6,1.6,110.891,M,31.59,M,1.9,0000*46
[2021-01-29 11:06:44.415] $GPGGA,20643,4327.72949,N,14148.32932,E,4,6,1.6,110.893,M,31.59,M,2,0000*4E
[2021-01-29 11:06:44.493] $GPGGA,20643.1,4327.729487,N,14148.32932,E,4,6,1.6,110.896,M,31.59,M,2.1,0000*43
[2021-01-29 11:06:44.602] $GPGGA,20643.2,4327.72949,N,14148.32932,E,4,6,1.6,110.897,M,31.59,M,2.2,0000*4C
[2021-01-29 11:06:44.696] $GPGGA,20643.3,4327.729489,N,14148.32932,E,4,6,1.6,110.893,M,31.59,M,2.3,0000*48
[2021-01-29 11:06:44.805] $GPGGA,20643.4,4327.72949,N,14148.32932,E,4,6,1.6,110.892,M,31.59,M,2.4,0000*4D
[2021-01-29 11:06:44.899] $GPGGA,20643.5,4327.729488,N,14148.32931,E,4,6,1.6,110.894,M,31.59,M,2.5,0000*41
[2021-01-29 11:06:45.008] $GPGGA,20643.6,4327.72949,N,14148.32932,E,4,6,1.6,110.891,M,31.59,M,2.6,0000*4D
[2021-01-29 11:06:45.102] $GPGGA,20643.7,4327.729491,N,14148.32932,E,4,6,1.6,110.894,M,31.59,M,2.7,0000*47
[2021-01-29 11:06:45.211] $GPGGA,20643.8,4327.729494,N,14148.32932,E,4,6,1.6,110.915,M,31.59,M,1.8,0000*40
[2021-01-29 11:06:45.291] $GPGGA,20643.9,4327.729495,N,14148.32932,E,4,6,1.6,110.909,M,31.59,M,1.9,0000*40
[2021-01-29 11:06:45.401] $GPGGA,20644,4327.729491,N,14148.32932,E,4,6,1.6,110.912,M,31.59,M,2,0000*46
[2021-01-29 11:06:45.494] $GPGGA,20644.1,4327.729494,N,14148.32932,E,4,6,1.6,110.913,M,31.59,M,2.1,0000*42
[2021-01-29 11:06:45.604] $GPGGA,20644.2,4327.729492,N,14148.32932,E,4,6,1.6,110.908,M,31.59,M,2.2,0000*4F
[2021-01-29 11:06:45.697] $GPGGA,20644.3,4327.729493,N,14148.32932,E,4,6,1.6,110.912,M,31.59,M,2.3,0000*41
[2021-01-29 11:06:45.807] $GPGGA,20644.4,4327.729494,N,14148.32932,E,4,6,1.6,110.912,M,31.59,M,2.4,0000*4D
[2021-01-29 11:06:45.900] $GPGGA,20644.5,4327.729491,N,14148.32932,E,4,6,1.6,110.902,M,31.59,M,2.5,0000*4F
[2021-01-29 11:06:46.010] $GPGGA,20644.6,4327.729492,N,14148.32932,E,4,6,1.6,110.91,M,31.59,M,2.6,0000*47
[2021-01-29 11:06:46.104] $GPGGA,20644.7,4327.729494,N,14148.32931,E,4,6,1.6,110.908,M,31.59,M,1.7,0000*4B
[2021-01-29 11:06:46.213] $GPGGA,20644.8,4327.729493,N,14148.32931,E,4,6,1.6,110.903,M,31.59,M,1.8,0000*42
[2021-01-29 11:06:46.292] $GPGGA,20644.9,4327.729495,N,14148.32931,E,4,6,1.6,110.903,M,31.59,M,1.9,0000*44
[2021-01-29 11:06:46.402] $GPGGA,20645,4327.729494,N,14148.32931,E,4,6,1.6,110.911,M,31.59,M,2,0000*44
[2021-01-29 11:06:46.496] $GPGGA,20645.1,4327.729496,N,14148.32931,E,4,6,1.6,110.902,M,31.59,M,2.1,0000*4C
[2021-01-29 11:06:46.605] $GPGGA,20645.2,4327.729495,N,14148.32931,E,4,6,1.6,110.907,M,31.59,M,2.2,0000*48
[2021-01-29 11:06:46.699] $GPGGA,20645.3,4327.729494,N,14148.32931,E,4,6,1.6,110.911,M,31.59,M,2.3,0000*44
[2021-01-29 11:06:46.808] $GPGGA,20645.4,4327.729494,N,14148.32932,E,4,6,1.6,110.901,M,31.59,M,2.4,0000*40
[2021-01-29 11:06:46.902] $GPGGA,20645.5,4327.729495,N,14148.32931,E,4,6,1.6,110.913,M,31.59,M,2.5,0000*41
[2021-01-29 11:06:47.011] $GPGGA,20645.6,4327.729494,N,14148.32932,E,4,6,1.6,110.903,M,31.59,M,2.6,0000*44
[2021-01-29 11:06:47.105] $GPGGA,20645.7,4327.729491,N,14148.32931,E,4,6,1.6,110.883,M,31.59,M,1.7,0000*4B
[2021-01-29 11:06:47.199] $GPGGA,20645.8,4327.729491,N,14148.32931,E,4,6,1.6,110.896,M,31.59,M,1.8,0000*43
[2021-01-29 11:06:47.294] $GPGGA,20645.9,4327.72949,N,14148.32931,E,4,6,1.6,110.892,M,31.59,M,1.9,0000*45
[2021-01-29 11:06:47.403] $GPGGA,20646,4327.729493,N,14148.32931,E,4,6,1.6,110.9,M,31.59,M,2,0000*4B
[2021-01-29 11:06:47.497] $GPGGA,20646.1,4327.729495,N,14148.32932,E,4,6,1.6,110.885,M,31.59,M,2.1,0000*42
[2021-01-29 11:06:47.606] $GPGGA,20646.2,4327.729492,N,14148.32931,E,4,6,1.6,110.894,M,31.59,M,2.2,0000*45
[2021-01-29 11:06:47.700] $GPGGA,20646.3,4327.729491,N,14148.32931,E,4,6,1.6,110.887,M,31.59,M,2.3,0000*4F
[2021-01-29 11:06:47.809] $GPGGA,20646.4,4327.729492,N,14148.32931,E,4,6,1.6,110.901,M,31.59,M,2.4,0000*40
[2021-01-29 11:06:47.903] $GPGGA,20646.5,4327.729491,N,14148.32931,E,4,6,1.6,110.894,M,31.59,M,2.5,0000*4B
[2021-01-29 11:06:48.012] $GPGGA,20646.6,4327.729492,N,14148.32931,E,4,6,1.6,110.899,M,31.59,M,2.6,0000*40
[2021-01-29 11:06:48.091] $GPGGA,20646.7,4327.729494,N,14148.32931,E,4,6,1.6,110.897,M,31.59,M,1.7,0000*43
[2021-01-29 11:06:48.200] $GPGGA,20646.8,4327.729493,N,14148.32931,E,4,6,1.6,110.888,M,31.59,M,1.8,0000*4C
[2021-01-29 11:06:48.294] $GPGGA,20646.9,4327.729496,N,14148.32932,E,4,6,1.6,110.892,M,31.59,M,1.9,0000*4E
[2021-01-29 11:06:48.412] $GPGGA,20647,4327.729493,N,14148.32931,E,4,6,1.6,110.885,M,31.59,M,2,0000*4C
[2021-01-29 11:06:48.505] $GPGGA,20647.1,4327.729494,N,14148.32931,E,4,6,1.6,110.893,M,31.59,M,2.1,0000*47
[2021-01-29 11:06:48.599] $GPGGA,20647.2,4327.729492,N,14148.32931,E,4,6,1.6,110.889,M,31.59,M,2.2,0000*46
[2021-01-29 11:06:48.693] $GPGGA,20647.3,4327.729492,N,14148.32931,E,4,6,1.6,110.888,M,31.59,M,2.3,0000*42
[2021-01-29 11:06:48.802] $GPGGA,20647.4,4327.729492,N,14148.32931,E,4,6,1.6,110.892,M,31.59,M,2.4,0000*4A
[2021-01-29 11:06:48.896] $GPGGA,20647.5,4327.729495,N,14148.32931,E,4,6,1.6,110.885,M,31.59,M,2.5,0000*4A
[2021-01-29 11:06:49.005] $GPGGA,20647.6,4327.729494,N,14148.32931,E,4,6,1.6,110.893,M,31.59,M,2.6,0000*4C
[2021-01-29 11:06:49.099] $GPGGA,20647.7,4327.729486,N,14148.32931,E,4,6,1.6,110.88,M,31.59,M,1.7,0000*43
[2021-01-29 11:06:49.208] $GPGGA,20647.8,4327.729487,N,14148.32931,E,4,6,1.6,110.888,M,31.59,M,1.8,0000*45
[2021-01-29 11:06:49.302] $GPGGA,20647.9,4327.729487,N,14148.32931,E,4,6,1.6,110.884,M,31.59,M,1.9,0000*4B
[2021-01-29 11:06:49.411] $GPGGA,20648,4327.729487,N,14148.32931,E,4,6,1.6,110.883,M,31.59,M,2,0000*4D
[2021-01-29 11:06:49.505] $GPGGA,20648.1,4327.729486,N,14148.32932,E,4,6,1.6,110.889,M,31.59,M,2.1,0000*41
[2021-01-29 11:06:49.599] $GPGGA,20648.2,4327.729488,N,14148.32931,E,4,6,1.6,110.884,M,31.59,M,2.2,0000*42
[2021-01-29 11:06:49.693] $GPGGA,20648.3,4327.729486,N,14148.32931,E,4,6,1.6,110.884,M,31.59,M,2.3,0000*40
[2021-01-29 11:06:49.802] $GPGGA,20648.4,4327.729487,N,14148.32931,E,4,6,1.6,110.882,M,31.59,M,2.4,0000*43
[2021-01-29 11:06:49.896] $GPGGA,20648.5,4327.729486,N,14148.32932,E,4,6,1.6,110.886,M,31.59,M,2.5,0000*42
[2021-01-29 11:06:50.005] $GPGGA,20648.6,4327.729486,N,14148.32931,E,4,6,1.6,110.89,M,31.59,M,2.6,0000*42
[2021-01-29 11:06:50.099] $GPGGA,20648.7,4327.729489,N,14148.32932,E,4,6,1.6,110.899,M,31.59,M,1.7,0000*48
[2021-01-29 11:06:50.208] $GPGGA,20648.8,4327.729492,N,14148.32932,E,4,6,1.6,110.894,M,31.59,M,1.8,0000*47
[2021-01-29 11:06:50.297] $GPGGA,20648.9,4327.729489,N,14148.32932,E,4,6,1.6,110.904,M,31.59,M,1.9,0000*4E
[2021-01-29 11:06:50.407] $GPGGA,20649,4327.729488,N,14148.32932,E,4,6,1.6,110.899,M,31.59,M,2,0000*4D
[2021-01-29 11:06:50.501] $GPGGA,20649.1,4327.729491,N,14148.32932,E,4,6,1.6,110.902,M,31.59,M,2.1,0000*43
[2021-01-29 11:06:50.610] $GPGGA,20649.2,4327.729489,N,14148.32932,E,4,6,1.6,110.887,M,31.59,M,2.2,0000*4A
[2021-01-29 11:06:50.704] $GPGGA,20649.3,4327.729488,N,14148.32932,E,4,6,1.6,110.893,M,31.59,M,2.3,0000*4B
[2021-01-29 11:06:50.813] $GPGGA,20649.4,4327.729487,N,14148.32932,E,4,6,1.6,110.891,M,31.59,M,2.4,0000*4F
[2021-01-29 11:06:50.891] $GPGGA,20649.5,4327.729488,N,14148.32932,E,4,6,1.6,110.897,M,31.59,M,2.5,0000*4A
[2021-01-29 11:06:51.001] $GPGGA,20649.6,4327.72949,N,14148.32932,E,4,6,1.6,110.888,M,31.59,M,2.6,0000*4E
[2021-01-29 11:06:51.094] $GPGGA,20649.7,4327.729493,N,14148.32932,E,4,6,1.6,110.899,M,31.59,M,1.7,0000*46
[2021-01-29 11:06:51.204] $GPGGA,20649.8,4327.729492,N,14148.32932,E,4,6,1.6,110.908,M,31.59,M,1.8,0000*47
[2021-01-29 11:06:51.299] $GPGGA,20649.9,4327.729493,N,14148.32932,E,4,6,1.6,110.912,M,31.59,M,1.9,0000*47
[2021-01-29 11:06:51.409] $GPGGA,20650,4327.729492,N,14148.32932,E,4,6,1.6,110.901,M,31.59,M,2,0000*49
[2021-01-29 11:06:51.503] $GPGGA,20650.1,4327.729492,N,14148.32932,E,4,6,1.6,110.905,M,31.59,M,2.1,0000*48
[2021-01-29 11:06:51.612] $GPGGA,20650.2,4327.729491,N,14148.32932,E,4,6,1.6,110.903,M,31.59,M,2.2,0000*49
[2021-01-29 11:06:51.706] $GPGGA,20650.3,4327.729491,N,14148.32932,E,4,6,1.6,110.906,M,31.59,M,2.3,0000*4D
[2021-01-29 11:06:51.799] $GPGGA,20650.4,4327.729492,N,14148.32932,E,4,6,1.6,110.906,M,31.59,M,2.4,0000*43
[2021-01-29 11:06:51.909] $GPGGA,20650.5,4327.729492,N,14148.32932,E,4,6,1.6,110.897,M,31.59,M,2.5,0000*41
[2021-01-29 11:06:52.003] $GPGGA,20650.6,4327.729491,N,14148.32932,E,4,6,1.6,110.898,M,31.59,M,2.6,0000*46
[2021-01-29 11:06:52.096] $GPGGA,20650.7,4327.729491,N,14148.32932,E,4,6,1.6,110.885,M,31.59,M,1.7,0000*46
[2021-01-29 11:06:52.206] $GPGGA,20650.8,4327.729491,N,14148.32932,E,4,6,1.6,110.893,M,31.59,M,1.8,0000*4E
[2021-01-29 11:06:52.301] $GPGGA,20650.9,4327.72949,N,14148.32932,E,4,6,1.6,110.889,M,31.59,M,1.9,0000*4C
[2021-01-29 11:06:52.410] $GPGGA,20651,4327.729492,N,14148.32932,E,4,6,1.6,110.89,M,31.59,M,2,0000*45
[2021-01-29 11:06:52.504] $GPGGA,20651.1,4327.72949,N,14148.32932,E,4,6,1.6,110.881,M,31.59,M,2.1,0000*45
[2021-01-29 11:06:52.613] $GPGGA,20651.2,4327.72949,N,14148.32932,E,4,6,1.6,110.887,M,31.59,M,2.2,0000*40
[2021-01-29 11:06:52.707] $GPGGA,20651.3,4327.729491,N,14148.32932,E,4,6,1.6,110.883,M,31.59,M,2.3,0000*4D
[2021-01-29 11:06:52.801] $GPGGA,20651.4,4327.729491,N,14148.32932,E,4,6,1.6,110.89,M,31.59,M,2.4,0000*40
[2021-01-29 11:06:52.910] $GPGGA,20651.5,4327.72949,N,14148.32932,E,4,6,1.6,110.887,M,31.59,M,2.5,0000*4A
[2021-01-29 11:06:53.004] $GPGGA,20651.6,4327.729492,N,14148.32932,E,4,6,1.6,110.891,M,31.59,M,2.6,0000*42
[2021-01-29 11:06:53.098] $GPGGA,20651.7,4327.729489,N,14148.32931,E,4,6,1.6,110.882,M,31.59,M,1.7,0000*40
[2021-01-29 11:06:53.207] $GPGGA,20651.8,4327.729491,N,14148.32932,E,4,6,1.6,110.891,M,31.59,M,1.8,0000*4A
[2021-01-29 11:06:53.303] $GPGGA,20651.9,4327.729286,N,14148.32929,E,2,12,0.9,111.302,M,31.59,M,1.8,0000*46
[2021-01-29 11:06:53.724] $GPGGA,20652,4327.729286,N,14148.32929,E,2,12,0.9,111.302,M,31.59,M,2,0000*4B
[2021-01-29 11:06:53.771] $GPGGA,20652.1,4327.729286,N,14148.32929,E,2,11,0.9,111.302,M,31.59,M,2,0000*49
[2021-01-29 11:06:53.771] $GPGGA,20652.2,4327.729352,N,14148.32933,E,2,11,1.1,111.253,M,31.59,M,2.2,0000*46
[2021-01-29 11:06:53.771] $GPGGA,20652.3,4327.729299,N,14148.32929,E,2,11,1.1,111.29,M,31.59,M,2.2,0000*42
[2021-01-29 11:06:53.803] $GPGGA,20652.4,4327.729312,N,14148.32928,E,2,11,1.1,111.279,M,31.59,M,2.4,0000*47
[2021-01-29 11:06:53.896] $GPGGA,20652.5,4327.729328,N,14148.32928,E,2,11,1.1,111.269,M,31.59,M,2.4,0000*4C
[2021-01-29 11:06:53.990] $GPGGA,20652.6,4327.729345,N,14148.32927,E,2,9,1.2,111.259,M,31.59,M,2.6,0000*4F
[2021-01-29 11:06:54.099] $GPGGA,20652.7,4327.729362,N,14148.32927,E,2,9,1.2,111.248,M,31.59,M,2.6,0000*49
[2021-01-29 11:06:54.193] $GPGGA,20652.8,4327.729379,N,14148.32927,E,2,7,1.3,111.235,M,31.59,M,1.8,0000*4E
[2021-01-29 11:06:54.289] $GPGGA,20652.9,4327.729399,N,14148.32926,E,2,7,1.3,111.225,M,31.59,M,1.8,0000*49
[2021-01-29 11:06:54.398] $GPGGA,20653,4327.729423,N,14148.32926,E,2,7,1.3,111.221,M,31.59,M,2,0000*42
[2021-01-29 11:06:54.492] $GPGGA,20653.1,4327.729445,N,14148.32925,E,2,7,1.3,111.21,M,31.59,M,2,0000*41
[2021-01-29 11:06:54.601] $GPGGA,20653.2,4327.729464,N,14148.32924,E,2,5,4.5,111.192,M,31.59,M,2.2,0000*41
[2021-01-29 11:06:54.695] $GPGGA,20653.3,4327.729484,N,14148.32925,E,2,3,4.5,111.175,M,31.59,M,2.2,0000*49
[2021-01-29 11:06:54.789] $GPGGA,20653.4,4327.729506,N,14148.32925,E,1,3,17,111.15,M,31.59,M,,*50
[2021-01-29 11:06:54.867] $GPGGA,20653.5,4327.729531,N,14148.32924,E,1,3,17,111.133,M,31.59,M,,*5D
[2021-01-29 11:06:54.992] $GPGGA,20653.6,4327.729554,N,14148.32924,E,1,2,12.6,111.108,M,31.59,M,,*5C
[2021-01-29 11:06:55.070] $GPGGA,20653.7,4327.729578,N,14148.32924,E,1,2,12.6,111.08,M,31.59,M,,*57
[2021-01-29 11:06:55.164] $GPGGA,,,,,,,,,,M,,M,,*56
[2021-01-29 11:06:55.291] $GPGGA,20653.9,4327.729626,N,14148.32925,E,1,1,12.6,111.019,M,31.59,M,,*57
[2021-01-29 11:06:55.370] $GPGGA,20654,4327.729653,N,14148.32934,E,1,2,3.3,110.955,M,31.59,M,,*6E
[2021-01-29 11:06:55.479] $GPGGA,20654.1,4327.729686,N,14148.32941,E,1,1,3.3,110.92,M,31.59,M,,*64
[2021-01-29 11:06:55.588] $GPGGA,20654.2,4327.72973,N,14148.32952,E,1,1,1412.8,110.886,M,31.59,M,,*5F
[2021-01-29 11:06:55.666] $GPGGA,20654.3,4327.729767,N,14148.32958,E,1,1,1412.8,110.861,M,31.59,M,,*54
[2021-01-29 11:06:55.791] $GPGGA,,,,,,,,,,M,,M,,*56
[2021-01-29 11:06:55.885] $GPGGA,20654.5,4327.729841,N,14148.32968,E,1,1,1412.8,110.802,M,31.59,M,,*50
[2021-01-29 11:06:55.963] $GPGGA,,,,,,,,,,M,,M,,*56
[2021-01-29 11:06:56.182] $GPGGA,,,,,,,,,,M,,M,,*56
[2021-01-29 11:06:56.370] $GPGGA,,,,,,,,,,M,,M,,*56
[2021-01-29 11:06:56.573] $GPGGA,,,,,,,,,,M,,M,,*56
[2021-01-29 11:06:56.792] $GPGGA,20655.4,4327.730213,N,14148.33027,E,1,1,1412.8,110.454,M,31.59,M,,*53
[2021-01-29 11:06:56.870] $GPGGA,20655.5,4327.730267,N,14148.33041,E,1,1,1412.8,110.472,M,31.59,M,,*56
[2021-01-29 11:06:56.995] $GPGGA,20655.6,4327.730349,N,14148.33075,E,1,1,1412.8,110.46,M,31.59,M,,*52
[2021-01-29 11:06:57.073] $GPGGA,20655.7,4327.730406,N,14148.3309,E,1,1,1412.8,110.475,M,31.59,M,,*5B
[2021-01-29 11:06:57.198] $GPGGA,20655.8,4327.730488,N,14148.33124,E,1,1,1412.8,110.466,M,31.59,M,,*53
[2021-01-29 11:06:57.280] $GPGGA,20655.9,4327.730542,N,14148.33137,E,1,1,1412.8,110.483,M,31.59,M,,*5A
[2021-01-29 11:06:57.389] $GPGGA,,,,,,,,,,M,,M,,*56
[2021-01-29 11:06:57.577] $GPGGA,20656.2,4327.730734,N,14148.33196,E,1,1,1412.8,110.393,M,31.59,M,,*53
[2021-01-29 11:06:57.780] $GPGGA,,,,,,,,,,M,,M,,*56
[2021-01-29 11:06:57.983] $GPGGA,,,,,,,,,,M,,M,,*56
[2021-01-29 11:06:58.186] $GPGGA,,,,,,,,,,M,,M,,*56
[2021-01-29 11:06:58.372] $GPGGA,,,,,,,,,,M,,M,,*56
[2021-01-29 11:06:58.591] $GPGGA,20657.2,4327.731382,N,14148.33366,E,1,1,1412.8,110.063,M,31.59,M,,*51
[2021-01-29 11:06:58.778] $GPGGA,,,,,,,,,,M,,M,,*56
[2021-01-29 11:06:58.981] $GPGGA,,,,,,,,,,M,,M,,*56
[2021-01-29 11:06:59.184] $GPGGA,,,,,,,,,,M,,M,,*56
[2021-01-29 11:06:59.374] $GPGGA,,,,,,,,,,M,,M,,*56
[2021-01-29 11:06:59.577] $GPGGA,,,,,,,,,,M,,M,,*56
[2021-01-29 11:06:59.780] $GPGGA,,,,,,,,,,M,,M,,*56
[2021-01-29 11:06:59.983] $GPGGA,,,,,,,,,,M,,M,,*56
[2021-01-29 11:07:00.170] $GPGGA,,,,,,,,,,M,,M,,*56
[2021-01-29 11:07:00.378] $GPGGA,,,,,,,,,,M,,M,,*56
[2021-01-29 11:07:00.581] $GPGGA,,,,,,,,,,M,,M,,*56
[2021-01-29 11:07:00.784] $GPGGA,,,,,,,,,,M,,M,,*56
[2021-01-29 11:07:00.971] $GPGGA,,,,,,,,,,M,,M,,*56
[2021-01-29 11:07:01.190] $GPGGA,,,,,,,,,,M,,M,,*56
[2021-01-29 11:07:01.378] $GPGGA,,,,,,,,,,M,,M,,*56
[2021-01-29 11:07:01.581] $GPGGA,,,,,,,,,,M,,M,,*56
[2021-01-29 11:07:01.769] $GPGGA,,,,,,,,,,M,,M,,*56
[2021-01-29 11:07:01.987] $GPGGA,,,,,,,,,,M,,M,,*56
[2021-01-29 11:07:02.175] $GPGGA,,,,,,,,,,M,,M,,*56
[2021-01-29 11:07:02.379] $GPGGA,,,,,,,,,,M,,M,,*56
[2021-01-29 11:07:02.582] $GPGGA,,,,,,,,,,M,,M,,*56
[2021-01-29 11:07:02.785] $GPGGA,,,,,,,,,,M,,M,,*56
[2021-01-29 11:07:02.972] $GPGGA,,,,,,,,,,M,,M,,*56
[2021-01-29 11:07:03.175] $GPGGA,,,,,,,,,,M,,M,,*56
[2021-01-29 11:07:03.380] $GPGGA,,,,,,,,,,M,,M,,*56
[2021-01-29 11:07:03.583] $GPGGA,,,,,,,,,,M,,M,,*56
[2021-01-29 11:07:03.771] $GPGGA,,,,,,,,,,M,,M,,*56
[2021-01-29 11:07:03.989] $GPGGA,,,,,,,,,,M,,M,,*56
[2021-01-29 11:07:04.177] $GPGGA,,,,,,,,,,M,,M,,*56
[2021-01-29 11:07:04.382] $GPGGA,,,,,,,,,,M,,M,,*56
[2021-01-29 11:07:04.569] $GPGGA,,,,,,,,,,M,,M,,*56
[2021-01-29 11:07:04.788] $GPGGA,,,,,,,,,,M,,M,,*56
[2021-01-29 11:07:04.975] $GPGGA,,,,,,,,,,M,,M,,*56
[2021-01-29 11:07:05.179] $GPGGA,,,,,,,,,,M,,M,,*56
[2021-01-29 11:07:05.368] $GPGGA,,,,,,,,,,M,,M,,*56
[2021-01-29 11:07:05.586] $GPGGA,,,,,,,,,,M,,M,,*56
[2021-01-29 11:07:05.774] $GPGGA,,,,,,,,,,M,,M,,*56
[2021-01-29 11:07:05.977] $GPGGA,,,,,,,,,,M,,M,,*56
[2021-01-29 11:07:06.180] $GPGGA,,,,,,,,,,M,,M,,*56
[2021-01-29 11:07:06.387] $GPGGA,,,,,,,,,,M,,M,,*56
[2021-01-29 11:07:06.575] $GPGGA,,,,,,,,,,M,,M,,*56
[2021-01-29 11:07:06.778] $GPGGA,,,,,,,,,,M,,M,,*56
[2021-01-29 11:07:06.981] $GPGGA,,,,,,,,,,M,,M,,*56
[2021-01-29 11:07:07.184] $GPGGA,,,,,,,,,,M,,M,,*56
[2021-01-29 11:07:07.370] $GPGGA,,,,,,,,,,M,,M,,*56
[2021-01-29 11:07:07.573] $GPGGA,,,,,,,,,,M,,M,,*56
[2021-01-29 11:07:07.776] $GPGGA,,,,,,,,,,M,,M,,*56
[2021-01-29 11:07:07.979] $GPGGA,,,,,,,,,,M,,M,,*56
[2021-01-29 11:07:08.182] $GPGGA,,,,,,,,,,M,,M,,*56
[2021-01-29 11:07:08.390] $GPGGA,,,,,,,,,,M,,M,,*56
[2021-01-29 11:07:08.577] $GPGGA,,,,,,,,,,M,,M,,*56
[2021-01-29 11:07:08.780] $GPGGA,,,,,,,,,,M,,M,,*56
[2021-01-29 11:07:08.984] $GPGGA,,,,,,,,,,M,,M,,*56
[2021-01-29 11:07:09.202] $GPGGA,20707.8,4327.730867,N,14148.33082,E,1,4,1.9,110.337,M,31.59,M,,*6F
[2021-01-29 11:07:09.295] $GPGGA,20707.9,4327.730869,N,14148.33083,E,1,4,1.9,110.341,M,31.59,M,,*69
[2021-01-29 11:07:09.404] $GPGGA,20708,4327.730085,N,14148.32944,E,2,7,1.3,110.32,M,31.59,M,2,0000*4B
[2021-01-29 11:07:09.498] $GPGGA,20708.1,4327.730086,N,14148.32944,E,2,6,1.3,110.326,M,31.59,M,2,0000*49
[2021-01-29 11:07:09.607] $GPGGA,20708.2,4327.73014,N,14148.32951,E,2,9,1.2,110.238,M,31.59,M,2.2,0000*4A
[2021-01-29 11:07:09.701] $GPGGA,20708.3,4327.73014,N,14148.32951,E,2,9,1.2,110.24,M,31.59,M,2.2,0000*49
[2021-01-29 11:07:09.810] $GPGGA,20708.4,4327.730143,N,14148.32955,E,2,10,1.2,110.451,M,31.59,M,2.4,0000*47
[2021-01-29 11:07:09.888] $GPGGA,20708.5,4327.730142,N,14148.32955,E,2,10,1.2,110.452,M,31.59,M,2.4,0000*4C
[2021-01-29 11:07:09.998] $GPGGA,20708.6,4327.730106,N,14148.32958,E,2,11,0.9,111.041,M,31.59,M,2.6,0000*43
[2021-01-29 11:07:10.092] $GPGGA,20708.7,4327.730106,N,14148.32958,E,2,11,0.9,111.037,M,31.59,M,2.6,0000*40
[2021-01-29 11:07:10.201] $GPGGA,20708.8,4327.730083,N,14148.32956,E,2,11,0.9,111.334,M,31.59,M,1.8,0000*4D
[2021-01-29 11:07:10.297] $GPGGA,20708.9,4327.730083,N,14148.32956,E,2,11,0.9,111.338,M,31.59,M,1.8,0000*4B
[2021-01-29 11:07:10.406] $GPGGA,20709,4327.730083,N,14148.32951,E,2,11,1.2,111.414,M,31.59,M,2,0000*45
[2021-01-29 11:07:10.500] $GPGGA,20709.1,4327.730084,N,14148.32951,E,2,11,1.2,111.408,M,31.59,M,2,0000*47
[2021-01-29 11:07:10.609] $GPGGA,20709.2,4327.73008,N,14148.32948,E,2,11,1.2,111.495,M,31.59,M,2.2,0000*45
[2021-01-29 11:07:10.703] $GPGGA,20709.3,4327.730082,N,14148.32948,E,2,11,1.2,111.495,M,31.59,M,2.2,0000*42
[2021-01-29 11:07:10.797] $GPGGA,20709.4,4327.730075,N,14148.32945,E,2,11,0.9,111.552,M,31.59,M,2.4,0000*4A
[2021-01-29 11:07:10.891] $GPGGA,20709.5,4327.730076,N,14148.32945,E,2,11,0.9,111.554,M,31.59,M,2.4,0000*49
[2021-01-29 11:07:11.000] $GPGGA,20709.6,4327.730071,N,14148.32944,E,2,11,1.2,111.599,M,31.59,M,2.6,0000*4E
[2021-01-29 11:07:11.094] $GPGGA,20709.7,4327.730072,N,14148.32944,E,2,11,1.2,111.598,M,31.59,M,2.6,0000*49
[2021-01-29 11:07:11.203] $GPGGA,20709.8,4327.730073,N,14148.32942,E,2,11,0.9,111.776,M,31.59,M,1.8,0000*47
[2021-01-29 11:07:11.298] $GPGGA,20709.9,4327.730073,N,14148.32942,E,2,11,0.9,111.777,M,31.59,M,1.8,0000*4D
[2021-01-29 11:07:11.407] $GPGGA,20710,4327.730075,N,14148.3294,E,2,11,0.9,111.866,M,31.59,M,2,0000*4C
[2021-01-29 11:07:11.501] $GPGGA,20710.1,4327.730078,N,14148.3294,E,2,11,0.9,111.86,M,31.59,M,2,0000*4F
[2021-01-29 11:07:11.610] $GPGGA,20710.2,4327.730042,N,14148.32941,E,2,11,0.9,111.838,M,31.59,M,2.2,0000*40
[2021-01-29 11:07:11.689] $GPGGA,20710.3,4327.730041,N,14148.32941,E,2,11,0.9,111.838,M,31.59,M,2.2,0000*43
[2021-01-29 11:07:11.798] $GPGGA,20710.4,4327.73004,N,14148.32939,E,2,11,0.9,111.844,M,31.59,M,2.4,0000*46
[2021-01-29 11:07:11.907] $GPGGA,20710.5,4327.730038,N,14148.32939,E,2,11,0.9,111.846,M,31.59,M,2.4,0000*41
[2021-01-29 11:07:12.001] $GPGGA,20710.6,4327.730073,N,14148.32941,E,2,11,0.9,111.896,M,31.59,M,2.6,0000*4C
[2021-01-29 11:07:12.095] $GPGGA,20710.7,4327.730073,N,14148.32941,E,2,5,0.9,111.899,M,31.59,M,2.6,0000*48
[2021-01-29 11:07:12.204] $GPGGA,20710.8,4327.730059,N,14148.32943,E,2,5,1.6,111.89,M,31.59,M,1.8,0000*45
[2021-01-29 11:07:12.300] $GPGGA,20710.9,4327.730059,N,14148.32943,E,2,5,1.6,111.891,M,31.59,M,1.8,0000*43
[2021-01-29 11:07:12.409] $GPGGA,20711,4327.730041,N,14148.32945,E,2,5,1.6,111.889,M,31.59,M,2,0000*45
[2021-01-29 11:07:12.503] $GPGGA,20711.1,4327.730043,N,14148.32945,E,2,5,1.6,111.886,M,31.59,M,2,0000*4A
[2021-01-29 11:07:12.597] $GPGGA,20711.2,4327.730026,N,14148.32947,E,2,5,1.6,111.877,M,31.59,M,2.2,0000*4F
[2021-01-29 11:07:12.691] $GPGGA,20711.3,4327.730028,N,14148.32947,E,2,5,1.6,111.879,M,31.59,M,2.2,0000*47
[2021-01-29 11:07:12.800] $GPGGA,20711.4,4327.730014,N,14148.32949,E,2,5,1.6,111.862,M,31.59,M,2.4,0000*40
[2021-01-29 11:07:12.894] $GPGGA,20711.5,4327.730015,N,14148.32949,E,2,5,1.6,111.862,M,31.59,M,2.4,0000*4E
[2021-01-29 11:07:13.003] $GPGGA,20711.6,4327.730002,N,14148.3295,E,2,5,1.6,111.857,M,31.59,M,2.6,0000*4B
[2021-01-29 11:07:13.097] $GPGGA,20711.7,4327.730002,N,14148.3295,E,2,5,1.6,111.855,M,31.59,M,2.6,0000*47
[2021-01-29 11:07:13.206] $GPGGA,20711.8,4327.72999,N,14148.32952,E,2,5,1.6,111.855,M,31.59,M,1.8,0000*44
[2021-01-29 11:07:13.301] $GPGGA,20711.9,4327.729992,N,14148.32952,E,2,5,1.6,111.856,M,31.59,M,1.8,0000*44
[2021-01-29 11:07:13.379] $GPGGA,20712,4327.729976,N,14148.32953,E,2,5,1.6,111.856,M,31.59,M,2,0000*43
[2021-01-29 11:07:13.489] $GPGGA,20712.1,4327.729978,N,14148.32953,E,2,5,1.6,111.854,M,31.59,M,2,0000*46
[2021-01-29 11:07:13.598] $GPGGA,20712.2,4327.729964,N,14148.32955,E,2,5,1.6,111.849,M,31.59,M,2.2,0000*4B
[2021-01-29 11:07:13.692] $GPGGA,20712.3,4327.729965,N,14148.32955,E,2,5,1.6,111.843,M,31.59,M,2.2,0000*43
[2021-01-29 11:07:13.801] $GPGGA,20712.4,4327.729947,N,14148.32956,E,2,5,1.6,111.851,M,31.59,M,2.4,0000*43
[2021-01-29 11:07:13.895] $GPGGA,20712.5,4327.729947,N,14148.32956,E,2,5,1.6,111.849,M,31.59,M,2.4,0000*4D
[2021-01-29 11:07:14.004] $GPGGA,20712.6,4327.729931,N,14148.32957,E,2,5,1.6,111.854,M,31.59,M,2.6,0000*42
[2021-01-29 11:07:14.098] $GPGGA,20712.7,4327.729932,N,14148.32957,E,2,5,1.6,111.857,M,31.59,M,2.6,0000*4E
[2021-01-29 11:07:14.207] $GPGGA,20712.8,4327.729917,N,14148.32957,E,2,5,1.6,111.836,M,31.59,M,1.8,0000*48
[2021-01-29 11:07:14.288] $GPGGA,20712.9,4327.729919,N,14148.32958,E,2,5,1.6,111.829,M,31.59,M,1.8,0000*44
[2021-01-29 11:07:14.397] $GPGGA,20713,4327.729909,N,14148.32958,E,2,5,1.6,111.816,M,31.59,M,2,0000*49
[2021-01-29 11:07:14.491] $GPGGA,20713.1,4327.729908,N,14148.32958,E,2,5,1.6,111.812,M,31.59,M,2,0000*41
[2021-01-29 11:07:14.600] $GPGGA,20713.2,4327.729899,N,14148.32958,E,2,5,1.6,111.803,M,31.59,M,2.2,0000*43
[2021-01-29 11:07:14.694] $GPGGA,20713.3,4327.729901,N,14148.32958,E,2,5,1.6,111.793,M,31.59,M,2.2,0000*4E
[2021-01-29 11:07:14.803] $GPGGA,20713.4,4327.729893,N,14148.32958,E,2,5,1.6,111.782,M,31.59,M,2.4,0000*49
[2021-01-29 11:07:14.897] $GPGGA,20713.5,4327.729893,N,14148.32958,E,2,5,1.6,111.779,M,31.59,M,2.4,0000*40
[2021-01-29 11:07:15.006] $GPGGA,20713.6,4327.729885,N,14148.32957,E,2,5,1.6,111.771,M,31.59,M,2.6,0000*4B
[2021-01-29 11:07:15.100] $GPGGA,20713.7,4327.729885,N,14148.32958,E,2,5,1.6,111.772,M,31.59,M,2.6,0000*4B
[2021-01-29 11:07:15.209] $GPGGA,20713.8,4327.72988,N,14148.32957,E,2,5,1.6,111.758,M,31.59,M,1.8,0000*45
[2021-01-29 11:07:15.289] $GPGGA,20713.9,4327.72988,N,14148.32957,E,2,5,1.6,111.752,M,31.59,M,1.8,0000*43
[2021-01-29 11:07:15.399] $GPGGA,20714,4327.729873,N,14148.32957,E,2,5,1.6,111.748,M,31.59,M,2,0000*49
[2021-01-29 11:07:15.492] $GPGGA,20714.1,4327.729874,N,14148.32956,E,2,5,1.6,111.741,M,31.59,M,2,0000*4C
[2021-01-29 11:07:15.602] $GPGGA,20714.2,4327.729866,N,14148.32956,E,2,5,1.6,111.734,M,31.59,M,2.2,0000*4B
[2021-01-29 11:07:15.696] $GPGGA,20714.3,4327.729867,N,14148.32956,E,2,5,1.6,111.726,M,31.59,M,2.2,0000*47
[2021-01-29 11:07:15.805] $GPGGA,20714.4,4327.72986,N,14148.32955,E,2,5,1.6,111.726,M,31.59,M,2.4,0000*42
[2021-01-29 11:07:15.899] $GPGGA,20714.5,4327.729861,N,14148.32955,E,2,5,1.6,111.72,M,31.59,M,2.4,0000*44
[2021-01-29 11:07:16.008] $GPGGA,20714.6,4327.729854,N,14148.32955,E,2,5,1.6,111.714,M,31.59,M,2.6,0000*49
[2021-01-29 11:07:16.102] $GPGGA,20714.7,4327.729855,N,14148.32955,E,2,5,1.6,111.716,M,31.59,M,2.6,0000*43
[2021-01-29 11:07:16.196] $GPGGA,20714.8,4327.729849,N,14148.32955,E,2,5,1.6,111.713,M,31.59,M,1.8,0000*4F
[2021-01-29 11:07:16.293] $GPGGA,20714.9,4327.729849,N,14148.32956,E,2,5,1.6,111.72,M,31.59,M,1.8,0000*41
[2021-01-29 11:07:16.403] $GPGGA,20715,4327.729843,N,14148.32956,E,2,5,1.6,111.715,M,31.59,M,2,0000*46
[2021-01-29 11:07:16.497] $GPGGA,20715.1,4327.729843,N,14148.32956,E,2,5,1.6,111.715,M,31.59,M,2,0000*47
[2021-01-29 11:07:16.606] $GPGGA,20715.2,4327.729839,N,14148.32956,E,2,5,1.6,111.7,M,31.59,M,2.2,0000*40
[2021-01-29 11:07:16.700] $GPGGA,20715.3,4327.729839,N,14148.32956,E,2,5,1.6,111.702,M,31.59,M,2.2,0000*46
[2021-01-29 11:07:16.809] $GPGGA,20715.4,4327.729834,N,14148.32957,E,2,5,1.6,111.69,M,31.59,M,2.4,0000*42
[2021-01-29 11:07:16.903] $GPGGA,20715.5,4327.729834,N,14148.32957,E,2,5,1.6,111.685,M,31.59,M,2.4,0000*4F
[2021-01-29 11:07:16.997] $GPGGA,20715.6,4327.729831,N,14148.32957,E,2,5,1.6,111.676,M,31.59,M,2.6,0000*4D
[2021-01-29 11:07:17.090] $GPGGA,20715.7,4327.729832,N,14148.32957,E,2,8,1.6,111.667,M,31.59,M,2.6,0000*49
[2021-01-29 11:07:17.200] $GPGGA,20715.8,4327.729816,N,14148.32956,E,2,8,1.3,111.643,M,31.59,M,1.8,0000*49
[2021-01-29 11:07:17.291] $GPGGA,20715.9,4327.729815,N,14148.32956,E,2,8,1.3,111.636,M,31.59,M,1.8,0000*45
[2021-01-29 11:07:17.401] $GPGGA,20716,4327.7298,N,14148.32956,E,2,8,1.3,111.615,M,31.59,M,2,0000*48
[2021-01-29 11:07:17.494] $GPGGA,20716.1,4327.7298,N,14148.32956,E,2,8,1.3,111.614,M,31.59,M,2,0000*43
[2021-01-29 11:07:17.604] $GPGGA,20716.2,4327.729787,N,14148.32956,E,2,8,1.3,111.583,M,31.59,M,2.2,0000*49
[2021-01-29 11:07:17.697] $GPGGA,20716.3,4327.729788,N,14148.32955,E,2,8,1.3,111.585,M,31.59,M,2.2,0000*44
[2021-01-29 11:07:17.807] $GPGGA,20716.4,4327.729782,N,14148.32956,E,2,8,1.3,111.556,M,31.59,M,2.4,0000*44
[2021-01-29 11:07:17.900] $GPGGA,20716.5,4327.729781,N,14148.32956,E,2,8,1.3,111.549,M,31.59,M,2.4,0000*4D
[2021-01-29 11:07:17.994] $GPGGA,20716.6,4327.729775,N,14148.32956,E,2,8,1.3,111.532,M,31.59,M,2.6,0000*4B
[2021-01-29 11:07:18.104] $GPGGA,20716.7,4327.729776,N,14148.32956,E,2,10,1.3,111.531,M,31.59,M,2.6,0000*43
[2021-01-29 11:07:18.197] $GPGGA,20716.8,4327.729775,N,14148.32957,E,2,10,1.2,111.532,M,31.59,M,1.8,0000*46
[2021-01-29 11:07:18.294] $GPGGA,20716.9,4327.729777,N,14148.32957,E,2,10,1.2,111.522,M,31.59,M,1.8,0000*4F
[2021-01-29 11:07:18.404] $GPGGA,20717,4327.729775,N,14148.32958,E,2,10,1.2,111.513,M,31.59,M,2,0000*47
[2021-01-29 11:07:18.497] $GPGGA,20717.1,4327.729776,N,14148.32957,E,2,10,1.2,111.51,M,31.59,M,2,0000*43
[2021-01-29 11:07:18.607] $GPGGA,20717.2,4327.729768,N,14148.32958,E,2,10,1.2,111.49,M,31.59,M,2.2,0000*49
[2021-01-29 11:07:18.701] $GPGGA,20717.3,4327.729767,N,14148.32958,E,2,10,1.2,111.483,M,31.59,M,2.2,0000*4C
[2021-01-29 11:07:18.794] $GPGGA,20717.4,4327.72976,N,14148.32958,E,2,10,1.2,111.46,M,31.59,M,2.4,0000*46
[2021-01-29 11:07:18.904] $GPGGA,20717.5,4327.729762,N,14148.32958,E,2,10,1.2,111.454,M,31.59,M,2.4,0000*43
[2021-01-29 11:07:18.997] $GPGGA,20717.6,4327.729755,N,14148.32958,E,2,10,1.2,111.43,M,31.59,M,2.6,0000*44
[2021-01-29 11:07:19.091] $GPGGA,20717.7,4327.729757,N,14148.32958,E,2,10,1.2,111.431,M,31.59,M,2.6,0000*45
[2021-01-29 11:07:19.200] $GPGGA,20717.8,4327.729765,N,14148.32956,E,2,10,1.2,111.423,M,31.59,M,1.8,0000*4F
[2021-01-29 11:07:19.294] $GPGGA,20717.9,4327.729765,N,14148.32956,E,2,10,1.2,111.423,M,31.59,M,1.8,0000*46
[2021-01-29 11:07:19.404] $GPGGA,20718,4327.729775,N,14148.32955,E,2,10,1.2,111.437,M,31.59,M,2,0000*4D
[2021-01-29 11:07:19.497] $GPGGA,20718.1,4327.729777,N,14148.32955,E,2,10,1.2,111.433,M,31.59,M,2,0000*47
[2021-01-29 11:07:19.607] $GPGGA,20718.2,4327.729788,N,14148.32953,E,2,10,1.2,111.441,M,31.59,M,2.2,0000*48
[2021-01-29 11:07:19.701] $GPGGA,20718.3,4327.72979,N,14148.32953,E,2,10,1.2,111.441,M,31.59,M,2.2,0000*4E
[2021-01-29 11:07:19.794] $GPGGA,20718.4,4327.729794,N,14148.32952,E,2,10,1.2,111.453,M,31.59,M,2.4,0000*46
[2021-01-29 11:07:19.888] $GPGGA,20718.5,4327.729796,N,14148.32952,E,2,10,1.2,111.451,M,31.59,M,2.4,0000*4B
[2021-01-29 11:07:19.997] $GPGGA,20718.6,4327.729797,N,14148.32951,E,2,10,1.2,111.456,M,31.59,M,2.6,0000*4F
[2021-01-29 11:07:20.091] $GPGGA,20718.7,4327.729797,N,14148.32951,E,2,10,1.2,111.456,M,31.59,M,2.6,0000*44
[2021-01-29 11:07:20.200] $GPGGA,20718.8,4327.729785,N,14148.32953,E,2,10,1.2,111.453,M,31.59,M,1.8,0000*44
[2021-01-29 11:07:20.296] $GPGGA,20718.9,4327.729787,N,14148.32952,E,2,10,1.2,111.447,M,31.59,M,1.8,0000*49
[2021-01-29 11:07:20.405] $GPGGA,20719,4327.72977,N,14148.32954,E,2,10,1.2,111.432,M,31.59,M,2,0000*4E
[2021-01-29 11:07:20.499] $GPGGA,20719.1,4327.729771,N,14148.32954,E,2,10,1.2,111.432,M,31.59,M,2,0000*4B
[2021-01-29 11:07:20.608] $GPGGA,20719.2,4327.729746,N,14148.32956,E,2,10,1.2,111.406,M,31.59,M,2.2,0000*4B
[2021-01-29 11:07:20.702] $GPGGA,20719.3,4327.729747,N,14148.32956,E,2,10,1.2,111.415,M,31.59,M,2.2,0000*4F
[2021-01-29 11:07:20.796] $GPGGA,20719.4,4327.729729,N,14148.32957,E,2,10,1.2,111.4,M,31.59,M,2.4,0000*48
[2021-01-29 11:07:20.890] $GPGGA,20719.5,4327.729731,N,14148.32957,E,2,10,1.2,111.392,M,31.59,M,2.4,0000*4B
[2021-01-29 11:07:20.999] $GPGGA,20719.6,4327.729716,N,14148.32959,E,2,10,1.2,111.389,M,31.59,M,2.6,0000*42
[2021-01-29 11:07:21.093] $GPGGA,20719.7,4327.729717,N,14148.32958,E,2,11,1.2,111.384,M,31.59,M,2.6,0000*42
[2021-01-29 11:07:21.202] $GPGGA,20719.8,4327.729709,N,14148.32962,E,2,11,0.9,111.394,M,31.59,M,1.8,0000*4D
[2021-01-29 11:07:21.297] $GPGGA,20719.9,4327.729708,N,14148.32961,E,2,11,0.9,111.392,M,31.59,M,1.8,0000*42
[2021-01-29 11:07:21.407] $GPGGA,20720,4327.7297,N,14148.32964,E,2,11,0.9,111.402,M,31.59,M,2,0000*4C
[2021-01-29 11:07:21.500] $GPGGA,20720.1,4327.7297,N,14148.32964,E,2,11,0.9,111.405,M,31.59,M,2,0000*4D
[2021-01-29 11:07:21.594] $GPGGA,20720.2,4327.729694,N,14148.32965,E,2,11,0.9,111.423,M,31.59,M,2.2,0000*41
[2021-01-29 11:07:21.704] $GPGGA,20720.3,4327.729696,N,14148.32965,E,2,11,0.9,111.427,M,31.59,M,2.2,0000*45
[2021-01-29 11:07:21.797] $GPGGA,20720.4,4327.729693,N,14148.32965,E,2,11,0.9,111.442,M,31.59,M,2.4,0000*4C
[2021-01-29 11:07:21.891] $GPGGA,20720.5,4327.729695,N,14148.32965,E,2,11,0.9,111.442,M,31.59,M,2.4,0000*4F
[2021-01-29 11:07:22.000] $GPGGA,20720.6,4327.729732,N,14148.32962,E,2,11,0.9,111.52,M,31.59,M,2.6,0000*4A
[2021-01-29 11:07:22.094] $GPGGA,20720.7,4327.729731,N,14148.32962,E,2,11,0.9,111.522,M,31.59,M,2.6,0000*4F
[2021-01-29 11:07:22.204] $GPGGA,20720.8,4327.729738,N,14148.3296,E,2,11,0.9,111.561,M,31.59,M,1.8,0000*47
[2021-01-29 11:07:22.299] $GPGGA,20720.9,4327.729738,N,14148.3296,E,2,11,0.9,111.562,M,31.59,M,1.8,0000*41
[2021-01-29 11:07:22.393] $GPGGA,20721,4327.729754,N,14148.32957,E,2,11,0.9,111.625,M,31.59,M,2,0000*40
[2021-01-29 11:07:22.502] $GPGGA,20721.1,4327.729754,N,14148.32957,E,2,11,0.9,111.624,M,31.59,M,2,0000*46
[2021-01-29 11:07:22.596] $GPGGA,20721.2,4327.72977,N,14148.32954,E,2,11,0.9,111.694,M,31.59,M,2.2,0000*41
[2021-01-29 11:07:22.690] $GPGGA,20721.3,4327.72977,N,14148.32955,E,2,11,0.9,111.701,M,31.59,M,2.2,0000*45
[2021-01-29 11:07:22.799] $GPGGA,20721.4,4327.729778,N,14148.32953,E,2,11,0.9,111.761,M,31.59,M,2.4,0000*40
[2021-01-29 11:07:22.893] $GPGGA,20721.5,4327.729779,N,14148.32953,E,2,11,0.9,111.762,M,31.59,M,2.4,0000*42
[2021-01-29 11:07:23.002] $GPGGA,20721.6,4327.729781,N,14148.32952,E,2,11,0.9,111.821,M,31.59,M,2.6,0000*49
[2021-01-29 11:07:23.096] $GPGGA,20721.7,4327.729782,N,14148.32951,E,2,11,0.9,111.82,M,31.59,M,2.6,0000*4F
[2021-01-29 11:07:23.206] $GPGGA,20721.8,4327.729778,N,14148.3295,E,2,11,0.9,111.89,M,31.59,M,1.8,0000*40
[2021-01-29 11:07:23.301] $GPGGA,20721.9,4327.72978,N,14148.32951,E,2,11,0.9,111.883,M,31.59,M,1.8,0000*49
[2021-01-29 11:07:23.379] $GPGGA,20722,4327.729776,N,14148.3295,E,2,11,0.9,111.937,M,31.59,M,2,0000*43
[2021-01-29 11:07:23.488] $GPGGA,20722.1,4327.729778,N,14148.3295,E,2,11,0.9,111.932,M,31.59,M,2,0000*45
[2021-01-29 11:07:23.598] $GPGGA,20722.2,4327.729773,N,14148.32949,E,2,11,0.9,111.97,M,31.59,M,2.2,0000*4C
[2021-01-29 11:07:23.692] $GPGGA,20722.3,4327.729776,N,14148.32949,E,2,11,0.9,111.973,M,31.59,M,2.2,0000*4F
[2021-01-29 11:07:23.801] $GPGGA,20722.4,4327.729773,N,14148.32949,E,2,11,0.9,112.007,M,31.59,M,2.4,0000*43
[2021-01-29 11:07:23.895] $GPGGA,20722.5,4327.729773,N,14148.32949,E,2,11,0.9,112.009,M,31.59,M,2.4,0000*48
[2021-01-29 11:07:24.004] $GPGGA,20722.6,4327.72977,N,14148.32948,E,2,11,0.9,112.036,M,31.59,M,2.6,0000*48
[2021-01-29 11:07:24.098] $GPGGA,20722.7,4327.72977,N,14148.32948,E,2,11,0.9,112.04,M,31.59,M,2.6,0000*4F
[2021-01-29 11:07:24.207] $GPGGA,20722.8,4327.72949,N,14148.32931,E,4,6,1.6,110.9,M,31.59,M,1.8,0000*42
[2021-01-29 11:07:24.304] $GPGGA,20722.9,4327.72949,N,14148.32931,E,4,6,1.6,110.898,M,31.59,M,1.9,0000*49
[2021-01-29 11:07:24.413] $GPGGA,20723,4327.729491,N,14148.32931,E,4,6,1.6,110.902,M,31.59,M,2,0000*40
[2021-01-29 11:07:24.491] $GPGGA,20723.1,4327.729491,N,14148.32931,E,4,6,1.6,110.896,M,31.59,M,2.1,0000*4F
[2021-01-29 11:07:24.601] $GPGGA,20723.2,4327.72949,N,14148.32931,E,4,6,1.6,110.907,M,31.59,M,2.2,0000*44
[2021-01-29 11:07:24.694] $GPGGA,20723.3,4327.72949,N,14148.32931,E,4,6,1.6,110.902,M,31.59,M,2.3,0000*40
[2021-01-29 11:07:24.804] $GPGGA,20723.4,4327.72949,N,14148.32931,E,4,6,1.6,110.906,M,31.59,M,2.4,0000*45
[2021-01-29 11:07:24.897] $GPGGA,20723.5,4327.72949,N,14148.32932,E,4,6,1.6,110.897,M,31.59,M,2.5,0000*46
[2021-01-29 11:07:25.007] $GPGGA,20723.6,4327.729492,N,14148.32931,E,4,6,1.6,110.902,M,31.59,M,2.6,0000*46
[2021-01-29 11:07:25.101] $GPGGA,20723.7,4327.729492,N,14148.32931,E,4,6,1.6,110.886,M,31.59,M,1.7,0000*4B
[2021-01-29 11:07:25.210] $GPGGA,20723.8,4327.729491,N,14148.32932,E,4,6,1.6,110.881,M,31.59,M,1.8,0000*43
[2021-01-29 11:07:25.288] $GPGGA,20723.9,4327.729493,N,14148.32931,E,4,6,1.6,110.887,M,31.59,M,1.9,0000*44
[2021-01-29 11:07:25.398] $GPGGA,20724,4327.729491,N,14148.32931,E,4,6,1.6,110.883,M,31.59,M,2,0000*42
[2021-01-29 11:07:25.491] $GPGGA,20724.1,4327.729491,N,14148.32932,E,4,6,1.6,110.878,M,31.59,M,2.1,0000*4E
[2021-01-29 11:07:25.601] $GPGGA,20724.2,4327.729493,N,14148.32931,E,4,6,1.6,110.885,M,31.59,M,2.2,0000*4B
[2021-01-29 11:07:25.695] $GPGGA,20724.3,4327.729492,N,14148.32932,E,4,6,1.6,110.888,M,31.59,M,2.3,0000*4A
[2021-01-29 11:07:25.804] $GPGGA,20724.4,4327.729492,N,14148.32931,E,4,6,1.6,110.884,M,31.59,M,2.4,0000*4B
[2021-01-29 11:07:25.898] $GPGGA,20724.5,4327.729492,N,14148.32931,E,4,6,1.6,110.888,M,31.59,M,2.5,0000*47
[2021-01-29 11:07:26.007] $GPGGA,20724.6,4327.729493,N,14148.32932,E,4,6,1.6,110.881,M,31.59,M,2.6,0000*45
[2021-01-29 11:07:26.101] $GPGGA,20724.7,4327.729488,N,14148.32931,E,4,6,1.6,110.895,M,31.59,M,1.7,0000*48
[2021-01-29 11:07:26.210] $GPGGA,20724.8,4327.729487,N,14148.32931,E,4,6,1.6,110.889,M,31.59,M,1.8,0000*45
[2021-01-29 11:07:26.291] $GPGGA,20724.9,4327.729489,N,14148.32931,E,4,6,1.6,110.888,M,31.59,M,1.9,0000*44
[2021-01-29 11:07:26.401] $GPGGA,20725,4327.729488,N,14148.32931,E,4,6,1.6,110.892,M,31.59,M,2,0000*44
[2021-01-29 11:07:26.494] $GPGGA,20725.1,4327.729489,N,14148.32931,E,4,6,1.6,110.887,M,31.59,M,2.1,0000*4C
[2021-01-29 11:07:26.604] $GPGGA,20725.2,4327.729488,N,14148.32931,E,4,6,1.6,110.888,M,31.59,M,2.2,0000*49
[2021-01-29 11:07:26.697] $GPGGA,20725.3,4327.729489,N,14148.32931,E,4,6,1.6,110.887,M,31.59,M,2.3,0000*43
[2021-01-29 11:07:26.807] $GPGGA,20725.4,4327.729488,N,14148.32931,E,4,6,1.6,110.889,M,31.59,M,2.4,0000*41
[2021-01-29 11:07:26.901] $GPGGA,20725.5,4327.729491,N,14148.32931,E,4,6,1.6,110.883,M,31.59,M,2.5,0000*49
[2021-01-29 11:07:27.010] $GPGGA,20725.6,4327.729487,N,14148.32931,E,4,6,1.6,110.888,M,31.59,M,2.6,0000*4A
[2021-01-29 11:07:27.104] $GPGGA,20725.7,4327.729491,N,14148.32931,E,4,6,1.6,110.904,M,31.59,M,1.7,0000*49
[2021-01-29 11:07:27.197] $GPGGA,20725.8,4327.729488,N,14148.32932,E,4,6,1.6,110.906,M,31.59,M,1.8,0000*41
[2021-01-29 11:07:27.291] $GPGGA,20725.9,4327.729491,N,14148.32932,E,4,6,1.6,110.906,M,31.59,M,1.9,0000*48
[2021-01-29 11:07:27.401] $GPGGA,20726,4327.729489,N,14148.32932,E,4,6,1.6,110.91,M,31.59,M,2,0000*4E
[2021-01-29 11:07:27.495] $GPGGA,20726.1,4327.729492,N,14148.32931,E,4,6,1.6,110.907,M,31.59,M,2.1,0000*40
[2021-01-29 11:07:27.604] $GPGGA,20726.2,4327.729491,N,14148.32931,E,4,6,1.6,110.907,M,31.59,M,2.2,0000*45
[2021-01-29 11:07:27.698] $GPGGA,20726.3,4327.729492,N,14148.32931,E,4,6,1.6,110.903,M,31.59,M,2.3,0000*48
[2021-01-29 11:07:27.807] $GPGGA,20726.4,4327.72949,N,14148.32931,E,4,6,1.6,110.909,M,31.59,M,2.4,0000*4E
[2021-01-29 11:07:27.901] $GPGGA,20726.5,4327.729492,N,14148.32931,E,4,6,1.6,110.901,M,31.59,M,2.5,0000*43
[2021-01-29 11:07:28.010] $GPGGA,20726.6,4327.729492,N,14148.32931,E,4,6,1.6,110.914,M,31.59,M,2.6,0000*4E
[2021-01-29 11:07:28.104] $GPGGA,20726.7,4327.729488,N,14148.32931,E,4,6,1.6,110.874,M,31.59,M,1.7,0000*43
[2021-01-29 11:07:28.198] $GPGGA,20726.8,4327.729488,N,14148.32931,E,4,6,1.6,110.881,M,31.59,M,1.8,0000*43
[2021-01-29 11:07:28.293] $GPGGA,20726.9,4327.72949,N,14148.32931,E,4,6,1.6,110.879,M,31.59,M,1.9,0000*44
[2021-01-29 11:07:28.403] $GPGGA,20727,4327.72949,N,14148.32931,E,4,6,1.6,110.883,M,31.59,M,2,0000*4F
[2021-01-29 11:07:28.496] $GPGGA,20727.1,4327.729489,N,14148.32931,E,4,6,1.6,110.891,M,31.59,M,2.1,0000*4F
[2021-01-29 11:07:28.606] $GPGGA,20727.2,4327.729489,N,14148.32931,E,4,6,1.6,110.888,M,31.59,M,2.2,0000*4B
[2021-01-29 11:07:28.700] $GPGGA,20727.3,4327.729489,N,14148.32931,E,4,6,1.6,110.885,M,31.59,M,2.3,0000*4B
[2021-01-29 11:07:28.809] $GPGGA,20727.4,4327.729489,N,14148.32931,E,4,6,1.6,110.883,M,31.59,M,2.4,0000*4D
[2021-01-29 11:07:28.903] $GPGGA,20727.5,4327.729489,N,14148.32931,E,4,6,1.6,110.89,M,31.59,M,2.5,0000*46
[2021-01-29 11:07:28.996] $GPGGA,20727.6,4327.729489,N,14148.32931,E,4,6,1.6,110.882,M,31.59,M,2.6,0000*49
[2021-01-29 11:07:29.090] $GPGGA,20727.7,4327.729488,N,14148.32931,E,4,6,1.6,110.906,M,31.59,M,1.7,0000*4C
[2021-01-29 11:07:29.200] $GPGGA,20727.8,4327.729488,N,14148.32931,E,4,6,1.6,110.914,M,31.59,M,1.8,0000*4E
[2021-01-29 11:07:29.309] $GPGGA,20727.9,4327.729489,N,14148.32931,E,4,6,1.6,110.904,M,31.59,M,1.9,0000*4E
[2021-01-29 11:07:29.403] $GPGGA,20728,4327.729488,N,14148.32931,E,4,6,1.6,110.91,M,31.59,M,2,0000*45
[2021-01-29 11:07:29.497] $GPGGA,20728.1,4327.729489,N,14148.32931,E,4,6,1.6,110.914,M,31.59,M,2.1,0000*44
[2021-01-29 11:07:29.606] $GPGGA,20728.2,4327.729488,N,14148.32931,E,4,6,1.6,110.911,M,31.59,M,2.2,0000*4F
[2021-01-29 11:07:29.700] $GPGGA,20728.3,4327.729488,N,14148.32931,E,4,6,1.6,110.911,M,31.59,M,2.3,0000*4F
[2021-01-29 11:07:29.809] $GPGGA,20728.4,4327.729489,N,14148.32931,E,4,6,1.6,110.908,M,31.59,M,2.4,0000*48
[2021-01-29 11:07:29.903] $GPGGA,20728.5,4327.729487,N,14148.32931,E,4,6,1.6,110.914,M,31.59,M,2.5,0000*40
[2021-01-29 11:07:29.997] $GPGGA,20728.6,4327.729488,N,14148.32931,E,4,6,1.6,110.909,M,31.59,M,2.6,0000*4E
[2021-01-29 11:07:30.106] $GPGGA,20728.7,4327.729488,N,14148.32931,E,4,6,1.6,110.896,M,31.59,M,1.7,0000*46
[2021-01-29 11:07:30.200] $GPGGA,20728.8,4327.729487,N,14148.32931,E,4,6,1.6,110.907,M,31.59,M,1.8,0000*4C
[2021-01-29 11:07:30.295] $GPGGA,20728.9,4327.729489,N,14148.32931,E,4,6,1.6,110.901,M,31.59,M,1.9,0000*43
[2021-01-29 11:07:30.404] $GPGGA,20729,4327.729488,N,14148.32931,E,4,6,1.6,110.906,M,31.59,M,2,0000*47
[2021-01-29 11:07:30.498] $GPGGA,20729.1,4327.729487,N,14148.32931,E,4,6,1.6,110.906,M,31.59,M,2.1,0000*4A
[2021-01-29 11:07:30.608] $GPGGA,20729.2,4327.729488,N,14148.32931,E,4,6,1.6,110.897,M,31.59,M,2.2,0000*4A
[2021-01-29 11:07:30.701] $GPGGA,20729.3,4327.729487,N,14148.32931,E,4,6,1.6,110.898,M,31.59,M,2.3,0000*47
[2021-01-29 11:07:30.811] $GPGGA,20729.4,4327.729488,N,14148.32931,E,4,6,1.6,110.903,M,31.59,M,2.4,0000*40
[2021-01-29 11:07:30.889] $GPGGA,20729.5,4327.729487,N,14148.32931,E,4,6,1.6,110.905,M,31.59,M,2.5,0000*4D
[2021-01-29 11:07:30.998] $GPGGA,20729.6,4327.729486,N,14148.32931,E,4,6,1.6,110.902,M,31.59,M,2.6,0000*48
[2021-01-29 11:07:31.092] $GPGGA,20729.7,4327.72949,N,14148.32931,E,4,6,1.6,110.901,M,31.59,M,1.7,0000*4E
[2021-01-29 11:07:31.201] $GPGGA,20729.8,4327.72949,N,14148.32932,E,4,6,1.6,110.912,M,31.59,M,1.8,0000*41
[2021-01-29 11:07:31.297] $GPGGA,20729.9,4327.729491,N,14148.32931,E,4,6,1.6,110.904,M,31.59,M,1.9,0000*42
[2021-01-29 11:07:31.406] $GPGGA,20730,4327.72949,N,14148.32931,E,4,6,1.6,110.91,M,31.59,M,2,0000*4A
[2021-01-29 11:07:31.500] $GPGGA,20730.1,4327.72949,N,14148.32931,E,4,6,1.6,110.902,M,31.59,M,2.1,0000*4E
[2021-01-29 11:07:31.609] $GPGGA,20730.2,4327.729491,N,14148.32931,E,4,6,1.6,110.903,M,31.59,M,2.2,0000*4B
[2021-01-29 11:07:31.703] $GPGGA,20730.3,4327.72949,N,14148.32931,E,4,6,1.6,110.903,M,31.59,M,2.3,0000*4A
[2021-01-29 11:07:31.797] $GPGGA,20730.4,4327.729489,N,14148.32931,E,4,6,1.6,110.903,M,31.59,M,2.4,0000*4D
[2021-01-29 11:07:31.891] $GPGGA,20730.5,4327.729489,N,14148.32931,E,4,6,1.6,110.909,M,31.59,M,2.5,0000*47
[2021-01-29 11:07:32.000] $GPGGA,20730.6,4327.72949,N,14148.32931,E,4,6,1.6,110.9,M,31.59,M,2.6,0000*46
[2021-01-29 11:07:32.094] $GPGGA,20730.7,4327.729491,N,14148.32931,E,4,6,1.6,110.905,M,31.59,M,2.7,0000*4D
[2021-01-29 11:07:32.203] $GPGGA,20730.8,4327.729491,N,14148.32931,E,4,6,1.6,110.901,M,31.59,M,2.8,0000*4B
[2021-01-29 11:07:32.299] $GPGGA,20730.9,4327.729489,N,14148.32931,E,4,6,1.6,110.902,M,31.59,M,2.9,0000*4D
[2021-01-29 11:07:32.408] $GPGGA,20731,4327.72949,N,14148.32931,E,4,6,1.6,110.891,M,31.59,M,3,0000*40
[2021-01-29 11:07:32.502] $GPGGA,20731.1,4327.729491,N,14148.32931,E,4,6,1.6,110.889,M,31.59,M,3.1,0000*41
[2021-01-29 11:07:32.612] $GPGGA,20731.2,4327.729489,N,14148.32931,E,4,6,1.6,110.892,M,31.59,M,3.2,0000*49
[2021-01-29 11:07:32.690] $GPGGA,20731.3,4327.72949,N,14148.32932,E,4,6,1.6,110.891,M,31.59,M,3.3,0000*45
[2021-01-29 11:07:32.799] $GPGGA,20731.4,4327.729489,N,14148.32932,E,4,6,1.6,110.893,M,31.59,M,3.4,0000*47
[2021-01-29 11:07:32.893] $GPGGA,20731.5,4327.729491,N,14148.32932,E,4,6,1.6,110.889,M,31.59,M,3.5,0000*42
[2021-01-29 11:07:33.002] $GPGGA,20731.6,4327.729489,N,14148.32931,E,4,6,1.6,110.891,M,31.59,M,3.6,0000*45
[2021-01-29 11:07:33.096] $GPGGA,20731.7,4327.729491,N,14148.32932,E,4,6,1.6,110.89,M,31.59,M,3.7,0000*42
[2021-01-29 11:07:33.205] $GPGGA,20731.8,4327.72949,N,14148.32932,E,4,6,1.6,110.894,M,31.59,M,3.8,0000*4C
[2021-01-29 11:07:33.300] $GPGGA,20731.9,4327.72949,N,14148.32932,E,4,6,1.6,110.89,M,31.59,M,3.9,0000*4C
[2021-01-29 11:07:33.394] $GPGGA,20732,4327.729491,N,14148.32931,E,4,6,1.6,110.893,M,31.59,M,4,0000*49
[2021-01-29 11:07:33.472] $GPGGA,20732.1,4327.729491,N,14148.32931,E,4,6,1.6,110.889,M,31.59,M,4.1,0000*48
[2021-01-29 11:07:33.597] $GPGGA,20732.2,4327.72949,N,14148.32932,E,4,6,1.6,110.885,M,31.59,M,4.2,0000*4C
[2021-01-29 11:07:33.707] $GPGGA,20732.3,4327.729491,N,14148.32932,E,4,6,1.6,110.893,M,31.59,M,4.3,0000*46
[2021-01-29 11:07:33.800] $GPGGA,20732.4,4327.72949,N,14148.32932,E,4,6,1.6,110.888,M,31.59,M,4.4,0000*40
[2021-01-29 11:07:33.894] $GPGGA,20732.5,4327.729491,N,14148.32932,E,4,6,1.6,110.887,M,31.59,M,4.5,0000*47
[2021-01-29 11:07:34.003] $GPGGA,20732.6,4327.729491,N,14148.32932,E,4,6,1.6,110.887,M,31.59,M,4.6,0000*4E
[2021-01-29 11:07:34.097] $GPGGA,20732.7,4327.729492,N,14148.32932,E,4,6,1.6,110.907,M,31.59,M,1.7,0000*45
[2021-01-29 11:07:34.207] $GPGGA,20732.8,4327.729493,N,14148.32932,E,4,6,1.6,110.897,M,31.59,M,1.8,0000*4E
[2021-01-29 11:07:34.303] $GPGGA,20732.9,4327.729492,N,14148.32932,E,4,6,1.6,110.901,M,31.59,M,1.9,0000*43
[2021-01-29 11:07:34.412] $GPGGA,20733,4327.729491,N,14148.32932,E,4,6,1.6,110.904,M,31.59,M,2,0000*4C
[2021-01-29 11:07:34.490] $GPGGA,20733.1,4327.729492,N,14148.32932,E,4,6,1.6,110.899,M,31.59,M,2.1,0000*44
[2021-01-29 11:07:34.600] $GPGGA,20733.2,4327.729492,N,14148.32932,E,4,6,1.6,110.902,M,31.59,M,2.2,0000*43
[2021-01-29 11:07:34.694] $GPGGA,20733.3,4327.729492,N,14148.32932,E,4,6,1.6,110.9,M,31.59,M,2.3,0000*49
[2021-01-29 11:07:34.803] $GPGGA,20733.4,4327.729493,N,14148.32932,E,4,6,1.6,110.897,M,31.59,M,2.4,0000*48
[2021-01-29 11:07:34.897] $GPGGA,20733.5,4327.72949,N,14148.32932,E,4,6,1.6,110.903,M,31.59,M,2.5,0000*4A
[2021-01-29 11:07:35.006] $GPGGA,20733.6,4327.729493,N,14148.32932,E,4,6,1.6,110.9,M,31.59,M,2.6,0000*45
[2021-01-29 11:07:35.100] $GPGGA,20733.7,4327.729492,N,14148.32931,E,4,6,1.6,110.888,M,31.59,M,1.7,0000*4F
[2021-01-29 11:07:35.209] $GPGGA,20733.8,4327.729491,N,14148.32931,E,4,6,1.6,110.88,M,31.59,M,1.8,0000*41
[2021-01-29 11:07:35.291] $GPGGA,20733.9,4327.729492,N,14148.32932,E,4,6,1.6,110.889,M,31.59,M,1.9,0000*47
[2021-01-29 11:07:35.400] $GPGGA,20734,4327.729493,N,14148.32931,E,4,6,1.6,110.879,M,31.59,M,2,0000*48
[2021-01-29 11:07:35.494] $GPGGA,20734.1,4327.729495,N,14148.32931,E,4,6,1.6,110.889,M,31.59,M,2.1,0000*49
[2021-01-29 11:07:35.603] $GPGGA,20734.2,4327.729494,N,14148.32931,E,4,6,1.6,110.885,M,31.59,M,2.2,0000*46
[2021-01-29 11:07:35.697] $GPGGA,20734.3,4327.729493,N,14148.32932,E,4,6,1.6,110.882,M,31.59,M,2.3,0000*4D
[2021-01-29 11:07:35.806] $GPGGA,20734.4,4327.729493,N,14148.32931,E,4,6,1.6,110.882,M,31.59,M,2.4,0000*40
[2021-01-29 11:07:35.900] $GPGGA,20734.5,4327.729493,N,14148.32932,E,4,6,1.6,110.886,M,31.59,M,2.5,0000*44
[2021-01-29 11:07:36.009] $GPGGA,20734.6,4327.729493,N,14148.32931,E,4,6,1.6,110.888,M,31.59,M,2.6,0000*4E
[2021-01-29 11:07:36.103] $GPGGA,20734.7,4327.729493,N,14148.32932,E,4,6,1.6,110.884,M,31.59,M,1.7,0000*4B
[2021-01-29 11:07:36.197] $GPGGA,20734.8,4327.729493,N,14148.32931,E,4,6,1.6,110.881,M,31.59,M,1.8,0000*4E
[2021-01-29 11:07:36.291] $GPGGA,20734.9,4327.729493,N,14148.32931,E,4,6,1.6,110.891,M,31.59,M,1.9,0000*47
[2021-01-29 11:07:36.400] $GPGGA,20735,4327.729493,N,14148.32931,E,4,6,1.6,110.889,M,31.59,M,2,0000*48
[2021-01-29 11:07:36.494] $GPGGA,20735.1,4327.729492,N,14148.32931,E,4,6,1.6,110.886,M,31.59,M,2.1,0000*44
[2021-01-29 11:07:36.603] $GPGGA,20735.2,4327.729493,N,14148.32931,E,4,6,1.6,110.89,M,31.59,M,2.2,0000*44
[2021-01-29 11:07:36.697] $GPGGA,20735.3,4327.729492,N,14148.32932,E,4,6,1.6,110.891,M,31.59,M,2.3,0000*4B
[2021-01-29 11:07:36.807] $GPGGA,20735.4,4327.729492,N,14148.32932,E,4,6,1.6,110.886,M,31.59,M,2.4,0000*44
[2021-01-29 11:07:36.900] $GPGGA,20735.5,4327.729492,N,14148.32931,E,4,6,1.6,110.888,M,31.59,M,2.5,0000*4E
[2021-01-29 11:07:37.010] $GPGGA,20735.6,4327.729493,N,14148.32932,E,4,6,1.6,110.89,M,31.59,M,2.6,0000*4C
[2021-01-29 11:07:37.103] $GPGGA,20735.7,4327.729492,N,14148.32931,E,4,6,1.6,110.896,M,31.59,M,1.7,0000*44
[2021-01-29 11:07:37.197] $GPGGA,20735.8,4327.729493,N,14148.32931,E,4,6,1.6,110.893,M,31.59,M,1.8,0000*42
[2021-01-29 11:07:37.291] $GPGGA,20735.9,4327.729492,N,14148.32931,E,4,6,1.6,110.895,M,31.59,M,1.9,0000*4A
[2021-01-29 11:07:37.401] $GPGGA,20736,4327.729492,N,14148.32931,E,4,6,1.6,110.893,M,31.59,M,2,0000*4D
[2021-01-29 11:07:37.494] $GPGGA,20736.1,4327.729492,N,14148.32932,E,4,6,1.6,110.893,M,31.59,M,2.1,0000*40
[2021-01-29 11:07:37.604] $GPGGA,20736.2,4327.729493,N,14148.32931,E,4,6,1.6,110.889,M,31.59,M,2.2,0000*4A
[2021-01-29 11:07:37.697] $GPGGA,20736.3,4327.729492,N,14148.32932,E,4,6,1.6,110.899,M,31.59,M,2.3,0000*4D
[2021-01-29 11:07:37.807] $GPGGA,20736.4,4327.729492,N,14148.32932,E,4,6,1.6,110.89,M,31.59,M,2.4,0000*40
[2021-01-29 11:07:37.900] $GPGGA,20736.5,4327.729494,N,14148.32931,E,4,6,1.6,110.888,M,31.59,M,2.5,0000*4E
[2021-01-29 11:07:38.010] $GPGGA,20736.6,4327.729493,N,14148.32932,E,4,6,1.6,110.891,M,31.59,M,2.6,0000*42
[2021-01-29 11:07:38.104] $GPGGA,20736.7,4327.729494,N,14148.32931,E,4,6,1.6,110.89,M,31.59,M,1.7,0000*4F
[2021-01-29 11:07:38.197] $GPGGA,20736.8,4327.729494,N,14148.32931,E,4,6,1.6,110.884,M,31.59,M,1.8,0000*4C
[2021-01-29 11:07:38.293] $GPGGA,20736.9,4327.729494,N,14148.32931,E,4,6,1.6,110.886,M,31.59,M,1.9,0000*42
[2021-01-29 11:07:38.402] $GPGGA,20737,4327.729495,N,14148.32931,E,4,6,1.6,110.88,M,31.59,M,2,0000*44
[2021-01-29 11:07:38.496] $GPGGA,20737.1,4327.729493,N,14148.32931,E,4,6,1.6,110.887,M,31.59,M,2.1,0000*40
[2021-01-29 11:07:38.606] $GPGGA,20737.2,4327.729496,N,14148.32931,E,4,6,1.6,110.88,M,31.59,M,2.2,0000*4B
[2021-01-29 11:07:38.699] $GPGGA,20737.3,4327.729494,N,14148.32931,E,4,6,1.6,110.881,M,31.59,M,2.3,0000*43
[2021-01-29 11:07:38.809] $GPGGA,20737.4,4327.729494,N,14148.32931,E,4,6,1.6,110.878,M,31.59,M,2.4,0000*46
[2021-01-29 11:07:38.902] $GPGGA,20737.5,4327.729495,N,14148.32931,E,4,6,1.6,110.892,M,31.59,M,2.5,0000*4E
[2021-01-29 11:07:38.996] $GPGGA,20737.6,4327.729494,N,14148.32931,E,4,6,1.6,110.875,M,31.59,M,2.6,0000*49
[2021-01-29 11:07:39.090] $GPGGA,20737.7,4327.729492,N,14148.32932,E,4,6,1.6,110.903,M,31.59,M,1.7,0000*47
[2021-01-29 11:07:39.199] $GPGGA,20737.8,4327.729491,N,14148.32932,E,4,6,1.6,110.902,M,31.59,M,1.8,0000*46
[2021-01-29 11:07:39.293] $GPGGA,20737.9,4327.72949,N,14148.32932,E,4,6,1.6,110.901,M,31.59,M,1.9,0000*4D
[2021-01-29 11:07:39.403] $GPGGA,20738,4327.729492,N,14148.32931,E,4,6,1.6,110.901,M,31.59,M,2,0000*4F
[2021-01-29 11:07:39.496] $GPGGA,20738.1,4327.72949,N,14148.32932,E,4,6,1.6,110.906,M,31.59,M,2.1,0000*42
[2021-01-29 11:07:39.606] $GPGGA,20738.2,4327.729491,N,14148.32931,E,4,6,1.6,110.907,M,31.59,M,2.2,0000*4E
[2021-01-29 11:07:39.699] $GPGGA,20738.3,4327.729492,N,14148.32931,E,4,6,1.6,110.895,M,31.59,M,2.3,0000*4D
