
[2021-01-29 11:26:44.433] 022634.80,,,,,0,00,99.99,,,,,177.8,*56
[2021-01-29 11:26:44.464] $GNGGA,022634.90,,,,,0,00,99.99,,,,,177.9,*56
[2021-01-29 11:26:44.464] $GNGGA,022635.00,,,,,0,00,99.99,,,,,178.0,*58
[2021-01-29 11:26:44.464] $GNGGA,022635.10,,,,,0,00,99.99,,,,,178.1,*58
[2021-01-29 11:26:44.464] $GNGGA,022635.20,,,,,0,00,99.99,,,,,178.2,*58
[2021-01-29 11:26:44.464] $GNGGA,022635.30,,,,,0,00,99.99,,,,,178.3,*58
[2021-01-29 11:26:44.464] $GNGGA,022635.40,,,,,0,00,99.99,,,,,178.4,*58
[2021-01-29 11:26:44.464] $GNGGA,022635.50,,,,,0,00,99.99,,,,,178.5,*58
[2021-01-29 11:26:44.464] $GNGGA,022635.60,,,,,0,00,99.99,,,,,178.6,*58
[2021-01-29 11:26:44.464] $GNGGA,022635.70,,,,,0,00,99.99,,,,,178.7,*58
[2021-01-29 11:26:44.464] $GNGGA,022635.80,,,,,0,00,99.99,,,,,178.8,*58
[2021-01-29 11:26:44.464] $GNGGA,022635.90,,,,,0,00,99.99,,,,,178.9,*58
[2021-01-29 11:26:44.464] $GNGGA,022636.00,,,,,0,00,99.99,,,,,179.0,*5A
[2021-01-29 11:26:44.464] $GNGGA,022636.10,,,,,0,00,99.99,,,,,179.1,*5A
[2021-01-29 11:26:44.464] $GNGGA,022636.20,,,,,0,00,99.99,,,,,179.2,*5A
[2021-01-29 11:26:44.464] $GNGGA,022636.30,,,,,0,00,99.99,,,,,179.3,*5A
[2021-01-29 11:26:44.464] $GNGGA,022636.40,,,,,0,00,99.99,,,,,179.4,*5A
[2021-01-29 11:26:44.464] $GNGGA,022636.50,,,,,0,00,99.99,,,,,179.5,*5A
[2021-01-29 11:26:44.464] $GNGGA,022636.60,,,,,0,00,99.99,,,,,179.6,*5A
[2021-01-29 11:26:44.464] $GNGGA,022636.70,,,,,0,00,99.99,,,,,179.7,*5A
[2021-01-29 11:26:44.464] $GNGGA,022636.80,,,,,0,00,99.99,,,,,179.8,*5A
[2021-01-29 11:26:44.464] $GNGGA,022636.90,,,,,0,00,99.99,,,,,179.9,*5A
[2021-01-29 11:26:44.464] $GNGGA,022637.00,,,,,0,00,99.99,,,,,180.0,*5D
[2021-01-29 11:26:44.480] $GNGGA,022637.10,,,,,0,00,99.99,,,,,180.1,*5D
[2021-01-29 11:26:44.480] $GNGGA,022637.20,,,,,0,00,99.99,,,,,180.2,*5D
[2021-01-29 11:26:44.480] $GNGGA,022637.30,,,,,0,00,99.99,,,,,180.3,*5D
[2021-01-29 11:26:44.480] $GNGGA,022637.40,,,,,0,00,99.99,,,,,180.4,*5D
[2021-01-29 11:26:44.480] $GNGGA,022637.50,,,,,0,00,99.99,,,,,180.5,*5D
[2021-01-29 11:26:44.480] $GNGGA,022637.60,,,,,0,00,99.99,,,,,180.6,*5D
[2021-01-29 11:26:44.480] $GNGGA,022637.70,,,,,0,00,99.99,,,,,180.7,*5D
[2021-01-29 11:26:44.480] $GNGGA,022637.80,,,,,0,00,99.99,,,,,180.8,*5D
[2021-01-29 11:26:44.480] $GNGGA,022637.90,,,,,0,00,99.99,,,,,180.9,*5D
[2021-01-29 11:26:44.480] $GNGGA,022638.00,,,,,0,00,99.99,,,,,181.0,*53
[2021-01-29 11:26:44.480] $GNGGA,022638.10,,,,,0,00,99.99,,,,,181.1,*53
[2021-01-29 11:26:44.480] $GNGGA,022638.20,,,,,0,00,99.99,,,,,181.2,*53
[2021-01-29 11:26:44.480] $GNGGA,022638.30,,,,,0,00,99.99,,,,,181.3,*53
[2021-01-29 11:26:44.480] $GNGGA,022638.40,,,,,0,00,99.99,,,,,181.4,*53
[2021-01-29 11:26:44.480] $GNGGA,022638.50,,,,,0,00,99.99,,,,,181.5,*53
[2021-01-29 11:26:44.480] $GNGGA,022638.60,,,,,0,00,99.99,,,,,181.6,*53
[2021-01-29 11:26:44.480] $GNGGA,022638.70,,,,,0,00,99.99,,,,,181.7,*53
[2021-01-29 11:26:44.480] $GNGGA,022638.80,,,,,0,00,99.99,,,,,181.8,*53
[2021-01-29 11:26:44.480] $GNGGA,022638.90,,,,,0,00,99.99,,,,,181.9,*53
[2021-01-29 11:26:44.480] $GNGGA,022639.00,,,,,0,00,99.99,,,,,182.0,*51
[2021-01-29 11:26:44.480] $GNGGA,022639.10,,,,,0,00,99.99,,,,,182.1,*51
[2021-01-29 11:26:44.480] $GNGGA,022639.20,,,,,0,00,99.99,,,,,182.2,*51
[2021-01-29 11:26:44.495] $GNGGA,022639.30,,,,,0,00,99.99,,,,,182.3,*51
[2021-01-29 11:26:44.495] $GNGGA,022639.40,,,,,0,00,99.99,,,,,182.4,*51
[2021-01-29 11:26:44.495] $GNGGA,022639.50,,,,,0,00,99.99,,,,,182.5,*51
[2021-01-29 11:26:44.495] $GNGGA,022639.60,,,,,0,00,99.99,,,,,182.6,*51
[2021-01-29 11:26:44.495] $GNGGA,022639.70,,,,,0,00,99.99,,,,,182.7,*51
[2021-01-29 11:26:44.495] $GNGGA,022639.80,,,,,0,00,99.99,,,,,182.8,*51
[2021-01-29 11:26:44.495] $GNGGA,022639.90,,,,,0,00,99.99,,,,,182.9,*51
[2021-01-29 11:26:44.495] $GNGGA,022640.00,,,,,0,00,99.99,,,,,183.0,*5E
[2021-01-29 11:26:44.495] $GNGGA,022640.10,,,,,0,00,99.99,,,,,183.1,*5E
[2021-01-29 11:26:44.495] $GNGGA,022640.20,,,,,0,00,99.99,,,,,183.2,*5E
[2021-01-29 11:26:44.495] $GNGGA,022640.30,,,,,0,00,99.99,,,,,183.3,*5E
[2021-01-29 11:26:44.495] $GNGGA,022640.40,,,,,0,00,99.99,,,,,183.4,*5E
[2021-01-29 11:26:44.495] $GNGGA,022640.50,,,,,0,00,99.99,,,,,183.5,*5E
[2021-01-29 11:26:44.495] $GNGGA,022640.60,,,,,0,00,99.99,,,,,183.6,*5E
[2021-01-29 11:26:44.495] $GNGGA,022640.70,,,,,0,00,99.99,,,,,183.7,*5E
[2021-01-29 11:26:44.495] $GNGGA,022640.80,,,,,0,00,99.99,,,,,183.8,*5E
[2021-01-29 11:26:44.495] $GNGGA,022640.90,,,,,0,00,99.99,,,,,183.9,*5E
[2021-01-29 11:26:44.495] $GNGGA,022641.00,,,,,0,00,99.99,,,,,184.0,*58
[2021-01-29 11:26:44.495] $GNGGA,022641.10,,,,,0,00,99.99,,,,,184.1,*58
[2021-01-29 11:26:44.495] $GNGGA,022641.20,,,,,0,00,99.99,,,,,184.2,*58
[2021-01-29 11:26:44.495] $GNGGA,022641.30,,,,,0,00,99.99,,,,,184.3,*58
[2021-01-29 11:26:44.495] $GNGGA,022641.40,,,,,0,00,99.99,,,,,184.4,*58
[2021-01-29 11:26:44.495] $GNGGA,022641.50,,,,,0,00,99.99,,,,,184.5,*58
[2021-01-29 11:26:44.495] $GNGGA,022641.60,,,,,0,00,99.99,,,,,184.6,*58
[2021-01-29 11:26:44.495] $GNGGA,022641.70,,,,,0,00,99.99,,,,,184.7,*58
[2021-01-29 11:26:44.495] $GNGGA,022641.80,,,,,0,00,99.99,,,,,184.8,*58
[2021-01-29 11:26:44.495] $GNGGA,022641.90,,,,,0,00,99.99,,,,,184.9,*58
[2021-01-29 11:26:44.495] $GNGGA,022642.00,,,,,0,00,99.99,,,,,185.0,*5A
[2021-01-29 11:26:44.495] $GNGGA,022642.10,,,,,0,00,99.99,,,,,185.1,*5A
[2021-01-29 11:26:44.495] $GNGGA,022642.20,,,,,0,00,99.99,,,,,185.2,*5A
[2021-01-29 11:26:44.495] $GNGGA,022642.30,,,,,0,00,99.99,,,,,185.3,*5A
[2021-01-29 11:26:44.495] $GNGGA,022642.40,,,,,0,00,99.99,,,,,185.4,*5A
[2021-01-29 11:26:44.495] $GNGGA,022642.50,,,,,0,00,99.99,,,,,185.5,*5A
[2021-01-29 11:26:44.495] $GNGGA,022642.60,,,,,0,00,99.99,,,,,185.6,*5A
[2021-01-29 11:26:44.495] $GNGGA,022642.70,,,,,0,00,99.99,,,,,185.7,*5A
[2021-01-29 11:26:44.495] $GNGGA,022642.80,,,,,0,00,99.99,,,,,185.8,*5A
[2021-01-29 11:26:44.495] $GNGGA,022642.90,,,,,0,00,99.99,,,,,185.9,*5A
[2021-01-29 11:26:44.558] $GNGGA,022643.00,,,,,0,00,99.99,,,,,186.0,*58
[2021-01-29 11:26:44.667] $GNGGA,022643.10,,,,,0,00,99.99,,,,,186.1,*58
[2021-01-29 11:26:44.761] $GNGGA,022643.20,,,,,0,00,99.99,,,,,186.2,*58
[2021-01-29 11:26:44.855] $GNGGA,022643.30,,,,,0,00,99.99,,,,,186.3,*58
[2021-01-29 11:26:44.964] $GNGGA,022643.40,,,,,0,00,99.99,,,,,186.4,*58
[2021-01-29 11:26:45.058] $GNGGA,022643.50,,,,,0,00,99.99,,,,,186.5,*58
[2021-01-29 11:26:45.167] $GNGGA,022643.60,,,,,0,00,99.99,,,,,186.6,*58
[2021-01-29 11:26:45.260] $GNGGA,022643.70,,,,,0,00,99.99,,,,,186.7,*58
[2021-01-29 11:26:45.358] $GNGGA,022643.80,,,,,0,00,99.99,,,,,186.8,*58
[2021-01-29 11:26:45.467] $GNGGA,022643.90,,,,,0,00,99.99,,,,,186.9,*58
[2021-01-29 11:26:45.561] $GNGGA,022644.00,,,,,0,00,99.99,,,,,187.0,*5E
[2021-01-29 11:26:45.655] $GNGGA,022644.10,,,,,0,00,99.99,,,,,187.1,*5E
[2021-01-29 11:26:45.780] $GNGGA,022644.20,,,,,0,00,99.99,,,,,187.2,*5E
[2021-01-29 11:26:45.858] $GNGGA,022644.30,,,,,0,00,99.99,,,,,187.3,*5E
[2021-01-29 11:26:45.951] $GNGGA,022644.40,,,,,0,00,99.99,,,,,187.4,*5E
[2021-01-29 11:26:46.061] $GNGGA,022644.50,,,,,0,00,99.99,,,,,187.5,*5E
[2021-01-29 11:26:46.155] $GNGGA,022644.60,,,,,0,00,99.99,,,,,187.6,*5E
[2021-01-29 11:26:46.262] $GNGGA,022644.70,,,,,0,00,99.99,,,,,187.7,*5E
[2021-01-29 11:26:46.356] $GNGGA,022644.80,,,,,0,00,99.99,,,,,187.8,*5E
[2021-01-29 11:26:46.465] $GNGGA,022644.90,,,,,0,00,99.99,,,,,187.9,*5E
[2021-01-29 11:26:46.559] $GNGGA,022645.00,,,,,0,00,99.99,,,,,188.0,*50
[2021-01-29 11:26:46.653] $GNGGA,022645.10,,,,,0,00,99.99,,,,,188.1,*50
[2021-01-29 11:26:46.762] $GNGGA,022645.20,,,,,0,00,99.99,,,,,188.2,*50
[2021-01-29 11:26:46.856] $GNGGA,022645.30,,,,,0,00,99.99,,,,,188.3,*50
[2021-01-29 11:26:46.965] $GNGGA,022645.40,,,,,0,00,99.99,,,,,188.4,*50
[2021-01-29 11:26:47.059] $GNGGA,022645.50,,,,,0,00,99.99,,,,,188.5,*50
[2021-01-29 11:26:47.153] $GNGGA,022645.60,,,,,0,00,99.99,,,,,188.6,*50
[2021-01-29 11:26:47.263] $GNGGA,022645.70,,,,,0,00,99.99,,,,,188.7,*50
[2021-01-29 11:26:47.357] $GNGGA,022645.80,,,,,0,00,99.99,,,,,188.8,*50
[2021-01-29 11:26:47.466] $GNGGA,022645.90,,,,,0,00,99.99,,,,,188.9,*50
[2021-01-29 11:26:47.560] $GNGGA,022646.00,,,,,0,00,99.99,,,,,189.0,*52
[2021-01-29 11:26:47.654] $GNGGA,022646.10,,,,,0,00,99.99,,,,,189.1,*52
[2021-01-29 11:26:47.763] $GNGGA,022646.20,,,,,0,00,99.99,,,,,189.2,*52
[2021-01-29 11:26:47.857] $GNGGA,022646.30,,,,,0,00,99.99,,,,,189.3,*52
[2021-01-29 11:26:47.966] $GNGGA,022646.40,,,,,0,00,99.99,,,,,189.4,*52
[2021-01-29 11:26:48.060] $GNGGA,022646.50,,,,,0,00,99.99,,,,,189.5,*52
[2021-01-29 11:26:48.154] $GNGGA,022646.60,,,,,0,00,99.99,,,,,189.6,*52
[2021-01-29 11:26:48.266] $GNGGA,022646.70,,,,,0,00,99.99,,,,,189.7,*52
[2021-01-29 11:26:48.360] $GNGGA,022646.80,,,,,0,00,99.99,,,,,189.8,*52
[2021-01-29 11:26:48.453] $GNGGA,022646.90,,,,,0,00,99.99,,,,,189.9,*52
[2021-01-29 11:26:48.563] $GNGGA,022647.00,,,,,0,00,99.99,,,,,190.0,*5B
[2021-01-29 11:26:48.656] $GNGGA,022647.10,,,,,0,00,99.99,,,,,190.1,*5B
[2021-01-29 11:26:48.766] $GNGGA,022647.20,,,,,0,00,99.99,,,,,190.2,*5B
[2021-01-29 11:26:48.860] $GNGGA,022647.30,,,,,0,00,99.99,,,,,190.3,*5B
[2021-01-29 11:26:48.953] $GNGGA,022647.40,,,,,0,00,99.99,,,,,190.4,*5B
[2021-01-29 11:26:49.063] $GNGGA,022647.50,,,,,0,00,99.99,,,,,190.5,*5B
[2021-01-29 11:26:49.156] $GNGGA,022647.60,,,,,0,00,99.99,,,,,190.6,*5B
[2021-01-29 11:26:49.267] $GNGGA,022647.70,,,,,0,00,99.99,,,,,190.7,*5B
[2021-01-29 11:26:49.361] $GNGGA,022647.80,,,,,0,00,99.99,,,,,190.8,*5B
[2021-01-29 11:26:49.454] $GNGGA,022647.90,,,,,0,00,99.99,,,,,190.9,*5B
[2021-01-29 11:26:49.564] $GNGGA,022648.00,,,,,0,00,99.99,,,,,191.0,*55
[2021-01-29 11:26:49.657] $GNGGA,022648.10,,,,,0,00,99.99,,,,,191.1,*55
[2021-01-29 11:26:49.767] $GNGGA,022648.20,,,,,0,00,99.99,,,,,191.2,*55
[2021-01-29 11:26:49.861] $GNGGA,022648.30,,,,,0,00,99.99,,,,,191.3,*55
[2021-01-29 11:26:49.954] $GNGGA,022648.40,,,,,0,00,99.99,,,,,191.4,*55
[2021-01-29 11:26:50.064] $GNGGA,022648.50,,,,,0,00,99.99,,,,,191.5,*55
[2021-01-29 11:26:50.157] $GNGGA,022648.60,,,,,0,00,99.99,,,,,191.6,*55
[2021-01-29 11:26:50.259] $GNGGA,022648.70,,,,,0,00,99.99,,,,,191.7,*55
[2021-01-29 11:26:50.362] $GNGGA,022648.80,,,,,0,00,99.99,,,,,191.8,*55
[2021-01-29 11:26:50.456] $GNGGA,022648.90,,,,,0,00,99.99,,,,,191.9,*55
[2021-01-29 11:26:50.565] $GNGGA,022649.00,,,,,0,00,99.99,,,,,192.0,*57
[2021-01-29 11:26:50.659] $GNGGA,022649.10,,,,,0,00,99.99,,,,,192.1,*57
[2021-01-29 11:26:50.753] $GNGGA,022649.20,,,,,0,00,99.99,,,,,192.2,*57
[2021-01-29 11:26:50.862] $GNGGA,022649.30,,,,,0,00,99.99,,,,,192.3,*57
[2021-01-29 11:26:50.956] $GNGGA,022649.40,,,,,0,00,99.99,,,,,192.4,*57
[2021-01-29 11:26:51.065] $GNGGA,022649.50,,,,,0,00,99.99,,,,,192.5,*57
[2021-01-29 11:26:51.159] $GNGGA,022649.60,,,,,0,00,99.99,,,,,192.6,*57
[2021-01-29 11:26:51.263] $GNGGA,022649.70,,,,,0,00,99.99,,,,,192.7,*57
[2021-01-29 11:26:51.364] $GNGGA,022649.80,,,,,0,00,99.99,,,,,192.8,*57
[2021-01-29 11:26:51.457] $GNGGA,022649.90,,,,,0,00,99.99,,,,,192.9,*57
[2021-01-29 11:26:51.551] $GNGGA,022650.00,,,,,0,00,99.99,,,,,193.0,*5E
[2021-01-29 11:26:51.661] $GNGGA,022650.10,,,,,0,00,99.99,,,,,193.1,*5E
[2021-01-29 11:26:51.754] $GNGGA,022650.20,,,,,0,00,99.99,,,,,193.2,*5E
[2021-01-29 11:26:51.864] $GNGGA,022650.30,,,,,0,00,99.99,,,,,193.3,*5E
[2021-01-29 11:26:51.957] $GNGGA,022650.40,,,,,0,00,99.99,,,,,193.4,*5E
[2021-01-29 11:26:52.067] $GNGGA,022650.50,,,,,0,00,99.99,,,,,193.5,*5E
[2021-01-29 11:26:52.160] $GNGGA,022650.60,,,,,0,00,99.99,,,,,193.6,*5E
[2021-01-29 11:26:52.263] $GNGGA,022650.70,,,,,0,00,99.99,,,,,193.7,*5E
[2021-01-29 11:26:52.365] $GNGGA,022650.80,,,,,0,00,99.99,,,,,193.8,*5E
[2021-01-29 11:26:52.459] $GNGGA,022650.90,,,,,0,00,99.99,,,,,193.9,*5E
[2021-01-29 11:26:52.553] $GNGGA,022651.00,,,,,0,00,99.99,,,,,194.0,*58
[2021-01-29 11:26:52.662] $GNGGA,022651.10,,,,,0,00,99.99,,,,,194.1,*58
[2021-01-29 11:26:52.756] $GNGGA,022651.20,,,,,0,00,99.99,,,,,194.2,*58
[2021-01-29 11:26:52.865] $GNGGA,022651.30,,,,,0,00,99.99,,,,,194.3,*58
[2021-01-29 11:26:52.959] $GNGGA,022651.40,,,,,0,00,99.99,,,,,194.4,*58
[2021-01-29 11:26:53.052] $GNGGA,022651.50,,,,,0,00,99.99,,,,,194.5,*58
[2021-01-29 11:26:53.162] $GNGGA,022651.60,,,,,0,00,99.99,,,,,194.6,*58
[2021-01-29 11:26:53.264] $GNGGA,022651.70,,,,,0,00,99.99,,,,,194.7,*58
[2021-01-29 11:26:53.351] $GNGGA,022651.80,,,,,0,00,99.99,,,,,194.8,*58
[2021-01-29 11:26:53.461] $GNGGA,022651.90,,,,,0,00,99.99,,,,,194.9,*58
[2021-01-29 11:26:53.555] $GNGGA,022652.00,,,,,0,00,99.99,,,,,195.0,*5A
[2021-01-29 11:26:53.664] $GNGGA,022652.10,,,,,0,00,99.99,,,,,195.1,*5A
[2021-01-29 11:26:53.758] $GNGGA,022652.20,,,,,0,00,99.99,,,,,195.2,*5A
[2021-01-29 11:26:53.851] $GNGGA,022652.30,,,,,0,00,99.99,,,,,195.3,*5A
[2021-01-29 11:26:53.961] $GNGGA,022652.40,,,,,0,00,99.99,,,,,195.4,*5A
[2021-01-29 11:26:54.055] $GNGGA,022652.50,,,,,0,00,99.99,,,,,195.5,*5A
[2021-01-29 11:26:54.164] $GNGGA,022652.60,,,,,0,00,99.99,,,,,195.6,*5A
[2021-01-29 11:26:54.260] $GNGGA,022652.70,,,,,0,00,99.99,,,,,195.7,*5A
[2021-01-29 11:26:54.352] $GNGGA,022652.80,,,,,0,00,99.99,,,,,195.8,*5A
[2021-01-29 11:26:54.462] $GNGGA,022652.90,,,,,0,00,99.99,,,,,195.9,*5A
[2021-01-29 11:26:54.555] $GNGGA,022653.00,,,,,0,00,99.99,,,,,196.0,*58
[2021-01-29 11:26:54.665] $GNGGA,022653.10,,,,,0,00,99.99,,,,,196.1,*58
[2021-01-29 11:26:54.759] $GNGGA,022653.20,,,,,0,00,99.99,,,,,196.2,*58
[2021-01-29 11:26:54.852] $GNGGA,022653.30,,,,,0,00,99.99,,,,,196.3,*58
[2021-01-29 11:26:54.962] $GNGGA,022653.40,,,,,0,00,99.99,,,,,196.4,*58
[2021-01-29 11:26:55.055] $GNGGA,022653.50,,,,,0,00,99.99,,,,,196.5,*58
[2021-01-29 11:26:55.165] $GNGGA,022653.60,,,,,0,00,99.99,,,,,196.6,*58
[2021-01-29 11:26:55.260] $GNGGA,022653.70,,,,,0,00,99.99,,,,,196.7,*58
[2021-01-29 11:26:55.354] $GNGGA,022653.80,,,,,0,00,99.99,,,,,196.8,*58
[2021-01-29 11:26:55.464] $GNGGA,022653.90,,,,,0,00,99.99,,,,,196.9,*58
[2021-01-29 11:26:55.557] $GNGGA,022654.00,,,,,0,00,99.99,,,,,197.0,*5E
[2021-01-29 11:26:55.667] $GNGGA,022654.10,,,,,0,00,99.99,,,,,197.1,*5E
[2021-01-29 11:26:55.760] $GNGGA,022654.20,,,,,0,00,99.99,,,,,197.2,*5E
[2021-01-29 11:26:55.854] $GNGGA,022654.30,,,,,0,00,99.99,,,,,197.3,*5E
[2021-01-29 11:26:55.964] $GNGGA,022654.40,,,,,0,00,99.99,,,,,197.4,*5E
[2021-01-29 11:26:56.057] $GNGGA,022654.50,,,,,0,00,99.99,,,,,197.5,*5E
[2021-01-29 11:26:56.167] $GNGGA,022654.60,,,,,0,00,99.99,,,,,197.6,*5E
[2021-01-29 11:26:56.261] $GNGGA,022654.70,,,,,0,00,99.99,,,,,197.7,*5E
[2021-01-29 11:26:56.356] $GNGGA,022654.80,,,,,0,00,99.99,,,,,197.8,*5E
[2021-01-29 11:26:56.465] $GNGGA,022654.90,,,,,0,00,99.99,,,,,197.9,*5E
[2021-01-29 11:26:56.559] $GNGGA,022655.00,,,,,0,00,99.99,,,,,198.0,*50
[2021-01-29 11:26:56.653] $GNGGA,022655.10,,,,,0,00,99.99,,,,,198.1,*50
[2021-01-29 11:26:56.762] $GNGGA,022655.20,,,,,0,00,99.99,,,,,198.2,*50
[2021-01-29 11:26:56.856] $GNGGA,022655.30,,,,,0,00,99.99,,,,,198.3,*50
[2021-01-29 11:26:56.965] $GNGGA,022655.40,,,,,0,00,99.99,,,,,198.4,*50
[2021-01-29 11:26:57.059] $GNGGA,022655.50,,,,,0,00,99.99,,,,,198.5,*50
[2021-01-29 11:26:57.153] $GNGGA,022655.60,,,,,0,00,99.99,,,,,198.6,*50
[2021-01-29 11:26:57.263] $GNGGA,022655.70,,,,,0,00,99.99,,,,,198.7,*50
[2021-01-29 11:26:57.357] $GNGGA,022655.80,,,,,0,00,99.99,,,,,198.8,*50
[2021-01-29 11:26:57.466] $GNGGA,022655.90,,,,,0,00,99.99,,,,,198.9,*50
[2021-01-29 11:26:57.560] $GNGGA,022656.00,,,,,0,00,99.99,,,,,199.0,*52
[2021-01-29 11:26:57.653] $GNGGA,022656.10,,,,,0,00,99.99,,,,,199.1,*52
[2021-01-29 11:26:57.763] $GNGGA,022656.20,,,,,0,00,99.99,,,,,199.2,*52
[2021-01-29 11:26:57.857] $GNGGA,022656.30,,,,,0,00,99.99,,,,,199.3,*52
[2021-01-29 11:26:57.966] $GNGGA,022656.40,,,,,0,00,99.99,,,,,199.4,*52
[2021-01-29 11:26:58.060] $GNGGA,022656.50,,,,,0,00,99.99,,,,,199.5,*52
[2021-01-29 11:26:58.162] $GNGGA,022656.60,,,,,0,00,99.99,,,,,199.6,*52
[2021-01-29 11:26:58.266] $GNGGA,022656.70,,,,,0,00,99.99,,,,,199.7,*52
[2021-01-29 11:26:58.362] $GNGGA,022656.80,,,,,0,00,99.99,,,,,199.8,*52
[2021-01-29 11:26:58.466] $GNGGA,022656.90,,,,,0,00,99.99,,,,,199.9,*52
[2021-01-29 11:26:58.562] $GNGGA,022657.00,,,,,0,00,99.99,,,,,200.0,*50
[2021-01-29 11:26:58.666] $GNGGA,022657.10,,,,,0,00,99.99,,,,,200.1,*50
[2021-01-29 11:26:58.762] $GNGGA,022657.20,,,,,0,00,99.99,,,,,200.2,*50
[2021-01-29 11:26:58.866] $GNGGA,022657.30,,,,,0,00,99.99,,,,,200.3,*50
[2021-01-29 11:26:58.962] $GNGGA,022657.40,,,,,0,00,99.99,,,,,200.4,*50
[2021-01-29 11:26:59.066] $GNGGA,022657.50,,,,,0,00,99.99,,,,,200.5,*50
[2021-01-29 11:26:59.160] $GNGGA,022657.60,,,,,0,00,99.99,,,,,200.6,*50
[2021-01-29 11:26:59.268] $GNGGA,022657.70,,,,,0,00,99.99,,,,,200.7,*50
[2021-01-29 11:26:59.361] $GNGGA,022657.80,,,,,0,00,99.99,,,,,200.8,*50
[2021-01-29 11:26:59.455] $GNGGA,022657.90,,,,,0,00,99.99,,,,,200.9,*50
[2021-01-29 11:26:59.564] $GNGGA,022658.00,,,,,0,00,99.99,,,,,201.0,*5E
[2021-01-29 11:26:59.658] $GNGGA,022658.10,,,,,0,00,99.99,,,,,201.1,*5E
[2021-01-29 11:26:59.767] $GNGGA,022658.20,,,,,0,00,99.99,,,,,201.2,*5E
[2021-01-29 11:26:59.861] $GNGGA,022658.30,,,,,0,00,99.99,,,,,201.3,*5E
[2021-01-29 11:26:59.955] $GNGGA,022658.40,,,,,0,00,99.99,,,,,201.4,*5E
[2021-01-29 11:27:00.064] $GNGGA,022658.50,,,,,0,00,99.99,,,,,201.5,*5E
[2021-01-29 11:27:00.158] $GNGGA,022658.60,,,,,0,00,99.99,,,,,201.6,*5E
[2021-01-29 11:27:00.268] $GNGGA,022658.70,,,,,0,00,99.99,,,,,201.7,*5E
[2021-01-29 11:27:00.362] $GNGGA,022658.80,,,,,0,00,99.99,,,,,201.8,*5E
[2021-01-29 11:27:00.456] $GNGGA,022658.90,,,,,0,00,99.99,,,,,201.9,*5E
[2021-01-29 11:27:00.565] $GNGGA,022659.00,,,,,0,00,99.99,,,,,202.0,*5C
[2021-01-29 11:27:00.659] $GNGGA,022659.10,,,,,0,00,99.99,,,,,202.1,*5C
[2021-01-29 11:27:00.753] $GNGGA,022659.20,,,,,0,00,99.99,,,,,202.2,*5C
[2021-01-29 11:27:00.862] $GNGGA,022659.30,,,,,0,00,99.99,,,,,202.3,*5C
[2021-01-29 11:27:00.956] $GNGGA,022659.40,,,,,0,00,99.99,,,,,202.4,*5C
[2021-01-29 11:27:01.065] $GNGGA,022659.50,,,,,0,00,99.99,,,,,202.5,*5C
[2021-01-29 11:27:01.159] $GNGGA,022659.60,,,,,0,00,99.99,,,,,202.6,*5C
[2021-01-29 11:27:01.268] $GNGGA,022659.70,,,,,0,00,99.99,,,,,202.7,*5C
[2021-01-29 11:27:01.364] $GNGGA,022659.80,,,,,0,00,99.99,,,,,202.8,*5C
[2021-01-29 11:27:01.458] $GNGGA,022659.90,,,,,0,00,99.99,,,,,202.9,*5C
[2021-01-29 11:27:01.551] $GNGGA,022700.00,,,,,0,00,99.99,,,,,203.0,*50
[2021-01-29 11:27:01.661] $GNGGA,022700.10,,,,,0,00,99.99,,,,,203.1,*50
[2021-01-29 11:27:01.754] $GNGGA,022700.20,,,,,0,00,99.99,,,,,203.2,*50
[2021-01-29 11:27:01.864] $GNGGA,022700.30,,,,,0,00,99.99,,,,,203.3,*50
[2021-01-29 11:27:01.958] $GNGGA,022700.40,,,,,0,00,99.99,,,,,203.4,*50
[2021-01-29 11:27:02.067] $GNGGA,022700.50,,,,,0,00,99.99,,,,,203.5,*50
[2021-01-29 11:27:02.161] $GNGGA,022700.60,,,,,0,00,99.99,,,,,203.6,*50
[2021-01-29 11:27:02.262] $GNGGA,022700.70,,,,,0,00,99.99,,,,,203.7,*50
[2021-01-29 11:27:02.365] $GNGGA,022700.80,,,,,0,00,99.99,,,,,203.8,*50
[2021-01-29 11:27:02.458] $GNGGA,022700.90,,,,,0,00,99.99,,,,,203.9,*50
[2021-01-29 11:27:02.552] $GNGGA,022701.00,,,,,0,00,99.99,,,,,204.0,*56
[2021-01-29 11:27:02.662] $GNGGA,022701.10,,,,,0,00,99.99,,,,,204.1,*56
[2021-01-29 11:27:02.755] $GNGGA,022701.20,,,,,0,00,99.99,,,,,204.2,*56
[2021-01-29 11:27:02.865] $GNGGA,022701.30,,,,,0,00,99.99,,,,,204.3,*56
[2021-01-29 11:27:02.958] $GNGGA,022701.40,,,,,0,00,99.99,,,,,204.4,*56
[2021-01-29 11:27:03.068] $GNGGA,022701.50,,,,,0,00,99.99,,,,,204.5,*56
[2021-01-29 11:27:03.161] $GNGGA,022701.60,,,,,0,00,99.99,,,,,204.6,*56
[2021-01-29 11:27:03.264] $GNGGA,022701.70,,,,,0,00,99.99,,,,,204.7,*56
[2021-01-29 11:27:03.367] $GNGGA,022701.80,,,,,0,00,99.99,,,,,204.8,*56
[2021-01-29 11:27:03.461] $GNGGA,022701.90,,,,,0,00,99.99,,,,,204.9,*56
[2021-01-29 11:27:03.555] $GNGGA,022702.00,,,,,0,00,99.99,,,,,205.0,*54
[2021-01-29 11:27:03.664] $GNGGA,022702.10,,,,,0,00,99.99,,,,,205.1,*54
[2021-01-29 11:27:03.758] $GNGGA,022702.20,,,,,0,00,99.99,,,,,205.2,*54
[2021-01-29 11:27:03.867] $GNGGA,022702.30,,,,,0,00,99.99,,,,,205.3,*54
[2021-01-29 11:27:03.961] $GNGGA,022702.40,,,,,0,00,99.99,,,,,205.4,*54
[2021-01-29 11:27:04.055] $GNGGA,022702.50,,,,,0,00,99.99,,,,,205.5,*54
[2021-01-29 11:27:04.164] $GNGGA,022702.60,,,,,0,00,99.99,,,,,205.6,*54
[2021-01-29 11:27:04.265] $GNGGA,022702.70,,,,,0,00,99.99,,,,,205.7,*54
[2021-01-29 11:27:04.353] $GNGGA,022702.80,,,,,0,00,99.99,,,,,205.8,*54
[2021-01-29 11:27:04.462] $GNGGA,022702.90,,,,,0,00,99.99,,,,,205.9,*54
[2021-01-29 11:27:04.556] $GNGGA,022703.00,,,,,0,00,99.99,,,,,206.0,*56
[2021-01-29 11:27:04.665] $GNGGA,022703.10,,,,,0,00,99.99,,,,,206.1,*56
[2021-01-29 11:27:04.759] $GNGGA,022703.20,,,,,0,00,99.99,,,,,206.2,*56
[2021-01-29 11:27:04.853] $GNGGA,022703.30,,,,,0,00,99.99,,,,,206.3,*56
[2021-01-29 11:27:04.962] $GNGGA,022703.40,,,,,0,00,99.99,,,,,206.4,*56
[2021-01-29 11:27:05.056] $GNGGA,022703.50,,,,,0,00,99.99,,,,,206.5,*56
[2021-01-29 11:27:05.165] $GNGGA,022703.60,,,,,0,00,99.99,,,,,206.6,*56
[2021-01-29 11:27:05.267] $GNGGA,022703.70,,,,,0,00,99.99,,,,,206.7,*56
[2021-01-29 11:27:05.354] $GNGGA,022703.80,,,,,0,00,99.99,,,,,206.8,*56
[2021-01-29 11:27:05.463] $GNGGA,022703.90,,,,,0,00,99.99,,,,,206.9,*56
[2021-01-29 11:27:05.557] $GNGGA,022704.00,,,,,0,00,99.99,,,,,207.0,*50
[2021-01-29 11:27:05.666] $GNGGA,022704.10,,,,,0,00,99.99,,,,,207.1,*50
[2021-01-29 11:27:05.760] $GNGGA,022704.20,,,,,0,00,99.99,,,,,207.2,*50
[2021-01-29 11:27:05.854] $GNGGA,022704.30,,,,,0,00,99.99,,,,,207.3,*50
[2021-01-29 11:27:05.963] $GNGGA,022704.40,,,,,0,00,99.99,,,,,207.4,*50
[2021-01-29 11:27:06.057] $GNGGA,022704.50,,,,,0,00,99.99,,,,,207.5,*50
[2021-01-29 11:27:06.166] $GNGGA,022704.60,,,,,0,00,99.99,,,,,207.6,*50
[2021-01-29 11:27:06.263] $GNGGA,022704.70,,,,,0,00,99.99,,,,,207.7,*50
[2021-01-29 11:27:06.356] $GNGGA,022704.80,,,,,0,00,99.99,,,,,207.8,*50
[2021-01-29 11:27:06.466] $GNGGA,022704.90,,,,,0,00,99.99,,,,,207.9,*50
[2021-01-29 11:27:06.559] $GNGGA,022705.00,,,,,0,00,99.99,,,,,208.0,*5E
[2021-01-29 11:27:06.653] $GNGGA,022705.10,,,,,0,00,99.99,,,,,208.1,*5E
[2021-01-29 11:27:06.762] $GNGGA,022705.20,,,,,0,00,99.99,,,,,208.2,*5E
[2021-01-29 11:27:06.856] $GNGGA,022705.30,,,,,0,00,99.99,,,,,208.3,*5E
[2021-01-29 11:27:06.966] $GNGGA,022705.40,,,,,0,00,99.99,,,,,208.4,*5E
[2021-01-29 11:27:07.059] $GNGGA,022705.50,,,,,0,00,99.99,,,,,208.5,*5E
[2021-01-29 11:27:07.153] $GNGGA,022705.60,,,,,0,00,99.99,,,,,208.6,*5E
[2021-01-29 11:27:07.262] $GNGGA,022705.70,,,,,0,00,99.99,,,,,208.7,*5E
[2021-01-29 11:27:07.356] $GNGGA,022705.80,,,,,0,00,99.99,,,,,208.8,*5E
[2021-01-29 11:27:07.466] $GNGGA,022705.90,,,,,0,00,99.99,,,,,208.9,*5E
[2021-01-29 11:27:07.559] $GNGGA,022706.00,,,,,0,00,99.99,,,,,209.0,*5C
[2021-01-29 11:27:07.653] $GNGGA,022706.10,,,,,0,00,99.99,,,,,209.1,*5C
[2021-01-29 11:27:07.762] $GNGGA,022706.20,,,,,0,00,99.99,,,,,209.2,*5C
[2021-01-29 11:27:07.856] $GNGGA,022706.30,,,,,0,00,99.99,,,,,209.3,*5C
[2021-01-29 11:27:07.966] $GNGGA,022706.40,,,,,0,00,99.99,,,,,209.4,*5C
[2021-01-29 11:27:08.059] $GNGGA,022706.50,,,,,0,00,99.99,,,,,209.5,*5C
[2021-01-29 11:27:08.153] $GNGGA,022706.60,,,,,0,00,99.99,,,,,209.6,*5C
[2021-01-29 11:27:08.265] $GNGGA,022706.70,,,,,0,00,99.99,,,,,209.7,*5C
[2021-01-29 11:27:08.359] $GNGGA,022706.80,,,,,0,00,99.99,,,,,209.8,*5C
[2021-01-29 11:27:08.453] $GNGGA,022706.90,,,,,0,00,99.99,,,,,209.9,*5C
[2021-01-29 11:27:08.562] $GNGGA,022707.00,,,,,0,00,99.99,,,,,210.0,*55
[2021-01-29 11:27:08.656] $GNGGA,022707.10,,,,,0,00,99.99,,,,,210.1,*55
[2021-01-29 11:27:08.765] $GNGGA,022707.20,,,,,0,00,99.99,,,,,210.2,*55
[2021-01-29 11:27:08.859] $GNGGA,022707.30,,,,,0,00,99.99,,,,,210.3,*55
[2021-01-29 11:27:08.953] $GNGGA,022707.40,,,,,0,00,99.99,,,,,210.4,*55
[2021-01-29 11:27:09.062] $GNGGA,022707.50,,,,,0,00,99.99,,,,,210.5,*55
[2021-01-29 11:27:09.156] $GNGGA,022707.60,,,,,0,00,99.99,,,,,210.6,*55
[2021-01-29 11:27:09.266] $GNGGA,022707.70,,,,,0,00,99.99,,,,,210.7,*55
[2021-01-29 11:27:09.359] $GNGGA,022707.80,,,,,0,00,99.99,,,,,210.8,*55
[2021-01-29 11:27:09.453] $GNGGA,022707.90,,,,,0,00,99.99,,,,,210.9,*55
[2021-01-29 11:27:09.563] $GNGGA,022708.00,,,,,0,00,99.99,,,,,211.0,*5B
[2021-01-29 11:27:09.656] $GNGGA,022708.10,,,,,0,00,99.99,,,,,211.1,*5B
[2021-01-29 11:27:09.766] $GNGGA,022708.20,,,,,0,00,99.99,,,,,211.2,*5B
[2021-01-29 11:27:09.859] $GNGGA,022708.30,,,,,0,00,99.99,,,,,211.3,*5B
[2021-01-29 11:27:09.969] $GNGGA,022708.40,,,,,0,00,99.99,,,,,211.4,*5B
[2021-01-29 11:27:10.063] $GNGGA,022708.50,,,,,0,00,99.99,,,,,211.5,*5B
[2021-01-29 11:27:10.156] $GNGGA,022708.60,,,,,0,00,99.99,,,,,211.6,*5B
[2021-01-29 11:27:10.267] $GNGGA,022708.70,,,,,0,00,99.99,,,,,211.7,*5B
[2021-01-29 11:27:10.361] $GNGGA,022708.80,,,,,0,00,99.99,,,,,211.8,*5B
[2021-01-29 11:27:10.455] $GNGGA,022708.90,,,,,0,00,99.99,,,,,211.9,*5B
[2021-01-29 11:27:10.564] $GNGGA,022709.00,,,,,0,00,99.99,,,,,212.0,*59
[2021-01-29 11:27:10.658] $GNGGA,022709.10,,,,,0,00,99.99,,,,,212.1,*59
[2021-01-29 11:27:10.767] $GNGGA,022709.20,,,,,0,00,99.99,,,,,212.2,*59
[2021-01-29 11:27:10.861] $GNGGA,022709.30,,,,,0,00,99.99,,,,,212.3,*59
[2021-01-29 11:27:10.955] $GNGGA,022709.40,,,,,0,00,99.99,,,,,212.4,*59
[2021-01-29 11:27:11.064] $GNGGA,022709.50,,,,,0,00,99.99,,,,,212.5,*59
[2021-01-29 11:27:11.158] $GNGGA,022709.60,,,,,0,00,99.99,,,,,212.6,*59
[2021-01-29 11:27:11.260] $GNGGA,022709.70,,,,,0,00,99.99,,,,,212.7,*59
[2021-01-29 11:27:11.363] $GNGGA,022709.80,,,,,0,00,99.99,,,,,212.8,*59
[2021-01-29 11:27:11.456] $GNGGA,022709.90,,,,,0,00,99.99,,,,,212.9,*59
[2021-01-29 11:27:11.566] $GNGGA,022710.00,,,,,0,00,99.99,,,,,213.0,*50
[2021-01-29 11:27:11.660] $GNGGA,022710.10,,,,,0,00,99.99,,,,,213.1,*50
[2021-01-29 11:27:11.753] $GNGGA,022710.20,,,,,0,00,99.99,,,,,213.2,*50
[2021-01-29 11:27:11.863] $GNGGA,022710.30,,,,,0,00,99.99,,,,,213.3,*50
[2021-01-29 11:27:11.956] $GNGGA,022710.40,,,,,0,00,99.99,,,,,213.4,*50
[2021-01-29 11:27:12.066] $GNGGA,022710.50,,,,,0,00,99.99,,,,,213.5,*50
[2021-01-29 11:27:12.160] $GNGGA,022710.60,,,,,0,00,99.99,,,,,213.6,*50
[2021-01-29 11:27:12.263] $GNGGA,022710.70,,,,,0,00,99.99,,,,,213.7,*50
[2021-01-29 11:27:12.366] $GNGGA,022710.80,,,,,0,00,99.99,,,,,213.8,*50
[2021-01-29 11:27:12.460] $GNGGA,022710.90,,,,,0,00,99.99,,,,,213.9,*50
[2021-01-29 11:27:12.553] $GNGGA,022711.00,,,,,0,00,99.99,,,,,214.0,*56
[2021-01-29 11:27:12.663] $GNGGA,022711.10,,,,,0,00,99.99,,,,,214.1,*56
[2021-01-29 11:27:12.757] $GNGGA,022711.20,,,,,0,00,99.99,,,,,214.2,*56
[2021-01-29 11:27:12.866] $GNGGA,022711.30,,,,,0,00,99.99,,,,,214.3,*56
[2021-01-29 11:27:12.960] $GNGGA,022711.40,,,,,0,00,99.99,,,,,214.4,*56
[2021-01-29 11:27:13.053] $GNGGA,022711.50,,,,,0,00,99.99,,,,,214.5,*56
[2021-01-29 11:27:13.163] $GNGGA,022711.60,,,,,0,00,99.99,,,,,214.6,*56
[2021-01-29 11:27:13.265] $GNGGA,022711.70,,,,,0,00,99.99,,,,,214.7,*56
[2021-01-29 11:27:13.366] $GNGGA,022711.80,,,,,0,00,99.99,,,,,214.8,*56
[2021-01-29 11:27:13.460] $GNGGA,022711.90,,,,,0,00,99.99,,,,,214.9,*56
[2021-01-29 11:27:13.554] $GNGGA,022712.00,,,,,0,00,99.99,,,,,215.0,*54
[2021-01-29 11:27:13.663] $GNGGA,022712.10,,,,,0,00,99.99,,,,,215.1,*54
[2021-01-29 11:27:13.757] $GNGGA,022712.20,,,,,0,00,99.99,,,,,215.2,*54
[2021-01-29 11:27:13.866] $GNGGA,022712.30,,,,,0,00,99.99,,,,,215.3,*54
[2021-01-29 11:27:13.960] $GNGGA,022712.40,,,,,0,00,99.99,,,,,215.4,*54
[2021-01-29 11:27:14.054] $GNGGA,022712.50,,,,,0,00,99.99,,,,,215.5,*54
[2021-01-29 11:27:14.163] $GNGGA,022712.60,,,,,0,00,99.99,,,,,215.6,*54
[2021-01-29 11:27:14.265] $GNGGA,022712.70,,,,,0,00,99.99,,,,,215.7,*54
[2021-01-29 11:27:14.367] $GNGGA,022712.80,,,,,0,00,99.99,,,,,215.8,*54
[2021-01-29 11:27:14.461] $GNGGA,022712.90,,,,,0,00,99.99,,,,,215.9,*54
[2021-01-29 11:27:14.555] $GNGGA,022713.00,,,,,0,00,99.99,,,,,216.0,*56
[2021-01-29 11:27:14.664] $GNGGA,022713.10,,,,,0,00,99.99,,,,,216.1,*56
[2021-01-29 11:27:14.758] $GNGGA,022713.20,,,,,0,00,99.99,,,,,216.2,*56
[2021-01-29 11:27:14.867] $GNGGA,022713.30,,,,,0,00,99.99,,,,,216.3,*56
[2021-01-29 11:27:14.961] $GNGGA,022713.40,,,,,0,00,99.99,,,,,216.4,*56
[2021-01-29 11:27:15.055] $GNGGA,022713.50,,,,,0,00,99.99,,,,,216.5,*56
[2021-01-29 11:27:15.164] $GNGGA,022713.60,,,,,0,00,99.99,,,,,216.6,*56
[2021-01-29 11:27:15.266] $GNGGA,022713.70,,,,,0,00,99.99,,,,,216.7,*56
[2021-01-29 11:27:15.353] $GNGGA,022713.80,,,,,0,00,99.99,,,,,216.8,*56
[2021-01-29 11:27:15.463] $GNGGA,022713.90,,,,,0,00,99.99,,,,,216.9,*56
[2021-01-29 11:27:15.556] $GNGGA,022714.00,,,,,0,00,99.99,,,,,217.0,*50
[2021-01-29 11:27:15.666] $GNGGA,022714.10,,,,,0,00,99.99,,,,,217.1,*50
[2021-01-29 11:27:15.759] $GNGGA,022714.20,,,,,0,00,99.99,,,,,217.2,*50
[2021-01-29 11:27:15.853] $GNGGA,022714.30,,,,,0,00,99.99,,,,,217.3,*50
[2021-01-29 11:27:15.963] $GNGGA,022714.40,,,,,0,00,99.99,,,,,217.4,*50
[2021-01-29 11:27:16.056] $GNGGA,022714.50,,,,,0,00,99.99,,,,,217.5,*50
[2021-01-29 11:27:16.166] $GNGGA,022714.60,,,,,0,00,99.99,,,,,217.6,*50
[2021-01-29 11:27:16.268] $GNGGA,022714.70,,,,,0,00,99.99,,,,,217.7,*50
[2021-01-29 11:27:16.355] $GNGGA,022714.80,,,,,0,00,99.99,,,,,217.8,*50
[2021-01-29 11:27:16.464] $GNGGA,022714.90,,,,,0,00,99.99,,,,,217.9,*50
[2021-01-29 11:27:16.558] $GNGGA,022715.00,,,,,0,00,99.99,,,,,218.0,*5E
[2021-01-29 11:27:16.668] $GNGGA,022715.10,,,,,0,00,99.99,,,,,218.1,*5E
[2021-01-29 11:27:16.761] $GNGGA,022715.20,,,,,0,00,99.99,,,,,218.2,*5E
[2021-01-29 11:27:16.855] $GNGGA,022715.30,,,,,0,00,99.99,,,,,218.3,*5E
[2021-01-29 11:27:16.964] $GNGGA,022715.40,,,,,0,00,99.99,,,,,218.4,*5E
[2021-01-29 11:27:17.058] $GNGGA,022715.50,,,,,0,00,99.99,,,,,218.5,*5E
[2021-01-29 11:27:17.152] $GNGGA,022715.60,,,,,0,00,99.99,,,,,218.6,*5E
[2021-01-29 11:27:17.263] $GNGGA,022715.70,,,,,0,00,99.99,,,,,218.7,*5E
[2021-01-29 11:27:17.357] $GNGGA,022715.80,,,,,0,00,99.99,,,,,218.8,*5E
[2021-01-29 11:27:17.466] $GNGGA,022715.90,,,,,0,00,99.99,,,,,218.9,*5E
[2021-01-29 11:27:17.560] $GNGGA,022716.00,,,,,0,00,99.99,,,,,219.0,*5C
[2021-01-29 11:27:17.654] $GNGGA,022716.10,,,,,0,00,99.99,,,,,219.1,*5C
[2021-01-29 11:27:17.763] $GNGGA,022716.20,,,,,0,00,99.99,,,,,219.2,*5C
[2021-01-29 11:27:17.857] $GNGGA,022716.30,,,,,0,00,99.99,,,,,219.3,*5C
[2021-01-29 11:27:17.966] $GNGGA,022716.40,,,,,0,00,99.99,,,,,219.4,*5C
[2021-01-29 11:27:18.060] $GNGGA,022716.50,,,,,0,00,99.99,,,,,219.5,*5C
[2021-01-29 11:27:18.153] $GNGGA,022716.60,4327.721902000,N,14148.341466000,E,5,00,99.90,114.966,M,31.865,M,219.6,2010*5B
[2021-01-29 11:27:18.264] $GNGGA,022716.70,4327.721906305,N,14148.341466984,E,5,00,99.90,114.936,M,31.865,M,219.7,2010*59
[2021-01-29 11:27:18.358] $GNGGA,022716.80,4327.721903735,N,14148.341465592,E,5,00,99.90,114.951,M,31.865,M,219.8,2010*52
[2021-01-29 11:27:18.467] $GNGGA,022716.90,4327.721901148,N,14148.341466336,E,5,00,99.90,114.947,M,31.865,M,219.9,2010*50
[2021-01-29 11:27:18.561] $GNGGA,022717.00,4327.721899505,N,14148.341469623,E,5,00,99.90,114.942,M,31.865,M,220.0,2010*5D
[2021-01-29 11:27:18.654] $GNGGA,022717.10,4327.721899987,N,14148.341468726,E,5,00,99.90,114.941,M,31.865,M,220.1,2010*5D
[2021-01-29 11:27:18.764] $GNGGA,022717.20,4327.721897478,N,14148.341470769,E,5,00,99.90,114.943,M,31.865,M,220.2,2010*5E
[2021-01-29 11:27:18.858] $GNGGA,022717.30,4327.721897698,N,14148.341470182,E,5,00,99.90,114.943,M,31.865,M,220.3,2010*51
[2021-01-29 11:27:18.967] $GNGGA,022717.40,4327.721898693,N,14148.341470158,E,5,00,99.90,114.944,M,31.865,M,220.4,2010*55
[2021-01-29 11:27:19.061] $GNGGA,022717.50,4327.721897450,N,14148.341470934,E,5,00,99.90,114.949,M,31.865,M,220.5,2010*58
[2021-01-29 11:27:19.154] $GNGGA,022717.60,4327.721897890,N,14148.341470672,E,5,00,99.90,114.947,M,31.865,M,220.6,2010*5B
[2021-01-29 11:27:19.266] $GNGGA,022717.70,4327.721901656,N,14148.341467310,E,5,00,99.90,114.941,M,31.865,M,220.7,2010*50
[2021-01-29 11:27:19.360] $GNGGA,022717.80,4327.721901051,N,14148.341466980,E,5,00,99.90,114.943,M,31.865,M,220.8,2010*51
[2021-01-29 11:27:19.454] $GNGGA,022717.90,4327.721903251,N,14148.341464926,E,5,00,99.90,114.939,M,31.865,M,220.9,2010*52
[2021-01-29 11:27:19.563] $GNGGA,022718.00,4327.721906351,N,14148.341462358,E,5,00,99.90,114.937,M,31.865,M,221.0,2010*53
[2021-01-29 11:27:19.657] $GNGGA,022718.10,4327.721906363,N,14148.341460011,E,5,00,99.90,114.943,M,31.865,M,221.1,2010*5D
[2021-01-29 11:27:19.766] $GNGGA,022718.20,4327.722121527,N,14148.341685538,E,5,00,99.90,114.885,M,31.865,M,221.2,2010*59
[2021-01-29 11:27:19.860] $GNGGA,022718.30,4327.722012900,N,14148.341699232,E,5,00,99.90,114.156,M,31.865,M,221.3,2010*56
[2021-01-29 11:27:19.953] $GNGGA,022718.40,4327.722005014,N,14148.341648927,E,5,00,99.90,113.884,M,31.865,M,221.4,2010*5E
[2021-01-29 11:27:20.063] $GNGGA,022718.50,4327.722010161,N,14148.341714644,E,5,00,99.90,113.508,M,31.865,M,221.5,2010*52
[2021-01-29 11:27:20.157] $GNGGA,022718.60,4327.722011457,N,14148.341740491,E,5,00,99.90,113.341,M,31.865,M,221.6,2010*53
[2021-01-29 11:27:20.268] $GNGGA,022718.70,4327.722380493,N,14148.341149004,E,5,00,99.90,112.959,M,31.865,M,221.7,2010*55
[2021-01-29 11:27:20.362] $GNGGA,022718.80,4327.722469718,N,14148.341096973,E,5,00,99.90,112.742,M,31.865,M,221.8,2010*5B
[2021-01-29 11:27:20.456] $GNGGA,022718.90,4327.722340484,N,14148.341388140,E,5,00,99.90,112.732,M,31.865,M,221.9,2010*52
[2021-01-29 11:27:20.565] $GNGGA,022719.00,4327.722324568,N,14148.341500222,E,5,00,99.90,112.627,M,31.865,M,222.0,2010*55
[2021-01-29 11:27:20.659] $GNGGA,022719.10,4327.722476883,N,14148.341284667,E,5,00,99.90,112.484,M,31.865,M,222.1,2010*58
[2021-01-29 11:27:20.753] $GNGGA,022719.20,4327.722377403,N,14148.341582213,E,5,00,99.90,112.424,M,31.865,M,222.2,2010*56
[2021-01-29 11:27:20.862] $GNGGA,022719.30,4327.722373059,N,14148.341595619,E,5,00,99.90,112.422,M,31.865,M,222.3,2010*57
[2021-01-29 11:27:20.956] $GNGGA,022719.40,4327.722406217,N,14148.341535332,E,5,00,99.90,112.415,M,31.865,M,222.4,2010*58
[2021-01-29 11:27:21.065] $GNGGA,022719.50,4327.722353315,N,14148.341635461,E,5,00,99.90,112.442,M,31.865,M,222.5,2010*5C
[2021-01-29 11:27:21.159] $GNGGA,022719.60,4327.722320913,N,14148.341700108,E,5,00,99.90,112.471,M,31.865,M,222.6,2010*59
[2021-01-29 11:27:21.268] $GNGGA,022719.70,4327.722309401,N,14148.341711928,E,5,00,99.90,112.485,M,31.865,M,222.7,2010*5D
[2021-01-29 11:27:21.362] $GNGGA,022719.80,4327.722321482,N,14148.341692903,E,5,00,99.90,112.479,M,31.865,M,222.8,2010*5C
[2021-01-29 11:27:21.456] $GNGGA,022719.90,4327.722336120,N,14148.341665657,E,5,00,99.90,112.470,M,31.865,M,222.9,2010*58
[2021-01-29 11:27:21.565] $GNGGA,022720.00,4327.722356562,N,14148.341623013,E,5,00,99.90,112.455,M,31.865,M,223.0,2010*54
[2021-01-29 11:27:21.659] $GNGGA,022720.10,4327.722327350,N,14148.341673289,E,5,00,99.90,112.471,M,31.865,M,223.1,2010*57
[2021-01-29 11:27:21.753] $GNGGA,022720.20,4327.722299514,N,14148.341719026,E,5,00,99.90,112.497,M,31.865,M,223.2,2010*57
[2021-01-29 11:27:21.862] $GNGGA,022720.30,4327.722327798,N,14148.341664866,E,5,00,99.90,112.475,M,31.865,M,223.3,2010*5E
[2021-01-29 11:27:21.956] $GNGGA,022720.40,4327.722325547,N,14148.341663801,E,5,00,99.90,112.473,M,31.865,M,223.4,2010*5C
[2021-01-29 11:27:22.065] $GNGGA,022720.50,4327.722315240,N,14148.341683304,E,5,00,99.90,112.479,M,31.865,M,223.5,2010*55
[2021-01-29 11:27:22.159] $GNGGA,022720.60,4327.722314700,N,14148.341681310,E,5,00,99.90,112.481,M,31.865,M,223.6,2010*55
[2021-01-29 11:27:22.261] $GNGGA,022720.70,4327.722337154,N,14148.341639423,E,5,00,99.90,112.463,M,31.865,M,223.7,2010*5B
[2021-01-29 11:27:22.364] $GNGGA,022720.80,4327.722332639,N,14148.341655182,E,5,02,99.90,112.456,M,31.865,M,223.8,2010*52
[2021-01-29 11:27:22.458] $GNGGA,022720.90,4327.722190829,N,14148.342073916,E,5,06,1.72,112.126,M,31.865,M,223.9,2010*68
[2021-01-29 11:27:22.567] $GNGGA,022721.00,4327.722188011,N,14148.342113052,E,5,05,1.85,111.938,M,31.865,M,224.0,2010*65
[2021-01-29 11:27:22.661] $GNGGA,022721.10,4327.722234674,N,14148.342057281,E,5,06,1.73,111.864,M,31.865,M,224.1,2010*6B
[2021-01-29 11:27:22.755] $GNGGA,022721.20,4327.722251004,N,14148.342052175,E,5,06,1.73,111.757,M,31.865,M,224.2,2010*6B
[2021-01-29 11:27:22.864] $GNGGA,022721.30,4327.722294060,N,14148.342025760,E,5,06,1.73,111.652,M,31.865,M,224.3,2010*66
[2021-01-29 11:27:22.958] $GNGGA,022721.40,4327.722300550,N,14148.342036587,E,5,06,1.73,111.555,M,31.865,M,224.4,2010*61
[2021-01-29 11:27:23.067] $GNGGA,022721.50,4327.722327692,N,14148.342004322,E,5,06,1.73,111.537,M,31.865,M,224.5,2010*65
[2021-01-29 11:27:23.161] $GNGGA,022721.60,4327.722339687,N,14148.341987128,E,5,06,1.73,111.502,M,31.865,M,224.6,2010*61
[2021-01-29 11:27:23.262] $GNGGA,022721.70,4327.722356332,N,14148.341975316,E,5,05,1.80,111.501,M,31.865,M,224.7,2010*6D
[2021-01-29 11:27:23.365] $GNGGA,022721.80,4327.722368021,N,14148.341963428,E,5,05,1.80,111.476,M,31.865,M,224.8,2010*6D
[2021-01-29 11:27:23.459] $GNGGA,022721.90,4327.722380071,N,14148.341950383,E,5,05,1.80,111.472,M,31.865,M,224.9,2010*6C
[2021-01-29 11:27:23.553] $GNGGA,022722.00,4327.722393113,N,14148.341934534,E,5,05,1.80,111.441,M,31.865,M,225.0,2010*61
[2021-01-29 11:27:23.662] $GNGGA,022722.10,4327.722407272,N,14148.341922309,E,5,05,1.80,111.434,M,31.865,M,225.1,2010*62
[2021-01-29 11:27:23.756] $GNGGA,022722.20,4327.722413969,N,14148.341911422,E,5,05,1.80,111.426,M,31.865,M,225.2,2010*6B
[2021-01-29 11:27:23.865] $GNGGA,022722.30,4327.722426223,N,14148.341902125,E,5,05,1.80,111.421,M,31.865,M,225.3,2010*6F
[2021-01-29 11:27:23.959] $GNGGA,022722.40,4327.722432442,N,14148.341891213,E,5,04,2.60,111.404,M,31.865,M,225.4,2010*6D
[2021-01-29 11:27:24.069] $GNGGA,022722.50,4327.722430772,N,14148.341901644,E,5,04,2.60,111.369,M,31.865,M,225.5,2010*6D
[2021-01-29 11:27:24.162] $GNGGA,022722.60,4327.722433378,N,14148.341903010,E,5,04,2.60,111.342,M,31.865,M,225.6,2010*6C
[2021-01-29 11:27:24.266] $GNGGA,022722.70,4327.722440302,N,14148.341894625,E,5,04,2.60,111.329,M,31.865,M,225.7,2010*67
[2021-01-29 11:27:24.367] $GNGGA,022722.80,4327.722445540,N,14148.341880490,E,5,04,2.60,111.296,M,31.865,M,225.8,2010*6E
[2021-01-29 11:27:24.461] $GNGGA,022722.90,4327.722449437,N,14148.341871077,E,5,04,2.60,111.279,M,31.865,M,225.9,2010*61
[2021-01-29 11:27:24.555] $GNGGA,022723.00,4327.722452997,N,14148.341864474,E,5,04,2.60,111.266,M,31.865,M,226.0,2010*63
[2021-01-29 11:27:24.664] $GNGGA,022723.10,4327.722457212,N,14148.341857129,E,5,04,2.60,111.247,M,31.865,M,226.1,2010*6E
[2021-01-29 11:27:24.758] $GNGGA,022723.20,4327.722459482,N,14148.341850236,E,5,04,2.60,111.227,M,31.865,M,226.2,2010*63
[2021-01-29 11:27:24.867] $GNGGA,022723.30,4327.722462144,N,14148.341843005,E,5,04,2.60,111.214,M,31.865,M,226.3,2010*64
[2021-01-29 11:27:24.961] $GNGGA,022723.40,4327.722464920,N,14148.341836920,E,5,04,2.60,111.199,M,31.865,M,226.4,2010*62
[2021-01-29 11:27:25.055] $GNGGA,022723.50,4327.722469563,N,14148.341827431,E,5,04,2.60,111.175,M,31.865,M,226.5,2010*6B
[2021-01-29 11:27:25.164] $GNGGA,022723.60,4327.722472857,N,14148.341822199,E,5,04,2.60,111.163,M,31.865,M,226.6,2010*6E
[2021-01-29 11:27:25.268] $GNGGA,022723.70,4327.722475149,N,14148.341818132,E,5,04,2.60,111.149,M,31.865,M,226.7,2010*6F
[2021-01-29 11:27:25.353] $GNGGA,022723.80,4327.722478107,N,14148.341812398,E,5,04,2.60,111.137,M,31.865,M,226.8,2010*69
[2021-01-29 11:27:25.463] $GNGGA,022723.90,4327.722481130,N,14148.341807756,E,5,04,2.61,111.126,M,31.865,M,226.9,2010*68
[2021-01-29 11:27:25.556] $GNGGA,022724.00,4327.722484986,N,14148.341804746,E,5,04,2.61,111.114,M,31.865,M,227.0,2010*6D
[2021-01-29 11:27:25.666] $GNGGA,022724.10,4327.722487872,N,14148.341801128,E,5,04,2.61,111.102,M,31.865,M,227.1,2010*68
[2021-01-29 11:27:25.759] $GNGGA,022724.20,4327.722487458,N,14148.341803088,E,5,06,2.04,111.091,M,31.865,M,227.2,2010*6F
[2021-01-29 11:27:25.853] $GNGGA,022724.30,4327.722636394,N,14148.341826121,E,4,07,2.01,111.407,M,31.865,M,227.3,2010*6B
[2021-01-29 11:27:25.963] $GNGGA,022724.40,4327.722638682,N,14148.341844761,E,4,07,2.01,111.435,M,31.865,M,227.4,2010*60
[2021-01-29 11:27:26.056] $GNGGA,022724.50,4327.722638811,N,14148.341845673,E,4,07,2.01,111.434,M,31.865,M,227.5,2010*66
[2021-01-29 11:27:26.166] $GNGGA,022724.60,4327.722638247,N,14148.341844870,E,4,07,2.01,111.431,M,31.865,M,227.6,2010*66
[2021-01-29 11:27:26.260] $GNGGA,022724.70,4327.722639002,N,14148.341844433,E,4,07,2.01,111.430,M,31.865,M,227.7,2010*6E
[2021-01-29 11:27:26.354] $GNGGA,022724.80,4327.722638932,N,14148.341845486,E,4,07,2.01,111.432,M,31.865,M,227.8,2010*68
[2021-01-29 11:27:26.463] $GNGGA,022724.90,4327.722638187,N,14148.341845137,E,4,07,2.01,111.434,M,31.865,M,227.9,2010*67
[2021-01-29 11:27:26.557] $GNGGA,022725.00,4327.722638844,N,14148.341844432,E,4,07,2.01,111.434,M,31.865,M,228.0,2010*6E
[2021-01-29 11:27:26.667] $GNGGA,022725.10,4327.722638431,N,14148.341843455,E,4,07,2.01,111.439,M,31.865,M,228.1,2010*6B
[2021-01-29 11:27:26.760] $GNGGA,022725.20,4327.722637873,N,14148.341844643,E,4,07,2.01,111.436,M,31.865,M,228.2,2010*63
[2021-01-29 11:27:26.854] $GNGGA,022725.30,4327.722635186,N,14148.341846161,E,4,07,2.01,111.439,M,31.865,M,228.3,2010*68
[2021-01-29 11:27:26.963] $GNGGA,022725.40,4327.722633123,N,14148.341845892,E,4,07,2.01,111.441,M,31.865,M,228.4,2010*68
[2021-01-29 11:27:27.057] $GNGGA,022725.50,4327.722632445,N,14148.341845990,E,4,07,2.01,111.442,M,31.865,M,228.5,2010*6C
[2021-01-29 11:27:27.167] $GNGGA,022725.60,4327.722631289,N,14148.341846568,E,4,07,2.01,111.443,M,31.865,M,228.6,2010*60
[2021-01-29 11:27:27.263] $GNGGA,022725.70,4327.722631300,N,14148.341846948,E,4,07,2.01,111.439,M,31.865,M,228.7,2010*63
[2021-01-29 11:27:27.356] $GNGGA,022725.80,4327.722629453,N,14148.341847518,E,4,07,2.01,111.445,M,31.865,M,228.8,2010*68
[2021-01-29 11:27:27.465] $GNGGA,022725.90,4327.722629546,N,14148.341847567,E,4,07,2.01,111.448,M,31.865,M,228.9,2010*68
[2021-01-29 11:27:27.559] $GNGGA,022726.00,4327.722630533,N,14148.341847522,E,4,07,2.01,111.452,M,31.865,M,229.0,2010*6A
[2021-01-29 11:27:27.668] $GNGGA,022726.10,4327.722629014,N,14148.341849345,E,4,07,2.01,111.451,M,31.865,M,229.1,2010*68
[2021-01-29 11:27:27.762] $GNGGA,022726.20,4327.722629120,N,14148.341848134,E,4,07,2.01,111.445,M,31.865,M,229.2,2010*6E
[2021-01-29 11:27:27.856] $GNGGA,022726.30,4327.722625893,N,14148.341844582,E,5,00,2.01,111.445,M,31.865,M,229.3,2010*60
[2021-01-29 11:27:27.965] $GNGGA,022726.41,,,,,0,00,99.99,,,,,229.4,*5D
[2021-01-29 11:27:28.059] $GNGGA,022726.51,,,,,0,00,99.99,,,,,229.5,*5D
[2021-01-29 11:27:28.153] $GNGGA,022726.60,,,,,0,00,99.99,,,,,229.6,*5C
[2021-01-29 11:27:28.263] $GNGGA,022726.71,,,,,0,00,99.99,,,,,229.7,*5D
[2021-01-29 11:27:28.356] $GNGGA,022726.80,,,,,0,00,99.99,,,,,229.8,*5C
[2021-01-29 11:27:28.466] $GNGGA,022726.91,,,,,0,00,99.99,,,,,229.9,*5D
[2021-01-29 11:27:28.559] $GNGGA,022727.01,,,,,0,00,99.99,,,,,230.0,*54
[2021-01-29 11:27:28.669] $GNGGA,022727.10,,,,,0,00,99.99,,,,,230.1,*55
[2021-01-29 11:27:28.763] $GNGGA,022727.21,,,,,0,00,99.99,,,,,230.2,*54
[2021-01-29 11:27:28.856] $GNGGA,022727.30,,,,,0,00,99.99,,,,,230.3,*55
[2021-01-29 11:27:28.966] $GNGGA,022727.41,,,,,0,00,99.99,,,,,230.4,*54
[2021-01-29 11:27:29.059] $GNGGA,022727.51,,,,,0,00,99.99,,,,,230.5,*54
[2021-01-29 11:27:29.153] $GNGGA,022727.60,,,,,0,00,99.99,,,,,230.6,*55
[2021-01-29 11:27:29.265] $GNGGA,022727.71,,,,,0,00,99.99,,,,,230.7,*54
[2021-01-29 11:27:29.358] $GNGGA,022727.80,,,,,0,00,99.99,,,,,230.8,*55
[2021-01-29 11:27:29.468] $GNGGA,022727.91,,,,,0,00,99.99,,,,,230.9,*54
[2021-01-29 11:27:29.562] $GNGGA,022728.01,,,,,0,00,99.99,,,,,231.0,*5A
[2021-01-29 11:27:29.655] $GNGGA,022728.10,,,,,0,00,99.99,,,,,231.1,*5B
[2021-01-29 11:27:29.765] $GNGGA,022728.21,,,,,0,00,99.99,,,,,231.2,*5A
[2021-01-29 11:27:29.858] $GNGGA,022728.30,,,,,0,00,99.99,,,,,231.3,*5B
[2021-01-29 11:27:29.968] $GNGGA,022728.41,,,,,0,00,99.99,,,,,231.4,*5A
[2021-01-29 11:27:30.062] $GNGGA,022728.51,,,,,0,00,99.99,,,,,231.5,*5A
[2021-01-29 11:27:30.155] $GNGGA,022728.60,,,,,0,00,99.99,,,,,231.6,*5B
[2021-01-29 11:27:30.266] $GNGGA,022728.71,,,,,0,00,99.99,,,,,231.7,*5A
[2021-01-29 11:27:30.360] $GNGGA,022728.80,,,,,0,00,99.99,,,,,231.8,*5B
[2021-01-29 11:27:30.454] $GNGGA,022728.91,,,,,0,00,99.99,,,,,231.9,*5A
[2021-01-29 11:27:30.563] $GNGGA,022729.01,,,,,0,00,99.99,,,,,232.0,*58
[2021-01-29 11:27:30.657] $GNGGA,022729.10,,,,,0,00,99.99,,,,,232.1,*59
[2021-01-29 11:27:30.766] $GNGGA,022729.21,,,,,0,00,99.99,,,,,232.2,*58
[2021-01-29 11:27:30.860] $GNGGA,022729.30,,,,,0,00,99.99,,,,,232.3,*59
[2021-01-29 11:27:30.954] $GNGGA,022729.41,,,,,0,00,99.99,,,,,232.4,*58
[2021-01-29 11:27:31.063] $GNGGA,022729.51,,,,,0,00,99.99,,,,,232.5,*58
[2021-01-29 11:27:31.157] $GNGGA,022729.60,,,,,0,00,99.99,,,,,232.6,*59
[2021-01-29 11:27:31.268] $GNGGA,022729.71,,,,,0,00,99.99,,,,,232.7,*58
[2021-01-29 11:27:31.362] $GNGGA,022729.80,,,,,0,00,99.99,,,,,232.8,*59
[2021-01-29 11:27:31.455] $GNGGA,022729.91,,,,,0,00,99.99,,,,,232.9,*58
[2021-01-29 11:27:31.565] $GNGGA,022730.01,,,,,0,00,99.99,,,,,233.0,*51
[2021-01-29 11:27:31.658] $GNGGA,022730.10,,,,,0,00,99.99,,,,,233.1,*50
[2021-01-29 11:27:31.752] $GNGGA,022730.21,,,,,0,00,99.99,,,,,233.2,*51
[2021-01-29 11:27:31.862] $GNGGA,022730.30,,,,,0,00,99.99,,,,,233.3,*50
[2021-01-29 11:27:31.955] $GNGGA,022730.41,,,,,0,00,99.99,,,,,233.4,*51
[2021-01-29 11:27:32.065] $GNGGA,022730.51,,,,,0,00,99.99,,,,,233.5,*51
[2021-01-29 11:27:32.158] $GNGGA,022730.60,,,,,0,00,99.99,,,,,233.6,*50
[2021-01-29 11:27:32.269] $GNGGA,022730.71,,,,,0,00,99.99,,,,,233.7,*51
[2021-01-29 11:27:32.363] $GNGGA,022730.80,,,,,0,00,99.99,,,,,233.8,*50
[2021-01-29 11:27:32.457] $GNGGA,022730.91,,,,,0,00,99.99,,,,,233.9,*51
[2021-01-29 11:27:32.566] $GNGGA,022731.01,,,,,0,00,99.99,,,,,234.0,*57
[2021-01-29 11:27:32.660] $GNGGA,022731.10,,,,,0,00,99.99,,,,,234.1,*56
[2021-01-29 11:27:32.754] $GNGGA,022731.21,,,,,0,00,99.99,,,,,234.2,*57
[2021-01-29 11:27:32.863] $GNGGA,022731.30,,,,,0,00,99.99,,,,,234.3,*56
[2021-01-29 11:27:32.957] $GNGGA,022731.41,,,,,0,00,99.99,,,,,234.4,*57
[2021-01-29 11:27:33.066] $GNGGA,022731.51,,,,,0,00,99.99,,,,,234.5,*57
[2021-01-29 11:27:33.160] $GNGGA,022731.60,,,,,0,00,99.99,,,,,234.6,*56
[2021-01-29 11:27:33.262] $GNGGA,022731.71,,,,,0,00,99.99,,,,,234.7,*57
[2021-01-29 11:27:33.365] $GNGGA,022731.80,,,,,0,00,99.99,,,,,234.8,*56
[2021-01-29 11:27:33.459] $GNGGA,022731.91,,,,,0,00,99.99,,,,,234.9,*57
[2021-01-29 11:27:33.553] $GNGGA,022732.01,,,,,0,00,99.99,,,,,235.0,*55
[2021-01-29 11:27:33.662] $GNGGA,022732.10,,,,,0,00,99.99,,,,,235.1,*54
[2021-01-29 11:27:33.756] $GNGGA,022732.21,,,,,0,00,99.99,,,,,235.2,*55
[2021-01-29 11:27:33.865] $GNGGA,022732.30,,,,,0,00,99.99,,,,,235.3,*54
[2021-01-29 11:27:33.959] $GNGGA,022732.41,,,,,0,00,99.99,,,,,235.4,*55
[2021-01-29 11:27:34.053] $GNGGA,022732.51,,,,,0,00,99.99,,,,,235.5,*55
[2021-01-29 11:27:34.162] $GNGGA,022732.60,,,,,0,00,99.99,,,,,235.6,*54
[2021-01-29 11:27:34.264] $GNGGA,022732.71,,,,,0,00,99.99,,,,,235.7,*55
[2021-01-29 11:27:34.366] $GNGGA,022732.80,,,,,0,00,99.99,,,,,235.8,*54
[2021-01-29 11:27:34.460] $GNGGA,022732.91,,,,,0,00,99.99,,,,,235.9,*55
[2021-01-29 11:27:34.554] $GNGGA,022733.01,,,,,0,00,99.99,,,,,236.0,*57
[2021-01-29 11:27:34.663] $GNGGA,022733.10,,,,,0,00,99.99,,,,,236.1,*56
[2021-01-29 11:27:34.757] $GNGGA,022733.21,,,,,0,00,99.99,,,,,236.2,*57
[2021-01-29 11:27:34.866] $GNGGA,022733.30,,,,,0,00,99.99,,,,,236.3,*56
[2021-01-29 11:27:34.960] $GNGGA,022733.41,,,,,0,00,99.99,,,,,236.4,*57
[2021-01-29 11:27:35.054] $GNGGA,022733.51,,,,,0,00,99.99,,,,,236.5,*57
[2021-01-29 11:27:35.163] $GNGGA,022733.60,,,,,0,00,99.99,,,,,236.6,*56
[2021-01-29 11:27:35.265] $GNGGA,022733.71,,,,,0,00,99.99,,,,,236.7,*57
[2021-01-29 11:27:35.353] $GNGGA,022733.80,,,,,0,00,99.99,,,,,236.8,*56
[2021-01-29 11:27:35.463] $GNGGA,022733.91,,,,,0,00,99.99,,,,,236.9,*57
[2021-01-29 11:27:35.556] $GNGGA,022734.01,,,,,0,00,99.99,,,,,237.0,*51
[2021-01-29 11:27:35.666] $GNGGA,022734.10,,,,,0,00,99.99,,,,,237.1,*50
[2021-01-29 11:27:35.759] $GNGGA,022734.21,,,,,0,00,99.99,,,,,237.2,*51
[2021-01-29 11:27:35.853] $GNGGA,022734.30,,,,,0,00,99.99,,,,,237.3,*50
[2021-01-29 11:27:35.963] $GNGGA,022734.41,,,,,0,00,99.99,,,,,237.4,*51
[2021-01-29 11:27:36.056] $GNGGA,022734.51,,,,,0,00,99.99,,,,,237.5,*51
[2021-01-29 11:27:36.166] $GNGGA,022734.60,,,,,0,00,99.99,,,,,237.6,*50
[2021-01-29 11:27:36.267] $GNGGA,022734.71,,,,,0,00,99.99,,,,,237.7,*51
[2021-01-29 11:27:36.354] $GNGGA,022734.80,,,,,0,00,99.99,,,,,237.8,*50
[2021-01-29 11:27:36.463] $GNGGA,022734.91,,,,,0,00,99.99,,,,,237.9,*51
[2021-01-29 11:27:36.557] $GNGGA,022735.01,,,,,0,00,99.99,,,,,238.0,*5F
[2021-01-29 11:27:36.666] $GNGGA,022735.10,,,,,0,00,99.99,,,,,238.1,*5E
[2021-01-29 11:27:36.760] $GNGGA,022735.21,,,,,0,00,99.99,,,,,238.2,*5F
[2021-01-29 11:27:36.854] $GNGGA,022735.30,,,,,0,00,99.99,,,,,238.3,*5E
[2021-01-29 11:27:36.963] $GNGGA,022735.41,,,,,0,00,99.99,,,,,238.4,*5F
[2021-01-29 11:27:37.057] $GNGGA,022735.51,,,,,0,00,99.99,,,,,238.5,*5F
[2021-01-29 11:27:37.166] $GNGGA,022735.60,,,,,0,00,99.99,,,,,238.6,*5E
[2021-01-29 11:27:37.260] $GNGGA,022735.71,,,,,0,00,99.99,,,,,238.7,*5F
[2021-01-29 11:27:37.355] $GNGGA,022735.80,,,,,0,00,99.99,,,,,238.8,*5E
[2021-01-29 11:27:37.465] $GNGGA,022735.91,,,,,0,00,99.99,,,,,238.9,*5F
[2021-01-29 11:27:37.559] $GNGGA,022736.01,,,,,0,00,99.99,,,,,239.0,*5D
[2021-01-29 11:27:37.668] $GNGGA,022736.10,,,,,0,00,99.99,,,,,239.1,*5C
[2021-01-29 11:27:37.762] $GNGGA,022736.21,,,,,0,00,99.99,,,,,239.2,*5D
[2021-01-29 11:27:37.855] $GNGGA,022736.30,,,,,0,00,99.99,,,,,239.3,*5C
[2021-01-29 11:27:37.965] $GNGGA,022736.41,,,,,0,00,99.99,,,,,239.4,*5D
[2021-01-29 11:27:38.058] $GNGGA,022736.51,,,,,0,00,99.99,,,,,239.5,*5D
[2021-01-29 11:27:38.168] $GNGGA,022736.60,,,,,0,00,99.99,,,,,239.6,*5C
[2021-01-29 11:27:38.264] $GNGGA,022736.71,,,,,0,00,99.99,,,,,239.7,*5D
[2021-01-29 11:27:38.359] $GNGGA,022736.80,,,,,0,00,99.99,,,,,239.8,*5C
[2021-01-29 11:27:38.468] $GNGGA,022736.91,,,,,0,00,99.99,,,,,239.9,*5D
[2021-01-29 11:27:38.562] $GNGGA,022737.01,,,,,0,00,99.99,,,,,240.0,*52
[2021-01-29 11:27:38.656] $GNGGA,022737.10,,,,,0,00,99.99,,,,,240.1,*53
[2021-01-29 11:27:38.765] $GNGGA,022737.21,,,,,0,00,99.99,,,,,240.2,*52
[2021-01-29 11:27:38.859] $GNGGA,022737.30,,,,,0,00,99.99,,,,,240.3,*53
[2021-01-29 11:27:38.953] $GNGGA,022737.41,,,,,0,00,99.99,,,,,240.4,*52
[2021-01-29 11:27:39.062] $GNGGA,022737.51,,,,,0,00,99.99,,,,,240.5,*52
[2021-01-29 11:27:39.156] $GNGGA,022737.60,,,,,0,00,99.99,,,,,240.6,*53
[2021-01-29 11:27:39.265] $GNGGA,022737.71,,,,,0,00,99.99,,,,,240.7,*52
[2021-01-29 11:27:39.359] $GNGGA,022737.80,,,,,0,00,99.99,,,,,240.8,*53
[2021-01-29 11:27:39.452] $GNGGA,022737.91,,,,,0,00,99.99,,,,,240.9,*52
[2021-01-29 11:27:39.562] $GNGGA,022738.01,,,,,0,00,99.99,,,,,241.0,*5C
[2021-01-29 11:27:39.656] $GNGGA,022738.10,,,,,0,00,99.99,,,,,241.1,*5D
[2021-01-29 11:27:39.765] $GNGGA,022738.21,,,,,0,00,99.99,,,,,241.2,*5C
[2021-01-29 11:27:39.859] $GNGGA,022738.30,,,,,0,00,99.99,,,,,241.3,*5D
[2021-01-29 11:27:39.968] $GNGGA,022738.41,,,,,0,00,99.99,,,,,241.4,*5C
[2021-01-29 11:27:40.062] $GNGGA,022738.51,,,,,0,00,99.99,,,,,241.5,*5C
[2021-01-29 11:27:40.156] $GNGGA,022738.60,,,,,0,00,99.99,,,,,241.6,*5D
[2021-01-29 11:27:40.265] $GNGGA,022738.71,,,,,0,00,99.99,,,,,241.7,*5C
[2021-01-29 11:27:40.359] $GNGGA,022738.80,,,,,0,00,99.99,,,,,241.8,*5D
[2021-01-29 11:27:40.453] $GNGGA,022738.91,,,,,0,00,99.99,,,,,241.9,*5C
[2021-01-29 11:27:40.562] $GNGGA,022739.01,,,,,0,00,99.99,,,,,242.0,*5E
[2021-01-29 11:27:40.656] $GNGGA,022739.10,,,,,0,00,99.99,,,,,242.1,*5F
[2021-01-29 11:27:40.765] $GNGGA,022739.21,,,,,0,00,99.99,,,,,242.2,*5E
[2021-01-29 11:27:40.859] $GNGGA,022739.30,,,,,0,00,99.99,,,,,242.3,*5F
[2021-01-29 11:27:40.953] $GNGGA,022739.41,,,,,0,00,99.99,,,,,242.4,*5E
[2021-01-29 11:27:41.062] $GNGGA,022739.51,,,,,0,00,99.99,,,,,242.5,*5E
[2021-01-29 11:27:41.156] $GNGGA,022739.60,,,,,0,00,99.99,,,,,242.6,*5F
[2021-01-29 11:27:41.267] $GNGGA,022739.71,,,,,0,00,99.99,,,,,242.7,*5E
[2021-01-29 11:27:41.361] $GNGGA,022739.80,,,,,0,00,99.99,,,,,242.8,*5F
[2021-01-29 11:27:41.455] $GNGGA,022739.91,,,,,0,00,99.99,,,,,242.9,*5E
[2021-01-29 11:27:41.564] $GNGGA,022740.01,,,,,0,00,99.99,,,,,243.0,*51
[2021-01-29 11:27:41.658] $GNGGA,022740.10,,,,,0,00,99.99,,,,,243.1,*50
[2021-01-29 11:27:41.767] $GNGGA,022740.21,,,,,0,00,99.99,,,,,243.2,*51
[2021-01-29 11:27:41.861] $GNGGA,022740.30,,,,,0,00,99.99,,,,,243.3,*50
[2021-01-29 11:27:41.955] $GNGGA,022740.41,,,,,0,00,99.99,,,,,243.4,*51
[2021-01-29 11:27:42.064] $GNGGA,022740.51,,,,,0,00,99.99,,,,,243.5,*51
[2021-01-29 11:27:42.158] $GNGGA,022740.60,,,,,0,00,99.99,,,,,243.6,*50
[2021-01-29 11:27:42.260] $GNGGA,022740.71,,,,,0,00,99.99,,,,,243.7,*51
[2021-01-29 11:27:42.362] $GNGGA,022740.80,,,,,0,00,99.99,,,,,243.8,*50
[2021-01-29 11:27:42.456] $GNGGA,022740.91,,,,,0,00,99.99,,,,,243.9,*51
[2021-01-29 11:27:42.565] $GNGGA,022741.01,,,,,0,00,99.99,,,,,244.0,*57
[2021-01-29 11:27:42.659] $GNGGA,022741.10,,,,,0,00,99.99,,,,,244.1,*56
[2021-01-29 11:27:42.753] $GNGGA,022741.21,,,,,0,00,99.99,,,,,244.2,*57
[2021-01-29 11:27:42.862] $GNGGA,022741.30,,,,,0,00,99.99,,,,,244.3,*56
[2021-01-29 11:27:42.956] $GNGGA,022741.41,,,,,0,00,99.99,,,,,244.4,*57
[2021-01-29 11:27:43.065] $GNGGA,022741.51,,,,,0,00,99.99,,,,,244.5,*57
[2021-01-29 11:27:43.159] $GNGGA,022741.60,,,,,0,00,99.99,,,,,244.6,*56
[2021-01-29 11:27:43.261] $GNGGA,022741.71,,,,,0,00,99.99,,,,,244.7,*57
[2021-01-29 11:27:43.366] $GNGGA,022741.80,,,,,0,00,99.99,,,,,244.8,*56
[2021-01-29 11:27:43.460] $GNGGA,022741.91,,,,,0,00,99.99,,,,,244.9,*57
[2021-01-29 11:27:43.553] $GNGGA,022742.01,,,,,0,00,99.99,,,,,245.0,*55
[2021-01-29 11:27:43.663] $GNGGA,022742.10,,,,,0,00,99.99,,,,,245.1,*54
[2021-01-29 11:27:43.757] $GNGGA,022742.21,,,,,0,00,99.99,,,,,245.2,*55
[2021-01-29 11:27:43.866] $GNGGA,022742.30,,,,,0,00,99.99,,,,,245.3,*54
[2021-01-29 11:27:43.960] $GNGGA,022742.41,,,,,0,00,99.99,,,,,245.4,*55
[2021-01-29 11:27:44.053] $GNGGA,022742.51,,,,,0,00,99.99,,,,,245.5,*55
[2021-01-29 11:27:44.163] $GNGGA,022742.60,,,,,0,00,99.99,,,,,245.6,*54
[2021-01-29 11:27:44.265] $GNGGA,022742.71,,,,,0,00,99.99,,,,,245.7,*55
[2021-01-29 11:27:44.366] $GNGGA,022742.80,,,,,0,00,99.99,,,,,245.8,*54
[2021-01-29 11:27:44.460] $GNGGA,022742.91,,,,,0,00,99.99,,,,,245.9,*55
[2021-01-29 11:27:44.553] $GNGGA,022743.01,,,,,0,00,99.99,,,,,246.0,*57
[2021-01-29 11:27:44.663] $GNGGA,022743.10,,,,,0,00,99.99,,,,,246.1,*56
[2021-01-29 11:27:44.756] $GNGGA,022743.21,,,,,0,00,99.99,,,,,246.2,*57
[2021-01-29 11:27:44.866] $GNGGA,022743.30,,,,,0,00,99.99,,,,,246.3,*56
[2021-01-29 11:27:44.960] $GNGGA,022743.41,,,,,0,00,99.99,,,,,246.4,*57
[2021-01-29 11:27:45.053] $GNGGA,022743.51,,,,,0,00,99.99,,,,,246.5,*57
[2021-01-29 11:27:45.163] $GNGGA,022743.60,,,,,0,00,99.99,,,,,246.6,*56
[2021-01-29 11:27:45.266] $GNGGA,022743.71,,,,,0,00,99.99,,,,,246.7,*57
[2021-01-29 11:27:45.352] $GNGGA,022743.80,,,,,0,00,99.99,,,,,246.8,*56
[2021-01-29 11:27:45.462] $GNGGA,022743.91,,,,,0,00,99.99,,,,,246.9,*57
[2021-01-29 11:27:45.555] $GNGGA,022744.01,,,,,0,00,99.99,,,,,247.0,*51
[2021-01-29 11:27:45.665] $GNGGA,022744.10,,,,,0,00,99.99,,,,,247.1,*50
[2021-01-29 11:27:45.758] $GNGGA,022744.21,,,,,0,00,99.99,,,,,247.2,*51
[2021-01-29 11:27:45.868] $GNGGA,022744.30,,,,,0,00,99.99,,,,,247.3,*50
[2021-01-29 11:27:45.961] $GNGGA,022744.41,,,,,0,00,99.99,,,,,247.4,*51
[2021-01-29 11:27:46.055] $GNGGA,022744.51,,,,,0,00,99.99,,,,,247.5,*51
[2021-01-29 11:27:46.165] $GNGGA,022744.60,,,,,0,00,99.99,,,,,247.6,*50
[2021-01-29 11:27:46.261] $GNGGA,022744.71,,,,,0,00,99.99,,,,,247.7,*51
[2021-01-29 11:27:46.371] $GNGGA,022744.80,,,,,0,00,99.99,,,,,247.8,*50
[2021-01-29 11:27:46.464] $GNGGA,022744.91,,,,,0,00,99.99,,,,,247.9,*51
[2021-01-29 11:27:46.558] $GNGGA,022745.01,,,,,0,00,99.99,,,,,248.0,*5F
[2021-01-29 11:27:46.668] $GNGGA,022745.10,,,,,0,00,99.99,,,,,248.1,*5E
[2021-01-29 11:27:46.761] $GNGGA,022745.21,,,,,0,00,99.99,,,,,248.2,*5F
[2021-01-29 11:27:46.855] $GNGGA,022745.30,,,,,0,00,99.99,,,,,248.3,*5E
[2021-01-29 11:27:46.964] $GNGGA,022745.41,,,,,0,00,99.99,,,,,248.4,*5F
[2021-01-29 11:27:47.058] $GNGGA,022745.51,,,,,0,00,99.99,,,,,248.5,*5F
[2021-01-29 11:27:47.168] $GNGGA,022745.60,,,,,0,00,99.99,,,,,248.6,*5E
[2021-01-29 11:27:47.260] $GNGGA,022745.71,,,,,0,00,99.99,,,,,248.7,*5F
[2021-01-29 11:27:47.354] $GNGGA,022745.80,,,,,0,00,99.99,,,,,248.8,*5E
[2021-01-29 11:27:47.463] $GNGGA,022745.91,,,,,0,00,99.99,,,,,248.9,*5F
[2021-01-29 11:27:47.557] $GNGGA,022746.01,,,,,0,00,99.99,,,,,249.0,*5D
[2021-01-29 11:27:47.666] $GNGGA,022746.10,,,,,0,00,99.99,,,,,249.1,*5C
[2021-01-29 11:27:47.760] $GNGGA,022746.21,,,,,0,00,99.99,,,,,249.2,*5D
[2021-01-29 11:27:47.854] $GNGGA,022746.30,,,,,0,00,99.99,,,,,249.3,*5C
[2021-01-29 11:27:47.963] $GNGGA,022746.41,,,,,0,00,99.99,,,,,249.4,*5D
[2021-01-29 11:27:48.057] $GNGGA,022746.51,,,,,0,00,99.99,,,,,249.5,*5D
[2021-01-29 11:27:48.166] $GNGGA,022746.60,,,,,0,00,99.99,,,,,249.6,*5C
[2021-01-29 11:27:48.262] $GNGGA,022746.71,,,,,0,00,99.99,,,,,249.7,*5D
[2021-01-29 11:27:48.358] $GNGGA,022746.80,,,,,0,00,99.99,,,,,249.8,*5C
[2021-01-29 11:27:48.467] $GNGGA,022746.91,,,,,0,00,99.99,,,,,249.9,*5D
[2021-01-29 11:27:48.561] $GNGGA,022747.01,,,,,0,00,99.99,,,,,250.0,*54
[2021-01-29 11:27:48.655] $GNGGA,022747.10,,,,,0,00,99.99,,,,,250.1,*55
[2021-01-29 11:27:48.764] $GNGGA,022747.21,,,,,0,00,99.99,,,,,250.2,*54
[2021-01-29 11:27:48.858] $GNGGA,022747.30,,,,,0,00,99.99,,,,,250.3,*55
[2021-01-29 11:27:48.967] $GNGGA,022747.41,,,,,0,00,99.99,,,,,250.4,*54
[2021-01-29 11:27:49.061] $GNGGA,022747.51,,,,,0,00,99.99,,,,,250.5,*54
[2021-01-29 11:27:49.155] $GNGGA,022747.60,,,,,0,00,99.99,,,,,250.6,*55
[2021-01-29 11:27:49.263] $GNGGA,022747.71,,,,,0,00,99.99,,,,,250.7,*54
[2021-01-29 11:27:49.357] $GNGGA,022747.80,,,,,0,00,99.99,,,,,250.8,*55
[2021-01-29 11:27:49.466] $GNGGA,022747.91,,,,,0,00,99.99,,,,,250.9,*54
[2021-01-29 11:27:49.560] $GNGGA,022748.01,,,,,0,00,99.99,,,,,251.0,*5A
[2021-01-29 11:27:49.654] $GNGGA,022748.10,,,,,0,00,99.99,,,,,251.1,*5B
[2021-01-29 11:27:49.763] $GNGGA,022748.21,,,,,0,00,99.99,,,,,251.2,*5A
[2021-01-29 11:27:49.857] $GNGGA,022748.30,,,,,0,00,99.99,,,,,251.3,*5B
[2021-01-29 11:27:49.966] $GNGGA,022748.41,,,,,0,00,99.99,,,,,251.4,*5A
[2021-01-29 11:27:50.060] $GNGGA,022748.51,,,,,0,00,99.99,,,,,251.5,*5A
[2021-01-29 11:27:50.154] $GNGGA,022748.60,,,,,0,00,99.99,,,,,251.6,*5B
[2021-01-29 11:27:50.265] $GNGGA,022748.71,,,,,0,00,99.99,,,,,251.7,*5A
[2021-01-29 11:27:50.359] $GNGGA,022748.80,,,,,0,00,99.99,,,,,251.8,*5B
[2021-01-29 11:27:50.468] $GNGGA,022748.91,,,,,0,00,99.99,,,,,251.9,*5A
[2021-01-29 11:27:50.562] $GNGGA,022749.01,,,,,0,00,99.99,,,,,252.0,*58
[2021-01-29 11:27:50.656] $GNGGA,022749.10,,,,,0,00,99.99,,,,,252.1,*59
[2021-01-29 11:27:50.765] $GNGGA,022749.21,,,,,0,00,99.99,,,,,252.2,*58
[2021-01-29 11:27:50.859] $GNGGA,022749.30,,,,,0,00,99.99,,,,,252.3,*59
[2021-01-29 11:27:50.952] $GNGGA,022749.41,,,,,0,00,99.99,,,,,252.4,*58
[2021-01-29 11:27:51.062] $GNGGA,022749.51,,,,,0,00,99.99,,,,,252.5,*58
[2021-01-29 11:27:51.156] $GNGGA,022749.60,,,,,0,00,99.99,,,,,252.6,*59
[2021-01-29 11:27:51.267] $GNGGA,022749.71,,,,,0,00,99.99,,,,,252.7,*58
[2021-01-29 11:27:51.361] $GNGGA,022749.80,,,,,0,00,99.99,,,,,252.8,*59
[2021-01-29 11:27:51.454] $GNGGA,022749.91,,,,,0,00,99.99,,,,,252.9,*58
[2021-01-29 11:27:51.564] $GNGGA,022750.01,,,,,0,00,99.99,,,,,253.0,*51
[2021-01-29 11:27:51.658] $GNGGA,022750.10,,,,,0,00,99.99,,,,,253.1,*50
[2021-01-29 11:27:51.767] $GNGGA,022750.21,,,,,0,00,99.99,,,,,253.2,*51
[2021-01-29 11:27:51.861] $GNGGA,022750.30,,,,,0,00,99.99,,,,,253.3,*50
[2021-01-29 11:27:51.954] $GNGGA,022750.41,,,,,0,00,99.99,,,,,253.4,*51
[2021-01-29 11:27:52.064] $GNGGA,022750.51,,,,,0,00,99.99,,,,,253.5,*51
[2021-01-29 11:27:52.157] $GNGGA,022750.60,,,,,0,00,99.99,,,,,253.6,*50
[2021-01-29 11:27:52.268] $GNGGA,022750.71,,,,,0,00,99.99,,,,,253.7,*51
[2021-01-29 11:27:52.362] $GNGGA,022750.80,,,,,0,00,99.99,,,,,253.8,*50
[2021-01-29 11:27:52.456] $GNGGA,022750.91,,,,,0,00,99.99,,,,,253.9,*51
[2021-01-29 11:27:52.565] $GNGGA,022751.01,,,,,0,00,99.99,,,,,254.0,*57
[2021-01-29 11:27:52.659] $GNGGA,022751.10,,,,,0,00,99.99,,,,,254.1,*56
[2021-01-29 11:27:52.752] $GNGGA,022751.21,,,,,0,00,99.99,,,,,254.2,*57
[2021-01-29 11:27:52.862] $GNGGA,022751.30,,,,,0,00,99.99,,,,,254.3,*56
