
[2021-01-29 11:26:34.869] $GPGGA,,,,,,,,,,M,,M,,*56
[2021-01-29 11:26:34.900] $GPGGA,,,,,,,,,,M,,M,,*56
[2021-01-29 11:26:34.900] $GPGGA,,,,,,,,,,M,,M,,*56
[2021-01-29 11:26:34.900] $GPGGA,,,,,,,,,,M,,M,,*56
[2021-01-29 11:26:34.900] $GPGGA,,,,,,,,,,M,,M,,*56
[2021-01-29 11:26:34.900] $GPGGA,,,,,,,,,,M,,M,,*56
[2021-01-29 11:26:34.900] $GPGGA,,,,,,,,,,M,,M,,*56
[2021-01-29 11:26:34.900] $GPGGA,,,,,,,,,,M,,M,,*56
[2021-01-29 11:26:34.900] $GPGGA,,,,,,,,,,M,,M,,*56
[2021-01-29 11:26:34.900] $GPGGA,,,,,,,,,,M,,M,,*56
[2021-01-29 11:26:34.900] $GPGGA,,,,,,,,,,M,,M,,*56
[2021-01-29 11:26:34.900] $GPGGA,,,,,,,,,,M,,M,,*56
[2021-01-29 11:26:34.900] $GPGGA,,,,,,,,,,M,,M,,*56
[2021-01-29 11:26:34.900] $GPGGA,,,,,,,,,,M,,M,,*56
[2021-01-29 11:26:34.900] $GPGGA,,,,,,,,,,M,,M,,*56
[2021-01-29 11:26:34.900] $GPGGA,,,,,,,,,,M,,M,,*56
[2021-01-29 11:26:34.900] $GPGGA,,,,,,,,,,M,,M,,*56
[2021-01-29 11:26:34.900] $GPGGA,,,,,,,,,,M,,M,,*56
[2021-01-29 11:26:34.900] $GPGGA,,,,,,,,,,M,,M,,*56
[2021-01-29 11:26:34.900] $GPGGA,,,,,,,,,,M,,M,,*56
[2021-01-29 11:26:34.900] $GPGGA,,,,,,,,,,M,,M,,*56
[2021-01-29 11:26:34.900] $GPGGA,,,,,,,,,,M,,M,,*56
[2021-01-29 11:26:34.900] $GPGGA,,,,,,,,,,M,,M,,*56
[2021-01-29 11:26:34.900] $GPGGA,,,,,,,,,,M,,M,,*56
[2021-01-29 11:26:34.900] $GPGGA,,,,,,,,,,M,,M,,*56
[2021-01-29 11:26:34.900] $GPGGA,,,,,,,,,,M,,M,,*56
[2021-01-29 11:26:34.900] $GPGGA,,,,,,,,,,M,,M,,*56
[2021-01-29 11:26:34.900] $GPGGA,,,,,,,,,,M,,M,,*56
[2021-01-29 11:26:34.900] $GPGGA,,,,,,,,,,M,,M,,*56
[2021-01-29 11:26:34.900] $GPGGA,,,,,,,,,,M,,M,,*56
[2021-01-29 11:26:34.900] $GPGGA,,,,,,,,,,M,,M,,*56
[2021-01-29 11:26:34.900] $GPGGA,,,,,,,,,,M,,M,,*56
[2021-01-29 11:26:34.900] $GPGGA,,,,,,,,,,M,,M,,*56
[2021-01-29 11:26:34.900] $GPGGA,,,,,,,,,,M,,M,,*56
[2021-01-29 11:26:34.900] $GPGGA,,,,,,,,,,M,,M,,*56
[2021-01-29 11:26:34.900] $GPGGA,,,,,,,,,,M,,M,,*56
[2021-01-29 11:26:34.900] $GPGGA,,,,,,,,,,M,,M,,*56
[2021-01-29 11:26:34.900] $GPGGA,,,,,,,,,,M,,M,,*56
[2021-01-29 11:26:34.900] $GPGGA,,,,,,,,,,M,,M,,*56
[2021-01-29 11:26:34.900] $GPGGA,,,,,,,,,,M,,M,,*56
[2021-01-29 11:26:34.900] $GPGGA,,,,,,,,,,M,,M,,*56
[2021-01-29 11:26:34.900] $GPGGA,,,,,,,,,,M,,M,,*56
[2021-01-29 11:26:34.900] $GPGGA,,,,,,,,,,M,,M,,*56
[2021-01-29 11:26:34.900] $GPGGA,,,,,,,,,,M,,M,,*56
[2021-01-29 11:26:34.900] $GPGGA,,,,,,,,,,M,,M,,*56
[2021-01-29 11:26:34.900] $GPGGA,,,,,,,,,,M,,M,,*56
[2021-01-29 11:26:34.900] $GPGGA,,,,,,,,,,M,,M,,*56
[2021-01-29 11:26:34.900] $GPGGA,,,,,,,,,,M,,M,,*56
[2021-01-29 11:26:34.900] $GPGGA,,,,,,,,,,M,,M,,*56
[2021-01-29 11:26:34.900] $GPGGA,,,,,,,,,,M,,M,,*56
[2021-01-29 11:26:34.900] $GPGGA,,,,,,,,,,M,,M,,*56
[2021-01-29 11:26:34.900] $GPGGA,,,,,,,,,,M,,M,,*56
[2021-01-29 11:26:34.900] $GPGGA,,,,,,,,,,M,,M,,*56
[2021-01-29 11:26:34.900] $GPGGA,,,,,,,,,,M,,M,,*56
[2021-01-29 11:26:34.900] $GPGGA,,,,,,,,,,M,,M,,*56
[2021-01-29 11:26:34.900] $GPGGA,,,,,,,,,,M,,M,,*56
[2021-01-29 11:26:34.900] $GPGGA,,,,,,,,,,M,,M,,*56
[2021-01-29 11:26:34.900] $GPGGA,,,,,,,,,,M,,M,,*56
[2021-01-29 11:26:34.900] $GPGGA,,,,,,,,,,M,,M,,*56
[2021-01-29 11:26:34.900] $GPGGA,,,,,,,,,,M,,M,,*56
[2021-01-29 11:26:34.900] $GPGGA,,,,,,,,,,M,,M,,*56
[2021-01-29 11:26:34.900] $GPGGA,,,,,,,,,,M,,M,,*56
[2021-01-29 11:26:34.900] $GPGGA,,,,,,,,,,M,,M,,*56
[2021-01-29 11:26:34.900] $GPGGA,,,,,,,,,,M,,M,,*56
[2021-01-29 11:26:34.900] $GPGGA,,,,,,,,,,M,,M,,*56
[2021-01-29 11:26:34.900] $GPGGA,,,,,,,,,,M,,M,,*56
[2021-01-29 11:26:34.900] $GPGGA,,,,,,,,,,M,,M,,*56
[2021-01-29 11:26:34.900] $GPGGA,,,,,,,,,,M,,M,,*56
[2021-01-29 11:26:34.900] $GPGGA,,,,,,,,,,M,,M,,*56
[2021-01-29 11:26:34.900] $GPGGA,,,,,,,,,,M,,M,,*56
[2021-01-29 11:26:34.900] $GPGGA,,,,,,,,,,M,,M,,*56
[2021-01-29 11:26:34.900] $GPGGA,,,,,,,,,,M,,M,,*56
[2021-01-29 11:26:34.963] $GPGGA,,,,,,,,,,M,,M,,*56
[2021-01-29 11:26:35.182] $GPGGA,,,,,,,,,,M,,M,,*56
[2021-01-29 11:26:35.387] $GPGGA,,,,,,,,,,M,,M,,*56
[2021-01-29 11:26:35.574] $GPGGA,,,,,,,,,,M,,M,,*56
[2021-01-29 11:26:35.762] $GPGGA,,,,,,,,,,M,,M,,*56
[2021-01-29 11:26:35.981] $GPGGA,,,,,,,,,,M,,M,,*56
[2021-01-29 11:26:36.168] $GPGGA,,,,,,,,,,M,,M,,*56
[2021-01-29 11:26:36.403] $GPGGA,,,,,,,,,,M,,M,,*56
[2021-01-29 11:26:36.560] $GPGGA,,,,,,,,,,M,,M,,*56
[2021-01-29 11:26:36.778] $GPGGA,,,,,,,,,,M,,M,,*56
[2021-01-29 11:26:36.981] $GPGGA,,,,,,,,,,M,,M,,*56
[2021-01-29 11:26:37.169] $GPGGA,,,,,,,,,,M,,M,,*56
[2021-01-29 11:26:37.373] $GPGGA,,,,,,,,,,M,,M,,*56
[2021-01-29 11:26:37.576] $GPGGA,,,,,,,,,,M,,M,,*56
[2021-01-29 11:26:37.779] $GPGGA,,,,,,,,,,M,,M,,*56
[2021-01-29 11:26:37.967] $GPGGA,,,,,,,,,,M,,M,,*56
[2021-01-29 11:26:38.186] $GPGGA,,,,,,,,,,M,,M,,*56
[2021-01-29 11:26:38.375] $GPGGA,,,,,,,,,,M,,M,,*56
[2021-01-29 11:26:38.578] $GPGGA,,,,,,,,,,M,,M,,*56
[2021-01-29 11:26:38.766] $GPGGA,,,,,,,,,,M,,M,,*56
[2021-01-29 11:26:38.985] $GPGGA,,,,,,,,,,M,,M,,*56
[2021-01-29 11:26:39.172] $GPGGA,,,,,,,,,,M,,M,,*56
[2021-01-29 11:26:39.378] $GPGGA,,,,,,,,,,M,,M,,*56
[2021-01-29 11:26:39.565] $GPGGA,,,,,,,,,,M,,M,,*56
[2021-01-29 11:26:39.784] $GPGGA,,,,,,,,,,M,,M,,*56
[2021-01-29 11:26:39.971] $GPGGA,,,,,,,,,,M,,M,,*56
[2021-01-29 11:26:40.174] $GPGGA,,,,,,,,,,M,,M,,*56
[2021-01-29 11:26:40.378] $GPGGA,,,,,,,,,,M,,M,,*56
[2021-01-29 11:26:40.581] $GPGGA,,,,,,,,,,M,,M,,*56
[2021-01-29 11:26:40.769] $GPGGA,,,,,,,,,,M,,M,,*56
[2021-01-29 11:26:40.987] $GPGGA,,,,,,,,,,M,,M,,*56
[2021-01-29 11:26:41.175] $GPGGA,,,,,,,,,,M,,M,,*56
[2021-01-29 11:26:41.380] $GPGGA,,,,,,,,,,M,,M,,*56
[2021-01-29 11:26:41.567] $GPGGA,,,,,,,,,,M,,M,,*56
[2021-01-29 11:26:41.786] $GPGGA,,,,,,,,,,M,,M,,*56
[2021-01-29 11:26:41.973] $GPGGA,,,,,,,,,,M,,M,,*56
[2021-01-29 11:26:42.176] $GPGGA,,,,,,,,,,M,,M,,*56
[2021-01-29 11:26:42.366] $GPGGA,,,,,,,,,,M,,M,,*56
[2021-01-29 11:26:42.584] $GPGGA,,,,,,,,,,M,,M,,*56
[2021-01-29 11:26:42.772] $GPGGA,,,,,,,,,,M,,M,,*56
[2021-01-29 11:26:42.975] $GPGGA,,,,,,,,,,M,,M,,*56
[2021-01-29 11:26:43.178] $GPGGA,,,,,,,,,,M,,M,,*56
[2021-01-29 11:26:43.383] $GPGGA,,,,,,,,,,M,,M,,*56
[2021-01-29 11:26:43.570] $GPGGA,,,,,,,,,,M,,M,,*56
[2021-01-29 11:26:43.773] $GPGGA,,,,,,,,,,M,,M,,*56
[2021-01-29 11:26:43.976] $GPGGA,,,,,,,,,,M,,M,,*56
[2021-01-29 11:26:44.180] $GPGGA,,,,,,,,,,M,,M,,*56
[2021-01-29 11:26:44.370] $GPGGA,,,,,,,,,,M,,M,,*56
[2021-01-29 11:26:44.574] $GPGGA,,,,,,,,,,M,,M,,*56
[2021-01-29 11:26:44.777] $GPGGA,,,,,,,,,,M,,M,,*56
[2021-01-29 11:26:44.980] $GPGGA,,,,,,,,,,M,,M,,*56
[2021-01-29 11:26:45.167] $GPGGA,,,,,,,,,,M,,M,,*56
[2021-01-29 11:26:45.373] $GPGGA,,,,,,,,,,M,,M,,*56
[2021-01-29 11:26:45.576] $GPGGA,,,,,,,,,,M,,M,,*56
[2021-01-29 11:26:45.780] $GPGGA,,,,,,,,,,M,,M,,*56
[2021-01-29 11:26:45.967] $GPGGA,,,,,,,,,,M,,M,,*56
[2021-01-29 11:26:46.186] $GPGGA,,,,,,,,,,M,,M,,*56
[2021-01-29 11:26:46.372] $GPGGA,,,,,,,,,,M,,M,,*56
[2021-01-29 11:26:46.575] $GPGGA,,,,,,,,,,M,,M,,*56
[2021-01-29 11:26:46.762] $GPGGA,,,,,,,,,,M,,M,,*56
[2021-01-29 11:26:46.981] $GPGGA,,,,,,,,,,M,,M,,*56
[2021-01-29 11:26:47.168] $GPGGA,,,,,,,,,,M,,M,,*56
[2021-01-29 11:26:47.372] $GPGGA,,,,,,,,,,M,,M,,*56
[2021-01-29 11:26:47.575] $GPGGA,,,,,,,,,,M,,M,,*56
[2021-01-29 11:26:47.779] $GPGGA,,,,,,,,,,M,,M,,*56
[2021-01-29 11:26:47.966] $GPGGA,,,,,,,,,,M,,M,,*56
[2021-01-29 11:26:48.185] $GPGGA,,,,,,,,,,M,,M,,*56
[2021-01-29 11:26:48.375] $GPGGA,,,,,,,,,,M,,M,,*56
[2021-01-29 11:26:48.578] $GPGGA,,,,,,,,,,M,,M,,*56
[2021-01-29 11:26:48.766] $GPGGA,,,,,,,,,,M,,M,,*56
[2021-01-29 11:26:48.985] $GPGGA,,,,,,,,,,M,,M,,*56
[2021-01-29 11:26:49.172] $GPGGA,,,,,,,,,,M,,M,,*56
[2021-01-29 11:26:49.376] $GPGGA,,,,,,,,,,M,,M,,*56
[2021-01-29 11:26:49.564] $GPGGA,,,,,,,,,,M,,M,,*56
[2021-01-29 11:26:49.782] $GPGGA,,,,,,,,,,M,,M,,*56
[2021-01-29 11:26:49.970] $GPGGA,,,,,,,,,,M,,M,,*56
[2021-01-29 11:26:50.173] $GPGGA,,,,,,,,,,M,,M,,*56
[2021-01-29 11:26:50.362] $GPGGA,,,,,,,,,,M,,M,,*56
[2021-01-29 11:26:50.581] $GPGGA,,,,,,,,,,M,,M,,*56
[2021-01-29 11:26:50.769] $GPGGA,,,,,,,,,,M,,M,,*56
[2021-01-29 11:26:50.972] $GPGGA,,,,,,,,,,M,,M,,*56
[2021-01-29 11:26:51.175] $GPGGA,,,,,,,,,,M,,M,,*56
[2021-01-29 11:26:51.379] $GPGGA,,,,,,,,,,M,,M,,*56
[2021-01-29 11:26:51.567] $GPGGA,,,,,,,,,,M,,M,,*56
[2021-01-29 11:26:51.770] $GPGGA,,,,,,,,,,M,,M,,*56
[2021-01-29 11:26:51.973] $GPGGA,,,,,,,,,,M,,M,,*56
[2021-01-29 11:26:52.176] $GPGGA,,,,,,,,,,M,,M,,*56
[2021-01-29 11:26:52.365] $GPGGA,,,,,,,,,,M,,M,,*56
[2021-01-29 11:26:52.568] $GPGGA,,,,,,,,,,M,,M,,*56
[2021-01-29 11:26:52.771] $GPGGA,,,,,,,,,,M,,M,,*56
[2021-01-29 11:26:52.974] $GPGGA,,,,,,,,,,M,,M,,*56
[2021-01-29 11:26:53.162] $GPGGA,,,,,,,,,,M,,M,,*56
[2021-01-29 11:26:53.383] $GPGGA,,,,,,,,,,M,,M,,*56
[2021-01-29 11:26:53.570] $GPGGA,,,,,,,,,,M,,M,,*56
[2021-01-29 11:26:53.773] $GPGGA,,,,,,,,,,M,,M,,*56
[2021-01-29 11:26:53.976] $GPGGA,,,,,,,,,,M,,M,,*56
[2021-01-29 11:26:54.179] $GPGGA,,,,,,,,,,M,,M,,*56
[2021-01-29 11:26:54.368] $GPGGA,,,,,,,,,,M,,M,,*56
[2021-01-29 11:26:54.571] $GPGGA,,,,,,,,,,M,,M,,*56
[2021-01-29 11:26:54.774] $GPGGA,,,,,,,,,,M,,M,,*56
[2021-01-29 11:26:54.977] $GPGGA,,,,,,,,,,M,,M,,*56
[2021-01-29 11:26:55.165] $GPGGA,,,,,,,,,,M,,M,,*56
[2021-01-29 11:26:55.370] $GPGGA,,,,,,,,,,M,,M,,*56
[2021-01-29 11:26:55.573] $GPGGA,,,,,,,,,,M,,M,,*56
[2021-01-29 11:26:55.776] $GPGGA,,,,,,,,,,M,,M,,*56
[2021-01-29 11:26:55.964] $GPGGA,,,,,,,,,,M,,M,,*56
[2021-01-29 11:26:56.182] $GPGGA,,,,,,,,,,M,,M,,*56
[2021-01-29 11:26:56.372] $GPGGA,,,,,,,,,,M,,M,,*56
[2021-01-29 11:26:56.575] $GPGGA,,,,,,,,,,M,,M,,*56
[2021-01-29 11:26:56.762] $GPGGA,,,,,,,,,,M,,M,,*56
[2021-01-29 11:26:56.981] $GPGGA,,,,,,,,,,M,,M,,*56
[2021-01-29 11:26:57.168] $GPGGA,,,,,,,,,,M,,M,,*56
[2021-01-29 11:26:57.372] $GPGGA,,,,,,,,,,M,,M,,*56
[2021-01-29 11:26:57.560] $GPGGA,,,,,,,,,,M,,M,,*56
[2021-01-29 11:26:57.778] $GPGGA,,,,,,,,,,M,,M,,*56
[2021-01-29 11:26:57.966] $GPGGA,,,,,,,,,,M,,M,,*56
[2021-01-29 11:26:58.178] $GPGGA,,,,,,,,,,M,,M,,*56
[2021-01-29 11:26:58.370] $GPGGA,,,,,,,,,,M,,M,,*56
[2021-01-29 11:26:58.578] $GPGGA,,,,,,,,,,M,,M,,*56
[2021-01-29 11:26:58.770] $GPGGA,,,,,,,,,,M,,M,,*56
[2021-01-29 11:26:58.978] $GPGGA,,,,,,,,,,M,,M,,*56
[2021-01-29 11:26:59.160] $GPGGA,,,,,,,,,,M,,M,,*56
[2021-01-29 11:26:59.376] $GPGGA,,,,,,,,,,M,,M,,*56
[2021-01-29 11:26:59.564] $GPGGA,,,,,,,,,,M,,M,,*56
[2021-01-29 11:26:59.767] $GPGGA,,,,,,,,,,M,,M,,*56
[2021-01-29 11:26:59.970] $GPGGA,,,,,,,,,,M,,M,,*56
[2021-01-29 11:27:00.173] $GPGGA,,,,,,,,,,M,,M,,*56
[2021-01-29 11:27:00.362] $GPGGA,,,,,,,,,,M,,M,,*56
[2021-01-29 11:27:00.581] $GPGGA,,,,,,,,,,M,,M,,*56
[2021-01-29 11:27:00.768] $GPGGA,,,,,,,,,,M,,M,,*56
[2021-01-29 11:27:00.971] $GPGGA,,,,,,,,,,M,,M,,*56
[2021-01-29 11:27:01.174] $GPGGA,,,,,,,,,,M,,M,,*56
[2021-01-29 11:27:01.379] $GPGGA,,,,,,,,,,M,,M,,*56
[2021-01-29 11:27:01.567] $GPGGA,,,,,,,,,,M,,M,,*56
[2021-01-29 11:27:01.770] $GPGGA,,,,,,,,,,M,,M,,*56
[2021-01-29 11:27:01.973] $GPGGA,,,,,,,,,,M,,M,,*56
[2021-01-29 11:27:02.176] $GPGGA,,,,,,,,,,M,,M,,*56
[2021-01-29 11:27:02.380] $GPGGA,,,,,,,,,,M,,M,,*56
[2021-01-29 11:27:02.568] $GPGGA,,,,,,,,,,M,,M,,*56
[2021-01-29 11:27:02.771] $GPGGA,,,,,,,,,,M,,M,,*56
[2021-01-29 11:27:02.974] $GPGGA,,,,,,,,,,M,,M,,*56
[2021-01-29 11:27:03.161] $GPGGA,,,,,,,,,,M,,M,,*56
[2021-01-29 11:27:03.367] $GPGGA,,,,,,,,,,M,,M,,*56
[2021-01-29 11:27:03.586] $GPGGA,,,,,,,,,,M,,M,,*56
[2021-01-29 11:27:03.774] $GPGGA,,,,,,,,,,M,,M,,*56
[2021-01-29 11:27:03.961] $GPGGA,,,,,,,,,,M,,M,,*56
[2021-01-29 11:27:04.180] $GPGGA,,,,,,,,,,M,,M,,*56
[2021-01-29 11:27:04.384] $GPGGA,,,,,,,,,,M,,M,,*56
[2021-01-29 11:27:04.571] $GPGGA,,,,,,,,,,M,,M,,*56
[2021-01-29 11:27:04.775] $GPGGA,,,,,,,,,,M,,M,,*56
[2021-01-29 11:27:04.978] $GPGGA,,,,,,,,,,M,,M,,*56
[2021-01-29 11:27:05.181] $GPGGA,,,,,,,,,,M,,M,,*56
[2021-01-29 11:27:05.369] $GPGGA,,,,,,,,,,M,,M,,*56
[2021-01-29 11:27:05.572] $GPGGA,,,,,,,,,,M,,M,,*56
[2021-01-29 11:27:05.776] $GPGGA,,,,,,,,,,M,,M,,*56
[2021-01-29 11:27:05.979] $GPGGA,,,,,,,,,,M,,M,,*56
[2021-01-29 11:27:06.166] $GPGGA,,,,,,,,,,M,,M,,*56
[2021-01-29 11:27:06.387] $GPGGA,,,,,,,,,,M,,M,,*56
[2021-01-29 11:27:06.575] $GPGGA,,,,,,,,,,M,,M,,*56
[2021-01-29 11:27:06.778] $GPGGA,,,,,,,,,,M,,M,,*56
[2021-01-29 11:27:06.966] $GPGGA,,,,,,,,,,M,,M,,*56
[2021-01-29 11:27:07.184] $GPGGA,,,,,,,,,,M,,M,,*56
[2021-01-29 11:27:07.372] $GPGGA,,,,,,,,,,M,,M,,*56
[2021-01-29 11:27:07.575] $GPGGA,,,,,,,,,,M,,M,,*56
[2021-01-29 11:27:07.778] $GPGGA,,,,,,,,,,M,,M,,*56
[2021-01-29 11:27:07.981] $GPGGA,,,,,,,,,,M,,M,,*56
[2021-01-29 11:27:08.169] $GPGGA,,,,,,,,,,M,,M,,*56
[2021-01-29 11:27:08.375] $GPGGA,,,,,,,,,,M,,M,,*56
[2021-01-29 11:27:08.578] $GPGGA,,,,,,,,,,M,,M,,*56
[2021-01-29 11:27:08.781] $GPGGA,,,,,,,,,,M,,M,,*56
[2021-01-29 11:27:08.968] $GPGGA,,,,,,,,,,M,,M,,*56
[2021-01-29 11:27:09.187] $GPGGA,,,,,,,,,,M,,M,,*56
[2021-01-29 11:27:09.375] $GPGGA,,,,,,,,,,M,,M,,*56
[2021-01-29 11:27:09.578] $GPGGA,,,,,,,,,,M,,M,,*56
[2021-01-29 11:27:09.766] $GPGGA,,,,,,,,,,M,,M,,*56
[2021-01-29 11:27:09.984] $GPGGA,,,,,,,,,,M,,M,,*56
[2021-01-29 11:27:10.172] $GPGGA,,,,,,,,,,M,,M,,*56
[2021-01-29 11:27:10.377] $GPGGA,,,,,,,,,,M,,M,,*56
[2021-01-29 11:27:10.564] $GPGGA,,,,,,,,,,M,,M,,*56
[2021-01-29 11:27:10.783] $GPGGA,,,,,,,,,,M,,M,,*56
[2021-01-29 11:27:10.970] $GPGGA,,,,,,,,,,M,,M,,*56
[2021-01-29 11:27:11.173] $GPGGA,,,,,,,,,,M,,M,,*56
[2021-01-29 11:27:11.378] $GPGGA,,,,,,,,,,M,,M,,*56
[2021-01-29 11:27:11.581] $GPGGA,,,,,,,,,,M,,M,,*56
[2021-01-29 11:27:11.769] $GPGGA,,,,,,,,,,M,,M,,*56
[2021-01-29 11:27:11.972] $GPGGA,,,,,,,,,,M,,M,,*56
[2021-01-29 11:27:12.175] $GPGGA,,,,,,,,,,M,,M,,*56
[2021-01-29 11:27:12.382] $GPGGA,,,,,,,,,,M,,M,,*56
[2021-01-29 11:27:12.569] $GPGGA,,,,,,,,,,M,,M,,*56
[2021-01-29 11:27:12.772] $GPGGA,,,,,,,,,,M,,M,,*56
[2021-01-29 11:27:12.975] $GPGGA,,,,,,,,,,M,,M,,*56
[2021-01-29 11:27:13.178] $GPGGA,,,,,,,,,,M,,M,,*56
[2021-01-29 11:27:13.366] $GPGGA,,,,,,,,,,M,,M,,*56
[2021-01-29 11:27:13.585] $GPGGA,,,,,,,,,,M,,M,,*56
[2021-01-29 11:27:13.773] $GPGGA,,,,,,,,,,M,,M,,*56
[2021-01-29 11:27:13.976] $GPGGA,,,,,,,,,,M,,M,,*56
[2021-01-29 11:27:14.163] $GPGGA,,,,,,,,,,M,,M,,*56
[2021-01-29 11:27:14.383] $GPGGA,,,,,,,,,,M,,M,,*56
[2021-01-29 11:27:14.570] $GPGGA,,,,,,,,,,M,,M,,*56
[2021-01-29 11:27:14.774] $GPGGA,,,,,,,,,,M,,M,,*56
[2021-01-29 11:27:14.977] $GPGGA,,,,,,,,,,M,,M,,*56
[2021-01-29 11:27:15.180] $GPGGA,,,,,,,,,,M,,M,,*56
[2021-01-29 11:27:15.369] $GPGGA,,,,,,,,,,M,,M,,*56
[2021-01-29 11:27:15.572] $GPGGA,,,,,,,,,,M,,M,,*56
[2021-01-29 11:27:15.775] $GPGGA,,,,,,,,,,M,,M,,*56
[2021-01-29 11:27:15.978] $GPGGA,,,,,,,,,,M,,M,,*56
[2021-01-29 11:27:16.166] $GPGGA,,,,,,,,,,M,,M,,*56
[2021-01-29 11:27:16.371] $GPGGA,,,,,,,,,,M,,M,,*56
[2021-01-29 11:27:16.574] $GPGGA,,,,,,,,,,M,,M,,*56
[2021-01-29 11:27:16.777] $GPGGA,,,,,,,,,,M,,M,,*56
[2021-01-29 11:27:16.964] $GPGGA,,,,,,,,,,M,,M,,*56
[2021-01-29 11:27:17.183] $GPGGA,,,,,,,,,,M,,M,,*56
[2021-01-29 11:27:17.372] $GPGGA,,,,,,,,,,M,,M,,*56
[2021-01-29 11:27:17.575] $GPGGA,,,,,,,,,,M,,M,,*56
[2021-01-29 11:27:17.763] $GPGGA,,,,,,,,,,M,,M,,*56
[2021-01-29 11:27:17.982] $GPGGA,,,,,,,,,,M,,M,,*56
[2021-01-29 11:27:18.169] $GPGGA,,,,,,,,,,M,,M,,*56
[2021-01-29 11:27:18.373] $GPGGA,,,,,,,,,,M,,M,,*56
[2021-01-29 11:27:18.576] $GPGGA,,,,,,,,,,M,,M,,*56
[2021-01-29 11:27:18.779] $GPGGA,,,,,,,,,,M,,M,,*56
[2021-01-29 11:27:18.967] $GPGGA,,,,,,,,,,M,,M,,*56
[2021-01-29 11:27:19.186] $GPGGA,,,,,,,,,,M,,M,,*56
[2021-01-29 11:27:19.375] $GPGGA,,,,,,,,,,M,,M,,*56
[2021-01-29 11:27:19.578] $GPGGA,,,,,,,,,,M,,M,,*56
[2021-01-29 11:27:19.766] $GPGGA,,,,,,,,,,M,,M,,*56
[2021-01-29 11:27:19.985] $GPGGA,,,,,,,,,,M,,M,,*56
[2021-01-29 11:27:20.172] $GPGGA,,,,,,,,,,M,,M,,*56
[2021-01-29 11:27:20.378] $GPGGA,,,,,,,,,,M,,M,,*56
[2021-01-29 11:27:20.565] $GPGGA,,,,,,,,,,M,,M,,*56
[2021-01-29 11:27:20.768] $GPGGA,,,,,,,,,,M,,M,,*56
[2021-01-29 11:27:20.971] $GPGGA,,,,,,,,,,M,,M,,*56
[2021-01-29 11:27:21.174] $GPGGA,,,,,,,,,,M,,M,,*56
[2021-01-29 11:27:21.362] $GPGGA,,,,,,,,,,M,,M,,*56
[2021-01-29 11:27:21.581] $GPGGA,,,,,,,,,,M,,M,,*56
[2021-01-29 11:27:21.768] $GPGGA,,,,,,,,,,M,,M,,*56
[2021-01-29 11:27:21.971] $GPGGA,,,,,,,,,,M,,M,,*56
[2021-01-29 11:27:22.174] $GPGGA,,,,,,,,,,M,,M,,*56
[2021-01-29 11:27:22.380] $GPGGA,,,,,,,,,,M,,M,,*56
[2021-01-29 11:27:22.567] $GPGGA,,,,,,,,,,M,,M,,*56
[2021-01-29 11:27:22.770] $GPGGA,,,,,,,,,,M,,M,,*56
[2021-01-29 11:27:22.973] $GPGGA,,,,,,,,,,M,,M,,*56
[2021-01-29 11:27:23.176] $GPGGA,,,,,,,,,,M,,M,,*56
[2021-01-29 11:27:23.381] $GPGGA,,,,,,,,,,M,,M,,*56
[2021-01-29 11:27:23.569] $GPGGA,,,,,,,,,,M,,M,,*56
[2021-01-29 11:27:23.772] $GPGGA,,,,,,,,,,M,,M,,*56
[2021-01-29 11:27:23.975] $GPGGA,,,,,,,,,,M,,M,,*56
[2021-01-29 11:27:24.162] $GPGGA,,,,,,,,,,M,,M,,*56
[2021-01-29 11:27:24.383] $GPGGA,,,,,,,,,,M,,M,,*56
[2021-01-29 11:27:24.570] $GPGGA,,,,,,,,,,M,,M,,*56
[2021-01-29 11:27:24.773] $GPGGA,,,,,,,,,,M,,M,,*56
[2021-01-29 11:27:24.961] $GPGGA,,,,,,,,,,M,,M,,*56
[2021-01-29 11:27:25.179] $GPGGA,,,,,,,,,,M,,M,,*56
[2021-01-29 11:27:25.369] $GPGGA,,,,,,,,,,M,,M,,*56
[2021-01-29 11:27:25.572] $GPGGA,,,,,,,,,,M,,M,,*56
[2021-01-29 11:27:25.775] $GPGGA,,,,,,,,,,M,,M,,*56
[2021-01-29 11:27:25.978] $GPGGA,,,,,,,,,,M,,M,,*56
[2021-01-29 11:27:26.166] $GPGGA,,,,,,,,,,M,,M,,*56
[2021-01-29 11:27:26.370] $GPGGA,,,,,,,,,,M,,M,,*56
[2021-01-29 11:27:26.573] $GPGGA,,,,,,,,,,M,,M,,*56
[2021-01-29 11:27:26.776] $GPGGA,,,,,,,,,,M,,M,,*56
[2021-01-29 11:27:26.963] $GPGGA,,,,,,,,,,M,,M,,*56
[2021-01-29 11:27:27.167] $GPGGA,,,,,,,,,,M,,M,,*56
[2021-01-29 11:27:27.372] $GPGGA,,,,,,,,,,M,,M,,*56
[2021-01-29 11:27:27.575] $GPGGA,,,,,,,,,,M,,M,,*56
[2021-01-29 11:27:27.762] $GPGGA,,,,,,,,,,M,,M,,*56
[2021-01-29 11:27:27.981] $GPGGA,,,,,,,,,,M,,M,,*56
[2021-01-29 11:27:28.168] $GPGGA,,,,,,,,,,M,,M,,*56
[2021-01-29 11:27:28.372] $GPGGA,,,,,,,,,,M,,M,,*56
[2021-01-29 11:27:28.559] $GPGGA,,,,,,,,,,M,,M,,*56
[2021-01-29 11:27:28.778] $GPGGA,,,,,,,,,,M,,M,,*56
[2021-01-29 11:27:28.966] $GPGGA,,,,,,,,,,M,,M,,*56
[2021-01-29 11:27:29.169] $GPGGA,,,,,,,,,,M,,M,,*56
[2021-01-29 11:27:29.374] $GPGGA,,,,,,,,,,M,,M,,*56
[2021-01-29 11:27:29.577] $GPGGA,,,,,,,,,,M,,M,,*56
[2021-01-29 11:27:29.765] $GPGGA,,,,,,,,,,M,,M,,*56
[2021-01-29 11:27:29.968] $GPGGA,,,,,,,,,,M,,M,,*56
[2021-01-29 11:27:30.171] $GPGGA,,,,,,,,,,M,,M,,*56
[2021-01-29 11:27:30.376] $GPGGA,,,,,,,,,,M,,M,,*56
[2021-01-29 11:27:30.563] $GPGGA,,,,,,,,,,M,,M,,*56
[2021-01-29 11:27:30.766] $GPGGA,,,,,,,,,,M,,M,,*56
[2021-01-29 11:27:30.969] $GPGGA,,,,,,,,,,M,,M,,*56
[2021-01-29 11:27:31.173] $GPGGA,,,,,,,,,,M,,M,,*56
[2021-01-29 11:27:31.362] $GPGGA,,,,,,,,,,M,,M,,*56
[2021-01-29 11:27:31.565] $GPGGA,,,,,,,,,,M,,M,,*56
[2021-01-29 11:27:31.768] $GPGGA,,,,,,,,,,M,,M,,*56
[2021-01-29 11:27:31.971] $GPGGA,,,,,,,,,,M,,M,,*56
[2021-01-29 11:27:32.158] $GPGGA,,,,,,,,,,M,,M,,*56
[2021-01-29 11:27:32.379] $GPGGA,,,,,,,,,,M,,M,,*56
[2021-01-29 11:27:32.566] $GPGGA,,,,,,,,,,M,,M,,*56
[2021-01-29 11:27:32.769] $GPGGA,,,,,,,,,,M,,M,,*56
[2021-01-29 11:27:32.973] $GPGGA,,,,,,,,,,M,,M,,*56
[2021-01-29 11:27:33.176] $GPGGA,,,,,,,,,,M,,M,,*56
[2021-01-29 11:27:33.381] $GPGGA,,,,,,,,,,M,,M,,*56
[2021-01-29 11:27:33.568] $GPGGA,,,,,,,,,,M,,M,,*56
[2021-01-29 11:27:33.787] $GPGGA,,,,,,,,,,M,,M,,*56
[2021-01-29 11:27:33.974] $GPGGA,,,,,,,,,,M,,M,,*56
[2021-01-29 11:27:34.162] $GPGGA,,,,,,,,,,M,,M,,*56
[2021-01-29 11:27:34.366] $GPGGA,,,,,,,,,,M,,M,,*56
[2021-01-29 11:27:34.585] $GPGGA,,,,,,,,,,M,,M,,*56
[2021-01-29 11:27:34.773] $GPGGA,,,,,,,,,,M,,M,,*56
[2021-01-29 11:27:34.976] $GPGGA,,,,,,,,,,M,,M,,*56
[2021-01-29 11:27:35.179] $GPGGA,,,,,,,,,,M,,M,,*56
[2021-01-29 11:27:35.384] $GPGGA,,,,,,,,,,M,,M,,*56
[2021-01-29 11:27:35.572] $GPGGA,,,,,,,,,,M,,M,,*56
[2021-01-29 11:27:35.775] $GPGGA,,,,,,,,,,M,,M,,*56
[2021-01-29 11:27:35.978] $GPGGA,,,,,,,,,,M,,M,,*56
[2021-01-29 11:27:36.181] $GPGGA,,,,,,,,,,M,,M,,*56
[2021-01-29 11:27:36.370] $GPGGA,,,,,,,,,,M,,M,,*56
[2021-01-29 11:27:36.573] $GPGGA,,,,,,,,,,M,,M,,*56
[2021-01-29 11:27:36.776] $GPGGA,,,,,,,,,,M,,M,,*56
[2021-01-29 11:27:36.979] $GPGGA,,,,,,,,,,M,,M,,*56
[2021-01-29 11:27:37.166] $GPGGA,,,,,,,,,,M,,M,,*56
[2021-01-29 11:27:37.387] $GPGGA,,,,,,,,,,M,,M,,*56
[2021-01-29 11:27:37.574] $GPGGA,,,,,,,,,,M,,M,,*56
[2021-01-29 11:27:37.777] $GPGGA,,,,,,,,,,M,,M,,*56
[2021-01-29 11:27:37.965] $GPGGA,,,,,,,,,,M,,M,,*56
[2021-01-29 11:27:38.183] $GPGGA,,,,,,,,,,M,,M,,*56
[2021-01-29 11:27:38.375] $GPGGA,,,,,,,,,,M,,M,,*56
[2021-01-29 11:27:38.578] $GPGGA,,,,,,,,,,M,,M,,*56
[2021-01-29 11:27:38.765] $GPGGA,,,,,,,,,,M,,M,,*56
[2021-01-29 11:27:38.984] $GPGGA,,,,,,,,,,M,,M,,*56
[2021-01-29 11:27:39.171] $GPGGA,,,,,,,,,,M,,M,,*56
[2021-01-29 11:27:39.374] $GPGGA,,,,,,,,,,M,,M,,*56
[2021-01-29 11:27:39.577] $GPGGA,,,,,,,,,,M,,M,,*56
[2021-01-29 11:27:39.781] $GPGGA,,,,,,,,,,M,,M,,*56
[2021-01-29 11:27:39.968] $GPGGA,,,,,,,,,,M,,M,,*56
[2021-01-29 11:27:40.187] $GPGGA,,,,,,,,,,M,,M,,*56
[2021-01-29 11:27:40.375] $GPGGA,,,,,,,,,,M,,M,,*56
[2021-01-29 11:27:40.578] $GPGGA,,,,,,,,,,M,,M,,*56
[2021-01-29 11:27:40.781] $GPGGA,,,,,,,,,,M,,M,,*56
[2021-01-29 11:27:40.984] $GPGGA,,,,,,,,,,M,,M,,*56
[2021-01-29 11:27:41.172] $GPGGA,,,,,,,,,,M,,M,,*56
[2021-01-29 11:27:41.376] $GPGGA,,,,,,,,,,M,,M,,*56
[2021-01-29 11:27:41.564] $GPGGA,,,,,,,,,,M,,M,,*56
[2021-01-29 11:27:41.783] $GPGGA,,,,,,,,,,M,,M,,*56
[2021-01-29 11:27:41.970] $GPGGA,,,,,,,,,,M,,M,,*56
[2021-01-29 11:27:42.173] $GPGGA,,,,,,,,,,M,,M,,*56
[2021-01-29 11:27:42.378] $GPGGA,,,,,,,,,,M,,M,,*56
[2021-01-29 11:27:42.581] $GPGGA,,,,,,,,,,M,,M,,*56
[2021-01-29 11:27:42.768] $GPGGA,,,,,,,,,,M,,M,,*56
[2021-01-29 11:27:42.971] $GPGGA,,,,,,,,,,M,,M,,*56
[2021-01-29 11:27:43.174] $GPGGA,,,,,,,,,,M,,M,,*56
[2021-01-29 11:27:43.381] $GPGGA,,,,,,,,,,M,,M,,*56
[2021-01-29 11:27:43.569] $GPGGA,,,,,,,,,,M,,M,,*56
[2021-01-29 11:27:43.772] $GPGGA,,,,,,,,,,M,,M,,*56
[2021-01-29 11:27:43.975] $GPGGA,,,,,,,,,,M,,M,,*56
[2021-01-29 11:27:44.178] $GPGGA,,,,,,,,,,M,,M,,*56
[2021-01-29 11:27:44.366] $GPGGA,,,,,,,,,,M,,M,,*56
[2021-01-29 11:27:44.569] $GPGGA,,,,,,,,,,M,,M,,*56
[2021-01-29 11:27:44.772] $GPGGA,,,,,,,,,,M,,M,,*56
[2021-01-29 11:27:44.975] $GPGGA,,,,,,,,,,M,,M,,*56
[2021-01-29 11:27:45.178] $GPGGA,,,,,,,,,,M,,M,,*56
[2021-01-29 11:27:45.383] $GPGGA,,,,,,,,,,M,,M,,*56
[2021-01-29 11:27:45.571] $GPGGA,,,,,,,,,,M,,M,,*56
[2021-01-29 11:27:45.774] $GPGGA,,,,,,,,,,M,,M,,*56
[2021-01-29 11:27:45.977] $GPGGA,,,,,,,,,,M,,M,,*56
[2021-01-29 11:27:46.180] $GPGGA,,,,,,,,,,M,,M,,*56
[2021-01-29 11:27:46.371] $GPGGA,,,,,,,,,,M,,M,,*56
[2021-01-29 11:27:46.574] $GPGGA,,,,,,,,,,M,,M,,*56
[2021-01-29 11:27:46.777] $GPGGA,,,,,,,,,,M,,M,,*56
[2021-01-29 11:27:46.980] $GPGGA,,,,,,,,,,M,,M,,*56
[2021-01-29 11:27:47.168] $GPGGA,,,,,,,,,,M,,M,,*56
[2021-01-29 11:27:47.369] $GPGGA,,,,,,,,,,M,,M,,*56
[2021-01-29 11:27:47.572] $GPGGA,,,,,,,,,,M,,M,,*56
[2021-01-29 11:27:47.775] $GPGGA,,,,,,,,,,M,,M,,*56
[2021-01-29 11:27:47.963] $GPGGA,,,,,,,,,,M,,M,,*56
[2021-01-29 11:27:48.182] $GPGGA,,,,,,,,,,M,,M,,*56
[2021-01-29 11:27:48.373] $GPGGA,,,,,,,,,,M,,M,,*56
[2021-01-29 11:27:48.577] $GPGGA,,,,,,,,,,M,,M,,*56
[2021-01-29 11:27:48.764] $GPGGA,,,,,,,,,,M,,M,,*56
[2021-01-29 11:27:48.983] $GPGGA,,,,,,,,,,M,,M,,*56
[2021-01-29 11:27:49.170] $GPGGA,,,,,,,,,,M,,M,,*56
[2021-01-29 11:27:49.373] $GPGGA,,,,,,,,,,M,,M,,*56
[2021-01-29 11:27:49.576] $GPGGA,,,,,,,,,,M,,M,,*56
[2021-01-29 11:27:49.779] $GPGGA,,,,,,,,,,M,,M,,*56
[2021-01-29 11:27:49.966] $GPGGA,,,,,,,,,,M,,M,,*56
[2021-01-29 11:27:50.169] $GPGGA,,,,,,,,,,M,,M,,*56
[2021-01-29 11:27:50.374] $GPGGA,,,,,,,,,,M,,M,,*56
[2021-01-29 11:27:50.577] $GPGGA,,,,,,,,,,M,,M,,*56
[2021-01-29 11:27:50.765] $GPGGA,,,,,,,,,,M,,M,,*56
[2021-01-29 11:27:50.968] $GPGGA,,,,,,,,,,M,,M,,*56
[2021-01-29 11:27:51.171] $GPGGA,,,,,,,,,,M,,M,,*56
[2021-01-29 11:27:51.376] $GPGGA,,,,,,,,,,M,,M,,*56
[2021-01-29 11:27:51.564] $GPGGA,,,,,,,,,,M,,M,,*56
[2021-01-29 11:27:51.767] $GPGGA,,,,,,,,,,M,,M,,*56
[2021-01-29 11:27:51.970] $GPGGA,,,,,,,,,,M,,M,,*56
[2021-01-29 11:27:52.173] $GPGGA,,,,,,,,,,M,,M,,*56
[2021-01-29 11:27:52.362] $GPGGA,,,,,,,,,,M,,M,,*56
[2021-01-29 11:27:52.581] $GPGGA,,,,,,,,,,M,,M,,*56
[2021-01-29 11:27:52.768] $GPGGA,,,,,,,,,,M,,M,,*56
[2021-01-29 11:27:52.971] $GPGGA,,,,,,,,,,M,,M,,*56
[2021-01-29 11:27:53.174] $GPGGA,,,,,,,,,,M,,M,,*56
[2021-01-29 11:27:53.381] $GPGGA,,,,,,,,,,M,,M,,*56
[2021-01-29 11:27:53.568] $GPGGA,,,,,,,,,,M,,M,,*56
[2021-01-29 11:27:53.772] $GPGGA,,,,,,,,,,M,,M,,*56
[2021-01-29 11:27:53.975] $GPGGA,,,,,,,,,,M,,M,,*56
[2021-01-29 11:27:54.178] $GPGGA,,,,,,,,,,M,,M,,*56
[2021-01-29 11:27:54.366] $GPGGA,,,,,,,,,,M,,M,,*56
[2021-01-29 11:27:54.569] $GPGGA,,,,,,,,,,M,,M,,*56
[2021-01-29 11:27:54.772] $GPGGA,,,,,,,,,,M,,M,,*56
[2021-01-29 11:27:54.975] $GPGGA,,,,,,,,,,M,,M,,*56
[2021-01-29 11:27:55.163] $GPGGA,,,,,,,,,,M,,M,,*56
[2021-01-29 11:27:55.367] $GPGGA,,,,,,,,,,M,,M,,*56
[2021-01-29 11:27:55.570] $GPGGA,,,,,,,,,,M,,M,,*56
[2021-01-29 11:27:55.773] $GPGGA,,,,,,,,,,M,,M,,*56
[2021-01-29 11:27:55.976] $GPGGA,,,,,,,,,,M,,M,,*56
[2021-01-29 11:27:56.180] $GPGGA,,,,,,,,,,M,,M,,*56
[2021-01-29 11:27:56.369] $GPGGA,,,,,,,,,,M,,M,,*56
[2021-01-29 11:27:56.572] $GPGGA,,,,,,,,,,M,,M,,*56
[2021-01-29 11:27:56.760] $GPGGA,,,,,,,,,,M,,M,,*56
[2021-01-29 11:27:56.979] $GPGGA,,,,,,,,,,M,,M,,*56
[2021-01-29 11:27:57.166] $GPGGA,,,,,,,,,,M,,M,,*56
[2021-01-29 11:27:57.370] $GPGGA,,,,,,,,,,M,,M,,*56
[2021-01-29 11:27:57.573] $GPGGA,,,,,,,,,,M,,M,,*56
[2021-01-29 11:27:57.777] $GPGGA,,,,,,,,,,M,,M,,*56
[2021-01-29 11:27:57.964] $GPGGA,,,,,,,,,,M,,M,,*56
[2021-01-29 11:27:58.167] $GPGGA,,,,,,,,,,M,,M,,*56
[2021-01-29 11:27:58.372] $GPGGA,,,,,,,,,,M,,M,,*56
[2021-01-29 11:27:58.575] $GPGGA,,,,,,,,,,M,,M,,*56
[2021-01-29 11:27:58.762] $GPGGA,,,,,,,,,,M,,M,,*56
[2021-01-29 11:27:58.965] $GPGGA,,,,,,,,,,M,,M,,*56
[2021-01-29 11:27:59.184] $GPGGA,,,,,,,,,,M,,M,,*56
[2021-01-29 11:27:59.374] $GPGGA,,,,,,,,,,M,,M,,*56
[2021-01-29 11:27:59.561] $GPGGA,,,,,,,,,,M,,M,,*56
[2021-01-29 11:27:59.764] $GPGGA,,,,,,,,,,M,,M,,*56
[2021-01-29 11:27:59.983] $GPGGA,,,,,,,,,,M,,M,,*56
[2021-01-29 11:28:00.170] $GPGGA,,,,,,,,,,M,,M,,*56
[2021-01-29 11:28:00.374] $GPGGA,,,,,,,,,,M,,M,,*56
[2021-01-29 11:28:00.577] $GPGGA,,,,,,,,,,M,,M,,*56
[2021-01-29 11:28:00.780] $GPGGA,,,,,,,,,,M,,M,,*56
[2021-01-29 11:28:00.968] $GPGGA,,,,,,,,,,M,,M,,*56
[2021-01-29 11:28:01.187] $GPGGA,,,,,,,,,,M,,M,,*56
[2021-01-29 11:28:01.376] $GPGGA,,,,,,,,,,M,,M,,*56
[2021-01-29 11:28:01.579] $GPGGA,,,,,,,,,,M,,M,,*56
[2021-01-29 11:28:01.767] $GPGGA,,,,,,,,,,M,,M,,*56
[2021-01-29 11:28:01.985] $GPGGA,,,,,,,,,,M,,M,,*56
[2021-01-29 11:28:02.173] $GPGGA,,,,,,,,,,M,,M,,*56
[2021-01-29 11:28:02.378] $GPGGA,,,,,,,,,,M,,M,,*56
[2021-01-29 11:28:02.566] $GPGGA,,,,,,,,,,M,,M,,*56
[2021-01-29 11:28:02.784] $GPGGA,,,,,,,,,,M,,M,,*56
[2021-01-29 11:28:02.972] $GPGGA,,,,,,,,,,M,,M,,*56
[2021-01-29 11:28:03.175] $GPGGA,,,,,,,,,,M,,M,,*56
[2021-01-29 11:28:03.364] $GPGGA,,,,,,,,,,M,,M,,*56
[2021-01-29 11:28:03.583] $GPGGA,,,,,,,,,,M,,M,,*56
[2021-01-29 11:28:03.770] $GPGGA,,,,,,,,,,M,,M,,*56
[2021-01-29 11:28:03.973] $GPGGA,,,,,,,,,,M,,M,,*56
[2021-01-29 11:28:04.176] $GPGGA,,,,,,,,,,M,,M,,*56
[2021-01-29 11:28:04.380] $GPGGA,,,,,,,,,,M,,M,,*56
[2021-01-29 11:28:04.568] $GPGGA,,,,,,,,,,M,,M,,*56
[2021-01-29 11:28:04.786] $GPGGA,,,,,,,,,,M,,M,,*56
[2021-01-29 11:28:04.974] $GPGGA,,,,,,,,,,M,,M,,*56
[2021-01-29 11:28:05.177] $GPGGA,,,,,,,,,,M,,M,,*56
[2021-01-29 11:28:05.367] $GPGGA,,,,,,,,,,M,,M,,*56
[2021-01-29 11:28:05.586] $GPGGA,,,,,,,,,,M,,M,,*56
[2021-01-29 11:28:05.773] $GPGGA,,,,,,,,,,M,,M,,*56
[2021-01-29 11:28:05.976] $GPGGA,,,,,,,,,,M,,M,,*56
[2021-01-29 11:28:06.164] $GPGGA,,,,,,,,,,M,,M,,*56
[2021-01-29 11:28:06.384] $GPGGA,,,,,,,,,,M,,M,,*56
[2021-01-29 11:28:06.572] $GPGGA,,,,,,,,,,M,,M,,*56
[2021-01-29 11:28:06.775] $GPGGA,,,,,,,,,,M,,M,,*56
[2021-01-29 11:28:06.978] $GPGGA,,,,,,,,,,M,,M,,*56
[2021-01-29 11:28:07.181] $GPGGA,,,,,,,,,,M,,M,,*56
[2021-01-29 11:28:07.370] $GPGGA,,,,,,,,,,M,,M,,*56
[2021-01-29 11:28:07.573] $GPGGA,,,,,,,,,,M,,M,,*56
[2021-01-29 11:28:07.776] $GPGGA,,,,,,,,,,M,,M,,*56
[2021-01-29 11:28:07.979] $GPGGA,,,,,,,,,,M,,M,,*56
[2021-01-29 11:28:08.166] $GPGGA,,,,,,,,,,M,,M,,*56
[2021-01-29 11:28:08.371] $GPGGA,,,,,,,,,,M,,M,,*56
[2021-01-29 11:28:08.575] $GPGGA,,,,,,,,,,M,,M,,*56
[2021-01-29 11:28:08.778] $GPGGA,,,,,,,,,,M,,M,,*56
[2021-01-29 11:28:08.965] $GPGGA,,,,,,,,,,M,,M,,*56
[2021-01-29 11:28:09.184] $GPGGA,,,,,,,,,,M,,M,,*56
[2021-01-29 11:28:09.372] $GPGGA,,,,,,,,,,M,,M,,*56
[2021-01-29 11:28:09.575] $GPGGA,,,,,,,,,,M,,M,,*56
[2021-01-29 11:28:09.778] $GPGGA,,,,,,,,,,M,,M,,*56
[2021-01-29 11:28:09.981] $GPGGA,,,,,,,,,,M,,M,,*56
[2021-01-29 11:28:10.169] $GPGGA,022808.80,4327.73246359,N,14148.32369951,E,1,04,22.6,75.869,M,31.590,M,,*6C
[2021-01-29 11:28:10.389] $GPGGA,022809.00,4327.73290440,N,14148.32298218,E,1,04,13.9,75.376,M,31.590,M,,*60
[2021-01-29 11:28:10.482] $GPGGA,022809.10,4327.73288785,N,14148.32301473,E,1,04,13.9,75.392,M,31.590,M,,*62
[2021-01-29 11:28:10.592] $GPGGA,022809.20,4327.73247413,N,14148.32386235,E,1,04,13.9,75.533,M,31.590,M,,*68
[2021-01-29 11:28:10.685] $GPGGA,022809.30,4327.73251028,N,14148.32379563,E,1,04,13.9,75.506,M,31.590,M,,*60
[2021-01-29 11:28:10.795] $GPGGA,022809.40,4327.73210041,N,14148.32464589,E,1,04,13.9,75.575,M,31.590,M,,*66
[2021-01-29 11:28:10.889] $GPGGA,022809.50,4327.73211789,N,14148.32461175,E,1,04,13.9,75.569,M,31.590,M,,*6A
[2021-01-29 11:28:10.982] $GPGGA,022809.60,4327.73197843,N,14148.32491139,E,1,04,13.9,75.917,M,31.590,M,,*6F
[2021-01-29 11:28:11.076] $GPGGA,022809.70,4327.73197293,N,14148.32492410,E,1,04,13.9,75.919,M,31.590,M,,*6A
[2021-01-29 11:28:11.185] $GPGGA,022809.80,4327.73191965,N,14148.32507992,E,1,04,13.9,76.277,M,31.590,M,,*6B
[2021-01-29 11:28:11.266] $GPGGA,022809.90,4327.73190233,N,14148.32510840,E,1,04,13.9,76.285,M,31.590,M,,*66
[2021-01-29 11:28:11.391] $GPGGA,022810.00,4327.73181709,N,14148.32523992,E,1,04,13.9,76.367,M,31.590,M,,*68
[2021-01-29 11:28:11.484] $GPGGA,022810.10,4327.73181092,N,14148.32525328,E,1,04,13.9,76.390,M,31.590,M,,*69
[2021-01-29 11:28:11.594] $GPGGA,022810.20,4327.73190504,N,14148.32509794,E,1,04,13.9,76.300,M,31.590,M,,*64
[2021-01-29 11:28:11.672] $GPGGA,022810.30,4327.73191039,N,14148.32508662,E,1,04,13.9,76.277,M,31.590,M,,*67
[2021-01-29 11:28:11.797] $GPGGA,022810.40,4327.73211292,N,14148.32475719,E,1,04,13.9,76.450,M,31.590,M,,*6D
[2021-01-29 11:28:11.891] $GPGGA,022810.50,4327.73212337,N,14148.32473976,E,1,04,13.9,76.432,M,31.590,M,,*64
[2021-01-29 11:28:11.984] $GPGGA,022810.60,4327.73218481,N,14148.32465859,E,1,04,13.9,76.628,M,31.590,M,,*65
[2021-01-29 11:28:12.078] $GPGGA,022810.70,4327.73219753,N,14148.32463762,E,1,04,13.9,76.656,M,31.590,M,,*61
[2021-01-29 11:28:12.188] $GPGGA,022810.80,4327.73207951,N,14148.32487876,E,1,04,13.9,76.862,M,31.590,M,,*64
[2021-01-29 11:28:12.267] $GPGGA,022810.90,4327.73209426,N,14148.32485560,E,1,04,13.9,76.844,M,31.590,M,,*6A
[2021-01-29 11:28:12.392] $GPGGA,022811.00,4327.73196284,N,14148.32510251,E,1,04,13.9,77.075,M,31.590,M,,*6A
[2021-01-29 11:28:12.470] $GPGGA,022811.10,4327.73197752,N,14148.32507190,E,1,04,13.9,77.051,M,31.590,M,,*6A
[2021-01-29 11:28:12.595] $GPGGA,022811.20,4327.73184592,N,14148.32529952,E,1,04,13.9,77.276,M,31.590,M,,*68
[2021-01-29 11:28:12.673] $GPGGA,022811.30,4327.73183361,N,14148.32532092,E,1,04,13.9,77.295,M,31.590,M,,*66
[2021-01-29 11:28:12.798] $GPGGA,022811.40,4327.72106696,N,14148.34539922,E,1,07,1.8,110.352,M,31.590,M,,*64
[2021-01-29 11:28:12.892] $GPGGA,022811.50,4327.72107053,N,14148.34539940,E,1,06,1.8,110.372,M,31.590,M,,*6C
[2021-01-29 11:28:12.986] $GPGGA,022811.60,4327.72131570,N,14148.34515563,E,1,08,1.6,110.885,M,31.590,M,,*6E
[2021-01-29 11:28:13.080] $GPGGA,022811.70,4327.72131728,N,14148.34515616,E,1,08,1.6,110.903,M,31.590,M,,*6E
[2021-01-29 11:28:13.189] $GPGGA,022811.80,4327.72148110,N,14148.34546272,E,1,10,1.1,109.442,M,31.590,M,,*6C
[2021-01-29 11:28:13.286] $GPGGA,022811.90,4327.72148172,N,14148.34546306,E,1,09,1.1,109.440,M,31.590,M,,*61
[2021-01-29 11:28:13.380] $GPGGA,022812.00,4327.72158303,N,14148.34538004,E,1,10,1.1,109.465,M,31.590,M,,*69
[2021-01-29 11:28:13.489] $GPGGA,022812.10,4327.72158411,N,14148.34537929,E,1,10,1.1,109.459,M,31.590,M,,*6A
[2021-01-29 11:28:13.598] $GPGGA,022812.20,4327.72162093,N,14148.34534975,E,1,10,1.1,109.478,M,31.590,M,,*67
[2021-01-29 11:28:13.692] $GPGGA,022812.30,4327.72162453,N,14148.34534850,E,1,10,1.1,109.476,M,31.590,M,,*66
[2021-01-29 11:28:13.786] $GPGGA,022812.40,4327.72168635,N,14148.34531998,E,1,11,1.0,109.656,M,31.590,M,,*69
[2021-01-29 11:28:13.895] $GPGGA,022812.50,4327.72168766,N,14148.34531837,E,1,10,1.0,109.656,M,31.590,M,,*6A
[2021-01-29 11:28:13.989] $GPGGA,022812.60,4327.72174944,N,14148.34533261,E,1,11,1.0,110.039,M,31.590,M,,*67
[2021-01-29 11:28:14.083] $GPGGA,022812.70,4327.72175068,N,14148.34533111,E,1,11,1.0,110.042,M,31.590,M,,*68
[2021-01-29 11:28:14.192] $GPGGA,022812.80,4327.72183697,N,14148.34532334,E,1,11,1.0,110.394,M,31.590,M,,*64
[2021-01-29 11:28:14.287] $GPGGA,022812.90,4327.72183771,N,14148.34532554,E,1,11,1.0,110.393,M,31.590,M,,*6B
[2021-01-29 11:28:14.396] $GPGGA,022813.00,4327.72191931,N,14148.34534567,E,1,11,1.0,110.711,M,31.590,M,,*62
[2021-01-29 11:28:14.490] $GPGGA,022813.10,4327.72192009,N,14148.34534627,E,1,11,1.0,110.711,M,31.590,M,,*65
[2021-01-29 11:28:14.599] $GPGGA,022813.20,4327.72199022,N,14148.34536524,E,1,11,1.0,110.965,M,31.590,M,,*6B
[2021-01-29 11:28:14.693] $GPGGA,022813.30,4327.72198827,N,14148.34536592,E,1,11,1.0,110.966,M,31.590,M,,*68
[2021-01-29 11:28:14.802] $GPGGA,022813.40,4327.72205094,N,14148.34537140,E,1,11,1.0,111.158,M,31.590,M,,*66
[2021-01-29 11:28:14.880] $GPGGA,022813.50,4327.72205197,N,14148.34537021,E,1,11,1.0,111.157,M,31.590,M,,*6C
[2021-01-29 11:28:14.990] $GPGGA,022813.60,4327.72209933,N,14148.34537820,E,1,11,1.0,111.306,M,31.590,M,,*6A
[2021-01-29 11:28:15.084] $GPGGA,022813.70,4327.72209974,N,14148.34537703,E,1,11,1.0,111.300,M,31.590,M,,*60
[2021-01-29 11:28:15.193] $GPGGA,022813.80,4327.72213899,N,14148.34538234,E,1,11,1.0,111.405,M,31.590,M,,*6A
[2021-01-29 11:28:15.289] $GPGGA,022813.90,4327.72213922,N,14148.34538487,E,1,11,1.0,111.405,M,31.590,M,,*64
[2021-01-29 11:28:15.398] $GPGGA,022814.00,4327.72217337,N,14148.34538127,E,1,11,1.0,111.519,M,31.590,M,,*63
[2021-01-29 11:28:15.492] $GPGGA,022814.10,4327.72217510,N,14148.34538092,E,1,11,1.0,111.523,M,31.590,M,,*67
[2021-01-29 11:28:15.601] $GPGGA,022814.20,4327.72222933,N,14148.34540393,E,1,12,1.0,111.661,M,31.590,M,,*64
[2021-01-29 11:28:15.679] $GPGGA,022814.30,4327.72223084,N,14148.34540432,E,1,12,1.0,111.658,M,31.590,M,,*67
[2021-01-29 11:28:15.789] $GPGGA,022814.40,4327.72228067,N,14148.34541533,E,1,12,1.0,111.758,M,31.590,M,,*66
[2021-01-29 11:28:15.882] $GPGGA,022814.50,4327.72228061,N,14148.34541626,E,1,12,1.0,111.760,M,31.590,M,,*6D
[2021-01-29 11:28:15.992] $GPGGA,022814.60,4327.72231979,N,14148.34542227,E,1,12,1.0,111.830,M,31.590,M,,*6A
[2021-01-29 11:28:16.085] $GPGGA,022814.70,4327.72232047,N,14148.34542237,E,1,12,1.0,111.825,M,31.590,M,,*69
[2021-01-29 11:28:16.195] $GPGGA,022814.80,4327.72235008,N,14148.34542670,E,1,12,1.0,111.880,M,31.590,M,,*62
[2021-01-29 11:28:16.289] $GPGGA,022814.90,4327.72235072,N,14148.34542510,E,1,12,1.0,111.872,M,31.590,M,,*66
[2021-01-29 11:28:16.399] $GPGGA,022815.00,4327.72237333,N,14148.34542762,E,1,12,1.0,111.908,M,31.590,M,,*61
[2021-01-29 11:28:16.493] $GPGGA,022815.10,4327.72237348,N,14148.34542937,E,1,12,1.0,111.909,M,31.590,M,,*63
[2021-01-29 11:28:16.602] $GPGGA,022815.20,4327.72239237,N,14148.34543043,E,1,12,1.0,111.930,M,31.590,M,,*66
[2021-01-29 11:28:16.696] $GPGGA,022815.30,4327.72239420,N,14148.34543001,E,1,12,1.0,111.926,M,31.590,M,,*66
[2021-01-29 11:28:16.789] $GPGGA,022815.40,4327.72241141,N,14148.34543332,E,1,12,1.0,111.953,M,31.590,M,,*6D
[2021-01-29 11:28:16.883] $GPGGA,022815.50,4327.72241251,N,14148.34543491,E,1,12,1.0,111.949,M,31.590,M,,*6B
[2021-01-29 11:28:16.993] $GPGGA,022815.60,4327.72243049,N,14148.34543739,E,1,13,0.9,111.981,M,31.590,M,,*6D
[2021-01-29 11:28:17.086] $GPGGA,022815.70,4327.72242910,N,14148.34543812,E,1,12,0.9,111.971,M,31.590,M,,*60
[2021-01-29 11:28:17.196] $GPGGA,022815.80,4327.72244209,N,14148.34544064,E,1,13,0.9,112.002,M,31.590,M,,*6B
[2021-01-29 11:28:17.291] $GPGGA,022815.90,4327.72244290,N,14148.34544221,E,1,13,0.9,111.991,M,31.590,M,,*69
[2021-01-29 11:28:17.400] $GPGGA,022816.00,4327.72245405,N,14148.34544718,E,1,13,0.9,112.004,M,31.590,M,,*61
[2021-01-29 11:28:17.494] $GPGGA,022816.10,4327.72245396,N,14148.34544407,E,1,13,0.9,112.005,M,31.590,M,,*61
[2021-01-29 11:28:17.588] $GPGGA,022816.20,4327.72246439,N,14148.34544785,E,1,13,0.9,112.012,M,31.590,M,,*6C
[2021-01-29 11:28:17.681] $GPGGA,022816.30,4327.72246378,N,14148.34544717,E,1,13,0.9,112.013,M,31.590,M,,*65
[2021-01-29 11:28:17.791] $GPGGA,022816.40,4327.72247192,N,14148.34544746,E,1,13,0.9,112.025,M,31.590,M,,*64
[2021-01-29 11:28:17.885] $GPGGA,022816.50,4327.72247252,N,14148.34544802,E,1,13,0.9,112.018,M,31.590,M,,*6B
[2021-01-29 11:28:17.994] $GPGGA,022816.60,4327.72248004,N,14148.34544753,E,1,13,0.9,112.023,M,31.590,M,,*65
[2021-01-29 11:28:18.072] $GPGGA,022816.70,4327.72247896,N,14148.34545003,E,1,13,0.9,112.022,M,31.590,M,,*6A
[2021-01-29 11:28:18.197] $GPGGA,022816.80,4327.72248673,N,14148.34544996,E,1,13,0.9,112.025,M,31.590,M,,*6C
[2021-01-29 11:28:18.292] $GPGGA,022816.90,4327.72248726,N,14148.34545048,E,1,13,0.9,112.021,M,31.590,M,,*63
[2021-01-29 11:28:18.402] $GPGGA,022817.00,4327.72249288,N,14148.34545242,E,1,13,0.9,112.029,M,31.590,M,,*6B
[2021-01-29 11:28:18.480] $GPGGA,022817.10,4327.72249373,N,14148.34545307,E,1,13,0.9,112.022,M,31.590,M,,*64
[2021-01-29 11:28:18.589] $GPGGA,022817.20,4327.72250203,N,14148.34545206,E,1,13,0.9,112.045,M,31.590,M,,*68
[2021-01-29 11:28:18.683] $GPGGA,022817.30,4327.72250326,N,14148.34544967,E,1,13,0.9,112.049,M,31.590,M,,*6E
[2021-01-29 11:28:18.792] $GPGGA,022817.40,4327.72250887,N,14148.34545003,E,1,13,0.9,112.062,M,31.590,M,,*6A
[2021-01-29 11:28:18.886] $GPGGA,022817.50,4327.72251206,N,14148.34545017,E,1,13,0.9,112.061,M,31.590,M,,*6F
[2021-01-29 11:28:18.995] $GPGGA,022817.60,4327.72251458,N,14148.34544739,E,1,13,0.9,112.065,M,31.590,M,,*6F
[2021-01-29 11:28:19.089] $GPGGA,022817.70,4327.72251520,N,14148.34544714,E,1,13,0.9,112.062,M,31.590,M,,*68
[2021-01-29 11:28:19.199] $GPGGA,022817.80,4327.72251765,N,14148.34544683,E,1,13,0.9,112.067,M,31.590,M,,*6E
[2021-01-29 11:28:19.280] $GPGGA,022817.90,4327.72251760,N,14148.34544668,E,1,13,0.9,112.069,M,31.590,M,,*61
[2021-01-29 11:28:19.390] $GPGGA,022818.00,4327.72251853,N,14148.34544749,E,1,13,0.9,112.066,M,31.590,M,,*65
[2021-01-29 11:28:19.483] $GPGGA,022818.10,4327.72251811,N,14148.34544784,E,1,13,0.9,112.062,M,31.590,M,,*67
[2021-01-29 11:28:19.593] $GPGGA,022818.20,4327.72252274,N,14148.34544792,E,1,13,0.9,112.069,M,31.590,M,,*62
[2021-01-29 11:28:19.686] $GPGGA,022818.30,4327.72252242,N,14148.34544816,E,1,13,0.9,112.071,M,31.590,M,,*6C
[2021-01-29 11:28:19.796] $GPGGA,022818.40,4327.72252454,N,14148.34544586,E,1,13,0.9,112.077,M,31.590,M,,*68
[2021-01-29 11:28:19.890] $GPGGA,022818.50,4327.72252534,N,14148.34544444,E,1,13,0.9,112.084,M,31.590,M,,*6D
[2021-01-29 11:28:19.999] $GPGGA,022818.60,4327.72252413,N,14148.34544454,E,1,13,0.9,112.083,M,31.590,M,,*6C
[2021-01-29 11:28:20.077] $GPGGA,022818.70,4327.72252523,N,14148.34544467,E,1,13,0.9,112.091,M,31.590,M,,*6C
[2021-01-29 11:28:20.186] $GPGGA,022818.80,4327.72252797,N,14148.34544237,E,1,13,0.9,112.095,M,31.590,M,,*69
[2021-01-29 11:28:20.279] $GPGGA,022818.90,4327.72252902,N,14148.34544384,E,1,13,0.9,112.091,M,31.590,M,,*67
[2021-01-29 11:28:20.388] $GPGGA,022819.00,4327.72253011,N,14148.34544433,E,1,13,0.9,112.086,M,31.590,M,,*68
[2021-01-29 11:28:20.482] $GPGGA,022819.10,4327.72253073,N,14148.34544362,E,1,13,0.9,112.089,M,31.590,M,,*61
[2021-01-29 11:28:20.591] $GPGGA,022819.20,4327.72253149,N,14148.34544404,E,1,13,0.9,112.083,M,31.590,M,,*67
[2021-01-29 11:28:20.685] $GPGGA,022819.30,4327.72253201,N,14148.34544026,E,1,13,0.9,112.087,M,31.590,M,,*69
[2021-01-29 11:28:20.795] $GPGGA,022819.40,4327.72253259,N,14148.34544086,E,1,13,0.9,112.091,M,31.590,M,,*6E
[2021-01-29 11:28:20.888] $GPGGA,022819.50,4327.72253129,N,14148.34544084,E,1,13,0.9,112.081,M,31.590,M,,*68
[2021-01-29 11:28:20.998] $GPGGA,022819.60,4327.72253002,N,14148.34543937,E,1,13,0.9,112.082,M,31.590,M,,*66
[2021-01-29 11:28:21.091] $GPGGA,022819.70,4327.72253033,N,14148.34544041,E,1,06,0.9,112.077,M,31.590,M,,*64
[2021-01-29 11:28:21.201] $GPGGA,022819.80,4327.72194803,N,14148.34524071,E,4,05,2.1,108.079,M,31.590,M,1.8,0000*43
[2021-01-29 11:28:21.297] $GPGGA,022819.90,4327.72195005,N,14148.34523865,E,4,05,2.1,108.082,M,31.590,M,1.9,0000*42
[2021-01-29 11:28:21.406] $GPGGA,022820.00,4327.72194644,N,14148.34523980,E,4,05,2.1,108.084,M,31.590,M,2.0,0000*45
[2021-01-29 11:28:21.484] $GPGGA,022820.10,4327.72194914,N,14148.34523984,E,4,05,2.1,108.078,M,31.590,M,2.1,0000*48
[2021-01-29 11:28:21.594] $GPGGA,022820.20,4327.72194620,N,14148.34523906,E,4,05,2.1,108.083,M,31.590,M,2.2,0000*4E
[2021-01-29 11:28:21.687] $GPGGA,022820.30,4327.72194836,N,14148.34524106,E,4,05,2.1,108.081,M,31.590,M,2.3,0000*4A
[2021-01-29 11:28:21.797] $GPGGA,022820.40,4327.72194725,N,14148.34523990,E,4,05,2.1,108.086,M,31.590,M,2.4,0000*40
[2021-01-29 11:28:21.890] $GPGGA,022820.50,4327.72194692,N,14148.34523849,E,4,05,2.1,108.083,M,31.590,M,2.5,0000*4D
[2021-01-29 11:28:22.000] $GPGGA,022820.60,4327.72194771,N,14148.34524069,E,4,05,2.1,108.083,M,31.590,M,2.6,0000*4C
[2021-01-29 11:28:22.078] $GPGGA,022820.70,4327.72194704,N,14148.34524089,E,4,05,2.1,108.077,M,31.590,M,2.7,0000*4B
[2021-01-29 11:28:22.203] $GPGGA,022820.80,4327.72194411,N,14148.34523576,E,4,05,2.1,108.066,M,31.590,M,1.8,0000*4D
[2021-01-29 11:28:22.282] $GPGGA,022820.90,4327.72194270,N,14148.34524274,E,4,05,2.1,108.066,M,31.590,M,1.9,0000*4E
[2021-01-29 11:28:22.392] $GPGGA,022821.00,4327.72194495,N,14148.34524111,E,4,05,2.1,108.061,M,31.590,M,2.0,0000*46
[2021-01-29 11:28:22.486] $GPGGA,022821.10,4327.72194612,N,14148.34524000,E,4,05,2.1,108.059,M,31.590,M,2.1,0000*41
[2021-01-29 11:28:22.595] $GPGGA,022821.20,4327.72194271,N,14148.34523895,E,4,05,2.1,108.068,M,31.590,M,2.2,0000*41
[2021-01-29 11:28:22.689] $GPGGA,022821.30,4327.72194386,N,14148.34524157,E,4,05,2.1,108.061,M,31.590,M,2.3,0000*41
[2021-01-29 11:28:22.798] $GPGGA,022821.40,4327.72194374,N,14148.34523940,E,4,05,2.1,108.057,M,31.590,M,2.4,0000*40
[2021-01-29 11:28:22.892] $GPGGA,022821.50,4327.72194449,N,14148.34524100,E,4,05,2.1,108.063,M,31.590,M,2.5,0000*45
[2021-01-29 11:28:23.001] $GPGGA,022821.60,4327.72194478,N,14148.34523989,E,4,05,2.1,108.063,M,31.590,M,2.6,0000*49
[2021-01-29 11:28:23.095] $GPGGA,022821.70,4327.72194292,N,14148.34524068,E,4,05,2.1,108.060,M,31.590,M,2.7,0000*49
[2021-01-29 11:28:23.204] $GPGGA,022821.80,4327.72194653,N,14148.34523967,E,4,06,2.1,108.099,M,31.590,M,1.8,0000*47
[2021-01-29 11:28:23.285] $GPGGA,022821.90,4327.72194600,N,14148.34523860,E,4,06,2.1,108.096,M,31.590,M,1.9,0000*48
[2021-01-29 11:28:23.379] $GPGGA,022822.00,4327.72194312,N,14148.34524304,E,4,06,2.1,108.097,M,31.590,M,2.0,0000*41
[2021-01-29 11:28:23.488] $GPGGA,022822.10,4327.72194545,N,14148.34523707,E,4,06,2.1,108.095,M,31.590,M,2.1,0000*47
[2021-01-29 11:28:23.598] $GPGGA,022822.20,4327.72194547,N,14148.34524057,E,4,06,2.1,108.099,M,31.590,M,2.2,0000*4C
[2021-01-29 11:28:23.692] $GPGGA,022822.30,4327.72194566,N,14148.34524023,E,4,06,2.1,108.094,M,31.590,M,2.3,0000*41
[2021-01-29 11:28:23.801] $GPGGA,022822.40,4327.72194545,N,14148.34523925,E,4,06,2.1,108.098,M,31.590,M,2.4,0000*44
[2021-01-29 11:28:23.895] $GPGGA,022822.50,4327.72194379,N,14148.34523783,E,4,06,2.1,108.101,M,31.590,M,2.5,0000*4E
[2021-01-29 11:28:24.004] $GPGGA,022822.60,4327.72194509,N,14148.34524087,E,4,06,2.1,108.089,M,31.590,M,2.6,0000*4A
[2021-01-29 11:28:24.082] $GPGGA,022822.70,4327.72194379,N,14148.34523925,E,4,06,2.1,108.104,M,31.590,M,2.7,0000*49
[2021-01-29 11:28:24.192] $GPGGA,022822.80,4327.72194757,N,14148.34523768,E,4,07,1.6,108.100,M,31.590,M,1.8,0000*44
[2021-01-29 11:28:24.286] $GPGGA,022822.90,4327.72194611,N,14148.34523987,E,4,07,1.6,108.092,M,31.590,M,1.9,0000*42
[2021-01-29 11:28:24.395] $GPGGA,022823.00,4327.72194544,N,14148.34523754,E,4,07,1.6,108.106,M,31.590,M,2.0,0000*4F
[2021-01-29 11:28:24.489] $GPGGA,022823.10,4327.72194484,N,14148.34523762,E,4,07,1.6,108.107,M,31.590,M,2.1,0000*46
[2021-01-29 11:28:24.598] $GPGGA,022823.20,4327.72194620,N,14148.34523919,E,4,07,1.6,108.096,M,31.590,M,2.2,0000*41
[2021-01-29 11:28:24.692] $GPGGA,022823.30,4327.72194468,N,14148.34523943,E,4,07,1.6,108.099,M,31.590,M,2.3,0000*4F
[2021-01-29 11:28:24.801] $GPGGA,022823.40,4327.72194806,N,14148.34523816,E,4,07,1.6,108.095,M,31.590,M,2.4,0000*46
[2021-01-29 11:28:24.895] $GPGGA,022823.50,4327.72194070,N,14148.34524481,E,4,07,1.6,108.093,M,31.590,M,2.5,0000*4C
[2021-01-29 11:28:25.004] $GPGGA,022823.60,4327.72194538,N,14148.34524026,E,4,07,1.6,108.102,M,31.590,M,2.6,0000*45
[2021-01-29 11:28:25.082] $GPGGA,022823.70,4327.72194569,N,14148.34523670,E,4,07,1.6,108.107,M,31.590,M,1.7,0000*45
[2021-01-29 11:28:25.192] $GPGGA,022823.80,4327.72194564,N,14148.34523763,E,4,07,1.6,108.105,M,31.590,M,1.8,0000*49
[2021-01-29 11:28:25.287] $GPGGA,022823.90,4327.72194572,N,14148.34523509,E,4,07,1.6,108.114,M,31.590,M,1.9,0000*40
[2021-01-29 11:28:25.397] $GPGGA,022824.00,4327.72194631,N,14148.34523908,E,4,07,1.6,108.105,M,31.590,M,2.0,0000*4D
[2021-01-29 11:28:25.490] $GPGGA,022824.10,4327.72194482,N,14148.34523587,E,4,07,1.6,108.108,M,31.590,M,2.1,0000*41
[2021-01-29 11:28:25.600] $GPGGA,022824.20,4327.72194406,N,14148.34524020,E,4,07,1.6,108.112,M,31.590,M,2.2,0000*49
[2021-01-29 11:28:25.694] $GPGGA,022824.30,4327.72194528,N,14148.34523705,E,4,07,1.6,108.100,M,31.590,M,2.3,0000*40
[2021-01-29 11:28:25.803] $GPGGA,022824.40,4327.72194414,N,14148.34523979,E,4,07,1.6,108.105,M,31.590,M,2.4,0000*4E
[2021-01-29 11:28:25.897] $GPGGA,022824.50,4327.72194435,N,14148.34523918,E,4,07,1.6,108.107,M,31.590,M,2.5,0000*48
[2021-01-29 11:28:26.006] $GPGGA,022824.60,4327.72194370,N,14148.34523910,E,4,07,1.6,108.103,M,31.590,M,2.6,0000*42
[2021-01-29 11:28:26.084] $GPGGA,022824.70,4327.72194505,N,14148.34523770,E,4,07,1.6,108.108,M,31.590,M,2.7,0000*45
[2021-01-29 11:28:26.194] $GPGGA,022824.80,4327.72194407,N,14148.34524228,E,4,07,1.6,108.110,M,31.590,M,1.8,0000*43
[2021-01-29 11:28:26.289] $GPGGA,022824.90,4327.72194462,N,14148.34524087,E,4,07,1.6,108.111,M,31.590,M,1.9,0000*46
[2021-01-29 11:28:26.398] $GPGGA,022825.00,4327.72194414,N,14148.34524418,E,4,07,1.6,108.114,M,31.590,M,2.0,0000*42
[2021-01-29 11:28:26.492] $GPGGA,022825.10,4327.72194344,N,14148.34524184,E,4,07,1.6,108.110,M,31.590,M,2.1,0000*44
[2021-01-29 11:28:26.601] $GPGGA,022825.20,4327.72194390,N,14148.34524393,E,4,07,1.6,108.108,M,31.590,M,2.2,0000*40
[2021-01-29 11:28:26.695] $GPGGA,022825.30,4327.72194279,N,14148.34524178,E,4,07,1.6,108.115,M,31.590,M,2.3,0000*4D
[2021-01-29 11:28:26.804] $GPGGA,022825.40,4327.72194323,N,14148.34524524,E,4,07,1.6,108.113,M,31.590,M,2.4,0000*48
[2021-01-29 11:28:26.898] $GPGGA,022825.50,4327.72194488,N,14148.34524312,E,4,07,1.6,108.109,M,31.590,M,2.5,0000*46
[2021-01-29 11:28:26.992] $GPGGA,022825.60,4327.72194224,N,14148.34524200,E,4,07,1.6,108.111,M,31.590,M,2.6,0000*4D
[2021-01-29 11:28:27.086] $GPGGA,022825.70,4327.72194755,N,14148.34523705,E,4,07,1.6,108.113,M,31.590,M,1.7,0000*48
[2021-01-29 11:28:27.195] $GPGGA,022825.80,4327.72194734,N,14148.34523964,E,4,07,1.6,108.115,M,31.590,M,1.8,0000*40
[2021-01-29 11:28:27.291] $GPGGA,022825.90,4327.72194628,N,14148.34523888,E,4,07,1.6,108.111,M,31.590,M,1.9,0000*4B
[2021-01-29 11:28:27.400] $GPGGA,022826.00,4327.72194556,N,14148.34523881,E,4,07,1.6,108.112,M,31.590,M,2.0,0000*4B
[2021-01-29 11:28:27.494] $GPGGA,022826.10,4327.72194802,N,14148.34523467,E,4,07,1.6,108.122,M,31.590,M,2.1,0000*40
[2021-01-29 11:28:27.603] $GPGGA,022826.20,4327.72194288,N,14148.34524235,E,4,07,1.6,108.108,M,31.590,M,2.2,0000*46
[2021-01-29 11:28:27.697] $GPGGA,022826.30,4327.72194689,N,14148.34524190,E,4,07,1.6,108.119,M,31.590,M,2.3,0000*4F
[2021-01-29 11:28:27.791] $GPGGA,022826.40,4327.72194700,N,14148.34523874,E,4,07,1.6,108.112,M,31.590,M,2.4,0000*40
[2021-01-29 11:28:27.884] $GPGGA,022826.50,4327.72194462,N,14148.34524046,E,4,07,1.6,108.112,M,31.590,M,2.5,0000*49
[2021-01-29 11:28:27.994] $GPGGA,022826.60,4327.72194582,N,14148.34524196,E,4,07,1.6,108.112,M,31.590,M,2.6,0000*4A
[2021-01-29 11:28:28.088] $GPGGA,022826.70,4327.72194441,N,14148.34524107,E,4,07,1.6,108.109,M,31.590,M,2.7,0000*46
[2021-01-29 11:28:28.197] $GPGGA,022826.80,4327.72194799,N,14148.34523886,E,4,07,1.6,108.109,M,31.590,M,2.8,0000*47
[2021-01-29 11:28:28.292] $GPGGA,022826.90,4327.72194444,N,14148.34524236,E,4,07,1.6,108.115,M,31.590,M,2.9,0000*4F
[2021-01-29 11:28:28.402] $GPGGA,022827.00,4327.72194638,N,14148.34524214,E,4,07,1.6,108.104,M,31.590,M,3.0,0000*46
[2021-01-29 11:28:28.495] $GPGGA,022827.10,4327.72194605,N,14148.34524036,E,4,07,1.6,108.114,M,31.590,M,3.1,0000*4B
[2021-01-29 11:28:28.605] $GPGGA,022827.20,4327.72194638,N,14148.34524196,E,4,07,1.6,108.107,M,31.590,M,3.2,0000*4C
[2021-01-29 11:28:28.683] $GPGGA,022827.30,4327.72194434,N,14148.34524150,E,4,07,1.6,108.108,M,31.590,M,3.3,0000*47
[2021-01-29 11:28:28.792] $GPGGA,022827.40,4327.72194810,N,14148.34524210,E,4,07,1.6,108.108,M,31.590,M,3.4,0000*4A
[2021-01-29 11:28:28.886] $GPGGA,022827.50,4327.72194606,N,14148.34524303,E,4,07,1.6,108.107,M,31.590,M,3.5,0000*4F
[2021-01-29 11:28:28.995] $GPGGA,022827.60,4327.72194461,N,14148.34523961,E,4,07,1.6,108.111,M,31.590,M,3.6,0000*42
[2021-01-29 11:28:29.089] $GPGGA,022827.70,4327.72194585,N,14148.34524331,E,4,07,1.6,108.111,M,31.590,M,3.7,0000*41
[2021-01-29 11:28:29.198] $GPGGA,022827.80,4327.72194678,N,14148.34523992,E,4,07,1.6,108.110,M,31.590,M,3.8,0000*45
[2021-01-29 11:28:29.294] $GPGGA,022827.90,4327.72194777,N,14148.34524163,E,4,07,1.6,108.105,M,31.590,M,3.9,0000*4E
[2021-01-29 11:28:29.403] $GPGGA,022828.00,4327.72194712,N,14148.34524077,E,4,07,1.6,108.108,M,31.590,M,4.0,0000*4C
[2021-01-29 11:28:29.497] $GPGGA,022828.10,4327.72194791,N,14148.34524229,E,4,07,1.6,108.104,M,31.590,M,2.1,0000*44
[2021-01-29 11:28:29.591] $GPGGA,022828.20,4327.72194718,N,14148.34524213,E,4,07,1.6,108.096,M,31.590,M,2.2,0000*46
[2021-01-29 11:28:29.700] $GPGGA,022828.30,4327.72194863,N,14148.34524144,E,4,07,1.6,108.100,M,31.590,M,2.3,0000*4A
[2021-01-29 11:28:29.794] $GPGGA,022828.40,4327.72194834,N,14148.34524030,E,4,07,1.6,108.105,M,31.590,M,2.4,0000*4F
[2021-01-29 11:28:29.887] $GPGGA,022828.50,4327.72194787,N,14148.34524273,E,4,07,1.6,108.104,M,31.590,M,2.5,0000*4C
[2021-01-29 11:28:29.997] $GPGGA,022828.60,4327.72194850,N,14148.34524232,E,4,07,1.6,108.097,M,31.590,M,2.6,0000*47
[2021-01-29 11:28:30.091] $GPGGA,022828.70,4327.72194869,N,14148.34523963,E,4,07,1.6,108.103,M,31.590,M,2.7,0000*49
[2021-01-29 11:28:30.200] $GPGGA,022828.80,4327.72195023,N,14148.34524021,E,4,07,1.6,108.112,M,31.590,M,1.8,0000*45
[2021-01-29 11:28:30.294] $GPGGA,022828.90,4327.72194884,N,14148.34523925,E,4,07,1.6,108.117,M,31.590,M,1.9,0000*4E
[2021-01-29 11:28:30.403] $GPGGA,022829.00,4327.72195081,N,14148.34524041,E,4,07,1.6,108.118,M,31.590,M,2.0,0000*43
[2021-01-29 11:28:30.497] $GPGGA,022829.10,4327.72194901,N,14148.34524061,E,4,07,1.6,108.112,M,31.590,M,2.1,0000*4B
[2021-01-29 11:28:30.591] $GPGGA,022829.20,4327.72194902,N,14148.34524037,E,4,07,1.6,108.122,M,31.590,M,2.2,0000*48
[2021-01-29 11:28:30.685] $GPGGA,022829.30,4327.72194995,N,14148.34523894,E,4,07,1.6,108.109,M,31.590,M,2.3,0000*49
[2021-01-29 11:28:30.794] $GPGGA,022829.40,4327.72194910,N,14148.34523933,E,4,07,1.6,108.116,M,31.590,M,2.4,0000*46
[2021-01-29 11:28:30.888] $GPGGA,022829.50,4327.72194916,N,14148.34523989,E,4,07,1.6,108.114,M,31.590,M,2.5,0000*43
[2021-01-29 11:28:30.997] $GPGGA,022829.60,4327.72194894,N,14148.34523821,E,4,07,1.6,108.115,M,31.590,M,2.6,0000*4A
[2021-01-29 11:28:31.075] $GPGGA,022829.70,4327.72194843,N,14148.34523989,E,4,07,1.6,108.127,M,31.590,M,2.7,0000*42
[2021-01-29 11:28:31.184] $GPGGA,022829.80,4327.72194693,N,14148.34523835,E,4,07,1.6,108.105,M,31.590,M,1.8,0000*44
[2021-01-29 11:28:31.295] $GPGGA,022829.90,4327.72194729,N,14148.34523852,E,4,07,1.6,108.119,M,31.590,M,1.9,0000*48
[2021-01-29 11:28:31.405] $GPGGA,022830.00,4327.72194630,N,14148.34524122,E,4,07,1.6,108.112,M,31.590,M,2.0,0000*48
[2021-01-29 11:28:31.483] $GPGGA,022830.10,4327.72194873,N,14148.34524066,E,4,07,1.6,108.106,M,31.590,M,2.1,0000*45
[2021-01-29 11:28:31.592] $GPGGA,022830.20,4327.72194476,N,14148.34523722,E,4,07,1.6,108.115,M,31.590,M,2.2,0000*4E
[2021-01-29 11:28:31.686] $GPGGA,022830.30,4327.72194874,N,14148.34523994,E,4,07,1.6,108.114,M,31.590,M,2.3,0000*42
[2021-01-29 11:28:31.795] $GPGGA,022830.40,4327.72194803,N,14148.34523802,E,4,07,1.6,108.117,M,31.590,M,2.4,0000*4F
[2021-01-29 11:28:31.889] $GPGGA,022830.50,4327.72194633,N,14148.34523805,E,4,07,1.6,108.110,M,31.590,M,2.5,0000*42
[2021-01-29 11:28:31.999] $GPGGA,022830.60,4327.72194754,N,14148.34523918,E,4,07,1.6,108.114,M,31.590,M,2.6,0000*4B
[2021-01-29 11:28:32.092] $GPGGA,022830.70,4327.72194890,N,14148.34524082,E,4,07,1.6,108.112,M,31.590,M,2.7,0000*47
[2021-01-29 11:28:32.202] $GPGGA,022830.80,4327.72194620,N,14148.34523660,E,4,07,1.6,108.115,M,31.590,M,1.8,0000*4B
[2021-01-29 11:28:32.282] $GPGGA,022830.90,4327.72194787,N,14148.34523588,E,4,07,1.6,108.117,M,31.590,M,1.9,0000*40
[2021-01-29 11:28:32.407] $GPGGA,022831.00,4327.72194997,N,14148.34523387,E,4,07,1.6,108.116,M,31.590,M,2.0,0000*45
[2021-01-29 11:28:32.485] $GPGGA,022831.10,4327.72194785,N,14148.34523647,E,4,07,1.6,108.109,M,31.590,M,2.1,0000*4F
[2021-01-29 11:28:32.594] $GPGGA,022831.20,4327.72195010,N,14148.34523640,E,4,07,1.6,108.114,M,31.590,M,2.2,0000*4E
[2021-01-29 11:28:32.688] $GPGGA,022831.30,4327.72194858,N,14148.34523508,E,4,07,1.6,108.120,M,31.590,M,2.3,0000*43
[2021-01-29 11:28:32.797] $GPGGA,022831.40,4327.72194941,N,14148.34523681,E,4,07,1.6,108.105,M,31.590,M,2.4,0000*4F
[2021-01-29 11:28:32.891] $GPGGA,022831.50,4327.72194771,N,14148.34523560,E,4,07,1.6,108.115,M,31.590,M,2.5,0000*4F
[2021-01-29 11:28:33.001] $GPGGA,022831.60,4327.72194775,N,14148.34523767,E,4,07,1.6,108.118,M,31.590,M,2.6,0000*43
[2021-01-29 11:28:33.094] $GPGGA,022831.70,4327.72194755,N,14148.34523963,E,4,08,1.4,108.133,M,31.590,M,1.7,0000*4C
[2021-01-29 11:28:33.204] $GPGGA,022831.80,4327.72194769,N,14148.34524150,E,4,08,1.4,108.123,M,31.590,M,1.8,0000*4D
[2021-01-29 11:28:33.283] $GPGGA,022831.90,4327.72194685,N,14148.34524214,E,4,08,1.4,108.127,M,31.590,M,1.9,0000*49
[2021-01-29 11:28:33.393] $GPGGA,022832.00,4327.72194722,N,14148.34524224,E,4,08,1.4,108.121,M,31.590,M,2.0,0000*40
[2021-01-29 11:28:33.471] $GPGGA,022832.10,4327.72194773,N,14148.34523888,E,4,08,1.4,108.124,M,31.590,M,2.1,0000*4A
[2021-01-29 11:28:33.596] $GPGGA,022832.20,4327.72194612,N,14148.34524213,E,4,08,1.4,108.127,M,31.590,M,2.2,0000*40
[2021-01-29 11:28:33.690] $GPGGA,022832.30,4327.72194856,N,14148.34523905,E,4,08,1.4,108.125,M,31.590,M,2.3,0000*47
[2021-01-29 11:28:33.799] $GPGGA,022832.40,4327.72194680,N,14148.34524321,E,4,08,1.4,108.125,M,31.590,M,2.4,0000*49
[2021-01-29 11:28:33.893] $GPGGA,022832.50,4327.72194799,N,14148.34524287,E,4,08,1.4,108.119,M,31.590,M,2.5,0000*42
[2021-01-29 11:28:34.002] $GPGGA,022832.60,4327.72194762,N,14148.34524299,E,4,08,1.4,108.122,M,31.590,M,2.6,0000*41
[2021-01-29 11:28:34.096] $GPGGA,022832.70,4327.72194775,N,14148.34524085,E,4,08,1.4,108.125,M,31.590,M,2.7,0000*4F
[2021-01-29 11:28:34.205] $GPGGA,022832.80,4327.72194517,N,14148.34524414,E,4,08,1.4,108.122,M,31.590,M,1.8,0000*41
[2021-01-29 11:28:34.286] $GPGGA,022832.90,4327.72194344,N,14148.34524366,E,4,08,1.4,108.126,M,31.590,M,1.9,0000*47
[2021-01-29 11:28:34.395] $GPGGA,022833.00,4327.72194581,N,14148.34524417,E,4,08,1.4,108.128,M,31.590,M,2.0,0000*45
[2021-01-29 11:28:34.489] $GPGGA,022833.10,4327.72194453,N,14148.34524246,E,4,08,1.4,108.124,M,31.590,M,2.1,0000*45
[2021-01-29 11:28:34.599] $GPGGA,022833.20,4327.72194516,N,14148.34524335,E,4,08,1.4,108.119,M,31.590,M,2.2,0000*4E
[2021-01-29 11:28:34.692] $GPGGA,022833.30,4327.72194502,N,14148.34524670,E,4,08,1.4,108.126,M,31.590,M,2.3,0000*43
[2021-01-29 11:28:34.802] $GPGGA,022833.40,4327.72194194,N,14148.34524034,E,4,08,1.4,108.132,M,31.590,M,2.4,0000*4B
[2021-01-29 11:28:34.895] $GPGGA,022833.50,4327.72194466,N,14148.34524555,E,4,08,1.4,108.129,M,31.590,M,2.5,0000*4B
[2021-01-29 11:28:35.005] $GPGGA,022833.60,4327.72194422,N,14148.34524540,E,4,08,1.4,108.124,M,31.590,M,2.6,0000*42
[2021-01-29 11:28:35.083] $GPGGA,022833.70,4327.72194582,N,14148.34524188,E,4,08,1.4,108.116,M,31.590,M,1.7,0000*4B
[2021-01-29 11:28:35.192] $GPGGA,022833.80,4327.72194601,N,14148.34524461,E,4,08,1.4,108.117,M,31.590,M,1.8,0000*40
[2021-01-29 11:28:35.287] $GPGGA,022833.90,4327.72194685,N,14148.34524381,E,4,08,1.4,108.122,M,31.590,M,1.9,0000*43
[2021-01-29 11:28:35.397] $GPGGA,022834.00,4327.72194805,N,14148.34524485,E,4,08,1.4,108.122,M,31.590,M,2.0,0000*42
[2021-01-29 11:28:35.490] $GPGGA,022834.10,4327.72194672,N,14148.34524341,E,4,08,1.4,108.113,M,31.590,M,2.1,0000*41
[2021-01-29 11:28:35.600] $GPGGA,022834.20,4327.72194773,N,14148.34524367,E,4,08,1.4,108.123,M,31.590,M,2.2,0000*46
[2021-01-29 11:28:35.693] $GPGGA,022834.30,4327.72194496,N,14148.34524624,E,4,08,1.4,108.119,M,31.590,M,2.3,0000*45
[2021-01-29 11:28:35.803] $GPGGA,022834.40,4327.72194833,N,14148.34524477,E,4,08,1.4,108.114,M,31.590,M,2.4,0000*4F
[2021-01-29 11:28:35.896] $GPGGA,022834.50,4327.72194752,N,14148.34524249,E,4,08,1.4,108.117,M,31.590,M,2.5,0000*4F
[2021-01-29 11:28:36.006] $GPGGA,022834.60,4327.72194741,N,14148.34524530,E,4,08,1.4,108.116,M,31.590,M,2.6,0000*45
[2021-01-29 11:28:36.084] $GPGGA,022834.70,4327.72194637,N,14148.34524447,E,4,08,1.4,108.125,M,31.590,M,2.7,0000*44
[2021-01-29 11:28:36.193] $GPGGA,022834.80,4327.72194725,N,14148.34524219,E,4,08,1.4,108.123,M,31.590,M,1.8,0000*4E
[2021-01-29 11:28:36.289] $GPGGA,022834.90,4327.72194632,N,14148.34524642,E,4,08,1.4,108.117,M,31.590,M,1.9,0000*44
[2021-01-29 11:28:36.398] $GPGGA,022835.00,4327.72194694,N,14148.34524406,E,4,08,1.4,108.111,M,31.590,M,2.0,0000*4E
[2021-01-29 11:28:36.492] $GPGGA,022835.10,4327.72194890,N,14148.34524399,E,4,08,1.4,108.114,M,31.590,M,2.1,0000*40
[2021-01-29 11:28:36.601] $GPGGA,022835.20,4327.72194786,N,14148.34524173,E,4,08,1.4,108.120,M,31.590,M,2.2,0000*49
[2021-01-29 11:28:36.695] $GPGGA,022835.30,4327.72194781,N,14148.34524494,E,4,08,1.4,108.115,M,31.590,M,2.3,0000*44
[2021-01-29 11:28:36.804] $GPGGA,022835.40,4327.72194799,N,14148.34524614,E,4,08,1.4,108.115,M,31.590,M,2.4,0000*47
[2021-01-29 11:28:36.882] $GPGGA,022835.50,4327.72194847,N,14148.34524434,E,4,08,1.4,108.113,M,31.590,M,2.5,0000*4D
[2021-01-29 11:28:36.992] $GPGGA,022835.60,4327.72194944,N,14148.34524487,E,4,08,1.4,108.116,M,31.590,M,2.6,0000*42
[2021-01-29 11:28:37.085] $GPGGA,022835.70,4327.72194763,N,14148.34524365,E,4,08,1.4,108.114,M,31.590,M,1.7,0000*43
[2021-01-29 11:28:37.195] $GPGGA,022835.80,4327.72194641,N,14148.34524164,E,4,08,1.4,108.114,M,31.590,M,1.8,0000*41
[2021-01-29 11:28:37.290] $GPGGA,022835.90,4327.72194940,N,14148.34524066,E,4,08,1.4,108.109,M,31.590,M,1.9,0000*40
[2021-01-29 11:28:37.399] $GPGGA,022836.00,4327.72194839,N,14148.34524429,E,4,08,1.4,108.110,M,31.590,M,2.0,0000*48
[2021-01-29 11:28:37.493] $GPGGA,022836.10,4327.72194868,N,14148.34524402,E,4,08,1.4,108.123,M,31.590,M,2.1,0000*45
[2021-01-29 11:28:37.602] $GPGGA,022836.20,4327.72194863,N,14148.34524562,E,4,08,1.4,108.105,M,31.590,M,2.2,0000*4D
[2021-01-29 11:28:37.696] $GPGGA,022836.30,4327.72194779,N,14148.34524395,E,4,08,1.4,108.110,M,31.590,M,2.3,0000*43
[2021-01-29 11:28:37.790] $GPGGA,022836.40,4327.72194779,N,14148.34524408,E,4,08,1.4,108.124,M,31.590,M,2.4,0000*47
[2021-01-29 11:28:37.884] $GPGGA,022836.50,4327.72194959,N,14148.34524375,E,4,08,1.4,108.108,M,31.590,M,2.5,0000*48
[2021-01-29 11:28:37.993] $GPGGA,022836.60,4327.72194889,N,14148.34524241,E,4,08,1.4,108.106,M,31.590,M,2.6,0000*4C
