
[2021-01-29 11:50:06.474] $GNGGA,024952.30,,,,,0,00,99.99,,,,,410.3,*5B
[2021-01-29 11:50:06.505] $GNGGA,024952.41,,,,,0,00,99.99,,,,,410.4,*5A
[2021-01-29 11:50:06.505] $GNGGA,024952.51,,,,,0,00,99.99,,,,,410.5,*5A
[2021-01-29 11:50:06.505] $GNGGA,024952.60,,,,,0,00,99.99,,,,,410.6,*5B
[2021-01-29 11:50:06.505] $GNGGA,024952.71,,,,,0,00,99.99,,,,,410.7,*5A
[2021-01-29 11:50:06.505] $GNGGA,024952.80,,,,,0,00,99.99,,,,,410.8,*5B
[2021-01-29 11:50:06.505] $GNGGA,024952.91,,,,,0,00,99.99,,,,,410.9,*5A
[2021-01-29 11:50:06.505] $GNGGA,024953.01,,,,,0,00,99.99,,,,,411.0,*5A
[2021-01-29 11:50:06.505] $GNGGA,024953.10,,,,,0,00,99.99,,,,,411.1,*5B
[2021-01-29 11:50:06.505] $GNGGA,024953.21,,,,,0,00,99.99,,,,,411.2,*5A
[2021-01-29 11:50:06.505] $GNGGA,024953.30,,,,,0,00,99.99,,,,,411.3,*5B
[2021-01-29 11:50:06.505] $GNGGA,024953.41,,,,,0,00,99.99,,,,,411.4,*5A
[2021-01-29 11:50:06.505] $GNGGA,024953.51,,,,,0,00,99.99,,,,,411.5,*5A
[2021-01-29 11:50:06.505] $GNGGA,024953.60,,,,,0,00,99.99,,,,,411.6,*5B
[2021-01-29 11:50:06.505] $GNGGA,024953.71,,,,,0,00,99.99,,,,,411.7,*5A
[2021-01-29 11:50:06.505] $GNGGA,024953.80,,,,,0,00,99.99,,,,,411.8,*5B
[2021-01-29 11:50:06.505] $GNGGA,024953.91,,,,,0,00,99.99,,,,,411.9,*5A
[2021-01-29 11:50:06.505] $GNGGA,024954.01,,,,,0,00,99.99,,,,,412.0,*5E
[2021-01-29 11:50:06.505] $GNGGA,024954.10,,,,,0,00,99.99,,,,,412.1,*5F
[2021-01-29 11:50:06.505] $GNGGA,024954.21,,,,,0,00,99.99,,,,,412.2,*5E
[2021-01-29 11:50:06.505] $GNGGA,024954.30,,,,,0,00,99.99,,,,,412.3,*5F
[2021-01-29 11:50:06.505] $GNGGA,024954.41,,,,,0,00,99.99,,,,,412.4,*5E
[2021-01-29 11:50:06.505] $GNGGA,024954.51,,,,,0,00,99.99,,,,,412.5,*5E
[2021-01-29 11:50:06.521] $GNGGA,024954.60,,,,,0,00,99.99,,,,,412.6,*5F
[2021-01-29 11:50:06.521] $GNGGA,024954.71,,,,,0,00,99.99,,,,,412.7,*5E
[2021-01-29 11:50:06.521] $GNGGA,024954.80,,,,,0,00,99.99,,,,,412.8,*5F
[2021-01-29 11:50:06.521] $GNGGA,024954.91,,,,,0,00,99.99,,,,,412.9,*5E
[2021-01-29 11:50:06.521] $GNGGA,024955.01,,,,,0,00,99.99,,,,,413.0,*5E
[2021-01-29 11:50:06.521] $GNGGA,024955.10,,,,,0,00,99.99,,,,,413.1,*5F
[2021-01-29 11:50:06.521] $GNGGA,024955.21,,,,,0,00,99.99,,,,,413.2,*5E
[2021-01-29 11:50:06.521] $GNGGA,024955.30,,,,,0,00,99.99,,,,,413.3,*5F
[2021-01-29 11:50:06.521] $GNGGA,024955.41,,,,,0,00,99.99,,,,,413.4,*5E
[2021-01-29 11:50:06.521] $GNGGA,024955.51,,,,,0,00,99.99,,,,,413.5,*5E
[2021-01-29 11:50:06.521] $GNGGA,024955.60,,,,,0,00,99.99,,,,,413.6,*5F
[2021-01-29 11:50:06.521] $GNGGA,024955.71,,,,,0,00,99.99,,,,,413.7,*5E
[2021-01-29 11:50:06.521] $GNGGA,024955.80,,,,,0,00,99.99,,,,,413.8,*5F
[2021-01-29 11:50:06.521] $GNGGA,024955.91,,,,,0,00,99.99,,,,,413.9,*5E
[2021-01-29 11:50:06.521] $GNGGA,024956.01,,,,,0,00,99.99,,,,,414.0,*5A
[2021-01-29 11:50:06.521] $GNGGA,024956.10,,,,,0,00,99.99,,,,,414.1,*5B
[2021-01-29 11:50:06.521] $GNGGA,024956.21,,,,,0,00,99.99,,,,,414.2,*5A
[2021-01-29 11:50:06.521] $GNGGA,024956.30,,,,,0,00,99.99,,,,,414.3,*5B
[2021-01-29 11:50:06.521] $GNGGA,024956.41,,,,,0,00,99.99,,,,,414.4,*5A
[2021-01-29 11:50:06.521] $GNGGA,024956.51,,,,,0,00,99.99,,,,,414.5,*5A
[2021-01-29 11:50:06.521] $GNGGA,024956.60,,,,,0,00,99.99,,,,,414.6,*5B
[2021-01-29 11:50:06.521] $GNGGA,024956.71,,,,,0,00,99.99,,,,,414.7,*5A
[2021-01-29 11:50:06.537] $GNGGA,024956.80,,,,,0,00,99.99,,,,,414.8,*5B
[2021-01-29 11:50:06.537] $GNGGA,024956.91,,,,,0,00,99.99,,,,,414.9,*5A
[2021-01-29 11:50:06.537] $GNGGA,024957.01,,,,,0,00,99.99,,,,,415.0,*5A
[2021-01-29 11:50:06.537] $GNGGA,024957.10,,,,,0,00,99.99,,,,,415.1,*5B
[2021-01-29 11:50:06.537] $GNGGA,024957.21,,,,,0,00,99.99,,,,,415.2,*5A
[2021-01-29 11:50:06.537] $GNGGA,024957.30,,,,,0,00,99.99,,,,,415.3,*5B
[2021-01-29 11:50:06.537] $GNGGA,024957.41,,,,,0,00,99.99,,,,,415.4,*5A
[2021-01-29 11:50:06.537] $GNGGA,024957.51,,,,,0,00,99.99,,,,,415.5,*5A
[2021-01-29 11:50:06.537] $GNGGA,024957.60,,,,,0,00,99.99,,,,,415.6,*5B
[2021-01-29 11:50:06.537] $GNGGA,024957.71,,,,,0,00,99.99,,,,,415.7,*5A
[2021-01-29 11:50:06.537] $GNGGA,024957.80,,,,,0,00,99.99,,,,,415.8,*5B
[2021-01-29 11:50:06.537] $GNGGA,024957.91,,,,,0,00,99.99,,,,,415.9,*5A
[2021-01-29 11:50:06.537] $GNGGA,024958.01,,,,,0,00,99.99,,,,,416.0,*56
[2021-01-29 11:50:06.537] $GNGGA,024958.10,,,,,0,00,99.99,,,,,416.1,*57
[2021-01-29 11:50:06.537] $GNGGA,024958.21,,,,,0,00,99.99,,,,,416.2,*56
[2021-01-29 11:50:06.537] $GNGGA,024958.30,,,,,0,00,99.99,,,,,416.3,*57
[2021-01-29 11:50:06.537] $GNGGA,024958.41,,,,,0,00,99.99,,,,,416.4,*56
[2021-01-29 11:50:06.537] $GNGGA,024958.51,,,,,0,00,99.99,,,,,416.5,*56
[2021-01-29 11:50:06.537] $GNGGA,024958.60,,,,,0,00,99.99,,,,,416.6,*57
[2021-01-29 11:50:06.537] $GNGGA,024958.71,,,,,0,00,99.99,,,,,416.7,*56
[2021-01-29 11:50:06.537] $GNGGA,024958.80,,,,,0,00,99.99,,,,,416.8,*57
[2021-01-29 11:50:06.552] $GNGGA,024958.91,,,,,0,00,99.99,,,,,416.9,*56
[2021-01-29 11:50:06.552] $GNGGA,024959.01,,,,,0,00,99.99,,,,,417.0,*56
[2021-01-29 11:50:06.552] $GNGGA,024959.10,,,,,0,00,99.99,,,,,417.1,*57
[2021-01-29 11:50:06.552] $GNGGA,024959.21,,,,,0,00,99.99,,,,,417.2,*56
[2021-01-29 11:50:06.552] $GNGGA,024959.30,,,,,0,00,99.99,,,,,417.3,*57
[2021-01-29 11:50:06.552] $GNGGA,024959.41,,,,,0,00,99.99,,,,,417.4,*56
[2021-01-29 11:50:06.552] $GNGGA,024959.51,,,,,0,00,99.99,,,,,417.5,*56
[2021-01-29 11:50:06.552] $GNGGA,024959.60,,,,,0,00,99.99,,,,,417.6,*57
[2021-01-29 11:50:06.552] $GNGGA,024959.71,,,,,0,00,99.99,,,,,417.7,*56
[2021-01-29 11:50:06.552] $GNGGA,024959.80,,,,,0,00,99.99,,,,,417.8,*57
[2021-01-29 11:50:06.552] $GNGGA,024959.91,,,,,0,00,99.99,,,,,417.9,*56
[2021-01-29 11:50:06.552] $GNGGA,025000.01,,,,,0,00,99.99,,,,,418.0,*5D
[2021-01-29 11:50:06.552] $GNGGA,025000.10,,,,,0,00,99.99,,,,,418.1,*5C
[2021-01-29 11:50:06.552] $GNGGA,025000.21,,,,,0,00,99.99,,,,,418.2,*5D
[2021-01-29 11:50:06.552] $GNGGA,025000.30,,,,,0,00,99.99,,,,,418.3,*5C
[2021-01-29 11:50:06.552] $GNGGA,025000.41,,,,,0,00,99.99,,,,,418.4,*5D
[2021-01-29 11:50:06.552] $GNGGA,025000.51,,,,,0,00,99.99,,,,,418.5,*5D
[2021-01-29 11:50:06.552] $GNGGA,025000.60,,,,,0,00,99.99,,,,,418.6,*5C
[2021-01-29 11:50:06.552] $GNGGA,025000.71,,,,,0,00,99.99,,,,,418.7,*5D
[2021-01-29 11:50:06.552] $GNGGA,025000.80,,,,,0,00,99.99,,,,,418.8,*5C
[2021-01-29 11:50:06.552] $GNGGA,025000.91,,,,,0,00,99.99,,,,,418.9,*5D
[2021-01-29 11:50:06.552] $GNGGA,025001.01,,,,,0,00,99.99,,,,,419.0,*5D
[2021-01-29 11:50:06.568] $GNGGA,025001.10,,,,,0,00,99.99,,,,,419.1,*5C
[2021-01-29 11:50:06.568] $GNGGA,025001.21,,,,,0,00,99.99,,,,,419.2,*5D
[2021-01-29 11:50:06.568] $GNGGA,025001.30,,,,,0,00,99.99,,,,,419.3,*5C
[2021-01-29 11:50:06.568] $GNGGA,025001.41,,,,,0,00,99.99,,,,,419.4,*5D
[2021-01-29 11:50:06.568] $GNGGA,025001.51,,,,,0,00,99.99,,,,,419.5,*5D
[2021-01-29 11:50:06.568] $GNGGA,025001.60,,,,,0,00,99.99,,,,,419.6,*5C
[2021-01-29 11:50:06.568] $GNGGA,025001.71,,,,,0,00,99.99,,,,,419.7,*5D
[2021-01-29 11:50:06.568] $GNGGA,025001.80,,,,,0,00,99.99,,,,,419.8,*5C
[2021-01-29 11:50:06.568] $GNGGA,025001.91,,,,,0,00,99.99,,,,,419.9,*5D
[2021-01-29 11:50:06.568] $GNGGA,025002.01,,,,,0,00,99.99,,,,,420.0,*54
[2021-01-29 11:50:06.568] $GNGGA,025002.10,,,,,0,00,99.99,,,,,420.1,*55
[2021-01-29 11:50:06.568] $GNGGA,025002.21,,,,,0,00,99.99,,,,,420.2,*54
[2021-01-29 11:50:06.568] $GNGGA,025002.30,,,,,0,00,99.99,,,,,420.3,*55
[2021-01-29 11:50:06.568] $GNGGA,025002.41,,,,,0,00,99.99,,,,,420.4,*54
[2021-01-29 11:50:06.568] $GNGGA,025002.51,,,,,0,00,99.99,,,,,420.5,*54
[2021-01-29 11:50:06.568] $GNGGA,025002.60,,,,,0,00,99.99,,,,,420.6,*55
[2021-01-29 11:50:06.568] $GNGGA,025002.71,,,,,0,00,99.99,,,,,420.7,*54
[2021-01-29 11:50:06.568] $GNGGA,025002.80,,,,,0,00,99.99,,,,,420.8,*55
[2021-01-29 11:50:06.568] $GNGGA,025002.91,,,,,0,00,99.99,,,,,420.9,*54
[2021-01-29 11:50:06.568] $GNGGA,025003.01,,,,,0,00,99.99,,,,,421.0,*54
[2021-01-29 11:50:06.568] $GNGGA,025003.10,,,,,0,00,99.99,,,,,421.1,*55
[2021-01-29 11:50:06.568] $GNGGA,025003.21,,,,,0,00,99.99,,,,,421.2,*54
[2021-01-29 11:50:06.568] $GNGGA,025003.30,,,,,0,00,99.99,,,,,421.3,*55
[2021-01-29 11:50:06.568] $GNGGA,025003.41,,,,,0,00,99.99,,,,,421.4,*54
[2021-01-29 11:50:06.568] $GNGGA,025003.51,,,,,0,00,99.99,,,,,421.5,*54
[2021-01-29 11:50:06.568] $GNGGA,025003.60,,,,,0,00,99.99,,,,,421.6,*55
[2021-01-29 11:50:06.568] $GNGGA,025003.71,,,,,0,00,99.99,,,,,421.7,*54
[2021-01-29 11:50:06.568] $GNGGA,025003.80,,,,,0,00,99.99,,,,,421.8,*55
[2021-01-29 11:50:06.568] $GNGGA,025003.91,,,,,0,00,99.99,,,,,421.9,*54
[2021-01-29 11:50:06.568] $GNGGA,025004.01,,,,,0,00,99.99,,,,,422.0,*50
[2021-01-29 11:50:06.568] $GNGGA,025004.10,,,,,0,00,99.99,,,,,422.1,*51
[2021-01-29 11:50:06.568] $GNGGA,025004.21,,,,,0,00,99.99,,,,,422.2,*50
[2021-01-29 11:50:06.568] $GNGGA,025004.30,,,,,0,00,99.99,,,,,422.3,*51
[2021-01-29 11:50:06.568] $GNGGA,025004.41,,,,,0,00,99.99,,,,,422.4,*50
[2021-01-29 11:50:06.568] $GNGGA,025004.51,,,,,0,00,99.99,,,,,422.5,*50
[2021-01-29 11:50:06.568] $GNGGA,025004.60,,,,,0,00,99.99,,,,,422.6,*51
[2021-01-29 11:50:06.568] $GNGGA,025004.71,,,,,0,00,99.99,,,,,422.7,*50
[2021-01-29 11:50:06.568] $GNGGA,025004.80,,,,,0,00,99.99,,,,,422.8,*51
[2021-01-29 11:50:06.568] $GNGGA,025004.91,,,,,0,00,99.99,,,,,422.9,*50
[2021-01-29 11:50:06.568] $GNGGA,025005.01,,,,,0,00,99.99,,,,,423.0,*50
[2021-01-29 11:50:06.662] $GNGGA,025005.10,,,,,0,00,99.99,,,,,423.1,*51
[2021-01-29 11:50:06.755] $GNGGA,025005.21,,,,,0,00,99.99,,,,,423.2,*50
[2021-01-29 11:50:06.849] $GNGGA,025005.30,,,,,0,00,99.99,,,,,423.3,*51
[2021-01-29 11:50:06.958] $GNGGA,025005.41,,,,,0,00,99.99,,,,,423.4,*50
[2021-01-29 11:50:07.052] $GNGGA,025005.51,,,,,0,00,99.99,,,,,423.5,*50
[2021-01-29 11:50:07.162] $GNGGA,025005.60,,,,,0,00,99.99,,,,,423.6,*51
[2021-01-29 11:50:07.262] $GNGGA,025005.71,,,,,0,00,99.99,,,,,423.7,*50
[2021-01-29 11:50:07.351] $GNGGA,025005.80,,,,,0,00,99.99,,,,,423.8,*51
[2021-01-29 11:50:07.461] $GNGGA,025005.91,,,,,0,00,99.99,,,,,423.9,*50
[2021-01-29 11:50:07.555] $GNGGA,025006.01,,,,,0,00,99.99,,,,,424.0,*54
[2021-01-29 11:50:07.648] $GNGGA,025006.10,,,,,0,00,99.99,,,,,424.1,*55
[2021-01-29 11:50:07.758] $GNGGA,025006.21,,,,,0,00,99.99,,,,,424.2,*54
[2021-01-29 11:50:07.851] $GNGGA,025006.30,,,,,0,00,99.99,,,,,424.3,*55
[2021-01-29 11:50:07.961] $GNGGA,025006.41,,,,,0,00,99.99,,,,,424.4,*54
[2021-01-29 11:50:08.055] $GNGGA,025006.51,,,,,0,00,99.99,,,,,424.5,*54
[2021-01-29 11:50:08.148] $GNGGA,025006.60,,,,,0,00,99.99,,,,,424.6,*55
[2021-01-29 11:50:08.256] $GNGGA,025006.71,,,,,0,00,99.99,,,,,424.7,*54
[2021-01-29 11:50:08.353] $GNGGA,025006.80,,,,,0,00,99.99,,,,,424.8,*55
[2021-01-29 11:50:08.462] $GNGGA,025006.91,,,,,0,00,99.99,,,,,424.9,*54
[2021-01-29 11:50:08.556] $GNGGA,025007.01,,,,,0,00,99.99,,,,,425.0,*54
[2021-01-29 11:50:08.650] $GNGGA,025007.10,,,,,0,00,99.99,,,,,425.1,*55
[2021-01-29 11:50:08.759] $GNGGA,025007.21,,,,,0,00,99.99,,,,,425.2,*54
[2021-01-29 11:50:08.853] $GNGGA,025007.30,,,,,0,00,99.99,,,,,425.3,*55
[2021-01-29 11:50:08.962] $GNGGA,025007.41,,,,,0,00,99.99,,,,,425.4,*54
[2021-01-29 11:50:09.056] $GNGGA,025007.51,,,,,0,00,99.99,,,,,425.5,*54
[2021-01-29 11:50:09.149] $GNGGA,025007.60,,,,,0,00,99.99,,,,,425.6,*55
[2021-01-29 11:50:09.257] $GNGGA,025007.71,,,,,0,00,99.99,,,,,425.7,*54
[2021-01-29 11:50:09.352] $GNGGA,025007.80,,,,,0,00,99.99,,,,,425.8,*55
[2021-01-29 11:50:09.462] $GNGGA,025007.91,,,,,0,00,99.99,,,,,425.9,*54
[2021-01-29 11:50:09.555] $GNGGA,025008.01,,,,,0,00,99.99,,,,,426.0,*58
[2021-01-29 11:50:09.649] $GNGGA,025008.10,,,,,0,00,99.99,,,,,426.1,*59
[2021-01-29 11:50:09.758] $GNGGA,025008.21,,,,,0,00,99.99,,,,,426.2,*58
[2021-01-29 11:50:09.852] $GNGGA,025008.30,,,,,0,00,99.99,,,,,426.3,*59
[2021-01-29 11:50:09.962] $GNGGA,025008.41,,,,,0,00,99.99,,,,,426.4,*58
[2021-01-29 11:50:10.055] $GNGGA,025008.51,,,,,0,00,99.99,,,,,426.5,*58
[2021-01-29 11:50:10.149] $GNGGA,025008.60,,,,,0,00,99.99,,,,,426.6,*59
[2021-01-29 11:50:10.259] $GNGGA,025008.71,,,,,0,00,99.99,,,,,426.7,*58
[2021-01-29 11:50:10.354] $GNGGA,025008.80,,,,,0,00,99.99,,,,,426.8,*59
[2021-01-29 11:50:10.463] $GNGGA,025008.91,,,,,0,00,99.99,,,,,426.9,*58
[2021-01-29 11:50:10.557] $GNGGA,025009.01,,,,,0,00,99.99,,,,,427.0,*58
[2021-01-29 11:50:10.651] $GNGGA,025009.10,,,,,0,00,99.99,,,,,427.1,*59
[2021-01-29 11:50:10.760] $GNGGA,025009.21,,,,,0,00,99.99,,,,,427.2,*58
[2021-01-29 11:50:10.854] $GNGGA,025009.30,,,,,0,00,99.99,,,,,427.3,*59
[2021-01-29 11:50:10.963] $GNGGA,025009.41,,,,,0,00,99.99,,,,,427.4,*58
[2021-01-29 11:50:11.057] $GNGGA,025009.51,,,,,0,00,99.99,,,,,427.5,*58
[2021-01-29 11:50:11.151] $GNGGA,025009.60,,,,,0,00,99.99,,,,,427.6,*59
[2021-01-29 11:50:11.261] $GNGGA,025009.71,,,,,0,00,99.99,,,,,427.7,*58
[2021-01-29 11:50:11.357] $GNGGA,025009.80,,,,,0,00,99.99,,,,,427.8,*59
[2021-01-29 11:50:11.451] $GNGGA,025009.91,,,,,0,00,99.99,,,,,427.9,*58
[2021-01-29 11:50:11.560] $GNGGA,025010.01,,,,,0,00,99.99,,,,,428.0,*5F
[2021-01-29 11:50:11.654] $GNGGA,025010.10,,,,,0,00,99.99,,,,,428.1,*5E
[2021-01-29 11:50:11.763] $GNGGA,025010.21,,,,,0,00,99.99,,,,,428.2,*5F
[2021-01-29 11:50:11.857] $GNGGA,025010.30,,,,,0,00,99.99,,,,,428.3,*5E
[2021-01-29 11:50:11.951] $GNGGA,025010.41,,,,,0,00,99.99,,,,,428.4,*5F
[2021-01-29 11:50:12.060] $GNGGA,025010.51,,,,,0,00,99.99,,,,,428.5,*5F
[2021-01-29 11:50:12.154] $GNGGA,025010.60,,,,,0,00,99.99,,,,,428.6,*5E
[2021-01-29 11:50:12.262] $GNGGA,025010.71,,,,,0,00,99.99,,,,,428.7,*5F
[2021-01-29 11:50:12.356] $GNGGA,025010.80,,,,,0,00,99.99,,,,,428.8,*5E
[2021-01-29 11:50:12.450] $GNGGA,025010.91,,,,,0,00,99.99,,,,,428.9,*5F
[2021-01-29 11:50:12.559] $GNGGA,025011.01,,,,,0,00,99.99,,,,,429.0,*5F
[2021-01-29 11:50:12.653] $GNGGA,025011.10,,,,,0,00,99.99,,,,,429.1,*5E
[2021-01-29 11:50:12.762] $GNGGA,025011.21,,,,,0,00,99.99,,,,,429.2,*5F
[2021-01-29 11:50:12.856] $GNGGA,025011.30,,,,,0,00,99.99,,,,,429.3,*5E
[2021-01-29 11:50:12.950] $GNGGA,025011.41,,,,,0,00,99.99,,,,,429.4,*5F
[2021-01-29 11:50:13.059] $GNGGA,025011.51,,,,,0,00,99.99,,,,,429.5,*5F
[2021-01-29 11:50:13.153] $GNGGA,025011.60,,,,,0,00,99.99,,,,,429.6,*5E
[2021-01-29 11:50:13.263] $GNGGA,025011.71,,,,,0,00,99.99,,,,,429.7,*5F
[2021-01-29 11:50:13.359] $GNGGA,025011.80,,,,,0,00,99.99,,,,,429.8,*5E
[2021-01-29 11:50:13.452] $GNGGA,025011.91,,,,,0,00,99.99,,,,,429.9,*5F
[2021-01-29 11:50:13.562] $GNGGA,025012.01,,,,,0,00,99.99,,,,,430.0,*54
[2021-01-29 11:50:13.655] $GNGGA,025012.10,,,,,0,00,99.99,,,,,430.1,*55
[2021-01-29 11:50:13.749] $GNGGA,025012.21,,,,,0,00,99.99,,,,,430.2,*54
[2021-01-29 11:50:13.859] $GNGGA,025012.30,,,,,0,00,99.99,,,,,430.3,*55
[2021-01-29 11:50:13.952] $GNGGA,025012.41,,,,,0,00,99.99,,,,,430.4,*54
[2021-01-29 11:50:14.062] $GNGGA,025012.51,,,,,0,00,99.99,,,,,430.5,*54
[2021-01-29 11:50:14.155] $GNGGA,025012.60,,,,,0,00,99.99,,,,,430.6,*55
[2021-01-29 11:50:14.257] $GNGGA,025012.71,,,,,0,00,99.99,,,,,430.7,*54
[2021-01-29 11:50:14.359] $GNGGA,025012.80,,,,,0,00,99.99,,,,,430.8,*55
[2021-01-29 11:50:14.453] $GNGGA,025012.91,,,,,0,00,99.99,,,,,430.9,*54
[2021-01-29 11:50:14.562] $GNGGA,025013.01,,,,,0,00,99.99,,,,,431.0,*54
[2021-01-29 11:50:14.656] $GNGGA,025013.10,,,,,0,00,99.99,,,,,431.1,*55
[2021-01-29 11:50:14.750] $GNGGA,025013.21,,,,,0,00,99.99,,,,,431.2,*54
[2021-01-29 11:50:14.859] $GNGGA,025013.30,,,,,0,00,99.99,,,,,431.3,*55
[2021-01-29 11:50:14.953] $GNGGA,025013.41,,,,,0,00,99.99,,,,,431.4,*54
[2021-01-29 11:50:15.062] $GNGGA,025013.51,,,,,0,00,99.99,,,,,431.5,*54
[2021-01-29 11:50:15.156] $GNGGA,025013.60,,,,,0,00,99.99,,,,,431.6,*55
[2021-01-29 11:50:15.260] $GNGGA,025013.71,,,,,0,00,99.99,,,,,431.7,*54
[2021-01-29 11:50:15.361] $GNGGA,025013.80,,,,,0,00,99.99,,,,,431.8,*55
[2021-01-29 11:50:15.455] $GNGGA,025013.91,,,,,0,00,99.99,,,,,431.9,*54
[2021-01-29 11:50:15.549] $GNGGA,025014.01,,,,,0,00,99.99,,,,,432.0,*50
[2021-01-29 11:50:15.658] $GNGGA,025014.10,,,,,0,00,99.99,,,,,432.1,*51
[2021-01-29 11:50:15.752] $GNGGA,025014.21,,,,,0,00,99.99,,,,,432.2,*50
[2021-01-29 11:50:15.861] $GNGGA,025014.30,,,,,0,00,99.99,,,,,432.3,*51
[2021-01-29 11:50:15.955] $GNGGA,025014.41,,,,,0,00,99.99,,,,,432.4,*50
[2021-01-29 11:50:16.064] $GNGGA,025014.51,,,,,0,00,99.99,,,,,432.5,*50
[2021-01-29 11:50:16.158] $GNGGA,025014.60,,,,,0,00,99.99,,,,,432.6,*51
[2021-01-29 11:50:16.260] $GNGGA,025014.71,,,,,0,00,99.99,,,,,432.7,*50
[2021-01-29 11:50:16.364] $GNGGA,025014.80,,,,,0,00,99.99,,,,,432.8,*51
[2021-01-29 11:50:16.458] $GNGGA,025014.91,,,,,0,00,99.99,,,,,432.9,*50
[2021-01-29 11:50:16.552] $GNGGA,025015.01,,,,,0,00,99.99,,,,,433.0,*50
[2021-01-29 11:50:16.661] $GNGGA,025015.10,,,,,0,00,99.99,,,,,433.1,*51
[2021-01-29 11:50:16.755] $GNGGA,025015.21,,,,,0,00,99.99,,,,,433.2,*50
[2021-01-29 11:50:16.864] $GNGGA,025015.30,,,,,0,00,99.99,,,,,433.3,*51
[2021-01-29 11:50:16.958] $GNGGA,025015.41,,,,,0,00,99.99,,,,,433.4,*50
[2021-01-29 11:50:17.052] $GNGGA,025015.51,,,,,0,00,99.99,,,,,433.5,*50
[2021-01-29 11:50:17.161] $GNGGA,025015.60,,,,,0,00,99.99,,,,,433.6,*51
[2021-01-29 11:50:17.261] $GNGGA,025015.71,,,,,0,00,99.99,,,,,433.7,*50
[2021-01-29 11:50:17.350] $GNGGA,025015.80,,,,,0,00,99.99,,,,,433.8,*51
[2021-01-29 11:50:17.459] $GNGGA,025015.91,,,,,0,00,99.99,,,,,433.9,*50
[2021-01-29 11:50:17.553] $GNGGA,025016.01,,,,,0,00,99.99,,,,,434.0,*54
[2021-01-29 11:50:17.662] $GNGGA,025016.10,,,,,0,00,99.99,,,,,434.1,*55
[2021-01-29 11:50:17.756] $GNGGA,025016.21,,,,,0,00,99.99,,,,,434.2,*54
[2021-01-29 11:50:17.850] $GNGGA,025016.30,,,,,0,00,99.99,,,,,434.3,*55
[2021-01-29 11:50:17.959] $GNGGA,025016.41,,,,,0,00,99.99,,,,,434.4,*54
[2021-01-29 11:50:18.053] $GNGGA,025016.51,,,,,0,00,99.99,,,,,434.5,*54
[2021-01-29 11:50:18.162] $GNGGA,025016.60,,,,,0,00,99.99,,,,,434.6,*55
[2021-01-29 11:50:18.259] $GNGGA,025016.71,,,,,0,00,99.99,,,,,434.7,*54
[2021-01-29 11:50:18.351] $GNGGA,025016.80,,,,,0,00,99.99,,,,,434.8,*55
[2021-01-29 11:50:18.460] $GNGGA,025016.91,,,,,0,00,99.99,,,,,434.9,*54
[2021-01-29 11:50:18.554] $GNGGA,025017.01,,,,,0,00,99.99,,,,,435.0,*54
[2021-01-29 11:50:18.663] $GNGGA,025017.10,,,,,0,00,99.99,,,,,435.1,*55
[2021-01-29 11:50:18.757] $GNGGA,025017.21,,,,,0,00,99.99,,,,,435.2,*54
[2021-01-29 11:50:18.851] $GNGGA,025017.30,,,,,0,00,99.99,,,,,435.3,*55
[2021-01-29 11:50:18.960] $GNGGA,025017.41,,,,,0,00,99.99,,,,,435.4,*54
[2021-01-29 11:50:19.054] $GNGGA,025017.51,,,,,0,00,99.99,,,,,435.5,*54
[2021-01-29 11:50:19.163] $GNGGA,025017.60,,,,,0,00,99.99,,,,,435.6,*55
[2021-01-29 11:50:19.257] $GNGGA,025017.71,,,,,0,00,99.99,,,,,435.7,*54
[2021-01-29 11:50:19.352] $GNGGA,025017.80,,,,,0,00,99.99,,,,,435.8,*55
[2021-01-29 11:50:19.461] $GNGGA,025017.91,,,,,0,00,99.99,,,,,435.9,*54
[2021-01-29 11:50:19.555] $GNGGA,025018.01,,,,,0,00,99.99,,,,,436.0,*58
[2021-01-29 11:50:19.664] $GNGGA,025018.10,,,,,0,00,99.99,,,,,436.1,*59
[2021-01-29 11:50:19.758] $GNGGA,025018.21,,,,,0,00,99.99,,,,,436.2,*58
[2021-01-29 11:50:19.852] $GNGGA,025018.30,,,,,0,00,99.99,,,,,436.3,*59
[2021-01-29 11:50:19.961] $GNGGA,025018.41,,,,,0,00,99.99,,,,,436.4,*58
[2021-01-29 11:50:20.055] $GNGGA,025018.51,,,,,0,00,99.99,,,,,436.5,*58
[2021-01-29 11:50:20.164] $GNGGA,025018.60,,,,,0,00,99.99,,,,,436.6,*59
[2021-01-29 11:50:20.259] $GNGGA,025018.71,,,,,0,00,99.99,,,,,436.7,*58
[2021-01-29 11:50:20.355] $GNGGA,025018.80,,,,,0,00,99.99,,,,,436.8,*59
[2021-01-29 11:50:20.464] $GNGGA,025018.91,,,,,0,00,99.99,,,,,436.9,*58
[2021-01-29 11:50:20.558] $GNGGA,025019.01,,,,,0,00,99.99,,,,,437.0,*58
[2021-01-29 11:50:20.652] $GNGGA,025019.10,,,,,0,00,99.99,,,,,437.1,*59
[2021-01-29 11:50:20.761] $GNGGA,025019.21,,,,,0,00,99.99,,,,,437.2,*58
[2021-01-29 11:50:20.855] $GNGGA,025019.30,,,,,0,00,99.99,,,,,437.3,*59
[2021-01-29 11:50:20.964] $GNGGA,025019.41,,,,,0,00,99.99,,,,,437.4,*58
[2021-01-29 11:50:21.058] $GNGGA,025019.51,,,,,0,00,99.99,,,,,437.5,*58
[2021-01-29 11:50:21.151] $GNGGA,025019.60,,,,,0,00,99.99,,,,,437.6,*59
[2021-01-29 11:50:21.260] $GNGGA,025019.71,,,,,0,00,99.99,,,,,437.7,*58
[2021-01-29 11:50:21.355] $GNGGA,025019.80,,,,,0,00,99.99,,,,,437.8,*59
[2021-01-29 11:50:21.464] $GNGGA,025019.91,,,,,0,00,99.99,,,,,437.9,*58
[2021-01-29 11:50:21.558] $GNGGA,025020.01,,,,,0,00,99.99,,,,,438.0,*5D
[2021-01-29 11:50:21.652] $GNGGA,025020.10,,,,,0,00,99.99,,,,,438.1,*5C
[2021-01-29 11:50:21.761] $GNGGA,025020.21,,,,,0,00,99.99,,,,,438.2,*5D
[2021-01-29 11:50:21.855] $GNGGA,025020.30,,,,,0,00,99.99,,,,,438.3,*5C
[2021-01-29 11:50:21.949] $GNGGA,025020.41,,,,,0,00,99.99,,,,,438.4,*5D
[2021-01-29 11:50:22.058] $GNGGA,025020.51,,,,,0,00,99.99,,,,,438.5,*5D
[2021-01-29 11:50:22.152] $GNGGA,025020.60,,,,,0,00,99.99,,,,,438.6,*5C
[2021-01-29 11:50:22.263] $GNGGA,025020.71,,,,,0,00,99.99,,,,,438.7,*5D
[2021-01-29 11:50:22.356] $GNGGA,025020.80,,,,,0,00,99.99,,,,,438.8,*5C
[2021-01-29 11:50:22.450] $GNGGA,025020.91,,,,,0,00,99.99,,,,,438.9,*5D
[2021-01-29 11:50:22.560] $GNGGA,025021.01,,,,,0,00,99.99,,,,,439.0,*5D
[2021-01-29 11:50:22.653] $GNGGA,025021.10,,,,,0,00,99.99,,,,,439.1,*5C
[2021-01-29 11:50:22.763] $GNGGA,025021.21,,,,,0,00,99.99,,,,,439.2,*5D
[2021-01-29 11:50:22.856] $GNGGA,025021.30,,,,,0,00,99.99,,,,,439.3,*5C
[2021-01-29 11:50:22.950] $GNGGA,025021.41,,,,,0,00,99.99,,,,,439.4,*5D
[2021-01-29 11:50:23.060] $GNGGA,025021.51,,,,,0,00,99.99,,,,,439.5,*5D
[2021-01-29 11:50:23.153] $GNGGA,025021.60,,,,,0,00,99.99,,,,,439.6,*5C
[2021-01-29 11:50:23.264] $GNGGA,025021.71,,,,,0,00,99.99,,,,,439.7,*5D
[2021-01-29 11:50:23.358] $GNGGA,025021.80,,,,,0,00,99.99,,,,,439.8,*5C
[2021-01-29 11:50:23.451] $GNGGA,025021.90,4327.734082000,N,14148.356526000,E,1,06,2.72,110.456,M,31.864,M,439.9,*69
[2021-01-29 11:50:23.561] $GNGGA,025022.00,4327.734034000,N,14148.356466000,E,1,08,2.03,109.967,M,31.864,M,440.0,*63
[2021-01-29 11:50:23.654] $GNGGA,025022.10,4327.733746000,N,14148.356712000,E,1,08,2.03,109.767,M,31.864,M,440.1,*68
[2021-01-29 11:50:23.764] $GNGGA,025022.20,4327.733584000,N,14148.356994000,E,1,08,1.90,109.238,M,31.864,M,440.2,*62
[2021-01-29 11:50:23.858] $GNGGA,025022.30,4327.733488000,N,14148.357066000,E,1,08,1.90,108.851,M,31.864,M,440.3,*6E
[2021-01-29 11:50:23.951] $GNGGA,025022.40,4327.733512000,N,14148.357102000,E,1,08,1.90,108.253,M,31.864,M,440.4,*67
[2021-01-29 11:50:24.061] $GNGGA,025022.50,4327.733482000,N,14148.357246000,E,1,08,1.90,107.831,M,31.864,M,440.5,*6D
[2021-01-29 11:50:24.154] $GNGGA,025022.60,4327.733326000,N,14148.357396000,E,1,08,1.90,107.355,M,31.864,M,440.6,*61
[2021-01-29 11:50:24.258] $GNGGA,025022.70,4327.733158000,N,14148.357582000,E,1,08,1.90,107.214,M,31.864,M,440.7,*6D
[2021-01-29 11:50:24.361] $GNGGA,025022.80,4327.732936000,N,14148.357744000,E,1,08,1.90,107.237,M,31.864,M,440.8,*65
[2021-01-29 11:50:24.455] $GNGGA,025022.90,4327.732804000,N,14148.357822000,E,1,08,1.90,107.232,M,31.864,M,440.9,*6F
[2021-01-29 11:50:24.564] $GNGGA,025023.00,4327.732684000,N,14148.358026000,E,1,08,1.90,107.048,M,31.864,M,441.0,*65
[2021-01-29 11:50:24.658] $GNGGA,025023.10,4327.732642000,N,14148.358026000,E,1,08,1.90,106.760,M,31.864,M,441.1,*63
[2021-01-29 11:50:24.752] $GNGGA,025023.20,4327.732546000,N,14148.358188000,E,1,08,1.90,106.493,M,31.864,M,441.2,*6E
[2021-01-29 11:50:24.861] $GNGGA,025023.30,4327.732420000,N,14148.358386000,E,1,08,1.90,106.558,M,31.864,M,441.3,*65
[2021-01-29 11:50:24.955] $GNGGA,025023.40,4327.732558000,N,14148.358194000,E,1,08,1.90,106.325,M,31.864,M,441.4,*66
[2021-01-29 11:50:25.064] $GNGGA,025023.50,4327.732660000,N,14148.358002000,E,1,08,1.90,106.405,M,31.864,M,441.5,*65
[2021-01-29 11:50:25.158] $GNGGA,025023.60,4327.732762000,N,14148.357870000,E,1,08,1.81,106.392,M,31.864,M,441.6,*6D
[2021-01-29 11:50:25.258] $GNGGA,025023.70,4327.732768000,N,14148.357786000,E,1,09,1.14,106.487,M,31.864,M,441.7,*6F
[2021-01-29 11:50:25.361] $GNGGA,025023.80,4327.732816000,N,14148.357690000,E,1,09,1.14,106.551,M,31.864,M,441.8,*65
[2021-01-29 11:50:25.455] $GNGGA,025023.90,4327.732846000,N,14148.357630000,E,1,09,1.14,106.720,M,31.864,M,441.9,*6E
[2021-01-29 11:50:25.564] $GNGGA,025024.00,4327.732864000,N,14148.357594000,E,1,09,1.14,106.861,M,31.864,M,442.0,*6D
[2021-01-29 11:50:25.658] $GNGGA,025024.10,4327.732900000,N,14148.357546000,E,1,09,0.94,106.881,M,31.864,M,442.1,*66
[2021-01-29 11:50:25.752] $GNGGA,025024.20,4327.732924000,N,14148.357504000,E,1,09,0.94,106.969,M,31.864,M,442.2,*61
[2021-01-29 11:50:25.861] $GNGGA,025024.30,4327.732918000,N,14148.357468000,E,1,10,0.94,107.159,M,31.864,M,442.3,*67
[2021-01-29 11:50:25.955] $GNGGA,025024.40,4327.732912000,N,14148.357450000,E,1,10,0.94,107.358,M,31.864,M,442.4,*65
[2021-01-29 11:50:26.064] $GNGGA,025024.50,4327.732924000,N,14148.357420000,E,1,10,0.94,107.504,M,31.864,M,442.5,*68
[2021-01-29 11:50:26.158] $GNGGA,025024.60,4327.732924000,N,14148.357408000,E,1,10,0.94,107.643,M,31.864,M,442.6,*62
[2021-01-29 11:50:26.261] $GNGGA,025024.70,4327.732912000,N,14148.357414000,E,1,10,0.94,107.758,M,31.864,M,442.7,*61
[2021-01-29 11:50:26.363] $GNGGA,025024.80,4327.732918000,N,14148.357396000,E,1,10,0.94,107.862,M,31.864,M,442.8,*60
[2021-01-29 11:50:26.457] $GNGGA,025024.90,4327.732906000,N,14148.357432000,E,1,11,0.94,107.923,M,31.864,M,442.9,*63
[2021-01-29 11:50:26.551] $GNGGA,025025.00,4327.732894000,N,14148.357438000,E,1,11,0.94,107.950,M,31.864,M,443.0,*67
[2021-01-29 11:50:26.660] $GNGGA,025025.10,4327.732894000,N,14148.357450000,E,1,12,0.94,107.960,M,31.864,M,443.1,*69
[2021-01-29 11:50:26.754] $GNGGA,025025.20,4327.732888000,N,14148.357462000,E,1,12,0.94,107.957,M,31.864,M,443.2,*61
[2021-01-29 11:50:26.863] $GNGGA,025025.30,4327.732876000,N,14148.357462000,E,1,12,0.94,107.951,M,31.864,M,443.3,*66
[2021-01-29 11:50:26.957] $GNGGA,025025.40,4327.732870000,N,14148.357468000,E,1,12,0.94,107.957,M,31.864,M,443.4,*6C
[2021-01-29 11:50:27.051] $GNGGA,025025.50,4327.732864000,N,14148.357474000,E,1,12,0.94,107.943,M,31.864,M,443.5,*61
[2021-01-29 11:50:27.160] $GNGGA,025025.60,4327.732864000,N,14148.357480000,E,1,12,0.94,107.919,M,31.864,M,443.6,*65
[2021-01-29 11:50:27.263] $GNGGA,025025.70,4327.732858000,N,14148.357504000,E,1,12,0.94,107.870,M,31.864,M,443.7,*69
[2021-01-29 11:50:27.363] $GNGGA,025025.80,4327.732846000,N,14148.357528000,E,1,12,0.94,107.830,M,31.864,M,443.8,*6C
[2021-01-29 11:50:27.457] $GNGGA,025025.90,4327.732834000,N,14148.357546000,E,1,12,0.94,107.801,M,31.864,M,443.9,*63
[2021-01-29 11:50:27.551] $GNGGA,025026.00,4327.732834000,N,14148.357558000,E,1,12,0.94,107.776,M,31.864,M,444.0,*67
[2021-01-29 11:50:27.660] $GNGGA,025026.10,4327.732834000,N,14148.357564000,E,1,12,0.94,107.750,M,31.864,M,444.1,*6C
[2021-01-29 11:50:27.754] $GNGGA,025026.20,4327.732828000,N,14148.357582000,E,1,12,0.94,107.717,M,31.864,M,444.2,*6A
[2021-01-29 11:50:27.863] $GNGGA,025026.30,4327.732810000,N,14148.357612000,E,1,12,0.91,107.679,M,31.864,M,444.3,*67
[2021-01-29 11:50:27.957] $GNGGA,025026.40,4327.732804000,N,14148.357630000,E,1,12,0.91,107.643,M,31.864,M,444.4,*6B
[2021-01-29 11:50:28.051] $GNGGA,025026.50,4327.732804000,N,14148.357636000,E,1,12,0.91,107.624,M,31.864,M,444.5,*6C
[2021-01-29 11:50:28.160] $GNGGA,025026.60,4327.732804000,N,14148.357636000,E,1,12,0.91,107.615,M,31.864,M,444.6,*6E
[2021-01-29 11:50:28.264] $GNGGA,025026.70,4327.732804000,N,14148.357642000,E,1,12,0.91,107.585,M,31.864,M,444.7,*67
[2021-01-29 11:50:28.350] $GNGGA,025026.80,4327.732804000,N,14148.357648000,E,1,12,0.91,107.555,M,31.864,M,444.8,*60
[2021-01-29 11:50:28.460] $GNGGA,025026.90,4327.732804000,N,14148.357654000,E,1,12,0.91,107.527,M,31.864,M,444.9,*68
[2021-01-29 11:50:28.553] $GNGGA,025027.00,4327.732804000,N,14148.357654000,E,1,12,0.91,107.500,M,31.864,M,445.0,*6D
[2021-01-29 11:50:28.663] $GNGGA,025027.10,4327.732804000,N,14148.357648000,E,1,12,0.91,107.461,M,31.864,M,445.1,*66
[2021-01-29 11:50:28.756] $GNGGA,025027.20,4327.732804000,N,14148.357654000,E,1,12,0.91,107.423,M,31.864,M,445.2,*6D
[2021-01-29 11:50:28.850] $GNGGA,025027.30,4327.732804000,N,14148.357660000,E,1,12,0.91,107.384,M,31.864,M,445.3,*60
[2021-01-29 11:50:28.959] $GNGGA,025027.40,4327.732804000,N,14148.357654000,E,1,12,0.91,107.351,M,31.864,M,445.4,*6F
[2021-01-29 11:50:29.053] $GNGGA,025027.50,4327.732804000,N,14148.357654000,E,1,12,0.91,107.316,M,31.864,M,445.5,*6C
[2021-01-29 11:50:29.163] $GNGGA,025027.60,4327.732804000,N,14148.357660000,E,1,12,0.91,107.277,M,31.864,M,445.6,*6D
[2021-01-29 11:50:29.256] $GNGGA,025027.70,4327.732804000,N,14148.357660000,E,1,12,0.91,107.251,M,31.864,M,445.7,*69
[2021-01-29 11:50:29.353] $GNGGA,025027.80,4327.732804000,N,14148.357660000,E,1,12,0.91,107.221,M,31.864,M,445.8,*6E
[2021-01-29 11:50:29.462] $GNGGA,025027.90,4327.732804000,N,14148.357660000,E,1,12,0.91,107.192,M,31.864,M,445.9,*65
[2021-01-29 11:50:29.556] $GNGGA,025028.00,4327.732804000,N,14148.357660000,E,1,12,0.91,107.165,M,31.864,M,446.0,*61
[2021-01-29 11:50:29.650] $GNGGA,025028.10,4327.732804000,N,14148.357660000,E,1,12,0.91,107.139,M,31.864,M,446.1,*68
[2021-01-29 11:50:29.759] $GNGGA,025028.20,4327.732804000,N,14148.357660000,E,1,12,0.91,107.122,M,31.864,M,446.2,*62
[2021-01-29 11:50:29.853] $GNGGA,025028.30,4327.732804000,N,14148.357660000,E,1,12,0.91,107.106,M,31.864,M,446.3,*64
[2021-01-29 11:50:29.962] $GNGGA,025028.40,4327.732804000,N,14148.357654000,E,1,12,0.91,107.093,M,31.864,M,446.4,*6E
[2021-01-29 11:50:30.056] $GNGGA,025028.50,4327.732810000,N,14148.357654000,E,1,12,0.91,107.081,M,31.864,M,446.5,*68
[2021-01-29 11:50:30.150] $GNGGA,025028.60,4327.732804000,N,14148.357654000,E,1,12,0.91,107.069,M,31.864,M,446.6,*6B
[2021-01-29 11:50:30.258] $GNGGA,025028.70,4327.732810000,N,14148.357654000,E,1,12,0.91,107.057,M,31.864,M,446.7,*63
[2021-01-29 11:50:30.353] $GNGGA,025028.80,4327.732810000,N,14148.357654000,E,1,12,0.91,107.048,M,31.864,M,446.8,*6D
[2021-01-29 11:50:30.462] $GNGGA,025028.90,4327.732810000,N,14148.357660000,E,1,12,0.91,107.036,M,31.864,M,446.9,*63
[2021-01-29 11:50:30.556] $GNGGA,025029.00,4327.732810000,N,14148.357654000,E,1,12,0.91,107.027,M,31.864,M,447.0,*64
[2021-01-29 11:50:30.649] $GNGGA,025029.10,4327.732810000,N,14148.357654000,E,1,12,0.91,107.017,M,31.864,M,447.1,*67
[2021-01-29 11:50:30.759] $GNGGA,025029.20,4327.732816000,N,14148.357654000,E,1,12,0.91,107.004,M,31.864,M,447.2,*63
[2021-01-29 11:50:30.853] $GNGGA,025029.30,4327.732816000,N,14148.357654000,E,1,12,0.91,106.995,M,31.864,M,447.3,*63
[2021-01-29 11:50:30.962] $GNGGA,025029.40,4327.732816000,N,14148.357654000,E,1,12,0.91,106.979,M,31.864,M,447.4,*61
[2021-01-29 11:50:31.056] $GNGGA,025029.50,4327.732816000,N,14148.357654000,E,1,12,0.91,106.968,M,31.864,M,447.5,*61
[2021-01-29 11:50:31.149] $GNGGA,025029.60,4327.732816000,N,14148.357654000,E,1,12,0.91,106.957,M,31.864,M,447.6,*6D
[2021-01-29 11:50:31.260] $GNGGA,025029.70,4327.732822000,N,14148.357654000,E,1,12,0.91,106.945,M,31.864,M,447.7,*69
[2021-01-29 11:50:31.355] $GNGGA,025029.80,4327.732822000,N,14148.357654000,E,1,12,0.91,106.936,M,31.864,M,447.8,*6D
[2021-01-29 11:50:31.464] $GNGGA,025029.90,4327.732828000,N,14148.357648000,E,1,12,0.91,106.930,M,31.864,M,447.9,*6C
[2021-01-29 11:50:31.558] $GNGGA,025030.00,4327.732828000,N,14148.357648000,E,1,12,0.91,106.917,M,31.864,M,448.0,*6E
[2021-01-29 11:50:31.651] $GNGGA,025030.10,4327.732834000,N,14148.357642000,E,1,12,0.91,106.906,M,31.864,M,448.1,*69
[2021-01-29 11:50:31.761] $GNGGA,025030.20,4327.732840000,N,14148.357642000,E,1,12,0.91,106.896,M,31.864,M,448.2,*62
[2021-01-29 11:50:31.854] $GNGGA,025030.30,4327.732840000,N,14148.357642000,E,1,12,0.91,106.882,M,31.864,M,448.3,*67
[2021-01-29 11:50:31.964] $GNGGA,025030.40,4327.732846000,N,14148.357636000,E,1,12,0.91,106.874,M,31.864,M,448.4,*6B
[2021-01-29 11:50:32.058] $GNGGA,025030.50,4327.732846000,N,14148.357636000,E,1,12,0.91,106.863,M,31.864,M,448.5,*6D
[2021-01-29 11:50:32.151] $GNGGA,025030.60,4327.732852000,N,14148.357636000,E,1,12,0.91,106.852,M,31.864,M,448.6,*6A
[2021-01-29 11:50:32.261] $GNGGA,025030.70,4327.732858000,N,14148.357630000,E,1,12,0.91,106.842,M,31.864,M,448.7,*67
[2021-01-29 11:50:32.356] $GNGGA,025030.80,4327.732858000,N,14148.357624000,E,1,12,0.91,106.839,M,31.864,M,448.8,*6E
[2021-01-29 11:50:32.450] $GNGGA,025030.90,4327.732864000,N,14148.357624000,E,1,12,0.91,106.828,M,31.864,M,448.9,*61
[2021-01-29 11:50:32.559] $GNGGA,025031.00,4327.732870000,N,14148.357618000,E,1,12,0.91,106.821,M,31.864,M,449.0,*62
[2021-01-29 11:50:32.653] $GNGGA,025031.10,4327.732870000,N,14148.357612000,E,1,12,0.91,106.816,M,31.864,M,449.1,*6C
[2021-01-29 11:50:32.762] $GNGGA,025031.20,4327.732876000,N,14148.357612000,E,1,12,0.91,106.813,M,31.864,M,449.2,*6F
[2021-01-29 11:50:32.856] $GNGGA,025031.30,4327.732882000,N,14148.357606000,E,1,12,0.91,106.807,M,31.864,M,449.3,*64
[2021-01-29 11:50:32.950] $GNGGA,025031.40,4327.732882000,N,14148.357606000,E,1,12,0.91,106.802,M,31.864,M,449.4,*61
[2021-01-29 11:50:33.059] $GNGGA,025031.50,4327.732888000,N,14148.357606000,E,1,12,0.91,106.792,M,31.864,M,449.5,*6D
[2021-01-29 11:50:33.153] $GNGGA,025031.60,4327.732888000,N,14148.357600000,E,1,12,0.91,106.792,M,31.864,M,449.6,*6B
[2021-01-29 11:50:33.263] $GNGGA,025031.70,4327.732894000,N,14148.357600000,E,1,12,0.91,106.780,M,31.864,M,449.7,*65
[2021-01-29 11:50:33.357] $GNGGA,025031.80,4327.732894000,N,14148.357594000,E,1,12,0.91,106.774,M,31.864,M,449.8,*60
[2021-01-29 11:50:33.451] $GNGGA,025031.90,4327.732894000,N,14148.357594000,E,1,12,0.91,106.770,M,31.864,M,449.9,*64
[2021-01-29 11:50:33.560] $GNGGA,025032.00,4327.732900000,N,14148.357588000,E,1,12,0.91,106.762,M,31.864,M,450.0,*6D
[2021-01-29 11:50:33.654] $GNGGA,025032.10,4327.732900000,N,14148.357582000,E,1,12,0.91,106.761,M,31.864,M,450.1,*64
[2021-01-29 11:50:33.763] $GNGGA,025032.20,4327.732906000,N,14148.357582000,E,1,12,0.91,106.753,M,31.864,M,450.2,*63
[2021-01-29 11:50:33.857] $GNGGA,025032.30,4327.732912000,N,14148.357582000,E,1,12,0.91,106.746,M,31.864,M,450.3,*62
[2021-01-29 11:50:33.951] $GNGGA,025032.40,4327.732912000,N,14148.357576000,E,1,12,0.91,106.742,M,31.864,M,450.4,*6D
[2021-01-29 11:50:34.060] $GNGGA,025032.50,4327.732912000,N,14148.357576000,E,1,12,0.91,106.733,M,31.864,M,450.5,*6B
[2021-01-29 11:50:34.154] $GNGGA,025032.60,4327.732918000,N,14148.357570000,E,1,12,0.91,106.727,M,31.864,M,450.6,*62
[2021-01-29 11:50:34.265] $GNGGA,025032.70,4327.732918000,N,14148.357570000,E,1,12,0.91,106.719,M,31.864,M,450.7,*6F
[2021-01-29 11:50:34.359] $GNGGA,025032.80,4327.732924000,N,14148.357570000,E,1,12,0.91,106.715,M,31.864,M,450.8,*6C
[2021-01-29 11:50:34.452] $GNGGA,025032.90,4327.732924000,N,14148.357564000,E,1,12,0.91,106.707,M,31.864,M,450.9,*6A
[2021-01-29 11:50:34.562] $GNGGA,025033.00,4327.732930000,N,14148.357564000,E,1,12,0.91,106.702,M,31.864,M,451.0,*6A
[2021-01-29 11:50:34.655] $GNGGA,025033.10,4327.732930000,N,14148.357564000,E,1,12,0.91,106.698,M,31.864,M,451.1,*68
[2021-01-29 11:50:34.749] $GNGGA,025033.20,4327.732936000,N,14148.357558000,E,1,12,0.91,106.693,M,31.864,M,451.2,*6A
[2021-01-29 11:50:34.859] $GNGGA,025033.30,4327.732936000,N,14148.357558000,E,1,12,0.91,106.684,M,31.864,M,451.3,*6C
[2021-01-29 11:50:34.952] $GNGGA,025033.40,4327.732936000,N,14148.357558000,E,1,12,0.91,106.678,M,31.864,M,451.4,*6F
[2021-01-29 11:50:35.062] $GNGGA,025033.50,4327.732942000,N,14148.357552000,E,1,12,0.91,106.676,M,31.864,M,451.5,*68
[2021-01-29 11:50:35.155] $GNGGA,025033.60,4327.732942000,N,14148.357552000,E,1,12,0.91,106.670,M,31.864,M,451.6,*6E
[2021-01-29 11:50:35.265] $GNGGA,025033.70,4327.732948000,N,14148.357546000,E,1,12,0.91,106.666,M,31.864,M,451.7,*66
[2021-01-29 11:50:35.360] $GNGGA,025033.80,4327.732948000,N,14148.357546000,E,1,12,0.91,106.661,M,31.864,M,451.8,*61
[2021-01-29 11:50:35.454] $GNGGA,025033.90,4327.732954000,N,14148.357546000,E,1,12,0.91,106.657,M,31.864,M,451.9,*69
[2021-01-29 11:50:35.563] $GNGGA,025034.00,4327.732954000,N,14148.357546000,E,1,12,0.91,106.650,M,31.864,M,452.0,*6A
[2021-01-29 11:50:35.657] $GNGGA,025034.10,4327.732960000,N,14148.357540000,E,1,12,0.91,106.648,M,31.864,M,452.1,*62
[2021-01-29 11:50:35.750] $GNGGA,025034.20,4327.732960000,N,14148.357540000,E,1,12,0.91,106.643,M,31.864,M,452.2,*69
[2021-01-29 11:50:35.860] $GNGGA,025034.30,4327.732960000,N,14148.357540000,E,1,12,0.91,106.637,M,31.864,M,452.3,*6A
[2021-01-29 11:50:35.954] $GNGGA,025034.40,4327.732966000,N,14148.357534000,E,1,12,0.91,106.630,M,31.864,M,452.4,*68
[2021-01-29 11:50:36.063] $GNGGA,025034.50,4327.732966000,N,14148.357534000,E,1,12,0.91,106.623,M,31.864,M,452.5,*6A
[2021-01-29 11:50:36.157] $GNGGA,025034.60,4327.732966000,N,14148.357534000,E,1,12,0.91,106.619,M,31.864,M,452.6,*63
[2021-01-29 11:50:36.259] $GNGGA,025034.70,4327.732972000,N,14148.357534000,E,1,12,0.91,106.616,M,31.864,M,452.7,*69
[2021-01-29 11:50:36.362] $GNGGA,025034.80,4327.732972000,N,14148.357528000,E,1,12,0.91,106.610,M,31.864,M,452.8,*62
[2021-01-29 11:50:36.456] $GNGGA,025034.90,4327.732972000,N,14148.357528000,E,1,12,0.91,106.607,M,31.864,M,452.9,*64
[2021-01-29 11:50:36.565] $GNGGA,025035.00,4327.732978000,N,14148.357528000,E,1,12,0.91,106.603,M,31.864,M,453.0,*6A
[2021-01-29 11:50:36.659] $GNGGA,025035.10,4327.732978000,N,14148.357528000,E,1,12,0.91,106.599,M,31.864,M,453.1,*6A
[2021-01-29 11:50:36.753] $GNGGA,025035.20,4327.732978000,N,14148.357522000,E,1,12,0.91,106.597,M,31.864,M,453.2,*6E
[2021-01-29 11:50:36.862] $GNGGA,025035.30,4327.732984000,N,14148.357522000,E,1,12,0.91,106.591,M,31.864,M,453.3,*6B
[2021-01-29 11:50:36.956] $GNGGA,025035.40,4327.732984000,N,14148.357522000,E,1,12,0.91,106.589,M,31.864,M,453.4,*62
[2021-01-29 11:50:37.065] $GNGGA,025035.50,4327.732984000,N,14148.357522000,E,1,12,0.91,106.584,M,31.864,M,453.5,*6F
[2021-01-29 11:50:37.159] $GNGGA,025035.60,4327.732984000,N,14148.357522000,E,1,12,0.91,106.579,M,31.864,M,453.6,*6D
[2021-01-29 11:50:37.262] $GNGGA,025035.70,4327.732990000,N,14148.357522000,E,1,12,0.91,106.570,M,31.864,M,453.7,*61
[2021-01-29 11:50:37.364] $GNGGA,025035.80,4327.732990000,N,14148.357522000,E,1,12,0.91,106.566,M,31.864,M,453.8,*66
[2021-01-29 11:50:37.458] $GNGGA,025035.90,4327.732990000,N,14148.357522000,E,1,12,0.91,106.566,M,31.864,M,453.9,*66
[2021-01-29 11:50:37.551] $GNGGA,025036.00,4327.732990000,N,14148.357522000,E,1,12,0.91,106.559,M,31.864,M,454.0,*6E
[2021-01-29 11:50:37.661] $GNGGA,025036.10,4327.732996000,N,14148.357522000,E,1,12,0.91,106.553,M,31.864,M,454.1,*62
[2021-01-29 11:50:37.755] $GNGGA,025036.20,4327.732996000,N,14148.357522000,E,1,12,0.91,106.552,M,31.864,M,454.2,*63
[2021-01-29 11:50:37.864] $GNGGA,025036.30,4327.732996000,N,14148.357522000,E,1,12,0.91,106.549,M,31.864,M,454.3,*69
[2021-01-29 11:50:37.958] $GNGGA,025036.40,4327.732996000,N,14148.357516000,E,1,12,0.91,106.544,M,31.864,M,454.4,*63
[2021-01-29 11:50:38.051] $GNGGA,025036.50,4327.732996000,N,14148.357522000,E,1,12,0.91,106.539,M,31.864,M,454.5,*6E
[2021-01-29 11:50:38.161] $GNGGA,025036.60,4327.732996000,N,14148.357522000,E,1,12,0.91,106.535,M,31.864,M,454.6,*62
[2021-01-29 11:50:38.264] $GNGGA,025036.70,4327.733002000,N,14148.357522000,E,1,12,0.80,106.529,M,31.864,M,454.7,*6A
[2021-01-29 11:50:38.349] $GNGGA,025036.80,4327.733002000,N,14148.357516000,E,1,12,0.80,106.529,M,31.864,M,454.8,*6D
[2021-01-29 11:50:38.458] $GNGGA,025036.90,4327.733002000,N,14148.357516000,E,1,12,0.80,106.522,M,31.864,M,454.9,*66
[2021-01-29 11:50:38.552] $GNGGA,025037.00,4327.733002000,N,14148.357516000,E,1,12,0.80,106.520,M,31.864,M,455.0,*64
[2021-01-29 11:50:38.662] $GNGGA,025037.10,4327.733002000,N,14148.357516000,E,1,12,0.80,106.513,M,31.864,M,455.1,*64
[2021-01-29 11:50:38.755] $GNGGA,025037.20,4327.733008000,N,14148.357516000,E,1,12,0.80,106.515,M,31.864,M,455.2,*68
[2021-01-29 11:50:38.865] $GNGGA,025037.30,4327.733008000,N,14148.357516000,E,1,12,0.80,106.509,M,31.864,M,455.3,*65
[2021-01-29 11:50:38.958] $GNGGA,025037.40,4327.733008000,N,14148.357510000,E,1,12,0.80,106.508,M,31.864,M,455.4,*62
[2021-01-29 11:50:39.052] $GNGGA,025037.50,4327.733008000,N,14148.357510000,E,1,12,0.80,106.502,M,31.864,M,455.5,*68
[2021-01-29 11:50:39.161] $GNGGA,025037.60,4327.733008000,N,14148.357510000,E,1,12,0.80,106.502,M,31.864,M,455.6,*68
[2021-01-29 11:50:39.264] $GNGGA,025037.70,4327.733008000,N,14148.357510000,E,1,12,0.80,106.496,M,31.864,M,455.7,*64
[2021-01-29 11:50:39.352] $GNGGA,025037.80,4327.733014000,N,14148.357510000,E,1,12,0.80,106.495,M,31.864,M,455.8,*6A
[2021-01-29 11:50:39.461] $GNGGA,025037.90,4327.733008000,N,14148.357510000,E,1,12,0.80,106.491,M,31.864,M,455.9,*63
[2021-01-29 11:50:39.555] $GNGGA,025038.00,4327.733014000,N,14148.357510000,E,1,12,0.80,106.487,M,31.864,M,456.0,*65
[2021-01-29 11:50:39.664] $GNGGA,025038.10,4327.733014000,N,14148.357510000,E,1,12,0.80,106.484,M,31.864,M,456.1,*66
[2021-01-29 11:50:39.758] $GNGGA,025038.20,4327.733014000,N,14148.357510000,E,1,12,0.80,106.483,M,31.864,M,456.2,*61
[2021-01-29 11:50:39.852] $GNGGA,025038.30,4327.733014000,N,14148.357504000,E,1,12,0.80,106.484,M,31.864,M,456.3,*63
[2021-01-29 11:50:39.961] $GNGGA,025038.40,4327.733014000,N,14148.357504000,E,1,12,0.80,106.477,M,31.864,M,456.4,*6F
[2021-01-29 11:50:40.055] $GNGGA,025038.50,4327.733014000,N,14148.357504000,E,1,12,0.80,106.476,M,31.864,M,456.5,*6E
[2021-01-29 11:50:40.164] $GNGGA,025038.60,4327.733020000,N,14148.357504000,E,1,12,0.80,106.476,M,31.864,M,456.6,*69
[2021-01-29 11:50:40.257] $GNGGA,025038.70,4327.733020000,N,14148.357498000,E,1,12,0.80,106.477,M,31.864,M,456.7,*6C
[2021-01-29 11:50:40.354] $GNGGA,025038.80,4327.733020000,N,14148.357498000,E,1,12,0.80,106.472,M,31.864,M,456.8,*69
[2021-01-29 11:50:40.463] $GNGGA,025038.90,4327.733020000,N,14148.357498000,E,1,12,0.80,106.475,M,31.864,M,456.9,*6E
[2021-01-29 11:50:40.557] $GNGGA,025039.00,4327.733020000,N,14148.357498000,E,1,12,0.80,106.478,M,31.864,M,457.0,*63
[2021-01-29 11:50:40.651] $GNGGA,025039.10,4327.733020000,N,14148.357498000,E,1,12,0.80,106.470,M,31.864,M,457.1,*6B
[2021-01-29 11:50:40.760] $GNGGA,025039.20,4327.733026000,N,14148.357492000,E,1,12,0.80,106.472,M,31.864,M,457.2,*65
[2021-01-29 11:50:40.854] $GNGGA,025039.30,4327.733026000,N,14148.357492000,E,1,12,0.80,106.472,M,31.864,M,457.3,*65
[2021-01-29 11:50:40.963] $GNGGA,025039.40,4327.733026000,N,14148.357492000,E,1,12,0.80,106.474,M,31.864,M,457.4,*63
[2021-01-29 11:50:41.057] $GNGGA,025039.50,4327.733026000,N,14148.357492000,E,1,12,0.80,106.472,M,31.864,M,457.5,*65
[2021-01-29 11:50:41.151] $GNGGA,025039.60,4327.733026000,N,14148.357492000,E,1,12,0.80,106.471,M,31.864,M,457.6,*66
[2021-01-29 11:50:41.260] $GNGGA,025039.70,4327.733026000,N,14148.357486000,E,1,12,0.80,106.474,M,31.864,M,457.7,*66
[2021-01-29 11:50:41.354] $GNGGA,025039.80,4327.733032000,N,14148.357486000,E,1,12,0.80,106.467,M,31.864,M,457.8,*61
[2021-01-29 11:50:41.464] $GNGGA,025039.90,4327.733032000,N,14148.357486000,E,1,12,0.80,106.466,M,31.864,M,457.9,*60
[2021-01-29 11:50:41.557] $GNGGA,025040.00,4327.733032000,N,14148.357486000,E,1,12,0.80,106.470,M,31.864,M,458.0,*66
[2021-01-29 11:50:41.651] $GNGGA,025040.10,4327.733032000,N,14148.357486000,E,1,12,0.80,106.466,M,31.864,M,458.1,*61
[2021-01-29 11:50:41.760] $GNGGA,025040.20,4327.733032000,N,14148.357486000,E,1,12,0.80,106.465,M,31.864,M,458.2,*62
[2021-01-29 11:50:41.854] $GNGGA,025040.30,4327.733032000,N,14148.357486000,E,1,12,0.80,106.464,M,31.864,M,458.3,*63
[2021-01-29 11:50:41.963] $GNGGA,025040.40,4327.733032000,N,14148.357480000,E,1,12,0.80,106.465,M,31.864,M,458.4,*64
[2021-01-29 11:50:42.057] $GNGGA,025040.50,4327.733032000,N,14148.357480000,E,1,12,0.80,106.462,M,31.864,M,458.5,*63
[2021-01-29 11:50:42.151] $GNGGA,025040.60,4327.733038000,N,14148.357480000,E,1,12,0.80,106.461,M,31.864,M,458.6,*6A
[2021-01-29 11:50:42.261] $GNGGA,025040.70,4327.733038000,N,14148.357480000,E,1,12,0.80,106.464,M,31.864,M,458.7,*6F
[2021-01-29 11:50:42.356] $GNGGA,025040.80,4327.733038000,N,14148.357480000,E,1,12,0.80,106.461,M,31.864,M,458.8,*6A
[2021-01-29 11:50:42.450] $GNGGA,025040.90,4327.733038000,N,14148.357480000,E,1,12,0.80,106.459,M,31.864,M,458.9,*61
[2021-01-29 11:50:42.559] $GNGGA,025041.00,4327.733038000,N,14148.357474000,E,1,12,0.80,106.458,M,31.864,M,459.0,*6B
[2021-01-29 11:50:42.653] $GNGGA,025041.10,4327.733038000,N,14148.357474000,E,1,12,0.80,106.461,M,31.864,M,459.1,*61
[2021-01-29 11:50:42.762] $GNGGA,025041.20,4327.733038000,N,14148.357474000,E,1,12,0.80,106.460,M,31.864,M,459.2,*60
[2021-01-29 11:50:42.856] $GNGGA,025041.30,4327.733038000,N,14148.357474000,E,1,12,0.80,106.456,M,31.864,M,459.3,*65
[2021-01-29 11:50:42.950] $GNGGA,025041.40,4327.733038000,N,14148.357474000,E,1,12,0.80,106.454,M,31.864,M,459.4,*67
[2021-01-29 11:50:43.059] $GNGGA,025041.50,4327.733038000,N,14148.357468000,E,1,12,0.80,106.460,M,31.864,M,459.5,*6D
[2021-01-29 11:50:43.153] $GNGGA,025041.60,4327.733044000,N,14148.357468000,E,1,12,0.80,106.455,M,31.864,M,459.6,*60
[2021-01-29 11:50:43.266] $GNGGA,025041.70,4327.733044000,N,14148.357468000,E,1,12,0.80,106.458,M,31.864,M,459.7,*6D
[2021-01-29 11:50:43.360] $GNGGA,025041.80,4327.733044000,N,14148.357468000,E,1,12,0.80,106.455,M,31.864,M,459.8,*60
[2021-01-29 11:50:43.453] $GNGGA,025041.90,4327.733044000,N,14148.357468000,E,1,12,0.80,106.454,M,31.864,M,459.9,*61
[2021-01-29 11:50:43.563] $GNGGA,025042.00,4327.733044000,N,14148.357462000,E,1,12,0.80,106.455,M,31.864,M,460.0,*63
[2021-01-29 11:50:43.657] $GNGGA,025042.10,4327.733044000,N,14148.357462000,E,1,12,0.80,106.453,M,31.864,M,460.1,*65
[2021-01-29 11:50:43.750] $GNGGA,025042.20,4327.733050000,N,14148.357462000,E,1,12,0.80,106.457,M,31.864,M,460.2,*64
[2021-01-29 11:50:43.860] $GNGGA,025042.30,4327.733050000,N,14148.357462000,E,1,12,0.80,106.453,M,31.864,M,460.3,*60
[2021-01-29 11:50:43.953] $GNGGA,025042.40,4327.733050000,N,14148.357456000,E,1,12,0.80,106.455,M,31.864,M,460.4,*61
[2021-01-29 11:50:44.063] $GNGGA,025042.50,4327.733050000,N,14148.357456000,E,1,12,0.80,106.453,M,31.864,M,460.5,*67
[2021-01-29 11:50:44.157] $GNGGA,025042.60,4327.733050000,N,14148.357456000,E,1,12,0.80,106.457,M,31.864,M,460.6,*63
[2021-01-29 11:50:44.265] $GNGGA,025042.70,4327.733050000,N,14148.357456000,E,1,12,0.80,106.456,M,31.864,M,460.7,*62
[2021-01-29 11:50:44.359] $GNGGA,025042.80,4327.733050000,N,14148.357456000,E,1,12,0.80,106.461,M,31.864,M,460.8,*66
[2021-01-29 11:50:44.453] $GNGGA,025042.90,4327.733050000,N,14148.357450000,E,1,12,0.80,106.459,M,31.864,M,460.9,*6B
[2021-01-29 11:50:44.562] $GNGGA,025043.00,4327.733050000,N,14148.357450000,E,1,12,0.80,106.459,M,31.864,M,461.0,*6B
[2021-01-29 11:50:44.656] $GNGGA,025043.10,4327.733056000,N,14148.357450000,E,1,12,0.80,106.461,M,31.864,M,461.1,*66
[2021-01-29 11:50:44.765] $GNGGA,025043.20,4327.733056000,N,14148.357450000,E,1,12,0.80,106.463,M,31.864,M,461.2,*64
[2021-01-29 11:50:44.859] $GNGGA,025043.30,4327.733056000,N,14148.357444000,E,1,12,0.80,106.460,M,31.864,M,461.3,*62
[2021-01-29 11:50:44.953] $GNGGA,025043.40,4327.733056000,N,14148.357444000,E,1,12,0.80,106.463,M,31.864,M,461.4,*61
[2021-01-29 11:50:45.062] $GNGGA,025043.50,4327.733056000,N,14148.357444000,E,1,12,0.80,106.465,M,31.864,M,461.5,*67
[2021-01-29 11:50:45.156] $GNGGA,025043.60,4327.733056000,N,14148.357444000,E,1,12,0.80,106.462,M,31.864,M,461.6,*60
[2021-01-29 11:50:45.259] $GNGGA,025043.70,4327.733062000,N,14148.357438000,E,1,12,0.80,106.465,M,31.864,M,461.7,*6B
[2021-01-29 11:50:45.360] $GNGGA,025043.80,4327.733062000,N,14148.357438000,E,1,12,0.80,106.467,M,31.864,M,461.8,*69
[2021-01-29 11:50:45.454] $GNGGA,025043.90,4327.733062000,N,14148.357438000,E,1,12,0.80,106.469,M,31.864,M,461.9,*67
[2021-01-29 11:50:45.563] $GNGGA,025044.00,4327.733062000,N,14148.357432000,E,1,12,0.80,106.471,M,31.864,M,462.0,*60
[2021-01-29 11:50:45.657] $GNGGA,025044.10,4327.733062000,N,14148.357432000,E,1,12,0.80,106.469,M,31.864,M,462.1,*69
[2021-01-29 11:50:45.751] $GNGGA,025044.20,4327.733062000,N,14148.357432000,E,1,12,0.80,106.473,M,31.864,M,462.2,*62
[2021-01-29 11:50:45.860] $GNGGA,025044.30,4327.733062000,N,14148.357432000,E,1,12,0.80,106.470,M,31.864,M,462.3,*61
[2021-01-29 11:50:45.954] $GNGGA,025044.40,4327.733062000,N,14148.357432000,E,1,12,0.80,106.471,M,31.864,M,462.4,*60
[2021-01-29 11:50:46.063] $GNGGA,025044.50,4327.733062000,N,14148.357426000,E,1,12,0.80,106.473,M,31.864,M,462.5,*67
[2021-01-29 11:50:46.157] $GNGGA,025044.60,4327.733062000,N,14148.357426000,E,1,12,0.80,106.472,M,31.864,M,462.6,*66
[2021-01-29 11:50:46.260] $GNGGA,025044.70,4327.733062000,N,14148.357432000,E,1,12,0.80,106.472,M,31.864,M,462.7,*63
[2021-01-29 11:50:46.363] $GNGGA,025044.80,4327.733062000,N,14148.357426000,E,1,12,0.76,106.469,M,31.864,M,462.8,*65
[2021-01-29 11:50:46.456] $GNGGA,025044.90,4327.733062000,N,14148.357426000,E,1,12,0.76,106.472,M,31.864,M,462.9,*6F
[2021-01-29 11:50:46.550] $GNGGA,025045.00,4327.733062000,N,14148.357426000,E,1,12,0.76,106.475,M,31.864,M,463.0,*68
[2021-01-29 11:50:46.660] $GNGGA,025045.10,4327.733062000,N,14148.357426000,E,1,12,0.76,106.472,M,31.864,M,463.1,*6F
[2021-01-29 11:50:46.753] $GNGGA,025045.20,4327.733062000,N,14148.357426000,E,1,12,0.76,106.474,M,31.864,M,463.2,*69
[2021-01-29 11:50:46.863] $GNGGA,025045.30,4327.733062000,N,14148.357426000,E,1,12,0.76,106.475,M,31.864,M,463.3,*68
[2021-01-29 11:50:46.956] $GNGGA,025045.40,4327.733062000,N,14148.357420000,E,1,12,0.76,106.475,M,31.864,M,463.4,*6E
[2021-01-29 11:50:47.050] $GNGGA,025045.50,4327.733062000,N,14148.357420000,E,1,12,0.76,106.475,M,31.864,M,463.5,*6E
[2021-01-29 11:50:47.159] $GNGGA,025045.60,4327.733062000,N,14148.357420000,E,1,12,0.76,106.477,M,31.864,M,463.6,*6C
[2021-01-29 11:50:47.260] $GNGGA,025045.70,4327.733062000,N,14148.357420000,E,1,12,0.76,106.474,M,31.864,M,463.7,*6F
[2021-01-29 11:50:47.363] $GNGGA,025045.80,4327.733062000,N,14148.357420000,E,1,12,0.76,106.478,M,31.864,M,463.8,*63
[2021-01-29 11:50:47.456] $GNGGA,025045.90,4327.733062000,N,14148.357420000,E,1,12,0.76,106.477,M,31.864,M,463.9,*6C
[2021-01-29 11:50:47.550] $GNGGA,025046.00,4327.733068000,N,14148.357414000,E,1,12,0.76,106.479,M,31.864,M,464.0,*6B
[2021-01-29 11:50:47.659] $GNGGA,025046.10,4327.733062000,N,14148.357414000,E,1,12,0.76,106.483,M,31.864,M,464.1,*64
[2021-01-29 11:50:47.753] $GNGGA,025046.20,4327.733068000,N,14148.357414000,E,1,12,0.76,106.480,M,31.864,M,464.2,*6D
[2021-01-29 11:50:47.862] $GNGGA,025046.30,4327.733062000,N,14148.357414000,E,1,12,0.76,106.482,M,31.864,M,464.3,*65
[2021-01-29 11:50:47.956] $GNGGA,025046.40,4327.733068000,N,14148.357414000,E,1,12,0.76,106.484,M,31.864,M,464.4,*69
[2021-01-29 11:50:48.050] $GNGGA,025046.50,4327.733068000,N,14148.357414000,E,1,12,0.76,106.486,M,31.864,M,464.5,*6B
[2021-01-29 11:50:48.159] $GNGGA,025046.60,4327.733062000,N,14148.357414000,E,1,12,0.76,106.484,M,31.864,M,464.6,*63
[2021-01-29 11:50:48.262] $GNGGA,025046.70,4327.733068000,N,14148.357408000,E,1,12,0.76,106.488,M,31.864,M,464.7,*68
[2021-01-29 11:50:48.349] $GNGGA,025046.80,4327.733062000,N,14148.357414000,E,1,12,0.76,106.485,M,31.864,M,464.8,*62
[2021-01-29 11:50:48.459] $GNGGA,025046.90,4327.733068000,N,14148.357408000,E,1,12,0.76,106.488,M,31.864,M,464.9,*68
[2021-01-29 11:50:48.553] $GNGGA,025047.00,4327.733062000,N,14148.357408000,E,1,12,0.76,106.490,M,31.864,M,465.0,*6B
[2021-01-29 11:50:48.662] $GNGGA,025047.10,4327.733062000,N,14148.357408000,E,1,12,0.76,106.490,M,31.864,M,465.1,*6B
[2021-01-29 11:50:48.756] $GNGGA,025047.20,4327.733068000,N,14148.357408000,E,1,12,0.76,106.488,M,31.864,M,465.2,*68
[2021-01-29 11:50:48.849] $GNGGA,025047.30,4327.733062000,N,14148.357408000,E,1,12,0.76,106.487,M,31.864,M,465.3,*6D
[2021-01-29 11:50:48.959] $GNGGA,025047.40,4327.733062000,N,14148.357408000,E,1,12,0.76,106.487,M,31.864,M,465.4,*6D
[2021-01-29 11:50:49.052] $GNGGA,025047.50,4327.733062000,N,14148.357408000,E,1,12,0.76,106.486,M,31.864,M,465.5,*6C
[2021-01-29 11:50:49.162] $GNGGA,025047.60,4327.733062000,N,14148.357408000,E,1,12,0.76,106.489,M,31.864,M,465.6,*63
[2021-01-29 11:50:49.263] $GNGGA,025047.70,4327.733062000,N,14148.357408000,E,1,12,0.76,106.488,M,31.864,M,465.7,*62
[2021-01-29 11:50:49.350] $GNGGA,025047.80,4327.733062000,N,14148.357402000,E,1,12,0.76,106.487,M,31.864,M,465.8,*67
[2021-01-29 11:50:49.460] $GNGGA,025047.90,4327.733062000,N,14148.357402000,E,1,12,0.76,106.491,M,31.864,M,465.9,*60
[2021-01-29 11:50:49.553] $GNGGA,025048.00,4327.733062000,N,14148.357402000,E,1,12,0.76,106.488,M,31.864,M,466.0,*64
[2021-01-29 11:50:49.663] $GNGGA,025048.10,4327.733062000,N,14148.357402000,E,1,12,0.76,106.490,M,31.864,M,466.1,*6D
[2021-01-29 11:50:49.756] $GNGGA,025048.20,4327.733062000,N,14148.357402000,E,1,12,0.76,106.492,M,31.864,M,466.2,*6F
[2021-01-29 11:50:49.850] $GNGGA,025048.30,4327.733062000,N,14148.357402000,E,1,12,0.76,106.494,M,31.864,M,466.3,*69
[2021-01-29 11:50:49.959] $GNGGA,025048.40,4327.733062000,N,14148.357402000,E,1,12,0.76,106.494,M,31.864,M,466.4,*69
[2021-01-29 11:50:50.053] $GNGGA,025048.50,4327.733062000,N,14148.357402000,E,1,12,0.76,106.491,M,31.864,M,466.5,*6C
[2021-01-29 11:50:50.163] $GNGGA,025048.60,4327.733056000,N,14148.357402000,E,1,12,0.76,106.493,M,31.864,M,466.6,*69
[2021-01-29 11:50:50.261] $GNGGA,025048.70,4327.733062000,N,14148.357396000,E,1,12,0.76,106.498,M,31.864,M,466.7,*6F
[2021-01-29 11:50:50.367] $GNGGA,025048.80,4327.733056000,N,14148.357402000,E,1,12,0.76,106.490,M,31.864,M,466.8,*6A
[2021-01-29 11:50:50.461] $GNGGA,025048.90,4327.733056000,N,14148.357402000,E,1,12,0.76,106.493,M,31.864,M,466.9,*69
[2021-01-29 11:50:50.555] $GNGGA,025049.00,4327.733056000,N,14148.357402000,E,1,12,0.76,106.494,M,31.864,M,467.0,*6E
[2021-01-29 11:50:50.664] $GNGGA,025049.10,4327.733056000,N,14148.357402000,E,1,12,0.76,106.494,M,31.864,M,467.1,*6E
[2021-01-29 11:50:50.758] $GNGGA,025049.20,4327.733056000,N,14148.357402000,E,1,12,0.76,106.493,M,31.864,M,467.2,*69
[2021-01-29 11:50:50.852] $GNGGA,025049.30,4327.733056000,N,14148.357402000,E,1,12,0.76,106.490,M,31.864,M,467.3,*6A
[2021-01-29 11:50:50.961] $GNGGA,025049.40,4327.733056000,N,14148.357402000,E,1,12,0.76,106.492,M,31.864,M,467.4,*68
[2021-01-29 11:50:51.055] $GNGGA,025049.50,4327.733056000,N,14148.357402000,E,1,12,0.76,106.496,M,31.864,M,467.5,*6C
[2021-01-29 11:50:51.149] $GNGGA,025049.60,4327.733056000,N,14148.357402000,E,1,12,0.76,106.491,M,31.864,M,467.6,*6B
[2021-01-29 11:50:51.259] $GNGGA,025049.70,4327.733056000,N,14148.357402000,E,1,12,0.76,106.494,M,31.864,M,467.7,*6E
[2021-01-29 11:50:51.355] $GNGGA,025049.80,4327.733056000,N,14148.357396000,E,1,12,0.76,106.497,M,31.864,M,467.8,*67
[2021-01-29 11:50:51.449] $GNGGA,025049.90,4327.733056000,N,14148.357396000,E,1,12,0.76,106.496,M,31.864,M,467.9,*66
[2021-01-29 11:50:51.558] $GNGGA,025050.00,4327.733056000,N,14148.357396000,E,1,12,0.76,106.493,M,31.864,M,468.0,*64
[2021-01-29 11:50:51.652] $GNGGA,025050.10,4327.733050000,N,14148.357402000,E,1,12,0.76,106.496,M,31.864,M,468.1,*6D
[2021-01-29 11:50:51.761] $GNGGA,025050.20,4327.733050000,N,14148.357402000,E,1,12,0.76,106.493,M,31.864,M,468.2,*68
[2021-01-29 11:50:51.855] $GNGGA,025050.30,4327.733050000,N,14148.357396000,E,1,12,0.76,106.496,M,31.864,M,468.3,*67
[2021-01-29 11:50:51.964] $GNGGA,025050.40,4327.733050000,N,14148.357396000,E,1,12,0.76,106.495,M,31.864,M,468.4,*64
[2021-01-29 11:50:52.058] $GNGGA,025050.50,4327.733050000,N,14148.357396000,E,1,12,0.76,106.496,M,31.864,M,468.5,*67
[2021-01-29 11:50:52.152] $GNGGA,025050.60,4327.733050000,N,14148.357396000,E,1,12,0.76,106.496,M,31.864,M,468.6,*67
[2021-01-29 11:50:52.260] $GNGGA,025050.70,4327.733050000,N,14148.357396000,E,1,12,0.76,106.495,M,31.864,M,468.7,*64
[2021-01-29 11:50:52.355] $GNGGA,025050.80,4327.733050000,N,14148.357396000,E,1,12,0.76,106.496,M,31.864,M,468.8,*67
[2021-01-29 11:50:52.464] $GNGGA,025050.90,4327.733050000,N,14148.357396000,E,1,12,0.76,106.493,M,31.864,M,468.9,*62
[2021-01-29 11:50:52.558] $GNGGA,025051.00,4327.733050000,N,14148.357396000,E,1,12,0.76,106.497,M,31.864,M,469.0,*66
[2021-01-29 11:50:52.652] $GNGGA,025051.10,4327.733050000,N,14148.357396000,E,1,12,0.76,106.494,M,31.864,M,469.1,*65
[2021-01-29 11:50:52.761] $GNGGA,025051.20,4327.733050000,N,14148.357396000,E,1,12,0.76,106.498,M,31.864,M,469.2,*69
[2021-01-29 11:50:52.855] $GNGGA,025051.30,4327.733050000,N,14148.357396000,E,1,12,0.76,106.496,M,31.864,M,469.3,*67
[2021-01-29 11:50:52.949] $GNGGA,025051.40,4327.733044000,N,14148.357396000,E,1,12,0.76,106.495,M,31.864,M,469.4,*61
[2021-01-29 11:50:53.058] $GNGGA,025051.50,4327.733050000,N,14148.357396000,E,1,12,0.76,106.499,M,31.864,M,469.5,*68
[2021-01-29 11:50:53.152] $GNGGA,025051.60,4327.733044000,N,14148.357396000,E,1,12,0.76,106.496,M,31.864,M,469.6,*62
[2021-01-29 11:50:53.262] $GNGGA,025051.70,4327.733044000,N,14148.357396000,E,1,12,0.76,106.496,M,31.864,M,469.7,*62
[2021-01-29 11:50:53.357] $GNGGA,025051.80,4327.733044000,N,14148.357396000,E,1,12,0.76,106.496,M,31.864,M,469.8,*62
[2021-01-29 11:50:53.450] $GNGGA,025051.90,4327.733044000,N,14148.357396000,E,1,12,0.76,106.498,M,31.864,M,469.9,*6C
[2021-01-29 11:50:53.560] $GNGGA,025052.00,4327.733044000,N,14148.357396000,E,1,12,0.80,106.497,M,31.864,M,470.0,*61
[2021-01-29 11:50:53.653] $GNGGA,025052.10,4327.733044000,N,14148.357396000,E,1,12,0.80,106.501,M,31.864,M,470.1,*6F
[2021-01-29 11:50:53.763] $GNGGA,025052.20,4327.733044000,N,14148.357396000,E,1,12,0.80,106.497,M,31.864,M,470.2,*61
[2021-01-29 11:50:53.857] $GNGGA,025052.30,4327.733044000,N,14148.357390000,E,1,12,0.80,106.503,M,31.864,M,470.3,*6B
[2021-01-29 11:50:53.950] $GNGGA,025052.40,4327.733044000,N,14148.357390000,E,1,12,0.80,106.506,M,31.864,M,470.4,*6E
[2021-01-29 11:50:54.060] $GNGGA,025052.50,4327.733044000,N,14148.357390000,E,1,12,0.80,106.503,M,31.864,M,470.5,*6B
[2021-01-29 11:50:54.153] $GNGGA,025052.60,4327.733044000,N,14148.357390000,E,1,12,0.76,106.506,M,31.864,M,470.6,*67
[2021-01-29 11:50:54.263] $GNGGA,025052.70,4327.733044000,N,14148.357390000,E,1,12,0.76,106.511,M,31.864,M,470.7,*61
[2021-01-29 11:50:54.357] $GNGGA,025052.80,4327.733044000,N,14148.357390000,E,1,12,0.76,106.508,M,31.864,M,470.8,*69
[2021-01-29 11:50:54.451] $GNGGA,025052.90,4327.733044000,N,14148.357390000,E,1,12,0.76,106.510,M,31.864,M,470.9,*60
[2021-01-29 11:50:54.560] $GNGGA,025053.00,4327.733044000,N,14148.357390000,E,1,12,0.76,106.508,M,31.864,M,471.0,*69
[2021-01-29 11:50:54.654] $GNGGA,025053.10,4327.733044000,N,14148.357390000,E,1,12,0.76,106.510,M,31.864,M,471.1,*60
[2021-01-29 11:50:54.763] $GNGGA,025053.20,4327.733044000,N,14148.357390000,E,1,12,0.76,106.515,M,31.864,M,471.2,*65
[2021-01-29 11:50:54.857] $GNGGA,025053.30,4327.733044000,N,14148.357390000,E,1,12,0.76,106.512,M,31.864,M,471.3,*62
[2021-01-29 11:50:54.951] $GNGGA,025053.40,4327.733044000,N,14148.357390000,E,1,12,0.76,106.511,M,31.864,M,471.4,*61
[2021-01-29 11:50:55.060] $GNGGA,025053.50,4327.733044000,N,14148.357390000,E,1,12,0.80,106.510,M,31.864,M,471.5,*69
[2021-01-29 11:50:55.154] $GNGGA,025053.60,4327.733044000,N,14148.357390000,E,1,12,0.80,106.513,M,31.864,M,471.6,*6A
[2021-01-29 11:50:55.258] $GNGGA,025053.70,4327.733044000,N,14148.357384000,E,1,12,0.80,106.516,M,31.864,M,471.7,*6A
[2021-01-29 11:50:55.361] $GNGGA,025053.80,4327.733044000,N,14148.357390000,E,1,12,0.80,106.512,M,31.864,M,471.8,*6B
[2021-01-29 11:50:55.454] $GNGGA,025053.90,4327.733044000,N,14148.357390000,E,1,12,0.80,106.517,M,31.864,M,471.9,*6E
[2021-01-29 11:50:55.564] $GNGGA,025054.00,4327.733044000,N,14148.357384000,E,1,12,0.80,106.516,M,31.864,M,472.0,*6E
[2021-01-29 11:50:55.657] $GNGGA,025054.10,4327.733044000,N,14148.357390000,E,1,12,0.80,106.519,M,31.864,M,472.1,*64
[2021-01-29 11:50:55.751] $GNGGA,025054.20,4327.733044000,N,14148.357384000,E,1,12,0.80,106.520,M,31.864,M,472.2,*6B
[2021-01-29 11:50:55.861] $GNGGA,025054.30,4327.733044000,N,14148.357384000,E,1,12,0.80,106.518,M,31.864,M,472.3,*60
[2021-01-29 11:50:55.954] $GNGGA,025054.40,4327.733044000,N,14148.357384000,E,1,12,0.80,106.518,M,31.864,M,472.4,*60
[2021-01-29 11:50:56.064] $GNGGA,025054.50,4327.733044000,N,14148.357384000,E,1,12,0.80,106.518,M,31.864,M,472.5,*60
[2021-01-29 11:50:56.157] $GNGGA,025054.60,4327.733044000,N,14148.357384000,E,1,12,0.80,106.521,M,31.864,M,472.6,*6A
[2021-01-29 11:50:56.258] $GNGGA,025054.70,4327.733044000,N,14148.357384000,E,1,12,0.80,106.524,M,31.864,M,472.7,*6F
[2021-01-29 11:50:56.362] $GNGGA,025054.80,4327.733044000,N,14148.357384000,E,1,12,0.80,106.522,M,31.864,M,472.8,*69
