
[2021-01-29 11:49:52.075] $GPGGA,,,,,,,,,,M,,M,,*56
[2021-01-29 11:49:52.106] $GPGGA,,,,,,,,,,M,,M,,*56
[2021-01-29 11:49:52.106] $GPGGA,,,,,,,,,,M,,M,,*56
[2021-01-29 11:49:52.106] $GPGGA,,,,,,,,,,M,,M,,*56
[2021-01-29 11:49:52.106] $GPGGA,,,,,,,,,,M,,M,,*56
[2021-01-29 11:49:52.106] $GPGGA,,,,,,,,,,M,,M,,*56
[2021-01-29 11:49:52.106] $GPGGA,,,,,,,,,,M,,M,,*56
[2021-01-29 11:49:52.106] $GPGGA,,,,,,,,,,M,,M,,*56
[2021-01-29 11:49:52.106] $GPGGA,,,,,,,,,,M,,M,,*56
[2021-01-29 11:49:52.106] $GPGGA,,,,,,,,,,M,,M,,*56
[2021-01-29 11:49:52.106] $GPGGA,,,,,,,,,,M,,M,,*56
[2021-01-29 11:49:52.106] $GPGGA,,,,,,,,,,M,,M,,*56
[2021-01-29 11:49:52.106] $GPGGA,,,,,,,,,,M,,M,,*56
[2021-01-29 11:49:52.106] $GPGGA,,,,,,,,,,M,,M,,*56
[2021-01-29 11:49:52.106] $GPGGA,,,,,,,,,,M,,M,,*56
[2021-01-29 11:49:52.106] $GPGGA,,,,,,,,,,M,,M,,*56
[2021-01-29 11:49:52.106] $GPGGA,,,,,,,,,,M,,M,,*56
[2021-01-29 11:49:52.106] $GPGGA,,,,,,,,,,M,,M,,*56
[2021-01-29 11:49:52.106] $GPGGA,,,,,,,,,,M,,M,,*56
[2021-01-29 11:49:52.106] $GPGGA,,,,,,,,,,M,,M,,*56
[2021-01-29 11:49:52.106] $GPGGA,,,,,,,,,,M,,M,,*56
[2021-01-29 11:49:52.106] $GPGGA,,,,,,,,,,M,,M,,*56
[2021-01-29 11:49:52.106] $GPGGA,,,,,,,,,,M,,M,,*56
[2021-01-29 11:49:52.106] $GPGGA,,,,,,,,,,M,,M,,*56
[2021-01-29 11:49:52.106] $GPGGA,,,,,,,,,,M,,M,,*56
[2021-01-29 11:49:52.106] $GPGGA,,,,,,,,,,M,,M,,*56
[2021-01-29 11:49:52.106] $GPGGA,,,,,,,,,,M,,M,,*56
[2021-01-29 11:49:52.106] $GPGGA,,,,,,,,,,M,,M,,*56
[2021-01-29 11:49:52.106] $GPGGA,,,,,,,,,,M,,M,,*56
[2021-01-29 11:49:52.106] $GPGGA,,,,,,,,,,M,,M,,*56
[2021-01-29 11:49:52.106] $GPGGA,,,,,,,,,,M,,M,,*56
[2021-01-29 11:49:52.106] $GPGGA,,,,,,,,,,M,,M,,*56
[2021-01-29 11:49:52.106] $GPGGA,,,,,,,,,,M,,M,,*56
[2021-01-29 11:49:52.106] $GPGGA,,,,,,,,,,M,,M,,*56
[2021-01-29 11:49:52.106] $GPGGA,,,,,,,,,,M,,M,,*56
[2021-01-29 11:49:52.106] $GPGGA,,,,,,,,,,M,,M,,*56
[2021-01-29 11:49:52.106] $GPGGA,,,,,,,,,,M,,M,,*56
[2021-01-29 11:49:52.106] $GPGGA,,,,,,,,,,M,,M,,*56
[2021-01-29 11:49:52.106] $GPGGA,,,,,,,,,,M,,M,,*56
[2021-01-29 11:49:52.106] $GPGGA,,,,,,,,,,M,,M,,*56
[2021-01-29 11:49:52.106] $GPGGA,,,,,,,,,,M,,M,,*56
[2021-01-29 11:49:52.106] $GPGGA,,,,,,,,,,M,,M,,*56
[2021-01-29 11:49:52.106] $GPGGA,,,,,,,,,,M,,M,,*56
[2021-01-29 11:49:52.106] $GPGGA,,,,,,,,,,M,,M,,*56
[2021-01-29 11:49:52.106] $GPGGA,,,,,,,,,,M,,M,,*56
[2021-01-29 11:49:52.106] $GPGGA,,,,,,,,,,M,,M,,*56
[2021-01-29 11:49:52.106] $GPGGA,,,,,,,,,,M,,M,,*56
[2021-01-29 11:49:52.106] $GPGGA,,,,,,,,,,M,,M,,*56
[2021-01-29 11:49:52.106] $GPGGA,,,,,,,,,,M,,M,,*56
[2021-01-29 11:49:52.106] $GPGGA,,,,,,,,,,M,,M,,*56
[2021-01-29 11:49:52.106] $GPGGA,,,,,,,,,,M,,M,,*56
[2021-01-29 11:49:52.106] $GPGGA,,,,,,,,,,M,,M,,*56
[2021-01-29 11:49:52.106] $GPGGA,,,,,,,,,,M,,M,,*56
[2021-01-29 11:49:52.106] $GPGGA,,,,,,,,,,M,,M,,*56
[2021-01-29 11:49:52.184] $GPGGA,,,,,,,,,,M,,M,,*56
[2021-01-29 11:49:52.374] $GPGGA,,,,,,,,,,M,,M,,*56
[2021-01-29 11:49:52.577] $GPGGA,,,,,,,,,,M,,M,,*56
[2021-01-29 11:49:52.765] $GPGGA,,,,,,,,,,M,,M,,*56
[2021-01-29 11:49:52.983] $GPGGA,,,,,,,,,,M,,M,,*56
[2021-01-29 11:49:53.171] $GPGGA,,,,,,,,,,M,,M,,*56
[2021-01-29 11:49:53.375] $GPGGA,,,,,,,,,,M,,M,,*56
[2021-01-29 11:49:53.563] $GPGGA,,,,,,,,,,M,,M,,*56
[2021-01-29 11:49:53.782] $GPGGA,,,,,,,,,,M,,M,,*56
[2021-01-29 11:49:53.969] $GPGGA,,,,,,,,,,M,,M,,*56
[2021-01-29 11:49:54.172] $GPGGA,,,,,,,,,,M,,M,,*56
[2021-01-29 11:49:54.376] $GPGGA,,,,,,,,,,M,,M,,*56
[2021-01-29 11:49:54.579] $GPGGA,,,,,,,,,,M,,M,,*56
[2021-01-29 11:49:54.766] $GPGGA,,,,,,,,,,M,,M,,*56
[2021-01-29 11:49:54.985] $GPGGA,,,,,,,,,,M,,M,,*56
[2021-01-29 11:49:55.173] $GPGGA,,,,,,,,,,M,,M,,*56
[2021-01-29 11:49:55.378] $GPGGA,,,,,,,,,,M,,M,,*56
[2021-01-29 11:49:55.565] $GPGGA,,,,,,,,,,M,,M,,*56
[2021-01-29 11:49:55.784] $GPGGA,,,,,,,,,,M,,M,,*56
[2021-01-29 11:49:55.971] $GPGGA,,,,,,,,,,M,,M,,*56
[2021-01-29 11:49:56.174] $GPGGA,,,,,,,,,,M,,M,,*56
[2021-01-29 11:49:56.364] $GPGGA,,,,,,,,,,M,,M,,*56
[2021-01-29 11:49:56.582] $GPGGA,,,,,,,,,,M,,M,,*56
[2021-01-29 11:49:56.770] $GPGGA,,,,,,,,,,M,,M,,*56
[2021-01-29 11:49:56.973] $GPGGA,,,,,,,,,,M,,M,,*56
[2021-01-29 11:49:57.160] $GPGGA,,,,,,,,,,M,,M,,*56
[2021-01-29 11:49:57.381] $GPGGA,,,,,,,,,,M,,M,,*56
[2021-01-29 11:49:57.569] $GPGGA,,,,,,,,,,M,,M,,*56
[2021-01-29 11:49:57.772] $GPGGA,,,,,,,,,,M,,M,,*56
[2021-01-29 11:49:57.959] $GPGGA,,,,,,,,,,M,,M,,*56
[2021-01-29 11:49:58.178] $GPGGA,,,,,,,,,,M,,M,,*56
[2021-01-29 11:49:58.367] $GPGGA,,,,,,,,,,M,,M,,*56
[2021-01-29 11:49:58.570] $GPGGA,,,,,,,,,,M,,M,,*56
[2021-01-29 11:49:58.773] $GPGGA,,,,,,,,,,M,,M,,*56
[2021-01-29 11:49:58.976] $GPGGA,,,,,,,,,,M,,M,,*56
[2021-01-29 11:49:59.164] $GPGGA,,,,,,,,,,M,,M,,*56
[2021-01-29 11:49:59.368] $GPGGA,,,,,,,,,,M,,M,,*56
[2021-01-29 11:49:59.571] $GPGGA,,,,,,,,,,M,,M,,*56
[2021-01-29 11:49:59.775] $GPGGA,,,,,,,,,,M,,M,,*56
[2021-01-29 11:49:59.962] $GPGGA,,,,,,,,,,M,,M,,*56
[2021-01-29 11:50:00.181] $GPGGA,,,,,,,,,,M,,M,,*56
[2021-01-29 11:50:00.370] $GPGGA,,,,,,,,,,M,,M,,*56
[2021-01-29 11:50:00.573] $GPGGA,,,,,,,,,,M,,M,,*56
[2021-01-29 11:50:00.761] $GPGGA,,,,,,,,,,M,,M,,*56
[2021-01-29 11:50:00.979] $GPGGA,,,,,,,,,,M,,M,,*56
[2021-01-29 11:50:01.167] $GPGGA,,,,,,,,,,M,,M,,*56
[2021-01-29 11:50:01.372] $GPGGA,,,,,,,,,,M,,M,,*56
[2021-01-29 11:50:01.559] $GPGGA,,,,,,,,,,M,,M,,*56
[2021-01-29 11:50:01.778] $GPGGA,,,,,,,,,,M,,M,,*56
[2021-01-29 11:50:01.965] $GPGGA,,,,,,,,,,M,,M,,*56
[2021-01-29 11:50:02.169] $GPGGA,,,,,,,,,,M,,M,,*56
[2021-01-29 11:50:02.373] $GPGGA,,,,,,,,,,M,,M,,*56
[2021-01-29 11:50:02.576] $GPGGA,,,,,,,,,,M,,M,,*56
[2021-01-29 11:50:02.763] $GPGGA,,,,,,,,,,M,,M,,*56
[2021-01-29 11:50:02.982] $GPGGA,,,,,,,,,,M,,M,,*56
[2021-01-29 11:50:03.170] $GPGGA,,,,,,,,,,M,,M,,*56
[2021-01-29 11:50:03.374] $GPGGA,,,,,,,,,,M,,M,,*56
[2021-01-29 11:50:03.562] $GPGGA,,,,,,,,,,M,,M,,*56
[2021-01-29 11:50:03.780] $GPGGA,,,,,,,,,,M,,M,,*56
[2021-01-29 11:50:03.968] $GPGGA,,,,,,,,,,M,,M,,*56
[2021-01-29 11:50:04.171] $GPGGA,,,,,,,,,,M,,M,,*56
[2021-01-29 11:50:04.360] $GPGGA,,,,,,,,,,M,,M,,*56
[2021-01-29 11:50:04.578] $GPGGA,,,,,,,,,,M,,M,,*56
[2021-01-29 11:50:04.766] $GPGGA,,,,,,,,,,M,,M,,*56
[2021-01-29 11:50:04.969] $GPGGA,,,,,,,,,,M,,M,,*56
[2021-01-29 11:50:05.172] $GPGGA,,,,,,,,,,M,,M,,*56
[2021-01-29 11:50:05.377] $GPGGA,,,,,,,,,,M,,M,,*56
[2021-01-29 11:50:05.565] $GPGGA,,,,,,,,,,M,,M,,*56
[2021-01-29 11:50:05.768] $GPGGA,,,,,,,,,,M,,M,,*56
[2021-01-29 11:50:05.971] $GPGGA,,,,,,,,,,M,,M,,*56
[2021-01-29 11:50:06.174] $GPGGA,,,,,,,,,,M,,M,,*56
[2021-01-29 11:50:06.365] $GPGGA,,,,,,,,,,M,,M,,*56
[2021-01-29 11:50:06.568] $GPGGA,,,,,,,,,,M,,M,,*56
[2021-01-29 11:50:06.771] $GPGGA,,,,,,,,,,M,,M,,*56
[2021-01-29 11:50:06.974] $GPGGA,,,,,,,,,,M,,M,,*56
[2021-01-29 11:50:07.162] $GPGGA,,,,,,,,,,M,,M,,*56
[2021-01-29 11:50:07.383] $GPGGA,,,,,,,,,,M,,M,,*56
[2021-01-29 11:50:07.570] $GPGGA,,,,,,,,,,M,,M,,*56
[2021-01-29 11:50:07.773] $GPGGA,,,,,,,,,,M,,M,,*56
[2021-01-29 11:50:07.961] $GPGGA,,,,,,,,,,M,,M,,*56
[2021-01-29 11:50:08.179] $GPGGA,,,,,,,,,,M,,M,,*56
[2021-01-29 11:50:08.368] $GPGGA,,,,,,,,,,M,,M,,*56
[2021-01-29 11:50:08.571] $GPGGA,,,,,,,,,,M,,M,,*56
[2021-01-29 11:50:08.759] $GPGGA,,,,,,,,,,M,,M,,*56
[2021-01-29 11:50:08.978] $GPGGA,,,,,,,,,,M,,M,,*56
[2021-01-29 11:50:09.165] $GPGGA,,,,,,,,,,M,,M,,*56
[2021-01-29 11:50:09.368] $GPGGA,,,,,,,,,,M,,M,,*56
[2021-01-29 11:50:09.571] $GPGGA,,,,,,,,,,M,,M,,*56
[2021-01-29 11:50:09.774] $GPGGA,,,,,,,,,,M,,M,,*56
[2021-01-29 11:50:09.962] $GPGGA,,,,,,,,,,M,,M,,*56
[2021-01-29 11:50:10.165] $GPGGA,,,,,,,,,,M,,M,,*56
[2021-01-29 11:50:10.369] $GPGGA,,,,,,,,,,M,,M,,*56
[2021-01-29 11:50:10.573] $GPGGA,,,,,,,,,,M,,M,,*56
[2021-01-29 11:50:10.760] $GPGGA,,,,,,,,,,M,,M,,*56
[2021-01-29 11:50:10.979] $GPGGA,,,,,,,,,,M,,M,,*56
[2021-01-29 11:50:11.166] $GPGGA,,,,,,,,,,M,,M,,*56
[2021-01-29 11:50:11.372] $GPGGA,,,,,,,,,,M,,M,,*56
[2021-01-29 11:50:11.560] $GPGGA,,,,,,,,,,M,,M,,*56
[2021-01-29 11:50:11.779] $GPGGA,,,,,,,,,,M,,M,,*56
[2021-01-29 11:50:11.966] $GPGGA,,,,,,,,,,M,,M,,*56
[2021-01-29 11:50:12.169] $GPGGA,,,,,,,,,,M,,M,,*56
[2021-01-29 11:50:12.356] $GPGGA,,,,,,,,,,M,,M,,*56
[2021-01-29 11:50:12.575] $GPGGA,,,,,,,,,,M,,M,,*56
[2021-01-29 11:50:12.762] $GPGGA,,,,,,,,,,M,,M,,*56
[2021-01-29 11:50:12.965] $GPGGA,,,,,,,,,,M,,M,,*56
[2021-01-29 11:50:13.168] $GPGGA,,,,,,,,,,M,,M,,*56
[2021-01-29 11:50:13.374] $GPGGA,,,,,,,,,,M,,M,,*56
[2021-01-29 11:50:13.562] $GPGGA,,,,,,,,,,M,,M,,*56
[2021-01-29 11:50:13.765] $GPGGA,,,,,,,,,,M,,M,,*56
[2021-01-29 11:50:13.968] $GPGGA,,,,,,,,,,M,,M,,*56
[2021-01-29 11:50:14.171] $GPGGA,,,,,,,,,,M,,M,,*56
[2021-01-29 11:50:14.359] $GPGGA,,,,,,,,,,M,,M,,*56
[2021-01-29 11:50:14.578] $GPGGA,,,,,,,,,,M,,M,,*56
[2021-01-29 11:50:14.765] $GPGGA,,,,,,,,,,M,,M,,*56
[2021-01-29 11:50:14.969] $GPGGA,,,,,,,,,,M,,M,,*56
[2021-01-29 11:50:15.156] $GPGGA,,,,,,,,,,M,,M,,*56
[2021-01-29 11:50:15.377] $GPGGA,,,,,,,,,,M,,M,,*56
[2021-01-29 11:50:15.565] $GPGGA,,,,,,,,,,M,,M,,*56
[2021-01-29 11:50:15.768] $GPGGA,,,,,,,,,,M,,M,,*56
[2021-01-29 11:50:15.971] $GPGGA,,,,,,,,,,M,,M,,*56
[2021-01-29 11:50:16.174] $GPGGA,,,,,,,,,,M,,M,,*56
[2021-01-29 11:50:16.364] $GPGGA,,,,,,,,,,M,,M,,*56
[2021-01-29 11:50:16.567] $GPGGA,,,,,,,,,,M,,M,,*56
[2021-01-29 11:50:16.770] $GPGGA,,,,,,,,,,M,,M,,*56
[2021-01-29 11:50:16.973] $GPGGA,,,,,,,,,,M,,M,,*56
[2021-01-29 11:50:17.177] $GPGGA,,,,,,,,,,M,,M,,*56
[2021-01-29 11:50:17.365] $GPGGA,,,,,,,,,,M,,M,,*56
[2021-01-29 11:50:17.568] $GPGGA,,,,,,,,,,M,,M,,*56
[2021-01-29 11:50:17.772] $GPGGA,,,,,,,,,,M,,M,,*56
[2021-01-29 11:50:17.975] $GPGGA,,,,,,,,,,M,,M,,*56
[2021-01-29 11:50:18.178] $GPGGA,,,,,,,,,,M,,M,,*56
[2021-01-29 11:50:18.382] $GPGGA,,,,,,,,,,M,,M,,*56
[2021-01-29 11:50:18.569] $GPGGA,,,,,,,,,,M,,M,,*56
[2021-01-29 11:50:18.772] $GPGGA,,,,,,,,,,M,,M,,*56
[2021-01-29 11:50:18.976] $GPGGA,,,,,,,,,,M,,M,,*56
[2021-01-29 11:50:19.179] $GPGGA,,,,,,,,,,M,,M,,*56
[2021-01-29 11:50:19.367] $GPGGA,,,,,,,,,,M,,M,,*56
[2021-01-29 11:50:19.570] $GPGGA,,,,,,,,,,M,,M,,*56
[2021-01-29 11:50:19.773] $GPGGA,,,,,,,,,,M,,M,,*56
[2021-01-29 11:50:19.977] $GPGGA,,,,,,,,,,M,,M,,*56
[2021-01-29 11:50:20.164] $GPGGA,,,,,,,,,,M,,M,,*56
[2021-01-29 11:50:20.370] $GPGGA,,,,,,,,,,M,,M,,*56
[2021-01-29 11:50:20.573] $GPGGA,,,,,,,,,,M,,M,,*56
[2021-01-29 11:50:20.776] $GPGGA,,,,,,,,,,M,,M,,*56
[2021-01-29 11:50:20.964] $GPGGA,,,,,,,,,,M,,M,,*56
[2021-01-29 11:50:21.183] $GPGGA,,,,,,,,,,M,,M,,*56
[2021-01-29 11:50:21.370] $GPGGA,,,,,,,,,,M,,M,,*56
[2021-01-29 11:50:21.574] $GPGGA,,,,,,,,,,M,,M,,*56
[2021-01-29 11:50:21.761] $GPGGA,,,,,,,,,,M,,M,,*56
[2021-01-29 11:50:21.980] $GPGGA,,,,,,,,,,M,,M,,*56
[2021-01-29 11:50:22.167] $GPGGA,,,,,,,,,,M,,M,,*56
[2021-01-29 11:50:22.372] $GPGGA,,,,,,,,,,M,,M,,*56
[2021-01-29 11:50:22.575] $GPGGA,,,,,,,,,,M,,M,,*56
[2021-01-29 11:50:22.778] $GPGGA,,,,,,,,,,M,,M,,*56
[2021-01-29 11:50:22.966] $GPGGA,,,,,,,,,,M,,M,,*56
[2021-01-29 11:50:23.169] $GPGGA,,,,,,,,,,M,,M,,*56
[2021-01-29 11:50:23.373] $GPGGA,,,,,,,,,,M,,M,,*56
[2021-01-29 11:50:23.576] $GPGGA,,,,,,,,,,M,,M,,*56
[2021-01-29 11:50:23.764] $GPGGA,,,,,,,,,,M,,M,,*56
[2021-01-29 11:50:23.983] $GPGGA,,,,,,,,,,M,,M,,*56
[2021-01-29 11:50:24.170] $GPGGA,,,,,,,,,,M,,M,,*56
[2021-01-29 11:50:24.377] $GPGGA,,,,,,,,,,M,,M,,*56
[2021-01-29 11:50:24.564] $GPGGA,,,,,,,,,,M,,M,,*56
[2021-01-29 11:50:24.783] $GPGGA,,,,,,,,,,M,,M,,*56
[2021-01-29 11:50:24.971] $GPGGA,,,,,,,,,,M,,M,,*56
[2021-01-29 11:50:25.174] $GPGGA,,,,,,,,,,M,,M,,*56
[2021-01-29 11:50:25.361] $GPGGA,,,,,,,,,,M,,M,,*56
[2021-01-29 11:50:25.580] $GPGGA,,,,,,,,,,M,,M,,*56
[2021-01-29 11:50:25.767] $GPGGA,,,,,,,,,,M,,M,,*56
[2021-01-29 11:50:25.970] $GPGGA,,,,,,,,,,M,,M,,*56
[2021-01-29 11:50:26.173] $GPGGA,,,,,,,,,,M,,M,,*56
[2021-01-29 11:50:26.379] $GPGGA,,,,,,,,,,M,,M,,*56
[2021-01-29 11:50:26.567] $GPGGA,,,,,,,,,,M,,M,,*56
[2021-01-29 11:50:26.770] $GPGGA,,,,,,,,,,M,,M,,*56
[2021-01-29 11:50:26.973] $GPGGA,,,,,,,,,,M,,M,,*56
[2021-01-29 11:50:27.176] $GPGGA,,,,,,,,,,M,,M,,*56
[2021-01-29 11:50:27.363] $GPGGA,,,,,,,,,,M,,M,,*56
[2021-01-29 11:50:27.567] $GPGGA,,,,,,,,,,M,,M,,*56
[2021-01-29 11:50:27.770] $GPGGA,,,,,,,,,,M,,M,,*56
[2021-01-29 11:50:27.988] $GPGGA,025026.60,4327.73367070,N,14148.35801412,E,1,04,2.8,109.612,M,31.590,M,,*67
[2021-01-29 11:50:28.191] $GPGGA,025026.80,4327.73365209,N,14148.35812652,E,1,04,2.8,109.733,M,31.590,M,,*61
[2021-01-29 11:50:28.288] $GPGGA,025026.90,4327.73365599,N,14148.35812232,E,1,04,2.8,109.723,M,31.590,M,,*6D
[2021-01-29 11:50:28.397] $GPGGA,025027.00,4327.73360834,N,14148.35810252,E,1,04,2.8,109.845,M,31.590,M,,*61
[2021-01-29 11:50:28.491] $GPGGA,025027.10,4327.73360986,N,14148.35809976,E,1,04,2.8,109.842,M,31.590,M,,*6A
[2021-01-29 11:50:28.584] $GPGGA,025027.20,4327.73353472,N,14148.35812393,E,1,04,2.8,109.977,M,31.590,M,,*63
[2021-01-29 11:50:28.694] $GPGGA,025027.30,4327.73353430,N,14148.35812517,E,1,04,2.8,109.980,M,31.590,M,,*66
[2021-01-29 11:50:28.788] $GPGGA,025027.40,4327.73347820,N,14148.35814953,E,1,04,2.8,110.042,M,31.590,M,,*6C
[2021-01-29 11:50:28.881] $GPGGA,025027.50,4327.73348034,N,14148.35814873,E,1,04,2.8,110.045,M,31.590,M,,*6B
[2021-01-29 11:50:28.991] $GPGGA,025027.60,4327.73344081,N,14148.35816275,E,1,04,2.8,110.081,M,31.590,M,,*6C
[2021-01-29 11:50:29.084] $GPGGA,025027.70,4327.73344215,N,14148.35815890,E,1,04,2.8,110.090,M,31.590,M,,*60
[2021-01-29 11:50:29.194] $GPGGA,025027.80,4327.73341478,N,14148.35816051,E,1,04,2.8,110.109,M,31.590,M,,*60
[2021-01-29 11:50:29.290] $GPGGA,025027.90,4327.73341745,N,14148.35815591,E,1,04,2.8,110.110,M,31.590,M,,*6E
[2021-01-29 11:50:29.384] $GPGGA,025028.00,4327.73339891,N,14148.35814630,E,1,04,2.8,110.123,M,31.590,M,,*68
[2021-01-29 11:50:29.478] $GPGGA,025028.10,4327.73339964,N,14148.35814156,E,1,04,2.8,110.125,M,31.590,M,,*63
[2021-01-29 11:50:29.587] $GPGGA,025028.20,4327.73338543,N,14148.35812556,E,1,04,2.8,110.127,M,31.590,M,,*68
[2021-01-29 11:50:29.697] $GPGGA,025028.30,4327.73338506,N,14148.35812759,E,1,04,2.8,110.129,M,31.590,M,,*6B
[2021-01-29 11:50:29.790] $GPGGA,025028.40,4327.73337925,N,14148.35810747,E,1,04,2.8,110.121,M,31.590,M,,*6B
[2021-01-29 11:50:29.884] $GPGGA,025028.50,4327.73337728,N,14148.35810726,E,1,04,2.8,110.121,M,31.590,M,,*6E
[2021-01-29 11:50:29.994] $GPGGA,025028.60,4327.73344098,N,14148.35793605,E,1,05,2.6,110.295,M,31.590,M,,*62
[2021-01-29 11:50:30.087] $GPGGA,025028.70,4327.73344127,N,14148.35793717,E,1,05,2.6,110.285,M,31.590,M,,*65
[2021-01-29 11:50:30.197] $GPGGA,025028.80,4327.73346350,N,14148.35786255,E,1,05,2.6,110.348,M,31.590,M,,*6D
[2021-01-29 11:50:30.290] $GPGGA,025028.90,4327.73346715,N,14148.35786325,E,1,05,2.6,110.346,M,31.590,M,,*61
[2021-01-29 11:50:30.384] $GPGGA,025029.00,4327.73349160,N,14148.35778240,E,1,05,2.6,110.422,M,31.590,M,,*64
[2021-01-29 11:50:30.478] $GPGGA,025029.10,4327.73349120,N,14148.35778222,E,1,05,2.6,110.422,M,31.590,M,,*65
[2021-01-29 11:50:30.587] $GPGGA,025029.20,4327.73352917,N,14148.35768273,E,1,05,2.6,110.517,M,31.590,M,,*62
[2021-01-29 11:50:30.681] $GPGGA,025029.30,4327.73352822,N,14148.35768153,E,1,05,2.6,110.519,M,31.590,M,,*6B
[2021-01-29 11:50:30.790] $GPGGA,025029.40,4327.73355535,N,14148.35760164,E,1,05,2.6,110.608,M,31.590,M,,*6F
[2021-01-29 11:50:30.884] $GPGGA,025029.50,4327.73355657,N,14148.35760055,E,1,05,2.6,110.597,M,31.590,M,,*6F
[2021-01-29 11:50:30.993] $GPGGA,025029.60,4327.73357873,N,14148.35753240,E,1,05,2.6,110.660,M,31.590,M,,*6B
[2021-01-29 11:50:31.087] $GPGGA,025029.70,4327.73357672,N,14148.35753411,E,1,05,2.6,110.662,M,31.590,M,,*65
[2021-01-29 11:50:31.196] $GPGGA,025029.80,4327.73359573,N,14148.35747579,E,1,05,2.6,110.709,M,31.590,M,,*60
[2021-01-29 11:50:31.276] $GPGGA,025029.90,4327.73359399,N,14148.35747614,E,1,05,2.6,110.708,M,31.590,M,,*6A
[2021-01-29 11:50:31.386] $GPGGA,025030.00,4327.73360669,N,14148.35743022,E,1,05,2.6,110.751,M,31.590,M,,*60
[2021-01-29 11:50:31.480] $GPGGA,025030.10,4327.73360573,N,14148.35742987,E,1,05,2.6,110.753,M,31.590,M,,*6C
[2021-01-29 11:50:31.589] $GPGGA,025030.20,4327.73356818,N,14148.35743213,E,1,06,1.6,110.883,M,31.590,M,,*6F
[2021-01-29 11:50:31.683] $GPGGA,025030.30,4327.73357037,N,14148.35743101,E,1,05,1.6,110.881,M,31.590,M,,*6B
[2021-01-29 11:50:31.792] $GPGGA,025030.40,4327.73358842,N,14148.35739102,E,1,06,1.6,110.889,M,31.590,M,,*6C
[2021-01-29 11:50:31.886] $GPGGA,025030.50,4327.73358861,N,14148.35738961,E,1,06,1.6,110.895,M,31.590,M,,*6D
[2021-01-29 11:50:31.995] $GPGGA,025030.60,4327.73354807,N,14148.35731294,E,1,08,1.3,111.023,M,31.590,M,,*65
[2021-01-29 11:50:32.089] $GPGGA,025030.70,4327.73355081,N,14148.35731114,E,1,07,1.3,111.016,M,31.590,M,,*61
[2021-01-29 11:50:32.198] $GPGGA,025030.80,4327.73350881,N,14148.35725057,E,1,08,1.3,111.152,M,31.590,M,,*6E
[2021-01-29 11:50:32.278] $GPGGA,025030.90,4327.73350810,N,14148.35725024,E,1,08,1.3,111.153,M,31.590,M,,*62
[2021-01-29 11:50:32.387] $GPGGA,025031.00,4327.73345449,N,14148.35721347,E,1,09,1.1,111.272,M,31.590,M,,*6F
[2021-01-29 11:50:32.481] $GPGGA,025031.10,4327.73345415,N,14148.35721542,E,1,08,1.1,111.274,M,31.590,M,,*63
[2021-01-29 11:50:32.590] $GPGGA,025031.20,4327.73340775,N,14148.35717790,E,1,09,1.1,111.376,M,31.590,M,,*6A
[2021-01-29 11:50:32.684] $GPGGA,025031.30,4327.73340727,N,14148.35718023,E,1,09,1.1,111.374,M,31.590,M,,*6E
[2021-01-29 11:50:32.793] $GPGGA,025031.40,4327.73336893,N,14148.35714517,E,1,09,1.1,111.468,M,31.590,M,,*6C
[2021-01-29 11:50:32.887] $GPGGA,025031.50,4327.73336911,N,14148.35714412,E,1,09,1.1,111.467,M,31.590,M,,*6D
[2021-01-29 11:50:32.996] $GPGGA,025031.60,4327.73333681,N,14148.35711247,E,1,09,1.1,111.527,M,31.590,M,,*6B
[2021-01-29 11:50:33.090] $GPGGA,025031.70,4327.73333650,N,14148.35711201,E,1,09,1.1,111.525,M,31.590,M,,*66
[2021-01-29 11:50:33.200] $GPGGA,025031.80,4327.73331457,N,14148.35708181,E,1,09,1.1,111.575,M,31.590,M,,*68
[2021-01-29 11:50:33.279] $GPGGA,025031.90,4327.73331292,N,14148.35708326,E,1,09,1.1,111.575,M,31.590,M,,*69
[2021-01-29 11:50:33.373] $GPGGA,025032.00,4327.73328873,N,14148.35705452,E,1,09,1.1,111.623,M,31.590,M,,*67
[2021-01-29 11:50:33.482] $GPGGA,025032.10,4327.73328846,N,14148.35705597,E,1,09,1.1,111.619,M,31.590,M,,*61
[2021-01-29 11:50:33.592] $GPGGA,025032.20,4327.73325846,N,14148.35699493,E,1,11,1.0,111.665,M,31.590,M,,*6D
[2021-01-29 11:50:33.685] $GPGGA,025032.30,4327.73325864,N,14148.35699431,E,1,11,1.0,111.665,M,31.590,M,,*64
[2021-01-29 11:50:33.795] $GPGGA,025032.40,4327.73323501,N,14148.35692421,E,1,12,1.0,111.721,M,31.590,M,,*63
[2021-01-29 11:50:33.888] $GPGGA,025032.50,4327.73323500,N,14148.35692444,E,1,12,1.0,111.726,M,31.590,M,,*67
[2021-01-29 11:50:33.998] $GPGGA,025032.60,4327.73320628,N,14148.35687500,E,1,13,0.9,111.776,M,31.590,M,,*67
[2021-01-29 11:50:34.092] $GPGGA,025032.70,4327.73320549,N,14148.35687417,E,1,12,0.9,111.775,M,31.590,M,,*67
[2021-01-29 11:50:34.201] $GPGGA,025032.80,4327.73317548,N,14148.35683973,E,1,13,0.9,111.816,M,31.590,M,,*6D
[2021-01-29 11:50:34.281] $GPGGA,025032.90,4327.73317768,N,14148.35683867,E,1,13,0.9,111.825,M,31.590,M,,*68
[2021-01-29 11:50:34.390] $GPGGA,025033.00,4327.73314949,N,14148.35681066,E,1,13,0.9,111.855,M,31.590,M,,*62
[2021-01-29 11:50:34.484] $GPGGA,025033.10,4327.73315060,N,14148.35681017,E,1,13,0.9,111.855,M,31.590,M,,*66
[2021-01-29 11:50:34.593] $GPGGA,025033.20,4327.73312473,N,14148.35678614,E,1,13,0.9,111.882,M,31.590,M,,*6D
[2021-01-29 11:50:34.687] $GPGGA,025033.30,4327.73312845,N,14148.35678340,E,1,13,0.9,111.877,M,31.590,M,,*6B
[2021-01-29 11:50:34.796] $GPGGA,025033.40,4327.73311750,N,14148.35675583,E,1,13,0.9,111.896,M,31.590,M,,*6F
[2021-01-29 11:50:34.890] $GPGGA,025033.50,4327.73311893,N,14148.35675431,E,1,13,0.9,111.905,M,31.590,M,,*6D
[2021-01-29 11:50:34.999] $GPGGA,025033.60,4327.73311254,N,14148.35672744,E,1,13,0.9,111.918,M,31.590,M,,*65
[2021-01-29 11:50:35.077] $GPGGA,025033.70,4327.73311252,N,14148.35672845,E,1,13,0.9,111.919,M,31.590,M,,*6D
[2021-01-29 11:50:35.187] $GPGGA,025033.80,4327.73310564,N,14148.35670145,E,1,13,0.9,111.941,M,31.590,M,,*67
[2021-01-29 11:50:35.282] $GPGGA,025033.90,4327.73310644,N,14148.35670067,E,1,13,0.9,111.936,M,31.590,M,,*66
[2021-01-29 11:50:35.391] $GPGGA,025034.00,4327.73309344,N,14148.35668201,E,1,13,0.9,111.954,M,31.590,M,,*6A
[2021-01-29 11:50:35.485] $GPGGA,025034.10,4327.73309435,N,14148.35668195,E,1,13,0.9,111.948,M,31.590,M,,*69
[2021-01-29 11:50:35.594] $GPGGA,025034.20,4327.73308562,N,14148.35666196,E,1,13,0.9,111.964,M,31.590,M,,*6B
[2021-01-29 11:50:35.688] $GPGGA,025034.30,4327.73308636,N,14148.35666423,E,1,13,0.9,111.965,M,31.590,M,,*62
[2021-01-29 11:50:35.797] $GPGGA,025034.40,4327.73308057,N,14148.35664610,E,1,13,0.9,111.981,M,31.590,M,,*6E
[2021-01-29 11:50:35.891] $GPGGA,025034.50,4327.73307974,N,14148.35664460,E,1,13,0.9,111.980,M,31.590,M,,*6C
[2021-01-29 11:50:35.985] $GPGGA,025034.60,4327.73306972,N,14148.35663248,E,1,13,0.9,111.994,M,31.590,M,,*66
[2021-01-29 11:50:36.078] $GPGGA,025034.70,4327.73306946,N,14148.35663151,E,1,13,0.9,111.994,M,31.590,M,,*6B
[2021-01-29 11:50:36.188] $GPGGA,025034.80,4327.73305353,N,14148.35653669,E,2,04,18.2,111.796,M,31.590,M,1.8,0000*7A
[2021-01-29 11:50:36.284] $GPGGA,025034.90,4327.73305160,N,14148.35653768,E,2,04,18.2,111.796,M,31.590,M,1.8,0000*79
[2021-01-29 11:50:36.394] $GPGGA,025035.00,4327.73304239,N,14148.35649376,E,2,04,18.2,111.655,M,31.590,M,2.0,0000*7A
[2021-01-29 11:50:36.487] $GPGGA,025035.10,4327.73304252,N,14148.35649458,E,2,04,18.2,111.658,M,31.590,M,2.0,0000*70
[2021-01-29 11:50:36.597] $GPGGA,025035.20,4327.73303381,N,14148.35647251,E,2,04,2.8,111.548,M,31.590,M,2.2,0000*4B
[2021-01-29 11:50:36.690] $GPGGA,025035.30,4327.73303541,N,14148.35646804,E,2,04,2.8,111.554,M,31.590,M,2.2,0000*46
[2021-01-29 11:50:36.800] $GPGGA,025035.40,4327.73302721,N,14148.35645676,E,2,04,2.8,111.470,M,31.590,M,2.4,0000*4D
[2021-01-29 11:50:36.878] $GPGGA,025035.50,4327.73302861,N,14148.35645551,E,2,04,2.8,111.470,M,31.590,M,2.4,0000*41
[2021-01-29 11:50:36.987] $GPGGA,025035.60,4327.73302142,N,14148.35644903,E,2,04,2.8,111.393,M,31.590,M,2.6,0000*48
[2021-01-29 11:50:37.081] $GPGGA,025035.70,4327.73302195,N,14148.35644691,E,2,04,2.8,111.395,M,31.590,M,2.6,0000*41
[2021-01-29 11:50:37.190] $GPGGA,025035.80,4327.73301315,N,14148.35643928,E,2,04,2.8,111.325,M,31.590,M,1.8,0000*4B
[2021-01-29 11:50:37.286] $GPGGA,025035.90,4327.73301537,N,14148.35644020,E,2,04,2.8,111.329,M,31.590,M,1.8,0000*46
[2021-01-29 11:50:37.395] $GPGGA,025036.00,4327.73300764,N,14148.35643566,E,2,04,2.8,111.267,M,31.590,M,2.0,0000*49
[2021-01-29 11:50:37.489] $GPGGA,025036.10,4327.73300972,N,14148.35643361,E,2,04,2.8,111.270,M,31.590,M,2.0,0000*46
[2021-01-29 11:50:37.598] $GPGGA,025036.20,4327.73300340,N,14148.35643331,E,2,04,2.8,111.217,M,31.590,M,2.2,0000*48
[2021-01-29 11:50:37.692] $GPGGA,025036.30,4327.73300324,N,14148.35643289,E,2,04,2.8,111.218,M,31.590,M,2.2,0000*46
[2021-01-29 11:50:37.786] $GPGGA,025036.40,4327.73299728,N,14148.35643553,E,2,04,2.8,111.170,M,31.590,M,2.4,0000*43
[2021-01-29 11:50:37.880] $GPGGA,025036.50,4327.73299803,N,14148.35643423,E,2,04,2.8,111.165,M,31.590,M,2.4,0000*46
[2021-01-29 11:50:37.989] $GPGGA,025036.60,4327.73298819,N,14148.35644080,E,2,04,2.8,111.115,M,31.590,M,2.6,0000*40
[2021-01-29 11:50:38.083] $GPGGA,025036.70,4327.73298717,N,14148.35644324,E,2,04,2.8,111.106,M,31.590,M,2.6,0000*4F
[2021-01-29 11:50:38.192] $GPGGA,025036.80,4327.73297457,N,14148.35645755,E,2,04,2.8,111.046,M,31.590,M,1.8,0000*43
[2021-01-29 11:50:38.287] $GPGGA,025036.90,4327.73297619,N,14148.35645317,E,2,04,2.8,111.050,M,31.590,M,1.8,0000*4F
[2021-01-29 11:50:38.396] $GPGGA,025037.00,4327.73295836,N,14148.35647944,E,2,04,2.8,110.980,M,31.590,M,2.0,0000*46
[2021-01-29 11:50:38.490] $GPGGA,025037.10,4327.73296107,N,14148.35647756,E,2,04,2.8,110.983,M,31.590,M,2.0,0000*41
[2021-01-29 11:50:38.599] $GPGGA,025037.20,4327.73293341,N,14148.35651599,E,2,04,2.8,110.910,M,31.590,M,2.2,0000*49
[2021-01-29 11:50:38.693] $GPGGA,025037.30,4327.73293136,N,14148.35651643,E,2,04,2.8,110.918,M,31.590,M,2.2,0000*46
[2021-01-29 11:50:38.787] $GPGGA,025037.40,4327.73287979,N,14148.35659952,E,2,04,2.8,110.814,M,31.590,M,2.4,0000*4B
[2021-01-29 11:50:38.880] $GPGGA,025037.50,4327.73287954,N,14148.35660300,E,2,04,2.8,110.805,M,31.590,M,2.4,0000*42
[2021-01-29 11:50:38.990] $GPGGA,025037.60,4327.73274814,N,14148.35681281,E,2,04,2.8,110.604,M,31.590,M,2.6,0000*42
[2021-01-29 11:50:39.083] $GPGGA,025037.70,4327.73274858,N,14148.35681398,E,2,04,2.8,110.607,M,31.590,M,2.6,0000*41
[2021-01-29 11:50:39.193] $GPGGA,025037.80,4327.73264425,N,14148.35698161,E,2,04,2.8,110.472,M,31.590,M,1.8,0000*48
[2021-01-29 11:50:39.289] $GPGGA,025037.90,4327.73264535,N,14148.35698328,E,2,04,2.8,110.475,M,31.590,M,1.8,0000*41
[2021-01-29 11:50:39.399] $GPGGA,025038.00,4327.73257902,N,14148.35708707,E,2,04,2.8,110.411,M,31.590,M,2.0,0000*47
[2021-01-29 11:50:39.492] $GPGGA,025038.10,4327.73257958,N,14148.35708802,E,2,04,2.8,110.415,M,31.590,M,2.0,0000*47
[2021-01-29 11:50:39.586] $GPGGA,025038.20,4327.73253122,N,14148.35716192,E,2,04,2.8,110.375,M,31.590,M,2.2,0000*49
[2021-01-29 11:50:39.680] $GPGGA,025038.30,4327.73253292,N,14148.35716266,E,2,04,2.8,110.372,M,31.590,M,2.2,0000*4F
[2021-01-29 11:50:39.789] $GPGGA,025038.40,4327.73249402,N,14148.35721741,E,2,04,2.8,110.349,M,31.590,M,2.4,0000*46
[2021-01-29 11:50:39.883] $GPGGA,025038.50,4327.73249561,N,14148.35721601,E,2,04,2.8,110.344,M,31.590,M,2.4,0000*4B
[2021-01-29 11:50:39.992] $GPGGA,025038.60,4327.73246512,N,14148.35726215,E,2,04,2.8,110.327,M,31.590,M,2.6,0000*42
[2021-01-29 11:50:40.086] $GPGGA,025038.70,4327.73246521,N,14148.35726281,E,2,04,2.8,110.326,M,31.590,M,2.6,0000*4F
[2021-01-29 11:50:40.195] $GPGGA,025038.80,4327.73245829,N,14148.35728871,E,2,06,2.4,110.323,M,31.590,M,1.8,0000*4B
[2021-01-29 11:50:40.291] $GPGGA,025038.90,4327.73245953,N,14148.35729079,E,2,06,2.4,110.319,M,31.590,M,1.8,0000*4E
[2021-01-29 11:50:40.401] $GPGGA,025039.00,4327.73245287,N,14148.35730893,E,2,06,2.4,110.315,M,31.590,M,2.0,0000*47
[2021-01-29 11:50:40.479] $GPGGA,025039.10,4327.73245260,N,14148.35731185,E,2,06,2.4,110.297,M,31.590,M,2.0,0000*4B
[2021-01-29 11:50:40.588] $GPGGA,025039.20,4327.73244745,N,14148.35732842,E,2,06,2.4,110.288,M,31.590,M,2.2,0000*46
[2021-01-29 11:50:40.682] $GPGGA,025039.30,4327.73244770,N,14148.35732750,E,2,06,2.4,110.286,M,31.590,M,2.2,0000*43
[2021-01-29 11:50:40.791] $GPGGA,025039.40,4327.73244360,N,14148.35734302,E,2,06,2.4,110.270,M,31.590,M,2.4,0000*4B
[2021-01-29 11:50:40.885] $GPGGA,025039.50,4327.73244181,N,14148.35734449,E,2,06,2.4,110.267,M,31.590,M,2.4,0000*49
[2021-01-29 11:50:40.994] $GPGGA,025039.60,4327.73243639,N,14148.35735729,E,2,06,2.4,110.251,M,31.590,M,2.6,0000*4A
[2021-01-29 11:50:41.088] $GPGGA,025039.70,4327.73243849,N,14148.35735861,E,2,06,2.4,110.249,M,31.590,M,2.6,0000*48
[2021-01-29 11:50:41.197] $GPGGA,025039.80,4327.73251954,N,14148.35723095,E,2,09,1.3,110.140,M,31.590,M,1.8,0000*41
[2021-01-29 11:50:41.292] $GPGGA,025039.90,4327.73251877,N,14148.35723230,E,2,09,1.3,110.145,M,31.590,M,1.8,0000*48
[2021-01-29 11:50:41.401] $GPGGA,025040.00,4327.73257668,N,14148.35715562,E,2,09,1.3,110.054,M,31.590,M,2.0,0000*46
[2021-01-29 11:50:41.479] $GPGGA,025040.10,4327.73257768,N,14148.35715602,E,2,09,1.3,110.052,M,31.590,M,2.0,0000*45
[2021-01-29 11:50:41.589] $GPGGA,025040.20,4327.73262032,N,14148.35710897,E,2,09,1.3,109.971,M,31.590,M,2.2,0000*4D
[2021-01-29 11:50:41.682] $GPGGA,025040.30,4327.73261906,N,14148.35710924,E,2,09,1.3,109.967,M,31.590,M,2.2,0000*4F
[2021-01-29 11:50:41.792] $GPGGA,025040.40,4327.73265050,N,14148.35707927,E,2,09,1.3,109.895,M,31.590,M,2.4,0000*49
[2021-01-29 11:50:41.885] $GPGGA,025040.50,4327.73265020,N,14148.35708115,E,2,09,1.3,109.890,M,31.590,M,2.4,0000*4C
[2021-01-29 11:50:41.995] $GPGGA,025040.60,4327.73267514,N,14148.35705742,E,2,09,1.3,109.826,M,31.590,M,2.6,0000*49
[2021-01-29 11:50:42.089] $GPGGA,025040.70,4327.73267412,N,14148.35705966,E,2,09,1.3,109.817,M,31.590,M,2.6,0000*45
[2021-01-29 11:50:42.198] $GPGGA,025040.80,4327.73269551,N,14148.35703908,E,2,09,1.3,109.754,M,31.590,M,1.8,0000*49
[2021-01-29 11:50:42.278] $GPGGA,025040.90,4327.73269677,N,14148.35703785,E,2,09,1.3,109.756,M,31.590,M,1.8,0000*46
[2021-01-29 11:50:42.388] $GPGGA,025041.00,4327.73271530,N,14148.35702527,E,2,09,1.3,109.691,M,31.590,M,2.0,0000*4D
[2021-01-29 11:50:42.481] $GPGGA,025041.10,4327.73271683,N,14148.35702341,E,2,09,1.3,109.693,M,31.590,M,2.0,0000*43
[2021-01-29 11:50:42.591] $GPGGA,025041.20,4327.73273412,N,14148.35701132,E,2,09,1.3,109.639,M,31.590,M,2.2,0000*4F
[2021-01-29 11:50:42.684] $GPGGA,025041.30,4327.73273466,N,14148.35701098,E,2,09,1.3,109.640,M,31.590,M,2.2,0000*42
[2021-01-29 11:50:42.794] $GPGGA,025041.40,4327.73274911,N,14148.35700147,E,2,09,1.3,109.595,M,31.590,M,2.4,0000*40
[2021-01-29 11:50:42.888] $GPGGA,025041.50,4327.73274968,N,14148.35700154,E,2,09,1.3,109.586,M,31.590,M,2.4,0000*4F
[2021-01-29 11:50:42.997] $GPGGA,025041.60,4327.73275745,N,14148.35699878,E,2,09,1.3,109.547,M,31.590,M,2.6,0000*45
[2021-01-29 11:50:43.091] $GPGGA,025041.70,4327.73275980,N,14148.35699762,E,2,09,1.3,109.548,M,31.590,M,2.6,0000*48
[2021-01-29 11:50:43.200] $GPGGA,025041.80,4327.73238136,N,14148.35753208,E,5,05,10.1,108.958,M,31.590,M,1.8,0000*7D
[2021-01-29 11:50:43.282] $GPGGA,025041.90,4327.73238146,N,14148.35753295,E,5,05,10.1,108.962,M,31.590,M,1.9,0000*77
[2021-01-29 11:50:43.375] $GPGGA,025042.00,4327.73237935,N,14148.35753539,E,5,05,10.1,108.954,M,31.590,M,2.0,0000*70
[2021-01-29 11:50:43.469] $GPGGA,025042.10,4327.73238255,N,14148.35753149,E,5,05,10.1,108.959,M,31.590,M,2.1,0000*7C
[2021-01-29 11:50:43.594] $GPGGA,025042.20,4327.73238059,N,14148.35753125,E,5,05,10.1,108.960,M,31.590,M,2.2,0000*72
[2021-01-29 11:50:43.688] $GPGGA,025042.30,4327.73238062,N,14148.35753257,E,5,05,10.1,108.958,M,31.590,M,2.3,0000*77
[2021-01-29 11:50:43.797] $GPGGA,025042.40,4327.73238201,N,14148.35753299,E,5,05,10.1,108.961,M,31.590,M,2.4,0000*78
[2021-01-29 11:50:43.891] $GPGGA,025042.50,4327.73238214,N,14148.35753514,E,5,05,10.1,108.959,M,31.590,M,2.5,0000*75
[2021-01-29 11:50:44.000] $GPGGA,025042.60,4327.73238109,N,14148.35753455,E,5,05,10.1,108.961,M,31.590,M,2.6,0000*75
[2021-01-29 11:50:44.094] $GPGGA,025042.70,4327.73237889,N,14148.35753495,E,5,05,10.1,108.957,M,31.590,M,2.7,0000*72
[2021-01-29 11:50:44.203] $GPGGA,025042.80,4327.73276535,N,14148.35702040,E,2,10,1.0,109.330,M,31.590,M,1.8,0000*4E
[2021-01-29 11:50:44.281] $GPGGA,025042.90,4327.73276776,N,14148.35701941,E,2,10,1.0,109.323,M,31.590,M,1.8,0000*43
[2021-01-29 11:50:44.390] $GPGGA,025043.00,4327.73276511,N,14148.35702670,E,2,10,1.0,109.286,M,31.590,M,2.0,0000*43
[2021-01-29 11:50:44.484] $GPGGA,025043.10,4327.73276606,N,14148.35702862,E,2,10,1.0,109.287,M,31.590,M,2.0,0000*4B
[2021-01-29 11:50:44.593] $GPGGA,025043.20,4327.73276174,N,14148.35703404,E,2,10,1.0,109.252,M,31.590,M,2.2,0000*4D
[2021-01-29 11:50:44.687] $GPGGA,025043.30,4327.73276375,N,14148.35703279,E,2,10,1.0,109.249,M,31.590,M,2.2,0000*49
[2021-01-29 11:50:44.796] $GPGGA,025043.40,4327.73276384,N,14148.35703779,E,2,10,1.0,109.217,M,31.590,M,2.4,0000*48
[2021-01-29 11:50:44.890] $GPGGA,025043.50,4327.73276509,N,14148.35703793,E,2,10,1.0,109.223,M,31.590,M,2.4,0000*49
[2021-01-29 11:50:45.000] $GPGGA,025043.60,4327.73276359,N,14148.35704117,E,2,10,1.0,109.189,M,31.590,M,2.6,0000*45
[2021-01-29 11:50:45.078] $GPGGA,025043.70,4327.73276498,N,14148.35704413,E,2,10,1.0,109.192,M,31.590,M,2.6,0000*45
[2021-01-29 11:50:45.187] $GPGGA,025043.80,4327.73276241,N,14148.35704986,E,2,10,1.0,109.164,M,31.590,M,1.8,0000*4D
[2021-01-29 11:50:45.282] $GPGGA,025043.90,4327.73276543,N,14148.35704883,E,2,10,1.0,109.164,M,31.590,M,1.8,0000*4D
[2021-01-29 11:50:45.392] $GPGGA,025044.00,4327.73276863,N,14148.35705371,E,2,10,1.0,109.142,M,31.590,M,2.0,0000*44
[2021-01-29 11:50:45.485] $GPGGA,025044.10,4327.73276859,N,14148.35705558,E,2,10,1.0,109.142,M,31.590,M,2.0,0000*41
[2021-01-29 11:50:45.595] $GPGGA,025044.20,4327.73277068,N,14148.35705666,E,2,10,1.0,109.122,M,31.590,M,2.2,0000*43
[2021-01-29 11:50:45.689] $GPGGA,025044.30,4327.73277217,N,14148.35705838,E,2,10,1.0,109.121,M,31.590,M,2.2,0000*4E
[2021-01-29 11:50:45.798] $GPGGA,025044.40,4327.73277581,N,14148.35705820,E,2,10,1.0,109.102,M,31.590,M,2.4,0000*4F
[2021-01-29 11:50:45.892] $GPGGA,025044.50,4327.73277556,N,14148.35706068,E,2,10,1.0,109.095,M,31.590,M,2.4,0000*4C
[2021-01-29 11:50:45.985] $GPGGA,025044.60,4327.73277654,N,14148.35706379,E,2,10,1.0,109.084,M,31.590,M,2.6,0000*4F
[2021-01-29 11:50:46.079] $GPGGA,025044.70,4327.73277865,N,14148.35706249,E,2,10,1.0,109.079,M,31.590,M,2.6,0000*42
[2021-01-29 11:50:46.188] $GPGGA,025044.80,4327.73238406,N,14148.35754591,E,4,05,10.1,108.913,M,31.590,M,1.8,0000*70
[2021-01-29 11:50:46.284] $GPGGA,025044.90,4327.73238442,N,14148.35754593,E,4,05,10.1,108.911,M,31.590,M,1.9,0000*70
[2021-01-29 11:50:46.394] $GPGGA,025045.00,4327.73238546,N,14148.35754240,E,4,05,10.1,108.915,M,31.590,M,2.0,0000*7A
[2021-01-29 11:50:46.488] $GPGGA,025045.10,4327.73238547,N,14148.35754426,E,4,05,10.1,108.920,M,31.590,M,2.1,0000*7B
[2021-01-29 11:50:46.597] $GPGGA,025045.20,4327.73238502,N,14148.35754685,E,4,05,10.1,108.910,M,31.590,M,2.2,0000*72
[2021-01-29 11:50:46.691] $GPGGA,025045.30,4327.73238420,N,14148.35754635,E,4,05,10.1,108.911,M,31.590,M,2.3,0000*79
[2021-01-29 11:50:46.800] $GPGGA,025045.40,4327.73238355,N,14148.35754696,E,4,05,10.1,108.910,M,31.590,M,2.4,0000*74
[2021-01-29 11:50:46.894] $GPGGA,025045.50,4327.73238632,N,14148.35754473,E,4,05,10.1,108.918,M,31.590,M,2.5,0000*71
[2021-01-29 11:50:47.003] $GPGGA,025045.60,4327.73238663,N,14148.35754496,E,4,05,10.1,108.909,M,31.590,M,2.6,0000*7E
[2021-01-29 11:50:47.081] $GPGGA,025045.70,4327.73238410,N,14148.35754847,E,4,05,10.1,108.913,M,31.590,M,2.7,0000*73
[2021-01-29 11:50:47.191] $GPGGA,025045.80,4327.73237583,N,14148.35752365,E,4,05,10.1,108.947,M,31.590,M,1.8,0000*78
[2021-01-29 11:50:47.284] $GPGGA,025045.90,4327.73237555,N,14148.35752267,E,4,05,10.1,108.946,M,31.590,M,1.9,0000*71
[2021-01-29 11:50:47.394] $GPGGA,025046.00,4327.73237401,N,14148.35752608,E,4,05,10.1,108.950,M,31.590,M,2.0,0000*7B
[2021-01-29 11:50:47.488] $GPGGA,025046.10,4327.73237644,N,14148.35752173,E,4,05,10.1,108.953,M,31.590,M,2.1,0000*70
[2021-01-29 11:50:47.597] $GPGGA,025046.20,4327.73237484,N,14148.35752630,E,4,05,10.1,108.947,M,31.590,M,2.2,0000*7B
[2021-01-29 11:50:47.691] $GPGGA,025046.30,4327.73237457,N,14148.35752649,E,4,05,10.1,108.949,M,31.590,M,2.3,0000*75
[2021-01-29 11:50:47.800] $GPGGA,025046.40,4327.73237457,N,14148.35752553,E,4,05,10.1,108.948,M,31.590,M,2.4,0000*7C
[2021-01-29 11:50:47.894] $GPGGA,025046.50,4327.73237588,N,14148.35752192,E,4,05,10.1,108.954,M,31.590,M,2.5,0000*7B
[2021-01-29 11:50:48.003] $GPGGA,025046.60,4327.73237577,N,14148.35752445,E,4,05,10.1,108.945,M,31.590,M,2.6,0000*74
[2021-01-29 11:50:48.081] $GPGGA,025046.70,4327.73237444,N,14148.35752589,E,4,05,10.1,108.960,M,31.590,M,2.7,0000*73
[2021-01-29 11:50:48.191] $GPGGA,025046.80,4327.73237992,N,14148.35753280,E,4,05,10.1,108.927,M,31.590,M,1.8,0000*7A
[2021-01-29 11:50:48.287] $GPGGA,025046.90,4327.73237907,N,14148.35753282,E,4,05,10.1,108.931,M,31.590,M,1.9,0000*73
[2021-01-29 11:50:48.396] $GPGGA,025047.00,4327.73237833,N,14148.35753332,E,4,05,10.1,108.937,M,31.590,M,2.0,0000*7B
[2021-01-29 11:50:48.490] $GPGGA,025047.10,4327.73237920,N,14148.35753305,E,4,05,10.1,108.925,M,31.590,M,2.1,0000*7F
[2021-01-29 11:50:48.599] $GPGGA,025047.20,4327.73238068,N,14148.35752862,E,4,05,10.1,108.939,M,31.590,M,2.2,0000*73
[2021-01-29 11:50:48.693] $GPGGA,025047.30,4327.73237797,N,14148.35753434,E,4,05,10.1,108.933,M,31.590,M,2.3,0000*7F
[2021-01-29 11:50:48.802] $GPGGA,025047.40,4327.73238012,N,14148.35753198,E,4,05,10.1,108.931,M,31.590,M,2.4,0000*7B
[2021-01-29 11:50:48.881] $GPGGA,025047.50,4327.73237860,N,14148.35753354,E,4,05,10.1,108.937,M,31.590,M,2.5,0000*7D
[2021-01-29 11:50:48.990] $GPGGA,025047.60,4327.73237960,N,14148.35753240,E,4,05,10.1,108.936,M,31.590,M,2.6,0000*79
[2021-01-29 11:50:49.084] $GPGGA,025047.70,4327.73237814,N,14148.35753531,E,4,05,10.1,108.926,M,31.590,M,2.7,0000*7B
[2021-01-29 11:50:49.193] $GPGGA,025047.80,4327.73238394,N,14148.35754292,E,4,05,10.1,108.916,M,31.590,M,1.8,0000*7E
[2021-01-29 11:50:49.288] $GPGGA,025047.90,4327.73238205,N,14148.35754295,E,4,05,10.1,108.911,M,31.590,M,1.9,0000*77
[2021-01-29 11:50:49.397] $GPGGA,025048.00,4327.73238257,N,14148.35754315,E,4,05,10.1,108.916,M,31.590,M,2.0,0000*72
[2021-01-29 11:50:49.491] $GPGGA,025048.10,4327.73238288,N,14148.35754239,E,4,05,10.1,108.915,M,31.590,M,2.1,0000*7C
[2021-01-29 11:50:49.600] $GPGGA,025048.20,4327.73238459,N,14148.35754221,E,4,05,10.1,108.912,M,31.590,M,2.2,0000*78
[2021-01-29 11:50:49.694] $GPGGA,025048.30,4327.73238197,N,14148.35754485,E,4,05,10.1,108.916,M,31.590,M,2.3,0000*73
[2021-01-29 11:50:49.788] $GPGGA,025048.40,4327.73238410,N,14148.35754142,E,4,05,10.1,108.917,M,31.590,M,2.4,0000*76
[2021-01-29 11:50:49.881] $GPGGA,025048.50,4327.73238140,N,14148.35754800,E,4,05,10.1,108.912,M,31.590,M,2.5,0000*7C
[2021-01-29 11:50:49.991] $GPGGA,025048.60,4327.73238148,N,14148.35754420,E,4,05,10.1,108.917,M,31.590,M,2.6,0000*7F
[2021-01-29 11:50:50.085] $GPGGA,025048.70,4327.73238352,N,14148.35754139,E,4,05,10.1,108.919,M,31.590,M,2.7,0000*75
[2021-01-29 11:50:50.194] $GPGGA,025048.80,4327.73237933,N,14148.35753721,E,4,05,10.1,108.930,M,31.590,M,1.8,0000*77
[2021-01-29 11:50:50.289] $GPGGA,025048.90,4327.73237926,N,14148.35753452,E,4,05,10.1,108.935,M,31.590,M,1.9,0000*71
[2021-01-29 11:50:50.399] $GPGGA,025049.00,4327.73238031,N,14148.35753585,E,4,05,10.1,108.932,M,31.590,M,2.0,0000*7F
[2021-01-29 11:50:50.492] $GPGGA,025049.10,4327.73238181,N,14148.35753806,E,4,05,10.1,108.933,M,31.590,M,2.1,0000*72
[2021-01-29 11:50:50.602] $GPGGA,025049.20,4327.73237965,N,14148.35753511,E,4,05,10.1,108.934,M,31.590,M,2.2,0000*73
[2021-01-29 11:50:50.696] $GPGGA,025049.30,4327.73238077,N,14148.35753652,E,4,05,10.1,108.933,M,31.590,M,2.3,0000*75
[2021-01-29 11:50:50.789] $GPGGA,025049.40,4327.73238046,N,14148.35753527,E,4,05,10.1,108.930,M,31.590,M,2.4,0000*75
[2021-01-29 11:50:50.883] $GPGGA,025049.50,4327.73238196,N,14148.35753384,E,4,05,10.1,108.934,M,31.590,M,2.5,0000*72
[2021-01-29 11:50:50.992] $GPGGA,025049.60,4327.73238030,N,14148.35753554,E,4,05,10.1,108.932,M,31.590,M,2.6,0000*72
[2021-01-29 11:50:51.086] $GPGGA,025049.70,4327.73237934,N,14148.35753660,E,4,05,10.1,108.928,M,31.590,M,2.7,0000*7F
[2021-01-29 11:50:51.196] $GPGGA,025049.80,4327.73237932,N,14148.35752958,E,4,05,10.1,108.942,M,31.590,M,1.8,0000*73
[2021-01-29 11:50:51.293] $GPGGA,025049.90,4327.73237794,N,14148.35752930,E,4,05,10.1,108.946,M,31.590,M,1.9,0000*7B
[2021-01-29 11:50:51.402] $GPGGA,025050.00,4327.73237615,N,14148.35753067,E,4,05,10.1,108.943,M,31.590,M,2.0,0000*77
[2021-01-29 11:50:51.496] $GPGGA,025050.10,4327.73237709,N,14148.35753241,E,4,05,10.1,108.934,M,31.590,M,2.1,0000*7D
[2021-01-29 11:50:51.589] $GPGGA,025050.20,4327.73237884,N,14148.35752740,E,4,05,10.1,108.944,M,31.590,M,2.2,0000*75
[2021-01-29 11:50:51.683] $GPGGA,025050.30,4327.73237615,N,14148.35753085,E,4,05,10.1,108.941,M,31.590,M,2.3,0000*79
[2021-01-29 11:50:51.793] $GPGGA,025050.40,4327.73237795,N,14148.35752844,E,4,05,10.1,108.943,M,31.590,M,2.4,0000*76
[2021-01-29 11:50:51.886] $GPGGA,025050.50,4327.73237568,N,14148.35753062,E,4,05,10.1,108.941,M,31.590,M,2.5,0000*79
[2021-01-29 11:50:51.996] $GPGGA,025050.60,4327.73237759,N,14148.35752980,E,4,05,10.1,108.940,M,31.590,M,2.6,0000*7C
[2021-01-29 11:50:52.089] $GPGGA,025050.70,4327.73237771,N,14148.35753140,E,4,05,10.1,108.939,M,31.590,M,2.7,0000*7D
[2021-01-29 11:50:52.199] $GPGGA,025050.80,4327.73237718,N,14148.35752888,E,4,05,10.1,108.943,M,31.590,M,2.8,0000*73
[2021-01-29 11:50:52.292] $GPGGA,025050.90,4327.73237501,N,14148.35753073,E,4,05,10.1,108.941,M,31.590,M,2.9,0000*76
[2021-01-29 11:50:52.402] $GPGGA,025051.00,4327.73237620,N,14148.35753139,E,4,05,10.1,108.945,M,31.590,M,3.0,0000*7D
[2021-01-29 11:50:52.495] $GPGGA,025051.10,4327.73237751,N,14148.35752846,E,4,05,10.1,108.942,M,31.590,M,3.1,0000*7D
[2021-01-29 11:50:52.589] $GPGGA,025051.20,4327.73237492,N,14148.35753249,E,4,05,10.1,108.935,M,31.590,M,3.2,0000*75
[2021-01-29 11:50:52.683] $GPGGA,025051.30,4327.73237697,N,14148.35752920,E,4,05,10.1,108.938,M,31.590,M,3.3,0000*7A
[2021-01-29 11:50:52.792] $GPGGA,025051.40,4327.73237636,N,14148.35753175,E,4,05,10.1,108.937,M,31.590,M,3.4,0000*77
[2021-01-29 11:50:52.886] $GPGGA,025051.50,4327.73237617,N,14148.35753067,E,4,05,10.1,108.945,M,31.590,M,3.5,0000*73
[2021-01-29 11:50:52.995] $GPGGA,025051.60,4327.73237499,N,14148.35753111,E,4,05,10.1,108.943,M,31.590,M,3.6,0000*71
[2021-01-29 11:50:53.089] $GPGGA,025051.70,4327.73237603,N,14148.35753393,E,4,05,10.1,108.940,M,31.590,M,3.7,0000*7B
[2021-01-29 11:50:53.199] $GPGGA,025051.80,4327.73236984,N,14148.35751790,E,4,05,10.1,108.964,M,31.590,M,1.8,0000*7B
[2021-01-29 11:50:53.294] $GPGGA,025051.90,4327.73237214,N,14148.35751412,E,4,05,10.1,108.973,M,31.590,M,1.9,0000*77
[2021-01-29 11:50:53.388] $GPGGA,025052.00,4327.73237205,N,14148.35751487,E,4,05,10.1,108.973,M,31.590,M,2.0,0000*7B
[2021-01-29 11:50:53.466] $GPGGA,025052.10,4327.73237173,N,14148.35751619,E,4,05,10.1,108.968,M,31.590,M,2.1,0000*76
[2021-01-29 11:50:53.591] $GPGGA,025052.20,4327.73237036,N,14148.35751560,E,4,05,10.1,108.970,M,31.590,M,2.2,0000*72
[2021-01-29 11:50:53.685] $GPGGA,025052.30,4327.73237021,N,14148.35751514,E,4,05,10.1,108.973,M,31.590,M,2.3,0000*74
[2021-01-29 11:50:53.794] $GPGGA,025052.40,4327.73237040,N,14148.35751645,E,4,05,10.1,108.971,M,31.590,M,2.4,0000*76
[2021-01-29 11:50:53.888] $GPGGA,025052.50,4327.73237064,N,14148.35751799,E,4,05,10.1,108.972,M,31.590,M,2.5,0000*73
[2021-01-29 11:50:53.997] $GPGGA,025052.60,4327.73237130,N,14148.35751592,E,4,05,10.1,108.978,M,31.590,M,2.6,0000*70
[2021-01-29 11:50:54.091] $GPGGA,025052.70,4327.73236979,N,14148.35751594,E,4,05,10.1,108.978,M,31.590,M,2.7,0000*72
[2021-01-29 11:50:54.200] $GPGGA,025052.80,4327.73237872,N,14148.35753932,E,4,05,10.1,108.928,M,31.590,M,1.8,0000*7D
[2021-01-29 11:50:54.295] $GPGGA,025052.90,4327.73237676,N,14148.35754044,E,4,05,10.1,108.927,M,31.590,M,1.9,0000*77
[2021-01-29 11:50:54.404] $GPGGA,025053.00,4327.73237862,N,14148.35753998,E,4,05,10.1,108.926,M,31.590,M,2.0,0000*70
[2021-01-29 11:50:54.482] $GPGGA,025053.10,4327.73237853,N,14148.35753698,E,4,05,10.1,108.936,M,31.590,M,2.1,0000*7C
[2021-01-29 11:50:54.592] $GPGGA,025053.20,4327.73237893,N,14148.35753821,E,4,05,10.1,108.927,M,31.590,M,2.2,0000*7C
[2021-01-29 11:50:54.685] $GPGGA,025053.30,4327.73237914,N,14148.35753865,E,4,05,10.1,108.929,M,31.590,M,2.3,0000*7C
[2021-01-29 11:50:54.795] $GPGGA,025053.40,4327.73237757,N,14148.35753983,E,4,05,10.1,108.927,M,31.590,M,2.4,0000*72
[2021-01-29 11:50:54.888] $GPGGA,025053.50,4327.73237564,N,14148.35754315,E,4,05,10.1,108.929,M,31.590,M,2.5,0000*7C
[2021-01-29 11:50:54.998] $GPGGA,025053.60,4327.73237684,N,14148.35753833,E,4,05,10.1,108.925,M,31.590,M,2.6,0000*75
[2021-01-29 11:50:55.091] $GPGGA,025053.70,4327.73237850,N,14148.35753892,E,4,05,10.1,108.928,M,31.590,M,2.7,0000*74
[2021-01-29 11:50:55.201] $GPGGA,025053.80,4327.73237728,N,14148.35753190,E,4,05,10.1,108.944,M,31.590,M,1.8,0000*76
[2021-01-29 11:50:55.282] $GPGGA,025053.90,4327.73237699,N,14148.35753227,E,4,05,10.1,108.944,M,31.590,M,1.9,0000*72
[2021-01-29 11:50:55.392] $GPGGA,025054.00,4327.73237917,N,14148.35752815,E,4,05,10.1,108.950,M,31.590,M,2.0,0000*70
[2021-01-29 11:50:55.486] $GPGGA,025054.10,4327.73237747,N,14148.35753151,E,4,05,10.1,108.950,M,31.590,M,2.1,0000*73
[2021-01-29 11:50:55.595] $GPGGA,025054.20,4327.73237904,N,14148.35752848,E,4,05,10.1,108.947,M,31.590,M,2.2,0000*7C
[2021-01-29 11:50:55.689] $GPGGA,025054.30,4327.73237809,N,14148.35752819,E,4,05,10.1,108.947,M,31.590,M,2.3,0000*74
[2021-01-29 11:50:55.798] $GPGGA,025054.40,4327.73237705,N,14148.35753252,E,4,05,10.1,108.949,M,31.590,M,2.4,0000*7D
[2021-01-29 11:50:55.892] $GPGGA,025054.50,4327.73237878,N,14148.35752869,E,4,05,10.1,108.947,M,31.590,M,2.5,0000*75
[2021-01-29 11:50:56.001] $GPGGA,025054.60,4327.73237760,N,14148.35753137,E,4,05,10.1,108.943,M,31.590,M,2.6,0000*74
[2021-01-29 11:50:56.095] $GPGGA,025054.70,4327.73237637,N,14148.35752972,E,4,05,10.1,108.946,M,31.590,M,2.7,0000*7A
[2021-01-29 11:50:56.189] $GPGGA,025054.80,4327.73238456,N,14148.35753501,E,4,05,10.1,108.931,M,31.590,M,1.8,0000*7A
[2021-01-29 11:50:56.283] $GPGGA,025054.90,4327.73238429,N,14148.35753831,E,4,05,10.1,108.922,M,31.590,M,1.9,0000*7E
[2021-01-29 11:50:56.393] $GPGGA,025055.00,4327.73237958,N,14148.35754178,E,4,05,10.1,108.932,M,31.590,M,2.0,0000*7A
[2021-01-29 11:50:56.487] $GPGGA,025055.10,4327.73237920,N,14148.35753890,E,4,05,10.1,108.926,M,31.590,M,2.1,0000*78
[2021-01-29 11:50:56.596] $GPGGA,025055.20,4327.73238237,N,14148.35754158,E,4,05,10.1,108.928,M,31.590,M,2.2,0000*7E
[2021-01-29 11:50:56.690] $GPGGA,025055.30,4327.73238267,N,14148.35753864,E,4,05,10.1,108.918,M,31.590,M,2.3,0000*79
[2021-01-29 11:50:56.799] $GPGGA,025055.40,4327.73238124,N,14148.35754024,E,4,05,10.1,108.925,M,31.590,M,2.4,0000*78
[2021-01-29 11:50:56.893] $GPGGA,025055.50,4327.73238198,N,14148.35753733,E,4,05,10.1,108.925,M,31.590,M,2.5,0000*79
[2021-01-29 11:50:57.002] $GPGGA,025055.60,4327.73238334,N,14148.35753547,E,4,05,10.1,108.925,M,31.590,M,2.6,0000*7C
[2021-01-29 11:50:57.096] $GPGGA,025055.70,4327.73238037,N,14148.35754285,E,4,05,10.1,108.925,M,31.590,M,2.7,0000*72
[2021-01-29 11:50:57.190] $GPGGA,025055.80,4327.73237619,N,14148.35753208,E,4,05,10.1,108.939,M,31.590,M,1.8,0000*7B
[2021-01-29 11:50:57.285] $GPGGA,025055.90,4327.73237868,N,14148.35752819,E,4,05,10.1,108.940,M,31.590,M,1.9,0000*76
[2021-01-29 11:50:57.394] $GPGGA,025056.00,4327.73237689,N,14148.35753215,E,4,05,10.1,108.934,M,31.590,M,2.0,0000*73
[2021-01-29 11:50:57.488] $GPGGA,025056.10,4327.73237755,N,14148.35752691,E,4,05,10.1,108.936,M,31.590,M,2.1,0000*78
[2021-01-29 11:50:57.597] $GPGGA,025056.20,4327.73237821,N,14148.35753290,E,4,05,10.1,108.935,M,31.590,M,2.2,0000*73
[2021-01-29 11:50:57.691] $GPGGA,025056.30,4327.73237486,N,14148.35753117,E,4,05,10.1,108.936,M,31.590,M,2.3,0000*7D
[2021-01-29 11:50:57.800] $GPGGA,025056.40,4327.73237698,N,14148.35753531,E,4,05,10.1,108.933,M,31.590,M,2.4,0000*75
[2021-01-29 11:50:57.894] $GPGGA,025056.50,4327.73237613,N,14148.35753154,E,4,05,10.1,108.940,M,31.590,M,2.5,0000*75
[2021-01-29 11:50:58.003] $GPGGA,025056.60,4327.73237791,N,14148.35752912,E,4,05,10.1,108.932,M,31.590,M,2.6,0000*70
[2021-01-29 11:50:58.081] $GPGGA,025056.70,4327.73237660,N,14148.35753169,E,4,05,10.1,108.933,M,31.590,M,2.7,0000*7B
[2021-01-29 11:50:58.191] $GPGGA,025056.80,4327.73237562,N,14148.35752207,E,4,05,10.1,108.959,M,31.590,M,1.8,0000*7F
[2021-01-29 11:50:58.287] $GPGGA,025056.90,4327.73237479,N,14148.35752093,E,4,05,10.1,108.948,M,31.590,M,1.9,0000*7B
[2021-01-29 11:50:58.397] $GPGGA,025057.00,4327.73237523,N,14148.35752299,E,4,05,10.1,108.952,M,31.590,M,2.0,0000*74
[2021-01-29 11:50:58.491] $GPGGA,025057.10,4327.73237646,N,14148.35752323,E,4,05,10.1,108.950,M,31.590,M,2.1,0000*76
[2021-01-29 11:50:58.600] $GPGGA,025057.20,4327.73237471,N,14148.35752455,E,4,05,10.1,108.952,M,31.590,M,2.2,0000*74
[2021-01-29 11:50:58.694] $GPGGA,025057.30,4327.73237530,N,14148.35752263,E,4,05,10.1,108.955,M,31.590,M,2.3,0000*74
[2021-01-29 11:50:58.803] $GPGGA,025057.40,4327.73237552,N,14148.35752315,E,4,05,10.1,108.951,M,31.590,M,2.4,0000*74
[2021-01-29 11:50:58.881] $GPGGA,025057.50,4327.73237738,N,14148.35752096,E,4,05,10.1,108.948,M,31.590,M,2.5,0000*7A
[2021-01-29 11:50:58.991] $GPGGA,025057.60,4327.73237539,N,14148.35752716,E,4,05,10.1,108.954,M,31.590,M,2.6,0000*7B
[2021-01-29 11:50:59.084] $GPGGA,025057.70,4327.73237304,N,14148.35752646,E,4,05,10.1,108.949,M,31.590,M,2.7,0000*7B
[2021-01-29 11:50:59.194] $GPGGA,025057.80,4327.73238118,N,14148.35754102,E,4,05,10.1,108.921,M,31.590,M,1.8,0000*77
[2021-01-29 11:50:59.288] $GPGGA,025057.90,4327.73238364,N,14148.35753757,E,4,05,10.1,108.927,M,31.590,M,1.9,0000*79
[2021-01-29 11:50:59.397] $GPGGA,025058.00,4327.73237984,N,14148.35754361,E,4,05,10.1,108.917,M,31.590,M,2.0,0000*7B
[2021-01-29 11:50:59.491] $GPGGA,025058.10,4327.73238149,N,14148.35753904,E,4,05,10.1,108.919,M,31.590,M,2.1,0000*7D
[2021-01-29 11:50:59.600] $GPGGA,025058.20,4327.73238131,N,14148.35754176,E,4,05,10.1,108.927,M,31.590,M,2.2,0000*75
[2021-01-29 11:50:59.694] $GPGGA,025058.30,4327.73238183,N,14148.35754060,E,4,05,10.1,108.921,M,31.590,M,2.3,0000*7C
[2021-01-29 11:50:59.788] $GPGGA,025058.40,4327.73238015,N,14148.35754003,E,4,05,10.1,108.929,M,31.590,M,2.4,0000*7F
[2021-01-29 11:50:59.897] $GPGGA,025058.50,4327.73238003,N,14148.35754093,E,4,05,10.1,108.924,M,31.590,M,2.5,0000*7C
[2021-01-29 11:50:59.991] $GPGGA,025058.60,4327.73238063,N,14148.35754449,E,4,05,10.1,108.917,M,31.590,M,2.6,0000*79
[2021-01-29 11:51:00.084] $GPGGA,025058.70,4327.73237840,N,14148.35754317,E,4,05,10.1,108.925,M,31.590,M,2.7,0000*72
[2021-01-29 11:51:00.194] $GPGGA,025058.80,4327.73238307,N,14148.35754762,E,4,05,10.1,108.908,M,31.590,M,1.8,0000*7F
[2021-01-29 11:51:00.291] $GPGGA,025058.90,4327.73238127,N,14148.35755300,E,4,05,10.1,108.903,M,31.590,M,1.9,0000*75
[2021-01-29 11:51:00.400] $GPGGA,025059.00,4327.73238007,N,14148.35754959,E,4,05,10.1,108.904,M,31.590,M,2.0,0000*74
[2021-01-29 11:51:00.494] $GPGGA,025059.10,4327.73238093,N,14148.35755152,E,4,05,10.1,108.907,M,31.590,M,2.1,0000*78
[2021-01-29 11:51:00.603] $GPGGA,025059.20,4327.73238109,N,14148.35755243,E,4,05,10.1,108.904,M,31.590,M,2.2,0000*7A
[2021-01-29 11:51:00.697] $GPGGA,025059.30,4327.73238020,N,14148.35754834,E,4,05,10.1,108.910,M,31.590,M,2.3,0000*7E
[2021-01-29 11:51:00.791] $GPGGA,025059.40,4327.73238081,N,14148.35755187,E,4,05,10.1,108.904,M,31.590,M,2.4,0000*70
[2021-01-29 11:51:00.884] $GPGGA,025059.50,4327.73237960,N,14148.35755210,E,4,05,10.1,108.913,M,31.590,M,2.5,0000*72
[2021-01-29 11:51:00.994] $GPGGA,025059.60,4327.73238139,N,14148.35755030,E,4,05,10.1,108.906,M,31.590,M,2.6,0000*7D
[2021-01-29 11:51:01.087] $GPGGA,025059.70,4327.73237940,N,14148.35755137,E,4,05,10.1,108.911,M,31.590,M,2.7,0000*74
[2021-01-29 11:51:01.197] $GPGGA,025059.80,4327.73238099,N,14148.35754730,E,4,05,10.1,108.911,M,31.590,M,2.8,0000*76
[2021-01-29 11:51:01.291] $GPGGA,025059.90,4327.73237926,N,14148.35755167,E,4,05,10.1,108.903,M,31.590,M,2.9,0000*72
[2021-01-29 11:51:01.400] $GPGGA,025100.00,4327.73238336,N,14148.35754801,E,4,05,10.1,108.906,M,31.590,M,3.0,0000*77
[2021-01-29 11:51:01.494] $GPGGA,025100.10,4327.73238108,N,14148.35755112,E,4,05,10.1,108.906,M,31.590,M,3.1,0000*72
[2021-01-29 11:51:01.603] $GPGGA,025100.20,4327.73238078,N,14148.35755178,E,4,05,10.1,108.907,M,31.590,M,3.2,0000*79
[2021-01-29 11:51:01.697] $GPGGA,025100.30,4327.73238022,N,14148.35755049,E,4,05,10.1,108.910,M,31.590,M,3.3,0000*73
[2021-01-29 11:51:01.791] $GPGGA,025100.40,4327.73238049,N,14148.35755202,E,4,05,10.1,108.902,M,31.590,M,3.4,0000*70
[2021-01-29 11:51:01.885] $GPGGA,025100.50,4327.73238055,N,14148.35754969,E,4,05,10.1,108.917,M,31.590,M,3.5,0000*7E
[2021-01-29 11:51:01.994] $GPGGA,025100.60,4327.73238083,N,14148.35754950,E,4,05,10.1,108.913,M,31.590,M,3.6,0000*7B
[2021-01-29 11:51:02.088] $GPGGA,025100.70,4327.73237937,N,14148.35755175,E,4,05,10.1,108.907,M,31.590,M,3.7,0000*79
[2021-01-29 11:51:02.197] $GPGGA,025100.80,4327.73237869,N,14148.35755213,E,4,05,10.1,108.905,M,31.590,M,3.8,0000*72
[2021-01-29 11:51:02.292] $GPGGA,025100.90,4327.73238150,N,14148.35754837,E,4,05,10.1,108.915,M,31.590,M,3.9,0000*72
[2021-01-29 11:51:02.401] $GPGGA,025101.00,4327.73238082,N,14148.35755430,E,4,05,10.1,108.911,M,31.590,M,4.0,0000*74
[2021-01-29 11:51:02.495] $GPGGA,025101.10,4327.73238068,N,14148.35754974,E,4,05,10.1,108.909,M,31.590,M,4.1,0000*75
[2021-01-29 11:51:02.589] $GPGGA,025101.20,4327.73238213,N,14148.35754378,E,4,05,10.1,108.911,M,31.590,M,2.2,0000*72
[2021-01-29 11:51:02.683] $GPGGA,025101.30,4327.73238371,N,14148.35754646,E,4,05,10.1,108.907,M,31.590,M,2.3,0000*78
[2021-01-29 11:51:02.792] $GPGGA,025101.40,4327.73238057,N,14148.35754722,E,4,05,10.1,108.918,M,31.590,M,2.4,0000*72
[2021-01-29 11:51:02.886] $GPGGA,025101.50,4327.73238372,N,14148.35754562,E,4,05,10.1,108.910,M,31.590,M,2.5,0000*78
[2021-01-29 11:51:02.995] $GPGGA,025101.60,4327.73238287,N,14148.35754539,E,4,05,10.1,108.909,M,31.590,M,2.6,0000*75
[2021-01-29 11:51:03.089] $GPGGA,025101.70,4327.73238389,N,14148.35754370,E,4,05,10.1,108.911,M,31.590,M,2.7,0000*78
[2021-01-29 11:51:03.198] $GPGGA,025101.80,4327.73238529,N,14148.35755621,E,4,05,10.1,108.903,M,31.590,M,1.8,0000*74
[2021-01-29 11:51:03.295] $GPGGA,025101.90,4327.73238226,N,14148.35755658,E,4,05,10.1,108.901,M,31.590,M,1.9,0000*70
[2021-01-29 11:51:03.389] $GPGGA,025102.00,4327.73238479,N,14148.35755566,E,4,05,10.1,108.903,M,31.590,M,2.0,0000*70
[2021-01-29 11:51:03.467] $GPGGA,025102.10,4327.73238367,N,14148.35755390,E,4,05,10.1,108.901,M,31.590,M,2.1,0000*75
[2021-01-29 11:51:03.592] $GPGGA,025102.20,4327.73238442,N,14148.35755269,E,4,05,10.1,108.904,M,31.590,M,2.2,0000*77
[2021-01-29 11:51:03.686] $GPGGA,025102.30,4327.73238330,N,14148.35755447,E,4,05,10.1,108.901,M,31.590,M,2.3,0000*7A
[2021-01-29 11:51:03.795] $GPGGA,025102.40,4327.73238364,N,14148.35755661,E,4,05,10.1,108.900,M,31.590,M,2.4,0000*7C
[2021-01-29 11:51:03.889] $GPGGA,025102.50,4327.73238418,N,14148.35755365,E,4,05,10.1,108.904,M,31.590,M,2.5,0000*75
[2021-01-29 11:51:03.998] $GPGGA,025102.60,4327.73238267,N,14148.35755410,E,4,05,10.1,108.906,M,31.590,M,2.6,0000*7C
[2021-01-29 11:51:04.092] $GPGGA,025102.70,4327.73238439,N,14148.35755361,E,4,05,10.1,108.903,M,31.590,M,2.7,0000*75
[2021-01-29 11:51:04.201] $GPGGA,025102.80,4327.73237758,N,14148.35753275,E,4,05,10.1,108.934,M,31.590,M,1.8,0000*7B
[2021-01-29 11:51:04.281] $GPGGA,025102.90,4327.73237834,N,14148.35753201,E,4,05,10.1,108.946,M,31.590,M,1.9,0000*78
[2021-01-29 11:51:04.406] $GPGGA,025103.00,4327.73237915,N,14148.35753114,E,4,05,10.1,108.938,M,31.590,M,2.0,0000*76
[2021-01-29 11:51:04.484] $GPGGA,025103.10,4327.73237637,N,14148.35753265,E,4,05,10.1,108.938,M,31.590,M,2.1,0000*7C
[2021-01-29 11:51:04.593] $GPGGA,025103.20,4327.73237814,N,14148.35753308,E,4,05,10.1,108.933,M,31.590,M,2.2,0000*72
[2021-01-29 11:51:04.687] $GPGGA,025103.30,4327.73237755,N,14148.35753002,E,4,05,10.1,108.933,M,31.590,M,2.3,0000*71
[2021-01-29 11:51:04.796] $GPGGA,025103.40,4327.73237835,N,14148.35753424,E,4,05,10.1,108.935,M,31.590,M,2.4,0000*7E
[2021-01-29 11:51:04.890] $GPGGA,025103.50,4327.73237797,N,14148.35753082,E,4,05,10.1,108.936,M,31.590,M,2.5,0000*72
[2021-01-29 11:51:04.999] $GPGGA,025103.60,4327.73237924,N,14148.35752785,E,4,05,10.1,108.938,M,31.590,M,2.6,0000*7B
[2021-01-29 11:51:05.093] $GPGGA,025103.70,4327.73237940,N,14148.35753206,E,4,05,10.1,108.933,M,31.590,M,2.7,0000*7D
[2021-01-29 11:51:05.202] $GPGGA,025103.80,4327.73238696,N,14148.35754720,E,4,05,10.1,108.906,M,31.590,M,1.8,0000*75
[2021-01-29 11:51:05.280] $GPGGA,025103.90,4327.73238704,N,14148.35754490,E,4,05,10.1,108.902,M,31.590,M,1.9,0000*73
[2021-01-29 11:51:05.405] $GPGGA,025104.00,4327.73238215,N,14148.35755000,E,4,05,10.1,108.909,M,31.590,M,2.0,0000*75
[2021-01-29 11:51:05.483] $GPGGA,025104.10,4327.73238422,N,14148.35754787,E,4,05,10.1,108.900,M,31.590,M,2.1,0000*77
[2021-01-29 11:51:05.593] $GPGGA,025104.20,4327.73238245,N,14148.35754744,E,4,05,10.1,108.901,M,31.590,M,2.2,0000*7E
[2021-01-29 11:51:05.686] $GPGGA,025104.30,4327.73238430,N,14148.35754876,E,4,05,10.1,108.907,M,31.590,M,2.3,0000*72
[2021-01-29 11:51:05.796] $GPGGA,025104.40,4327.73238491,N,14148.35754762,E,4,05,10.1,108.906,M,31.590,M,2.4,0000*72
[2021-01-29 11:51:05.890] $GPGGA,025104.50,4327.73238275,N,14148.35754796,E,4,05,10.1,108.905,M,31.590,M,2.5,0000*76
[2021-01-29 11:51:05.999] $GPGGA,025104.60,4327.73238535,N,14148.35754563,E,4,05,10.1,108.901,M,31.590,M,2.6,0000*79
[2021-01-29 11:51:06.093] $GPGGA,025104.70,4327.73238245,N,14148.35754842,E,4,05,10.1,108.912,M,31.590,M,2.7,0000*75
[2021-01-29 11:51:06.202] $GPGGA,025104.80,4327.73237968,N,14148.35753863,E,4,05,10.0,108.911,M,31.590,M,1.8,0000*7B
[2021-01-29 11:51:06.282] $GPGGA,025104.90,4327.73238047,N,14148.35753982,E,4,05,10.0,108.919,M,31.590,M,1.9,0000*76
[2021-01-29 11:51:06.391] $GPGGA,025105.00,4327.73238185,N,14148.35753978,E,4,05,10.0,108.909,M,31.590,M,2.0,0000*7F
[2021-01-29 11:51:06.485] $GPGGA,025105.10,4327.73238074,N,14148.35753970,E,4,05,10.0,108.913,M,31.590,M,2.1,0000*73
[2021-01-29 11:51:06.595] $GPGGA,025105.20,4327.73238016,N,14148.35754131,E,4,05,10.0,108.909,M,31.590,M,2.2,0000*76
[2021-01-29 11:51:06.688] $GPGGA,025105.30,4327.73237777,N,14148.35754006,E,4,05,10.0,108.918,M,31.590,M,2.3,0000*7C
[2021-01-29 11:51:06.798] $GPGGA,025105.40,4327.73238004,N,14148.35753992,E,4,05,10.0,108.908,M,31.590,M,2.4,0000*72
[2021-01-29 11:51:06.891] $GPGGA,025105.50,4327.73237847,N,14148.35753934,E,4,05,10.0,108.916,M,31.590,M,2.5,0000*71
[2021-01-29 11:51:07.001] $GPGGA,025105.60,4327.73238090,N,14148.35753837,E,4,05,10.0,108.918,M,31.590,M,2.6,0000*70
[2021-01-29 11:51:07.094] $GPGGA,025105.70,4327.73237988,N,14148.35753997,E,4,05,10.0,108.913,M,31.590,M,2.7,0000*7F
[2021-01-29 11:51:07.188] $GPGGA,025105.80,4327.73238483,N,14148.35754691,E,4,05,10.0,108.900,M,31.590,M,1.8,0000*79
[2021-01-29 11:51:07.286] $GPGGA,025105.90,4327.73238642,N,14148.35754613,E,4,05,10.0,108.904,M,31.590,M,1.9,0000*78
[2021-01-29 11:51:07.395] $GPGGA,025106.00,4327.73238487,N,14148.35754783,E,4,05,10.0,108.905,M,31.590,M,2.0,0000*7A
[2021-01-29 11:51:07.489] $GPGGA,025106.10,4327.73238323,N,14148.35754889,E,4,05,10.0,108.899,M,31.590,M,2.1,0000*72
[2021-01-29 11:51:07.598] $GPGGA,025106.20,4327.73238342,N,14148.35755102,E,4,05,10.0,108.892,M,31.590,M,2.2,0000*75
[2021-01-29 11:51:07.692] $GPGGA,025106.30,4327.73238823,N,14148.35754452,E,4,05,10.0,108.903,M,31.590,M,2.3,0000*71
[2021-01-29 11:51:07.801] $GPGGA,025106.40,4327.73238368,N,14148.35754804,E,4,05,10.0,108.904,M,31.590,M,2.4,0000*7D
[2021-01-29 11:51:07.895] $GPGGA,025106.50,4327.73238290,N,14148.35754862,E,4,05,10.0,108.899,M,31.590,M,2.5,0000*7E
[2021-01-29 11:51:08.004] $GPGGA,025106.60,4327.73238425,N,14148.35754847,E,4,05,10.0,108.900,M,31.590,M,2.6,0000*70
[2021-01-29 11:51:08.098] $GPGGA,025106.70,4327.73238334,N,14148.35754474,E,4,05,10.0,108.903,M,31.590,M,2.7,0000*78
[2021-01-29 11:51:08.192] $GPGGA,025106.80,4327.73238502,N,14148.35754346,E,4,05,10.0,108.906,M,31.590,M,1.8,0000*7B
[2021-01-29 11:51:08.285] $GPGGA,025106.90,4327.73238400,N,14148.35754371,E,4,05,10.0,108.912,M,31.590,M,1.9,0000*79
[2021-01-29 11:51:08.395] $GPGGA,025107.00,4327.73238377,N,14148.35754553,E,4,05,10.0,108.904,M,31.590,M,2.0,0000*7D
[2021-01-29 11:51:08.489] $GPGGA,025107.10,4327.73238479,N,14148.35754398,E,4,05,10.0,108.905,M,31.590,M,2.1,0000*74
[2021-01-29 11:51:08.598] $GPGGA,025107.20,4327.73238518,N,14148.35754420,E,4,05,10.0,108.906,M,31.590,M,2.2,0000*75
[2021-01-29 11:51:08.692] $GPGGA,025107.30,4327.73238368,N,14148.35754234,E,4,05,10.0,108.908,M,31.590,M,2.3,0000*79
[2021-01-29 11:51:08.801] $GPGGA,025107.40,4327.73238227,N,14148.35754458,E,4,05,10.0,108.905,M,31.590,M,2.4,0000*72
[2021-01-29 11:51:08.895] $GPGGA,025107.50,4327.73238534,N,14148.35754211,E,4,05,10.0,108.909,M,31.590,M,2.5,0000*70
[2021-01-29 11:51:08.989] $GPGGA,025107.60,4327.73238364,N,14148.35754383,E,4,05,10.0,108.907,M,31.590,M,2.6,0000*77
[2021-01-29 11:51:09.082] $GPGGA,025107.70,4327.73238329,N,14148.35754376,E,4,05,10.0,108.918,M,31.590,M,2.7,0000*7A
[2021-01-29 11:51:09.192] $GPGGA,025107.80,4327.73237481,N,14148.35754071,E,4,05,10.0,108.923,M,31.590,M,1.8,0000*7F
[2021-01-29 11:51:09.287] $GPGGA,025107.90,4327.73237695,N,14148.35753759,E,4,05,10.0,108.929,M,31.590,M,1.9,0000*78
[2021-01-29 11:51:09.396] $GPGGA,025108.00,4327.73237461,N,14148.35753908,E,4,05,10.0,108.927,M,31.590,M,2.0,0000*79
[2021-01-29 11:51:09.490] $GPGGA,025108.10,4327.73237610,N,14148.35753621,E,4,05,10.0,108.933,M,31.590,M,2.1,0000*7C
