[2021-01-29 10:48:18.336] $GNGGA,14750.9,,,,,0,0,99.99,,,,,83.9,*6A
[2021-01-29 10:48:18.367] $GNGGA,14751,,,,,0,0,99.99,,,,,84,*6C
[2021-01-29 10:48:18.367] $GNGGA,14751.1,,,,,0,0,99.99,,,,,84.1,*6C
[2021-01-29 10:48:18.367] $GNGGA,14751.2,,,,,0,0,99.99,,,,,84.2,*6C
[2021-01-29 10:48:18.367] $GNGGA,14751.3,,,,,0,0,99.99,,,,,84.3,*6C
[2021-01-29 10:48:18.367] $GNGGA,14751.4,,,,,0,0,99.99,,,,,84.4,*6C
[2021-01-29 10:48:18.367] $GNGGA,14751.5,,,,,0,0,99.99,,,,,84.5,*6C
[2021-01-29 10:48:18.367] $GNGGA,14751.6,,,,,0,0,99.99,,,,,84.6,*6C
[2021-01-29 10:48:18.367] $GNGGA,14751.7,,,,,0,0,99.99,,,,,84.7,*6C
[2021-01-29 10:48:18.367] $GNGGA,14751.8,,,,,0,0,99.99,,,,,84.8,*6C
[2021-01-29 10:48:18.367] $GNGGA,14751.9,,,,,0,0,99.99,,,,,84.9,*6C
[2021-01-29 10:48:18.367] $GNGGA,14752,,,,,0,0,99.99,,,,,85,*6E
[2021-01-29 10:48:18.367] $GNGGA,14752.1,,,,,0,0,99.99,,,,,85.1,*6E
[2021-01-29 10:48:18.367] $GNGGA,14752.2,,,,,0,0,99.99,,,,,85.2,*6E
[2021-01-29 10:48:18.367] $GNGGA,14752.3,,,,,0,0,99.99,,,,,85.3,*6E
[2021-01-29 10:48:18.367] $GNGGA,14752.4,,,,,0,0,99.99,,,,,85.4,*6E
[2021-01-29 10:48:18.367] $GNGGA,14752.5,,,,,0,0,99.99,,,,,85.5,*6E
[2021-01-29 10:48:18.367] $GNGGA,14752.6,,,,,0,0,99.99,,,,,85.6,*6E
[2021-01-29 10:48:18.367] $GNGGA,14752.7,,,,,0,0,99.99,,,,,85.7,*6E
[2021-01-29 10:48:18.367] $GNGGA,14752.8,,,,,0,0,99.99,,,,,85.8,*6E
[2021-01-29 10:48:18.367] $GNGGA,14752.9,,,,,0,0,99.99,,,,,85.9,*6E
[2021-01-29 10:48:18.367] $GNGGA,14753,,,,,0,0,99.99,,,,,86,*6C
[2021-01-29 10:48:18.367] $GNGGA,14753.1,,,,,0,0,99.99,,,,,86.1,*6C
[2021-01-29 10:48:18.367] $GNGGA,14753.2,,,,,0,0,99.99,,,,,86.2,*6C
[2021-01-29 10:48:18.383] $GNGGA,14753.3,,,,,0,0,99.99,,,,,86.3,*6C
[2021-01-29 10:48:18.383] $GNGGA,14753.4,,,,,0,0,99.99,,,,,86.4,*6C
[2021-01-29 10:48:18.383] $GNGGA,14753.5,,,,,0,0,99.99,,,,,86.5,*6C
[2021-01-29 10:48:18.383] $GNGGA,14753.6,,,,,0,0,99.99,,,,,86.6,*6C
[2021-01-29 10:48:18.383] $GNGGA,14753.7,,,,,0,0,99.99,,,,,86.7,*6C
[2021-01-29 10:48:18.383] $GNGGA,14753.8,,,,,0,0,99.99,,,,,86.8,*6C
[2021-01-29 10:48:18.383] $GNGGA,14753.9,,,,,0,0,99.99,,,,,86.9,*6C
[2021-01-29 10:48:18.383] $GNGGA,14754,,,,,0,0,99.99,,,,,87,*6A
[2021-01-29 10:48:18.383] $GNGGA,14754.1,,,,,0,0,99.99,,,,,87.1,*6A
[2021-01-29 10:48:18.383] $GNGGA,14754.2,,,,,0,0,99.99,,,,,87.2,*6A
[2021-01-29 10:48:18.383] $GNGGA,14754.3,,,,,0,0,99.99,,,,,87.3,*6A
[2021-01-29 10:48:18.383] $GNGGA,14754.4,,,,,0,0,99.99,,,,,87.4,*6A
[2021-01-29 10:48:18.383] $GNGGA,14754.5,,,,,0,0,99.99,,,,,87.5,*6A
[2021-01-29 10:48:18.383] $GNGGA,14754.6,,,,,0,0,99.99,,,,,87.6,*6A
[2021-01-29 10:48:18.383] $GNGGA,14754.7,,,,,0,0,99.99,,,,,87.7,*6A
[2021-01-29 10:48:18.383] $GNGGA,14754.8,,,,,0,0,99.99,,,,,87.8,*6A
[2021-01-29 10:48:18.383] $GNGGA,14754.9,,,,,0,0,99.99,,,,,87.9,*6A
[2021-01-29 10:48:18.383] $GNGGA,14755,,,,,0,0,99.99,,,,,88,*64
[2021-01-29 10:48:18.383] $GNGGA,14755.1,,,,,0,0,99.99,,,,,88.1,*64
[2021-01-29 10:48:18.383] $GNGGA,14755.2,,,,,0,0,99.99,,,,,88.2,*64
[2021-01-29 10:48:18.383] $GNGGA,14755.3,,,,,0,0,99.99,,,,,88.3,*64
[2021-01-29 10:48:18.383] $GNGGA,14755.4,,,,,0,0,99.99,,,,,88.4,*64
[2021-01-29 10:48:18.399] $GNGGA,14755.5,,,,,0,0,99.99,,,,,88.5,*64
[2021-01-29 10:48:18.399] $GNGGA,14755.6,,,,,0,0,99.99,,,,,88.6,*64
[2021-01-29 10:48:18.399] $GNGGA,14755.7,,,,,0,0,99.99,,,,,88.7,*64
[2021-01-29 10:48:18.399] $GNGGA,14755.8,,,,,0,0,99.99,,,,,88.8,*64
[2021-01-29 10:48:18.399] $GNGGA,14755.9,,,,,0,0,99.99,,,,,88.9,*64
[2021-01-29 10:48:18.399] $GNGGA,14756,,,,,0,0,99.99,,,,,89,*66
[2021-01-29 10:48:18.399] $GNGGA,14756.1,,,,,0,0,99.99,,,,,89.1,*66
[2021-01-29 10:48:18.399] $GNGGA,14756.2,,,,,0,0,99.99,,,,,89.2,*66
[2021-01-29 10:48:18.399] $GNGGA,14756.3,,,,,0,0,99.99,,,,,89.3,*66
[2021-01-29 10:48:18.399] $GNGGA,14756.4,,,,,0,0,99.99,,,,,89.4,*66
[2021-01-29 10:48:18.399] $GNGGA,14756.5,,,,,0,0,99.99,,,,,89.5,*66
[2021-01-29 10:48:18.399] $GNGGA,14756.6,,,,,0,0,99.99,,,,,89.6,*66
[2021-01-29 10:48:18.399] $GNGGA,14756.7,,,,,0,0,99.99,,,,,89.7,*66
[2021-01-29 10:48:18.399] $GNGGA,14756.8,,,,,0,0,99.99,,,,,89.8,*66
[2021-01-29 10:48:18.399] $GNGGA,14756.9,,,,,0,0,99.99,,,,,89.9,*66
[2021-01-29 10:48:18.399] $GNGGA,14757,,,,,0,0,99.99,,,,,90,*6F
[2021-01-29 10:48:18.399] $GNGGA,14757.1,,,,,0,0,99.99,,,,,90.1,*6F
[2021-01-29 10:48:18.399] $GNGGA,14757.2,,,,,0,0,99.99,,,,,90.2,*6F
[2021-01-29 10:48:18.399] $GNGGA,14757.3,,,,,0,0,99.99,,,,,90.3,*6F
[2021-01-29 10:48:18.399] $GNGGA,14757.4,,,,,0,0,99.99,,,,,90.4,*6F
[2021-01-29 10:48:18.399] $GNGGA,14757.5,,,,,0,0,99.99,,,,,90.5,*6F
[2021-01-29 10:48:18.399] $GNGGA,14757.6,,,,,0,0,99.99,,,,,90.6,*6F
[2021-01-29 10:48:18.414] $GNGGA,14757.7,,,,,0,0,99.99,,,,,90.7,*6F
[2021-01-29 10:48:18.414] $GNGGA,14757.8,,,,,0,0,99.99,,,,,90.8,*6F
[2021-01-29 10:48:18.414] $GNGGA,14757.9,,,,,0,0,99.99,,,,,90.9,*6F
[2021-01-29 10:48:18.414] $GNGGA,14758,,,,,0,0,99.99,,,,,91,*61
[2021-01-29 10:48:18.414] $GNGGA,14758.1,,,,,0,0,99.99,,,,,91.1,*61
[2021-01-29 10:48:18.414] $GNGGA,14758.2,,,,,0,0,99.99,,,,,91.2,*61
[2021-01-29 10:48:18.414] $GNGGA,14758.3,,,,,0,0,99.99,,,,,91.3,*61
[2021-01-29 10:48:18.414] $GNGGA,14758.4,,,,,0,0,99.99,,,,,91.4,*61
[2021-01-29 10:48:18.414] $GNGGA,14758.5,,,,,0,0,99.99,,,,,91.5,*61
[2021-01-29 10:48:18.414] $GNGGA,14758.6,,,,,0,0,99.99,,,,,91.6,*61
[2021-01-29 10:48:18.414] $GNGGA,14758.7,,,,,0,0,99.99,,,,,91.7,*61
[2021-01-29 10:48:18.414] $GNGGA,14758.8,,,,,0,0,99.99,,,,,91.8,*61
[2021-01-29 10:48:18.414] $GNGGA,14758.9,,,,,0,0,99.99,,,,,91.9,*61
[2021-01-29 10:48:18.414] $GNGGA,14759,,,,,0,0,99.99,,,,,92,*63
[2021-01-29 10:48:18.414] $GNGGA,14759.1,,,,,0,0,99.99,,,,,92.1,*63
[2021-01-29 10:48:18.414] $GNGGA,14759.2,,,,,0,0,99.99,,,,,92.2,*63
[2021-01-29 10:48:18.414] $GNGGA,14759.3,,,,,0,0,99.99,,,,,92.3,*63
[2021-01-29 10:48:18.414] $GNGGA,14759.4,,,,,0,0,99.99,,,,,92.4,*63
[2021-01-29 10:48:18.414] $GNGGA,14759.5,,,,,0,0,99.99,,,,,92.5,*63
[2021-01-29 10:48:18.414] $GNGGA,14759.6,,,,,0,0,99.99,,,,,92.6,*63
[2021-01-29 10:48:18.414] $GNGGA,14759.7,,,,,0,0,99.99,,,,,92.7,*63
[2021-01-29 10:48:18.414] $GNGGA,14759.8,,,,,0,0,99.99,,,,,92.8,*63
[2021-01-29 10:48:18.430] $GNGGA,14759.9,,,,,0,0,99.99,,,,,92.9,*63
[2021-01-29 10:48:18.430] $GNGGA,14800,,,,,0,0,99.99,,,,,93,*61
[2021-01-29 10:48:18.430] $GNGGA,14800.1,,,,,0,0,99.99,,,,,93.1,*61
[2021-01-29 10:48:18.430] $GNGGA,14800.2,,,,,0,0,99.99,,,,,93.2,*61
[2021-01-29 10:48:18.430] $GNGGA,14800.3,,,,,0,0,99.99,,,,,93.3,*61
[2021-01-29 10:48:18.430] $GNGGA,14800.4,,,,,0,0,99.99,,,,,93.4,*61
[2021-01-29 10:48:18.430] $GNGGA,14800.5,,,,,0,0,99.99,,,,,93.5,*61
[2021-01-29 10:48:18.430] $GNGGA,14800.6,,,,,0,0,99.99,,,,,93.6,*61
[2021-01-29 10:48:18.430] $GNGGA,14800.7,,,,,0,0,99.99,,,,,93.7,*61
[2021-01-29 10:48:18.430] $GNGGA,14800.8,,,,,0,0,99.99,,,,,93.8,*61
[2021-01-29 10:48:18.430] $GNGGA,14800.9,,,,,0,0,99.99,,,,,93.9,*61
[2021-01-29 10:48:18.430] $GNGGA,14801,,,,,0,0,99.99,,,,,94,*67
[2021-01-29 10:48:18.430] $GNGGA,14801.1,,,,,0,0,99.99,,,,,94.1,*67
[2021-01-29 10:48:18.430] $GNGGA,14801.2,,,,,0,0,99.99,,,,,94.2,*67
[2021-01-29 10:48:18.430] $GNGGA,14801.3,,,,,0,0,99.99,,,,,94.3,*67
[2021-01-29 10:48:18.430] $GNGGA,14801.4,,,,,0,0,99.99,,,,,94.4,*67
[2021-01-29 10:48:18.430] $GNGGA,14801.5,,,,,0,0,99.99,,,,,94.5,*67
[2021-01-29 10:48:18.430] $GNGGA,14801.6,,,,,0,0,99.99,,,,,94.6,*67
[2021-01-29 10:48:18.430] $GNGGA,14801.7,,,,,0,0,99.99,,,,,94.7,*67
[2021-01-29 10:48:18.430] $GNGGA,14801.8,,,,,0,0,99.99,,,,,94.8,*67
[2021-01-29 10:48:18.430] $GNGGA,14801.9,,,,,0,0,99.99,,,,,94.9,*67
[2021-01-29 10:48:18.430] $GNGGA,14802,,,,,0,0,99.99,,,,,95,*65
[2021-01-29 10:48:18.445] $GNGGA,14802.1,,,,,0,0,99.99,,,,,95.1,*65
[2021-01-29 10:48:18.445] $GNGGA,14802.2,,,,,0,0,99.99,,,,,95.2,*65
[2021-01-29 10:48:18.445] $GNGGA,14802.3,,,,,0,0,99.99,,,,,95.3,*65
[2021-01-29 10:48:18.445] $GNGGA,14802.4,,,,,0,0,99.99,,,,,95.4,*65
[2021-01-29 10:48:18.445] $GNGGA,14802.5,,,,,0,0,99.99,,,,,95.5,*65
[2021-01-29 10:48:18.445] $GNGGA,14802.6,,,,,0,0,99.99,,,,,95.6,*65
[2021-01-29 10:48:18.445] $GNGGA,14802.7,,,,,0,0,99.99,,,,,95.7,*65
[2021-01-29 10:48:18.445] $GNGGA,14802.8,,,,,0,0,99.99,,,,,95.8,*65
[2021-01-29 10:48:18.445] $GNGGA,14802.9,,,,,0,0,99.99,,,,,95.9,*65
[2021-01-29 10:48:18.445] $GNGGA,14803,,,,,0,0,99.99,,,,,96,*67
[2021-01-29 10:48:18.445] $GNGGA,14803.1,,,,,0,0,99.99,,,,,96.1,*67
[2021-01-29 10:48:18.445] $GNGGA,14803.2,,,,,0,0,99.99,,,,,96.2,*67
[2021-01-29 10:48:18.445] $GNGGA,14803.3,,,,,0,0,99.99,,,,,96.3,*67
[2021-01-29 10:48:18.445] $GNGGA,14803.4,,,,,0,0,99.99,,,,,96.4,*67
[2021-01-29 10:48:18.445] $GNGGA,14803.5,,,,,0,0,99.99,,,,,96.5,*67
[2021-01-29 10:48:18.445] $GNGGA,14803.6,,,,,0,0,99.99,,,,,96.6,*67
[2021-01-29 10:48:18.445] $GNGGA,14803.7,,,,,0,0,99.99,,,,,96.7,*67
[2021-01-29 10:48:18.445] $GNGGA,14803.8,,,,,0,0,99.99,,,,,96.8,*67
[2021-01-29 10:48:18.445] $GNGGA,14803.9,,,,,0,0,99.99,,,,,96.9,*67
[2021-01-29 10:48:18.445] $GNGGA,14804,,,,,0,0,99.99,,,,,97,*61
[2021-01-29 10:48:18.445] $GNGGA,14804.1,,,,,0,0,99.99,,,,,97.1,*61
[2021-01-29 10:48:18.445] $GNGGA,14804.2,,,,,0,0,99.99,,,,,97.2,*61
[2021-01-29 10:48:18.477] $GNGGA,14804.3,,,,,0,0,99.99,,,,,97.3,*61
[2021-01-29 10:48:18.477] $GNGGA,14804.4,,,,,0,0,99.99,,,,,97.4,*61
[2021-01-29 10:48:18.477] $GNGGA,14804.5,,,,,0,0,99.99,,,,,97.5,*61
[2021-01-29 10:48:18.477] $GNGGA,14804.6,,,,,0,0,99.99,,,,,97.6,*61
[2021-01-29 10:48:18.477] $GNGGA,14804.7,,,,,0,0,99.99,,,,,97.7,*61
[2021-01-29 10:48:18.477] $GNGGA,14804.8,,,,,0,0,99.99,,,,,97.8,*61
[2021-01-29 10:48:18.477] $GNGGA,14804.9,,,,,0,0,99.99,,,,,97.9,*61
[2021-01-29 10:48:18.477] $GNGGA,14805,,,,,0,0,99.99,,,,,98,*6F
[2021-01-29 10:48:18.477] $GNGGA,14805.1,,,,,0,0,99.99,,,,,98.1,*6F
[2021-01-29 10:48:18.477] $GNGGA,14805.2,,,,,0,0,99.99,,,,,98.2,*6F
[2021-01-29 10:48:18.477] $GNGGA,14805.3,,,,,0,0,99.99,,,,,98.3,*6F
[2021-01-29 10:48:18.477] $GNGGA,14805.4,,,,,0,0,99.99,,,,,98.4,*6F
[2021-01-29 10:48:18.477] $GNGGA,14805.5,,,,,0,0,99.99,,,,,98.5,*6F
[2021-01-29 10:48:18.477] $GNGGA,14805.6,,,,,0,0,99.99,,,,,98.6,*6F
[2021-01-29 10:48:18.477] $GNGGA,14805.7,,,,,0,0,99.99,,,,,98.7,*6F
[2021-01-29 10:48:18.477] $GNGGA,14805.8,,,,,0,0,99.99,,,,,98.8,*6F
[2021-01-29 10:48:18.477] $GNGGA,14805.9,,,,,0,0,99.99,,,,,98.9,*6F
[2021-01-29 10:48:18.477] $GNGGA,14806,,,,,0,0,99.99,,,,,99,*6D
[2021-01-29 10:48:18.477] $GNGGA,14806.1,,,,,0,0,99.99,,,,,99.1,*6D
[2021-01-29 10:48:18.477] $GNGGA,14806.2,,,,,0,0,99.99,,,,,99.2,*6D
[2021-01-29 10:48:18.477] $GNGGA,14806.3,,,,,0,0,99.99,,,,,99.3,*6D
[2021-01-29 10:48:18.477] $GNGGA,14806.4,,,,,0,0,99.99,,,,,99.4,*6D
[2021-01-29 10:48:18.508] $GNGGA,14806.5,,,,,0,0,99.99,,,,,99.5,*6D
[2021-01-29 10:48:18.508] $GNGGA,14806.6,,,,,0,0,99.99,,,,,99.6,*6D
[2021-01-29 10:48:18.508] $GNGGA,14806.7,,,,,0,0,99.99,,,,,99.7,*6D
[2021-01-29 10:48:18.508] $GNGGA,14806.8,,,,,0,0,99.99,,,,,99.8,*6D
[2021-01-29 10:48:18.508] $GNGGA,14806.9,,,,,0,0,99.99,,,,,99.9,*6D
[2021-01-29 10:48:18.508] $GNGGA,14807,,,,,0,0,99.99,,,,,100,*5D
[2021-01-29 10:48:18.508] $GNGGA,14807.1,,,,,0,0,99.99,,,,,100.1,*5D
[2021-01-29 10:48:18.508] $GNGGA,14807.2,,,,,0,0,99.99,,,,,100.2,*5D
[2021-01-29 10:48:18.508] $GNGGA,14807.3,,,,,0,0,99.99,,,,,100.3,*5D
[2021-01-29 10:48:18.508] $GNGGA,14807.4,,,,,0,0,99.99,,,,,100.4,*5D
[2021-01-29 10:48:18.508] $GNGGA,14807.5,,,,,0,0,99.99,,,,,100.5,*5D
[2021-01-29 10:48:18.508] $GNGGA,14807.6,,,,,0,0,99.99,,,,,100.6,*5D
[2021-01-29 10:48:18.508] $GNGGA,14807.7,,,,,0,0,99.99,,,,,100.7,*5D
[2021-01-29 10:48:18.508] $GNGGA,14807.8,,,,,0,0,99.99,,,,,100.8,*5D
[2021-01-29 10:48:18.508] $GNGGA,14807.9,,,,,0,0,99.99,,,,,100.9,*5D
[2021-01-29 10:48:18.508] $GNGGA,14808,,,,,0,0,99.99,,,,,101,*53
[2021-01-29 10:48:18.508] $GNGGA,14808.1,,,,,0,0,99.99,,,,,101.1,*53
[2021-01-29 10:48:18.508] $GNGGA,14808.2,,,,,0,0,99.99,,,,,101.2,*53
[2021-01-29 10:48:18.508] $GNGGA,14808.3,,,,,0,0,99.99,,,,,101.3,*53
[2021-01-29 10:48:18.508] $GNGGA,14808.4,,,,,0,0,99.99,,,,,101.4,*53
[2021-01-29 10:48:18.508] $GNGGA,14808.5,,,,,0,0,99.99,,,,,101.5,*53
[2021-01-29 10:48:18.508] $GNGGA,14808.6,,,,,0,0,99.99,,,,,101.6,*53
[2021-01-29 10:48:18.508] $GNGGA,14816.9,,,,,0,0,99.99,,,,,109.9,*54
[2021-01-29 10:48:18.570] $GNGGA,14817,,,,,0,0,99.99,,,,,110,*5D
[2021-01-29 10:48:18.664] $GNGGA,14817.1,,,,,0,0,99.99,,,,,110.1,*5D
[2021-01-29 10:48:18.758] $GNGGA,14817.2,,,,,0,0,99.99,,,,,110.2,*5D
[2021-01-29 10:48:18.867] $GNGGA,14817.3,,,,,0,0,99.99,,,,,110.3,*5D
[2021-01-29 10:48:18.961] $GNGGA,14817.4,,,,,0,0,99.99,,,,,110.4,*5D
[2021-01-29 10:48:19.055] $GNGGA,14817.5,,,,,0,0,99.99,,,,,110.5,*5D
[2021-01-29 10:48:19.164] $GNGGA,14817.6,,,,,0,0,99.99,,,,,110.6,*5D
[2021-01-29 10:48:19.266] $GNGGA,14817.7,,,,,0,0,99.99,,,,,110.7,*5D
[2021-01-29 10:48:19.369] $GNGGA,14817.8,,,,,0,0,99.99,,,,,110.8,*5D
[2021-01-29 10:48:19.463] $GNGGA,14817.9,,,,,0,0,99.99,,,,,110.9,*5D
[2021-01-29 10:48:19.572] $GNGGA,14818,,,,,0,0,99.99,,,,,111,*53
[2021-01-29 10:48:19.666] $GNGGA,14818.1,,,,,0,0,99.99,,,,,111.1,*53
[2021-01-29 10:48:19.759] $GNGGA,14818.2,,,,,0,0,99.99,,,,,111.2,*53
[2021-01-29 10:48:19.869] $GNGGA,14818.3,,,,,0,0,99.99,,,,,111.3,*53
[2021-01-29 10:48:19.963] $GNGGA,14818.4,,,,,0,0,99.99,,,,,111.4,*53
[2021-01-29 10:48:20.072] $GNGGA,14818.5,,,,,0,0,99.99,,,,,111.5,*53
[2021-01-29 10:48:20.166] $GNGGA,14818.6,,,,,0,0,99.99,,,,,111.6,*53
[2021-01-29 10:48:20.268] $GNGGA,14818.7,,,,,0,0,99.99,,,,,111.7,*53
[2021-01-29 10:48:20.371] $GNGGA,14818.8,,,,,0,0,99.99,,,,,111.8,*53
[2021-01-29 10:48:20.464] $GNGGA,14818.9,,,,,0,0,99.99,,,,,111.9,*53
[2021-01-29 10:48:20.558] $GNGGA,14819,,,,,0,0,99.99,,,,,112,*51
[2021-01-29 10:48:20.668] $GNGGA,14819.1,,,,,0,0,99.99,,,,,112.1,*51
[2021-01-29 10:48:20.761] $GNGGA,14819.2,,,,,0,0,99.99,,,,,112.2,*51
[2021-01-29 10:48:20.871] $GNGGA,14819.3,,,,,0,0,99.99,,,,,112.3,*51
[2021-01-29 10:48:20.964] $GNGGA,14819.4,,,,,0,0,99.99,,,,,112.4,*51
[2021-01-29 10:48:21.089] $GNGGA,14819.5,,,,,0,0,99.99,,,,,112.5,*51
[2021-01-29 10:48:21.167] $GNGGA,14819.6,,,,,0,0,99.99,,,,,112.6,*51
[2021-01-29 10:48:21.264] $GNGGA,14819.7,,,,,0,0,99.99,,,,,112.7,*51
[2021-01-29 10:48:21.358] $GNGGA,14819.8,,,,,0,0,99.99,,,,,112.8,*51
[2021-01-29 10:48:21.467] $GNGGA,14819.9,,,,,0,0,99.99,,,,,112.9,*51
[2021-01-29 10:48:21.561] $GNGGA,14820,,,,,0,0,99.99,,,,,113,*5A
[2021-01-29 10:48:21.670] $GNGGA,14820.1,,,,,0,0,99.99,,,,,113.1,*5A
[2021-01-29 10:48:21.764] $GNGGA,14820.2,,,,,0,0,99.99,,,,,113.2,*5A
[2021-01-29 10:48:21.858] $GNGGA,14820.3,,,,,0,0,99.99,,,,,113.3,*5A
[2021-01-29 10:48:21.967] $GNGGA,14820.4,,,,,0,0,99.99,,,,,113.4,*5A
[2021-01-29 10:48:22.061] $GNGGA,14820.5,,,,,0,0,99.99,,,,,113.5,*5A
[2021-01-29 10:48:22.170] $GNGGA,14820.6,,,,,0,0,99.99,,,,,113.6,*5A
[2021-01-29 10:48:22.263] $GNGGA,14820.7,,,,,0,0,99.99,,,,,113.7,*5A
[2021-01-29 10:48:22.357] $GNGGA,14820.8,,,,,0,0,99.99,,,,,113.8,*5A
[2021-01-29 10:48:22.466] $GNGGA,14820.9,,,,,0,0,99.99,,,,,113.9,*5A
[2021-01-29 10:48:22.560] $GNGGA,14821,,,,,0,0,99.99,,,,,114,*5C
[2021-01-29 10:48:22.669] $GNGGA,14821.1,,,,,0,0,99.99,,,,,114.1,*5C
[2021-01-29 10:48:22.778] $GNGGA,14821.2,,,,,0,0,99.99,,,,,114.2,*5C
[2021-01-29 10:48:22.919] $GNGGA,14821.3,,,,,0,0,99.99,,,,,114.3,*5C
[2021-01-29 10:48:22.966] $GNGGA,14821.4,,,,,0,0,99.99,,,,,114.4,*5C
[2021-01-29 10:48:23.060] $GNGGA,14821.5,,,,,0,0,99.99,,,,,114.5,*5C
[2021-01-29 10:48:23.169] $GNGGA,14821.6,,,,,0,0,99.99,,,,,114.6,*5C
[2021-01-29 10:48:23.263] $GNGGA,14821.7,,,,,0,0,99.99,,,,,114.7,*5C
[2021-01-29 10:48:23.356] $GNGGA,14821.8,,,,,0,0,99.99,,,,,114.8,*5C
[2021-01-29 10:48:23.466] $GNGGA,14821.9,,,,,0,0,99.99,,,,,114.9,*5C
[2021-01-29 10:48:23.564] $GNGGA,14822,,,,,0,0,99.99,,,,,115,*5E
[2021-01-29 10:48:23.658] $GNGGA,14822.1,,,,,0,0,99.99,,,,,115.1,*5E
[2021-01-29 10:48:23.767] $GNGGA,14822.2,,,,,0,0,99.99,,,,,115.2,*5E
[2021-01-29 10:48:23.861] $GNGGA,14822.3,,,,,0,0,99.99,,,,,115.3,*5E
[2021-01-29 10:48:23.971] $GNGGA,14822.4,,,,,0,0,99.99,,,,,115.4,*5E
[2021-01-29 10:48:24.064] $GNGGA,14822.5,,,,,0,0,99.99,,,,,115.5,*5E
[2021-01-29 10:48:24.158] $GNGGA,14822.6,,,,,0,0,99.99,,,,,115.6,*5E
[2021-01-29 10:48:24.267] $GNGGA,14822.7,,,,,0,0,99.99,,,,,115.7,*5E
[2021-01-29 10:48:24.361] $GNGGA,14822.8,,,,,0,0,99.99,,,,,115.8,*5E
[2021-01-29 10:48:24.455] $GNGGA,14822.9,,,,,0,0,99.99,,,,,115.9,*5E
[2021-01-29 10:48:24.564] $GNGGA,14823,,,,,0,0,99.99,,,,,116,*5C
[2021-01-29 10:48:24.658] $GNGGA,14823.1,,,,,0,0,99.99,,,,,116.1,*5C
[2021-01-29 10:48:24.767] $GNGGA,14823.2,,,,,0,0,99.99,,,,,116.2,*5C
[2021-01-29 10:48:24.861] $GNGGA,14823.3,,,,,0,0,99.99,,,,,116.3,*5C
[2021-01-29 10:48:24.970] $GNGGA,14823.4,,,,,0,0,99.99,,,,,116.4,*5C
[2021-01-29 10:48:25.064] $GNGGA,14823.5,,,,,0,0,99.99,,,,,116.5,*5C
[2021-01-29 10:48:25.158] $GNGGA,14823.6,,,,,0,0,99.99,,,,,116.6,*5C
[2021-01-29 10:48:25.268] $GNGGA,14823.7,,,,,0,0,99.99,,,,,116.7,*5C
[2021-01-29 10:48:25.362] $GNGGA,14823.8,,,,,0,0,99.99,,,,,116.8,*5C
[2021-01-29 10:48:25.456] $GNGGA,14823.9,,,,,0,0,99.99,,,,,116.9,*5C
[2021-01-29 10:48:25.565] $GNGGA,14824,,,,,0,0,99.99,,,,,117,*5A
[2021-01-29 10:48:25.659] $GNGGA,14824.1,,,,,0,0,99.99,,,,,117.1,*5A
[2021-01-29 10:48:25.768] $GNGGA,14824.2,,,,,0,0,99.99,,,,,117.2,*5A
[2021-01-29 10:48:25.862] $GNGGA,14824.3,,,,,0,0,99.99,,,,,117.3,*5A
[2021-01-29 10:48:25.971] $GNGGA,14824.4,,,,,0,0,99.99,,,,,117.4,*5A
[2021-01-29 10:48:26.065] $GNGGA,14824.5,,,,,0,0,99.99,,,,,117.5,*5A
[2021-01-29 10:48:26.159] $GNGGA,14824.6,,,,,0,0,99.99,,,,,117.6,*5A
[2021-01-29 10:48:26.271] $GNGGA,14824.7,,,,,0,0,99.99,,,,,117.7,*5A
[2021-01-29 10:48:26.365] $GNGGA,14824.8,,,,,0,0,99.99,,,,,117.8,*5A
[2021-01-29 10:48:26.459] $GNGGA,14824.9,,,,,0,0,99.99,,,,,117.9,*5A
[2021-01-29 10:48:26.568] $GNGGA,14825,,,,,0,0,99.99,,,,,118,*54
[2021-01-29 10:48:26.662] $GNGGA,14825.1,,,,,0,0,99.99,,,,,118.1,*54
[2021-01-29 10:48:26.771] $GNGGA,14825.2,,,,,0,0,99.99,,,,,118.2,*54
[2021-01-29 10:48:26.865] $GNGGA,14825.3,,,,,0,0,99.99,,,,,118.3,*54
[2021-01-29 10:48:26.959] $GNGGA,14825.4,,,,,0,0,99.99,,,,,118.4,*54
[2021-01-29 10:48:27.068] $GNGGA,14825.5,,,,,0,0,99.99,,,,,118.5,*54
[2021-01-29 10:48:27.162] $GNGGA,14825.6,,,,,0,0,99.99,,,,,118.6,*54
[2021-01-29 10:48:27.272] $GNGGA,14825.7,,,,,0,0,99.99,,,,,118.7,*54
[2021-01-29 10:48:27.365] $GNGGA,14825.8,,,,,0,0,99.99,,,,,118.8,*54
[2021-01-29 10:48:27.459] $GNGGA,14825.9,,,,,0,0,99.99,,,,,118.9,*54
[2021-01-29 10:48:27.568] $GNGGA,14826,,,,,0,0,99.99,,,,,119,*56
[2021-01-29 10:48:27.662] $GNGGA,14826.1,,,,,0,0,99.99,,,,,119.1,*56
[2021-01-29 10:48:27.772] $GNGGA,14826.2,,,,,0,0,99.99,,,,,119.2,*56
[2021-01-29 10:48:27.865] $GNGGA,14826.3,,,,,0,0,99.99,,,,,119.3,*56
[2021-01-29 10:48:27.959] $GNGGA,14826.4,,,,,0,0,99.99,,,,,119.4,*56
[2021-01-29 10:48:28.068] $GNGGA,14826.5,,,,,0,0,99.99,,,,,119.5,*56
[2021-01-29 10:48:28.162] $GNGGA,14826.6,,,,,0,0,99.99,,,,,119.6,*56
[2021-01-29 10:48:28.266] $GNGGA,14826.7,,,,,0,0,99.99,,,,,119.7,*56
[2021-01-29 10:48:28.367] $GNGGA,14826.8,,,,,0,0,99.99,,,,,119.8,*56
[2021-01-29 10:48:28.460] $GNGGA,14826.9,,,,,0,0,99.99,,,,,119.9,*56
[2021-01-29 10:48:28.570] $GNGGA,14827,,,,,0,0,99.99,,,,,120,*5D
[2021-01-29 10:48:28.664] $GNGGA,14827.1,,,,,0,0,99.99,,,,,120.1,*5D
[2021-01-29 10:48:28.757] $GNGGA,14827.2,,,,,0,0,99.99,,,,,120.2,*5D
[2021-01-29 10:48:28.867] $GNGGA,14827.3,,,,,0,0,99.99,,,,,120.3,*5D
[2021-01-29 10:48:28.960] $GNGGA,14827.4,,,,,0,0,99.99,,,,,120.4,*5D
[2021-01-29 10:48:29.070] $GNGGA,14827.5,,,,,0,0,99.99,,,,,120.5,*5D
[2021-01-29 10:48:29.163] $GNGGA,14827.6,,,,,0,0,99.99,,,,,120.6,*5D
[2021-01-29 10:48:29.267] $GNGGA,14827.7,,,,,0,0,99.99,,,,,120.7,*5D
[2021-01-29 10:48:29.368] $GNGGA,14827.8,,,,,0,0,99.99,,,,,120.8,*5D
[2021-01-29 10:48:29.462] $GNGGA,14827.9,,,,,0,0,99.99,,,,,120.9,*5D
[2021-01-29 10:48:29.571] $GNGGA,14828,,,,,0,0,99.99,,,,,121,*53
[2021-01-29 10:48:29.665] $GNGGA,14828.1,,,,,0,0,99.99,,,,,121.1,*53
[2021-01-29 10:48:29.759] $GNGGA,14828.2,,,,,0,0,99.99,,,,,121.2,*53
[2021-01-29 10:48:29.868] $GNGGA,14828.3,,,,,0,0,99.99,,,,,121.3,*53
[2021-01-29 10:48:29.962] $GNGGA,14828.4,,,,,0,0,99.99,,,,,121.4,*53
[2021-01-29 10:48:30.071] $GNGGA,14828.5,,,,,0,0,99.99,,,,,121.5,*53
[2021-01-29 10:48:30.165] $GNGGA,14828.6,,,,,0,0,99.99,,,,,121.6,*53
[2021-01-29 10:48:30.267] $GNGGA,14828.7,,,,,0,0,99.99,,,,,121.7,*53
[2021-01-29 10:48:30.370] $GNGGA,14828.8,,,,,0,0,99.99,,,,,121.8,*53
[2021-01-29 10:48:30.464] $GNGGA,14828.9,,,,,0,0,99.99,,,,,121.9,*53
[2021-01-29 10:48:30.557] $GNGGA,14829,,,,,0,0,99.99,,,,,122,*51
[2021-01-29 10:48:30.667] $GNGGA,14829.1,,,,,0,0,99.99,,,,,122.1,*51
[2021-01-29 10:48:30.761] $GNGGA,14829.2,,,,,0,0,99.99,,,,,122.2,*51
[2021-01-29 10:48:30.870] $GNGGA,14829.3,,,,,0,0,99.99,,,,,122.3,*51
[2021-01-29 10:48:30.964] $GNGGA,14829.4,,,,,0,0,99.99,,,,,122.4,*51
[2021-01-29 10:48:31.057] $GNGGA,14829.5,,,,,0,0,99.99,,,,,122.5,*51
[2021-01-29 10:48:31.167] $GNGGA,14829.6,,,,,0,0,99.99,,,,,122.6,*51
[2021-01-29 10:48:31.270] $GNGGA,14829.7,,,,,0,0,99.99,,,,,122.7,*51
[2021-01-29 10:48:31.356] $GNGGA,14829.8,,,,,0,0,99.99,,,,,122.8,*51
[2021-01-29 10:48:31.465] $GNGGA,14829.9,,,,,0,0,99.99,,,,,122.9,*51
[2021-01-29 10:48:31.559] $GNGGA,14830,,,,,0,0,99.99,,,,,123,*58
[2021-01-29 10:48:31.668] $GNGGA,14830.1,,,,,0,0,99.99,,,,,123.1,*58
[2021-01-29 10:48:31.762] $GNGGA,14830.2,,,,,0,0,99.99,,,,,123.2,*58
[2021-01-29 10:48:31.871] $GNGGA,14830.3,,,,,0,0,99.99,,,,,123.3,*58
[2021-01-29 10:48:31.965] $GNGGA,14830.4,,,,,0,0,99.99,,,,,123.4,*58
[2021-01-29 10:48:32.059] $GNGGA,14830.5,,,,,0,0,99.99,,,,,123.5,*58
[2021-01-29 10:48:32.168] $GNGGA,14830.6,,,,,0,0,99.99,,,,,123.6,*58
[2021-01-29 10:48:32.262] $GNGGA,14830.7,,,,,0,0,99.99,,,,,123.7,*58
[2021-01-29 10:48:32.356] $GNGGA,14830.8,,,,,0,0,99.99,,,,,123.8,*58
[2021-01-29 10:48:32.465] $GNGGA,14830.9,,,,,0,0,99.99,,,,,123.9,*58
[2021-01-29 10:48:32.559] $GNGGA,14831,,,,,0,0,99.99,,,,,124,*5E
[2021-01-29 10:48:32.668] $GNGGA,14831.1,,,,,0,0,99.99,,,,,124.1,*5E
[2021-01-29 10:48:32.762] $GNGGA,14831.2,,,,,0,0,99.99,,,,,124.2,*5E
[2021-01-29 10:48:32.856] $GNGGA,14831.3,,,,,0,0,99.99,,,,,124.3,*5E
[2021-01-29 10:48:32.965] $GNGGA,14831.4,,,,,0,0,99.99,,,,,124.4,*5E
[2021-01-29 10:48:33.059] $GNGGA,14831.5,,,,,0,0,99.99,,,,,124.5,*5E
[2021-01-29 10:48:33.168] $GNGGA,14831.6,,,,,0,0,99.99,,,,,124.6,*5E
[2021-01-29 10:48:33.264] $GNGGA,14831.7,,,,,0,0,99.99,,,,,124.7,*5E
[2021-01-29 10:48:33.358] $GNGGA,14831.8,,,,,0,0,99.99,,,,,124.8,*5E
[2021-01-29 10:48:33.467] $GNGGA,14831.9,,,,,0,0,99.99,,,,,124.9,*5E
[2021-01-29 10:48:33.561] $GNGGA,14832,,,,,0,0,99.99,,,,,125,*5C
[2021-01-29 10:48:33.670] $GNGGA,14832.1,,,,,0,0,99.99,,,,,125.1,*5C
[2021-01-29 10:48:33.764] $GNGGA,14832.2,,,,,0,0,99.99,,,,,125.2,*5C
[2021-01-29 10:48:33.858] $GNGGA,14832.3,,,,,0,0,99.99,,,,,125.3,*5C
[2021-01-29 10:48:33.967] $GNGGA,14832.4,,,,,0,0,99.99,,,,,125.4,*5C
[2021-01-29 10:48:34.061] $GNGGA,14832.5,,,,,0,0,99.99,,,,,125.5,*5C
[2021-01-29 10:48:34.170] $GNGGA,14832.6,,,,,0,0,99.99,,,,,125.6,*5C
[2021-01-29 10:48:34.266] $GNGGA,14832.7,,,,,0,0,99.99,,,,,125.7,*5C
[2021-01-29 10:48:34.360] $GNGGA,14832.8,,,,,0,0,99.99,,,,,125.8,*5C
[2021-01-29 10:48:34.469] $GNGGA,14832.9,,,,,0,0,99.99,,,,,125.9,*5C
[2021-01-29 10:48:34.563] $GNGGA,14833,,,,,0,0,99.99,,,,,126,*5E
[2021-01-29 10:48:34.656] $GNGGA,14833.1,,,,,0,0,99.99,,,,,126.1,*5E
[2021-01-29 10:48:34.766] $GNGGA,14833.2,,,,,0,0,99.99,,,,,126.2,*5E
[2021-01-29 10:48:34.860] $GNGGA,14833.3,,,,,0,0,99.99,,,,,126.3,*5E
[2021-01-29 10:48:34.969] $GNGGA,14833.4,,,,,0,0,99.99,,,,,126.4,*5E
[2021-01-29 10:48:35.063] $GNGGA,14833.5,,,,,0,0,99.99,,,,,126.5,*5E
[2021-01-29 10:48:35.156] $GNGGA,14833.6,,,,,0,0,99.99,,,,,126.6,*5E
[2021-01-29 10:48:35.267] $GNGGA,14833.7,,,,,0,0,99.99,,,,,126.7,*5E
[2021-01-29 10:48:35.361] $GNGGA,14833.8,,,,,0,0,99.99,,,,,126.8,*5E
[2021-01-29 10:48:35.470] $GNGGA,14833.9,,,,,0,0,99.99,,,,,126.9,*5E
[2021-01-29 10:48:35.564] $GNGGA,14834,,,,,0,0,99.99,,,,,127,*58
[2021-01-29 10:48:35.658] $GNGGA,14834.1,,,,,0,0,99.99,,,,,127.1,*58
[2021-01-29 10:48:35.767] $GNGGA,14834.2,,,,,0,0,99.99,,,,,127.2,*58
[2021-01-29 10:48:35.861] $GNGGA,14834.3,,,,,0,0,99.99,,,,,127.3,*58
[2021-01-29 10:48:35.970] $GNGGA,14834.4,,,,,0,0,99.99,,,,,127.4,*58
[2021-01-29 10:48:36.064] $GNGGA,14834.5,,,,,0,0,99.99,,,,,127.5,*58
[2021-01-29 10:48:36.158] $GNGGA,14834.6,,,,,0,0,99.99,,,,,127.6,*58
[2021-01-29 10:48:36.269] $GNGGA,14834.7,,,,,0,0,99.99,,,,,127.7,*58
[2021-01-29 10:48:36.363] $GNGGA,14834.8,,,,,0,0,99.99,,,,,127.8,*58
[2021-01-29 10:48:36.457] $GNGGA,14834.9,,,,,0,0,99.99,,,,,127.9,*58
[2021-01-29 10:48:36.566] $GNGGA,14835,,,,,0,0,99.99,,,,,128,*56
[2021-01-29 10:48:36.660] $GNGGA,14835.1,,,,,0,0,99.99,,,,,128.1,*56
[2021-01-29 10:48:36.769] $GNGGA,14835.2,,,,,0,0,99.99,,,,,128.2,*56
[2021-01-29 10:48:36.863] $GNGGA,14835.3,,,,,0,0,99.99,,,,,128.3,*56
[2021-01-29 10:48:36.957] $GNGGA,14835.4,,,,,0,0,99.99,,,,,128.4,*56
[2021-01-29 10:48:37.066] $GNGGA,14835.5,,,,,0,0,99.99,,,,,128.5,*56
[2021-01-29 10:48:37.160] $GNGGA,14835.6,,,,,0,0,99.99,,,,,128.6,*56
[2021-01-29 10:48:37.271] $GNGGA,14835.7,,,,,0,0,99.99,,,,,128.7,*56
[2021-01-29 10:48:37.364] $GNGGA,14835.8,,,,,0,0,99.99,,,,,128.8,*56
[2021-01-29 10:48:37.458] $GNGGA,14835.9,,,,,0,0,99.99,,,,,128.9,*56
[2021-01-29 10:48:37.567] $GNGGA,14836,,,,,0,0,99.99,,,,,129,*54
[2021-01-29 10:48:37.661] $GNGGA,14836.1,,,,,0,0,99.99,,,,,129.1,*54
[2021-01-29 10:48:37.771] $GNGGA,14836.2,,,,,0,0,99.99,,,,,129.2,*54
[2021-01-29 10:48:37.864] $GNGGA,14836.3,,,,,0,0,99.99,,,,,129.3,*54
[2021-01-29 10:48:37.958] $GNGGA,14836.4,,,,,0,0,99.99,,,,,129.4,*54
[2021-01-29 10:48:38.067] $GNGGA,14836.5,,,,,0,0,99.99,,,,,129.5,*54
[2021-01-29 10:48:38.161] $GNGGA,14836.6,,,,,0,0,99.99,,,,,129.6,*54
[2021-01-29 10:48:38.274] $GNGGA,14836.7,,,,,0,0,99.99,,,,,129.7,*54
[2021-01-29 10:48:38.367] $GNGGA,14836.8,,,,,0,0,99.99,,,,,129.8,*54
[2021-01-29 10:48:38.461] $GNGGA,14836.9,,,,,0,0,99.99,,,,,129.9,*54
[2021-01-29 10:48:38.570] $GNGGA,14837,,,,,0,0,99.99,,,,,130,*5D
[2021-01-29 10:48:38.664] $GNGGA,14837.1,,,,,0,0,99.99,,,,,130.1,*5D
[2021-01-29 10:48:38.758] $GNGGA,14837.2,,,,,0,0,99.99,,,,,130.2,*5D
[2021-01-29 10:48:38.867] $GNGGA,14837.3,,,,,0,0,99.99,,,,,130.3,*5D
[2021-01-29 10:48:38.961] $GNGGA,14837.4,,,,,0,0,99.99,,,,,130.4,*5D
[2021-01-29 10:48:39.070] $GNGGA,14837.5,,,,,0,0,99.99,,,,,130.5,*5D
[2021-01-29 10:48:39.164] $GNGGA,14837.6,,,,,0,0,99.99,,,,,130.6,*5D
[2021-01-29 10:48:39.265] $GNGGA,14837.7,,,,,0,0,99.99,,,,,130.7,*5D
[2021-01-29 10:48:39.368] $GNGGA,14837.8,,,,,0,0,99.99,,,,,130.8,*5D
[2021-01-29 10:48:39.462] $GNGGA,14837.9,,,,,0,0,99.99,,,,,130.9,*5D
[2021-01-29 10:48:39.571] $GNGGA,14838,,,,,0,0,99.99,,,,,131,*53
[2021-01-29 10:48:39.665] $GNGGA,14838.1,,,,,0,0,99.99,,,,,131.1,*53
[2021-01-29 10:48:39.758] $GNGGA,14838.2,,,,,0,0,99.99,,,,,131.2,*53
[2021-01-29 10:48:39.868] $GNGGA,14838.3,,,,,0,0,99.99,,,,,131.3,*53
[2021-01-29 10:48:39.962] $GNGGA,14838.4,,,,,0,0,99.99,,,,,131.4,*53
[2021-01-29 10:48:40.071] $GNGGA,14838.5,,,,,0,0,99.99,,,,,131.5,*53
[2021-01-29 10:48:40.165] $GNGGA,14838.6,,,,,0,0,99.99,,,,,131.6,*53
[2021-01-29 10:48:40.268] $GNGGA,14838.7,,,,,0,0,99.99,,,,,131.7,*53
[2021-01-29 10:48:40.369] $GNGGA,14838.8,,,,,0,0,99.99,,,,,131.8,*53
[2021-01-29 10:48:40.463] $GNGGA,14838.9,,,,,0,0,99.99,,,,,131.9,*53
[2021-01-29 10:48:40.572] $GNGGA,14839,,,,,0,0,99.99,,,,,132,*51
[2021-01-29 10:48:40.666] $GNGGA,14839.1,,,,,0,0,99.99,,,,,132.1,*51
[2021-01-29 10:48:40.760] $GNGGA,14839.2,,,,,0,0,99.99,,,,,132.2,*51
[2021-01-29 10:48:40.869] $GNGGA,14839.3,,,,,0,0,99.99,,,,,132.3,*51
[2021-01-29 10:48:40.963] $GNGGA,14839.4,,,,,0,0,99.99,,,,,132.4,*51
[2021-01-29 10:48:41.072] $GNGGA,14839.5,,,,,0,0,99.99,,,,,132.5,*51
[2021-01-29 10:48:41.166] $GNGGA,14839.6,,,,,0,0,99.99,,,,,132.6,*51
[2021-01-29 10:48:41.268] $GNGGA,14839.7,,,,,0,0,99.99,,,,,132.7,*51
[2021-01-29 10:48:41.372] $GNGGA,14839.8,,,,,0,0,99.99,,,,,132.8,*51
[2021-01-29 10:48:41.465] $GNGGA,14839.9,,,,,0,0,99.99,,,,,132.9,*51
[2021-01-29 10:48:41.559] $GNGGA,14840,,,,,0,0,99.99,,,,,133,*5E
[2021-01-29 10:48:41.668] $GNGGA,14840.1,,,,,0,0,99.99,,,,,133.1,*5E
[2021-01-29 10:48:41.762] $GNGGA,14840.2,,,,,0,0,99.99,,,,,133.2,*5E
[2021-01-29 10:48:41.872] $GNGGA,14840.3,,,,,0,0,99.99,,,,,133.3,*5E
[2021-01-29 10:48:41.965] $GNGGA,14840.4,,,,,0,0,99.99,,,,,133.4,*5E
[2021-01-29 10:48:42.059] $GNGGA,14840.5,,,,,0,0,99.99,,,,,133.5,*5E
[2021-01-29 10:48:42.168] $GNGGA,14840.6,,,,,0,0,99.99,,,,,133.6,*5E
[2021-01-29 10:48:42.262] $GNGGA,14840.7,,,,,0,0,99.99,,,,,133.7,*5E
[2021-01-29 10:48:42.371] $GNGGA,14840.8,,,,,0,0,99.99,,,,,133.8,*5E
[2021-01-29 10:48:42.465] $GNGGA,14840.9,,,,,0,0,99.99,,,,,133.9,*5E
[2021-01-29 10:48:42.559] $GNGGA,14841,,,,,0,0,99.99,,,,,134,*58
[2021-01-29 10:48:42.668] $GNGGA,14841.1,,,,,0,0,99.99,,,,,134.1,*58
[2021-01-29 10:48:42.762] $GNGGA,14841.2,,,,,0,0,99.99,,,,,134.2,*58
[2021-01-29 10:48:42.871] $GNGGA,14841.3,,,,,0,0,99.99,,,,,134.3,*58
[2021-01-29 10:48:42.965] $GNGGA,14841.4,,,,,0,0,99.99,,,,,134.4,*58
[2021-01-29 10:48:43.059] $GNGGA,14841.5,,,,,0,0,99.99,,,,,134.5,*58
[2021-01-29 10:48:43.168] $GNGGA,14841.6,,,,,0,0,99.99,,,,,134.6,*58
[2021-01-29 10:48:43.263] $GNGGA,14841.7,,,,,0,0,99.99,,,,,134.7,*58
[2021-01-29 10:48:43.373] $GNGGA,14841.8,,,,,0,0,99.99,,,,,134.8,*58
[2021-01-29 10:48:43.466] $GNGGA,14841.9,,,,,0,0,99.99,,,,,134.9,*58
[2021-01-29 10:48:43.560] $GNGGA,14842,,,,,0,0,99.99,,,,,135,*5A
[2021-01-29 10:48:43.670] $GNGGA,14842.1,,,,,0,0,99.99,,,,,135.1,*5A
[2021-01-29 10:48:43.763] $GNGGA,14842.2,,,,,0,0,99.99,,,,,135.2,*5A
[2021-01-29 10:48:43.873] $GNGGA,14842.3,,,,,0,0,99.99,,,,,135.3,*5A
[2021-01-29 10:48:43.967] $GNGGA,14842.4,,,,,0,0,99.99,,,,,135.4,*5A
[2021-01-29 10:48:44.060] $GNGGA,14842.5,,,,,0,0,99.99,,,,,135.5,*5A
[2021-01-29 10:48:44.170] $GNGGA,14842.6,,,,,0,0,99.99,,,,,135.6,*5A
[2021-01-29 10:48:44.265] $GNGGA,14842.7,,,,,0,0,99.99,,,,,135.7,*5A
[2021-01-29 10:48:44.359] $GNGGA,14842.8,,,,,0,0,99.99,,,,,135.8,*5A
[2021-01-29 10:48:44.468] $GNGGA,14842.9,,,,,0,0,99.99,,,,,135.9,*5A
[2021-01-29 10:48:44.562] $GNGGA,14843,,,,,0,0,99.99,,,,,136,*58
[2021-01-29 10:48:44.671] $GNGGA,14843.1,,,,,0,0,99.99,,,,,136.1,*58
[2021-01-29 10:48:44.765] $GNGGA,14843.2,,,,,0,0,99.99,,,,,136.2,*58
[2021-01-29 10:48:44.859] $GNGGA,14843.3,,,,,0,0,99.99,,,,,136.3,*58
[2021-01-29 10:48:44.968] $GNGGA,14843.4,4327.758652,N,14148.3134,E,5,0,99.9,116.537,M,31.868,M,136.4,1010*5E
[2021-01-29 10:48:45.062] $GNGGA,14843.5,4327.758651,N,14148.31341,E,5,0,99.9,116.545,M,31.868,M,136.5,1010*59
[2021-01-29 10:48:45.171] $GNGGA,14843.6,4327.758533,N,14148.31343,E,5,0,99.9,115.878,M,31.868,M,136.6,1010*53
[2021-01-29 10:48:45.267] $GNGGA,14843.7,4327.758476,N,14148.31344,E,5,0,99.9,115.49,M,31.868,M,136.7,1010*5B
[2021-01-29 10:48:45.361] $GNGGA,14843.8,4327.758476,N,14148.31343,E,5,0,99.9,115.498,M,31.868,M,136.8,1010*57
[2021-01-29 10:48:45.470] $GNGGA,14843.9,4327.758477,N,14148.31343,E,5,0,99.9,115.49,M,31.868,M,136.9,1010*57
[2021-01-29 10:48:45.564] $GNGGA,14844,4327.758477,N,14148.31343,E,5,0,99.9,115.488,M,31.868,M,137,1010*50
[2021-01-29 10:48:45.658] $GNGGA,14844.1,4327.758479,N,14148.31343,E,5,0,99.9,115.491,M,31.868,M,137.1,1010*5C
[2021-01-29 10:48:45.767] $GNGGA,14844.2,4327.75848,N,14148.31343,E,5,0,99.9,115.485,M,31.868,M,137.2,1010*54
[2021-01-29 10:48:45.861] $GNGGA,14844.3,4327.75848,N,14148.31343,E,5,0,99.9,115.483,M,31.868,M,137.3,1010*5B
[2021-01-29 10:48:45.970] $GNGGA,14844.4,4327.758481,N,14148.31343,E,5,0,99.9,115.484,M,31.868,M,137.4,1010*50
[2021-01-29 10:48:46.064] $GNGGA,14844.5,4327.758481,N,14148.31343,E,5,0,99.9,115.479,M,31.868,M,137.5,1010*5E
[2021-01-29 10:48:46.157] $GNGGA,14844.6,4327.758482,N,14148.31343,E,5,0,99.9,115.477,M,31.868,M,137.6,1010*5B
[2021-01-29 10:48:46.268] $GNGGA,14844.7,4327.758483,N,14148.31342,E,5,0,99.9,115.484,M,31.868,M,137.7,1010*52
[2021-01-29 10:48:46.362] $GNGGA,14844.8,4327.758483,N,14148.31342,E,5,0,99.9,115.482,M,31.868,M,137.8,1010*50
[2021-01-29 10:48:46.471] $GNGGA,14844.9,4327.758482,N,14148.31342,E,5,0,99.9,115.484,M,31.868,M,137.9,1010*52
[2021-01-29 10:48:46.565] $GNGGA,14845,4327.758484,N,14148.31342,E,5,0,99.9,115.479,M,31.868,M,138,1010*53
[2021-01-29 10:48:46.659] $GNGGA,14845.1,4327.758484,N,14148.31343,E,5,0,99.9,115.476,M,31.868,M,138.1,1010*52
[2021-01-29 10:48:46.768] $GNGGA,14845.2,4327.758469,N,14148.3134,E,5,0,99.9,115.784,M,31.868,M,138.2,1010*57
[2021-01-29 10:48:46.862] $GNGGA,14845.3,4327.758365,N,14148.31368,E,5,0,99.9,116.406,M,31.868,M,138.3,1010*51
[2021-01-29 10:48:46.971] $GNGGA,14845.4,4327.758314,N,14148.3137,E,5,0,99.9,116.628,M,31.868,M,138.4,1010*5C
[2021-01-29 10:48:47.065] $GNGGA,14845.5,4327.758329,N,14148.31366,E,5,0,99.9,116.539,M,31.868,M,138.5,1010*58
[2021-01-29 10:48:47.159] $GNGGA,14845.6,4327.758335,N,14148.31364,E,5,0,99.9,116.501,M,31.868,M,138.6,1010*58
[2021-01-29 10:48:47.270] $GNGGA,14845.7,4327.758335,N,14148.31364,E,5,0,99.9,116.506,M,31.868,M,138.7,1010*51
[2021-01-29 10:48:47.364] $GNGGA,14845.8,4327.758334,N,14148.31365,E,5,0,99.9,116.509,M,31.868,M,138.8,1010*5E
[2021-01-29 10:48:47.458] $GNGGA,14845.9,4327.758335,N,14148.31365,E,5,0,99.9,116.502,M,31.868,M,138.9,1010*5B
[2021-01-29 10:48:47.567] $GNGGA,14846,4327.758335,N,14148.31365,E,5,0,99.9,116.503,M,31.868,M,139,1010*59
[2021-01-29 10:48:47.661] $GNGGA,14846.1,4327.758335,N,14148.31365,E,5,0,99.9,116.504,M,31.868,M,139.1,1010*59
[2021-01-29 10:48:47.770] $GNGGA,14846.2,4327.758336,N,14148.31364,E,5,0,99.9,116.501,M,31.868,M,139.2,1010*5A
[2021-01-29 10:48:47.864] $GNGGA,14846.3,4327.758336,N,14148.31364,E,5,0,99.9,116.506,M,31.868,M,139.3,1010*51
[2021-01-29 10:48:47.958] $GNGGA,14846.4,4327.758337,N,14148.31364,E,5,0,99.9,116.496,M,31.868,M,139.4,1010*5A
[2021-01-29 10:48:48.067] $GNGGA,14846.5,4327.758336,N,14148.31365,E,5,0,99.9,116.498,M,31.868,M,139.5,1010*5C
[2021-01-29 10:48:48.161] $GNGGA,14846.6,4327.758335,N,14148.31365,E,5,0,99.9,116.496,M,31.868,M,139.6,1010*59
[2021-01-29 10:48:48.272] $GNGGA,14846.7,4327.758335,N,14148.31365,E,5,0,99.9,116.499,M,31.868,M,139.7,1010*5C
[2021-01-29 10:48:48.366] $GNGGA,14846.8,4327.758336,N,14148.31364,E,5,0,99.9,116.494,M,31.868,M,139.8,1010*5C
[2021-01-29 10:48:48.460] $GNGGA,14846.9,4327.758313,N,14148.31353,E,5,0,99.9,117.236,M,31.868,M,139.9,1010*5A
[2021-01-29 10:48:48.569] $GNGGA,14847,4327.758307,N,14148.3135,E,5,0,99.9,117.374,M,31.868,M,140,1010*57
[2021-01-29 10:48:48.663] $GNGGA,14847.1,4327.75831,N,14148.31351,E,5,0,99.9,117.302,M,31.868,M,140.1,1010*5F
[2021-01-29 10:48:48.756] $GNGGA,14847.2,4327.75831,N,14148.31352,E,5,0,99.9,117.269,M,31.868,M,140.2,1010*52
[2021-01-29 10:48:48.866] $GNGGA,14847.3,4327.758545,N,14148.31385,E,5,2,99.9,116.881,M,31.868,M,140.3,1010*5C
[2021-01-29 10:48:48.960] $GNGGA,14847.4,4327.758572,N,14148.31379,E,5,3,99.9,116.89,M,31.868,M,140.4,1010*57
[2021-01-29 10:48:49.069] $GNGGA,14847.5,4327.758609,N,14148.31359,E,5,3,99.9,116.882,M,31.868,M,140.5,1010*52
[2021-01-29 10:48:49.163] $GNGGA,14847.6,4327.758624,N,14148.3136,E,5,3,99.9,116.828,M,31.868,M,140.6,1010*51
[2021-01-29 10:48:49.272] $GNGGA,14847.7,4327.758645,N,14148.31361,E,5,3,99.9,116.764,M,31.868,M,140.7,1010*5D
[2021-01-29 10:48:49.367] $GNGGA,14847.8,4327.75857,N,14148.31359,E,5,3,99.9,116.81,M,31.868,M,140.8,1010*54
[2021-01-29 10:48:49.461] $GNGGA,14847.9,4327.758537,N,14148.31371,E,5,3,99.9,116.826,M,31.868,M,140.9,1010*58
[2021-01-29 10:48:49.570] $GNGGA,14848,4327.758505,N,14148.31368,E,5,3,99.9,116.839,M,31.868,M,141,1010*5B
[2021-01-29 10:48:49.664] $GNGGA,14848.1,4327.758472,N,14148.31388,E,5,3,99.9,116.899,M,31.868,M,141.1,1010*59
[2021-01-29 10:48:49.757] $GNGGA,14848.2,4327.758478,N,14148.31401,E,5,3,99.9,116.906,M,31.868,M,141.2,1010*50
[2021-01-29 10:48:49.867] $GNGGA,14848.3,4327.758466,N,14148.314,E,5,3,99.9,116.915,M,31.868,M,141.3,1010*54
[2021-01-29 10:48:49.961] $GNGGA,14848.4,4327.758453,N,14148.31399,E,5,3,99.9,116.919,M,31.868,M,141.4,1010*58
[2021-01-29 10:48:50.070] $GNGGA,14848.5,4327.758477,N,14148.31398,E,5,3,99.9,116.885,M,31.868,M,141.5,1010*56
[2021-01-29 10:48:50.164] $GNGGA,14848.6,4327.758487,N,14148.31398,E,5,3,99.9,116.864,M,31.868,M,141.6,1010*59
[2021-01-29 10:48:50.266] $GNGGA,14848.7,4327.758463,N,14148.31385,E,5,3,99.9,116.845,M,31.868,M,141.7,1010*51
[2021-01-29 10:48:50.369] $GNGGA,14848.8,4327.758476,N,14148.31385,E,5,3,99.9,116.816,M,31.868,M,141.8,1010*54
[2021-01-29 10:48:50.463] $GNGGA,14848.9,4327.758493,N,14148.31379,E,5,3,99.9,116.765,M,31.868,M,141.9,1010*5D
[2021-01-29 10:48:50.572] $GNGGA,14849,4327.75854,N,14148.31381,E,5,3,99.9,116.703,M,31.868,M,142,1010*54
[2021-01-29 10:48:50.666] $GNGGA,14849.1,4327.758568,N,14148.31383,E,5,3,99.9,116.656,M,31.868,M,142.1,1010*5A
[2021-01-29 10:48:50.759] $GNGGA,14849.2,4327.758596,N,14148.31384,E,5,3,99.9,116.617,M,31.868,M,142.2,1010*51
[2021-01-29 10:48:50.869] $GNGGA,14849.3,4327.758598,N,14148.31384,E,5,3,99.9,116.598,M,31.868,M,142.3,1010*52
[2021-01-29 10:48:50.963] $GNGGA,14849.4,4327.75861,N,14148.31385,E,5,3,99.9,116.577,M,31.868,M,142.4,1010*58
[2021-01-29 10:48:51.072] $GNGGA,14849.5,4327.758602,N,14148.31384,E,5,3,99.9,116.568,M,31.868,M,142.5,1010*59
[2021-01-29 10:48:51.166] $GNGGA,14849.6,4327.758607,N,14148.31385,E,5,3,99.9,116.547,M,31.868,M,142.6,1010*55
[2021-01-29 10:48:51.268] $GNGGA,14849.7,4327.758612,N,14148.31385,E,5,3,99.9,116.526,M,31.868,M,142.7,1010*52
[2021-01-29 10:48:51.370] $GNGGA,14849.8,4327.758617,N,14148.31385,E,5,3,99.9,116.497,M,31.868,M,142.8,1010*55
[2021-01-29 10:48:51.464] $GNGGA,14849.9,4327.758621,N,14148.31385,E,5,3,99.9,116.475,M,31.868,M,142.9,1010*55
[2021-01-29 10:48:51.558] $GNGGA,14850,4327.758609,N,14148.31382,E,5,3,99.9,116.465,M,31.868,M,143,1010*5F
[2021-01-29 10:48:51.667] $GNGGA,14850.1,4327.758601,N,14148.3138,E,5,3,99.9,116.457,M,31.868,M,143.1,1010*5A
[2021-01-29 10:48:51.761] $GNGGA,14850.2,4327.75859,N,14148.31376,E,5,3,99.9,116.439,M,31.868,M,143.2,1010*5F
[2021-01-29 10:48:51.870] $GNGGA,14850.3,4327.758574,N,14148.31369,E,5,3,99.9,116.403,M,31.868,M,143.3,1010*59
[2021-01-29 10:48:51.964] $GNGGA,14850.4,4327.758569,N,14148.31367,E,5,3,99.9,116.366,M,31.868,M,143.4,1010*56
[2021-01-29 10:48:52.058] $GNGGA,14850.5,4327.75856,N,14148.31363,E,5,3,99.9,116.349,M,31.868,M,143.5,1010*5F
[2021-01-29 10:48:52.167] $GNGGA,14850.6,4327.758547,N,14148.31359,E,5,3,99.9,116.346,M,31.868,M,143.6,1010*51
[2021-01-29 10:48:52.269] $GNGGA,14850.7,4327.758538,N,14148.31356,E,5,3,99.9,116.342,M,31.868,M,143.7,1010*56
[2021-01-29 10:48:52.372] $GNGGA,14850.8,4327.758527,N,14148.31353,E,5,6,1.66,116.342,M,31.868,M,143.8,1010*60
[2021-01-29 10:48:52.465] $GNGGA,14850.9,4327.758522,N,14148.3135,E,5,9,1.12,116.33,M,31.868,M,143.9,1010*69
[2021-01-29 10:48:52.559] $GNGGA,14851,4327.758513,N,14148.31347,E,5,9,1.12,116.335,M,31.868,M,144,1010*60
[2021-01-29 10:48:52.668] $GNGGA,14851.1,4327.758504,N,14148.31345,E,5,9,1.12,116.332,M,31.868,M,144.1,1010*64
[2021-01-29 10:48:52.762] $GNGGA,14851.2,4327.758497,N,14148.31343,E,5,9,1.12,116.328,M,31.868,M,144.2,1010*64
[2021-01-29 10:48:52.872] $GNGGA,14851.3,4327.758491,N,14148.31341,E,5,9,1.12,116.325,M,31.868,M,144.3,1010*6F
[2021-01-29 10:48:52.965] $GNGGA,14851.4,4327.75849,N,14148.31341,E,5,9,1.12,116.319,M,31.868,M,144.4,1010*64
[2021-01-29 10:48:53.059] $GNGGA,14851.5,4327.758484,N,14148.31341,E,5,9,1.12,116.325,M,31.868,M,144.5,1010*68
[2021-01-29 10:48:53.168] $GNGGA,14851.6,4327.758484,N,14148.31341,E,5,9,1.12,116.32,M,31.868,M,144.6,1010*63
[2021-01-29 10:48:53.263] $GNGGA,14851.7,4327.758478,N,14148.3134,E,5,9,1.12,116.322,M,31.868,M,144.7,1010*61
[2021-01-29 10:48:53.372] $GNGGA,14851.8,4327.758476,N,14148.3134,E,5,9,1.12,116.325,M,31.868,M,144.8,1010*66
[2021-01-29 10:48:53.466] $GNGGA,14851.9,4327.758472,N,14148.3134,E,5,9,1.12,116.331,M,31.868,M,144.9,1010*6C
[2021-01-29 10:48:53.560] $GNGGA,14852,4327.75847,N,14148.3134,E,5,9,1.12,116.326,M,31.868,M,145,1010*65
[2021-01-29 10:48:53.669] $GNGGA,14852.1,4327.758463,N,14148.3134,E,5,9,1.12,116.336,M,31.868,M,145.1,1010*6F
[2021-01-29 10:48:53.763] $GNGGA,14852.2,4327.758455,N,14148.31339,E,5,9,1.12,116.342,M,31.868,M,145.2,1010*67
[2021-01-29 10:48:53.872] $GNGGA,14852.3,4327.758452,N,14148.31339,E,5,9,1.12,116.34,M,31.868,M,145.3,1010*61
[2021-01-29 10:48:53.966] $GNGGA,14852.4,4327.758447,N,14148.31339,E,5,9,1.12,116.342,M,31.868,M,145.4,1010*61
[2021-01-29 10:48:54.060] $GNGGA,14852.5,4327.758451,N,14148.3134,E,5,9,1.12,116.297,M,31.868,M,145.5,1010*6C
[2021-01-29 10:48:54.169] $GNGGA,14852.6,4327.758451,N,14148.3134,E,5,9,1.12,116.295,M,31.868,M,145.6,1010*6E
[2021-01-29 10:48:54.264] $GNGGA,14852.7,4327.758456,N,14148.31341,E,5,9,1.12,116.261,M,31.868,M,145.7,1010*69
[2021-01-29 10:48:54.358] $GNGGA,14852.8,4327.758464,N,14148.31342,E,5,9,1.12,116.227,M,31.868,M,145.8,1010*69
[2021-01-29 10:48:54.467] $GNGGA,14852.9,4327.758468,N,14148.31343,E,5,9,1.12,116.206,M,31.868,M,145.9,1010*69
[2021-01-29 10:48:54.561] $GNGGA,14853,4327.758475,N,14148.31344,E,5,9,1.12,116.167,M,31.868,M,146,1010*63
[2021-01-29 10:48:54.671] $GNGGA,14853.1,4327.758482,N,14148.31346,E,5,9,1.12,116.132,M,31.868,M,146.1,1010*61
[2021-01-29 10:48:54.764] $GNGGA,14853.2,4327.75849,N,14148.31347,E,5,9,1.12,116.098,M,31.868,M,146.2,1010*61
[2021-01-29 10:48:54.858] $GNGGA,14853.3,4327.758491,N,14148.31348,E,5,9,1.12,116.084,M,31.868,M,146.3,1010*63
[2021-01-29 10:48:54.967] $GNGGA,14853.4,4327.758497,N,14148.31349,E,5,9,1.12,116.06,M,31.868,M,146.4,1010*6B
[2021-01-29 10:48:55.061] $GNGGA,14853.5,4327.758498,N,14148.31349,E,5,9,1.12,116.055,M,31.868,M,146.5,1010*62
[2021-01-29 10:48:55.170] $GNGGA,14853.6,4327.758503,N,14148.3135,E,5,9,1.12,116.032,M,31.868,M,146.6,1010*67
[2021-01-29 10:48:55.267] $GNGGA,14853.7,4327.758504,N,14148.3135,E,5,9,1.12,116.027,M,31.868,M,146.7,1010*6E
[2021-01-29 10:48:55.360] $GNGGA,14853.8,4327.758506,N,14148.31351,E,5,9,1.12,116.015,M,31.868,M,146.8,1010*6F
[2021-01-29 10:48:55.470] $GNGGA,14853.9,4327.758505,N,14148.31351,E,5,9,1.12,116.012,M,31.868,M,146.9,1010*65
[2021-01-29 10:48:55.563] $GNGGA,14854,4327.758508,N,14148.31351,E,5,9,1.12,116.004,M,31.868,M,147,1010*65
[2021-01-29 10:48:55.673] $GNGGA,14854.1,4327.758506,N,14148.31351,E,5,9,1.12,115.998,M,31.868,M,147.1,1010*60
[2021-01-29 10:48:55.767] $GNGGA,14854.2,4327.758508,N,14148.31352,E,5,9,1.12,115.993,M,31.868,M,147.2,1010*6A
[2021-01-29 10:48:55.860] $GNGGA,14854.3,4327.758507,N,14148.31352,E,5,9,1.12,115.985,M,31.868,M,147.3,1010*6C
[2021-01-29 10:48:55.970] $GNGGA,14854.4,4327.758509,N,14148.31352,E,5,9,1.12,115.983,M,31.868,M,147.4,1010*6B
[2021-01-29 10:48:56.063] $GNGGA,14854.5,4327.75851,N,14148.31352,E,5,9,1.12,115.981,M,31.868,M,147.5,1010*63
[2021-01-29 10:48:56.173] $GNGGA,14854.6,4327.758512,N,14148.31353,E,5,9,1.12,115.98,M,31.868,M,147.6,1010*64
[2021-01-29 10:48:56.268] $GNGGA,14854.7,4327.758515,N,14148.31353,E,5,9,1.12,115.978,M,31.868,M,147.7,1010*6F
[2021-01-29 10:48:56.361] $GNGGA,14854.8,4327.758517,N,14148.31353,E,5,9,1.12,115.976,M,31.868,M,147.8,1010*62
[2021-01-29 10:48:56.471] $GNGGA,14854.9,4327.75852,N,14148.31354,E,5,9,1.12,115.971,M,31.868,M,147.9,1010*6A
[2021-01-29 10:48:56.564] $GNGGA,14855,4327.758522,N,14148.31354,E,5,9,1.12,115.971,M,31.868,M,148,1010*60
[2021-01-29 10:48:56.658] $GNGGA,14855.1,4327.758524,N,14148.31354,E,5,9,1.12,115.97,M,31.868,M,148.1,1010*66
[2021-01-29 10:48:56.768] $GNGGA,14855.2,4327.758526,N,14148.31354,E,5,9,1.12,115.967,M,31.868,M,148.2,1010*62
[2021-01-29 10:48:56.861] $GNGGA,14855.3,4327.758529,N,14148.31355,E,5,9,1.12,115.963,M,31.868,M,148.3,1010*68
[2021-01-29 10:48:56.971] $GNGGA,14855.4,4327.758531,N,14148.31355,E,5,9,1.12,115.954,M,31.868,M,148.4,1010*6E
[2021-01-29 10:48:57.064] $GNGGA,14855.5,4327.758532,N,14148.31355,E,5,9,1.12,115.947,M,31.868,M,148.5,1010*6D
[2021-01-29 10:48:57.158] $GNGGA,14855.6,4327.758534,N,14148.31355,E,5,9,1.12,115.948,M,31.868,M,148.6,1010*64
[2021-01-29 10:48:57.270] $GNGGA,14855.7,4327.758537,N,14148.31355,E,5,9,1.12,115.941,M,31.868,M,148.7,1010*60
[2021-01-29 10:48:57.364] $GNGGA,14855.8,4327.758538,N,14148.31356,E,5,9,1.12,115.944,M,31.868,M,148.8,1010*61
[2021-01-29 10:48:57.458] $GNGGA,14855.9,4327.758542,N,14148.31356,E,5,9,1.12,115.933,M,31.868,M,148.9,1010*69
[2021-01-29 10:48:57.567] $GNGGA,14856,4327.758544,N,14148.31356,E,5,9,1.12,115.929,M,31.868,M,149,1010*6F
[2021-01-29 10:48:57.661] $GNGGA,14856.1,4327.758547,N,14148.31356,E,5,9,1.12,115.925,M,31.868,M,149.1,1010*6B
[2021-01-29 10:48:57.770] $GNGGA,14856.2,4327.758549,N,14148.31356,E,5,9,1.12,115.924,M,31.868,M,149.2,1010*63
[2021-01-29 10:48:57.864] $GNGGA,14856.3,4327.758552,N,14148.31356,E,5,9,1.12,115.915,M,31.868,M,149.3,1010*63
[2021-01-29 10:48:57.958] $GNGGA,14856.4,4327.758553,N,14148.31356,E,5,9,1.12,115.919,M,31.868,M,149.4,1010*6E
[2021-01-29 10:48:58.067] $GNGGA,14856.5,4327.758558,N,14148.31357,E,5,9,1.12,115.912,M,31.868,M,149.5,1010*6B
[2021-01-29 10:48:58.161] $GNGGA,14856.6,4327.758561,N,14148.31357,E,5,9,1.12,115.907,M,31.868,M,149.6,1010*61
[2021-01-29 10:48:58.272] $GNGGA,14856.7,4327.758565,N,14148.31357,E,5,9,1.12,115.904,M,31.868,M,149.7,1010*6F
[2021-01-29 10:48:58.366] $GNGGA,14856.8,4327.75857,N,14148.31357,E,5,9,1.12,115.904,M,31.868,M,149.8,1010*63
[2021-01-29 10:48:58.460] $GNGGA,14856.9,4327.758575,N,14148.31357,E,5,10,1.06,115.904,M,31.868,M,149.9,1010*6D
[2021-01-29 10:48:58.569] $GNGGA,14857,4327.758579,N,14148.31357,E,5,10,1.06,115.9,M,31.868,M,150,1010*66
[2021-01-29 10:48:58.663] $GNGGA,14857.1,4327.75858,N,14148.31357,E,5,10,1.06,115.907,M,31.868,M,150.1,1010*6C
[2021-01-29 10:48:58.756] $GNGGA,14857.2,4327.758584,N,14148.31357,E,5,10,1.06,115.905,M,31.868,M,150.2,1010*60
[2021-01-29 10:48:58.866] $GNGGA,14857.3,4327.758585,N,14148.31357,E,5,10,1.06,115.905,M,31.868,M,150.3,1010*67
[2021-01-29 10:48:58.959] $GNGGA,14857.4,4327.758595,N,14148.31359,E,5,10,1.06,115.955,M,31.868,M,150.4,1010*67
[2021-01-29 10:48:59.069] $GNGGA,14857.5,4327.758606,N,14148.3136,E,5,10,1.06,116.007,M,31.868,M,150.5,1010*65
[2021-01-29 10:48:59.163] $GNGGA,14857.6,4327.758612,N,14148.3136,E,5,10,1.06,116.004,M,31.868,M,150.6,1010*6C
[2021-01-29 10:48:59.272] $GNGGA,14857.7,4327.758621,N,14148.31361,E,5,10,1.06,116.048,M,31.868,M,150.7,1010*6E
[2021-01-29 10:48:59.369] $GNGGA,14857.8,4327.75863,N,14148.31362,E,5,10,1.06,116.096,M,31.868,M,150.8,1010*61
[2021-01-29 10:48:59.463] $GNGGA,14857.9,4327.758639,N,14148.31364,E,5,10,1.06,116.141,M,31.868,M,150.9,1010*65
[2021-01-29 10:48:59.572] $GNGGA,14858,4327.758648,N,14148.31365,E,5,10,1.06,116.181,M,31.868,M,151,1010*6D
[2021-01-29 10:48:59.666] $GNGGA,14858.1,4327.758656,N,14148.31366,E,5,10,1.06,116.226,M,31.868,M,151.1,1010*68
[2021-01-29 10:48:59.759] $GNGGA,14858.2,4327.758661,N,14148.31367,E,5,10,1.06,116.261,M,31.868,M,151.2,1010*6A
[2021-01-29 10:48:59.869] $GNGGA,14858.3,4327.758664,N,14148.31367,E,5,10,1.06,116.263,M,31.868,M,151.3,1010*62
[2021-01-29 10:48:59.962] $GNGGA,14858.4,4327.75867,N,14148.31367,E,5,10,1.06,116.285,M,31.868,M,151.4,1010*68
[2021-01-29 10:49:00.056] $GNGGA,14858.5,4327.758674,N,14148.31368,E,5,10,1.06,116.317,M,31.868,M,151.5,1010*6B
[2021-01-29 10:49:00.166] $GNGGA,14858.6,4327.758681,N,14148.31369,E,5,10,1.06,116.35,M,31.868,M,151.6,1010*6F
[2021-01-29 10:49:00.267] $GNGGA,14858.7,4327.758683,N,14148.31369,E,5,10,1.06,116.355,M,31.868,M,151.7,1010*6B
[2021-01-29 10:49:00.371] $GNGGA,14858.8,4327.758686,N,14148.31369,E,5,10,1.06,116.364,M,31.868,M,151.8,1010*6F
[2021-01-29 10:49:00.465] $GNGGA,14858.9,4327.758692,N,14148.3137,E,5,10,1.06,116.391,M,31.868,M,151.9,1010*63
[2021-01-29 10:49:00.558] $GNGGA,14859,4327.758693,N,14148.3137,E,5,10,1.06,116.39,M,31.868,M,152,1010*65
[2021-01-29 10:49:00.668] $GNGGA,14859.1,4327.758696,N,14148.3137,E,5,10,1.06,116.404,M,31.868,M,152.1,1010*6A
[2021-01-29 10:49:00.762] $GNGGA,14859.2,4327.758698,N,14148.3137,E,5,10,1.06,116.399,M,31.868,M,152.2,1010*6B
[2021-01-29 10:49:00.871] $GNGGA,14859.3,4327.7587,N,14148.31371,E,5,10,1.06,116.408,M,31.868,M,152.3,1010*62
[2021-01-29 10:49:00.965] $GNGGA,14859.4,4327.758704,N,14148.31371,E,5,10,1.06,116.42,M,31.868,M,152.4,1010*64
[2021-01-29 10:49:01.058] $GNGGA,14859.5,4327.758705,N,14148.31371,E,5,10,1.06,116.422,M,31.868,M,152.5,1010*62
[2021-01-29 10:49:01.168] $GNGGA,14859.6,4327.758707,N,14148.31371,E,5,10,1.06,116.426,M,31.868,M,152.6,1010*60
[2021-01-29 10:49:01.267] $GNGGA,14859.7,4327.75871,N,14148.31371,E,5,10,1.06,116.438,M,31.868,M,152.7,1010*68
[2021-01-29 10:49:01.371] $GNGGA,14859.8,4327.758711,N,14148.31371,E,5,10,1.06,116.433,M,31.868,M,152.8,1010*6C
[2021-01-29 10:49:01.465] $GNGGA,14859.9,4327.758712,N,14148.31371,E,5,10,1.06,116.443,M,31.868,M,152.9,1010*6E
[2021-01-29 10:49:01.559] $GNGGA,14900,4327.758715,N,14148.31371,E,5,10,1.06,116.446,M,31.868,M,153,1010*63
[2021-01-29 10:49:01.668] $GNGGA,14900.1,4327.758719,N,14148.31371,E,5,10,1.06,116.443,M,31.868,M,153.1,1010*6E
[2021-01-29 10:49:01.762] $GNGGA,14900.2,4327.758721,N,14148.31371,E,5,10,1.06,116.444,M,31.868,M,153.2,1010*6A
[2021-01-29 10:49:01.871] $GNGGA,14900.3,4327.758724,N,14148.31371,E,5,10,1.06,116.453,M,31.868,M,153.3,1010*65
[2021-01-29 10:49:01.965] $GNGGA,14900.4,4327.758726,N,14148.3137,E,5,10,1.06,116.449,M,31.868,M,153.4,1010*68
[2021-01-29 10:49:02.059] $GNGGA,14900.5,4327.758728,N,14148.3137,E,5,10,1.06,116.446,M,31.868,M,153.5,1010*63
[2021-01-29 10:49:02.168] $GNGGA,14900.6,4327.75873,N,14148.3137,E,5,10,1.06,116.452,M,31.868,M,153.6,1010*63
[2021-01-29 10:49:02.261] $GNGGA,14900.7,4327.75873,N,14148.3137,E,5,10,1.06,116.451,M,31.868,M,153.7,1010*6F
[2021-01-29 10:49:02.370] $GNGGA,14900.8,4327.758733,N,14148.31369,E,5,10,1.06,116.446,M,31.868,M,153.8,1010*67
[2021-01-29 10:49:02.464] $GNGGA,14900.9,4327.758735,N,14148.31369,E,5,10,1.06,116.454,M,31.868,M,153.9,1010*66
[2021-01-29 10:49:02.558] $GNGGA,14901,4327.758736,N,14148.31369,E,5,10,1.06,116.452,M,31.868,M,154,1010*6C
[2021-01-29 10:49:02.667] $GNGGA,14901.1,4327.758738,N,14148.31369,E,5,10,1.06,116.45,M,31.868,M,154.1,1010*68
[2021-01-29 10:49:02.761] $GNGGA,14901.2,4327.75874,N,14148.31368,E,5,10,1.06,116.452,M,31.868,M,154.2,1010*65
[2021-01-29 10:49:02.870] $GNGGA,14901.3,4327.75874,N,14148.31368,E,5,10,1.06,116.453,M,31.868,M,154.3,1010*6F
[2021-01-29 10:49:02.964] $GNGGA,14901.4,4327.758741,N,14148.31368,E,5,10,1.06,116.454,M,31.868,M,154.4,1010*6D
[2021-01-29 10:49:03.073] $GNGGA,14901.5,4327.758745,N,14148.31368,E,5,10,1.06,116.465,M,31.868,M,154.5,1010*6A
[2021-01-29 10:49:03.167] $GNGGA,14901.6,4327.758746,N,14148.31368,E,5,10,1.06,116.468,M,31.868,M,154.6,1010*67
[2021-01-29 10:49:03.270] $GNGGA,14901.7,4327.758748,N,14148.31368,E,5,10,1.06,116.484,M,31.868,M,154.7,1010*6E
[2021-01-29 10:49:03.358] $GNGGA,14901.8,4327.758749,N,14148.31368,E,5,10,1.06,116.482,M,31.868,M,154.8,1010*6A
[2021-01-29 10:49:03.467] $GNGGA,14901.9,4327.758749,N,14148.31367,E,5,10,1.06,116.478,M,31.868,M,154.9,1010*63
[2021-01-29 10:49:03.561] $GNGGA,14902,4327.75875,N,14148.31367,E,5,10,1.06,116.476,M,31.868,M,155,1010*6B
[2021-01-29 10:49:03.670] $GNGGA,14902.1,4327.758751,N,14148.31367,E,5,10,1.06,116.481,M,31.868,M,155.1,1010*65
[2021-01-29 10:49:03.764] $GNGGA,14902.2,4327.758751,N,14148.31367,E,5,10,1.06,116.467,M,31.868,M,155.2,1010*6C
[2021-01-29 10:49:03.858] $GNGGA,14902.3,4327.758752,N,14148.31366,E,5,10,1.06,116.476,M,31.868,M,155.3,1010*6A
[2021-01-29 10:49:03.967] $GNGGA,14902.4,4327.758753,N,14148.31366,E,5,10,1.06,116.471,M,31.868,M,155.4,1010*6B
[2021-01-29 10:49:04.061] $GNGGA,14902.5,4327.758753,N,14148.31365,E,5,10,1.06,116.463,M,31.868,M,155.5,1010*6E
[2021-01-29 10:49:04.170] $GNGGA,14902.6,4327.758753,N,14148.31365,E,5,10,1.06,116.46,M,31.868,M,155.6,1010*61
[2021-01-29 10:49:04.264] $GNGGA,14902.7,4327.758754,N,14148.31364,E,5,10,1.06,116.457,M,31.868,M,155.7,1010*64
[2021-01-29 10:49:04.358] $GNGGA,14902.8,4327.758754,N,14148.31364,E,5,10,1.06,116.448,M,31.868,M,155.8,1010*67
[2021-01-29 10:49:04.467] $GNGGA,14902.9,4327.758755,N,14148.31364,E,5,10,1.06,116.451,M,31.868,M,155.9,1010*60
[2021-01-29 10:49:04.561] $GNGGA,14903,4327.758756,N,14148.31363,E,5,10,1.06,116.452,M,31.868,M,156,1010*63
[2021-01-29 10:49:04.670] $GNGGA,14903.1,4327.758755,N,14148.31363,E,5,10,1.06,116.451,M,31.868,M,156.1,1010*6D
[2021-01-29 10:49:04.764] $GNGGA,14903.2,4327.758755,N,14148.31363,E,5,10,1.06,116.449,M,31.868,M,156.2,1010*67
[2021-01-29 10:49:04.858] $GNGGA,14903.3,4327.758754,N,14148.31362,E,5,10,1.06,116.454,M,31.868,M,156.3,1010*61
[2021-01-29 10:49:04.967] $GNGGA,14903.4,4327.758752,N,14148.31362,E,5,10,1.06,116.455,M,31.868,M,156.4,1010*62
[2021-01-29 10:49:05.061] $GNGGA,14903.5,4327.758753,N,14148.31361,E,5,10,1.06,116.453,M,31.868,M,156.5,1010*62
[2021-01-29 10:49:05.170] $GNGGA,14903.6,4327.758753,N,14148.31361,E,5,10,1.06,116.459,M,31.868,M,156.6,1010*69
[2021-01-29 10:49:05.266] $GNGGA,14903.7,4327.758753,N,14148.31361,E,5,10,1.06,116.469,M,31.868,M,156.7,1010*67
[2021-01-29 10:49:05.359] $GNGGA,14903.8,4327.758753,N,14148.31361,E,5,10,1.06,116.463,M,31.868,M,156.8,1010*65
[2021-01-29 10:49:05.469] $GNGGA,14903.9,4327.758754,N,14148.3136,E,5,10,1.06,116.475,M,31.868,M,156.9,1010*68
[2021-01-29 10:49:05.562] $GNGGA,14904,4327.758755,N,14148.3136,E,5,10,1.06,116.471,M,31.868,M,157,1010*6A
[2021-01-29 10:49:05.672] $GNGGA,14904.1,4327.758755,N,14148.3136,E,5,10,1.06,116.475,M,31.868,M,157.1,1010*64
[2021-01-29 10:49:05.765] $GNGGA,14904.2,4327.758758,N,14148.3136,E,5,10,1.06,116.475,M,31.868,M,157.2,1010*63
[2021-01-29 10:49:05.859] $GNGGA,14904.3,4327.758757,N,14148.31359,E,5,10,1.06,116.481,M,31.868,M,157.3,1010*68
[2021-01-29 10:49:05.969] $GNGGA,14904.4,4327.758759,N,14148.31359,E,5,10,1.06,116.484,M,31.868,M,157.4,1010*62
[2021-01-29 10:49:06.062] $GNGGA,14904.5,4327.758759,N,14148.31359,E,5,10,1.06,116.484,M,31.868,M,157.5,1010*61
[2021-01-29 10:49:06.156] $GNGGA,14904.6,4327.758759,N,14148.31358,E,5,10,1.06,116.482,M,31.868,M,157.6,1010*6B
[2021-01-29 10:49:06.267] $GNGGA,14904.7,4327.758759,N,14148.31358,E,5,10,1.06,116.48,M,31.868,M,157.7,1010*6C
[2021-01-29 10:49:06.361] $GNGGA,14904.8,4327.75876,N,14148.31358,E,5,10,1.06,116.479,M,31.868,M,157.8,1010*68
[2021-01-29 10:49:06.470] $GNGGA,14904.9,4327.758759,N,14148.31357,E,5,10,1.06,116.475,M,31.868,M,157.9,1010*6A
[2021-01-29 10:49:06.564] $GNGGA,14905,4327.758758,N,14148.31357,E,5,10,1.06,116.476,M,31.868,M,158,1010*6B
[2021-01-29 10:49:06.658] $GNGGA,14905.1,4327.758757,N,14148.31357,E,5,10,1.06,116.478,M,31.868,M,158.1,1010*6F
[2021-01-29 10:49:06.767] $GNGGA,14905.2,4327.758758,N,14148.31357,E,5,10,1.06,116.481,M,31.868,M,158.2,1010*6A
[2021-01-29 10:49:06.861] $GNGGA,14905.3,4327.758758,N,14148.31357,E,5,10,1.06,116.491,M,31.868,M,158.3,1010*64
[2021-01-29 10:49:06.970] $GNGGA,14905.4,4327.758758,N,14148.31357,E,5,10,1.06,116.493,M,31.868,M,158.4,1010*66
[2021-01-29 10:49:07.064] $GNGGA,14905.5,4327.758758,N,14148.31357,E,5,10,1.06,116.497,M,31.868,M,158.5,1010*60
[2021-01-29 10:49:07.158] $GNGGA,14905.6,4327.758758,N,14148.31357,E,5,10,1.06,116.502,M,31.868,M,158.6,1010*60
[2021-01-29 10:49:07.269] $GNGGA,14905.7,4327.758757,N,14148.31357,E,5,10,1.06,116.503,M,31.868,M,158.7,1010*65
[2021-01-29 10:49:07.363] $GNGGA,14905.8,4327.758756,N,14148.31357,E,5,10,1.06,116.51,M,31.868,M,158.8,1010*61
[2021-01-29 10:49:07.456] $GNGGA,14905.9,4327.758756,N,14148.31357,E,5,10,1.06,116.517,M,31.868,M,158.9,1010*64
[2021-01-29 10:49:07.566] $GNGGA,14906,4327.758756,N,14148.31357,E,5,10,1.06,116.521,M,31.868,M,159,1010*62
[2021-01-29 10:49:07.659] $GNGGA,14906.1,4327.758756,N,14148.31357,E,5,10,1.06,116.529,M,31.868,M,159.1,1010*68
[2021-01-29 10:49:07.769] $GNGGA,14906.2,4327.758757,N,14148.31357,E,5,10,1.06,116.528,M,31.868,M,159.2,1010*65
[2021-01-29 10:49:07.863] $GNGGA,14906.3,4327.758757,N,14148.31357,E,5,10,1.06,116.536,M,31.868,M,159.3,1010*69
[2021-01-29 10:49:07.972] $GNGGA,14906.4,4327.758757,N,14148.31357,E,5,10,1.06,116.532,M,31.868,M,159.4,1010*6C
[2021-01-29 10:49:08.066] $GNGGA,14906.5,4327.758757,N,14148.31357,E,5,10,1.06,116.54,M,31.868,M,159.5,1010*6B
[2021-01-29 10:49:08.159] $GNGGA,14906.6,4327.758758,N,14148.31357,E,5,10,1.06,116.545,M,31.868,M,159.6,1010*6F
[2021-01-29 10:49:08.271] $GNGGA,14906.7,4327.758758,N,14148.31357,E,5,10,1.06,116.551,M,31.868,M,159.7,1010*6F
[2021-01-29 10:49:08.364] $GNGGA,14906.8,4327.758758,N,14148.31357,E,5,10,1.06,116.547,M,31.868,M,159.8,1010*6F
[2021-01-29 10:49:08.458] $GNGGA,14906.9,4327.758759,N,14148.31357,E,5,10,1.06,116.551,M,31.868,M,159.9,1010*6E
[2021-01-29 10:49:08.567] $GNGGA,14907,4327.758758,N,14148.31357,E,5,10,1.06,116.555,M,31.868,M,160,1010*6F
[2021-01-29 10:49:08.661] $GNGGA,14907.1,4327.758758,N,14148.31357,E,5,10,1.06,116.559,M,31.868,M,160.1,1010*62
[2021-01-29 10:49:08.771] $GNGGA,14907.2,4327.758758,N,14148.31357,E,5,10,1.06,116.561,M,31.868,M,160.2,1010*67
[2021-01-29 10:49:08.864] $GNGGA,14907.3,4327.758757,N,14148.31357,E,5,10,1.06,116.563,M,31.868,M,160.3,1010*67
[2021-01-29 10:49:08.958] $GNGGA,14907.4,4327.758757,N,14148.31357,E,5,10,1.06,116.567,M,31.868,M,160.4,1010*60
[2021-01-29 10:49:09.067] $GNGGA,14907.5,4327.758757,N,14148.31356,E,5,10,1.06,116.575,M,31.868,M,160.5,1010*61
[2021-01-29 10:49:09.161] $GNGGA,14907.6,4327.758756,N,14148.31356,E,5,10,1.06,116.575,M,31.868,M,160.6,1010*64
[2021-01-29 10:49:09.265] $GNGGA,14907.7,4327.758757,N,14148.31356,E,5,10,1.06,116.579,M,31.868,M,160.7,1010*64
[2021-01-29 10:49:09.368] $GNGGA,14907.8,4327.758756,N,14148.31356,E,5,10,1.06,116.579,M,31.868,M,160.8,1010*69
[2021-01-29 10:49:09.462] $GNGGA,14907.9,4327.758757,N,14148.31356,E,5,10,1.06,116.582,M,31.868,M,160.9,1010*6F
[2021-01-29 10:49:09.571] $GNGGA,14908,4327.758757,N,14148.31356,E,5,10,1.06,116.582,M,31.868,M,161,1010*69
[2021-01-29 10:49:09.665] $GNGGA,14908.1,4327.758758,N,14148.31356,E,5,10,1.06,116.586,M,31.868,M,161.1,1010*63
[2021-01-29 10:49:09.758] $GNGGA,14908.2,4327.758757,N,14148.31356,E,5,10,1.06,116.594,M,31.868,M,161.2,1010*6A
[2021-01-29 10:49:09.868] $GNGGA,14908.3,4327.758757,N,14148.31356,E,5,10,1.06,116.596,M,31.868,M,161.3,1010*6C
[2021-01-29 10:49:09.961] $GNGGA,14908.4,4327.758756,N,14148.31356,E,5,10,1.06,116.598,M,31.868,M,161.4,1010*67
[2021-01-29 10:49:10.071] $GNGGA,14908.5,4327.758756,N,14148.31356,E,5,10,1.06,116.599,M,31.868,M,161.5,1010*6D
[2021-01-29 10:49:10.165] $GNGGA,14908.6,4327.758755,N,14148.31356,E,5,10,1.06,116.6,M,31.868,M,161.6,1010*6F
[2021-01-29 10:49:10.273] $GNGGA,14908.7,4327.758754,N,14148.31356,E,5,10,1.06,116.601,M,31.868,M,161.7,1010*64
[2021-01-29 10:49:10.369] $GNGGA,14908.8,4327.758755,N,14148.31356,E,5,10,1.06,116.601,M,31.868,M,161.8,1010*62
[2021-01-29 10:49:10.462] $GNGGA,14908.9,4327.758754,N,14148.31356,E,5,10,1.06,116.599,M,31.868,M,161.9,1010*66
[2021-01-29 10:49:10.556] $GNGGA,14909,4327.758753,N,14148.31355,E,5,10,1.06,116.597,M,31.868,M,162,1010*62
[2021-01-29 10:49:10.665] $GNGGA,14909.1,4327.758751,N,14148.31355,E,5,10,1.06,116.595,M,31.868,M,162.1,1010*60
[2021-01-29 10:49:10.759] $GNGGA,14909.2,4327.758751,N,14148.31355,E,5,10,1.06,116.592,M,31.868,M,162.2,1010*68
[2021-01-29 10:49:10.869] $GNGGA,14909.3,4327.75875,N,14148.31355,E,5,10,1.06,116.586,M,31.868,M,162.3,1010*68
[2021-01-29 10:49:10.962] $GNGGA,14909.4,4327.75875,N,14148.31354,E,5,10,1.06,116.585,M,31.868,M,162.4,1010*6C
[2021-01-29 10:49:11.056] $GNGGA,14909.5,4327.758749,N,14148.31354,E,5,10,1.06,116.583,M,31.868,M,162.5,1010*60
[2021-01-29 10:49:11.165] $GNGGA,14909.6,4327.758748,N,14148.31354,E,5,10,1.06,116.578,M,31.868,M,162.6,1010*68
[2021-01-29 10:49:11.268] $GNGGA,14909.7,4327.758746,N,14148.31353,E,5,10,1.06,116.576,M,31.868,M,162.7,1010*68
[2021-01-29 10:49:11.371] $GNGGA,14909.8,4327.758744,N,14148.31353,E,5,10,1.06,116.577,M,31.868,M,162.8,1010*65
[2021-01-29 10:49:11.465] $GNGGA,14909.9,4327.758742,N,14148.31353,E,5,10,1.06,116.573,M,31.868,M,162.9,1010*67
[2021-01-29 10:49:11.558] $GNGGA,14910,4327.758741,N,14148.31353,E,5,10,1.06,116.574,M,31.868,M,163,1010*68
[2021-01-29 10:49:11.668] $GNGGA,14910.1,4327.758741,N,14148.31352,E,5,10,1.06,116.571,M,31.868,M,163.1,1010*65
