
[2021-01-29 10:48:18.336] $GNGGA,014750.90,,,,,0,00,99.99,,,,,83.9,*6A
[2021-01-29 10:48:18.367] $GNGGA,014751.00,,,,,0,00,99.99,,,,,84.0,*6C
[2021-01-29 10:48:18.367] $GNGGA,014751.10,,,,,0,00,99.99,,,,,84.1,*6C
[2021-01-29 10:48:18.367] $GNGGA,014751.20,,,,,0,00,99.99,,,,,84.2,*6C
[2021-01-29 10:48:18.367] $GNGGA,014751.30,,,,,0,00,99.99,,,,,84.3,*6C
[2021-01-29 10:48:18.367] $GNGGA,014751.40,,,,,0,00,99.99,,,,,84.4,*6C
[2021-01-29 10:48:18.367] $GNGGA,014751.50,,,,,0,00,99.99,,,,,84.5,*6C
[2021-01-29 10:48:18.367] $GNGGA,014751.60,,,,,0,00,99.99,,,,,84.6,*6C
[2021-01-29 10:48:18.367] $GNGGA,014751.70,,,,,0,00,99.99,,,,,84.7,*6C
[2021-01-29 10:48:18.367] $GNGGA,014751.80,,,,,0,00,99.99,,,,,84.8,*6C
[2021-01-29 10:48:18.367] $GNGGA,014751.90,,,,,0,00,99.99,,,,,84.9,*6C
[2021-01-29 10:48:18.367] $GNGGA,014752.00,,,,,0,00,99.99,,,,,85.0,*6E
[2021-01-29 10:48:18.367] $GNGGA,014752.10,,,,,0,00,99.99,,,,,85.1,*6E
[2021-01-29 10:48:18.367] $GNGGA,014752.20,,,,,0,00,99.99,,,,,85.2,*6E
[2021-01-29 10:48:18.367] $GNGGA,014752.30,,,,,0,00,99.99,,,,,85.3,*6E
[2021-01-29 10:48:18.367] $GNGGA,014752.40,,,,,0,00,99.99,,,,,85.4,*6E
[2021-01-29 10:48:18.367] $GNGGA,014752.50,,,,,0,00,99.99,,,,,85.5,*6E
[2021-01-29 10:48:18.367] $GNGGA,014752.60,,,,,0,00,99.99,,,,,85.6,*6E
[2021-01-29 10:48:18.367] $GNGGA,014752.70,,,,,0,00,99.99,,,,,85.7,*6E
[2021-01-29 10:48:18.367] $GNGGA,014752.80,,,,,0,00,99.99,,,,,85.8,*6E
[2021-01-29 10:48:18.367] $GNGGA,014752.90,,,,,0,00,99.99,,,,,85.9,*6E
[2021-01-29 10:48:18.367] $GNGGA,014753.00,,,,,0,00,99.99,,,,,86.0,*6C
[2021-01-29 10:48:18.367] $GNGGA,014753.10,,,,,0,00,99.99,,,,,86.1,*6C
[2021-01-29 10:48:18.367] $GNGGA,014753.20,,,,,0,00,99.99,,,,,86.2,*6C
[2021-01-29 10:48:18.383] $GNGGA,014753.30,,,,,0,00,99.99,,,,,86.3,*6C
[2021-01-29 10:48:18.383] $GNGGA,014753.40,,,,,0,00,99.99,,,,,86.4,*6C
[2021-01-29 10:48:18.383] $GNGGA,014753.50,,,,,0,00,99.99,,,,,86.5,*6C
[2021-01-29 10:48:18.383] $GNGGA,014753.60,,,,,0,00,99.99,,,,,86.6,*6C
[2021-01-29 10:48:18.383] $GNGGA,014753.70,,,,,0,00,99.99,,,,,86.7,*6C
[2021-01-29 10:48:18.383] $GNGGA,014753.80,,,,,0,00,99.99,,,,,86.8,*6C
[2021-01-29 10:48:18.383] $GNGGA,014753.90,,,,,0,00,99.99,,,,,86.9,*6C
[2021-01-29 10:48:18.383] $GNGGA,014754.00,,,,,0,00,99.99,,,,,87.0,*6A
[2021-01-29 10:48:18.383] $GNGGA,014754.10,,,,,0,00,99.99,,,,,87.1,*6A
[2021-01-29 10:48:18.383] $GNGGA,014754.20,,,,,0,00,99.99,,,,,87.2,*6A
[2021-01-29 10:48:18.383] $GNGGA,014754.30,,,,,0,00,99.99,,,,,87.3,*6A
[2021-01-29 10:48:18.383] $GNGGA,014754.40,,,,,0,00,99.99,,,,,87.4,*6A
[2021-01-29 10:48:18.383] $GNGGA,014754.50,,,,,0,00,99.99,,,,,87.5,*6A
[2021-01-29 10:48:18.383] $GNGGA,014754.60,,,,,0,00,99.99,,,,,87.6,*6A
[2021-01-29 10:48:18.383] $GNGGA,014754.70,,,,,0,00,99.99,,,,,87.7,*6A
[2021-01-29 10:48:18.383] $GNGGA,014754.80,,,,,0,00,99.99,,,,,87.8,*6A
[2021-01-29 10:48:18.383] $GNGGA,014754.90,,,,,0,00,99.99,,,,,87.9,*6A
[2021-01-29 10:48:18.383] $GNGGA,014755.00,,,,,0,00,99.99,,,,,88.0,*64
[2021-01-29 10:48:18.383] $GNGGA,014755.10,,,,,0,00,99.99,,,,,88.1,*64
[2021-01-29 10:48:18.383] $GNGGA,014755.20,,,,,0,00,99.99,,,,,88.2,*64
[2021-01-29 10:48:18.383] $GNGGA,014755.30,,,,,0,00,99.99,,,,,88.3,*64
[2021-01-29 10:48:18.383] $GNGGA,014755.40,,,,,0,00,99.99,,,,,88.4,*64
[2021-01-29 10:48:18.399] $GNGGA,014755.50,,,,,0,00,99.99,,,,,88.5,*64
[2021-01-29 10:48:18.399] $GNGGA,014755.60,,,,,0,00,99.99,,,,,88.6,*64
[2021-01-29 10:48:18.399] $GNGGA,014755.70,,,,,0,00,99.99,,,,,88.7,*64
[2021-01-29 10:48:18.399] $GNGGA,014755.80,,,,,0,00,99.99,,,,,88.8,*64
[2021-01-29 10:48:18.399] $GNGGA,014755.90,,,,,0,00,99.99,,,,,88.9,*64
[2021-01-29 10:48:18.399] $GNGGA,014756.00,,,,,0,00,99.99,,,,,89.0,*66
[2021-01-29 10:48:18.399] $GNGGA,014756.10,,,,,0,00,99.99,,,,,89.1,*66
[2021-01-29 10:48:18.399] $GNGGA,014756.20,,,,,0,00,99.99,,,,,89.2,*66
[2021-01-29 10:48:18.399] $GNGGA,014756.30,,,,,0,00,99.99,,,,,89.3,*66
[2021-01-29 10:48:18.399] $GNGGA,014756.40,,,,,0,00,99.99,,,,,89.4,*66
[2021-01-29 10:48:18.399] $GNGGA,014756.50,,,,,0,00,99.99,,,,,89.5,*66
[2021-01-29 10:48:18.399] $GNGGA,014756.60,,,,,0,00,99.99,,,,,89.6,*66
[2021-01-29 10:48:18.399] $GNGGA,014756.70,,,,,0,00,99.99,,,,,89.7,*66
[2021-01-29 10:48:18.399] $GNGGA,014756.80,,,,,0,00,99.99,,,,,89.8,*66
[2021-01-29 10:48:18.399] $GNGGA,014756.90,,,,,0,00,99.99,,,,,89.9,*66
[2021-01-29 10:48:18.399] $GNGGA,014757.00,,,,,0,00,99.99,,,,,90.0,*6F
[2021-01-29 10:48:18.399] $GNGGA,014757.10,,,,,0,00,99.99,,,,,90.1,*6F
[2021-01-29 10:48:18.399] $GNGGA,014757.20,,,,,0,00,99.99,,,,,90.2,*6F
[2021-01-29 10:48:18.399] $GNGGA,014757.30,,,,,0,00,99.99,,,,,90.3,*6F
[2021-01-29 10:48:18.399] $GNGGA,014757.40,,,,,0,00,99.99,,,,,90.4,*6F
[2021-01-29 10:48:18.399] $GNGGA,014757.50,,,,,0,00,99.99,,,,,90.5,*6F
[2021-01-29 10:48:18.399] $GNGGA,014757.60,,,,,0,00,99.99,,,,,90.6,*6F
[2021-01-29 10:48:18.414] $GNGGA,014757.70,,,,,0,00,99.99,,,,,90.7,*6F
[2021-01-29 10:48:18.414] $GNGGA,014757.80,,,,,0,00,99.99,,,,,90.8,*6F
[2021-01-29 10:48:18.414] $GNGGA,014757.90,,,,,0,00,99.99,,,,,90.9,*6F
[2021-01-29 10:48:18.414] $GNGGA,014758.00,,,,,0,00,99.99,,,,,91.0,*61
[2021-01-29 10:48:18.414] $GNGGA,014758.10,,,,,0,00,99.99,,,,,91.1,*61
[2021-01-29 10:48:18.414] $GNGGA,014758.20,,,,,0,00,99.99,,,,,91.2,*61
[2021-01-29 10:48:18.414] $GNGGA,014758.30,,,,,0,00,99.99,,,,,91.3,*61
[2021-01-29 10:48:18.414] $GNGGA,014758.40,,,,,0,00,99.99,,,,,91.4,*61
[2021-01-29 10:48:18.414] $GNGGA,014758.50,,,,,0,00,99.99,,,,,91.5,*61
[2021-01-29 10:48:18.414] $GNGGA,014758.60,,,,,0,00,99.99,,,,,91.6,*61
[2021-01-29 10:48:18.414] $GNGGA,014758.70,,,,,0,00,99.99,,,,,91.7,*61
[2021-01-29 10:48:18.414] $GNGGA,014758.80,,,,,0,00,99.99,,,,,91.8,*61
[2021-01-29 10:48:18.414] $GNGGA,014758.90,,,,,0,00,99.99,,,,,91.9,*61
[2021-01-29 10:48:18.414] $GNGGA,014759.00,,,,,0,00,99.99,,,,,92.0,*63
[2021-01-29 10:48:18.414] $GNGGA,014759.10,,,,,0,00,99.99,,,,,92.1,*63
[2021-01-29 10:48:18.414] $GNGGA,014759.20,,,,,0,00,99.99,,,,,92.2,*63
[2021-01-29 10:48:18.414] $GNGGA,014759.30,,,,,0,00,99.99,,,,,92.3,*63
[2021-01-29 10:48:18.414] $GNGGA,014759.40,,,,,0,00,99.99,,,,,92.4,*63
[2021-01-29 10:48:18.414] $GNGGA,014759.50,,,,,0,00,99.99,,,,,92.5,*63
[2021-01-29 10:48:18.414] $GNGGA,014759.60,,,,,0,00,99.99,,,,,92.6,*63
[2021-01-29 10:48:18.414] $GNGGA,014759.70,,,,,0,00,99.99,,,,,92.7,*63
[2021-01-29 10:48:18.414] $GNGGA,014759.80,,,,,0,00,99.99,,,,,92.8,*63
[2021-01-29 10:48:18.430] $GNGGA,014759.90,,,,,0,00,99.99,,,,,92.9,*63
[2021-01-29 10:48:18.430] $GNGGA,014800.00,,,,,0,00,99.99,,,,,93.0,*61
[2021-01-29 10:48:18.430] $GNGGA,014800.10,,,,,0,00,99.99,,,,,93.1,*61
[2021-01-29 10:48:18.430] $GNGGA,014800.20,,,,,0,00,99.99,,,,,93.2,*61
[2021-01-29 10:48:18.430] $GNGGA,014800.30,,,,,0,00,99.99,,,,,93.3,*61
[2021-01-29 10:48:18.430] $GNGGA,014800.40,,,,,0,00,99.99,,,,,93.4,*61
[2021-01-29 10:48:18.430] $GNGGA,014800.50,,,,,0,00,99.99,,,,,93.5,*61
[2021-01-29 10:48:18.430] $GNGGA,014800.60,,,,,0,00,99.99,,,,,93.6,*61
[2021-01-29 10:48:18.430] $GNGGA,014800.70,,,,,0,00,99.99,,,,,93.7,*61
[2021-01-29 10:48:18.430] $GNGGA,014800.80,,,,,0,00,99.99,,,,,93.8,*61
[2021-01-29 10:48:18.430] $GNGGA,014800.90,,,,,0,00,99.99,,,,,93.9,*61
[2021-01-29 10:48:18.430] $GNGGA,014801.00,,,,,0,00,99.99,,,,,94.0,*67
[2021-01-29 10:48:18.430] $GNGGA,014801.10,,,,,0,00,99.99,,,,,94.1,*67
[2021-01-29 10:48:18.430] $GNGGA,014801.20,,,,,0,00,99.99,,,,,94.2,*67
[2021-01-29 10:48:18.430] $GNGGA,014801.30,,,,,0,00,99.99,,,,,94.3,*67
[2021-01-29 10:48:18.430] $GNGGA,014801.40,,,,,0,00,99.99,,,,,94.4,*67
[2021-01-29 10:48:18.430] $GNGGA,014801.50,,,,,0,00,99.99,,,,,94.5,*67
[2021-01-29 10:48:18.430] $GNGGA,014801.60,,,,,0,00,99.99,,,,,94.6,*67
[2021-01-29 10:48:18.430] $GNGGA,014801.70,,,,,0,00,99.99,,,,,94.7,*67
[2021-01-29 10:48:18.430] $GNGGA,014801.80,,,,,0,00,99.99,,,,,94.8,*67
[2021-01-29 10:48:18.430] $GNGGA,014801.90,,,,,0,00,99.99,,,,,94.9,*67
[2021-01-29 10:48:18.430] $GNGGA,014802.00,,,,,0,00,99.99,,,,,95.0,*65
[2021-01-29 10:48:18.445] $GNGGA,014802.10,,,,,0,00,99.99,,,,,95.1,*65
[2021-01-29 10:48:18.445] $GNGGA,014802.20,,,,,0,00,99.99,,,,,95.2,*65
[2021-01-29 10:48:18.445] $GNGGA,014802.30,,,,,0,00,99.99,,,,,95.3,*65
[2021-01-29 10:48:18.445] $GNGGA,014802.40,,,,,0,00,99.99,,,,,95.4,*65
[2021-01-29 10:48:18.445] $GNGGA,014802.50,,,,,0,00,99.99,,,,,95.5,*65
[2021-01-29 10:48:18.445] $GNGGA,014802.60,,,,,0,00,99.99,,,,,95.6,*65
[2021-01-29 10:48:18.445] $GNGGA,014802.70,,,,,0,00,99.99,,,,,95.7,*65
[2021-01-29 10:48:18.445] $GNGGA,014802.80,,,,,0,00,99.99,,,,,95.8,*65
[2021-01-29 10:48:18.445] $GNGGA,014802.90,,,,,0,00,99.99,,,,,95.9,*65
[2021-01-29 10:48:18.445] $GNGGA,014803.00,,,,,0,00,99.99,,,,,96.0,*67
[2021-01-29 10:48:18.445] $GNGGA,014803.10,,,,,0,00,99.99,,,,,96.1,*67
[2021-01-29 10:48:18.445] $GNGGA,014803.20,,,,,0,00,99.99,,,,,96.2,*67
[2021-01-29 10:48:18.445] $GNGGA,014803.30,,,,,0,00,99.99,,,,,96.3,*67
[2021-01-29 10:48:18.445] $GNGGA,014803.40,,,,,0,00,99.99,,,,,96.4,*67
[2021-01-29 10:48:18.445] $GNGGA,014803.50,,,,,0,00,99.99,,,,,96.5,*67
[2021-01-29 10:48:18.445] $GNGGA,014803.60,,,,,0,00,99.99,,,,,96.6,*67
[2021-01-29 10:48:18.445] $GNGGA,014803.70,,,,,0,00,99.99,,,,,96.7,*67
[2021-01-29 10:48:18.445] $GNGGA,014803.80,,,,,0,00,99.99,,,,,96.8,*67
[2021-01-29 10:48:18.445] $GNGGA,014803.90,,,,,0,00,99.99,,,,,96.9,*67
[2021-01-29 10:48:18.445] $GNGGA,014804.00,,,,,0,00,99.99,,,,,97.0,*61
[2021-01-29 10:48:18.445] $GNGGA,014804.10,,,,,0,00,99.99,,,,,97.1,*61
[2021-01-29 10:48:18.445] $GNGGA,014804.20,,,,,0,00,99.99,,,,,97.2,*61
[2021-01-29 10:48:18.477] $GNGGA,014804.30,,,,,0,00,99.99,,,,,97.3,*61
[2021-01-29 10:48:18.477] $GNGGA,014804.40,,,,,0,00,99.99,,,,,97.4,*61
[2021-01-29 10:48:18.477] $GNGGA,014804.50,,,,,0,00,99.99,,,,,97.5,*61
[2021-01-29 10:48:18.477] $GNGGA,014804.60,,,,,0,00,99.99,,,,,97.6,*61
[2021-01-29 10:48:18.477] $GNGGA,014804.70,,,,,0,00,99.99,,,,,97.7,*61
[2021-01-29 10:48:18.477] $GNGGA,014804.80,,,,,0,00,99.99,,,,,97.8,*61
[2021-01-29 10:48:18.477] $GNGGA,014804.90,,,,,0,00,99.99,,,,,97.9,*61
[2021-01-29 10:48:18.477] $GNGGA,014805.00,,,,,0,00,99.99,,,,,98.0,*6F
[2021-01-29 10:48:18.477] $GNGGA,014805.10,,,,,0,00,99.99,,,,,98.1,*6F
[2021-01-29 10:48:18.477] $GNGGA,014805.20,,,,,0,00,99.99,,,,,98.2,*6F
[2021-01-29 10:48:18.477] $GNGGA,014805.30,,,,,0,00,99.99,,,,,98.3,*6F
[2021-01-29 10:48:18.477] $GNGGA,014805.40,,,,,0,00,99.99,,,,,98.4,*6F
[2021-01-29 10:48:18.477] $GNGGA,014805.50,,,,,0,00,99.99,,,,,98.5,*6F
[2021-01-29 10:48:18.477] $GNGGA,014805.60,,,,,0,00,99.99,,,,,98.6,*6F
[2021-01-29 10:48:18.477] $GNGGA,014805.70,,,,,0,00,99.99,,,,,98.7,*6F
[2021-01-29 10:48:18.477] $GNGGA,014805.80,,,,,0,00,99.99,,,,,98.8,*6F
[2021-01-29 10:48:18.477] $GNGGA,014805.90,,,,,0,00,99.99,,,,,98.9,*6F
[2021-01-29 10:48:18.477] $GNGGA,014806.00,,,,,0,00,99.99,,,,,99.0,*6D
[2021-01-29 10:48:18.477] $GNGGA,014806.10,,,,,0,00,99.99,,,,,99.1,*6D
[2021-01-29 10:48:18.477] $GNGGA,014806.20,,,,,0,00,99.99,,,,,99.2,*6D
[2021-01-29 10:48:18.477] $GNGGA,014806.30,,,,,0,00,99.99,,,,,99.3,*6D
[2021-01-29 10:48:18.477] $GNGGA,014806.40,,,,,0,00,99.99,,,,,99.4,*6D
[2021-01-29 10:48:18.508] $GNGGA,014806.50,,,,,0,00,99.99,,,,,99.5,*6D
[2021-01-29 10:48:18.508] $GNGGA,014806.60,,,,,0,00,99.99,,,,,99.6,*6D
[2021-01-29 10:48:18.508] $GNGGA,014806.70,,,,,0,00,99.99,,,,,99.7,*6D
[2021-01-29 10:48:18.508] $GNGGA,014806.80,,,,,0,00,99.99,,,,,99.8,*6D
[2021-01-29 10:48:18.508] $GNGGA,014806.90,,,,,0,00,99.99,,,,,99.9,*6D
[2021-01-29 10:48:18.508] $GNGGA,014807.00,,,,,0,00,99.99,,,,,100.0,*5D
[2021-01-29 10:48:18.508] $GNGGA,014807.10,,,,,0,00,99.99,,,,,100.1,*5D
[2021-01-29 10:48:18.508] $GNGGA,014807.20,,,,,0,00,99.99,,,,,100.2,*5D
[2021-01-29 10:48:18.508] $GNGGA,014807.30,,,,,0,00,99.99,,,,,100.3,*5D
[2021-01-29 10:48:18.508] $GNGGA,014807.40,,,,,0,00,99.99,,,,,100.4,*5D
[2021-01-29 10:48:18.508] $GNGGA,014807.50,,,,,0,00,99.99,,,,,100.5,*5D
[2021-01-29 10:48:18.508] $GNGGA,014807.60,,,,,0,00,99.99,,,,,100.6,*5D
[2021-01-29 10:48:18.508] $GNGGA,014807.70,,,,,0,00,99.99,,,,,100.7,*5D
[2021-01-29 10:48:18.508] $GNGGA,014807.80,,,,,0,00,99.99,,,,,100.8,*5D
[2021-01-29 10:48:18.508] $GNGGA,014807.90,,,,,0,00,99.99,,,,,100.9,*5D
[2021-01-29 10:48:18.508] $GNGGA,014808.00,,,,,0,00,99.99,,,,,101.0,*53
[2021-01-29 10:48:18.508] $GNGGA,014808.10,,,,,0,00,99.99,,,,,101.1,*53
[2021-01-29 10:48:18.508] $GNGGA,014808.20,,,,,0,00,99.99,,,,,101.2,*53
[2021-01-29 10:48:18.508] $GNGGA,014808.30,,,,,0,00,99.99,,,,,101.3,*53
[2021-01-29 10:48:18.508] $GNGGA,014808.40,,,,,0,00,99.99,,,,,101.4,*53
[2021-01-29 10:48:18.508] $GNGGA,014808.50,,,,,0,00,99.99,,,,,101.5,*53
[2021-01-29 10:48:18.508] $GNGGA,014808.60,,,,,0,00,99.99,,,,,101.6,*53
[2021-01-29 10:48:18.508] $GNGGA,014808.70,,,,,0,00,99.99,,$GNGGA,014816.80,,,,,0,00,99.99,,,,,109.8,*54
[2021-01-29 10:48:18.508] $GNGGA,014816.90,,,,,0,00,99.99,,,,,109.9,*54
[2021-01-29 10:48:18.570] $GNGGA,014817.00,,,,,0,00,99.99,,,,,110.0,*5D
[2021-01-29 10:48:18.664] $GNGGA,014817.10,,,,,0,00,99.99,,,,,110.1,*5D
[2021-01-29 10:48:18.758] $GNGGA,014817.20,,,,,0,00,99.99,,,,,110.2,*5D
[2021-01-29 10:48:18.867] $GNGGA,014817.30,,,,,0,00,99.99,,,,,110.3,*5D
[2021-01-29 10:48:18.961] $GNGGA,014817.40,,,,,0,00,99.99,,,,,110.4,*5D
[2021-01-29 10:48:19.055] $GNGGA,014817.50,,,,,0,00,99.99,,,,,110.5,*5D
[2021-01-29 10:48:19.164] $GNGGA,014817.60,,,,,0,00,99.99,,,,,110.6,*5D
[2021-01-29 10:48:19.266] $GNGGA,014817.70,,,,,0,00,99.99,,,,,110.7,*5D
[2021-01-29 10:48:19.369] $GNGGA,014817.80,,,,,0,00,99.99,,,,,110.8,*5D
[2021-01-29 10:48:19.463] $GNGGA,014817.90,,,,,0,00,99.99,,,,,110.9,*5D
[2021-01-29 10:48:19.572] $GNGGA,014818.00,,,,,0,00,99.99,,,,,111.0,*53
[2021-01-29 10:48:19.666] $GNGGA,014818.10,,,,,0,00,99.99,,,,,111.1,*53
[2021-01-29 10:48:19.759] $GNGGA,014818.20,,,,,0,00,99.99,,,,,111.2,*53
[2021-01-29 10:48:19.869] $GNGGA,014818.30,,,,,0,00,99.99,,,,,111.3,*53
[2021-01-29 10:48:19.963] $GNGGA,014818.40,,,,,0,00,99.99,,,,,111.4,*53
[2021-01-29 10:48:20.072] $GNGGA,014818.50,,,,,0,00,99.99,,,,,111.5,*53
[2021-01-29 10:48:20.166] $GNGGA,014818.60,,,,,0,00,99.99,,,,,111.6,*53
[2021-01-29 10:48:20.268] $GNGGA,014818.70,,,,,0,00,99.99,,,,,111.7,*53
[2021-01-29 10:48:20.371] $GNGGA,014818.80,,,,,0,00,99.99,,,,,111.8,*53
[2021-01-29 10:48:20.464] $GNGGA,014818.90,,,,,0,00,99.99,,,,,111.9,*53
[2021-01-29 10:48:20.558] $GNGGA,014819.00,,,,,0,00,99.99,,,,,112.0,*51
[2021-01-29 10:48:20.668] $GNGGA,014819.10,,,,,0,00,99.99,,,,,112.1,*51
[2021-01-29 10:48:20.761] $GNGGA,014819.20,,,,,0,00,99.99,,,,,112.2,*51
[2021-01-29 10:48:20.871] $GNGGA,014819.30,,,,,0,00,99.99,,,,,112.3,*51
[2021-01-29 10:48:20.964] $GNGGA,014819.40,,,,,0,00,99.99,,,,,112.4,*51
[2021-01-29 10:48:21.089] $GNGGA,014819.50,,,,,0,00,99.99,,,,,112.5,*51
[2021-01-29 10:48:21.167] $GNGGA,014819.60,,,,,0,00,99.99,,,,,112.6,*51
[2021-01-29 10:48:21.264] $GNGGA,014819.70,,,,,0,00,99.99,,,,,112.7,*51
[2021-01-29 10:48:21.358] $GNGGA,014819.80,,,,,0,00,99.99,,,,,112.8,*51
[2021-01-29 10:48:21.467] $GNGGA,014819.90,,,,,0,00,99.99,,,,,112.9,*51
[2021-01-29 10:48:21.561] $GNGGA,014820.00,,,,,0,00,99.99,,,,,113.0,*5A
[2021-01-29 10:48:21.670] $GNGGA,014820.10,,,,,0,00,99.99,,,,,113.1,*5A
[2021-01-29 10:48:21.764] $GNGGA,014820.20,,,,,0,00,99.99,,,,,113.2,*5A
[2021-01-29 10:48:21.858] $GNGGA,014820.30,,,,,0,00,99.99,,,,,113.3,*5A
[2021-01-29 10:48:21.967] $GNGGA,014820.40,,,,,0,00,99.99,,,,,113.4,*5A
[2021-01-29 10:48:22.061] $GNGGA,014820.50,,,,,0,00,99.99,,,,,113.5,*5A
[2021-01-29 10:48:22.170] $GNGGA,014820.60,,,,,0,00,99.99,,,,,113.6,*5A
[2021-01-29 10:48:22.263] $GNGGA,014820.70,,,,,0,00,99.99,,,,,113.7,*5A
[2021-01-29 10:48:22.357] $GNGGA,014820.80,,,,,0,00,99.99,,,,,113.8,*5A
[2021-01-29 10:48:22.466] $GNGGA,014820.90,,,,,0,00,99.99,,,,,113.9,*5A
[2021-01-29 10:48:22.560] $GNGGA,014821.00,,,,,0,00,99.99,,,,,114.0,*5C
[2021-01-29 10:48:22.669] $GNGGA,014821.10,,,,,0,00,99.99,,,,,114.1,*5C
[2021-01-29 10:48:22.778] $GNGGA,014821.20,,,,,0,00,99.99,,,,,114.2,*5C
[2021-01-29 10:48:22.919] $GNGGA,014821.30,,,,,0,00,99.99,,,,,114.3,*5C
[2021-01-29 10:48:22.966] $GNGGA,014821.40,,,,,0,00,99.99,,,,,114.4,*5C
[2021-01-29 10:48:23.060] $GNGGA,014821.50,,,,,0,00,99.99,,,,,114.5,*5C
[2021-01-29 10:48:23.169] $GNGGA,014821.60,,,,,0,00,99.99,,,,,114.6,*5C
[2021-01-29 10:48:23.263] $GNGGA,014821.70,,,,,0,00,99.99,,,,,114.7,*5C
[2021-01-29 10:48:23.356] $GNGGA,014821.80,,,,,0,00,99.99,,,,,114.8,*5C
[2021-01-29 10:48:23.466] $GNGGA,014821.90,,,,,0,00,99.99,,,,,114.9,*5C
[2021-01-29 10:48:23.564] $GNGGA,014822.00,,,,,0,00,99.99,,,,,115.0,*5E
[2021-01-29 10:48:23.658] $GNGGA,014822.10,,,,,0,00,99.99,,,,,115.1,*5E
[2021-01-29 10:48:23.767] $GNGGA,014822.20,,,,,0,00,99.99,,,,,115.2,*5E
[2021-01-29 10:48:23.861] $GNGGA,014822.30,,,,,0,00,99.99,,,,,115.3,*5E
[2021-01-29 10:48:23.971] $GNGGA,014822.40,,,,,0,00,99.99,,,,,115.4,*5E
[2021-01-29 10:48:24.064] $GNGGA,014822.50,,,,,0,00,99.99,,,,,115.5,*5E
[2021-01-29 10:48:24.158] $GNGGA,014822.60,,,,,0,00,99.99,,,,,115.6,*5E
[2021-01-29 10:48:24.267] $GNGGA,014822.70,,,,,0,00,99.99,,,,,115.7,*5E
[2021-01-29 10:48:24.361] $GNGGA,014822.80,,,,,0,00,99.99,,,,,115.8,*5E
[2021-01-29 10:48:24.455] $GNGGA,014822.90,,,,,0,00,99.99,,,,,115.9,*5E
[2021-01-29 10:48:24.564] $GNGGA,014823.00,,,,,0,00,99.99,,,,,116.0,*5C
[2021-01-29 10:48:24.658] $GNGGA,014823.10,,,,,0,00,99.99,,,,,116.1,*5C
[2021-01-29 10:48:24.767] $GNGGA,014823.20,,,,,0,00,99.99,,,,,116.2,*5C
[2021-01-29 10:48:24.861] $GNGGA,014823.30,,,,,0,00,99.99,,,,,116.3,*5C
[2021-01-29 10:48:24.970] $GNGGA,014823.40,,,,,0,00,99.99,,,,,116.4,*5C
[2021-01-29 10:48:25.064] $GNGGA,014823.50,,,,,0,00,99.99,,,,,116.5,*5C
[2021-01-29 10:48:25.158] $GNGGA,014823.60,,,,,0,00,99.99,,,,,116.6,*5C
[2021-01-29 10:48:25.268] $GNGGA,014823.70,,,,,0,00,99.99,,,,,116.7,*5C
[2021-01-29 10:48:25.362] $GNGGA,014823.80,,,,,0,00,99.99,,,,,116.8,*5C
[2021-01-29 10:48:25.456] $GNGGA,014823.90,,,,,0,00,99.99,,,,,116.9,*5C
[2021-01-29 10:48:25.565] $GNGGA,014824.00,,,,,0,00,99.99,,,,,117.0,*5A
[2021-01-29 10:48:25.659] $GNGGA,014824.10,,,,,0,00,99.99,,,,,117.1,*5A
[2021-01-29 10:48:25.768] $GNGGA,014824.20,,,,,0,00,99.99,,,,,117.2,*5A
[2021-01-29 10:48:25.862] $GNGGA,014824.30,,,,,0,00,99.99,,,,,117.3,*5A
[2021-01-29 10:48:25.971] $GNGGA,014824.40,,,,,0,00,99.99,,,,,117.4,*5A
[2021-01-29 10:48:26.065] $GNGGA,014824.50,,,,,0,00,99.99,,,,,117.5,*5A
[2021-01-29 10:48:26.159] $GNGGA,014824.60,,,,,0,00,99.99,,,,,117.6,*5A
[2021-01-29 10:48:26.271] $GNGGA,014824.70,,,,,0,00,99.99,,,,,117.7,*5A
[2021-01-29 10:48:26.365] $GNGGA,014824.80,,,,,0,00,99.99,,,,,117.8,*5A
[2021-01-29 10:48:26.459] $GNGGA,014824.90,,,,,0,00,99.99,,,,,117.9,*5A
[2021-01-29 10:48:26.568] $GNGGA,014825.00,,,,,0,00,99.99,,,,,118.0,*54
[2021-01-29 10:48:26.662] $GNGGA,014825.10,,,,,0,00,99.99,,,,,118.1,*54
[2021-01-29 10:48:26.771] $GNGGA,014825.20,,,,,0,00,99.99,,,,,118.2,*54
[2021-01-29 10:48:26.865] $GNGGA,014825.30,,,,,0,00,99.99,,,,,118.3,*54
[2021-01-29 10:48:26.959] $GNGGA,014825.40,,,,,0,00,99.99,,,,,118.4,*54
[2021-01-29 10:48:27.068] $GNGGA,014825.50,,,,,0,00,99.99,,,,,118.5,*54
[2021-01-29 10:48:27.162] $GNGGA,014825.60,,,,,0,00,99.99,,,,,118.6,*54
[2021-01-29 10:48:27.272] $GNGGA,014825.70,,,,,0,00,99.99,,,,,118.7,*54
[2021-01-29 10:48:27.365] $GNGGA,014825.80,,,,,0,00,99.99,,,,,118.8,*54
[2021-01-29 10:48:27.459] $GNGGA,014825.90,,,,,0,00,99.99,,,,,118.9,*54
[2021-01-29 10:48:27.568] $GNGGA,014826.00,,,,,0,00,99.99,,,,,119.0,*56
[2021-01-29 10:48:27.662] $GNGGA,014826.10,,,,,0,00,99.99,,,,,119.1,*56
[2021-01-29 10:48:27.772] $GNGGA,014826.20,,,,,0,00,99.99,,,,,119.2,*56
[2021-01-29 10:48:27.865] $GNGGA,014826.30,,,,,0,00,99.99,,,,,119.3,*56
[2021-01-29 10:48:27.959] $GNGGA,014826.40,,,,,0,00,99.99,,,,,119.4,*56
[2021-01-29 10:48:28.068] $GNGGA,014826.50,,,,,0,00,99.99,,,,,119.5,*56
[2021-01-29 10:48:28.162] $GNGGA,014826.60,,,,,0,00,99.99,,,,,119.6,*56
[2021-01-29 10:48:28.266] $GNGGA,014826.70,,,,,0,00,99.99,,,,,119.7,*56
[2021-01-29 10:48:28.367] $GNGGA,014826.80,,,,,0,00,99.99,,,,,119.8,*56
[2021-01-29 10:48:28.460] $GNGGA,014826.90,,,,,0,00,99.99,,,,,119.9,*56
[2021-01-29 10:48:28.570] $GNGGA,014827.00,,,,,0,00,99.99,,,,,120.0,*5D
[2021-01-29 10:48:28.664] $GNGGA,014827.10,,,,,0,00,99.99,,,,,120.1,*5D
[2021-01-29 10:48:28.757] $GNGGA,014827.20,,,,,0,00,99.99,,,,,120.2,*5D
[2021-01-29 10:48:28.867] $GNGGA,014827.30,,,,,0,00,99.99,,,,,120.3,*5D
[2021-01-29 10:48:28.960] $GNGGA,014827.40,,,,,0,00,99.99,,,,,120.4,*5D
[2021-01-29 10:48:29.070] $GNGGA,014827.50,,,,,0,00,99.99,,,,,120.5,*5D
[2021-01-29 10:48:29.163] $GNGGA,014827.60,,,,,0,00,99.99,,,,,120.6,*5D
[2021-01-29 10:48:29.267] $GNGGA,014827.70,,,,,0,00,99.99,,,,,120.7,*5D
[2021-01-29 10:48:29.368] $GNGGA,014827.80,,,,,0,00,99.99,,,,,120.8,*5D
[2021-01-29 10:48:29.462] $GNGGA,014827.90,,,,,0,00,99.99,,,,,120.9,*5D
[2021-01-29 10:48:29.571] $GNGGA,014828.00,,,,,0,00,99.99,,,,,121.0,*53
[2021-01-29 10:48:29.665] $GNGGA,014828.10,,,,,0,00,99.99,,,,,121.1,*53
[2021-01-29 10:48:29.759] $GNGGA,014828.20,,,,,0,00,99.99,,,,,121.2,*53
[2021-01-29 10:48:29.868] $GNGGA,014828.30,,,,,0,00,99.99,,,,,121.3,*53
[2021-01-29 10:48:29.962] $GNGGA,014828.40,,,,,0,00,99.99,,,,,121.4,*53
[2021-01-29 10:48:30.071] $GNGGA,014828.50,,,,,0,00,99.99,,,,,121.5,*53
[2021-01-29 10:48:30.165] $GNGGA,014828.60,,,,,0,00,99.99,,,,,121.6,*53
[2021-01-29 10:48:30.267] $GNGGA,014828.70,,,,,0,00,99.99,,,,,121.7,*53
[2021-01-29 10:48:30.370] $GNGGA,014828.80,,,,,0,00,99.99,,,,,121.8,*53
[2021-01-29 10:48:30.464] $GNGGA,014828.90,,,,,0,00,99.99,,,,,121.9,*53
[2021-01-29 10:48:30.557] $GNGGA,014829.00,,,,,0,00,99.99,,,,,122.0,*51
[2021-01-29 10:48:30.667] $GNGGA,014829.10,,,,,0,00,99.99,,,,,122.1,*51
[2021-01-29 10:48:30.761] $GNGGA,014829.20,,,,,0,00,99.99,,,,,122.2,*51
[2021-01-29 10:48:30.870] $GNGGA,014829.30,,,,,0,00,99.99,,,,,122.3,*51
[2021-01-29 10:48:30.964] $GNGGA,014829.40,,,,,0,00,99.99,,,,,122.4,*51
[2021-01-29 10:48:31.057] $GNGGA,014829.50,,,,,0,00,99.99,,,,,122.5,*51
[2021-01-29 10:48:31.167] $GNGGA,014829.60,,,,,0,00,99.99,,,,,122.6,*51
[2021-01-29 10:48:31.270] $GNGGA,014829.70,,,,,0,00,99.99,,,,,122.7,*51
[2021-01-29 10:48:31.356] $GNGGA,014829.80,,,,,0,00,99.99,,,,,122.8,*51
[2021-01-29 10:48:31.465] $GNGGA,014829.90,,,,,0,00,99.99,,,,,122.9,*51
[2021-01-29 10:48:31.559] $GNGGA,014830.00,,,,,0,00,99.99,,,,,123.0,*58
[2021-01-29 10:48:31.668] $GNGGA,014830.10,,,,,0,00,99.99,,,,,123.1,*58
[2021-01-29 10:48:31.762] $GNGGA,014830.20,,,,,0,00,99.99,,,,,123.2,*58
[2021-01-29 10:48:31.871] $GNGGA,014830.30,,,,,0,00,99.99,,,,,123.3,*58
[2021-01-29 10:48:31.965] $GNGGA,014830.40,,,,,0,00,99.99,,,,,123.4,*58
[2021-01-29 10:48:32.059] $GNGGA,014830.50,,,,,0,00,99.99,,,,,123.5,*58
[2021-01-29 10:48:32.168] $GNGGA,014830.60,,,,,0,00,99.99,,,,,123.6,*58
[2021-01-29 10:48:32.262] $GNGGA,014830.70,,,,,0,00,99.99,,,,,123.7,*58
[2021-01-29 10:48:32.356] $GNGGA,014830.80,,,,,0,00,99.99,,,,,123.8,*58
[2021-01-29 10:48:32.465] $GNGGA,014830.90,,,,,0,00,99.99,,,,,123.9,*58
[2021-01-29 10:48:32.559] $GNGGA,014831.00,,,,,0,00,99.99,,,,,124.0,*5E
[2021-01-29 10:48:32.668] $GNGGA,014831.10,,,,,0,00,99.99,,,,,124.1,*5E
[2021-01-29 10:48:32.762] $GNGGA,014831.20,,,,,0,00,99.99,,,,,124.2,*5E
[2021-01-29 10:48:32.856] $GNGGA,014831.30,,,,,0,00,99.99,,,,,124.3,*5E
[2021-01-29 10:48:32.965] $GNGGA,014831.40,,,,,0,00,99.99,,,,,124.4,*5E
[2021-01-29 10:48:33.059] $GNGGA,014831.50,,,,,0,00,99.99,,,,,124.5,*5E
[2021-01-29 10:48:33.168] $GNGGA,014831.60,,,,,0,00,99.99,,,,,124.6,*5E
[2021-01-29 10:48:33.264] $GNGGA,014831.70,,,,,0,00,99.99,,,,,124.7,*5E
[2021-01-29 10:48:33.358] $GNGGA,014831.80,,,,,0,00,99.99,,,,,124.8,*5E
[2021-01-29 10:48:33.467] $GNGGA,014831.90,,,,,0,00,99.99,,,,,124.9,*5E
[2021-01-29 10:48:33.561] $GNGGA,014832.00,,,,,0,00,99.99,,,,,125.0,*5C
[2021-01-29 10:48:33.670] $GNGGA,014832.10,,,,,0,00,99.99,,,,,125.1,*5C
[2021-01-29 10:48:33.764] $GNGGA,014832.20,,,,,0,00,99.99,,,,,125.2,*5C
[2021-01-29 10:48:33.858] $GNGGA,014832.30,,,,,0,00,99.99,,,,,125.3,*5C
[2021-01-29 10:48:33.967] $GNGGA,014832.40,,,,,0,00,99.99,,,,,125.4,*5C
[2021-01-29 10:48:34.061] $GNGGA,014832.50,,,,,0,00,99.99,,,,,125.5,*5C
[2021-01-29 10:48:34.170] $GNGGA,014832.60,,,,,0,00,99.99,,,,,125.6,*5C
[2021-01-29 10:48:34.266] $GNGGA,014832.70,,,,,0,00,99.99,,,,,125.7,*5C
[2021-01-29 10:48:34.360] $GNGGA,014832.80,,,,,0,00,99.99,,,,,125.8,*5C
[2021-01-29 10:48:34.469] $GNGGA,014832.90,,,,,0,00,99.99,,,,,125.9,*5C
[2021-01-29 10:48:34.563] $GNGGA,014833.00,,,,,0,00,99.99,,,,,126.0,*5E
[2021-01-29 10:48:34.656] $GNGGA,014833.10,,,,,0,00,99.99,,,,,126.1,*5E
[2021-01-29 10:48:34.766] $GNGGA,014833.20,,,,,0,00,99.99,,,,,126.2,*5E
[2021-01-29 10:48:34.860] $GNGGA,014833.30,,,,,0,00,99.99,,,,,126.3,*5E
[2021-01-29 10:48:34.969] $GNGGA,014833.40,,,,,0,00,99.99,,,,,126.4,*5E
[2021-01-29 10:48:35.063] $GNGGA,014833.50,,,,,0,00,99.99,,,,,126.5,*5E
[2021-01-29 10:48:35.156] $GNGGA,014833.60,,,,,0,00,99.99,,,,,126.6,*5E
[2021-01-29 10:48:35.267] $GNGGA,014833.70,,,,,0,00,99.99,,,,,126.7,*5E
[2021-01-29 10:48:35.361] $GNGGA,014833.80,,,,,0,00,99.99,,,,,126.8,*5E
[2021-01-29 10:48:35.470] $GNGGA,014833.90,,,,,0,00,99.99,,,,,126.9,*5E
[2021-01-29 10:48:35.564] $GNGGA,014834.00,,,,,0,00,99.99,,,,,127.0,*58
[2021-01-29 10:48:35.658] $GNGGA,014834.10,,,,,0,00,99.99,,,,,127.1,*58
[2021-01-29 10:48:35.767] $GNGGA,014834.20,,,,,0,00,99.99,,,,,127.2,*58
[2021-01-29 10:48:35.861] $GNGGA,014834.30,,,,,0,00,99.99,,,,,127.3,*58
[2021-01-29 10:48:35.970] $GNGGA,014834.40,,,,,0,00,99.99,,,,,127.4,*58
[2021-01-29 10:48:36.064] $GNGGA,014834.50,,,,,0,00,99.99,,,,,127.5,*58
[2021-01-29 10:48:36.158] $GNGGA,014834.60,,,,,0,00,99.99,,,,,127.6,*58
[2021-01-29 10:48:36.269] $GNGGA,014834.70,,,,,0,00,99.99,,,,,127.7,*58
[2021-01-29 10:48:36.363] $GNGGA,014834.80,,,,,0,00,99.99,,,,,127.8,*58
[2021-01-29 10:48:36.457] $GNGGA,014834.90,,,,,0,00,99.99,,,,,127.9,*58
[2021-01-29 10:48:36.566] $GNGGA,014835.00,,,,,0,00,99.99,,,,,128.0,*56
[2021-01-29 10:48:36.660] $GNGGA,014835.10,,,,,0,00,99.99,,,,,128.1,*56
[2021-01-29 10:48:36.769] $GNGGA,014835.20,,,,,0,00,99.99,,,,,128.2,*56
[2021-01-29 10:48:36.863] $GNGGA,014835.30,,,,,0,00,99.99,,,,,128.3,*56
[2021-01-29 10:48:36.957] $GNGGA,014835.40,,,,,0,00,99.99,,,,,128.4,*56
[2021-01-29 10:48:37.066] $GNGGA,014835.50,,,,,0,00,99.99,,,,,128.5,*56
[2021-01-29 10:48:37.160] $GNGGA,014835.60,,,,,0,00,99.99,,,,,128.6,*56
[2021-01-29 10:48:37.271] $GNGGA,014835.70,,,,,0,00,99.99,,,,,128.7,*56
[2021-01-29 10:48:37.364] $GNGGA,014835.80,,,,,0,00,99.99,,,,,128.8,*56
[2021-01-29 10:48:37.458] $GNGGA,014835.90,,,,,0,00,99.99,,,,,128.9,*56
[2021-01-29 10:48:37.567] $GNGGA,014836.00,,,,,0,00,99.99,,,,,129.0,*54
[2021-01-29 10:48:37.661] $GNGGA,014836.10,,,,,0,00,99.99,,,,,129.1,*54
[2021-01-29 10:48:37.771] $GNGGA,014836.20,,,,,0,00,99.99,,,,,129.2,*54
[2021-01-29 10:48:37.864] $GNGGA,014836.30,,,,,0,00,99.99,,,,,129.3,*54
[2021-01-29 10:48:37.958] $GNGGA,014836.40,,,,,0,00,99.99,,,,,129.4,*54
[2021-01-29 10:48:38.067] $GNGGA,014836.50,,,,,0,00,99.99,,,,,129.5,*54
[2021-01-29 10:48:38.161] $GNGGA,014836.60,,,,,0,00,99.99,,,,,129.6,*54
[2021-01-29 10:48:38.274] $GNGGA,014836.70,,,,,0,00,99.99,,,,,129.7,*54
[2021-01-29 10:48:38.367] $GNGGA,014836.80,,,,,0,00,99.99,,,,,129.8,*54
[2021-01-29 10:48:38.461] $GNGGA,014836.90,,,,,0,00,99.99,,,,,129.9,*54
[2021-01-29 10:48:38.570] $GNGGA,014837.00,,,,,0,00,99.99,,,,,130.0,*5D
[2021-01-29 10:48:38.664] $GNGGA,014837.10,,,,,0,00,99.99,,,,,130.1,*5D
[2021-01-29 10:48:38.758] $GNGGA,014837.20,,,,,0,00,99.99,,,,,130.2,*5D
[2021-01-29 10:48:38.867] $GNGGA,014837.30,,,,,0,00,99.99,,,,,130.3,*5D
[2021-01-29 10:48:38.961] $GNGGA,014837.40,,,,,0,00,99.99,,,,,130.4,*5D
[2021-01-29 10:48:39.070] $GNGGA,014837.50,,,,,0,00,99.99,,,,,130.5,*5D
[2021-01-29 10:48:39.164] $GNGGA,014837.60,,,,,0,00,99.99,,,,,130.6,*5D
[2021-01-29 10:48:39.265] $GNGGA,014837.70,,,,,0,00,99.99,,,,,130.7,*5D
[2021-01-29 10:48:39.368] $GNGGA,014837.80,,,,,0,00,99.99,,,,,130.8,*5D
[2021-01-29 10:48:39.462] $GNGGA,014837.90,,,,,0,00,99.99,,,,,130.9,*5D
[2021-01-29 10:48:39.571] $GNGGA,014838.00,,,,,0,00,99.99,,,,,131.0,*53
[2021-01-29 10:48:39.665] $GNGGA,014838.10,,,,,0,00,99.99,,,,,131.1,*53
[2021-01-29 10:48:39.758] $GNGGA,014838.20,,,,,0,00,99.99,,,,,131.2,*53
[2021-01-29 10:48:39.868] $GNGGA,014838.30,,,,,0,00,99.99,,,,,131.3,*53
[2021-01-29 10:48:39.962] $GNGGA,014838.40,,,,,0,00,99.99,,,,,131.4,*53
[2021-01-29 10:48:40.071] $GNGGA,014838.50,,,,,0,00,99.99,,,,,131.5,*53
[2021-01-29 10:48:40.165] $GNGGA,014838.60,,,,,0,00,99.99,,,,,131.6,*53
[2021-01-29 10:48:40.268] $GNGGA,014838.70,,,,,0,00,99.99,,,,,131.7,*53
[2021-01-29 10:48:40.369] $GNGGA,014838.80,,,,,0,00,99.99,,,,,131.8,*53
[2021-01-29 10:48:40.463] $GNGGA,014838.90,,,,,0,00,99.99,,,,,131.9,*53
[2021-01-29 10:48:40.572] $GNGGA,014839.00,,,,,0,00,99.99,,,,,132.0,*51
[2021-01-29 10:48:40.666] $GNGGA,014839.10,,,,,0,00,99.99,,,,,132.1,*51
[2021-01-29 10:48:40.760] $GNGGA,014839.20,,,,,0,00,99.99,,,,,132.2,*51
[2021-01-29 10:48:40.869] $GNGGA,014839.30,,,,,0,00,99.99,,,,,132.3,*51
[2021-01-29 10:48:40.963] $GNGGA,014839.40,,,,,0,00,99.99,,,,,132.4,*51
[2021-01-29 10:48:41.072] $GNGGA,014839.50,,,,,0,00,99.99,,,,,132.5,*51
[2021-01-29 10:48:41.166] $GNGGA,014839.60,,,,,0,00,99.99,,,,,132.6,*51
[2021-01-29 10:48:41.268] $GNGGA,014839.70,,,,,0,00,99.99,,,,,132.7,*51
[2021-01-29 10:48:41.372] $GNGGA,014839.80,,,,,0,00,99.99,,,,,132.8,*51
[2021-01-29 10:48:41.465] $GNGGA,014839.90,,,,,0,00,99.99,,,,,132.9,*51
[2021-01-29 10:48:41.559] $GNGGA,014840.00,,,,,0,00,99.99,,,,,133.0,*5E
[2021-01-29 10:48:41.668] $GNGGA,014840.10,,,,,0,00,99.99,,,,,133.1,*5E
[2021-01-29 10:48:41.762] $GNGGA,014840.20,,,,,0,00,99.99,,,,,133.2,*5E
[2021-01-29 10:48:41.872] $GNGGA,014840.30,,,,,0,00,99.99,,,,,133.3,*5E
[2021-01-29 10:48:41.965] $GNGGA,014840.40,,,,,0,00,99.99,,,,,133.4,*5E
[2021-01-29 10:48:42.059] $GNGGA,014840.50,,,,,0,00,99.99,,,,,133.5,*5E
[2021-01-29 10:48:42.168] $GNGGA,014840.60,,,,,0,00,99.99,,,,,133.6,*5E
[2021-01-29 10:48:42.262] $GNGGA,014840.70,,,,,0,00,99.99,,,,,133.7,*5E
[2021-01-29 10:48:42.371] $GNGGA,014840.80,,,,,0,00,99.99,,,,,133.8,*5E
[2021-01-29 10:48:42.465] $GNGGA,014840.90,,,,,0,00,99.99,,,,,133.9,*5E
[2021-01-29 10:48:42.559] $GNGGA,014841.00,,,,,0,00,99.99,,,,,134.0,*58
[2021-01-29 10:48:42.668] $GNGGA,014841.10,,,,,0,00,99.99,,,,,134.1,*58
[2021-01-29 10:48:42.762] $GNGGA,014841.20,,,,,0,00,99.99,,,,,134.2,*58
[2021-01-29 10:48:42.871] $GNGGA,014841.30,,,,,0,00,99.99,,,,,134.3,*58
[2021-01-29 10:48:42.965] $GNGGA,014841.40,,,,,0,00,99.99,,,,,134.4,*58
[2021-01-29 10:48:43.059] $GNGGA,014841.50,,,,,0,00,99.99,,,,,134.5,*58
[2021-01-29 10:48:43.168] $GNGGA,014841.60,,,,,0,00,99.99,,,,,134.6,*58
[2021-01-29 10:48:43.263] $GNGGA,014841.70,,,,,0,00,99.99,,,,,134.7,*58
[2021-01-29 10:48:43.373] $GNGGA,014841.80,,,,,0,00,99.99,,,,,134.8,*58
[2021-01-29 10:48:43.466] $GNGGA,014841.90,,,,,0,00,99.99,,,,,134.9,*58
[2021-01-29 10:48:43.560] $GNGGA,014842.00,,,,,0,00,99.99,,,,,135.0,*5A
[2021-01-29 10:48:43.670] $GNGGA,014842.10,,,,,0,00,99.99,,,,,135.1,*5A
[2021-01-29 10:48:43.763] $GNGGA,014842.20,,,,,0,00,99.99,,,,,135.2,*5A
[2021-01-29 10:48:43.873] $GNGGA,014842.30,,,,,0,00,99.99,,,,,135.3,*5A
[2021-01-29 10:48:43.967] $GNGGA,014842.40,,,,,0,00,99.99,,,,,135.4,*5A
[2021-01-29 10:48:44.060] $GNGGA,014842.50,,,,,0,00,99.99,,,,,135.5,*5A
[2021-01-29 10:48:44.170] $GNGGA,014842.60,,,,,0,00,99.99,,,,,135.6,*5A
[2021-01-29 10:48:44.265] $GNGGA,014842.70,,,,,0,00,99.99,,,,,135.7,*5A
[2021-01-29 10:48:44.359] $GNGGA,014842.80,,,,,0,00,99.99,,,,,135.8,*5A
[2021-01-29 10:48:44.468] $GNGGA,014842.90,,,,,0,00,99.99,,,,,135.9,*5A
[2021-01-29 10:48:44.562] $GNGGA,014843.00,,,,,0,00,99.99,,,,,136.0,*58
[2021-01-29 10:48:44.671] $GNGGA,014843.10,,,,,0,00,99.99,,,,,136.1,*58
[2021-01-29 10:48:44.765] $GNGGA,014843.20,,,,,0,00,99.99,,,,,136.2,*58
[2021-01-29 10:48:44.859] $GNGGA,014843.30,,,,,0,00,99.99,,,,,136.3,*58
[2021-01-29 10:48:44.968] $GNGGA,014843.40,4327.758652000,N,14148.313398000,E,5,00,99.90,116.537,M,31.868,M,136.4,1010*5E
[2021-01-29 10:48:45.062] $GNGGA,014843.50,4327.758650702,N,14148.313406234,E,5,00,99.90,116.545,M,31.868,M,136.5,1010*59
[2021-01-29 10:48:45.171] $GNGGA,014843.60,4327.758533326,N,14148.313425468,E,5,00,99.90,115.878,M,31.868,M,136.6,1010*53
[2021-01-29 10:48:45.267] $GNGGA,014843.70,4327.758475749,N,14148.313435869,E,5,00,99.90,115.490,M,31.868,M,136.7,1010*5B
[2021-01-29 10:48:45.361] $GNGGA,014843.80,4327.758475708,N,14148.313430333,E,5,00,99.90,115.498,M,31.868,M,136.8,1010*57
[2021-01-29 10:48:45.470] $GNGGA,014843.90,4327.758476919,N,14148.313426809,E,5,00,99.90,115.490,M,31.868,M,136.9,1010*57
[2021-01-29 10:48:45.564] $GNGGA,014844.00,4327.758477090,N,14148.313426642,E,5,00,99.90,115.488,M,31.868,M,137.0,1010*50
[2021-01-29 10:48:45.658] $GNGGA,014844.10,4327.758479198,N,14148.313426232,E,5,00,99.90,115.491,M,31.868,M,137.1,1010*5C
[2021-01-29 10:48:45.767] $GNGGA,014844.20,4327.758479516,N,14148.313426149,E,5,00,99.90,115.485,M,31.868,M,137.2,1010*54
[2021-01-29 10:48:45.861] $GNGGA,014844.30,4327.758480009,N,14148.313425931,E,5,00,99.90,115.483,M,31.868,M,137.3,1010*5B
[2021-01-29 10:48:45.970] $GNGGA,014844.40,4327.758480878,N,14148.313426208,E,5,00,99.90,115.484,M,31.868,M,137.4,1010*50
[2021-01-29 10:48:46.064] $GNGGA,014844.50,4327.758481234,N,14148.313426140,E,5,00,99.90,115.479,M,31.868,M,137.5,1010*5E
[2021-01-29 10:48:46.157] $GNGGA,014844.60,4327.758482063,N,14148.313425439,E,5,00,99.90,115.477,M,31.868,M,137.6,1010*5B
[2021-01-29 10:48:46.268] $GNGGA,014844.70,4327.758482669,N,14148.313424556,E,5,00,99.90,115.484,M,31.868,M,137.7,1010*52
[2021-01-29 10:48:46.362] $GNGGA,014844.80,4327.758483271,N,14148.313423876,E,5,00,99.90,115.482,M,31.868,M,137.8,1010*50
[2021-01-29 10:48:46.471] $GNGGA,014844.90,4327.758482499,N,14148.313424193,E,5,00,99.90,115.484,M,31.868,M,137.9,1010*52
[2021-01-29 10:48:46.565] $GNGGA,014845.00,4327.758483868,N,14148.313424511,E,5,00,99.90,115.479,M,31.868,M,138.0,1010*53
[2021-01-29 10:48:46.659] $GNGGA,014845.10,4327.758484207,N,14148.313425178,E,5,00,99.90,115.476,M,31.868,M,138.1,1010*52
[2021-01-29 10:48:46.768] $GNGGA,014845.20,4327.758468705,N,14148.313401897,E,5,00,99.90,115.784,M,31.868,M,138.2,1010*57
[2021-01-29 10:48:46.862] $GNGGA,014845.30,4327.758364723,N,14148.313682158,E,5,00,99.90,116.406,M,31.868,M,138.3,1010*51
[2021-01-29 10:48:46.971] $GNGGA,014845.40,4327.758313906,N,14148.313700836,E,5,00,99.90,116.628,M,31.868,M,138.4,1010*5C
[2021-01-29 10:48:47.065] $GNGGA,014845.50,4327.758329235,N,14148.313661385,E,5,00,99.90,116.539,M,31.868,M,138.5,1010*58
[2021-01-29 10:48:47.159] $GNGGA,014845.60,4327.758335367,N,14148.313644823,E,5,00,99.90,116.501,M,31.868,M,138.6,1010*58
[2021-01-29 10:48:47.270] $GNGGA,014845.70,4327.758334997,N,14148.313643774,E,5,00,99.90,116.506,M,31.868,M,138.7,1010*51
[2021-01-29 10:48:47.364] $GNGGA,014845.80,4327.758334103,N,14148.313645025,E,5,00,99.90,116.509,M,31.868,M,138.8,1010*5E
[2021-01-29 10:48:47.458] $GNGGA,014845.90,4327.758335135,N,14148.313645085,E,5,00,99.90,116.502,M,31.868,M,138.9,1010*5B
[2021-01-29 10:48:47.567] $GNGGA,014846.00,4327.758335224,N,14148.313646419,E,5,00,99.90,116.503,M,31.868,M,139.0,1010*59
[2021-01-29 10:48:47.661] $GNGGA,014846.10,4327.758334793,N,14148.313645145,E,5,00,99.90,116.504,M,31.868,M,139.1,1010*59
[2021-01-29 10:48:47.770] $GNGGA,014846.20,4327.758335920,N,14148.313644918,E,5,00,99.90,116.501,M,31.868,M,139.2,1010*5A
[2021-01-29 10:48:47.864] $GNGGA,014846.30,4327.758335763,N,14148.313644544,E,5,00,99.90,116.506,M,31.868,M,139.3,1010*51
[2021-01-29 10:48:47.958] $GNGGA,014846.40,4327.758337320,N,14148.313644403,E,5,00,99.90,116.496,M,31.868,M,139.4,1010*5A
[2021-01-29 10:48:48.067] $GNGGA,014846.50,4327.758335735,N,14148.313645297,E,5,00,99.90,116.498,M,31.868,M,139.5,1010*5C
[2021-01-29 10:48:48.161] $GNGGA,014846.60,4327.758335146,N,14148.313646521,E,5,00,99.90,116.496,M,31.868,M,139.6,1010*59
[2021-01-29 10:48:48.272] $GNGGA,014846.70,4327.758335171,N,14148.313645586,E,5,00,99.90,116.499,M,31.868,M,139.7,1010*5C
[2021-01-29 10:48:48.366] $GNGGA,014846.80,4327.758336084,N,14148.313643901,E,5,00,99.90,116.494,M,31.868,M,139.8,1010*5C
[2021-01-29 10:48:48.460] $GNGGA,014846.90,4327.758312521,N,14148.313525961,E,5,00,99.90,117.236,M,31.868,M,139.9,1010*5A
[2021-01-29 10:48:48.569] $GNGGA,014847.00,4327.758306857,N,14148.313501172,E,5,00,99.90,117.374,M,31.868,M,140.0,1010*57
[2021-01-29 10:48:48.663] $GNGGA,014847.10,4327.758309563,N,14148.313514396,E,5,00,99.90,117.302,M,31.868,M,140.1,1010*5F
[2021-01-29 10:48:48.756] $GNGGA,014847.20,4327.758309681,N,14148.313517717,E,5,00,99.90,117.269,M,31.868,M,140.2,1010*52
[2021-01-29 10:48:48.866] $GNGGA,014847.30,4327.758545441,N,14148.313845569,E,5,02,99.90,116.881,M,31.868,M,140.3,1010*5C
[2021-01-29 10:48:48.960] $GNGGA,014847.40,4327.758572020,N,14148.313794051,E,5,03,99.90,116.890,M,31.868,M,140.4,1010*57
[2021-01-29 10:48:49.069] $GNGGA,014847.50,4327.758609390,N,14148.313593404,E,5,03,99.90,116.882,M,31.868,M,140.5,1010*52
[2021-01-29 10:48:49.163] $GNGGA,014847.60,4327.758624094,N,14148.313600112,E,5,03,99.90,116.828,M,31.868,M,140.6,1010*51
[2021-01-29 10:48:49.272] $GNGGA,014847.70,4327.758644645,N,14148.313609185,E,5,03,99.90,116.764,M,31.868,M,140.7,1010*5D
[2021-01-29 10:48:49.367] $GNGGA,014847.80,4327.758569990,N,14148.313587610,E,5,03,99.90,116.810,M,31.868,M,140.8,1010*54
[2021-01-29 10:48:49.461] $GNGGA,014847.90,4327.758536723,N,14148.313714497,E,5,03,99.90,116.826,M,31.868,M,140.9,1010*58
[2021-01-29 10:48:49.570] $GNGGA,014848.00,4327.758505240,N,14148.313684562,E,5,03,99.90,116.839,M,31.868,M,141.0,1010*5B
[2021-01-29 10:48:49.664] $GNGGA,014848.10,4327.758471586,N,14148.313877532,E,5,03,99.90,116.899,M,31.868,M,141.1,1010*59
[2021-01-29 10:48:49.757] $GNGGA,014848.20,4327.758478306,N,14148.314007511,E,5,03,99.90,116.906,M,31.868,M,141.2,1010*50
[2021-01-29 10:48:49.867] $GNGGA,014848.30,4327.758465537,N,14148.313999121,E,5,03,99.90,116.915,M,31.868,M,141.3,1010*54
[2021-01-29 10:48:49.961] $GNGGA,014848.40,4327.758452767,N,14148.313992578,E,5,03,99.90,116.919,M,31.868,M,141.4,1010*58
[2021-01-29 10:48:50.070] $GNGGA,014848.50,4327.758476798,N,14148.313979210,E,5,03,99.90,116.885,M,31.868,M,141.5,1010*56
[2021-01-29 10:48:50.164] $GNGGA,014848.60,4327.758487446,N,14148.313983668,E,5,03,99.90,116.864,M,31.868,M,141.6,1010*59
[2021-01-29 10:48:50.266] $GNGGA,014848.70,4327.758462730,N,14148.313846714,E,5,03,99.90,116.845,M,31.868,M,141.7,1010*51
[2021-01-29 10:48:50.369] $GNGGA,014848.80,4327.758475547,N,14148.313853504,E,5,03,99.90,116.816,M,31.868,M,141.8,1010*54
[2021-01-29 10:48:50.463] $GNGGA,014848.90,4327.758493081,N,14148.313789639,E,5,03,99.90,116.765,M,31.868,M,141.9,1010*5D
[2021-01-29 10:48:50.572] $GNGGA,014849.00,4327.758540388,N,14148.313814191,E,5,03,99.90,116.703,M,31.868,M,142.0,1010*54
[2021-01-29 10:48:50.666] $GNGGA,014849.10,4327.758567604,N,14148.313825426,E,5,03,99.90,116.656,M,31.868,M,142.1,1010*5A
[2021-01-29 10:48:50.759] $GNGGA,014849.20,4327.758595870,N,14148.313839762,E,5,03,99.90,116.617,M,31.868,M,142.2,1010*51
[2021-01-29 10:48:50.869] $GNGGA,014849.30,4327.758597982,N,14148.313840242,E,5,03,99.90,116.598,M,31.868,M,142.3,1010*52
[2021-01-29 10:48:50.963] $GNGGA,014849.40,4327.758609927,N,14148.313847102,E,5,03,99.90,116.577,M,31.868,M,142.4,1010*58
[2021-01-29 10:48:51.072] $GNGGA,014849.50,4327.758602385,N,14148.313844314,E,5,03,99.90,116.568,M,31.868,M,142.5,1010*59
[2021-01-29 10:48:51.166] $GNGGA,014849.60,4327.758607226,N,14148.313845830,E,5,03,99.90,116.547,M,31.868,M,142.6,1010*55
[2021-01-29 10:48:51.268] $GNGGA,014849.70,4327.758612408,N,14148.313848228,E,5,03,99.90,116.526,M,31.868,M,142.7,1010*52
[2021-01-29 10:48:51.370] $GNGGA,014849.80,4327.758616775,N,14148.313851089,E,5,03,99.90,116.497,M,31.868,M,142.8,1010*55
[2021-01-29 10:48:51.464] $GNGGA,014849.90,4327.758620852,N,14148.313853606,E,5,03,99.90,116.475,M,31.868,M,142.9,1010*55
[2021-01-29 10:48:51.558] $GNGGA,014850.00,4327.758609065,N,14148.313821505,E,5,03,99.90,116.465,M,31.868,M,143.0,1010*5F
[2021-01-29 10:48:51.667] $GNGGA,014850.10,4327.758601060,N,14148.313800082,E,5,03,99.90,116.457,M,31.868,M,143.1,1010*5A
[2021-01-29 10:48:51.761] $GNGGA,014850.20,4327.758589775,N,14148.313761906,E,5,03,99.90,116.439,M,31.868,M,143.2,1010*5F
[2021-01-29 10:48:51.870] $GNGGA,014850.30,4327.758574458,N,14148.313686240,E,5,03,99.90,116.403,M,31.868,M,143.3,1010*59
[2021-01-29 10:48:51.964] $GNGGA,014850.40,4327.758569122,N,14148.313670527,E,5,03,99.90,116.366,M,31.868,M,143.4,1010*56
[2021-01-29 10:48:52.058] $GNGGA,014850.50,4327.758560496,N,14148.313630605,E,5,03,99.90,116.349,M,31.868,M,143.5,1010*5F
[2021-01-29 10:48:52.167] $GNGGA,014850.60,4327.758547157,N,14148.313593360,E,5,03,99.90,116.346,M,31.868,M,143.6,1010*51
[2021-01-29 10:48:52.269] $GNGGA,014850.70,4327.758537605,N,14148.313560184,E,5,03,99.90,116.342,M,31.868,M,143.7,1010*56
[2021-01-29 10:48:52.372] $GNGGA,014850.80,4327.758526824,N,14148.313528878,E,5,06,1.66,116.342,M,31.868,M,143.8,1010*60
[2021-01-29 10:48:52.465] $GNGGA,014850.90,4327.758522156,N,14148.313500566,E,5,09,1.12,116.330,M,31.868,M,143.9,1010*69
[2021-01-29 10:48:52.559] $GNGGA,014851.00,4327.758512532,N,14148.313472853,E,5,09,1.12,116.335,M,31.868,M,144.0,1010*60
[2021-01-29 10:48:52.668] $GNGGA,014851.10,4327.758503681,N,14148.313449284,E,5,09,1.12,116.332,M,31.868,M,144.1,1010*64
[2021-01-29 10:48:52.762] $GNGGA,014851.20,4327.758496559,N,14148.313429495,E,5,09,1.12,116.328,M,31.868,M,144.2,1010*64
[2021-01-29 10:48:52.872] $GNGGA,014851.30,4327.758491282,N,14148.313410471,E,5,09,1.12,116.325,M,31.868,M,144.3,1010*6F
[2021-01-29 10:48:52.965] $GNGGA,014851.40,4327.758490265,N,14148.313410086,E,5,09,1.12,116.319,M,31.868,M,144.4,1010*64
[2021-01-29 10:48:53.059] $GNGGA,014851.50,4327.758483940,N,14148.313406316,E,5,09,1.12,116.325,M,31.868,M,144.5,1010*68
[2021-01-29 10:48:53.168] $GNGGA,014851.60,4327.758483751,N,14148.313406206,E,5,09,1.12,116.320,M,31.868,M,144.6,1010*63
[2021-01-29 10:48:53.263] $GNGGA,014851.70,4327.758477984,N,14148.313402793,E,5,09,1.12,116.322,M,31.868,M,144.7,1010*61
[2021-01-29 10:48:53.372] $GNGGA,014851.80,4327.758476301,N,14148.313402469,E,5,09,1.12,116.325,M,31.868,M,144.8,1010*66
[2021-01-29 10:48:53.466] $GNGGA,014851.90,4327.758471634,N,14148.313399647,E,5,09,1.12,116.331,M,31.868,M,144.9,1010*6C
[2021-01-29 10:48:53.560] $GNGGA,014852.00,4327.758469552,N,14148.313397369,E,5,09,1.12,116.326,M,31.868,M,145.0,1010*65
[2021-01-29 10:48:53.669] $GNGGA,014852.10,4327.758462833,N,14148.313395477,E,5,09,1.12,116.336,M,31.868,M,145.1,1010*6F
[2021-01-29 10:48:53.763] $GNGGA,014852.20,4327.758454655,N,14148.313388800,E,5,09,1.12,116.342,M,31.868,M,145.2,1010*67
[2021-01-29 10:48:53.872] $GNGGA,014852.30,4327.758451629,N,14148.313387962,E,5,09,1.12,116.340,M,31.868,M,145.3,1010*61
[2021-01-29 10:48:53.966] $GNGGA,014852.40,4327.758446652,N,14148.313385227,E,5,09,1.12,116.342,M,31.868,M,145.4,1010*61
[2021-01-29 10:48:54.060] $GNGGA,014852.50,4327.758450789,N,14148.313397473,E,5,09,1.12,116.297,M,31.868,M,145.5,1010*6C
[2021-01-29 10:48:54.169] $GNGGA,014852.60,4327.758451393,N,14148.313397925,E,5,09,1.12,116.295,M,31.868,M,145.6,1010*6E
[2021-01-29 10:48:54.264] $GNGGA,014852.70,4327.758455590,N,14148.313409704,E,5,09,1.12,116.261,M,31.868,M,145.7,1010*69
[2021-01-29 10:48:54.358] $GNGGA,014852.80,4327.758463782,N,14148.313421438,E,5,09,1.12,116.227,M,31.868,M,145.8,1010*69
[2021-01-29 10:48:54.467] $GNGGA,014852.90,4327.758467558,N,14148.313432708,E,5,09,1.12,116.206,M,31.868,M,145.9,1010*69
[2021-01-29 10:48:54.561] $GNGGA,014853.00,4327.758474814,N,14148.313444612,E,5,09,1.12,116.167,M,31.868,M,146.0,1010*63
[2021-01-29 10:48:54.671] $GNGGA,014853.10,4327.758481886,N,14148.313457325,E,5,09,1.12,116.132,M,31.868,M,146.1,1010*61
[2021-01-29 10:48:54.764] $GNGGA,014853.20,4327.758489627,N,14148.313472087,E,5,09,1.12,116.098,M,31.868,M,146.2,1010*61
[2021-01-29 10:48:54.858] $GNGGA,014853.30,4327.758490708,N,14148.313476312,E,5,09,1.12,116.084,M,31.868,M,146.3,1010*63
[2021-01-29 10:48:54.967] $GNGGA,014853.40,4327.758497041,N,14148.313486563,E,5,09,1.12,116.060,M,31.868,M,146.4,1010*6B
[2021-01-29 10:48:55.061] $GNGGA,014853.50,4327.758498017,N,14148.313491151,E,5,09,1.12,116.055,M,31.868,M,146.5,1010*62
[2021-01-29 10:48:55.170] $GNGGA,014853.60,4327.758503318,N,14148.313500744,E,5,09,1.12,116.032,M,31.868,M,146.6,1010*67
[2021-01-29 10:48:55.267] $GNGGA,014853.70,4327.758503696,N,14148.313504094,E,5,09,1.12,116.027,M,31.868,M,146.7,1010*6E
[2021-01-29 10:48:55.360] $GNGGA,014853.80,4327.758506092,N,14148.313508060,E,5,09,1.12,116.015,M,31.868,M,146.8,1010*6F
[2021-01-29 10:48:55.470] $GNGGA,014853.90,4327.758505013,N,14148.313509312,E,5,09,1.12,116.012,M,31.868,M,146.9,1010*65
[2021-01-29 10:48:55.563] $GNGGA,014854.00,4327.758507586,N,14148.313513133,E,5,09,1.12,116.004,M,31.868,M,147.0,1010*65
[2021-01-29 10:48:55.673] $GNGGA,014854.10,4327.758506400,N,14148.313514561,E,5,09,1.12,115.998,M,31.868,M,147.1,1010*60
[2021-01-29 10:48:55.767] $GNGGA,014854.20,4327.758507521,N,14148.313516983,E,5,09,1.12,115.993,M,31.868,M,147.2,1010*6A
[2021-01-29 10:48:55.860] $GNGGA,014854.30,4327.758507368,N,14148.313519160,E,5,09,1.12,115.985,M,31.868,M,147.3,1010*6C
[2021-01-29 10:48:55.970] $GNGGA,014854.40,4327.758509487,N,14148.313522071,E,5,09,1.12,115.983,M,31.868,M,147.4,1010*6B
[2021-01-29 10:48:56.063] $GNGGA,014854.50,4327.758509667,N,14148.313523256,E,5,09,1.12,115.981,M,31.868,M,147.5,1010*63
[2021-01-29 10:48:56.173] $GNGGA,014854.60,4327.758511956,N,14148.313527667,E,5,09,1.12,115.980,M,31.868,M,147.6,1010*64
[2021-01-29 10:48:56.268] $GNGGA,014854.70,4327.758514898,N,14148.313530865,E,5,09,1.12,115.978,M,31.868,M,147.7,1010*6F
[2021-01-29 10:48:56.361] $GNGGA,014854.80,4327.758517109,N,14148.313534068,E,5,09,1.12,115.976,M,31.868,M,147.8,1010*62
[2021-01-29 10:48:56.471] $GNGGA,014854.90,4327.758520160,N,14148.313537559,E,5,09,1.12,115.971,M,31.868,M,147.9,1010*6A
[2021-01-29 10:48:56.564] $GNGGA,014855.00,4327.758522248,N,14148.313540633,E,5,09,1.12,115.971,M,31.868,M,148.0,1010*60
[2021-01-29 10:48:56.658] $GNGGA,014855.10,4327.758524167,N,14148.313541822,E,5,09,1.12,115.970,M,31.868,M,148.1,1010*66
[2021-01-29 10:48:56.768] $GNGGA,014855.20,4327.758526294,N,14148.313544570,E,5,09,1.12,115.967,M,31.868,M,148.2,1010*62
[2021-01-29 10:48:56.861] $GNGGA,014855.30,4327.758529149,N,14148.313547883,E,5,09,1.12,115.963,M,31.868,M,148.3,1010*68
[2021-01-29 10:48:56.971] $GNGGA,014855.40,4327.758530800,N,14148.313549322,E,5,09,1.12,115.954,M,31.868,M,148.4,1010*6E
[2021-01-29 10:48:57.064] $GNGGA,014855.50,4327.758532274,N,14148.313551462,E,5,09,1.12,115.947,M,31.868,M,148.5,1010*6D
[2021-01-29 10:48:57.158] $GNGGA,014855.60,4327.758533993,N,14148.313553263,E,5,09,1.12,115.948,M,31.868,M,148.6,1010*64
[2021-01-29 10:48:57.270] $GNGGA,014855.70,4327.758537448,N,14148.313554626,E,5,09,1.12,115.941,M,31.868,M,148.7,1010*60
[2021-01-29 10:48:57.364] $GNGGA,014855.80,4327.758537782,N,14148.313557220,E,5,09,1.12,115.944,M,31.868,M,148.8,1010*61
[2021-01-29 10:48:57.458] $GNGGA,014855.90,4327.758541608,N,14148.313558674,E,5,09,1.12,115.933,M,31.868,M,148.9,1010*69
[2021-01-29 10:48:57.567] $GNGGA,014856.00,4327.758543550,N,14148.313558633,E,5,09,1.12,115.929,M,31.868,M,149.0,1010*6F
[2021-01-29 10:48:57.661] $GNGGA,014856.10,4327.758546776,N,14148.313560204,E,5,09,1.12,115.925,M,31.868,M,149.1,1010*6B
[2021-01-29 10:48:57.770] $GNGGA,014856.20,4327.758548754,N,14148.313560405,E,5,09,1.12,115.924,M,31.868,M,149.2,1010*63
[2021-01-29 10:48:57.864] $GNGGA,014856.30,4327.758551804,N,14148.313562289,E,5,09,1.12,115.915,M,31.868,M,149.3,1010*63
[2021-01-29 10:48:57.958] $GNGGA,014856.40,4327.758553124,N,14148.313563093,E,5,09,1.12,115.919,M,31.868,M,149.4,1010*6E
[2021-01-29 10:48:58.067] $GNGGA,014856.50,4327.758557950,N,14148.313566259,E,5,09,1.12,115.912,M,31.868,M,149.5,1010*6B
[2021-01-29 10:48:58.161] $GNGGA,014856.60,4327.758560645,N,14148.313567259,E,5,09,1.12,115.907,M,31.868,M,149.6,1010*61
[2021-01-29 10:48:58.272] $GNGGA,014856.70,4327.758565290,N,14148.313569172,E,5,09,1.12,115.904,M,31.868,M,149.7,1010*6F
[2021-01-29 10:48:58.366] $GNGGA,014856.80,4327.758569512,N,14148.313570155,E,5,09,1.12,115.904,M,31.868,M,149.8,1010*63
[2021-01-29 10:48:58.460] $GNGGA,014856.90,4327.758575099,N,14148.313569427,E,5,10,1.06,115.904,M,31.868,M,149.9,1010*6D
[2021-01-29 10:48:58.569] $GNGGA,014857.00,4327.758579421,N,14148.313569682,E,5,10,1.06,115.900,M,31.868,M,150.0,1010*66
[2021-01-29 10:48:58.663] $GNGGA,014857.10,4327.758579678,N,14148.313570722,E,5,10,1.06,115.907,M,31.868,M,150.1,1010*6C
[2021-01-29 10:48:58.756] $GNGGA,014857.20,4327.758583625,N,14148.313571371,E,5,10,1.06,115.905,M,31.868,M,150.2,1010*60
[2021-01-29 10:48:58.866] $GNGGA,014857.30,4327.758584893,N,14148.313573554,E,5,10,1.06,115.905,M,31.868,M,150.3,1010*67
[2021-01-29 10:48:58.959] $GNGGA,014857.40,4327.758595238,N,14148.313586990,E,5,10,1.06,115.955,M,31.868,M,150.4,1010*67
[2021-01-29 10:48:59.069] $GNGGA,014857.50,4327.758605766,N,14148.313600745,E,5,10,1.06,116.007,M,31.868,M,150.5,1010*65
[2021-01-29 10:48:59.163] $GNGGA,014857.60,4327.758611568,N,14148.313601554,E,5,10,1.06,116.004,M,31.868,M,150.6,1010*6C
[2021-01-29 10:48:59.272] $GNGGA,014857.70,4327.758620966,N,14148.313611395,E,5,10,1.06,116.048,M,31.868,M,150.7,1010*6E
[2021-01-29 10:48:59.369] $GNGGA,014857.80,4327.758629502,N,14148.313623476,E,5,10,1.06,116.096,M,31.868,M,150.8,1010*61
[2021-01-29 10:48:59.463] $GNGGA,014857.90,4327.758638644,N,14148.313635972,E,5,10,1.06,116.141,M,31.868,M,150.9,1010*65
[2021-01-29 10:48:59.572] $GNGGA,014858.00,4327.758647624,N,14148.313645870,E,5,10,1.06,116.181,M,31.868,M,151.0,1010*6D
[2021-01-29 10:48:59.666] $GNGGA,014858.10,4327.758655816,N,14148.313657920,E,5,10,1.06,116.226,M,31.868,M,151.1,1010*68
[2021-01-29 10:48:59.759] $GNGGA,014858.20,4327.758661057,N,14148.313668059,E,5,10,1.06,116.261,M,31.868,M,151.2,1010*6A
[2021-01-29 10:48:59.869] $GNGGA,014858.30,4327.758664440,N,14148.313668089,E,5,10,1.06,116.263,M,31.868,M,151.3,1010*62
[2021-01-29 10:48:59.962] $GNGGA,014858.40,4327.758669516,N,14148.313673336,E,5,10,1.06,116.285,M,31.868,M,151.4,1010*68
[2021-01-29 10:49:00.056] $GNGGA,014858.50,4327.758674036,N,14148.313681898,E,5,10,1.06,116.317,M,31.868,M,151.5,1010*6B
[2021-01-29 10:49:00.166] $GNGGA,014858.60,4327.758680514,N,14148.313689181,E,5,10,1.06,116.350,M,31.868,M,151.6,1010*6F
[2021-01-29 10:49:00.267] $GNGGA,014858.70,4327.758682633,N,14148.313689836,E,5,10,1.06,116.355,M,31.868,M,151.7,1010*6B
[2021-01-29 10:49:00.371] $GNGGA,014858.80,4327.758686024,N,14148.313692225,E,5,10,1.06,116.364,M,31.868,M,151.8,1010*6F
[2021-01-29 10:49:00.465] $GNGGA,014858.90,4327.758691725,N,14148.313698944,E,5,10,1.06,116.391,M,31.868,M,151.9,1010*63
[2021-01-29 10:49:00.558] $GNGGA,014859.00,4327.758693285,N,14148.313699671,E,5,10,1.06,116.390,M,31.868,M,152.0,1010*65
[2021-01-29 10:49:00.668] $GNGGA,014859.10,4327.758695514,N,14148.313702960,E,5,10,1.06,116.404,M,31.868,M,152.1,1010*6A
[2021-01-29 10:49:00.762] $GNGGA,014859.20,4327.758697502,N,14148.313702697,E,5,10,1.06,116.399,M,31.868,M,152.2,1010*6B
[2021-01-29 10:49:00.871] $GNGGA,014859.30,4327.758699935,N,14148.313706149,E,5,10,1.06,116.408,M,31.868,M,152.3,1010*62
[2021-01-29 10:49:00.965] $GNGGA,014859.40,4327.758703865,N,14148.313708899,E,5,10,1.06,116.420,M,31.868,M,152.4,1010*64
[2021-01-29 10:49:01.058] $GNGGA,014859.50,4327.758705097,N,14148.313707330,E,5,10,1.06,116.422,M,31.868,M,152.5,1010*62
[2021-01-29 10:49:01.168] $GNGGA,014859.60,4327.758706823,N,14148.313708397,E,5,10,1.06,116.426,M,31.868,M,152.6,1010*60
[2021-01-29 10:49:01.267] $GNGGA,014859.70,4327.758710056,N,14148.313710169,E,5,10,1.06,116.438,M,31.868,M,152.7,1010*68
[2021-01-29 10:49:01.371] $GNGGA,014859.80,4327.758710789,N,14148.313707376,E,5,10,1.06,116.433,M,31.868,M,152.8,1010*6C
[2021-01-29 10:49:01.465] $GNGGA,014859.90,4327.758712121,N,14148.313708428,E,5,10,1.06,116.443,M,31.868,M,152.9,1010*6E
[2021-01-29 10:49:01.559] $GNGGA,014900.00,4327.758715451,N,14148.313709592,E,5,10,1.06,116.446,M,31.868,M,153.0,1010*63
[2021-01-29 10:49:01.668] $GNGGA,014900.10,4327.758718918,N,14148.313707467,E,5,10,1.06,116.443,M,31.868,M,153.1,1010*6E
[2021-01-29 10:49:01.762] $GNGGA,014900.20,4327.758720796,N,14148.313706620,E,5,10,1.06,116.444,M,31.868,M,153.2,1010*6A
[2021-01-29 10:49:01.871] $GNGGA,014900.30,4327.758724189,N,14148.313707264,E,5,10,1.06,116.453,M,31.868,M,153.3,1010*65
[2021-01-29 10:49:01.965] $GNGGA,014900.40,4327.758726091,N,14148.313704528,E,5,10,1.06,116.449,M,31.868,M,153.4,1010*68
[2021-01-29 10:49:02.059] $GNGGA,014900.50,4327.758727514,N,14148.313700512,E,5,10,1.06,116.446,M,31.868,M,153.5,1010*63
[2021-01-29 10:49:02.168] $GNGGA,014900.60,4327.758730326,N,14148.313700453,E,5,10,1.06,116.452,M,31.868,M,153.6,1010*63
[2021-01-29 10:49:02.261] $GNGGA,014900.70,4327.758730301,N,14148.313695014,E,5,10,1.06,116.451,M,31.868,M,153.7,1010*6F
[2021-01-29 10:49:02.370] $GNGGA,014900.80,4327.758732742,N,14148.313693194,E,5,10,1.06,116.446,M,31.868,M,153.8,1010*67
[2021-01-29 10:49:02.464] $GNGGA,014900.90,4327.758734982,N,14148.313692139,E,5,10,1.06,116.454,M,31.868,M,153.9,1010*66
[2021-01-29 10:49:02.558] $GNGGA,014901.00,4327.758736121,N,14148.313688854,E,5,10,1.06,116.452,M,31.868,M,154.0,1010*6C
[2021-01-29 10:49:02.667] $GNGGA,014901.10,4327.758737518,N,14148.313685841,E,5,10,1.06,116.450,M,31.868,M,154.1,1010*68
[2021-01-29 10:49:02.761] $GNGGA,014901.20,4327.758740299,N,14148.313684058,E,5,10,1.06,116.452,M,31.868,M,154.2,1010*65
[2021-01-29 10:49:02.870] $GNGGA,014901.30,4327.758739921,N,14148.313679013,E,5,10,1.06,116.453,M,31.868,M,154.3,1010*6F
[2021-01-29 10:49:02.964] $GNGGA,014901.40,4327.758741002,N,14148.313677097,E,5,10,1.06,116.454,M,31.868,M,154.4,1010*6D
[2021-01-29 10:49:03.073] $GNGGA,014901.50,4327.758744533,N,14148.313679564,E,5,10,1.06,116.465,M,31.868,M,154.5,1010*6A
[2021-01-29 10:49:03.167] $GNGGA,014901.60,4327.758745770,N,14148.313680234,E,5,10,1.06,116.468,M,31.868,M,154.6,1010*67
[2021-01-29 10:49:03.270] $GNGGA,014901.70,4327.758747565,N,14148.313681487,E,5,10,1.06,116.484,M,31.868,M,154.7,1010*6E
[2021-01-29 10:49:03.358] $GNGGA,014901.80,4327.758749169,N,14148.313680482,E,5,10,1.06,116.482,M,31.868,M,154.8,1010*6A
[2021-01-29 10:49:03.467] $GNGGA,014901.90,4327.758749180,N,14148.313673191,E,5,10,1.06,116.478,M,31.868,M,154.9,1010*63
[2021-01-29 10:49:03.561] $GNGGA,014902.00,4327.758749605,N,14148.313671072,E,5,10,1.06,116.476,M,31.868,M,155.0,1010*6B
[2021-01-29 10:49:03.670] $GNGGA,014902.10,4327.758750504,N,14148.313670459,E,5,10,1.06,116.481,M,31.868,M,155.1,1010*65
[2021-01-29 10:49:03.764] $GNGGA,014902.20,4327.758751144,N,14148.313667169,E,5,10,1.06,116.467,M,31.868,M,155.2,1010*6C
[2021-01-29 10:49:03.858] $GNGGA,014902.30,4327.758751864,N,14148.313663236,E,5,10,1.06,116.476,M,31.868,M,155.3,1010*6A
[2021-01-29 10:49:03.967] $GNGGA,014902.40,4327.758752675,N,14148.313660359,E,5,10,1.06,116.471,M,31.868,M,155.4,1010*6B
[2021-01-29 10:49:04.061] $GNGGA,014902.50,4327.758753108,N,14148.313653005,E,5,10,1.06,116.463,M,31.868,M,155.5,1010*6E
[2021-01-29 10:49:04.170] $GNGGA,014902.60,4327.758753391,N,14148.313649761,E,5,10,1.06,116.460,M,31.868,M,155.6,1010*61
[2021-01-29 10:49:04.264] $GNGGA,014902.70,4327.758753598,N,14148.313644267,E,5,10,1.06,116.457,M,31.868,M,155.7,1010*64
[2021-01-29 10:49:04.358] $GNGGA,014902.80,4327.758753911,N,14148.313640263,E,5,10,1.06,116.448,M,31.868,M,155.8,1010*67
[2021-01-29 10:49:04.467] $GNGGA,014902.90,4327.758754518,N,14148.313635686,E,5,10,1.06,116.451,M,31.868,M,155.9,1010*60
[2021-01-29 10:49:04.561] $GNGGA,014903.00,4327.758755774,N,14148.313633647,E,5,10,1.06,116.452,M,31.868,M,156.0,1010*63
[2021-01-29 10:49:04.670] $GNGGA,014903.10,4327.758755217,N,14148.313629542,E,5,10,1.06,116.451,M,31.868,M,156.1,1010*6D
[2021-01-29 10:49:04.764] $GNGGA,014903.20,4327.758754795,N,14148.313625244,E,5,10,1.06,116.449,M,31.868,M,156.2,1010*67
[2021-01-29 10:49:04.858] $GNGGA,014903.30,4327.758753977,N,14148.313620118,E,5,10,1.06,116.454,M,31.868,M,156.3,1010*61
[2021-01-29 10:49:04.967] $GNGGA,014903.40,4327.758752116,N,14148.313615604,E,5,10,1.06,116.455,M,31.868,M,156.4,1010*62
[2021-01-29 10:49:05.061] $GNGGA,014903.50,4327.758752650,N,14148.313613304,E,5,10,1.06,116.453,M,31.868,M,156.5,1010*62
[2021-01-29 10:49:05.170] $GNGGA,014903.60,4327.758752972,N,14148.313609103,E,5,10,1.06,116.459,M,31.868,M,156.6,1010*69
[2021-01-29 10:49:05.266] $GNGGA,014903.70,4327.758752962,N,14148.313608258,E,5,10,1.06,116.469,M,31.868,M,156.7,1010*67
[2021-01-29 10:49:05.359] $GNGGA,014903.80,4327.758753174,N,14148.313605598,E,5,10,1.06,116.463,M,31.868,M,156.8,1010*65
[2021-01-29 10:49:05.469] $GNGGA,014903.90,4327.758753711,N,14148.313602941,E,5,10,1.06,116.475,M,31.868,M,156.9,1010*68
[2021-01-29 10:49:05.562] $GNGGA,014904.00,4327.758754855,N,14148.313600996,E,5,10,1.06,116.471,M,31.868,M,157.0,1010*6A
[2021-01-29 10:49:05.672] $GNGGA,014904.10,4327.758755002,N,14148.313598432,E,5,10,1.06,116.475,M,31.868,M,157.1,1010*64
[2021-01-29 10:49:05.765] $GNGGA,014904.20,4327.758757548,N,14148.313596489,E,5,10,1.06,116.475,M,31.868,M,157.2,1010*63
[2021-01-29 10:49:05.859] $GNGGA,014904.30,4327.758757050,N,14148.313593286,E,5,10,1.06,116.481,M,31.868,M,157.3,1010*68
[2021-01-29 10:49:05.969] $GNGGA,014904.40,4327.758758867,N,14148.313591561,E,5,10,1.06,116.484,M,31.868,M,157.4,1010*62
[2021-01-29 10:49:06.062] $GNGGA,014904.50,4327.758759157,N,14148.313589298,E,5,10,1.06,116.484,M,31.868,M,157.5,1010*61
[2021-01-29 10:49:06.156] $GNGGA,014904.60,4327.758759304,N,14148.313584996,E,5,10,1.06,116.482,M,31.868,M,157.6,1010*6B
[2021-01-29 10:49:06.267] $GNGGA,014904.70,4327.758758766,N,14148.313580204,E,5,10,1.06,116.480,M,31.868,M,157.7,1010*6C
[2021-01-29 10:49:06.361] $GNGGA,014904.80,4327.758760021,N,14148.313577663,E,5,10,1.06,116.479,M,31.868,M,157.8,1010*68
[2021-01-29 10:49:06.470] $GNGGA,014904.90,4327.758759092,N,14148.313571944,E,5,10,1.06,116.475,M,31.868,M,157.9,1010*6A
[2021-01-29 10:49:06.564] $GNGGA,014905.00,4327.758758202,N,14148.313570538,E,5,10,1.06,116.476,M,31.868,M,158.0,1010*6B
[2021-01-29 10:49:06.658] $GNGGA,014905.10,4327.758756743,N,14148.313568021,E,5,10,1.06,116.478,M,31.868,M,158.1,1010*6F
[2021-01-29 10:49:06.767] $GNGGA,014905.20,4327.758757552,N,14148.313568737,E,5,10,1.06,116.481,M,31.868,M,158.2,1010*6A
[2021-01-29 10:49:06.861] $GNGGA,014905.30,4327.758757862,N,14148.313569740,E,5,10,1.06,116.491,M,31.868,M,158.3,1010*64
[2021-01-29 10:49:06.970] $GNGGA,014905.40,4327.758757687,N,14148.313568869,E,5,10,1.06,116.493,M,31.868,M,158.4,1010*66
[2021-01-29 10:49:07.064] $GNGGA,014905.50,4327.758757893,N,14148.313570205,E,5,10,1.06,116.497,M,31.868,M,158.5,1010*60
[2021-01-29 10:49:07.158] $GNGGA,014905.60,4327.758757534,N,14148.313569165,E,5,10,1.06,116.502,M,31.868,M,158.6,1010*60
[2021-01-29 10:49:07.269] $GNGGA,014905.70,4327.758756884,N,14148.313567791,E,5,10,1.06,116.503,M,31.868,M,158.7,1010*65
[2021-01-29 10:49:07.363] $GNGGA,014905.80,4327.758756451,N,14148.313568983,E,5,10,1.06,116.510,M,31.868,M,158.8,1010*61
[2021-01-29 10:49:07.456] $GNGGA,014905.90,4327.758755642,N,14148.313567286,E,5,10,1.06,116.517,M,31.868,M,158.9,1010*64
[2021-01-29 10:49:07.566] $GNGGA,014906.00,4327.758756317,N,14148.313565687,E,5,10,1.06,116.521,M,31.868,M,159.0,1010*62
[2021-01-29 10:49:07.659] $GNGGA,014906.10,4327.758756488,N,14148.313566779,E,5,10,1.06,116.529,M,31.868,M,159.1,1010*68
[2021-01-29 10:49:07.769] $GNGGA,014906.20,4327.758757075,N,14148.313566165,E,5,10,1.06,116.528,M,31.868,M,159.2,1010*65
[2021-01-29 10:49:07.863] $GNGGA,014906.30,4327.758757025,N,14148.313566466,E,5,10,1.06,116.536,M,31.868,M,159.3,1010*69
[2021-01-29 10:49:07.972] $GNGGA,014906.40,4327.758757095,N,14148.313566482,E,5,10,1.06,116.532,M,31.868,M,159.4,1010*6C
[2021-01-29 10:49:08.066] $GNGGA,014906.50,4327.758757258,N,14148.313567842,E,5,10,1.06,116.540,M,31.868,M,159.5,1010*6B
