
[2021-01-29 11:05:04.857] $GNGGA,020451.80,,,,,0,00,99.99,,,,,254.8,*57
[2021-01-29 11:05:04.888] $GNGGA,020451.90,,,,,0,00,99.99,,,,,254.9,*57
[2021-01-29 11:05:04.888] $GNGGA,020452.00,,,,,0,00,99.99,,,,,255.0,*55
[2021-01-29 11:05:04.888] $GNGGA,020452.10,,,,,0,00,99.99,,,,,255.1,*55
[2021-01-29 11:05:04.888] $GNGGA,020452.20,,,,,0,00,99.99,,,,,255.2,*55
[2021-01-29 11:05:04.888] $GNGGA,020452.30,,,,,0,00,99.99,,,,,255.3,*55
[2021-01-29 11:05:04.888] $GNGGA,020452.40,,,,,0,00,99.99,,,,,255.4,*55
[2021-01-29 11:05:04.888] $GNGGA,020452.50,,,,,0,00,99.99,,,,,255.5,*55
[2021-01-29 11:05:04.888] $GNGGA,020452.60,,,,,0,00,99.99,,,,,255.6,*55
[2021-01-29 11:05:04.888] $GNGGA,020452.70,,,,,0,00,99.99,,,,,255.7,*55
[2021-01-29 11:05:04.888] $GNGGA,020452.80,,,,,0,00,99.99,,,,,255.8,*55
[2021-01-29 11:05:04.888] $GNGGA,020452.90,,,,,0,00,99.99,,,,,255.9,*55
[2021-01-29 11:05:04.888] $GNGGA,020453.00,,,,,0,00,99.99,,,,,256.0,*57
[2021-01-29 11:05:04.888] $GNGGA,020453.10,,,,,0,00,99.99,,,,,256.1,*57
[2021-01-29 11:05:04.888] $GNGGA,020453.20,,,,,0,00,99.99,,,,,256.2,*57
[2021-01-29 11:05:04.888] $GNGGA,020453.30,,,,,0,00,99.99,,,,,256.3,*57
[2021-01-29 11:05:04.888] $GNGGA,020453.40,,,,,0,00,99.99,,,,,256.4,*57
[2021-01-29 11:05:04.888] $GNGGA,020453.50,,,,,0,00,99.99,,,,,256.5,*57
[2021-01-29 11:05:04.888] $GNGGA,020453.60,,,,,0,00,99.99,,,,,256.6,*57
[2021-01-29 11:05:04.888] $GNGGA,020453.70,,,,,0,00,99.99,,,,,256.7,*57
[2021-01-29 11:05:04.888] $GNGGA,020453.80,,,,,0,00,99.99,,,,,256.8,*57
[2021-01-29 11:05:04.888] $GNGGA,020453.90,,,,,0,00,99.99,,,,,256.9,*57
[2021-01-29 11:05:04.888] $GNGGA,020454.00,,,,,0,00,99.99,,,,,257.0,*51
[2021-01-29 11:05:04.904] $GNGGA,020454.10,,,,,0,00,99.99,,,,,257.1,*51
[2021-01-29 11:05:04.904] $GNGGA,020454.20,,,,,0,00,99.99,,,,,257.2,*51
[2021-01-29 11:05:04.904] $GNGGA,020454.30,,,,,0,00,99.99,,,,,257.3,*51
[2021-01-29 11:05:04.904] $GNGGA,020454.40,,,,,0,00,99.99,,,,,257.4,*51
[2021-01-29 11:05:04.904] $GNGGA,020454.50,,,,,0,00,99.99,,,,,257.5,*51
[2021-01-29 11:05:04.904] $GNGGA,020454.60,,,,,0,00,99.99,,,,,257.6,*51
[2021-01-29 11:05:04.904] $GNGGA,020454.70,,,,,0,00,99.99,,,,,257.7,*51
[2021-01-29 11:05:04.904] $GNGGA,020454.80,,,,,0,00,99.99,,,,,257.8,*51
[2021-01-29 11:05:04.904] $GNGGA,020454.90,,,,,0,00,99.99,,,,,257.9,*51
[2021-01-29 11:05:04.904] $GNGGA,020455.00,,,,,0,00,99.99,,,,,258.0,*5F
[2021-01-29 11:05:04.904] $GNGGA,020455.10,,,,,0,00,99.99,,,,,258.1,*5F
[2021-01-29 11:05:04.904] $GNGGA,020455.20,,,,,0,00,99.99,,,,,258.2,*5F
[2021-01-29 11:05:04.904] $GNGGA,020455.30,,,,,0,00,99.99,,,,,258.3,*5F
[2021-01-29 11:05:04.904] $GNGGA,020455.40,,,,,0,00,99.99,,,,,258.4,*5F
[2021-01-29 11:05:04.904] $GNGGA,020455.50,,,,,0,00,99.99,,,,,258.5,*5F
[2021-01-29 11:05:04.904] $GNGGA,020455.60,,,,,0,00,99.99,,,,,258.6,*5F
[2021-01-29 11:05:04.904] $GNGGA,020455.70,,,,,0,00,99.99,,,,,258.7,*5F
[2021-01-29 11:05:04.904] $GNGGA,020455.80,,,,,0,00,99.99,,,,,258.8,*5F
[2021-01-29 11:05:04.904] $GNGGA,020455.90,,,,,0,00,99.99,,,,,258.9,*5F
[2021-01-29 11:05:04.904] $GNGGA,020456.00,,,,,0,00,99.99,,,,,259.0,*5D
[2021-01-29 11:05:04.904] $GNGGA,020456.10,,,,,0,00,99.99,,,,,259.1,*5D
[2021-01-29 11:05:04.904] $GNGGA,020456.20,,,,,0,00,99.99,,,,,259.2,*5D
[2021-01-29 11:05:04.919] $GNGGA,020456.30,,,,,0,00,99.99,,,,,259.3,*5D
[2021-01-29 11:05:04.919] $GNGGA,020456.40,,,,,0,00,99.99,,,,,259.4,*5D
[2021-01-29 11:05:04.919] $GNGGA,020456.50,,,,,0,00,99.99,,,,,259.5,*5D
[2021-01-29 11:05:04.919] $GNGGA,020456.60,,,,,0,00,99.99,,,,,259.6,*5D
[2021-01-29 11:05:04.919] $GNGGA,020456.70,,,,,0,00,99.99,,,,,259.7,*5D
[2021-01-29 11:05:04.919] $GNGGA,020456.80,,,,,0,00,99.99,,,,,259.8,*5D
[2021-01-29 11:05:04.919] $GNGGA,020456.90,,,,,0,00,99.99,,,,,259.9,*5D
[2021-01-29 11:05:04.919] $GNGGA,020457.00,,,,,0,00,99.99,,,,,260.0,*56
[2021-01-29 11:05:04.919] $GNGGA,020457.10,,,,,0,00,99.99,,,,,260.1,*56
[2021-01-29 11:05:04.919] $GNGGA,020457.20,,,,,0,00,99.99,,,,,260.2,*56
[2021-01-29 11:05:04.919] $GNGGA,020457.30,,,,,0,00,99.99,,,,,260.3,*56
[2021-01-29 11:05:04.919] $GNGGA,020457.40,,,,,0,00,99.99,,,,,260.4,*56
[2021-01-29 11:05:04.919] $GNGGA,020457.50,,,,,0,00,99.99,,,,,260.5,*56
[2021-01-29 11:05:04.919] $GNGGA,020457.60,,,,,0,00,99.99,,,,,260.6,*56
[2021-01-29 11:05:04.919] $GNGGA,020457.70,,,,,0,00,99.99,,,,,260.7,*56
[2021-01-29 11:05:04.919] $GNGGA,020457.80,,,,,0,00,99.99,,,,,260.8,*56
[2021-01-29 11:05:04.919] $GNGGA,020457.90,,,,,0,00,99.99,,,,,260.9,*56
[2021-01-29 11:05:04.919] $GNGGA,020458.00,,,,,0,00,99.99,,,,,261.0,*58
[2021-01-29 11:05:04.919] $GNGGA,020458.10,,,,,0,00,99.99,,,,,261.1,*58
[2021-01-29 11:05:04.919] $GNGGA,020458.20,,,,,0,00,99.99,,,,,261.2,*58
[2021-01-29 11:05:04.919] $GNGGA,020458.30,,,,,0,00,99.99,,,,,261.3,*58
[2021-01-29 11:05:04.935] $GNGGA,020458.40,,,,,0,00,99.99,,,,,261.4,*58
[2021-01-29 11:05:04.935] $GNGGA,020458.50,,,,,0,00,99.99,,,,,261.5,*58
[2021-01-29 11:05:04.935] $GNGGA,020458.60,,,,,0,00,99.99,,,,,261.6,*58
[2021-01-29 11:05:04.935] $GNGGA,020458.70,,,,,0,00,99.99,,,,,261.7,*58
[2021-01-29 11:05:04.935] $GNGGA,020458.80,,,,,0,00,99.99,,,,,261.8,*58
[2021-01-29 11:05:04.935] $GNGGA,020458.90,,,,,0,00,99.99,,,,,261.9,*58
[2021-01-29 11:05:04.935] $GNGGA,020459.00,,,,,0,00,99.99,,,,,262.0,*5A
[2021-01-29 11:05:04.935] $GNGGA,020459.10,,,,,0,00,99.99,,,,,262.1,*5A
[2021-01-29 11:05:04.935] $GNGGA,020459.20,,,,,0,00,99.99,,,,,262.2,*5A
[2021-01-29 11:05:04.935] $GNGGA,020459.30,,,,,0,00,99.99,,,,,262.3,*5A
[2021-01-29 11:05:04.935] $GNGGA,020459.40,,,,,0,00,99.99,,,,,262.4,*5A
[2021-01-29 11:05:04.935] $GNGGA,020459.50,,,,,0,00,99.99,,,,,262.5,*5A
[2021-01-29 11:05:04.935] $GNGGA,020459.60,,,,,0,00,99.99,,,,,262.6,*5A
[2021-01-29 11:05:04.935] $GNGGA,020459.70,,,,,0,00,99.99,,,,,262.7,*5A
[2021-01-29 11:05:04.935] $GNGGA,020459.80,,,,,0,00,99.99,,,,,262.8,*5A
[2021-01-29 11:05:04.935] $GNGGA,020459.90,,,,,0,00,99.99,,,,,262.9,*5A
[2021-01-29 11:05:04.935] $GNGGA,020500.00,,,,,0,00,99.99,,,,,263.0,*56
[2021-01-29 11:05:04.935] $GNGGA,020500.10,,,,,0,00,99.99,,,,,263.1,*56
[2021-01-29 11:05:04.935] $GNGGA,020500.20,,,,,0,00,99.99,,,,,263.2,*56
[2021-01-29 11:05:04.935] $GNGGA,020500.30,,,,,0,00,99.99,,,,,263.3,*56
[2021-01-29 11:05:04.935] $GNGGA,020500.40,,,,,0,00,99.99,,,,,263.4,*56
[2021-01-29 11:05:04.935] $GNGGA,020500.50,,,,,0,00,99.99,,,,,263.5,*56
[2021-01-29 11:05:04.950] $GNGGA,020500.60,,,,,0,00,99.99,,,,,263.6,*56
[2021-01-29 11:05:04.950] $GNGGA,020500.70,,,,,0,00,99.99,,,,,263.7,*56
[2021-01-29 11:05:04.950] $GNGGA,020500.80,,,,,0,00,99.99,,,,,263.8,*56
[2021-01-29 11:05:04.950] $GNGGA,020500.90,,,,,0,00,99.99,,,,,263.9,*56
[2021-01-29 11:05:04.950] $GNGGA,020501.00,,,,,0,00,99.99,,,,,264.0,*50
[2021-01-29 11:05:04.950] $GNGGA,020501.10,,,,,0,00,99.99,,,,,264.1,*50
[2021-01-29 11:05:04.950] $GNGGA,020501.20,,,,,0,00,99.99,,,,,264.2,*50
[2021-01-29 11:05:04.950] $GNGGA,020501.30,,,,,0,00,99.99,,,,,264.3,*50
[2021-01-29 11:05:04.950] $GNGGA,020501.40,,,,,0,00,99.99,,,,,264.4,*50
[2021-01-29 11:05:04.950] $GNGGA,020501.50,,,,,0,00,99.99,,,,,264.5,*50
[2021-01-29 11:05:04.950] $GNGGA,020501.60,,,,,0,00,99.99,,,,,264.6,*50
[2021-01-29 11:05:04.950] $GNGGA,020501.70,,,,,0,00,99.99,,,,,264.7,*50
[2021-01-29 11:05:04.950] $GNGGA,020501.80,,,,,0,00,99.99,,,,,264.8,*50
[2021-01-29 11:05:04.950] $GNGGA,020501.90,,,,,0,00,99.99,,,,,264.9,*50
[2021-01-29 11:05:04.950] $GNGGA,020502.00,,,,,0,00,99.99,,,,,265.0,*52
[2021-01-29 11:05:04.950] $GNGGA,020502.10,,,,,0,00,99.99,,,,,265.1,*52
[2021-01-29 11:05:04.950] $GNGGA,020502.20,,,,,0,00,99.99,,,,,265.2,*52
[2021-01-29 11:05:04.950] $GNGGA,020502.30,,,,,0,00,99.99,,,,,265.3,*52
[2021-01-29 11:05:04.950] $GNGGA,020502.40,,,,,0,00,99.99,,,,,265.4,*52
[2021-01-29 11:05:04.950] $GNGGA,020502.50,,,,,0,00,99.99,,,,,265.5,*52
[2021-01-29 11:05:04.950] $GNGGA,020502.60,,,,,0,00,99.99,,,,,265.6,*52
[2021-01-29 11:05:04.950] $GNGGA,020502.70,,,,,0,00,99.99,,,,,265.7,*52
[2021-01-29 11:05:04.950] $GNGGA,020502.80,,,,,0,00,99.99,,,,,265.8,*52
[2021-01-29 11:05:04.950] $GNGGA,020502.90,,,,,0,00,99.99,,,,,265.9,*52
[2021-01-29 11:05:04.950] $GNGGA,020503.00,,,,,0,00,99.99,,,,,266.0,*50
[2021-01-29 11:05:04.950] $GNGGA,020503.10,,,,,0,00,99.99,,,,,266.1,*50
[2021-01-29 11:05:04.950] $GNGGA,020503.20,,,,,0,00,99.99,,,,,266.2,*50
[2021-01-29 11:05:04.950] $GNGGA,020503.30,,,,,0,00,99.99,,,,,266.3,*50
[2021-01-29 11:05:04.966] $GNGGA,020503.40,,,,,0,00,99.99,,,,,266.4,*50
[2021-01-29 11:05:05.060] $GNGGA,020503.50,,,,,0,00,99.99,,,,,266.5,*50
[2021-01-29 11:05:05.169] $GNGGA,020503.60,,,,,0,00,99.99,,,,,266.6,*50
[2021-01-29 11:05:05.266] $GNGGA,020503.70,,,,,0,00,99.99,,,,,266.7,*50
[2021-01-29 11:05:05.360] $GNGGA,020503.80,,,,,0,00,99.99,,,,,266.8,*50
[2021-01-29 11:05:05.469] $GNGGA,020503.90,,,,,0,00,99.99,,,,,266.9,*50
[2021-01-29 11:05:05.563] $GNGGA,020504.00,,,,,0,00,99.99,,,,,267.0,*56
[2021-01-29 11:05:05.657] $GNGGA,020504.10,,,,,0,00,99.99,,,,,267.1,*56
[2021-01-29 11:05:05.766] $GNGGA,020504.20,,,,,0,00,99.99,,,,,267.2,*56
[2021-01-29 11:05:05.860] $GNGGA,020504.30,,,,,0,00,99.99,,,,,267.3,*56
[2021-01-29 11:05:05.969] $GNGGA,020504.40,,,,,0,00,99.99,,,,,267.4,*56
[2021-01-29 11:05:06.063] $GNGGA,020504.50,,,,,0,00,99.99,,,,,267.5,*56
[2021-01-29 11:05:06.157] $GNGGA,020504.60,,,,,0,00,99.99,,,,,267.6,*56
[2021-01-29 11:05:06.265] $GNGGA,020504.70,,,,,0,00,99.99,,,,,267.7,*56
[2021-01-29 11:05:06.359] $GNGGA,020504.80,,,,,0,00,99.99,,,,,267.8,*56
[2021-01-29 11:05:06.468] $GNGGA,020504.90,,,,,0,00,99.99,,,,,267.9,*56
[2021-01-29 11:05:06.562] $GNGGA,020505.00,,,,,0,00,99.99,,,,,268.0,*58
[2021-01-29 11:05:06.656] $GNGGA,020505.10,,,,,0,00,99.99,,,,,268.1,*58
[2021-01-29 11:05:06.765] $GNGGA,020505.20,,,,,0,00,99.99,,,,,268.2,*58
[2021-01-29 11:05:06.859] $GNGGA,020505.30,,,,,0,00,99.99,,,,,268.3,*58
[2021-01-29 11:05:06.968] $GNGGA,020505.40,,,,,0,00,99.99,,,,,268.4,*58
[2021-01-29 11:05:07.062] $GNGGA,020505.50,,,,,0,00,99.99,,,,,268.5,*58
[2021-01-29 11:05:07.156] $GNGGA,020505.60,,,,,0,00,99.99,,,,,268.6,*58
[2021-01-29 11:05:07.267] $GNGGA,020505.70,,,,,0,00,99.99,,,,,268.7,*58
[2021-01-29 11:05:07.361] $GNGGA,020505.80,,,,,0,00,99.99,,,,,268.8,*58
[2021-01-29 11:05:07.470] $GNGGA,020505.90,,,,,0,00,99.99,,,,,268.9,*58
[2021-01-29 11:05:07.564] $GNGGA,020506.00,,,,,0,00,99.99,,,,,269.0,*5A
[2021-01-29 11:05:07.658] $GNGGA,020506.10,,,,,0,00,99.99,,,,,269.1,*5A
[2021-01-29 11:05:07.767] $GNGGA,020506.20,,,,,0,00,99.99,,,,,269.2,*5A
[2021-01-29 11:05:07.861] $GNGGA,020506.30,,,,,0,00,99.99,,,,,269.3,*5A
[2021-01-29 11:05:07.955] $GNGGA,020506.40,,,,,0,00,99.99,,,,,269.4,*5A
[2021-01-29 11:05:08.064] $GNGGA,020506.50,,,,,0,00,99.99,,,,,269.5,*5A
[2021-01-29 11:05:08.158] $GNGGA,020506.60,,,,,0,00,99.99,,,,,269.6,*5A
[2021-01-29 11:05:08.268] $GNGGA,020506.70,,,,,0,00,99.99,,,,,269.7,*5A
[2021-01-29 11:05:08.362] $GNGGA,020506.80,,,,,0,00,99.99,,,,,269.8,*5A
[2021-01-29 11:05:08.456] $GNGGA,020506.90,,,,,0,00,99.99,,,,,269.9,*5A
[2021-01-29 11:05:08.565] $GNGGA,020507.00,,,,,0,00,99.99,,,,,270.0,*53
[2021-01-29 11:05:08.659] $GNGGA,020507.10,,,,,0,00,99.99,,,,,270.1,*53
[2021-01-29 11:05:08.768] $GNGGA,020507.20,,,,,0,00,99.99,,,,,270.2,*53
[2021-01-29 11:05:08.862] $GNGGA,020507.30,,,,,0,00,99.99,,,,,270.3,*53
[2021-01-29 11:05:08.956] $GNGGA,020507.40,,,,,0,00,99.99,,,,,270.4,*53
[2021-01-29 11:05:09.065] $GNGGA,020507.50,,,,,0,00,99.99,,,,,270.5,*53
[2021-01-29 11:05:09.159] $GNGGA,020507.60,,,,,0,00,99.99,,,,,270.6,*53
[2021-01-29 11:05:09.269] $GNGGA,020507.70,,,,,0,00,99.99,,,,,270.7,*53
[2021-01-29 11:05:09.365] $GNGGA,020507.80,,,,,0,00,99.99,,,,,270.8,*53
[2021-01-29 11:05:09.458] $GNGGA,020507.90,,,,,0,00,99.99,,,,,270.9,*53
[2021-01-29 11:05:09.568] $GNGGA,020508.00,,,,,0,00,99.99,,,,,271.0,*5D
[2021-01-29 11:05:09.661] $GNGGA,020508.10,,,,,0,00,99.99,,,,,271.1,*5D
[2021-01-29 11:05:09.755] $GNGGA,020508.20,,,,,0,00,99.99,,,,,271.2,*5D
[2021-01-29 11:05:09.865] $GNGGA,020508.30,,,,,0,00,99.99,,,,,271.3,*5D
[2021-01-29 11:05:09.958] $GNGGA,020508.40,,,,,0,00,99.99,,,,,271.4,*5D
[2021-01-29 11:05:10.068] $GNGGA,020508.50,,,,,0,00,99.99,,,,,271.5,*5D
[2021-01-29 11:05:10.161] $GNGGA,020508.60,,,,,0,00,99.99,,,,,271.6,*5D
[2021-01-29 11:05:10.255] $GNGGA,020508.70,,,,,0,00,99.99,,,,,271.7,*5D
[2021-01-29 11:05:10.367] $GNGGA,020508.80,,,,,0,00,99.99,,,,,271.8,*5D
[2021-01-29 11:05:10.460] $GNGGA,020508.90,,,,,0,00,99.99,,,,,271.9,*5D
[2021-01-29 11:05:10.554] $GNGGA,020509.00,,,,,0,00,99.99,,,,,272.0,*5F
[2021-01-29 11:05:10.664] $GNGGA,020509.10,,,,,0,00,99.99,,,,,272.1,*5F
[2021-01-29 11:05:10.757] $GNGGA,020509.20,,,,,0,00,99.99,,,,,272.2,*5F
[2021-01-29 11:05:10.867] $GNGGA,020509.30,,,,,0,00,99.99,,,,,272.3,*5F
[2021-01-29 11:05:10.960] $GNGGA,020509.40,,,,,0,00,99.99,,,,,272.4,*5F
[2021-01-29 11:05:11.070] $GNGGA,020509.50,,,,,0,00,99.99,,,,,272.5,*5F
[2021-01-29 11:05:11.164] $GNGGA,020509.60,,,,,0,00,99.99,,,,,272.6,*5F
[2021-01-29 11:05:11.265] $GNGGA,020509.70,,,,,0,00,99.99,,,,,272.7,*5F
[2021-01-29 11:05:11.367] $GNGGA,020509.80,,,,,0,00,99.99,,,,,272.8,*5F
[2021-01-29 11:05:11.461] $GNGGA,020509.90,,,,,0,00,99.99,,,,,272.9,*5F
[2021-01-29 11:05:11.555] $GNGGA,020510.00,,,,,0,00,99.99,,,,,273.0,*56
[2021-01-29 11:05:11.664] $GNGGA,020510.10,,,,,0,00,99.99,,,,,273.1,*56
[2021-01-29 11:05:11.758] $GNGGA,020510.20,,,,,0,00,99.99,,,,,273.2,*56
[2021-01-29 11:05:11.867] $GNGGA,020510.30,,,,,0,00,99.99,,,,,273.3,*56
[2021-01-29 11:05:11.961] $GNGGA,020510.40,,,,,0,00,99.99,,,,,273.4,*56
[2021-01-29 11:05:12.055] $GNGGA,020510.50,,,,,0,00,99.99,,,,,273.5,*56
[2021-01-29 11:05:12.164] $GNGGA,020510.60,,,,,0,00,99.99,,,,,273.6,*56
[2021-01-29 11:05:12.266] $GNGGA,020510.70,,,,,0,00,99.99,,,,,273.7,*56
[2021-01-29 11:05:12.369] $GNGGA,020510.80,,,,,0,00,99.99,,,,,273.8,*56
[2021-01-29 11:05:12.463] $GNGGA,020510.90,,,,,0,00,99.99,,,,,273.9,*56
[2021-01-29 11:05:12.556] $GNGGA,020511.00,,,,,0,00,99.99,,,,,274.0,*50
[2021-01-29 11:05:12.666] $GNGGA,020511.10,,,,,0,00,99.99,,,,,274.1,*50
[2021-01-29 11:05:12.759] $GNGGA,020511.20,,,,,0,00,99.99,,,,,274.2,*50
[2021-01-29 11:05:12.869] $GNGGA,020511.30,,,,,0,00,99.99,,,,,274.3,*50
[2021-01-29 11:05:12.963] $GNGGA,020511.40,,,,,0,00,99.99,,,,,274.4,*50
[2021-01-29 11:05:13.056] $GNGGA,020511.50,,,,,0,00,99.99,,,,,274.5,*50
[2021-01-29 11:05:13.166] $GNGGA,020511.60,,,,,0,00,99.99,,,,,274.6,*50
[2021-01-29 11:05:13.268] $GNGGA,020511.70,,,,,0,00,99.99,,,,,274.7,*50
[2021-01-29 11:05:13.355] $GNGGA,020511.80,,,,,0,00,99.99,,,,,274.8,*50
[2021-01-29 11:05:13.465] $GNGGA,020511.90,,,,,0,00,99.99,,,,,274.9,*50
[2021-01-29 11:05:13.559] $GNGGA,020512.00,,,,,0,00,99.99,,,,,275.0,*52
[2021-01-29 11:05:13.668] $GNGGA,020512.10,,,,,0,00,99.99,,,,,275.1,*52
[2021-01-29 11:05:13.762] $GNGGA,020512.20,,,,,0,00,99.99,,,,,275.2,*52
[2021-01-29 11:05:13.855] $GNGGA,020512.30,,,,,0,00,99.99,,,,,275.3,*52
[2021-01-29 11:05:13.965] $GNGGA,020512.40,,,,,0,00,99.99,,,,,275.4,*52
[2021-01-29 11:05:14.059] $GNGGA,020512.50,,,,,0,00,99.99,,,,,275.5,*52
[2021-01-29 11:05:14.168] $GNGGA,020512.60,,,,,0,00,99.99,,,,,275.6,*52
[2021-01-29 11:05:14.261] $GNGGA,020512.70,,,,,0,00,99.99,,,,,275.7,*52
[2021-01-29 11:05:14.355] $GNGGA,020512.80,,,,,0,00,99.99,,,,,275.8,*52
[2021-01-29 11:05:14.465] $GNGGA,020512.90,,,,,0,00,99.99,,,,,275.9,*52
[2021-01-29 11:05:14.558] $GNGGA,020513.00,,,,,0,00,99.99,,,,,276.0,*50
[2021-01-29 11:05:14.668] $GNGGA,020513.10,,,,,0,00,99.99,,,,,276.1,*50
[2021-01-29 11:05:14.761] $GNGGA,020513.20,,,,,0,00,99.99,,,,,276.2,*50
[2021-01-29 11:05:14.855] $GNGGA,020513.30,,,,,0,00,99.99,,,,,276.3,*50
[2021-01-29 11:05:14.965] $GNGGA,020513.40,,,,,0,00,99.99,,,,,276.4,*50
[2021-01-29 11:05:15.058] $GNGGA,020513.50,,,,,0,00,99.99,,,,,276.5,*50
[2021-01-29 11:05:15.168] $GNGGA,020513.60,,,,,0,00,99.99,,,,,276.6,*50
[2021-01-29 11:05:15.263] $GNGGA,020513.70,,,,,0,00,99.99,,,,,276.7,*50
[2021-01-29 11:05:15.358] $GNGGA,020513.80,,,,,0,00,99.99,,,,,276.8,*50
[2021-01-29 11:05:15.467] $GNGGA,020513.90,,,,,0,00,99.99,,,,,276.9,*50
[2021-01-29 11:05:15.561] $GNGGA,020514.00,,,,,0,00,99.99,,,,,277.0,*56
[2021-01-29 11:05:15.655] $GNGGA,020514.10,,,,,0,00,99.99,,,,,277.1,*56
[2021-01-29 11:05:15.764] $GNGGA,020514.20,,,,,0,00,99.99,,,,,277.2,*56
[2021-01-29 11:05:15.858] $GNGGA,020514.30,,,,,0,00,99.99,,,,,277.3,*56
[2021-01-29 11:05:15.967] $GNGGA,020514.40,,,,,0,00,99.99,,,,,277.4,*56
[2021-01-29 11:05:16.061] $GNGGA,020514.50,,,,,0,00,99.99,,,,,277.5,*56
[2021-01-29 11:05:16.155] $GNGGA,020514.60,,,,,0,00,99.99,,,,,277.6,*56
[2021-01-29 11:05:16.265] $GNGGA,020514.70,,,,,0,00,99.99,,,,,277.7,*56
[2021-01-29 11:05:16.359] $GNGGA,020514.80,,,,,0,00,99.99,,,,,277.8,*56
[2021-01-29 11:05:16.468] $GNGGA,020514.90,,,,,0,00,99.99,,,,,277.9,*56
[2021-01-29 11:05:16.562] $GNGGA,020515.00,,,,,0,00,99.99,,,,,278.0,*58
[2021-01-29 11:05:16.656] $GNGGA,020515.10,,,,,0,00,99.99,,,,,278.1,*58
[2021-01-29 11:05:16.765] $GNGGA,020515.20,,,,,0,00,99.99,,,,,278.2,*58
[2021-01-29 11:05:16.859] $GNGGA,020515.30,,,,,0,00,99.99,,,,,278.3,*58
[2021-01-29 11:05:16.968] $GNGGA,020515.40,,,,,0,00,99.99,,,,,278.4,*58
[2021-01-29 11:05:17.062] $GNGGA,020515.50,,,,,0,00,99.99,,,,,278.5,*58
[2021-01-29 11:05:17.156] $GNGGA,020515.60,,,,,0,00,99.99,,,,,278.6,*58
[2021-01-29 11:05:17.266] $GNGGA,020515.70,,,,,0,00,99.99,,,,,278.7,*58
[2021-01-29 11:05:17.360] $GNGGA,020515.80,,,,,0,00,99.99,,,,,278.8,*58
[2021-01-29 11:05:17.469] $GNGGA,020515.90,,,,,0,00,99.99,,,,,278.9,*58
[2021-01-29 11:05:17.563] $GNGGA,020516.00,,,,,0,00,99.99,,,,,279.0,*5A
[2021-01-29 11:05:17.657] $GNGGA,020516.10,,,,,0,00,99.99,,,,,279.1,*5A
[2021-01-29 11:05:17.766] $GNGGA,020516.20,,,,,0,00,99.99,,,,,279.2,*5A
[2021-01-29 11:05:17.860] $GNGGA,020516.30,,,,,0,00,99.99,,,,,279.3,*5A
[2021-01-29 11:05:17.954] $GNGGA,020516.40,,,,,0,00,99.99,,,,,279.4,*5A
[2021-01-29 11:05:18.063] $GNGGA,020516.50,,,,,0,00,99.99,,,,,279.5,*5A
[2021-01-29 11:05:18.157] $GNGGA,020516.60,,,,,0,00,99.99,,,,,279.6,*5A
[2021-01-29 11:05:18.268] $GNGGA,020516.70,,,,,0,00,99.99,,,,,279.7,*5A
[2021-01-29 11:05:18.362] $GNGGA,020516.80,,,,,0,00,99.99,,,,,279.8,*5A
[2021-01-29 11:05:18.456] $GNGGA,020516.90,,,,,0,00,99.99,,,,,279.9,*5A
[2021-01-29 11:05:18.565] $GNGGA,020517.00,,,,,0,00,99.99,,,,,280.0,*5D
[2021-01-29 11:05:18.659] $GNGGA,020517.10,,,,,0,00,99.99,,,,,280.1,*5D
[2021-01-29 11:05:18.768] $GNGGA,020517.20,,,,,0,00,99.99,,,,,280.2,*5D
[2021-01-29 11:05:18.862] $GNGGA,020517.30,,,,,0,00,99.99,,,,,280.3,*5D
[2021-01-29 11:05:18.956] $GNGGA,020517.40,,,,,0,00,99.99,,,,,280.4,*5D
[2021-01-29 11:05:19.065] $GNGGA,020517.50,,,,,0,00,99.99,,,,,280.5,*5D
[2021-01-29 11:05:19.159] $GNGGA,020517.60,,,,,0,00,99.99,,,,,280.6,*5D
[2021-01-29 11:05:19.270] $GNGGA,020517.70,,,,,0,00,99.99,,,,,280.7,*5D
[2021-01-29 11:05:19.364] $GNGGA,020517.80,,,,,0,00,99.99,,,,,280.8,*5D
[2021-01-29 11:05:19.458] $GNGGA,020517.90,,,,,0,00,99.99,,,,,280.9,*5D
[2021-01-29 11:05:19.567] $GNGGA,020518.00,,,,,0,00,99.99,,,,,281.0,*53
[2021-01-29 11:05:19.661] $GNGGA,020518.10,,,,,0,00,99.99,,,,,281.1,*53
[2021-01-29 11:05:19.755] $GNGGA,020518.20,,,,,0,00,99.99,,,,,281.2,*53
[2021-01-29 11:05:19.864] $GNGGA,020518.30,,,,,0,00,99.99,,,,,281.3,*53
[2021-01-29 11:05:19.958] $GNGGA,020518.40,,,,,0,00,99.99,,,,,281.4,*53
[2021-01-29 11:05:20.067] $GNGGA,020518.50,,,,,0,00,99.99,,,,,281.5,*53
[2021-01-29 11:05:20.161] $GNGGA,020518.60,,,,,0,00,99.99,,,,,281.6,*53
[2021-01-29 11:05:20.263] $GNGGA,020518.70,,,,,0,00,99.99,,,,,281.7,*53
[2021-01-29 11:05:20.366] $GNGGA,020518.80,,,,,0,00,99.99,,,,,281.8,*53
[2021-01-29 11:05:20.460] $GNGGA,020518.90,,,,,0,00,99.99,,,,,281.9,*53
[2021-01-29 11:05:20.553] $GNGGA,020519.00,,,,,0,00,99.99,,,,,282.0,*51
[2021-01-29 11:05:20.663] $GNGGA,020519.10,,,,,0,00,99.99,,,,,282.1,*51
[2021-01-29 11:05:20.757] $GNGGA,020519.20,,,,,0,00,99.99,,,,,282.2,*51
[2021-01-29 11:05:20.866] $GNGGA,020519.30,,,,,0,00,99.99,,,,,282.3,*51
[2021-01-29 11:05:20.960] $GNGGA,020519.40,,,,,0,00,99.99,,,,,282.4,*51
[2021-01-29 11:05:21.069] $GNGGA,020519.50,,,,,0,00,99.99,,,,,282.5,*51
[2021-01-29 11:05:21.163] $GNGGA,020519.60,,,,,0,00,99.99,,,,,282.6,*51
[2021-01-29 11:05:21.264] $GNGGA,020519.70,,,,,0,00,99.99,,,,,282.7,*51
[2021-01-29 11:05:21.368] $GNGGA,020519.80,,,,,0,00,99.99,,,,,282.8,*51
[2021-01-29 11:05:21.462] $GNGGA,020519.90,,,,,0,00,99.99,,,,,282.9,*51
[2021-01-29 11:05:21.571] $GNGGA,020520.00,,,,,0,00,99.99,,,,,283.0,*5A
[2021-01-29 11:05:21.665] $GNGGA,020520.10,,,,,0,00,99.99,,,,,283.1,*5A
[2021-01-29 11:05:21.759] $GNGGA,020520.20,,,,,0,00,99.99,,,,,283.2,*5A
[2021-01-29 11:05:21.868] $GNGGA,020520.30,,,,,0,00,99.99,,,,,283.3,*5A
[2021-01-29 11:05:21.962] $GNGGA,020520.40,,,,,0,00,99.99,,,,,283.4,*5A
[2021-01-29 11:05:22.056] $GNGGA,020520.50,,,,,0,00,99.99,,,,,283.5,*5A
[2021-01-29 11:05:22.165] $GNGGA,020520.60,,,,,0,00,99.99,,,,,283.6,*5A
[2021-01-29 11:05:22.268] $GNGGA,020520.70,,,,,0,00,99.99,,,,,283.7,*5A
[2021-01-29 11:05:22.368] $GNGGA,020520.80,,,,,0,00,99.99,,,,,283.8,*5A
[2021-01-29 11:05:22.462] $GNGGA,020520.90,,,,,0,00,99.99,,,,,283.9,*5A
[2021-01-29 11:05:22.556] $GNGGA,020521.00,,,,,0,00,99.99,,,,,284.0,*5C
[2021-01-29 11:05:22.665] $GNGGA,020521.10,,,,,0,00,99.99,,,,,284.1,*5C
[2021-01-29 11:05:22.759] $GNGGA,020521.20,,,,,0,00,99.99,,,,,284.2,*5C
[2021-01-29 11:05:22.868] $GNGGA,020521.30,,,,,0,00,99.99,,,,,284.3,*5C
[2021-01-29 11:05:22.962] $GNGGA,020521.40,,,,,0,00,99.99,,,,,284.4,*5C
[2021-01-29 11:05:23.056] $GNGGA,020521.50,,,,,0,00,99.99,,,,,284.5,*5C
[2021-01-29 11:05:23.165] $GNGGA,020521.60,,,,,0,00,99.99,,,,,284.6,*5C
[2021-01-29 11:05:23.267] $GNGGA,020521.70,,,,,0,00,99.99,,,,,284.7,*5C
[2021-01-29 11:05:23.355] $GNGGA,020521.80,,,,,0,00,99.99,,,,,284.8,*5C
[2021-01-29 11:05:23.464] $GNGGA,020521.90,,,,,0,00,99.99,,,,,284.9,*5C
[2021-01-29 11:05:23.558] $GNGGA,020522.00,,,,,0,00,99.99,,,,,285.0,*5E
[2021-01-29 11:05:23.667] $GNGGA,020522.10,,,,,0,00,99.99,,,,,285.1,*5E
[2021-01-29 11:05:23.761] $GNGGA,020522.20,,,,,0,00,99.99,,,,,285.2,*5E
[2021-01-29 11:05:23.870] $GNGGA,020522.30,,,,,0,00,99.99,,,,,285.3,*5E
[2021-01-29 11:05:23.964] $GNGGA,020522.40,,,,,0,00,99.99,,,,,285.4,*5E
[2021-01-29 11:05:24.058] $GNGGA,020522.50,,,,,0,00,99.99,,,,,285.5,*5E
[2021-01-29 11:05:24.167] $GNGGA,020522.60,,,,,0,00,99.99,,,,,285.6,*5E
[2021-01-29 11:05:24.269] $GNGGA,020522.70,,,,,0,00,99.99,,,,,285.7,*5E
[2021-01-29 11:05:24.373] $GNGGA,020522.80,,,,,0,00,99.99,,,,,285.8,*5E
[2021-01-29 11:05:24.466] $GNGGA,020522.90,,,,,0,00,99.99,,,,,285.9,*5E
[2021-01-29 11:05:24.560] $GNGGA,020523.00,,,,,0,00,99.99,,,,,286.0,*5C
[2021-01-29 11:05:24.669] $GNGGA,020523.10,,,,,0,00,99.99,,,,,286.1,*5C
[2021-01-29 11:05:24.763] $GNGGA,020523.20,,,,,0,00,99.99,,,,,286.2,*5C
[2021-01-29 11:05:24.857] $GNGGA,020523.30,,,,,0,00,99.99,,,,,286.3,*5C
[2021-01-29 11:05:24.966] $GNGGA,020523.40,,,,,0,00,99.99,,,,,286.4,*5C
[2021-01-29 11:05:25.060] $GNGGA,020523.50,,,,,0,00,99.99,,,,,286.5,*5C
[2021-01-29 11:05:25.169] $GNGGA,020523.60,,,,,0,00,99.99,,,,,286.6,*5C
[2021-01-29 11:05:25.263] $GNGGA,020523.70,,,,,0,00,99.99,,,,,286.7,*5C
[2021-01-29 11:05:25.356] $GNGGA,020523.80,,,,,0,00,99.99,,,,,286.8,*5C
[2021-01-29 11:05:25.466] $GNGGA,020523.90,,,,,0,00,99.99,,,,,286.9,*5C
[2021-01-29 11:05:25.559] $GNGGA,020524.00,,,,,0,00,99.99,,,,,287.0,*5A
[2021-01-29 11:05:25.669] $GNGGA,020524.10,,,,,0,00,99.99,,,,,287.1,*5A
[2021-01-29 11:05:25.762] $GNGGA,020524.20,,,,,0,00,99.99,,,,,287.2,*5A
[2021-01-29 11:05:25.856] $GNGGA,020524.30,,,,,0,00,99.99,,,,,287.3,*5A
[2021-01-29 11:05:25.966] $GNGGA,020524.40,,,,,0,00,99.99,,,,,287.4,*5A
[2021-01-29 11:05:26.059] $GNGGA,020524.50,,,,,0,00,99.99,,,,,287.5,*5A
[2021-01-29 11:05:26.169] $GNGGA,020524.60,,,,,0,00,99.99,,,,,287.6,*5A
[2021-01-29 11:05:26.265] $GNGGA,020524.70,,,,,0,00,99.99,,,,,287.7,*5A
[2021-01-29 11:05:26.359] $GNGGA,020524.80,,,,,0,00,99.99,,,,,287.8,*5A
[2021-01-29 11:05:26.468] $GNGGA,020524.90,,,,,0,00,99.99,,,,,287.9,*5A
[2021-01-29 11:05:26.562] $GNGGA,020525.00,,,,,0,00,99.99,,,,,288.0,*54
[2021-01-29 11:05:26.655] $GNGGA,020525.10,,,,,0,00,99.99,,,,,288.1,*54
[2021-01-29 11:05:26.765] $GNGGA,020525.20,,,,,0,00,99.99,,,,,288.2,*54
[2021-01-29 11:05:26.859] $GNGGA,020525.30,,,,,0,00,99.99,,,,,288.3,*54
[2021-01-29 11:05:26.968] $GNGGA,020525.40,,,,,0,00,99.99,,,,,288.4,*54
[2021-01-29 11:05:27.062] $GNGGA,020525.50,,,,,0,00,99.99,,,,,288.5,*54
[2021-01-29 11:05:27.155] $GNGGA,020525.60,,,,,0,00,99.99,,,,,288.6,*54
[2021-01-29 11:05:27.266] $GNGGA,020525.70,,,,,0,00,99.99,,,,,288.7,*54
[2021-01-29 11:05:27.360] $GNGGA,020525.80,,,,,0,00,99.99,,,,,288.8,*54
[2021-01-29 11:05:27.469] $GNGGA,020525.90,,,,,0,00,99.99,,,,,288.9,*54
[2021-01-29 11:05:27.563] $GNGGA,020526.00,,,,,0,00,99.99,,,,,289.0,*56
[2021-01-29 11:05:27.656] $GNGGA,020526.10,4327.730056598,N,14148.328185999,E,5,00,99.90,112.537,M,31.866,M,289.1,1010*5D
[2021-01-29 11:05:27.766] $GNGGA,020526.20,4327.730061275,N,14148.328182441,E,5,00,99.90,112.521,M,31.866,M,289.2,1010*55
[2021-01-29 11:05:27.860] $GNGGA,020526.30,4327.730057663,N,14148.328185481,E,5,00,99.90,112.528,M,31.866,M,289.3,1010*51
[2021-01-29 11:05:27.969] $GNGGA,020526.40,4327.730057758,N,14148.328185048,E,5,00,99.90,112.525,M,31.866,M,289.4,1010*54
[2021-01-29 11:05:28.063] $GNGGA,020526.50,4327.730056827,N,14148.328186412,E,5,00,99.90,112.526,M,31.866,M,289.5,1010*59
[2021-01-29 11:05:28.156] $GNGGA,020526.60,4327.730055607,N,14148.328187003,E,5,00,99.90,112.530,M,31.866,M,289.6,1010*54
[2021-01-29 11:05:28.268] $GNGGA,020526.70,4327.730055014,N,14148.328188003,E,5,00,99.90,112.534,M,31.866,M,289.7,1010*5B
[2021-01-29 11:05:28.362] $GNGGA,020526.80,4327.730055323,N,14148.328189169,E,5,00,99.90,112.537,M,31.866,M,289.8,1010*53
[2021-01-29 11:05:28.456] $GNGGA,020526.90,4327.730058014,N,14148.328188630,E,5,00,99.90,112.537,M,31.866,M,289.9,1010*53
[2021-01-29 11:05:28.565] $GNGGA,020527.00,4327.730057733,N,14148.328189583,E,5,00,99.90,112.535,M,31.866,M,290.0,1010*5F
[2021-01-29 11:05:28.659] $GNGGA,020527.10,4327.730058032,N,14148.328188689,E,5,00,99.90,112.531,M,31.866,M,290.1,1010*5A
[2021-01-29 11:05:28.768] $GNGGA,020527.20,4327.730058474,N,14148.328188518,E,5,00,99.90,112.536,M,31.866,M,290.2,1010*50
[2021-01-29 11:05:28.862] $GNGGA,020527.30,4327.730058975,N,14148.328189229,E,5,00,99.90,112.529,M,31.866,M,290.3,1010*56
[2021-01-29 11:05:28.956] $GNGGA,020527.40,4327.730058503,N,14148.328189837,E,5,00,99.90,112.525,M,31.866,M,290.4,1010*52
[2021-01-29 11:05:29.065] $GNGGA,020527.50,4327.730057733,N,14148.328190220,E,5,00,99.90,112.527,M,31.866,M,290.5,1010*5A
[2021-01-29 11:05:29.159] $GNGGA,020527.60,4327.730135376,N,14148.328075107,E,5,00,99.90,112.593,M,31.866,M,290.6,1010*59
[2021-01-29 11:05:29.270] $GNGGA,020527.70,4327.730231068,N,14148.328148425,E,5,00,99.90,112.206,M,31.866,M,290.7,1010*53
[2021-01-29 11:05:29.364] $GNGGA,020527.80,4327.730181562,N,14148.328059596,E,5,00,99.90,111.769,M,31.866,M,290.8,1010*53
[2021-01-29 11:05:29.457] $GNGGA,020527.90,4327.730086861,N,14148.328937649,E,5,00,99.90,110.992,M,31.866,M,290.9,1010*50
[2021-01-29 11:05:29.567] $GNGGA,020528.00,4327.730112820,N,14148.328700914,E,5,00,99.90,111.207,M,31.866,M,291.0,1010*5C
[2021-01-29 11:05:29.660] $GNGGA,020528.10,4327.730115038,N,14148.328685820,E,5,00,99.90,111.212,M,31.866,M,291.1,1010*54
[2021-01-29 11:05:29.770] $GNGGA,020528.20,4327.730117392,N,14148.328686410,E,5,00,99.90,111.200,M,31.866,M,291.2,1010*5A
[2021-01-29 11:05:29.863] $GNGGA,020528.30,4327.730116433,N,14148.328686860,E,5,00,99.90,111.204,M,31.866,M,291.3,1010*58
[2021-01-29 11:05:29.957] $GNGGA,020528.40,4327.730096353,N,14148.328831612,E,5,00,99.90,111.087,M,31.866,M,291.4,1010*50
[2021-01-29 11:05:30.067] $GNGGA,020528.50,4327.730083729,N,14148.328935499,E,5,00,99.90,111.000,M,31.866,M,291.5,1010*56
[2021-01-29 11:05:30.160] $GNGGA,020528.60,4327.730083419,N,14148.328932635,E,5,00,99.90,111.000,M,31.866,M,291.6,1010*55
[2021-01-29 11:05:30.264] $GNGGA,020528.70,4327.729354949,N,14148.328888595,E,5,00,99.90,111.978,M,31.866,M,291.7,1010*53
[2021-01-29 11:05:30.365] $GNGGA,020528.80,4327.729429459,N,14148.328902065,E,5,00,99.90,111.915,M,31.866,M,291.8,1010*50
[2021-01-29 11:05:30.459] $GNGGA,020528.90,4327.729466788,N,14148.328901081,E,5,00,99.90,111.827,M,31.866,M,291.9,1010*5D
[2021-01-29 11:05:30.569] $GNGGA,020529.00,4327.729503113,N,14148.328893698,E,5,00,99.90,111.707,M,31.866,M,292.0,1010*50
[2021-01-29 11:05:30.662] $GNGGA,020529.10,4327.729589229,N,14148.328894379,E,5,00,99.90,111.529,M,31.866,M,292.1,1010*5B
[2021-01-29 11:05:30.756] $GNGGA,020529.20,4327.729626916,N,14148.328896688,E,5,00,99.90,111.481,M,31.866,M,292.2,1010*50
[2021-01-29 11:05:30.865] $GNGGA,020529.30,4327.729613645,N,14148.328891069,E,5,00,99.90,111.463,M,31.866,M,292.3,1010*5D
[2021-01-29 11:05:30.959] $GNGGA,020529.40,4327.729601619,N,14148.328883607,E,5,00,99.90,111.438,M,31.866,M,292.4,1010*54
[2021-01-29 11:05:31.069] $GNGGA,020529.50,4327.729608261,N,14148.328882007,E,5,00,99.90,111.407,M,31.866,M,292.5,1010*5D
[2021-01-29 11:05:31.162] $GNGGA,020529.60,4327.729628058,N,14148.328879011,E,5,00,99.90,111.347,M,31.866,M,292.6,1010*57
[2021-01-29 11:05:31.272] $GNGGA,020529.70,4327.729655078,N,14148.328875435,E,5,00,99.90,111.269,M,31.866,M,292.7,1010*5C
[2021-01-29 11:05:31.366] $GNGGA,020529.80,4327.729676826,N,14148.328878409,E,5,00,99.90,111.245,M,31.866,M,292.8,1010*52
[2021-01-29 11:05:31.460] $GNGGA,020529.90,4327.729684585,N,14148.328885366,E,5,00,99.90,111.284,M,31.866,M,292.9,1010*5A
[2021-01-29 11:05:31.569] $GNGGA,020530.00,4327.729683888,N,14148.328892228,E,5,00,99.90,111.318,M,31.866,M,293.0,1010*5D
[2021-01-29 11:05:31.663] $GNGGA,020530.10,4327.729685411,N,14148.328895505,E,5,00,99.90,111.345,M,31.866,M,293.1,1010*50
[2021-01-29 11:05:31.757] $GNGGA,020530.20,4327.729690088,N,14148.328895994,E,5,00,99.90,111.320,M,31.866,M,293.2,1010*57
[2021-01-29 11:05:31.866] $GNGGA,020530.30,4327.729727255,N,14148.328846812,E,5,00,99.90,111.239,M,31.866,M,293.3,1010*50
[2021-01-29 11:05:31.960] $GNGGA,020530.40,4327.729572227,N,14148.329049323,E,5,03,99.90,111.240,M,31.866,M,293.4,1010*55
[2021-01-29 11:05:32.069] $GNGGA,020530.50,4327.729387643,N,14148.329320473,E,5,03,99.90,111.066,M,31.866,M,293.5,1010*57
[2021-01-29 11:05:32.163] $GNGGA,020530.60,4327.729393617,N,14148.329413096,E,5,03,99.90,110.918,M,31.866,M,293.6,1010*5A
[2021-01-29 11:05:32.267] $GNGGA,020530.70,4327.729411225,N,14148.329413313,E,5,03,99.90,110.842,M,31.866,M,293.7,1010*52
[2021-01-29 11:05:32.369] $GNGGA,020530.80,4327.729370619,N,14148.329475263,E,5,03,99.90,110.837,M,31.866,M,293.8,1010*5D
[2021-01-29 11:05:32.463] $GNGGA,020530.90,4327.729364457,N,14148.329496782,E,5,03,99.90,110.748,M,31.866,M,293.9,1010*50
[2021-01-29 11:05:32.556] $GNGGA,020531.00,4327.729328825,N,14148.329550233,E,5,03,99.90,110.752,M,31.866,M,294.0,1010*58
[2021-01-29 11:05:32.666] $GNGGA,020531.10,4327.729320293,N,14148.329577818,E,5,03,99.90,110.775,M,31.866,M,294.1,1010*54
[2021-01-29 11:05:32.759] $GNGGA,020531.20,4327.729312395,N,14148.329628651,E,5,03,99.90,110.741,M,31.866,M,294.2,1010*5F
[2021-01-29 11:05:32.869] $GNGGA,020531.30,4327.729334200,N,14148.329599129,E,5,03,99.90,110.778,M,31.866,M,294.3,1010*5D
[2021-01-29 11:05:32.963] $GNGGA,020531.40,4327.729346237,N,14148.329590550,E,5,03,99.90,110.761,M,31.866,M,294.4,1010*57
[2021-01-29 11:05:33.056] $GNGGA,020531.50,4327.729330636,N,14148.329600851,E,5,03,99.90,110.746,M,31.866,M,294.5,1010*50
[2021-01-29 11:05:33.166] $GNGGA,020531.60,4327.729325491,N,14148.329604988,E,5,03,99.90,110.763,M,31.866,M,294.6,1010*5D
[2021-01-29 11:05:33.267] $GNGGA,020531.70,4327.729315581,N,14148.329611233,E,5,03,99.90,110.805,M,31.866,M,294.7,1010*5E
[2021-01-29 11:05:33.370] $GNGGA,020531.80,4327.729300129,N,14148.329619989,E,5,03,99.90,110.822,M,31.866,M,294.8,1010*5B
[2021-01-29 11:05:33.463] $GNGGA,020531.90,4327.729288851,N,14148.329604422,E,5,03,99.90,110.921,M,31.866,M,294.9,1010*5E
[2021-01-29 11:05:33.557] $GNGGA,020532.00,4327.729284276,N,14148.329597048,E,5,03,99.90,110.963,M,31.866,M,295.0,1010*58
[2021-01-29 11:05:33.667] $GNGGA,020532.10,4327.729275530,N,14148.329594241,E,5,03,99.90,110.994,M,31.866,M,295.1,1010*53
[2021-01-29 11:05:33.760] $GNGGA,020532.20,4327.729274137,N,14148.329584717,E,5,03,99.90,111.022,M,31.866,M,295.2,1010*53
[2021-01-29 11:05:33.870] $GNGGA,020532.30,4327.729271360,N,14148.329583228,E,5,03,99.90,111.056,M,31.866,M,295.3,1010*5B
[2021-01-29 11:05:33.963] $GNGGA,020532.40,4327.729257216,N,14148.329594266,E,5,03,99.90,111.082,M,31.866,M,295.4,1010*5A
[2021-01-29 11:05:34.057] $GNGGA,020532.50,4327.729254167,N,14148.329599305,E,5,03,99.90,111.100,M,31.866,M,295.5,1010*5E
[2021-01-29 11:05:34.167] $GNGGA,020532.60,4327.729245527,N,14148.329625730,E,5,03,99.90,111.066,M,31.866,M,295.6,1010*59
[2021-01-29 11:05:34.269] $GNGGA,020532.70,4327.729248691,N,14148.329630614,E,5,03,99.90,111.049,M,31.866,M,295.7,1010*54
[2021-01-29 11:05:34.371] $GNGGA,020532.80,4327.729251426,N,14148.329636487,E,5,04,4.36,111.031,M,31.866,M,295.8,1010*6C
[2021-01-29 11:05:34.464] $GNGGA,020532.90,4327.729242208,N,14148.329647417,E,5,04,4.36,111.011,M,31.866,M,295.9,1010*69
[2021-01-29 11:05:34.558] $GNGGA,020533.00,4327.729197209,N,14148.329663690,E,5,04,4.36,111.022,M,31.866,M,296.0,1010*6A
[2021-01-29 11:05:34.668] $GNGGA,020533.10,4327.729168583,N,14148.329702117,E,5,04,4.36,111.011,M,31.866,M,296.1,1010*61
[2021-01-29 11:05:34.761] $GNGGA,020533.20,4327.729148232,N,14148.329708211,E,5,04,4.36,110.996,M,31.866,M,296.2,1010*66
[2021-01-29 11:05:34.871] $GNGGA,020533.30,4327.729141704,N,14148.329722979,E,5,04,4.36,110.975,M,31.866,M,296.3,1010*6F
[2021-01-29 11:05:34.964] $GNGGA,020533.40,4327.729139416,N,14148.329733103,E,5,04,4.36,110.957,M,31.866,M,296.4,1010*65
[2021-01-29 11:05:35.058] $GNGGA,020533.50,4327.729130771,N,14148.329747408,E,5,04,4.36,110.941,M,31.866,M,296.5,1010*64
[2021-01-29 11:05:35.168] $GNGGA,020533.60,4327.729129282,N,14148.329750925,E,5,04,4.36,110.938,M,31.866,M,296.6,1010*6F
[2021-01-29 11:05:35.270] $GNGGA,020533.70,4327.729125673,N,14148.329758448,E,5,04,4.36,110.916,M,31.866,M,296.7,1010*6B
[2021-01-29 11:05:35.372] $GNGGA,020533.80,4327.729135083,N,14148.329749391,E,5,04,4.36,110.901,M,31.866,M,296.8,1010*66
[2021-01-29 11:05:35.466] $GNGGA,020533.90,4327.729131892,N,14148.329753348,E,5,04,4.36,110.894,M,31.866,M,296.9,1010*68
[2021-01-29 11:05:35.560] $GNGGA,020534.00,4327.729133677,N,14148.329749252,E,5,04,4.36,110.890,M,31.866,M,297.0,1010*6C
[2021-01-29 11:05:35.669] $GNGGA,020534.10,4327.729130559,N,14148.329751751,E,5,04,4.36,110.887,M,31.866,M,297.1,1010*69
[2021-01-29 11:05:35.763] $GNGGA,020534.20,4327.729131514,N,14148.329748056,E,5,04,4.36,110.887,M,31.866,M,297.2,1010*69
[2021-01-29 11:05:35.857] $GNGGA,020534.30,4327.729128765,N,14148.329750915,E,5,04,4.36,110.887,M,31.866,M,297.3,1010*62
[2021-01-29 11:05:35.966] $GNGGA,020534.40,4327.729128636,N,14148.329746973,E,5,04,4.36,110.892,M,31.866,M,297.4,1010*66
[2021-01-29 11:05:36.060] $GNGGA,020534.50,4327.729127398,N,14148.329748575,E,5,04,4.36,110.896,M,31.866,M,297.5,1010*68
[2021-01-29 11:05:36.169] $GNGGA,020534.60,4327.729122942,N,14148.329747948,E,5,04,4.36,110.904,M,31.866,M,297.6,1010*67
[2021-01-29 11:05:36.264] $GNGGA,020534.70,4327.729124265,N,14148.329747449,E,5,04,4.36,110.907,M,31.866,M,297.7,1010*60
[2021-01-29 11:05:36.357] $GNGGA,020534.80,4327.729120933,N,14148.329746883,E,5,04,4.36,110.919,M,31.866,M,297.8,1010*68
[2021-01-29 11:05:36.467] $GNGGA,020534.90,4327.729123681,N,14148.329744892,E,5,04,4.36,110.907,M,31.866,M,297.9,1010*60
[2021-01-29 11:05:36.561] $GNGGA,020535.00,4327.729133266,N,14148.329731492,E,5,04,4.36,110.912,M,31.866,M,298.0,1010*68
[2021-01-29 11:05:36.670] $GNGGA,020535.10,4327.729133781,N,14148.329732618,E,5,04,4.36,110.907,M,31.866,M,298.1,1010*63
[2021-01-29 11:05:36.764] $GNGGA,020535.20,4327.729136357,N,14148.329728709,E,5,04,4.36,110.906,M,31.866,M,298.2,1010*62
[2021-01-29 11:05:36.857] $GNGGA,020535.30,4327.729140301,N,14148.329726846,E,5,04,4.36,110.897,M,31.866,M,298.3,1010*63
[2021-01-29 11:05:36.967] $GNGGA,020535.40,4327.729144266,N,14148.329719725,E,5,04,4.37,110.898,M,31.866,M,298.4,1010*6F
[2021-01-29 11:05:37.061] $GNGGA,020535.50,4327.729149646,N,14148.329709493,E,5,04,4.37,110.854,M,31.866,M,298.5,1010*6B
[2021-01-29 11:05:37.154] $GNGGA,020535.60,4327.729155246,N,14148.329698738,E,5,04,4.37,110.848,M,31.866,M,298.6,1010*64
[2021-01-29 11:05:37.265] $GNGGA,020535.70,4327.729148179,N,14148.329698476,E,5,04,4.37,110.834,M,31.866,M,298.7,1010*65
[2021-01-29 11:05:37.359] $GNGGA,020535.80,4327.729148099,N,14148.329691799,E,5,04,4.37,110.831,M,31.866,M,298.8,1010*64
[2021-01-29 11:05:37.468] $GNGGA,020535.90,4327.729148098,N,14148.329687750,E,5,04,4.37,110.818,M,31.866,M,298.9,1010*6C
[2021-01-29 11:05:37.562] $GNGGA,020536.00,4327.729153317,N,14148.329675426,E,5,04,4.37,110.806,M,31.866,M,299.0,1010*60
[2021-01-29 11:05:37.656] $GNGGA,020536.10,4327.729152439,N,14148.329674179,E,5,04,4.37,110.790,M,31.866,M,299.1,1010*64
[2021-01-29 11:05:37.765] $GNGGA,020536.20,4327.729153145,N,14148.329666785,E,5,04,4.37,110.779,M,31.866,M,299.2,1010*6A
[2021-01-29 11:05:37.859] $GNGGA,020536.30,4327.729150453,N,14148.329664822,E,5,04,4.37,110.766,M,31.866,M,299.3,1010*65
[2021-01-29 11:05:37.968] $GNGGA,020536.40,4327.729152177,N,14148.329657857,E,5,04,4.37,110.759,M,31.866,M,299.4,1010*6A
[2021-01-29 11:05:38.062] $GNGGA,020536.50,4327.729149808,N,14148.329655734,E,5,04,4.37,110.747,M,31.866,M,299.5,1010*66
[2021-01-29 11:05:38.156] $GNGGA,020536.60,4327.729150648,N,14148.329649255,E,5,04,4.37,110.739,M,31.866,M,299.6,1010*62
[2021-01-29 11:05:38.267] $GNGGA,020536.70,4327.729149465,N,14148.329649028,E,5,04,4.37,110.726,M,31.866,M,299.7,1010*61
[2021-01-29 11:05:38.361] $GNGGA,020536.80,4327.729151740,N,14148.329646090,E,5,04,4.37,110.727,M,31.866,M,299.8,1010*61
[2021-01-29 11:05:38.470] $GNGGA,020536.90,4327.729150446,N,14148.329645733,E,5,04,4.37,110.715,M,31.866,M,299.9,1010*69
[2021-01-29 11:05:38.564] $GNGGA,020537.00,4327.729152066,N,14148.329645234,E,5,04,4.37,110.718,M,31.866,M,300.0,1010*62
[2021-01-29 11:05:38.657] $GNGGA,020537.10,4327.729151746,N,14148.329641122,E,5,04,4.37,110.697,M,31.866,M,300.1,1010*62
[2021-01-29 11:05:38.767] $GNGGA,020537.20,4327.729152824,N,14148.329640964,E,5,04,4.37,110.694,M,31.866,M,300.2,1010*62
[2021-01-29 11:05:38.861] $GNGGA,020537.30,4327.729153192,N,14148.329637807,E,5,04,4.37,110.679,M,31.866,M,300.3,1010*60
[2021-01-29 11:05:38.970] $GNGGA,020537.40,4327.729154969,N,14148.329635965,E,5,04,4.37,110.676,M,31.866,M,300.4,1010*63
[2021-01-29 11:05:39.064] $GNGGA,020537.50,4327.729153947,N,14148.329633947,E,5,04,4.37,110.662,M,31.866,M,300.5,1010*6B
[2021-01-29 11:05:39.157] $GNGGA,020537.60,4327.729155236,N,14148.329632400,E,5,04,4.37,110.668,M,31.866,M,300.6,1010*65
[2021-01-29 11:05:39.269] $GNGGA,020537.70,4327.729155518,N,14148.329629706,E,5,04,4.37,110.651,M,31.866,M,300.7,1010*6B
[2021-01-29 11:05:39.363] $GNGGA,020537.80,4327.729158414,N,14148.329626582,E,5,04,4.37,110.653,M,31.866,M,300.8,1010*68
[2021-01-29 11:05:39.456] $GNGGA,020537.90,4327.729158299,N,14148.329625726,E,5,04,4.37,110.645,M,31.866,M,300.9,1010*63
[2021-01-29 11:05:39.566] $GNGGA,020538.00,4327.729156397,N,14148.329625865,E,5,04,4.37,110.652,M,31.866,M,301.0,1010*62
[2021-01-29 11:05:39.660] $GNGGA,020538.10,4327.729155753,N,14148.329627052,E,5,04,4.37,110.652,M,31.866,M,301.1,1010*63
[2021-01-29 11:05:39.769] $GNGGA,020538.20,4327.729160796,N,14148.329621606,E,5,04,4.38,110.653,M,31.866,M,301.2,1010*63
[2021-01-29 11:05:39.863] $GNGGA,020538.30,4327.729159364,N,14148.329622736,E,5,04,4.38,110.651,M,31.866,M,301.3,1010*63
[2021-01-29 11:05:39.956] $GNGGA,020538.40,4327.729158025,N,14148.329624408,E,5,04,4.38,110.650,M,31.866,M,301.4,1010*6D
[2021-01-29 11:05:40.066] $GNGGA,020538.50,4327.729155426,N,14148.329624734,E,5,04,4.38,110.657,M,31.866,M,301.5,1010*6C
[2021-01-29 11:05:40.159] $GNGGA,020538.60,4327.729159888,N,14148.329620386,E,5,04,4.38,110.649,M,31.866,M,301.6,1010*6E
[2021-01-29 11:05:40.271] $GNGGA,020538.70,4327.729157400,N,14148.329619408,E,5,04,4.38,110.648,M,31.866,M,301.7,1010*66
[2021-01-29 11:05:40.365] $GNGGA,020538.80,4327.729158854,N,14148.329617566,E,5,04,4.38,110.644,M,31.866,M,301.8,1010*6F
[2021-01-29 11:05:40.458] $GNGGA,020538.90,4327.729157916,N,14148.329617845,E,5,04,4.38,110.636,M,31.866,M,301.9,1010*6E
[2021-01-29 11:05:40.568] $GNGGA,020539.00,4327.729154231,N,14148.329618150,E,5,04,4.38,110.639,M,31.866,M,302.0,1010*6C
[2021-01-29 11:05:40.661] $GNGGA,020539.10,4327.729152812,N,14148.329619840,E,5,04,4.38,110.628,M,31.866,M,302.1,1010*68
[2021-01-29 11:05:40.771] $GNGGA,020539.20,4327.729151443,N,14148.329617929,E,5,04,4.38,110.627,M,31.866,M,302.2,1010*6C
[2021-01-29 11:05:40.864] $GNGGA,020539.30,4327.729148082,N,14148.329617456,E,5,04,4.38,110.622,M,31.866,M,302.3,1010*6D
[2021-01-29 11:05:40.958] $GNGGA,020539.40,4327.729146503,N,14148.329616661,E,5,04,4.38,110.626,M,31.866,M,302.4,1010*6C
[2021-01-29 11:05:41.068] $GNGGA,020539.50,4327.729144946,N,14148.329616059,E,5,04,4.38,110.624,M,31.866,M,302.5,1010*6C
[2021-01-29 11:05:41.161] $GNGGA,020539.60,4327.729143119,N,14148.329618367,E,5,04,4.38,110.629,M,31.866,M,302.6,1010*64
[2021-01-29 11:05:41.272] $GNGGA,020539.70,4327.729142165,N,14148.329618669,E,5,04,4.38,110.626,M,31.866,M,302.7,1010*6A
[2021-01-29 11:05:41.366] $GNGGA,020539.80,4327.729141626,N,14148.329619344,E,5,04,4.38,110.630,M,31.866,M,302.8,1010*65
[2021-01-29 11:05:41.459] $GNGGA,020539.90,4327.729141623,N,14148.329618989,E,5,04,4.38,110.623,M,31.866,M,302.9,1010*68
[2021-01-29 11:05:41.569] $GNGGA,020540.00,4327.729141518,N,14148.329619845,E,5,04,4.38,110.624,M,31.866,M,303.0,1010*6B
[2021-01-29 11:05:41.663] $GNGGA,020540.10,4327.729141699,N,14148.329617414,E,5,04,4.38,110.612,M,31.866,M,303.1,1010*62
[2021-01-29 11:05:41.756] $GNGGA,020540.20,4327.729142653,N,14148.329616459,E,5,04,4.38,110.607,M,31.866,M,303.2,1010*6B
[2021-01-29 11:05:41.866] $GNGGA,020540.30,4327.729142061,N,14148.329618559,E,5,04,4.38,110.601,M,31.866,M,303.3,1010*65
[2021-01-29 11:05:41.959] $GNGGA,020540.40,4327.729142279,N,14148.329619213,E,5,04,4.38,110.601,M,31.866,M,303.4,1010*66
[2021-01-29 11:05:42.069] $GNGGA,020540.50,4327.729141604,N,14148.329618912,E,5,04,4.38,110.598,M,31.866,M,303.5,1010*63
[2021-01-29 11:05:42.163] $GNGGA,020540.60,4327.729141046,N,14148.329620245,E,5,04,4.38,110.599,M,31.866,M,303.6,1010*60
[2021-01-29 11:05:42.266] $GNGGA,020540.70,4327.729139827,N,14148.329620738,E,5,04,4.38,110.594,M,31.866,M,303.7,1010*62
[2021-01-29 11:05:42.367] $GNGGA,020540.80,4327.729140292,N,14148.329621427,E,5,04,4.38,110.600,M,31.866,M,303.8,1010*6A
[2021-01-29 11:05:42.461] $GNGGA,020540.90,4327.729139080,N,14148.329620972,E,5,04,4.39,110.593,M,31.866,M,303.9,1010*61
[2021-01-29 11:05:42.570] $GNGGA,020541.00,4327.729138829,N,14148.329620452,E,5,04,4.39,110.595,M,31.866,M,304.0,1010*64
[2021-01-29 11:05:42.664] $GNGGA,020541.10,4327.729137817,N,14148.329620631,E,5,04,4.39,110.590,M,31.866,M,304.1,1010*64
[2021-01-29 11:05:42.758] $GNGGA,020541.20,4327.729137505,N,14148.329620196,E,5,04,4.39,110.588,M,31.866,M,304.2,1010*69
[2021-01-29 11:05:42.867] $GNGGA,020541.30,4327.729137577,N,14148.329619271,E,5,04,4.39,110.585,M,31.866,M,304.3,1010*61
[2021-01-29 11:05:42.961] $GNGGA,020541.40,4327.729136944,N,14148.329618542,E,5,04,4.39,110.581,M,31.866,M,304.4,1010*6E
[2021-01-29 11:05:43.070] $GNGGA,020541.50,4327.729136683,N,14148.329617356,E,5,04,4.39,110.578,M,31.866,M,304.5,1010*60
[2021-01-29 11:05:43.164] $GNGGA,020541.60,4327.729135958,N,14148.329617288,E,5,04,4.39,110.580,M,31.866,M,304.6,1010*6F
[2021-01-29 11:05:43.268] $GNGGA,020541.70,4327.729135619,N,14148.329616230,E,5,04,4.39,110.576,M,31.866,M,304.7,1010*6E
[2021-01-29 11:05:43.369] $GNGGA,020541.80,4327.729134395,N,14148.329617067,E,5,04,4.39,110.585,M,31.866,M,304.8,1010*63
[2021-01-29 11:05:43.463] $GNGGA,020541.90,4327.729133105,N,14148.329617589,E,5,04,4.39,110.582,M,31.866,M,304.9,1010*6D
[2021-01-29 11:05:43.557] $GNGGA,020542.00,4327.729133754,N,14148.329616104,E,5,04,4.39,110.585,M,31.866,M,305.0,1010*6A
[2021-01-29 11:05:43.666] $GNGGA,020542.10,4327.729131766,N,14148.329616427,E,5,04,4.39,110.582,M,31.866,M,305.1,1010*6A
[2021-01-29 11:05:43.760] $GNGGA,020542.20,4327.729132112,N,14148.329615935,E,5,04,4.39,110.585,M,31.866,M,305.2,1010*66
[2021-01-29 11:05:43.869] $GNGGA,020542.30,4327.729130646,N,14148.329615813,E,5,04,4.39,110.584,M,31.866,M,305.3,1010*66
[2021-01-29 11:05:43.963] $GNGGA,020542.40,4327.729131248,N,14148.329614477,E,5,04,4.39,110.583,M,31.866,M,305.4,1010*65
[2021-01-29 11:05:44.057] $GNGGA,020542.50,4327.729131665,N,14148.329611711,E,5,04,4.39,110.573,M,31.866,M,305.5,1010*67
[2021-01-29 11:05:44.166] $GNGGA,020542.60,4327.729132612,N,14148.329610100,E,5,04,4.39,110.583,M,31.866,M,305.6,1010*6C
[2021-01-29 11:05:44.268] $GNGGA,020542.70,4327.729133384,N,14148.329608103,E,5,04,4.39,110.574,M,31.866,M,305.7,1010*65
[2021-01-29 11:05:44.370] $GNGGA,020542.80,4327.729133510,N,14148.329608194,E,5,04,4.39,110.570,M,31.866,M,305.8,1010*64
[2021-01-29 11:05:44.464] $GNGGA,020542.90,4327.729132829,N,14148.329608504,E,5,04,4.39,110.571,M,31.866,M,305.9,1010*6E
[2021-01-29 11:05:44.558] $GNGGA,020543.00,4327.729134251,N,14148.329607409,E,5,04,4.39,110.570,M,31.866,M,306.0,1010*6D
[2021-01-29 11:05:44.667] $GNGGA,020543.10,4327.729136330,N,14148.329606424,E,5,04,4.39,110.558,M,31.866,M,306.1,1010*6D
[2021-01-29 11:05:44.761] $GNGGA,020543.20,4327.729135729,N,14148.329606542,E,5,04,4.39,110.565,M,31.866,M,306.2,1010*6D
[2021-01-29 11:05:44.855] $GNGGA,020543.30,4327.729136836,N,14148.329605307,E,5,04,4.39,110.558,M,31.866,M,306.3,1010*65
[2021-01-29 11:05:44.964] $GNGGA,020543.40,4327.729139052,N,14148.329603156,E,5,04,4.39,110.555,M,31.866,M,306.4,1010*6D
[2021-01-29 11:05:45.058] $GNGGA,020543.50,4327.729139213,N,14148.329602525,E,5,04,4.39,110.563,M,31.866,M,306.5,1010*6E
[2021-01-29 11:05:45.167] $GNGGA,020543.60,4327.729141680,N,14148.329600308,E,5,04,4.39,110.559,M,31.866,M,306.6,1010*6D
[2021-01-29 11:05:45.269] $GNGGA,020543.70,4327.729142966,N,14148.329599039,E,5,04,4.40,110.554,M,31.866,M,306.7,1010*68
[2021-01-29 11:05:45.357] $GNGGA,020543.80,4327.729145595,N,14148.329595753,E,5,04,4.40,110.560,M,31.866,M,306.8,1010*6F
[2021-01-29 11:05:45.467] $GNGGA,020543.90,4327.729147759,N,14148.329594200,E,5,04,4.40,110.547,M,31.866,M,306.9,1010*68
[2021-01-29 11:05:45.560] $GNGGA,020544.00,4327.729150273,N,14148.329591792,E,5,04,4.40,110.544,M,31.866,M,307.0,1010*6D
[2021-01-29 11:05:45.670] $GNGGA,020544.10,4327.729150269,N,14148.329591631,E,5,04,4.40,110.550,M,31.866,M,307.1,1010*6B
[2021-01-29 11:05:45.763] $GNGGA,020544.20,4327.729150320,N,14148.329593429,E,5,04,4.40,110.557,M,31.866,M,307.2,1010*69
[2021-01-29 11:05:45.857] $GNGGA,020544.30,4327.729151606,N,14148.329592475,E,5,04,4.40,110.550,M,31.866,M,307.3,1010*66
[2021-01-29 11:05:45.967] $GNGGA,020544.40,4327.729152811,N,14148.329592533,E,5,04,4.40,110.545,M,31.866,M,307.4,1010*6A
[2021-01-29 11:05:46.060] $GNGGA,020544.50,4327.729152564,N,14148.329593636,E,5,04,4.40,110.552,M,31.866,M,307.5,1010*64
[2021-01-29 11:05:46.170] $GNGGA,020544.60,4327.729153533,N,14148.329593788,E,5,04,4.40,110.545,M,31.866,M,307.6,1010*65
[2021-01-29 11:05:46.263] $GNGGA,020544.70,4327.729155082,N,14148.329593065,E,5,04,4.40,110.543,M,31.866,M,307.7,1010*6E
[2021-01-29 11:05:46.357] $GNGGA,020544.80,4327.729155096,N,14148.329594082,E,5,04,4.40,110.549,M,31.866,M,307.8,1010*6F
[2021-01-29 11:05:46.466] $GNGGA,020544.90,4327.729155347,N,14148.329593188,E,5,04,4.40,110.542,M,31.866,M,307.9,1010*67
[2021-01-29 11:05:46.560] $GNGGA,020545.00,4327.729156639,N,14148.329591564,E,5,04,4.40,110.539,M,31.866,M,308.0,1010*6E
[2021-01-29 11:05:46.669] $GNGGA,020545.10,4327.729156655,N,14148.329591535,E,5,04,4.40,110.539,M,31.866,M,308.1,1010*60
[2021-01-29 11:05:46.763] $GNGGA,020545.20,4327.729157029,N,14148.329591516,E,5,04,4.40,110.535,M,31.866,M,308.2,1010*61
[2021-01-29 11:05:46.857] $GNGGA,020545.30,4327.729156948,N,14148.329591994,E,5,04,4.40,110.539,M,31.866,M,308.3,1010*64
[2021-01-29 11:05:46.966] $GNGGA,020545.40,4327.729157604,N,14148.329592822,E,5,04,4.40,110.535,M,31.866,M,308.4,1010*61
[2021-01-29 11:05:47.060] $GNGGA,020545.50,4327.729157752,N,14148.329593265,E,5,04,4.40,110.538,M,31.866,M,308.5,1010*66
[2021-01-29 11:05:47.169] $GNGGA,020545.60,4327.729158644,N,14148.329592639,E,5,04,4.40,110.538,M,31.866,M,308.6,1010*63
[2021-01-29 11:05:47.265] $GNGGA,020545.70,4327.729158469,N,14148.329593702,E,5,04,4.40,110.539,M,31.866,M,308.7,1010*67
[2021-01-29 11:05:47.358] $GNGGA,020545.80,4327.729158037,N,14148.329593598,E,5,04,4.40,110.536,M,31.866,M,308.8,1010*66
[2021-01-29 11:05:47.468] $GNGGA,020545.90,4327.729159323,N,14148.329592791,E,5,04,4.40,110.535,M,31.866,M,308.9,1010*68
[2021-01-29 11:05:47.562] $GNGGA,020546.00,4327.729158620,N,14148.329594061,E,5,04,4.40,110.537,M,31.866,M,309.0,1010*61
[2021-01-29 11:05:47.655] $GNGGA,020546.10,4327.729159707,N,14148.329594064,E,5,04,4.40,110.528,M,31.866,M,309.1,1010*6F
[2021-01-29 11:05:47.765] $GNGGA,020546.20,4327.729160519,N,14148.329593349,E,5,04,4.40,110.531,M,31.866,M,309.2,1010*6B
[2021-01-29 11:05:47.858] $GNGGA,020546.30,4327.729160801,N,14148.329594440,E,5,04,4.40,110.533,M,31.866,M,309.3,1010*64
[2021-01-29 11:05:47.968] $GNGGA,020546.40,4327.729160936,N,14148.329595212,E,5,04,4.41,110.529,M,31.866,M,309.4,1010*6B
[2021-01-29 11:05:48.062] $GNGGA,020546.50,4327.729161656,N,14148.329595205,E,5,04,4.41,110.529,M,31.866,M,309.5,1010*65
[2021-01-29 11:05:48.171] $GNGGA,020546.60,4327.729161348,N,14148.329595764,E,5,04,4.41,110.528,M,31.866,M,309.6,1010*6C
[2021-01-29 11:05:48.267] $GNGGA,020546.70,4327.729161217,N,14148.329595025,E,5,04,4.41,110.525,M,31.866,M,309.7,1010*68
[2021-01-29 11:05:48.360] $GNGGA,020546.80,4327.729160859,N,14148.329596044,E,5,04,4.41,110.527,M,31.866,M,309.8,1010*6F
[2021-01-29 11:05:48.470] $GNGGA,020546.90,4327.729161869,N,14148.329595919,E,5,04,4.41,110.522,M,31.866,M,309.9,1010*6A
[2021-01-29 11:05:48.563] $GNGGA,020547.00,4327.729160908,N,14148.329596295,E,5,04,4.41,110.523,M,31.866,M,310.0,1010*69
[2021-01-29 11:05:48.657] $GNGGA,020547.10,4327.729162441,N,14148.329597360,E,5,04,4.41,110.518,M,31.866,M,310.1,1010*69
[2021-01-29 11:05:48.767] $GNGGA,020547.20,4327.729162520,N,14148.329598929,E,5,04,4.41,110.518,M,31.866,M,310.2,1010*67
[2021-01-29 11:05:48.860] $GNGGA,020547.30,4327.729161889,N,14148.329599374,E,5,04,4.41,110.520,M,31.866,M,310.3,1010*62
[2021-01-29 11:05:48.970] $GNGGA,020547.40,4327.729162486,N,14148.329600400,E,5,04,4.41,110.518,M,31.866,M,310.4,1010*6E
[2021-01-29 11:05:49.063] $GNGGA,020547.50,4327.729162294,N,14148.329600191,E,5,04,4.41,110.517,M,31.866,M,310.5,1010*69
[2021-01-29 11:05:49.157] $GNGGA,020547.60,4327.729162707,N,14148.329600167,E,5,04,4.41,110.515,M,31.866,M,310.6,1010*6D
[2021-01-29 11:05:49.269] $GNGGA,020547.70,4327.729162905,N,14148.329602810,E,5,04,4.41,110.515,M,31.866,M,310.7,1010*6A
[2021-01-29 11:05:49.363] $GNGGA,020547.80,4327.729162720,N,14148.329603108,E,5,04,4.41,110.513,M,31.866,M,310.8,1010*64
[2021-01-29 11:05:49.456] $GNGGA,020547.90,4327.729163756,N,14148.329601511,E,5,04,4.41,110.510,M,31.866,M,310.9,1010*69
[2021-01-29 11:05:49.566] $GNGGA,020548.00,4327.729163417,N,14148.329603221,E,5,04,4.41,110.517,M,31.866,M,311.0,1010*60
[2021-01-29 11:05:49.660] $GNGGA,020548.10,4327.729164312,N,14148.329602891,E,5,04,4.41,110.507,M,31.866,M,311.1,1010*64
[2021-01-29 11:05:49.769] $GNGGA,020548.20,4327.729165431,N,14148.329602613,E,5,04,4.41,110.508,M,31.866,M,311.2,1010*68
[2021-01-29 11:05:49.863] $GNGGA,020548.30,4327.729166278,N,14148.329602282,E,5,04,4.41,110.507,M,31.866,M,311.3,1010*63
[2021-01-29 11:05:49.956] $GNGGA,020548.40,4327.729166969,N,14148.329603076,E,5,04,4.41,110.506,M,31.866,M,311.4,1010*61
[2021-01-29 11:05:50.066] $GNGGA,020548.50,4327.729167529,N,14148.329602368,E,5,04,4.41,110.505,M,31.866,M,311.5,1010*66
[2021-01-29 11:05:50.160] $GNGGA,020548.60,4327.729167637,N,14148.329603472,E,5,04,4.41,110.503,M,31.866,M,311.6,1010*61
[2021-01-29 11:05:50.270] $GNGGA,020548.70,4327.729167304,N,14148.329604466,E,5,04,4.41,110.501,M,31.866,M,311.7,1010*64
[2021-01-29 11:05:50.364] $GNGGA,020548.80,4327.729167862,N,14148.329603976,E,5,04,4.41,110.503,M,31.866,M,311.8,1010*66
[2021-01-29 11:05:50.489] $GNGGA,020548.90,4327.729168210,N,14148.329605612,E,5,04,4.41,110.504,M,31.866,M,311.9,1010*6A
[2021-01-29 11:05:50.567] $GNGGA,020549.00,4327.729168205,N,14148.329606073,E,5,04,4.41,110.507,M,31.866,M,312.0,1010*6D
[2021-01-29 11:05:50.661] $GNGGA,020549.10,4327.729168337,N,14148.329607661,E,5,04,4.42,110.506,M,31.866,M,312.1,1010*6B
[2021-01-29 11:05:50.754] $GNGGA,020549.20,4327.729169422,N,14148.329608019,E,5,04,4.42,110.502,M,31.866,M,312.2,1010*6B
[2021-01-29 11:05:50.864] $GNGGA,020549.30,4327.729169194,N,14148.329607498,E,5,04,4.42,110.496,M,31.866,M,312.3,1010*6D
[2021-01-29 11:05:50.957] $GNGGA,020549.40,4327.729169988,N,14148.329606839,E,5,04,4.42,110.498,M,31.866,M,312.4,1010*60
[2021-01-29 11:05:51.067] $GNGGA,020549.50,4327.729169361,N,14148.329607613,E,5,04,4.42,110.499,M,31.866,M,312.5,1010*6B
[2021-01-29 11:05:51.160] $GNGGA,020549.60,4327.729169615,N,14148.329608432,E,5,04,4.42,110.497,M,31.866,M,312.6,1010*6D
[2021-01-29 11:05:51.271] $GNGGA,020549.70,4327.729170062,N,14148.329609117,E,5,04,4.42,110.497,M,31.866,M,312.7,1010*60
[2021-01-29 11:05:51.365] $GNGGA,020549.80,4327.729170506,N,14148.329609074,E,5,04,4.42,110.494,M,31.866,M,312.8,1010*60
[2021-01-29 11:05:51.459] $GNGGA,020549.90,4327.729171955,N,14148.329608664,E,5,04,4.42,110.490,M,31.866,M,312.9,1010*69
[2021-01-29 11:05:51.568] $GNGGA,020550.00,4327.729173135,N,14148.329609220,E,5,04,4.42,110.491,M,31.866,M,313.0,1010*68
[2021-01-29 11:05:51.662] $GNGGA,020550.10,4327.729173267,N,14148.329609583,E,5,04,4.42,110.487,M,31.866,M,313.1,1010*65
[2021-01-29 11:05:51.756] $GNGGA,020550.20,4327.729174419,N,14148.329609734,E,5,04,4.42,110.489,M,31.866,M,313.2,1010*6D
[2021-01-29 11:05:51.865] $GNGGA,020550.30,4327.729176136,N,14148.329608636,E,5,04,4.42,110.482,M,31.866,M,313.3,1010*6E
[2021-01-29 11:05:51.959] $GNGGA,020550.40,4327.729176158,N,14148.329609633,E,5,04,4.42,110.481,M,31.866,M,313.4,1010*61
[2021-01-29 11:05:52.068] $GNGGA,020550.50,4327.729176513,N,14148.329608216,E,5,04,4.42,110.485,M,31.866,M,313.5,1010*6C
[2021-01-29 11:05:52.162] $GNGGA,020550.60,4327.729177276,N,14148.329608019,E,5,04,4.42,110.487,M,31.866,M,313.6,1010*66
[2021-01-29 11:05:52.265] $GNGGA,020550.70,4327.729176509,N,14148.329608783,E,5,04,4.42,110.493,M,31.866,M,313.7,1010*69
[2021-01-29 11:05:52.368] $GNGGA,020550.80,4327.729177273,N,14148.329608797,E,5,04,4.42,110.491,M,31.866,M,313.8,1010*65
[2021-01-29 11:05:52.461] $GNGGA,020550.90,4327.729177923,N,14148.329609331,E,5,04,4.42,110.492,M,31.866,M,313.9,1010*61
[2021-01-29 11:05:52.555] $GNGGA,020551.00,4327.729178839,N,14148.329609656,E,5,04,4.42,110.494,M,31.866,M,314.0,1010*60
[2021-01-29 11:05:52.664] $GNGGA,020551.10,4327.729179794,N,14148.329608972,E,5,04,4.42,110.492,M,31.866,M,314.1,1010*67
[2021-01-29 11:05:52.758] $GNGGA,020551.20,4327.729180527,N,14148.329609917,E,5,04,4.42,110.489,M,31.866,M,314.2,1010*63
[2021-01-29 11:05:52.868] $GNGGA,020551.30,4327.729180871,N,14148.329609615,E,5,04,4.42,110.488,M,31.866,M,314.3,1010*61
[2021-01-29 11:05:52.961] $GNGGA,020551.40,4327.729181927,N,14148.329609049,E,5,04,4.42,110.491,M,31.866,M,314.4,1010*65
[2021-01-29 11:05:53.055] $GNGGA,020551.50,4327.729181368,N,14148.329610227,E,5,04,4.42,110.496,M,31.866,M,314.5,1010*61
[2021-01-29 11:05:53.164] $GNGGA,020551.60,4327.729182708,N,14148.329610614,E,5,04,4.42,110.503,M,31.866,M,314.6,1010*69
[2021-01-29 11:05:53.266] $GNGGA,020551.70,4327.729183467,N,14148.329610240,E,5,04,4.42,110.500,M,31.866,M,314.7,1010*64
[2021-01-29 11:05:53.369] $GNGGA,020551.80,4327.729184359,N,14148.329610313,E,5,04,4.43,110.504,M,31.866,M,314.8,1010*6B
[2021-01-29 11:05:53.463] $GNGGA,020551.90,4327.729185135,N,14148.329610614,E,5,04,4.43,110.495,M,31.866,M,314.9,1010*69
[2021-01-29 11:05:53.557] $GNGGA,020552.00,4327.729185096,N,14148.329610613,E,5,04,4.43,110.495,M,31.866,M,315.0,1010*64
[2021-01-29 11:05:53.666] $GNGGA,020552.10,4327.729186006,N,14148.329609220,E,5,04,4.43,110.494,M,31.866,M,315.1,1010*63
[2021-01-29 11:05:53.760] $GNGGA,020552.20,4327.729186703,N,14148.329610105,E,5,04,4.43,110.499,M,31.866,M,315.2,1010*60
[2021-01-29 11:05:53.869] $GNGGA,020552.30,4327.729187262,N,14148.329609648,E,5,04,4.43,110.496,M,31.866,M,315.3,1010*6A
[2021-01-29 11:05:53.963] $GNGGA,020552.40,4327.729187515,N,14148.329610067,E,5,04,4.43,110.501,M,31.866,M,315.4,1010*61
[2021-01-29 11:05:54.057] $GNGGA,020552.50,4327.729187843,N,14148.329610833,E,5,04,4.43,110.500,M,31.866,M,315.5,1010*67
[2021-01-29 11:05:54.166] $GNGGA,020552.60,4327.729189638,N,14148.329610476,E,5,04,4.43,110.501,M,31.866,M,315.6,1010*67
[2021-01-29 11:05:54.269] $GNGGA,020552.70,4327.729189879,N,14148.329610933,E,5,04,4.43,110.503,M,31.866,M,315.7,1010*62
[2021-01-29 11:05:54.354] $GNGGA,020552.80,4327.729189662,N,14148.329611336,E,5,04,4.43,110.503,M,31.866,M,315.8,1010*68
[2021-01-29 11:05:54.464] $GNGGA,020552.90,4327.729190653,N,14148.329610129,E,5,04,4.43,110.501,M,31.866,M,315.9,1010*6D
[2021-01-29 11:05:54.558] $GNGGA,020553.00,4327.729190193,N,14148.329611066,E,5,04,4.43,110.496,M,31.866,M,316.0,1010*60
[2021-01-29 11:05:54.667] $GNGGA,020553.10,4327.729190722,N,14148.329610674,E,5,04,4.43,110.499,M,31.866,M,316.1,1010*67
[2021-01-29 11:05:54.761] $GNGGA,020553.20,4327.729191872,N,14148.329609468,E,5,04,4.43,110.496,M,31.866,M,316.2,1010*64
[2021-01-29 11:05:54.870] $GNGGA,020553.30,4327.729192585,N,14148.329611056,E,5,04,4.43,110.495,M,31.866,M,316.3,1010*61
[2021-01-29 11:05:54.964] $GNGGA,020553.40,4327.729193222,N,14148.329610043,E,5,04,4.43,110.494,M,31.866,M,316.4,1010*6E
[2021-01-29 11:05:55.058] $GNGGA,020553.50,4327.729194338,N,14148.329611085,E,5,04,4.43,110.493,M,31.866,M,316.5,1010*6F
[2021-01-29 11:05:55.167] $GNGGA,020553.60,4327.729193859,N,14148.329610630,E,5,04,4.43,110.492,M,31.866,M,316.6,1010*6C
[2021-01-29 11:05:55.263] $GNGGA,020553.70,4327.729195022,N,14148.329610952,E,5,04,4.43,110.485,M,31.866,M,316.7,1010*63
[2021-01-29 11:05:55.356] $GNGGA,020553.80,4327.729195260,N,14148.329611288,E,5,04,4.43,110.490,M,31.866,M,316.8,1010*6E
[2021-01-29 11:05:55.465] $GNGGA,020553.90,4327.729195984,N,14148.329612212,E,5,04,4.43,110.492,M,31.866,M,316.9,1010*6D
[2021-01-29 11:05:55.559] $GNGGA,020554.00,4327.729196887,N,14148.329612252,E,5,04,4.43,110.492,M,31.866,M,317.0,1010*6E
[2021-01-29 11:05:55.668] $GNGGA,020554.10,4327.729197850,N,14148.329612910,E,5,04,4.43,110.490,M,31.866,M,317.1,1010*6A
[2021-01-29 11:05:55.762] $GNGGA,020554.20,4327.729198819,N,14148.329613006,E,5,04,4.43,110.493,M,31.866,M,317.2,1010*64
[2021-01-29 11:05:55.856] $GNGGA,020554.30,4327.729199698,N,14148.329611916,E,5,04,4.43,110.493,M,31.866,M,317.3,1010*68
[2021-01-29 11:05:55.965] $GNGGA,020554.40,4327.729200082,N,14148.329612626,E,5,04,4.43,110.499,M,31.866,M,317.4,1010*63
[2021-01-29 11:05:56.059] $GNGGA,020554.50,4327.729200444,N,14148.329612228,E,5,04,4.44,110.495,M,31.866,M,317.5,1010*6C
[2021-01-29 11:05:56.168] $GNGGA,020554.60,4327.729199428,N,14148.329613200,E,5,04,4.44,110.499,M,31.866,M,317.6,1010*62
[2021-01-29 11:05:56.262] $GNGGA,020554.70,4327.729200135,N,14148.329612615,E,5,04,4.44,110.501,M,31.866,M,317.7,1010*69
[2021-01-29 11:05:56.356] $GNGGA,020554.80,4327.729200609,N,14148.329612731,E,5,04,4.44,110.499,M,31.866,M,317.8,1010*66
[2021-01-29 11:05:56.466] $GNGGA,020554.90,4327.729200938,N,14148.329613389,E,5,04,4.44,110.499,M,31.866,M,317.9,1010*6D
[2021-01-29 11:05:56.559] $GNGGA,020555.00,4327.729199767,N,14148.329613452,E,5,04,4.44,110.503,M,31.866,M,318.0,1010*67
[2021-01-29 11:05:56.669] $GNGGA,020555.10,4327.729200473,N,14148.329614165,E,5,04,4.44,110.506,M,31.866,M,318.1,1010*61
