
[2021-01-29 10:48:37.442] $GPGGA,014819.70,,,,,0,00,0.0,,M,,M,0,0000*54
[2021-01-29 10:48:37.458] $GPGGA,014819.80,,,,,0,00,0.0,,M,,M,0,0000*5B
[2021-01-29 10:48:37.458] $GPGGA,014819.90,,,,,0,00,0.0,,M,,M,0,0000*5A
[2021-01-29 10:48:37.458] $GPGGA,014820.00,,,,,0,00,0.0,,M,,M,0,0000*59
[2021-01-29 10:48:37.458] $GPGGA,014820.10,,,,,0,00,0.0,,M,,M,0,0000*58
[2021-01-29 10:48:37.458] $GPGGA,014820.20,,,,,0,00,0.0,,M,,M,0,0000*5B
[2021-01-29 10:48:37.458] $GPGGA,014820.30,,,,,0,00,0.0,,M,,M,0,0000*5A
[2021-01-29 10:48:37.458] $GPGGA,014820.40,,,,,0,00,0.0,,M,,M,0,0000*5D
[2021-01-29 10:48:37.458] $GPGGA,014820.50,,,,,0,00,0.0,,M,,M,0,0000*5C
[2021-01-29 10:48:37.458] $GPGGA,014820.60,,,,,0,00,0.0,,M,,M,0,0000*5F
[2021-01-29 10:48:37.458] $GPGGA,014820.70,,,,,0,00,0.0,,M,,M,0,0000*5E
[2021-01-29 10:48:37.458] $GPGGA,014820.80,,,,,0,00,0.0,,M,,M,0,0000*51
[2021-01-29 10:48:37.458] $GPGGA,014820.90,,,,,0,00,0.0,,M,,M,0,0000*50
[2021-01-29 10:48:37.458] $GPGGA,014821.00,,,,,0,00,0.0,,M,,M,0,0000*58
[2021-01-29 10:48:37.458] $GPGGA,014821.10,,,,,0,00,0.0,,M,,M,0,0000*59
[2021-01-29 10:48:37.458] $GPGGA,014821.20,,,,,0,00,0.0,,M,,M,0,0000*5A
[2021-01-29 10:48:37.458] $GPGGA,014821.30,,,,,0,00,0.0,,M,,M,0,0000*5B
[2021-01-29 10:48:37.458] $GPGGA,014821.40,,,,,0,00,0.0,,M,,M,0,0000*5C
[2021-01-29 10:48:37.458] $GPGGA,014821.50,,,,,0,00,0.0,,M,,M,0,0000*5D
[2021-01-29 10:48:37.458] $GPGGA,014821.60,,,,,0,00,0.0,,M,,M,0,0000*5E
[2021-01-29 10:48:37.458] $GPGGA,014821.70,,,,,0,00,0.0,,M,,M,0,0000*5F
[2021-01-29 10:48:37.458] $GPGGA,014821.80,,,,,0,00,0.0,,M,,M,0,0000*50
[2021-01-29 10:48:37.458] $GPGGA,014821.90,,,,,0,00,0.0,,M,,M,0,0000*51
[2021-01-29 10:48:37.474] $GPGGA,014822.00,,,,,0,00,0.0,,M,,M,0,0000*5B
[2021-01-29 10:48:37.474] $GPGGA,014822.10,,,,,0,00,0.0,,M,,M,0,0000*5A
[2021-01-29 10:48:37.474] $GPGGA,014822.20,,,,,0,00,0.0,,M,,M,0,0000*59
[2021-01-29 10:48:37.474] $GPGGA,014822.30,,,,,0,00,0.0,,M,,M,0,0000*58
[2021-01-29 10:48:37.474] $GPGGA,014822.40,,,,,0,00,0.0,,M,,M,0,0000*5F
[2021-01-29 10:48:37.474] $GPGGA,014822.50,,,,,0,00,0.0,,M,,M,0,0000*5E
[2021-01-29 10:48:37.474] $GPGGA,014822.60,,,,,0,00,0.0,,M,,M,0,0000*5D
[2021-01-29 10:48:37.474] $GPGGA,014822.70,,,,,0,00,0.0,,M,,M,0,0000*5C
[2021-01-29 10:48:37.474] $GPGGA,014822.80,,,,,0,00,0.0,,M,,M,0,0000*53
[2021-01-29 10:48:37.474] $GPGGA,014822.90,,,,,0,00,0.0,,M,,M,0,0000*52
[2021-01-29 10:48:37.474] $GPGGA,014823.00,,,,,0,00,0.0,,M,,M,0,0000*5A
[2021-01-29 10:48:37.474] $GPGGA,014823.10,,,,,0,00,0.0,,M,,M,0,0000*5B
[2021-01-29 10:48:37.474] $GPGGA,014823.20,,,,,0,00,0.0,,M,,M,0,0000*58
[2021-01-29 10:48:37.474] $GPGGA,014823.30,,,,,0,00,0.0,,M,,M,0,0000*59
[2021-01-29 10:48:37.474] $GPGGA,014823.40,,,,,0,00,0.0,,M,,M,0,0000*5E
[2021-01-29 10:48:37.474] $GPGGA,014823.50,,,,,0,00,0.0,,M,,M,0,0000*5F
[2021-01-29 10:48:37.474] $GPGGA,014823.60,,,,,0,00,0.0,,M,,M,0,0000*5C
[2021-01-29 10:48:37.474] $GPGGA,014823.70,,,,,0,00,0.0,,M,,M,0,0000*5D
[2021-01-29 10:48:37.474] $GPGGA,014823.80,,,,,0,00,0.0,,M,,M,0,0000*52
[2021-01-29 10:48:37.474] $GPGGA,014823.90,,,,,0,00,0.0,,M,,M,0,0000*53
[2021-01-29 10:48:37.474] $GPGGA,014824.00,,,,,0,00,0.0,,M,,M,0,0000*5D
[2021-01-29 10:48:37.474] $GPGGA,014824.10,,,,,0,00,0.0,,M,,M,0,0000*5C
[2021-01-29 10:48:37.489] $GPGGA,014824.20,,,,,0,00,0.0,,M,,M,0,0000*5F
[2021-01-29 10:48:37.489] $GPGGA,014824.30,,,,,0,00,0.0,,M,,M,0,0000*5E
[2021-01-29 10:48:37.489] $GPGGA,014824.40,,,,,0,00,0.0,,M,,M,0,0000*59
[2021-01-29 10:48:37.489] $GPGGA,014824.50,,,,,0,00,0.0,,M,,M,0,0000*58
[2021-01-29 10:48:37.489] $GPGGA,014824.60,,,,,0,00,0.0,,M,,M,0,0000*5B
[2021-01-29 10:48:37.489] $GPGGA,014824.70,,,,,0,00,0.0,,M,,M,0,0000*5A
[2021-01-29 10:48:37.489] $GPGGA,014824.80,,,,,0,00,0.0,,M,,M,0,0000*55
[2021-01-29 10:48:37.489] $GPGGA,014824.90,,,,,0,00,0.0,,M,,M,0,0000*54
[2021-01-29 10:48:37.489] $GPGGA,014825.00,,,,,0,00,0.0,,M,,M,0,0000*5C
[2021-01-29 10:48:37.489] $GPGGA,014825.10,,,,,0,00,0.0,,M,,M,0,0000*5D
[2021-01-29 10:48:37.489] $GPGGA,014825.20,,,,,0,00,0.0,,M,,M,0,0000*5E
[2021-01-29 10:48:37.489] $GPGGA,014825.30,,,,,0,00,0.0,,M,,M,0,0000*5F
[2021-01-29 10:48:37.489] $GPGGA,014825.40,,,,,0,00,0.0,,M,,M,0,0000*58
[2021-01-29 10:48:37.489] $GPGGA,014825.50,,,,,0,00,0.0,,M,,M,0,0000*59
[2021-01-29 10:48:37.489] $GPGGA,014825.60,,,,,0,00,0.0,,M,,M,0,0000*5A
[2021-01-29 10:48:37.489] $GPGGA,014825.70,,,,,0,00,0.0,,M,,M,0,0000*5B
[2021-01-29 10:48:37.489] $GPGGA,014825.80,,,,,0,00,0.0,,M,,M,0,0000*54
[2021-01-29 10:48:37.489] $GPGGA,014825.90,,,,,0,00,0.0,,M,,M,0,0000*55
[2021-01-29 10:48:37.489] $GPGGA,014826.00,,,,,0,00,0.0,,M,,M,0,0000*5F
[2021-01-29 10:48:37.489] $GPGGA,014826.10,,,,,0,00,0.0,,M,,M,0,0000*5E
[2021-01-29 10:48:37.489] $GPGGA,014826.20,,,,,0,00,0.0,,M,,M,0,0000*5D
[2021-01-29 10:48:37.505] $GPGGA,014826.30,,,,,0,00,0.0,,M,,M,0,0000*5C
[2021-01-29 10:48:37.505] $GPGGA,014826.40,,,,,0,00,0.0,,M,,M,0,0000*5B
[2021-01-29 10:48:37.505] $GPGGA,014826.50,,,,,0,00,0.0,,M,,M,0,0000*5A
[2021-01-29 10:48:37.505] $GPGGA,014826.60,,,,,0,00,0.0,,M,,M,0,0000*59
[2021-01-29 10:48:37.505] $GPGGA,014826.70,,,,,0,00,0.0,,M,,M,0,0000*58
[2021-01-29 10:48:37.505] $GPGGA,014826.80,,,,,0,00,0.0,,M,,M,0,0000*57
[2021-01-29 10:48:37.505] $GPGGA,014826.90,,,,,0,00,0.0,,M,,M,0,0000*56
[2021-01-29 10:48:37.505] $GPGGA,014827.00,,,,,0,00,0.0,,M,,M,0,0000*5E
[2021-01-29 10:48:37.505] $GPGGA,014827.10,,,,,0,00,0.0,,M,,M,0,0000*5F
[2021-01-29 10:48:37.505] $GPGGA,014827.20,,,,,0,00,0.0,,M,,M,0,0000*5C
[2021-01-29 10:48:37.505] $GPGGA,014827.30,,,,,0,00,0.0,,M,,M,0,0000*5D
[2021-01-29 10:48:37.505] $GPGGA,014827.40,,,,,0,00,0.0,,M,,M,0,0000*5A
[2021-01-29 10:48:37.505] $GPGGA,014827.50,,,,,0,00,0.0,,M,,M,0,0000*5B
[2021-01-29 10:48:37.505] $GPGGA,014827.60,,,,,0,00,0.0,,M,,M,0,0000*58
[2021-01-29 10:48:37.505] $GPGGA,014827.70,,,,,0,00,0.0,,M,,M,0,0000*59
[2021-01-29 10:48:37.505] $GPGGA,014827.80,,,,,0,00,0.0,,M,,M,0,0000*56
[2021-01-29 10:48:37.505] $GPGGA,014827.90,,,,,0,00,0.0,,M,,M,0,0000*57
[2021-01-29 10:48:37.505] $GPGGA,014828.00,,,,,0,00,0.0,,M,,M,0,0000*51
[2021-01-29 10:48:37.505] $GPGGA,014828.10,,,,,0,00,0.0,,M,,M,0,0000*50
[2021-01-29 10:48:37.505] $GPGGA,014828.20,,,,,0,00,0.0,,M,,M,0,0000*53
[2021-01-29 10:48:37.505] $GPGGA,014828.30,,,,,0,00,0.0,,M,,M,0,0000*52
[2021-01-29 10:48:37.505] $GPGGA,014828.40,,,,,0,00,0.0,,M,,M,0,0000*55
[2021-01-29 10:48:37.521] $GPGGA,014828.50,,,,,0,00,0.0,,M,,M,0,0000*54
[2021-01-29 10:48:37.521] $GPGGA,014828.60,,,,,0,00,0.0,,M,,M,0,0000*57
[2021-01-29 10:48:37.521] $GPGGA,014828.70,,,,,0,00,0.0,,M,,M,0,0000*56
[2021-01-29 10:48:37.521] $GPGGA,014828.80,,,,,0,00,0.0,,M,,M,0,0000*59
[2021-01-29 10:48:37.521] $GPGGA,014828.90,,,,,0,00,0.0,,M,,M,0,0000*58
[2021-01-29 10:48:37.521] $GPGGA,014829.00,,,,,0,00,0.0,,M,,M,0,0000*50
[2021-01-29 10:48:37.521] $GPGGA,014829.10,,,,,0,00,0.0,,M,,M,0,0000*51
[2021-01-29 10:48:37.521] $GPGGA,014829.20,,,,,0,00,0.0,,M,,M,0,0000*52
[2021-01-29 10:48:37.521] $GPGGA,014829.30,,,,,0,00,0.0,,M,,M,0,0000*53
[2021-01-29 10:48:37.521] $GPGGA,014829.40,,,,,0,00,0.0,,M,,M,0,0000*54
[2021-01-29 10:48:37.521] $GPGGA,014829.50,,,,,0,00,0.0,,M,,M,0,0000*55
[2021-01-29 10:48:37.521] $GPGGA,014829.60,,,,,0,00,0.0,,M,,M,0,0000*56
[2021-01-29 10:48:37.521] $GPGGA,014829.70,,,,,0,00,0.0,,M,,M,0,0000*57
[2021-01-29 10:48:37.521] $GPGGA,014829.80,,,,,0,00,0.0,,M,,M,0,0000*58
[2021-01-29 10:48:37.521] $GPGGA,014829.90,,,,,0,00,0.0,,M,,M,0,0000*59
[2021-01-29 10:48:37.521] $GPGGA,014830.00,,,,,0,00,0.0,,M,,M,0,0000*58
[2021-01-29 10:48:37.521] $GPGGA,014830.10,,,,,0,00,0.0,,M,,M,0,0000*59
[2021-01-29 10:48:37.521] $GPGGA,014830.20,,,,,0,00,0.0,,M,,M,0,0000*5A
[2021-01-29 10:48:37.521] $GPGGA,014830.30,,,,,0,00,0.0,,M,,M,0,0000*5B
[2021-01-29 10:48:37.521] $GPGGA,014830.40,,,,,0,00,0.0,,M,,M,0,0000*5C
[2021-01-29 10:48:37.521] $GPGGA,014830.50,,,,,0,00,0.0,,M,,M,0,0000*5D
[2021-01-29 10:48:37.536] $GPGGA,014830.60,,,,,0,00,0.0,,M,,M,0,0000*5E
[2021-01-29 10:48:37.536] $GPGGA,014830.70,,,,,0,00,0.0,,M,,M,0,0000*5F
[2021-01-29 10:48:37.536] $GPGGA,014830.80,,,,,0,00,0.0,,M,,M,0,0000*50
[2021-01-29 10:48:37.536] $GPGGA,014830.90,,,,,0,00,0.0,,M,,M,0,0000*51
[2021-01-29 10:48:37.536] $GPGGA,014831.00,,,,,0,00,0.0,,M,,M,0,0000*59
[2021-01-29 10:48:37.536] $GPGGA,014831.10,,,,,0,00,0.0,,M,,M,0,0000*58
[2021-01-29 10:48:37.536] $GPGGA,014831.20,,,,,0,00,0.0,,M,,M,0,0000*5B
[2021-01-29 10:48:37.536] $GPGGA,014831.30,,,,,0,00,0.0,,M,,M,0,0000*5A
[2021-01-29 10:48:37.536] $GPGGA,014831.40,,,,,0,00,0.0,,M,,M,0,0000*5D
[2021-01-29 10:48:37.536] $GPGGA,014831.50,,,,,0,00,0.0,,M,,M,0,0000*5C
[2021-01-29 10:48:37.536] $GPGGA,014831.60,,,,,0,00,0.0,,M,,M,0,0000*5F
[2021-01-29 10:48:37.536] $GPGGA,014831.70,,,,,0,00,0.0,,M,,M,0,0000*5E
[2021-01-29 10:48:37.536] $GPGGA,014831.80,,,,,0,00,0.0,,M,,M,0,0000*51
[2021-01-29 10:48:37.536] $GPGGA,014831.90,,,,,0,00,0.0,,M,,M,0,0000*50
[2021-01-29 10:48:37.536] $GPGGA,014832.00,,,,,0,00,0.0,,M,,M,0,0000*5A
[2021-01-29 10:48:37.536] $GPGGA,014832.10,,,,,0,00,0.0,,M,,M,0,0000*5B
[2021-01-29 10:48:37.536] $GPGGA,014832.20,,,,,0,00,0.0,,M,,M,0,0000*58
[2021-01-29 10:48:37.536] $GPGGA,014832.30,,,,,0,00,0.0,,M,,M,0,0000*59
[2021-01-29 10:48:37.536] $GPGGA,014832.40,,,,,0,00,0.0,,M,,M,0,0000*5E
[2021-01-29 10:48:37.536] $GPGGA,014832.50,,,,,0,00,0.0,,M,,M,0,0000*5F
[2021-01-29 10:48:37.536] $GPGGA,014832.60,,,,,0,00,0.0,,M,,M,0,0000*5C
[2021-01-29 10:48:37.536] $GPGGA,014832.70,,,,,0,00,0.0,,M,,M,0,0000*5D
[2021-01-29 10:48:37.552] $GPGGA,014832.80,,,,,0,00,0.0,,M,,M,0,0000*52
[2021-01-29 10:48:37.552] $GPGGA,014832.90,,,,,0,00,0.0,,M,,M,0,0000*53
[2021-01-29 10:48:37.552] $GPGGA,014833.00,,,,,0,00,0.0,,M,,M,0,0000*5B
[2021-01-29 10:48:37.552] $GPGGA,014833.10,,,,,0,00,0.0,,M,,M,0,0000*5A
[2021-01-29 10:48:37.552] $GPGGA,014833.20,,,,,0,00,0.0,,M,,M,0,0000*59
[2021-01-29 10:48:37.552] $GPGGA,014833.30,,,,,0,00,0.0,,M,,M,0,0000*58
[2021-01-29 10:48:37.552] $GPGGA,014833.40,,,,,0,00,0.0,,M,,M,0,0000*5F
[2021-01-29 10:48:37.552] $GPGGA,014833.50,,,,,0,00,0.0,,M,,M,0,0000*5E
[2021-01-29 10:48:37.552] $GPGGA,014833.60,,,,,0,00,0.0,,M,,M,0,0000*5D
[2021-01-29 10:48:37.552] $GPGGA,014833.70,,,,,0,00,0.0,,M,,M,0,0000*5C
[2021-01-29 10:48:37.552] $GPGGA,014833.80,,,,,0,00,0.0,,M,,M,0,0000*53
[2021-01-29 10:48:37.552] $GPGGA,014833.90,,,,,0,00,0.0,,M,,M,0,0000*52
[2021-01-29 10:48:37.552] $GPGGA,014834.00,,,,,0,00,0.0,,M,,M,0,0000*5C
[2021-01-29 10:48:37.552] $GPGGA,014834.10,,,,,0,00,0.0,,M,,M,0,0000*5D
[2021-01-29 10:48:37.552] $GPGGA,014834.20,,,,,0,00,0.0,,M,,M,0,0000*5E
[2021-01-29 10:48:37.552] $GPGGA,014834.30,,,,,0,00,0.0,,M,,M,0,0000*5F
[2021-01-29 10:48:37.552] $GPGGA,014834.40,,,,,0,00,0.0,,M,,M,0,0000*58
[2021-01-29 10:48:37.552] $GPGGA,014834.50,,,,,0,00,0.0,,M,,M,0,0000*59
[2021-01-29 10:48:37.552] $GPGGA,014834.60,,,,,0,00,0.0,,M,,M,0,0000*5A
[2021-01-29 10:48:37.552] $GPGGA,014834.70,,,,,0,00,0.0,,M,,M,0,0000*5B
[2021-01-29 10:48:37.552] $GPGGA,014834.80,,,,,0,00,0.0,,M,,M,0,0000*54
[2021-01-29 10:48:37.552] $GPGGA,014834.90,,,,,0,00,0.0,,M,,M,0,0000*55
[2021-01-29 10:48:37.552] $GPGGA,014835.00,,,,,0,00,0.0,,M,,M,0,0000*5D
[2021-01-29 10:48:37.552] $GPGGA,014835.10,,,,,0,00,0.0,,M,,M,0,0000*5C
[2021-01-29 10:48:37.552] $GPGGA,014835.20,,,,,0,00,0.0,,M,,M,0,0000*5F
[2021-01-29 10:48:37.552] $GPGGA,014835.30,,,,,0,00,0.0,,M,,M,0,0000*5E
[2021-01-29 10:48:37.552] $GPGGA,014835.40,,,,,0,00,0.0,,M,,M,0,0000*59
[2021-01-29 10:48:37.552] $GPGGA,014835.50,,,,,0,00,0.0,,M,,M,0,0000*58
[2021-01-29 10:48:37.552] $GPGGA,014835.60,,,,,0,00,0.0,,M,,M,0,0000*5B
[2021-01-29 10:48:37.552] $GPGGA,014835.70,,,,,0,00,0.0,,M,,M,0,0000*5A
[2021-01-29 10:48:37.552] $GPGGA,014835.80,,,,,0,00,0.0,,M,,M,0,0000*55
[2021-01-29 10:48:37.552] $GPGGA,014835.90,,,,,0,00,0.0,,M,,M,0,0000*54
[2021-01-29 10:48:37.552] $GPGGA,014836.00,,,,,0,00,0.0,,M,,M,0,0000*5E
[2021-01-29 10:48:37.552] $GPGGA,014836.10,,,,,0,00,0.0,,M,,M,0,0000*5F
[2021-01-29 10:48:37.567] $GPGGA,014836.20,,,,,0,00,0.0,,M,,M,0,0000*5C
[2021-01-29 10:48:37.661] $GPGGA,014836.30,,,,,0,00,0.0,,M,,M,0,0000*5D
[2021-01-29 10:48:37.771] $GPGGA,014836.40,,,,,0,00,0.0,,M,,M,0,0000*5A
[2021-01-29 10:48:37.864] $GPGGA,014836.50,,,,,0,00,0.0,,M,,M,0,0000*5B
[2021-01-29 10:48:37.958] $GPGGA,014836.60,,,,,0,00,0.0,,M,,M,0,0000*58
[2021-01-29 10:48:38.052] $GPGGA,014836.70,,,,,0,00,0.0,,M,,M,0,0000*59
[2021-01-29 10:48:38.161] $GPGGA,014836.80,,,,,0,00,0.0,,M,,M,0,0000*56
[2021-01-29 10:48:38.274] $GPGGA,014836.90,,,,,0,00,0.0,,M,,M,0,0000*57
[2021-01-29 10:48:38.367] $GPGGA,014837.00,,,,,0,00,0.0,,M,,M,0,0000*5F
[2021-01-29 10:48:38.461] $GPGGA,014837.10,,,,,0,00,0.0,,M,,M,0,0000*5E
[2021-01-29 10:48:38.554] $GPGGA,014837.20,,,,,0,00,0.0,,M,,M,0,0000*5D
[2021-01-29 10:48:38.664] $GPGGA,014837.30,,,,,0,00,0.0,,M,,M,0,0000*5C
[2021-01-29 10:48:38.758] $GPGGA,014837.40,,,,,0,00,0.0,,M,,M,0,0000*5B
[2021-01-29 10:48:38.867] $GPGGA,014837.50,,,,,0,00,0.0,,M,,M,0,0000*5A
[2021-01-29 10:48:38.961] $GPGGA,014837.60,,,,,0,00,0.0,,M,,M,0,0000*59
[2021-01-29 10:48:39.070] $GPGGA,014837.70,,,,,0,00,0.0,,M,,M,0,0000*58
[2021-01-29 10:48:39.164] $GPGGA,014837.80,,,,,0,00,0.0,,M,,M,0,0000*57
[2021-01-29 10:48:39.274] $GPGGA,014837.90,,,,,0,00,0.0,,M,,M,0,0000*56
[2021-01-29 10:48:39.368] $GPGGA,014838.00,,,,,0,00,0.0,,M,,M,0,0000*50
[2021-01-29 10:48:39.462] $GPGGA,014838.10,,,,,0,00,0.0,,M,,M,0,0000*51
[2021-01-29 10:48:39.555] $GPGGA,014838.20,,,,,0,00,0.0,,M,,M,0,0000*52
[2021-01-29 10:48:39.665] $GPGGA,014838.30,,,,,0,00,0.0,,M,,M,0,0000*53
[2021-01-29 10:48:39.758] $GPGGA,014838.40,,,,,0,00,0.0,,M,,M,0,0000*54
[2021-01-29 10:48:39.868] $GPGGA,014838.50,,,,,0,00,0.0,,M,,M,0,0000*55
[2021-01-29 10:48:39.962] $GPGGA,014838.60,,,,,0,00,0.0,,M,,M,0,0000*56
[2021-01-29 10:48:40.071] $GPGGA,014838.70,,,,,0,00,0.0,,M,,M,0,0000*57
[2021-01-29 10:48:40.165] $GPGGA,014838.80,,,,,0,00,0.0,,M,,M,0,0000*58
[2021-01-29 10:48:40.268] $GPGGA,014838.90,,,,,0,00,0.0,,M,,M,0,0000*59
[2021-01-29 10:48:40.369] $GPGGA,014839.00,,,,,0,00,0.0,,M,,M,0,0000*51
[2021-01-29 10:48:40.463] $GPGGA,014839.10,,,,,0,00,0.0,,M,,M,0,0000*50
[2021-01-29 10:48:40.572] $GPGGA,014839.20,,,,,0,00,0.0,,M,,M,0,0000*53
[2021-01-29 10:48:40.666] $GPGGA,014839.30,,,,,0,00,0.0,,M,,M,0,0000*52
[2021-01-29 10:48:40.760] $GPGGA,014839.40,,,,,0,00,0.0,,M,,M,0,0000*55
[2021-01-29 10:48:40.854] $GPGGA,014839.50,,,,,0,00,0.0,,M,,M,0,0000*54
[2021-01-29 10:48:40.963] $GPGGA,014839.60,,,,,0,00,0.0,,M,,M,0,0000*57
[2021-01-29 10:48:41.057] $GPGGA,014839.70,,,,,0,00,0.0,,M,,M,0,0000*56
[2021-01-29 10:48:41.166] $GPGGA,014839.80,,,,,0,00,0.0,,M,,M,0,0000*59
[2021-01-29 10:48:41.260] $GPGGA,014839.90,,,,,0,00,0.0,,M,,M,0,0000*58
[2021-01-29 10:48:41.356] $GPGGA,014840.00,,,,,0,00,0.0,,M,,M,0,0000*5F
[2021-01-29 10:48:41.465] $GPGGA,014840.10,,,,,0,00,0.0,,M,,M,0,0000*5E
[2021-01-29 10:48:41.559] $GPGGA,014840.20,,,,,0,00,0.0,,M,,M,0,0000*5D
[2021-01-29 10:48:41.653] $GPGGA,014840.30,,,,,0,00,0.0,,M,,M,0,0000*5C
[2021-01-29 10:48:41.762] $GPGGA,014840.40,,,,,0,00,0.0,,M,,M,0,0000*5B
[2021-01-29 10:48:41.872] $GPGGA,014840.50,,,,,0,00,0.0,,M,,M,0,0000*5A
[2021-01-29 10:48:41.965] $GPGGA,014840.60,,,,,0,00,0.0,,M,,M,0,0000*59
[2021-01-29 10:48:42.059] $GPGGA,014840.70,,,,,0,00,0.0,,M,,M,0,0000*58
[2021-01-29 10:48:42.168] $GPGGA,014840.80,,,,,0,00,0.0,,M,,M,0,0000*57
[2021-01-29 10:48:42.262] $GPGGA,014840.90,,,,,0,00,0.0,,M,,M,0,0000*56
[2021-01-29 10:48:42.356] $GPGGA,014841.00,,,,,0,00,0.0,,M,,M,0,0000*5E
[2021-01-29 10:48:42.465] $GPGGA,014841.10,,,,,0,00,0.0,,M,,M,0,0000*5F
[2021-01-29 10:48:42.559] $GPGGA,014841.20,,,,,0,00,0.0,,M,,M,0,0000*5C
[2021-01-29 10:48:42.668] $GPGGA,014841.30,,,,,0,00,0.0,,M,,M,0,0000*5D
[2021-01-29 10:48:42.762] $GPGGA,014841.40,,,,,0,00,0.0,,M,,M,0,0000*5A
[2021-01-29 10:48:42.871] $GPGGA,014841.50,,,,,0,00,0.0,,M,,M,0,0000*5B
[2021-01-29 10:48:42.965] $GPGGA,014841.60,,,,,0,00,0.0,,M,,M,0,0000*58
[2021-01-29 10:48:43.059] $GPGGA,014841.70,,,,,0,00,0.0,,M,,M,0,0000*59
[2021-01-29 10:48:43.152] $GPGGA,014841.80,,,,,0,00,0.0,,M,,M,0,0000*56
[2021-01-29 10:48:43.263] $GPGGA,014841.90,,,,,0,00,0.0,,M,,M,0,0000*57
[2021-01-29 10:48:43.357] $GPGGA,014842.00,,,,,0,00,0.0,,M,,M,0,0000*5D
[2021-01-29 10:48:43.466] $GPGGA,014842.10,,,,,0,00,0.0,,M,,M,0,0000*5C
[2021-01-29 10:48:43.560] $GPGGA,014842.20,,,,,0,00,0.0,,M,,M,0,0000*5F
[2021-01-29 10:48:43.670] $GPGGA,014842.30,,,,,0,00,0.0,,M,,M,0,0000*5E
[2021-01-29 10:48:43.763] $GPGGA,014842.40,,,,,0,00,0.0,,M,,M,0,0000*59
[2021-01-29 10:48:43.857] $GPGGA,014842.50,,,,,0,00,0.0,,M,,M,0,0000*58
[2021-01-29 10:48:43.967] $GPGGA,014842.60,,,,,0,00,0.0,,M,,M,0,0000*5B
[2021-01-29 10:48:44.060] $GPGGA,014842.70,,,,,0,00,0.0,,M,,M,0,0000*5A
[2021-01-29 10:48:44.170] $GPGGA,014842.80,,,,,0,00,0.0,,M,,M,0,0000*55
[2021-01-29 10:48:44.265] $GPGGA,014842.90,,,,,0,00,0.0,,M,,M,0,0000*54
[2021-01-29 10:48:44.374] $GPGGA,014843.00,,,,,0,00,0.0,,M,,M,0,0000*5C
[2021-01-29 10:48:44.452] $GPGGA,014843.10,,,,,0,00,0.0,,M,,M,0,0000*5D
[2021-01-29 10:48:44.562] $GPGGA,014843.20,,,,,0,00,0.0,,M,,M,0,0000*5E
[2021-01-29 10:48:44.655] $GPGGA,014843.30,,,,,0,00,0.0,,M,,M,0,0000*5F
[2021-01-29 10:48:44.765] $GPGGA,014843.40,,,,,0,00,0.0,,M,,M,0,0000*58
[2021-01-29 10:48:44.859] $GPGGA,014843.50,,,,,0,00,0.0,,M,,M,0,0000*59
[2021-01-29 10:48:44.968] $GPGGA,014843.60,,,,,0,00,0.0,,M,,M,0,0000*5A
[2021-01-29 10:48:45.062] $GPGGA,014843.70,,,,,0,00,0.0,,M,,M,0,0000*5B
[2021-01-29 10:48:45.171] $GPGGA,014843.80,,,,,0,00,0.0,,M,,M,0,0000*54
[2021-01-29 10:48:45.267] $GPGGA,014843.90,,,,,0,00,0.0,,M,,M,0,0000*55
[2021-01-29 10:48:45.361] $GPGGA,014844.00,,,,,0,00,0.0,,M,,M,0,0000*5B
[2021-01-29 10:48:45.470] $GPGGA,014844.10,,,,,0,00,0.0,,M,,M,0,0000*5A
[2021-01-29 10:48:45.564] $GPGGA,014844.20,,,,,0,00,0.0,,M,,M,0,0000*59
[2021-01-29 10:48:45.673] $GPGGA,014844.30,,,,,0,00,0.0,,M,,M,0,0000*58
[2021-01-29 10:48:45.767] $GPGGA,014844.40,,,,,0,00,0.0,,M,,M,0,0000*5F
[2021-01-29 10:48:45.861] $GPGGA,014844.50,,,,,0,00,0.0,,M,,M,0,0000*5E
[2021-01-29 10:48:45.970] $GPGGA,014844.60,,,,,0,00,0.0,,M,,M,0,0000*5D
[2021-01-29 10:48:46.064] $GPGGA,014844.70,,,,,0,00,0.0,,M,,M,0,0000*5C
[2021-01-29 10:48:46.157] $GPGGA,014844.80,,,,,0,00,0.0,,M,,M,0,0000*53
[2021-01-29 10:48:46.268] $GPGGA,014844.90,,,,,0,00,0.0,,M,,M,0,0000*52
[2021-01-29 10:48:46.362] $GPGGA,014845.00,,,,,0,00,0.0,,M,,M,0,0000*5A
[2021-01-29 10:48:46.456] $GPGGA,014845.10,,,,,0,00,0.0,,M,,M,0,0000*5B
[2021-01-29 10:48:46.565] $GPGGA,014845.20,,,,,0,00,0.0,,M,,M,0,0000*58
[2021-01-29 10:48:46.659] $GPGGA,014845.30,,,,,0,00,0.0,,M,,M,0,0000*59
[2021-01-29 10:48:46.753] $GPGGA,014845.40,,,,,0,00,0.0,,M,,M,0,0000*5E
[2021-01-29 10:48:46.862] $GPGGA,014845.50,,,,,0,00,0.0,,M,,M,0,0000*5F
[2021-01-29 10:48:46.956] $GPGGA,014845.60,,,,,0,00,0.0,,M,,M,0,0000*5C
[2021-01-29 10:48:47.065] $GPGGA,014845.70,,,,,0,00,0.0,,M,,M,0,0000*5D
[2021-01-29 10:48:47.159] $GPGGA,014845.80,,,,,0,00,0.0,,M,,M,0,0000*52
[2021-01-29 10:48:47.270] $GPGGA,014845.90,,,,,0,00,0.0,,M,,M,0,0000*53
[2021-01-29 10:48:47.364] $GPGGA,014846.00,,,,,0,00,0.0,,M,,M,0,0000*59
[2021-01-29 10:48:47.458] $GPGGA,014846.10,,,,,0,00,0.0,,M,,M,0,0000*58
[2021-01-29 10:48:47.567] $GPGGA,014846.20,,,,,0,00,0.0,,M,,M,0,0000*5B
[2021-01-29 10:48:47.661] $GPGGA,014846.30,,,,,0,00,0.0,,M,,M,0,0000*5A
[2021-01-29 10:48:47.770] $GPGGA,014846.40,,,,,0,00,0.0,,M,,M,0,0000*5D
[2021-01-29 10:48:47.864] $GPGGA,014846.50,,,,,0,00,0.0,,M,,M,0,0000*5C
[2021-01-29 10:48:47.958] $GPGGA,014846.60,,,,,0,00,0.0,,M,,M,0,0000*5F
[2021-01-29 10:48:48.067] $GPGGA,014846.70,,,,,0,00,0.0,,M,,M,0,0000*5E
[2021-01-29 10:48:48.161] $GPGGA,014846.80,,,,,0,00,0.0,,M,,M,0,0000*51
[2021-01-29 10:48:48.263] $GPGGA,014846.90,,,,,0,00,0.0,,M,,M,0,0000*50
[2021-01-29 10:48:48.366] $GPGGA,014847.00,,,,,0,00,0.0,,M,,M,0,0000*58
[2021-01-29 10:48:48.460] $GPGGA,014847.10,,,,,0,00,0.0,,M,,M,0,0000*59
[2021-01-29 10:48:48.569] $GPGGA,014847.20,,,,,0,00,0.0,,M,,M,0,0000*5A
[2021-01-29 10:48:48.663] $GPGGA,014847.30,,,,,0,00,0.0,,M,,M,0,0000*5B
[2021-01-29 10:48:48.772] $GPGGA,014847.40,,,,,0,00,0.0,,M,,M,0,0000*5C
[2021-01-29 10:48:48.866] $GPGGA,014847.50,,,,,0,00,0.0,,M,,M,0,0000*5D
[2021-01-29 10:48:48.960] $GPGGA,014847.60,,,,,0,00,0.0,,M,,M,0,0000*5E
[2021-01-29 10:48:49.069] $GPGGA,014847.70,,,,,0,00,0.0,,M,,M,0,0000*5F
[2021-01-29 10:48:49.163] $GPGGA,014847.80,,,,,0,00,0.0,,M,,M,0,0000*50
[2021-01-29 10:48:49.273] $GPGGA,014847.90,,,,,0,00,0.0,,M,,M,0,0000*51
[2021-01-29 10:48:49.367] $GPGGA,014848.00,,,,,0,00,0.0,,M,,M,0,0000*57
[2021-01-29 10:48:49.461] $GPGGA,014848.10,,,,,0,00,0.0,,M,,M,0,0000*56
[2021-01-29 10:48:49.570] $GPGGA,014848.20,,,,,0,00,0.0,,M,,M,0,0000*55
[2021-01-29 10:48:49.664] $GPGGA,014848.30,,,,,0,00,0.0,,M,,M,0,0000*54
[2021-01-29 10:48:49.757] $GPGGA,014848.40,,,,,0,00,0.0,,M,,M,0,0000*53
[2021-01-29 10:48:49.867] $GPGGA,014848.50,,,,,0,00,0.0,,M,,M,0,0000*52
[2021-01-29 10:48:49.961] $GPGGA,014848.60,,,,,0,00,0.0,,M,,M,0,0000*51
[2021-01-29 10:48:50.070] $GPGGA,014848.70,,,,,0,00,0.0,,M,,M,0,0000*50
[2021-01-29 10:48:50.164] $GPGGA,014848.80,,,,,0,00,0.0,,M,,M,0,0000*5F
[2021-01-29 10:48:50.266] $GPGGA,014848.90,,,,,0,00,0.0,,M,,M,0,0000*5E
[2021-01-29 10:48:50.353] $GPGGA,014849.00,,,,,0,00,0.0,,M,,M,0,0000*56
[2021-01-29 10:48:50.463] $GPGGA,014849.10,,,,,0,00,0.0,,M,,M,0,0000*57
[2021-01-29 10:48:50.556] $GPGGA,014849.20,,,,,0,00,0.0,,M,,M,0,0000*54
[2021-01-29 10:48:50.666] $GPGGA,014849.30,,,,,0,00,0.0,,M,,M,0,0000*55
[2021-01-29 10:48:50.759] $GPGGA,014849.40,,,,,0,00,0.0,,M,,M,0,0000*52
[2021-01-29 10:48:50.869] $GPGGA,014849.50,,,,,0,00,0.0,,M,,M,0,0000*53
[2021-01-29 10:48:50.963] $GPGGA,014849.60,,,,,0,00,0.0,,M,,M,0,0000*50
[2021-01-29 10:48:51.056] $GPGGA,014849.70,,,,,0,00,0.0,,M,,M,0,0000*51
[2021-01-29 10:48:51.166] $GPGGA,014849.80,,,,,0,00,0.0,,M,,M,0,0000*5E
[2021-01-29 10:48:51.268] $GPGGA,014849.90,,,,,0,00,0.0,,M,,M,0,0000*5F
[2021-01-29 10:48:51.370] $GPGGA,014850.00,,,,,0,00,0.0,,M,,M,0,0000*5E
[2021-01-29 10:48:51.464] $GPGGA,014850.10,,,,,0,00,0.0,,M,,M,0,0000*5F
[2021-01-29 10:48:51.573] $GPGGA,014850.20,,,,,0,00,0.0,,M,,M,0,0000*5C
[2021-01-29 10:48:51.667] $GPGGA,014850.30,,,,,0,00,0.0,,M,,M,0,0000*5D
[2021-01-29 10:48:51.761] $GPGGA,014850.40,,,,,0,00,0.0,,M,,M,0,0000*5A
[2021-01-29 10:48:51.855] $GPGGA,014850.50,,,,,0,00,0.0,,M,,M,0,0000*5B
[2021-01-29 10:48:51.964] $GPGGA,014850.60,,,,,0,00,0.0,,M,,M,0,0000*58
[2021-01-29 10:48:52.058] $GPGGA,014850.70,,,,,0,00,0.0,,M,,M,0,0000*59
[2021-01-29 10:48:52.167] $GPGGA,014850.80,,,,,0,00,0.0,,M,,M,0,0000*56
[2021-01-29 10:48:52.261] $GPGGA,014850.90,,,,,0,00,0.0,,M,,M,0,0000*57
[2021-01-29 10:48:52.372] $GPGGA,014851.00,,,,,0,00,0.0,,M,,M,0,0000*5F
[2021-01-29 10:48:52.465] $GPGGA,014851.10,,,,,0,00,0.0,,M,,M,0,0000*5E
[2021-01-29 10:48:52.559] $GPGGA,014851.20,,,,,0,00,0.0,,M,,M,0,0000*5D
[2021-01-29 10:48:52.668] $GPGGA,014851.30,,,,,0,00,0.0,,M,,M,0,0000*5C
[2021-01-29 10:48:52.762] $GPGGA,014851.40,,,,,0,00,0.0,,M,,M,0,0000*5B
[2021-01-29 10:48:52.872] $GPGGA,014851.50,,,,,0,00,0.0,,M,,M,0,0000*5A
[2021-01-29 10:48:52.965] $GPGGA,014851.60,,,,,0,00,0.0,,M,,M,0,0000*59
[2021-01-29 10:48:53.075] $GPGGA,014851.70,,,,,0,00,0.0,,M,,M,0,0000*58
[2021-01-29 10:48:53.168] $GPGGA,014851.80,,,,,0,00,0.0,,M,,M,0,0000*57
[2021-01-29 10:48:53.263] $GPGGA,014851.90,,,,,0,00,0.0,,M,,M,0,0000*56
[2021-01-29 10:48:53.357] $GPGGA,014852.00,,,,,0,00,0.0,,M,,M,0,0000*5C
[2021-01-29 10:48:53.466] $GPGGA,014852.10,,,,,0,00,0.0,,M,,M,0,0000*5D
[2021-01-29 10:48:53.560] $GPGGA,014852.20,,,,,0,00,0.0,,M,,M,0,0000*5E
[2021-01-29 10:48:53.669] $GPGGA,014852.30,,,,,0,00,0.0,,M,,M,0,0000*5F
[2021-01-29 10:48:53.763] $GPGGA,014852.40,,,,,0,00,0.0,,M,,M,0,0000*58
[2021-01-29 10:48:53.872] $GPGGA,014852.50,,,,,0,00,0.0,,M,,M,0,0000*59
[2021-01-29 10:48:53.966] $GPGGA,014852.60,,,,,0,00,0.0,,M,,M,0,0000*5A
[2021-01-29 10:48:54.060] $GPGGA,014852.70,,,,,0,00,0.0,,M,,M,0,0000*5B
[2021-01-29 10:48:54.153] $GPGGA,014852.80,,,,,0,00,0.0,,M,,M,0,0000*54
[2021-01-29 10:48:54.264] $GPGGA,014852.90,,,,,0,00,0.0,,M,,M,0,0000*55
[2021-01-29 10:48:54.374] $GPGGA,014853.00,,,,,0,00,0.0,,M,,M,0,0000*5D
[2021-01-29 10:48:54.467] $GPGGA,014853.10,,,,,0,00,0.0,,M,,M,0,0000*5C
[2021-01-29 10:48:54.561] $GPGGA,014853.20,,,,,0,00,0.0,,M,,M,0,0000*5F
[2021-01-29 10:48:54.671] $GPGGA,014853.30,,,,,0,00,0.0,,M,,M,0,0000*5E
[2021-01-29 10:48:54.764] $GPGGA,014853.40,,,,,0,00,0.0,,M,,M,0,0000*59
[2021-01-29 10:48:54.858] $GPGGA,014853.50,,,,,0,00,0.0,,M,,M,0,0000*58
[2021-01-29 10:48:54.967] $GPGGA,014853.60,,,,,0,00,0.0,,M,,M,0,0000*5B
[2021-01-29 10:48:55.061] $GPGGA,014853.70,,,,,0,00,0.0,,M,,M,0,0000*5A
[2021-01-29 10:48:55.170] $GPGGA,014853.80,,,,,0,00,0.0,,M,,M,0,0000*55
[2021-01-29 10:48:55.267] $GPGGA,014853.90,,,,,0,00,0.0,,M,,M,0,0000*54
[2021-01-29 10:48:55.360] $GPGGA,014854.00,,,,,0,00,0.0,,M,,M,0,0000*5A
[2021-01-29 10:48:55.454] $GPGGA,014854.10,,,,,0,00,0.0,,M,,M,0,0000*5B
[2021-01-29 10:48:55.563] $GPGGA,014854.20,,,,,0,00,0.0,,M,,M,0,0000*58
[2021-01-29 10:48:55.657] $GPGGA,014854.30,,,,,0,00,0.0,,M,,M,0,0000*59
[2021-01-29 10:48:55.767] $GPGGA,014854.40,,,,,0,00,0.0,,M,,M,0,0000*5E
[2021-01-29 10:48:55.860] $GPGGA,014854.50,,,,,0,00,0.0,,M,,M,0,0000*5F
[2021-01-29 10:48:55.970] $GPGGA,014854.60,,,,,0,00,0.0,,M,,M,0,0000*5C
[2021-01-29 10:48:56.063] $GPGGA,014854.70,,,,,0,00,0.0,,M,,M,0,0000*5D
[2021-01-29 10:48:56.157] $GPGGA,014854.80,,,,,0,00,0.0,,M,,M,0,0000*52
[2021-01-29 10:48:56.268] $GPGGA,014854.90,,,,,0,00,0.0,,M,,M,0,0000*53
[2021-01-29 10:48:56.361] $GPGGA,014855.00,,,,,0,00,0.0,,M,,M,0,0000*5B
[2021-01-29 10:48:56.471] $GPGGA,014855.10,,,,,0,00,0.0,,M,,M,0,0000*5A
[2021-01-29 10:48:56.564] $GPGGA,014855.20,,,,,0,00,0.0,,M,,M,0,0000*59
[2021-01-29 10:48:56.674] $GPGGA,014855.30,4327.7583808,N,14148.3136201,E,1,08,1.1,110.7439,M,31.83,M,,*6D
[2021-01-29 10:48:56.768] $GPGGA,014855.40,4327.7582535,N,14148.3134836,E,1,10,1.1,110.7338,M,31.83,M,,*6B
[2021-01-29 10:48:56.861] $GPGGA,014855.50,4327.7583289,N,14148.3136787,E,1,10,1.1,109.7920,M,31.83,M,,*67
[2021-01-29 10:48:56.971] $GPGGA,014855.60,4327.7584043,N,14148.3137388,E,1,10,1.1,109.8297,M,31.83,M,,*65
[2021-01-29 10:48:57.064] $GPGGA,014855.70,4327.7582998,N,14148.3136150,E,1,10,1.1,110.0882,M,31.83,M,,*65
[2021-01-29 10:48:57.174] $GPGGA,014855.80,4327.7582153,N,14148.3136049,E,1,10,1.1,109.8333,M,31.83,M,,*6D
[2021-01-29 10:48:57.270] $GPGGA,014855.90,4327.7581652,N,14148.3134453,E,1,10,1.1,109.9589,M,31.83,M,,*62
[2021-01-29 10:48:57.364] $GPGGA,014856.00,4327.7581252,N,14148.3133004,E,1,10,1.1,110.9114,M,31.83,M,,*65
[2021-01-29 10:48:57.473] $GPGGA,014856.10,4327.7581454,N,14148.3134148,E,1,10,1.1,109.8630,M,31.83,M,,*62
[2021-01-29 10:48:57.567] $GPGGA,014856.20,4327.7581720,N,14148.3132694,E,1,10,1.1,111.2217,M,31.83,M,,*63
[2021-01-29 10:48:57.676] $GPGGA,014856.30,4327.7582104,N,14148.3134450,E,1,10,1.1,109.9070,M,31.83,M,,*6C
[2021-01-29 10:48:57.770] $GPGGA,014856.40,4327.7582504,N,14148.3135576,E,1,10,1.1,109.3141,M,31.83,M,,*62
[2021-01-29 10:48:57.864] $GPGGA,014856.50,4327.7582407,N,14148.3135816,E,1,10,1.1,109.6058,M,31.83,M,,*66
[2021-01-29 10:48:57.973] $GPGGA,014856.60,4327.7582456,N,14148.3137037,E,1,10,1.1,109.2796,M,31.83,M,,*69
[2021-01-29 10:48:58.067] $GPGGA,014856.70,4327.7582979,N,14148.3136751,E,1,10,1.1,109.3279,M,31.83,M,,*6B
[2021-01-29 10:48:58.176] $GPGGA,014856.80,4327.7582813,N,14148.3136532,E,1,10,1.1,109.1625,M,31.83,M,,*61
[2021-01-29 10:48:58.272] $GPGGA,014856.90,4327.7582628,N,14148.3136907,E,1,10,1.1,109.3308,M,31.83,M,,*64
[2021-01-29 10:48:58.366] $GPGGA,014857.00,4327.7582790,N,14148.3135524,E,1,10,1.1,109.0160,M,31.83,M,,*6F
[2021-01-29 10:48:58.475] $GPGGA,014857.10,4327.7583110,N,14148.3135025,E,1,10,1.1,109.4528,M,31.83,M,,*69
[2021-01-29 10:48:58.569] $GPGGA,014857.20,4327.7582817,N,14148.3136775,E,1,10,1.1,108.9332,M,31.83,M,,*65
[2021-01-29 10:48:58.663] $GPGGA,014857.30,4327.7582885,N,14148.3135610,E,1,10,1.1,109.3683,M,31.83,M,,*6A
[2021-01-29 10:48:58.772] $GPGGA,014857.40,4327.7583359,N,14148.3135132,E,1,10,1.1,110.3109,M,31.83,M,,*6C
[2021-01-29 10:48:58.866] $GPGGA,014857.50,4327.7582788,N,14148.3135028,E,1,10,1.1,110.7930,M,31.83,M,,*68
[2021-01-29 10:48:58.975] $GPGGA,014857.60,4327.7582724,N,14148.3134359,E,1,10,1.1,110.6101,M,31.83,M,,*62
[2021-01-29 10:48:59.069] $GPGGA,014857.70,4327.7583297,N,14148.3134456,E,1,10,1.1,110.1881,M,31.83,M,,*61
[2021-01-29 10:48:59.163] $GPGGA,014857.80,4327.7582992,N,14148.3134834,E,1,10,1.1,110.3528,M,31.83,M,,*65
[2021-01-29 10:48:59.272] $GPGGA,014857.90,4327.7583156,N,14148.3135519,E,1,10,1.1,109.9733,M,31.83,M,,*6C
[2021-01-29 10:48:59.369] $GPGGA,014858.00,4327.7582667,N,14148.3135685,E,1,10,1.1,109.9243,M,31.83,M,,*6A
[2021-01-29 10:48:59.463] $GPGGA,014858.10,4327.7582923,N,14148.3135685,E,1,10,1.1,109.7505,M,31.83,M,,*6F
[2021-01-29 10:48:59.572] $GPGGA,014858.20,4327.7583080,N,14148.3135700,E,1,10,1.1,109.9711,M,31.83,M,,*68
[2021-01-29 10:48:59.666] $GPGGA,014858.30,4327.7582557,N,14148.3135479,E,1,10,1.1,109.9704,M,31.83,M,,*6E
[2021-01-29 10:48:59.775] $GPGGA,014858.40,4327.7582900,N,14148.3135669,E,1,10,1.1,109.7920,M,31.83,M,,*62
[2021-01-29 10:48:59.869] $GPGGA,014858.50,4327.7583414,N,14148.3136173,E,1,10,1.1,109.9492,M,31.83,M,,*6F
[2021-01-29 10:48:59.962] $GPGGA,014858.60,4327.7584021,N,14148.3135593,E,1,10,1.1,109.7123,M,31.83,M,,*61
[2021-01-29 10:49:00.072] $GPGGA,014858.70,4327.7584338,N,14148.3134867,E,1,10,1.1,109.6371,M,31.83,M,,*68
[2021-01-29 10:49:00.166] $GPGGA,014858.80,4327.7584083,N,14148.3134607,E,1,10,1.1,109.6294,M,31.83,M,,*66
[2021-01-29 10:49:00.277] $GPGGA,014858.90,4327.7583724,N,14148.3135146,E,1,10,1.1,110.0026,M,31.83,M,,*6C
[2021-01-29 10:49:00.371] $GPGGA,014859.00,4327.7584024,N,14148.3135544,E,1,10,1.1,109.9022,M,31.83,M,,*67
[2021-01-29 10:49:00.465] $GPGGA,014859.10,4327.7583911,N,14148.3135696,E,1,10,1.1,109.9911,M,31.83,M,,*6B
[2021-01-29 10:49:00.558] $GPGGA,014859.20,4327.7583230,N,14148.3135171,E,1,11,1.1,110.0630,M,31.83,M,,*62
[2021-01-29 10:49:00.668] $GPGGA,014859.30,4327.7582633,N,14148.3135715,E,1,11,1.1,110.0775,M,31.83,M,,*61
[2021-01-29 10:49:00.762] $GPGGA,014859.40,4327.7582597,N,14148.3135364,E,1,11,1.1,109.8310,M,31.83,M,,*6E
[2021-01-29 10:49:00.871] $GPGGA,014859.50,4327.7582931,N,14148.3135647,E,1,11,1.1,110.0140,M,31.83,M,,*6C
[2021-01-29 10:49:00.965] $GPGGA,014859.60,4327.7582934,N,14148.3135599,E,1,11,1.1,110.0171,M,31.83,M,,*68
[2021-01-29 10:49:01.074] $GPGGA,014859.70,4327.7583228,N,14148.3135053,E,1,11,1.1,110.0150,M,31.83,M,,*6E
[2021-01-29 10:49:01.168] $GPGGA,014859.80,4327.7583367,N,14148.3135239,E,1,11,1.1,109.9802,M,31.83,M,,*6A
[2021-01-29 10:49:01.275] $GPGGA,014859.90,4327.7582815,N,14148.3134390,E,1,11,1.1,110.2535,M,31.83,M,,*6D
[2021-01-29 10:49:01.371] $GPGGA,014900.00,4327.7583432,N,14148.3133893,E,1,11,1.1,109.7627,M,31.83,M,,*63
[2021-01-29 10:49:01.465] $GPGGA,014900.10,4327.7583446,N,14148.3133794,E,1,11,1.1,109.9491,M,31.83,M,,*68
[2021-01-29 10:49:01.574] $GPGGA,014900.20,4327.7583592,N,14148.3134385,E,1,11,1.1,110.0687,M,31.83,M,,*64
[2021-01-29 10:49:01.668] $GPGGA,014900.30,4327.7583935,N,14148.3134495,E,1,11,1.1,109.7081,M,31.83,M,,*6D
[2021-01-29 10:49:01.778] $GPGGA,014900.40,4327.7583984,N,14148.3135029,E,1,11,1.1,109.6423,M,31.83,M,,*6F
[2021-01-29 10:49:01.871] $GPGGA,014900.50,4327.7583529,N,14148.3135007,E,1,11,1.1,109.8695,M,31.83,M,,*68
[2021-01-29 10:49:01.981] $GPGGA,014900.60,4327.7584330,N,14148.3134929,E,1,11,1.1,109.5999,M,31.83,M,,*68
[2021-01-29 10:49:02.074] $GPGGA,014900.70,4327.7584013,N,14148.3134849,E,1,11,1.1,109.4956,M,31.83,M,,*6E
[2021-01-29 10:49:02.168] $GPGGA,014900.80,4327.7584178,N,14148.3135318,E,1,11,1.1,109.5959,M,31.83,M,,*6D
[2021-01-29 10:49:02.261] $GPGGA,014900.90,4327.7584416,N,14148.3135790,E,1,11,1.1,109.5894,M,31.83,M,,*65
[2021-01-29 10:49:02.370] $GPGGA,014901.00,4327.7584485,N,14148.3135535,E,1,11,1.1,109.2275,M,31.83,M,,*68
[2021-01-29 10:49:02.464] $GPGGA,014901.10,4327.7584088,N,14148.3135893,E,1,11,1.1,109.2986,M,31.83,M,,*66
[2021-01-29 10:49:02.573] $GPGGA,014901.20,4327.7585186,N,14148.3130647,E,1,12,1.1,108.8693,M,31.83,M,,*6A
[2021-01-29 10:49:02.667] $GPGGA,014901.30,4327.7585272,N,14148.3130279,E,1,12,1.1,108.9561,M,31.83,M,,*65
[2021-01-29 10:49:02.776] $GPGGA,014901.40,4327.7585018,N,14148.3129573,E,1,12,1.1,109.0258,M,31.83,M,,*6C
[2021-01-29 10:49:02.870] $GPGGA,014901.50,4327.7585093,N,14148.3129381,E,1,12,1.1,108.9129,M,31.83,M,,*68
[2021-01-29 10:49:02.964] $GPGGA,014901.60,4327.7585115,N,14148.3128941,E,1,12,1.1,108.7917,M,31.83,M,,*68
[2021-01-29 10:49:03.073] $GPGGA,014901.70,4327.7585988,N,14148.3129357,E,1,13,1.0,108.6242,M,31.83,M,,*63
[2021-01-29 10:49:03.167] $GPGGA,014901.80,4327.7585927,N,14148.3129266,E,1,13,1.0,108.5245,M,31.83,M,,*6E
[2021-01-29 10:49:03.270] $GPGGA,014901.90,4327.7585676,N,14148.3129293,E,1,13,1.0,108.5807,M,31.83,M,,*62
[2021-01-29 10:49:03.373] $GPGGA,014902.00,4327.7585830,N,14148.3128710,E,1,13,1.0,108.2262,M,31.83,M,,*65
[2021-01-29 10:49:03.467] $GPGGA,014902.10,4327.7585069,N,14148.3128509,E,1,13,1.0,108.3169,M,31.83,M,,*63
[2021-01-29 10:49:03.576] $GPGGA,014902.20,4327.7584705,N,14148.3129056,E,1,13,1.0,108.5968,M,31.83,M,,*6D
[2021-01-29 10:49:03.670] $GPGGA,014902.30,4327.7584558,N,14148.3129311,E,1,13,1.0,108.5346,M,31.83,M,,*60
[2021-01-29 10:49:03.764] $GPGGA,014902.40,4327.7584430,N,14148.3129232,E,1,13,1.0,108.3552,M,31.83,M,,*6D
[2021-01-29 10:49:03.873] $GPGGA,014902.50,4327.7584559,N,14148.3129020,E,1,13,1.0,108.3690,M,31.83,M,,*6E
[2021-01-29 10:49:03.967] $GPGGA,014902.60,4327.7584203,N,14148.3128944,E,1,13,1.0,108.3356,M,31.83,M,,*60
[2021-01-29 10:49:04.061] $GPGGA,014902.70,4327.7584078,N,14148.3129142,E,1,13,1.0,108.3384,M,31.83,M,,*6F
[2021-01-29 10:49:04.170] $GPGGA,014902.80,4327.7584305,N,14148.3128680,E,1,13,1.0,108.2588,M,31.83,M,,*6A
[2021-01-29 10:49:04.280] $GPGGA,014902.90,4327.7584429,N,14148.3128595,E,1,13,1.0,108.4084,M,31.83,M,,*6A
[2021-01-29 10:49:04.373] $GPGGA,014903.00,4327.7584675,N,14148.3127982,E,1,13,1.0,108.4160,M,31.83,M,,*67
[2021-01-29 10:49:04.467] $GPGGA,014903.10,4327.7585374,N,14148.3128082,E,1,13,1.0,108.3848,M,31.83,M,,*61
[2021-01-29 10:49:04.561] $GPGGA,014903.20,4327.7585576,N,14148.3128590,E,1,13,1.0,108.4495,M,31.83,M,,*6B
[2021-01-29 10:49:04.670] $GPGGA,014903.30,4327.7585332,N,14148.3129387,E,1,13,1.0,108.3460,M,31.83,M,,*60
[2021-01-29 10:49:04.764] $GPGGA,014903.40,4327.7584896,N,14148.3129551,E,1,13,1.0,108.2360,M,31.83,M,,*68
[2021-01-29 10:49:04.873] $GPGGA,014903.50,4327.7584980,N,14148.3128890,E,1,13,1.0,108.2768,M,31.83,M,,*62
[2021-01-29 10:49:04.967] $GPGGA,014903.60,4327.7584830,N,14148.3128691,E,1,13,1.0,108.2757,M,31.83,M,,*68
[2021-01-29 10:49:05.061] $GPGGA,014903.70,4327.7585163,N,14148.3128579,E,1,13,1.0,108.4594,M,31.83,M,,*69
[2021-01-29 10:49:05.170] $GPGGA,014903.80,4327.7585215,N,14148.3128656,E,1,13,1.0,108.2097,M,31.83,M,,*6A
[2021-01-29 10:49:05.266] $GPGGA,014903.90,4327.7584927,N,14148.3128687,E,1,13,1.0,108.3056,M,31.83,M,,*60
[2021-01-29 10:49:05.375] $GPGGA,014904.00,4327.7584872,N,14148.3128682,E,1,13,1.0,108.5218,M,31.83,M,,*64
[2021-01-29 10:49:05.469] $GPGGA,014904.10,4327.7585384,N,14148.3129255,E,1,13,1.0,108.5542,M,31.83,M,,*61
[2021-01-29 10:49:05.562] $GPGGA,014904.20,4327.7585546,N,14148.3129129,E,1,13,1.0,108.7766,M,31.83,M,,*64
[2021-01-29 10:49:05.672] $GPGGA,014904.30,4327.7585446,N,14148.3129189,E,1,13,1.0,108.8574,M,31.83,M,,*60
[2021-01-29 10:49:05.765] $GPGGA,014904.40,4327.7585106,N,14148.3128844,E,1,13,1.0,108.9308,M,31.83,M,,*63
[2021-01-29 10:49:05.875] $GPGGA,014904.50,4327.7585151,N,14148.3128617,E,1,13,1.0,108.9848,M,31.83,M,,*67
[2021-01-29 10:49:05.969] $GPGGA,014904.60,4327.7585003,N,14148.3128066,E,1,13,1.0,108.8237,M,31.83,M,,*61
[2021-01-29 10:49:06.078] $GPGGA,014904.70,4327.7585308,N,14148.3127755,E,1,13,1.0,108.6118,M,31.83,M,,*60
[2021-01-29 10:49:06.172] $GPGGA,014904.80,4327.7585124,N,14148.3128721,E,1,13,1.0,109.0516,M,31.83,M,,*62
[2021-01-29 10:49:06.267] $GPGGA,014904.90,4327.7584502,N,14148.3128064,E,1,13,1.0,108.9968,M,31.83,M,,*69
[2021-01-29 10:49:06.376] $GPGGA,014905.00,4327.7584966,N,14148.3128544,E,1,13,1.0,108.8937,M,31.83,M,,*63
[2021-01-29 10:49:06.470] $GPGGA,014905.10,4327.7585196,N,14148.3128422,E,1,13,1.0,108.8697,M,31.83,M,,*60
[2021-01-29 10:49:06.564] $GPGGA,014905.20,4327.7585347,N,14148.3128277,E,1,13,1.0,108.5274,M,31.83,M,,*6F
[2021-01-29 10:49:06.673] $GPGGA,014905.30,4327.7585470,N,14148.3128640,E,1,13,1.0,108.5024,M,31.83,M,,*6A
[2021-01-29 10:49:06.767] $GPGGA,014905.40,4327.7585904,N,14148.3128283,E,1,13,1.0,108.6225,M,31.83,M,,*68
[2021-01-29 10:49:06.876] $GPGGA,014905.50,4327.7585837,N,14148.3127452,E,1,13,1.0,108.3256,M,31.83,M,,*6C
[2021-01-29 10:49:06.970] $GPGGA,014905.60,4327.7585906,N,14148.3127765,E,1,13,1.0,108.5603,M,31.83,M,,*69
[2021-01-29 10:49:07.079] $GPGGA,014905.70,4327.7586084,N,14148.3127970,E,1,13,1.0,108.5474,M,31.83,M,,*60
[2021-01-29 10:49:07.173] $GPGGA,014905.80,4327.7585835,N,14148.3128015,E,1,13,1.0,108.5013,M,31.83,M,,*6E
[2021-01-29 10:49:07.269] $GPGGA,014905.90,4327.7585466,N,14148.3128105,E,1,13,1.0,108.3443,M,31.83,M,,*62
[2021-01-29 10:49:07.363] $GPGGA,014906.00,4327.7586083,N,14148.3127829,E,1,13,1.0,108.3591,M,31.83,M,,*62
[2021-01-29 10:49:07.472] $GPGGA,014906.10,4327.7585663,N,14148.3127350,E,1,13,1.0,108.5504,M,31.83,M,,*67
[2021-01-29 10:49:07.566] $GPGGA,014906.20,4327.7585911,N,14148.3127508,E,1,13,1.0,108.7541,M,31.83,M,,*66
[2021-01-29 10:49:07.675] $GPGGA,014906.30,4327.7585714,N,14148.3127736,E,1,13,1.0,109.0460,M,31.83,M,,*67
[2021-01-29 10:49:07.769] $GPGGA,014906.40,4327.7585926,N,14148.3128491,E,1,13,1.0,108.9977,M,31.83,M,,*6D
[2021-01-29 10:49:07.863] $GPGGA,014906.50,4327.7586171,N,14148.3128551,E,1,13,1.0,108.7890,M,31.83,M,,*6E
[2021-01-29 10:49:07.972] $GPGGA,014906.60,4327.7585860,N,14148.3129510,E,1,13,1.0,109.2994,M,31.83,M,,*62
[2021-01-29 10:49:08.066] $GPGGA,014906.70,4327.7585930,N,14148.3129009,E,1,13,1.0,109.1445,M,31.83,M,,*68
[2021-01-29 10:49:08.159] $GPGGA,014906.80,4327.7585534,N,14148.3128627,E,1,13,1.0,108.8598,M,31.83,M,,*6D
[2021-01-29 10:49:08.271] $GPGGA,014906.90,4327.7585523,N,14148.3128342,E,1,13,1.0,108.6622,M,31.83,M,,*60
[2021-01-29 10:49:08.364] $GPGGA,014907.00,4327.7585578,N,14148.3127859,E,1,13,1.0,108.6769,M,31.83,M,,*66
[2021-01-29 10:49:08.474] $GPGGA,014907.10,4327.7585648,N,14148.3127580,E,1,13,1.0,108.6106,M,31.83,M,,*61
[2021-01-29 10:49:08.567] $GPGGA,014907.20,4327.7585414,N,14148.3128118,E,1,13,1.0,108.6938,M,31.83,M,,*66
[2021-01-29 10:49:08.661] $GPGGA,014907.30,4327.7586508,N,14148.3128576,E,1,13,1.0,108.6444,M,31.83,M,,*62
[2021-01-29 10:49:08.771] $GPGGA,014907.40,4327.7586599,N,14148.3128639,E,1,13,1.0,108.8302,M,31.83,M,,*6E
[2021-01-29 10:49:08.864] $GPGGA,014907.50,4327.7586507,N,14148.3128689,E,1,13,1.0,108.9327,M,31.83,M,,*65
[2021-01-29 10:49:08.974] $GPGGA,014907.60,4327.7586093,N,14148.3128889,E,1,13,1.0,108.9884,M,31.83,M,,*62
[2021-01-29 10:49:09.067] $GPGGA,014907.70,4327.7586049,N,14148.3128768,E,1,13,1.0,108.8941,M,31.83,M,,*6D
[2021-01-29 10:49:09.177] $GPGGA,014907.80,4327.7586123,N,14148.3128559,E,1,13,1.0,108.7598,M,31.83,M,,*68
[2021-01-29 10:49:09.274] $GPGGA,014907.90,4327.7586195,N,14148.3128666,E,1,13,1.0,108.7139,M,31.83,M,,*64
[2021-01-29 10:49:09.368] $GPGGA,014908.00,4327.7586240,N,14148.3129135,E,1,13,1.0,108.6880,M,31.83,M,,*63
[2021-01-29 10:49:09.477] $GPGGA,014908.10,4327.7585875,N,14148.3128835,E,1,13,1.0,108.6690,M,31.83,M,,*6A
[2021-01-29 10:49:09.571] $GPGGA,014908.20,4327.7586114,N,14148.3128403,E,1,13,1.0,108.7313,M,31.83,M,,*62
[2021-01-29 10:49:09.665] $GPGGA,014908.30,4327.7586114,N,14148.3128728,E,1,13,1.0,108.9683,M,31.83,M,,*6B
[2021-01-29 10:49:09.774] $GPGGA,014908.40,4327.7585854,N,14148.3129080,E,1,13,1.0,108.9862,M,31.83,M,,*67
[2021-01-29 10:49:09.868] $GPGGA,014908.50,4327.7585947,N,14148.3128807,E,1,13,1.0,109.1762,M,31.83,M,,*65
[2021-01-29 10:49:09.977] $GPGGA,014908.60,4327.7585396,N,14148.3128288,E,1,13,1.0,108.8812,M,31.83,M,,*6D
[2021-01-29 10:49:10.071] $GPGGA,014908.70,4327.7585559,N,14148.3128588,E,1,13,1.0,108.8099,M,31.83,M,,*65
[2021-01-29 10:49:10.165] $GPGGA,014908.80,4327.7585421,N,14148.3128559,E,1,13,1.0,108.6084,M,31.83,M,,*6A
[2021-01-29 10:49:10.273] $GPGGA,014908.90,4327.7585555,N,14148.3127853,E,1,13,1.0,108.3630,M,31.83,M,,*6D
[2021-01-29 10:49:10.369] $GPGGA,014909.00,4327.7585155,N,14148.3128155,E,1,13,1.0,108.5667,M,31.83,M,,*65
[2021-01-29 10:49:10.478] $GPGGA,014909.10,4327.7585481,N,14148.3128016,E,1,13,1.0,108.5436,M,31.83,M,,*68
[2021-01-29 10:49:10.572] $GPGGA,014909.20,4327.7585739,N,14148.3128222,E,1,13,1.0,108.9299,M,31.83,M,,*61
[2021-01-29 10:49:10.681] $GPGGA,014909.30,4327.7585897,N,14148.3127522,E,1,13,1.0,108.7934,M,31.83,M,,*61
[2021-01-29 10:49:10.775] $GPGGA,014909.40,4327.7585750,N,14148.3127201,E,1,13,1.0,108.7389,M,31.83,M,,*68
[2021-01-29 10:49:10.869] $GPGGA,014909.50,4327.7585286,N,14148.3127830,E,1,13,1.0,109.1909,M,31.83,M,,*6A
[2021-01-29 10:49:10.962] $GPGGA,014909.60,4327.7585547,N,14148.3128664,E,1,13,1.0,109.2009,M,31.83,M,,*69
[2021-01-29 10:49:11.072] $GPGGA,014909.70,4327.7585409,N,14148.3128240,E,1,13,1.0,109.1772,M,31.83,M,,*69
[2021-01-29 10:49:11.165] $GPGGA,014909.80,4327.7585767,N,14148.3128422,E,1,13,1.0,109.0948,M,31.83,M,,*69
[2021-01-29 10:49:11.277] $GPGGA,014909.90,4327.7586139,N,14148.3128419,E,1,13,1.0,108.9803,M,31.83,M,,*68
[2021-01-29 10:49:11.371] $GPGGA,014910.00,4327.7586887,N,14148.3128754,E,1,13,1.0,108.9331,M,31.83,M,,*65
[2021-01-29 10:49:11.465] $GPGGA,014910.10,4327.7586631,N,14148.3128379,E,1,13,1.0,109.2119,M,31.83,M,,*6E
[2021-01-29 10:49:11.574] $GPGGA,014910.20,4327.7586694,N,14148.3128494,E,1,13,1.0,109.2397,M,31.83,M,,*62
[2021-01-29 10:49:11.668] $GPGGA,014910.30,4327.7586244,N,14148.3127825,E,1,13,1.0,109.2637,M,31.83,M,,*6C
[2021-01-29 10:49:11.762] $GPGGA,014910.40,4327.7586481,N,14148.3127292,E,1,13,1.0,109.1280,M,31.83,M,,*69
[2021-01-29 10:49:11.871] $GPGGA,014910.50,4327.7586090,N,14148.3127594,E,1,13,1.0,109.2563,M,31.83,M,,*64
[2021-01-29 10:49:11.965] $GPGGA,014910.60,4327.7585946,N,14148.3127471,E,1,13,1.0,109.2025,M,31.83,M,,*6B
[2021-01-29 10:49:12.074] $GPGGA,014910.70,4327.7586278,N,14148.3127187,E,1,13,1.0,108.7440,M,31.83,M,,*60
[2021-01-29 10:49:12.168] $GPGGA,014910.80,4327.7586090,N,14148.3127493,E,1,13,1.0,108.7230,M,31.83,M,,*6A
[2021-01-29 10:49:12.268] $GPGGA,014910.90,4327.7585671,N,14148.3127710,E,1,13,1.0,108.6328,M,31.83,M,,*60
[2021-01-29 10:49:12.371] $GPGGA,014911.00,4327.7585745,N,14148.3127840,E,1,13,1.0,108.6771,M,31.83,M,,*6C
[2021-01-29 10:49:12.465] $GPGGA,014911.10,4327.7585935,N,14148.3126985,E,1,13,1.0,108.4784,M,31.83,M,,*65
[2021-01-29 10:49:12.574] $GPGGA,014911.20,4327.7585826,N,14148.3127190,E,1,13,1.0,108.5388,M,31.83,M,,*61
[2021-01-29 10:49:12.668] $GPGGA,014911.30,4327.7586049,N,14148.3127002,E,1,13,1.0,108.3669,M,31.83,M,,*64
[2021-01-29 10:49:12.777] $GPGGA,014911.40,4327.7585938,N,14148.3126806,E,1,13,1.0,108.3756,M,31.83,M,,*6F
[2021-01-29 10:49:12.871] $GPGGA,014911.50,4327.7585751,N,14148.3126856,E,1,13,1.0,108.3652,M,31.83,M,,*6F
[2021-01-29 10:49:12.965] $GPGGA,014911.60,4327.7586723,N,14148.3127234,E,1,13,1.0,108.5427,M,31.83,M,,*63
[2021-01-29 10:49:13.074] $GPGGA,014911.70,4327.7586997,N,14148.3127465,E,1,13,1.0,108.7670,M,31.83,M,,*63
[2021-01-29 10:49:13.168] $GPGGA,014911.80,4327.7586560,N,14148.3126852,E,1,13,1.0,108.5198,M,31.83,M,,*62
[2021-01-29 10:49:13.271] $GPGGA,014911.90,4327.7586400,N,14148.3126677,E,1,13,1.0,108.2356,M,31.83,M,,*6A
[2021-01-29 10:49:13.373] $GPGGA,014912.00,4327.7586384,N,14148.3127081,E,1,13,1.0,108.4748,M,31.83,M,,*68
[2021-01-29 10:49:13.467] $GPGGA,014912.10,4327.7586511,N,14148.3126731,E,1,13,1.0,108.3355,M,31.83,M,,*61
[2021-01-29 10:49:13.576] $GPGGA,014912.20,4327.7586253,N,14148.3126965,E,1,14,1.0,108.1979,M,31.83,M,,*6D
[2021-01-29 10:49:13.670] $GPGGA,014912.30,4327.7585985,N,14148.3126754,E,1,14,1.0,108.1659,M,31.83,M,,*6E
[2021-01-29 10:49:13.763] $GPGGA,014912.40,4327.7586296,N,14148.3126251,E,1,14,1.0,108.1417,M,31.83,M,,*6B
[2021-01-29 10:49:13.873] $GPGGA,014912.50,4327.7585858,N,14148.3125828,E,1,14,1.0,108.1909,M,31.83,M,,*64
[2021-01-29 10:49:13.967] $GPGGA,014912.60,4327.7586672,N,14148.3126005,E,1,14,1.0,108.1672,M,31.83,M,,*65
[2021-01-29 10:49:14.076] $GPGGA,014912.70,4327.7586472,N,14148.3126139,E,1,14,1.0,107.9745,M,31.83,M,,*6A
[2021-01-29 10:49:14.170] $GPGGA,014912.80,4327.7586934,N,14148.3126194,E,1,14,1.0,108.1055,M,31.83,M,,*6C
[2021-01-29 10:49:14.279] $GPGGA,014912.90,4327.7587043,N,14148.3126640,E,1,14,1.0,108.2608,M,31.83,M,,*66
[2021-01-29 10:49:14.373] $GPGGA,014913.00,4327.7586873,N,14148.3127140,E,1,14,1.0,108.3329,M,31.83,M,,*65
[2021-01-29 10:49:14.467] $GPGGA,014913.10,4327.7585896,N,14148.3126448,E,1,14,1.0,108.6230,M,31.83,M,,*6C
[2021-01-29 10:49:14.576] $GPGGA,014913.20,4327.7585791,N,14148.3126780,E,1,14,1.0,108.7352,M,31.83,M,,*64
[2021-01-29 10:49:14.670] $GPGGA,014913.30,4327.7586267,N,14148.3126137,E,1,14,1.0,108.3423,M,31.83,M,,*65
[2021-01-29 10:49:14.763] $GPGGA,014913.40,4327.7586312,N,14148.3125631,E,1,14,1.0,108.1418,M,31.83,M,,*69
[2021-01-29 10:49:14.873] $GPGGA,014913.50,4327.7585803,N,14148.3125889,E,1,14,1.0,108.1484,M,31.83,M,,*68
[2021-01-29 10:49:14.967] $GPGGA,014913.60,4327.7586205,N,14148.3125250,E,1,14,1.0,107.7204,M,31.83,M,,*6D
[2021-01-29 10:49:15.076] $GPGGA,014913.70,4327.7586262,N,14148.3125714,E,1,14,1.0,107.6797,M,31.83,M,,*66
[2021-01-29 10:49:15.170] $GPGGA,014913.80,4327.7585827,N,14148.3126322,E,1,14,1.0,107.9573,M,31.83,M,,*64
[2021-01-29 10:49:15.265] $GPGGA,014913.90,4327.7585851,N,14148.3125792,E,1,14,1.0,107.9428,M,31.83,M,,*67
[2021-01-29 10:49:15.374] $GPGGA,014914.00,4327.7585613,N,14148.3125148,E,1,14,1.0,107.9331,M,31.83,M,,*6F
[2021-01-29 10:49:15.468] $GPGGA,014914.10,4327.7585799,N,14148.3124854,E,1,14,1.0,107.8197,M,31.83,M,,*67
[2021-01-29 10:49:15.562] $GPGGA,014914.20,4327.7585710,N,14148.3124283,E,1,14,1.0,107.6999,M,31.83,M,,*6D
[2021-01-29 10:49:15.671] $GPGGA,014914.30,4327.7585699,N,14148.3124161,E,1,14,1.0,107.7508,M,31.83,M,,*66
[2021-01-29 10:49:15.765] $GPGGA,014914.40,4327.7585653,N,14148.3124149,E,1,14,1.0,107.9263,M,31.83,M,,*69
[2021-01-29 10:49:15.874] $GPGGA,014914.50,4327.7585096,N,14148.3124707,E,1,14,1.0,108.0670,M,31.83,M,,*6B
[2021-01-29 10:49:15.968] $GPGGA,014914.60,4327.7585753,N,14148.3124532,E,1,14,1.0,108.0836,M,31.83,M,,*6E
[2021-01-29 10:49:16.062] $GPGGA,014914.70,4327.7585828,N,14148.3124694,E,1,14,1.0,108.0391,M,31.83,M,,*65
[2021-01-29 10:49:16.171] $GPGGA,014914.80,4327.7586147,N,14148.3124600,E,1,14,1.0,107.9846,M,31.83,M,,*63
[2021-01-29 10:49:16.266] $GPGGA,014914.90,4327.7586540,N,14148.3125093,E,1,14,1.0,108.0113,M,31.83,M,,*63
[2021-01-29 10:49:16.376] $GPGGA,014915.00,4327.7586334,N,14148.3125552,E,1,14,1.0,108.1273,M,31.83,M,,*62
[2021-01-29 10:49:16.469] $GPGGA,014915.10,4327.7585956,N,14148.3124423,E,1,14,1.0,108.1312,M,31.83,M,,*6E
[2021-01-29 10:49:16.563] $GPGGA,014915.20,4327.7586240,N,14148.3124873,E,1,14,1.0,108.0227,M,31.83,M,,*6D
[2021-01-29 10:49:16.673] $GPGGA,014915.30,4327.7586038,N,14148.3124438,E,1,14,1.0,108.2057,M,31.83,M,,*65
[2021-01-29 10:49:16.766] $GPGGA,014915.40,4327.7585890,N,14148.3125039,E,1,14,1.0,108.5012,M,31.83,M,,*69
[2021-01-29 10:49:16.876] $GPGGA,014915.50,4327.7586601,N,14148.3124797,E,1,14,1.0,108.3498,M,31.83,M,,*6F
[2021-01-29 10:49:16.969] $GPGGA,014915.60,4327.7586324,N,14148.3125025,E,1,14,1.0,108.1694,M,31.83,M,,*6D
[2021-01-29 10:49:17.063] $GPGGA,014915.70,4327.7586598,N,14148.3125146,E,1,14,1.0,108.3147,M,31.83,M,,*62
[2021-01-29 10:49:17.173] $GPGGA,014915.80,4327.7586443,N,14148.3125146,E,1,14,1.0,107.9099,M,31.83,M,,*6D
[2021-01-29 10:49:17.268] $GPGGA,014915.90,4327.7586692,N,14148.3125137,E,1,14,1.0,108.2084,M,31.83,M,,*6C
[2021-01-29 10:49:17.362] $GPGGA,014916.00,4327.7586909,N,14148.3125775,E,1,14,1.0,108.0759,M,31.83,M,,*6E
[2021-01-29 10:49:17.471] $GPGGA,014916.10,4327.7586641,N,14148.3125505,E,1,14,1.0,108.0819,M,31.83,M,,*62
[2021-01-29 10:49:17.565] $GPGGA,014916.20,4327.7586774,N,14148.3125571,E,1,14,1.0,107.8255,M,31.83,M,,*60
[2021-01-29 10:49:17.674] $GPGGA,014916.30,4327.7587273,N,14148.3125396,E,1,14,1.0,107.4102,M,31.83,M,,*60
[2021-01-29 10:49:17.768] $GPGGA,014916.40,4327.7587270,N,14148.3125841,E,1,14,1.0,107.4172,M,31.83,M,,*62
[2021-01-29 10:49:17.878] $GPGGA,014916.50,4327.7587752,N,14148.3126375,E,1,14,1.0,107.3866,M,31.83,M,,*62
[2021-01-29 10:49:17.971] $GPGGA,014916.60,4327.7587797,N,14148.3125804,E,1,14,1.0,107.4265,M,31.83,M,,*68
[2021-01-29 10:49:18.065] $GPGGA,014916.70,4327.7587809,N,14148.3125612,E,1,14,1.0,107.5917,M,31.83,M,,*67
[2021-01-29 10:49:18.174] $GPGGA,014916.80,4327.7587596,N,14148.3125569,E,1,14,1.0,107.5528,M,31.83,M,,*6C
[2021-01-29 10:49:18.270] $GPGGA,014916.90,4327.7587282,N,14148.3126406,E,1,14,1.0,107.4509,M,31.83,M,,*66
[2021-01-29 10:49:18.364] $GPGGA,014917.00,4327.7587112,N,14148.3126627,E,1,14,1.0,107.8289,M,31.83,M,,*66
[2021-01-29 10:49:18.474] $GPGGA,014917.10,4327.7586879,N,14148.3126027,E,1,14,1.0,107.6029,M,31.83,M,,*62
[2021-01-29 10:49:18.583] $GPGGA,014917.20,4327.7586821,N,14148.3117051,E,5,11,1.0,112.9728,M,31.83,M,5,0000*56
[2021-01-29 10:49:18.677] $GPGGA,014917.30,4327.7586179,N,14148.3116899,E,5,11,1.0,113.0792,M,31.83,M,5,0000*57
[2021-01-29 10:49:18.770] $GPGGA,014917.40,4327.7586284,N,14148.3117387,E,5,11,1.0,113.2612,M,31.83,M,5,0000*5F
[2021-01-29 10:49:18.880] $GPGGA,014917.50,4327.7586214,N,14148.3117411,E,5,11,1.0,113.1991,M,31.83,M,5,0000*58
[2021-01-29 10:49:18.974] $GPGGA,014917.60,4327.7586195,N,14148.3117471,E,5,11,1.0,113.0129,M,31.83,M,5,0000*5D
[2021-01-29 10:49:19.083] $GPGGA,014917.70,4327.7586153,N,14148.3117504,E,5,11,1.0,113.0366,M,31.83,M,5,0000*5C
[2021-01-29 10:49:19.177] $GPGGA,014917.80,4327.7586033,N,14148.3117346,E,5,11,1.0,113.0812,M,31.83,M,5,0000*5C
[2021-01-29 10:49:19.272] $GPGGA,014917.90,4327.7586005,N,14148.3117249,E,5,11,1.0,113.0883,M,31.83,M,5,0000*5E
[2021-01-29 10:49:19.381] $GPGGA,014918.00,4327.7585889,N,14148.3117037,E,5,11,1.0,113.0726,M,31.83,M,6,0000*5F
[2021-01-29 10:49:19.475] $GPGGA,014918.10,4327.7585821,N,14148.3116831,E,5,11,1.0,113.0810,M,31.83,M,6,0000*59
[2021-01-29 10:49:19.584] $GPGGA,014918.20,4327.7585830,N,14148.3116770,E,5,11,1.0,113.0287,M,31.83,M,1,0000*53
[2021-01-29 10:49:19.694] $GPGGA,014918.30,4327.7585772,N,14148.3116617,E,5,11,1.0,113.0529,M,31.83,M,1,0000*58
[2021-01-29 10:49:19.787] $GPGGA,014918.40,4327.7585701,N,14148.3116502,E,5,11,1.0,113.0768,M,31.83,M,1,0000*5B
[2021-01-29 10:49:19.881] $GPGGA,014918.50,4327.7585687,N,14148.3116469,E,5,11,1.0,113.1290,M,31.83,M,1,0000*5A
[2021-01-29 10:49:19.990] $GPGGA,014918.60,4327.7585693,N,14148.3116416,E,5,11,1.0,113.1547,M,31.83,M,1,0000*59
[2021-01-29 10:49:20.084] $GPGGA,014918.70,4327.7585694,N,14148.3116358,E,5,11,1.0,113.1747,M,31.83,M,1,0000*50
[2021-01-29 10:49:20.193] $GPGGA,014918.80,4327.7585671,N,14148.3116293,E,5,11,1.0,113.1944,M,31.83,M,1,0000*5F
[2021-01-29 10:49:20.289] $GPGGA,014918.90,4327.7585701,N,14148.3116297,E,5,11,1.0,113.2155,M,31.83,M,1,0000*57
[2021-01-29 10:49:20.383] $GPGGA,014919.00,4327.7585705,N,14148.3116243,E,5,11,1.0,113.2262,M,31.83,M,2,0000*56
[2021-01-29 10:49:20.492] $GPGGA,014919.10,4327.7585731,N,14148.3116255,E,5,11,1.0,113.2321,M,31.83,M,2,0000*51
[2021-01-29 10:49:20.586] $GPGGA,014919.20,4327.7585696,N,14148.3116186,E,5,11,1.0,113.2276,M,31.83,M,2,0000*50
[2021-01-29 10:49:20.680] $GPGGA,014919.30,4327.7585685,N,14148.3116155,E,5,11,1.0,113.2393,M,31.83,M,2,0000*57
[2021-01-29 10:49:20.789] $GPGGA,014919.40,4327.7585675,N,14148.3116156,E,5,11,1.0,113.2437,M,31.83,M,2,0000*55
[2021-01-29 10:49:20.883] $GPGGA,014919.50,4327.7585664,N,14148.3116119,E,5,11,1.0,113.2432,M,31.83,M,2,0000*5A
[2021-01-29 10:49:20.992] $GPGGA,014919.60,4327.7585676,N,14148.3116127,E,5,11,1.0,113.2644,M,31.83,M,2,0000*54
[2021-01-29 10:49:21.086] $GPGGA,014919.70,4327.7585690,N,14148.3116151,E,5,11,1.0,113.2702,M,31.83,M,2,0000*5F
[2021-01-29 10:49:21.179] $GPGGA,014919.80,4327.7585740,N,14148.3116208,E,5,11,1.0,113.2770,M,31.83,M,2,0000*56
[2021-01-29 10:49:21.291] $GPGGA,014919.90,4327.7585809,N,14148.3116268,E,5,11,1.0,113.2833,M,31.83,M,2,0000*5B
[2021-01-29 10:49:21.384] $GPGGA,014920.00,4327.7585816,N,14148.3116284,E,5,11,1.0,113.2856,M,31.83,M,3,0000*56
[2021-01-29 10:49:21.494] $GPGGA,014920.10,4327.7585816,N,14148.3116249,E,5,11,1.0,113.2939,M,31.83,M,3,0000*5E
[2021-01-29 10:49:21.588] $GPGGA,014920.20,4327.7585798,N,14148.3116215,E,5,11,1.0,113.2938,M,31.83,M,3,0000*5C
[2021-01-29 10:49:21.697] $GPGGA,014920.30,4327.7585784,N,14148.3116200,E,5,11,1.0,113.2848,M,31.83,M,3,0000*52
[2021-01-29 10:49:21.791] $GPGGA,014920.40,4327.7585792,N,14148.3116210,E,5,11,1.0,113.2693,M,31.83,M,3,0000*5B
[2021-01-29 10:49:21.884] $GPGGA,014920.50,4327.7585791,N,14148.3116241,E,5,11,1.0,113.2609,M,31.83,M,3,0000*5E
[2021-01-29 10:49:21.978] $GPGGA,014920.60,4327.7585789,N,14148.3116256,E,5,11,1.0,113.2401,M,31.83,M,3,0000*58
[2021-01-29 10:49:22.088] $GPGGA,014920.70,4327.7585746,N,14148.3116226,E,5,11,1.0,113.2176,M,31.83,M,3,0000*58
[2021-01-29 10:49:22.181] $GPGGA,014920.80,4327.7585726,N,14148.3116190,E,5,11,1.0,113.2214,M,31.83,M,3,0000*58
[2021-01-29 10:49:22.292] $GPGGA,014920.90,4327.7585718,N,14148.3116207,E,5,11,1.0,113.2338,M,31.83,M,3,0000*56
[2021-01-29 10:49:22.386] $GPGGA,014921.00,4327.7585741,N,14148.3116226,E,5,11,1.0,113.2380,M,31.83,M,4,0000*55
[2021-01-29 10:49:22.495] $GPGGA,014921.10,4327.7585728,N,14148.3116221,E,5,11,1.0,113.2510,M,31.83,M,4,0000*53
[2021-01-29 10:49:22.589] $GPGGA,014921.20,4327.7585705,N,14148.3116190,E,5,11,1.0,113.2740,M,31.83,M,4,0000*51
[2021-01-29 10:49:22.683] $GPGGA,014921.30,4327.7585688,N,14148.3116193,E,5,11,1.0,113.2868,M,31.83,M,4,0000*52
[2021-01-29 10:49:22.792] $GPGGA,014921.40,4327.7585656,N,14148.3116181,E,5,11,1.0,113.2982,M,31.83,M,4,0000*50
[2021-01-29 10:49:22.886] $GPGGA,014921.50,4327.7585643,N,14148.3116186,E,5,11,1.0,113.3018,M,31.83,M,4,0000*59
[2021-01-29 10:49:22.995] $GPGGA,014921.60,4327.7585645,N,14148.3116170,E,5,11,1.0,113.3011,M,31.83,M,4,0000*5C
[2021-01-29 10:49:23.089] $GPGGA,014921.70,4327.7585641,N,14148.3116165,E,5,11,1.0,113.3109,M,31.83,M,4,0000*55
[2021-01-29 10:49:23.183] $GPGGA,014921.80,4327.7585626,N,14148.3116161,E,5,11,1.0,113.3242,M,31.83,M,4,0000*53
[2021-01-29 10:49:23.294] $GPGGA,014921.90,4327.7585621,N,14148.3116134,E,5,11,1.0,113.3189,M,31.83,M,4,0000*51
[2021-01-29 10:49:23.387] $GPGGA,014922.00,4327.7585637,N,14148.3116144,E,5,11,1.0,113.3092,M,31.83,M,5,0000*51
[2021-01-29 10:49:23.481] $GPGGA,014922.10,4327.7585658,N,14148.3116147,E,5,11,1.0,113.3144,M,31.83,M,5,0000*50
[2021-01-29 10:49:23.590] $GPGGA,014922.20,4327.7585654,N,14148.3116121,E,5,11,1.0,113.3067,M,31.83,M,5,0000*5F
[2021-01-29 10:49:23.684] $GPGGA,014922.30,4327.7585663,N,14148.3116110,E,5,11,1.0,113.2981,M,31.83,M,5,0000*58
[2021-01-29 10:49:23.793] $GPGGA,014922.40,4327.7585657,N,14148.3116091,E,5,11,1.0,113.2896,M,31.83,M,5,0000*57
[2021-01-29 10:49:23.887] $GPGGA,014922.50,4327.7585674,N,14148.3116099,E,5,11,1.0,113.2826,M,31.83,M,5,0000*54
[2021-01-29 10:49:23.997] $GPGGA,014922.60,4327.7585676,N,14148.3116090,E,5,11,1.0,113.2855,M,31.83,M,5,0000*58
[2021-01-29 10:49:24.090] $GPGGA,014922.70,4327.7585705,N,14148.3116111,E,5,11,1.0,113.2829,M,31.83,M,5,0000*5F
[2021-01-29 10:49:24.184] $GPGGA,014922.80,4327.7585724,N,14148.3116128,E,5,11,1.0,113.2752,M,31.83,M,5,0000*5A
[2021-01-29 10:49:24.278] $GPGGA,014922.90,4327.7585742,N,14148.3116144,E,5,11,1.0,113.2799,M,31.83,M,5,0000*56
[2021-01-29 10:49:24.388] $GPGGA,014923.00,4327.7585725,N,14148.3116156,E,5,11,1.0,113.2851,M,31.83,M,6,0000*54
[2021-01-29 10:49:24.482] $GPGGA,014923.10,4327.7585721,N,14148.3116181,E,5,11,1.0,113.2911,M,31.83,M,6,0000*5E
[2021-01-29 10:49:24.591] $GPGGA,014923.20,4327.7585686,N,14148.3116203,E,5,11,1.0,113.2990,M,31.83,M,1,0000*56
[2021-01-29 10:49:24.685] $GPGGA,014923.30,4327.7585679,N,14148.3116217,E,5,11,1.0,113.3022,M,31.83,M,1,0000*53
[2021-01-29 10:49:24.794] $GPGGA,014923.40,4327.7585680,N,14148.3116233,E,5,11,1.0,113.3115,M,31.83,M,1,0000*51
[2021-01-29 10:49:24.888] $GPGGA,014923.50,4327.7585662,N,14148.3116228,E,5,11,1.0,113.3193,M,31.83,M,1,0000*58
[2021-01-29 10:49:24.982] $GPGGA,014923.60,4327.7585644,N,14148.3116225,E,5,11,1.0,113.3193,M,31.83,M,1,0000*52
[2021-01-29 10:49:25.091] $GPGGA,014923.70,4327.7585635,N,14148.3116240,E,5,11,1.0,113.3297,M,31.83,M,1,0000*51
[2021-01-29 10:49:25.185] $GPGGA,014923.80,4327.7585634,N,14148.3116245,E,5,11,1.0,113.3337,M,31.83,M,1,0000*51
[2021-01-29 10:49:25.295] $GPGGA,014923.90,4327.7585649,N,14148.3116272,E,5,11,1.0,113.3437,M,31.83,M,1,0000*59
[2021-01-29 10:49:25.389] $GPGGA,014924.00,4327.7585666,N,14148.3116312,E,5,11,1.0,113.3452,M,31.83,M,2,0000*5D
[2021-01-29 10:49:25.483] $GPGGA,014924.10,4327.7585671,N,14148.3116326,E,5,11,1.0,113.3490,M,31.83,M,2,0000*53
[2021-01-29 10:49:25.592] $GPGGA,014924.20,4327.7585676,N,14148.3116335,E,5,11,1.0,113.3542,M,31.83,M,2,0000*5B
[2021-01-29 10:49:25.686] $GPGGA,014924.30,4327.7585660,N,14148.3116350,E,5,11,1.0,113.3566,M,31.83,M,2,0000*58
[2021-01-29 10:49:25.780] $GPGGA,014924.40,4327.7585666,N,14148.3116374,E,5,11,1.0,113.3548,M,31.83,M,2,0000*53
[2021-01-29 10:49:25.889] $GPGGA,014924.50,4327.7585666,N,14148.3116383,E,5,11,1.0,113.3530,M,31.83,M,2,0000*55
[2021-01-29 10:49:25.983] $GPGGA,014924.60,4327.7585685,N,14148.3116412,E,5,11,1.0,113.3539,M,31.83,M,2,0000*5D
[2021-01-29 10:49:26.092] $GPGGA,014924.70,4327.7585670,N,14148.3116424,E,5,11,1.0,113.3579,M,31.83,M,2,0000*57
[2021-01-29 10:49:26.186] $GPGGA,014924.80,4327.7585666,N,14148.3116436,E,5,11,1.0,113.3632,M,31.83,M,2,0000*50
[2021-01-29 10:49:26.282] $GPGGA,014924.90,4327.7585658,N,14148.3116426,E,5,11,1.0,113.3624,M,31.83,M,2,0000*5A
[2021-01-29 10:49:26.391] $GPGGA,014925.00,4327.7585642,N,14148.3116435,E,5,11,1.0,113.3667,M,31.83,M,3,0000*5D
[2021-01-29 10:49:26.485] $GPGGA,014925.10,4327.7585636,N,14148.3116431,E,5,11,1.0,113.3701,M,31.83,M,3,0000*5A
[2021-01-29 10:49:26.594] $GPGGA,014925.20,4327.7585631,N,14148.3116416,E,5,11,1.0,113.3710,M,31.83,M,3,0000*5B
[2021-01-29 10:49:26.688] $GPGGA,014925.30,4327.7585632,N,14148.3116426,E,5,11,1.0,113.3753,M,31.83,M,3,0000*5D
[2021-01-29 10:49:26.797] $GPGGA,014925.40,4327.7585625,N,14148.3116425,E,5,11,1.0,113.3840,M,31.83,M,3,0000*52
[2021-01-29 10:49:26.891] $GPGGA,014925.50,4327.7585619,N,14148.3116427,E,5,11,1.0,113.3900,M,31.83,M,3,0000*5B
[2021-01-29 10:49:26.985] $GPGGA,014925.60,4327.7585612,N,14148.3116430,E,5,11,1.0,113.3851,M,31.83,M,3,0000*50
[2021-01-29 10:49:27.079] $GPGGA,014925.70,4327.7585615,N,14148.3116441,E,5,11,1.0,113.3814,M,31.83,M,3,0000*51
[2021-01-29 10:49:27.188] $GPGGA,014925.80,4327.7585613,N,14148.3116446,E,5,11,1.0,113.3817,M,31.83,M,3,0000*5C
[2021-01-29 10:49:27.283] $GPGGA,014925.90,4327.7585611,N,14148.3116444,E,5,11,1.0,113.3814,M,31.83,M,3,0000*5E
[2021-01-29 10:49:27.393] $GPGGA,014926.00,4327.7585608,N,14148.3116450,E,5,11,1.0,113.3781,M,31.83,M,4,0000*5D
[2021-01-29 10:49:27.486] $GPGGA,014926.10,4327.7585588,N,14148.3116442,E,5,11,1.0,113.3783,M,31.83,M,4,0000*56
[2021-01-29 10:49:27.580] $GPGGA,014926.20,4327.7585590,N,14148.3116448,E,5,11,1.0,113.3807,M,31.83,M,4,0000*55
[2021-01-29 10:49:27.689] $GPGGA,014926.30,4327.7585588,N,14148.3116444,E,5,11,1.0,113.3808,M,31.83,M,4,0000*5E
[2021-01-29 10:49:27.783] $GPGGA,014926.40,4327.7585580,N,14148.3116447,E,5,11,1.0,113.3854,M,31.83,M,4,0000*5B
[2021-01-29 10:49:27.877] $GPGGA,014926.50,4327.7585577,N,14148.3116461,E,5,11,1.0,113.3817,M,31.83,M,4,0000*51
[2021-01-29 10:49:27.986] $GPGGA,014926.60,4327.7585582,N,14148.3116473,E,5,11,1.0,113.3741,M,31.83,M,4,0000*57
[2021-01-29 10:49:28.080] $GPGGA,014926.70,4327.7585576,N,14148.3116481,E,5,11,1.0,113.3699,M,31.83,M,4,0000*54
[2021-01-29 10:49:28.189] $GPGGA,014926.80,4327.7585568,N,14148.3116474,E,5,11,1.0,113.3630,M,31.83,M,4,0000*5D
