
[2021-01-29 11:05:20.538] $GPGGA,020506.20,,,,,0,00,0.0,,M,,M,0,0000*55
[2021-01-29 11:05:20.569] $GPGGA,020506.30,,,,,0,00,0.0,,M,,M,0,0000*54
[2021-01-29 11:05:20.569] $GPGGA,020506.40,,,,,0,00,0.0,,M,,M,0,0000*53
[2021-01-29 11:05:20.569] $GPGGA,020506.50,,,,,0,00,0.0,,M,,M,0,0000*52
[2021-01-29 11:05:20.569] $GPGGA,020506.60,,,,,0,00,0.0,,M,,M,0,0000*51
[2021-01-29 11:05:20.569] $GPGGA,020506.70,,,,,0,00,0.0,,M,,M,0,0000*50
[2021-01-29 11:05:20.569] $GPGGA,020506.80,,,,,0,00,0.0,,M,,M,0,0000*5F
[2021-01-29 11:05:20.569] $GPGGA,020506.90,,,,,0,00,0.0,,M,,M,0,0000*5E
[2021-01-29 11:05:20.569] $GPGGA,020507.00,,,,,0,00,0.0,,M,,M,0,0000*56
[2021-01-29 11:05:20.569] $GPGGA,020507.10,,,,,0,00,0.0,,M,,M,0,0000*57
[2021-01-29 11:05:20.569] $GPGGA,020507.20,,,,,0,00,0.0,,M,,M,0,0000*54
[2021-01-29 11:05:20.569] $GPGGA,020507.30,,,,,0,00,0.0,,M,,M,0,0000*55
[2021-01-29 11:05:20.569] $GPGGA,020507.40,,,,,0,00,0.0,,M,,M,0,0000*52
[2021-01-29 11:05:20.569] $GPGGA,020507.50,,,,,0,00,0.0,,M,,M,0,0000*53
[2021-01-29 11:05:20.569] $GPGGA,020507.60,,,,,0,00,0.0,,M,,M,0,0000*50
[2021-01-29 11:05:20.569] $GPGGA,020507.70,,,,,0,00,0.0,,M,,M,0,0000*51
[2021-01-29 11:05:20.569] $GPGGA,020507.80,,,,,0,00,0.0,,M,,M,0,0000*5E
[2021-01-29 11:05:20.569] $GPGGA,020507.90,,,,,0,00,0.0,,M,,M,0,0000*5F
[2021-01-29 11:05:20.569] $GPGGA,020508.00,,,,,0,00,0.0,,M,,M,0,0000*59
[2021-01-29 11:05:20.569] $GPGGA,020508.10,,,,,0,00,0.0,,M,,M,0,0000*58
[2021-01-29 11:05:20.569] $GPGGA,020508.20,,,,,0,00,0.0,,M,,M,0,0000*5B
[2021-01-29 11:05:20.569] $GPGGA,020508.30,,,,,0,00,0.0,,M,,M,0,0000*5A
[2021-01-29 11:05:20.585] $GPGGA,020508.40,,,,,0,00,0.0,,M,,M,0,0000*5D
[2021-01-29 11:05:20.585] $GPGGA,020508.50,,,,,0,00,0.0,,M,,M,0,0000*5C
[2021-01-29 11:05:20.585] $GPGGA,020508.60,,,,,0,00,0.0,,M,,M,0,0000*5F
[2021-01-29 11:05:20.585] $GPGGA,020508.70,,,,,0,00,0.0,,M,,M,0,0000*5E
[2021-01-29 11:05:20.585] $GPGGA,020508.80,,,,,0,00,0.0,,M,,M,0,0000*51
[2021-01-29 11:05:20.585] $GPGGA,020508.90,,,,,0,00,0.0,,M,,M,0,0000*50
[2021-01-29 11:05:20.585] $GPGGA,020509.00,,,,,0,00,0.0,,M,,M,0,0000*58
[2021-01-29 11:05:20.585] $GPGGA,020509.10,,,,,0,00,0.0,,M,,M,0,0000*59
[2021-01-29 11:05:20.585] $GPGGA,020509.20,,,,,0,00,0.0,,M,,M,0,0000*5A
[2021-01-29 11:05:20.585] $GPGGA,020509.30,,,,,0,00,0.0,,M,,M,0,0000*5B
[2021-01-29 11:05:20.585] $GPGGA,020509.40,,,,,0,00,0.0,,M,,M,0,0000*5C
[2021-01-29 11:05:20.585] $GPGGA,020509.50,,,,,0,00,0.0,,M,,M,0,0000*5D
[2021-01-29 11:05:20.585] $GPGGA,020509.60,,,,,0,00,0.0,,M,,M,0,0000*5E
[2021-01-29 11:05:20.585] $GPGGA,020509.70,,,,,0,00,0.0,,M,,M,0,0000*5F
[2021-01-29 11:05:20.585] $GPGGA,020509.80,,,,,0,00,0.0,,M,,M,0,0000*50
[2021-01-29 11:05:20.585] $GPGGA,020509.90,,,,,0,00,0.0,,M,,M,0,0000*51
[2021-01-29 11:05:20.585] $GPGGA,020510.00,,,,,0,00,0.0,,M,,M,0,0000*50
[2021-01-29 11:05:20.585] $GPGGA,020510.10,,,,,0,00,0.0,,M,,M,0,0000*51
[2021-01-29 11:05:20.585] $GPGGA,020510.20,,,,,0,00,0.0,,M,,M,0,0000*52
[2021-01-29 11:05:20.585] $GPGGA,020510.30,,,,,0,00,0.0,,M,,M,0,0000*53
[2021-01-29 11:05:20.585] $GPGGA,020510.40,,,,,0,00,0.0,,M,,M,0,0000*54
[2021-01-29 11:05:20.585] $GPGGA,020510.50,,,,,0,00,0.0,,M,,M,0,0000*55
[2021-01-29 11:05:20.600] $GPGGA,020510.60,,,,,0,00,0.0,,M,,M,0,0000*56
[2021-01-29 11:05:20.600] $GPGGA,020510.70,,,,,0,00,0.0,,M,,M,0,0000*57
[2021-01-29 11:05:20.600] $GPGGA,020510.80,,,,,0,00,0.0,,M,,M,0,0000*58
[2021-01-29 11:05:20.600] $GPGGA,020510.90,,,,,0,00,0.0,,M,,M,0,0000*59
[2021-01-29 11:05:20.600] $GPGGA,020511.00,,,,,0,00,0.0,,M,,M,0,0000*51
[2021-01-29 11:05:20.600] $GPGGA,020511.10,,,,,0,00,0.0,,M,,M,0,0000*50
[2021-01-29 11:05:20.600] $GPGGA,020511.20,,,,,0,00,0.0,,M,,M,0,0000*53
[2021-01-29 11:05:20.600] $GPGGA,020511.30,,,,,0,00,0.0,,M,,M,0,0000*52
[2021-01-29 11:05:20.600] $GPGGA,020511.40,,,,,0,00,0.0,,M,,M,0,0000*55
[2021-01-29 11:05:20.600] $GPGGA,020511.50,,,,,0,00,0.0,,M,,M,0,0000*54
[2021-01-29 11:05:20.600] $GPGGA,020511.60,,,,,0,00,0.0,,M,,M,0,0000*57
[2021-01-29 11:05:20.600] $GPGGA,020511.70,,,,,0,00,0.0,,M,,M,0,0000*56
[2021-01-29 11:05:20.600] $GPGGA,020511.80,,,,,0,00,0.0,,M,,M,0,0000*59
[2021-01-29 11:05:20.600] $GPGGA,020511.90,,,,,0,00,0.0,,M,,M,0,0000*58
[2021-01-29 11:05:20.600] $GPGGA,020512.00,,,,,0,00,0.0,,M,,M,0,0000*52
[2021-01-29 11:05:20.600] $GPGGA,020512.10,,,,,0,00,0.0,,M,,M,0,0000*53
[2021-01-29 11:05:20.600] $GPGGA,020512.20,,,,,0,00,0.0,,M,,M,0,0000*50
[2021-01-29 11:05:20.600] $GPGGA,020512.30,,,,,0,00,0.0,,M,,M,0,0000*51
[2021-01-29 11:05:20.600] $GPGGA,020512.40,,,,,0,00,0.0,,M,,M,0,0000*56
[2021-01-29 11:05:20.600] $GPGGA,020512.50,,,,,0,00,0.0,,M,,M,0,0000*57
[2021-01-29 11:05:20.600] $GPGGA,020512.60,,,,,0,00,0.0,,M,,M,0,0000*54
[2021-01-29 11:05:20.616] $GPGGA,020512.70,,,,,0,00,0.0,,M,,M,0,0000*55
[2021-01-29 11:05:20.616] $GPGGA,020512.80,,,,,0,00,0.0,,M,,M,0,0000*5A
[2021-01-29 11:05:20.616] $GPGGA,020512.90,,,,,0,00,0.0,,M,,M,0,0000*5B
[2021-01-29 11:05:20.616] $GPGGA,020513.00,,,,,0,00,0.0,,M,,M,0,0000*53
[2021-01-29 11:05:20.616] $GPGGA,020513.10,,,,,0,00,0.0,,M,,M,0,0000*52
[2021-01-29 11:05:20.616] $GPGGA,020513.20,,,,,0,00,0.0,,M,,M,0,0000*51
[2021-01-29 11:05:20.616] $GPGGA,020513.30,,,,,0,00,0.0,,M,,M,0,0000*50
[2021-01-29 11:05:20.616] $GPGGA,020513.40,,,,,0,00,0.0,,M,,M,0,0000*57
[2021-01-29 11:05:20.616] $GPGGA,020513.50,,,,,0,00,0.0,,M,,M,0,0000*56
[2021-01-29 11:05:20.616] $GPGGA,020513.60,,,,,0,00,0.0,,M,,M,0,0000*55
[2021-01-29 11:05:20.616] $GPGGA,020513.70,,,,,0,00,0.0,,M,,M,0,0000*54
[2021-01-29 11:05:20.616] $GPGGA,020513.80,,,,,0,00,0.0,,M,,M,0,0000*5B
[2021-01-29 11:05:20.616] $GPGGA,020513.90,,,,,0,00,0.0,,M,,M,0,0000*5A
[2021-01-29 11:05:20.616] $GPGGA,020514.00,,,,,0,00,0.0,,M,,M,0,0000*54
[2021-01-29 11:05:20.616] $GPGGA,020514.10,,,,,0,00,0.0,,M,,M,0,0000*55
[2021-01-29 11:05:20.616] $GPGGA,020514.20,,,,,0,00,0.0,,M,,M,0,0000*56
[2021-01-29 11:05:20.616] $GPGGA,020514.30,,,,,0,00,0.0,,M,,M,0,0000*57
[2021-01-29 11:05:20.616] $GPGGA,020514.40,,,,,0,00,0.0,,M,,M,0,0000*50
[2021-01-29 11:05:20.616] $GPGGA,020514.50,,,,,0,00,0.0,,M,,M,0,0000*51
[2021-01-29 11:05:20.616] $GPGGA,020514.60,,,,,0,00,0.0,,M,,M,0,0000*52
[2021-01-29 11:05:20.616] $GPGGA,020514.70,,,,,0,00,0.0,,M,,M,0,0000*53
[2021-01-29 11:05:20.616] $GPGGA,020514.80,,,,,0,00,0.0,,M,,M,0,0000*5C
[2021-01-29 11:05:20.632] $GPGGA,020514.90,,,,,0,00,0.0,,M,,M,0,0000*5D
[2021-01-29 11:05:20.632] $GPGGA,020515.00,,,,,0,00,0.0,,M,,M,0,0000*55
[2021-01-29 11:05:20.632] $GPGGA,020515.10,,,,,0,00,0.0,,M,,M,0,0000*54
[2021-01-29 11:05:20.632] $GPGGA,020515.20,,,,,0,00,0.0,,M,,M,0,0000*57
[2021-01-29 11:05:20.632] $GPGGA,020515.30,,,,,0,00,0.0,,M,,M,0,0000*56
[2021-01-29 11:05:20.632] $GPGGA,020515.40,,,,,0,00,0.0,,M,,M,0,0000*51
[2021-01-29 11:05:20.632] $GPGGA,020515.50,,,,,0,00,0.0,,M,,M,0,0000*50
[2021-01-29 11:05:20.632] $GPGGA,020515.60,,,,,0,00,0.0,,M,,M,0,0000*53
[2021-01-29 11:05:20.632] $GPGGA,020515.70,,,,,0,00,0.0,,M,,M,0,0000*52
[2021-01-29 11:05:20.632] $GPGGA,020515.80,,,,,0,00,0.0,,M,,M,0,0000*5D
[2021-01-29 11:05:20.632] $GPGGA,020515.90,,,,,0,00,0.0,,M,,M,0,0000*5C
[2021-01-29 11:05:20.632] $GPGGA,020516.00,,,,,0,00,0.0,,M,,M,0,0000*56
[2021-01-29 11:05:20.632] $GPGGA,020516.10,,,,,0,00,0.0,,M,,M,0,0000*57
[2021-01-29 11:05:20.632] $GPGGA,020516.20,,,,,0,00,0.0,,M,,M,0,0000*54
[2021-01-29 11:05:20.632] $GPGGA,020516.30,,,,,0,00,0.0,,M,,M,0,0000*55
[2021-01-29 11:05:20.632] $GPGGA,020516.40,,,,,0,00,0.0,,M,,M,0,0000*52
[2021-01-29 11:05:20.632] $GPGGA,020516.50,,,,,0,00,0.0,,M,,M,0,0000*53
[2021-01-29 11:05:20.632] $GPGGA,020516.60,,,,,0,00,0.0,,M,,M,0,0000*50
[2021-01-29 11:05:20.632] $GPGGA,020516.70,,,,,0,00,0.0,,M,,M,0,0000*51
[2021-01-29 11:05:20.632] $GPGGA,020516.80,,,,,0,00,0.0,,M,,M,0,0000*5E
[2021-01-29 11:05:20.632] $GPGGA,020516.90,,,,,0,00,0.0,,M,,M,0,0000*5F
[2021-01-29 11:05:20.663] $GPGGA,020517.00,,,,,0,00,0.0,,M,,M,0,0000*57
[2021-01-29 11:05:20.663] $GPGGA,020517.10,,,,,0,00,0.0,,M,,M,0,0000*56
[2021-01-29 11:05:20.663] $GPGGA,020517.20,,,,,0,00,0.0,,M,,M,0,0000*55
[2021-01-29 11:05:20.663] $GPGGA,020517.30,,,,,0,00,0.0,,M,,M,0,0000*54
[2021-01-29 11:05:20.663] $GPGGA,020517.40,,,,,0,00,0.0,,M,,M,0,0000*53
[2021-01-29 11:05:20.663] $GPGGA,020517.50,,,,,0,00,0.0,,M,,M,0,0000*52
[2021-01-29 11:05:20.663] $GPGGA,020517.60,,,,,0,00,0.0,,M,,M,0,0000*51
[2021-01-29 11:05:20.663] $GPGGA,020517.70,,,,,0,00,0.0,,M,,M,0,0000*50
[2021-01-29 11:05:20.663] $GPGGA,020517.80,,,,,0,00,0.0,,M,,M,0,0000*5F
[2021-01-29 11:05:20.663] $GPGGA,020517.90,,,,,0,00,0.0,,M,,M,0,0000*5E
[2021-01-29 11:05:20.663] $GPGGA,020518.00,,,,,0,00,0.0,,M,,M,0,0000*58
[2021-01-29 11:05:20.663] $GPGGA,020518.10,,,,,0,00,0.0,,M,,M,0,0000*59
[2021-01-29 11:05:20.663] $GPGGA,020518.20,,,,,0,00,0.0,,M,,M,0,0000*5A
[2021-01-29 11:05:20.663] $GPGGA,020518.30,,,,,0,00,0.0,,M,,M,0,0000*5B
[2021-01-29 11:05:20.663] $GPGGA,020518.40,,,,,0,00,0.0,,M,,M,0,0000*5C
[2021-01-29 11:05:20.663] $GPGGA,020518.50,,,,,0,00,0.0,,M,,M,0,0000*5D
[2021-01-29 11:05:20.663] $GPGGA,020518.60,,,,,0,00,0.0,,M,,M,0,0000*5E
[2021-01-29 11:05:20.663] $GPGGA,020518.70,,,,,0,00,0.0,,M,,M,0,0000*5F
[2021-01-29 11:05:20.663] $GPGGA,020518.80,,,,,0,00,0.0,,M,,M,0,0000*50
[2021-01-29 11:05:20.663] $GPGGA,020518.90,,,,,0,00,0.0,,M,,M,0,0000*51
[2021-01-29 11:05:20.663] $GPGGA,020519.00,,,,,0,00,0.0,,M,,M,0,0000*59
[2021-01-29 11:05:20.663] $GPGGA,020519.10,,,,,0,00,0.0,,M,,M,0,0000*58
[2021-01-29 11:05:20.663] $GPGGA,020519.20,,,,,0,00,0.0,,M,,M,0,0000*5B
[2021-01-29 11:05:20.663] $GPGGA,020519.30,,,,,0,00,0.0,,M,,M,0,0000*5A
[2021-01-29 11:05:20.757] $GPGGA,020519.40,,,,,0,00,0.0,,M,,M,0,0000*5D
[2021-01-29 11:05:20.866] $GPGGA,020519.50,,,,,0,00,0.0,,M,,M,0,0000*5C
[2021-01-29 11:05:20.960] $GPGGA,020519.60,,,,,0,00,0.0,,M,,M,0,0000*5F
[2021-01-29 11:05:21.069] $GPGGA,020519.70,,,,,0,00,0.0,,M,,M,0,0000*5E
[2021-01-29 11:05:21.163] $GPGGA,020519.80,,,,,0,00,0.0,,M,,M,0,0000*51
[2021-01-29 11:05:21.264] $GPGGA,020519.90,,,,,0,00,0.0,,M,,M,0,0000*50
[2021-01-29 11:05:21.353] $GPGGA,020520.00,,,,,0,00,0.0,,M,,M,0,0000*53
[2021-01-29 11:05:21.462] $GPGGA,020520.10,,,,,0,00,0.0,,M,,M,0,0000*52
[2021-01-29 11:05:21.556] $GPGGA,020520.20,,,,,0,00,0.0,,M,,M,0,0000*51
[2021-01-29 11:05:21.665] $GPGGA,020520.30,,,,,0,00,0.0,,M,,M,0,0000*50
[2021-01-29 11:05:21.759] $GPGGA,020520.40,,,,,0,00,0.0,,M,,M,0,0000*57
[2021-01-29 11:05:21.853] $GPGGA,020520.50,,,,,0,00,0.0,,M,,M,0,0000*56
[2021-01-29 11:05:21.962] $GPGGA,020520.60,,,,,0,00,0.0,,M,,M,0,0000*55
[2021-01-29 11:05:22.056] $GPGGA,020520.70,,,,,0,00,0.0,,M,,M,0,0000*54
[2021-01-29 11:05:22.165] $GPGGA,020520.80,,,,,0,00,0.0,,M,,M,0,0000*5B
[2021-01-29 11:05:22.268] $GPGGA,020520.90,,,,,0,00,0.0,,M,,M,0,0000*5A
[2021-01-29 11:05:22.368] $GPGGA,020521.00,,,,,0,00,0.0,,M,,M,0,0000*52
[2021-01-29 11:05:22.462] $GPGGA,020521.10,,,,,0,00,0.0,,M,,M,0,0000*53
[2021-01-29 11:05:22.556] $GPGGA,020521.20,,,,,0,00,0.0,,M,,M,0,0000*50
[2021-01-29 11:05:22.665] $GPGGA,020521.30,,,,,0,00,0.0,,M,,M,0,0000*51
[2021-01-29 11:05:22.759] $GPGGA,020521.40,,,,,0,00,0.0,,M,,M,0,0000*56
[2021-01-29 11:05:22.853] $GPGGA,020521.50,,,,,0,00,0.0,,M,,M,0,0000*57
[2021-01-29 11:05:22.962] $GPGGA,020521.60,,,,,0,00,0.0,,M,,M,0,0000*54
[2021-01-29 11:05:23.056] $GPGGA,020521.70,,,,,0,00,0.0,,M,,M,0,0000*55
[2021-01-29 11:05:23.165] $GPGGA,020521.80,,,,,0,00,0.0,,M,,M,0,0000*5A
[2021-01-29 11:05:23.259] $GPGGA,020521.90,,,,,0,00,0.0,,M,,M,0,0000*5B
[2021-01-29 11:05:23.370] $GPGGA,020522.00,,,,,0,00,0.0,,M,,M,0,0000*51
[2021-01-29 11:05:23.464] $GPGGA,020522.10,,,,,0,00,0.0,,M,,M,0,0000*50
[2021-01-29 11:05:23.558] $GPGGA,020522.20,,,,,0,00,0.0,,M,,M,0,0000*53
[2021-01-29 11:05:23.667] $GPGGA,020522.30,,,,,0,00,0.0,,M,,M,0,0000*52
[2021-01-29 11:05:23.761] $GPGGA,020522.40,,,,,0,00,0.0,,M,,M,0,0000*55
[2021-01-29 11:05:23.870] $GPGGA,020522.50,,,,,0,00,0.0,,M,,M,0,0000*54
[2021-01-29 11:05:23.964] $GPGGA,020522.60,,,,,0,00,0.0,,M,,M,0,0000*57
[2021-01-29 11:05:24.058] $GPGGA,020522.70,,,,,0,00,0.0,,M,,M,0,0000*56
[2021-01-29 11:05:24.151] $GPGGA,020522.80,,,,,0,00,0.0,,M,,M,0,0000*59
[2021-01-29 11:05:24.269] $GPGGA,020522.90,,,,,0,00,0.0,,M,,M,0,0000*58
[2021-01-29 11:05:24.357] $GPGGA,020523.00,,,,,0,00,0.0,,M,,M,0,0000*50
[2021-01-29 11:05:24.466] $GPGGA,020523.10,,,,,0,00,0.0,,M,,M,0,0000*51
[2021-01-29 11:05:24.560] $GPGGA,020523.20,,,,,0,00,0.0,,M,,M,0,0000*52
[2021-01-29 11:05:24.669] $GPGGA,020523.30,,,,,0,00,0.0,,M,,M,0,0000*53
[2021-01-29 11:05:24.763] $GPGGA,020523.40,,,,,0,00,0.0,,M,,M,0,0000*54
[2021-01-29 11:05:24.857] $GPGGA,020523.50,,,,,0,00,0.0,,M,,M,0,0000*55
[2021-01-29 11:05:24.951] $GPGGA,020523.60,,,,,0,00,0.0,,M,,M,0,0000*56
[2021-01-29 11:05:25.060] $GPGGA,020523.70,,,,,0,00,0.0,,M,,M,0,0000*57
[2021-01-29 11:05:25.154] $GPGGA,020523.80,,,,,0,00,0.0,,M,,M,0,0000*58
[2021-01-29 11:05:25.263] $GPGGA,020523.90,,,,,0,00,0.0,,M,,M,0,0000*59
[2021-01-29 11:05:25.356] $GPGGA,020524.00,,,,,0,00,0.0,,M,,M,0,0000*57
[2021-01-29 11:05:25.466] $GPGGA,020524.10,,,,,0,00,0.0,,M,,M,0,0000*56
[2021-01-29 11:05:25.559] $GPGGA,020524.20,,,,,0,00,0.0,,M,,M,0,0000*55
[2021-01-29 11:05:25.653] $GPGGA,020524.30,,,,,0,00,0.0,,M,,M,0,0000*54
[2021-01-29 11:05:25.762] $GPGGA,020524.40,,,,,0,00,0.0,,M,,M,0,0000*53
[2021-01-29 11:05:25.856] $GPGGA,020524.50,,,,,0,00,0.0,,M,,M,0,0000*52
[2021-01-29 11:05:25.966] $GPGGA,020524.60,,,,,0,00,0.0,,M,,M,0,0000*51
[2021-01-29 11:05:26.059] $GPGGA,020524.70,,,,,0,00,0.0,,M,,M,0,0000*50
[2021-01-29 11:05:26.169] $GPGGA,020524.80,,,,,0,00,0.0,,M,,M,0,0000*5F
[2021-01-29 11:05:26.265] $GPGGA,020524.90,,,,,0,00,0.0,,M,,M,0,0000*5E
[2021-01-29 11:05:26.359] $GPGGA,020525.00,,,,,0,00,0.0,,M,,M,0,0000*56
[2021-01-29 11:05:26.452] $GPGGA,020525.10,,,,,0,00,0.0,,M,,M,0,0000*57
[2021-01-29 11:05:26.562] $GPGGA,020525.20,,,,,0,00,0.0,,M,,M,0,0000*54
[2021-01-29 11:05:26.655] $GPGGA,020525.30,,,,,0,00,0.0,,M,,M,0,0000*55
[2021-01-29 11:05:26.765] $GPGGA,020525.40,,,,,0,00,0.0,,M,,M,0,0000*52
[2021-01-29 11:05:26.859] $GPGGA,020525.50,,,,,0,00,0.0,,M,,M,0,0000*53
[2021-01-29 11:05:26.952] $GPGGA,020525.60,,,,,0,00,0.0,,M,,M,0,0000*50
[2021-01-29 11:05:27.062] $GPGGA,020525.70,,,,,0,00,0.0,,M,,M,0,0000*51
[2021-01-29 11:05:27.155] $GPGGA,020525.80,,,,,0,00,0.0,,M,,M,0,0000*5E
[2021-01-29 11:05:27.266] $GPGGA,020525.90,,,,,0,00,0.0,,M,,M,0,0000*5F
[2021-01-29 11:05:27.360] $GPGGA,020526.00,,,,,0,00,0.0,,M,,M,0,0000*55
[2021-01-29 11:05:27.469] $GPGGA,020526.10,,,,,0,00,0.0,,M,,M,0,0000*54
[2021-01-29 11:05:27.563] $GPGGA,020526.20,,,,,0,00,0.0,,M,,M,0,0000*57
[2021-01-29 11:05:27.656] $GPGGA,020526.30,,,,,0,00,0.0,,M,,M,0,0000*56
[2021-01-29 11:05:27.766] $GPGGA,020526.40,,,,,0,00,0.0,,M,,M,0,0000*51
[2021-01-29 11:05:27.860] $GPGGA,020526.50,,,,,0,00,0.0,,M,,M,0,0000*50
[2021-01-29 11:05:27.953] $GPGGA,020526.60,,,,,0,00,0.0,,M,,M,0,0000*53
[2021-01-29 11:05:28.063] $GPGGA,020526.70,,,,,0,00,0.0,,M,,M,0,0000*52
[2021-01-29 11:05:28.156] $GPGGA,020526.80,,,,,0,00,0.0,,M,,M,0,0000*5D
[2021-01-29 11:05:28.268] $GPGGA,020526.90,,,,,0,00,0.0,,M,,M,0,0000*5C
[2021-01-29 11:05:28.362] $GPGGA,020527.00,,,,,0,00,0.0,,M,,M,0,0000*54
[2021-01-29 11:05:28.471] $GPGGA,020527.10,,,,,0,00,0.0,,M,,M,0,0000*55
[2021-01-29 11:05:28.565] $GPGGA,020527.20,,,,,0,00,0.0,,M,,M,0,0000*56
[2021-01-29 11:05:28.659] $GPGGA,020527.30,,,,,0,00,0.0,,M,,M,0,0000*57
[2021-01-29 11:05:28.752] $GPGGA,020527.40,,,,,0,00,0.0,,M,,M,0,0000*50
[2021-01-29 11:05:28.862] $GPGGA,020527.50,,,,,0,00,0.0,,M,,M,0,0000*51
[2021-01-29 11:05:28.971] $GPGGA,020527.60,,,,,0,00,0.0,,M,,M,0,0000*52
[2021-01-29 11:05:29.065] $GPGGA,020527.70,,,,,0,00,0.0,,M,,M,0,0000*53
[2021-01-29 11:05:29.174] $GPGGA,020527.80,,,,,0,00,0.0,,M,,M,0,0000*5C
[2021-01-29 11:05:29.262] $GPGGA,020527.90,,,,,0,00,0.0,,M,,M,0,0000*5D
[2021-01-29 11:05:29.364] $GPGGA,020528.00,,,,,0,00,0.0,,M,,M,0,0000*5B
[2021-01-29 11:05:29.457] $GPGGA,020528.10,,,,,0,00,0.0,,M,,M,0,0000*5A
[2021-01-29 11:05:29.567] $GPGGA,020528.20,,,,,0,00,0.0,,M,,M,0,0000*59
[2021-01-29 11:05:29.660] $GPGGA,020528.30,,,,,0,00,0.0,,M,,M,0,0000*58
[2021-01-29 11:05:29.770] $GPGGA,020528.40,,,,,0,00,0.0,,M,,M,0,0000*5F
[2021-01-29 11:05:29.863] $GPGGA,020528.50,,,,,0,00,0.0,,M,,M,0,0000*5E
[2021-01-29 11:05:29.957] $GPGGA,020528.60,,,,,0,00,0.0,,M,,M,0,0000*5D
[2021-01-29 11:05:30.051] $GPGGA,020528.70,,,,,0,00,0.0,,M,,M,0,0000*5C
[2021-01-29 11:05:30.160] $GPGGA,020528.80,,,,,0,00,0.0,,M,,M,0,0000*53
[2021-01-29 11:05:30.264] $GPGGA,020528.90,,,,,0,00,0.0,,M,,M,0,0000*52
[2021-01-29 11:05:30.365] $GPGGA,020529.00,,,,,0,00,0.0,,M,,M,0,0000*5A
[2021-01-29 11:05:30.459] $GPGGA,020529.10,,,,,0,00,0.0,,M,,M,0,0000*5B
[2021-01-29 11:05:30.569] $GPGGA,020529.20,,,,,0,00,0.0,,M,,M,0,0000*58
[2021-01-29 11:05:30.662] $GPGGA,020529.30,,,,,0,00,0.0,,M,,M,0,0000*59
[2021-01-29 11:05:30.756] $GPGGA,020529.40,,,,,0,00,0.0,,M,,M,0,0000*5E
[2021-01-29 11:05:30.865] $GPGGA,020529.50,,,,,0,00,0.0,,M,,M,0,0000*5F
[2021-01-29 11:05:30.959] $GPGGA,020529.60,,,,,0,00,0.0,,M,,M,0,0000*5C
[2021-01-29 11:05:31.069] $GPGGA,020529.70,,,,,0,00,0.0,,M,,M,0,0000*5D
[2021-01-29 11:05:31.162] $GPGGA,020529.80,,,,,0,00,0.0,,M,,M,0,0000*52
[2021-01-29 11:05:31.263] $GPGGA,020529.90,,,,,0,00,0.0,,M,,M,0,0000*53
[2021-01-29 11:05:31.366] $GPGGA,020530.00,,,,,0,00,0.0,,M,,M,0,0000*52
[2021-01-29 11:05:31.460] $GPGGA,020530.10,,,,,0,00,0.0,,M,,M,0,0000*53
[2021-01-29 11:05:31.554] $GPGGA,020530.20,,,,,0,00,0.0,,M,,M,0,0000*50
[2021-01-29 11:05:31.663] $GPGGA,020530.30,,,,,0,00,0.0,,M,,M,0,0000*51
[2021-01-29 11:05:31.757] $GPGGA,020530.40,,,,,0,00,0.0,,M,,M,0,0000*56
[2021-01-29 11:05:31.866] $GPGGA,020530.50,,,,,0,00,0.0,,M,,M,0,0000*57
[2021-01-29 11:05:31.960] $GPGGA,020530.60,,,,,0,00,0.0,,M,,M,0,0000*54
[2021-01-29 11:05:32.069] $GPGGA,020530.70,,,,,0,00,0.0,,M,,M,0,0000*55
[2021-01-29 11:05:32.163] $GPGGA,020530.80,,,,,0,00,0.0,,M,,M,0,0000*5A
[2021-01-29 11:05:32.267] $GPGGA,020530.90,,,,,0,00,0.0,,M,,M,0,0000*5B
[2021-01-29 11:05:32.353] $GPGGA,020531.00,,,,,0,00,0.0,,M,,M,0,0000*53
[2021-01-29 11:05:32.463] $GPGGA,020531.10,,,,,0,00,0.0,,M,,M,0,0000*52
[2021-01-29 11:05:32.556] $GPGGA,020531.20,,,,,0,00,0.0,,M,,M,0,0000*51
[2021-01-29 11:05:32.666] $GPGGA,020531.30,,,,,0,00,0.0,,M,,M,0,0000*50
[2021-01-29 11:05:32.759] $GPGGA,020531.40,,,,,0,00,0.0,,M,,M,0,0000*57
[2021-01-29 11:05:32.853] $GPGGA,020531.50,,,,,0,00,0.0,,M,,M,0,0000*56
[2021-01-29 11:05:32.963] $GPGGA,020531.60,,,,,0,00,0.0,,M,,M,0,0000*55
[2021-01-29 11:05:33.056] $GPGGA,020531.70,,,,,0,00,0.0,,M,,M,0,0000*54
[2021-01-29 11:05:33.166] $GPGGA,020531.80,,,,,0,00,0.0,,M,,M,0,0000*5B
[2021-01-29 11:05:33.267] $GPGGA,020531.90,,,,,0,00,0.0,,M,,M,0,0000*5A
[2021-01-29 11:05:33.370] $GPGGA,020532.00,,,,,0,00,0.0,,M,,M,0,0000*50
[2021-01-29 11:05:33.463] $GPGGA,020532.10,,,,,0,00,0.0,,M,,M,0,0000*51
[2021-01-29 11:05:33.557] $GPGGA,020532.20,,,,,0,00,0.0,,M,,M,0,0000*52
[2021-01-29 11:05:33.651] $GPGGA,020532.30,,,,,0,00,0.0,,M,,M,0,0000*53
[2021-01-29 11:05:33.760] $GPGGA,020532.40,,,,,0,00,0.0,,M,,M,0,0000*54
[2021-01-29 11:05:33.854] $GPGGA,020532.50,,,,,0,00,0.0,,M,,M,0,0000*55
[2021-01-29 11:05:33.963] $GPGGA,020532.60,,,,,0,00,0.0,,M,,M,0,0000*56
[2021-01-29 11:05:34.057] $GPGGA,020532.70,,,,,0,00,0.0,,M,,M,0,0000*57
[2021-01-29 11:05:34.167] $GPGGA,020532.80,,,,,0,00,0.0,,M,,M,0,0000*58
[2021-01-29 11:05:34.261] $GPGGA,020532.90,,,,,0,00,0.0,,M,,M,0,0000*59
[2021-01-29 11:05:34.355] $GPGGA,020533.00,,,,,0,00,0.0,,M,,M,0,0000*51
[2021-01-29 11:05:34.464] $GPGGA,020533.10,,,,,0,00,0.0,,M,,M,0,0000*50
[2021-01-29 11:05:34.558] $GPGGA,020533.20,,,,,0,00,0.0,,M,,M,0,0000*53
[2021-01-29 11:05:34.668] $GPGGA,020533.30,,,,,0,00,0.0,,M,,M,0,0000*52
[2021-01-29 11:05:34.761] $GPGGA,020533.40,,,,,0,00,0.0,,M,,M,0,0000*55
[2021-01-29 11:05:34.871] $GPGGA,020533.50,,,,,0,00,0.0,,M,,M,0,0000*54
[2021-01-29 11:05:34.964] $GPGGA,020533.60,,,,,0,00,0.0,,M,,M,0,0000*57
[2021-01-29 11:05:35.058] $GPGGA,020533.70,,,,,0,00,0.0,,M,,M,0,0000*56
[2021-01-29 11:05:35.152] $GPGGA,020533.80,,,,,0,00,0.0,,M,,M,0,0000*59
[2021-01-29 11:05:35.270] $GPGGA,020533.90,,,,,0,00,0.0,,M,,M,0,0000*58
[2021-01-29 11:05:35.357] $GPGGA,020534.00,,,,,0,00,0.0,,M,,M,0,0000*56
[2021-01-29 11:05:35.466] $GPGGA,020534.10,,,,,0,00,0.0,,M,,M,0,0000*57
[2021-01-29 11:05:35.560] $GPGGA,020534.20,,,,,0,00,0.0,,M,,M,0,0000*54
[2021-01-29 11:05:35.669] $GPGGA,020534.30,,,,,0,00,0.0,,M,,M,0,0000*55
[2021-01-29 11:05:35.763] $GPGGA,020534.40,,,,,0,00,0.0,,M,,M,0,0000*52
[2021-01-29 11:05:35.857] $GPGGA,020534.50,,,,,0,00,0.0,,M,,M,0,0000*53
[2021-01-29 11:05:35.951] $GPGGA,020534.60,,,,,0,00,0.0,,M,,M,0,0000*50
[2021-01-29 11:05:36.060] $GPGGA,020534.70,,,,,0,00,0.0,,M,,M,0,0000*51
[2021-01-29 11:05:36.169] $GPGGA,020534.80,,,,,0,00,0.0,,M,,M,0,0000*5E
[2021-01-29 11:05:36.264] $GPGGA,020534.90,,,,,0,00,0.0,,M,,M,0,0000*5F
[2021-01-29 11:05:36.373] $GPGGA,020535.00,,,,,0,00,0.0,,M,,M,0,0000*57
[2021-01-29 11:05:36.467] $GPGGA,020535.10,,,,,0,00,0.0,,M,,M,0,0000*56
[2021-01-29 11:05:36.561] $GPGGA,020535.20,,,,,0,00,0.0,,M,,M,0,0000*55
[2021-01-29 11:05:36.654] $GPGGA,020535.30,,,,,0,00,0.0,,M,,M,0,0000*54
[2021-01-29 11:05:36.764] $GPGGA,020535.40,,,,,0,00,0.0,,M,,M,0,0000*53
[2021-01-29 11:05:36.857] $GPGGA,020535.50,,,,,0,00,0.0,,M,,M,0,0000*52
[2021-01-29 11:05:36.967] $GPGGA,020535.60,,,,,0,00,0.0,,M,,M,0,0000*51
[2021-01-29 11:05:37.061] $GPGGA,020535.70,,,,,0,00,0.0,,M,,M,0,0000*50
[2021-01-29 11:05:37.170] $GPGGA,020535.80,,,,,0,00,0.0,,M,,M,0,0000*5F
[2021-01-29 11:05:37.265] $GPGGA,020535.90,,,,,0,00,0.0,,M,,M,0,0000*5E
[2021-01-29 11:05:37.359] $GPGGA,020536.00,,,,,0,00,0.0,,M,,M,0,0000*54
[2021-01-29 11:05:37.453] $GPGGA,020536.10,,,,,0,00,0.0,,M,,M,0,0000*55
[2021-01-29 11:05:37.562] $GPGGA,020536.20,,,,,0,00,0.0,,M,,M,0,0000*56
[2021-01-29 11:05:37.656] $GPGGA,020536.30,,,,,0,00,0.0,,M,,M,0,0000*57
[2021-01-29 11:05:37.765] $GPGGA,020536.40,,,,,0,00,0.0,,M,,M,0,0000*50
[2021-01-29 11:05:37.859] $GPGGA,020536.50,,,,,0,00,0.0,,M,,M,0,0000*51
[2021-01-29 11:05:37.968] $GPGGA,020536.60,,,,,0,00,0.0,,M,,M,0,0000*52
[2021-01-29 11:05:38.062] $GPGGA,020536.70,,,,,0,00,0.0,,M,,M,0,0000*53
[2021-01-29 11:05:38.156] $GPGGA,020536.80,,,,,0,00,0.0,,M,,M,0,0000*5C
[2021-01-29 11:05:38.267] $GPGGA,020536.90,,,,,0,00,0.0,,M,,M,0,0000*5D
[2021-01-29 11:05:38.361] $GPGGA,020537.00,,,,,0,00,0.0,,M,,M,0,0000*55
[2021-01-29 11:05:38.470] $GPGGA,020537.10,,,,,0,00,0.0,,M,,M,0,0000*54
[2021-01-29 11:05:38.564] $GPGGA,020537.20,,,,,0,00,0.0,,M,,M,0,0000*57
[2021-01-29 11:05:38.657] $GPGGA,020537.30,,,,,0,00,0.0,,M,,M,0,0000*56
[2021-01-29 11:05:38.751] $GPGGA,020537.40,,,,,0,00,0.0,,M,,M,0,0000*51
[2021-01-29 11:05:38.861] $GPGGA,020537.50,,,,,0,00,0.0,,M,,M,0,0000*50
[2021-01-29 11:05:38.954] $GPGGA,020537.60,,,,,0,00,0.0,,M,,M,0,0000*53
[2021-01-29 11:05:39.064] $GPGGA,020537.70,,,,,0,00,0.0,,M,,M,0,0000*52
[2021-01-29 11:05:39.157] $GPGGA,020537.80,,,,,0,00,0.0,,M,,M,0,0000*5D
[2021-01-29 11:05:39.269] $GPGGA,020537.90,,,,,0,00,0.0,,M,,M,0,0000*5C
[2021-01-29 11:05:39.363] $GPGGA,020538.00,,,,,0,00,0.0,,M,,M,0,0000*5A
[2021-01-29 11:05:39.456] $GPGGA,020538.10,,,,,0,00,0.0,,M,,M,0,0000*5B
[2021-01-29 11:05:39.550] $GPGGA,020538.20,,,,,0,00,0.0,,M,,M,0,0000*58
[2021-01-29 11:05:39.660] $GPGGA,020538.30,,,,,0,00,0.0,,M,,M,0,0000*59
[2021-01-29 11:05:39.769] $GPGGA,020538.40,,,,,0,00,0.0,,M,,M,0,0000*5E
[2021-01-29 11:05:39.863] $GPGGA,020538.50,,,,,0,00,0.0,,M,,M,0,0000*5F
[2021-01-29 11:05:39.956] $GPGGA,020538.60,,,,,0,00,0.0,,M,,M,0,0000*5C
[2021-01-29 11:05:40.066] $GPGGA,020538.70,,,,,0,00,0.0,,M,,M,0,0000*5D
[2021-01-29 11:05:40.159] $GPGGA,020538.80,,,,,0,00,0.0,,M,,M,0,0000*52
[2021-01-29 11:05:40.261] $GPGGA,020538.90,,,,,0,00,0.0,,M,,M,0,0000*53
[2021-01-29 11:05:40.365] $GPGGA,020539.00,,,,,0,00,0.0,,M,,M,0,0000*5B
[2021-01-29 11:05:40.458] $GPGGA,020539.10,,,,,0,00,0.0,,M,,M,0,0000*5A
[2021-01-29 11:05:40.568] $GPGGA,020539.20,,,,,0,00,0.0,,M,,M,0,0000*59
[2021-01-29 11:05:40.661] $GPGGA,020539.30,,,,,0,00,0.0,,M,,M,0,0000*58
[2021-01-29 11:05:40.755] $GPGGA,020539.40,,,,,0,00,0.0,,M,,M,0,0000*5F
[2021-01-29 11:05:40.864] $GPGGA,020539.50,,,,,0,00,0.0,,M,,M,0,0000*5E
[2021-01-29 11:05:40.958] $GPGGA,020539.60,,,,,0,00,0.0,,M,,M,0,0000*5D
[2021-01-29 11:05:41.052] $GPGGA,020539.70,,,,,0,00,0.0,,M,,M,0,0000*5C
[2021-01-29 11:05:41.161] $GPGGA,020539.80,,,,,0,00,0.0,,M,,M,0,0000*53
[2021-01-29 11:05:41.263] $GPGGA,020539.90,,,,,0,00,0.0,,M,,M,0,0000*52
[2021-01-29 11:05:41.366] $GPGGA,020540.00,,,,,0,00,0.0,,M,,M,0,0000*55
[2021-01-29 11:05:41.459] $GPGGA,020540.10,,,,,0,00,0.0,,M,,M,0,0000*54
[2021-01-29 11:05:41.569] $GPGGA,020540.20,,,,,0,00,0.0,,M,,M,0,0000*57
[2021-01-29 11:05:41.663] $GPGGA,020540.30,,,,,0,00,0.0,,M,,M,0,0000*56
[2021-01-29 11:05:41.756] $GPGGA,020540.40,,,,,0,00,0.0,,M,,M,0,0000*51
[2021-01-29 11:05:41.866] $GPGGA,020540.50,,,,,0,00,0.0,,M,,M,0,0000*50
[2021-01-29 11:05:41.959] $GPGGA,020540.60,,,,,0,00,0.0,,M,,M,0,0000*53
[2021-01-29 11:05:42.069] $GPGGA,020540.70,,,,,0,00,0.0,,M,,M,0,0000*52
[2021-01-29 11:05:42.163] $GPGGA,020540.80,,,,,0,00,0.0,,M,,M,0,0000*5D
[2021-01-29 11:05:42.266] $GPGGA,020540.90,,,,,0,00,0.0,,M,,M,0,0000*5C
[2021-01-29 11:05:42.352] $GPGGA,020541.00,,,,,0,00,0.0,,M,,M,0,0000*54
[2021-01-29 11:05:42.461] $GPGGA,020541.10,,,,,0,00,0.0,,M,,M,0,0000*55
[2021-01-29 11:05:42.555] $GPGGA,020541.20,,,,,0,00,0.0,,M,,M,0,0000*56
[2021-01-29 11:05:42.664] $GPGGA,020541.30,,,,,0,00,0.0,,M,,M,0,0000*57
[2021-01-29 11:05:42.758] $GPGGA,020541.40,,,,,0,00,0.0,,M,,M,0,0000*50
[2021-01-29 11:05:42.867] $GPGGA,020541.50,,,,,0,00,0.0,,M,,M,0,0000*51
[2021-01-29 11:05:42.961] $GPGGA,020541.60,,,,,0,00,0.0,,M,,M,0,0000*52
[2021-01-29 11:05:43.055] $GPGGA,020541.70,,,,,0,00,0.0,,M,,M,0,0000*53
[2021-01-29 11:05:43.164] $GPGGA,020541.80,,,,,0,00,0.0,,M,,M,0,0000*5C
[2021-01-29 11:05:43.268] $GPGGA,020541.90,,,,,0,00,0.0,,M,,M,0,0000*5D
[2021-01-29 11:05:43.369] $GPGGA,020542.00,,,,,0,00,0.0,,M,,M,0,0000*57
[2021-01-29 11:05:43.463] $GPGGA,020542.10,,,,,0,00,0.0,,M,,M,0,0000*56
[2021-01-29 11:05:43.572] $GPGGA,020542.20,,,,,0,00,0.0,,M,,M,0,0000*55
[2021-01-29 11:05:43.666] $GPGGA,020542.30,,,,,0,00,0.0,,M,,M,0,0000*54
[2021-01-29 11:05:43.760] $GPGGA,020542.40,,,,,0,00,0.0,,M,,M,0,0000*53
[2021-01-29 11:05:43.853] $GPGGA,020542.50,,,,,0,00,0.0,,M,,M,0,0000*52
[2021-01-29 11:05:43.963] $GPGGA,020542.60,,,,,0,00,0.0,,M,,M,0,0000*51
[2021-01-29 11:05:44.057] $GPGGA,020542.70,,,,,0,00,0.0,,M,,M,0,0000*50
[2021-01-29 11:05:44.166] $GPGGA,020542.80,,,,,0,00,0.0,,M,,M,0,0000*5F
[2021-01-29 11:05:44.260] $GPGGA,020542.90,,,,,0,00,0.0,,M,,M,0,0000*5E
[2021-01-29 11:05:44.370] $GPGGA,020543.00,,,,,0,00,0.0,,M,,M,0,0000*56
[2021-01-29 11:05:44.464] $GPGGA,020543.10,,,,,0,00,0.0,,M,,M,0,0000*57
[2021-01-29 11:05:44.558] $GPGGA,020543.20,,,,,0,00,0.0,,M,,M,0,0000*54
[2021-01-29 11:05:44.652] $GPGGA,020543.30,,,,,0,00,0.0,,M,,M,0,0000*55
[2021-01-29 11:05:44.761] $GPGGA,020543.40,,,,,0,00,0.0,,M,,M,0,0000*52
[2021-01-29 11:05:44.855] $GPGGA,020543.50,,,,,0,00,0.0,,M,,M,0,0000*53
[2021-01-29 11:05:44.964] $GPGGA,020543.60,,,,,0,00,0.0,,M,,M,0,0000*50
[2021-01-29 11:05:45.058] $GPGGA,020543.70,,,,,0,00,0.0,,M,,M,0,0000*51
[2021-01-29 11:05:45.167] $GPGGA,020543.80,,,,,0,00,0.0,,M,,M,0,0000*5E
[2021-01-29 11:05:45.269] $GPGGA,020543.90,,,,,0,00,0.0,,M,,M,0,0000*5F
[2021-01-29 11:05:45.357] $GPGGA,020544.00,,,,,0,00,0.0,,M,,M,0,0000*51
[2021-01-29 11:05:45.467] $GPGGA,020544.10,,,,,0,00,0.0,,M,,M,0,0000*50
[2021-01-29 11:05:45.560] $GPGGA,020544.20,,,,,0,00,0.0,,M,,M,0,0000*53
[2021-01-29 11:05:45.670] $GPGGA,020544.30,,,,,0,00,0.0,,M,,M,0,0000*52
[2021-01-29 11:05:45.763] $GPGGA,020544.40,,,,,0,00,0.0,,M,,M,0,0000*55
[2021-01-29 11:05:45.873] $GPGGA,020544.50,,,,,0,00,0.0,,M,,M,0,0000*54
[2021-01-29 11:05:45.967] $GPGGA,020544.60,,,,,0,00,0.0,,M,,M,0,0000*57
[2021-01-29 11:05:46.060] $GPGGA,020544.70,,,,,0,00,0.0,,M,,M,0,0000*56
[2021-01-29 11:05:46.154] $GPGGA,020544.80,,,,,0,00,0.0,,M,,M,0,0000*59
[2021-01-29 11:05:46.263] $GPGGA,020544.90,,,,,0,00,0.0,,M,,M,0,0000*58
[2021-01-29 11:05:46.357] $GPGGA,020545.00,,,,,0,00,0.0,,M,,M,0,0000*50
[2021-01-29 11:05:46.466] $GPGGA,020545.10,,,,,0,00,0.0,,M,,M,0,0000*51
[2021-01-29 11:05:46.560] $GPGGA,020545.20,,,,,0,00,0.0,,M,,M,0,0000*52
[2021-01-29 11:05:46.669] $GPGGA,020545.30,,,,,0,00,0.0,,M,,M,0,0000*53
[2021-01-29 11:05:46.763] $GPGGA,020545.40,,,,,0,00,0.0,,M,,M,0,0000*54
[2021-01-29 11:05:46.857] $GPGGA,020545.50,,,,,0,00,0.0,,M,,M,0,0000*55
[2021-01-29 11:05:46.966] $GPGGA,020545.60,,,,,0,00,0.0,,M,,M,0,0000*56
[2021-01-29 11:05:47.060] $GPGGA,020545.70,,,,,0,00,0.0,,M,,M,0,0000*57
[2021-01-29 11:05:47.169] $GPGGA,020545.80,,,,,0,00,0.0,,M,,M,0,0000*58
[2021-01-29 11:05:47.265] $GPGGA,020545.90,,,,,0,00,0.0,,M,,M,0,0000*59
[2021-01-29 11:05:47.358] $GPGGA,020546.00,,,,,0,00,0.0,,M,,M,0,0000*53
[2021-01-29 11:05:47.468] $GPGGA,020546.10,,,,,0,00,0.0,,M,,M,0,0000*52
[2021-01-29 11:05:47.562] $GPGGA,020546.20,,,,,0,00,0.0,,M,,M,0,0000*51
[2021-01-29 11:05:47.655] $GPGGA,020546.30,,,,,0,00,0.0,,M,,M,0,0000*50
[2021-01-29 11:05:47.765] $GPGGA,020546.40,,,,,0,00,0.0,,M,,M,0,0000*57
[2021-01-29 11:05:47.858] $GPGGA,020546.50,,,,,0,00,0.0,,M,,M,0,0000*56
[2021-01-29 11:05:47.968] $GPGGA,020546.60,,,,,0,00,0.0,,M,,M,0,0000*55
[2021-01-29 11:05:48.062] $GPGGA,020546.70,,,,,0,00,0.0,,M,,M,0,0000*54
[2021-01-29 11:05:48.171] $GPGGA,020546.80,,,,,0,00,0.0,,M,,M,0,0000*5B
[2021-01-29 11:05:48.267] $GPGGA,020546.90,,,,,0,00,0.0,,M,,M,0,0000*5A
[2021-01-29 11:05:48.360] $GPGGA,020547.00,,,,,0,00,0.0,,M,,M,0,0000*52
[2021-01-29 11:05:48.454] $GPGGA,020547.10,,,,,0,00,0.0,,M,,M,0,0000*53
[2021-01-29 11:05:48.563] $GPGGA,020547.20,,,,,0,00,0.0,,M,,M,0,0000*50
[2021-01-29 11:05:48.657] $GPGGA,020547.30,,,,,0,00,0.0,,M,,M,0,0000*51
[2021-01-29 11:05:48.767] $GPGGA,020547.40,,,,,0,00,0.0,,M,,M,0,0000*56
[2021-01-29 11:05:48.860] $GPGGA,020547.50,,,,,0,00,0.0,,M,,M,0,0000*57
[2021-01-29 11:05:48.970] $GPGGA,020547.60,,,,,0,00,0.0,,M,,M,0,0000*54
[2021-01-29 11:05:49.063] $GPGGA,020547.70,,,,,0,00,0.0,,M,,M,0,0000*55
[2021-01-29 11:05:49.157] $GPGGA,020547.80,,,,,0,00,0.0,,M,,M,0,0000*5A
[2021-01-29 11:05:49.269] $GPGGA,020547.90,,,,,0,00,0.0,,M,,M,0,0000*5B
[2021-01-29 11:05:49.363] $GPGGA,020548.00,,,,,0,00,0.0,,M,,M,0,0000*5D
[2021-01-29 11:05:49.472] $GPGGA,020548.10,,,,,0,00,0.0,,M,,M,0,0000*5C
[2021-01-29 11:05:49.566] $GPGGA,020548.20,,,,,0,00,0.0,,M,,M,0,0000*5F
[2021-01-29 11:05:49.660] $GPGGA,020548.30,,,,,0,00,0.0,,M,,M,0,0000*5E
[2021-01-29 11:05:49.753] $GPGGA,020548.40,,,,,0,00,0.0,,M,,M,0,0000*59
[2021-01-29 11:05:49.863] $GPGGA,020548.50,,,,,0,00,0.0,,M,,M,0,0000*58
[2021-01-29 11:05:49.956] $GPGGA,020548.60,,,,,0,00,0.0,,M,,M,0,0000*5B
[2021-01-29 11:05:50.066] $GPGGA,020548.70,,,,,0,00,0.0,,M,,M,0,0000*5A
[2021-01-29 11:05:50.160] $GPGGA,020548.80,,,,,0,00,0.0,,M,,M,0,0000*55
[2021-01-29 11:05:50.270] $GPGGA,020548.90,,,,,0,00,0.0,,M,,M,0,0000*54
[2021-01-29 11:05:50.364] $GPGGA,020549.00,,,,,0,00,0.0,,M,,M,0,0000*5C
[2021-01-29 11:05:50.489] $GPGGA,020549.10,,,,,0,00,0.0,,M,,M,0,0000*5D
[2021-01-29 11:05:50.567] $GPGGA,020549.20,,,,,0,00,0.0,,M,,M,0,0000*5E
[2021-01-29 11:05:50.661] $GPGGA,020549.30,4327.7318875,N,14148.3307571,E,1,07,1.6,119.8199,M,31.83,M,,*65
[2021-01-29 11:05:50.770] $GPGGA,020549.40,4327.7319211,N,14148.3308144,E,1,07,1.6,119.8377,M,31.83,M,,*64
[2021-01-29 11:05:50.864] $GPGGA,020549.50,4327.7318975,N,14148.3308212,E,1,07,1.6,119.5269,M,31.83,M,,*6E
[2021-01-29 11:05:50.973] $GPGGA,020549.60,4327.7318905,N,14148.3308171,E,1,07,1.6,119.2178,M,31.83,M,,*68
[2021-01-29 11:05:51.067] $GPGGA,020549.70,4327.7318945,N,14148.3308066,E,1,07,1.6,119.1205,M,31.83,M,,*60
[2021-01-29 11:05:51.176] $GPGGA,020549.80,4327.7319749,N,14148.3307550,E,1,07,1.6,119.7635,M,31.83,M,,*62
[2021-01-29 11:05:51.271] $GPGGA,020549.90,4327.7319344,N,14148.3307663,E,1,07,1.6,119.7555,M,31.83,M,,*6C
[2021-01-29 11:05:51.365] $GPGGA,020550.00,4327.7318404,N,14148.3308546,E,1,07,1.6,120.1945,M,31.83,M,,*65
[2021-01-29 11:05:51.459] $GPGGA,020550.10,4327.7317426,N,14148.3308495,E,1,07,1.6,120.0417,M,31.83,M,,*6F
[2021-01-29 11:05:51.568] $GPGGA,020550.20,4327.7317806,N,14148.3308785,E,1,07,1.6,120.2026,M,31.83,M,,*64
[2021-01-29 11:05:51.662] $GPGGA,020550.30,4327.7318925,N,14148.3309069,E,1,07,1.6,120.6081,M,31.83,M,,*67
[2021-01-29 11:05:51.771] $GPGGA,020550.40,4327.7318411,N,14148.3308602,E,1,07,1.6,120.2471,M,31.83,M,,*6F
[2021-01-29 11:05:51.865] $GPGGA,020550.50,4327.7317913,N,14148.3309754,E,1,07,1.6,119.9700,M,31.83,M,,*69
[2021-01-29 11:05:51.974] $GPGGA,020550.60,4327.7318917,N,14148.3309767,E,1,07,1.6,120.4698,M,31.83,M,,*66
[2021-01-29 11:05:52.068] $GPGGA,020550.70,4327.7319349,N,14148.3309458,E,1,07,1.6,120.8881,M,31.83,M,,*62
[2021-01-29 11:05:52.162] $GPGGA,020550.80,4327.7320634,N,14148.3308298,E,1,07,1.6,120.7434,M,31.83,M,,*6E
[2021-01-29 11:05:52.274] $GPGGA,020550.90,4327.7322173,N,14148.3307453,E,1,07,1.6,120.8537,M,31.83,M,,*6A
[2021-01-29 11:05:52.368] $GPGGA,020551.00,4327.7322312,N,14148.3306643,E,1,07,1.6,120.9366,M,31.83,M,,*66
[2021-01-29 11:05:52.477] $GPGGA,020551.10,4327.7322077,N,14148.3306370,E,1,07,1.6,120.8738,M,31.83,M,,*6C
[2021-01-29 11:05:52.555] $GPGGA,020551.20,4327.7323126,N,14148.3304561,E,1,07,1.6,120.0640,M,31.83,M,,*69
[2021-01-29 11:05:52.664] $GPGGA,020551.30,4327.7321616,N,14148.3305862,E,1,07,1.6,120.1716,M,31.83,M,,*62
[2021-01-29 11:05:52.758] $GPGGA,020551.40,4327.7320138,N,14148.3306061,E,1,07,1.6,119.4701,M,31.83,M,,*6E
[2021-01-29 11:05:52.868] $GPGGA,020551.50,4327.7318805,N,14148.3306696,E,1,07,1.6,119.3981,M,31.83,M,,*6C
[2021-01-29 11:05:52.961] $GPGGA,020551.60,4327.7318396,N,14148.3307520,E,1,07,1.6,119.1365,M,31.83,M,,*63
[2021-01-29 11:05:53.071] $GPGGA,020551.70,4327.7319660,N,14148.3306961,E,1,07,1.6,119.8361,M,31.83,M,,*6A
[2021-01-29 11:05:53.164] $GPGGA,020551.80,4327.7319171,N,14148.3307052,E,1,07,1.6,119.4921,M,31.83,M,,*68
[2021-01-29 11:05:53.276] $GPGGA,020551.90,4327.7318000,N,14148.3309326,E,1,07,1.6,119.6854,M,31.83,M,,*60
[2021-01-29 11:05:53.354] $GPGGA,020552.00,4327.7319479,N,14148.3309220,E,1,07,1.6,119.3699,M,31.83,M,,*6C
[2021-01-29 11:05:53.463] $GPGGA,020552.10,4327.7319198,N,14148.3307825,E,1,07,1.6,119.1411,M,31.83,M,,*66
[2021-01-29 11:05:53.572] $GPGGA,020552.20,4327.7318744,N,14148.3308838,E,1,07,1.6,119.5157,M,31.83,M,,*63
[2021-01-29 11:05:53.666] $GPGGA,020552.30,4327.7320159,N,14148.3307312,E,1,07,1.6,119.3825,M,31.83,M,,*65
[2021-01-29 11:05:53.760] $GPGGA,020552.40,4327.7320122,N,14148.3306550,E,1,07,1.6,119.4954,M,31.83,M,,*6F
[2021-01-29 11:05:53.869] $GPGGA,020552.50,4327.7319383,N,14148.3307889,E,1,07,1.6,119.9714,M,31.83,M,,*62
[2021-01-29 11:05:53.963] $GPGGA,020552.60,4327.7319426,N,14148.3307945,E,1,07,1.6,119.8979,M,31.83,M,,*6C
[2021-01-29 11:05:54.072] $GPGGA,020552.70,4327.7320639,N,14148.3308236,E,1,07,1.6,120.0799,M,31.83,M,,*69
[2021-01-29 11:05:54.166] $GPGGA,020552.80,4327.7320914,N,14148.3306549,E,1,07,1.6,120.0706,M,31.83,M,,*61
[2021-01-29 11:05:54.269] $GPGGA,020552.90,4327.7321066,N,14148.3306926,E,1,07,1.6,120.0858,M,31.83,M,,*6C
[2021-01-29 11:05:54.370] $GPGGA,020553.00,4327.7320814,N,14148.3306824,E,1,07,1.6,120.2778,M,31.83,M,,*64
[2021-01-29 11:05:54.464] $GPGGA,020553.10,4327.7320814,N,14148.3305886,E,1,07,1.6,120.2339,M,31.83,M,,*6F
[2021-01-29 11:05:54.558] $GPGGA,020553.20,4327.7321689,N,14148.3305905,E,1,07,1.6,120.2179,M,31.83,M,,*6B
[2021-01-29 11:05:54.667] $GPGGA,020553.30,4327.7321624,N,14148.3306153,E,1,07,1.6,120.3450,M,31.83,M,,*6A
[2021-01-29 11:05:54.761] $GPGGA,020553.40,4327.7320660,N,14148.3306484,E,1,07,1.6,120.2952,M,31.83,M,,*6D
[2021-01-29 11:05:54.870] $GPGGA,020553.50,4327.7320154,N,14148.3307630,E,1,07,1.6,120.4804,M,31.83,M,,*64
[2021-01-29 11:05:54.964] $GPGGA,020553.60,4327.7320942,N,14148.3307934,E,1,07,1.6,120.4176,M,31.83,M,,*6F
[2021-01-29 11:05:55.058] $GPGGA,020553.70,4327.7320719,N,14148.3308644,E,1,07,1.6,120.2764,M,31.83,M,,*6A
[2021-01-29 11:05:55.167] $GPGGA,020553.80,4327.7321858,N,14148.3307320,E,1,07,1.6,120.3402,M,31.83,M,,*64
[2021-01-29 11:05:55.271] $GPGGA,020553.90,4327.7322250,N,14148.3308836,E,1,07,1.6,120.8323,M,31.83,M,,*68
[2021-01-29 11:05:55.371] $GPGGA,020554.00,4327.7320905,N,14148.3309361,E,1,07,1.6,120.0744,M,31.83,M,,*6A
[2021-01-29 11:05:55.465] $GPGGA,020554.10,4327.7320620,N,14148.3309337,E,1,07,1.6,119.9440,M,31.83,M,,*64
[2021-01-29 11:05:55.575] $GPGGA,020554.20,4327.7319325,N,14148.3310687,E,1,07,1.6,119.9472,M,31.83,M,,*6A
[2021-01-29 11:05:55.668] $GPGGA,020554.30,4327.7320307,N,14148.3309815,E,1,07,1.6,120.1450,M,31.83,M,,*6E
[2021-01-29 11:05:55.762] $GPGGA,020554.40,4327.7320671,N,14148.3310014,E,1,07,1.6,120.0226,M,31.83,M,,*6A
[2021-01-29 11:05:55.871] $GPGGA,020554.50,4327.7321487,N,14148.3309140,E,1,07,1.6,120.7010,M,31.83,M,,*69
[2021-01-29 11:05:55.965] $GPGGA,020554.60,4327.7320054,N,14148.3311030,E,1,07,1.6,120.3188,M,31.83,M,,*6A
[2021-01-29 11:05:56.075] $GPGGA,020554.70,4327.7320926,N,14148.3310307,E,1,07,1.6,120.3956,M,31.83,M,,*6A
[2021-01-29 11:05:56.168] $GPGGA,020554.80,4327.7320299,N,14148.3310812,E,1,07,1.6,120.7597,M,31.83,M,,*60
[2021-01-29 11:05:56.262] $GPGGA,020554.90,4327.7320874,N,14148.3310161,E,1,07,1.6,120.7199,M,31.83,M,,*6F
[2021-01-29 11:05:56.372] $GPGGA,020555.00,4327.7320429,N,14148.3309750,E,1,07,1.6,120.4650,M,31.83,M,,*6E
[2021-01-29 11:05:56.466] $GPGGA,020555.10,4327.7319748,N,14148.3310086,E,1,07,1.6,120.8375,M,31.83,M,,*6B
[2021-01-29 11:05:56.559] $GPGGA,020555.20,4327.7320924,N,14148.3309019,E,1,07,1.6,120.6809,M,31.83,M,,*66
[2021-01-29 11:05:56.669] $GPGGA,020555.30,4327.7320144,N,14148.3309783,E,1,07,1.6,120.5455,M,31.83,M,,*6B
[2021-01-29 11:05:56.762] $GPGGA,020555.40,4327.7320894,N,14148.3308525,E,1,07,1.6,120.9410,M,31.83,M,,*6A
[2021-01-29 11:05:56.872] $GPGGA,020555.50,4327.7321352,N,14148.3308590,E,1,07,1.6,121.0374,M,31.83,M,,*68
[2021-01-29 11:05:56.966] $GPGGA,020555.60,4327.7320007,N,14148.3308425,E,1,07,1.6,121.0069,M,31.83,M,,*69
[2021-01-29 11:05:57.059] $GPGGA,020555.70,4327.7320705,N,14148.3307542,E,1,07,1.6,120.7460,M,31.83,M,,*69
[2021-01-29 11:05:57.169] $GPGGA,020555.80,4327.7321444,N,14148.3307919,E,1,07,1.6,120.5471,M,31.83,M,,*61
[2021-01-29 11:05:57.264] $GPGGA,020555.90,4327.7322408,N,14148.3308352,E,1,07,1.6,120.3921,M,31.83,M,,*6F
[2021-01-29 11:05:57.358] $GPGGA,020556.00,4327.7321835,N,14148.3307545,E,1,07,1.6,120.2407,M,31.83,M,,*63
[2021-01-29 11:05:57.467] $GPGGA,020556.10,4327.7320973,N,14148.3309018,E,1,07,1.6,120.1975,M,31.83,M,,*68
[2021-01-29 11:05:57.561] $GPGGA,020556.20,4327.7319525,N,14148.3310807,E,1,07,1.6,120.0121,M,31.83,M,,*68
[2021-01-29 11:05:57.670] $GPGGA,020556.30,4327.7319545,N,14148.3310727,E,1,07,1.6,120.2923,M,31.83,M,,*6A
[2021-01-29 11:05:57.764] $GPGGA,020556.40,4327.7318968,N,14148.3311453,E,1,07,1.6,120.7571,M,31.83,M,,*60
[2021-01-29 11:05:57.858] $GPGGA,020556.50,4327.7320006,N,14148.3310295,E,1,07,1.6,120.6521,M,31.83,M,,*62
[2021-01-29 11:05:57.967] $GPGGA,020556.60,4327.7319876,N,14148.3309617,E,1,07,1.6,120.2721,M,31.83,M,,*64
[2021-01-29 11:05:58.061] $GPGGA,020556.70,4327.7319555,N,14148.3309648,E,1,07,1.6,120.3586,M,31.83,M,,*6D
[2021-01-29 11:05:58.170] $GPGGA,020556.80,4327.7318992,N,14148.3310148,E,1,07,1.6,120.6367,M,31.83,M,,*67
[2021-01-29 11:05:58.266] $GPGGA,020556.90,4327.7318692,N,14148.3309948,E,1,07,1.6,120.6464,M,31.83,M,,*6D
[2021-01-29 11:05:58.359] $GPGGA,020557.00,4327.7319120,N,14148.3310471,E,1,07,1.6,120.4913,M,31.83,M,,*6A
[2021-01-29 11:05:58.469] $GPGGA,020557.10,4327.7318191,N,14148.3310840,E,1,07,1.6,120.6021,M,31.83,M,,*64
[2021-01-29 11:05:58.563] $GPGGA,020557.20,4327.7317433,N,14148.3311554,E,1,07,1.6,120.7606,M,31.83,M,,*6E
[2021-01-29 11:05:58.656] $GPGGA,020557.30,4327.7319095,N,14148.3310849,E,1,07,1.6,120.9893,M,31.83,M,,*65
[2021-01-29 11:05:58.766] $GPGGA,020557.40,4327.7318460,N,14148.3310933,E,1,07,1.6,120.5213,M,31.83,M,,*6F
[2021-01-29 11:05:58.859] $GPGGA,020557.50,4327.7318750,N,14148.3311403,E,1,07,1.6,120.9374,M,31.83,M,,*6D
[2021-01-29 11:05:58.969] $GPGGA,020557.60,4327.7318162,N,14148.3311471,E,1,07,1.6,120.6966,M,31.83,M,,*6A
[2021-01-29 11:05:59.062] $GPGGA,020557.70,4327.7317827,N,14148.3311245,E,1,07,1.6,120.7495,M,31.83,M,,*6D
[2021-01-29 11:05:59.156] $GPGGA,020557.80,4327.7318234,N,14148.3310353,E,1,07,1.6,120.8942,M,31.83,M,,*6A
[2021-01-29 11:05:59.268] $GPGGA,020557.90,4327.7318623,N,14148.3310116,E,1,07,1.6,121.3199,M,31.83,M,,*6E
[2021-01-29 11:05:59.362] $GPGGA,020558.00,4327.7320923,N,14148.3307721,E,1,07,1.6,121.1065,M,31.83,M,,*68
[2021-01-29 11:05:59.471] $GPGGA,020558.10,4327.7320929,N,14148.3307594,E,1,07,1.6,120.7090,M,31.83,M,,*62
[2021-01-29 11:05:59.565] $GPGGA,020558.20,4327.7320803,N,14148.3307144,E,1,07,1.6,120.9531,M,31.83,M,,*61
[2021-01-29 11:05:59.659] $GPGGA,020558.30,4327.7320840,N,14148.3307076,E,1,07,1.6,120.8905,M,31.83,M,,*6D
[2021-01-29 11:05:59.768] $GPGGA,020558.40,4327.7320678,N,14148.3307609,E,1,07,1.6,121.2446,M,31.83,M,,*60
[2021-01-29 11:05:59.877] $GPGGA,020558.50,4327.7321172,N,14148.3307767,E,1,07,1.6,121.5421,M,31.83,M,,*62
[2021-01-29 11:05:59.971] $GPGGA,020558.60,4327.7320559,N,14148.3308515,E,1,07,1.6,121.2615,M,31.83,M,,*67
[2021-01-29 11:06:00.065] $GPGGA,020558.70,4327.7320023,N,14148.3308729,E,1,07,1.6,120.6731,M,31.83,M,,*61
[2021-01-29 11:06:00.159] $GPGGA,020558.80,4327.7320039,N,14148.3309310,E,1,07,1.6,120.8233,M,31.83,M,,*63
[2021-01-29 11:06:00.269] $GPGGA,020558.90,4327.7319161,N,14148.3309043,E,1,07,1.6,120.1360,M,31.83,M,,*6F
[2021-01-29 11:06:00.363] $GPGGA,020559.00,4327.7319324,N,14148.3307405,E,1,07,1.6,119.6114,M,31.83,M,,*60
[2021-01-29 11:06:00.472] $GPGGA,020559.10,4327.7318774,N,14148.3307247,E,1,07,1.6,119.5506,M,31.83,M,,*65
[2021-01-29 11:06:00.566] $GPGGA,020559.20,4327.7318520,N,14148.3307673,E,1,07,1.6,119.7796,M,31.83,M,,*6F
[2021-01-29 11:06:00.660] $GPGGA,020559.30,4327.7317821,N,14148.3308075,E,1,07,1.6,119.8283,M,31.83,M,,*6C
[2021-01-29 11:06:00.769] $GPGGA,020559.40,4327.7317974,N,14148.3307693,E,1,07,1.6,120.0027,M,31.83,M,,*65
[2021-01-29 11:06:00.863] $GPGGA,020559.50,4327.7317985,N,14148.3307874,E,1,07,1.6,119.7827,M,31.83,M,,*68
[2021-01-29 11:06:00.956] $GPGGA,020559.60,4327.7317662,N,14148.3307724,E,1,07,1.6,119.6632,M,31.83,M,,*6C
[2021-01-29 11:06:01.066] $GPGGA,020559.70,4327.7317703,N,14148.3308406,E,1,07,1.6,119.8794,M,31.83,M,,*64
[2021-01-29 11:06:01.160] $GPGGA,020559.80,4327.7318085,N,14148.3308904,E,1,07,1.6,120.2909,M,31.83,M,,*68
[2021-01-29 11:06:01.270] $GPGGA,020559.90,4327.7317111,N,14148.3308481,E,1,07,1.6,120.1297,M,31.83,M,,*65
[2021-01-29 11:06:01.367] $GPGGA,020600.00,4327.7315386,N,14148.3308583,E,1,08,1.6,120.0986,M,31.83,M,,*6B
[2021-01-29 11:06:01.461] $GPGGA,020600.10,4327.7315868,N,14148.3308493,E,1,08,1.6,119.5815,M,31.83,M,,*65
[2021-01-29 11:06:01.570] $GPGGA,020600.20,4327.7317069,N,14148.3307701,E,1,08,1.6,119.5875,M,31.83,M,,*6C
[2021-01-29 11:06:01.664] $GPGGA,020600.30,4327.7318350,N,14148.3307630,E,1,08,1.6,119.1950,M,31.83,M,,*6A
[2021-01-29 11:06:01.773] $GPGGA,020600.40,4327.7318602,N,14148.3307721,E,1,08,1.6,119.4996,M,31.83,M,,*61
[2021-01-29 11:06:01.867] $GPGGA,020600.50,4327.7317590,N,14148.3307602,E,1,08,1.6,119.8226,M,31.83,M,,*6B
[2021-01-29 11:06:01.961] $GPGGA,020600.60,4327.7318590,N,14148.3308522,E,1,08,1.6,119.8821,M,31.83,M,,*64
[2021-01-29 11:06:02.070] $GPGGA,020600.70,4327.7301299,N,14148.3304738,E,1,09,1.4,105.0771,M,31.83,M,,*6A
[2021-01-29 11:06:02.164] $GPGGA,020600.80,4327.7301255,N,14148.3304671,E,1,09,1.4,105.4702,M,31.83,M,,*69
[2021-01-29 11:06:02.272] $GPGGA,020600.90,4327.7301602,N,14148.3304066,E,1,09,1.4,105.6973,M,31.83,M,,*64
[2021-01-29 11:06:02.366] $GPGGA,020601.00,4327.7301541,N,14148.3304040,E,1,09,1.4,105.4786,M,31.83,M,,*6A
[2021-01-29 11:06:02.460] $GPGGA,020601.10,4327.7301443,N,14148.3303082,E,1,09,1.4,105.2556,M,31.83,M,,*68
[2021-01-29 11:06:02.569] $GPGGA,020601.20,4327.7301124,N,14148.3303504,E,1,09,1.4,105.4011,M,31.83,M,,*64
[2021-01-29 11:06:02.663] $GPGGA,020601.30,4327.7296695,N,14148.3303379,E,1,10,1.4,103.9917,M,31.83,M,,*67
[2021-01-29 11:06:02.772] $GPGGA,020601.40,4327.7296366,N,14148.3303833,E,1,10,1.4,104.0450,M,31.83,M,,*6C
[2021-01-29 11:06:02.866] $GPGGA,020601.50,4327.7296937,N,14148.3302643,E,1,10,1.4,103.8225,M,31.83,M,,*60
[2021-01-29 11:06:02.960] $GPGGA,020601.60,4327.7297117,N,14148.3302283,E,1,10,1.4,103.7006,M,31.83,M,,*6C
[2021-01-29 11:06:03.069] $GPGGA,020601.70,4327.7296689,N,14148.3301748,E,1,10,1.4,103.6437,M,31.83,M,,*6A
[2021-01-29 11:06:03.163] $GPGGA,020601.80,4327.7297241,N,14148.3302147,E,1,10,1.4,103.9664,M,31.83,M,,*65
[2021-01-29 11:06:03.274] $GPGGA,020601.90,4327.7296332,N,14148.3301256,E,1,10,1.4,103.7913,M,31.83,M,,*61
[2021-01-29 11:06:03.368] $GPGGA,020602.00,4327.7298702,N,14148.3298988,E,1,11,1.3,103.1940,M,31.83,M,,*6D
[2021-01-29 11:06:03.461] $GPGGA,020602.10,4327.7298527,N,14148.3300171,E,1,11,1.3,103.3397,M,31.83,M,,*65
[2021-01-29 11:06:03.571] $GPGGA,020602.20,4327.7298367,N,14148.3300437,E,1,11,1.3,103.2105,M,31.83,M,,*6B
[2021-01-29 11:06:03.664] $GPGGA,020602.30,4327.7298337,N,14148.3300957,E,1,11,1.3,103.3295,M,31.83,M,,*6F
[2021-01-29 11:06:03.758] $GPGGA,020602.40,4327.7298088,N,14148.3300694,E,1,11,1.3,103.3074,M,31.83,M,,*62
[2021-01-29 11:06:03.868] $GPGGA,020602.50,4327.7299226,N,14148.3299767,E,1,11,1.3,103.3072,M,31.83,M,,*6E
[2021-01-29 11:06:03.961] $GPGGA,020602.60,4327.7299338,N,14148.3300247,E,1,11,1.3,103.3137,M,31.83,M,,*65
[2021-01-29 11:06:04.071] $GPGGA,020602.70,4327.7300060,N,14148.3299799,E,1,11,1.3,103.4511,M,31.83,M,,*6B
[2021-01-29 11:06:04.164] $GPGGA,020602.80,4327.7299034,N,14148.3299662,E,1,11,1.3,103.4017,M,31.83,M,,*62
[2021-01-29 11:06:04.267] $GPGGA,020602.90,4327.7299015,N,14148.3299464,E,1,11,1.3,103.2905,M,31.83,M,,*68
[2021-01-29 11:06:04.370] $GPGGA,020603.00,4327.7299009,N,14148.3299654,E,1,11,1.3,103.1325,M,31.83,M,,*67
[2021-01-29 11:06:04.464] $GPGGA,020603.10,4327.7299034,N,14148.3299906,E,1,11,1.3,103.0533,M,31.83,M,,*60
[2021-01-29 11:06:04.558] $GPGGA,020603.20,4327.7298844,N,14148.3299825,E,1,11,1.3,102.7128,M,31.83,M,,*65
[2021-01-29 11:06:04.667] $GPGGA,020603.30,4327.7298961,N,14148.3300106,E,1,11,1.3,102.5253,M,31.83,M,,*66
[2021-01-29 11:06:04.761] $GPGGA,020603.40,4327.7299101,N,14148.3300740,E,1,11,1.3,103.2350,M,31.83,M,,*6E
[2021-01-29 11:06:04.870] $GPGGA,020603.50,4327.7298067,N,14148.3301035,E,1,11,1.3,103.0261,M,31.83,M,,*6A
[2021-01-29 11:06:04.964] $GPGGA,020603.60,4327.7298031,N,14148.3301441,E,1,11,1.3,103.3911,M,31.83,M,,*62
[2021-01-29 11:06:05.073] $GPGGA,020603.70,4327.7297917,N,14148.3301243,E,1,11,1.3,103.4858,M,31.83,M,,*6E
[2021-01-29 11:06:05.167] $GPGGA,020603.80,4327.7297744,N,14148.3300464,E,1,11,1.3,103.8709,M,31.83,M,,*6C
[2021-01-29 11:06:05.270] $GPGGA,020603.90,4327.7298242,N,14148.3300033,E,1,11,1.3,104.1683,M,31.83,M,,*6A
[2021-01-29 11:06:05.373] $GPGGA,020604.00,4327.7298478,N,14148.3299795,E,1,11,1.3,103.6412,M,31.83,M,,*6B
[2021-01-29 11:06:05.467] $GPGGA,020604.10,4327.7297306,N,14148.3299496,E,1,11,1.3,104.0488,M,31.83,M,,*69
[2021-01-29 11:06:05.561] $GPGGA,020604.20,4327.7297468,N,14148.3299928,E,1,11,1.3,104.2354,M,31.83,M,,*69
[2021-01-29 11:06:05.670] $GPGGA,020604.30,4327.7297947,N,14148.3299564,E,1,11,1.3,104.1847,M,31.83,M,,*66
[2021-01-29 11:06:05.764] $GPGGA,020604.40,4327.7298129,N,14148.3300140,E,1,11,1.3,104.1169,M,31.83,M,,*68
[2021-01-29 11:06:05.858] $GPGGA,020604.50,4327.7298392,N,14148.3300302,E,1,11,1.3,104.1000,M,31.83,M,,*61
[2021-01-29 11:06:05.967] $GPGGA,020604.60,4327.7299282,N,14148.3300333,E,1,11,1.3,103.6538,M,31.83,M,,*6F
[2021-01-29 11:06:06.061] $GPGGA,020604.70,4327.7299078,N,14148.3299706,E,1,11,1.3,103.8502,M,31.83,M,,*6D
[2021-01-29 11:06:06.170] $GPGGA,020604.80,4327.7297144,N,14148.3296636,E,1,12,1.2,105.1879,M,31.83,M,,*63
[2021-01-29 11:06:06.262] $GPGGA,020604.90,4327.7297449,N,14148.3296845,E,1,12,1.2,105.3167,M,31.83,M,,*64
[2021-01-29 11:06:06.371] $GPGGA,020605.00,4327.7297530,N,14148.3296967,E,1,12,1.2,105.5823,M,31.83,M,,*6D
[2021-01-29 11:06:06.465] $GPGGA,020605.10,4327.7298704,N,14148.3295986,E,1,12,1.2,105.3575,M,31.83,M,,*62
[2021-01-29 11:06:06.559] $GPGGA,020605.20,4327.7298505,N,14148.3296407,E,1,12,1.2,105.5161,M,31.83,M,,*62
[2021-01-29 11:06:06.668] $GPGGA,020605.30,4327.7297760,N,14148.3296299,E,1,12,1.2,105.8381,M,31.83,M,,*6D
[2021-01-29 11:06:06.762] $GPGGA,020605.40,4327.7297874,N,14148.3297000,E,1,12,1.2,105.9001,M,31.83,M,,*69
[2021-01-29 11:06:06.871] $GPGGA,020605.50,4327.7297748,N,14148.3296837,E,1,12,1.2,105.8613,M,31.83,M,,*61
[2021-01-29 11:06:06.965] $GPGGA,020605.60,4327.7297981,N,14148.3297385,E,1,12,1.2,105.8180,M,31.83,M,,*67
[2021-01-29 11:06:07.059] $GPGGA,020605.70,4327.7298103,N,14148.3297782,E,1,12,1.2,106.2445,M,31.83,M,,*6D
[2021-01-29 11:06:07.168] $GPGGA,020605.80,4327.7298764,N,14148.3297175,E,1,12,1.2,106.2278,M,31.83,M,,*63
[2021-01-29 11:06:07.271] $GPGGA,020605.90,4327.7298570,N,14148.3296070,E,1,12,1.2,105.9128,M,31.83,M,,*6E
[2021-01-29 11:06:07.359] $GPGGA,020606.00,4327.7298871,N,14148.3295777,E,1,12,1.2,106.1456,M,31.83,M,,*6C
[2021-01-29 11:06:07.468] $GPGGA,020606.10,4327.7298523,N,14148.3296140,E,1,12,1.2,106.2622,M,31.83,M,,*64
[2021-01-29 11:06:07.562] $GPGGA,020606.20,4327.7298133,N,14148.3296249,E,1,12,1.2,105.9024,M,31.83,M,,*60
[2021-01-29 11:06:07.671] $GPGGA,020606.30,4327.7298315,N,14148.3296357,E,1,12,1.2,106.1707,M,31.83,M,,*64
[2021-01-29 11:06:07.765] $GPGGA,020606.40,4327.7298606,N,14148.3296607,E,1,12,1.2,105.9475,M,31.83,M,,*69
[2021-01-29 11:06:07.859] $GPGGA,020606.50,4327.7297078,N,14148.3296888,E,1,12,1.2,105.9049,M,31.83,M,,*6A
[2021-01-29 11:06:07.968] $GPGGA,020606.60,4327.7297324,N,14148.3296938,E,1,12,1.2,105.3412,M,31.83,M,,*69
[2021-01-29 11:06:08.062] $GPGGA,020606.70,4327.7296805,N,14148.3297068,E,1,12,1.2,105.8543,M,31.83,M,,*62
[2021-01-29 11:06:08.171] $GPGGA,020606.80,4327.7296556,N,14148.3297191,E,1,12,1.2,105.1831,M,31.83,M,,*60
[2021-01-29 11:06:08.265] $GPGGA,020606.90,4327.7296492,N,14148.3296876,E,1,12,1.2,104.9691,M,31.83,M,,*64
[2021-01-29 11:06:08.375] $GPGGA,020607.00,4327.7296822,N,14148.3296134,E,1,12,1.2,105.2081,M,31.83,M,,*69
[2021-01-29 11:06:08.468] $GPGGA,020607.10,4327.7296290,N,14148.3296217,E,1,12,1.2,104.7779,M,31.83,M,,*6D
[2021-01-29 11:06:08.562] $GPGGA,020607.20,4327.7297230,N,14148.3296834,E,1,12,1.2,105.1657,M,31.83,M,,*64
[2021-01-29 11:06:08.671] $GPGGA,020607.30,4327.7296692,N,14148.3296812,E,1,12,1.2,105.3849,M,31.83,M,,*6F
[2021-01-29 11:06:08.765] $GPGGA,020607.40,4327.7296891,N,14148.3296881,E,1,12,1.2,105.3760,M,31.83,M,,*6B
[2021-01-29 11:06:08.859] $GPGGA,020607.50,4327.7296264,N,14148.3296384,E,1,12,1.2,105.3437,M,31.83,M,,*65
[2021-01-29 11:06:08.968] $GPGGA,020607.60,4327.7296063,N,14148.3296290,E,1,12,1.2,105.2169,M,31.83,M,,*68
[2021-01-29 11:06:09.062] $GPGGA,020607.70,4327.7297093,N,14148.3295954,E,1,12,1.2,104.9396,M,31.83,M,,*6F
[2021-01-29 11:06:09.171] $GPGGA,020607.80,4327.7296796,N,14148.3296029,E,1,12,1.2,104.9525,M,31.83,M,,*6D
[2021-01-29 11:06:09.267] $GPGGA,020607.90,4327.7296970,N,14148.3296388,E,1,12,1.2,104.7149,M,31.83,M,,*62
[2021-01-29 11:06:09.360] $GPGGA,020608.00,4327.7297242,N,14148.3296499,E,1,12,1.2,104.2643,M,31.83,M,,*60
[2021-01-29 11:06:09.470] $GPGGA,020608.10,4327.7296585,N,14148.3295949,E,1,12,1.2,104.1080,M,31.83,M,,*65
[2021-01-29 11:06:09.564] $GPGGA,020608.20,4327.7295897,N,14148.3295991,E,1,12,1.2,104.6013,M,31.83,M,,*63
[2021-01-29 11:06:09.657] $GPGGA,020608.30,4327.7296139,N,14148.3296333,E,1,12,1.2,104.9522,M,31.83,M,,*65
[2021-01-29 11:06:09.767] $GPGGA,020608.40,4327.7296301,N,14148.3296925,E,1,12,1.2,105.1101,M,31.83,M,,*6A
[2021-01-29 11:06:09.860] $GPGGA,020608.50,4327.7296049,N,14148.3298011,E,1,12,1.2,104.7212,M,31.83,M,,*62
[2021-01-29 11:06:09.970] $GPGGA,020608.60,4327.7296484,N,14148.3297177,E,1,12,1.2,104.7569,M,31.83,M,,*61
[2021-01-29 11:06:10.064] $GPGGA,020608.70,4327.7296159,N,14148.3297471,E,1,12,1.2,105.2398,M,31.83,M,,*6A
[2021-01-29 11:06:10.173] $GPGGA,020608.80,4327.7296546,N,14148.3297227,E,1,12,1.2,105.4490,M,31.83,M,,*63
[2021-01-29 11:06:10.268] $GPGGA,020608.90,4327.7296194,N,14148.3296847,E,1,12,1.2,105.5720,M,31.83,M,,*6D
[2021-01-29 11:06:10.362] $GPGGA,020609.00,4327.7295754,N,14148.3297002,E,1,12,1.2,105.6682,M,31.83,M,,*6E
[2021-01-29 11:06:10.471] $GPGGA,020609.10,4327.7295952,N,14148.3297991,E,1,12,1.2,105.7620,M,31.83,M,,*6D
[2021-01-29 11:06:10.565] $GPGGA,020609.20,4327.7295548,N,14148.3297443,E,1,12,1.2,105.8917,M,31.83,M,,*6F
[2021-01-29 11:06:10.675] $GPGGA,020609.30,4327.7296100,N,14148.3297232,E,1,12,1.2,105.6822,M,31.83,M,,*6C
[2021-01-29 11:06:10.768] $GPGGA,020609.40,4327.7296806,N,14148.3296545,E,1,12,1.2,105.3890,M,31.83,M,,*6E
[2021-01-29 11:06:10.862] $GPGGA,020609.50,4327.7296986,N,14148.3297378,E,1,12,1.2,105.4123,M,31.83,M,,*69
[2021-01-29 11:06:10.971] $GPGGA,020609.60,4327.7296624,N,14148.3297714,E,1,12,1.2,105.3814,M,31.83,M,,*69
[2021-01-29 11:06:11.081] $GPGGA,020609.70,4327.7296030,N,14148.3297525,E,1,12,1.2,104.8640,M,31.83,M,,*6E
[2021-01-29 11:06:11.159] $GPGGA,020609.80,4327.7296438,N,14148.3297353,E,1,12,1.2,104.4180,M,31.83,M,,*6D
[2021-01-29 11:06:11.273] $GPGGA,020609.90,4327.7296309,N,14148.3296566,E,1,12,1.2,105.0063,M,31.83,M,,*61
[2021-01-29 11:06:11.365] $GPGGA,020610.00,4327.7295538,N,14148.3296429,E,1,12,1.2,105.0208,M,31.83,M,,*62
[2021-01-29 11:06:11.474] $GPGGA,020610.10,4327.7295602,N,14148.3296686,E,1,12,1.2,104.6193,M,31.83,M,,*68
[2021-01-29 11:06:11.568] $GPGGA,020610.20,4327.7295653,N,14148.3296314,E,1,12,1.2,104.5271,M,31.83,M,,*6D
[2021-01-29 11:06:11.662] $GPGGA,020610.30,4327.7295866,N,14148.3296403,E,1,12,1.2,104.9537,M,31.83,M,,*6C
[2021-01-29 11:06:11.771] $GPGGA,020610.40,4327.7295837,N,14148.3296439,E,1,12,1.2,105.3431,M,31.83,M,,*6A
[2021-01-29 11:06:11.865] $GPGGA,020610.50,4327.7297115,N,14148.3296562,E,1,12,1.2,105.3509,M,31.83,M,,*65
[2021-01-29 11:06:11.974] $GPGGA,020610.60,4327.7297272,N,14148.3297024,E,1,12,1.2,105.3235,M,31.83,M,,*6A
[2021-01-29 11:06:12.068] $GPGGA,020610.70,4327.7295233,N,14148.3299502,E,1,13,1.1,105.8830,M,31.83,M,,*65
[2021-01-29 11:06:12.162] $GPGGA,020610.80,4327.7295009,N,14148.3299465,E,1,13,1.1,105.8735,M,31.83,M,,*6B
[2021-01-29 11:06:12.272] $GPGGA,020610.90,4327.7294791,N,14148.3299916,E,1,13,1.1,106.0080,M,31.83,M,,*66
[2021-01-29 11:06:12.366] $GPGGA,020611.00,4327.7295009,N,14148.3299217,E,1,13,1.1,105.7206,M,31.83,M,,*6B
[2021-01-29 11:06:12.459] $GPGGA,020611.10,4327.7294446,N,14148.3298916,E,1,13,1.1,105.7697,M,31.83,M,,*63
[2021-01-29 11:06:12.569] $GPGGA,020611.20,4327.7293928,N,14148.3298110,E,1,13,1.1,105.8482,M,31.83,M,,*65
[2021-01-29 11:06:12.663] $GPGGA,020611.30,4327.7294128,N,14148.3297885,E,1,13,1.1,105.8268,M,31.83,M,,*63
[2021-01-29 11:06:12.772] $GPGGA,020611.40,4327.7293659,N,14148.3297984,E,1,13,1.1,105.8837,M,31.83,M,,*62
[2021-01-29 11:06:12.866] $GPGGA,020611.50,4327.7293508,N,14148.3298202,E,1,13,1.1,105.7842,M,31.83,M,,*63
[2021-01-29 11:06:12.975] $GPGGA,020611.60,4327.7293557,N,14148.3298317,E,1,13,1.1,105.5068,M,31.83,M,,*6D
[2021-01-29 11:06:13.069] $GPGGA,020611.70,4327.7295097,N,14148.3297255,E,1,13,1.1,105.2746,M,31.83,M,,*67
[2021-01-29 11:06:13.163] $GPGGA,020611.80,4327.7295366,N,14148.3298275,E,1,13,1.1,105.0666,M,31.83,M,,*69
[2021-01-29 11:06:13.274] $GPGGA,020611.90,4327.7295398,N,14148.3298771,E,1,13,1.1,105.1290,M,31.83,M,,*64
[2021-01-29 11:06:13.368] $GPGGA,020612.00,4327.7294957,N,14148.3298486,E,1,13,1.1,105.1751,M,31.83,M,,*65
[2021-01-29 11:06:13.462] $GPGGA,020612.10,4327.7295233,N,14148.3297941,E,1,13,1.1,105.2857,M,31.83,M,,*6F
[2021-01-29 11:06:13.571] $GPGGA,020612.20,4327.7295081,N,14148.3298063,E,1,13,1.1,105.3947,M,31.83,M,,*60
[2021-01-29 11:06:13.665] $GPGGA,020612.30,4327.7295446,N,14148.3298495,E,1,13,1.1,105.2187,M,31.83,M,,*66
[2021-01-29 11:06:13.758] $GPGGA,020612.40,4327.7295596,N,14148.3297675,E,1,13,1.1,104.8983,M,31.83,M,,*69
[2021-01-29 11:06:13.868] $GPGGA,020612.50,4327.7295421,N,14148.3297246,E,1,13,1.1,104.8925,M,31.83,M,,*6D
[2021-01-29 11:06:13.961] $GPGGA,020612.60,4327.7296219,N,14148.3297252,E,1,13,1.1,104.8290,M,31.83,M,,*60
[2021-01-29 11:06:14.071] $GPGGA,020612.70,4327.7296914,N,14148.3297007,E,1,13,1.1,104.8764,M,31.83,M,,*6B
[2021-01-29 11:06:14.165] $GPGGA,020612.80,4327.7297083,N,14148.3296572,E,1,13,1.1,104.8972,M,31.83,M,,*6D
[2021-01-29 11:06:14.258] $GPGGA,020612.90,4327.7296588,N,14148.3296450,E,1,13,1.1,104.9827,M,31.83,M,,*62
[2021-01-29 11:06:14.369] $GPGGA,020613.00,4327.7295935,N,14148.3297148,E,1,13,1.1,105.3147,M,31.83,M,,*6A
[2021-01-29 11:06:14.463] $GPGGA,020613.10,4327.7296062,N,14148.3296966,E,1,13,1.1,105.2811,M,31.83,M,,*6D
[2021-01-29 11:06:14.572] $GPGGA,020613.20,4327.7296347,N,14148.3296974,E,1,13,1.1,104.6691,M,31.83,M,,*6A
[2021-01-29 11:06:14.666] $GPGGA,020613.30,4327.7296249,N,14148.3296488,E,1,13,1.1,104.2599,M,31.83,M,,*65
[2021-01-29 11:06:14.760] $GPGGA,020613.40,4327.7296482,N,14148.3297195,E,1,13,1.1,104.3319,M,31.83,M,,*64
[2021-01-29 11:06:14.869] $GPGGA,020613.50,4327.7296341,N,14148.3296860,E,1,13,1.1,104.5160,M,31.83,M,,*65
[2021-01-29 11:06:14.963] $GPGGA,020613.60,4327.7296263,N,14148.3296703,E,1,13,1.1,104.7587,M,31.83,M,,*62
[2021-01-29 11:06:15.072] $GPGGA,020613.70,4327.7296791,N,14148.3296248,E,1,13,1.1,104.5779,M,31.83,M,,*60
[2021-01-29 11:06:15.166] $GPGGA,020613.80,4327.7296611,N,14148.3296090,E,1,13,1.1,104.8510,M,31.83,M,,*61
[2021-01-29 11:06:15.267] $GPGGA,020613.90,4327.7296403,N,14148.3295737,E,1,13,1.1,105.1541,M,31.83,M,,*64
[2021-01-29 11:06:15.355] $GPGGA,020614.00,4327.7296344,N,14148.3295880,E,1,13,1.1,105.1987,M,31.83,M,,*6B
[2021-01-29 11:06:15.464] $GPGGA,020614.10,4327.7295262,N,14148.3295947,E,1,13,1.1,105.1233,M,31.83,M,,*62
[2021-01-29 11:06:15.574] $GPGGA,020614.20,4327.7295375,N,14148.3295212,E,1,13,1.1,105.1237,M,31.83,M,,*69
[2021-01-29 11:06:15.667] $GPGGA,020614.30,4327.7295242,N,14148.3295982,E,1,13,1.1,105.3184,M,31.83,M,,*66
[2021-01-29 11:06:15.777] $GPGGA,020614.40,4327.7295270,N,14148.3296093,E,1,13,1.1,105.2840,M,31.83,M,,*6A
[2021-01-29 11:06:15.870] $GPGGA,020614.50,4327.7295231,N,14148.3297324,E,1,13,1.1,105.4788,M,31.83,M,,*6D
[2021-01-29 11:06:15.964] $GPGGA,020614.60,4327.7295012,N,14148.3298219,E,1,13,1.1,106.0791,M,31.83,M,,*62
[2021-01-29 11:06:16.074] $GPGGA,020614.70,4327.7295049,N,14148.3298282,E,1,13,1.1,106.2188,M,31.83,M,,*63
[2021-01-29 11:06:16.167] $GPGGA,020614.80,4327.7295088,N,14148.3297876,E,1,13,1.1,105.7165,M,31.83,M,,*6A
[2021-01-29 11:06:16.269] $GPGGA,020614.90,4327.7295697,N,14148.3297623,E,1,13,1.1,105.3582,M,31.83,M,,*64
[2021-01-29 11:06:16.372] $GPGGA,020615.00,4327.7296387,N,14148.3297278,E,1,13,1.1,105.2123,M,31.83,M,,*6F
[2021-01-29 11:06:16.466] $GPGGA,020615.10,4327.7296138,N,14148.3297390,E,1,13,1.1,105.3377,M,31.83,M,,*6D
[2021-01-29 11:06:16.560] $GPGGA,020615.20,4327.7295971,N,14148.3297292,E,1,13,1.1,105.0907,M,31.83,M,,*65
[2021-01-29 11:06:16.669] $GPGGA,020615.30,4327.7295719,N,14148.3296564,E,1,13,1.1,104.9615,M,31.83,M,,*6F
[2021-01-29 11:06:16.763] $GPGGA,020615.40,4327.7296670,N,14148.3295645,E,1,13,1.1,105.0928,M,31.83,M,,*6F
[2021-01-29 11:06:16.872] $GPGGA,020615.50,4327.7296206,N,14148.3295220,E,1,13,1.1,105.1455,M,31.83,M,,*6A
[2021-01-29 11:06:16.966] $GPGGA,020615.60,4327.7296116,N,14148.3295144,E,1,13,1.1,105.3084,M,31.83,M,,*60
[2021-01-29 11:06:17.060] $GPGGA,020615.70,4327.7296176,N,14148.3294935,E,1,13,1.1,105.0718,M,31.83,M,,*69
[2021-01-29 11:06:17.169] $GPGGA,020615.80,4327.7295047,N,14148.3295073,E,1,13,1.1,105.2694,M,31.83,M,,*6B
[2021-01-29 11:06:17.263] $GPGGA,020615.90,4327.7295621,N,14148.3294754,E,1,13,1.1,105.2063,M,31.83,M,,*61
[2021-01-29 11:06:17.356] $GPGGA,020616.00,4327.7295609,N,14148.3295057,E,1,13,1.1,105.2662,M,31.83,M,,*63
[2021-01-29 11:06:17.466] $GPGGA,020616.10,4327.7295889,N,14148.3295119,E,1,13,1.1,105.1926,M,31.83,M,,*63
[2021-01-29 11:06:17.559] $GPGGA,020616.20,4327.7295586,N,14148.3295423,E,1,13,1.1,104.9973,M,31.83,M,,*67
