
[2021-01-29 10:47:26.053] $GPGGA,,,,,,,,,,M,,M,,*56
[2021-01-29 10:47:26.085] $GPGGA,,,,,,,,,,M,,M,,*56
[2021-01-29 10:47:26.085] $GPGGA,,,,,,,,,,M,,M,,*56
[2021-01-29 10:47:26.085] $GPGGA,,,,,,,,,,M,,M,,*56
[2021-01-29 10:47:26.085] $GPGGA,,,,,,,,,,M,,M,,*56
[2021-01-29 10:47:26.085] $GPGGA,,,,,,,,,,M,,M,,*56
[2021-01-29 10:47:26.085] $GPGGA,,,,,,,,,,M,,M,,*56
[2021-01-29 10:47:26.085] $GPGGA,,,,,,,,,,M,,M,,*56
[2021-01-29 10:47:26.085] $GPGGA,,,,,,,,,,M,,M,,*56
[2021-01-29 10:47:26.085] $GPGGA,,,,,,,,,,M,,M,,*56
[2021-01-29 10:47:26.085] $GPGGA,,,,,,,,,,M,,M,,*56
[2021-01-29 10:47:26.085] $GPGGA,,,,,,,,,,M,,M,,*56
[2021-01-29 10:47:26.085] $GPGGA,,,,,,,,,,M,,M,,*56
[2021-01-29 10:47:26.085] $GPGGA,,,,,,,,,,M,,M,,*56
[2021-01-29 10:47:26.085] $GPGGA,,,,,,,,,,M,,M,,*56
[2021-01-29 10:47:26.085] $GPGGA,,,,,,,,,,M,,M,,*56
[2021-01-29 10:47:26.085] $GPGGA,,,,,,,,,,M,,M,,*56
[2021-01-29 10:47:26.085] $GPGGA,,,,,,,,,,M,,M,,*56
[2021-01-29 10:47:26.085] $GPGGA,,,,,,,,,,M,,M,,*56
[2021-01-29 10:47:26.085] $GPGGA,,,,,,,,,,M,,M,,*56
[2021-01-29 10:47:26.085] $GPGGA,,,,,,,,,,M,,M,,*56
[2021-01-29 10:47:26.085] $GPGGA,,,,,,,,,,M,,M,,*56
[2021-01-29 10:47:26.085] $GPGGA,,,,,,,,,,M,,M,,*56
[2021-01-29 10:47:26.085] $GPGGA,,,,,,,,,,M,,M,,*56
[2021-01-29 10:47:26.085] $GPGGA,,,,,,,,,,M,,M,,*56
[2021-01-29 10:47:26.085] $GPGGA,,,,,,,,,,M,,M,,*56
[2021-01-29 10:47:26.085] $GPGGA,,,,,,,,,,M,,M,,*56
[2021-01-29 10:47:26.085] $GPGGA,,,,,,,,,,M,,M,,*56
[2021-01-29 10:47:26.085] $GPGGA,,,,,,,,,,M,,M,,*56
[2021-01-29 10:47:26.085] $GPGGA,,,,,,,,,,M,,M,,*56
[2021-01-29 10:47:26.085] $GPGGA,,,,,,,,,,M,,M,,*56
[2021-01-29 10:47:26.085] $GPGGA,,,,,,,,,,M,,M,,*56
[2021-01-29 10:47:26.085] $GPGGA,,,,,,,,,,M,,M,,*56
[2021-01-29 10:47:26.085] $GPGGA,,,,,,,,,,M,,M,,*56
[2021-01-29 10:47:26.085] $GPGGA,,,,,,,,,,M,,M,,*56
[2021-01-29 10:47:26.085] $GPGGA,,,,,,,,,,M,,M,,*56
[2021-01-29 10:47:26.085] $GPGGA,,,,,,,,,,M,,M,,*56
[2021-01-29 10:47:26.085] $GPGGA,,,,,,,,,,M,,M,,*56
[2021-01-29 10:47:26.085] $GPGGA,,,,,,,,,,M,,M,,*56
[2021-01-29 10:47:26.116] $GPGGA,,,,,,,,,,M,,M,,*56
[2021-01-29 10:47:26.116] $GPGGA,,,,,,,,,,M,,M,,*56
[2021-01-29 10:47:26.116] $GPGGA,,,,,,,,,,M,,M,,*56
[2021-01-29 10:47:26.116] $GPGGA,,,,,,,,,,M,,M,,*56
[2021-01-29 10:47:26.116] $GPGGA,,,,,,,,,,M,,M,,*56
[2021-01-29 10:47:26.116] $GPGGA,,,,,,,,,,M,,M,,*56
[2021-01-29 10:47:26.116] $GPGGA,,,,,,,,,,M,,M,,*56
[2021-01-29 10:47:26.116] $GPGGA,,,,,,,,,,M,,M,,*56
[2021-01-29 10:47:26.116] $GPGGA,,,,,,,,,,M,,M,,*56
[2021-01-29 10:47:26.116] $GPGGA,,,,,,,,,,M,,M,,*56
[2021-01-29 10:47:26.116] $GPGGA,,,,,,,,,,M,,M,,*56
[2021-01-29 10:47:26.116] $GPGGA,,,,,,,,,,M,,M,,*56
[2021-01-29 10:47:26.116] $GPGGA,,,,,,,,,,M,,M,,*56
[2021-01-29 10:47:26.116] $GPGGA,,,,,,,,,,M,,M,,*56
[2021-01-29 10:47:26.116] $GPGGA,,,,,,,,,,M,,M,,*56
[2021-01-29 10:47:26.116] $GPGGA,,,,,,,,,,M,,M,,*56
[2021-01-29 10:47:26.116] $GPGGA,,,,,,,,,,M,,M,,*56
[2021-01-29 10:47:26.116] $GPGGA,,,,,,,,,,M,,M,,*56
[2021-01-29 10:47:26.116] $GPGGA,,,,,,,,,,M,,M,,*56
[2021-01-29 10:47:26.116] $GPGGA,,,,,,,,,,M,,M,,*56
[2021-01-29 10:47:26.116] $GPGGA,,,,,,,,,,M,,M,,*56
[2021-01-29 10:47:26.116] $GPGGA,,,,,,,,,,M,,M,,*56
[2021-01-29 10:47:26.116] $GPGGA,,,,,,,,,,M,,M,,*56
[2021-01-29 10:47:26.116] $GPGGA,,,,,,,,,,M,,M,,*56
[2021-01-29 10:47:26.116] $GPGGA,,,,,,,,,,M,,M,,*56
[2021-01-29 10:47:26.116] $GPGGA,,,,,,,,,,M,,M,,*56
[2021-01-29 10:47:26.116] $GPGGA,,,,,,,,,,M,,M,,*56
[2021-01-29 10:47:26.116] $GPGGA,,,,,,,,,,M,,M,,*56
[2021-01-29 10:47:26.116] $GPGGA,,,,,,,,,,M,,M,,*56
[2021-01-29 10:47:26.116] $GPGGA,,,,,,,,,,M,,M,,*56
[2021-01-29 10:47:26.116] $GPGGA,,,,,,,,,,M,,M,,*56
[2021-01-29 10:47:26.116] $GPGGA,,,,,,,,,,M,,M,,*56
[2021-01-29 10:47:26.116] $GPGGA,,,,,,,,,,M,,M,,*56
[2021-01-29 10:47:26.116] $GPGGA,,,,,,,,,,M,,M,,*56
[2021-01-29 10:47:26.116] $GPGGA,,,,,,,,,,M,,M,,*56
[2021-01-29 10:47:26.116] $GPGGA,,,,,,,,,,M,,M,,*56
[2021-01-29 10:47:26.116] $GPGGA,,,,,,,,,,M,,M,,*56
[2021-01-29 10:47:26.116] $GPGGA,,,,,,,,,,M,,M,,*56
[2021-01-29 10:47:26.147] $GPGGA,,,,,,,,,,M,,M,,*56
[2021-01-29 10:47:26.147] $GPGGA,,,,,,,,,,M,,M,,*56
[2021-01-29 10:47:26.147] $GPGGA,,,,,,,,,,M,,M,,*56
[2021-01-29 10:47:26.147] $GPGGA,,,,,,,,,,M,,M,,*56
[2021-01-29 10:47:26.147] $GPGGA,,,,,,,,,,M,,M,,*56
[2021-01-29 10:47:26.147] $GPGGA,,,,,,,,,,M,,M,,*56
[2021-01-29 10:47:26.147] $GPGGA,,,,,,,,,,M,,M,,*56
[2021-01-29 10:47:26.147] $GPGGA,,,,,,,,,,M,,M,,*56
[2021-01-29 10:47:26.147] $GPGGA,,,,,,,,,,M,,M,,*56
[2021-01-29 10:47:26.147] $GPGGA,,,,,,,,,,M,,M,,*56
[2021-01-29 10:47:26.147] $GPGGA,,,,,,,,,,M,,M,,*56
[2021-01-29 10:47:26.147] $GPGGA,,,,,,,,,,M,,M,,*56
[2021-01-29 10:47:26.147] $GPGGA,,,,,,,,,,M,,M,,*56
[2021-01-29 10:47:26.147] $GPGGA,,,,,,,,,,M,,M,,*56
[2021-01-29 10:47:26.147] $GPGGA,,,,,,,,,,M,,M,,*56
[2021-01-29 10:47:26.147] $GPGGA,,,,,,,,,,M,,M,,*56
[2021-01-29 10:47:26.147] $GPGGA,,,,,,,,,,M,,M,,*56
[2021-01-29 10:47:26.147] $GPGGA,,,,,,,,,,M,,M,,*56
[2021-01-29 10:47:26.147] $GPGGA,,,,,,,,,,M,,M,,*56
[2021-01-29 10:47:26.147] $GPGGA,,,,,,,,,,M,,M,,*56
[2021-01-29 10:47:26.147] $GPGGA,,,,,,,,,,M,,M,,*56
[2021-01-29 10:47:26.147] $GPGGA,,,,,,,,,,M,,M,,*56
[2021-01-29 10:47:26.147] $GPGGA,,,,,,,,,,M,,M,,*56
[2021-01-29 10:47:26.147] $GPGGA,,,,,,,,,,M,,M,,*56
[2021-01-29 10:47:26.147] $GPGGA,,,,,,,,,,M,,M,,*56
[2021-01-29 10:47:26.147] $GPGGA,,,,,,,,,,M,,M,,*56
[2021-01-29 10:47:26.147] $GPGGA,,,,,,,,,,M,,M,,*56
[2021-01-29 10:47:26.147] $GPGGA,,,,,,,,,,M,,M,,*56
[2021-01-29 10:47:26.147] $GPGGA,,,,,,,,,,M,,M,,*56
[2021-01-29 10:47:26.147] $GPGGA,,,,,,,,,,M,,M,,*56
[2021-01-29 10:47:26.147] $GPGGA,,,,,,,,,,M,,M,,*56
[2021-01-29 10:47:26.147] $GPGGA,,,,,,,,,,M,,M,,*56
[2021-01-29 10:47:26.147] $GPGGA,,,,,,,,,,M,,M,,*56
[2021-01-29 10:47:26.147] $GPGGA,,,,,,,,,,M,,M,,*56
[2021-01-29 10:47:26.147] $GPGGA,,,,,,,,,,M,,M,,*56
[2021-01-29 10:47:26.147] $GPGGA,,,,,,,,,,M,,M,,*56
[2021-01-29 10:47:26.147] $GPGGA,,,,,,,,,,M,,M,,*56
[2021-01-29 10:47:26.178] $GPGGA,,,,,,,,,,M,,M,,*56
[2021-01-29 10:47:26.178] $GPGGA,,,,,,,,,,M,,M,,*56
[2021-01-29 10:47:26.178] $GPGGA,,,,,,,,,,M,,M,,*56
[2021-01-29 10:47:26.178] $GPGGA,,,,,,,,,,M,,M,,*56
[2021-01-29 10:47:26.178] $GPGGA,,,,,,,,,,M,,M,,*56
[2021-01-29 10:47:26.178] $GPGGA,,,,,,,,,,M,,M,,*56
[2021-01-29 10:47:26.178] $GPGGA,,,,,,,,,,M,,M,,*56
[2021-01-29 10:47:26.178] $GPGGA,,,,,,,,,,M,,M,,*56
[2021-01-29 10:47:26.178] $GPGGA,,,,,,,,,,M,,M,,*56
[2021-01-29 10:47:26.178] $GPGGA,,,,,,,,,,M,,M,,*56
[2021-01-29 10:47:26.178] $GPGGA,,,,,,,,,,M,,M,,*56
[2021-01-29 10:47:26.178] $GPGGA,,,,,,,,,,M,,M,,*56
[2021-01-29 10:47:26.178] $GPGGA,,,,,,,,,,M,,M,,*56
[2021-01-29 10:47:26.178] $GPGGA,,,,,,,,,,M,,M,,*56
[2021-01-29 10:47:26.178] $GPGGA,,,,,,,,,,M,,M,,*56
[2021-01-29 10:47:26.178] $GPGGA,,,,,,,,,,M,,M,,*56
[2021-01-29 10:47:26.178] $GPGGA,,,,,,,,,,M,,M,,*56
[2021-01-29 10:47:26.178] $GPGGA,,,,,,,,,,M,,M,,*56
[2021-01-29 10:47:26.178] $GPGGA,,,,,,,,,,M,,M,,*56
[2021-01-29 10:47:26.178] $GPGGA,,,,,,,,,,M,,M,,*56
[2021-01-29 10:47:26.178] $GPGGA,,,,,,,,,,M,,M,,*56
[2021-01-29 10:47:26.178] $GPGGA,,,,,,,,,,M,,M,,*56
[2021-01-29 10:47:26.178] $GPGGA,,,,,,,,,,M,,M,,*56
[2021-01-29 10:47:26.178] $GPGGA,,,,,,,,,,M,,M,,*56
[2021-01-29 10:47:26.178] $GPGGA,,,,,,,,,,M,,M,,*56
[2021-01-29 10:47:26.178] $GPGGA,,,,,,,,,,M,,M,,*56
[2021-01-29 10:47:26.178] $GPGGA,,,,,,,,,,M,,M,,*56
[2021-01-29 10:47:26.178] $GPGGA,,,,,,,,,,M,,M,,*56
[2021-01-29 10:47:26.178] $GPGGA,,,,,,,,,,M,,M,,*56
[2021-01-29 10:47:26.178] $GPGGA,,,,,,,,,,M,,M,,*56
[2021-01-29 10:47:26.178] $GPGGA,,,,,,,,,,M,,M,,*56
[2021-01-29 10:47:26.178] $GPGGA,,,,,,,,,,M,,M,,*56
[2021-01-29 10:47:26.178] $GPGGA,,,,,,,,,,M,,M,,*56
[2021-01-29 10:47:26.178] $GPGGA,,,,,,,,,,M,,M,,*56
[2021-01-29 10:47:26.178] $GPGGA,,,,,,,,,,M,,M,,*56
[2021-01-29 10:47:26.178] $GPGGA,,,,,,,,,,M,,M,,*56
[2021-01-29 10:47:26.178] $GPGGA,,,,,,,,,,M,,M,,*56
[2021-01-29 10:47:26.178] $GPGGA,,,,,,,,,,M,,M,,*56
[2021-01-29 10:47:26.225] $GPGGA,,,,,,,,,,M,,M,,*56
[2021-01-29 10:47:26.225] $GPGGA,,,,,,,,,,M,,M,,*56
[2021-01-29 10:47:26.225] $GPGGA,,,,,,,,,,M,,M,,*56
[2021-01-29 10:47:26.225] $GPGGA,,,,,,,,,,M,,M,,*56
[2021-01-29 10:47:26.225] $GPGGA,,,,,,,,,,M,,M,,*56
[2021-01-29 10:47:26.225] $GPGGA,,,,,,,,,,M,,M,,*56
[2021-01-29 10:47:26.225] $GPGGA,,,,,,,,,,M,,M,,*56
[2021-01-29 10:47:26.225] $GPGGA,,,,,,,,,,M,,M,,*56
[2021-01-29 10:47:26.225] $GPGGA,,,,,,,,,,M,,M,,*56
[2021-01-29 10:47:26.225] $GPGGA,,,,,,,,,,M,,M,,*56
[2021-01-29 10:47:26.225] $GPGGA,,,,,,,,,,M,,M,,*56
[2021-01-29 10:47:26.225] $GPGGA,,,,,,,,,,M,,M,,*56
[2021-01-29 10:47:26.225] $GPGGA,,,,,,,,,,M,,M,,*56
[2021-01-29 10:47:26.225] $GPGGA,,,,,,,,,,M,,M,,*56
[2021-01-29 10:47:26.225] $GPGGA,,,,,,,,,,M,,M,,*56
[2021-01-29 10:47:26.225] $GPGGA,,,,,,,,,,M,,M,,*56
[2021-01-29 10:47:26.225] $GPGGA,,,,,,,,,,M,,M,,*56
[2021-01-29 10:47:26.225] $GPGGA,,,,,,,,,,M,,M,,*56
[2021-01-29 10:47:26.225] $GPGGA,,,,,,,,,,M,,M,,*56
[2021-01-29 10:47:26.225] $GPGGA,,,,,,,,,,M,,M,,*56
[2021-01-29 10:47:26.225] $GPGGA,,,,,,,,,,M,,M,,*56
[2021-01-29 10:47:26.225] $GPGGA,,,,,,,,,,M,,M,,*56
[2021-01-29 10:47:26.225] $GPGGA,,,,,,,,,,M,,M,,*56
[2021-01-29 10:47:26.225] $GPGGA,,,,,,,,,,M,,M,,*56
[2021-01-29 10:47:26.225] $GPGGA,,,,,,,,,,M,,M,,*56
[2021-01-29 10:47:26.225] $GPGGA,,,,,,,,,,M,,M,,*56
[2021-01-29 10:47:26.225] $GPGGA,,,,,,,,,,M,,M,,*56
[2021-01-29 10:47:26.225] $GPGGA,,,,,,,,,,M,,M,,*56
[2021-01-29 10:47:26.225] $GPGGA,,,,,,,,,,M,,M,,*56
[2021-01-29 10:47:26.225] $GPGGA,,,,,,,,,,M,,M,,*56
[2021-01-29 10:47:26.225] $GPGGA,,,,,,,,,,M,,M,,*56
[2021-01-29 10:47:26.225] $GPGGA,,,,,,,,,,M,,M,,*56
[2021-01-29 10:47:26.225] $GPGGA,,,,,,,,,,M,,M,,*56
[2021-01-29 10:47:26.225] $GPGGA,,,,,,,,,,M,,M,,*56
[2021-01-29 10:47:26.225] $GPGGA,,,,,,,,,,M,,M,,*56
[2021-01-29 10:47:26.225] $GPGGA,,,,,,,,,,M,,M,,*56
[2021-01-29 10:47:26.225] $GPGGA,,,,,,,,,,M,,M,,*56
[2021-01-29 10:47:26.256] $GPGGA,,,,,,,,,,M,,M,,*56
[2021-01-29 10:47:26.256] $GPGGA,,,,,,,,,,M,,M,,*56
[2021-01-29 10:47:26.256] $GPGGA,,,,,,,,,,M,,M,,*56
[2021-01-29 10:47:26.256] $GPGGA,,,,,,,,,,M,,M,,*56
[2021-01-29 10:47:26.256] $GPGGA,,,,,,,,,,M,,M,,*56
[2021-01-29 10:47:26.256] $GPGGA,,,,,,,,,,M,,M,,*56
[2021-01-29 10:47:26.256] $GPGGA,,,,,,,,,,M,,M,,*56
[2021-01-29 10:47:26.256] $GPGGA,,,,,,,,,,M,,M,,*56
[2021-01-29 10:47:26.256] $GPGGA,,,,,,,,,,M,,M,,*56
[2021-01-29 10:47:26.256] $GPGGA,,,,,,,,,,M,,M,,*56
[2021-01-29 10:47:26.256] $GPGGA,,,,,,,,,,M,,M,,*56
[2021-01-29 10:47:26.256] $GPGGA,,,,,,,,,,M,,M,,*56
[2021-01-29 10:47:26.256] $GPGGA,,,,,,,,,,M,,M,,*56
[2021-01-29 10:47:26.256] $GPGGA,,,,,,,,,,M,,M,,*56
[2021-01-29 10:47:26.256] $GPGGA,,,,,,,,,,M,,M,,*56
[2021-01-29 10:47:26.256] $GPGGA,,,,,,,,,,M,,M,,*56
[2021-01-29 10:47:26.256] $GPGGA,,,,,,,,,,M,,M,,*56
[2021-01-29 10:47:26.256] $GPGGA,,,,,,,,,,M,,M,,*56
[2021-01-29 10:47:26.256] $GPGGA,,,,,,,,,,M,,M,,*56
[2021-01-29 10:47:26.256] $GPGGA,,,,,,,,,,M,,M,,*56
[2021-01-29 10:47:26.256] $GPGGA,,,,,,,,,,M,,M,,*56
[2021-01-29 10:47:26.256] $GPGGA,,,,,,,,,,M,,M,,*56
[2021-01-29 10:47:26.256] $GPGGA,,,,,,,,,,M,,M,,*56
[2021-01-29 10:47:26.256] $GPGGA,,,,,,,,,,M,,M,,*56
[2021-01-29 10:47:26.256] $GPGGA,,,,,,,,,,M,,M,,*56
[2021-01-29 10:47:26.256] $GPGGA,,,,,,,,,,M,,M,,*56
[2021-01-29 10:47:26.256] $GPGGA,,,,,,,,,,M,,M,,*56
[2021-01-29 10:47:26.256] $GPGGA,,,,,,,,,,M,,M,,*56
[2021-01-29 10:47:26.256] $GPGGA,,,,,,,,,,M,,M,,*56
[2021-01-29 10:47:26.256] $GPGGA,,,,,,,,,,M,,M,,*56
[2021-01-29 10:47:26.256] $GPGGA,,,,,,,,,,M,,M,,*56
[2021-01-29 10:47:26.256] $GPGGA,,,,,,,,,,M,,M,,*56
[2021-01-29 10:47:26.256] $GPGGA,,,,,,,,,,M,,M,,*56
[2021-01-29 10:47:26.256] $GPGGA,,,,,,,,,,M,,M,,*56
[2021-01-29 10:47:26.256] $GPGGA,,,,,,,,,,M,,M,,*56
[2021-01-29 10:47:26.256] $GPGGA,,,,,,,,,,M,,M,,*56
[2021-01-29 10:47:26.256] $GPGGA,,,,,,,,,,M,,M,,*56
[2021-01-29 10:47:26.256] $GPGGA,,,,,,,,,,M,,M,,*56
[2021-01-29 10:47:26.274] $GPGGA,,,,,,,,,,M,,M,,*56
[2021-01-29 10:47:26.400] $GPGGA,,,,,,,,,,M,,M,,*56
[2021-01-29 10:47:26.588] $GPGGA,,,,,,,,,,M,,M,,*56
[2021-01-29 10:47:26.791] $GPGGA,,,,,,,,,,M,,M,,*56
[2021-01-29 10:47:26.978] $GPGGA,,,,,,,,,,M,,M,,*56
[2021-01-29 10:47:27.197] $GPGGA,,,,,,,,,,M,,M,,*56
[2021-01-29 10:47:27.384] $GPGGA,,,,,,,,,,M,,M,,*56
[2021-01-29 10:47:27.587] $GPGGA,,,,,,,,,,M,,M,,*56
[2021-01-29 10:47:27.790] $GPGGA,,,,,,,,,,M,,M,,*56
[2021-01-29 10:47:28.040] $GPGGA,,,,,,,,,,M,,M,,*56
[2021-01-29 10:47:28.180] $GPGGA,,,,,,,,,,M,,M,,*56
[2021-01-29 10:47:28.386] $GPGGA,,,,,,,,,,M,,M,,*56
[2021-01-29 10:47:28.589] $GPGGA,,,,,,,,,,M,,M,,*56
[2021-01-29 10:47:28.792] $GPGGA,,,,,,,,,,M,,M,,*56
[2021-01-29 10:47:28.979] $GPGGA,,,,,,,,,,M,,M,,*56
[2021-01-29 10:47:29.182] $GPGGA,,,,,,,,,,M,,M,,*56
[2021-01-29 10:47:29.389] $GPGGA,,,,,,,,,,M,,M,,*56
[2021-01-29 10:47:29.592] $GPGGA,,,,,,,,,,M,,M,,*56
[2021-01-29 10:47:29.779] $GPGGA,,,,,,,,,,M,,M,,*56
[2021-01-29 10:47:29.982] $GPGGA,,,,,,,,,,M,,M,,*56
[2021-01-29 10:47:30.185] $GPGGA,,,,,,,,,,M,,M,,*56
[2021-01-29 10:47:30.387] $GPGGA,,,,,,,,,,M,,M,,*56
[2021-01-29 10:47:30.575] $GPGGA,,,,,,,,,,M,,M,,*56
[2021-01-29 10:47:32.344] $GPGGA,,,,,,,,,,M,,M,,*56
[2021-01-29 10:47:32.344] $GPGGA,,,,,,,,,,M,,M,,*56
[2021-01-29 10:47:32.344] $GPGGA,,,,,,,,,,M,,M,,*56
[2021-01-29 10:47:32.344] $GPGGA,,,,,,,,,,M,,M,,*56
[2021-01-29 10:47:32.344] $GPGGA,,,,,,,,,,M,,M,,*56
[2021-01-29 10:47:32.344] $GPGGA,,,,,,,,,,M,,M,,*56
[2021-01-29 10:47:32.344] $GPGGA,,,,,,,,,,M,,M,,*56
[2021-01-29 10:47:32.344] $GPGGA,,,,,,,,,,M,,M,,*56
[2021-01-29 10:47:32.391] $GPGGA,,,,,,,,,,M,,M,,*56
[2021-01-29 10:47:32.578] $GPGGA,,,,,,,,,,M,,M,,*56
[2021-01-29 10:47:32.781] $GPGGA,,,,,,,,,,M,,M,,*56
[2021-01-29 10:47:32.984] $GPGGA,,,,,,,,,,M,,M,,*56
[2021-01-29 10:47:33.187] $GPGGA,,,,,,,,,,M,,M,,*56
[2021-01-29 10:47:33.376] $GPGGA,,,,,,,,,,M,,M,,*56
[2021-01-29 10:47:33.580] $GPGGA,,,,,,,,,,M,,M,,*56
[2021-01-29 10:47:33.783] $GPGGA,,,,,,,,,,M,,M,,*56
[2021-01-29 10:47:33.986] $GPGGA,,,,,,,,,,M,,M,,*56
[2021-01-29 10:47:34.189] $GPGGA,,,,,,,,,,M,,M,,*56
[2021-01-29 10:47:34.394] $GPGGA,,,,,,,,,,M,,M,,*56
[2021-01-29 10:47:34.581] $GPGGA,,,,,,,,,,M,,M,,*56
[2021-01-29 10:47:34.784] $GPGGA,,,,,,,,,,M,,M,,*56
[2021-01-29 10:47:34.972] $GPGGA,,,,,,,,,,M,,M,,*56
[2021-01-29 10:47:35.191] $GPGGA,,,,,,,,,,M,,M,,*56
[2021-01-29 10:47:35.381] $GPGGA,,,,,,,,,,M,,M,,*56
[2021-01-29 10:47:35.584] $GPGGA,,,,,,,,,,M,,M,,*56
[2021-01-29 10:47:35.771] $GPGGA,,,,,,,,,,M,,M,,*56
[2021-01-29 10:47:35.990] $GPGGA,,,,,,,,,,M,,M,,*56
[2021-01-29 10:47:36.177] $GPGGA,,,,,,,,,,M,,M,,*56
[2021-01-29 10:47:36.381] $GPGGA,,,,,,,,,,M,,M,,*56
[2021-01-29 10:47:36.580] $GPGGA,,,,,,,,,,M,,M,,*56
[2021-01-29 10:47:36.776] $GPGGA,,,,,,,,,,M,,M,,*56
[2021-01-29 10:47:36.979] $GPGGA,,,,,,,,,,M,,M,,*56
[2021-01-29 10:47:37.182] $GPGGA,,,,,,,,,,M,,M,,*56
[2021-01-29 10:47:37.370] $GPGGA,,,,,,,,,,M,,M,,*56
[2021-01-29 10:47:37.589] $GPGGA,,,,,,,,,,M,,M,,*56
[2021-01-29 10:47:37.776] $GPGGA,,,,,,,,,,M,,M,,*56
[2021-01-29 10:47:37.979] $GPGGA,,,,,,,,,,M,,M,,*56
[2021-01-29 10:47:38.182] $GPGGA,,,,,,,,,,M,,M,,*56
[2021-01-29 10:47:38.385] $GPGGA,,,,,,,,,,M,,M,,*56
[2021-01-29 10:47:38.572] $GPGGA,,,,,,,,,,M,,M,,*56
[2021-01-29 10:47:38.775] $GPGGA,,,,,,,,,,M,,M,,*56
[2021-01-29 10:47:38.979] $GPGGA,,,,,,,,,,M,,M,,*56
[2021-01-29 10:47:39.182] $GPGGA,,,,,,,,,,M,,M,,*56
[2021-01-29 10:47:39.372] $GPGGA,,,,,,,,,,M,,M,,*56
[2021-01-29 10:47:39.590] $GPGGA,,,,,,,,,,M,,M,,*56
[2021-01-29 10:47:39.778] $GPGGA,,,,,,,,,,M,,M,,*56
[2021-01-29 10:47:39.981] $GPGGA,,,,,,,,,,M,,M,,*56
[2021-01-29 10:47:40.184] $GPGGA,,,,,,,,,,M,,M,,*56
[2021-01-29 10:47:40.387] $GPGGA,,,,,,,,,,M,,M,,*56
[2021-01-29 10:47:40.575] $GPGGA,,,,,,,,,,M,,M,,*56
[2021-01-29 10:47:40.778] $GPGGA,,,,,,,,,,M,,M,,*56
[2021-01-29 10:47:40.981] $GPGGA,,,,,,,,,,M,,M,,*56
[2021-01-29 10:47:41.184] $GPGGA,,,,,,,,,,M,,M,,*56
[2021-01-29 10:47:41.373] $GPGGA,,,,,,,,,,M,,M,,*56
[2021-01-29 10:47:41.576] $GPGGA,,,,,,,,,,M,,M,,*56
[2021-01-29 10:47:41.779] $GPGGA,,,,,,,,,,M,,M,,*56
[2021-01-29 10:47:41.982] $GPGGA,,,,,,,,,,M,,M,,*56
[2021-01-29 10:47:42.170] $GPGGA,,,,,,,,,,M,,M,,*56
[2021-01-29 10:47:42.374] $GPGGA,,,,,,,,,,M,,M,,*56
[2021-01-29 10:47:42.578] $GPGGA,,,,,,,,,,M,,M,,*56
[2021-01-29 10:47:42.781] $GPGGA,,,,,,,,,,M,,M,,*56
[2021-01-29 10:47:42.984] $GPGGA,,,,,,,,,,M,,M,,*56
[2021-01-29 10:47:43.187] $GPGGA,,,,,,,,,,M,,M,,*56
[2021-01-29 10:47:43.376] $GPGGA,,,,,,,,,,M,,M,,*56
[2021-01-29 10:47:43.579] $GPGGA,,,,,,,,,,M,,M,,*56
[2021-01-29 10:47:43.782] $GPGGA,,,,,,,,,,M,,M,,*56
[2021-01-29 10:47:43.985] $GPGGA,,,,,,,,,,M,,M,,*56
[2021-01-29 10:47:44.173] $GPGGA,,,,,,,,,,M,,M,,*56
[2021-01-29 10:47:44.378] $GPGGA,,,,,,,,,,M,,M,,*56
[2021-01-29 10:47:44.581] $GPGGA,,,,,,,,,,M,,M,,*56
[2021-01-29 10:47:44.784] $GPGGA,,,,,,,,,,M,,M,,*56
[2021-01-29 10:47:44.971] $GPGGA,,,,,,,,,,M,,M,,*56
[2021-01-29 10:47:45.174] $GPGGA,,,,,,,,,,M,,M,,*56
[2021-01-29 10:47:45.383] $GPGGA,,,,,,,,,,M,,M,,*56
[2021-01-29 10:47:45.586] $GPGGA,,,,,,,,,,M,,M,,*56
[2021-01-29 10:47:45.773] $GPGGA,,,,,,,,,,M,,M,,*56
[2021-01-29 10:47:45.992] $GPGGA,,,,,,,,,,M,,M,,*56
[2021-01-29 10:47:46.180] $GPGGA,,,,,,,,,,M,,M,,*56
[2021-01-29 10:47:46.383] $GPGGA,,,,,,,,,,M,,M,,*56
[2021-01-29 10:47:46.586] $GPGGA,,,,,,,,,,M,,M,,*56
[2021-01-29 10:47:46.774] $GPGGA,,,,,,,,,,M,,M,,*56
[2021-01-29 10:47:46.977] $GPGGA,,,,,,,,,,M,,M,,*56
[2021-01-29 10:47:47.180] $GPGGA,,,,,,,,,,M,,M,,*56
[2021-01-29 10:47:47.383] $GPGGA,,,,,,,,,,M,,M,,*56
[2021-01-29 10:47:47.586] $GPGGA,,,,,,,,,,M,,M,,*56
[2021-01-29 10:47:47.773] $GPGGA,,,,,,,,,,M,,M,,*56
[2021-01-29 10:47:47.977] $GPGGA,,,,,,,,,,M,,M,,*56
[2021-01-29 10:47:48.195] $GPGGA,,,,,,,,,,M,,M,,*56
[2021-01-29 10:47:48.385] $GPGGA,,,,,,,,,,M,,M,,*56
[2021-01-29 10:47:48.588] $GPGGA,,,,,,,,,,M,,M,,*56
[2021-01-29 10:47:48.775] $GPGGA,,,,,,,,,,M,,M,,*56
[2021-01-29 10:47:48.994] $GPGGA,,,,,,,,,,M,,M,,*56
[2021-01-29 10:47:49.181] $GPGGA,,,,,,,,,,M,,M,,*56
[2021-01-29 10:47:49.386] $GPGGA,,,,,,,,,,M,,M,,*56
[2021-01-29 10:47:49.574] $GPGGA,,,,,,,,,,M,,M,,*56
[2021-01-29 10:47:49.792] $GPGGA,,,,,,,,,,M,,M,,*56
[2021-01-29 10:47:49.980] $GPGGA,,,,,,,,,,M,,M,,*56
[2021-01-29 10:47:50.183] $GPGGA,,,,,,,,,,M,,M,,*56
[2021-01-29 10:47:50.387] $GPGGA,,,,,,,,,,M,,M,,*56
[2021-01-29 10:47:50.591] $GPGGA,,,,,,,,,,M,,M,,*56
[2021-01-29 10:47:50.778] $GPGGA,,,,,,,,,,M,,M,,*56
[2021-01-29 10:47:50.997] $GPGGA,,,,,,,,,,M,,M,,*56
[2021-01-29 10:47:51.184] $GPGGA,,,,,,,,,,M,,M,,*56
[2021-01-29 10:47:51.389] $GPGGA,,,,,,,,,,M,,M,,*56
[2021-01-29 10:47:51.577] $GPGGA,,,,,,,,,,M,,M,,*56
[2021-01-29 10:47:51.795] $GPGGA,,,,,,,,,,M,,M,,*56
[2021-01-29 10:47:51.983] $GPGGA,,,,,,,,,,M,,M,,*56
[2021-01-29 10:47:52.186] $GPGGA,,,,,,,,,,M,,M,,*56
[2021-01-29 10:47:52.374] $GPGGA,,,,,,,,,,M,,M,,*56
[2021-01-29 10:47:52.593] $GPGGA,,,,,,,,,,M,,M,,*56
[2021-01-29 10:47:52.780] $GPGGA,,,,,,,,,,M,,M,,*56
[2021-01-29 10:47:52.983] $GPGGA,,,,,,,,,,M,,M,,*56
[2021-01-29 10:47:53.186] $GPGGA,,,,,,,,,,M,,M,,*56
[2021-01-29 10:47:53.391] $GPGGA,,,,,,,,,,M,,M,,*56
[2021-01-29 10:47:53.578] $GPGGA,,,,,,,,,,M,,M,,*56
[2021-01-29 10:47:53.782] $GPGGA,,,,,,,,,,M,,M,,*56
[2021-01-29 10:47:53.985] $GPGGA,,,,,,,,,,M,,M,,*56
[2021-01-29 10:47:54.188] $GPGGA,,,,,,,,,,M,,M,,*56
[2021-01-29 10:47:54.378] $GPGGA,,,,,,,,,,M,,M,,*56
[2021-01-29 10:47:54.581] $GPGGA,,,,,,,,,,M,,M,,*56
[2021-01-29 10:47:54.784] $GPGGA,,,,,,,,,,M,,M,,*56
[2021-01-29 10:47:54.987] $GPGGA,,,,,,,,,,M,,M,,*56
[2021-01-29 10:47:55.175] $GPGGA,,,,,,,,,,M,,M,,*56
[2021-01-29 10:47:55.381] $GPGGA,,,,,,,,,,M,,M,,*56
[2021-01-29 10:47:55.584] $GPGGA,,,,,,,,,,M,,M,,*56
[2021-01-29 10:47:55.788] $GPGGA,,,,,,,,,,M,,M,,*56
[2021-01-29 10:47:55.975] $GPGGA,,,,,,,,,,M,,M,,*56
[2021-01-29 10:47:56.194] $GPGGA,,,,,,,,,,M,,M,,*56
[2021-01-29 10:47:56.381] $GPGGA,,,,,,,,,,M,,M,,*56
[2021-01-29 10:47:56.584] $GPGGA,,,,,,,,,,M,,M,,*56
[2021-01-29 10:47:56.787] $GPGGA,,,,,,,,,,M,,M,,*56
[2021-01-29 10:47:56.990] $GPGGA,,,,,,,,,,M,,M,,*56
[2021-01-29 10:47:57.177] $GPGGA,,,,,,,,,,M,,M,,*56
[2021-01-29 10:47:57.382] $GPGGA,,,,,,,,,,M,,M,,*56
[2021-01-29 10:47:57.585] $GPGGA,,,,,,,,,,M,,M,,*56
[2021-01-29 10:47:57.788] $GPGGA,,,,,,,,,,M,,M,,*56
[2021-01-29 10:47:57.976] $GPGGA,,,,,,,,,,M,,M,,*56
[2021-01-29 10:47:58.195] $GPGGA,,,,,,,,,,M,,M,,*56
[2021-01-29 10:47:58.383] $GPGGA,,,,,,,,,,M,,M,,*56
[2021-01-29 10:47:58.587] $GPGGA,,,,,,,,,,M,,M,,*56
[2021-01-29 10:47:58.774] $GPGGA,,,,,,,,,,M,,M,,*56
[2021-01-29 10:47:58.993] $GPGGA,,,,,,,,,,M,,M,,*56
[2021-01-29 10:47:59.180] $GPGGA,,,,,,,,,,M,,M,,*56
[2021-01-29 10:47:59.385] $GPGGA,,,,,,,,,,M,,M,,*56
[2021-01-29 10:47:59.573] $GPGGA,,,,,,,,,,M,,M,,*56
[2021-01-29 10:47:59.791] $GPGGA,,,,,,,,,,M,,M,,*56
[2021-01-29 10:47:59.979] $GPGGA,,,,,,,,,,M,,M,,*56
[2021-01-29 10:48:00.182] $GPGGA,,,,,,,,,,M,,M,,*56
[2021-01-29 10:48:00.387] $GPGGA,,,,,,,,,,M,,M,,*56
[2021-01-29 10:48:00.590] $GPGGA,,,,,,,,,,M,,M,,*56
[2021-01-29 10:48:00.778] $GPGGA,,,,,,,,,,M,,M,,*56
[2021-01-29 10:48:00.981] $GPGGA,,,,,,,,,,M,,M,,*56
[2021-01-29 10:48:01.184] $GPGGA,,,,,,,,,,M,,M,,*56
[2021-01-29 10:48:01.387] $GPGGA,,,,,,,,,,M,,M,,*56
[2021-01-29 10:48:01.575] $GPGGA,,,,,,,,,,M,,M,,*56
[2021-01-29 10:48:01.794] $GPGGA,,,,,,,,,,M,,M,,*56
[2021-01-29 10:48:01.981] $GPGGA,,,,,,,,,,M,,M,,*56
[2021-01-29 10:48:02.184] $GPGGA,,,,,,,,,,M,,M,,*56
[2021-01-29 10:48:02.374] $GPGGA,,,,,,,,,,M,,M,,*56
[2021-01-29 10:48:02.592] $GPGGA,,,,,,,,,,M,,M,,*56
[2021-01-29 10:48:02.780] $GPGGA,,,,,,,,,,M,,M,,*56
[2021-01-29 10:48:02.983] $GPGGA,,,,,,,,,,M,,M,,*56
[2021-01-29 10:48:03.186] $GPGGA,,,,,,,,,,M,,M,,*56
[2021-01-29 10:48:03.390] $GPGGA,,,,,,,,,,M,,M,,*56
[2021-01-29 10:48:03.578] $GPGGA,,,,,,,,,,M,,M,,*56
[2021-01-29 10:48:03.781] $GPGGA,,,,,,,,,,M,,M,,*56
[2021-01-29 10:48:03.984] $GPGGA,,,,,,,,,,M,,M,,*56
[2021-01-29 10:48:04.187] $GPGGA,,,,,,,,,,M,,M,,*56
[2021-01-29 10:48:04.377] $GPGGA,,,,,,,,,,M,,M,,*56
[2021-01-29 10:48:04.580] $GPGGA,,,,,,,,,,M,,M,,*56
[2021-01-29 10:48:04.784] $GPGGA,,,,,,,,,,M,,M,,*56
[2021-01-29 10:48:04.987] $GPGGA,,,,,,,,,,M,,M,,*56
[2021-01-29 10:48:05.174] $GPGGA,,,,,,,,,,M,,M,,*56
[2021-01-29 10:48:05.379] $GPGGA,,,,,,,,,,M,,M,,*56
[2021-01-29 10:48:05.582] $GPGGA,,,,,,,,,,M,,M,,*56
[2021-01-29 10:48:05.785] $GPGGA,,,,,,,,,,M,,M,,*56
[2021-01-29 10:48:05.973] $GPGGA,,,,,,,,,,M,,M,,*56
[2021-01-29 10:48:06.192] $GPGGA,,,,,,,,,,M,,M,,*56
[2021-01-29 10:48:06.380] $GPGGA,,,,,,,,,,M,,M,,*56
[2021-01-29 10:48:06.583] $GPGGA,,,,,,,,,,M,,M,,*56
[2021-01-29 10:48:06.771] $GPGGA,,,,,,,,,,M,,M,,*56
[2021-01-29 10:48:06.989] $GPGGA,,,,,,,,,,M,,M,,*56
[2021-01-29 10:48:07.177] $GPGGA,,,,,,,,,,M,,M,,*56
[2021-01-29 10:48:07.381] $GPGGA,,,,,,,,,,M,,M,,*56
[2021-01-29 10:48:07.585] $GPGGA,,,,,,,,,,M,,M,,*56
[2021-01-29 10:48:07.788] $GPGGA,,,,,,,,,,M,,M,,*56
[2021-01-29 10:48:07.975] $GPGGA,,,,,,,,,,M,,M,,*56
[2021-01-29 10:48:08.178] $GPGGA,,,,,,,,,,M,,M,,*56
[2021-01-29 10:48:08.383] $GPGGA,,,,,,,,,,M,,M,,*56
[2021-01-29 10:48:08.586] $GPGGA,,,,,,,,,,M,,M,,*56
[2021-01-29 10:48:08.774] $GPGGA,,,,,,,,,,M,,M,,*56
[2021-01-29 10:48:08.993] $GPGGA,,,,,,,,,,M,,M,,*56
[2021-01-29 10:48:09.180] $GPGGA,,,,,,,,,,M,,M,,*56
[2021-01-29 10:48:09.385] $GPGGA,,,,,,,,,,M,,M,,*56
[2021-01-29 10:48:09.572] $GPGGA,,,,,,,,,,M,,M,,*56
[2021-01-29 10:48:09.791] $GPGGA,,,,,,,,,,M,,M,,*56
[2021-01-29 10:48:09.978] $GPGGA,,,,,,,,,,M,,M,,*56
[2021-01-29 10:48:10.182] $GPGGA,,,,,,,,,,M,,M,,*56
[2021-01-29 10:48:10.371] $GPGGA,,,,,,,,,,M,,M,,*56
[2021-01-29 10:48:10.590] $GPGGA,,,,,,,,,,M,,M,,*56
[2021-01-29 10:48:10.777] $GPGGA,,,,,,,,,,M,,M,,*56
[2021-01-29 10:48:10.980] $GPGGA,,,,,,,,,,M,,M,,*56
[2021-01-29 10:48:11.183] $GPGGA,,,,,,,,,,M,,M,,*56
[2021-01-29 10:48:11.388] $GPGGA,,,,,,,,,,M,,M,,*56
[2021-01-29 10:48:11.575] $GPGGA,,,,,,,,,,M,,M,,*56
[2021-01-29 10:48:11.778] $GPGGA,,,,,,,,,,M,,M,,*56
[2021-01-29 10:48:11.981] $GPGGA,,,,,,,,,,M,,M,,*56
[2021-01-29 10:48:12.185] $GPGGA,,,,,,,,,,M,,M,,*56
[2021-01-29 10:48:12.373] $GPGGA,,,,,,,,,,M,,M,,*56
[2021-01-29 10:48:12.576] $GPGGA,,,,,,,,,,M,,M,,*56
[2021-01-29 10:48:12.779] $GPGGA,,,,,,,,,,M,,M,,*56
[2021-01-29 10:48:12.982] $GPGGA,,,,,,,,,,M,,M,,*56
[2021-01-29 10:48:13.169] $GPGGA,,,,,,,,,,M,,M,,*56
[2021-01-29 10:48:13.390] $GPGGA,,,,,,,,,,M,,M,,*56
[2021-01-29 10:48:13.577] $GPGGA,,,,,,,,,,M,,M,,*56
[2021-01-29 10:48:13.781] $GPGGA,,,,,,,,,,M,,M,,*56
[2021-01-29 10:48:13.968] $GPGGA,,,,,,,,,,M,,M,,*56
[2021-01-29 10:48:14.187] $GPGGA,,,,,,,,,,M,,M,,*56
[2021-01-29 10:48:14.376] $GPGGA,,,,,,,,,,M,,M,,*56
[2021-01-29 10:48:14.579] $GPGGA,,,,,,,,,,M,,M,,*56
[2021-01-29 10:48:14.782] $GPGGA,,,,,,,,,,M,,M,,*56
[2021-01-29 10:48:14.985] $GPGGA,,,,,,,,,,M,,M,,*56
[2021-01-29 10:48:15.173] $GPGGA,,,,,,,,,,M,,M,,*56
[2021-01-29 10:48:15.378] $GPGGA,,,,,,,,,,M,,M,,*56
[2021-01-29 10:48:15.581] $GPGGA,,,,,,,,,,M,,M,,*56
[2021-01-29 10:48:15.784] $GPGGA,,,,,,,,,,M,,M,,*56
[2021-01-29 10:48:15.972] $GPGGA,,,,,,,,,,M,,M,,*56
[2021-01-29 10:48:16.190] $GPGGA,,,,,,,,,,M,,M,,*56
[2021-01-29 10:48:16.379] $GPGGA,,,,,,,,,,M,,M,,*56
[2021-01-29 10:48:16.583] $GPGGA,,,,,,,,,,M,,M,,*56
[2021-01-29 10:48:16.770] $GPGGA,,,,,,,,,,M,,M,,*56
[2021-01-29 10:48:16.989] $GPGGA,,,,,,,,,,M,,M,,*56
[2021-01-29 10:48:17.176] $GPGGA,,,,,,,,,,M,,M,,*56
[2021-01-29 10:48:17.381] $GPGGA,,,,,,,,,,M,,M,,*56
[2021-01-29 10:48:17.568] $GPGGA,,,,,,,,,,M,,M,,*56
[2021-01-29 10:48:17.787] $GPGGA,,,,,,,,,,M,,M,,*56
[2021-01-29 10:48:17.975] $GPGGA,,,,,,,,,,M,,M,,*56
[2021-01-29 10:48:18.178] $GPGGA,,,,,,,,,,M,,M,,*56
[2021-01-29 10:48:18.367] $GPGGA,,,,,,,,,,M,,M,,*56
[2021-01-29 10:48:18.586] $GPGGA,,,,,,,,,,M,,M,,*56
[2021-01-29 10:48:18.789] $GPGGA,,,,,,,,,,M,,M,,*56
[2021-01-29 10:48:18.977] $GPGGA,,,,,,,,,,M,,M,,*56
[2021-01-29 10:48:19.195] $GPGGA,,,,,,,,,,M,,M,,*56
[2021-01-29 10:48:19.384] $GPGGA,,,,,,,,,,M,,M,,*56
[2021-01-29 10:48:19.572] $GPGGA,,,,,,,,,,M,,M,,*56
[2021-01-29 10:48:19.775] $GPGGA,,,,,,,,,,M,,M,,*56
[2021-01-29 10:48:19.978] $GPGGA,,,,,,,,,,M,,M,,*56
[2021-01-29 10:48:20.181] $GPGGA,,,,,,,,,,M,,M,,*56
[2021-01-29 10:48:20.386] $GPGGA,,,,,,,,,,M,,M,,*56
[2021-01-29 10:48:20.589] $GPGGA,,,,,,,,,,M,,M,,*56
[2021-01-29 10:48:20.777] $GPGGA,,,,,,,,,,M,,M,,*56
[2021-01-29 10:48:20.980] $GPGGA,,,,,,,,,,M,,M,,*56
[2021-01-29 10:48:21.167] $GPGGA,,,,,,,,,,M,,M,,*56
[2021-01-29 10:48:21.374] $GPGGA,,,,,,,,,,M,,M,,*56
[2021-01-29 10:48:21.592] $GPGGA,,,,,,,,,,M,,M,,*56
[2021-01-29 10:48:21.780] $GPGGA,,,,,,,,,,M,,M,,*56
[2021-01-29 10:48:21.967] $GPGGA,,,,,,,,,,M,,M,,*56
[2021-01-29 10:48:22.186] $GPGGA,,,,,,,,,,M,,M,,*56
[2021-01-29 10:48:22.388] $GPGGA,,,,,,,,,,M,,M,,*56
[2021-01-29 10:48:22.575] $GPGGA,,,,,,,,,,M,,M,,*56
[2021-01-29 10:48:22.794] $GPGGA,,,,,,,,,,M,,M,,*56
[2021-01-29 10:48:22.981] $GPGGA,,,,,,,,,,M,,M,,*56
[2021-01-29 10:48:23.185] $GPGGA,,,,,,,,,,M,,M,,*56
[2021-01-29 10:48:23.372] $GPGGA,,,,,,,,,,M,,M,,*56
[2021-01-29 10:48:23.580] $GPGGA,,,,,,,,,,M,,M,,*56
[2021-01-29 10:48:23.783] $GPGGA,,,,,,,,,,M,,M,,*56
[2021-01-29 10:48:23.986] $GPGGA,,,,,,,,,,M,,M,,*56
[2021-01-29 10:48:24.189] $GPGGA,,,,,,,,,,M,,M,,*56
[2021-01-29 10:48:24.392] $GPGGA,,,,,,,,,,M,,M,,*56
[2021-01-29 10:48:24.580] $GPGGA,,,,,,,,,,M,,M,,*56
[2021-01-29 10:48:24.783] $GPGGA,,,,,,,,,,M,,M,,*56
[2021-01-29 10:48:24.986] $GPGGA,,,,,,,,,,M,,M,,*56
[2021-01-29 10:48:25.189] $GPGGA,,,,,,,,,,M,,M,,*56
[2021-01-29 10:48:25.377] $GPGGA,,,,,,,,,,M,,M,,*56
[2021-01-29 10:48:25.581] $GPGGA,,,,,,,,,,M,,M,,*56
[2021-01-29 10:48:25.784] $GPGGA,,,,,,,,,,M,,M,,*56
[2021-01-29 10:48:25.987] $GPGGA,,,,,,,,,,M,,M,,*56
[2021-01-29 10:48:26.190] $GPGGA,,,,,,,,,,M,,M,,*56
[2021-01-29 10:48:26.381] $GPGGA,,,,,,,,,,M,,M,,*56
[2021-01-29 10:48:26.584] $GPGGA,,,,,,,,,,M,,M,,*56
[2021-01-29 10:48:26.787] $GPGGA,,,,,,,,,,M,,M,,*56
[2021-01-29 10:48:26.990] $GPGGA,,,,,,,,,,M,,M,,*56
[2021-01-29 10:48:27.193] $GPGGA,,,,,,,,,,M,,M,,*56
[2021-01-29 10:48:27.381] $GPGGA,,,,,,,,,,M,,M,,*56
[2021-01-29 10:48:27.584] $GPGGA,,,,,,,,,,M,,M,,*56
[2021-01-29 10:48:27.787] $GPGGA,,,,,,,,,,M,,M,,*56
[2021-01-29 10:48:27.990] $GPGGA,,,,,,,,,,M,,M,,*56
[2021-01-29 10:48:28.178] $GPGGA,,,,,,,,,,M,,M,,*56
[2021-01-29 10:48:28.382] $GPGGA,,,,,,,,,,M,,M,,*56
[2021-01-29 10:48:28.585] $GPGGA,,,,,,,,,,M,,M,,*56
[2021-01-29 10:48:28.788] $GPGGA,,,,,,,,,,M,,M,,*56
[2021-01-29 10:48:28.976] $GPGGA,,,,,,,,,,M,,M,,*56
[2021-01-29 10:48:29.195] $GPGGA,,,,,,,,,,M,,M,,*56
[2021-01-29 10:48:29.384] $GPGGA,,,,,,,,,,M,,M,,*56
[2021-01-29 10:48:29.587] $GPGGA,,,,,,,,,,M,,M,,*56
[2021-01-29 10:48:29.774] $GPGGA,,,,,,,,,,M,,M,,*56
[2021-01-29 10:48:29.993] $GPGGA,,,,,,,,,,M,,M,,*56
[2021-01-29 10:48:30.181] $GPGGA,,,,,,,,,,M,,M,,*56
[2021-01-29 10:48:30.386] $GPGGA,,,,,,,,,,M,,M,,*56
[2021-01-29 10:48:30.573] $GPGGA,,,,,,,,,,M,,M,,*56
[2021-01-29 10:48:30.792] $GPGGA,,,,,,,,,,M,,M,,*56
[2021-01-29 10:48:30.979] $GPGGA,,,,,,,,,,M,,M,,*56
[2021-01-29 10:48:31.182] $GPGGA,,,,,,,,,,M,,M,,*56
[2021-01-29 10:48:31.387] $GPGGA,,,,,,,,,,M,,M,,*56
[2021-01-29 10:48:31.590] $GPGGA,,,,,,,,,,M,,M,,*56
[2021-01-29 10:48:31.777] $GPGGA,,,,,,,,,,M,,M,,*56
[2021-01-29 10:48:31.981] $GPGGA,,,,,,,,,,M,,M,,*56
[2021-01-29 10:48:32.184] $GPGGA,,,,,,,,,,M,,M,,*56
[2021-01-29 10:48:32.387] $GPGGA,,,,,,,,,,M,,M,,*56
[2021-01-29 10:48:32.575] $GPGGA,,,,,,,,,,M,,M,,*56
[2021-01-29 10:48:32.793] $GPGGA,,,,,,,,,,M,,M,,*56
[2021-01-29 10:48:32.981] $GPGGA,,,,,,,,,,M,,M,,*56
[2021-01-29 10:48:33.184] $GPGGA,,,,,,,,,,M,,M,,*56
[2021-01-29 10:48:33.373] $GPGGA,,,,,,,,,,M,,M,,*56
[2021-01-29 10:48:33.592] $GPGGA,,,,,,,,,,M,,M,,*56
[2021-01-29 10:48:33.779] $GPGGA,,,,,,,,,,M,,M,,*56
[2021-01-29 10:48:33.983] $GPGGA,,,,,,,,,,M,,M,,*56
[2021-01-29 10:48:34.186] $GPGGA,,,,,,,,,,M,,M,,*56
[2021-01-29 10:48:34.391] $GPGGA,,,,,,,,,,M,,M,,*56
[2021-01-29 10:48:34.578] $GPGGA,,,,,,,,,,M,,M,,*56
[2021-01-29 10:48:34.781] $GPGGA,,,,,,,,,,M,,M,,*56
[2021-01-29 10:48:34.984] $GPGGA,,,,,,,,,,M,,M,,*56
[2021-01-29 10:48:35.188] $GPGGA,,,,,,,,,,M,,M,,*56
[2021-01-29 10:48:35.377] $GPGGA,,,,,,,,,,M,,M,,*56
[2021-01-29 10:48:35.580] $GPGGA,,,,,,,,,,M,,M,,*56
[2021-01-29 10:48:35.783] $GPGGA,,,,,,,,,,M,,M,,*56
[2021-01-29 10:48:35.986] $GPGGA,,,,,,,,,,M,,M,,*56
[2021-01-29 10:48:36.189] $GPGGA,,,,,,,,,,M,,M,,*56
[2021-01-29 10:48:36.379] $GPGGA,,,,,,,,,,M,,M,,*56
[2021-01-29 10:48:36.582] $GPGGA,,,,,,,,,,M,,M,,*56
[2021-01-29 10:48:36.785] $GPGGA,,,,,,,,,,M,,M,,*56
[2021-01-29 10:48:36.972] $GPGGA,,,,,,,,,,M,,M,,*56
[2021-01-29 10:48:37.191] $GPGGA,,,,,,,,,,M,,M,,*56
[2021-01-29 10:48:37.380] $GPGGA,,,,,,,,,,M,,M,,*56
[2021-01-29 10:48:37.583] $GPGGA,,,,,,,,,,M,,M,,*56
[2021-01-29 10:48:37.786] $GPGGA,,,,,,,,,,M,,M,,*56
[2021-01-29 10:48:37.989] $GPGGA,,,,,,,,,,M,,M,,*56
[2021-01-29 10:48:38.177] $GPGGA,,,,,,,,,,M,,M,,*56
[2021-01-29 10:48:38.383] $GPGGA,,,,,,,,,,M,,M,,*56
[2021-01-29 10:48:38.586] $GPGGA,,,,,,,,,,M,,M,,*56
[2021-01-29 10:48:38.789] $GPGGA,,,,,,,,,,M,,M,,*56
[2021-01-29 10:48:38.976] $GPGGA,,,,,,,,,,M,,M,,*56
[2021-01-29 10:48:39.179] $GPGGA,,,,,,,,,,M,,M,,*56
[2021-01-29 10:48:39.383] $GPGGA,,,,,,,,,,M,,M,,*56
[2021-01-29 10:48:39.587] $GPGGA,,,,,,,,,,M,,M,,*56
[2021-01-29 10:48:39.774] $GPGGA,,,,,,,,,,M,,M,,*56
[2021-01-29 10:48:39.993] $GPGGA,,,,,,,,,,M,,M,,*56
[2021-01-29 10:48:40.180] $GPGGA,,,,,,,,,,M,,M,,*56
[2021-01-29 10:48:40.385] $GPGGA,,,,,,,,,,M,,M,,*56
[2021-01-29 10:48:40.588] $GPGGA,,,,,,,,,,M,,M,,*56
[2021-01-29 10:48:40.791] $GPGGA,,,,,,,,,,M,,M,,*56
[2021-01-29 10:48:40.979] $GPGGA,,,,,,,,,,M,,M,,*56
[2021-01-29 10:48:41.182] $GPGGA,,,,,,,,,,M,,M,,*56
[2021-01-29 10:48:41.372] $GPGGA,,,,,,,,,,M,,M,,*56
[2021-01-29 10:48:41.590] $GPGGA,,,,,,,,,,M,,M,,*56
[2021-01-29 10:48:41.778] $GPGGA,,,,,,,,,,M,,M,,*56
[2021-01-29 10:48:41.981] $GPGGA,,,,,,,,,,M,,M,,*56
[2021-01-29 10:48:42.184] $GPGGA,,,,,,,,,,M,,M,,*56
[2021-01-29 10:48:42.387] $GPGGA,,,,,,,,,,M,,M,,*56
[2021-01-29 10:48:42.574] $GPGGA,,,,,,,,,,M,,M,,*56
[2021-01-29 10:48:42.777] $GPGGA,,,,,,,,,,M,,M,,*56
[2021-01-29 10:48:42.981] $GPGGA,,,,,,,,,,M,,M,,*56
[2021-01-29 10:48:43.184] $GPGGA,,,,,,,,,,M,,M,,*56
[2021-01-29 10:48:43.373] $GPGGA,,,,,,,,,,M,,M,,*56
[2021-01-29 10:48:43.592] $GPGGA,,,,,,,,,,M,,M,,*56
[2021-01-29 10:48:43.779] $GPGGA,,,,,,,,,,M,,M,,*56
[2021-01-29 10:48:43.982] $GPGGA,,,,,,,,,,M,,M,,*56
[2021-01-29 10:48:44.185] $GPGGA,,,,,,,,,,M,,M,,*56
[2021-01-29 10:48:44.390] $GPGGA,,,,,,,,,,M,,M,,*56
[2021-01-29 10:48:44.577] $GPGGA,,,,,,,,,,M,,M,,*56
[2021-01-29 10:48:44.780] $GPGGA,,,,,,,,,,M,,M,,*56
[2021-01-29 10:48:44.983] $GPGGA,,,,,,,,,,M,,M,,*56
[2021-01-29 10:48:45.187] $GPGGA,,,,,,,,,,M,,M,,*56
[2021-01-29 10:48:45.376] $GPGGA,,,,,,,,,,M,,M,,*56
[2021-01-29 10:48:45.579] $GPGGA,,,,,,,,,,M,,M,,*56
[2021-01-29 10:48:45.782] $GPGGA,,,,,,,,,,M,,M,,*56
[2021-01-29 10:48:45.986] $GPGGA,,,,,,,,,,M,,M,,*56
[2021-01-29 10:48:46.173] $GPGGA,,,,,,,,,,M,,M,,*56
[2021-01-29 10:48:46.378] $GPGGA,,,,,,,,,,M,,M,,*56
[2021-01-29 10:48:46.596] $GPGGA,,,,,,,,,,M,,M,,*56
[2021-01-29 10:48:46.784] $GPGGA,,,,,,,,,,M,,M,,*56
[2021-01-29 10:48:46.971] $GPGGA,,,,,,,,,,M,,M,,*56
[2021-01-29 10:48:47.190] $GPGGA,,,,,,,,,,M,,M,,*56
[2021-01-29 10:48:47.380] $GPGGA,,,,,,,,,,M,,M,,*56
[2021-01-29 10:48:47.583] $GPGGA,,,,,,,,,,M,,M,,*56
[2021-01-29 10:48:47.770] $GPGGA,,,,,,,,,,M,,M,,*56
[2021-01-29 10:48:47.989] $GPGGA,,,,,,,,,,M,,M,,*56
[2021-01-29 10:48:48.177] $GPGGA,,,,,,,,,,M,,M,,*56
[2021-01-29 10:48:48.381] $GPGGA,,,,,,,,,,M,,M,,*56
[2021-01-29 10:48:48.569] $GPGGA,,,,,,,,,,M,,M,,*56
[2021-01-29 10:48:48.788] $GPGGA,,,,,,,,,,M,,M,,*56
[2021-01-29 10:48:48.975] $GPGGA,,,,,,,,,,M,,M,,*56
[2021-01-29 10:48:49.194] $GPGGA,,,,,,,,,,M,,M,,*56
[2021-01-29 10:48:49.382] $GPGGA,,,,,,,,,,M,,M,,*56
[2021-01-29 10:48:49.586] $GPGGA,,,,,,,,,,M,,M,,*56
[2021-01-29 10:48:49.773] $GPGGA,,,,,,,,,,M,,M,,*56
[2021-01-29 10:48:49.992] $GPGGA,,,,,,,,,,M,,M,,*56
[2021-01-29 10:48:50.195] $GPGGA,,,,,,,,,,M,,M,,*56
[2021-01-29 10:48:50.384] $GPGGA,,,,,,,,,,M,,M,,*56
[2021-01-29 10:48:50.572] $GPGGA,,,,,,,,,,M,,M,,*56
[2021-01-29 10:48:50.791] $GPGGA,,,,,,,,,,M,,M,,*56
[2021-01-29 10:48:50.978] $GPGGA,,,,,,,,,,M,,M,,*56
[2021-01-29 10:48:51.181] $GPGGA,,,,,,,,,,M,,M,,*56
[2021-01-29 10:48:51.386] $GPGGA,,,,,,,,,,M,,M,,*56
[2021-01-29 10:48:51.589] $GPGGA,,,,,,,,,,M,,M,,*56
[2021-01-29 10:48:51.777] $GPGGA,,,,,,,,,,M,,M,,*56
[2021-01-29 10:48:51.995] $GPGGA,014850.60,4327.75887656,N,14148.31194046,E,2,04,4.2,114.813,M,31.590,M,1.6,0157*4F
[2021-01-29 10:48:52.198] $GPGGA,014850.80,4327.75713191,N,14148.31323979,E,1,04,4.2,118.742,M,31.590,M,,*6A
[2021-01-29 10:48:52.293] $GPGGA,014850.90,4327.75712638,N,14148.31324386,E,1,04,4.2,118.755,M,31.590,M,,*65
[2021-01-29 10:48:52.403] $GNGGA,014851.00,4327.75897416,N,14148.31217139,E,2,05,2.9,115.368,M,31.590,M,2.0,0157*5F
[2021-01-29 10:48:52.497] $GPGGA,014851.10,4327.75897216,N,14148.31217219,E,2,04,2.9,115.367,M,31.590,M,1.1,0157*4B
[2021-01-29 10:48:52.590] $GPGGA,014851.20,4327.75890724,N,14148.31216281,E,2,04,4.2,115.396,M,31.590,M,1.2,0157*4B
[2021-01-29 10:48:52.700] $GPGGA,014851.30,4327.75891192,N,14148.31216341,E,2,04,4.2,115.386,M,31.590,M,1.3,0157*4D
[2021-01-29 10:48:52.793] $GPGGA,014851.40,4327.75891381,N,14148.31213869,E,2,04,4.2,115.278,M,31.590,M,1.4,0157*49
[2021-01-29 10:48:52.887] $GPGGA,014851.50,4327.75891323,N,14148.31213888,E,2,04,4.2,115.278,M,31.590,M,1.5,0157*4E
[2021-01-29 10:48:52.997] $GPGGA,014851.60,4327.75893271,N,14148.31211908,E,2,04,4.2,115.158,M,31.590,M,1.6,0157*40
[2021-01-29 10:48:53.090] $GPGGA,014851.70,4327.75893269,N,14148.31211893,E,2,04,4.2,115.154,M,31.590,M,1.7,0157*46
[2021-01-29 10:48:53.200] $GPGGA,014851.80,4327.75895003,N,14148.31210685,E,2,04,4.2,115.058,M,31.590,M,1.8,0157*4B
[2021-01-29 10:48:53.294] $GPGGA,014851.90,4327.75895012,N,14148.31210524,E,2,04,4.2,115.055,M,31.590,M,1.9,0157*4E
[2021-01-29 10:48:53.403] $GPGGA,014852.00,4327.75896115,N,14148.31209646,E,2,04,4.2,114.966,M,31.590,M,1.0,0157*4F
[2021-01-29 10:48:53.497] $GPGGA,014852.10,4327.75896392,N,14148.31209422,E,2,04,4.2,114.964,M,31.590,M,1.1,0157*40
[2021-01-29 10:48:53.591] $GPGGA,014852.20,4327.75896220,N,14148.31208431,E,2,04,4.2,114.900,M,31.590,M,1.2,0157*49
[2021-01-29 10:48:53.700] $GPGGA,014852.30,4327.75896244,N,14148.31208095,E,2,04,4.2,114.902,M,31.590,M,1.3,0157*43
[2021-01-29 10:48:53.794] $GPGGA,014852.40,4327.75895014,N,14148.31206749,E,2,04,4.2,114.860,M,31.590,M,1.4,0157*4A
[2021-01-29 10:48:53.888] $GPGGA,014852.50,4327.75895123,N,14148.31206582,E,2,04,4.2,114.849,M,31.590,M,1.5,0157*41
[2021-01-29 10:48:53.997] $GPGGA,014852.60,4327.75892583,N,14148.31205440,E,2,04,4.2,114.841,M,31.590,M,1.6,0157*4C
[2021-01-29 10:48:54.091] $GPGGA,014852.70,4327.75892922,N,14148.31205166,E,2,04,4.2,114.835,M,31.590,M,1.7,0157*49
[2021-01-29 10:48:54.200] $GPGGA,014852.80,4327.75888886,N,14148.31204296,E,2,04,4.2,114.857,M,31.590,M,1.8,0157*44
[2021-01-29 10:48:54.296] $GPGGA,014852.90,4327.75888754,N,14148.31204057,E,2,04,4.2,114.853,M,31.590,M,0.9,0157*4E
[2021-01-29 10:48:54.405] $GPGGA,014853.00,4327.75884214,N,14148.31203762,E,2,04,4.2,114.886,M,31.590,M,1.0,0157*4D
[2021-01-29 10:48:54.499] $GPGGA,014853.10,4327.75884317,N,14148.31203623,E,2,04,4.2,114.882,M,31.590,M,1.1,0157*4F
[2021-01-29 10:48:54.592] $GNGGA,014853.20,4327.75887821,N,14148.31207224,E,1,09,1.1,114.861,M,31.590,M,,*70
[2021-01-29 10:48:54.686] $GPGGA,014853.30,4327.75887941,N,14148.31207022,E,1,04,1.1,114.853,M,31.590,M,,*60
[2021-01-29 10:48:54.796] $GNGGA,014853.40,4327.75884511,N,14148.31212044,E,1,10,1.0,114.941,M,31.590,M,,*71
[2021-01-29 10:48:54.889] $GNGGA,014853.50,4327.75884030,N,14148.31212330,E,1,09,1.0,114.955,M,31.590,M,,*7B
[2021-01-29 10:48:54.999] $GNGGA,014853.60,4327.75877910,N,14148.31217584,E,1,12,0.9,115.132,M,31.590,M,,*79
[2021-01-29 10:48:55.092] $GNGGA,014853.70,4327.75878008,N,14148.31217734,E,1,10,0.9,115.125,M,31.590,M,,*7A
[2021-01-29 10:48:55.202] $GNGGA,014853.80,4327.75874096,N,14148.31222721,E,1,12,0.9,115.267,M,31.590,M,,*7B
[2021-01-29 10:48:55.298] $GNGGA,014853.90,4327.75874250,N,14148.31222911,E,1,12,0.9,115.266,M,31.590,M,,*7E
[2021-01-29 10:48:55.407] $GNGGA,014854.00,4327.75869287,N,14148.31229022,E,1,13,0.9,115.469,M,31.590,M,,*7C
[2021-01-29 10:48:55.501] $GNGGA,014854.10,4327.75869520,N,14148.31229181,E,1,12,0.9,115.448,M,31.590,M,,*7D
[2021-01-29 10:48:55.595] $GNGGA,014854.20,4327.75865217,N,14148.31235323,E,1,13,0.9,115.647,M,31.590,M,,*7A
[2021-01-29 10:48:55.688] $GNGGA,014854.30,4327.75865156,N,14148.31235358,E,1,13,0.9,115.644,M,31.590,M,,*72
[2021-01-29 10:48:55.798] $GNGGA,014854.40,4327.75861229,N,14148.31240910,E,1,13,0.9,115.801,M,31.590,M,,*71
[2021-01-29 10:48:55.892] $GNGGA,014854.50,4327.75861268,N,14148.31240849,E,1,13,0.9,115.805,M,31.590,M,,*7C
[2021-01-29 10:48:56.001] $GNGGA,014854.60,4327.75858725,N,14148.31245216,E,1,13,0.9,115.959,M,31.590,M,,*74
[2021-01-29 10:48:56.095] $GNGGA,014854.70,4327.75858811,N,14148.31245234,E,1,13,0.9,115.965,M,31.590,M,,*72
[2021-01-29 10:48:56.204] $GNGGA,014854.80,4327.75856247,N,14148.31250999,E,1,13,0.9,116.107,M,31.590,M,,*7D
[2021-01-29 10:48:56.299] $GNGGA,014854.90,4327.75856368,N,14148.31250926,E,1,13,0.9,116.101,M,31.590,M,,*72
[2021-01-29 10:48:56.408] $GPGGA,014855.00,4327.75859251,N,14148.31227563,E,2,08,1.1,115.753,M,31.590,M,1.0,0157*43
[2021-01-29 10:48:56.486] $GPGGA,014855.10,4327.75859275,N,14148.31227654,E,2,08,1.1,115.761,M,31.590,M,1.1,0157*43
[2021-01-29 10:48:56.596] $GPGGA,014855.20,4327.75860886,N,14148.31213789,E,2,08,1.1,115.442,M,31.590,M,1.2,0157*4B
[2021-01-29 10:48:56.689] $GPGGA,014855.30,4327.75860925,N,14148.31213866,E,2,08,1.1,115.437,M,31.590,M,1.3,0157*4F
[2021-01-29 10:48:56.799] $GPGGA,014855.40,4327.75861598,N,14148.31206999,E,2,08,1.1,115.272,M,31.590,M,1.4,0157*46
[2021-01-29 10:48:56.893] $GPGGA,014855.50,4327.75861761,N,14148.31207038,E,2,08,1.1,115.271,M,31.590,M,1.5,0157*42
[2021-01-29 10:48:57.002] $GPGGA,014855.60,4327.75862174,N,14148.31202780,E,2,08,1.1,115.166,M,31.590,M,1.6,0157*47
[2021-01-29 10:48:57.096] $GPGGA,014855.70,4327.75862336,N,14148.31202720,E,2,08,1.1,115.165,M,31.590,M,1.7,0157*4A
[2021-01-29 10:48:57.205] $GPGGA,014855.80,4327.75862405,N,14148.31198369,E,2,08,1.1,115.072,M,31.590,M,1.8,0157*43
[2021-01-29 10:48:57.301] $GPGGA,014855.90,4327.75862286,N,14148.31198469,E,2,08,1.1,115.075,M,31.590,M,1.9,0157*4E
[2021-01-29 10:48:57.395] $GNGGA,014856.00,4327.75863157,N,14148.31194555,E,2,11,1.0,114.989,M,31.590,M,1.0,0157*5D
[2021-01-29 10:48:57.489] $GNGGA,014856.10,4327.75863220,N,14148.31194439,E,2,11,1.0,114.988,M,31.590,M,1.1,0157*54
[2021-01-29 10:48:57.598] $GNGGA,014856.20,4327.75864073,N,14148.31191585,E,2,11,1.0,114.921,M,31.590,M,1.2,0157*57
[2021-01-29 10:48:57.692] $GNGGA,014856.30,4327.75864068,N,14148.31191673,E,2,11,1.0,114.919,M,31.590,M,1.3,0157*5C
[2021-01-29 10:48:57.801] $GNGGA,014856.40,4327.75864890,N,14148.31189436,E,2,11,1.0,114.861,M,31.590,M,1.4,0157*57
[2021-01-29 10:48:57.895] $GNGGA,014856.50,4327.75865120,N,14148.31189564,E,2,11,1.0,114.858,M,31.590,M,1.5,0157*58
[2021-01-29 10:48:58.004] $GNGGA,014856.60,4327.75866145,N,14148.31187833,E,2,11,1.0,114.811,M,31.590,M,1.6,0157*54
[2021-01-29 10:48:58.098] $GNGGA,014856.70,4327.75866114,N,14148.31187874,E,2,11,1.0,114.809,M,31.590,M,1.7,0157*5A
[2021-01-29 10:48:58.208] $GNGGA,014856.80,4327.75867102,N,14148.31186873,E,2,11,1.0,114.768,M,31.590,M,1.8,0157*52
[2021-01-29 10:48:58.288] $GNGGA,014856.90,4327.75867135,N,14148.31187048,E,2,11,1.0,114.766,M,31.590,M,1.9,0157*59
[2021-01-29 10:48:58.397] $GNGGA,014857.00,4327.75867946,N,14148.31186144,E,2,11,1.0,114.731,M,31.590,M,1.0,0157*5A
[2021-01-29 10:48:58.491] $GNGGA,014857.10,4327.75868173,N,14148.31186132,E,2,11,1.0,114.730,M,31.590,M,1.1,0157*5B
[2021-01-29 10:48:58.600] $GNGGA,014857.20,4327.75868718,N,14148.31185378,E,2,11,1.0,114.697,M,31.590,M,1.2,0157*53
[2021-01-29 10:48:58.694] $GNGGA,014857.30,4327.75868794,N,14148.31185260,E,2,11,1.0,114.696,M,31.590,M,1.3,0157*5E
[2021-01-29 10:48:58.803] $GNGGA,014857.40,4327.75869152,N,14148.31184685,E,2,11,1.0,114.671,M,31.590,M,1.4,0157*54
[2021-01-29 10:48:58.897] $GNGGA,014857.50,4327.75869329,N,14148.31184797,E,2,11,1.0,114.670,M,31.590,M,1.5,0157*59
[2021-01-29 10:48:59.006] $GNGGA,014857.60,4327.75869602,N,14148.31184207,E,2,11,1.0,114.652,M,31.590,M,1.6,0157*59
[2021-01-29 10:48:59.100] $GNGGA,014857.70,4327.75869662,N,14148.31184166,E,2,11,1.0,114.639,M,31.590,M,1.7,0157*56
[2021-01-29 10:48:59.194] $GNGGA,014857.80,4327.75869895,N,14148.31183578,E,2,11,1.0,114.621,M,31.590,M,1.8,0157*55
[2021-01-29 10:48:59.291] $GNGGA,014857.90,4327.75869934,N,14148.31183443,E,2,11,1.0,114.617,M,31.590,M,1.9,0157*53
[2021-01-29 10:48:59.400] $GNGGA,014858.00,4327.75870212,N,14148.31182424,E,2,11,1.0,114.594,M,31.590,M,1.0,0157*53
[2021-01-29 10:48:59.494] $GNGGA,014858.10,4327.75870317,N,14148.31182421,E,2,11,1.0,114.590,M,31.590,M,1.1,0157*56
[2021-01-29 10:48:59.603] $GNGGA,014858.20,4327.75870397,N,14148.31181508,E,2,11,1.0,114.571,M,31.590,M,1.2,0157*58
[2021-01-29 10:48:59.697] $GNGGA,014858.30,4327.75870340,N,14148.31181666,E,2,11,1.0,114.577,M,31.590,M,1.3,0157*5F
[2021-01-29 10:48:59.806] $GNGGA,014858.40,4327.75870396,N,14148.31180965,E,2,11,1.0,114.559,M,31.590,M,1.4,0157*55
[2021-01-29 10:48:59.884] $GNGGA,014858.50,4327.75870359,N,14148.31180948,E,2,11,1.0,114.562,M,31.590,M,1.5,0157*51
[2021-01-29 10:48:59.994] $GNGGA,014858.60,4327.75870210,N,14148.31180376,E,2,11,1.0,114.546,M,31.590,M,1.6,0157*5C
[2021-01-29 10:49:00.087] $GNGGA,014858.70,4327.75870243,N,14148.31180446,E,2,11,1.0,114.546,M,31.590,M,1.7,0157*5E
[2021-01-29 10:49:00.197] $GNGGA,014858.80,4327.75869977,N,14148.31179935,E,2,11,1.0,114.532,M,31.590,M,1.8,0157*56
[2021-01-29 10:49:00.293] $GNGGA,014858.90,4327.75870042,N,14148.31179765,E,2,11,1.0,114.532,M,31.590,M,1.9,0157*5A
[2021-01-29 10:49:00.402] $GNGGA,014859.00,4327.75869809,N,14148.31179232,E,2,11,1.0,114.525,M,31.590,M,1.0,0157*55
[2021-01-29 10:49:00.496] $GNGGA,014859.10,4327.75869893,N,14148.31179101,E,2,11,1.0,114.530,M,31.590,M,1.1,0157*51
[2021-01-29 10:49:00.605] $GNGGA,014859.20,4327.75869969,N,14148.31178591,E,2,11,1.0,114.521,M,31.590,M,1.2,0157*59
[2021-01-29 10:49:00.699] $GNGGA,014859.30,4327.75869990,N,14148.31178527,E,2,11,1.0,114.524,M,31.590,M,1.3,0157*57
[2021-01-29 10:49:00.793] $GNGGA,014859.40,4327.75870243,N,14148.31178180,E,2,11,1.0,114.514,M,31.590,M,1.4,0157*50
[2021-01-29 10:49:00.887] $GNGGA,014859.50,4327.75870210,N,14148.31178027,E,2,11,1.0,114.514,M,31.590,M,1.5,0157*5A
[2021-01-29 10:49:00.996] $GNGGA,014859.60,4327.75870312,N,14148.31177562,E,2,11,1.0,114.498,M,31.590,M,1.6,0157*57
[2021-01-29 10:49:01.090] $GNGGA,014859.70,4327.75870538,N,14148.31177633,E,2,11,1.0,114.497,M,31.590,M,1.7,0157*51
[2021-01-29 10:49:01.199] $GNGGA,014859.80,4327.75870500,N,14148.31177043,E,2,11,1.0,114.482,M,31.590,M,1.8,0157*5F
[2021-01-29 10:49:01.293] $GNGGA,014859.90,4327.75870592,N,14148.31177028,E,2,11,1.0,114.482,M,31.590,M,1.9,0157*59
[2021-01-29 10:49:01.403] $GNGGA,014900.00,4327.75870228,N,14148.31176192,E,2,11,1.0,114.472,M,31.590,M,1.0,0157*5C
[2021-01-29 10:49:01.496] $GNGGA,014900.10,4327.75870200,N,14148.31176026,E,2,11,1.0,114.472,M,31.590,M,1.1,0157*58
[2021-01-29 10:49:01.606] $GNGGA,014900.20,4327.75869775,N,14148.31174762,E,2,11,1.0,114.463,M,31.590,M,1.2,0157*52
[2021-01-29 10:49:01.699] $GNGGA,014900.30,4327.75869729,N,14148.31174721,E,2,11,1.0,114.459,M,31.590,M,1.3,0157*55
[2021-01-29 10:49:01.793] $GNGGA,014900.40,4327.75869419,N,14148.31173358,E,2,11,1.0,114.451,M,31.590,M,1.4,0157*50
[2021-01-29 10:49:01.887] $GNGGA,014900.50,4327.75869364,N,14148.31173320,E,2,11,1.0,114.456,M,31.590,M,1.5,0157*55
[2021-01-29 10:49:01.996] $GNGGA,014900.60,4327.75869247,N,14148.31172348,E,2,11,1.0,114.445,M,31.590,M,1.6,0157*58
[2021-01-29 10:49:02.090] $GNGGA,014900.70,4327.75869335,N,14148.31172507,E,2,11,1.0,114.449,M,31.590,M,1.7,0157*5D
[2021-01-29 10:49:02.199] $GNGGA,014900.80,4327.75869207,N,14148.31171634,E,2,11,1.0,114.438,M,31.590,M,1.8,0157*5B
[2021-01-29 10:49:02.292] $GNGGA,014900.90,4327.75869252,N,14148.31171687,E,2,11,1.0,114.439,M,31.590,M,1.9,0157*52
[2021-01-29 10:49:02.401] $GNGGA,014901.00,4327.75868730,N,14148.31170766,E,2,11,1.0,114.430,M,31.590,M,1.0,0157*55
[2021-01-29 10:49:02.495] $GPGGA,014901.10,4327.75874895,N,14148.31146841,E,5,07,1.2,113.726,M,31.590,M,1.1,0157*48
[2021-01-29 10:49:02.604] $GPGGA,014901.20,4327.75875106,N,14148.31146820,E,5,07,1.2,113.721,M,31.590,M,1.2,0157*4A
[2021-01-29 10:49:02.698] $GPGGA,014901.30,4327.75875094,N,14148.31146803,E,5,07,1.2,113.725,M,31.590,M,1.3,0157*45
[2021-01-29 10:49:02.808] $GPGGA,014901.40,4327.75875046,N,14148.31146966,E,5,07,1.2,113.727,M,31.590,M,1.4,0157*4A
[2021-01-29 10:49:02.901] $GPGGA,014901.50,4327.75874877,N,14148.31146958,E,5,07,1.2,113.725,M,31.590,M,1.5,0157*4E
[2021-01-29 10:49:03.011] $GPGGA,014901.60,4327.75874978,N,14148.31146617,E,5,07,1.2,113.718,M,31.590,M,1.6,0157*4A
[2021-01-29 10:49:03.089] $GPGGA,014901.70,4327.75875213,N,14148.31147064,E,5,07,1.2,113.717,M,31.590,M,1.7,0157*41
[2021-01-29 10:49:03.198] $GPGGA,014901.80,4327.75874836,N,14148.31147031,E,5,07,1.2,113.730,M,31.590,M,1.8,0157*48
[2021-01-29 10:49:03.295] $GPGGA,014901.90,4327.75875125,N,14148.31146847,E,5,07,1.2,113.716,M,31.590,M,1.9,0157*4E
[2021-01-29 10:49:03.389] $GPGGA,014902.00,4327.75875317,N,14148.31146758,E,4,07,1.2,113.743,M,31.590,M,1.0,0157*4E
[2021-01-29 10:49:03.483] $GPGGA,014902.10,4327.75875545,N,14148.31146826,E,4,07,1.2,113.734,M,31.590,M,1.1,0157*49
[2021-01-29 10:49:03.608] $GPGGA,014902.20,4327.75875530,N,14148.31146522,E,4,07,1.2,113.743,M,31.590,M,1.2,0157*42
[2021-01-29 10:49:03.701] $GPGGA,014902.30,4327.75875292,N,14148.31146656,E,4,07,1.2,113.734,M,31.590,M,1.3,0157*4D
[2021-01-29 10:49:03.811] $GPGGA,014902.40,4327.75875400,N,14148.31146730,E,4,07,1.2,113.741,M,31.590,M,1.4,0157*43
[2021-01-29 10:49:03.889] $GPGGA,014902.50,4327.75875425,N,14148.31146483,E,4,07,1.2,113.742,M,31.590,M,1.5,0157*4C
[2021-01-29 10:49:03.998] $GPGGA,014902.60,4327.75875393,N,14148.31146555,E,4,07,1.2,113.733,M,31.590,M,1.6,0157*4A
[2021-01-29 10:49:04.092] $GPGGA,014902.70,4327.75875452,N,14148.31146670,E,4,07,1.2,113.740,M,31.590,M,1.7,0157*40
[2021-01-29 10:49:04.201] $GPGGA,014902.80,4327.75875619,N,14148.31146483,E,4,07,1.2,113.733,M,31.590,M,1.8,0157*47
[2021-01-29 10:49:04.295] $GPGGA,014902.90,4327.75875262,N,14148.31146315,E,4,07,1.2,113.745,M,31.590,M,0.9,0157*47
[2021-01-29 10:49:04.405] $GPGGA,014903.00,4327.75875227,N,14148.31146290,E,4,07,1.2,113.746,M,31.590,M,1.0,0157*49
[2021-01-29 10:49:04.498] $GPGGA,014903.10,4327.75875398,N,14148.31146425,E,4,07,1.2,113.745,M,31.590,M,1.1,0157*47
[2021-01-29 10:49:04.608] $GPGGA,014903.20,4327.75875156,N,14148.31146434,E,4,07,1.2,113.742,M,31.590,M,1.2,0157*40
[2021-01-29 10:49:04.701] $GPGGA,014903.30,4327.75875324,N,14148.31146184,E,4,07,1.2,113.747,M,31.590,M,1.3,0157*4C
[2021-01-29 10:49:04.811] $GPGGA,014903.40,4327.75875360,N,14148.31146215,E,4,07,1.2,113.745,M,31.590,M,1.4,0157*45
[2021-01-29 10:49:04.889] $GPGGA,014903.50,4327.75875158,N,14148.31146149,E,4,07,1.2,113.736,M,31.590,M,1.5,0157*42
[2021-01-29 10:49:04.998] $GPGGA,014903.60,4327.75875484,N,14148.31146226,E,4,07,1.2,113.744,M,31.590,M,1.6,0157*49
[2021-01-29 10:49:05.092] $GPGGA,014903.70,4327.75875318,N,14148.31145961,E,4,07,1.2,113.749,M,31.590,M,1.7,0157*4D
[2021-01-29 10:49:05.201] $GPGGA,014903.80,4327.75875318,N,14148.31146298,E,4,07,1.2,113.735,M,31.590,M,1.8,0157*48
[2021-01-29 10:49:05.297] $GPGGA,014903.90,4327.75875333,N,14148.31146240,E,4,07,1.2,113.747,M,31.590,M,1.9,0157*41
[2021-01-29 10:49:05.406] $GNGGA,014904.00,4327.75875099,N,14148.31146448,E,4,08,1.2,113.760,M,31.590,M,1.0,0157*5F
[2021-01-29 10:49:05.500] $GNGGA,014904.10,4327.75875165,N,14148.31146565,E,4,08,1.2,113.752,M,31.590,M,1.1,0157*52
[2021-01-29 10:49:05.594] $GNGGA,014904.20,4327.75875064,N,14148.31146689,E,4,08,1.2,113.754,M,31.590,M,1.2,0157*55
[2021-01-29 10:49:05.703] $GNGGA,014904.30,4327.75875094,N,14148.31146706,E,4,08,1.2,113.764,M,31.590,M,1.3,0157*5F
[2021-01-29 10:49:05.797] $GNGGA,014904.40,4327.75874865,N,14148.31146592,E,4,08,1.2,113.767,M,31.590,M,1.4,0157*54
[2021-01-29 10:49:05.891] $GNGGA,014904.50,4327.75875053,N,14148.31146903,E,4,08,1.2,113.755,M,31.590,M,1.5,0157*5D
[2021-01-29 10:49:06.000] $GNGGA,014904.60,4327.75874906,N,14148.31146575,E,4,08,1.2,113.763,M,31.590,M,1.6,0157*5D
[2021-01-29 10:49:06.094] $GNGGA,014904.70,4327.75875015,N,14148.31146463,E,4,08,1.2,113.755,M,31.590,M,1.7,0157*54
[2021-01-29 10:49:06.203] $GNGGA,014904.80,4327.75875129,N,14148.31146908,E,4,08,1.2,113.756,M,31.590,M,1.8,0157*59
[2021-01-29 10:49:06.298] $GNGGA,014904.90,4327.75874993,N,14148.31146663,E,4,08,1.2,113.766,M,31.590,M,1.9,0157*50
[2021-01-29 10:49:06.408] $GNGGA,014905.00,4327.75875235,N,14148.31146807,E,4,10,1.1,113.752,M,31.590,M,1.0,0157*56
[2021-01-29 10:49:06.501] $GNGGA,014905.10,4327.75875261,N,14148.31146741,E,4,10,1.1,113.748,M,31.590,M,1.1,0157*51
[2021-01-29 10:49:06.595] $GNGGA,014905.20,4327.75875404,N,14148.31146871,E,4,10,1.1,113.751,M,31.590,M,1.2,0157*50
[2021-01-29 10:49:06.705] $GNGGA,014905.30,4327.75875325,N,14148.31146731,E,4,10,1.1,113.748,M,31.590,M,1.3,0157*57
[2021-01-29 10:49:06.798] $GNGGA,014905.40,4327.75875171,N,14148.31146936,E,4,10,1.1,113.751,M,31.590,M,1.4,0157*55
[2021-01-29 10:49:06.892] $GNGGA,014905.50,4327.75874926,N,14148.31146685,E,4,10,1.1,113.756,M,31.590,M,1.5,0157*5E
[2021-01-29 10:49:07.001] $GNGGA,014905.60,4327.75875400,N,14148.31147051,E,4,10,1.1,113.749,M,31.590,M,1.6,0157*56
[2021-01-29 10:49:07.095] $GNGGA,014905.70,4327.75875191,N,14148.31146935,E,4,10,1.1,113.755,M,31.590,M,1.7,0157*5C
[2021-01-29 10:49:07.204] $GNGGA,014905.80,4327.75875496,N,14148.31146961,E,4,10,1.1,113.753,M,31.590,M,1.8,0157*59
[2021-01-29 10:49:07.300] $GNGGA,014905.90,4327.75875176,N,14148.31146872,E,4,10,1.1,113.754,M,31.590,M,1.9,0157*56
[2021-01-29 10:49:07.409] $GNGGA,014906.00,4327.75875694,N,14148.31146631,E,4,10,1.1,113.755,M,31.590,M,1.0,0157*56
[2021-01-29 10:49:07.503] $GNGGA,014906.10,4327.75875447,N,14148.31146821,E,4,10,1.1,113.762,M,31.590,M,1.1,0157*51
[2021-01-29 10:49:07.597] $GNGGA,014906.20,4327.75875255,N,14148.31146530,E,4,10,1.1,113.759,M,31.590,M,1.2,0157*51
[2021-01-29 10:49:07.691] $GNGGA,014906.30,4327.75875629,N,14148.31146630,E,4,10,1.1,113.761,M,31.590,M,1.3,0157*56
[2021-01-29 10:49:07.800] $GNGGA,014906.40,4327.75875380,N,14148.31146894,E,4,10,1.1,113.760,M,31.590,M,1.4,0157*51
[2021-01-29 10:49:07.894] $GNGGA,014906.50,4327.75875564,N,14148.31146713,E,4,10,1.1,113.754,M,31.590,M,1.5,0157*5A
[2021-01-29 10:49:08.003] $GNGGA,014906.60,4327.75875448,N,14148.31146418,E,4,10,1.1,113.753,M,31.590,M,1.6,0157*5A
[2021-01-29 10:49:08.097] $GNGGA,014906.70,4327.75875649,N,14148.31146976,E,4,10,1.1,113.760,M,31.590,M,1.7,0157*5C
[2021-01-29 10:49:08.206] $GNGGA,014906.80,4327.75875532,N,14148.31146585,E,4,10,1.1,113.762,M,31.590,M,1.8,0157*51
[2021-01-29 10:49:08.302] $GNGGA,014906.90,4327.75875474,N,14148.31146631,E,4,10,1.1,113.761,M,31.590,M,1.9,0157*5D
[2021-01-29 10:49:08.396] $GNGGA,014907.00,4327.75875032,N,14148.31146941,E,4,10,1.1,113.776,M,31.590,M,1.0,0157*54
[2021-01-29 10:49:08.489] $GNGGA,014907.10,4327.75874477,N,14148.31147046,E,4,10,1.1,113.783,M,31.590,M,1.1,0157*55
[2021-01-29 10:49:08.599] $GNGGA,014907.20,4327.75874938,N,14148.31146817,E,4,10,1.1,113.779,M,31.590,M,1.2,0157*5B
[2021-01-29 10:49:08.692] $GNGGA,014907.30,4327.75874939,N,14148.31146539,E,4,10,1.1,113.771,M,31.590,M,1.3,0157*53
[2021-01-29 10:49:08.802] $GNGGA,014907.40,4327.75874815,N,14148.31146541,E,4,10,1.1,113.777,M,31.590,M,1.4,0157*55
[2021-01-29 10:49:08.896] $GNGGA,014907.50,4327.75875141,N,14148.31146680,E,4,10,1.1,113.775,M,31.590,M,1.5,0157*50
[2021-01-29 10:49:09.005] $GNGGA,014907.60,4327.75874899,N,14148.31146966,E,4,10,1.1,113.781,M,31.590,M,1.6,0157*51
[2021-01-29 10:49:09.099] $GNGGA,014907.70,4327.75874843,N,14148.31146510,E,4,10,1.1,113.782,M,31.590,M,1.7,0157*58
[2021-01-29 10:49:09.208] $GNGGA,014907.80,4327.75875118,N,14148.31146814,E,4,10,1.1,113.771,M,31.590,M,1.8,0157*5B
[2021-01-29 10:49:09.290] $GNGGA,014907.90,4327.75874947,N,14148.31146585,E,4,10,1.1,113.776,M,31.590,M,1.9,0157*5A
[2021-01-29 10:49:09.399] $GNGGA,014908.00,4327.75875306,N,14148.31146672,E,4,11,1.0,113.760,M,31.590,M,1.0,0157*57
[2021-01-29 10:49:09.493] $GNGGA,014908.10,4327.75875154,N,14148.31146782,E,4,11,1.0,113.765,M,31.590,M,1.1,0157*59
[2021-01-29 10:49:09.602] $GNGGA,014908.20,4327.75875695,N,14148.31146888,E,4,11,1.0,113.763,M,31.590,M,1.2,0157*50
[2021-01-29 10:49:09.696] $GNGGA,014908.30,4327.75875092,N,14148.31146719,E,4,11,1.0,113.765,M,31.590,M,1.3,0157*50
[2021-01-29 10:49:09.805] $GNGGA,014908.40,4327.75875349,N,14148.31146703,E,4,11,1.0,113.760,M,31.590,M,1.4,0157*5B
[2021-01-29 10:49:09.899] $GNGGA,014908.50,4327.75875150,N,14148.31146508,E,4,11,1.0,113.771,M,31.590,M,1.5,0157*58
[2021-01-29 10:49:10.008] $GNGGA,014908.60,4327.75875438,N,14148.31146427,E,4,11,1.0,113.757,M,31.590,M,1.6,0157*5B
[2021-01-29 10:49:10.102] $GNGGA,014908.70,4327.75875358,N,14148.31146494,E,4,11,1.0,113.752,M,31.590,M,1.7,0157*57
[2021-01-29 10:49:10.196] $GNGGA,014908.80,4327.75875327,N,14148.31146623,E,4,11,1.0,113.767,M,31.590,M,1.8,0157*57
[2021-01-29 10:49:10.290] $GNGGA,014908.90,4327.75875109,N,14148.31146726,E,4,11,1.0,113.762,M,31.590,M,1.9,0157*58
[2021-01-29 10:49:10.400] $GNGGA,014909.00,4327.75875246,N,14148.31146498,E,4,11,1.0,113.763,M,31.590,M,2.0,0157*55
[2021-01-29 10:49:10.494] $GNGGA,014909.10,4327.75875262,N,14148.31146850,E,4,11,1.0,113.766,M,31.590,M,2.1,0157*5E
[2021-01-29 10:49:10.603] $GNGGA,014909.20,4327.75875221,N,14148.31146546,E,4,11,1.0,113.756,M,31.590,M,2.2,0157*50
[2021-01-29 10:49:10.697] $GNGGA,014909.30,4327.75875145,N,14148.31146325,E,4,10,1.1,113.767,M,31.590,M,1.3,0157*53
[2021-01-29 10:49:10.806] $GNGGA,014909.40,4327.75875240,N,14148.31146291,E,4,10,1.1,113.771,M,31.590,M,1.4,0157*5C
[2021-01-29 10:49:10.900] $GNGGA,014909.50,4327.75875161,N,14148.31146199,E,4,10,1.1,113.761,M,31.590,M,1.5,0157*56
[2021-01-29 10:49:10.994] $GNGGA,014909.60,4327.75875278,N,14148.31146293,E,4,10,1.1,113.769,M,31.590,M,1.6,0157*5C
[2021-01-29 10:49:11.103] $GNGGA,014909.70,4327.75874961,N,14148.31146358,E,4,10,1.1,113.779,M,31.590,M,1.7,0157*59
[2021-01-29 10:49:11.197] $GNGGA,014909.80,4327.75875243,N,14148.31146304,E,4,10,1.1,113.764,M,31.590,M,1.8,0157*56
[2021-01-29 10:49:11.293] $GNGGA,014909.90,4327.75875213,N,14148.31146430,E,4,10,1.1,113.769,M,31.590,M,1.9,0157*5E
[2021-01-29 10:49:11.402] $GNGGA,014910.00,4327.75875174,N,14148.31146354,E,4,10,1.1,113.776,M,31.590,M,1.0,0157*5F
[2021-01-29 10:49:11.496] $GNGGA,014910.10,4327.75875255,N,14148.31146242,E,4,10,1.1,113.773,M,31.590,M,1.1,0157*5C
[2021-01-29 10:49:11.605] $GNGGA,014910.20,4327.75875119,N,14148.31146672,E,4,10,1.1,113.774,M,31.590,M,1.2,0157*57
[2021-01-29 10:49:11.699] $GNGGA,014910.30,4327.75875183,N,14148.31146443,E,4,10,1.1,113.780,M,31.590,M,1.3,0157*5F
[2021-01-29 10:49:11.808] $GNGGA,014910.40,4327.75875008,N,14148.31146327,E,4,10,1.1,113.780,M,31.590,M,1.4,0157*58
[2021-01-29 10:49:11.902] $GNGGA,014910.50,4327.75875250,N,14148.31146532,E,4,10,1.1,113.781,M,31.590,M,1.5,0157*54
[2021-01-29 10:49:11.996] $GNGGA,014910.60,4327.75875119,N,14148.31146340,E,4,10,1.1,113.781,M,31.590,M,1.6,0157*59
[2021-01-29 10:49:12.090] $GNGGA,014910.70,4327.75875297,N,14148.31146317,E,4,10,1.1,113.779,M,31.590,M,1.7,0157*59
[2021-01-29 10:49:12.199] $GNGGA,014910.80,4327.75875077,N,14148.31146168,E,4,10,1.1,113.781,M,31.590,M,1.8,0157*58
[2021-01-29 10:49:12.293] $GNGGA,014910.90,4327.75874927,N,14148.31146349,E,4,10,1.1,113.779,M,31.590,M,1.9,0157*53
[2021-01-29 10:49:12.402] $GNGGA,014911.00,4327.75875457,N,14148.31146679,E,4,10,1.1,113.770,M,31.590,M,1.0,0157*56
[2021-01-29 10:49:12.496] $GNGGA,014911.10,4327.75875455,N,14148.31146506,E,4,10,1.1,113.763,M,31.590,M,1.1,0157*5D
[2021-01-29 10:49:12.605] $GNGGA,014911.20,4327.75875403,N,14148.31147091,E,4,10,1.1,113.772,M,31.590,M,1.2,0157*54
[2021-01-29 10:49:12.699] $GNGGA,014911.30,4327.75875591,N,14148.31146581,E,4,10,1.1,113.758,M,31.590,M,1.3,0157*53
[2021-01-29 10:49:12.808] $GNGGA,014911.40,4327.75875369,N,14148.31146480,E,4,10,1.1,113.775,M,31.590,M,1.4,0157*5D
[2021-01-29 10:49:12.902] $GNGGA,014911.50,4327.75875611,N,14148.31146594,E,4,10,1.1,113.759,M,31.590,M,1.5,0157*5D
[2021-01-29 10:49:12.996] $GNGGA,014911.60,4327.75875480,N,14148.31146490,E,4,10,1.1,113.763,M,31.590,M,1.6,0157*5B
[2021-01-29 10:49:13.090] $GNGGA,014911.70,4327.75875275,N,14148.31146660,E,4,10,1.1,113.761,M,31.590,M,1.7,0157*58
[2021-01-29 10:49:13.199] $GNGGA,014911.80,4327.75875577,N,14148.31147010,E,4,10,1.1,113.765,M,31.590,M,1.8,0157*59
[2021-01-29 10:49:13.295] $GNGGA,014911.90,4327.75875457,N,14148.31146560,E,4,10,1.1,113.766,M,31.590,M,1.9,0157*5A
[2021-01-29 10:49:13.388] $GNGGA,014912.00,4327.75875240,N,14148.31146491,E,4,10,1.1,113.770,M,31.590,M,1.0,0157*51
[2021-01-29 10:49:13.482] $GNGGA,014912.10,4327.75875357,N,14148.31146704,E,4,10,1.1,113.770,M,31.590,M,1.1,0157*59
[2021-01-29 10:49:13.607] $GNGGA,014912.20,4327.75875464,N,14148.31146436,E,4,10,1.1,113.760,M,31.590,M,1.2,0157*5D
[2021-01-29 10:49:13.701] $GNGGA,014912.30,4327.75875207,N,14148.31146788,E,4,10,1.1,113.771,M,31.590,M,1.3,0157*58
[2021-01-29 10:49:13.795] $GNGGA,014912.40,4327.75875055,N,14148.31146496,E,4,10,1.1,113.770,M,31.590,M,1.4,0157*50
[2021-01-29 10:49:13.888] $GNGGA,014912.50,4327.75875219,N,14148.31146600,E,4,10,1.1,113.764,M,31.590,M,1.5,0157*52
[2021-01-29 10:49:13.998] $GNGGA,014912.60,4327.75875110,N,14148.31146573,E,4,10,1.1,113.759,M,31.590,M,1.6,0157*51
[2021-01-29 10:49:14.092] $GNGGA,014912.70,4327.75875323,N,14148.31146519,E,4,10,1.1,113.765,M,31.590,M,1.7,0157*50
[2021-01-29 10:49:14.201] $GNGGA,014912.80,4327.75875247,N,14148.31146835,E,4,10,1.1,113.773,M,31.590,M,1.8,0157*57
[2021-01-29 10:49:14.295] $GNGGA,014912.90,4327.75875611,N,14148.31145965,E,4,11,1.0,113.757,M,31.590,M,0.9,0157*50
[2021-01-29 10:49:14.404] $GNGGA,014913.00,4327.75875308,N,14148.31146419,E,4,11,1.0,113.771,M,31.590,M,1.0,0157*5C
