
[2021-01-29 11:06:33.726] çç»Å¿ï∏br?
[2021-01-29 11:06:33.726] Å†ë?
[2021-01-29 11:06:33.726] ï»b*?bâ‡
[2021-01-29 11:06:33.726] râ‡
[2021-01-29 11:06:33.726] 
[2021-01-29 11:06:33.726] r?Ö‡j?
[2021-01-29 11:06:33.726] rÖ»bj?rbRÅ®?Ï¢GPGGA,020632.40,4327.72948913,N,14148.32931459,E,4,06,1.6,110.903,M,31.590,M,2.4,0000*46
[2021-01-29 11:06:33.896] $GPGGA,020632.50,4327.72948906,N,14148.32931497,E,4,06,1.6,110.902,M,31.590,M,2.5,0000*41
[2021-01-29 11:06:34.007] $GPGGA,020632.60,4327.72948756,N,14148.32931505,E,4,06,1.6,110.906,M,31.590,M,2.6,0000*44
[2021-01-29 11:06:34.096] $GPGGA,020632.70,4327.72949382,N,14148.32931349,E,4,06,1.6,110.923,M,31.590,M,1.7,0000*42
[2021-01-29 11:06:34.190] $GPGGA,020632.80,4327.72949475,N,14148.32931254,E,4,06,1.6,110.921,M,31.590,M,1.8,0000*42
[2021-01-29 11:06:34.300] $GPGGA,020632.90,4327.72949198,N,14148.32931392,E,4,06,1.6,110.925,M,31.590,M,1.9,0000*4B
[2021-01-29 11:06:34.409] $GPGGA,020633.00,4327.72949373,N,14148.32931251,E,4,06,1.6,110.928,M,31.590,M,2.0,0000*4D
[2021-01-29 11:06:34.503] $GPGGA,020633.10,4327.72949476,N,14148.32931250,E,4,06,1.6,110.926,M,31.590,M,2.1,0000*40
[2021-01-29 11:06:34.612] $GPGGA,020633.20,4327.72949214,N,14148.32931452,E,4,06,1.6,110.921,M,31.590,M,2.2,0000*41
[2021-01-29 11:06:34.690] $GPGGA,020633.30,4327.72949433,N,14148.32931348,E,4,06,1.6,110.922,M,31.590,M,2.3,0000*4D
[2021-01-29 11:06:34.800] $GPGGA,020633.40,4327.72949234,N,14148.32931516,E,4,06,1.6,110.924,M,31.590,M,2.4,0000*47
[2021-01-29 11:06:34.893] $GPGGA,020633.50,4327.72949415,N,14148.32931387,E,4,06,1.6,110.921,M,31.590,M,2.5,0000*49
[2021-01-29 11:06:35.003] $GPGGA,020633.60,4327.72949303,N,14148.32931377,E,4,06,1.6,110.923,M,31.590,M,2.6,0000*44
[2021-01-29 11:06:35.096] $GPGGA,020633.70,4327.72949431,N,14148.32931515,E,4,06,1.6,110.915,M,31.590,M,2.7,0000*45
[2021-01-29 11:06:35.206] $GPGGA,020633.80,4327.72949089,N,14148.32931711,E,4,06,1.6,110.906,M,31.590,M,1.8,0000*45
[2021-01-29 11:06:35.294] $GPGGA,020633.90,4327.72949172,N,14148.32932004,E,4,06,1.6,110.898,M,31.590,M,1.9,0000*46
[2021-01-29 11:06:35.403] $GPGGA,020634.00,4327.72949195,N,14148.32931963,E,4,06,1.6,110.895,M,31.590,M,2.0,0000*4D
[2021-01-29 11:06:35.497] $GPGGA,020634.10,4327.72949275,N,14148.32931599,E,4,06,1.6,110.897,M,31.590,M,2.1,0000*4B
[2021-01-29 11:06:35.607] $GPGGA,020634.20,4327.72949071,N,14148.32932065,E,4,06,1.6,110.892,M,31.590,M,2.2,0000*4D
[2021-01-29 11:06:35.700] $GPGGA,020634.30,4327.72949252,N,14148.32931891,E,4,06,1.6,110.904,M,31.590,M,2.3,0000*40
[2021-01-29 11:06:35.810] $GPGGA,020634.40,4327.72949234,N,14148.32931760,E,4,06,1.6,110.888,M,31.590,M,2.4,0000*44
[2021-01-29 11:06:35.903] $GPGGA,020634.50,4327.72949034,N,14148.32931785,E,4,06,1.6,110.900,M,31.590,M,2.5,0000*4C
[2021-01-29 11:06:35.997] $GPGGA,020634.60,4327.72949219,N,14148.32932016,E,4,06,1.6,110.895,M,31.590,M,2.6,0000*42
[2021-01-29 11:06:36.106] $GPGGA,020634.70,4327.72949327,N,14148.32931703,E,4,06,1.6,110.910,M,31.590,M,1.7,0000*41
[2021-01-29 11:06:36.200] $GPGGA,020634.80,4327.72948954,N,14148.32931632,E,4,06,1.6,110.914,M,31.590,M,1.8,0000*49
[2021-01-29 11:06:36.292] $GPGGA,020634.90,4327.72949300,N,14148.32931756,E,4,06,1.6,110.910,M,31.590,M,1.9,0000*44
[2021-01-29 11:06:36.401] $GPGGA,020635.00,4327.72949170,N,14148.32931723,E,4,06,1.6,110.915,M,31.590,M,2.0,0000*44
[2021-01-29 11:06:36.495] $GPGGA,020635.10,4327.72949277,N,14148.32931657,E,4,06,1.6,110.915,M,31.590,M,2.1,0000*42
[2021-01-29 11:06:36.604] $GPGGA,020635.20,4327.72949217,N,14148.32931680,E,4,06,1.6,110.912,M,31.590,M,2.2,0000*49
[2021-01-29 11:06:36.698] $GPGGA,020635.30,4327.72949115,N,14148.32931666,E,4,06,1.6,110.914,M,31.590,M,2.3,0000*46
[2021-01-29 11:06:36.807] $GPGGA,020635.40,4327.72949150,N,14148.32931630,E,4,06,1.6,110.924,M,31.590,M,2.4,0000*47
[2021-01-29 11:06:36.901] $GPGGA,020635.50,4327.72949188,N,14148.32931713,E,4,06,1.6,110.911,M,31.590,M,2.5,0000*44
[2021-01-29 11:06:37.010] $GPGGA,020635.60,4327.72949379,N,14148.32931784,E,4,06,1.6,110.915,M,31.590,M,2.6,0000*42
[2021-01-29 11:06:37.104] $GPGGA,020635.70,4327.72949141,N,14148.32931363,E,4,06,1.6,110.926,M,31.590,M,1.7,0000*45
[2021-01-29 11:06:37.198] $GPGGA,020635.80,4327.72949437,N,14148.32931396,E,4,06,1.6,110.914,M,31.590,M,1.8,0000*4A
[2021-01-29 11:06:37.295] $GPGGA,020635.90,4327.72949162,N,14148.32931417,E,4,06,1.6,110.925,M,31.590,M,1.9,0000*43
[2021-01-29 11:06:37.404] $GPGGA,020636.00,4327.72949419,N,14148.32931507,E,4,06,1.6,110.923,M,31.590,M,2.0,0000*4C
[2021-01-29 11:06:37.498] $GPGGA,020636.10,4327.72949231,N,14148.32931408,E,4,06,1.6,110.917,M,31.590,M,2.1,0000*49
[2021-01-29 11:06:37.607] $GPGGA,020636.20,4327.72949452,N,14148.32931491,E,4,06,1.6,110.921,M,31.590,M,2.2,0000*4F
[2021-01-29 11:06:37.701] $GPGGA,020636.30,4327.72949406,N,14148.32931503,E,4,06,1.6,110.918,M,31.590,M,2.3,0000*4E
[2021-01-29 11:06:37.810] $GPGGA,020636.40,4327.72949488,N,14148.32931285,E,4,06,1.6,110.916,M,31.590,M,2.4,0000*4F
[2021-01-29 11:06:37.904] $GPGGA,020636.50,4327.72949413,N,14148.32931351,E,4,06,1.6,110.922,M,31.590,M,2.5,0000*42
[2021-01-29 11:06:37.998] $GPGGA,020636.60,4327.72949394,N,14148.32931686,E,4,06,1.6,110.914,M,31.590,M,2.6,0000*40
[2021-01-29 11:06:38.091] $GPGGA,020636.70,4327.72949421,N,14148.32931454,E,4,06,1.6,110.916,M,31.590,M,1.7,0000*45
[2021-01-29 11:06:38.201] $GPGGA,020636.80,4327.72949282,N,14148.32931325,E,4,06,1.6,110.913,M,31.590,M,1.8,0000*4E
[2021-01-29 11:06:38.295] $GPGGA,020636.90,4327.72949079,N,14148.32931507,E,4,06,1.6,110.905,M,31.590,M,1.9,0000*49
[2021-01-29 11:06:38.404] $GPGGA,020637.00,4327.72949274,N,14148.32931395,E,4,06,1.6,110.910,M,31.590,M,2.0,0000*4D
[2021-01-29 11:06:38.498] $GPGGA,020637.10,4327.72949194,N,14148.32931064,E,4,06,1.6,110.916,M,31.590,M,2.1,0000*4B
[2021-01-29 11:06:38.607] $GPGGA,020637.20,4327.72949074,N,14148.32931451,E,4,06,1.6,110.907,M,31.590,M,2.2,0000*46
[2021-01-29 11:06:38.701] $GPGGA,020637.30,4327.72949177,N,14148.32931438,E,4,06,1.6,110.909,M,31.590,M,2.3,0000*45
[2021-01-29 11:06:38.810] $GPGGA,020637.40,4327.72949080,N,14148.32931641,E,4,06,1.6,110.910,M,31.590,M,2.4,0000*48
[2021-01-29 11:06:38.904] $GPGGA,020637.50,4327.72949126,N,14148.32931385,E,4,06,1.6,110.903,M,31.590,M,2.5,0000*4A
[2021-01-29 11:06:38.998] $GPGGA,020637.60,4327.72949243,N,14148.32931500,E,4,06,1.6,110.909,M,31.590,M,2.6,0000*4B
[2021-01-29 11:06:39.092] $GPGGA,020637.70,4327.72949174,N,14148.32931543,E,4,06,1.6,110.915,M,31.590,M,1.7,0000*45
[2021-01-29 11:06:39.201] $GPGGA,020637.80,4327.72949164,N,14148.32931203,E,4,06,1.6,110.913,M,31.590,M,1.8,0000*41
[2021-01-29 11:06:39.296] $GPGGA,020637.90,4327.72949123,N,14148.32931611,E,4,06,1.6,110.919,M,31.590,M,1.9,0000*4F
[2021-01-29 11:06:39.406] $GPGGA,020638.00,4327.72949121,N,14148.32931343,E,4,06,1.6,110.910,M,31.590,M,2.0,0000*4A
[2021-01-29 11:06:39.500] $GPGGA,020638.10,4327.72949305,N,14148.32931467,E,4,06,1.6,110.911,M,31.590,M,2.1,0000*4E
[2021-01-29 11:06:39.609] $GPGGA,020638.20,4327.72949058,N,14148.32931508,E,4,06,1.6,110.920,M,31.590,M,2.2,0000*4F
[2021-01-29 11:06:39.703] $GPGGA,020638.30,4327.72949154,N,14148.32931542,E,4,06,1.6,110.919,M,31.590,M,2.3,0000*46
[2021-01-29 11:06:39.796] $GPGGA,020638.40,4327.72949126,N,14148.32931151,E,4,06,1.6,110.918,M,31.590,M,2.4,0000*44
[2021-01-29 11:06:39.906] $GPGGA,020638.50,4327.72949128,N,14148.32931579,E,4,06,1.6,110.918,M,31.590,M,2.5,0000*44
[2021-01-29 11:06:40.000] $GPGGA,020638.60,4327.72948997,N,14148.32931479,E,4,06,1.6,110.914,M,31.590,M,2.6,0000*44
[2021-01-29 11:06:40.093] $GPGGA,020638.70,4327.72949109,N,14148.32931731,E,4,06,1.6,110.909,M,31.590,M,1.7,0000*4A
[2021-01-29 11:06:40.203] $GPGGA,020638.80,4327.72949175,N,14148.32931718,E,4,06,1.6,110.909,M,31.590,M,1.8,0000*4A
[2021-01-29 11:06:40.298] $GPGGA,020638.90,4327.72948872,N,14148.32931666,E,4,06,1.6,110.916,M,31.590,M,1.9,0000*43
[2021-01-29 11:06:40.408] $GPGGA,020639.00,4327.72949209,N,14148.32931541,E,4,06,1.6,110.909,M,31.590,M,2.0,0000*4E
[2021-01-29 11:06:40.501] $GPGGA,020639.10,4327.72949319,N,14148.32931521,E,4,06,1.6,110.917,M,31.590,M,2.1,0000*47
[2021-01-29 11:06:40.611] $GPGGA,020639.20,4327.72949076,N,14148.32931611,E,4,06,1.6,110.914,M,31.590,M,2.2,0000*4E
[2021-01-29 11:06:40.704] $GPGGA,020639.30,4327.72948996,N,14148.32931734,E,4,06,1.6,110.919,M,31.590,M,2.3,0000*43
[2021-01-29 11:06:40.798] $GPGGA,020639.40,4327.72949015,N,14148.32931380,E,4,06,1.6,110.907,M,31.590,M,2.4,0000*44
[2021-01-29 11:06:40.892] $GPGGA,020639.50,4327.72949323,N,14148.32931471,E,4,06,1.6,110.922,M,31.590,M,2.5,0000*4C
[2021-01-29 11:06:41.001] $GPGGA,020639.60,4327.72948903,N,14148.32931815,E,4,06,1.6,110.915,M,31.590,M,2.6,0000*4F
[2021-01-29 11:06:41.095] $GPGGA,020639.70,4327.72949208,N,14148.32931468,E,4,06,1.6,110.923,M,31.590,M,1.7,0000*4E
[2021-01-29 11:06:41.204] $GPGGA,020639.80,4327.72949131,N,14148.32931350,E,4,06,1.6,110.926,M,31.590,M,1.8,0000*4E
[2021-01-29 11:06:41.300] $GPGGA,020639.90,4327.72949002,N,14148.32931476,E,4,06,1.6,110.916,M,31.590,M,1.9,0000*4F
[2021-01-29 11:06:41.409] $GPGGA,020640.00,4327.72949032,N,14148.32931517,E,4,06,1.6,110.927,M,31.590,M,2.0,0000*45
[2021-01-29 11:06:41.503] $GPGGA,020640.10,4327.72949131,N,14148.32931467,E,4,06,1.6,110.924,M,31.590,M,2.1,0000*42
[2021-01-29 11:06:41.612] $GPGGA,020640.20,4327.72948977,N,14148.32931636,E,4,06,1.6,110.922,M,31.590,M,2.2,0000*49
[2021-01-29 11:06:41.706] $GPGGA,020640.30,4327.72949081,N,14148.32931383,E,4,06,1.6,110.920,M,31.590,M,2.3,0000*41
[2021-01-29 11:06:41.800] $GPGGA,020640.40,4327.72949089,N,14148.32931813,E,4,06,1.6,110.927,M,31.590,M,2.4,0000*4C
[2021-01-29 11:06:41.909] $GPGGA,020640.50,4327.72949122,N,14148.32931534,E,4,06,1.6,110.926,M,31.590,M,2.5,0000*45
[2021-01-29 11:06:42.003] $GPGGA,020640.60,4327.72949024,N,14148.32931494,E,4,06,1.6,110.920,M,31.590,M,2.6,0000*4F
[2021-01-29 11:06:42.096] $GPGGA,020640.70,4327.72948846,N,14148.32931185,E,4,06,1.6,110.891,M,31.590,M,1.7,0000*4F
[2021-01-29 11:06:42.206] $GPGGA,020640.80,4327.72948939,N,14148.32931438,E,4,06,1.6,110.896,M,31.590,M,1.8,0000*42
[2021-01-29 11:06:42.301] $GPGGA,020640.90,4327.72948839,N,14148.32931517,E,4,06,1.6,110.895,M,31.590,M,1.9,0000*4C
[2021-01-29 11:06:42.411] $GPGGA,020641.00,4327.72948872,N,14148.32931244,E,4,06,1.6,110.891,M,31.590,M,2.0,0000*44
[2021-01-29 11:06:42.505] $GPGGA,020641.10,4327.72948769,N,14148.32931522,E,4,06,1.6,110.889,M,31.590,M,2.1,0000*4F
[2021-01-29 11:06:42.598] $GPGGA,020641.20,4327.72948896,N,14148.32931420,E,4,06,1.6,110.897,M,31.590,M,2.2,0000*4C
[2021-01-29 11:06:42.708] $GPGGA,020641.30,4327.72948893,N,14148.32931509,E,4,06,1.6,110.885,M,31.590,M,2.3,0000*40
[2021-01-29 11:06:42.801] $GPGGA,020641.40,4327.72948808,N,14148.32931296,E,4,06,1.6,110.900,M,31.590,M,2.4,0000*4F
[2021-01-29 11:06:42.895] $GPGGA,020641.50,4327.72948911,N,14148.32931576,E,4,06,1.6,110.890,M,31.590,M,2.5,0000*47
[2021-01-29 11:06:43.005] $GPGGA,020641.60,4327.72948900,N,14148.32931462,E,4,06,1.6,110.890,M,31.590,M,2.6,0000*43
[2021-01-29 11:06:43.098] $GPGGA,020641.70,4327.72949252,N,14148.32931585,E,4,06,1.6,110.896,M,31.590,M,1.7,0000*43
[2021-01-29 11:06:43.208] $GPGGA,020641.80,4327.72949101,N,14148.32931621,E,4,06,1.6,110.904,M,31.590,M,1.8,0000*41
[2021-01-29 11:06:43.304] $GPGGA,020641.90,4327.72949261,N,14148.32931436,E,4,06,1.6,110.899,M,31.590,M,1.9,0000*45
[2021-01-29 11:06:43.398] $GPGGA,020642.00,4327.72949094,N,14148.32931355,E,4,06,1.6,110.896,M,31.590,M,2.0,0000*40
[2021-01-29 11:06:43.476] $GPGGA,020642.10,4327.72949149,N,14148.32931746,E,4,06,1.6,110.898,M,31.590,M,2.1,0000*49
[2021-01-29 11:06:43.601] $GPGGA,020642.20,4327.72949231,N,14148.32931536,E,4,06,1.6,110.896,M,31.590,M,2.2,0000*4E
[2021-01-29 11:06:43.695] $GPGGA,020642.30,4327.72949151,N,14148.32931383,E,4,06,1.6,110.897,M,31.590,M,2.3,0000*42
[2021-01-29 11:06:43.804] $GPGGA,020642.40,4327.72949178,N,14148.32931592,E,4,06,1.6,110.899,M,31.590,M,2.4,0000*41
[2021-01-29 11:06:43.898] $GPGGA,020642.50,4327.72949164,N,14148.32931636,E,4,06,1.6,110.903,M,31.590,M,2.5,0000*43
[2021-01-29 11:06:44.007] $GPGGA,020642.60,4327.72949110,N,14148.32931456,E,4,06,1.6,110.900,M,31.590,M,2.6,0000*47
[2021-01-29 11:06:44.101] $GPGGA,020642.70,4327.72949039,N,14148.32931745,E,4,06,1.6,110.898,M,31.590,M,1.7,0000*4F
[2021-01-29 11:06:44.210] $GPGGA,020642.80,4327.72948808,N,14148.32931718,E,4,06,1.6,110.896,M,31.590,M,1.8,0000*42
[2021-01-29 11:06:44.290] $GPGGA,020642.90,4327.72948948,N,14148.32931769,E,4,06,1.6,110.891,M,31.590,M,1.9,0000*46
[2021-01-29 11:06:44.415] $GPGGA,020643.00,4327.72949041,N,14148.32931908,E,4,06,1.6,110.893,M,31.590,M,2.0,0000*4E
[2021-01-29 11:06:44.493] $GPGGA,020643.10,4327.72948722,N,14148.32931831,E,4,06,1.6,110.896,M,31.590,M,2.1,0000*43
[2021-01-29 11:06:44.602] $GPGGA,020643.20,4327.72948998,N,14148.32931784,E,4,06,1.6,110.897,M,31.590,M,2.2,0000*4C
[2021-01-29 11:06:44.696] $GPGGA,020643.30,4327.72948937,N,14148.32931538,E,4,06,1.6,110.893,M,31.590,M,2.3,0000*48
[2021-01-29 11:06:44.805] $GPGGA,020643.40,4327.72948958,N,14148.32931993,E,4,06,1.6,110.892,M,31.590,M,2.4,0000*4D
[2021-01-29 11:06:44.899] $GPGGA,020643.50,4327.72948843,N,14148.32931376,E,4,06,1.6,110.894,M,31.590,M,2.5,0000*41
[2021-01-29 11:06:45.008] $GPGGA,020643.60,4327.72949023,N,14148.32931765,E,4,06,1.6,110.891,M,31.590,M,2.6,0000*4D
[2021-01-29 11:06:45.102] $GPGGA,020643.70,4327.72949084,N,14148.32931789,E,4,06,1.6,110.894,M,31.590,M,2.7,0000*47
[2021-01-29 11:06:45.211] $GPGGA,020643.80,4327.72949392,N,14148.32931608,E,4,06,1.6,110.915,M,31.590,M,1.8,0000*40
[2021-01-29 11:06:45.291] $GPGGA,020643.90,4327.72949459,N,14148.32931605,E,4,06,1.6,110.909,M,31.590,M,1.9,0000*40
[2021-01-29 11:06:45.401] $GPGGA,020644.00,4327.72949125,N,14148.32931555,E,4,06,1.6,110.912,M,31.590,M,2.0,0000*46
[2021-01-29 11:06:45.494] $GPGGA,020644.10,4327.72949421,N,14148.32931760,E,4,06,1.6,110.913,M,31.590,M,2.1,0000*42
[2021-01-29 11:06:45.604] $GPGGA,020644.20,4327.72949248,N,14148.32931681,E,4,06,1.6,110.908,M,31.590,M,2.2,0000*4F
[2021-01-29 11:06:45.697] $GPGGA,020644.30,4327.72949336,N,14148.32931651,E,4,06,1.6,110.912,M,31.590,M,2.3,0000*41
[2021-01-29 11:06:45.807] $GPGGA,020644.40,4327.72949428,N,14148.32931611,E,4,06,1.6,110.912,M,31.590,M,2.4,0000*4D
[2021-01-29 11:06:45.900] $GPGGA,020644.50,4327.72949112,N,14148.32931900,E,4,06,1.6,110.902,M,31.590,M,2.5,0000*4F
[2021-01-29 11:06:46.010] $GPGGA,020644.60,4327.72949206,N,14148.32931620,E,4,06,1.6,110.910,M,31.590,M,2.6,0000*47
[2021-01-29 11:06:46.104] $GPGGA,020644.70,4327.72949351,N,14148.32931346,E,4,06,1.6,110.908,M,31.590,M,1.7,0000*4B
[2021-01-29 11:06:46.213] $GPGGA,020644.80,4327.72949268,N,14148.32931228,E,4,06,1.6,110.903,M,31.590,M,1.8,0000*42
[2021-01-29 11:06:46.292] $GPGGA,020644.90,4327.72949468,N,14148.32931338,E,4,06,1.6,110.903,M,31.590,M,1.9,0000*44
[2021-01-29 11:06:46.402] $GPGGA,020645.00,4327.72949424,N,14148.32931203,E,4,06,1.6,110.911,M,31.590,M,2.0,0000*44
[2021-01-29 11:06:46.496] $GPGGA,020645.10,4327.72949569,N,14148.32931289,E,4,06,1.6,110.902,M,31.590,M,2.1,0000*4C
[2021-01-29 11:06:46.605] $GPGGA,020645.20,4327.72949472,N,14148.32931458,E,4,06,1.6,110.907,M,31.590,M,2.2,0000*48
[2021-01-29 11:06:46.699] $GPGGA,020645.30,4327.72949394,N,14148.32931287,E,4,06,1.6,110.911,M,31.590,M,2.3,0000*44
[2021-01-29 11:06:46.808] $GPGGA,020645.40,4327.72949374,N,14148.32931556,E,4,06,1.6,110.901,M,31.590,M,2.4,0000*40
[2021-01-29 11:06:46.902] $GPGGA,020645.50,4327.72949502,N,14148.32931047,E,4,06,1.6,110.913,M,31.590,M,2.5,0000*41
[2021-01-29 11:06:47.011] $GPGGA,020645.60,4327.72949406,N,14148.32931662,E,4,06,1.6,110.903,M,31.590,M,2.6,0000*44
[2021-01-29 11:06:47.105] $GPGGA,020645.70,4327.72949108,N,14148.32931297,E,4,06,1.6,110.883,M,31.590,M,1.7,0000*4B
[2021-01-29 11:06:47.199] $GPGGA,020645.80,4327.72949068,N,14148.32931272,E,4,06,1.6,110.896,M,31.590,M,1.8,0000*43
[2021-01-29 11:06:47.294] $GPGGA,020645.90,4327.72949023,N,14148.32931129,E,4,06,1.6,110.892,M,31.590,M,1.9,0000*45
[2021-01-29 11:06:47.403] $GPGGA,020646.00,4327.72949268,N,14148.32931407,E,4,06,1.6,110.900,M,31.590,M,2.0,0000*4B
[2021-01-29 11:06:47.497] $GPGGA,020646.10,4327.72949527,N,14148.32931569,E,4,06,1.6,110.885,M,31.590,M,2.1,0000*42
[2021-01-29 11:06:47.606] $GPGGA,020646.20,4327.72949208,N,14148.32931474,E,4,06,1.6,110.894,M,31.590,M,2.2,0000*45
[2021-01-29 11:06:47.700] $GPGGA,020646.30,4327.72949102,N,14148.32931431,E,4,06,1.6,110.887,M,31.590,M,2.3,0000*4F
[2021-01-29 11:06:47.809] $GPGGA,020646.40,4327.72949237,N,14148.32931175,E,4,06,1.6,110.901,M,31.590,M,2.4,0000*40
[2021-01-29 11:06:47.903] $GPGGA,020646.50,4327.72949116,N,14148.32931335,E,4,06,1.6,110.894,M,31.590,M,2.5,0000*4B
[2021-01-29 11:06:48.012] $GPGGA,020646.60,4327.72949220,N,14148.32931423,E,4,06,1.6,110.899,M,31.590,M,2.6,0000*40
[2021-01-29 11:06:48.091] $GPGGA,020646.70,4327.72949407,N,14148.32931190,E,4,06,1.6,110.897,M,31.590,M,1.7,0000*43
[2021-01-29 11:06:48.200] $GPGGA,020646.80,4327.72949343,N,14148.32931295,E,4,06,1.6,110.888,M,31.590,M,1.8,0000*4C
[2021-01-29 11:06:48.294] $GPGGA,020646.90,4327.72949611,N,14148.32931612,E,4,06,1.6,110.892,M,31.590,M,1.9,0000*4E
[2021-01-29 11:06:48.412] $GPGGA,020647.00,4327.72949333,N,14148.32930878,E,4,06,1.6,110.885,M,31.590,M,2.0,0000*4C
[2021-01-29 11:06:48.505] $GPGGA,020647.10,4327.72949401,N,14148.32930782,E,4,06,1.6,110.893,M,31.590,M,2.1,0000*47
[2021-01-29 11:06:48.599] $GPGGA,020647.20,4327.72949207,N,14148.32931152,E,4,06,1.6,110.889,M,31.590,M,2.2,0000*46
[2021-01-29 11:06:48.693] $GPGGA,020647.30,4327.72949206,N,14148.32930982,E,4,06,1.6,110.888,M,31.590,M,2.3,0000*42
[2021-01-29 11:06:48.802] $GPGGA,020647.40,4327.72949237,N,14148.32931232,E,4,06,1.6,110.892,M,31.590,M,2.4,0000*4A
[2021-01-29 11:06:48.896] $GPGGA,020647.50,4327.72949450,N,14148.32931057,E,4,06,1.6,110.885,M,31.590,M,2.5,0000*4A
[2021-01-29 11:06:49.005] $GPGGA,020647.60,4327.72949366,N,14148.32931045,E,4,06,1.6,110.893,M,31.590,M,2.6,0000*4C
[2021-01-29 11:06:49.099] $GPGGA,020647.70,4327.72948603,N,14148.32931329,E,4,06,1.6,110.880,M,31.590,M,1.7,0000*43
[2021-01-29 11:06:49.208] $GPGGA,020647.80,4327.72948734,N,14148.32931289,E,4,06,1.6,110.888,M,31.590,M,1.8,0000*45
[2021-01-29 11:06:49.302] $GPGGA,020647.90,4327.72948732,N,14148.32931106,E,4,06,1.6,110.884,M,31.590,M,1.9,0000*4B
[2021-01-29 11:06:49.411] $GPGGA,020648.00,4327.72948661,N,14148.32931296,E,4,06,1.6,110.883,M,31.590,M,2.0,0000*4D
[2021-01-29 11:06:49.505] $GPGGA,020648.10,4327.72948590,N,14148.32931530,E,4,06,1.6,110.889,M,31.590,M,2.1,0000*41
[2021-01-29 11:06:49.599] $GPGGA,020648.20,4327.72948785,N,14148.32931178,E,4,06,1.6,110.884,M,31.590,M,2.2,0000*42
[2021-01-29 11:06:49.693] $GPGGA,020648.30,4327.72948602,N,14148.32931174,E,4,06,1.6,110.884,M,31.590,M,2.3,0000*40
[2021-01-29 11:06:49.802] $GPGGA,020648.40,4327.72948743,N,14148.32931120,E,4,06,1.6,110.882,M,31.590,M,2.4,0000*43
[2021-01-29 11:06:49.896] $GPGGA,020648.50,4327.72948554,N,14148.32931552,E,4,06,1.6,110.886,M,31.590,M,2.5,0000*42
[2021-01-29 11:06:50.005] $GPGGA,020648.60,4327.72948599,N,14148.32931235,E,4,06,1.6,110.890,M,31.590,M,2.6,0000*42
[2021-01-29 11:06:50.099] $GPGGA,020648.70,4327.72948899,N,14148.32931810,E,4,06,1.6,110.899,M,31.590,M,1.7,0000*48
[2021-01-29 11:06:50.208] $GPGGA,020648.80,4327.72949230,N,14148.32931829,E,4,06,1.6,110.894,M,31.590,M,1.8,0000*47
[2021-01-29 11:06:50.297] $GPGGA,020648.90,4327.72948894,N,14148.32931744,E,4,06,1.6,110.904,M,31.590,M,1.9,0000*4E
[2021-01-29 11:06:50.407] $GPGGA,020649.00,4327.72948799,N,14148.32932002,E,4,06,1.6,110.899,M,31.590,M,2.0,0000*4D
[2021-01-29 11:06:50.501] $GPGGA,020649.10,4327.72949055,N,14148.32931912,E,4,06,1.6,110.902,M,31.590,M,2.1,0000*43
[2021-01-29 11:06:50.610] $GPGGA,020649.20,4327.72948927,N,14148.32931882,E,4,06,1.6,110.887,M,31.590,M,2.2,0000*4A
[2021-01-29 11:06:50.704] $GPGGA,020649.30,4327.72948820,N,14148.32931891,E,4,06,1.6,110.893,M,31.590,M,2.3,0000*4B
[2021-01-29 11:06:50.813] $GPGGA,020649.40,4327.72948719,N,14148.32932088,E,4,06,1.6,110.891,M,31.590,M,2.4,0000*4F
[2021-01-29 11:06:50.891] $GPGGA,020649.50,4327.72948780,N,14148.32932065,E,4,06,1.6,110.897,M,31.590,M,2.5,0000*4A
[2021-01-29 11:06:51.001] $GPGGA,020649.60,4327.72949045,N,14148.32932215,E,4,06,1.6,110.888,M,31.590,M,2.6,0000*4E
[2021-01-29 11:06:51.094] $GPGGA,020649.70,4327.72949250,N,14148.32931833,E,4,06,1.6,110.899,M,31.590,M,1.7,0000*46
[2021-01-29 11:06:51.204] $GPGGA,020649.80,4327.72949161,N,14148.32931724,E,4,06,1.6,110.908,M,31.590,M,1.8,0000*47
[2021-01-29 11:06:51.299] $GPGGA,020649.90,4327.72949288,N,14148.32931583,E,4,06,1.6,110.912,M,31.590,M,1.9,0000*47
[2021-01-29 11:06:51.409] $GPGGA,020650.00,4327.72949229,N,14148.32931929,E,4,06,1.6,110.901,M,31.590,M,2.0,0000*49
[2021-01-29 11:06:51.503] $GPGGA,020650.10,4327.72949216,N,14148.32931784,E,4,06,1.6,110.905,M,31.590,M,2.1,0000*48
[2021-01-29 11:06:51.612] $GPGGA,020650.20,4327.72949118,N,14148.32931818,E,4,06,1.6,110.903,M,31.590,M,2.2,0000*49
[2021-01-29 11:06:51.706] $GPGGA,020650.30,4327.72949064,N,14148.32931820,E,4,06,1.6,110.906,M,31.590,M,2.3,0000*4D
[2021-01-29 11:06:51.799] $GPGGA,020650.40,4327.72949192,N,14148.32931914,E,4,06,1.6,110.906,M,31.590,M,2.4,0000*43
[2021-01-29 11:06:51.909] $GPGGA,020650.50,4327.72949211,N,14148.32931825,E,4,06,1.6,110.897,M,31.590,M,2.5,0000*41
[2021-01-29 11:06:52.003] $GPGGA,020650.60,4327.72949091,N,14148.32931940,E,4,06,1.6,110.898,M,31.590,M,2.6,0000*46
[2021-01-29 11:06:52.096] $GPGGA,020650.70,4327.72949101,N,14148.32931794,E,4,06,1.6,110.885,M,31.590,M,1.7,0000*46
[2021-01-29 11:06:52.206] $GPGGA,020650.80,4327.72949149,N,14148.32931678,E,4,06,1.6,110.893,M,31.590,M,1.8,0000*4E
[2021-01-29 11:06:52.301] $GPGGA,020650.90,4327.72948963,N,14148.32931735,E,4,06,1.6,110.889,M,31.590,M,1.9,0000*4C
[2021-01-29 11:06:52.410] $GPGGA,020651.00,4327.72949210,N,14148.32931590,E,4,06,1.6,110.890,M,31.590,M,2.0,0000*45
[2021-01-29 11:06:52.504] $GPGGA,020651.10,4327.72949003,N,14148.32931815,E,4,06,1.6,110.881,M,31.590,M,2.1,0000*45
[2021-01-29 11:06:52.613] $GPGGA,020651.20,4327.72948958,N,14148.32931845,E,4,06,1.6,110.887,M,31.590,M,2.2,0000*40
[2021-01-29 11:06:52.707] $GPGGA,020651.30,4327.72949092,N,14148.32931790,E,4,06,1.6,110.883,M,31.590,M,2.3,0000*4D
[2021-01-29 11:06:52.801] $GPGGA,020651.40,4327.72949133,N,14148.32931957,E,4,06,1.6,110.890,M,31.590,M,2.4,0000*40
[2021-01-29 11:06:52.910] $GPGGA,020651.50,4327.72948957,N,14148.32931826,E,4,06,1.6,110.887,M,31.590,M,2.5,0000*4A
[2021-01-29 11:06:53.004] $GPGGA,020651.60,4327.72949245,N,14148.32931857,E,4,06,1.6,110.891,M,31.590,M,2.6,0000*42
[2021-01-29 11:06:53.098] $GPGGA,020651.70,4327.72948863,N,14148.32931161,E,4,06,1.6,110.882,M,31.590,M,1.7,0000*40
[2021-01-29 11:06:53.207] $GPGGA,020651.80,4327.72949111,N,14148.32931751,E,4,06,1.6,110.891,M,31.590,M,1.8,0000*4A
[2021-01-29 11:06:53.303] $GPGGA,020651.90,4327.72928611,N,14148.32928957,E,2,12,0.9,111.302,M,31.590,M,1.8,0000*46
[2021-01-29 11:06:53.724] $GPGGA,020652.00,4327.72928612,N,14148.32928958,E,2,12,0.9,111.302,M,31.590,M,2.0,0000*4B
[2021-01-29 11:06:53.771] $GPGGA,020652.10,4327.72928612,N,14148.32928958,E,2,11,0.9,111.302,M,31.590,M,2.0,0000*49
[2021-01-29 11:06:53.771] $GPGGA,020652.20,4327.72935163,N,14148.32932770,E,2,11,1.1,111.253,M,31.590,M,2.2,0000*46
[2021-01-29 11:06:53.771] $GPGGA,020652.30,4327.72929913,N,14148.32928715,E,2,11,1.1,111.290,M,31.590,M,2.2,0000*42
[2021-01-29 11:06:53.803] $GPGGA,020652.40,4327.72931247,N,14148.32928407,E,2,11,1.1,111.279,M,31.590,M,2.4,0000*47
[2021-01-29 11:06:53.896] $GPGGA,020652.50,4327.72932811,N,14148.32927951,E,2,11,1.1,111.269,M,31.590,M,2.4,0000*4C
[2021-01-29 11:06:53.990] $GPGGA,020652.60,4327.72934458,N,14148.32927414,E,2,09,1.2,111.259,M,31.590,M,2.6,0000*4F
[2021-01-29 11:06:54.099] $GPGGA,020652.70,4327.72936166,N,14148.32927059,E,2,09,1.2,111.248,M,31.590,M,2.6,0000*49
[2021-01-29 11:06:54.193] $GPGGA,020652.80,4327.72937924,N,14148.32926992,E,2,07,1.3,111.235,M,31.590,M,1.8,0000*4E
[2021-01-29 11:06:54.289] $GPGGA,020652.90,4327.72939901,N,14148.32926480,E,2,07,1.3,111.225,M,31.590,M,1.8,0000*49
[2021-01-29 11:06:54.398] $GPGGA,020653.00,4327.72942250,N,14148.32925572,E,2,07,1.3,111.221,M,31.590,M,2.0,0000*42
[2021-01-29 11:06:54.492] $GPGGA,020653.10,4327.72944465,N,14148.32924744,E,2,07,1.3,111.210,M,31.590,M,2.0,0000*41
[2021-01-29 11:06:54.601] $GPGGA,020653.20,4327.72946438,N,14148.32924499,E,2,05,4.5,111.192,M,31.590,M,2.2,0000*41
[2021-01-29 11:06:54.695] $GPGGA,020653.30,4327.72948427,N,14148.32924525,E,2,03,4.5,111.175,M,31.590,M,2.2,0000*49
[2021-01-29 11:06:54.789] $GPGGA,020653.40,4327.72950579,N,14148.32924615,E,1,03,17.0,111.150,M,31.590,M,,*50
[2021-01-29 11:06:54.867] $GPGGA,020653.50,4327.72953144,N,14148.32924046,E,1,03,17.0,111.133,M,31.590,M,,*5D
[2021-01-29 11:06:54.992] $GPGGA,020653.60,4327.72955446,N,14148.32924290,E,1,02,12.6,111.108,M,31.590,M,,*5C
[2021-01-29 11:06:55.070] $GPGGA,020653.70,4327.72957801,N,14148.32924481,E,1,02,12.6,111.080,M,31.590,M,,*57
[2021-01-29 11:06:55.164] $GPGGA,,,,,,,,,,M,,M,,*56
[2021-01-29 11:06:55.291] $GPGGA,020653.90,4327.72962550,N,14148.32924852,E,1,01,12.6,111.019,M,31.590,M,,*57
[2021-01-29 11:06:55.370] $GPGGA,020654.00,4327.72965257,N,14148.32934495,E,1,02,3.3,110.955,M,31.590,M,,*6E
[2021-01-29 11:06:55.479] $GPGGA,020654.10,4327.72968582,N,14148.32941057,E,1,01,3.3,110.920,M,31.590,M,,*64
[2021-01-29 11:06:55.588] $GPGGA,020654.20,4327.72972978,N,14148.32951903,E,1,01,1412.8,110.886,M,31.590,M,,*5F
[2021-01-29 11:06:55.666] $GPGGA,020654.30,4327.72976721,N,14148.32957595,E,1,01,1412.8,110.861,M,31.590,M,,*54
[2021-01-29 11:06:55.791] $GPGGA,,,,,,,,,,M,,M,,*56
[2021-01-29 11:06:55.885] $GPGGA,020654.50,4327.72984096,N,14148.32967579,E,1,01,1412.8,110.802,M,31.590,M,,*50
[2021-01-29 11:06:55.963] $GPGGA,,,,,,,,,,M,,M,,*56
[2021-01-29 11:06:56.182] $GPGGA,,,,,,,,,,M,,M,,*56
[2021-01-29 11:06:56.370] $GPGGA,,,,,,,,,,M,,M,,*56
[2021-01-29 11:06:56.573] $GPGGA,,,,,,,,,,M,,M,,*56
[2021-01-29 11:06:56.792] $GPGGA,020655.40,4327.73021274,N,14148.33027156,E,1,01,1412.8,110.454,M,31.590,M,,*53
[2021-01-29 11:06:56.870] $GPGGA,020655.50,4327.73026705,N,14148.33040986,E,1,01,1412.8,110.472,M,31.590,M,,*56
[2021-01-29 11:06:56.995] $GPGGA,020655.60,4327.73034882,N,14148.33074654,E,1,01,1412.8,110.460,M,31.590,M,,*52
[2021-01-29 11:06:57.073] $GPGGA,020655.70,4327.73040569,N,14148.33089839,E,1,01,1412.8,110.475,M,31.590,M,,*5B
[2021-01-29 11:06:57.198] $GPGGA,020655.80,4327.73048802,N,14148.33124018,E,1,01,1412.8,110.466,M,31.590,M,,*53
[2021-01-29 11:06:57.280] $GPGGA,020655.90,4327.73054209,N,14148.33137224,E,1,01,1412.8,110.483,M,31.590,M,,*5A
[2021-01-29 11:06:57.389] $GPGGA,,,,,,,,,,M,,M,,*56
[2021-01-29 11:06:57.577] $GPGGA,020656.20,4327.73073445,N,14148.33196434,E,1,01,1412.8,110.393,M,31.590,M,,*53
[2021-01-29 11:06:57.780] $GPGGA,,,,,,,,,,M,,M,,*56
[2021-01-29 11:06:57.983] $GPGGA,,,,,,,,,,M,,M,,*56
[2021-01-29 11:06:58.186] $GPGGA,,,,,,,,,,M,,M,,*56
[2021-01-29 11:06:58.372] $GPGGA,,,,,,,,,,M,,M,,*56
[2021-01-29 11:06:58.591] $GPGGA,020657.20,4327.73138153,N,14148.33365835,E,1,01,1412.8,110.063,M,31.590,M,,*51
[2021-01-29 11:06:58.778] $GPGGA,,,,,,,,,,M,,M,,*56
[2021-01-29 11:06:58.981] $GPGGA,,,,,,,,,,M,,M,,*56
[2021-01-29 11:06:59.184] $GPGGA,,,,,,,,,,M,,M,,*56
[2021-01-29 11:06:59.374] $GPGGA,,,,,,,,,,M,,M,,*56
[2021-01-29 11:06:59.577] $GPGGA,,,,,,,,,,M,,M,,*56
[2021-01-29 11:06:59.780] $GPGGA,,,,,,,,,,M,,M,,*56
[2021-01-29 11:06:59.983] $GPGGA,,,,,,,,,,M,,M,,*56
[2021-01-29 11:07:00.170] $GPGGA,,,,,,,,,,M,,M,,*56
[2021-01-29 11:07:00.378] $GPGGA,,,,,,,,,,M,,M,,*56
[2021-01-29 11:07:00.581] $GPGGA,,,,,,,,,,M,,M,,*56
[2021-01-29 11:07:00.784] $GPGGA,,,,,,,,,,M,,M,,*56
[2021-01-29 11:07:00.971] $GPGGA,,,,,,,,,,M,,M,,*56
[2021-01-29 11:07:01.190] $GPGGA,,,,,,,,,,M,,M,,*56
[2021-01-29 11:07:01.378] $GPGGA,,,,,,,,,,M,,M,,*56
[2021-01-29 11:07:01.581] $GPGGA,,,,,,,,,,M,,M,,*56
[2021-01-29 11:07:01.769] $GPGGA,,,,,,,,,,M,,M,,*56
[2021-01-29 11:07:01.987] $GPGGA,,,,,,,,,,M,,M,,*56
[2021-01-29 11:07:02.175] $GPGGA,,,,,,,,,,M,,M,,*56
[2021-01-29 11:07:02.379] $GPGGA,,,,,,,,,,M,,M,,*56
[2021-01-29 11:07:02.582] $GPGGA,,,,,,,,,,M,,M,,*56
[2021-01-29 11:07:02.785] $GPGGA,,,,,,,,,,M,,M,,*56
[2021-01-29 11:07:02.972] $GPGGA,,,,,,,,,,M,,M,,*56
[2021-01-29 11:07:03.175] $GPGGA,,,,,,,,,,M,,M,,*56
[2021-01-29 11:07:03.380] $GPGGA,,,,,,,,,,M,,M,,*56
[2021-01-29 11:07:03.583] $GPGGA,,,,,,,,,,M,,M,,*56
[2021-01-29 11:07:03.771] $GPGGA,,,,,,,,,,M,,M,,*56
[2021-01-29 11:07:03.989] $GPGGA,,,,,,,,,,M,,M,,*56
[2021-01-29 11:07:04.177] $GPGGA,,,,,,,,,,M,,M,,*56
[2021-01-29 11:07:04.382] $GPGGA,,,,,,,,,,M,,M,,*56
[2021-01-29 11:07:04.569] $GPGGA,,,,,,,,,,M,,M,,*56
[2021-01-29 11:07:04.788] $GPGGA,,,,,,,,,,M,,M,,*56
[2021-01-29 11:07:04.975] $GPGGA,,,,,,,,,,M,,M,,*56
[2021-01-29 11:07:05.179] $GPGGA,,,,,,,,,,M,,M,,*56
[2021-01-29 11:07:05.368] $GPGGA,,,,,,,,,,M,,M,,*56
[2021-01-29 11:07:05.586] $GPGGA,,,,,,,,,,M,,M,,*56
[2021-01-29 11:07:05.774] $GPGGA,,,,,,,,,,M,,M,,*56
[2021-01-29 11:07:05.977] $GPGGA,,,,,,,,,,M,,M,,*56
[2021-01-29 11:07:06.180] $GPGGA,,,,,,,,,,M,,M,,*56
[2021-01-29 11:07:06.387] $GPGGA,,,,,,,,,,M,,M,,*56
[2021-01-29 11:07:06.575] $GPGGA,,,,,,,,,,M,,M,,*56
[2021-01-29 11:07:06.778] $GPGGA,,,,,,,,,,M,,M,,*56
[2021-01-29 11:07:06.981] $GPGGA,,,,,,,,,,M,,M,,*56
[2021-01-29 11:07:07.184] $GPGGA,,,,,,,,,,M,,M,,*56
[2021-01-29 11:07:07.370] $GPGGA,,,,,,,,,,M,,M,,*56
[2021-01-29 11:07:07.573] $GPGGA,,,,,,,,,,M,,M,,*56
[2021-01-29 11:07:07.776] $GPGGA,,,,,,,,,,M,,M,,*56
[2021-01-29 11:07:07.979] $GPGGA,,,,,,,,,,M,,M,,*56
[2021-01-29 11:07:08.182] $GPGGA,,,,,,,,,,M,,M,,*56
[2021-01-29 11:07:08.390] $GPGGA,,,,,,,,,,M,,M,,*56
[2021-01-29 11:07:08.577] $GPGGA,,,,,,,,,,M,,M,,*56
[2021-01-29 11:07:08.780] $GPGGA,,,,,,,,,,M,,M,,*56
[2021-01-29 11:07:08.984] $GPGGA,,,,,,,,,,M,,M,,*56
[2021-01-29 11:07:09.202] $GPGGA,020707.80,4327.73086680,N,14148.33082484,E,1,04,1.9,110.337,M,31.590,M,,*6F
[2021-01-29 11:07:09.295] $GPGGA,020707.90,4327.73086933,N,14148.33082779,E,1,04,1.9,110.341,M,31.590,M,,*69
[2021-01-29 11:07:09.404] $GPGGA,020708.00,4327.73008520,N,14148.32944341,E,2,07,1.3,110.320,M,31.590,M,2.0,0000*4B
[2021-01-29 11:07:09.498] $GPGGA,020708.10,4327.73008640,N,14148.32944430,E,2,06,1.3,110.326,M,31.590,M,2.0,0000*49
[2021-01-29 11:07:09.607] $GPGGA,020708.20,4327.73014026,N,14148.32951291,E,2,09,1.2,110.238,M,31.590,M,2.2,0000*4A
[2021-01-29 11:07:09.701] $GPGGA,020708.30,4327.73014019,N,14148.32951319,E,2,09,1.2,110.240,M,31.590,M,2.2,0000*49
[2021-01-29 11:07:09.810] $GPGGA,020708.40,4327.73014304,N,14148.32955265,E,2,10,1.2,110.451,M,31.590,M,2.4,0000*47
[2021-01-29 11:07:09.888] $GPGGA,020708.50,4327.73014169,N,14148.32955375,E,2,10,1.2,110.452,M,31.590,M,2.4,0000*4C
[2021-01-29 11:07:09.998] $GPGGA,020708.60,4327.73010563,N,14148.32958040,E,2,11,0.9,111.041,M,31.590,M,2.6,0000*43
[2021-01-29 11:07:10.092] $GPGGA,020708.70,4327.73010639,N,14148.32958209,E,2,11,0.9,111.037,M,31.590,M,2.6,0000*40
[2021-01-29 11:07:10.201] $GPGGA,020708.80,4327.73008325,N,14148.32956139,E,2,11,0.9,111.334,M,31.590,M,1.8,0000*4D
[2021-01-29 11:07:10.297] $GPGGA,020708.90,4327.73008308,N,14148.32956096,E,2,11,0.9,111.338,M,31.590,M,1.8,0000*4B
[2021-01-29 11:07:10.406] $GPGGA,020709.00,4327.73008279,N,14148.32951427,E,2,11,1.2,111.414,M,31.590,M,2.0,0000*45
[2021-01-29 11:07:10.500] $GPGGA,020709.10,4327.73008419,N,14148.32951197,E,2,11,1.2,111.408,M,31.590,M,2.0,0000*47
[2021-01-29 11:07:10.609] $GPGGA,020709.20,4327.73007953,N,14148.32947892,E,2,11,1.2,111.495,M,31.590,M,2.2,0000*45
[2021-01-29 11:07:10.703] $GPGGA,020709.30,4327.73008199,N,14148.32947848,E,2,11,1.2,111.495,M,31.590,M,2.2,0000*42
[2021-01-29 11:07:10.797] $GPGGA,020709.40,4327.73007519,N,14148.32945396,E,2,11,0.9,111.552,M,31.590,M,2.4,0000*4A
[2021-01-29 11:07:10.891] $GPGGA,020709.50,4327.73007637,N,14148.32945362,E,2,11,0.9,111.554,M,31.590,M,2.4,0000*49
[2021-01-29 11:07:11.000] $GPGGA,020709.60,4327.73007140,N,14148.32943795,E,2,11,1.2,111.599,M,31.590,M,2.6,0000*4E
[2021-01-29 11:07:11.094] $GPGGA,020709.70,4327.73007155,N,14148.32943679,E,2,11,1.2,111.598,M,31.590,M,2.6,0000*49
[2021-01-29 11:07:11.203] $GPGGA,020709.80,4327.73007316,N,14148.32942181,E,2,11,0.9,111.776,M,31.590,M,1.8,0000*47
[2021-01-29 11:07:11.298] $GPGGA,020709.90,4327.73007270,N,14148.32942003,E,2,11,0.9,111.777,M,31.590,M,1.8,0000*4D
[2021-01-29 11:07:11.407] $GPGGA,020710.00,4327.73007519,N,14148.32939838,E,2,11,0.9,111.866,M,31.590,M,2.0,0000*4C
[2021-01-29 11:07:11.501] $GPGGA,020710.10,4327.73007808,N,14148.32939813,E,2,11,0.9,111.860,M,31.590,M,2.0,0000*4F
[2021-01-29 11:07:11.610] $GPGGA,020710.20,4327.73004172,N,14148.32941274,E,2,11,0.9,111.838,M,31.590,M,2.2,0000*40
[2021-01-29 11:07:11.689] $GPGGA,020710.30,4327.73004102,N,14148.32941114,E,2,11,0.9,111.838,M,31.590,M,2.2,0000*43
[2021-01-29 11:07:11.798] $GPGGA,020710.40,4327.73004021,N,14148.32938894,E,2,11,0.9,111.844,M,31.590,M,2.4,0000*46
[2021-01-29 11:07:11.907] $GPGGA,020710.50,4327.73003785,N,14148.32938924,E,2,11,0.9,111.846,M,31.590,M,2.4,0000*41
[2021-01-29 11:07:12.001] $GPGGA,020710.60,4327.73007274,N,14148.32940691,E,2,11,0.9,111.896,M,31.590,M,2.6,0000*4C
[2021-01-29 11:07:12.095] $GPGGA,020710.70,4327.73007274,N,14148.32940551,E,2,05,0.9,111.899,M,31.590,M,2.6,0000*48
[2021-01-29 11:07:12.204] $GPGGA,020710.80,4327.73005874,N,14148.32942892,E,2,05,1.6,111.890,M,31.590,M,1.8,0000*45
[2021-01-29 11:07:12.300] $GPGGA,020710.90,4327.73005930,N,14148.32942994,E,2,05,1.6,111.891,M,31.590,M,1.8,0000*43
[2021-01-29 11:07:12.409] $GPGGA,020711.00,4327.73004142,N,14148.32945146,E,2,05,1.6,111.889,M,31.590,M,2.0,0000*45
[2021-01-29 11:07:12.503] $GPGGA,020711.10,4327.73004346,N,14148.32945141,E,2,05,1.6,111.886,M,31.590,M,2.0,0000*4A
[2021-01-29 11:07:12.597] $GPGGA,020711.20,4327.73002639,N,14148.32947052,E,2,05,1.6,111.877,M,31.590,M,2.2,0000*4F
[2021-01-29 11:07:12.691] $GPGGA,020711.30,4327.73002754,N,14148.32946946,E,2,05,1.6,111.879,M,31.590,M,2.2,0000*47
[2021-01-29 11:07:12.800] $GPGGA,020711.40,4327.73001374,N,14148.32948581,E,2,05,1.6,111.862,M,31.590,M,2.4,0000*40
[2021-01-29 11:07:12.894] $GPGGA,020711.50,4327.73001495,N,14148.32948649,E,2,05,1.6,111.862,M,31.590,M,2.4,0000*4E
[2021-01-29 11:07:13.003] $GPGGA,020711.60,4327.73000199,N,14148.32950190,E,2,05,1.6,111.857,M,31.590,M,2.6,0000*4B
[2021-01-29 11:07:13.097] $GPGGA,020711.70,4327.73000211,N,14148.32950040,E,2,05,1.6,111.855,M,31.590,M,2.6,0000*47
[2021-01-29 11:07:13.206] $GPGGA,020711.80,4327.72998958,N,14148.32951931,E,2,05,1.6,111.855,M,31.590,M,1.8,0000*44
[2021-01-29 11:07:13.301] $GPGGA,020711.90,4327.72999162,N,14148.32951832,E,2,05,1.6,111.856,M,31.590,M,1.8,0000*44
[2021-01-29 11:07:13.379] $GPGGA,020712.00,4327.72997611,N,14148.32953415,E,2,05,1.6,111.856,M,31.590,M,2.0,0000*43
[2021-01-29 11:07:13.489] $GPGGA,020712.10,4327.72997832,N,14148.32953494,E,2,05,1.6,111.854,M,31.590,M,2.0,0000*46
[2021-01-29 11:07:13.598] $GPGGA,020712.20,4327.72996399,N,14148.32954630,E,2,05,1.6,111.849,M,31.590,M,2.2,0000*4B
[2021-01-29 11:07:13.692] $GPGGA,020712.30,4327.72996476,N,14148.32954716,E,2,05,1.6,111.843,M,31.590,M,2.2,0000*43
[2021-01-29 11:07:13.801] $GPGGA,020712.40,4327.72994726,N,14148.32956062,E,2,05,1.6,111.851,M,31.590,M,2.4,0000*43
[2021-01-29 11:07:13.895] $GPGGA,020712.50,4327.72994711,N,14148.32956035,E,2,05,1.6,111.849,M,31.590,M,2.4,0000*4D
[2021-01-29 11:07:14.004] $GPGGA,020712.60,4327.72993142,N,14148.32956726,E,2,05,1.6,111.854,M,31.590,M,2.6,0000*42
[2021-01-29 11:07:14.098] $GPGGA,020712.70,4327.72993227,N,14148.32956962,E,2,05,1.6,111.857,M,31.590,M,2.6,0000*4E
[2021-01-29 11:07:14.207] $GPGGA,020712.80,4327.72991666,N,14148.32957387,E,2,05,1.6,111.836,M,31.590,M,1.8,0000*48
[2021-01-29 11:07:14.288] $GPGGA,020712.90,4327.72991901,N,14148.32957526,E,2,05,1.6,111.829,M,31.590,M,1.8,0000*44
[2021-01-29 11:07:14.397] $GPGGA,020713.00,4327.72990872,N,14148.32957689,E,2,05,1.6,111.816,M,31.590,M,2.0,0000*49
[2021-01-29 11:07:14.491] $GPGGA,020713.10,4327.72990838,N,14148.32957712,E,2,05,1.6,111.812,M,31.590,M,2.0,0000*41
[2021-01-29 11:07:14.600] $GPGGA,020713.20,4327.72989856,N,14148.32957698,E,2,05,1.6,111.803,M,31.590,M,2.2,0000*43
[2021-01-29 11:07:14.694] $GPGGA,020713.30,4327.72990068,N,14148.32957624,E,2,05,1.6,111.793,M,31.590,M,2.2,0000*4E
[2021-01-29 11:07:14.803] $GPGGA,020713.40,4327.72989301,N,14148.32957615,E,2,05,1.6,111.782,M,31.590,M,2.4,0000*49
[2021-01-29 11:07:14.897] $GPGGA,020713.50,4327.72989259,N,14148.32957615,E,2,05,1.6,111.779,M,31.590,M,2.4,0000*40
[2021-01-29 11:07:15.006] $GPGGA,020713.60,4327.72988527,N,14148.32957483,E,2,05,1.6,111.771,M,31.590,M,2.6,0000*4B
[2021-01-29 11:07:15.100] $GPGGA,020713.70,4327.72988543,N,14148.32957539,E,2,05,1.6,111.772,M,31.590,M,2.6,0000*4B
[2021-01-29 11:07:15.209] $GPGGA,020713.80,4327.72987990,N,14148.32956968,E,2,05,1.6,111.758,M,31.590,M,1.8,0000*45
[2021-01-29 11:07:15.289] $GPGGA,020713.90,4327.72988004,N,14148.32956980,E,2,05,1.6,111.752,M,31.590,M,1.8,0000*43
[2021-01-29 11:07:15.399] $GPGGA,020714.00,4327.72987281,N,14148.32956566,E,2,05,1.6,111.748,M,31.590,M,2.0,0000*49
[2021-01-29 11:07:15.492] $GPGGA,020714.10,4327.72987418,N,14148.32956482,E,2,05,1.6,111.741,M,31.590,M,2.0,0000*4C
[2021-01-29 11:07:15.602] $GPGGA,020714.20,4327.72986615,N,14148.32956004,E,2,05,1.6,111.734,M,31.590,M,2.2,0000*4B
[2021-01-29 11:07:15.696] $GPGGA,020714.30,4327.72986736,N,14148.32955944,E,2,05,1.6,111.726,M,31.590,M,2.2,0000*47
[2021-01-29 11:07:15.805] $GPGGA,020714.40,4327.72986019,N,14148.32955052,E,2,05,1.6,111.726,M,31.590,M,2.4,0000*42
[2021-01-29 11:07:15.899] $GPGGA,020714.50,4327.72986149,N,14148.32955200,E,2,05,1.6,111.720,M,31.590,M,2.4,0000*44
[2021-01-29 11:07:16.008] $GPGGA,020714.60,4327.72985445,N,14148.32955003,E,2,05,1.6,111.714,M,31.590,M,2.6,0000*49
[2021-01-29 11:07:16.102] $GPGGA,020714.70,4327.72985478,N,14148.32954948,E,2,05,1.6,111.716,M,31.590,M,2.6,0000*43
[2021-01-29 11:07:16.196] $GPGGA,020714.80,4327.72984875,N,14148.32955348,E,2,05,1.6,111.713,M,31.590,M,1.8,0000*4F
[2021-01-29 11:07:16.293] $GPGGA,020714.90,4327.72984899,N,14148.32955516,E,2,05,1.6,111.720,M,31.590,M,1.8,0000*41
[2021-01-29 11:07:16.403] $GPGGA,020715.00,4327.72984276,N,14148.32955874,E,2,05,1.6,111.715,M,31.590,M,2.0,0000*46
[2021-01-29 11:07:16.497] $GPGGA,020715.10,4327.72984254,N,14148.32955931,E,2,05,1.6,111.715,M,31.590,M,2.0,0000*47
[2021-01-29 11:07:16.606] $GPGGA,020715.20,4327.72983904,N,14148.32956232,E,2,05,1.6,111.700,M,31.590,M,2.2,0000*40
[2021-01-29 11:07:16.700] $GPGGA,020715.30,4327.72983940,N,14148.32956305,E,2,05,1.6,111.702,M,31.590,M,2.2,0000*46
[2021-01-29 11:07:16.809] $GPGGA,020715.40,4327.72983354,N,14148.32956633,E,2,05,1.6,111.690,M,31.590,M,2.4,0000*42
[2021-01-29 11:07:16.903] $GPGGA,020715.50,4327.72983358,N,14148.32956552,E,2,05,1.6,111.685,M,31.590,M,2.4,0000*4F
[2021-01-29 11:07:16.997] $GPGGA,020715.60,4327.72983084,N,14148.32956861,E,2,05,1.6,111.676,M,31.590,M,2.6,0000*4D
[2021-01-29 11:07:17.090] $GPGGA,020715.70,4327.72983198,N,14148.32956821,E,2,08,1.6,111.667,M,31.590,M,2.6,0000*49
[2021-01-29 11:07:17.200] $GPGGA,020715.80,4327.72981620,N,14148.32956286,E,2,08,1.3,111.643,M,31.590,M,1.8,0000*49
[2021-01-29 11:07:17.291] $GPGGA,020715.90,4327.72981498,N,14148.32956460,E,2,08,1.3,111.636,M,31.590,M,1.8,0000*45
[2021-01-29 11:07:17.401] $GPGGA,020716.00,4327.72980016,N,14148.32955690,E,2,08,1.3,111.615,M,31.590,M,2.0,0000*48
[2021-01-29 11:07:17.494] $GPGGA,020716.10,4327.72980044,N,14148.32955571,E,2,08,1.3,111.614,M,31.590,M,2.0,0000*43
[2021-01-29 11:07:17.604] $GPGGA,020716.20,4327.72978692,N,14148.32955618,E,2,08,1.3,111.583,M,31.590,M,2.2,0000*49
[2021-01-29 11:07:17.697] $GPGGA,020716.30,4327.72978815,N,14148.32955466,E,2,08,1.3,111.585,M,31.590,M,2.2,0000*44
[2021-01-29 11:07:17.807] $GPGGA,020716.40,4327.72978176,N,14148.32956235,E,2,08,1.3,111.556,M,31.590,M,2.4,0000*44
[2021-01-29 11:07:17.900] $GPGGA,020716.50,4327.72978066,N,14148.32956064,E,2,08,1.3,111.549,M,31.590,M,2.4,0000*4D
[2021-01-29 11:07:17.994] $GPGGA,020716.60,4327.72977467,N,14148.32956377,E,2,08,1.3,111.532,M,31.590,M,2.6,0000*4B
[2021-01-29 11:07:18.104] $GPGGA,020716.70,4327.72977612,N,14148.32956347,E,2,10,1.3,111.531,M,31.590,M,2.6,0000*43
[2021-01-29 11:07:18.197] $GPGGA,020716.80,4327.72977500,N,14148.32957224,E,2,10,1.2,111.532,M,31.590,M,1.8,0000*46
[2021-01-29 11:07:18.294] $GPGGA,020716.90,4327.72977653,N,14148.32957091,E,2,10,1.2,111.522,M,31.590,M,1.8,0000*4F
[2021-01-29 11:07:18.404] $GPGGA,020717.00,4327.72977477,N,14148.32957522,E,2,10,1.2,111.513,M,31.590,M,2.0,0000*47
[2021-01-29 11:07:18.497] $GPGGA,020717.10,4327.72977559,N,14148.32957493,E,2,10,1.2,111.510,M,31.590,M,2.0,0000*43
[2021-01-29 11:07:18.607] $GPGGA,020717.20,4327.72976775,N,14148.32957625,E,2,10,1.2,111.490,M,31.590,M,2.2,0000*49
[2021-01-29 11:07:18.701] $GPGGA,020717.30,4327.72976733,N,14148.32957555,E,2,10,1.2,111.483,M,31.590,M,2.2,0000*4C
[2021-01-29 11:07:18.794] $GPGGA,020717.40,4327.72976028,N,14148.32957718,E,2,10,1.2,111.460,M,31.590,M,2.4,0000*46
[2021-01-29 11:07:18.904] $GPGGA,020717.50,4327.72976174,N,14148.32957665,E,2,10,1.2,111.454,M,31.590,M,2.4,0000*43
[2021-01-29 11:07:18.997] $GPGGA,020717.60,4327.72975469,N,14148.32957803,E,2,10,1.2,111.430,M,31.590,M,2.6,0000*44
[2021-01-29 11:07:19.091] $GPGGA,020717.70,4327.72975654,N,14148.32957776,E,2,10,1.2,111.431,M,31.590,M,2.6,0000*45
[2021-01-29 11:07:19.200] $GPGGA,020717.80,4327.72976547,N,14148.32956196,E,2,10,1.2,111.423,M,31.590,M,1.8,0000*4F
[2021-01-29 11:07:19.294] $GPGGA,020717.90,4327.72976528,N,14148.32956258,E,2,10,1.2,111.423,M,31.590,M,1.8,0000*46
[2021-01-29 11:07:19.404] $GPGGA,020718.00,4327.72977544,N,14148.32954522,E,2,10,1.2,111.437,M,31.590,M,2.0,0000*4D
[2021-01-29 11:07:19.497] $GPGGA,020718.10,4327.72977659,N,14148.32954522,E,2,10,1.2,111.433,M,31.590,M,2.0,0000*47
[2021-01-29 11:07:19.607] $GPGGA,020718.20,4327.72978777,N,14148.32952857,E,2,10,1.2,111.441,M,31.590,M,2.2,0000*48
[2021-01-29 11:07:19.701] $GPGGA,020718.30,4327.72979021,N,14148.32952877,E,2,10,1.2,111.441,M,31.590,M,2.2,0000*4E
[2021-01-29 11:07:19.794] $GPGGA,020718.40,4327.72979421,N,14148.32952116,E,2,10,1.2,111.453,M,31.590,M,2.4,0000*46
[2021-01-29 11:07:19.888] $GPGGA,020718.50,4327.72979566,N,14148.32951854,E,2,10,1.2,111.451,M,31.590,M,2.4,0000*4B
[2021-01-29 11:07:19.997] $GPGGA,020718.60,4327.72979697,N,14148.32951336,E,2,10,1.2,111.456,M,31.590,M,2.6,0000*4F
[2021-01-29 11:07:20.091] $GPGGA,020718.70,4327.72979724,N,14148.32951324,E,2,10,1.2,111.456,M,31.590,M,2.6,0000*44
[2021-01-29 11:07:20.200] $GPGGA,020718.80,4327.72978451,N,14148.32952504,E,2,10,1.2,111.453,M,31.590,M,1.8,0000*44
[2021-01-29 11:07:20.296] $GPGGA,020718.90,4327.72978681,N,14148.32952421,E,2,10,1.2,111.447,M,31.590,M,1.8,0000*49
[2021-01-29 11:07:20.405] $GPGGA,020719.00,4327.72976960,N,14148.32954238,E,2,10,1.2,111.432,M,31.590,M,2.0,0000*4E
[2021-01-29 11:07:20.499] $GPGGA,020719.10,4327.72977146,N,14148.32954231,E,2,10,1.2,111.432,M,31.590,M,2.0,0000*4B
[2021-01-29 11:07:20.608] $GPGGA,020719.20,4327.72974604,N,14148.32955858,E,2,10,1.2,111.406,M,31.590,M,2.2,0000*4B
[2021-01-29 11:07:20.702] $GPGGA,020719.30,4327.72974719,N,14148.32955906,E,2,10,1.2,111.415,M,31.590,M,2.2,0000*4F
[2021-01-29 11:07:20.796] $GPGGA,020719.40,4327.72972921,N,14148.32957387,E,2,10,1.2,111.400,M,31.590,M,2.4,0000*48
[2021-01-29 11:07:20.890] $GPGGA,020719.50,4327.72973091,N,14148.32957302,E,2,10,1.2,111.392,M,31.590,M,2.4,0000*4B
[2021-01-29 11:07:20.999] $GPGGA,020719.60,4327.72971586,N,14148.32958629,E,2,10,1.2,111.389,M,31.590,M,2.6,0000*42
[2021-01-29 11:07:21.093] $GPGGA,020719.70,4327.72971709,N,14148.32958489,E,2,11,1.2,111.384,M,31.590,M,2.6,0000*42
[2021-01-29 11:07:21.202] $GPGGA,020719.80,4327.72970869,N,14148.32961562,E,2,11,0.9,111.394,M,31.590,M,1.8,0000*4D
[2021-01-29 11:07:21.297] $GPGGA,020719.90,4327.72970793,N,14148.32961366,E,2,11,0.9,111.392,M,31.590,M,1.8,0000*42
[2021-01-29 11:07:21.407] $GPGGA,020720.00,4327.72970043,N,14148.32963605,E,2,11,0.9,111.402,M,31.590,M,2.0,0000*4C
[2021-01-29 11:07:21.500] $GPGGA,020720.10,4327.72970049,N,14148.32963608,E,2,11,0.9,111.405,M,31.590,M,2.0,0000*4D
[2021-01-29 11:07:21.594] $GPGGA,020720.20,4327.72969449,N,14148.32964815,E,2,11,0.9,111.423,M,31.590,M,2.2,0000*41
[2021-01-29 11:07:21.704] $GPGGA,020720.30,4327.72969590,N,14148.32964833,E,2,11,0.9,111.427,M,31.590,M,2.2,0000*45
[2021-01-29 11:07:21.797] $GPGGA,020720.40,4327.72969340,N,14148.32965328,E,2,11,0.9,111.442,M,31.590,M,2.4,0000*4C
[2021-01-29 11:07:21.891] $GPGGA,020720.50,4327.72969532,N,14148.32965392,E,2,11,0.9,111.442,M,31.590,M,2.4,0000*4F
[2021-01-29 11:07:22.000] $GPGGA,020720.60,4327.72973191,N,14148.32961649,E,2,11,0.9,111.520,M,31.590,M,2.6,0000*4A
[2021-01-29 11:07:22.094] $GPGGA,020720.70,4327.72973106,N,14148.32961614,E,2,11,0.9,111.522,M,31.590,M,2.6,0000*4F
[2021-01-29 11:07:22.204] $GPGGA,020720.80,4327.72973811,N,14148.32960033,E,2,11,0.9,111.561,M,31.590,M,1.8,0000*47
[2021-01-29 11:07:22.299] $GPGGA,020720.90,4327.72973795,N,14148.32960142,E,2,11,0.9,111.562,M,31.590,M,1.8,0000*41
[2021-01-29 11:07:22.393] $GPGGA,020721.00,4327.72975433,N,14148.32957392,E,2,11,0.9,111.625,M,31.590,M,2.0,0000*40
[2021-01-29 11:07:22.502] $GPGGA,020721.10,4327.72975448,N,14148.32957367,E,2,11,0.9,111.624,M,31.590,M,2.0,0000*46
[2021-01-29 11:07:22.596] $GPGGA,020721.20,4327.72976968,N,14148.32954374,E,2,11,0.9,111.694,M,31.590,M,2.2,0000*41
[2021-01-29 11:07:22.690] $GPGGA,020721.30,4327.72976954,N,14148.32954564,E,2,11,0.9,111.701,M,31.590,M,2.2,0000*45
[2021-01-29 11:07:22.799] $GPGGA,020721.40,4327.72977826,N,14148.32952767,E,2,11,0.9,111.761,M,31.590,M,2.4,0000*40
[2021-01-29 11:07:22.893] $GPGGA,020721.50,4327.72977907,N,14148.32952703,E,2,11,0.9,111.762,M,31.590,M,2.4,0000*42
[2021-01-29 11:07:23.002] $GPGGA,020721.60,4327.72978070,N,14148.32951605,E,2,11,0.9,111.821,M,31.590,M,2.6,0000*49
[2021-01-29 11:07:23.096] $GPGGA,020721.70,4327.72978181,N,14148.32951486,E,2,11,0.9,111.820,M,31.590,M,2.6,0000*4F
[2021-01-29 11:07:23.206] $GPGGA,020721.80,4327.72977826,N,14148.32950305,E,2,11,0.9,111.890,M,31.590,M,1.8,0000*40
[2021-01-29 11:07:23.301] $GPGGA,020721.90,4327.72978018,N,14148.32950512,E,2,11,0.9,111.883,M,31.590,M,1.8,0000*49
[2021-01-29 11:07:23.379] $GPGGA,020722.00,4327.72977590,N,14148.32949706,E,2,11,0.9,111.937,M,31.590,M,2.0,0000*43
[2021-01-29 11:07:23.488] $GPGGA,020722.10,4327.72977759,N,14148.32949730,E,2,11,0.9,111.932,M,31.590,M,2.0,0000*45
[2021-01-29 11:07:23.598] $GPGGA,020722.20,4327.72977342,N,14148.32949150,E,2,11,0.9,111.970,M,31.590,M,2.2,0000*4C
[2021-01-29 11:07:23.692] $GPGGA,020722.30,4327.72977564,N,14148.32949142,E,2,11,0.9,111.973,M,31.590,M,2.2,0000*4F
[2021-01-29 11:07:23.801] $GPGGA,020722.40,4327.72977259,N,14148.32948865,E,2,11,0.9,112.007,M,31.590,M,2.4,0000*43
[2021-01-29 11:07:23.895] $GPGGA,020722.50,4327.72977295,N,14148.32948780,E,2,11,0.9,112.009,M,31.590,M,2.4,0000*48
[2021-01-29 11:07:24.004] $GPGGA,020722.60,4327.72977001,N,14148.32948195,E,2,11,0.9,112.036,M,31.590,M,2.6,0000*48
[2021-01-29 11:07:24.098] $GPGGA,020722.70,4327.72977045,N,14148.32948318,E,2,11,0.9,112.040,M,31.590,M,2.6,0000*4F
[2021-01-29 11:07:24.207] $GPGGA,020722.80,4327.72948983,N,14148.32931467,E,4,06,1.6,110.900,M,31.590,M,1.8,0000*42
[2021-01-29 11:07:24.304] $GPGGA,020722.90,4327.72948955,N,14148.32931467,E,4,06,1.6,110.898,M,31.590,M,1.9,0000*49
[2021-01-29 11:07:24.413] $GPGGA,020723.00,4327.72949070,N,14148.32931333,E,4,06,1.6,110.902,M,31.590,M,2.0,0000*40
[2021-01-29 11:07:24.491] $GPGGA,020723.10,4327.72949100,N,14148.32931402,E,4,06,1.6,110.896,M,31.590,M,2.1,0000*4F
[2021-01-29 11:07:24.601] $GPGGA,020723.20,4327.72948991,N,14148.32931342,E,4,06,1.6,110.907,M,31.590,M,2.2,0000*44
[2021-01-29 11:07:24.694] $GPGGA,020723.30,4327.72949016,N,14148.32931366,E,4,06,1.6,110.902,M,31.590,M,2.3,0000*40
[2021-01-29 11:07:24.804] $GPGGA,020723.40,4327.72948989,N,14148.32931408,E,4,06,1.6,110.906,M,31.590,M,2.4,0000*45
[2021-01-29 11:07:24.897] $GPGGA,020723.50,4327.72949048,N,14148.32931571,E,4,06,1.6,110.897,M,31.590,M,2.5,0000*46
[2021-01-29 11:07:25.007] $GPGGA,020723.60,4327.72949199,N,14148.32931434,E,4,06,1.6,110.902,M,31.590,M,2.6,0000*46
[2021-01-29 11:07:25.101] $GPGGA,020723.70,4327.72949155,N,14148.32931365,E,4,06,1.6,110.886,M,31.590,M,1.7,0000*4B
[2021-01-29 11:07:25.210] $GPGGA,020723.80,4327.72949067,N,14148.32931539,E,4,06,1.6,110.881,M,31.590,M,1.8,0000*43
[2021-01-29 11:07:25.288] $GPGGA,020723.90,4327.72949302,N,14148.32931428,E,4,06,1.6,110.887,M,31.590,M,1.9,0000*44
[2021-01-29 11:07:25.398] $GPGGA,020724.00,4327.72949092,N,14148.32931301,E,4,06,1.6,110.883,M,31.590,M,2.0,0000*42
[2021-01-29 11:07:25.491] $GPGGA,020724.10,4327.72949133,N,14148.32931514,E,4,06,1.6,110.878,M,31.590,M,2.1,0000*4E
[2021-01-29 11:07:25.601] $GPGGA,020724.20,4327.72949265,N,14148.32931447,E,4,06,1.6,110.885,M,31.590,M,2.2,0000*4B
[2021-01-29 11:07:25.695] $GPGGA,020724.30,4327.72949215,N,14148.32931518,E,4,06,1.6,110.888,M,31.590,M,2.3,0000*4A
[2021-01-29 11:07:25.804] $GPGGA,020724.40,4327.72949188,N,14148.32931431,E,4,06,1.6,110.884,M,31.590,M,2.4,0000*4B
[2021-01-29 11:07:25.898] $GPGGA,020724.50,4327.72949158,N,14148.32931487,E,4,06,1.6,110.888,M,31.590,M,2.5,0000*47
[2021-01-29 11:07:26.007] $GPGGA,020724.60,4327.72949281,N,14148.32931667,E,4,06,1.6,110.881,M,31.590,M,2.6,0000*45
[2021-01-29 11:07:26.101] $GPGGA,020724.70,4327.72948830,N,14148.32931195,E,4,06,1.6,110.895,M,31.590,M,1.7,0000*48
[2021-01-29 11:07:26.210] $GPGGA,020724.80,4327.72948723,N,14148.32931275,E,4,06,1.6,110.889,M,31.590,M,1.8,0000*45
[2021-01-29 11:07:26.291] $GPGGA,020724.90,4327.72948937,N,14148.32931193,E,4,06,1.6,110.888,M,31.590,M,1.9,0000*44
[2021-01-29 11:07:26.401] $GPGGA,020725.00,4327.72948779,N,14148.32931336,E,4,06,1.6,110.892,M,31.590,M,2.0,0000*44
[2021-01-29 11:07:26.494] $GPGGA,020725.10,4327.72948893,N,14148.32931203,E,4,06,1.6,110.887,M,31.590,M,2.1,0000*4C
[2021-01-29 11:07:26.604] $GPGGA,020725.20,4327.72948828,N,14148.32931308,E,4,06,1.6,110.888,M,31.590,M,2.2,0000*49
[2021-01-29 11:07:26.697] $GPGGA,020725.30,4327.72948908,N,14148.32931159,E,4,06,1.6,110.887,M,31.590,M,2.3,0000*43
[2021-01-29 11:07:26.807] $GPGGA,020725.40,4327.72948835,N,14148.32931259,E,4,06,1.6,110.889,M,31.590,M,2.4,0000*41
[2021-01-29 11:07:26.901] $GPGGA,020725.50,4327.72949065,N,14148.32931231,E,4,06,1.6,110.883,M,31.590,M,2.5,0000*49
[2021-01-29 11:07:27.010] $GPGGA,020725.60,4327.72948729,N,14148.32931125,E,4,06,1.6,110.888,M,31.590,M,2.6,0000*4A
[2021-01-29 11:07:27.104] $GPGGA,020725.70,4327.72949099,N,14148.32931439,E,4,06,1.6,110.904,M,31.590,M,1.7,0000*49
[2021-01-29 11:07:27.197] $GPGGA,020725.80,4327.72948763,N,14148.32931564,E,4,06,1.6,110.906,M,31.590,M,1.8,0000*41
[2021-01-29 11:07:27.291] $GPGGA,020725.90,4327.72949110,N,14148.32931519,E,4,06,1.6,110.906,M,31.590,M,1.9,0000*48
[2021-01-29 11:07:27.401] $GPGGA,020726.00,4327.72948947,N,14148.32931520,E,4,06,1.6,110.910,M,31.590,M,2.0,0000*4E
[2021-01-29 11:07:27.495] $GPGGA,020726.10,4327.72949221,N,14148.32931467,E,4,06,1.6,110.907,M,31.590,M,2.1,0000*40
[2021-01-29 11:07:27.604] $GPGGA,020726.20,4327.72949060,N,14148.32931272,E,4,06,1.6,110.907,M,31.590,M,2.2,0000*45
[2021-01-29 11:07:27.698] $GPGGA,020726.30,4327.72949210,N,14148.32931380,E,4,06,1.6,110.903,M,31.590,M,2.3,0000*48
[2021-01-29 11:07:27.807] $GPGGA,020726.40,4327.72948973,N,14148.32931484,E,4,06,1.6,110.909,M,31.590,M,2.4,0000*4E
[2021-01-29 11:07:27.901] $GPGGA,020726.50,4327.72949191,N,14148.32931448,E,4,06,1.6,110.901,M,31.590,M,2.5,0000*43
[2021-01-29 11:07:28.010] $GPGGA,020726.60,4327.72949244,N,14148.32931129,E,4,06,1.6,110.914,M,31.590,M,2.6,0000*4E
[2021-01-29 11:07:28.104] $GPGGA,020726.70,4327.72948828,N,14148.32931301,E,4,06,1.6,110.874,M,31.590,M,1.7,0000*43
[2021-01-29 11:07:28.198] $GPGGA,020726.80,4327.72948840,N,14148.32931215,E,4,06,1.6,110.881,M,31.590,M,1.8,0000*43
[2021-01-29 11:07:28.293] $GPGGA,020726.90,4327.72949021,N,14148.32930922,E,4,06,1.6,110.879,M,31.590,M,1.9,0000*44
[2021-01-29 11:07:28.403] $GPGGA,020727.00,4327.72948960,N,14148.32931292,E,4,06,1.6,110.883,M,31.590,M,2.0,0000*4F
[2021-01-29 11:07:28.496] $GPGGA,020727.10,4327.72948880,N,14148.32931104,E,4,06,1.6,110.891,M,31.590,M,2.1,0000*4F
[2021-01-29 11:07:28.606] $GPGGA,020727.20,4327.72948851,N,14148.32931137,E,4,06,1.6,110.888,M,31.590,M,2.2,0000*4B
[2021-01-29 11:07:28.700] $GPGGA,020727.30,4327.72948906,N,14148.32931319,E,4,06,1.6,110.885,M,31.590,M,2.3,0000*4B
[2021-01-29 11:07:28.809] $GPGGA,020727.40,4327.72948906,N,14148.32930974,E,4,06,1.6,110.883,M,31.590,M,2.4,0000*4D
[2021-01-29 11:07:28.903] $GPGGA,020727.50,4327.72948924,N,14148.32931200,E,4,06,1.6,110.890,M,31.590,M,2.5,0000*46
[2021-01-29 11:07:28.996] $GPGGA,020727.60,4327.72948870,N,14148.32931169,E,4,06,1.6,110.882,M,31.590,M,2.6,0000*49
[2021-01-29 11:07:29.090] $GPGGA,020727.70,4327.72948769,N,14148.32930993,E,4,06,1.6,110.906,M,31.590,M,1.7,0000*4C
[2021-01-29 11:07:29.200] $GPGGA,020727.80,4327.72948822,N,14148.32930828,E,4,06,1.6,110.914,M,31.590,M,1.8,0000*4E
[2021-01-29 11:07:29.309] $GPGGA,020727.90,4327.72948929,N,14148.32931109,E,4,06,1.6,110.904,M,31.590,M,1.9,0000*4E
[2021-01-29 11:07:29.403] $GPGGA,020728.00,4327.72948793,N,14148.32930994,E,4,06,1.6,110.910,M,31.590,M,2.0,0000*45
[2021-01-29 11:07:29.497] $GPGGA,020728.10,4327.72948924,N,14148.32931174,E,4,06,1.6,110.914,M,31.590,M,2.1,0000*44
[2021-01-29 11:07:29.606] $GPGGA,020728.20,4327.72948843,N,14148.32930850,E,4,06,1.6,110.911,M,31.590,M,2.2,0000*4F
[2021-01-29 11:07:29.700] $GPGGA,020728.30,4327.72948769,N,14148.32931029,E,4,06,1.6,110.911,M,31.590,M,2.3,0000*4F
[2021-01-29 11:07:29.809] $GPGGA,020728.40,4327.72948851,N,14148.32930919,E,4,06,1.6,110.908,M,31.590,M,2.4,0000*48
[2021-01-29 11:07:29.903] $GPGGA,020728.50,4327.72948717,N,14148.32930977,E,4,06,1.6,110.914,M,31.590,M,2.5,0000*40
[2021-01-29 11:07:29.997] $GPGGA,020728.60,4327.72948772,N,14148.32930833,E,4,06,1.6,110.909,M,31.590,M,2.6,0000*4E
[2021-01-29 11:07:30.106] $GPGGA,020728.70,4327.72948834,N,14148.32930832,E,4,06,1.6,110.896,M,31.590,M,1.7,0000*46
[2021-01-29 11:07:30.200] $GPGGA,020728.80,4327.72948684,N,14148.32930834,E,4,06,1.6,110.907,M,31.590,M,1.8,0000*4C
[2021-01-29 11:07:30.295] $GPGGA,020728.90,4327.72948873,N,14148.32930660,E,4,06,1.6,110.901,M,31.590,M,1.9,0000*43
[2021-01-29 11:07:30.404] $GPGGA,020729.00,4327.72948776,N,14148.32930847,E,4,06,1.6,110.906,M,31.590,M,2.0,0000*47
[2021-01-29 11:07:30.498] $GPGGA,020729.10,4327.72948706,N,14148.32930724,E,4,06,1.6,110.906,M,31.590,M,2.1,0000*4A
[2021-01-29 11:07:30.608] $GPGGA,020729.20,4327.72948799,N,14148.32930961,E,4,06,1.6,110.897,M,31.590,M,2.2,0000*4A
[2021-01-29 11:07:30.701] $GPGGA,020729.30,4327.72948749,N,14148.32930735,E,4,06,1.6,110.898,M,31.590,M,2.3,0000*47
[2021-01-29 11:07:30.811] $GPGGA,020729.40,4327.72948807,N,14148.32930743,E,4,06,1.6,110.903,M,31.590,M,2.4,0000*40
[2021-01-29 11:07:30.889] $GPGGA,020729.50,4327.72948711,N,14148.32930838,E,4,06,1.6,110.905,M,31.590,M,2.5,0000*4D
[2021-01-29 11:07:30.998] $GPGGA,020729.60,4327.72948635,N,14148.32930754,E,4,06,1.6,110.902,M,31.590,M,2.6,0000*48
[2021-01-29 11:07:31.092] $GPGGA,020729.70,4327.72949014,N,14148.32930949,E,4,06,1.6,110.901,M,31.590,M,1.7,0000*4E
[2021-01-29 11:07:31.201] $GPGGA,020729.80,4327.72948989,N,14148.32931501,E,4,06,1.6,110.912,M,31.590,M,1.8,0000*41
[2021-01-29 11:07:31.297] $GPGGA,020729.90,4327.72949086,N,14148.32931034,E,4,06,1.6,110.904,M,31.590,M,1.9,0000*42
[2021-01-29 11:07:31.406] $GPGGA,020730.00,4327.72948953,N,14148.32931313,E,4,06,1.6,110.910,M,31.590,M,2.0,0000*4A
[2021-01-29 11:07:31.500] $GPGGA,020730.10,4327.72949027,N,14148.32931049,E,4,06,1.6,110.902,M,31.590,M,2.1,0000*4E
[2021-01-29 11:07:31.609] $GPGGA,020730.20,4327.72949058,N,14148.32931032,E,4,06,1.6,110.903,M,31.590,M,2.2,0000*4B
[2021-01-29 11:07:31.703] $GPGGA,020730.30,4327.72948961,N,14148.32931200,E,4,06,1.6,110.903,M,31.590,M,2.3,0000*4A
[2021-01-29 11:07:31.797] $GPGGA,020730.40,4327.72948886,N,14148.32931094,E,4,06,1.6,110.903,M,31.590,M,2.4,0000*4D
[2021-01-29 11:07:31.891] $GPGGA,020730.50,4327.72948886,N,14148.32931269,E,4,06,1.6,110.909,M,31.590,M,2.5,0000*47
[2021-01-29 11:07:32.000] $GPGGA,020730.60,4327.72949007,N,14148.32930949,E,4,06,1.6,110.900,M,31.590,M,2.6,0000*46
[2021-01-29 11:07:32.094] $GPGGA,020730.70,4327.72949075,N,14148.32931187,E,4,06,1.6,110.905,M,31.590,M,2.7,0000*4D
[2021-01-29 11:07:32.203] $GPGGA,020730.80,4327.72949087,N,14148.32931133,E,4,06,1.6,110.901,M,31.590,M,2.8,0000*4B
[2021-01-29 11:07:32.299] $GPGGA,020730.90,4327.72948944,N,14148.32931344,E,4,06,1.6,110.902,M,31.590,M,2.9,0000*4D
[2021-01-29 11:07:32.408] $GPGGA,020731.00,4327.72948954,N,14148.32931361,E,4,06,1.6,110.891,M,31.590,M,3.0,0000*40
[2021-01-29 11:07:32.502] $GPGGA,020731.10,4327.72949053,N,14148.32931322,E,4,06,1.6,110.889,M,31.590,M,3.1,0000*41
[2021-01-29 11:07:32.612] $GPGGA,020731.20,4327.72948902,N,14148.32931397,E,4,06,1.6,110.892,M,31.590,M,3.2,0000*49
[2021-01-29 11:07:32.690] $GPGGA,020731.30,4327.72949028,N,14148.32931525,E,4,06,1.6,110.891,M,31.590,M,3.3,0000*45
[2021-01-29 11:07:32.799] $GPGGA,020731.40,4327.72948910,N,14148.32931504,E,4,06,1.6,110.893,M,31.590,M,3.4,0000*47
[2021-01-29 11:07:32.893] $GPGGA,020731.50,4327.72949101,N,14148.32931530,E,4,06,1.6,110.889,M,31.590,M,3.5,0000*42
[2021-01-29 11:07:33.002] $GPGGA,020731.60,4327.72948915,N,14148.32931477,E,4,06,1.6,110.891,M,31.590,M,3.6,0000*45
[2021-01-29 11:07:33.096] $GPGGA,020731.70,4327.72949065,N,14148.32931519,E,4,06,1.6,110.890,M,31.590,M,3.7,0000*42
[2021-01-29 11:07:33.205] $GPGGA,020731.80,4327.72948990,N,14148.32931522,E,4,06,1.6,110.894,M,31.590,M,3.8,0000*4C
[2021-01-29 11:07:33.300] $GPGGA,020731.90,4327.72948964,N,14148.32931569,E,4,06,1.6,110.890,M,31.590,M,3.9,0000*4C
[2021-01-29 11:07:33.394] $GPGGA,020732.00,4327.72949136,N,14148.32931350,E,4,06,1.6,110.893,M,31.590,M,4.0,0000*49
[2021-01-29 11:07:33.472] $GPGGA,020732.10,4327.72949116,N,14148.32931439,E,4,06,1.6,110.889,M,31.590,M,4.1,0000*48
[2021-01-29 11:07:33.597] $GPGGA,020732.20,4327.72949020,N,14148.32931507,E,4,06,1.6,110.885,M,31.590,M,4.2,0000*4C
[2021-01-29 11:07:33.707] $GPGGA,020732.30,4327.72949090,N,14148.32931598,E,4,06,1.6,110.893,M,31.590,M,4.3,0000*46
[2021-01-29 11:07:33.800] $GPGGA,020732.40,4327.72948990,N,14148.32931660,E,4,06,1.6,110.888,M,31.590,M,4.4,0000*40
[2021-01-29 11:07:33.894] $GPGGA,020732.50,4327.72949079,N,14148.32931645,E,4,06,1.6,110.887,M,31.590,M,4.5,0000*47
[2021-01-29 11:07:34.003] $GPGGA,020732.60,4327.72949058,N,14148.32931692,E,4,06,1.6,110.887,M,31.590,M,4.6,0000*4E
[2021-01-29 11:07:34.097] $GPGGA,020732.70,4327.72949168,N,14148.32931558,E,4,06,1.6,110.907,M,31.590,M,1.7,0000*45
[2021-01-29 11:07:34.207] $GPGGA,020732.80,4327.72949333,N,14148.32931632,E,4,06,1.6,110.897,M,31.590,M,1.8,0000*4E
[2021-01-29 11:07:34.303] $GPGGA,020732.90,4327.72949168,N,14148.32931822,E,4,06,1.6,110.901,M,31.590,M,1.9,0000*43
[2021-01-29 11:07:34.412] $GPGGA,020733.00,4327.72949115,N,14148.32931875,E,4,06,1.6,110.904,M,31.590,M,2.0,0000*4C
[2021-01-29 11:07:34.490] $GPGGA,020733.10,4327.72949167,N,14148.32931626,E,4,06,1.6,110.899,M,31.590,M,2.1,0000*44
[2021-01-29 11:07:34.600] $GPGGA,020733.20,4327.72949166,N,14148.32931766,E,4,06,1.6,110.902,M,31.590,M,2.2,0000*43
[2021-01-29 11:07:34.694] $GPGGA,020733.30,4327.72949235,N,14148.32931794,E,4,06,1.6,110.900,M,31.590,M,2.3,0000*49
[2021-01-29 11:07:34.803] $GPGGA,020733.40,4327.72949348,N,14148.32931708,E,4,06,1.6,110.897,M,31.590,M,2.4,0000*48
[2021-01-29 11:07:34.897] $GPGGA,020733.50,4327.72949035,N,14148.32932092,E,4,06,1.6,110.903,M,31.590,M,2.5,0000*4A
[2021-01-29 11:07:35.006] $GPGGA,020733.60,4327.72949339,N,14148.32931865,E,4,06,1.6,110.900,M,31.590,M,2.6,0000*45
[2021-01-29 11:07:35.100] $GPGGA,020733.70,4327.72949193,N,14148.32931364,E,4,06,1.6,110.888,M,31.590,M,1.7,0000*4F
