
[2021-01-06 11:15:01.205] $GNGGA,021221.60,,,,,0,00,99.99,,,,,,*7C
[2021-01-06 11:15:01.221] $GNGGA,021221.70,,,,,0,00,99.99,,,,,,*7D
[2021-01-06 11:15:01.221] $GNGGA,021221.80,,,,,0,00,99.99,,,,,,*72
[2021-01-06 11:15:01.221] $GNGGA,021221.90,,,,,0,00,99.99,,,,,,*73
[2021-01-06 11:15:01.221] $GNGGA,021222.00,,,,,0,00,99.99,,,,,,*79
[2021-01-06 11:15:01.221] $GNGGA,021222.10,,,,,0,00,99.99,,,,,,*78
[2021-01-06 11:15:01.221] $GNGGA,021222.20,,,,,0,00,99.99,,,,,,*7B
[2021-01-06 11:15:01.221] $GNGGA,021222.30,,,,,0,00,99.99,,,,,,*7A
[2021-01-06 11:15:01.221] $GNGGA,021222.40,,,,,0,00,99.99,,,,,,*7D
[2021-01-06 11:15:01.221] $GNGGA,021222.50,,,,,0,00,99.99,,,,,,*7C
[2021-01-06 11:15:01.221] $GNGGA,021222.60,,,,,0,00,99.99,,,,,,*7F
[2021-01-06 11:15:01.221] $GNGGA,021222.70,,,,,0,00,99.99,,,,,,*7E
[2021-01-06 11:15:01.221] $GNGGA,021222.80,,,,,0,00,99.99,,,,,,*71
[2021-01-06 11:15:01.221] $GNGGA,021222.90,,,,,0,00,99.99,,,,,,*70
[2021-01-06 11:15:01.221] $GNGGA,021223.00,,,,,0,00,99.99,,,,,,*78
[2021-01-06 11:15:01.221] $GNGGA,021223.10,,,,,0,00,99.99,,,,,,*79
[2021-01-06 11:15:01.221] $GNGGA,021223.20,,,,,0,00,99.99,,,,,,*7A
[2021-01-06 11:15:01.221] $GNGGA,021223.30,,,,,0,00,99.99,,,,,,*7B
[2021-01-06 11:15:01.221] $GNGGA,021223.40,,,,,0,00,99.99,,,,,,*7C
[2021-01-06 11:15:01.221] $GNGGA,021223.50,,,,,0,00,99.99,,,,,,*7D
[2021-01-06 11:15:01.221] $GNGGA,021223.60,,,,,0,00,99.99,,,,,,*7E
[2021-01-06 11:15:01.221] $GNGGA,021223.70,,,,,0,00,99.99,,,,,,*7F
[2021-01-06 11:15:01.221] $GNGGA,021223.80,,,,,0,00,99.99,,,,,,*70
[2021-01-06 11:15:01.221] $GNGGA,021223.90,,,,,0,00,99.99,,,,,,*71
[2021-01-06 11:15:01.221] $GNGGA,021224.00,,,,,0,00,99.99,,,,,,*7F
[2021-01-06 11:15:01.252] $GNGGA,021224.10,,,,,0,00,99.99,,,,,,*7E
[2021-01-06 11:15:01.252] $GNGGA,021224.20,,,,,0,00,99.99,,,,,,*7D
[2021-01-06 11:15:01.252] $GNGGA,021224.30,,,,,0,00,99.99,,,,,,*7C
[2021-01-06 11:15:01.252] $GNGGA,021224.40,,,,,0,00,99.99,,,,,,*7B
[2021-01-06 11:15:01.252] $GNGGA,021224.50,,,,,0,00,99.99,,,,,,*7A
[2021-01-06 11:15:01.252] $GNGGA,021224.60,,,,,0,00,99.99,,,,,,*79
[2021-01-06 11:15:01.252] $GNGGA,021224.70,,,,,0,00,99.99,,,,,,*78
[2021-01-06 11:15:01.252] $GNGGA,021224.80,,,,,0,00,99.99,,,,,,*77
[2021-01-06 11:15:01.252] $GNGGA,021224.90,,,,,0,00,99.99,,,,,,*76
[2021-01-06 11:15:01.252] $GNGGA,021225.00,,,,,0,00,99.99,,,,,,*7E
[2021-01-06 11:15:01.252] $GNGGA,021225.10,,,,,0,00,99.99,,,,,,*7F
[2021-01-06 11:15:01.252] $GNGGA,021225.20,,,,,0,00,99.99,,,,,,*7C
[2021-01-06 11:15:01.252] $GNGGA,021225.30,,,,,0,00,99.99,,,,,,*7D
[2021-01-06 11:15:01.252] $GNGGA,021225.40,,,,,0,00,99.99,,,,,,*7A
[2021-01-06 11:15:01.252] $GNGGA,021225.50,,,,,0,00,99.99,,,,,,*7B
[2021-01-06 11:15:01.252] $GNGGA,021225.60,,,,,0,00,99.99,,,,,,*78
[2021-01-06 11:15:01.252] $GNGGA,021225.70,,,,,0,00,99.99,,,,,,*79
[2021-01-06 11:15:01.252] $GNGGA,021225.80,,,,,0,00,99.99,,,,,,*76
[2021-01-06 11:15:01.252] $GNGGA,021225.90,,,,,0,00,99.99,,,,,,*77
[2021-01-06 11:15:01.252] $GNGGA,021226.00,,,,,0,00,99.99,,,,,,*7D
[2021-01-06 11:15:01.252] $GNGGA,021226.10,,,,,0,00,99.99,,,,,,*7C
[2021-01-06 11:15:01.252] $GNGGA,021226.20,,,,,0,00,99.99,,,,,,*7F
[2021-01-06 11:15:01.252] $GNGGA,021226.30,,,,,0,00,99.99,,,,,,*7E
[2021-01-06 11:15:01.252] $GNGGA,021226.40,,,,,0,00,99.99,,,,,,*79
[2021-01-06 11:15:01.268] $GNGGA,021226.50,,,,,0,00,99.99,,,,,,*78
[2021-01-06 11:15:01.268] $GNGGA,021226.60,,,,,0,00,99.99,,,,,,*7B
[2021-01-06 11:15:01.268] $GNGGA,021226.70,,,,,0,00,99.99,,,,,,*7A
[2021-01-06 11:15:01.268] $GNGGA,021226.80,,,,,0,00,99.99,,,,,,*75
[2021-01-06 11:15:01.268] $GNGGA,021226.90,,,,,0,00,99.99,,,,,,*74
[2021-01-06 11:15:01.268] $GNGGA,021227.00,,,,,0,00,99.99,,,,,,*7C
[2021-01-06 11:15:01.268] $GNGGA,021227.10,,,,,0,00,99.99,,,,,,*7D
[2021-01-06 11:15:01.268] $GNGGA,021227.20,,,,,0,00,99.99,,,,,,*7E
[2021-01-06 11:15:01.268] $GNGGA,021227.30,,,,,0,00,99.99,,,,,,*7F
[2021-01-06 11:15:01.268] $GNGGA,021227.40,,,,,0,00,99.99,,,,,,*78
[2021-01-06 11:15:01.268] $GNGGA,021227.50,,,,,0,00,99.99,,,,,,*79
[2021-01-06 11:15:01.268] $GNGGA,021227.60,,,,,0,00,99.99,,,,,,*7A
[2021-01-06 11:15:01.268] $GNGGA,021227.70,,,,,0,00,99.99,,,,,,*7B
[2021-01-06 11:15:01.268] $GNGGA,021227.80,,,,,0,00,99.99,,,,,,*74
[2021-01-06 11:15:01.268] $GNGGA,021227.90,,,,,0,00,99.99,,,,,,*75
[2021-01-06 11:15:01.268] $GNGGA,021228.00,,,,,0,00,99.99,,,,,,*73
[2021-01-06 11:15:01.268] $GNGGA,021228.10,,,,,0,00,99.99,,,,,,*72
[2021-01-06 11:15:01.268] $GNGGA,021228.20,,,,,0,00,99.99,,,,,,*71
[2021-01-06 11:15:01.268] $GNGGA,021228.30,,,,,0,00,99.99,,,,,,*70
[2021-01-06 11:15:01.268] $GNGGA,021228.40,,,,,0,00,99.99,,,,,,*77
[2021-01-06 11:15:01.268] $GNGGA,021228.50,,,,,0,00,99.99,,,,,,*76
[2021-01-06 11:15:01.268] $GNGGA,021228.60,,,,,0,00,99.99,,,,,,*75
[2021-01-06 11:15:01.268] $GNGGA,021228.70,,,,,0,00,99.99,,,,,,*74
[2021-01-06 11:15:01.268] $GNGGA,021228.80,,,,,0,00,99.99,,,,,,*7B
[2021-01-06 11:15:01.283] $GNGGA,021228.90,,,,,0,00,99.99,,,,,,*7A
[2021-01-06 11:15:01.283] $GNGGA,021229.00,,,,,0,00,99.99,,,,,,*72
[2021-01-06 11:15:01.283] $GNGGA,021229.10,,,,,0,00,99.99,,,,,,*73
[2021-01-06 11:15:01.283] $GNGGA,021229.20,,,,,0,00,99.99,,,,,,*70
[2021-01-06 11:15:01.283] $GNGGA,021229.30,,,,,0,00,99.99,,,,,,*71
[2021-01-06 11:15:01.283] $GNGGA,021229.40,,,,,0,00,99.99,,,,,,*76
[2021-01-06 11:15:01.283] $GNGGA,021229.50,,,,,0,00,99.99,,,,,,*77
[2021-01-06 11:15:01.283] $GNGGA,021229.60,,,,,0,00,99.99,,,,,,*74
[2021-01-06 11:15:01.283] $GNGGA,021229.70,,,,,0,00,99.99,,,,,,*75
[2021-01-06 11:15:01.283] $GNGGA,021229.80,,,,,0,00,99.99,,,,,,*7A
[2021-01-06 11:15:01.283] $GNGGA,021229.90,,,,,0,00,99.99,,,,,,*7B
[2021-01-06 11:15:01.283] $GNGGA,021230.00,4304.170663710,N,14120.434388159,E,1,04,5.08,32.344,M,32.006,M,,*77
[2021-01-06 11:15:01.283] $GNGGA,021230.10,4304.167330000,N,14120.431830000,E,1,08,1.41,12.119,M,32.006,M,,*78
[2021-01-06 11:15:01.283] $GNGGA,021230.20,4304.167336000,N,14120.431830000,E,1,08,1.41,12.138,M,32.006,M,,*7E
[2021-01-06 11:15:01.283] $GNGGA,021230.30,4304.167336000,N,14120.431836000,E,1,08,1.41,12.153,M,32.006,M,,*74
[2021-01-06 11:15:01.283] $GNGGA,021230.40,4304.167336000,N,14120.431836000,E,1,08,1.41,12.160,M,32.006,M,,*73
[2021-01-06 11:15:01.283] $GNGGA,021230.50,4304.167342000,N,14120.431836000,E,1,08,1.41,12.181,M,32.006,M,,*7E
[2021-01-06 11:15:01.283] $GNGGA,021230.60,4304.167342000,N,14120.431836000,E,1,08,1.41,12.205,M,32.006,M,,*72
[2021-01-06 11:15:01.299] $GNGGA,021230.70,4304.167342000,N,14120.431836000,E,1,08,1.41,12.214,M,32.006,M,,*73
[2021-01-06 11:15:01.299] $GNGGA,021230.80,4304.167348000,N,14120.431842000,E,1,08,1.41,12.229,M,32.006,M,,*7B
[2021-01-06 11:15:01.299] $GNGGA,021230.90,4304.167348000,N,14120.431836000,E,1,08,1.41,12.249,M,32.006,M,,*7F
[2021-01-06 11:15:01.299] $GNGGA,021231.00,4304.167354000,N,14120.431842000,E,1,08,1.41,12.259,M,32.006,M,,*78
[2021-01-06 11:15:01.299] $GNGGA,021231.10,4304.167354000,N,14120.431842000,E,1,08,1.41,12.271,M,32.006,M,,*73
[2021-01-06 11:15:01.299] $GNGGA,021231.20,4304.167354000,N,14120.431842000,E,1,08,1.41,12.287,M,32.006,M,,*79
[2021-01-06 11:15:01.299] $GNGGA,021231.30,4304.167360000,N,14120.431842000,E,1,08,1.41,12.296,M,32.006,M,,*7F
[2021-01-06 11:15:01.299] $GNGGA,021231.40,4304.167360000,N,14120.431842000,E,1,08,1.41,12.314,M,32.006,M,,*73
[2021-01-06 11:15:01.299] $GNGGA,021231.50,4304.167360000,N,14120.431842000,E,1,08,1.41,12.324,M,32.006,M,,*71
[2021-01-06 11:15:01.299] $GNGGA,021231.60,4304.167366000,N,14120.431842000,E,1,08,1.41,12.341,M,32.006,M,,*77
[2021-01-06 11:15:01.299] $GNGGA,021231.70,4304.167366000,N,14120.431842000,E,1,08,1.41,12.351,M,32.006,M,,*77
[2021-01-06 11:15:01.315] $GNGGA,021231.80,4304.167366000,N,14120.431842000,E,1,08,1.41,12.357,M,32.006,M,,*7E
[2021-01-06 11:15:01.315] $GNGGA,021231.90,4304.167366000,N,14120.431842000,E,1,08,1.41,12.374,M,32.006,M,,*7E
[2021-01-06 11:15:01.315] $GNGGA,021232.00,4304.167372000,N,14120.431842000,E,1,08,1.41,12.389,M,32.006,M,,*73
[2021-01-06 11:15:01.315] $GNGGA,021232.10,4304.167372000,N,14120.431842000,E,1,08,1.41,12.393,M,32.006,M,,*79
[2021-01-06 11:15:01.315] $GNGGA,021232.20,4304.167372000,N,14120.431842000,E,1,08,1.41,12.406,M,32.006,M,,*71
[2021-01-06 11:15:01.315] $GNGGA,021232.30,4304.167378000,N,14120.431842000,E,1,08,1.41,12.419,M,32.006,M,,*74
[2021-01-06 11:15:01.315] $GNGGA,021232.40,4304.167378000,N,14120.431842000,E,1,08,1.41,12.434,M,32.006,M,,*7C
[2021-01-06 11:15:01.315] $GNGGA,021232.50,4304.167378000,N,14120.431848000,E,1,08,1.41,12.444,M,32.006,M,,*70
[2021-01-06 11:15:01.315] $GNGGA,021232.60,4304.167384000,N,14120.431842000,E,1,08,1.41,12.451,M,32.006,M,,*7E
[2021-01-06 11:15:01.315] $GNGGA,021232.70,4304.167384000,N,14120.431842000,E,1,08,1.41,12.466,M,32.006,M,,*7B
[2021-01-06 11:15:01.315] $GNGGA,021232.80,4304.167384000,N,14120.431842000,E,1,08,1.41,12.478,M,32.006,M,,*7B
[2021-01-06 11:15:01.315] $GNGGA,021232.90,4304.167384000,N,14120.431848000,E,1,08,1.41,12.491,M,32.006,M,,*77
[2021-01-06 11:15:01.330] $GNGGA,021233.00,4304.167390000,N,14120.431842000,E,1,08,1.41,12.501,M,32.006,M,,*78
[2021-01-06 11:15:01.330] $GNGGA,021233.10,4304.167390000,N,14120.431842000,E,1,08,1.41,12.522,M,32.006,M,,*78
[2021-01-06 11:15:01.330] $GNGGA,021233.20,4304.167390000,N,14120.431848000,E,1,08,1.41,12.533,M,32.006,M,,*71
[2021-01-06 11:15:01.330] $GNGGA,021233.30,4304.167396000,N,14120.431848000,E,1,08,1.41,12.546,M,32.006,M,,*74
[2021-01-06 11:15:01.330] $GNGGA,021233.40,4304.167396000,N,14120.431848000,E,1,08,1.41,12.556,M,32.006,M,,*72
[2021-01-06 11:15:01.330] $GNGGA,021233.50,4304.167396000,N,14120.431848000,E,1,08,1.41,12.578,M,32.006,M,,*7F
[2021-01-06 11:15:01.330] $GNGGA,021233.60,4304.167402000,N,14120.431848000,E,1,08,1.41,12.587,M,32.006,M,,*76
[2021-01-06 11:15:01.330] $GNGGA,021233.70,4304.167402000,N,14120.431848000,E,1,08,1.41,12.599,M,32.006,M,,*78
[2021-01-06 11:15:01.330] $GNGGA,021233.80,4304.167402000,N,14120.431848000,E,1,08,1.41,12.611,M,32.006,M,,*74
[2021-01-06 11:15:01.330] $GNGGA,021233.90,4304.167408000,N,14120.431848000,E,1,08,1.41,12.629,M,32.006,M,,*74
[2021-01-06 11:15:01.330] $GNGGA,021234.00,4304.167408000,N,14120.431848000,E,1,08,1.41,12.637,M,32.006,M,,*75
[2021-01-06 11:15:01.330] $GNGGA,021234.10,4304.167408000,N,14120.431848000,E,1,08,1.41,12.646,M,32.006,M,,*72
[2021-01-06 11:15:01.346] $GNGGA,021234.20,4304.167414000,N,14120.431842000,E,1,08,1.41,12.659,M,32.006,M,,*78
[2021-01-06 11:15:01.346] $GNGGA,021234.30,4304.167414000,N,14120.431842000,E,1,08,1.41,12.670,M,32.006,M,,*72
[2021-01-06 11:15:01.346] $GNGGA,021234.40,4304.167414000,N,14120.431842000,E,1,08,1.41,12.691,M,32.006,M,,*7A
[2021-01-06 11:15:01.346] $GNGGA,021234.50,4304.167420000,N,14120.431842000,E,1,08,1.41,12.692,M,32.006,M,,*7F
[2021-01-06 11:15:01.346] $GNGGA,021234.60,4304.167420000,N,14120.431842000,E,1,08,1.41,12.711,M,32.006,M,,*76
[2021-01-06 11:15:01.346] $GNGGA,021234.70,4304.167420000,N,14120.431842000,E,1,08,1.41,12.726,M,32.006,M,,*73
[2021-01-06 11:15:01.346] $GNGGA,021234.80,4304.167426000,N,14120.431842000,E,1,08,1.41,12.735,M,32.006,M,,*78
[2021-01-06 11:15:01.346] $GNGGA,021234.90,4304.167426000,N,14120.431842000,E,1,08,1.41,12.757,M,32.006,M,,*7D
[2021-01-06 11:15:01.346] $GNGGA,021235.00,4304.167426000,N,14120.431842000,E,1,08,1.41,12.766,M,32.006,M,,*77
[2021-01-06 11:15:01.346] $GNGGA,021235.10,4304.167432000,N,14120.431842000,E,1,08,1.41,12.774,M,32.006,M,,*70
[2021-01-06 11:15:01.346] $GNGGA,021235.20,4304.167432000,N,14120.431842000,E,1,08,1.41,12.795,M,32.006,M,,*7C
[2021-01-06 11:15:01.346] $GNGGA,021235.30,4304.167432000,N,14120.431842000,E,1,08,1.41,12.801,M,32.006,M,,*7F
[2021-01-06 11:15:01.346] $GNGGA,021235.40,4304.167$GNGGA,021246.70,4304.167630000,N,14120.431758000,E,1,09,1.35,13.997,M,32.006,M,,*76
[2021-01-06 11:15:01.377] $GNGGA,021246.80,4304.167630000,N,14120.431758000,E,1,09,1.35,14.003,M,32.006,M,,*7A
[2021-01-06 11:15:01.486] $GNGGA,021246.90,4304.167636000,N,14120.431758000,E,1,09,1.35,14.015,M,32.006,M,,*7A
[2021-01-06 11:15:01.580] $GNGGA,021247.00,4304.167636000,N,14120.431758000,E,1,09,1.35,14.024,M,32.006,M,,*70
[2021-01-06 11:15:01.674] $GNGGA,021247.10,4304.167636000,N,14120.431758000,E,1,09,1.35,14.037,M,32.006,M,,*73
[2021-01-06 11:15:01.783] $GNGGA,021247.20,4304.167636000,N,14120.431752000,E,1,09,1.35,14.047,M,32.006,M,,*7D
[2021-01-06 11:15:01.877] $GNGGA,021247.30,4304.167642000,N,14120.431752000,E,1,09,1.35,14.057,M,32.006,M,,*7E
[2021-01-06 11:15:01.986] $GNGGA,021247.40,4304.167642000,N,14120.431752000,E,1,09,1.35,14.069,M,32.006,M,,*74
[2021-01-06 11:15:02.080] $GNGGA,021247.50,4304.167642000,N,14120.431752000,E,1,09,1.35,14.076,M,32.006,M,,*7B
[2021-01-06 11:15:02.174] $GNGGA,021247.60,4304.167642000,N,14120.431752000,E,1,09,1.35,14.092,M,32.006,M,,*72
[2021-01-06 11:15:02.283] $GNGGA,021247.70,4304.167648000,N,14120.431752000,E,1,09,1.35,14.095,M,32.006,M,,*7E
[2021-01-06 11:15:02.377] $GNGGA,021247.80,4304.167648000,N,14120.431746000,E,1,09,1.35,14.114,M,32.006,M,,*7C
[2021-01-06 11:15:02.486] $GNGGA,021247.90,4304.167648000,N,14120.431746000,E,1,09,1.35,14.116,M,32.006,M,,*7F
[2021-01-06 11:15:02.580] $GNGGA,021248.00,4304.167648000,N,14120.431746000,E,1,09,1.35,14.132,M,32.006,M,,*7F
[2021-01-06 11:15:02.674] $GNGGA,021248.10,4304.167654000,N,14120.431746000,E,1,09,1.35,14.146,M,32.006,M,,*70
[2021-01-06 11:15:02.783] $GNGGA,021248.20,4304.167654000,N,14120.431746000,E,1,09,1.35,14.155,M,32.006,M,,*71
[2021-01-06 11:15:02.877] $GNGGA,021248.30,4304.167654000,N,14120.431746000,E,1,09,1.35,14.163,M,32.006,M,,*75
[2021-01-06 11:15:02.986] $GNGGA,021248.40,4304.167654000,N,14120.431746000,E,1,09,1.35,14.172,M,32.006,M,,*72
[2021-01-06 11:15:03.080] $GNGGA,021248.50,4304.167660000,N,14120.431746000,E,1,09,1.35,14.187,M,32.006,M,,*7E
[2021-01-06 11:15:03.174] $GNGGA,021248.60,4304.167660000,N,14120.431740000,E,1,09,1.35,14.195,M,32.006,M,,*78
[2021-01-06 11:15:03.283] $GNGGA,021248.70,4304.167660000,N,14120.431740000,E,1,09,1.35,14.212,M,32.006,M,,*75
[2021-01-06 11:15:03.377] $GNGGA,021248.80,4304.167666000,N,14120.431740000,E,1,09,1.35,14.217,M,32.006,M,,*79
[2021-01-06 11:15:03.486] $GNGGA,021248.90,4304.167666000,N,14120.431740000,E,1,09,1.35,14.229,M,32.006,M,,*75
[2021-01-06 11:15:03.580] $GNGGA,021249.00,4304.167666000,N,14120.431740000,E,1,09,1.35,14.234,M,32.006,M,,*71
[2021-01-06 11:15:03.674] $GNGGA,021249.10,4304.167666000,N,14120.431734000,E,1,09,1.35,14.245,M,32.006,M,,*75
[2021-01-06 11:15:03.783] $GNGGA,021249.20,4304.167666000,N,14120.431734000,E,1,09,1.35,14.255,M,32.006,M,,*77
[2021-01-06 11:15:03.877] $GNGGA,021249.30,4304.167672000,N,14120.431734000,E,1,09,1.35,14.258,M,32.006,M,,*7E
[2021-01-06 11:15:03.986] $GNGGA,021249.40,4304.167672000,N,14120.431734000,E,1,09,1.35,14.274,M,32.006,M,,*77
[2021-01-06 11:15:04.346] $GNGGA,021249.50,4304.167672000,N,14120.431734000,E,1,09,1.35,14.280,M,32.006,M,,*7D
[2021-01-06 11:15:04.361] $GNGGA,021249.60,4304.167672000,N,14120.431734000,E,1,09,1.35,14.287,M,32.006,M,,*79
[2021-01-06 11:15:04.361] $GNGGA,021249.70,4304.167678000,N,14120.431734000,E,1,09,1.35,14.297,M,32.006,M,,*73
[2021-01-06 11:15:04.377] $GNGGA,021249.80,4304.167678000,N,14120.431734000,E,1,09,1.35,14.312,M,32.006,M,,*70
[2021-01-06 11:15:04.486] $GNGGA,021249.90,4304.167678000,N,14120.431728000,E,1,09,1.35,14.311,M,32.006,M,,*7F
[2021-01-06 11:15:04.580] $GNGGA,021250.00,4304.167684000,N,14120.431728000,E,1,09,1.35,14.322,M,32.006,M,,*7D
[2021-01-06 11:15:04.674] $GNGGA,021250.10,4304.167684000,N,14120.431728000,E,1,09,1.35,14.340,M,32.006,M,,*78
[2021-01-06 11:15:04.783] $GNGGA,021250.20,4304.167684000,N,14120.431728000,E,1,09,1.35,14.344,M,32.006,M,,*7F
[2021-01-06 11:15:04.877] $GNGGA,021250.30,4304.167684000,N,14120.431722000,E,1,09,1.35,14.346,M,32.006,M,,*76
[2021-01-06 11:15:04.986] $GNGGA,021250.40,4304.167684000,N,14120.431722000,E,1,09,1.35,14.370,M,32.006,M,,*74
[2021-01-06 11:15:05.080] $GNGGA,021250.50,4304.167684000,N,14120.431722000,E,1,09,1.35,14.375,M,32.006,M,,*70
[2021-01-06 11:15:05.174] $GNGGA,021250.60,4304.167690000,N,14120.431722000,E,1,09,1.35,14.381,M,32.006,M,,*7D
[2021-01-06 11:15:05.283] $GNGGA,021250.70,4304.167690000,N,14120.431722000,E,1,09,1.35,14.397,M,32.006,M,,*7B
[2021-01-06 11:15:05.377] $GNGGA,021250.80,4304.167690000,N,14120.431716000,E,1,09,1.35,14.396,M,32.006,M,,*72
[2021-01-06 11:15:05.486] $GNGGA,021250.90,4304.167690000,N,14120.431716000,E,1,09,1.35,14.417,M,32.006,M,,*7D
[2021-01-06 11:15:05.580] $GNGGA,021251.00,4304.167696000,N,14120.431716000,E,1,09,1.35,14.416,M,32.006,M,,*72
[2021-01-06 11:15:05.674] $GNGGA,021251.10,4304.167696000,N,14120.431716000,E,1,09,1.35,14.433,M,32.006,M,,*74
[2021-01-06 11:15:05.783] $GNGGA,021251.20,4304.167696000,N,14120.431716000,E,1,09,1.35,14.443,M,32.006,M,,*70
[2021-01-06 11:15:05.877] $GNGGA,021251.30,4304.167696000,N,14120.431710000,E,1,09,1.35,14.451,M,32.006,M,,*74
[2021-01-06 11:15:05.986] $GNGGA,021251.40,4304.167696000,N,14120.431710000,E,1,09,1.35,14.461,M,32.006,M,,*70
[2021-01-06 11:15:06.080] $GNGGA,021251.50,4304.167702000,N,14120.431710000,E,1,09,1.35,14.474,M,32.006,M,,*79
[2021-01-06 11:15:06.174] $GNGGA,021251.60,4304.167702000,N,14120.431710000,E,1,09,1.35,14.487,M,32.006,M,,*76
[2021-01-06 11:15:06.283] $GNGGA,021251.70,4304.167702000,N,14120.431704000,E,1,09,1.35,14.491,M,32.006,M,,*75
[2021-01-06 11:15:06.377] $GNGGA,021251.80,4304.167702000,N,14120.431704000,E,1,09,1.35,14.504,M,32.006,M,,*77
[2021-01-06 11:15:06.486] $GNGGA,021251.90,4304.167708000,N,14120.431704000,E,1,09,1.35,14.520,M,32.006,M,,*7A
[2021-01-06 11:15:06.580] $GNGGA,021252.00,4304.167708000,N,14120.431704000,E,1,09,1.35,14.528,M,32.006,M,,*78
[2021-01-06 11:15:06.674] $GNGGA,021252.10,4304.167708000,N,14120.431704000,E,1,09,1.35,14.535,M,32.006,M,,*75
[2021-01-06 11:15:06.783] $GNGGA,021252.20,4304.167708000,N,14120.431698000,E,1,09,1.35,14.552,M,32.006,M,,*73
[2021-01-06 11:15:06.877] $GNGGA,021252.30,4304.167708000,N,14120.431698000,E,1,09,1.35,14.558,M,32.006,M,,*78
[2021-01-06 11:15:06.986] $GNGGA,021252.40,4304.167708000,N,14120.431698000,E,1,09,1.35,14.566,M,32.006,M,,*72
[2021-01-06 11:15:07.080] $GNGGA,021252.50,4304.167714000,N,14120.431698000,E,1,09,1.35,14.575,M,32.006,M,,*7C
[2021-01-06 11:15:07.174] $GNGGA,021252.60,4304.167714000,N,14120.431692000,E,1,09,1.35,14.588,M,32.006,M,,*77
[2021-01-06 11:15:07.283] $GNGGA,021252.70,4304.167714000,N,14120.431692000,E,1,09,1.35,14.597,M,32.006,M,,*78
[2021-01-06 11:15:07.377] $GNGGA,021252.80,4304.167714000,N,14120.431692000,E,1,09,1.35,14.603,M,32.006,M,,*79
[2021-01-06 11:15:07.486] $GNGGA,021252.90,4304.167720000,N,14120.431692000,E,1,09,1.35,14.617,M,32.006,M,,*7A
[2021-01-06 11:15:07.580] $GNGGA,021253.00,4304.167720000,N,14120.431692000,E,1,09,1.35,14.623,M,32.006,M,,*75
[2021-01-06 11:15:07.674] $GNGGA,021253.10,4304.167720000,N,14120.431686000,E,1,09,1.35,14.634,M,32.006,M,,*77
[2021-01-06 11:15:07.783] $GNGGA,021253.20,4304.167720000,N,14120.431686000,E,1,09,1.35,14.640,M,32.006,M,,*77
[2021-01-06 11:15:07.877] $GNGGA,021253.30,4304.167720000,N,14120.431686000,E,1,09,1.35,14.660,M,32.006,M,,*74
[2021-01-06 11:15:07.986] $GNGGA,021253.40,4304.167726000,N,14120.431686000,E,1,09,1.35,14.666,M,32.006,M,,*73
[2021-01-06 11:15:08.080] $GNGGA,021253.50,4304.167726000,N,14120.431686000,E,1,09,1.35,14.673,M,32.006,M,,*76
[2021-01-06 11:15:08.173] $GNGGA,021253.60,4304.167726000,N,14120.431680000,E,1,09,1.35,14.687,M,32.006,M,,*78
[2021-01-06 11:15:08.283] $GNGGA,021253.70,4304.167726000,N,14120.431680000,E,1,09,1.35,14.696,M,32.006,M,,*79
[2021-01-06 11:15:08.377] $GNGGA,021253.80,4304.167726000,N,14120.431680000,E,1,09,1.35,14.710,M,32.006,M,,*79
[2021-01-06 11:15:08.486] $GNGGA,021253.90,4304.167732000,N,14120.431674000,E,1,09,1.35,14.723,M,32.006,M,,*76
[2021-01-06 11:15:08.580] $GNGGA,021254.00,4304.167732000,N,14120.431674000,E,1,09,1.35,14.725,M,32.006,M,,*7E
[2021-01-06 11:15:08.673] $GNGGA,021254.10,4304.167732000,N,14120.431674000,E,1,09,1.35,14.739,M,32.006,M,,*72
[2021-01-06 11:15:08.783] $GNGGA,021254.20,4304.167732000,N,14120.431674000,E,1,09,1.35,14.754,M,32.006,M,,*7A
[2021-01-06 11:15:08.877] $GNGGA,021254.30,4304.167732000,N,14120.431674000,E,1,09,1.35,14.766,M,32.006,M,,*7A
[2021-01-06 11:15:08.986] $GNGGA,021254.40,4304.167738000,N,14120.431668000,E,1,09,1.35,14.767,M,32.006,M,,*7B
[2021-01-06 11:15:09.080] $GNGGA,021254.50,4304.167738000,N,14120.431668000,E,1,09,1.35,14.782,M,32.006,M,,*71
[2021-01-06 11:15:09.173] $GNGGA,021254.60,4304.167738000,N,14120.431668000,E,1,09,1.35,14.796,M,32.006,M,,*77
[2021-01-06 11:15:09.283] $GNGGA,021254.70,4304.167738000,N,14120.431668000,E,1,09,1.35,14.806,M,32.006,M,,*70
[2021-01-06 11:15:09.377] $GNGGA,021254.80,4304.167738000,N,14120.431662000,E,1,09,1.35,14.817,M,32.006,M,,*75
[2021-01-06 11:15:09.486] $GNGGA,021254.90,4304.167738000,N,14120.431662000,E,1,09,1.35,14.822,M,32.006,M,,*72
[2021-01-06 11:15:09.580] $GNGGA,021255.00,4304.167744000,N,14120.431662000,E,1,09,1.35,14.834,M,32.006,M,,*76
[2021-01-06 11:15:09.673] $GNGGA,021255.10,4304.167744000,N,14120.431662000,E,1,09,1.35,14.843,M,32.006,M,,*77
[2021-01-06 11:15:09.783] $GNGGA,021255.20,4304.167744000,N,14120.431662000,E,1,09,1.35,14.856,M,32.006,M,,*70
[2021-01-06 11:15:09.876] $GNGGA,021255.30,4304.167744000,N,14120.431656000,E,1,09,1.35,14.862,M,32.006,M,,*71
[2021-01-06 11:15:09.986] $GNGGA,021255.40,4304.167744000,N,14120.431656000,E,1,09,1.35,14.877,M,32.006,M,,*72
[2021-01-06 11:15:10.080] $GNGGA,021255.50,4304.167744000,N,14120.431656000,E,1,09,1.35,14.882,M,32.006,M,,*79
[2021-01-06 11:15:10.189] $GNGGA,021255.60,4304.167750000,N,14120.431656000,E,1,09,1.35,14.891,M,32.006,M,,*7D
[2021-01-06 11:15:10.283] $GNGGA,021255.70,4304.167750000,N,14120.431650000,E,1,09,1.35,14.903,M,32.006,M,,*70
[2021-01-06 11:15:10.376] $GNGGA,021255.80,4304.167750000,N,14120.431650000,E,1,09,1.35,14.905,M,32.006,M,,*79
[2021-01-06 11:15:10.486] $GNGGA,021255.90,4304.167750000,N,14120.431650000,E,1,09,1.35,14.921,M,32.006,M,,*7E
[2021-01-06 11:15:10.580] $GNGGA,021256.00,4304.167750000,N,14120.431650000,E,1,09,1.35,14.928,M,32.006,M,,*7D
[2021-01-06 11:15:10.689] $GNGGA,021256.10,4304.167750000,N,14120.431650000,E,1,09,1.35,14.935,M,32.006,M,,*70
[2021-01-06 11:15:10.783] $GNGGA,021256.20,4304.167756000,N,14120.431644000,E,1,09,1.35,14.948,M,32.006,M,,*7A
[2021-01-06 11:15:10.876] $GNGGA,021256.30,4304.167756000,N,14120.431644000,E,1,09,1.35,14.952,M,32.006,M,,*70
[2021-01-06 11:15:10.986] $GNGGA,021256.40,4304.167756000,N,14120.431644000,E,1,09,1.35,14.968,M,32.006,M,,*7E
[2021-01-06 11:15:11.080] $GNGGA,021256.50,4304.167756000,N,14120.431644000,E,1,09,1.35,14.977,M,32.006,M,,*71
[2021-01-06 11:15:11.173] $GNGGA,021256.60,4304.167756000,N,14120.431638000,E,1,09,1.35,14.983,M,32.006,M,,*72
[2021-01-06 11:15:11.283] $GNGGA,021256.70,4304.167756000,N,14120.431638000,E,1,09,1.35,14.995,M,32.006,M,,*74
[2021-01-06 11:15:11.376] $GNGGA,021256.80,4304.167756000,N,14120.431638000,E,1,09,1.35,15.003,M,32.006,M,,*7C
[2021-01-06 11:15:11.486] $GNGGA,021256.90,4304.167756000,N,14120.431638000,E,1,09,1.35,15.010,M,32.006,M,,*7F
[2021-01-06 11:15:11.579] $GNGGA,021257.00,4304.167762000,N,14120.431632000,E,1,09,1.35,15.019,M,32.006,M,,*73
[2021-01-06 11:15:11.673] $GNGGA,021257.10,4304.167762000,N,14120.431632000,E,1,09,1.35,15.026,M,32.006,M,,*7E
[2021-01-06 11:15:11.783] $GNGGA,021257.20,4304.167762000,N,14120.431632000,E,1,09,1.35,15.038,M,32.006,M,,*72
[2021-01-06 11:15:11.876] $GNGGA,021257.30,4304.167762000,N,14120.431632000,E,1,09,1.35,15.043,M,32.006,M,,*7F
[2021-01-06 11:15:11.986] $GNGGA,021257.40,4304.167762000,N,14120.431626000,E,1,09,1.35,15.053,M,32.006,M,,*7C
[2021-01-06 11:15:12.079] $GNGGA,021257.50,4304.167762000,N,14120.431626000,E,1,09,1.35,15.060,M,32.006,M,,*7D
[2021-01-06 11:15:12.189] $GNGGA,021257.60,4304.167768000,N,14120.431626000,E,1,09,1.35,15.067,M,32.006,M,,*73
[2021-01-06 11:15:12.283] $GNGGA,021257.70,4304.167768000,N,14120.431626000,E,1,09,1.35,15.079,M,32.006,M,,*7D
[2021-01-06 11:15:12.376] $GNGGA,021257.80,4304.167768000,N,14120.431626000,E,1,09,1.35,15.085,M,32.006,M,,*71
[2021-01-06 11:15:12.486] $GNGGA,021257.90,4304.167768000,N,14120.431620000,E,1,09,1.35,15.093,M,32.006,M,,*71
[2021-01-06 11:15:12.579] $GNGGA,021258.00,4304.167768000,N,14120.431620000,E,1,09,1.35,15.105,M,32.006,M,,*79
[2021-01-06 11:15:12.689] $GNGGA,021258.10,4304.167768000,N,14120.431620000,E,1,09,1.35,15.110,M,32.006,M,,*7C
[2021-01-06 11:15:12.783] $GNGGA,021258.20,4304.167768000,N,14120.431620000,E,1,09,1.35,15.117,M,32.006,M,,*78
[2021-01-06 11:15:12.876] $GNGGA,021258.30,4304.167768000,N,14120.431614000,E,1,09,1.35,15.132,M,32.006,M,,*79
[2021-01-06 11:15:12.986] $GNGGA,021258.40,4304.167768000,N,14120.431614000,E,1,09,1.35,15.137,M,32.006,M,,*7B
[2021-01-06 11:15:13.079] $GNGGA,021258.50,4304.167768000,N,14120.431614000,E,1,09,1.35,15.146,M,32.006,M,,*7C
[2021-01-06 11:15:13.189] $GNGGA,021258.60,4304.167768000,N,14120.431614000,E,1,09,1.35,15.154,M,32.006,M,,*7C
[2021-01-06 11:15:13.282] $GNGGA,021258.70,4304.167768000,N,14120.431608000,E,1,09,1.35,15.169,M,32.006,M,,*7E
[2021-01-06 11:15:13.376] $GNGGA,021258.80,4304.167768000,N,14120.431608000,E,1,09,1.35,15.177,M,32.006,M,,*7E
[2021-01-06 11:15:13.486] $GNGGA,021258.90,4304.167768000,N,14120.431608000,E,1,09,1.35,15.182,M,32.006,M,,*75
[2021-01-06 11:15:13.579] $GNGGA,021259.00,4304.167774000,N,14120.431602000,E,1,09,1.35,15.193,M,32.006,M,,*7A
[2021-01-06 11:15:13.689] $GNGGA,021259.10,4304.167768000,N,14120.431602000,E,1,09,1.35,15.206,M,32.006,M,,*79
[2021-01-06 11:15:13.782] $GNGGA,021259.20,4304.167768000,N,14120.431602000,E,1,09,1.35,15.212,M,32.006,M,,*7F
[2021-01-06 11:15:13.876] $GNGGA,021259.30,4304.167774000,N,14120.431596000,E,1,09,1.35,15.221,M,32.006,M,,*7D
[2021-01-06 11:15:13.986] $GNGGA,021259.40,4304.167774000,N,14120.431596000,E,1,09,1.35,15.228,M,32.006,M,,*73
[2021-01-06 11:15:14.079] $GNGGA,021259.50,4304.167774000,N,14120.431596000,E,1,09,1.35,15.243,M,32.006,M,,*7F
[2021-01-06 11:15:14.189] $GNGGA,021259.60,4304.167774000,N,14120.431596000,E,1,09,1.35,15.249,M,32.006,M,,*76
[2021-01-06 11:15:14.282] $GNGGA,021259.70,4304.167774000,N,14120.431590000,E,1,09,1.35,15.258,M,32.006,M,,*71
[2021-01-06 11:15:14.376] $GNGGA,021259.80,4304.167774000,N,14120.431590000,E,1,09,1.35,15.270,M,32.006,M,,*74
[2021-01-06 11:15:14.486] $GNGGA,021259.90,4304.167774000,N,14120.431590000,E,1,09,1.35,15.281,M,32.006,M,,*7B
[2021-01-06 11:15:14.579] $GNGGA,021300.00,4304.167774000,N,14120.431584000,E,1,09,1.35,15.285,M,32.006,M,,*7E
[2021-01-06 11:15:14.689] $GNGGA,021300.10,4304.167774000,N,14120.431584000,E,1,09,1.35,15.300,M,32.006,M,,*73
[2021-01-06 11:15:14.782] $GNGGA,021300.20,4304.167774000,N,14120.431584000,E,1,09,1.35,15.308,M,32.006,M,,*78
[2021-01-06 11:15:14.876] $GNGGA,021300.30,4304.167774000,N,14120.431584000,E,1,09,1.35,15.317,M,32.006,M,,*77
[2021-01-06 11:15:14.985] $GNGGA,021300.40,4304.167774000,N,14120.431578000,E,1,09,1.35,15.324,M,32.006,M,,*73
[2021-01-06 11:15:15.079] $GNGGA,021300.50,4304.167774000,N,14120.431578000,E,1,09,1.35,15.336,M,32.006,M,,*71
[2021-01-06 11:15:15.173] $GNGGA,021300.60,4304.167774000,N,14120.431578000,E,1,09,1.35,15.352,M,32.006,M,,*70
[2021-01-06 11:15:15.282] $GNGGA,021300.70,4304.167780000,N,14120.431572000,E,1,09,1.35,15.354,M,32.006,M,,*76
[2021-01-06 11:15:15.376] $GNGGA,021300.80,4304.167780000,N,14120.431572000,E,1,09,1.35,15.368,M,32.006,M,,*76
[2021-01-06 11:15:15.485] $GNGGA,021300.90,4304.167780000,N,14120.431572000,E,1,09,1.35,15.380,M,32.006,M,,*71
[2021-01-06 11:15:15.579] $GNGGA,021301.00,4304.167780000,N,14120.431566000,E,1,09,1.35,15.385,M,32.006,M,,*79
[2021-01-06 11:15:15.673] $GNGGA,021301.10,4304.167780000,N,14120.431566000,E,1,09,1.35,15.389,M,32.006,M,,*74
[2021-01-06 11:15:15.782] $GNGGA,021301.20,4304.167780000,N,14120.431566000,E,1,09,1.35,15.406,M,32.006,M,,*77
[2021-01-06 11:15:15.876] $GNGGA,021301.30,4304.167780000,N,14120.431566000,E,1,09,1.35,15.413,M,32.006,M,,*72
[2021-01-06 11:15:15.985] $GNGGA,021301.40,4304.167780000,N,14120.431560000,E,1,09,1.35,15.427,M,32.006,M,,*74
[2021-01-06 11:15:16.079] $GNGGA,021301.50,4304.167780000,N,14120.431560000,E,1,09,1.35,15.439,M,32.006,M,,*7A
[2021-01-06 11:15:16.188] $GNGGA,021301.60,4304.167780000,N,14120.431560000,E,1,09,1.35,15.450,M,32.006,M,,*76
[2021-01-06 11:15:16.282] $GNGGA,021301.70,4304.167780000,N,14120.431554000,E,1,09,1.35,15.455,M,32.006,M,,*75
[2021-01-06 11:15:16.376] $GNGGA,021301.80,4304.167780000,N,14120.431554000,E,1,09,1.35,15.464,M,32.006,M,,*78
[2021-01-06 11:15:16.485] $GNGGA,021301.90,4304.167780000,N,14120.431554000,E,1,09,1.35,15.478,M,32.006,M,,*74
[2021-01-06 11:15:16.579] $GNGGA,021302.00,4304.167780000,N,14120.431554000,E,1,09,1.35,15.487,M,32.006,M,,*7E
[2021-01-06 11:15:16.688] $GNGGA,021302.10,4304.167780000,N,14120.431548000,E,1,09,1.35,15.495,M,32.006,M,,*71
[2021-01-06 11:15:16.782] $GNGGA,021302.20,4304.167780000,N,14120.431548000,E,1,09,1.35,15.507,M,32.006,M,,*78
[2021-01-06 11:15:16.876] $GNGGA,021302.30,4304.167780000,N,14120.431548000,E,1,09,1.35,15.519,M,32.006,M,,*76
[2021-01-06 11:15:16.985] $GNGGA,021302.40,4304.167780000,N,14120.431542000,E,1,09,1.35,15.528,M,32.006,M,,*79
[2021-01-06 11:15:17.079] $GNGGA,021302.50,4304.167786000,N,14120.431542000,E,1,09,1.35,15.532,M,32.006,M,,*75
[2021-01-06 11:15:17.188] $GNGGA,021302.60,4304.167786000,N,14120.431542000,E,1,09,1.35,15.549,M,32.006,M,,*7A
[2021-01-06 11:15:17.282] $GNGGA,021302.70,4304.167786000,N,14120.431542000,E,1,09,1.35,15.562,M,32.006,M,,*72
[2021-01-06 11:15:17.376] $GNGGA,021302.80,4304.167786000,N,14120.431536000,E,1,09,1.35,15.570,M,32.006,M,,*7D
[2021-01-06 11:15:17.485] $GNGGA,021302.90,4304.167786000,N,14120.431536000,E,1,09,1.35,15.579,M,32.006,M,,*75
[2021-01-06 11:15:17.579] $GNGGA,021303.00,4304.167786000,N,14120.431536000,E,1,09,1.35,15.589,M,32.006,M,,*72
[2021-01-06 11:15:17.688] $GNGGA,021303.10,4304.167786000,N,14120.431530000,E,1,09,1.35,15.600,M,32.006,M,,*77
[2021-01-06 11:15:17.782] $GNGGA,021303.20,4304.167786000,N,14120.431530000,E,1,09,1.35,15.613,M,32.006,M,,*76
[2021-01-06 11:15:17.876] $GNGGA,021303.30,4304.167786000,N,14120.431530000,E,1,09,1.35,15.624,M,32.006,M,,*73
[2021-01-06 11:15:17.985] $GNGGA,021303.40,4304.167786000,N,14120.431530000,E,1,09,1.35,15.627,M,32.006,M,,*77
[2021-01-06 11:15:18.079] $GNGGA,021303.50,4304.167786000,N,14120.431524000,E,1,09,1.35,15.643,M,32.006,M,,*71
[2021-01-06 11:15:18.188] $GNGGA,021303.60,4304.167786000,N,14120.431524000,E,1,09,1.35,15.655,M,32.006,M,,*75
[2021-01-06 11:15:18.282] $GNGGA,021303.70,4304.167786000,N,14120.431524000,E,1,09,1.35,15.668,M,32.006,M,,*7A
[2021-01-06 11:15:18.376] $GNGGA,021303.80,4304.167786000,N,14120.431524000,E,1,09,1.35,15.677,M,32.006,M,,*7B
[2021-01-06 11:15:18.485] $GNGGA,021303.90,4304.167786000,N,14120.431518000,E,1,09,1.35,15.687,M,32.006,M,,*7A
[2021-01-06 11:15:18.579] $GNGGA,021304.00,4304.167786000,N,14120.431518000,E,1,09,1.35,15.701,M,32.006,M,,*7B
[2021-01-06 11:15:18.688] $GNGGA,021304.10,4304.167786000,N,14120.431518000,E,1,09,1.35,15.708,M,32.006,M,,*73
[2021-01-06 11:15:18.782] $GNGGA,021304.20,4304.167786000,N,14120.431512000,E,1,09,1.35,15.724,M,32.006,M,,*74
[2021-01-06 11:15:18.876] $GNGGA,021304.30,4304.167786000,N,14120.431512000,E,1,09,1.35,15.729,M,32.006,M,,*78
[2021-01-06 11:15:18.985] $GNGGA,021304.40,4304.167786000,N,14120.431512000,E,1,09,1.35,15.743,M,32.006,M,,*73
[2021-01-06 11:15:19.079] $GNGGA,021304.50,4304.167786000,N,14120.431506000,E,1,09,1.35,15.752,M,32.006,M,,*77
[2021-01-06 11:15:19.188] $GNGGA,021304.60,4304.167786000,N,14120.431506000,E,1,09,1.35,15.760,M,32.006,M,,*75
[2021-01-06 11:15:19.282] $GNGGA,021304.70,4304.167786000,N,14120.431506000,E,1,09,1.35,15.770,M,32.006,M,,*75
[2021-01-06 11:15:19.376] $GNGGA,021304.80,4304.167786000,N,14120.431500000,E,1,09,1.35,15.778,M,32.006,M,,*74
[2021-01-06 11:15:19.485] $GNGGA,021304.90,4304.167786000,N,14120.431500000,E,1,09,1.35,15.791,M,32.006,M,,*72
[2021-01-06 11:15:19.579] $GNGGA,021305.00,4304.167786000,N,14120.431500000,E,1,09,1.35,15.800,M,32.006,M,,*7D
[2021-01-06 11:15:19.688] $GNGGA,021305.10,4304.167786000,N,14120.431494000,E,1,09,1.35,15.807,M,32.006,M,,*77
[2021-01-06 11:15:19.782] $GNGGA,021305.20,4304.167786000,N,14120.431494000,E,1,09,1.35,15.819,M,32.006,M,,*7B
[2021-01-06 11:15:19.876] $GNGGA,021305.30,4304.167786000,N,14120.431494000,E,1,09,1.35,15.828,M,32.006,M,,*78
[2021-01-06 11:15:19.985] $GNGGA,021305.40,4304.167786000,N,14120.431494000,E,1,09,1.35,15.843,M,32.006,M,,*72
[2021-01-06 11:15:20.079] $GNGGA,021305.50,4304.167786000,N,14120.431488000,E,1,09,1.35,15.843,M,32.006,M,,*7E
[2021-01-06 11:15:20.188] $GNGGA,021305.60,4304.167786000,N,14120.431488000,E,1,09,1.35,15.863,M,32.006,M,,*7F
[2021-01-06 11:15:20.282] $GNGGA,021305.70,4304.167786000,N,14120.431482000,E,1,09,1.35,15.864,M,32.006,M,,*73
[2021-01-06 11:15:20.376] $GNGGA,021305.80,4304.167786000,N,14120.431482000,E,1,09,1.35,15.878,M,32.006,M,,*71
[2021-01-06 11:15:20.485] $GNGGA,021305.90,4304.167786000,N,14120.431482000,E,1,09,1.35,15.888,M,32.006,M,,*7F
[2021-01-06 11:15:20.579] $GNGGA,021306.00,4304.167786000,N,14120.431482000,E,1,09,1.35,15.895,M,32.006,M,,*79
[2021-01-06 11:15:20.688] $GNGGA,021306.10,4304.167786000,N,14120.431476000,E,1,09,1.35,15.912,M,32.006,M,,*7D
[2021-01-06 11:15:20.782] $GNGGA,021306.20,4304.167786000,N,14120.431476000,E,1,09,1.35,15.921,M,32.006,M,,*7E
[2021-01-06 11:15:20.876] $GNGGA,021306.30,4304.167786000,N,14120.431476000,E,1,09,1.35,15.928,M,32.006,M,,*76
[2021-01-06 11:15:20.985] $GNGGA,021306.40,4304.167786000,N,14120.431470000,E,1,09,1.35,15.938,M,32.006,M,,*76
[2021-01-06 11:15:21.079] $GNGGA,021306.50,4304.167786000,N,14120.431470000,E,1,09,1.35,15.956,M,32.006,M,,*7F
[2021-01-06 11:15:21.188] $GNGGA,021306.60,4304.167786000,N,14120.431464000,E,1,09,1.35,15.964,M,32.006,M,,*78
[2021-01-06 11:15:21.282] $GNGGA,021306.70,4304.167786000,N,14120.431464000,E,1,09,1.35,15.971,M,32.006,M,,*7D
[2021-01-06 11:15:21.376] $GNGGA,021306.80,4304.167786000,N,14120.431464000,E,1,09,1.35,15.979,M,32.006,M,,*7A
[2021-01-06 11:15:21.485] $GNGGA,021306.90,4304.167786000,N,14120.431458000,E,1,09,1.35,15.997,M,32.006,M,,*74
[2021-01-06 11:15:21.579] $GNGGA,021307.00,4304.167786000,N,14120.431458000,E,1,09,1.35,16.003,M,32.006,M,,*7B
[2021-01-06 11:15:21.688] $GNGGA,021307.10,4304.167786000,N,14120.431458000,E,1,09,1.35,16.015,M,32.006,M,,*7D
[2021-01-06 11:15:21.782] $GNGGA,021307.20,4304.167786000,N,14120.431458000,E,1,09,1.35,16.026,M,32.006,M,,*7E
[2021-01-06 11:15:21.876] $GNGGA,021307.30,4304.167786000,N,14120.431452000,E,1,09,1.35,16.033,M,32.006,M,,*71
[2021-01-06 11:15:21.985] $GNGGA,021307.40,4304.167786000,N,14120.431452000,E,1,09,1.35,16.047,M,32.006,M,,*75
[2021-01-06 11:15:22.079] $GNGGA,021307.50,4304.167786000,N,14120.431452000,E,1,09,1.35,16.053,M,32.006,M,,*71
[2021-01-06 11:15:22.188] $GNGGA,021307.60,4304.167786000,N,14120.431446000,E,1,09,1.35,16.064,M,32.006,M,,*73
[2021-01-06 11:15:22.282] $GNGGA,021307.70,4304.167786000,N,14120.431446000,E,1,09,1.35,16.081,M,32.006,M,,*79
[2021-01-06 11:15:22.376] $GNGGA,021307.80,4304.167786000,N,14120.431446000,E,1,09,1.35,16.086,M,32.006,M,,*71
[2021-01-06 11:15:22.485] $GNGGA,021307.90,4304.167786000,N,14120.431440000,E,1,09,1.35,16.096,M,32.006,M,,*77
[2021-01-06 11:15:22.579] $GNGGA,021308.00,4304.167786000,N,14120.431440000,E,1,09,1.35,16.103,M,32.006,M,,*7C
[2021-01-06 11:15:22.688] $GNGGA,021308.10,4304.167786000,N,14120.431440000,E,1,09,1.35,16.118,M,32.006,M,,*77
[2021-01-06 11:15:22.782] $GNGGA,021308.20,4304.167786000,N,14120.431434000,E,1,09,1.35,16.122,M,32.006,M,,*7E
[2021-01-06 11:15:22.876] $GNGGA,021308.30,4304.167786000,N,14120.431434000,E,1,09,1.35,16.136,M,32.006,M,,*7A
[2021-01-06 11:15:22.985] $GNGGA,021308.40,4304.167786000,N,14120.431434000,E,1,09,1.35,16.148,M,32.006,M,,*74
[2021-01-06 11:15:23.079] $GNGGA,021308.50,4304.167786000,N,14120.431428000,E,1,09,1.35,16.154,M,32.006,M,,*75
[2021-01-06 11:15:23.188] $GNGGA,021308.60,4304.167786000,N,14120.431428000,E,1,09,1.35,16.172,M,32.006,M,,*72
[2021-01-06 11:15:23.282] $GNGGA,021308.70,4304.167792000,N,14120.431428000,E,1,09,1.35,16.179,M,32.006,M,,*7D
[2021-01-06 11:15:23.376] $GNGGA,021308.80,4304.167792000,N,14120.431422000,E,1,09,1.35,16.185,M,32.006,M,,*7B
[2021-01-06 11:15:23.485] $GNGGA,021308.90,4304.167792000,N,14120.431422000,E,1,09,1.35,16.196,M,32.006,M,,*78
[2021-01-06 11:15:23.579] $GNGGA,021309.00,4304.167792000,N,14120.431422000,E,1,09,1.35,16.203,M,32.006,M,,*7F
[2021-01-06 11:15:23.688] $GNGGA,021309.10,4304.167792000,N,14120.431416000,E,1,09,1.35,16.219,M,32.006,M,,*72
[2021-01-06 11:15:23.782] $GNGGA,021309.20,4304.167792000,N,14120.431416000,E,1,09,1.35,16.228,M,32.006,M,,*73
[2021-01-06 11:15:23.875] $GNGGA,021309.30,4304.167792000,N,14120.431416000,E,1,09,1.35,16.238,M,32.006,M,,*73
[2021-01-06 11:15:23.985] $GNGGA,021309.40,4304.167792000,N,14120.431410000,E,1,09,1.35,16.251,M,32.006,M,,*7D
[2021-01-06 11:15:24.079] $GNGGA,021309.50,4304.167792000,N,14120.431410000,E,1,09,1.35,16.262,M,32.006,M,,*7C
[2021-01-06 11:15:24.188] $GNGGA,021309.60,4304.167792000,N,14120.431410000,E,1,09,1.35,16.270,M,32.006,M,,*7C
[2021-01-06 11:15:24.282] $GNGGA,021309.70,4304.167792000,N,14120.431404000,E,1,09,1.35,16.286,M,32.006,M,,*71
[2021-01-06 11:15:24.375] $GNGGA,021309.80,4304.167792000,N,14120.431404000,E,1,09,1.35,16.289,M,32.006,M,,*71
[2021-01-06 11:15:24.485] $GNGGA,021309.90,4304.167792000,N,14120.431404000,E,1,09,1.35,16.305,M,32.006,M,,*75
[2021-01-06 11:15:24.579] $GNGGA,021310.00,4304.167786000,N,14120.431398000,E,1,09,1.35,16.317,M,32.006,M,,*70
[2021-01-06 11:15:24.688] $GNGGA,021310.10,4304.167792000,N,14120.431398000,E,1,09,1.35,16.328,M,32.006,M,,*78
[2021-01-06 11:15:24.782] $GNGGA,021310.20,4304.167792000,N,14120.431398000,E,1,09,1.35,16.334,M,32.006,M,,*76
[2021-01-06 11:15:24.875] $GNGGA,021310.30,4304.167792000,N,14120.431398000,E,1,09,1.35,16.347,M,32.006,M,,*73
[2021-01-06 11:15:24.985] $GNGGA,021310.40,4304.167786000,N,14120.431392000,E,1,09,1.35,16.360,M,32.006,M,,*7E
[2021-01-06 11:15:25.079] $GNGGA,021310.50,4304.167786000,N,14120.431392000,E,1,09,1.35,16.368,M,32.006,M,,*77
[2021-01-06 11:15:25.188] $GNGGA,021310.60,4304.167792000,N,14120.431392000,E,1,09,1.35,16.379,M,32.006,M,,*71
[2021-01-06 11:15:25.282] $GNGGA,021310.70,4304.167792000,N,14120.431386000,E,1,09,1.35,16.395,M,32.006,M,,*77
[2021-01-06 11:15:25.375] $GNGGA,021310.80,4304.167792000,N,14120.431386000,E,1,09,1.35,16.401,M,32.006,M,,*72
[2021-01-06 11:15:25.485] $GNGGA,021310.90,4304.167792000,N,14120.431386000,E,1,09,1.35,16.410,M,32.006,M,,*73
[2021-01-06 11:15:25.579] $GNGGA,021311.00,4304.167792000,N,14120.431386000,E,1,10,1.21,16.427,M,32.006,M,,*72
[2021-01-06 11:15:25.688] $GNGGA,021311.10,4304.167792000,N,14120.431380000,E,1,10,1.21,16.433,M,32.006,M,,*70
[2021-01-06 11:15:25.782] $GNGGA,021311.20,4304.167792000,N,14120.431380000,E,1,10,1.21,16.447,M,32.006,M,,*70
[2021-01-06 11:15:25.875] $GNGGA,021311.30,4304.167792000,N,14120.431374000,E,1,10,1.21,16.456,M,32.006,M,,*7A
[2021-01-06 11:15:25.985] $GNGGA,021311.40,4304.167792000,N,14120.431374000,E,1,10,1.21,16.463,M,32.006,M,,*7B
[2021-01-06 11:15:26.078] $GNGGA,021311.50,4304.167792000,N,14120.431374000,E,1,10,1.21,16.481,M,32.006,M,,*76
[2021-01-06 11:15:26.188] $GNGGA,021311.60,4304.167786000,N,14120.431374000,E,1,10,1.21,16.494,M,32.006,M,,*74
[2021-01-06 11:15:26.282] $GNGGA,021311.70,4304.167792000,N,14120.431368000,E,1,10,1.21,16.502,M,32.006,M,,*73
[2021-01-06 11:15:26.375] $GNGGA,021311.80,4304.167786000,N,14120.431368000,E,1,10,1.21,16.514,M,32.006,M,,*7E
[2021-01-06 11:15:26.485] $GNGGA,021311.90,4304.167786000,N,14120.431368000,E,1,10,1.21,16.528,M,32.006,M,,*70
[2021-01-06 11:15:26.578] $GNGGA,021312.00,4304.167792000,N,14120.431362000,E,1,10,1.21,16.536,M,32.006,M,,*7A
[2021-01-06 11:15:26.688] $GNGGA,021312.10,4304.167786000,N,14120.431362000,E,1,10,1.21,16.553,M,32.006,M,,*7D
[2021-01-06 11:15:26.782] $GNGGA,021312.20,4304.167786000,N,14120.431356000,E,1,10,1.21,16.564,M,32.006,M,,*7D
[2021-01-06 11:15:26.875] $GNGGA,021312.30,4304.167792000,N,14120.431356000,E,1,10,1.21,16.572,M,32.006,M,,*7E
[2021-01-06 11:15:26.985] $GNGGA,021312.40,4304.167792000,N,14120.431356000,E,1,10,1.21,16.580,M,32.006,M,,*74
[2021-01-06 11:15:27.078] $GNGGA,021312.50,4304.167792000,N,14120.431356000,E,1,10,1.21,16.591,M,32.006,M,,*75
[2021-01-06 11:15:27.188] $GNGGA,021312.60,4304.167792000,N,14120.431350000,E,1,10,1.21,16.607,M,32.006,M,,*7C
[2021-01-06 11:15:27.282] $GNGGA,021312.70,4304.167792000,N,14120.431350000,E,1,10,1.21,16.616,M,32.006,M,,*7D
[2021-01-06 11:15:27.375] $GNGGA,021312.80,4304.167792000,N,14120.431350000,E,1,10,1.21,16.628,M,32.006,M,,*7F
[2021-01-06 11:15:27.485] $GNGGA,021312.90,4304.167792000,N,14120.431344000,E,1,10,1.21,16.636,M,32.006,M,,*74
[2021-01-06 11:15:27.578] $GNGGA,021313.00,4304.167792000,N,14120.431344000,E,1,10,1.21,16.648,M,32.006,M,,*75
[2021-01-06 11:15:27.688] $GNGGA,021313.10,4304.167792000,N,14120.431344000,E,1,10,1.21,16.656,M,32.006,M,,*7B
[2021-01-06 11:15:27.781] $GNGGA,021313.20,4304.167792000,N,14120.431344000,E,1,10,1.21,16.662,M,32.006,M,,*7F
[2021-01-06 11:15:27.875] $GNGGA,021313.30,4304.167792000,N,14120.431338000,E,1,10,1.21,16.678,M,32.006,M,,*7E
[2021-01-06 11:15:27.985] $GNGGA,021313.40,4304.167792000,N,14120.431338000,E,1,10,1.21,16.686,M,32.006,M,,*78
[2021-01-06 11:15:28.078] $GNGGA,021313.50,4304.167792000,N,14120.431332000,E,1,10,1.21,16.692,M,32.006,M,,*76
[2021-01-06 11:15:28.188] $GNGGA,021313.60,4304.167792000,N,14120.431332000,E,1,10,1.21,16.705,M,32.006,M,,*7A
[2021-01-06 11:15:28.281] $GNGGA,021313.70,4304.167792000,N,14120.431332000,E,1,10,1.21,16.714,M,32.006,M,,*7B
[2021-01-06 11:15:28.375] $GNGGA,021313.80,4304.167792000,N,14120.431332000,E,1,10,1.21,16.725,M,32.006,M,,*76
[2021-01-06 11:15:28.485] $GNGGA,021313.90,4304.167792000,N,14120.431326000,E,1,10,1.21,16.730,M,32.006,M,,*76
[2021-01-06 11:15:28.578] $GNGGA,021314.00,4304.167792000,N,14120.431326000,E,1,10,1.21,16.745,M,32.006,M,,*7A
[2021-01-06 11:15:28.688] $GNGGA,021314.10,4304.167792000,N,14120.431326000,E,1,10,1.21,16.755,M,32.006,M,,*7A
[2021-01-06 11:15:28.781] $GNGGA,021314.20,4304.167792000,N,14120.431320000,E,1,10,1.21,16.765,M,32.006,M,,*7C
[2021-01-06 11:15:28.875] $GNGGA,021314.30,4304.167792000,N,14120.431320000,E,1,10,1.21,16.777,M,32.006,M,,*7E
[2021-01-06 11:15:28.985] $GNGGA,021314.40,4304.167792000,N,14120.431320000,E,1,10,1.21,16.791,M,32.006,M,,*71
[2021-01-06 11:15:29.078] $GNGGA,021314.50,4304.167792000,N,14120.431320000,E,1,10,1.21,16.798,M,32.006,M,,*79
[2021-01-06 11:15:29.188] $GNGGA,021314.60,4304.167792000,N,14120.431314000,E,1,10,1.21,16.810,M,32.006,M,,*72
[2021-01-06 11:15:29.281] $GNGGA,021314.70,4304.167792000,N,14120.431314000,E,1,10,1.21,16.818,M,32.006,M,,*7B
[2021-01-06 11:15:29.375] $GNGGA,021314.80,4304.167792000,N,14120.431314000,E,1,10,1.21,16.825,M,32.006,M,,*7A
[2021-01-06 11:15:29.484] $GNGGA,021314.90,4304.167792000,N,14120.431314000,E,1,10,1.21,16.836,M,32.006,M,,*79
[2021-01-06 11:15:29.578] $GNGGA,021315.00,4304.167792000,N,14120.431308000,E,1,10,1.21,16.851,M,32.006,M,,*7D
[2021-01-06 11:15:29.688] $GNGGA,021315.10,4304.167792000,N,14120.431308000,E,1,10,1.21,16.860,M,32.006,M,,*7E
[2021-01-06 11:15:29.781] $GNGGA,021315.20,4304.167792000,N,14120.431308000,E,1,10,1.21,16.867,M,32.006,M,,*7A
[2021-01-06 11:15:29.875] $GNGGA,021315.30,4304.167792000,N,14120.431308000,E,1,10,1.21,16.877,M,32.006,M,,*7A
[2021-01-06 11:15:29.984] $GNGGA,021315.40,4304.167792000,N,14120.431302000,E,1,10,1.21,16.889,M,32.006,M,,*76
[2021-01-06 11:15:30.078] $GNGGA,021315.50,4304.167792000,N,14120.431302000,E,1,10,1.21,16.895,M,32.006,M,,*7A
[2021-01-06 11:15:30.187] $GNGGA,021315.60,4304.167792000,N,14120.431302000,E,1,10,1.21,16.911,M,32.006,M,,*74
[2021-01-06 11:15:30.281] $GNGGA,021315.70,4304.167792000,N,14120.431302000,E,1,10,1.21,16.917,M,32.006,M,,*73
[2021-01-06 11:15:30.375] $GNGGA,021315.80,4304.167792000,N,14120.431296000,E,1,10,1.21,16.930,M,32.006,M,,*75
[2021-01-06 11:15:30.484] $GNGGA,021315.90,4304.167792000,N,14120.431296000,E,1,10,1.21,16.937,M,32.006,M,,*73
[2021-01-06 11:15:30.578] $GNGGA,021316.00,4304.167792000,N,14120.431296000,E,1,10,1.21,16.951,M,32.006,M,,*79
[2021-01-06 11:15:30.687] $GNGGA,021316.10,4304.167792000,N,14120.431290000,E,1,10,1.21,16.953,M,32.006,M,,*7C
[2021-01-06 11:15:30.781] $GNGGA,021316.20,4304.167792000,N,14120.431290000,E,1,10,1.21,16.969,M,32.006,M,,*76
[2021-01-06 11:15:30.875] $GNGGA,021316.30,4304.167792000,N,14120.431290000,E,1,10,1.21,16.976,M,32.006,M,,*79
[2021-01-06 11:15:30.984] $GNGGA,021316.40,4304.167792000,N,14120.431290000,E,1,10,1.21,16.985,M,32.006,M,,*72
[2021-01-06 11:15:31.078] $GNGGA,021316.50,4304.167792000,N,14120.431284000,E,1,10,1.21,16.999,M,32.006,M,,*7B
[2021-01-06 11:15:31.187] $GNGGA,021316.60,4304.167792000,N,14120.431284000,E,1,10,1.21,17.003,M,32.006,M,,*73
[2021-01-06 11:15:31.281] $GNGGA,021316.70,4304.167786000,N,14120.431284000,E,1,10,1.21,17.022,M,32.006,M,,*74
[2021-01-06 11:15:31.375] $GNGGA,021316.80,4304.167792000,N,14120.431278000,E,1,10,1.21,17.026,M,32.006,M,,*79
[2021-01-06 11:15:31.484] $GNGGA,021316.90,4304.167792000,N,14120.431278000,E,1,10,1.21,17.038,M,32.006,M,,*77
[2021-01-06 11:15:31.578] $GNGGA,021317.00,4304.167792000,N,14120.431278000,E,1,10,1.21,17.043,M,32.006,M,,*73
[2021-01-06 11:15:31.687] $GNGGA,021317.10,4304.167792000,N,14120.431272000,E,1,10,1.21,17.052,M,32.006,M,,*78
[2021-01-06 11:15:31.781] $GNGGA,021317.20,4304.167792000,N,14120.431272000,E,1,10,1.21,17.062,M,32.006,M,,*78
[2021-01-06 11:15:31.875] $GNGGA,021317.30,4304.167786000,N,14120.431272000,E,1,10,1.21,17.073,M,32.006,M,,*7C
[2021-01-06 11:15:31.984] $GNGGA,021317.40,4304.167786000,N,14120.431272000,E,1,10,1.21,17.082,M,32.006,M,,*75
[2021-01-06 11:15:32.078] $GNGGA,021317.50,4304.167786000,N,14120.431266000,E,1,10,1.21,17.090,M,32.006,M,,*72
[2021-01-06 11:15:32.187] $GNGGA,021317.60,4304.167786000,N,14120.431266000,E,1,10,1.21,17.097,M,32.006,M,,*76
[2021-01-06 11:15:32.281] $GNGGA,021317.70,4304.167786000,N,14120.431266000,E,1,10,1.21,17.109,M,32.006,M,,*71
[2021-01-06 11:15:32.375] $GNGGA,021317.80,4304.167786000,N,14120.431266000,E,1,10,1.21,17.112,M,32.006,M,,*74
[2021-01-06 11:15:32.484] $GNGGA,021317.90,4304.167786000,N,14120.431260000,E,1,10,1.21,17.121,M,32.006,M,,*73
[2021-01-06 11:15:32.578] $GNGGA,021318.00,4304.167786000,N,14120.431260000,E,1,10,1.21,17.129,M,32.006,M,,*7D
[2021-01-06 11:15:32.687] $GNGGA,021318.10,4304.167786000,N,14120.431260000,E,1,10,1.21,17.138,M,32.006,M,,*7C
[2021-01-06 11:15:32.781] $GNGGA,021318.20,4304.167786000,N,14120.431254000,E,1,10,1.21,17.150,M,32.006,M,,*76
[2021-01-06 11:15:32.875] $GNGGA,021318.30,4304.167786000,N,14120.431254000,E,1,10,1.21,17.157,M,32.006,M,,*70
[2021-01-06 11:15:32.984] $GNGGA,021318.40,4304.167786000,N,14120.431254000,E,1,10,1.21,17.162,M,32.006,M,,*71
[2021-01-06 11:15:33.078] $GNGGA,021318.50,4304.167786000,N,14120.431254000,E,1,10,1.21,17.174,M,32.006,M,,*77
[2021-01-06 11:15:33.187] $GNGGA,021318.60,4304.167786000,N,14120.431248000,E,1,10,1.21,17.177,M,32.006,M,,*7A
[2021-01-06 11:15:33.281] $GNGGA,021318.70,4304.167786000,N,14120.431248000,E,1,10,1.21,17.189,M,32.006,M,,*7A
[2021-01-06 11:15:33.375] $GNGGA,021318.80,4304.167786000,N,14120.431248000,E,1,10,1.21,17.192,M,32.006,M,,*7F
[2021-01-06 11:15:33.484] $GNGGA,021318.90,4304.167786000,N,14120.431248000,E,1,10,1.21,17.206,M,32.006,M,,*70
[2021-01-06 11:15:33.578] $GNGGA,021319.00,4304.167786000,N,14120.431242000,E,1,10,1.21,17.209,M,32.006,M,,*7D
[2021-01-06 11:15:33.687] $GNGGA,021319.10,4304.167786000,N,14120.431242000,E,1,10,1.21,17.220,M,32.006,M,,*77
[2021-01-06 11:15:33.781] $GNGGA,021319.20,4304.167786000,N,14120.431242000,E,1,10,1.21,17.225,M,32.006,M,,*71
[2021-01-06 11:15:33.875] $GNGGA,021319.30,4304.167786000,N,14120.431242000,E,1,10,1.21,17.227,M,32.006,M,,*72
[2021-01-06 11:15:33.984] $GNGGA,021319.40,4304.167786000,N,14120.431236000,E,1,10,1.21,17.239,M,32.006,M,,*79
[2021-01-06 11:15:34.078] $GNGGA,021319.50,4304.167786000,N,14120.431236000,E,1,10,1.21,17.244,M,32.006,M,,*72
[2021-01-06 11:15:34.187] $GNGGA,021319.60,4304.167786000,N,14120.431236000,E,1,10,1.21,17.250,M,32.006,M,,*74
[2021-01-06 11:15:34.281] $GNGGA,021319.70,4304.167786000,N,14120.431236000,E,1,10,1.21,17.266,M,32.006,M,,*70
[2021-01-06 11:15:34.375] $GNGGA,021319.80,4304.167786000,N,14120.431236000,E,1,10,1.21,17.268,M,32.006,M,,*71
[2021-01-06 11:15:34.484] $GNGGA,021319.90,4304.167780000,N,14120.431230000,E,1,10,1.21,17.278,M,32.006,M,,*71
[2021-01-06 11:15:34.578] $GNGGA,021320.00,4304.167780000,N,14120.431230000,E,1,10,1.21,17.290,M,32.006,M,,*74
[2021-01-06 11:15:34.687] $GNGGA,021320.10,4304.167780000,N,14120.431230000,E,1,10,1.21,17.295,M,32.006,M,,*70
[2021-01-06 11:15:34.781] $GNGGA,021320.20,4304.167780000,N,14120.431224000,E,1,10,1.21,17.305,M,32.006,M,,*7E
[2021-01-06 11:15:34.875] $GNGGA,021320.30,4304.167780000,N,14120.431224000,E,1,10,1.21,17.314,M,32.006,M,,*7F
[2021-01-06 11:15:34.984] $GNGGA,021320.40,4304.167780000,N,14120.431224000,E,1,10,1.21,17.323,M,32.006,M,,*7C
[2021-01-06 11:15:35.078] $GNGGA,021320.50,4304.167780000,N,14120.431224000,E,1,10,1.21,17.332,M,32.006,M,,*7D
[2021-01-06 11:15:35.187] $GNGGA,021320.60,4304.167780000,N,14120.431218000,E,1,10,1.21,17.338,M,32.006,M,,*7B
[2021-01-06 11:15:35.281] $GNGGA,021320.70,4304.167780000,N,14120.431218000,E,1,10,1.21,17.340,M,32.006,M,,*75
[2021-01-06 11:15:35.375] $GNGGA,021320.80,4304.167780000,N,14120.431218000,E,1,10,1.21,17.351,M,32.006,M,,*7A
[2021-01-06 11:15:35.484] $GNGGA,021320.90,4304.167780000,N,14120.431212000,E,1,10,1.21,17.365,M,32.006,M,,*76
[2021-01-06 11:15:35.578] $GNGGA,021321.00,4304.167780000,N,14120.431212000,E,1,10,1.21,17.369,M,32.006,M,,*72
[2021-01-06 11:15:35.687] $GNGGA,021321.10,4304.167780000,N,14120.431212000,E,1,10,1.21,17.377,M,32.006,M,,*7C
[2021-01-06 11:15:35.781] $GNGGA,021321.20,4304.167774000,N,14120.431206000,E,1,10,1.21,17.390,M,32.006,M,,*78
[2021-01-06 11:15:35.875] $GNGGA,021321.30,4304.167774000,N,14120.431206000,E,1,10,1.21,17.389,M,32.006,M,,*71
[2021-01-06 11:15:35.984] $GNGGA,021321.40,4304.167774000,N,14120.431206000,E,1,10,1.21,17.398,M,32.006,M,,*76
[2021-01-06 11:15:36.078] $GNGGA,021321.50,4304.167774000,N,14120.431200000,E,1,10,1.21,17.404,M,32.006,M,,*73
[2021-01-06 11:15:36.187] $GNGGA,021321.60,4304.167774000,N,14120.431200000,E,1,10,1.21,17.413,M,32.006,M,,*76
[2021-01-06 11:15:36.281] $GNGGA,021321.70,4304.167774000,N,14120.431200000,E,1,10,1.21,17.420,M,32.006,M,,*77
[2021-01-06 11:15:36.375] $GNGGA,021321.80,4304.167774000,N,14120.431200000,E,1,10,1.21,17.427,M,32.006,M,,*7F
[2021-01-06 11:15:36.484] $GNGGA,021321.90,4304.167774000,N,14120.431194000,E,1,10,1.21,17.431,M,32.006,M,,*77
[2021-01-06 11:15:36.578] $GNGGA,021322.00,4304.167774000,N,14120.431194000,E,1,10,1.21,17.438,M,32.006,M,,*74
[2021-01-06 11:15:36.687] $GNGGA,021322.10,4304.167774000,N,14120.431194000,E,1,10,1.21,17.445,M,32.006,M,,*7F
[2021-01-06 11:15:36.781] $GNGGA,021322.20,4304.167768000,N,14120.431188000,E,1,10,1.21,17.453,M,32.006,M,,*7B
[2021-01-06 11:15:36.875] $GNGGA,021322.30,4304.167768000,N,14120.431188000,E,1,10,1.21,17.457,M,32.006,M,,*7E
[2021-01-06 11:15:36.984] $GNGGA,021322.40,4304.167768000,N,14120.431188000,E,1,10,1.21,17.463,M,32.006,M,,*7E
[2021-01-06 11:15:37.078] $GNGGA,021322.50,4304.167768000,N,14120.431188000,E,1,10,1.21,17.475,M,32.006,M,,*78
[2021-01-06 11:15:37.187] $GNGGA,021322.60,4304.167768000,N,14120.431182000,E,1,10,1.21,17.479,M,32.006,M,,*7D
[2021-01-06 11:15:37.281] $GNGGA,021322.70,4304.167768000,N,14120.431182000,E,1,10,1.21,17.487,M,32.006,M,,*7D
[2021-01-06 11:15:37.375] $GNGGA,021322.80,4304.167768000,N,14120.431182000,E,1,10,1.21,17.495,M,32.006,M,,*71
[2021-01-06 11:15:37.484] $GNGGA,021322.90,4304.167768000,N,14120.431176000,E,1,10,1.21,17.501,M,32.006,M,,*77
[2021-01-06 11:15:37.578] $GNGGA,021323.00,4304.167768000,N,14120.431176000,E,1,10,1.21,17.504,M,32.006,M,,*7A
[2021-01-06 11:15:37.687] $GNGGA,021323.10,4304.167768000,N,14120.431176000,E,1,10,1.21,17.512,M,32.006,M,,*7C
[2021-01-06 11:15:37.781] $GNGGA,021323.20,4304.167768000,N,14120.431170000,E,1,10,1.21,17.517,M,32.006,M,,*7C
[2021-01-06 11:15:37.875] $GNGGA,021323.30,4304.167768000,N,14120.431170000,E,1,10,1.21,17.527,M,32.006,M,,*7E
[2021-01-06 11:15:37.984] $GNGGA,021323.40,4304.167768000,N,14120.431170000,E,1,10,1.21,17.532,M,32.006,M,,*7D
[2021-01-06 11:15:38.078] $GNGGA,021323.50,4304.167768000,N,14120.431170000,E,1,10,1.21,17.538,M,32.006,M,,*76
[2021-01-06 11:15:38.187] $GNGGA,021323.60,4304.167768000,N,14120.431164000,E,1,10,1.21,17.540,M,32.006,M,,*7F
[2021-01-06 11:15:38.281] $GNGGA,021323.70,4304.167762000,N,14120.431164000,E,1,10,1.21,17.550,M,32.006,M,,*75
[2021-01-06 11:15:38.374] $GNGGA,021323.80,4304.167762000,N,14120.431164000,E,1,10,1.21,17.556,M,32.006,M,,*7C
[2021-01-06 11:15:38.484] $GNGGA,021323.90,4304.167762000,N,14120.431158000,E,1,10,1.21,17.557,M,32.006,M,,*73
[2021-01-06 11:15:38.578] $GNGGA,021324.00,4304.167762000,N,14120.431158000,E,1,10,1.21,17.567,M,32.006,M,,*7E
[2021-01-06 11:15:38.687] $GNGGA,021324.10,4304.167762000,N,14120.431158000,E,1,10,1.21,17.569,M,32.006,M,,*71
[2021-01-06 11:15:38.781] $GNGGA,021324.20,4304.167762000,N,14120.431152000,E,1,10,1.21,17.582,M,32.006,M,,*7D
[2021-01-06 11:15:38.874] $GNGGA,021324.30,4304.167762000,N,14120.431152000,E,1,10,1.21,17.584,M,32.006,M,,*7A
[2021-01-06 11:15:38.984] $GNGGA,021324.40,4304.167762000,N,14120.431152000,E,1,10,1.21,17.586,M,32.006,M,,*7F
[2021-01-06 11:15:39.078] $GNGGA,021324.50,4304.167762000,N,14120.431152000,E,1,10,1.21,17.596,M,32.006,M,,*7F
[2021-01-06 11:15:39.187] $GNGGA,021324.60,4304.167762000,N,14120.431146000,E,1,10,1.21,17.605,M,32.006,M,,*70
[2021-01-06 11:15:39.281] $GNGGA,021324.70,4304.167762000,N,14120.431146000,E,1,10,1.21,17.606,M,32.006,M,,*72
[2021-01-06 11:15:39.374] $GNGGA,021324.80,4304.167762000,N,14120.431146000,E,1,10,1.21,17.611,M,32.006,M,,*7B
[2021-01-06 11:15:39.484] $GNGGA,021324.90,4304.167762000,N,14120.431140000,E,1,10,1.21,17.619,M,32.006,M,,*74
[2021-01-06 11:15:39.578] $GNGGA,021325.00,4304.167762000,N,14120.431140000,E,1,10,1.21,17.616,M,32.006,M,,*73
[2021-01-06 11:15:39.687] $GNGGA,021325.10,4304.167762000,N,14120.431140000,E,1,10,1.21,17.622,M,32.006,M,,*75
[2021-01-06 11:15:39.781] $GNGGA,021325.20,4304.167762000,N,14120.431140000,E,1,10,1.21,17.632,M,32.006,M,,*77
[2021-01-06 11:15:39.874] $GNGGA,021325.30,4304.167762000,N,14120.431134000,E,1,10,1.21,17.631,M,32.006,M,,*76
[2021-01-06 11:15:39.984] $GNGGA,021325.40,4304.167762000,N,14120.431134000,E,1,10,1.21,17.638,M,32.006,M,,*78
[2021-01-06 11:15:40.077] $GNGGA,021325.50,4304.167762000,N,14120.431134000,E,1,10,1.21,17.643,M,32.006,M,,*75
[2021-01-06 11:15:40.187] $GNGGA,021325.60,4304.167762000,N,14120.431128000,E,1,10,1.21,17.644,M,32.006,M,,*7C
[2021-01-06 11:15:40.281] $GNGGA,021325.70,4304.167762000,N,14120.431128000,E,1,10,1.21,17.652,M,32.006,M,,*7A
[2021-01-06 11:15:40.374] $GNGGA,021325.80,4304.167756000,N,14120.431128000,E,1,10,1.21,17.654,M,32.006,M,,*74
[2021-01-06 11:15:40.484] $GNGGA,021325.90,4304.167756000,N,14120.431128000,E,1,10,1.21,17.657,M,32.006,M,,*76
[2021-01-06 11:15:40.577] $GNGGA,021326.00,4304.167756000,N,14120.431122000,E,1,10,1.21,17.664,M,32.006,M,,*76
[2021-01-06 11:15:40.687] $GNGGA,021326.10,4304.167756000,N,14120.431122000,E,1,10,1.21,17.672,M,32.006,M,,*70
[2021-01-06 11:15:40.781] $GNGGA,021326.20,4304.167756000,N,14120.431122000,E,1,10,1.21,17.670,M,32.006,M,,*71
[2021-01-06 11:15:40.874] $GNGGA,021326.30,4304.167756000,N,14120.431122000,E,1,10,1.21,17.679,M,32.006,M,,*79
[2021-01-06 11:15:40.984] $GNGGA,021326.40,4304.167756000,N,14120.431116000,E,1,10,1.21,17.682,M,32.006,M,,*7D
[2021-01-06 11:15:41.077] $GNGGA,021326.50,4304.167756000,N,14120.431116000,E,1,10,1.21,17.684,M,32.006,M,,*7A
[2021-01-06 11:15:41.187] $GNGGA,021326.60,4304.167756000,N,14120.431116000,E,1,10,1.21,17.688,M,32.006,M,,*75
[2021-01-06 11:15:41.281] $GNGGA,021326.70,4304.167756000,N,14120.431116000,E,1,10,1.21,17.688,M,32.006,M,,*74
[2021-01-06 11:15:41.374] $GNGGA,021326.80,4304.167756000,N,14120.431110000,E,1,10,1.21,17.695,M,32.006,M,,*71
[2021-01-06 11:15:41.484] $GNGGA,021326.90,4304.167756000,N,14120.431110000,E,1,10,1.21,17.698,M,32.006,M,,*7D
[2021-01-06 11:15:41.577] $GNGGA,021327.00,4304.167756000,N,14120.431110000,E,1,10,1.21,17.697,M,32.006,M,,*7A
[2021-01-06 11:15:41.687] $GNGGA,021327.10,4304.167756000,N,14120.431104000,E,1,10,1.21,17.712,M,32.006,M,,*72
[2021-01-06 11:15:41.780] $GNGGA,021327.20,4304.167756000,N,14120.431104000,E,1,10,1.21,17.704,M,32.006,M,,*76
[2021-01-06 11:15:41.874] $GNGGA,021327.30,4304.167756000,N,14120.431104000,E,1,10,1.21,17.716,M,32.006,M,,*74
[2021-01-06 11:15:41.984] $GNGGA,021327.40,4304.167756000,N,14120.431104000,E,1,10,1.21,17.718,M,32.006,M,,*7D
[2021-01-06 11:15:42.077] $GNGGA,021327.50,4304.167756000,N,14120.431098000,E,1,10,1.21,17.723,M,32.006,M,,*70
[2021-01-06 11:15:42.187] $GNGGA,021327.60,4304.167756000,N,14120.431098000,E,1,10,1.21,17.729,M,32.006,M,,*79
[2021-01-06 11:15:42.280] $GNGGA,021327.70,4304.167756000,N,14120.431098000,E,1,10,1.21,17.724,M,32.006,M,,*75
[2021-01-06 11:15:42.374] $GNGGA,021327.80,4304.167756000,N,14120.431098000,E,1,10,1.21,17.733,M,32.006,M,,*7C
[2021-01-06 11:15:42.484] $GNGGA,021327.90,4304.167756000,N,14120.431092000,E,1,10,1.21,17.734,M,32.006,M,,*70
[2021-01-06 11:15:42.577] $GNGGA,021328.00,4304.167756000,N,14120.431092000,E,1,10,1.21,17.739,M,32.006,M,,*7B
[2021-01-06 11:15:42.687] $GNGGA,021328.10,4304.167750000,N,14120.431092000,E,1,10,1.21,17.747,M,32.006,M,,*75
[2021-01-06 11:15:42.780] $GNGGA,021328.20,4304.167750000,N,14120.431092000,E,1,10,1.21,17.750,M,32.006,M,,*70
[2021-01-06 11:15:42.874] $GNGGA,021328.30,4304.167750000,N,14120.431086000,E,1,10,1.21,17.755,M,32.006,M,,*71
[2021-01-06 11:15:42.984] $GNGGA,021328.40,4304.167750000,N,14120.431086000,E,1,10,1.21,17.755,M,32.006,M,,*76
[2021-01-06 11:15:43.077] $GNGGA,021328.50,4304.167750000,N,14120.431086000,E,1,10,1.21,17.760,M,32.006,M,,*71
[2021-01-06 11:15:43.187] $GNGGA,021328.60,4304.167750000,N,14120.431086000,E,1,10,1.21,17.763,M,32.006,M,,*71
[2021-01-06 11:15:43.280] $GNGGA,021328.70,4304.167750000,N,14120.431080000,E,1,10,1.21,17.766,M,32.006,M,,*73
[2021-01-06 11:15:43.374] $GNGGA,021328.80,4304.167750000,N,14120.431080000,E,1,10,1.21,17.770,M,32.006,M,,*7B
[2021-01-06 11:15:43.483] $GNGGA,021328.90,4304.167750000,N,14120.431080000,E,1,10,1.21,17.773,M,32.006,M,,*79
[2021-01-06 11:15:43.577] $GNGGA,021329.00,4304.167750000,N,14120.431080000,E,1,10,1.21,17.776,M,32.006,M,,*74
[2021-01-06 11:15:43.687] $GNGGA,021329.10,4304.167750000,N,14120.431074000,E,1,10,1.21,17.780,M,32.006,M,,*77
[2021-01-06 11:15:43.780] $GNGGA,021329.20,4304.167750000,N,14120.431074000,E,1,10,1.21,17.783,M,32.006,M,,*77
[2021-01-06 11:15:43.874] $GNGGA,021329.30,4304.167750000,N,14120.431074000,E,1,10,1.21,17.788,M,32.006,M,,*7D
[2021-01-06 11:15:43.983] $GNGGA,021329.40,4304.167750000,N,14120.431074000,E,1,10,1.21,17.793,M,32.006,M,,*70
[2021-01-06 11:15:44.077] $GNGGA,021329.50,4304.167750000,N,14120.431074000,E,1,10,1.21,17.793,M,32.006,M,,*71
[2021-01-06 11:15:44.187] $GNGGA,021329.60,4304.167744000,N,14120.431068000,E,1,10,1.21,17.795,M,32.006,M,,*7C
[2021-01-06 11:15:44.280] $GNGGA,021329.70,4304.167744000,N,14120.431068000,E,1,10,1.21,17.802,M,32.006,M,,*7C
[2021-01-06 11:15:44.374] $GNGGA,021329.80,4304.167744000,N,14120.431068000,E,1,10,1.21,17.805,M,32.006,M,,*74
[2021-01-06 11:15:44.483] $GNGGA,021329.90,4304.167744000,N,14120.431062000,E,1,10,1.21,17.808,M,32.006,M,,*72
[2021-01-06 11:15:44.577] $GNGGA,021330.00,4304.167744000,N,14120.431062000,E,1,10,1.21,17.813,M,32.006,M,,*79
[2021-01-06 11:15:44.687] $GNGGA,021330.10,4304.167744000,N,14120.431062000,E,1,10,1.21,17.815,M,32.006,M,,*7E
