
[2021-01-08 10:27:06.992] $GPGGA,012641.20,4304.16581200,N,14120.43415728,E,1,12,1.1,27.052,M,32.001,M,,*59
[2021-01-08 10:27:07.023] $GPGGA,012641.30,4304.16581326,N,14120.43415827,E,1,12,1.1,27.052,M,32.001,M,,*5D
[2021-01-08 10:27:07.023] $GPGGA,012641.40,4304.16581411,N,14120.43415798,E,1,12,1.1,27.019,M,32.001,M,,*5D
[2021-01-08 10:27:07.023] $GPGGA,012641.50,4304.16581470,N,14120.43415831,E,1,12,1.1,27.020,M,32.001,M,,*5D
[2021-01-08 10:27:07.023] $GPGGA,012641.60,4304.16585517,N,14120.43414696,E,1,12,1.1,26.984,M,32.001,M,,*5E
[2021-01-08 10:27:07.023] $GPGGA,012641.70,4304.16585589,N,14120.43414768,E,1,12,1.1,26.983,M,32.001,M,,*5F
[2021-01-08 10:27:07.023] $GPGGA,012641.80,4304.16585969,N,14120.43414771,E,1,12,1.1,26.959,M,32.001,M,,*5D
[2021-01-08 10:27:07.023] $GPGGA,012641.90,4304.16586023,N,14120.43414715,E,1,12,1.1,26.954,M,32.001,M,,*57
[2021-01-08 10:27:07.023] $GPGGA,012642.00,4304.16585934,N,14120.43414669,E,1,12,1.1,26.933,M,32.001,M,,*5A
[2021-01-08 10:27:07.023] $GPGGA,012642.10,4304.16586192,N,14120.43414812,E,1,12,1.1,26.928,M,32.001,M,,*54
[2021-01-08 10:27:07.023] $GPGGA,012642.20,4304.16586262,N,14120.43414813,E,1,12,1.1,26.896,M,32.001,M,,*5E
[2021-01-08 10:27:07.023] $GPGGA,012642.30,4304.16586286,N,14120.43414790,E,1,12,1.1,26.897,M,32.001,M,,*50
[2021-01-08 10:27:07.023] $GPGGA,012642.40,4304.16586269,N,14120.43414832,E,1,12,1.1,26.869,M,32.001,M,,*50
[2021-01-08 10:27:07.023] $GPGGA,012642.50,4304.16586198,N,14120.43414794,E,1,12,1.1,26.871,M,32.001,M,,*56
[2021-01-08 10:27:07.039] $GPGGA,012642.60,4304.16586274,N,14120.43414556,E,1,12,1.1,26.839,M,32.001,M,,*54
[2021-01-08 10:27:07.039] $GPGGA,012642.70,4304.16586581,N,14120.43414492,E,1,12,1.1,26.838,M,32.001,M,,*50
[2021-01-08 10:27:07.039] $GPGGA,012642.80,4304.16586068,N,14120.43414249,E,1,12,1.1,26.814,M,32.001,M,,*53
[2021-01-08 10:27:07.039] $GPGGA,012642.90,4304.16586094,N,14120.43414203,E,1,12,1.1,26.809,M,32.001,M,,*53
[2021-01-08 10:27:07.039] $GPGGA,012643.00,4304.16586431,N,14120.43413918,E,1,12,1.1,26.777,M,32.001,M,,*50
[2021-01-08 10:27:07.039] $GPGGA,012643.10,4304.16586423,N,14120.43413931,E,1,12,1.1,26.778,M,32.001,M,,*56
[2021-01-08 10:27:07.039] $GPGGA,012643.20,4304.16586405,N,14120.43413763,E,1,12,1.1,26.753,M,32.001,M,,*51
[2021-01-08 10:27:07.039] $GPGGA,012643.30,4304.16586480,N,14120.43413903,E,1,12,1.1,26.756,M,32.001,M,,*50
[2021-01-08 10:27:07.039] $GPGGA,012643.40,4304.16586670,N,14120.43413710,E,1,12,1.1,26.733,M,32.001,M,,*55
[2021-01-08 10:27:07.039] $GPGGA,012643.50,4304.16586676,N,14120.43413749,E,1,12,1.1,26.734,M,32.001,M,,*59
[2021-01-08 10:27:07.039] $GPGGA,012643.60,4304.16586631,N,14120.43413426,E,1,12,1.1,26.706,M,32.001,M,,*52
[2021-01-08 10:27:07.039] $GPGGA,012643.70,4304.16586785,N,14120.43413635,E,1,12,1.1,26.711,M,32.001,M,,*5B
[2021-01-08 10:27:07.054] $GPGGA,012643.80,4304.16586705,N,14120.43413288,E,1,12,1.1,26.685,M,32.001,M,,*52
[2021-01-08 10:27:07.054] $GPGGA,012643.90,4304.16586546,N,14120.43413344,E,1,12,1.1,26.686,M,32.001,M,,*54
[2021-01-08 10:27:07.054] $GPGGA,012644.00,4304.16586868,N,14120.43412942,E,1,12,1.1,26.664,M,32.001,M,,*5A
[2021-01-08 10:27:07.054] $GPGGA,012644.10,4304.16586780,N,14120.43412778,E,1,12,1.1,26.656,M,32.001,M,,*54
[2021-01-08 10:27:07.054] $GPGGA,012644.20,4304.16586687,N,14120.43412620,E,1,12,1.1,26.638,M,32.001,M,,*55
[2021-01-08 10:27:07.054] $GPGGA,012644.30,4304.16586739,N,14120.43412561,E,1,12,1.1,26.638,M,32.001,M,,*56
[2021-01-08 10:27:07.054] $GPGGA,012644.40,4304.16586875,N,14120.43412015,E,1,12,1.1,26.609,M,32.001,M,,*52
[2021-01-08 10:27:07.054] $GPGGA,012644.50,4304.16587100,N,14120.43412110,E,1,12,1.1,26.610,M,32.001,M,,*55
[2021-01-08 10:27:07.054] $GPGGA,012644.60,4304.16587278,N,14120.43411863,E,1,12,1.1,26.593,M,32.001,M,,*5C
[2021-01-08 10:27:07.054] $GPGGA,012644.70,4304.16587252,N,14120.43411819,E,1,12,1.1,26.592,M,32.001,M,,*59
[2021-01-08 10:27:07.054] $GPGGA,012644.80,4304.16587430,N,14120.43411576,E,1,12,1.1,26.570,M,32.001,M,,*5C
[2021-01-08 10:27:07.054] $GPGGA,012644.90,4304.16587158,N,14120.43411560,E,1,12,1.1,26.572,M,32.001,M,,*53
[2021-01-08 10:27:07.070] $GPGGA,012645.00,4304.16587350,N,14120.43411184,E,1,12,1.1,26.548,M,32.001,M,,*56
[2021-01-08 10:27:07.070] $GPGGA,012645.10,4304.16587399,N,14120.43411211,E,1,12,1.1,26.554,M,32.001,M,,*50
[2021-01-08 10:27:07.070] $GPGGA,012645.20,4304.16587637,N,14120.43410912,E,1,12,1.1,26.528,M,32.001,M,,*50
[2021-01-08 10:27:07.070] $GPGGA,012645.30,4304.16587560,N,14120.43410763,E,1,12,1.1,26.527,M,32.001,M,,*57
[2021-01-08 10:27:07.070] $GPGGA,012645.40,4304.16587806,N,14120.43410449,E,1,12,1.1,26.508,M,32.001,M,,*5B
[2021-01-08 10:27:07.070] $GPGGA,012645.50,4304.16587853,N,14120.43410540,E,1,12,1.1,26.506,M,32.001,M,,*5C
[2021-01-08 10:27:07.070] $GPGGA,012645.60,4304.16587749,N,14120.43410278,E,1,12,1.1,26.490,M,32.001,M,,*59
[2021-01-08 10:27:07.070] $GPGGA,012645.70,4304.16587879,N,14120.43410201,E,1,12,1.1,26.487,M,32.001,M,,*5C
[2021-01-08 10:27:07.070] $GPGGA,012645.80,4304.16587928,N,14120.43409807,E,1,12,1.1,26.462,M,32.001,M,,*59
[2021-01-08 10:27:07.070] $GPGGA,012645.90,4304.16587941,N,14120.43409683,E,1,12,1.1,26.465,M,32.001,M,,*52
[2021-01-08 10:27:07.070] $GPGGA,012646.00,4304.16588062,N,14120.43409391,E,1,12,1.1,26.442,M,32.001,M,,*5C
[2021-01-08 10:27:07.070] $GPGGA,012646.10,4304.16588201,N,14120.43409552,E,1,12,1.1,26.444,M,32.001,M,,*55
[2021-01-08 10:27:07.085] $GPGGA,012646.20,4304.16588351,N,14120.43408951,E,1,12,1.1,26.420,M,32.001,M,,*5E
[2021-01-08 10:27:07.085] $GPGGA,012646.30,4304.16588577,N,14120.43409129,E,1,12,1.1,26.420,M,32.001,M,,*5B
[2021-01-08 10:27:07.085] $GPGGA,012646.40,4304.16588263,N,14120.43408730,E,1,12,1.1,26.400,M,32.001,M,,*53
[2021-01-08 10:27:07.085] $GPGGA,012646.50,4304.16588162,N,14120.43408701,E,1,12,1.1,26.404,M,32.001,M,,*56
[2021-01-08 10:27:07.085] $GPGGA,012646.60,4304.16587793,N,14120.43408317,E,1,12,1.1,26.382,M,32.001,M,,*58
[2021-01-08 10:27:07.085] $GPGGA,012646.70,4304.16587939,N,14120.43408464,E,1,12,1.1,26.385,M,32.001,M,,*53
[2021-01-08 10:27:07.085] $GPGGA,012646.80,4304.16587630,N,14120.43408092,E,1,12,1.1,26.366,M,32.001,M,,*5A
[2021-01-08 10:27:07.085] $GPGGA,012646.90,4304.16587629,N,14120.43408057,E,1,12,1.1,26.368,M,32.001,M,,*54
[2021-01-08 10:27:07.085] $GPGGA,012647.00,4304.16587621,N,14120.43407587,E,1,12,1.1,26.345,M,32.001,M,,*5C
[2021-01-08 10:27:07.085] $GPGGA,012647.10,4304.16587751,N,14120.43407693,E,1,12,1.1,26.344,M,32.001,M,,*5C
[2021-01-08 10:27:07.085] $GPGGA,012647.20,4304.16587741,N,14120.43407361,E,1,12,1.1,26.325,M,32.001,M,,*51
[2021-01-08 10:27:07.085] $GPGGA,012647.30,4304.16587651,N,14120.43407158,E,1,12,1.1,26.328,M,32.001,M,,*55
[2021-01-08 10:27:07.085] $GPGGA,012647.40,4304.16587934,N,14120.43406829,E,1,12,1.1,26.303,M,32.001,M,,*59
[2021-01-08 10:27:07.101] $GPGGA,012647.50,4304.16588019,N,14120.43407024,E,1,12,1.1,26.299,M,32.001,M,,*57
[2021-01-08 10:27:07.101] $GPGGA,012647.60,4304.16588529,N,14120.43406510,E,1,12,1.1,26.279,M,32.001,M,,*5F
[2021-01-08 10:27:07.101] $GPGGA,012647.70,4304.16588447,N,14120.43406315,E,1,12,1.1,26.272,M,32.001,M,,*5F
[2021-01-08 10:27:07.101] $GPGGA,012647.80,4304.16592626,N,14120.43405524,E,1,12,1.1,26.252,M,32.001,M,,*5B
[2021-01-08 10:27:07.101] $GPGGA,012647.90,4304.16592767,N,14120.43405481,E,1,12,1.1,26.243,M,32.001,M,,*50
[2021-01-08 10:27:07.101] $GPGGA,012648.00,4304.16596217,N,14120.43404610,E,1,12,1.1,26.223,M,32.001,M,,*5D
[2021-01-08 10:27:07.101] $GPGGA,012648.10,4304.16596262,N,14120.43404696,E,1,12,1.1,26.221,M,32.001,M,,*52
[2021-01-08 10:27:07.101] $GPGGA,012648.20,4304.16599399,N,14120.43403905,E,1,12,1.1,26.202,M,32.001,M,,*58
[2021-01-08 10:27:07.101] $GPGGA,012648.30,4304.16599399,N,14120.43403936,E,1,12,1.1,26.203,M,32.001,M,,*58
[2021-01-08 10:27:07.101] $GPGGA,012648.40,4304.16599304,N,14120.43403662,E,1,12,1.1,26.184,M,32.001,M,,*59
[2021-01-08 10:27:07.101] $GPGGA,012648.50,4304.16599579,N,14120.43403807,E,1,12,1.1,26.188,M,32.001,M,,*55
[2021-01-08 10:27:07.101] $GPGGA,012648.60,4304.16599494,N,14120.43403663,E,1,12,1.1,26.170,M,32.001,M,,*5F
[2021-01-08 10:27:07.117] $GPGGA,012648.70,4304.16599425,N,14120.43403684,E,1,12,1.1,26.179,M,32.001,M,,*54
[2021-01-08 10:27:07.117] $GPGGA,012648.80,4304.16602331,N,14120.43402895,E,1,12,1.1,26.159,M,32.001,M,,*55
[2021-01-08 10:27:07.117] $GPGGA,012648.90,4304.16602386,N,14120.43403030,E,1,12,1.1,26.157,M,32.001,M,,*50
[2021-01-08 10:27:07.117] $GPGGA,012649.00,4304.16604889,N,14120.43402168,E,1,12,1.1,26.133,M,32.001,M,,*55
[2021-01-08 10:27:07.117] $GPGGA,012649.10,4304.16605025,N,14120.43402264,E,1,12,1.1,26.136,M,32.001,M,,*51
[2021-01-08 10:27:07.117] $GPGGA,012649.20,4304.16607222,N,14120.43401657,E,1,12,1.1,26.117,M,32.001,M,,*51
[2021-01-08 10:27:07.117] $GPGGA,012649.30,4304.16607278,N,14120.43401647,E,1,12,1.1,26.118,M,32.001,M,,*51
[2021-01-08 10:27:07.117] $GPGGA,012649.40,4304.16607082,N,14120.43401692,E,1,12,1.1,26.104,M,32.001,M,,*54
[2021-01-08 10:27:07.117] $GPGGA,012649.50,4304.16607222,N,14120.43401689,E,1,12,1.1,26.102,M,32.001,M,,*51
[2021-01-08 10:27:07.117] $GPGGA,012649.60,4304.16606950,N,14120.43401735,E,1,12,1.1,26.092,M,32.001,M,,*53
[2021-01-08 10:27:07.117] $GPGGA,012649.70,4304.16606838,N,14120.43401642,E,1,12,1.1,26.090,M,32.001,M,,*5E
[2021-01-08 10:27:07.117] $GPGGA,012649.80,4304.16606643,N,14120.43401675,E,1,12,1.1,26.075,M,32.001,M,,*5C
[2021-01-08 10:27:07.132] $GPGGA,012649.90,4304.16606676,N,14120.43401540,E,1,12,1.1,26.075,M,32.001,M,,*5E
[2021-01-08 10:27:07.132] $GPGGA,012650.00,4304.16609126,N,14120.43400868,E,1,12,1.1,26.054,M,32.001,M,,*57
[2021-01-08 10:27:07.132] $GPGGA,012650.10,4304.16609149,N,14120.43400774,E,1,12,1.1,26.055,M,32.001,M,,*5C
[2021-01-08 10:27:07.132] $GPGGA,012650.20,4304.16608687,N,14120.43400655,E,1,12,1.1,26.040,M,32.001,M,,*5D
[2021-01-08 10:27:07.132] $GPGGA,012650.30,4304.16609062,N,14120.43400798,E,1,12,1.1,26.035,M,32.001,M,,*52
[2021-01-08 10:27:07.132] $GPGGA,012650.40,4304.16611085,N,14120.43400064,E,1,12,1.1,26.023,M,32.001,M,,*56
[2021-01-08 10:27:07.132] $GPGGA,012650.50,4304.16611149,N,14120.43400052,E,1,12,1.1,26.020,M,32.001,M,,*50
[2021-01-08 10:27:07.132] $GPGGA,012650.60,4304.16613168,N,14120.43399330,E,1,12,1.1,26.003,M,32.001,M,,*53
[2021-01-08 10:27:07.132] $GPGGA,012650.70,4304.16613118,N,14120.43399442,E,1,12,1.1,26.007,M,32.001,M,,*53
[2021-01-08 10:27:07.132] $GPGGA,012650.80,4304.16615043,N,14120.43398843,E,1,12,1.1,25.986,M,32.001,M,,*5A
[2021-01-08 10:27:07.132] $GPGGA,012650.90,4304.16615260,N,14120.43398658,E,1,12,1.1,25.985,M,32.001,M,,*5F
[2021-01-08 10:27:07.132] $GPGGA,012651.00,4304.16617091,N,14120.43398188,E,1,12,1.1,25.963,M,32.001,M,,*5B
[2021-01-08 10:27:07.132] $GPGGA,012651.10,4304.16616827,N,14120.43398028,E,1,12,1.1,25.967,M,32.001,M,,*51
[2021-01-08 10:27:07.132] $GPGGA,012651.20,4304.16616158,N,14120.43398126,E,1,12,1.1,25.950,M,32.001,M,,*58
[2021-01-08 10:27:07.132] $GPGGA,012651.30,4304.16616477,N,14120.43398134,E,1,12,1.1,25.949,M,32.001,M,,*5A
[2021-01-08 10:27:07.132] $GPGGA,012651.40,4304.16618174,N,14120.43397648,E,1,12,1.1,25.932,M,32.001,M,,*5A
[2021-01-08 10:27:07.132] $GPGGA,
[2021-01-08 10:27:07.132] $GPGGA,012704.90,4304.16629136,N,14120.43233006,E,2,05,2.1,23.735,M,32.001,M,6.8,0137*7D
[2021-01-08 10:27:07.148] $GPGGA,012705.00,4304.16628855,N,14120.43231784,E,2,05,2.1,23.715,M,32.001,M,7.0,0137*7C
[2021-01-08 10:27:07.242] $GPGGA,012705.10,4304.16628768,N,14120.43231654,E,2,05,2.1,23.713,M,32.001,M,7.0,0137*76
[2021-01-08 10:27:07.351] $GPGGA,012705.20,4304.16628523,N,14120.43230626,E,2,05,2.1,23.694,M,32.001,M,7.2,0137*70
[2021-01-08 10:27:07.445] $GPGGA,012705.30,4304.16628808,N,14120.43230521,E,2,05,2.1,23.692,M,32.001,M,7.2,0137*77
[2021-01-08 10:27:07.538] $GPGGA,012705.40,4304.16628512,N,14120.43229349,E,2,05,2.1,23.674,M,32.001,M,5.4,0137*7A
[2021-01-08 10:27:07.632] $GPGGA,012705.50,4304.16628541,N,14120.43229339,E,2,05,2.1,23.672,M,32.001,M,5.4,0137*7C
[2021-01-08 10:27:07.742] $GPGGA,012705.60,4304.16628336,N,14120.43228029,E,2,05,2.1,23.654,M,32.001,M,5.6,0137*7C
[2021-01-08 10:27:07.835] $GPGGA,012705.70,4304.16628555,N,14120.43228151,E,2,05,2.1,23.648,M,32.001,M,5.6,0137*7D
[2021-01-08 10:27:07.945] $GPGGA,012705.80,4304.16628294,N,14120.43226824,E,2,05,2.1,23.631,M,32.001,M,5.8,0137*7D
[2021-01-08 10:27:08.038] $GPGGA,012705.90,4304.16628388,N,14120.43226932,E,2,05,2.1,23.633,M,32.001,M,5.8,0137*74
[2021-01-08 10:27:08.148] $GPGGA,012706.00,4304.16628466,N,14120.43225748,E,2,05,2.1,23.611,M,32.001,M,6.0,0137*72
[2021-01-08 10:27:08.242] $GPGGA,012706.10,4304.16628643,N,14120.43225980,E,2,05,2.1,23.609,M,32.001,M,6.0,0137*75
[2021-01-08 10:27:08.351] $GPGGA,012706.20,4304.16628778,N,14120.43224855,E,2,05,2.1,23.587,M,32.001,M,6.2,0137*70
[2021-01-08 10:27:08.445] $GPGGA,012706.30,4304.16628843,N,14120.43224859,E,2,05,2.1,23.589,M,32.001,M,6.2,0137*74
[2021-01-08 10:27:08.538] $GPGGA,012706.40,4304.16628912,N,14120.43223717,E,2,05,2.1,23.568,M,32.001,M,6.4,0137*7D
[2021-01-08 10:27:08.632] $GPGGA,012706.50,4304.16629020,N,14120.43223970,E,2,05,2.1,23.567,M,32.001,M,6.4,0137*75
[2021-01-08 10:27:08.742] $GPGGA,012706.60,4304.16629505,N,14120.43222650,E,2,05,2.1,23.535,M,32.001,M,6.6,0137*7D
[2021-01-08 10:27:08.835] $GPGGA,012706.70,4304.16629519,N,14120.43222738,E,2,05,2.1,23.540,M,32.001,M,6.6,0137*7C
[2021-01-08 10:27:08.945] $GPGGA,012706.80,4304.16629866,N,14120.43221256,E,2,05,2.1,23.512,M,32.001,M,6.8,0137*71
[2021-01-08 10:27:09.038] $GPGGA,012706.90,4304.16630034,N,14120.43221379,E,2,05,2.1,23.511,M,32.001,M,6.8,0137*78
[2021-01-08 10:27:09.148] $GPGGA,012707.00,4304.16630597,N,14120.43220015,E,2,05,2.1,23.487,M,32.001,M,7.0,0137*73
[2021-01-08 10:27:09.242] $GPGGA,012707.10,4304.16630457,N,14120.43220057,E,2,05,2.1,23.487,M,32.001,M,7.0,0137*79
[2021-01-08 10:27:09.351] $GPGGA,012707.20,4304.16631351,N,14120.43218710,E,2,05,2.1,23.459,M,32.001,M,7.2,0137*74
[2021-01-08 10:27:09.445] $GPGGA,012707.30,4304.16631650,N,14120.43218707,E,2,05,2.1,23.452,M,32.001,M,7.2,0137*7C
[2021-01-08 10:27:09.538] $GPGGA,012707.40,4304.16632332,N,14120.43217904,E,2,04,3.0,23.414,M,32.001,M,3.4,0137*7A
[2021-01-08 10:27:09.632] $GPGGA,012707.50,4304.16632490,N,14120.43217935,E,2,04,3.0,23.410,M,32.001,M,3.4,0137*72
[2021-01-08 10:27:09.741] $GPGGA,012707.60,4304.16633594,N,14120.43216994,E,2,04,3.0,23.368,M,32.001,M,3.6,0137*75
[2021-01-08 10:27:09.835] $GPGGA,012707.70,4304.16633612,N,14120.43216875,E,2,04,3.0,23.366,M,32.001,M,3.6,0137*79
[2021-01-08 10:27:09.945] $GPGGA,012707.80,4304.16635274,N,14120.43215670,E,2,04,3.0,23.329,M,32.001,M,3.8,0137*79
[2021-01-08 10:27:10.038] $GPGGA,012707.90,4304.16635284,N,14120.43215658,E,2,04,3.0,23.326,M,32.001,M,3.8,0137*72
[2021-01-08 10:27:10.148] $GPGGA,012708.00,4304.16637196,N,14120.43213393,E,2,04,3.0,23.281,M,32.001,M,4.0,0137*71
[2021-01-08 10:27:10.241] $GPGGA,012708.10,4304.16637459,N,14120.43213598,E,2,04,3.0,23.279,M,32.001,M,4.0,0137*7C
[2021-01-08 10:27:10.351] $GPGGA,012708.20,4304.16640003,N,14120.43210333,E,2,04,3.0,23.227,M,32.001,M,4.2,0137*79
[2021-01-08 10:27:10.445] $GPGGA,012708.30,4304.16640087,N,14120.43210275,E,2,04,3.0,23.225,M,32.001,M,4.2,0137*75
[2021-01-08 10:27:10.554] $GPGGA,012708.40,4304.16644019,N,14120.43204945,E,2,04,3.0,23.170,M,32.001,M,4.4,0137*79
[2021-01-08 10:27:10.632] $GPGGA,012708.50,4304.16644234,N,14120.43205227,E,2,04,3.0,23.175,M,32.001,M,4.4,0137*7E
[2021-01-08 10:27:10.741] $GPGGA,012708.60,4304.16647752,N,14120.43199914,E,2,04,3.0,23.119,M,32.001,M,4.6,0137*7E
[2021-01-08 10:27:10.835] $GPGGA,012708.70,4304.16647866,N,14120.43199879,E,2,04,3.0,23.116,M,32.001,M,4.6,0137*72
[2021-01-08 10:27:10.945] $GPGGA,012708.80,4304.16650912,N,14120.43194990,E,2,04,3.0,23.059,M,32.001,M,4.8,0137*76
[2021-01-08 10:27:11.038] $GPGGA,012708.90,4304.16650968,N,14120.43195132,E,2,04,3.0,23.062,M,32.001,M,4.8,0137*73
[2021-01-08 10:27:11.148] $GPGGA,012709.00,4304.16653698,N,14120.43190850,E,2,04,3.0,23.005,M,32.001,M,5.0,0137*78
[2021-01-08 10:27:11.241] $GPGGA,012709.10,4304.16653825,N,14120.43190799,E,2,04,3.0,23.003,M,32.001,M,5.0,0137*7D
[2021-01-08 10:27:11.351] $GPGGA,012709.20,4304.16656082,N,14120.43186995,E,2,04,3.0,22.948,M,32.001,M,5.2,0137*7E
[2021-01-08 10:27:11.445] $GPGGA,012709.30,4304.16656174,N,14120.43187018,E,2,04,3.0,22.952,M,32.001,M,5.2,0137*71
[2021-01-08 10:27:11.538] $GPGGA,012709.40,4304.16658107,N,14120.43183518,E,2,05,2.3,22.899,M,32.001,M,5.4,0137*7E
[2021-01-08 10:27:11.632] $GPGGA,012709.50,4304.16658235,N,14120.43183630,E,2,05,2.3,22.898,M,32.001,M,5.4,0137*75
[2021-01-08 10:27:11.741] $GPGGA,012709.60,4304.16660141,N,14120.43180721,E,2,05,2.3,22.839,M,32.001,M,5.6,0137*76
[2021-01-08 10:27:11.835] $GPGGA,012709.70,4304.16660082,N,14120.43180882,E,2,05,2.3,22.841,M,32.001,M,5.6,0137*70
[2021-01-08 10:27:11.944] $GPGGA,012709.80,4304.16661672,N,14120.43178434,E,2,05,2.3,22.782,M,32.001,M,5.8,0137*7F
[2021-01-08 10:27:12.038] $GPGGA,012709.90,4304.16661686,N,14120.43178618,E,2,05,2.3,22.785,M,32.001,M,5.8,0137*7E
[2021-01-08 10:27:12.148] $GPGGA,012710.00,4304.16663129,N,14120.43176457,E,2,05,2.3,22.724,M,32.001,M,6.0,0137*78
[2021-01-08 10:27:12.241] $GPGGA,012710.10,4304.16663148,N,14120.43176524,E,2,05,2.3,22.721,M,32.001,M,6.0,0137*7E
[2021-01-08 10:27:12.351] $GPGGA,012710.20,4304.16664415,N,14120.43174695,E,2,05,2.3,22.658,M,32.001,M,6.2,0137*71
[2021-01-08 10:27:12.444] $GPGGA,012710.30,4304.16664696,N,14120.43174915,E,2,05,2.3,22.658,M,32.001,M,6.2,0137*7E
[2021-01-08 10:27:12.538] $GPGGA,012710.40,4304.16665999,N,14120.43173491,E,2,05,2.3,22.595,M,32.001,M,6.4,0137*7A
[2021-01-08 10:27:12.632] $GPGGA,012710.50,4304.16666067,N,14120.43173492,E,2,05,2.3,22.594,M,32.001,M,6.4,0137*72
[2021-01-08 10:27:12.741] $GPGGA,012710.60,4304.16667199,N,14120.43172309,E,2,05,2.3,22.538,M,32.001,M,6.6,0137*70
[2021-01-08 10:27:12.835] $GPGGA,012710.70,4304.16667344,N,14120.43172441,E,2,05,2.3,22.539,M,32.001,M,6.6,0137*79
[2021-01-08 10:27:12.944] $GPGGA,012710.80,4304.16668534,N,14120.43171466,E,2,05,2.3,22.483,M,32.001,M,6.8,0137*70
[2021-01-08 10:27:13.038] $GPGGA,012710.90,4304.16668549,N,14120.43171445,E,2,05,2.3,22.485,M,32.001,M,6.8,0137*7C
[2021-01-08 10:27:13.147] $GPGGA,012711.00,4304.16669501,N,14120.43170654,E,2,05,2.3,22.428,M,32.001,M,7.0,0137*74
[2021-01-08 10:27:13.241] $GPGGA,012711.10,4304.16669722,N,14120.43170671,E,2,05,2.3,22.426,M,32.001,M,7.0,0137*7F
[2021-01-08 10:27:13.351] $GPGGA,012711.20,4304.16670711,N,14120.43170068,E,2,05,2.3,22.369,M,32.001,M,7.2,0137*74
[2021-01-08 10:27:13.444] $GPGGA,012711.30,4304.16670862,N,14120.43169948,E,2,05,2.3,22.368,M,32.001,M,7.2,0137*7C
[2021-01-08 10:27:13.538] $GPGGA,012711.40,4304.16671869,N,14120.43169303,E,2,05,2.3,22.309,M,32.001,M,5.4,0137*77
[2021-01-08 10:27:13.632] $GPGGA,012711.50,4304.16671787,N,14120.43169263,E,2,05,2.3,22.310,M,32.001,M,5.4,0137*76
[2021-01-08 10:27:13.741] $GPGGA,012711.60,4304.16672867,N,14120.43168789,E,2,05,2.3,22.249,M,32.001,M,5.6,0137*78
[2021-01-08 10:27:13.835] $GPGGA,012711.70,4304.16672755,N,14120.43168663,E,2,05,2.3,22.250,M,32.001,M,5.6,0137*7A
[2021-01-08 10:27:13.944] $GPGGA,012711.80,4304.16673662,N,14120.43168300,E,2,05,2.3,22.196,M,32.001,M,5.8,0137*76
[2021-01-08 10:27:14.038] $GPGGA,012711.90,4304.16673710,N,14120.43168359,E,2,05,2.3,22.196,M,32.001,M,5.8,0137*7F
[2021-01-08 10:27:14.132] $GPGGA,012712.00,4304.16674396,N,14120.43168032,E,2,05,2.3,22.147,M,32.001,M,6.0,0137*71
[2021-01-08 10:27:14.241] $GPGGA,012712.10,4304.16674400,N,14120.43168027,E,2,05,2.3,22.142,M,32.001,M,6.0,0137*79
[2021-01-08 10:27:14.351] $GPGGA,012712.20,4304.16675133,N,14120.43167833,E,2,05,2.3,22.099,M,32.001,M,6.2,0137*79
[2021-01-08 10:27:14.444] $GPGGA,012712.30,4304.16675196,N,14120.43167781,E,2,05,2.3,22.095,M,32.001,M,6.2,0137*7D
[2021-01-08 10:27:14.538] $GPGGA,012712.40,4304.16676029,N,14120.43167631,E,2,05,2.3,22.039,M,32.001,M,6.4,0137*76
[2021-01-08 10:27:14.632] $GPGGA,012712.50,4304.16676137,N,14120.43167848,E,2,05,2.3,22.043,M,32.001,M,6.4,0137*74
[2021-01-08 10:27:14.741] $GPGGA,012712.60,4304.16676732,N,14120.43167541,E,2,05,2.3,21.994,M,32.001,M,6.6,0137*72
[2021-01-08 10:27:14.835] $GPGGA,012712.70,4304.16676866,N,14120.43167674,E,2,05,2.3,21.990,M,32.001,M,6.6,0137*7C
[2021-01-08 10:27:14.944] $GPGGA,012712.80,4304.16677531,N,14120.43167483,E,2,05,2.3,21.942,M,32.001,M,6.8,0137*76
[2021-01-08 10:27:15.038] $GPGGA,012712.90,4304.16677559,N,14120.43167619,E,2,05,2.3,21.943,M,32.001,M,6.8,0137*79
[2021-01-08 10:27:15.147] $GPGGA,012713.00,4304.16678402,N,14120.43167531,E,2,05,2.3,21.892,M,32.001,M,7.0,0137*7C
[2021-01-08 10:27:15.241] $GPGGA,012713.10,4304.16678217,N,14120.43167464,E,2,05,2.3,21.892,M,32.001,M,7.0,0137*7E
[2021-01-08 10:27:15.350] $GPGGA,012713.20,4304.16679112,N,14120.43167586,E,2,05,2.3,21.845,M,32.001,M,7.2,0137*7F
[2021-01-08 10:27:15.444] $GPGGA,012713.30,4304.16679057,N,14120.43167715,E,2,05,2.3,21.842,M,32.001,M,7.2,0137*71
[2021-01-08 10:27:15.538] $GPGGA,012713.40,4304.16679701,N,14120.43167728,E,2,05,2.3,21.793,M,32.001,M,3.4,0137*7D
[2021-01-08 10:27:15.632] $GPGGA,012713.50,4304.16679640,N,14120.43167646,E,2,05,2.3,21.795,M,32.001,M,3.4,0137*77
[2021-01-08 10:27:15.741] $GPGGA,012713.60,4304.16680168,N,14120.43167833,E,2,05,2.3,21.749,M,32.001,M,3.6,0137*70
[2021-01-08 10:27:15.835] $GPGGA,012713.70,4304.16680172,N,14120.43167787,E,2,05,2.3,21.749,M,32.001,M,3.6,0137*7A
[2021-01-08 10:27:15.944] $GPGGA,012713.80,4304.16680836,N,14120.43167963,E,2,05,2.3,21.701,M,32.001,M,3.8,0137*7A
[2021-01-08 10:27:16.038] $GPGGA,012713.90,4304.16680836,N,14120.43168012,E,2,05,2.3,21.704,M,32.001,M,3.8,0137*7E
[2021-01-08 10:27:16.147] $GPGGA,012714.00,4304.16681523,N,14120.43168121,E,2,05,2.3,21.653,M,32.001,M,4.0,0137*75
[2021-01-08 10:27:16.241] $GPGGA,012714.10,4304.16681449,N,14120.43168117,E,2,05,2.3,21.656,M,32.001,M,4.0,0137*79
[2021-01-08 10:27:16.350] $GPGGA,012714.20,4304.16682105,N,14120.43168145,E,2,05,2.3,21.610,M,32.001,M,4.2,0137*73
[2021-01-08 10:27:16.444] $GPGGA,012714.30,4304.16682167,N,14120.43168400,E,2,05,2.3,21.611,M,32.001,M,4.2,0137*73
[2021-01-08 10:27:16.538] $GPGGA,012714.40,4304.16682666,N,14120.43168376,E,2,05,2.3,21.567,M,32.001,M,4.4,0137*70
[2021-01-08 10:27:16.647] $GPGGA,012714.50,4304.16682654,N,14120.43168454,E,2,05,2.3,21.574,M,32.001,M,4.4,0137*75
[2021-01-08 10:27:16.741] $GPGGA,012714.60,4304.16683317,N,14120.43168765,E,2,05,2.3,21.529,M,32.001,M,4.6,0137*7E
[2021-01-08 10:27:16.835] $GPGGA,012714.70,4304.16683614,N,14120.43168779,E,2,05,2.3,21.525,M,32.001,M,4.6,0137*78
[2021-01-08 10:27:16.944] $GPGGA,012714.80,4304.16684038,N,14120.43169056,E,2,05,2.3,21.483,M,32.001,M,4.8,0137*70
[2021-01-08 10:27:17.038] $GPGGA,012714.90,4304.16683799,N,14120.43168821,E,2,05,2.3,21.490,M,32.001,M,4.8,0137*71
[2021-01-08 10:27:17.147] $GPGGA,012715.00,4304.16684514,N,14120.43169254,E,2,05,2.3,21.446,M,32.001,M,5.0,0137*72
[2021-01-08 10:27:17.241] $GPGGA,012715.10,4304.16684558,N,14120.43169193,E,2,05,2.3,21.448,M,32.001,M,5.0,0137*7D
[2021-01-08 10:27:17.350] $GPGGA,012715.20,4304.16684988,N,14120.43169381,E,2,05,2.3,21.409,M,32.001,M,5.2,0137*79
[2021-01-08 10:27:17.444] $GPGGA,012715.30,4304.16684912,N,14120.43169363,E,2,05,2.3,21.408,M,32.001,M,5.2,0137*76
[2021-01-08 10:27:17.553] $GPGGA,012715.40,4304.16685588,N,14120.43169505,E,2,05,2.3,21.362,M,32.001,M,5.4,0137*74
[2021-01-08 10:27:17.632] $GPGGA,012715.50,4304.16685701,N,14120.43169632,E,2,05,2.3,21.363,M,32.001,M,5.4,0137*70
[2021-01-08 10:27:17.741] $GPGGA,012715.60,4304.16686340,N,14120.43169744,E,2,05,2.3,21.316,M,32.001,M,5.6,0137*71
[2021-01-08 10:27:17.835] $GPGGA,012715.70,4304.16686251,N,14120.43169885,E,2,05,2.3,21.314,M,32.001,M,5.6,0137*71
[2021-01-08 10:27:17.944] $GPGGA,012715.80,4304.16686805,N,14120.43170056,E,2,05,2.3,21.280,M,32.001,M,5.8,0137*79
[2021-01-08 10:27:18.038] $GPGGA,012715.90,4304.16687050,N,14120.43170264,E,2,05,2.3,21.278,M,32.001,M,5.8,0137*75
[2021-01-08 10:27:18.147] $GPGGA,012716.00,4304.16687497,N,14120.43170472,E,2,05,2.3,21.240,M,32.001,M,6.0,0137*71
[2021-01-08 10:27:18.241] $GPGGA,012716.10,4304.16687614,N,14120.43170492,E,2,05,2.3,21.236,M,32.001,M,6.0,0137*76
[2021-01-08 10:27:18.350] $GPGGA,012716.20,4304.16687851,N,14120.43170618,E,2,05,2.3,21.201,M,32.001,M,6.2,0137*7C
[2021-01-08 10:27:18.444] $GPGGA,012716.30,4304.16687912,N,14120.43170571,E,2,05,2.3,21.200,M,32.001,M,6.2,0137*76
[2021-01-08 10:27:18.553] $GPGGA,012716.40,4304.16688432,N,14120.43171072,E,2,05,2.3,21.164,M,32.001,M,6.4,0137*71
[2021-01-08 10:27:18.631] $GPGGA,012716.50,4304.16688551,N,14120.43170956,E,2,05,2.3,21.166,M,32.001,M,6.4,0137*78
[2021-01-08 10:27:18.741] $GPGGA,012716.60,4304.16689054,N,14120.43171190,E,2,05,2.3,21.125,M,32.001,M,6.6,0137*7C
[2021-01-08 10:27:18.835] $GPGGA,012716.70,4304.16688996,N,14120.43171296,E,2,05,2.3,21.129,M,32.001,M,6.6,0137*72
[2021-01-08 10:27:18.944] $GPGGA,012716.80,4304.16689449,N,14120.43171370,E,2,05,2.3,21.090,M,32.001,M,6.8,0137*77
[2021-01-08 10:27:19.038] $GPGGA,012716.90,4304.16689560,N,14120.43171412,E,2,05,2.3,21.093,M,32.001,M,6.8,0137*7C
[2021-01-08 10:27:19.147] $GPGGA,012717.00,4304.16690128,N,14120.43171709,E,2,05,2.3,21.059,M,32.001,M,7.0,0137*72
[2021-01-08 10:27:19.241] $GPGGA,012717.10,4304.16689975,N,14120.43171588,E,2,05,2.3,21.057,M,32.001,M,7.0,0137*7E
[2021-01-08 10:27:19.350] $GPGGA,012717.20,4304.16690616,N,14120.43171866,E,2,05,2.3,21.023,M,32.001,M,7.2,0137*73
[2021-01-08 10:27:19.444] $GPGGA,012717.30,4304.16690809,N,14120.43172161,E,2,05,2.3,21.027,M,32.001,M,7.2,0137*7B
[2021-01-08 10:27:19.553] $GPGGA,012717.40,4304.16691190,N,14120.43172248,E,2,05,2.3,20.995,M,32.001,M,5.4,0137*79
[2021-01-08 10:27:19.647] $GPGGA,012717.50,4304.16691351,N,14120.43172257,E,2,05,2.3,20.991,M,32.001,M,5.4,0137*7D
[2021-01-08 10:27:19.741] $GPGGA,012717.60,4304.16691998,N,14120.43172770,E,2,05,2.3,20.961,M,32.001,M,5.6,0137*7C
[2021-01-08 10:27:19.834] $GPGGA,012717.70,4304.16691805,N,14120.43172643,E,2,05,2.3,20.960,M,32.001,M,5.6,0137*78
[2021-01-08 10:27:19.944] $GPGGA,012717.80,4304.16692352,N,14120.43172713,E,2,05,2.3,20.920,M,32.001,M,5.8,0137*73
[2021-01-08 10:27:20.038] $GPGGA,012717.90,4304.16692346,N,14120.43172799,E,2,05,2.3,20.927,M,32.001,M,5.8,0137*72
[2021-01-08 10:27:20.147] $GPGGA,012718.00,4304.16692822,N,14120.43173100,E,2,05,2.3,20.897,M,32.001,M,6.0,0137*7B
[2021-01-08 10:27:20.241] $GPGGA,012718.10,4304.16692942,N,14120.43173012,E,2,05,2.3,20.895,M,32.001,M,6.0,0137*7D
[2021-01-08 10:27:20.350] $GPGGA,012718.20,4304.16693607,N,14120.43173303,E,2,05,2.3,20.859,M,32.001,M,6.2,0137*70
[2021-01-08 10:27:20.444] $GPGGA,012718.30,4304.16693460,N,14120.43173294,E,2,05,2.3,20.862,M,32.001,M,6.2,0137*75
[2021-01-08 10:27:20.553] $GPGGA,012718.40,4304.16693955,N,14120.43173567,E,2,05,2.3,20.830,M,32.001,M,6.4,0137*73
[2021-01-08 10:27:20.647] $GPGGA,012718.50,4304.16694191,N,14120.43173633,E,2,05,2.3,20.828,M,32.001,M,6.4,0137*7E
[2021-01-08 10:27:20.741] $GPGGA,012718.60,4304.16694513,N,14120.43173955,E,2,05,2.3,20.799,M,32.001,M,6.6,0137*7B
[2021-01-08 10:27:20.834] $GPGGA,012718.70,4304.16694567,N,14120.43173872,E,2,05,2.3,20.791,M,32.001,M,6.6,0137*75
[2021-01-08 10:27:20.944] $GPGGA,012718.80,4304.16694924,N,14120.43174144,E,2,05,2.3,20.761,M,32.001,M,6.8,0137*7B
[2021-01-08 10:27:21.038] $GPGGA,012718.90,4304.16694804,N,14120.43174167,E,2,05,2.3,20.762,M,32.001,M,6.8,0137*7B
[2021-01-08 10:27:21.147] $GPGGA,012719.00,4304.16695231,N,14120.43174439,E,2,05,2.3,20.728,M,32.001,M,7.0,0137*77
[2021-01-08 10:27:21.241] $GPGGA,012719.10,4304.16695331,N,14120.43174370,E,2,05,2.3,20.727,M,32.001,M,7.0,0137*72
[2021-01-08 10:27:21.350] $GPGGA,012719.20,4304.16695773,N,14120.43174657,E,2,05,2.3,20.697,M,32.001,M,7.2,0137*7B
[2021-01-08 10:27:21.444] $GPGGA,012719.30,4304.16695910,N,14120.43174802,E,2,05,2.3,20.700,M,32.001,M,7.2,0137*70
[2021-01-08 10:27:21.553] $GPGGA,012719.40,4304.16696409,N,14120.43176045,E,2,06,1.9,20.657,M,32.001,M,3.4,0137*73
[2021-01-08 10:27:21.631] $GPGGA,012719.50,4304.16696650,N,14120.43176202,E,2,06,1.9,20.654,M,32.001,M,3.4,0137*7E
[2021-01-08 10:27:21.741] $GPGGA,012719.60,4304.16697215,N,14120.43177386,E,2,06,1.9,20.620,M,32.001,M,3.6,0137*74
[2021-01-08 10:27:21.834] $GPGGA,012719.70,4304.16697411,N,14120.43177322,E,2,06,1.9,20.619,M,32.001,M,3.6,0137*73
[2021-01-08 10:27:21.944] $GPGGA,012719.80,4304.16698076,N,14120.43178522,E,2,06,1.9,20.580,M,32.001,M,3.8,0137*72
[2021-01-08 10:27:22.037] $GPGGA,012719.90,4304.16698176,N,14120.43178509,E,2,06,1.9,20.581,M,32.001,M,3.8,0137*7A
[2021-01-08 10:27:22.147] $GPGGA,012720.00,4304.16698892,N,14120.43179366,E,2,06,1.9,20.543,M,32.001,M,4.0,0137*75
[2021-01-08 10:27:22.241] $GPGGA,012720.10,4304.16698776,N,14120.43179453,E,2,06,1.9,20.546,M,32.001,M,4.0,0137*75
[2021-01-08 10:27:22.350] $GPGGA,012720.20,4304.16699356,N,14120.43180394,E,2,06,1.9,20.516,M,32.001,M,4.2,0137*7C
[2021-01-08 10:27:22.444] $GPGGA,012720.30,4304.16699348,N,14120.43180385,E,2,06,1.9,20.511,M,32.001,M,4.2,0137*75
[2021-01-08 10:27:22.553] $GPGGA,012720.40,4304.16701628,N,14120.43185894,E,2,07,1.4,20.466,M,32.001,M,4.4,0137*74
[2021-01-08 10:27:22.631] $GPGGA,012720.50,4304.16701760,N,14120.43185938,E,2,07,1.4,20.467,M,32.001,M,4.4,0137*7E
[2021-01-08 10:27:22.741] $GPGGA,012720.60,4304.16703988,N,14120.43190460,E,2,07,1.4,20.415,M,32.001,M,4.6,0137*74
[2021-01-08 10:27:22.834] $GPGGA,012720.70,4304.16704064,N,14120.43190557,E,2,07,1.4,20.417,M,32.001,M,4.6,0137*7E
[2021-01-08 10:27:22.944] $GPGGA,012720.80,4304.16706213,N,14120.43194353,E,2,07,1.4,20.369,M,32.001,M,4.8,0137*77
[2021-01-08 10:27:23.037] $GPGGA,012720.90,4304.16706192,N,14120.43194361,E,2,07,1.4,20.377,M,32.001,M,4.8,0137*72
[2021-01-08 10:27:23.147] $GPGGA,012721.00,4304.16707973,N,14120.43197663,E,2,07,1.4,20.332,M,32.001,M,5.0,0137*70
[2021-01-08 10:27:23.240] $GPGGA,012721.10,4304.16708328,N,14120.43197652,E,2,07,1.4,20.326,M,32.001,M,5.0,0137*7D
[2021-01-08 10:27:23.350] $GPGGA,012721.20,4304.16709751,N,14120.43200226,E,2,07,1.4,20.286,M,32.001,M,5.2,0137*76
[2021-01-08 10:27:23.444] $GPGGA,012721.30,4304.16709890,N,14120.43200497,E,2,07,1.4,20.291,M,32.001,M,5.2,0137*7F
[2021-01-08 10:27:23.553] $GPGGA,012721.40,4304.16711488,N,14120.43202602,E,2,07,1.4,20.242,M,32.001,M,5.4,0137*70
[2021-01-08 10:27:23.647] $GPGGA,012721.50,4304.16711431,N,14120.43202550,E,2,07,1.4,20.246,M,32.001,M,5.4,0137*73
[2021-01-08 10:27:23.740] $GPGGA,012721.60,4304.16712945,N,14120.43204816,E,2,07,1.4,20.205,M,32.001,M,5.6,0137*71
[2021-01-08 10:27:23.834] $GPGGA,012721.70,4304.16713103,N,14120.43204791,E,2,07,1.4,20.200,M,32.001,M,5.6,0137*7E
[2021-01-08 10:27:23.944] $GPGGA,012721.80,4304.16714490,N,14120.43206671,E,2,07,1.4,20.166,M,32.001,M,5.8,0137*79
[2021-01-08 10:27:24.037] $GPGGA,012721.90,4304.16714488,N,14120.43206688,E,2,07,1.4,20.166,M,32.001,M,5.8,0137*77
[2021-01-08 10:27:24.131] $GPGGA,012722.00,4304.16715663,N,14120.43208162,E,2,07,1.4,20.131,M,32.001,M,6.0,0137*7F
[2021-01-08 10:27:24.225] $GPGGA,012722.10,4304.16715634,N,14120.43208044,E,2,07,1.4,20.132,M,32.001,M,6.0,0137*7A
[2021-01-08 10:27:24.350] $GPGGA,012722.20,4304.16716928,N,14120.43209445,E,2,07,1.4,20.091,M,32.001,M,6.2,0137*76
[2021-01-08 10:27:24.444] $GPGGA,012722.30,4304.16717047,N,14120.43209540,E,2,07,1.4,20.092,M,32.001,M,6.2,0137*71
[2021-01-08 10:27:24.553] $GPGGA,012722.40,4304.16718017,N,14120.43210676,E,2,07,1.4,20.057,M,32.001,M,6.4,0137*7D
[2021-01-08 10:27:24.647] $GPGGA,012722.50,4304.16718343,N,14120.43210806,E,2,07,1.4,20.054,M,32.001,M,6.4,0137*74
[2021-01-08 10:27:24.740] $GPGGA,012722.60,4304.16719195,N,14120.43211757,E,2,07,1.4,20.021,M,32.001,M,6.6,0137*75
[2021-01-08 10:27:24.834] $GPGGA,012722.70,4304.16719248,N,14120.43211767,E,2,07,1.4,20.021,M,32.001,M,6.6,0137*74
[2021-01-08 10:27:24.944] $GPGGA,012722.80,4304.16720210,N,14120.43212652,E,2,07,1.4,19.984,M,32.001,M,6.8,0137*7A
[2021-01-08 10:27:25.037] $GPGGA,012722.90,4304.16720342,N,14120.43212913,E,2,07,1.4,19.983,M,32.001,M,6.8,0137*70
[2021-01-08 10:27:25.147] $GPGGA,012723.00,4304.16721250,N,14120.43213645,E,2,07,1.4,19.943,M,32.001,M,7.0,0137*73
[2021-01-08 10:27:25.240] $GPGGA,012723.10,4304.16721222,N,14120.43213625,E,2,07,1.4,19.948,M,32.001,M,7.0,0137*7A
[2021-01-08 10:27:25.350] $GPGGA,012723.20,4304.16722281,N,14120.43214368,E,2,07,1.4,19.916,M,32.001,M,7.2,0137*71
[2021-01-08 10:27:25.443] $GPGGA,012723.30,4304.16722296,N,14120.43214458,E,2,07,1.4,19.914,M,32.001,M,7.2,0137*70
[2021-01-08 10:27:25.553] $GPGGA,012723.40,4304.16723113,N,14120.43214926,E,2,07,1.4,19.877,M,32.001,M,5.4,0137*7C
[2021-01-08 10:27:25.647] $GPGGA,012723.50,4304.16723214,N,14120.43214938,E,2,07,1.4,19.876,M,32.001,M,5.4,0137*77
[2021-01-08 10:27:25.740] $GPGGA,012723.60,4304.16723975,N,14120.43215628,E,2,07,1.4,19.847,M,32.001,M,5.6,0137*77
[2021-01-08 10:27:25.834] $GPGGA,012723.70,4304.16723827,N,14120.43215503,E,2,07,1.4,19.847,M,32.001,M,5.6,0137*7A
[2021-01-08 10:27:25.943] $GPGGA,012723.80,4304.16724446,N,14120.43216026,E,2,07,1.4,19.824,M,32.001,M,5.8,0137*73
[2021-01-08 10:27:26.037] $GPGGA,012723.90,4304.16724569,N,14120.43216016,E,2,07,1.4,19.820,M,32.001,M,5.8,0137*79
[2021-01-08 10:27:26.147] $GPGGA,012724.00,4304.16725097,N,14120.43216286,E,2,07,1.4,19.789,M,32.001,M,6.0,0137*7E
[2021-01-08 10:27:26.240] $GPGGA,012724.10,4304.16725218,N,14120.43216414,E,2,07,1.4,19.791,M,32.001,M,6.0,0137*7E
[2021-01-08 10:27:26.350] $GPGGA,012724.20,4304.16725821,N,14120.43216718,E,2,07,1.4,19.757,M,32.001,M,6.2,0137*7A
[2021-01-08 10:27:26.443] $GPGGA,012724.30,4304.16725747,N,14120.43216676,E,2,07,1.4,19.757,M,32.001,M,6.2,0137*7D
[2021-01-08 10:27:26.553] $GPGGA,012724.40,4304.16726289,N,14120.43217006,E,2,07,1.4,19.732,M,32.001,M,6.4,0137*7B
[2021-01-08 10:27:26.647] $GPGGA,012724.50,4304.16726549,N,14120.43216974,E,2,07,1.4,19.727,M,32.001,M,6.4,0137*78
[2021-01-08 10:27:26.740] $GPGGA,012724.60,4304.16726982,N,14120.43217187,E,2,07,1.4,19.698,M,32.001,M,6.6,0137*72
[2021-01-08 10:27:26.834] $GPGGA,012724.70,4304.16727288,N,14120.43217320,E,2,07,1.4,19.701,M,32.001,M,6.6,0137*7D
[2021-01-08 10:27:26.943] $GPGGA,012724.80,4304.16727689,N,14120.43217489,E,2,07,1.4,19.674,M,32.001,M,6.8,0137*7E
[2021-01-08 10:27:27.037] $GPGGA,012724.90,4304.16727789,N,14120.43217462,E,2,07,1.4,19.671,M,32.001,M,6.8,0137*7E
[2021-01-08 10:27:27.146] $GPGGA,012725.00,4304.16728219,N,14120.43217652,E,2,07,1.4,19.645,M,32.001,M,7.0,0137*7A
[2021-01-08 10:27:27.240] $GPGGA,012725.10,4304.16728338,N,14120.43217709,E,2,07,1.4,19.644,M,32.001,M,7.0,0137*77
[2021-01-08 10:27:27.350] $GPGGA,012725.20,4304.16728643,N,14120.43217788,E,2,07,1.4,19.617,M,32.001,M,7.2,0137*70
[2021-01-08 10:27:27.443] $GPGGA,012725.30,4304.16728645,N,14120.43217873,E,2,07,1.4,19.621,M,32.001,M,7.2,0137*79
[2021-01-08 10:27:27.553] $GPGGA,012725.40,4304.16729136,N,14120.43218094,E,2,06,1.4,19.592,M,32.001,M,3.4,0137*7A
[2021-01-08 10:27:27.646] $GPGGA,012725.50,4304.16729084,N,14120.43218010,E,2,06,1.4,19.588,M,32.001,M,3.4,0137*74
[2021-01-08 10:27:27.740] $GPGGA,012725.60,4304.16729524,N,14120.43218123,E,2,06,1.4,19.567,M,32.001,M,3.6,0137*7A
[2021-01-08 10:27:27.834] $GPGGA,012725.70,4304.16729569,N,14120.43218241,E,2,06,1.4,19.568,M,32.001,M,3.6,0137*7A
[2021-01-08 10:27:27.943] $GPGGA,012725.80,4304.16729966,N,14120.43218346,E,2,06,1.4,19.541,M,32.001,M,3.8,0137*75
[2021-01-08 10:27:28.037] $GPGGA,012725.90,4304.16730082,N,14120.43218413,E,2,06,1.4,19.536,M,32.001,M,3.8,0137*78
[2021-01-08 10:27:28.146] $GPGGA,012726.00,4304.16730421,N,14120.43218472,E,2,06,1.4,19.513,M,32.001,M,4.0,0137*70
[2021-01-08 10:27:28.240] $GPGGA,012726.10,4304.16730452,N,14120.43218664,E,2,06,1.4,19.513,M,32.001,M,4.0,0137*70
[2021-01-08 10:27:28.350] $GPGGA,012726.20,4304.16730858,N,14120.43218710,E,2,06,1.4,19.487,M,32.001,M,4.2,0137*79
[2021-01-08 10:27:28.443] $GPGGA,012726.30,4304.16730914,N,14120.43218620,E,2,06,1.4,19.485,M,32.001,M,4.2,0137*71
[2021-01-08 10:27:28.553] $GPGGA,012726.40,4304.16731173,N,14120.43218736,E,2,06,1.4,19.465,M,32.001,M,4.4,0137*70
[2021-01-08 10:27:28.646] $GPGGA,012726.50,4304.16731432,N,14120.43218690,E,2,06,1.4,19.464,M,32.001,M,4.4,0137*7D
[2021-01-08 10:27:28.740] $GPGGA,012726.60,4304.16731633,N,14120.43218657,E,2,06,1.4,19.435,M,32.001,M,4.6,0137*70
[2021-01-08 10:27:28.834] $GPGGA,012726.70,4304.16731745,N,14120.43218746,E,2,06,1.4,19.436,M,32.001,M,4.6,0137*73
[2021-01-08 10:27:28.943] $GPGGA,012726.80,4304.16732133,N,14120.43218819,E,2,06,1.4,19.418,M,32.001,M,4.8,0137*7F
[2021-01-08 10:27:29.037] $GPGGA,012726.90,4304.16732197,N,14120.43218688,E,2,06,1.4,19.409,M,32.001,M,4.8,0137*76
[2021-01-08 10:27:29.146] $GPGGA,012727.00,4304.16732405,N,14120.43218738,E,2,06,1.4,19.388,M,32.001,M,5.0,0137*7D
[2021-01-08 10:27:29.240] $GPGGA,012727.10,4304.16732618,N,14120.43218867,E,2,06,1.4,19.387,M,32.001,M,5.0,0137*78
[2021-01-08 10:27:29.349] $GPGGA,012727.20,4304.16732871,N,14120.43218723,E,2,06,1.4,19.365,M,32.001,M,5.2,0137*7B
[2021-01-08 10:27:29.443] $GPGGA,012727.30,4304.16732968,N,14120.43218795,E,2,06,1.4,19.361,M,32.001,M,5.2,0137*7A
[2021-01-08 10:27:29.553] $GPGGA,012727.40,4304.16733225,N,14120.43218918,E,2,06,1.4,19.346,M,32.001,M,5.4,0137*76
[2021-01-08 10:27:29.646] $GPGGA,012727.50,4304.16733258,N,14120.43218826,E,2,06,1.4,19.342,M,32.001,M,5.4,0137*75
[2021-01-08 10:27:29.740] $GPGGA,012727.60,4304.16733463,N,14120.43218882,E,2,06,1.4,19.322,M,32.001,M,5.6,0137*72
[2021-01-08 10:27:29.834] $GPGGA,012727.70,4304.16733626,N,14120.43218893,E,2,06,1.4,19.321,M,32.001,M,5.6,0137*73
[2021-01-08 10:27:29.943] $GPGGA,012727.80,4304.16733971,N,14120.43218837,E,2,06,1.4,19.299,M,32.001,M,5.8,0137*73
[2021-01-08 10:27:30.037] $GPGGA,012727.90,4304.16733869,N,14120.43218898,E,2,06,1.4,19.300,M,32.001,M,5.8,0137*7E
[2021-01-08 10:27:30.146] $GPGGA,012728.00,4304.16734251,N,14120.43218829,E,2,06,1.4,19.276,M,32.001,M,6.0,0137*7F
[2021-01-08 10:27:30.240] $GPGGA,012728.10,4304.16734259,N,14120.43218720,E,2,06,1.4,19.274,M,32.001,M,6.0,0137*72
[2021-01-08 10:27:30.349] $GPGGA,012728.20,4304.16734410,N,14120.43218719,E,2,06,1.4,19.259,M,32.001,M,6.2,0137*7D
[2021-01-08 10:27:30.443] $GPGGA,012728.30,4304.16734414,N,14120.43218692,E,2,06,1.4,19.255,M,32.001,M,6.2,0137*76
[2021-01-08 10:27:30.553] $GPGGA,012728.40,4304.16734553,N,14120.43218558,E,2,06,1.4,19.237,M,32.001,M,6.4,0137*74
[2021-01-08 10:27:30.646] $GPGGA,012728.50,4304.16734619,N,14120.43218588,E,2,06,1.4,19.237,M,32.001,M,6.4,0137*75
[2021-01-08 10:27:30.740] $GPGGA,012728.60,4304.16734852,N,14120.43218614,E,2,06,1.4,19.218,M,32.001,M,6.6,0137*7E
[2021-01-08 10:27:30.834] $GPGGA,012728.70,4304.16734785,N,14120.43218522,E,2,06,1.4,19.216,M,32.001,M,6.6,0137*72
[2021-01-08 10:27:30.943] $GPGGA,012728.80,4304.16735042,N,14120.43218428,E,2,06,1.4,19.199,M,32.001,M,6.8,0137*71
[2021-01-08 10:27:31.037] $GPGGA,012728.90,4304.16735245,N,14120.43218625,E,2,06,1.4,19.195,M,32.001,M,6.8,0137*76
[2021-01-08 10:27:31.146] $GPGGA,012729.00,4304.16735380,N,14120.43218462,E,2,06,1.4,19.179,M,32.001,M,7.0,0137*7C
[2021-01-08 10:27:31.240] $GPGGA,012729.10,4304.16735573,N,14120.43218627,E,2,06,1.4,19.173,M,32.001,M,7.0,0137*7E
[2021-01-08 10:27:31.349] $GPGGA,012729.20,4304.16735770,N,14120.43218582,E,2,06,1.4,19.158,M,32.001,M,7.2,0137*7B
[2021-01-08 10:27:31.443] $GPGGA,012729.30,4304.16735961,N,14120.43218537,E,2,06,1.4,19.154,M,32.001,M,7.2,0137*76
[2021-01-08 10:27:31.552] $GPGGA,012729.40,4304.16735993,N,14120.43218321,E,2,06,1.4,19.136,M,32.001,M,5.4,0137*7D
[2021-01-08 10:27:31.646] $GPGGA,012729.50,4304.16736098,N,14120.43218530,E,2,06,1.4,19.138,M,32.001,M,5.4,0137*75
[2021-01-08 10:27:31.740] $GPGGA,012729.60,4304.16736094,N,14120.43218338,E,2,06,1.4,19.125,M,32.001,M,5.6,0137*7A
[2021-01-08 10:27:31.834] $GPGGA,012729.70,4304.16736124,N,14120.43218304,E,2,06,1.4,19.120,M,32.001,M,5.6,0137*7B
[2021-01-08 10:27:31.943] $GPGGA,012729.80,4304.16736221,N,14120.43218198,E,2,06,1.4,19.106,M,32.001,M,5.8,0137*7F
[2021-01-08 10:27:32.037] $GPGGA,012729.90,4304.16736278,N,14120.43218246,E,2,06,1.4,19.107,M,32.001,M,5.8,0137*73
[2021-01-08 10:27:32.146] $GPGGA,012730.00,4304.16736349,N,14120.43218184,E,2,06,1.4,19.088,M,32.001,M,6.0,0137*71
[2021-01-08 10:27:32.240] $GPGGA,012730.10,4304.16736460,N,14120.43218108,E,2,06,1.4,19.081,M,32.001,M,6.0,0137*71
[2021-01-08 10:27:32.349] $GPGGA,012730.20,4304.16736526,N,14120.43218083,E,2,06,1.4,19.068,M,32.001,M,6.2,0137*76
[2021-01-08 10:27:32.443] $GPGGA,012730.30,4304.16736709,N,14120.43218113,E,2,06,1.4,19.062,M,32.001,M,6.2,0137*7A
[2021-01-08 10:27:32.552] $GPGGA,012730.40,4304.16736897,N,14120.43218065,E,2,06,1.4,19.045,M,32.001,M,6.4,0137*76
[2021-01-08 10:27:32.646] $GPGGA,012730.50,4304.16736888,N,14120.43218097,E,2,06,1.4,19.048,M,32.001,M,6.4,0137*79
[2021-01-08 10:27:32.740] $GPGGA,012730.60,4304.16737122,N,14120.43218048,E,2,06,1.4,19.027,M,32.001,M,6.6,0137*7B
[2021-01-08 10:27:32.834] $GPGGA,012730.70,4304.16737062,N,14120.43218075,E,2,06,1.4,19.024,M,32.001,M,6.6,0137*72
[2021-01-08 10:27:32.943] $GPGGA,012730.80,4304.16737180,N,14120.43217924,E,2,06,1.4,19.009,M,32.001,M,6.8,0137*73
[2021-01-08 10:27:33.037] $GPGGA,012730.90,4304.16737393,N,14120.43218071,E,2,06,1.4,19.005,M,32.001,M,6.8,0137*78
[2021-01-08 10:27:33.146] $GPGGA,012731.00,4304.16737382,N,14120.43217852,E,2,06,1.4,18.991,M,32.001,M,7.0,0137*7A
[2021-01-08 10:27:33.240] $GPGGA,012731.10,4304.16737489,N,14120.43218069,E,2,06,1.4,18.992,M,32.001,M,7.0,0137*7B
[2021-01-08 10:27:33.349] $GPGGA,012731.20,4304.16737491,N,14120.43217971,E,2,06,1.4,18.976,M,32.001,M,7.2,0137*76
[2021-01-08 10:27:33.443] $GPGGA,012731.30,4304.16737574,N,14120.43217882,E,2,06,1.4,18.977,M,32.001,M,7.2,0137*71
[2021-01-08 10:27:33.552] $GPGGA,012731.40,4304.16737769,N,14120.43217781,E,2,06,1.4,18.959,M,32.001,M,3.4,0137*7A
[2021-01-08 10:27:33.646] $GPGGA,012731.50,4304.16737913,N,14120.43218029,E,2,06,1.4,18.959,M,32.001,M,3.4,0137*72
[2021-01-08 10:27:33.740] $GPGGA,012731.60,4304.16737889,N,14120.43217916,E,2,06,1.4,18.950,M,32.001,M,3.6,0137*72
[2021-01-08 10:27:33.834] $GPGGA,012731.70,4304.16738075,N,14120.43217954,E,2,06,1.4,18.945,M,32.001,M,3.6,0137*75
[2021-01-08 10:27:33.943] $GPGGA,012731.80,4304.16738003,N,14120.43217771,E,2,06,1.4,18.930,M,32.001,M,3.8,0137*7E
[2021-01-08 10:27:34.037] $GPGGA,012731.90,4304.16738165,N,14120.43217981,E,2,06,1.4,18.931,M,32.001,M,3.8,0137*7E
[2021-01-08 10:27:34.130] $GPGGA,012732.00,4304.16738086,N,14120.43217670,E,2,06,1.4,18.920,M,32.001,M,4.0,0137*76
[2021-01-08 10:27:34.240] $GPGGA,012732.10,4304.16738182,N,14120.43217741,E,2,06,1.4,18.912,M,32.001,M,4.0,0137*70
[2021-01-08 10:27:34.349] $GPGGA,012732.20,4304.16738444,N,14120.43217662,E,2,06,1.4,18.899,M,32.001,M,4.2,0137*7C
[2021-01-08 10:27:34.443] $GPGGA,012732.30,4304.16738436,N,14120.43217794,E,2,06,1.4,18.900,M,32.001,M,4.2,0137*71
[2021-01-08 10:27:34.552] $GPGGA,012732.40,4304.16738488,N,14120.43217586,E,2,06,1.4,18.885,M,32.001,M,4.4,0137*78
[2021-01-08 10:27:34.646] $GPGGA,012732.50,4304.16738679,N,14120.43217873,E,2,06,1.4,18.880,M,32.001,M,4.4,0137*77
[2021-01-08 10:27:34.740] $GPGGA,012732.60,4304.16738563,N,14120.43217540,E,2,06,1.4,18.876,M,32.001,M,4.6,0137*7A
[2021-01-08 10:27:34.833] $GPGGA,012732.70,4304.16738686,N,14120.43217760,E,2,06,1.4,18.871,M,32.001,M,4.6,0137*74
[2021-01-08 10:27:34.943] $GPGGA,012732.80,4304.16738730,N,14120.43217533,E,2,06,1.4,18.858,M,32.001,M,4.8,0137*76
[2021-01-08 10:27:35.037] $GPGGA,012732.90,4304.16738831,N,14120.43217457,E,2,06,1.4,18.850,M,32.001,M,4.8,0137*72
[2021-01-08 10:27:35.146] $GPGGA,012733.00,4304.16739069,N,14120.43217476,E,2,06,1.4,18.838,M,32.001,M,5.0,0137*7A
[2021-01-08 10:27:35.240] $GPGGA,012733.10,4304.16739101,N,14120.43217366,E,2,06,1.4,18.833,M,32.001,M,5.0,0137*79
[2021-01-08 10:27:35.349] $GPGGA,012733.20,4304.16739079,N,14120.43217159,E,2,06,1.4,18.822,M,32.001,M,5.2,0137*78
[2021-01-08 10:27:35.443] $GPGGA,012733.30,4304.16739232,N,14120.43217269,E,2,06,1.4,18.823,M,32.001,M,5.2,0137*75
[2021-01-08 10:27:35.552] $GPGGA,012733.40,4304.16739283,N,14120.43217110,E,2,06,1.4,18.807,M,32.001,M,5.4,0137*75
[2021-01-08 10:27:35.646] $GPGGA,012733.50,4304.16739382,N,14120.43217190,E,2,06,1.4,18.807,M,32.001,M,5.4,0137*7C
[2021-01-08 10:27:35.740] $GPGGA,012733.60,4304.16739565,N,14120.43217117,E,2,06,1.4,18.795,M,32.001,M,5.6,0137*79
[2021-01-08 10:27:35.833] $GPGGA,012733.70,4304.16739463,N,14120.43217069,E,2,06,1.4,18.795,M,32.001,M,5.6,0137*77
[2021-01-08 10:27:35.943] $GPGGA,012733.80,4304.16739551,N,14120.43216958,E,2,06,1.4,18.788,M,32.001,M,5.8,0137*70
[2021-01-08 10:27:36.036] $GPGGA,012733.90,4304.16739657,N,14120.43216965,E,2,06,1.4,18.783,M,32.001,M,5.8,0137*71
[2021-01-08 10:27:36.146] $GPGGA,012734.00,4304.16739732,N,14120.43216831,E,2,06,1.4,18.767,M,32.001,M,6.0,0137*7C
[2021-01-08 10:27:36.240] $GPGGA,012734.10,4304.16739891,N,14120.43216740,E,2,06,1.4,18.765,M,32.001,M,6.0,0137*70
[2021-01-08 10:27:36.349] $GPGGA,012734.20,4304.16739869,N,14120.43216738,E,2,06,1.4,18.755,M,32.001,M,6.2,0137*7A
[2021-01-08 10:27:36.443] $GPGGA,012734.30,4304.16739940,N,14120.43216678,E,2,06,1.4,18.749,M,32.001,M,6.2,0137*79
[2021-01-08 10:27:36.552] $GPGGA,012734.40,4304.16739947,N,14120.43216508,E,2,06,1.4,18.739,M,32.001,M,6.4,0137*7C
[2021-01-08 10:27:36.646] $GPGGA,012734.50,4304.16740068,N,14120.43216560,E,2,06,1.4,18.741,M,32.001,M,6.4,0137*76
[2021-01-08 10:27:36.740] $GPGGA,012734.60,4304.16740109,N,14120.43216380,E,2,06,1.4,18.726,M,32.001,M,6.6,0137*78
[2021-01-08 10:27:36.833] $GPGGA,012734.70,4304.16740333,N,14120.43216261,E,2,06,1.4,18.726,M,32.001,M,6.6,0137*7C
[2021-01-08 10:27:36.943] $GPGGA,012734.80,4304.16740336,N,14120.43216174,E,2,06,1.4,18.710,M,32.001,M,6.8,0137*7A
[2021-01-08 10:27:37.036] $GPGGA,012734.90,4304.16740549,N,14120.43216291,E,2,06,1.4,18.714,M,32.001,M,6.8,0137*79
[2021-01-08 10:27:37.146] $GPGGA,012735.00,4304.16740551,N,14120.43216320,E,2,06,1.4,18.706,M,32.001,M,7.0,0137*79
[2021-01-08 10:27:37.240] $GPGGA,012735.10,4304.16740809,N,14120.43216371,E,2,06,1.4,18.700,M,32.001,M,7.0,0137*7A
[2021-01-08 10:27:37.349] $GPGGA,012735.20,4304.16740827,N,14120.43216302,E,2,06,1.4,18.691,M,32.001,M,7.2,0137*7A
[2021-01-08 10:27:37.443] $GPGGA,012735.30,4304.16740928,N,14120.43216362,E,2,06,1.4,18.692,M,32.001,M,7.2,0137*70
[2021-01-08 10:27:37.552] $GPGGA,012735.40,4304.16740820,N,14120.43216276,E,2,06,1.4,18.686,M,32.001,M,5.4,0137*7B
[2021-01-08 10:27:37.646] $GPGGA,012735.50,4304.16740906,N,14120.43216078,E,2,06,1.4,18.684,M,32.001,M,5.4,0137*71
[2021-01-08 10:27:37.739] $GPGGA,012735.60,4304.16740709,N,14120.43216045,E,2,06,1.4,18.680,M,32.001,M,5.6,0137*7B
[2021-01-08 10:27:37.833] $GPGGA,012735.70,4304.16740947,N,14120.43215972,E,2,06,1.4,18.676,M,32.001,M,5.6,0137*79
[2021-01-08 10:27:37.943] $GPGGA,012735.80,4304.16740973,N,14120.43215874,E,2,06,1.4,18.663,M,32.001,M,5.8,0137*7C
[2021-01-08 10:27:38.036] $GPGGA,012735.90,4304.16741098,N,14120.43215994,E,2,06,1.4,18.662,M,32.001,M,5.8,0137*7E
[2021-01-08 10:27:38.146] $GPGGA,012736.00,4304.16741062,N,14120.43215732,E,2,06,1.4,18.655,M,32.001,M,6.0,0137*7C
[2021-01-08 10:27:38.239] $GPGGA,012736.10,4304.16740951,N,14120.43215786,E,2,06,1.4,18.653,M,32.001,M,6.0,0137*7C
[2021-01-08 10:27:38.349] $GPGGA,012736.20,4304.16741096,N,14120.43215668,E,2,06,1.4,18.641,M,32.001,M,6.2,0137*7C
[2021-01-08 10:27:38.443] $GPGGA,012736.30,4304.16741216,N,14120.43215887,E,2,06,1.4,18.644,M,32.001,M,6.2,0137*7D
[2021-01-08 10:27:38.552] $GPGGA,012736.40,4304.16741157,N,14120.43215798,E,2,06,1.4,18.633,M,32.001,M,6.4,0137*7B
[2021-01-08 10:27:38.646] $GPGGA,012736.50,4304.16741249,N,14120.43215910,E,2,06,1.4,18.632,M,32.001,M,6.4,0137*79
[2021-01-08 10:27:38.739] $GPGGA,012736.60,4304.16741372,N,14120.43215823,E,2,06,1.4,18.623,M,32.001,M,6.6,0137*70
[2021-01-08 10:27:38.833] $GPGGA,012736.70,4304.16741404,N,14120.43215803,E,2,06,1.4,18.623,M,32.001,M,6.6,0137*75
[2021-01-08 10:27:38.943] $GPGGA,012736.80,4304.16741353,N,14120.43215520,E,2,06,1.4,18.611,M,32.001,M,6.8,0137*7C
[2021-01-08 10:27:39.036] $GPGGA,012736.90,4304.16741504,N,14120.43215748,E,2,06,1.4,18.612,M,32.001,M,6.8,0137*76
[2021-01-08 10:27:39.146] $GPGGA,012737.00,4304.16741490,N,14120.43215500,E,2,06,1.4,18.605,M,32.001,M,7.0,0137*73
[2021-01-08 10:27:39.239] $GPGGA,012737.10,4304.16741565,N,14120.43215406,E,2,06,1.4,18.604,M,32.001,M,7.0,0137*7F
[2021-01-08 10:27:39.349] $GPGGA,012737.20,4304.16741593,N,14120.43215361,E,2,06,1.4,18.599,M,32.001,M,7.2,0137*76
[2021-01-08 10:27:39.442] $GPGGA,012737.30,4304.16741606,N,14120.43215442,E,2,06,1.4,18.594,M,32.001,M,7.2,0137*73
[2021-01-08 10:27:39.552] $GPGGA,012737.40,4304.16741637,N,14120.43215357,E,2,06,1.4,18.586,M,32.001,M,3.4,0137*74
[2021-01-08 10:27:39.646] $GPGGA,012737.50,4304.16741770,N,14120.43215364,E,2,06,1.4,18.593,M,32.001,M,3.4,0137*73
[2021-01-08 10:27:39.739] $GPGGA,012737.60,4304.16741744,N,14120.43215224,E,2,06,1.4,18.577,M,32.001,M,3.6,0137*7A
[2021-01-08 10:27:39.833] $GPGGA,012737.70,4304.16741615,N,14120.43215040,E,2,06,1.4,18.584,M,32.001,M,3.6,0137*72
[2021-01-08 10:27:39.943] $GPGGA,012737.80,4304.16741718,N,14120.43215092,E,2,06,1.4,18.575,M,32.001,M,3.8,0137*7E
[2021-01-08 10:27:40.036] $GPGGA,012737.90,4304.16741790,N,14120.43214994,E,2,06,1.4,18.572,M,32.001,M,3.8,0137*76
[2021-01-08 10:27:40.146] $GPGGA,012738.00,4304.16741702,N,14120.43214992,E,2,06,1.4,18.572,M,32.001,M,4.0,0137*72
[2021-01-08 10:27:40.239] $GPGGA,012738.10,4304.16741766,N,14120.43214995,E,2,06,1.4,18.559,M,32.001,M,4.0,0137*7F
[2021-01-08 10:27:40.349] $GPGGA,012738.20,4304.16741681,N,14120.43214758,E,2,06,1.4,18.562,M,32.001,M,4.2,0137*71
[2021-01-08 10:27:40.442] $GPGGA,012738.30,4304.16741742,N,14120.43215051,E,2,06,1.4,18.561,M,32.001,M,4.2,0137*72
[2021-01-08 10:27:40.552] $GPGGA,012738.40,4304.16741798,N,14120.43214874,E,2,06,1.4,18.546,M,32.001,M,4.4,0137*7F
[2021-01-08 10:27:40.646] $GPGGA,012738.50,4304.16741786,N,14120.43214994,E,2,06,1.4,18.554,M,32.001,M,4.4,0137*7D
[2021-01-08 10:27:40.739] $GPGGA,012738.60,4304.16741804,N,14120.43214781,E,2,06,1.4,18.545,M,32.001,M,4.6,0137*73
[2021-01-08 10:27:40.833] $GPGGA,012738.70,4304.16741991,N,14120.43214916,E,2,06,1.4,18.539,M,32.001,M,4.6,0137*74
[2021-01-08 10:27:40.958] $GPGGA,012738.80,4304.16741837,N,14120.43214798,E,2,06,1.4,18.537,M,32.001,M,4.8,0137*7E
[2021-01-08 10:27:41.036] $GPGGA,012738.90,4304.16742204,N,14120.43214995,E,2,06,1.4,18.542,M,32.001,M,4.8,0137*77
[2021-01-08 10:27:41.145] $GPGGA,012739.00,4304.16742296,N,14120.43214886,E,2,06,1.4,18.527,M,32.001,M,5.0,0137*7D
[2021-01-08 10:27:41.239] $GPGGA,012739.10,4304.16742205,N,14120.43214988,E,2,06,1.4,18.530,M,32.001,M,5.0,0137*7F
[2021-01-08 10:27:41.349] $GPGGA,012739.20,4304.16742363,N,14120.43214814,E,2,06,1.4,18.520,M,32.001,M,5.2,0137*7A
[2021-01-08 10:27:41.442] $GPGGA,012739.30,4304.16742389,N,14120.43214825,E,2,06,1.4,18.518,M,32.001,M,5.2,0137*76
[2021-01-08 10:27:41.552] $GPGGA,012739.40,4304.16742314,N,14120.43214735,E,2,06,1.4,18.514,M,32.001,M,5.4,0137*71
[2021-01-08 10:27:41.645] $GPGGA,012739.50,4304.16742436,N,14120.43214700,E,2,06,1.4,18.511,M,32.001,M,5.4,0137*74
[2021-01-08 10:27:41.739] $GPGGA,012739.60,4304.16742564,N,14120.43214769,E,2,06,1.4,18.504,M,32.001,M,5.6,0137*78
[2021-01-08 10:27:41.833] $GPGGA,012739.70,4304.16742505,N,14120.43214536,E,2,06,1.4,18.506,M,32.001,M,5.6,0137*74
[2021-01-08 10:27:41.942] $GPGGA,012739.80,4304.16742535,N,14120.43214446,E,2,06,1.4,18.495,M,32.001,M,5.8,0137*7B
[2021-01-08 10:27:42.036] $GPGGA,012739.90,4304.16742696,N,14120.43214452,E,2,06,1.4,18.496,M,32.001,M,5.8,0137*76
[2021-01-08 10:27:42.145] $GPGGA,012740.00,4304.16742639,N,14120.43214448,E,2,06,1.4,18.492,M,32.001,M,6.0,0137*70
[2021-01-08 10:27:42.239] $GPGGA,012740.10,4304.16742575,N,14120.43214411,E,2,06,1.4,18.497,M,32.001,M,6.0,0137*73
[2021-01-08 10:27:42.349] $GPGGA,012740.20,4304.16742506,N,14120.43214166,E,2,06,1.4,18.486,M,32.001,M,6.2,0137*73
[2021-01-08 10:27:42.442] $GPGGA,012740.30,4304.16742755,N,14120.43214268,E,2,06,1.4,18.490,M,32.001,M,6.2,0137*7C
[2021-01-08 10:27:42.552] $GPGGA,012740.40,4304.16742557,N,14120.43214102,E,2,06,1.4,18.484,M,32.001,M,6.4,0137*77
[2021-01-08 10:27:42.645] $GPGGA,012740.50,4304.16742620,N,14120.43214060,E,2,06,1.4,18.486,M,32.001,M,6.4,0137*72
[2021-01-08 10:27:42.739] $GPGGA,012740.60,4304.16742628,N,14120.43214068,E,2,06,1.4,18.480,M,32.001,M,6.6,0137*75
[2021-01-08 10:27:42.833] $GPGGA,012740.70,4304.16742774,N,14120.43214059,E,2,06,1.4,18.482,M,32.001,M,6.6,0137*7C
[2021-01-08 10:27:42.942] $GPGGA,012740.80,4304.16742640,N,14120.43213959,E,2,06,1.4,18.481,M,32.001,M,6.8,0137*76
[2021-01-08 10:27:43.036] $GPGGA,012740.90,4304.16742737,N,14120.43213963,E,2,06,1.4,18.480,M,32.001,M,6.8,0137*7E
[2021-01-08 10:27:43.145] $GPGGA,012741.00,4304.16742762,N,14120.43213926,E,2,06,1.4,18.476,M,32.001,M,7.0,0137*77
[2021-01-08 10:27:43.239] $GPGGA,012741.10,4304.16742919,N,14120.43213901,E,2,06,1.4,18.468,M,32.001,M,7.0,0137*7E
[2021-01-08 10:27:43.349] $GPGGA,012741.20,4304.16742857,N,14120.43213909,E,2,06,1.4,18.467,M,32.001,M,7.2,0137*73
[2021-01-08 10:27:43.442] $GPGGA,012741.30,4304.16742886,N,14120.43213871,E,2,06,1.4,18.469,M,32.001,M,7.2,0137*7E
[2021-01-08 10:27:43.552] $GPGGA,012741.40,4304.16742800,N,14120.43213837,E,2,06,1.4,18.464,M,32.001,M,5.4,0137*7C
[2021-01-08 10:27:43.645] $GPGGA,012741.50,4304.16742992,N,14120.43213839,E,2,06,1.4,18.464,M,32.001,M,5.4,0137*79
[2021-01-08 10:27:43.739] $GPGGA,012741.60,4304.16742827,N,14120.43213794,E,2,06,1.4,18.460,M,32.001,M,5.6,0137*7B
[2021-01-08 10:27:43.833] $GPGGA,012741.70,4304.16742859,N,14120.43213713,E,2,06,1.4,18.460,M,32.001,M,5.6,0137*7C
[2021-01-08 10:27:43.942] $GPGGA,012741.80,4304.16742772,N,14120.43213551,E,2,06,1.4,18.457,M,32.001,M,5.8,0137*7B
[2021-01-08 10:27:44.036] $GPGGA,012741.90,4304.16743005,N,14120.43213512,E,2,06,1.4,18.453,M,32.001,M,5.8,0137*7F
[2021-01-08 10:27:44.130] $GPGGA,012742.00,4304.16742929,N,14120.43213604,E,2,06,1.4,18.453,M,32.001,M,6.0,0137*7C
[2021-01-08 10:27:44.239] $GPGGA,012742.10,4304.16742936,N,14120.43213469,E,2,06,1.4,18.446,M,32.001,M,6.0,0137*7E
[2021-01-08 10:27:44.348] $GPGGA,012742.20,4304.16742930,N,14120.43213425,E,2,06,1.4,18.443,M,32.001,M,6.2,0137*74
[2021-01-08 10:27:45.270] $GPGGA,012742.30,4304.16742918,N,14120.43213410,E,2,06,1.4,18.446,M,32.001,M,6.2,0137*7C
[2021-01-08 10:27:45.270] $GPGGA,012742.40,4304.16742949,N,14120.43213387,E,2,06,1.4,18.441,M,32.001,M,6.4,0137*77
[2021-01-08 10:27:45.270] $GPGGA,012742.50,4304.16742969,N,14120.43213372,E,2,06,1.4,18.437,M,32.001,M,6.4,0137*7F
[2021-01-08 10:27:45.270] $GPGGA,012742.60,4304.16743153,N,14120.43213551,E,2,06,1.4,18.430,M,32.001,M,6.6,0137*7E
[2021-01-08 10:27:45.270] $GPGGA,012742.70,4304.16743224,N,14120.43213551,E,2,06,1.4,18.432,M,32.001,M,6.6,0137*7E
[2021-01-08 10:27:45.270] $GPGGA,012742.80,4304.16743378,N,14120.43213573,E,2,06,1.4,18.421,M,32.001,M,6.8,0137*75
[2021-01-08 10:27:45.270] $GPGGA,012742.90,4304.16743294,N,14120.43213622,E,2,06,1.4,18.436,M,32.001,M,6.8,0137*76
[2021-01-08 10:27:45.270] $GPGGA,012743.00,4304.16743425,N,14120.43213709,E,2,06,1.4,18.428,M,32.001,M,7.0,0137*7C
[2021-01-08 10:27:45.270] $GPGGA,012743.10,4304.16743349,N,14120.43213598,E,2,06,1.4,18.425,M,32.001,M,7.0,0137*77
[2021-01-08 10:27:45.348] $GPGGA,012743.20,4304.16743348,N,14120.43213617,E,2,06,1.4,18.425,M,32.001,M,7.2,0137*73
[2021-01-08 10:27:45.442] $GPGGA,012743.30,4304.16743422,N,14120.43213802,E,2,06,1.4,18.427,M,32.001,M,7.2,0137*71
[2021-01-08 10:27:45.551] $GPGGA,012743.40,4304.16743362,N,14120.43213561,E,2,07,1.4,18.420,M,32.001,M,3.4,0137*79
[2021-01-08 10:27:45.645] $GPGGA,012743.50,4304.16743591,N,14120.43213637,E,2,07,1.4,18.417,M,32.001,M,3.4,0137*76
[2021-01-08 10:27:45.739] $GPGGA,012743.60,4304.16743464,N,14120.43213589,E,2,07,1.4,18.418,M,32.001,M,3.6,0137*75
[2021-01-08 10:27:45.833] $GPGGA,012743.70,4304.16743473,N,14120.43213668,E,2,07,1.4,18.427,M,32.001,M,3.6,0137*72
[2021-01-08 10:27:45.942] $GPGGA,012743.80,4304.16743483,N,14120.43213647,E,2,07,1.4,18.418,M,32.001,M,3.8,0137*7D
[2021-01-08 10:27:46.036] $GPGGA,012743.90,4304.16743690,N,14120.43213800,E,2,07,1.4,18.425,M,32.001,M,3.8,0137*7F
[2021-01-08 10:27:46.145] $GPGGA,012744.00,4304.16743605,N,14120.43213800,E,2,07,1.4,18.419,M,32.001,M,4.0,0137*7D
[2021-01-08 10:27:46.239] $GPGGA,012744.10,4304.16743649,N,14120.43213807,E,2,07,1.4,18.422,M,32.001,M,4.0,0137*7B
[2021-01-08 10:27:46.348] $GPGGA,012744.20,4304.16743599,N,14120.43213787,E,2,07,1.4,18.427,M,32.001,M,4.2,0137*76
[2021-01-08 10:27:46.442] $GPGGA,012744.30,4304.16743592,N,14120.43213608,E,2,07,1.4,18.423,M,32.001,M,4.2,0137*7E
[2021-01-08 10:27:46.551] $GPGGA,012744.40,4304.16743621,N,14120.43213405,E,2,07,1.4,18.422,M,32.001,M,4.4,0137*7A
[2021-01-08 10:27:46.645] $GPGGA,012744.50,4304.16743689,N,14120.43213639,E,2,07,1.4,18.424,M,32.001,M,4.4,0137*72
[2021-01-08 10:27:46.754] $GPGGA,012744.60,4304.16743602,N,14120.43213476,E,2,07,1.4,18.420,M,32.001,M,4.6,0137*7D
[2021-01-08 10:27:46.833] $GPGGA,012744.70,4304.16743696,N,14120.43213579,E,2,07,1.4,18.425,M,32.001,M,4.6,0137*7A
[2021-01-08 10:27:46.942] $GPGGA,012744.80,4304.16743718,N,14120.43213500,E,2,07,1.4,18.415,M,32.001,M,4.8,0137*71
[2021-01-08 10:27:47.036] $GPGGA,012744.90,4304.16743663,N,14120.43213417,E,2,07,1.4,18.423,M,32.001,M,4.8,0137*7F
[2021-01-08 10:27:47.145] $GPGGA,012745.00,4304.16743741,N,14120.43213538,E,2,07,1.4,18.410,M,32.001,M,5.0,0137*73
[2021-01-08 10:27:47.239] $GPGGA,012745.10,4304.16743812,N,14120.43213421,E,2,07,1.4,18.415,M,32.001,M,5.0,0137*77
[2021-01-08 10:27:47.348] $GPGGA,012745.20,4304.16743854,N,14120.43213586,E,2,07,1.4,18.408,M,32.001,M,5.2,0137*74
[2021-01-08 10:27:47.442] $GPGGA,012745.30,4304.16743723,N,14120.43213436,E,2,07,1.4,18.417,M,32.001,M,5.2,0137*7E
[2021-01-08 10:27:47.551] $GPGGA,012745.40,4304.16743706,N,14120.43213464,E,2,07,1.4,18.417,M,32.001,M,5.4,0137*7F
[2021-01-08 10:27:47.645] $GPGGA,012745.50,4304.16743729,N,14120.43213419,E,2,07,1.4,18.420,M,32.001,M,5.4,0137*7D
[2021-01-08 10:27:47.754] $GPGGA,012745.60,4304.16743681,N,14120.43213450,E,2,07,1.4,18.418,M,32.001,M,5.6,0137*79
[2021-01-08 10:27:47.833] $GPGGA,012745.70,4304.16743886,N,14120.43213409,E,2,07,1.4,18.417,M,32.001,M,5.6,0137*72
[2021-01-08 10:27:47.942] $GPGGA,012745.80,4304.16743785,N,14120.43213354,E,2,07,1.4,18.418,M,32.001,M,5.8,0137*7F
[2021-01-08 10:27:48.036] $GPGGA,012745.90,4304.16743902,N,14120.43213423,E,2,07,1.4,18.415,M,32.001,M,5.8,0137*75
[2021-01-08 10:27:48.145] $GPGGA,012746.00,4304.16744002,N,14120.43213387,E,2,07,1.4,18.411,M,32.001,M,6.0,0137*77
[2021-01-08 10:27:48.239] $GPGGA,012746.10,4304.16744033,N,14120.43213656,E,2,07,1.4,18.413,M,32.001,M,6.0,0137*7F
[2021-01-08 10:27:48.348] $GPGGA,012746.20,4304.16743963,N,14120.43213467,E,2,07,1.4,18.410,M,32.001,M,6.2,0137*76
[2021-01-08 10:27:48.442] $GPGGA,012746.30,4304.16744143,N,14120.43213691,E,2,07,1.4,18.407,M,32.001,M,6.2,0137*77
[2021-01-08 10:27:48.551] $GPGGA,012746.40,4304.16744165,N,14120.43213570,E,2,07,1.4,18.407,M,32.001,M,6.4,0137*7E
[2021-01-08 10:27:48.645] $GPGGA,012746.50,4304.16744160,N,14120.43213714,E,2,07,1.4,18.404,M,32.001,M,6.4,0137*79
[2021-01-08 10:27:48.754] $GPGGA,012746.60,4304.16744144,N,14120.43213610,E,2,07,1.4,18.399,M,32.001,M,6.6,0137*78
[2021-01-08 10:27:48.832] $GPGGA,012746.70,4304.16744055,N,14120.43213749,E,2,07,1.4,18.404,M,32.001,M,6.6,0137*76
[2021-01-08 10:27:48.942] $GPGGA,012746.80,4304.16744206,N,14120.43213702,E,2,07,1.4,18.398,M,32.001,M,6.8,0137*7E
[2021-01-08 10:27:49.036] $GPGGA,012746.90,4304.16744289,N,14120.43213775,E,2,07,1.4,18.397,M,32.001,M,6.8,0137*77
[2021-01-08 10:27:49.145] $GPGGA,012747.00,4304.16744155,N,14120.43213707,E,2,07,1.4,18.402,M,32.001,M,7.0,0137*7A
[2021-01-08 10:27:49.254] $GPGGA,012747.10,4304.16744099,N,14120.43213662,E,2,07,1.4,18.398,M,32.001,M,7.0,0137*7C
[2021-01-08 10:27:49.348] $GPGGA,012747.20,4304.16744220,N,14120.43213460,E,2,07,1.4,18.393,M,32.001,M,7.2,0137*76
