
[2021-01-08 10:23:52.196] $GNGGA,012326.70,,,,,0,00,99.99,,,,,,*7B
[2021-01-08 10:23:52.228] $GNGGA,012326.80,,,,,0,00,99.99,,,,,,*74
[2021-01-08 10:23:52.228] $GNGGA,012326.90,,,,,0,00,99.99,,,,,,*75
[2021-01-08 10:23:52.228] $GNGGA,012327.00,,,,,0,00,99.99,,,,,,*7D
[2021-01-08 10:23:52.228] $GNGGA,012327.10,,,,,0,00,99.99,,,,,,*7C
[2021-01-08 10:23:52.228] $GNGGA,012327.20,,,,,0,00,99.99,,,,,,*7F
[2021-01-08 10:23:52.228] $GNGGA,012327.30,,,,,0,00,99.99,,,,,,*7E
[2021-01-08 10:23:52.228] $GNGGA,012327.40,,,,,0,00,99.99,,,,,,*79
[2021-01-08 10:23:52.228] $GNGGA,012327.50,,,,,0,00,99.99,,,,,,*78
[2021-01-08 10:23:52.228] $GNGGA,012327.60,,,,,0,00,99.99,,,,,,*7B
[2021-01-08 10:23:52.228] $GNGGA,012327.70,,,,,0,00,99.99,,,,,,*7A
[2021-01-08 10:23:52.228] $GNGGA,012327.80,,,,,0,00,99.99,,,,,,*75
[2021-01-08 10:23:52.228] $GNGGA,012327.90,,,,,0,00,99.99,,,,,,*74
[2021-01-08 10:23:52.228] $GNGGA,012328.00,,,,,0,00,99.99,,,,,,*72
[2021-01-08 10:23:52.228] $GNGGA,012328.10,,,,,0,00,99.99,,,,,,*73
[2021-01-08 10:23:52.228] $GNGGA,012328.20,,,,,0,00,99.99,,,,,,*70
[2021-01-08 10:23:52.228] $GNGGA,012328.30,,,,,0,00,99.99,,,,,,*71
[2021-01-08 10:23:52.228] $GNGGA,012328.40,,,,,0,00,99.99,,,,,,*76
[2021-01-08 10:23:52.228] $GNGGA,012328.50,,,,,0,00,99.99,,,,,,*77
[2021-01-08 10:23:52.228] $GNGGA,012328.60,,,,,0,00,99.99,,,,,,*74
[2021-01-08 10:23:52.228] $GNGGA,012328.70,,,,,0,00,99.99,,,,,,*75
[2021-01-08 10:23:52.228] $GNGGA,012328.80,,,,,0,00,99.99,,,,,,*7A
[2021-01-08 10:23:52.228] $GNGGA,012328.90,,,,,0,00,99.99,,,,,,*7B
[2021-01-08 10:23:52.228] $GNGGA,012329.00,,,,,0,00,99.99,,,,,,*73
[2021-01-08 10:23:52.228] $GNGGA,012329.10,,,,,0,00,99.99,,,,,,*72
[2021-01-08 10:23:52.243] $GNGGA,012329.20,,,,,0,00,99.99,,,,,,*71
[2021-01-08 10:23:52.243] $GNGGA,012329.30,,,,,0,00,99.99,,,,,,*70
[2021-01-08 10:23:52.243] $GNGGA,012329.40,,,,,0,00,99.99,,,,,,*77
[2021-01-08 10:23:52.243] $GNGGA,012329.50,,,,,0,00,99.99,,,,,,*76
[2021-01-08 10:23:52.243] $GNGGA,012329.60,,,,,0,00,99.99,,,,,,*75
[2021-01-08 10:23:52.243] $GNGGA,012329.70,,,,,0,00,99.99,,,,,,*74
[2021-01-08 10:23:52.243] $GNGGA,012329.80,,,,,0,00,99.99,,,,,,*7B
[2021-01-08 10:23:52.243] $GNGGA,012329.90,,,,,0,00,99.99,,,,,,*7A
[2021-01-08 10:23:52.243] $GNGGA,012330.00,4304.168104000,N,14120.432400000,E,1,07,1.35,20.583,M,32.006,M,,*74
[2021-01-08 10:23:52.243] $GNGGA,012330.10,4304.168104000,N,14120.432394000,E,1,09,1.20,20.577,M,32.006,M,,*7E
[2021-01-08 10:23:52.243] $GNGGA,012330.20,4304.168104000,N,14120.432394000,E,1,09,1.20,20.577,M,32.006,M,,*7D
[2021-01-08 10:23:52.243] $GNGGA,012330.30,4304.168104000,N,14120.432394000,E,1,09,1.20,20.573,M,32.006,M,,*78
[2021-01-08 10:23:52.243] $GNGGA,012330.40,4304.168104000,N,14120.432394000,E,1,09,1.20,20.573,M,32.006,M,,*7F
[2021-01-08 10:23:52.243] $GNGGA,012330.50,4304.168110000,N,14120.432388000,E,1,09,1.20,20.570,M,32.006,M,,*75
[2021-01-08 10:23:52.243] $GNGGA,012330.60,4304.168110000,N,14120.432388000,E,1,09,1.20,20.569,M,32.006,M,,*7E
[2021-01-08 10:23:52.243] $GNGGA,012330.70,4304.168110000,N,14120.432388000,E,1,09,1.20,20.574,M,32.006,M,,*73
[2021-01-08 10:23:52.259] $GNGGA,012330.80,4304.168110000,N,14120.432382000,E,1,09,1.20,20.579,M,32.006,M,,*7B
[2021-01-08 10:23:52.259] $GNGGA,012330.90,4304.168110000,N,14120.432382000,E,1,09,1.20,20.582,M,32.006,M,,*7E
[2021-01-08 10:23:52.259] $GNGGA,012331.00,4304.168116000,N,14120.432382000,E,1,09,1.20,20.583,M,32.006,M,,*71
[2021-01-08 10:23:52.259] $GNGGA,012331.10,4304.168116000,N,14120.432382000,E,1,09,1.20,20.584,M,32.006,M,,*77
[2021-01-08 10:23:52.259] $GNGGA,012331.20,4304.168116000,N,14120.432382000,E,1,09,1.20,20.587,M,32.006,M,,*77
[2021-01-08 10:23:52.259] $GNGGA,012331.30,4304.168116000,N,14120.432376000,E,1,09,1.20,20.591,M,32.006,M,,*7A
[2021-01-08 10:23:52.259] $GNGGA,012331.40,4304.168116000,N,14120.432376000,E,1,09,1.20,20.591,M,32.006,M,,*7D
[2021-01-08 10:23:52.259] $GNGGA,012331.50,4304.168122000,N,14120.432376000,E,1,09,1.20,20.594,M,32.006,M,,*7E
[2021-01-08 10:23:52.259] $GNGGA,012331.60,4304.168122000,N,14120.432376000,E,1,09,1.20,20.600,M,32.006,M,,*73
[2021-01-08 10:23:52.259] $GNGGA,012331.70,4304.168122000,N,14120.432370000,E,1,09,1.20,20.599,M,32.006,M,,*77
[2021-01-08 10:23:52.259] $GNGGA,012331.80,4304.168122000,N,14120.432370000,E,1,09,1.20,20.603,M,32.006,M,,*78
[2021-01-08 10:23:52.259] $GNGGA,012331.90,4304.168122000,N,14120.432370000,E,1,09,1.20,20.601,M,32.006,M,,*7B
[2021-01-08 10:23:52.290] $GNGGA,012332.00,4304.168122000,N,14120.432370000,E,1,09,1.20,20.605,M,32.006,M,,*75
[2021-01-08 10:23:52.290] $GNGGA,012332.10,4304.168128000,N,14120.432370000,E,1,09,1.20,20.601,M,32.006,M,,*7A
[2021-01-08 10:23:52.290] $GNGGA,012332.20,4304.168128000,N,14120.432370000,E,1,09,1.20,20.606,M,32.006,M,,*7E
[2021-01-08 10:23:52.290] $GNGGA,012332.30,4304.168128000,N,14120.432364000,E,1,09,1.20,20.613,M,32.006,M,,*7E
[2021-01-08 10:23:52.290] $GNGGA,012332.40,4304.168128000,N,14120.432364000,E,1,09,1.20,20.614,M,32.006,M,,*7E
[2021-01-08 10:23:52.290] $GNGGA,012332.50,4304.168128000,N,14120.432364000,E,1,09,1.20,20.619,M,32.006,M,,*72
[2021-01-08 10:23:52.290] $GNGGA,012332.60,4304.168134000,N,14120.432364000,E,1,09,1.20,20.623,M,32.006,M,,*75
[2021-01-08 10:23:52.290] $GNGGA,012332.70,4304.168134000,N,14120.432364000,E,1,09,1.20,20.625,M,32.006,M,,*72
[2021-01-08 10:23:52.290] $GNGGA,012332.80,4304.168134000,N,14120.432364000,E,1,09,1.20,20.634,M,32.006,M,,*7D
[2021-01-08 10:23:52.290] $GNGGA,012332.90,4304.168134000,N,14120.432358000,E,1,09,1.20,20.634,M,32.006,M,,*73
[2021-01-08 10:23:52.290] $GNGGA,012333.00,4304.168134000,N,14120.432358000,E,1,09,1.20,20.640,M,32.006,M,,*78
[2021-01-08 10:23:52.290] $GNGGA,012333.10,4304.168140000,N,14120.432358000,E,1,09,1.20,20.643,M,32.006,M,,*79
[2021-01-08 10:23:52.306] $GNGGA,012333.20,4304.168140000,N,14120.432358000,E,1,09,1.20,20.649,M,32.006,M,,*70
[2021-01-08 10:23:52.306] $GNGGA,012333.30,4304.168140000,N,14120.432358000,E,1,09,1.20,20.652,M,32.006,M,,*7B
[2021-01-08 10:23:52.306] $GNGGA,012333.40,4304.168140000,N,14120.432352000,E,1,09,1.20,20.655,M,32.006,M,,*71
[2021-01-08 10:23:52.306] $GNGGA,012333.50,4304.168140000,N,14120.432352000,E,1,09,1.20,20.656,M,32.006,M,,*73
[2021-01-08 10:23:52.306] $GNGGA,012333.60,4304.168140000,N,14120.432352000,E,1,09,1.20,20.665,M,32.006,M,,*70
[2021-01-08 10:23:52.306] $GNGGA,012333.70,4304.168140000,N,14120.432352000,E,1,09,1.20,20.668,M,32.006,M,,*7C
[2021-01-08 10:23:52.306] $GNGGA,012333.80,4304.168140000,N,14120.432346000,E,1,09,1.20,20.673,M,32.006,M,,*7C
[2021-01-08 10:23:52.306] $GNGGA,012333.90,4304.168140000,N,14120.432346000,E,1,09,1.20,20.679,M,32.006,M,,*77
[2021-01-08 10:23:52.306] $GNGGA,012334.00,4304.168140000,N,14120.432346000,E,1,09,1.20,20.682,M,32.006,M,,*7D
[2021-01-08 10:23:52.306] $GNGGA,012334.10,4304.168140000,N,14120.432346000,E,1,09,1.20,20.686,M,32.006,M,,*78
[2021-01-08 10:23:52.306] $GNGGA,012334.20,4304.168140000,N,14120.432346000,E,1,09,1.20,20.694,M,32.006,M,,*78
[2021-01-08 10:23:52.337] $GNGGA,012334.30,4304.168140000,N,14120.432346000,E,1,09,1.20,20.698,M,32.006,M,,*75
[2021-01-08 10:23:52.337] $GNGGA,012334.40,4304.168146000,N,14120.432340000,E,1,09,1.20,20.701,M,32.006,M,,*73
[2021-01-08 10:23:52.337] $GNGGA,012334.50,4304.168146000,N,14120.432340000,E,1,09,1.20,20.707,M,32.006,M,,*74
[2021-01-08 10:23:52.337] $GNGGA,012334.60,4304.168146000,N,14120.432340000,E,1,09,1.20,20.711,M,32.006,M,,*70
[2021-01-08 10:23:52.337] $GNGGA,012334.70,4304.168146000,N,14120.432340000,E,1,09,1.20,20.717,M,32.006,M,,*77
[2021-01-08 10:23:52.337] $GNGGA,012334.80,4304.168146000,N,14120.432340000,E,1,09,1.20,20.720,M,32.006,M,,*7C
[2021-01-08 10:23:52.337] $GNGGA,012334.90,4304.168146000,N,14120.432340000,E,1,09,1.20,20.724,M,32.006,M,,*79
[2021-01-08 10:23:52.337] $GNGGA,012335.00,4304.168146000,N,14120.432340000,E,1,09,1.20,20.731,M,32.006,M,,*75
[2021-01-08 10:23:52.337] $GNGGA,012335.10,4304.168146000,N,14120.432334000,E,1,09,1.20,20.737,M,32.006,M,,*71
[2021-01-08 10:23:52.337] $GNGGA,012335.20,4304.168152000,N,14120.432334000,E,1,09,1.20,20.738,M,32.006,M,,*78
[2021-01-08 10:23:52.337] $GNGGA,012335.30,4304.168152000,N,14120.432334000,E,1,09,1.20,20.741,M,32.006,M,,*77
[2021-01-08 10:23:52.337] $GNGGA,012335.40,4304.168152000,N,14120.432334000,E,1,09,1.20,20.749,M,32.006,M,,*78
[2021-01-08 10:23:52.353] $GNGGA,012335.50,4304.168152000,N,14120.432334000,E,1,09,1.20,20.753,M,32.006,M,,*72
[2021-01-08 10:23:52.353] $GNGGA,012335.60,4304.168152000,N,14120.432328000,E,1,09,1.20,20.757,M,32.006,M,,*78
[2021-01-08 10:23:52.353] $GNGGA,012335.70,4304.168152000,N,14120.432328000,E,1,09,1.20,20.755,M,32.006,M,,*7B
[2021-01-08 10:23:52.353] $GNGGA,012335.80,4304.168152000,N,14120.432328000,E,1,09,1.20,20.765,M,32.006,M,,*77
[2021-01-08 10:23:52.353] $GNGGA,012335.90,4304.168152000,N,14120.432328000,E,1,09,1.20,20.766,M,32.006,M,,*75
[2021-01-08 10:23:52.353] $GNGGA,012336.00,4304.168152000,N,14120.432328000,E,1,09,1.20,20.770,M,32.006,M,,*78
[2021-01-08 10:23:52.353] $GNGGA,012336.10,4304.168152000,N,14120.432328000,E,1,09,1.20,20.763,M,32.006,M,,*7B
[2021-01-08 10:23:52.353] $GNGGA,012336.20,4304.168152000,N,14120.432328000,E,1,09,1.20,20.756,M,32.006,M,,*7E
[2021-01-08 10:23:52.353] $GNGGA,012336.30,4304.168152000,N,14120.432322000,E,1,09,1.20,20.750,M,32.006,M,,*73
[2021-01-08 10:23:52.353] $GNGGA,012336.40,4304.168152000,N,14120.432322000,E,1,09,1.20,20.748,M,32.006,M,,*7D
[2021-01-08 10:23:52.353] $GNGGA,012336.50,4304.168152000,N,14120.432322000,E,1,09,1.20,20.738,M,32.006,M,,*7B
[2021-01-08 10:23:52.353] $GNGGA,012336.60,4304.168152000,N,14120.432322000,E,1,09,1.20,20.730,M,32.006,M,,*70
[2021-01-08 10:23:52.368] $GNGGA,012336.70,4304.168152000,N,14120.432322000,E,1,09,1.20,20.724,M,32.006,M,,*74
[2021-01-08 10:23:52.368] $GNGGA,012336.80,4304.168152000,N,14120.432322000,E,1,09,1.20,20.714,M,32.006,M,,*78
[2021-01-08 10:23:52.368] $GNGGA,012336.90,4304.168152000,N,14120.432322000,E,1,09,1.20,20.710,M,32.006,M,,*7D
[2021-01-08 10:23:52.368] $GNGGA,012337.00,4304.168152000,N,14120.432322000,E,1,09,1.20,20.703,M,32.006,M,,*77
[2021-01-08 10:23:52.368] $GNGGA,012337.10,4304.168152000,N,14120.432322000,E,1,09,1.20,20.693,M,32.006,M,,*7E
[2021-01-08 10:23:52.368] $GNGGA,012337.20,4304.168152000,N,14120.432322000,E,1,09,1.20,20.691,M,32.006,M,,*7F
[2021-01-08 10:23:52.368] $GNGGA,012337.30,4304.168152000,N,14120.432322000,E,1,09,1.20,20.682,M,32.006,M,,*7C
[2021-01-08 10:23:52.368] $GNGGA,012337.40,4304.168146000,N,14120.432322000,E,1,09,1.20,20.674,M,32.006,M,,*77
[2021-01-08 10:23:52.368] $GNGGA,012337.50,4304.168146000,N,14120.432316000,E,1,09,1.20,20.668,M,32.006,M,,*7C
[2021-01-08 10:23:52.368] $GNGGA,012337.60,4304.168152000,N,14120.432322000,E,1,09,1.20,20.663,M,32.006,M,,*76
[2021-01-08 10:23:52.368] $GNGGA,012337.70,4304.168152000,N,14120.432316000,E,1,09,1.20,20.654,M,32.006,M,,*74
[2021-01-08 10:23:52.368] $GNGGA,012337.80,4304.168146000,N,14120.432316000,E,1,09,1.20,20.648,M,32.006,M,,*73
[2021-01-08 10:23:52.368] $GNGGA,012337.9$GNGGA,012349.90,4304.168134000,N,14120.432322000,E,1,10,1.16,20.138,M,32.006,M,,*74
[2021-01-08 10:23:52.368] $GNGGA,012350.00,4304.168134000,N,14120.432322000,E,1,10,1.16,20.136,M,32.006,M,,*7B
[2021-01-08 10:23:52.431] $GNGGA,012350.10,4304.168134000,N,14120.432322000,E,1,10,1.16,20.134,M,32.006,M,,*78
[2021-01-08 10:23:52.509] $GNGGA,012350.20,4304.168134000,N,14120.432322000,E,1,10,1.16,20.132,M,32.006,M,,*7D
[2021-01-08 10:23:52.618] $GNGGA,012350.30,4304.168134000,N,14120.432322000,E,1,10,1.16,20.128,M,32.006,M,,*77
[2021-01-08 10:23:52.728] $GNGGA,012350.40,4304.168134000,N,14120.432322000,E,1,10,1.16,20.129,M,32.006,M,,*71
[2021-01-08 10:23:52.821] $GNGGA,012350.50,4304.168134000,N,14120.432322000,E,1,10,1.16,20.122,M,32.006,M,,*7B
[2021-01-08 10:23:52.931] $GNGGA,012350.60,4304.168134000,N,14120.432322000,E,1,10,1.16,20.121,M,32.006,M,,*7B
[2021-01-08 10:23:53.025] $GNGGA,012350.70,4304.168134000,N,14120.432322000,E,1,10,1.16,20.121,M,32.006,M,,*7A
[2021-01-08 10:23:53.118] $GNGGA,012350.80,4304.168134000,N,14120.432322000,E,1,10,1.16,20.117,M,32.006,M,,*70
[2021-01-08 10:23:53.228] $GNGGA,012350.90,4304.168134000,N,14120.432316000,E,1,10,1.16,20.117,M,32.006,M,,*76
[2021-01-08 10:23:53.321] $GNGGA,012351.00,4304.168128000,N,14120.432322000,E,1,10,1.16,20.114,M,32.006,M,,*77
[2021-01-08 10:23:53.415] $GNGGA,012351.10,4304.168128000,N,14120.432316000,E,1,10,1.16,20.111,M,32.006,M,,*74
[2021-01-08 10:23:53.525] $GNGGA,012351.20,4304.168128000,N,14120.432316000,E,1,10,1.16,20.109,M,32.006,M,,*7E
[2021-01-08 10:23:53.618] $GNGGA,012351.30,4304.168128000,N,14120.432316000,E,1,10,1.16,20.108,M,32.006,M,,*7E
[2021-01-08 10:23:53.712] $GNGGA,012351.40,4304.168128000,N,14120.432322000,E,1,10,1.16,20.108,M,32.006,M,,*7E
[2021-01-08 10:23:53.821] $GNGGA,012351.50,4304.168128000,N,14120.432316000,E,1,10,1.16,20.101,M,32.006,M,,*71
[2021-01-08 10:23:53.931] $GNGGA,012351.60,4304.168128000,N,14120.432316000,E,1,10,1.16,20.106,M,32.006,M,,*75
[2021-01-08 10:23:54.024] $GNGGA,012351.70,4304.168128000,N,14120.432316000,E,1,10,1.16,20.100,M,32.006,M,,*72
[2021-01-08 10:23:54.134] $GNGGA,012351.80,4304.168128000,N,14120.432316000,E,1,10,1.16,20.098,M,32.006,M,,*7D
[2021-01-08 10:23:54.228] $GNGGA,012351.90,4304.168122000,N,14120.432316000,E,1,10,1.16,20.095,M,32.006,M,,*7B
[2021-01-08 10:23:54.321] $GNGGA,012352.00,4304.168122000,N,14120.432316000,E,1,10,1.16,20.099,M,32.006,M,,*7D
[2021-01-08 10:23:54.431] $GNGGA,012352.10,4304.168122000,N,14120.432316000,E,1,10,1.16,20.098,M,32.006,M,,*7D
[2021-01-08 10:23:54.524] $GNGGA,012352.20,4304.168122000,N,14120.432316000,E,1,10,1.16,20.093,M,32.006,M,,*75
[2021-01-08 10:23:54.634] $GNGGA,012352.30,4304.168122000,N,14120.432316000,E,1,10,1.16,20.095,M,32.006,M,,*72
[2021-01-08 10:23:54.712] $GNGGA,012352.40,4304.168122000,N,14120.432316000,E,1,10,1.16,20.094,M,32.006,M,,*74
[2021-01-08 10:23:54.806] $GNGGA,012352.50,4304.168122000,N,14120.432316000,E,1,10,1.16,20.092,M,32.006,M,,*73
[2021-01-08 10:23:54.915] $GNGGA,012352.60,4304.168122000,N,14120.432316000,E,1,10,1.16,20.090,M,32.006,M,,*72
[2021-01-08 10:23:55.024] $GNGGA,012352.70,4304.168122000,N,14120.432316000,E,1,10,1.16,20.089,M,32.006,M,,*7B
[2021-01-08 10:23:55.118] $GNGGA,012352.80,4304.168122000,N,14120.432316000,E,1,10,1.16,20.088,M,32.006,M,,*75
[2021-01-08 10:23:55.212] $GNGGA,012352.90,4304.168122000,N,14120.432316000,E,1,10,1.16,20.086,M,32.006,M,,*7A
[2021-01-08 10:23:55.306] $GNGGA,012353.00,4304.168116000,N,14120.432316000,E,1,10,1.16,20.084,M,32.006,M,,*77
[2021-01-08 10:23:55.415] $GNGGA,012353.10,4304.168116000,N,14120.432316000,E,1,10,1.16,20.081,M,32.006,M,,*73
[2021-01-08 10:23:55.509] $GNGGA,012353.20,4304.168116000,N,14120.432316000,E,1,10,1.16,20.077,M,32.006,M,,*79
[2021-01-08 10:23:55.618] $GNGGA,012353.30,4304.168116000,N,14120.432310000,E,1,10,1.16,20.070,M,32.006,M,,*79
[2021-01-08 10:23:55.712] $GNGGA,012353.40,4304.168116000,N,14120.432310000,E,1,10,1.16,20.070,M,32.006,M,,*7E
[2021-01-08 10:23:56.649] $GNGGA,012353.50,4304.168110000,N,14120.432310000,E,1,10,1.16,20.065,M,32.006,M,,*7D
[2021-01-08 10:23:56.649] $GNGGA,012353.60,4304.168110000,N,14120.432310000,E,1,10,1.16,20.060,M,32.006,M,,*7B
[2021-01-08 10:23:56.649] $GNGGA,012353.70,4304.168110000,N,14120.432310000,E,1,10,1.16,20.060,M,32.006,M,,*7A
[2021-01-08 10:23:56.649] $GNGGA,012353.80,4304.168110000,N,14120.432304000,E,1,10,1.16,20.051,M,32.006,M,,*72
[2021-01-08 10:23:56.649] $GNGGA,012353.90,4304.168104000,N,14120.432304000,E,1,10,1.16,20.047,M,32.006,M,,*71
[2021-01-08 10:23:56.649] $GNGGA,012354.00,4304.168104000,N,14120.432304000,E,1,10,1.16,20.044,M,32.006,M,,*7C
[2021-01-08 10:23:56.649] $GNGGA,012354.10,4304.168104000,N,14120.432304000,E,1,10,1.16,20.036,M,32.006,M,,*78
[2021-01-08 10:23:56.649] $GNGGA,012354.20,4304.168104000,N,14120.432304000,E,1,10,1.16,20.028,M,32.006,M,,*74
[2021-01-08 10:23:56.649] $GNGGA,012354.30,4304.168098000,N,14120.432304000,E,1,10,1.16,20.025,M,32.006,M,,*7C
[2021-01-08 10:23:56.712] $GNGGA,012354.40,4304.168098000,N,14120.432304000,E,1,10,1.16,20.018,M,32.006,M,,*75
[2021-01-08 10:23:56.806] $GNGGA,012354.50,4304.168098000,N,14120.432298000,E,1,10,1.16,20.011,M,32.006,M,,*79
[2021-01-08 10:23:56.915] $GNGGA,012354.60,4304.168092000,N,14120.432298000,E,1,10,1.16,20.007,M,32.006,M,,*77
[2021-01-08 10:23:57.009] $GNGGA,012354.70,4304.168092000,N,14120.432298000,E,1,10,1.16,20.000,M,32.006,M,,*71
[2021-01-08 10:23:57.118] $GNGGA,012354.80,4304.168092000,N,14120.432298000,E,1,10,1.16,19.992,M,32.006,M,,*76
[2021-01-08 10:23:57.212] $GNGGA,012354.90,4304.168086000,N,14120.432298000,E,1,10,1.16,19.985,M,32.006,M,,*74
[2021-01-08 10:23:57.321] $GNGGA,012355.00,4304.168086000,N,14120.432298000,E,1,10,1.16,19.985,M,32.006,M,,*7C
[2021-01-08 10:23:57.415] $GNGGA,012355.10,4304.168086000,N,14120.432298000,E,1,10,1.16,19.975,M,32.006,M,,*72
[2021-01-08 10:23:57.509] $GNGGA,012355.20,4304.168086000,N,14120.432298000,E,1,10,1.16,19.970,M,32.006,M,,*74
[2021-01-08 10:23:57.618] $GNGGA,012355.30,4304.168080000,N,14120.432298000,E,1,10,1.16,19.966,M,32.006,M,,*74
[2021-01-08 10:23:57.712] $GNGGA,012355.40,4304.168080000,N,14120.432298000,E,1,10,1.16,19.956,M,32.006,M,,*70
[2021-01-08 10:23:57.805] $GNGGA,012355.50,4304.168080000,N,14120.432292000,E,1,10,1.16,19.956,M,32.006,M,,*7B
[2021-01-08 10:23:57.915] $GNGGA,012355.60,4304.168080000,N,14120.432292000,E,1,10,1.16,19.947,M,32.006,M,,*78
[2021-01-08 10:23:58.009] $GNGGA,012355.70,4304.168074000,N,14120.432292000,E,1,10,1.16,19.943,M,32.006,M,,*76
[2021-01-08 10:23:58.118] $GNGGA,012355.80,4304.168074000,N,14120.432292000,E,1,10,1.16,19.940,M,32.006,M,,*7A
[2021-01-08 10:23:58.212] $GNGGA,012355.90,4304.168074000,N,14120.432292000,E,1,10,1.16,19.933,M,32.006,M,,*7F
[2021-01-08 10:23:58.305] $GNGGA,012356.00,4304.168068000,N,14120.432292000,E,1,10,1.16,19.928,M,32.006,M,,*72
[2021-01-08 10:23:58.415] $GNGGA,012356.10,4304.168068000,N,14120.432292000,E,1,10,1.16,19.921,M,32.006,M,,*7A
[2021-01-08 10:23:58.509] $GNGGA,012356.20,4304.168068000,N,14120.432292000,E,1,10,1.16,19.916,M,32.006,M,,*7D
[2021-01-08 10:23:58.618] $GNGGA,012356.30,4304.168068000,N,14120.432292000,E,1,10,1.16,19.912,M,32.006,M,,*78
[2021-01-08 10:23:58.712] $GNGGA,012356.40,4304.168068000,N,14120.432292000,E,1,10,1.16,19.905,M,32.006,M,,*79
[2021-01-08 10:23:58.821] $GNGGA,012356.50,4304.168062000,N,14120.432292000,E,1,10,1.16,19.900,M,32.006,M,,*77
[2021-01-08 10:23:58.915] $GNGGA,012356.60,4304.168062000,N,14120.432292000,E,1,10,1.16,19.895,M,32.006,M,,*79
[2021-01-08 10:23:59.008] $GNGGA,012356.70,4304.168062000,N,14120.432292000,E,1,10,1.16,19.891,M,32.006,M,,*7C
[2021-01-08 10:23:59.118] $GNGGA,012356.80,4304.168062000,N,14120.432292000,E,1,10,1.16,19.887,M,32.006,M,,*74
[2021-01-08 10:23:59.212] $GNGGA,012356.90,4304.168056000,N,14120.432286000,E,1,10,1.16,19.881,M,32.006,M,,*71
[2021-01-08 10:23:59.305] $GNGGA,012357.00,4304.168056000,N,14120.432286000,E,1,10,1.16,19.873,M,32.006,M,,*74
[2021-01-08 10:23:59.415] $GNGGA,012357.10,4304.168056000,N,14120.432286000,E,1,10,1.16,19.869,M,32.006,M,,*7E
[2021-01-08 10:23:59.524] $GNGGA,012357.20,4304.168056000,N,14120.432286000,E,1,10,1.16,19.867,M,32.006,M,,*73
[2021-01-08 10:23:59.618] $GNGGA,012357.30,4304.168056000,N,14120.432286000,E,1,10,1.16,19.861,M,32.006,M,,*74
[2021-01-08 10:23:59.712] $GNGGA,012357.40,4304.168056000,N,14120.432286000,E,1,10,1.16,19.855,M,32.006,M,,*74
[2021-01-08 10:24:01.368] $GNGGA,012357.50,4304.168050000,N,14120.432280000,E,1,10,1.16,19.851,M,32.006,M,,*71
[2021-01-08 10:24:01.383] $GNGGA,012357.60,4304.168050000,N,14120.432286000,E,1,10,1.16,19.845,M,32.006,M,,*71
[2021-01-08 10:24:01.383] $GNGGA,012357.70,4304.168050000,N,14120.432286000,E,1,10,1.16,19.840,M,32.006,M,,*75
[2021-01-08 10:24:01.383] $GNGGA,012357.80,4304.168050000,N,14120.432280000,E,1,10,1.16,19.838,M,32.006,M,,*73
[2021-01-08 10:24:01.383] $GNGGA,012357.90,4304.168050000,N,14120.432280000,E,1,10,1.16,19.829,M,32.006,M,,*72
[2021-01-08 10:24:01.383] $GNGGA,012358.00,4304.168050000,N,14120.432280000,E,1,10,1.16,19.822,M,32.006,M,,*7F
[2021-01-08 10:24:01.383] $GNGGA,012358.10,4304.168044000,N,14120.432280000,E,1,10,1.16,19.819,M,32.006,M,,*73
[2021-01-08 10:24:01.383] $GNGGA,012358.20,4304.168044000,N,14120.432280000,E,1,10,1.16,19.814,M,32.006,M,,*7D
[2021-01-08 10:24:01.383] $GNGGA,012358.30,4304.168044000,N,14120.432280000,E,1,10,1.16,19.810,M,32.006,M,,*78
[2021-01-08 10:24:01.383] $GNGGA,012358.40,4304.168044000,N,14120.432280000,E,1,10,1.16,19.801,M,32.006,M,,*7F
[2021-01-08 10:24:01.383] $GNGGA,012358.50,4304.168044000,N,14120.432280000,E,1,10,1.16,19.800,M,32.006,M,,*7F
[2021-01-08 10:24:01.383] $GNGGA,012358.60,4304.168038000,N,14120.432280000,E,1,10,1.16,19.795,M,32.006,M,,*74
[2021-01-08 10:24:01.383] $GNGGA,012358.70,4304.168038000,N,14120.432280000,E,1,10,1.16,19.789,M,32.006,M,,*78
[2021-01-08 10:24:01.383] $GNGGA,012358.80,4304.168038000,N,14120.432280000,E,1,10,1.16,19.788,M,32.006,M,,*76
[2021-01-08 10:24:01.383] $GNGGA,012358.90,4304.168038000,N,14120.432274000,E,1,10,1.16,19.778,M,32.006,M,,*73
[2021-01-08 10:24:01.383] $GNGGA,012359.00,4304.168038000,N,14120.432274000,E,1,10,1.16,19.776,M,32.006,M,,*75
[2021-01-08 10:24:01.415] $GNGGA,012359.10,4304.168038000,N,14120.432274000,E,1,10,1.16,19.770,M,32.006,M,,*72
[2021-01-08 10:24:01.508] $GNGGA,012359.20,4304.168038000,N,14120.432274000,E,1,10,1.16,19.768,M,32.006,M,,*78
[2021-01-08 10:24:01.618] $GNGGA,012359.30,4304.168032000,N,14120.432274000,E,1,10,1.16,19.762,M,32.006,M,,*79
[2021-01-08 10:24:01.711] $GNGGA,012359.40,4304.168032000,N,14120.432274000,E,1,10,1.16,19.759,M,32.006,M,,*76
[2021-01-08 10:24:01.805] $GNGGA,012359.50,4304.168032000,N,14120.432274000,E,1,10,1.16,19.749,M,32.006,M,,*76
[2021-01-08 10:24:01.915] $GNGGA,012359.60,4304.168032000,N,14120.432274000,E,1,10,1.16,19.749,M,32.006,M,,*75
[2021-01-08 10:24:02.008] $GNGGA,012359.70,4304.168032000,N,14120.432274000,E,1,10,1.16,19.743,M,32.006,M,,*7E
[2021-01-08 10:24:02.118] $GNGGA,012359.80,4304.168032000,N,14120.432274000,E,1,10,1.16,19.737,M,32.006,M,,*72
[2021-01-08 10:24:02.211] $GNGGA,012359.90,4304.168032000,N,14120.432274000,E,1,10,1.16,19.732,M,32.006,M,,*76
[2021-01-08 10:24:02.305] $GNGGA,012400.00,4304.168026000,N,14120.432274000,E,1,10,1.16,19.727,M,32.006,M,,*75
[2021-01-08 10:24:02.415] $GNGGA,012400.10,4304.168026000,N,14120.432274000,E,1,10,1.05,19.721,M,32.006,M,,*70
[2021-01-08 10:24:02.508] $GNGGA,012400.20,4304.168026000,N,14120.432268000,E,1,10,1.05,19.714,M,32.006,M,,*78
[2021-01-08 10:24:02.618] $GNGGA,012400.30,4304.168026000,N,14120.432268000,E,1,10,1.05,19.712,M,32.006,M,,*7F
[2021-01-08 10:24:02.711] $GNGGA,012400.40,4304.168026000,N,14120.432268000,E,1,10,1.05,19.705,M,32.006,M,,*7E
[2021-01-08 10:24:02.805] $GNGGA,012400.50,4304.168026000,N,14120.432268000,E,1,10,1.05,19.701,M,32.006,M,,*7B
[2021-01-08 10:24:02.914] $GNGGA,012400.60,4304.168026000,N,14120.432268000,E,1,10,1.05,19.693,M,32.006,M,,*72
[2021-01-08 10:24:03.008] $GNGGA,012400.70,4304.168020000,N,14120.432268000,E,1,10,1.05,19.691,M,32.006,M,,*77
[2021-01-08 10:24:03.118] $GNGGA,012400.80,4304.168020000,N,14120.432268000,E,1,10,1.05,19.685,M,32.006,M,,*7D
[2021-01-08 10:24:03.211] $GNGGA,012400.90,4304.168020000,N,14120.432268000,E,1,10,1.05,19.679,M,32.006,M,,*7F
[2021-01-08 10:24:03.305] $GNGGA,012401.00,4304.168020000,N,14120.432268000,E,1,10,1.05,19.677,M,32.006,M,,*79
[2021-01-08 10:24:03.414] $GNGGA,012401.10,4304.168020000,N,14120.432268000,E,1,10,1.05,19.667,M,32.006,M,,*79
[2021-01-08 10:24:03.508] $GNGGA,012401.20,4304.168020000,N,14120.432268000,E,1,10,1.05,19.663,M,32.006,M,,*7E
[2021-01-08 10:24:03.618] $GNGGA,012401.30,4304.168020000,N,14120.432268000,E,1,10,1.05,19.661,M,32.006,M,,*7D
[2021-01-08 10:24:03.711] $GNGGA,012401.40,4304.168020000,N,14120.432268000,E,1,10,1.05,19.652,M,32.006,M,,*7A
[2021-01-08 10:24:03.805] $GNGGA,012401.50,4304.168014000,N,14120.432262000,E,1,10,1.05,19.649,M,32.006,M,,*7C
[2021-01-08 10:24:03.914] $GNGGA,012401.60,4304.168014000,N,14120.432262000,E,1,10,1.05,19.645,M,32.006,M,,*73
[2021-01-08 10:24:04.008] $GNGGA,012401.70,4304.168014000,N,14120.432262000,E,1,10,1.05,19.637,M,32.006,M,,*77
[2021-01-08 10:24:04.118] $GNGGA,012401.80,4304.168014000,N,14120.432262000,E,1,10,1.05,19.634,M,32.006,M,,*7B
[2021-01-08 10:24:04.211] $GNGGA,012401.90,4304.168014000,N,14120.432262000,E,1,10,1.05,19.632,M,32.006,M,,*7C
[2021-01-08 10:24:04.305] $GNGGA,012402.00,4304.168014000,N,14120.432262000,E,1,10,1.05,19.624,M,32.006,M,,*71
[2021-01-08 10:24:04.414] $GNGGA,012402.10,4304.168014000,N,14120.432262000,E,1,10,1.05,19.619,M,32.006,M,,*7E
[2021-01-08 10:24:04.508] $GNGGA,012402.20,4304.168014000,N,14120.432262000,E,1,10,1.05,19.617,M,32.006,M,,*73
[2021-01-08 10:24:04.617] $GNGGA,012402.30,4304.168008000,N,14120.432262000,E,1,10,1.05,19.615,M,32.006,M,,*7D
[2021-01-08 10:24:04.711] $GNGGA,012402.40,4304.168008000,N,14120.432262000,E,1,10,1.05,19.607,M,32.006,M,,*79
[2021-01-08 10:24:04.805] $GNGGA,012402.50,4304.168008000,N,14120.432262000,E,1,10,1.05,19.602,M,32.006,M,,*7D
[2021-01-08 10:24:04.914] $GNGGA,012402.60,4304.168008000,N,14120.432256000,E,1,10,1.05,19.600,M,32.006,M,,*7B
[2021-01-08 10:24:05.008] $GNGGA,012402.70,4304.168008000,N,14120.432256000,E,1,10,1.05,19.595,M,32.006,M,,*75
[2021-01-08 10:24:05.117] $GNGGA,012402.80,4304.168008000,N,14120.432256000,E,1,10,1.05,19.592,M,32.006,M,,*7D
[2021-01-08 10:24:05.211] $GNGGA,012402.90,4304.168008000,N,14120.432256000,E,1,10,1.05,19.586,M,32.006,M,,*79
[2021-01-08 10:24:05.305] $GNGGA,012403.00,4304.168008000,N,14120.432256000,E,1,10,1.05,19.582,M,32.006,M,,*75
[2021-01-08 10:24:05.414] $GNGGA,012403.10,4304.168008000,N,14120.432256000,E,1,10,1.05,19.576,M,32.006,M,,*7F
[2021-01-08 10:24:05.508] $GNGGA,012403.20,4304.168008000,N,14120.432256000,E,1,10,1.05,19.573,M,32.006,M,,*79
[2021-01-08 10:24:05.617] $GNGGA,012403.30,4304.168008000,N,14120.432256000,E,1,09,1.05,19.566,M,32.006,M,,*74
[2021-01-08 10:24:05.711] $GNGGA,012403.40,4304.168002000,N,14120.432256000,E,1,09,1.05,19.562,M,32.006,M,,*7D
[2021-01-08 10:24:05.805] $GNGGA,012403.50,4304.168008000,N,14120.432256000,E,1,09,1.05,19.556,M,32.006,M,,*71
[2021-01-08 10:24:05.914] $GNGGA,012403.60,4304.168002000,N,14120.432256000,E,1,09,1.05,19.552,M,32.006,M,,*7C
[2021-01-08 10:24:06.008] $GNGGA,012403.70,4304.168002000,N,14120.432256000,E,1,09,1.05,19.545,M,32.006,M,,*7B
[2021-01-08 10:24:06.117] $GNGGA,012403.80,4304.168002000,N,14120.432256000,E,1,09,1.05,19.538,M,32.006,M,,*7E
[2021-01-08 10:24:06.211] $GNGGA,012403.90,4304.168002000,N,14120.432250000,E,1,09,1.05,19.538,M,32.006,M,,*79
[2021-01-08 10:24:06.305] $GNGGA,012404.00,4304.168002000,N,14120.432250000,E,1,09,1.05,19.526,M,32.006,M,,*78
[2021-01-08 10:24:06.414] $GNGGA,012404.10,4304.168002000,N,14120.432250000,E,1,09,1.05,19.526,M,32.006,M,,*79
[2021-01-08 10:24:06.508] $GNGGA,012404.20,4304.167996000,N,14120.432250000,E,1,09,1.05,19.516,M,32.006,M,,*72
[2021-01-08 10:24:06.617] $GNGGA,012404.30,4304.167996000,N,14120.432250000,E,1,09,1.05,19.514,M,32.006,M,,*71
[2021-01-08 10:24:06.711] $GNGGA,012404.40,4304.167996000,N,14120.432250000,E,1,09,1.05,19.503,M,32.006,M,,*70
[2021-01-08 10:24:06.805] $GNGGA,012404.50,4304.167996000,N,14120.432250000,E,1,09,1.05,19.498,M,32.006,M,,*72
[2021-01-08 10:24:06.914] $GNGGA,012404.60,4304.167996000,N,14120.432250000,E,1,09,1.05,19.496,M,32.006,M,,*7F
[2021-01-08 10:24:07.008] $GNGGA,012404.70,4304.167996000,N,14120.432250000,E,1,09,1.05,19.486,M,32.006,M,,*7F
[2021-01-08 10:24:07.117] $GNGGA,012404.80,4304.167990000,N,14120.432244000,E,1,09,1.05,19.484,M,32.006,M,,*71
[2021-01-08 10:24:07.211] $GNGGA,012404.90,4304.167990000,N,14120.432244000,E,1,09,1.05,19.475,M,32.006,M,,*7E
[2021-01-08 10:24:07.320] $GNGGA,012405.00,4304.167990000,N,14120.432244000,E,1,09,1.05,19.472,M,32.006,M,,*71
[2021-01-08 10:24:07.414] $GNGGA,012405.10,4304.167990000,N,14120.432244000,E,1,09,1.05,19.463,M,32.006,M,,*70
[2021-01-08 10:24:07.508] $GNGGA,012405.20,4304.167990000,N,14120.432244000,E,1,09,1.05,19.459,M,32.006,M,,*7A
[2021-01-08 10:24:07.617] $GNGGA,012405.30,4304.167990000,N,14120.432238000,E,1,09,1.05,19.453,M,32.006,M,,*7A
[2021-01-08 10:24:07.711] $GNGGA,012405.40,4304.167984000,N,14120.432238000,E,1,09,1.05,19.446,M,32.006,M,,*7C
[2021-01-08 10:24:07.805] $GNGGA,012405.50,4304.167984000,N,14120.432238000,E,1,09,1.05,19.439,M,32.006,M,,*75
[2021-01-08 10:24:07.914] $GNGGA,012405.60,4304.167984000,N,14120.432238000,E,1,09,1.05,19.436,M,32.006,M,,*79
[2021-01-08 10:24:08.008] $GNGGA,012405.70,4304.167984000,N,14120.432238000,E,1,09,1.05,19.427,M,32.006,M,,*78
[2021-01-08 10:24:08.117] $GNGGA,012405.80,4304.167984000,N,14120.432238000,E,1,09,1.05,19.420,M,32.006,M,,*70
[2021-01-08 10:24:08.211] $GNGGA,012405.90,4304.167984000,N,14120.432238000,E,1,09,1.05,19.414,M,32.006,M,,*76
[2021-01-08 10:24:08.320] $GNGGA,012406.00,4304.167984000,N,14120.432238000,E,1,09,1.05,19.409,M,32.006,M,,*70
[2021-01-08 10:24:08.414] $GNGGA,012406.10,4304.167978000,N,14120.432232000,E,1,09,1.05,19.402,M,32.006,M,,*73
[2021-01-08 10:24:08.508] $GNGGA,012406.20,4304.167978000,N,14120.432232000,E,1,09,1.05,19.395,M,32.006,M,,*79
[2021-01-08 10:24:08.617] $GNGGA,012406.30,4304.167978000,N,14120.432232000,E,1,09,1.05,19.389,M,32.006,M,,*75
[2021-01-08 10:24:08.711] $GNGGA,012406.40,4304.167978000,N,14120.432232000,E,1,09,1.05,19.383,M,32.006,M,,*78
[2021-01-08 10:24:08.820] $GNGGA,012406.50,4304.167972000,N,14120.432232000,E,1,09,1.05,19.377,M,32.006,M,,*78
[2021-01-08 10:24:08.914] $GNGGA,012406.60,4304.167972000,N,14120.432232000,E,1,09,1.05,19.370,M,32.006,M,,*7C
[2021-01-08 10:24:09.008] $GNGGA,012406.70,4304.167972000,N,14120.432232000,E,1,09,1.05,19.364,M,32.006,M,,*78
[2021-01-08 10:24:09.117] $GNGGA,012406.80,4304.167972000,N,14120.432226000,E,1,09,1.05,19.356,M,32.006,M,,*73
[2021-01-08 10:24:09.211] $GNGGA,012406.90,4304.167966000,N,14120.432226000,E,1,09,1.05,19.350,M,32.006,M,,*71
[2021-01-08 10:24:09.320] $GNGGA,012407.00,4304.167966000,N,14120.432226000,E,1,09,1.05,19.344,M,32.006,M,,*7C
[2021-01-08 10:24:09.414] $GNGGA,012407.10,4304.167966000,N,14120.432226000,E,1,09,1.05,19.340,M,32.006,M,,*79
[2021-01-08 10:24:09.508] $GNGGA,012407.20,4304.167966000,N,14120.432226000,E,1,09,1.05,19.334,M,32.006,M,,*79
[2021-01-08 10:24:09.617] $GNGGA,012407.30,4304.167966000,N,14120.432226000,E,1,09,1.05,19.327,M,32.006,M,,*7A
[2021-01-08 10:24:09.711] $GNGGA,012407.40,4304.167966000,N,14120.432220000,E,1,09,1.05,19.320,M,32.006,M,,*7C
[2021-01-08 10:24:09.820] $GNGGA,012407.50,4304.167966000,N,14120.432226000,E,1,09,1.05,19.313,M,32.006,M,,*7B
[2021-01-08 10:24:09.914] $GNGGA,012407.60,4304.167960000,N,14120.432226000,E,1,09,1.05,19.310,M,32.006,M,,*7D
[2021-01-08 10:24:10.008] $GNGGA,012407.70,4304.167960000,N,14120.432220000,E,1,09,1.05,19.302,M,32.006,M,,*79
[2021-01-08 10:24:10.117] $GNGGA,012407.80,4304.167960000,N,14120.432220000,E,1,09,1.05,19.298,M,32.006,M,,*74
[2021-01-08 10:24:10.211] $GNGGA,012407.90,4304.167960000,N,14120.432220000,E,1,09,1.05,19.292,M,32.006,M,,*7F
[2021-01-08 10:24:10.305] $GNGGA,012408.00,4304.167960000,N,14120.432220000,E,1,09,1.05,19.287,M,32.006,M,,*7D
[2021-01-08 10:24:10.414] $GNGGA,012408.10,4304.167960000,N,14120.432220000,E,1,09,1.05,19.279,M,32.006,M,,*7D
[2021-01-08 10:24:10.508] $GNGGA,012408.20,4304.167960000,N,14120.432220000,E,1,09,1.05,19.277,M,32.006,M,,*70
[2021-01-08 10:24:10.617] $GNGGA,012408.30,4304.167954000,N,14120.432220000,E,1,09,1.05,19.269,M,32.006,M,,*79
[2021-01-08 10:24:10.711] $GNGGA,012408.40,4304.167954000,N,14120.432220000,E,1,09,1.05,19.261,M,32.006,M,,*76
[2021-01-08 10:24:10.805] $GNGGA,012408.50,4304.167954000,N,14120.432220000,E,1,09,1.05,19.258,M,32.006,M,,*7D
[2021-01-08 10:24:10.914] $GNGGA,012408.60,4304.167954000,N,14120.432220000,E,1,09,1.05,19.255,M,32.006,M,,*73
[2021-01-08 10:24:11.008] $GNGGA,012408.70,4304.167954000,N,14120.432220000,E,1,09,1.05,19.244,M,32.006,M,,*72
[2021-01-08 10:24:11.117] $GNGGA,012408.80,4304.167954000,N,14120.432220000,E,1,09,1.05,19.242,M,32.006,M,,*7B
[2021-01-08 10:24:11.211] $GNGGA,012408.90,4304.167948000,N,14120.432214000,E,1,09,1.05,19.238,M,32.006,M,,*7D
[2021-01-08 10:24:11.320] $GNGGA,012409.00,4304.167948000,N,14120.432214000,E,1,09,1.05,19.226,M,32.006,M,,*7A
[2021-01-08 10:24:11.414] $GNGGA,012409.10,4304.167948000,N,14120.432214000,E,1,09,1.05,19.221,M,32.006,M,,*7C
[2021-01-08 10:24:11.508] $GNGGA,012409.20,4304.167948000,N,14120.432214000,E,1,09,1.05,19.219,M,32.006,M,,*74
[2021-01-08 10:24:11.617] $GNGGA,012409.30,4304.167948000,N,14120.432214000,E,1,09,1.05,19.215,M,32.006,M,,*79
[2021-01-08 10:24:11.711] $GNGGA,012409.40,4304.167942000,N,14120.432214000,E,1,09,1.05,19.202,M,32.006,M,,*72
[2021-01-08 10:24:11.820] $GNGGA,012409.50,4304.167942000,N,14120.432214000,E,1,09,1.05,19.204,M,32.006,M,,*75
[2021-01-08 10:24:11.914] $GNGGA,012409.60,4304.167942000,N,14120.432214000,E,1,09,1.05,19.193,M,32.006,M,,*7B
[2021-01-08 10:24:12.008] $GNGGA,012409.70,4304.167942000,N,14120.432214000,E,1,09,1.05,19.191,M,32.006,M,,*78
[2021-01-08 10:24:12.117] $GNGGA,012409.80,4304.167942000,N,14120.432214000,E,1,09,1.05,19.183,M,32.006,M,,*74
[2021-01-08 10:24:12.211] $GNGGA,012409.90,4304.167942000,N,14120.432214000,E,1,09,1.05,19.176,M,32.006,M,,*7F
[2021-01-08 10:24:12.320] $GNGGA,012410.00,4304.167942000,N,14120.432214000,E,1,09,1.05,19.174,M,32.006,M,,*7C
[2021-01-08 10:24:12.414] $GNGGA,012410.10,4304.167936000,N,14120.432208000,E,1,10,1.01,19.168,M,32.006,M,,*72
[2021-01-08 10:24:12.508] $GNGGA,012410.20,4304.167936000,N,14120.432214000,E,1,10,1.01,19.161,M,32.006,M,,*75
[2021-01-08 10:24:12.617] $GNGGA,012410.30,4304.167936000,N,14120.432208000,E,1,10,1.01,19.154,M,32.006,M,,*7F
[2021-01-08 10:24:12.711] $GNGGA,012410.40,4304.167936000,N,14120.432208000,E,1,10,1.01,19.150,M,32.006,M,,*7C
[2021-01-08 10:24:12.820] $GNGGA,012410.50,4304.167936000,N,14120.432208000,E,1,10,1.01,19.144,M,32.006,M,,*78
[2021-01-08 10:24:12.914] $GNGGA,012410.60,4304.167936000,N,14120.432208000,E,1,10,1.01,19.140,M,32.006,M,,*7F
[2021-01-08 10:24:13.008] $GNGGA,012410.70,4304.167936000,N,14120.432208000,E,1,10,1.01,19.135,M,32.006,M,,*7C
[2021-01-08 10:24:13.117] $GNGGA,012410.80,4304.167930000,N,14120.432208000,E,1,10,1.01,19.129,M,32.006,M,,*78
[2021-01-08 10:24:13.211] $GNGGA,012410.90,4304.167930000,N,14120.432208000,E,1,10,1.01,19.121,M,32.006,M,,*71
[2021-01-08 10:24:13.320] $GNGGA,012411.00,4304.167930000,N,14120.432208000,E,1,13,0.88,19.117,M,32.006,M,,*7F
[2021-01-08 10:24:13.414] $GNGGA,012411.10,4304.167930000,N,14120.432208000,E,1,13,0.88,19.110,M,32.006,M,,*79
[2021-01-08 10:24:13.508] $GNGGA,012411.20,4304.167930000,N,14120.432208000,E,1,13,0.88,19.106,M,32.006,M,,*7D
[2021-01-08 10:24:13.617] $GNGGA,012411.30,4304.167930000,N,14120.432208000,E,1,13,0.88,19.101,M,32.006,M,,*7B
[2021-01-08 10:24:13.711] $GNGGA,012411.40,4304.167930000,N,14120.432208000,E,1,13,0.88,19.093,M,32.006,M,,*76
[2021-01-08 10:24:13.820] $GNGGA,012411.50,4304.167930000,N,14120.432208000,E,1,13,0.88,19.090,M,32.006,M,,*74
[2021-01-08 10:24:13.914] $GNGGA,012411.60,4304.167924000,N,14120.432208000,E,1,13,0.88,19.085,M,32.006,M,,*76
[2021-01-08 10:24:14.007] $GNGGA,012411.70,4304.167924000,N,14120.432208000,E,1,13,0.88,19.077,M,32.006,M,,*7A
[2021-01-08 10:24:14.117] $GNGGA,012411.80,4304.167924000,N,14120.432208000,E,1,13,0.88,19.073,M,32.006,M,,*71
[2021-01-08 10:24:14.211] $GNGGA,012411.90,4304.167924000,N,14120.432208000,E,1,13,0.88,19.067,M,32.006,M,,*75
[2021-01-08 10:24:14.320] $GNGGA,012412.00,4304.167924000,N,14120.432208000,E,1,13,0.88,19.060,M,32.006,M,,*78
[2021-01-08 10:24:14.414] $GNGGA,012412.10,4304.167924000,N,14120.432202000,E,1,13,0.88,19.056,M,32.006,M,,*76
[2021-01-08 10:24:14.507] $GNGGA,012412.20,4304.167924000,N,14120.432208000,E,1,13,0.88,19.052,M,32.006,M,,*7B
[2021-01-08 10:24:14.617] $GNGGA,012412.30,4304.167924000,N,14120.432202000,E,1,13,0.88,19.045,M,32.006,M,,*76
[2021-01-08 10:24:14.711] $GNGGA,012412.40,4304.167924000,N,14120.432202000,E,1,13,0.88,19.040,M,32.006,M,,*74
[2021-01-08 10:24:14.820] $GNGGA,012412.50,4304.167918000,N,14120.432202000,E,1,13,0.88,19.037,M,32.006,M,,*7A
[2021-01-08 10:24:14.914] $GNGGA,012412.60,4304.167918000,N,14120.432202000,E,1,13,0.88,19.031,M,32.006,M,,*7F
[2021-01-08 10:24:15.007] $GNGGA,012412.70,4304.167918000,N,14120.432202000,E,1,13,0.88,19.024,M,32.006,M,,*7A
[2021-01-08 10:24:15.117] $GNGGA,012412.80,4304.167918000,N,14120.432202000,E,1,13,0.88,19.022,M,32.006,M,,*73
[2021-01-08 10:24:15.211] $GNGGA,012412.90,4304.167918000,N,14120.432202000,E,1,13,0.88,19.018,M,32.006,M,,*7B
[2021-01-08 10:24:15.320] $GNGGA,012413.00,4304.167918000,N,14120.432202000,E,1,13,0.88,19.010,M,32.006,M,,*7B
[2021-01-08 10:24:15.414] $GNGGA,012413.10,4304.167918000,N,14120.432202000,E,1,13,0.88,19.006,M,32.006,M,,*7D
[2021-01-08 10:24:15.507] $GNGGA,012413.20,4304.167918000,N,14120.432202000,E,1,13,0.88,19.002,M,32.006,M,,*7A
[2021-01-08 10:24:15.617] $GNGGA,012413.30,4304.167912000,N,14120.432202000,E,1,13,0.88,18.998,M,32.006,M,,*7A
[2021-01-08 10:24:15.710] $GNGGA,012413.40,4304.167918000,N,14120.432202000,E,1,13,0.88,18.992,M,32.006,M,,*7D
[2021-01-08 10:24:15.820] $GNGGA,012413.50,4304.167912000,N,14120.432202000,E,1,13,0.88,18.986,M,32.006,M,,*73
[2021-01-08 10:24:15.914] $GNGGA,012413.60,4304.167912000,N,14120.432202000,E,1,13,0.88,18.981,M,32.006,M,,*77
[2021-01-08 10:24:16.007] $GNGGA,012413.70,4304.167912000,N,14120.432202000,E,1,13,0.88,18.978,M,32.006,M,,*70
[2021-01-08 10:24:16.117] $GNGGA,012413.80,4304.167912000,N,14120.432202000,E,1,13,0.88,18.971,M,32.006,M,,*76
[2021-01-08 10:24:16.210] $GNGGA,012413.90,4304.167912000,N,14120.432202000,E,1,13,0.88,18.964,M,32.006,M,,*73
[2021-01-08 10:24:16.320] $GNGGA,012414.00,4304.167912000,N,14120.432202000,E,1,13,0.88,18.962,M,32.006,M,,*7B
[2021-01-08 10:24:16.414] $GNGGA,012414.10,4304.167912000,N,14120.432202000,E,1,13,0.88,18.954,M,32.006,M,,*7F
[2021-01-08 10:24:16.507] $GNGGA,012414.20,4304.167912000,N,14120.432202000,E,1,13,0.88,18.949,M,32.006,M,,*70
[2021-01-08 10:24:16.617] $GNGGA,012414.30,4304.167912000,N,14120.432202000,E,1,13,0.88,18.946,M,32.006,M,,*7E
[2021-01-08 10:24:16.710] $GNGGA,012414.40,4304.167912000,N,14120.432202000,E,1,13,0.88,18.939,M,32.006,M,,*71
[2021-01-08 10:24:16.820] $GNGGA,012414.50,4304.167912000,N,14120.432202000,E,1,13,0.88,18.934,M,32.006,M,,*7D
[2021-01-08 10:24:16.914] $GNGGA,012414.60,4304.167906000,N,14120.432202000,E,1,13,0.88,18.932,M,32.006,M,,*7D
[2021-01-08 10:24:17.007] $GNGGA,012414.70,4304.167906000,N,14120.432202000,E,1,13,0.88,18.925,M,32.006,M,,*7A
[2021-01-08 10:24:17.117] $GNGGA,012414.80,4304.167906000,N,14120.432202000,E,1,13,0.88,18.920,M,32.006,M,,*70
[2021-01-08 10:24:17.210] $GNGGA,012414.90,4304.167906000,N,14120.432202000,E,1,13,0.88,18.917,M,32.006,M,,*75
[2021-01-08 10:24:17.320] $GNGGA,012415.00,4304.167906000,N,14120.432202000,E,1,13,0.88,18.914,M,32.006,M,,*7E
[2021-01-08 10:24:17.414] $GNGGA,012415.10,4304.167906000,N,14120.432202000,E,1,13,0.88,18.909,M,32.006,M,,*73
[2021-01-08 10:24:17.507] $GNGGA,012415.20,4304.167906000,N,14120.432202000,E,1,13,0.88,18.904,M,32.006,M,,*7D
[2021-01-08 10:24:17.617] $GNGGA,012415.30,4304.167906000,N,14120.432202000,E,1,13,0.88,18.900,M,32.006,M,,*78
[2021-01-08 10:24:17.710] $GNGGA,012415.40,4304.167906000,N,14120.432202000,E,1,13,0.88,18.895,M,32.006,M,,*72
[2021-01-08 10:24:17.820] $GNGGA,012415.50,4304.167906000,N,14120.432202000,E,1,13,0.88,18.890,M,32.006,M,,*76
[2021-01-08 10:24:17.913] $GNGGA,012415.60,4304.167906000,N,14120.432202000,E,1,13,0.88,18.884,M,32.006,M,,*70
[2021-01-08 10:24:18.007] $GNGGA,012415.70,4304.167900000,N,14120.432202000,E,1,13,0.88,18.881,M,32.006,M,,*72
[2021-01-08 10:24:18.117] $GNGGA,012415.80,4304.167900000,N,14120.432202000,E,1,13,0.88,18.875,M,32.006,M,,*76
[2021-01-08 10:24:18.210] $GNGGA,012415.90,4304.167900000,N,14120.432202000,E,1,13,0.88,18.870,M,32.006,M,,*72
[2021-01-08 10:24:18.320] $GNGGA,012416.00,4304.167900000,N,14120.432202000,E,1,13,0.88,18.864,M,32.006,M,,*7D
[2021-01-08 10:24:18.413] $GNGGA,012416.10,4304.167900000,N,14120.432202000,E,1,13,0.88,18.861,M,32.006,M,,*79
[2021-01-08 10:24:18.507] $GNGGA,012416.20,4304.167900000,N,14120.432196000,E,1,13,0.88,18.857,M,32.006,M,,*71
[2021-01-08 10:24:18.617] $GNGGA,012416.30,4304.167900000,N,14120.432196000,E,1,13,0.88,18.854,M,32.006,M,,*73
[2021-01-08 10:24:18.710] $GNGGA,012416.40,4304.167900000,N,14120.432196000,E,1,13,0.88,18.844,M,32.006,M,,*75
[2021-01-08 10:24:18.820] $GNGGA,012416.50,4304.167900000,N,14120.432196000,E,1,13,0.88,18.845,M,32.006,M,,*75
[2021-01-08 10:24:18.913] $GNGGA,012416.60,4304.167900000,N,14120.432202000,E,1,13,0.88,18.835,M,32.006,M,,*7F
[2021-01-08 10:24:19.007] $GNGGA,012416.70,4304.167900000,N,14120.432196000,E,1,13,0.88,18.834,M,32.006,M,,*71
[2021-01-08 10:24:19.117] $GNGGA,012416.80,4304.167900000,N,14120.432196000,E,1,13,0.88,18.828,M,32.006,M,,*73
[2021-01-08 10:24:19.210] $GNGGA,012416.90,4304.167900000,N,14120.432196000,E,1,13,0.88,18.825,M,32.006,M,,*7F
[2021-01-08 10:24:19.320] $GNGGA,012417.00,4304.167894000,N,14120.432196000,E,1,13,0.88,18.824,M,32.006,M,,*7A
[2021-01-08 10:24:19.413] $GNGGA,012417.10,4304.167894000,N,14120.432196000,E,1,13,0.88,18.815,M,32.006,M,,*79
[2021-01-08 10:24:19.507] $GNGGA,012417.20,4304.167894000,N,14120.432196000,E,1,13,0.88,18.814,M,32.006,M,,*7B
[2021-01-08 10:24:19.616] $GNGGA,012417.30,4304.167894000,N,14120.432196000,E,1,13,0.88,18.809,M,32.006,M,,*76
[2021-01-08 10:24:19.710] $GNGGA,012417.40,4304.167894000,N,14120.432196000,E,1,13,0.88,18.806,M,32.006,M,,*7E
[2021-01-08 10:24:19.820] $GNGGA,012417.50,4304.167894000,N,14120.432202000,E,1,13,0.88,18.800,M,32.006,M,,*77
[2021-01-08 10:24:19.913] $GNGGA,012417.60,4304.167894000,N,14120.432196000,E,1,13,0.88,18.797,M,32.006,M,,*7B
[2021-01-08 10:24:20.007] $GNGGA,012417.70,4304.167894000,N,14120.432196000,E,1,13,0.88,18.791,M,32.006,M,,*7C
[2021-01-08 10:24:20.116] $GNGGA,012417.80,4304.167894000,N,14120.432196000,E,1,13,0.88,18.787,M,32.006,M,,*74
[2021-01-08 10:24:20.210] $GNGGA,012417.90,4304.167894000,N,14120.432196000,E,1,13,0.88,18.783,M,32.006,M,,*71
[2021-01-08 10:24:20.319] $GNGGA,012418.00,4304.167894000,N,14120.432196000,E,1,13,0.88,18.776,M,32.006,M,,*7D
[2021-01-08 10:24:20.413] $GNGGA,012418.10,4304.167888000,N,14120.432196000,E,1,13,0.88,18.775,M,32.006,M,,*72
[2021-01-08 10:24:20.507] $GNGGA,012418.20,4304.167888000,N,14120.432196000,E,1,13,0.88,18.769,M,32.006,M,,*7C
[2021-01-08 10:24:20.616] $GNGGA,012418.30,4304.167888000,N,14120.432196000,E,1,13,0.88,18.763,M,32.006,M,,*77
[2021-01-08 10:24:20.710] $GNGGA,012418.40,4304.167888000,N,14120.432196000,E,1,13,0.88,18.761,M,32.006,M,,*72
[2021-01-08 10:24:20.819] $GNGGA,012418.50,4304.167888000,N,14120.432196000,E,1,13,0.88,18.756,M,32.006,M,,*77
[2021-01-08 10:24:20.913] $GNGGA,012418.60,4304.167888000,N,14120.432196000,E,1,13,0.88,18.748,M,32.006,M,,*7B
[2021-01-08 10:24:21.007] $GNGGA,012418.70,4304.167888000,N,14120.432196000,E,1,13,0.88,18.742,M,32.006,M,,*70
[2021-01-08 10:24:21.116] $GNGGA,012418.80,4304.167888000,N,14120.432196000,E,1,13,0.88,18.742,M,32.006,M,,*7F
[2021-01-08 10:24:21.210] $GNGGA,012418.90,4304.167888000,N,14120.432196000,E,1,13,0.88,18.734,M,32.006,M,,*7F
[2021-01-08 10:24:21.319] $GNGGA,012419.00,4304.167888000,N,14120.432196000,E,1,13,0.88,18.733,M,32.006,M,,*70
[2021-01-08 10:24:21.413] $GNGGA,012419.10,4304.167888000,N,14120.432196000,E,1,13,0.88,18.730,M,32.006,M,,*72
[2021-01-08 10:24:21.507] $GNGGA,012419.20,4304.167888000,N,14120.432196000,E,1,13,0.88,18.721,M,32.006,M,,*71
[2021-01-08 10:24:21.616] $GNGGA,012419.30,4304.167882000,N,14120.432196000,E,1,13,0.88,18.718,M,32.006,M,,*70
[2021-01-08 10:24:21.710] $GNGGA,012419.40,4304.167882000,N,14120.432196000,E,1,13,0.88,18.717,M,32.006,M,,*78
[2021-01-08 10:24:21.819] $GNGGA,012419.50,4304.167882000,N,14120.432196000,E,1,13,0.88,18.710,M,32.006,M,,*7E
[2021-01-08 10:24:21.913] $GNGGA,012419.60,4304.167882000,N,14120.432196000,E,1,13,0.88,18.706,M,32.006,M,,*7A
[2021-01-08 10:24:22.007] $GNGGA,012419.70,4304.167882000,N,14120.432196000,E,1,13,0.88,18.698,M,32.006,M,,*7D
[2021-01-08 10:24:22.116] $GNGGA,012419.80,4304.167882000,N,14120.432196000,E,1,13,0.88,18.696,M,32.006,M,,*7C
[2021-01-08 10:24:22.210] $GNGGA,012419.90,4304.167882000,N,14120.432196000,E,1,13,0.88,18.694,M,32.006,M,,*7F
[2021-01-08 10:24:22.319] $GNGGA,012420.00,4304.167882000,N,14120.432196000,E,1,13,0.88,18.687,M,32.006,M,,*7E
[2021-01-08 10:24:22.413] $GNGGA,012420.10,4304.167882000,N,14120.432196000,E,1,13,0.88,18.681,M,32.006,M,,*79
[2021-01-08 10:24:22.507] $GNGGA,012420.20,4304.167882000,N,14120.432196000,E,1,13,0.88,18.679,M,32.006,M,,*7D
[2021-01-08 10:24:22.616] $GNGGA,012420.30,4304.167882000,N,14120.432196000,E,1,13,0.88,18.673,M,32.006,M,,*76
[2021-01-08 10:24:22.710] $GNGGA,012420.40,4304.167882000,N,14120.432196000,E,1,13,0.88,18.669,M,32.006,M,,*7A
[2021-01-08 10:24:22.819] $GNGGA,012420.50,4304.167882000,N,14120.432196000,E,1,13,0.88,18.666,M,32.006,M,,*74
[2021-01-08 10:24:22.913] $GNGGA,012420.60,4304.167876000,N,14120.432196000,E,1,13,0.88,18.661,M,32.006,M,,*7B
[2021-01-08 10:24:23.007] $GNGGA,012420.70,4304.167882000,N,14120.432196000,E,1,13,0.88,18.656,M,32.006,M,,*75
[2021-01-08 10:24:23.116] $GNGGA,012420.80,4304.167876000,N,14120.432196000,E,1,13,0.88,18.654,M,32.006,M,,*73
[2021-01-08 10:24:23.210] $GNGGA,012420.90,4304.167876000,N,14120.432196000,E,1,13,0.88,18.650,M,32.006,M,,*76
[2021-01-08 10:24:23.319] $GNGGA,012421.00,4304.167876000,N,14120.432196000,E,1,13,0.88,18.648,M,32.006,M,,*77
[2021-01-08 10:24:23.413] $GNGGA,012421.10,4304.167876000,N,14120.432196000,E,1,13,0.88,18.642,M,32.006,M,,*7C
[2021-01-08 10:24:23.507] $GNGGA,012421.20,4304.167876000,N,14120.432196000,E,1,13,0.88,18.640,M,32.006,M,,*7D
[2021-01-08 10:24:23.616] $GNGGA,012421.30,4304.167876000,N,14120.432196000,E,1,13,0.88,18.638,M,32.006,M,,*73
[2021-01-08 10:24:23.710] $GNGGA,012421.40,4304.167876000,N,14120.432196000,E,1,13,0.88,18.633,M,32.006,M,,*7F
[2021-01-08 10:24:23.819] $GNGGA,012421.50,4304.167876000,N,14120.432196000,E,1,13,0.88,18.624,M,32.006,M,,*78
[2021-01-08 10:24:23.913] $GNGGA,012421.60,4304.167876000,N,14120.432196000,E,1,13,0.88,18.623,M,32.006,M,,*7C
[2021-01-08 10:24:24.007] $GNGGA,012421.70,4304.167876000,N,14120.432196000,E,1,13,0.88,18.621,M,32.006,M,,*7F
[2021-01-08 10:24:24.116] $GNGGA,012421.80,4304.167876000,N,14120.432196000,E,1,13,0.88,18.617,M,32.006,M,,*75
[2021-01-08 10:24:24.210] $GNGGA,012421.90,4304.167876000,N,14120.432196000,E,1,13,0.88,18.611,M,32.006,M,,*72
[2021-01-08 10:24:24.319] $GNGGA,012422.00,4304.167876000,N,14120.432196000,E,1,13,0.88,18.608,M,32.006,M,,*70
[2021-01-08 10:24:24.413] $GNGGA,012422.10,4304.167876000,N,14120.432196000,E,1,13,0.88,18.605,M,32.006,M,,*7C
[2021-01-08 10:24:24.507] $GNGGA,012422.20,4304.167870000,N,14120.432196000,E,1,13,0.88,18.600,M,32.006,M,,*7C
[2021-01-08 10:24:24.616] $GNGGA,012422.30,4304.167870000,N,14120.432196000,E,1,13,0.88,18.594,M,32.006,M,,*73
[2021-01-08 10:24:24.710] $GNGGA,012422.40,4304.167870000,N,14120.432196000,E,1,13,0.88,18.591,M,32.006,M,,*71
[2021-01-08 10:24:24.819] $GNGGA,012422.50,4304.167870000,N,14120.432196000,E,1,13,0.88,18.587,M,32.006,M,,*77
[2021-01-08 10:24:24.913] $GNGGA,012422.60,4304.167870000,N,14120.432196000,E,1,13,0.88,18.583,M,32.006,M,,*70
[2021-01-08 10:24:25.007] $GNGGA,012422.70,4304.167870000,N,14120.432196000,E,1,13,0.88,18.578,M,32.006,M,,*75
[2021-01-08 10:24:25.116] $GNGGA,012422.80,4304.167870000,N,14120.432196000,E,1,13,0.88,18.572,M,32.006,M,,*70
[2021-01-08 10:24:25.210] $GNGGA,012422.90,4304.167870000,N,14120.432196000,E,1,13,0.88,18.575,M,32.006,M,,*76
[2021-01-08 10:24:25.319] $GNGGA,012423.00,4304.167870000,N,14120.432196000,E,1,13,0.88,18.565,M,32.006,M,,*7F
[2021-01-08 10:24:25.413] $GNGGA,012423.10,4304.167870000,N,14120.432196000,E,1,13,0.88,18.564,M,32.006,M,,*7F
[2021-01-08 10:24:25.507] $GNGGA,012423.20,4304.167870000,N,14120.432196000,E,1,13,0.88,18.559,M,32.006,M,,*72
[2021-01-08 10:24:25.616] $GNGGA,012423.30,4304.167870000,N,14120.432196000,E,1,13,0.88,18.553,M,32.006,M,,*79
[2021-01-08 10:24:25.710] $GNGGA,012423.40,4304.167870000,N,14120.432196000,E,1,13,0.88,18.549,M,32.006,M,,*75
[2021-01-08 10:24:25.819] $GNGGA,012423.50,4304.167870000,N,14120.432196000,E,1,13,0.88,18.541,M,32.006,M,,*7C
[2021-01-08 10:24:25.913] $GNGGA,012423.60,4304.167870000,N,14120.432196000,E,1,13,0.88,18.539,M,32.006,M,,*70
[2021-01-08 10:24:26.007] $GNGGA,012423.70,4304.167864000,N,14120.432196000,E,1,13,0.88,18.534,M,32.006,M,,*79
[2021-01-08 10:24:26.116] $GNGGA,012423.80,4304.167864000,N,14120.432196000,E,1,13,0.88,18.529,M,32.006,M,,*7A
[2021-01-08 10:24:26.210] $GNGGA,012423.90,4304.167864000,N,14120.432196000,E,1,13,0.88,18.525,M,32.006,M,,*77
[2021-01-08 10:24:26.319] $GNGGA,012424.00,4304.167864000,N,14120.432196000,E,1,13,0.88,18.523,M,32.006,M,,*7F
[2021-01-08 10:24:26.413] $GNGGA,012424.10,4304.167864000,N,14120.432196000,E,1,13,0.88,18.518,M,32.006,M,,*76
[2021-01-08 10:24:26.507] $GNGGA,012424.20,4304.167864000,N,14120.432196000,E,1,13,0.88,18.513,M,32.006,M,,*7E
[2021-01-08 10:24:26.616] $GNGGA,012424.30,4304.167864000,N,14120.432196000,E,1,13,0.88,18.509,M,32.006,M,,*74
[2021-01-08 10:24:26.710] $GNGGA,012424.40,4304.167864000,N,14120.432196000,E,1,13,0.88,18.504,M,32.006,M,,*7E
[2021-01-08 10:24:26.819] $GNGGA,012424.50,4304.167864000,N,14120.432196000,E,1,13,0.88,18.498,M,32.006,M,,*7B
[2021-01-08 10:24:26.913] $GNGGA,012424.60,4304.167864000,N,14120.432196000,E,1,13,0.88,18.498,M,32.006,M,,*78
[2021-01-08 10:24:27.007] $GNGGA,012424.70,4304.167864000,N,14120.432196000,E,1,13,0.88,18.492,M,32.006,M,,*73
[2021-01-08 10:24:27.116] $GNGGA,012424.80,4304.167864000,N,14120.432196000,E,1,13,0.88,18.487,M,32.006,M,,*78
[2021-01-08 10:24:27.210] $GNGGA,012424.90,4304.167864000,N,14120.432196000,E,1,13,0.88,18.485,M,32.006,M,,*7B
[2021-01-08 10:24:27.319] $GNGGA,012425.00,4304.167864000,N,14120.432196000,E,1,13,0.88,18.478,M,32.006,M,,*71
[2021-01-08 10:24:27.413] $GNGGA,012425.10,4304.167864000,N,14120.432196000,E,1,13,0.88,18.475,M,32.006,M,,*7D
[2021-01-08 10:24:27.507] $GNGGA,012425.20,4304.167864000,N,14120.432196000,E,1,13,0.88,18.472,M,32.006,M,,*79
[2021-01-08 10:24:27.616] $GNGGA,012425.30,4304.167864000,N,14120.432196000,E,1,13,0.88,18.465,M,32.006,M,,*7E
[2021-01-08 10:24:27.710] $GNGGA,012425.40,4304.167864000,N,14120.432196000,E,1,13,0.88,18.465,M,32.006,M,,*79
[2021-01-08 10:24:27.819] $GNGGA,012425.50,4304.167864000,N,14120.432196000,E,1,13,0.88,18.456,M,32.006,M,,*78
[2021-01-08 10:24:27.913] $GNGGA,012425.60,4304.167864000,N,14120.432196000,E,1,13,0.88,18.454,M,32.006,M,,*79
[2021-01-08 10:24:28.007] $GNGGA,012425.70,4304.167864000,N,14120.432196000,E,1,13,0.88,18.451,M,32.006,M,,*7D
[2021-01-08 10:24:28.116] $GNGGA,012425.80,4304.167858000,N,14120.432196000,E,1,13,0.88,18.446,M,32.006,M,,*7B
[2021-01-08 10:24:28.210] $GNGGA,012425.90,4304.167864000,N,14120.432196000,E,1,13,0.88,18.442,M,32.006,M,,*71
[2021-01-08 10:24:28.319] $GNGGA,012426.00,4304.167864000,N,14120.432196000,E,1,13,0.88,18.440,M,32.006,M,,*79
[2021-01-08 10:24:28.413] $GNGGA,012426.10,4304.167858000,N,14120.432196000,E,1,13,0.88,18.438,M,32.006,M,,*78
[2021-01-08 10:24:28.506] $GNGGA,012426.20,4304.167864000,N,14120.432196000,E,1,13,0.88,18.433,M,32.006,M,,*7F
[2021-01-08 10:24:28.616] $GNGGA,012426.30,4304.167858000,N,14120.432196000,E,1,13,0.88,18.427,M,32.006,M,,*74
[2021-01-08 10:24:28.710] $GNGGA,012426.40,4304.167858000,N,14120.432196000,E,1,13,0.88,18.424,M,32.006,M,,*70
[2021-01-08 10:24:28.819] $GNGGA,012426.50,4304.167858000,N,14120.432196000,E,1,13,0.88,18.423,M,32.006,M,,*76
[2021-01-08 10:24:28.913] $GNGGA,012426.60,4304.167858000,N,14120.432196000,E,1,13,0.88,18.415,M,32.006,M,,*70
[2021-01-08 10:24:29.006] $GNGGA,012426.70,4304.167858000,N,14120.432196000,E,1,13,0.88,18.413,M,32.006,M,,*77
[2021-01-08 10:24:29.116] $GNGGA,012426.80,4304.167858000,N,14120.432196000,E,1,13,0.88,18.412,M,32.006,M,,*79
[2021-01-08 10:24:29.210] $GNGGA,012426.90,4304.167858000,N,14120.432196000,E,1,13,0.88,18.407,M,32.006,M,,*7C
[2021-01-08 10:24:29.319] $GNGGA,012427.00,4304.167858000,N,14120.432202000,E,1,13,0.88,18.402,M,32.006,M,,*7F
[2021-01-08 10:24:29.413] $GNGGA,012427.10,4304.167858000,N,14120.432196000,E,1,13,0.88,18.399,M,32.006,M,,*75
[2021-01-08 10:24:29.506] $GNGGA,012427.20,4304.167858000,N,14120.432196000,E,1,13,0.88,18.396,M,32.006,M,,*79
[2021-01-08 10:24:29.616] $GNGGA,012427.30,4304.167858000,N,14120.432202000,E,1,13,0.88,18.392,M,32.006,M,,*72
[2021-01-08 10:24:29.710] $GNGGA,012427.40,4304.167858000,N,14120.432196000,E,1,13,0.88,18.387,M,32.006,M,,*7F
[2021-01-08 10:24:29.819] $GNGGA,012427.50,4304.167858000,N,14120.432202000,E,1,13,0.88,18.386,M,32.006,M,,*71
[2021-01-08 10:24:29.913] $GNGGA,012427.60,4304.167858000,N,14120.432202000,E,1,13,0.88,18.385,M,32.006,M,,*71
[2021-01-08 10:24:30.006] $GNGGA,012427.70,4304.167858000,N,14120.432202000,E,1,13,0.88,18.375,M,32.006,M,,*7F
[2021-01-08 10:24:30.116] $GNGGA,012427.80,4304.167858000,N,14120.432196000,E,1,13,0.88,18.378,M,32.006,M,,*73
[2021-01-08 10:24:30.209] $GNGGA,012427.90,4304.167858000,N,14120.432196000,E,1,13,0.88,18.376,M,32.006,M,,*7C
[2021-01-08 10:24:30.319] $GNGGA,012428.00,4304.167858000,N,14120.432202000,E,1,13,0.88,18.364,M,32.006,M,,*77
[2021-01-08 10:24:30.413] $GNGGA,012428.10,4304.167858000,N,14120.432202000,E,1,13,0.88,18.368,M,32.006,M,,*7A
[2021-01-08 10:24:30.506] $GNGGA,012428.20,4304.167858000,N,14120.432202000,E,1,13,0.88,18.362,M,32.006,M,,*73
[2021-01-08 10:24:30.616] $GNGGA,012428.30,4304.167858000,N,14120.432202000,E,1,13,0.88,18.359,M,32.006,M,,*7A
[2021-01-08 10:24:30.709] $GNGGA,012428.40,4304.167858000,N,14120.432202000,E,1,13,0.88,18.357,M,32.006,M,,*73
[2021-01-08 10:24:30.819] $GNGGA,012428.50,4304.167858000,N,14120.432202000,E,1,13,0.88,18.353,M,32.006,M,,*76
[2021-01-08 10:24:30.913] $GNGGA,012428.60,4304.167858000,N,14120.432202000,E,1,13,0.88,18.353,M,32.006,M,,*75
[2021-01-08 10:24:31.006] $GNGGA,012428.70,4304.167858000,N,14120.432202000,E,1,13,0.88,18.348,M,32.006,M,,*7E
[2021-01-08 10:24:31.116] $GNGGA,012428.80,4304.167858000,N,14120.432202000,E,1,13,0.88,18.343,M,32.006,M,,*7A
[2021-01-08 10:24:31.209] $GNGGA,012428.90,4304.167858000,N,14120.432202000,E,1,13,0.88,18.339,M,32.006,M,,*76
[2021-01-08 10:24:31.319] $GNGGA,012429.00,4304.167858000,N,14120.432202000,E,1,13,0.88,18.337,M,32.006,M,,*70
[2021-01-08 10:24:31.412] $GNGGA,012429.10,4304.167858000,N,14120.432202000,E,1,13,0.88,18.332,M,32.006,M,,*74
[2021-01-08 10:24:31.506] $GNGGA,012429.20,4304.167858000,N,14120.432202000,E,1,13,0.88,18.327,M,32.006,M,,*73
[2021-01-08 10:24:31.616] $GNGGA,012429.30,4304.167858000,N,14120.432202000,E,1,13,0.88,18.325,M,32.006,M,,*70
[2021-01-08 10:24:31.709] $GNGGA,012429.40,4304.167858000,N,14120.432202000,E,1,13,0.88,18.323,M,32.006,M,,*71
[2021-01-08 10:24:31.819] $GNGGA,012429.50,4304.167858000,N,14120.432202000,E,1,13,0.88,18.319,M,32.006,M,,*79
[2021-01-08 10:24:31.912] $GNGGA,012429.60,4304.167858000,N,14120.432202000,E,1,13,0.88,18.315,M,32.006,M,,*76
[2021-01-08 10:24:32.006] $GNGGA,012429.70,4304.167858000,N,14120.432202000,E,1,13,0.88,18.311,M,32.006,M,,*73
[2021-01-08 10:24:32.116] $GNGGA,012429.80,4304.167858000,N,14120.432202000,E,1,13,0.88,18.310,M,32.006,M,,*7D
[2021-01-08 10:24:32.209] $GNGGA,012429.90,4304.167858000,N,14120.432202000,E,1,13,0.88,18.304,M,32.006,M,,*79
[2021-01-08 10:24:32.319] $GNGGA,012430.00,4304.167858000,N,14120.432202000,E,1,13,0.88,18.300,M,32.006,M,,*7C
[2021-01-08 10:24:32.412] $GNGGA,012430.10,4304.167852000,N,14120.432202000,E,1,13,0.88,18.296,M,32.006,M,,*79
[2021-01-08 10:24:32.506] $GNGGA,012430.20,4304.167852000,N,14120.432202000,E,1,13,0.88,18.292,M,32.006,M,,*7E
[2021-01-08 10:24:32.616] $GNGGA,012430.30,4304.167852000,N,14120.432202000,E,1,13,0.88,18.289,M,32.006,M,,*75
[2021-01-08 10:24:32.709] $GNGGA,012430.40,4304.167852000,N,14120.432196000,E,1,13,0.88,18.288,M,32.006,M,,*7D
[2021-01-08 10:24:32.819] $GNGGA,012430.50,4304.167852000,N,14120.432202000,E,1,13,0.88,18.281,M,32.006,M,,*7B
[2021-01-08 10:24:32.912] $GNGGA,012430.60,4304.167852000,N,14120.432202000,E,1,13,0.88,18.278,M,32.006,M,,*7E
[2021-01-08 10:24:33.006] $GNGGA,012430.70,4304.167852000,N,14120.432196000,E,1,13,0.88,18.275,M,32.006,M,,*7C
[2021-01-08 10:24:33.116] $GNGGA,012430.80,4304.167852000,N,14120.432202000,E,1,13,0.88,18.271,M,32.006,M,,*79
[2021-01-08 10:24:33.209] $GNGGA,012430.90,4304.167852000,N,14120.432202000,E,1,13,0.88,18.267,M,32.006,M,,*7F
[2021-01-08 10:24:33.319] $GNGGA,012431.00,4304.167852000,N,14120.432202000,E,1,13,0.88,18.264,M,32.006,M,,*74
[2021-01-08 10:24:33.412] $GNGGA,012431.10,4304.167852000,N,14120.432202000,E,1,13,0.88,18.261,M,32.006,M,,*70
[2021-01-08 10:24:33.506] $GNGGA,012431.20,4304.167852000,N,14120.432202000,E,1,13,0.88,18.255,M,32.006,M,,*74
[2021-01-08 10:24:33.615] $GNGGA,012431.30,4304.167852000,N,14120.432202000,E,1,13,0.88,18.255,M,32.006,M,,*75
[2021-01-08 10:24:33.709] $GNGGA,012431.40,4304.167852000,N,14120.432202000,E,1,13,0.88,18.251,M,32.006,M,,*76
[2021-01-08 10:24:33.819] $GNGGA,012431.50,4304.167852000,N,14120.432202000,E,1,13,0.88,18.244,M,32.006,M,,*73
[2021-01-08 10:24:33.912] $GNGGA,012431.60,4304.167852000,N,14120.432202000,E,1,13,0.88,18.246,M,32.006,M,,*72
[2021-01-08 10:24:34.006] $GNGGA,012431.70,4304.167852000,N,14120.432202000,E,1,13,0.88,18.239,M,32.006,M,,*7B
[2021-01-08 10:24:34.115] $GNGGA,012431.80,4304.167852000,N,14120.432202000,E,1,13,0.88,18.233,M,32.006,M,,*7E
[2021-01-08 10:24:34.209] $GNGGA,012431.90,4304.167852000,N,14120.432202000,E,1,13,0.88,18.232,M,32.006,M,,*7E
[2021-01-08 10:24:34.319] $GNGGA,012432.00,4304.167852000,N,14120.432202000,E,1,13,0.88,18.230,M,32.006,M,,*76
[2021-01-08 10:24:34.412] $GNGGA,012432.10,4304.167846000,N,14120.432202000,E,1,13,0.88,18.223,M,32.006,M,,*70
[2021-01-08 10:24:34.506] $GNGGA,012432.20,4304.167846000,N,14120.432202000,E,1,13,0.88,18.221,M,32.006,M,,*71
[2021-01-08 10:24:34.615] $GNGGA,012432.30,4304.167852000,N,14120.432202000,E,1,13,0.88,18.218,M,32.006,M,,*7F
[2021-01-08 10:24:34.709] $GNGGA,012432.40,4304.167846000,N,14120.432202000,E,1,13,0.88,18.214,M,32.006,M,,*71
[2021-01-08 10:24:34.819] $GNGGA,012432.50,4304.167846000,N,14120.432202000,E,1,13,0.88,18.212,M,32.006,M,,*76
[2021-01-08 10:24:34.912] $GNGGA,012432.60,4304.167846000,N,14120.432202000,E,1,13,0.88,18.209,M,32.006,M,,*7F
[2021-01-08 10:24:35.006] $GNGGA,012432.70,4304.167846000,N,14120.432202000,E,1,13,0.88,18.204,M,32.006,M,,*73
[2021-01-08 10:24:35.115] $GNGGA,012432.80,4304.167846000,N,14120.432202000,E,1,13,0.88,18.202,M,32.006,M,,*7A
[2021-01-08 10:24:35.209] $GNGGA,012432.90,4304.167846000,N,14120.432202000,E,1,13,0.88,18.196,M,32.006,M,,*75
[2021-01-08 10:24:35.319] $GNGGA,012433.00,4304.167846000,N,14120.432202000,E,1,13,0.88,18.195,M,32.006,M,,*7E
[2021-01-08 10:24:35.412] $GNGGA,012433.10,4304.167846000,N,14120.432202000,E,1,13,0.88,18.191,M,32.006,M,,*7B
[2021-01-08 10:24:35.506] $GNGGA,012433.20,4304.167846000,N,14120.432202000,E,1,13,0.88,18.185,M,32.006,M,,*7D
[2021-01-08 10:24:35.615] $GNGGA,012433.30,4304.167846000,N,14120.432202000,E,1,13,0.88,18.186,M,32.006,M,,*7F
[2021-01-08 10:24:35.709] $GNGGA,012433.40,4304.167846000,N,14120.432202000,E,1,13,0.88,18.177,M,32.006,M,,*76
[2021-01-08 10:24:35.818] $GNGGA,012433.50,4304.167846000,N,14120.432202000,E,1,13,0.88,18.176,M,32.006,M,,*76
[2021-01-08 10:24:35.912] $GNGGA,012433.60,4304.167846000,N,14120.432202000,E,1,13,0.88,18.175,M,32.006,M,,*76
[2021-01-08 10:24:36.006] $GNGGA,012433.70,4304.167846000,N,14120.432202000,E,1,13,0.88,18.168,M,32.006,M,,*7B
[2021-01-08 10:24:36.115] $GNGGA,012433.80,4304.167846000,N,14120.432202000,E,1,13,0.88,18.166,M,32.006,M,,*7A
[2021-01-08 10:24:36.209] $GNGGA,012433.90,4304.167846000,N,14120.432202000,E,1,13,0.88,18.163,M,32.006,M,,*7E
