
[2021-01-08 10:22:12.012] $GPGGA,012210.50,4304.1670203,N,14120.4319623,E,5,07,1.9,19.1254,M,31.96,M,5,0000*6C
[2021-01-08 10:22:12.043] $GPGGA,012210.60,4304.1670228,N,14120.4319639,E,5,07,1.9,19.1251,M,31.96,M,5,0000*68
[2021-01-08 10:22:12.043] $GPGGA,012210.70,4304.1670238,N,14120.4319618,E,5,07,1.9,19.1243,M,31.96,M,5,0000*68
[2021-01-08 10:22:12.043] $GPGGA,012210.80,4304.1670252,N,14120.4319620,E,5,07,1.9,19.1225,M,31.96,M,5,0000*60
[2021-01-08 10:22:12.043] $GPGGA,012210.90,4304.1670266,N,14120.4319585,E,5,07,1.9,19.1231,M,31.96,M,5,0000*6F
[2021-01-08 10:22:12.043] $GPGGA,012211.00,4304.1670258,N,14120.4319563,E,5,07,1.9,19.1212,M,31.96,M,6,0000*60
[2021-01-08 10:22:12.043] $GPGGA,012211.10,4304.1670270,N,14120.4319552,E,5,07,1.9,19.1228,M,31.96,M,6,0000*60
[2021-01-08 10:22:12.043] $GPGGA,012211.20,4304.1670283,N,14120.4319482,E,5,07,1.9,19.1246,M,31.96,M,1,0000*6C
[2021-01-08 10:22:12.043] $GPGGA,012211.30,4304.1670280,N,14120.4319433,E,5,07,1.9,19.1251,M,31.96,M,1,0000*62
[2021-01-08 10:22:12.043] $GPGGA,012211.40,4304.1670294,N,14120.4319404,E,5,07,1.9,19.1258,M,31.96,M,1,0000*6D
[2021-01-08 10:22:12.043] $GPGGA,012211.50,4304.1670279,N,14120.4319386,E,5,07,1.9,19.1226,M,31.96,M,1,0000*6B
[2021-01-08 10:22:12.043] $GPGGA,012211.60,4304.1670269,N,14120.4319367,E,5,07,1.9,19.1217,M,31.96,M,1,0000*64
[2021-01-08 10:22:12.059] $GPGGA,012211.70,4304.1670280,N,14120.4319353,E,5,07,1.9,19.1215,M,31.96,M,1,0000*67
[2021-01-08 10:22:12.059] $GPGGA,012211.80,4304.1670282,N,14120.4319324,E,5,07,1.9,19.1223,M,31.96,M,1,0000*6F
[2021-01-08 10:22:12.059] $GPGGA,012211.90,4304.1670280,N,14120.4319286,E,5,07,1.9,19.1224,M,31.96,M,1,0000*62
[2021-01-08 10:22:12.059] $GPGGA,012212.00,4304.1670280,N,14120.4319242,E,5,07,1.9,19.1252,M,31.96,M,2,0000*62
[2021-01-08 10:22:12.059] $GPGGA,012212.10,4304.1670283,N,14120.4319235,E,5,07,1.9,19.1230,M,31.96,M,2,0000*64
[2021-01-08 10:22:12.059] $GPGGA,012212.20,4304.1670276,N,14120.4319192,E,5,07,1.9,19.1216,M,31.96,M,2,0000*67
[2021-01-08 10:22:12.059] $GPGGA,012212.30,4304.1670295,N,14120.4319184,E,5,07,1.9,19.1188,M,31.96,M,2,0000*68
[2021-01-08 10:22:12.059] $GPGGA,012212.40,4304.1670290,N,14120.4319146,E,5,07,1.9,19.1202,M,31.96,M,2,0000*65
[2021-01-08 10:22:12.059] $GPGGA,012212.50,4304.1670285,N,14120.4319113,E,5,07,1.9,19.1213,M,31.96,M,2,0000*60
[2021-01-08 10:22:12.059] $GPGGA,012212.60,4304.1670278,N,14120.4319088,E,5,07,1.9,19.1193,M,31.96,M,2,0000*69
[2021-01-08 10:22:12.059] $GPGGA,012212.70,4304.1670275,N,14120.4319055,E,5,07,1.9,19.1220,M,31.96,M,2,0000*6E
[2021-01-08 10:22:12.059] $GPGGA,012212.80,4304.1670272,N,14120.4319027,E,5,07,1.9,19.1268,M,31.96,M,2,0000*6F
[2021-01-08 10:22:12.074] $GPGGA,012212.90,4304.1670266,N,14120.4319014,E,5,07,1.9,19.1293,M,31.96,M,2,0000*6F
[2021-01-08 10:22:12.074] $GPGGA,012213.00,4304.1670264,N,14120.4319009,E,5,07,1.9,19.1346,M,31.96,M,3,0000*61
[2021-01-08 10:22:12.074] $GPGGA,012213.10,4304.1670266,N,14120.4318998,E,5,07,1.9,19.1385,M,31.96,M,3,0000*6D
[2021-01-08 10:22:12.074] $GPGGA,012213.20,4304.1670252,N,14120.4318961,E,5,07,1.9,19.1460,M,31.96,M,3,0000*63
[2021-01-08 10:22:12.074] $GPGGA,012213.30,4304.1670238,N,14120.4318945,E,5,07,1.9,19.1495,M,31.96,M,3,0000*62
[2021-01-08 10:22:12.074] $GPGGA,012213.40,4304.1670233,N,14120.4318908,E,5,07,1.9,19.1530,M,31.96,M,3,0000*69
[2021-01-08 10:22:12.074] $GPGGA,012213.50,4304.1670215,N,14120.4318873,E,5,07,1.9,19.1534,M,31.96,M,3,0000*65
[2021-01-08 10:22:12.074] $GPGGA,012213.60,4304.1670194,N,14120.4318842,E,5,07,1.9,19.1530,M,31.96,M,3,0000*6A
[2021-01-08 10:22:12.074] $GPGGA,012213.70,4304.1670173,N,14120.4318795,E,5,07,1.9,19.1519,M,31.96,M,3,0000*6C
[2021-01-08 10:22:12.074] $GPGGA,012213.80,4304.1670167,N,14120.4318764,E,5,07,1.9,19.1539,M,31.96,M,3,0000*6A
[2021-01-08 10:22:12.074] $GPGGA,012213.90,4304.1670153,N,14120.4318743,E,5,07,1.9,19.1503,M,31.96,M,3,0000*60
[2021-01-08 10:22:12.074] $GPGGA,012214.00,4304.1670127,N,14120.4318712,E,5,07,1.9,19.1451,M,31.96,M,4,0000*68
[2021-01-08 10:22:12.106] $GPGGA,012214.10,4304.1670140,N,14120.4318698,E,5,07,1.9,19.1419,M,31.96,M,4,0000*67
[2021-01-08 10:22:12.106] $GPGGA,012214.20,4304.1670121,N,14120.4318666,E,5,07,1.9,19.1388,M,31.96,M,4,0000*6D
[2021-01-08 10:22:12.106] $GPGGA,012214.30,4304.1670111,N,14120.4318649,E,5,07,1.9,19.1360,M,31.96,M,4,0000*64
[2021-01-08 10:22:12.106] $GPGGA,012214.40,4304.1670095,N,14120.4318628,E,5,07,1.9,19.1341,M,31.96,M,4,0000*6A
[2021-01-08 10:22:12.106] $GPGGA,012214.50,4304.1670058,N,14120.4318599,E,5,07,1.9,19.1313,M,31.96,M,4,0000*64
[2021-01-08 10:22:12.106] $GPGGA,012214.60,4304.1670043,N,14120.4318582,E,5,07,1.9,19.1291,M,31.96,M,4,0000*6C
[2021-01-08 10:22:12.106] $GPGGA,012214.70,4304.1670040,N,14120.4318572,E,5,07,1.9,19.1274,M,31.96,M,4,0000*6A
[2021-01-08 10:22:12.106] $GPGGA,012214.80,4304.1670024,N,14120.4318554,E,5,07,1.9,19.1284,M,31.96,M,4,0000*6C
[2021-01-08 10:22:12.106] $GPGGA,012214.90,4304.1670005,N,14120.4318545,E,5,07,1.9,19.1263,M,31.96,M,4,0000*67
[2021-01-08 10:22:12.106] $GPGGA,012215.00,4304.1669996,N,14120.4318503,E,5,07,1.9,19.1320,M,31.96,M,5,0000*61
[2021-01-08 10:22:12.106] $GPGGA,012215.10,4304.1669997,N,14120.4318516,E,5,07,1.9,19.1321,M,31.96,M,5,0000*64
[2021-01-08 10:22:12.106] $GPGGA,012215.20,4304.1669990,N,14120.4318514,E,5,07,1.9,19.1344,M,31.96,M,5,0000*61
[2021-01-08 10:22:12.121] $GPGGA,012215.30,4304.1669962,N,14120.4318497,E,5,07,1.9,19.1364,M,31.96,M,5,0000*65
[2021-01-08 10:22:12.121] $GPGGA,012215.40,4304.1669959,N,14120.4318484,E,5,07,1.9,19.1407,M,31.96,M,5,0000*6A
[2021-01-08 10:22:12.121] $GPGGA,012215.50,4304.1669958,N,14120.4318489,E,5,07,1.9,19.1440,M,31.96,M,5,0000*64
[2021-01-08 10:22:12.121] $GPGGA,012215.60,4304.1669956,N,14120.4318477,E,5,07,1.9,19.1460,M,31.96,M,5,0000*6A
[2021-01-08 10:22:12.121] $GPGGA,012215.70,4304.1669945,N,14120.4318456,E,5,07,1.9,19.1466,M,31.96,M,5,0000*6C
[2021-01-08 10:22:12.121] $GPGGA,012215.80,4304.1669947,N,14120.4318426,E,5,07,1.9,19.1548,M,31.96,M,5,0000*6B
[2021-01-08 10:22:12.121] $GPGGA,012215.90,4304.1669923,N,14120.4318407,E,5,07,1.9,19.1633,M,31.96,M,5,0000*64
[2021-01-08 10:22:12.121] $GPGGA,012216.00,4304.1669937,N,14120.4318402,E,5,07,1.9,19.1673,M,31.96,M,6,0000*69
[2021-01-08 10:22:12.121] $GPGGA,012216.10,4304.1669937,N,14120.4318369,E,5,07,1.9,19.1714,M,31.96,M,6,0000*62
[2021-01-08 10:22:12.121] $GPGGA,012216.20,4304.1669915,N,14120.4318348,E,5,07,1.9,19.1802,M,31.96,M,1,0000*6D
[2021-01-08 10:22:12.121] $GPGGA,012216.30,4304.1669909,N,14120.4318323,E,5,07,1.9,19.1883,M,31.96,M,1,0000*65
[2021-01-08 10:22:12.137] $GPGGA,012216.40,4304.1669880,N,14120.4318281,E,5,07,1.9,19.1962,M,31.96,M,1,0000*65
[2021-01-08 10:22:12.137] $GPGGA,012216.50,4304.1669886,N,14120.4318253,E,5,07,1.9,19.2073,M,31.96,M,1,0000*67
[2021-01-08 10:22:12.137] $GPGGA,012216.60,4304.1669909,N,14120.4318238,E,5,07,1.9,19.2169,M,31.96,M,1,0000*65
[2021-01-08 10:22:12.137] $GPGGA,012216.70,4304.1669896,N,14120.4318209,E,5,07,1.9,19.2248,M,31.96,M,1,0000*61
[2021-01-08 10:22:12.137] $GPGGA,012216.80,4304.1669897,N,14120.4318192,E,5,07,1.9,19.2311,M,31.96,M,1,0000*63
[2021-01-08 10:22:12.137] $GPGGA,012216.90,4304.1669906,N,14120.4318180,E,5,07,1.9,19.2363,M,31.96,M,1,0000*6D
[2021-01-08 10:22:12.137] $GPGGA,012217.00,4304.1669897,N,14120.4318162,E,5,07,1.9,19.2399,M,31.96,M,2,0000*66
[2021-01-08 10:22:12.137] $GPGGA,012217.10,4304.1669881,N,14120.4318150,E,5,07,1.9,19.2427,M,31.96,M,2,0000*63
[2021-01-08 10:22:12.137] $GPGGA,012217.20,4304.1669881,N,14120.4318141,E,5,07,1.9,19.2460,M,31.96,M,2,0000*63
[2021-01-08 10:22:12.137] $GPGGA,012217.30,4304.1669859,N,14120.4318119,E,5,07,1.9,19.2498,M,31.96,M,2,0000*6D
[2021-01-08 10:22:12.137] $GPGGA,012217.40,4304.1669851,N,14120.4318096,E,5,07,1.9,19.2540,M,31.96,M,2,0000*60
[2021-01-08 10:22:12.137] $GPGGA,012217.50,4304.1669855,N,14120.4318078,E,5,07,1.9,19.2602,M,31.96,M,2,0000*60
[2021-01-08 10:22:12.152] $GPGGA,012217.60,4304.1669868,N,14120.4318070,E,5,07,1.9,19.2707,M,31.96,M,2,0000*61
[2021-01-08 10:22:12.152] $GPGGA,012217.70,4304.1669872,N,14120.4318066,E,5,07,1.9,19.2760,M,31.96,M,2,0000*6D
[2021-01-08 10:22:12.152] $GPGGA,012217.80,4304.1669857,N,14120.4318041,E,5,07,1.9,19.2814,M,31.96,M,2,0000*6C
[2021-01-08 10:22:12.152] $GPGGA,012217.90,4304.1669846,N,14120.4318018,E,5,07,1.9,19.2840,M,31.96,M,2,0000*60
[2021-01-08 10:22:12.152] $GPGGA,012218.00,4304.1669832,N,14120.4318009,E,5,07,1.9,19.2861,M,31.96,M,3,0000*67
[2021-01-08 10:22:12.152] $GPGGA,012218.10,4304.1669822,N,14120.4318000,E,5,07,1.9,19.2884,M,31.96,M,3,0000*65
[2021-01-08 10:22:12.152] $GPGGA,012218.20,4304.1669801,N,14120.4317989,E,5,07,1.9,19.2882,M,31.96,M,3,0000*66
[2021-01-08 10:22:12.152] $GPGGA,012218.30,4304.1669790,N,14120.4317972,E,5,07,1.9,19.2920,M,31.96,M,3,0000*6D
[2021-01-08 10:22:12.152] $GPGGA,012218.40,4304.1669761,N,14120.4317951,E,5,07,1.9,19.2921,M,31.96,M,3,0000*64
[2021-01-08 10:22:12.152] $GPGGA,012218.50,4304.1669741,N,14120.4317930,E,5,07,1.9,19.2952,M,31.96,M,3,0000*64
[2021-01-08 10:22:12.152] $GPGGA,012218.60,4304.1669729,N,14120.4317907,E,5,07,1.9,19.2948,M,31.96,M,3,0000*66
[2021-01-08 10:22:12.152] $GPGGA,012218.70,4304.1669691,N,14120.4317894,E,5,07,1.9,19.2946,M,31.96,M,3,0000*60
[2021-01-08 10:22:12.168] $GPGGA,012218.80,4304.1669683,N,14120.4317891,E,5,07,1.9,19.2943,M,31.96,M,3,0000*6C
[2021-01-08 10:22:12.168] $GPGGA,012218.90,4304.1669671,N,14120.4317879,E,5,07,1.9,19.2941,M,31.96,M,3,0000*64
[2021-01-08 10:22:12.168] $GPGGA,012219.00,4304.1669644,N,14120.4317871,E,5,07,1.9,19.2923,M,31.96,M,4,0000*61
[2021-01-08 10:22:12.168] $GPGGA,012219.10,4304.1669644,N,14120.4317894,E,5,07,1.9,19.2954,M,31.96,M,4,0000*6B
[2021-01-08 10:22:12.168] $GPGGA,012219.20,4304.1669634,N,14120.4317898,E,5,07,1.9,19.2968,M,31.96,M,4,0000*6C
[2021-01-08 10:22:12.168] $GPGGA,012219.30,4304.1669619,N,14120.4317904,E,5,07,1.9,19.2990,M,31.96,M,4,0000*61
[2021-01-08 10:22:12.168] $GPGGA,012219.40,4304.1669608,N,14120.4317895,E,5,07,1.9,19.3046,M,31.96,M,4,0000*6C
[2021-01-08 10:22:12.168] $GPGGA,012219.50,4304.1669593,N,14120.4317892,E,5,07,1.9,19.3077,M,31.96,M,4,0000*69
[2021-01-08 10:22:12.168] $GPGGA,012219.60,4304.1669588,N,14120.4317887,E,5,07,1.9,19.3126,M,31.96,M,4,0000*61
[2021-01-08 10:22:12.168] $GPGGA,012219.70,4304.1669582,N,14120.4317885,E,5,07,1.9,19.3165,M,31.96,M,4,0000*6F
[2021-01-08 10:22:12.168] $GPGGA,012219.80,4304.1669578,N,14120.4317888,E,5,07,1.9,19.3178,M,31.96,M,4,0000*64
[2021-01-08 10:22:12.168] $GPGGA,012219.90,4304.1669566,N,14120.4317868,E,5,07,1.9,19.3213,M,31.96,M,4,0000*6A
[2021-01-08 10:22:12.168] $GPGGA,012220.00,4304.16690,4304.1669673,N,14120.4317429,E,5,07,1.9,19.5054,M,31.96,M,2,0000*68
[2021-01-08 10:22:12.168] $GPGGA,012228.00,4304.1669677,N,14120.4317429,E,5,07,1.9,19.5081,M,31.96,M,3,0000*63
[2021-01-08 10:22:12.215] $GPGGA,012228.10,4304.1669688,N,14120.4317437,E,5,07,1.9,19.5090,M,31.96,M,3,0000*6D
[2021-01-08 10:22:12.324] $GPGGA,012228.20,4304.1669685,N,14120.4317437,E,5,07,1.9,19.5099,M,31.96,M,3,0000*6A
[2021-01-08 10:22:12.418] $GPGGA,012228.30,4304.1669704,N,14120.4317455,E,5,07,1.9,19.5106,M,31.96,M,3,0000*60
[2021-01-08 10:22:12.527] $GPGGA,012228.40,4304.1669708,N,14120.4317464,E,5,07,1.9,19.5105,M,31.96,M,3,0000*6A
[2021-01-08 10:22:12.621] $GPGGA,012228.50,4304.1669710,N,14120.4317461,E,5,07,1.9,19.5117,M,31.96,M,3,0000*64
[2021-01-08 10:22:12.730] $GPGGA,012228.60,4304.1669706,N,14120.4317463,E,5,07,1.9,19.5113,M,31.96,M,3,0000*66
[2021-01-08 10:22:12.824] $GPGGA,012228.70,4304.1669692,N,14120.4317447,E,5,07,1.9,19.5134,M,31.96,M,3,0000*68
[2021-01-08 10:22:12.918] $GPGGA,012228.80,4304.1669703,N,14120.4317459,E,5,07,1.9,19.5137,M,31.96,M,3,0000*62
[2021-01-08 10:22:13.012] $GPGGA,012228.90,4304.1669709,N,14120.4317460,E,5,07,1.9,19.5153,M,31.96,M,3,0000*61
[2021-01-08 10:22:13.121] $GPGGA,012229.00,4304.1669698,N,14120.4317457,E,5,07,1.9,19.5132,M,31.96,M,4,0000*64
[2021-01-08 10:22:13.230] $GPGGA,012229.10,4304.1669711,N,14120.4317459,E,5,07,1.9,19.5151,M,31.96,M,4,0000*6E
[2021-01-08 10:22:13.324] $GPGGA,012229.20,4304.1669704,N,14120.4317465,E,5,07,1.9,19.5139,M,31.96,M,4,0000*68
[2021-01-08 10:22:13.418] $GPGGA,012229.30,4304.1669700,N,14120.4317460,E,5,07,1.9,19.5156,M,31.96,M,4,0000*61
[2021-01-08 10:22:13.527] $GPGGA,012229.40,4304.1669697,N,14120.4317447,E,5,07,1.9,19.5183,M,31.96,M,4,0000*64
[2021-01-08 10:22:13.621] $GPGGA,012229.50,4304.1669717,N,14120.4317462,E,5,07,1.9,19.5210,M,31.96,M,4,0000*62
[2021-01-08 10:22:13.715] $GPGGA,012229.60,4304.1669716,N,14120.4317470,E,5,07,1.9,19.5188,M,31.96,M,4,0000*61
[2021-01-08 10:22:13.824] $GPGGA,012229.70,4304.1669716,N,14120.4317473,E,5,07,1.9,19.5180,M,31.96,M,4,0000*6B
[2021-01-08 10:22:13.918] $GPGGA,012229.80,4304.1669712,N,14120.4317476,E,5,07,1.9,19.5185,M,31.96,M,4,0000*60
[2021-01-08 10:22:14.027] $GPGGA,012229.90,4304.1669700,N,14120.4317476,E,5,07,1.9,19.5166,M,31.96,M,4,0000*6F
[2021-01-08 10:22:14.121] $GPGGA,012230.00,4304.1669694,N,14120.4317481,E,5,07,1.9,19.5130,M,31.96,M,5,0000*68
[2021-01-08 10:22:14.215] $GPGGA,012230.10,4304.1669672,N,14120.4317488,E,5,07,1.9,19.5105,M,31.96,M,5,0000*6E
[2021-01-08 10:22:14.324] $GPGGA,012230.20,4304.1669643,N,14120.4317477,E,5,07,1.9,19.5079,M,31.96,M,5,0000*65
[2021-01-08 10:22:14.418] $GPGGA,012230.30,4304.1669647,N,14120.4317486,E,5,07,1.9,19.5063,M,31.96,M,5,0000*65
[2021-01-08 10:22:14.512] $GPGGA,012230.40,4304.1669632,N,14120.4317485,E,5,07,1.9,19.5031,M,31.96,M,5,0000*64
[2021-01-08 10:22:14.621] $GPGGA,012230.50,4304.1669630,N,14120.4317492,E,5,07,1.9,19.5026,M,31.96,M,5,0000*67
[2021-01-08 10:22:14.715] $GPGGA,012230.60,4304.1669631,N,14120.4317496,E,5,07,1.9,19.4996,M,31.96,M,5,0000*62
[2021-01-08 10:22:14.824] $GPGGA,012230.70,4304.1669607,N,14120.4317482,E,5,07,1.9,19.4969,M,31.96,M,5,0000*63
[2021-01-08 10:22:14.918] $GPGGA,012230.80,4304.1669605,N,14120.4317469,E,5,07,1.9,19.4986,M,31.96,M,5,0000*6A
[2021-01-08 10:22:15.027] $GPGGA,012230.90,4304.1669605,N,14120.4317472,E,5,07,1.9,19.4954,M,31.96,M,5,0000*6E
[2021-01-08 10:22:15.121] $GPGGA,012231.00,4304.1669596,N,14120.4317466,E,5,07,1.9,19.4935,M,31.96,M,6,0000*6E
[2021-01-08 10:22:15.215] $GPGGA,012231.10,4304.1669603,N,14120.4317470,E,5,07,1.9,19.4930,M,31.96,M,6,0000*62
[2021-01-08 10:22:15.324] $GPGGA,012231.20,4304.1669547,N,14120.4317446,E,5,07,1.9,19.4955,M,31.96,M,1,0000*63
[2021-01-08 10:22:15.418] $GPGGA,012231.30,4304.1669522,N,14120.4317426,E,5,07,1.9,19.4975,M,31.96,M,1,0000*65
[2021-01-08 10:22:15.527] $GPGGA,012231.40,4304.1669492,N,14120.4317389,E,5,07,1.9,19.4993,M,31.96,M,1,0000*62
[2021-01-08 10:22:15.621] $GPGGA,012231.50,4304.1669466,N,14120.4317374,E,5,07,1.9,19.4981,M,31.96,M,1,0000*69
[2021-01-08 10:22:15.715] $GPGGA,012231.60,4304.1669459,N,14120.4317381,E,5,07,1.9,19.4948,M,31.96,M,1,0000*69
[2021-01-08 10:22:15.824] $GPGGA,012231.70,4304.1669455,N,14120.4317377,E,5,07,1.9,19.4938,M,31.96,M,1,0000*6A
[2021-01-08 10:22:15.918] $GPGGA,012231.80,4304.1669450,N,14120.4317369,E,5,07,1.9,19.4930,M,31.96,M,1,0000*67
[2021-01-08 10:22:16.012] $GPGGA,012231.90,4304.1669457,N,14120.4317366,E,5,07,1.9,19.4898,M,31.96,M,1,0000*6D
[2021-01-08 10:22:16.121] $GPGGA,012232.00,4304.1669465,N,14120.4317374,E,5,07,1.9,19.4870,M,31.96,M,2,0000*60
[2021-01-08 10:22:16.215] $GPGGA,012232.10,4304.1669450,N,14120.4317367,E,5,07,1.9,19.4820,M,31.96,M,2,0000*60
[2021-01-08 10:22:16.324] $GPGGA,012232.20,4304.1669442,N,14120.4317368,E,5,07,1.9,19.4792,M,31.96,M,2,0000*69
[2021-01-08 10:22:16.418] $GPGGA,012232.30,4304.1669427,N,14120.4317364,E,5,07,1.9,19.4784,M,31.96,M,2,0000*60
[2021-01-08 10:22:16.527] $GPGGA,012232.40,4304.1669400,N,14120.4317352,E,5,07,1.9,19.4766,M,31.96,M,2,0000*6B
[2021-01-08 10:22:16.621] $GPGGA,012232.50,4304.1669406,N,14120.4317340,E,5,07,1.9,19.4771,M,31.96,M,2,0000*69
[2021-01-08 10:22:16.715] $GPGGA,012232.60,4304.1669410,N,14120.4317335,E,5,07,1.9,19.4749,M,31.96,M,2,0000*64
[2021-01-08 10:22:16.824] $GPGGA,012232.70,4304.1669392,N,14120.4317346,E,5,07,1.9,19.4713,M,31.96,M,2,0000*63
[2021-01-08 10:22:16.918] $GPGGA,012232.80,4304.1669398,N,14120.4317354,E,5,07,1.9,19.4678,M,31.96,M,2,0000*69
[2021-01-08 10:22:17.027] $GPGGA,012232.90,4304.1669383,N,14120.4317361,E,5,07,1.9,19.4664,M,31.96,M,2,0000*69
[2021-01-08 10:22:17.121] $GPGGA,012233.00,4304.1669374,N,14120.4317349,E,5,07,1.9,19.4603,M,31.96,M,3,0000*63
[2021-01-08 10:22:17.230] $GPGGA,012233.10,4304.1669371,N,14120.4317361,E,5,07,1.9,19.4595,M,31.96,M,3,0000*61
[2021-01-08 10:22:17.324] $GPGGA,012233.20,4304.1669374,N,14120.4317363,E,5,07,1.9,19.4609,M,31.96,M,3,0000*63
[2021-01-08 10:22:17.418] $GPGGA,012233.30,4304.1669377,N,14120.4317358,E,5,07,1.9,19.4630,M,31.96,M,3,0000*63
[2021-01-08 10:22:17.527] $GPGGA,012233.40,4304.1669382,N,14120.4317359,E,5,07,1.9,19.4649,M,31.96,M,3,0000*61
[2021-01-08 10:22:17.621] $GPGGA,012233.50,4304.1669382,N,14120.4317358,E,5,07,1.9,19.4639,M,31.96,M,3,0000*66
[2021-01-08 10:22:17.714] $GPGGA,012233.60,4304.1669380,N,14120.4317362,E,5,07,1.9,19.4632,M,31.96,M,3,0000*65
[2021-01-08 10:22:17.824] $GPGGA,012233.70,4304.1669375,N,14120.4317370,E,5,07,1.9,19.4599,M,31.96,M,3,0000*6F
[2021-01-08 10:22:17.918] $GPGGA,012233.80,4304.1669356,N,14120.4317367,E,5,07,1.9,19.4547,M,31.96,M,3,0000*64
[2021-01-08 10:22:18.027] $GPGGA,012233.90,4304.1669338,N,14120.4317360,E,5,07,1.9,19.4520,M,31.96,M,3,0000*6B
[2021-01-08 10:22:18.121] $GPGGA,012234.00,4304.1669315,N,14120.4317351,E,5,07,1.9,19.4476,M,31.96,M,4,0000*6D
[2021-01-08 10:22:18.214] $GPGGA,012234.10,4304.1669305,N,14120.4317342,E,5,07,1.9,19.4452,M,31.96,M,4,0000*69
[2021-01-08 10:22:18.949] $GPGGA,012234.20,4304.1669295,N,14120.4317348,E,5,07,1.9,19.4408,M,31.96,M,4,0000*67
[2021-01-08 10:22:18.949] $GPGGA,012234.30,4304.1669291,N,14120.4317332,E,5,07,1.9,19.4380,M,31.96,M,4,0000*68
[2021-01-08 10:22:18.949] $GPGGA,012234.40,4304.1669295,N,14120.4317336,E,5,07,1.9,19.4343,M,31.96,M,4,0000*60
[2021-01-08 10:22:18.949] $GPGGA,012234.50,4304.1669280,N,14120.4317324,E,5,07,1.9,19.4341,M,31.96,M,4,0000*64
[2021-01-08 10:22:18.949] $GPGGA,012234.60,4304.1669273,N,14120.4317308,E,5,07,1.9,19.4327,M,31.96,M,4,0000*65
[2021-01-08 10:22:18.949] $GPGGA,012234.70,4304.1669264,N,14120.4317294,E,5,07,1.9,19.4328,M,31.96,M,4,0000*69
[2021-01-08 10:22:18.949] $GPGGA,012234.80,4304.1669263,N,14120.4317285,E,5,07,1.9,19.4336,M,31.96,M,4,0000*6E
[2021-01-08 10:22:19.027] $GPGGA,012234.90,4304.1669276,N,14120.4317284,E,5,07,1.9,19.4336,M,31.96,M,4,0000*6A
[2021-01-08 10:22:19.121] $GPGGA,012235.00,4304.1669288,N,14120.4317290,E,5,07,1.9,19.4311,M,31.96,M,5,0000*62
[2021-01-08 10:22:19.214] $GPGGA,012235.10,4304.1669276,N,14120.4317281,E,5,07,1.9,19.4278,M,31.96,M,5,0000*6C
[2021-01-08 10:22:19.324] $GPGGA,012235.20,4304.1669268,N,14120.4317273,E,5,07,1.9,19.4274,M,31.96,M,5,0000*61
[2021-01-08 10:22:19.418] $GPGGA,012235.30,4304.1669285,N,14120.4317273,E,5,07,1.9,19.4283,M,31.96,M,5,0000*6B
[2021-01-08 10:22:19.527] $GPGGA,012235.40,4304.1669280,N,14120.4317271,E,5,07,1.9,19.4279,M,31.96,M,5,0000*6E
[2021-01-08 10:22:19.621] $GPGGA,012235.50,4304.1669277,N,14120.4317263,E,5,07,1.9,19.4267,M,31.96,M,5,0000*6B
[2021-01-08 10:22:19.730] $GPGGA,012235.60,4304.1669284,N,14120.4317275,E,5,07,1.9,19.4284,M,31.96,M,5,0000*6E
[2021-01-08 10:22:19.824] $GPGGA,012235.70,4304.1669309,N,14120.4317275,E,5,07,1.9,19.4322,M,31.96,M,5,0000*66
[2021-01-08 10:22:19.917] $GPGGA,012235.80,4304.1669306,N,14120.4317274,E,5,07,1.9,19.4343,M,31.96,M,5,0000*60
[2021-01-08 10:22:20.011] $GPGGA,012235.90,4304.1669309,N,14120.4317263,E,5,07,1.9,19.4374,M,31.96,M,5,0000*6C
[2021-01-08 10:22:20.121] $GPGGA,012236.00,4304.1669311,N,14120.4317251,E,5,07,1.9,19.4365,M,31.96,M,6,0000*6D
[2021-01-08 10:22:20.214] $GPGGA,012236.10,4304.1669332,N,14120.4317264,E,5,07,1.9,19.4367,M,31.96,M,6,0000*69
[2021-01-08 10:22:20.324] $GPGGA,012236.20,4304.1669331,N,14120.4317269,E,5,07,1.9,19.4310,M,31.96,M,1,0000*63
[2021-01-08 10:22:20.417] $GPGGA,012236.30,4304.1669338,N,14120.4317264,E,5,07,1.9,19.4291,M,31.96,M,1,0000*6E
[2021-01-08 10:22:20.527] $GPGGA,012236.40,4304.1669325,N,14120.4317263,E,5,07,1.9,19.4252,M,31.96,M,1,0000*6D
[2021-01-08 10:22:20.621] $GPGGA,012236.50,4304.1669328,N,14120.4317244,E,5,07,1.9,19.4254,M,31.96,M,1,0000*62
[2021-01-08 10:22:20.714] $GPGGA,012236.60,4304.1669307,N,14120.4317253,E,5,07,1.9,19.4229,M,31.96,M,1,0000*60
[2021-01-08 10:22:20.824] $GPGGA,012236.70,4304.1669300,N,14120.4317242,E,5,07,1.9,19.4229,M,31.96,M,1,0000*66
[2021-01-08 10:22:20.917] $GPGGA,012236.80,4304.1669306,N,14120.4317242,E,5,07,1.9,19.4242,M,31.96,M,1,0000*62
[2021-01-08 10:22:21.027] $GPGGA,012236.90,4304.1669315,N,14120.4317257,E,5,07,1.9,19.4233,M,31.96,M,1,0000*63
[2021-01-08 10:22:21.121] $GPGGA,012237.00,4304.1669290,N,14120.4317242,E,5,07,1.9,19.4222,M,31.96,M,2,0000*60
[2021-01-08 10:22:21.230] $GPGGA,012237.10,4304.1669286,N,14120.4317242,E,5,07,1.9,19.4217,M,31.96,M,2,0000*60
[2021-01-08 10:22:21.324] $GPGGA,012237.20,4304.1669289,N,14120.4317256,E,5,07,1.9,19.4207,M,31.96,M,2,0000*68
[2021-01-08 10:22:21.417] $GPGGA,012237.30,4304.1669284,N,14120.4317266,E,5,07,1.9,19.4211,M,31.96,M,2,0000*60
[2021-01-08 10:22:21.511] $GPGGA,012237.40,4304.1669252,N,14120.4317274,E,5,07,1.9,19.4195,M,31.96,M,2,0000*60
[2021-01-08 10:22:21.620] $GPGGA,012237.50,4304.1669245,N,14120.4317260,E,5,07,1.9,19.4220,M,31.96,M,2,0000*6F
[2021-01-08 10:22:21.714] $GPGGA,012237.60,4304.1669236,N,14120.4317250,E,5,07,1.9,19.4235,M,31.96,M,2,0000*6F
[2021-01-08 10:22:21.824] $GPGGA,012237.70,4304.1669236,N,14120.4317229,E,5,07,1.9,19.4258,M,31.96,M,2,0000*6B
[2021-01-08 10:22:21.917] $GPGGA,012237.80,4304.1669228,N,14120.4317227,E,5,07,1.9,19.4277,M,31.96,M,2,0000*68
[2021-01-08 10:22:22.027] $GPGGA,012237.90,4304.1669210,N,14120.4317224,E,5,07,1.9,19.4268,M,31.96,M,2,0000*6F
[2021-01-08 10:22:22.120] $GPGGA,012238.00,4304.1669207,N,14120.4317232,E,5,07,1.9,19.4277,M,31.96,M,3,0000*67
[2021-01-08 10:22:22.214] $GPGGA,012238.10,4304.1669207,N,14120.4317224,E,5,07,1.9,19.4306,M,31.96,M,3,0000*66
[2021-01-08 10:22:22.324] $GPGGA,012238.20,4304.1669199,N,14120.4317217,E,5,07,1.9,19.4336,M,31.96,M,3,0000*62
[2021-01-08 10:22:22.417] $GPGGA,012238.30,4304.1669190,N,14120.4317222,E,5,07,1.9,19.4342,M,31.96,M,3,0000*6F
[2021-01-08 10:22:22.527] $GPGGA,012238.40,4304.1669176,N,14120.4317205,E,5,07,1.9,19.4351,M,31.96,M,3,0000*67
[2021-01-08 10:22:22.620] $GPGGA,012238.50,4304.1669158,N,14120.4317190,E,5,07,1.9,19.4379,M,31.96,M,3,0000*6F
[2021-01-08 10:22:22.730] $GPGGA,012238.60,4304.1669146,N,14120.4317193,E,5,07,1.9,19.4383,M,31.96,M,3,0000*65
[2021-01-08 10:22:22.824] $GPGGA,012238.70,4304.1669128,N,14120.4317191,E,5,07,1.9,19.4331,M,31.96,M,3,0000*67
[2021-01-08 10:22:22.917] $GPGGA,012238.80,4304.1669124,N,14120.4317188,E,5,07,1.9,19.4310,M,31.96,M,3,0000*6F
[2021-01-08 10:22:23.027] $GPGGA,012238.90,4304.1669100,N,14120.4317185,E,5,07,1.9,19.4291,M,31.96,M,3,0000*6D
[2021-01-08 10:22:23.120] $GPGGA,012239.00,4304.1669100,N,14120.4317192,E,5,07,1.9,19.4289,M,31.96,M,4,0000*6D
[2021-01-08 10:22:23.214] $GPGGA,012239.10,4304.1669110,N,14120.4317202,E,5,07,1.9,19.4288,M,31.96,M,4,0000*66
[2021-01-08 10:22:23.323] $GPGGA,012239.20,4304.1669102,N,14120.4317197,E,5,07,1.9,19.4286,M,31.96,M,4,0000*67
[2021-01-08 10:22:23.417] $GPGGA,012239.30,4304.1669108,N,14120.4317204,E,5,07,1.9,19.4314,M,31.96,M,4,0000*6F
[2021-01-08 10:22:23.527] $GPGGA,012239.40,4304.1669110,N,14120.4317193,E,5,07,1.9,19.4323,M,31.96,M,4,0000*68
[2021-01-08 10:22:23.620] $GPGGA,012239.50,4304.1669107,N,14120.4317209,E,5,07,1.9,19.4329,M,31.96,M,4,0000*65
[2021-01-08 10:22:23.714] $GPGGA,012239.60,4304.1669103,N,14120.4317208,E,5,07,1.9,19.4318,M,31.96,M,4,0000*61
[2021-01-08 10:22:23.823] $GPGGA,012239.70,4304.1669108,N,14120.4317204,E,5,07,1.9,19.4304,M,31.96,M,4,0000*6A
[2021-01-08 10:22:23.917] $GPGGA,012239.80,4304.1669106,N,14120.4317202,E,5,07,1.9,19.4288,M,31.96,M,4,0000*68
[2021-01-08 10:22:24.027] $GPGGA,012239.90,4304.1669102,N,14120.4317195,E,5,07,1.9,19.4269,M,31.96,M,4,0000*6F
[2021-01-08 10:22:24.120] $GPGGA,012240.00,4304.1669091,N,14120.4317202,E,5,07,1.9,19.4228,M,31.96,M,5,0000*6A
[2021-01-08 10:22:24.230] $GPGGA,012240.10,4304.1669080,N,14120.4317194,E,5,07,1.9,19.4215,M,31.96,M,5,0000*69
[2021-01-08 10:22:24.323] $GPGGA,012240.20,4304.1669071,N,14120.4317185,E,5,07,1.9,19.4199,M,31.96,M,5,0000*63
[2021-01-08 10:22:24.417] $GPGGA,012240.30,4304.1669069,N,14120.4317178,E,5,07,1.9,19.4188,M,31.96,M,5,0000*69
[2021-01-08 10:22:24.527] $GPGGA,012240.40,4304.1669050,N,14120.4317180,E,5,07,1.9,19.4176,M,31.96,M,5,0000*62
[2021-01-08 10:22:24.620] $GPGGA,012240.50,4304.1669052,N,14120.4317184,E,5,07,1.9,19.4153,M,31.96,M,5,0000*62
[2021-01-08 10:22:24.714] $GPGGA,012240.60,4304.1669042,N,14120.4317184,E,5,07,1.9,19.4137,M,31.96,M,5,0000*62
[2021-01-08 10:22:24.823] $GPGGA,012240.70,4304.1669032,N,14120.4317161,E,5,07,1.9,19.4130,M,31.96,M,5,0000*68
[2021-01-08 10:22:24.917] $GPGGA,012240.80,4304.1669023,N,14120.4317155,E,5,07,1.9,19.4130,M,31.96,M,5,0000*60
[2021-01-08 10:22:25.026] $GPGGA,012240.90,4304.1669017,N,14120.4317152,E,5,07,1.9,19.4114,M,31.96,M,5,0000*67
[2021-01-08 10:22:25.120] $GPGGA,012241.00,4304.1669016,N,14120.4317156,E,5,07,1.9,19.4106,M,31.96,M,6,0000*6A
[2021-01-08 10:22:25.214] $GPGGA,012241.10,4304.1669011,N,14120.4317144,E,5,07,1.9,19.4108,M,31.96,M,6,0000*61
[2021-01-08 10:22:25.323] $GPGGA,012241.20,4304.1668985,N,14120.4317091,E,5,07,1.9,19.4146,M,31.96,M,1,0000*63
[2021-01-08 10:22:25.417] $GPGGA,012241.30,4304.1668956,N,14120.4317050,E,5,07,1.9,19.4160,M,31.96,M,1,0000*65
[2021-01-08 10:22:25.511] $GPGGA,012241.40,4304.1668937,N,14120.4317030,E,5,07,1.9,19.4168,M,31.96,M,1,0000*6B
[2021-01-08 10:22:25.620] $GPGGA,012241.50,4304.1668925,N,14120.4317016,E,5,07,1.9,19.4192,M,31.96,M,1,0000*68
[2021-01-08 10:22:25.730] $GPGGA,012241.60,4304.1668915,N,14120.4317006,E,5,07,1.9,19.4205,M,31.96,M,1,0000*64
[2021-01-08 10:22:25.823] $GPGGA,012241.70,4304.1668901,N,14120.4316995,E,5,07,1.9,19.4212,M,31.96,M,1,0000*64
[2021-01-08 10:22:25.917] $GPGGA,012241.80,4304.1668897,N,14120.4316986,E,5,07,1.9,19.4238,M,31.96,M,1,0000*6F
[2021-01-08 10:22:26.026] $GPGGA,012241.90,4304.1668894,N,14120.4316976,E,5,07,1.9,19.4252,M,31.96,M,1,0000*6E
[2021-01-08 10:22:26.120] $GPGGA,012242.00,4304.1668890,N,14120.4316961,E,5,07,1.9,19.4293,M,31.96,M,2,0000*68
[2021-01-08 10:22:26.214] $GPGGA,012242.10,4304.1668876,N,14120.4316962,E,5,07,1.9,19.4276,M,31.96,M,2,0000*69
[2021-01-08 10:22:26.323] $GPGGA,012242.20,4304.1668857,N,14120.4316952,E,5,07,1.9,19.4230,M,31.96,M,2,0000*68
[2021-01-08 10:22:26.417] $GPGGA,012242.30,4304.1668870,N,14120.4316962,E,5,07,1.9,19.4230,M,31.96,M,2,0000*6F
[2021-01-08 10:22:26.526] $GPGGA,012242.40,4304.1668853,N,14120.4316958,E,5,07,1.9,19.4183,M,31.96,M,2,0000*6B
[2021-01-08 10:22:26.620] $GPGGA,012242.50,4304.1668857,N,14120.4316953,E,5,07,1.9,19.4176,M,31.96,M,2,0000*6F
[2021-01-08 10:22:26.714] $GPGGA,012242.60,4304.1668850,N,14120.4316947,E,5,07,1.9,19.4185,M,31.96,M,2,0000*62
[2021-01-08 10:22:26.823] $GPGGA,012242.70,4304.1668824,N,14120.4316934,E,5,07,1.9,19.4165,M,31.96,M,2,0000*6A
[2021-01-08 10:22:26.917] $GPGGA,012242.80,4304.1668808,N,14120.4316941,E,5,07,1.9,19.4140,M,31.96,M,2,0000*6E
[2021-01-08 10:22:27.011] $GPGGA,012242.90,4304.1668787,N,14120.4316938,E,5,07,1.9,19.4119,M,31.96,M,2,0000*65
[2021-01-08 10:22:27.120] $GPGGA,012243.00,4304.1668777,N,14120.4316933,E,5,07,1.9,19.4093,M,31.96,M,3,0000*6B
[2021-01-08 10:22:27.214] $GPGGA,012243.10,4304.1668762,N,14120.4316936,E,5,07,1.9,19.4081,M,31.96,M,3,0000*68
[2021-01-08 10:22:27.323] $GPGGA,012243.20,4304.1668753,N,14120.4316933,E,5,07,1.9,19.4057,M,31.96,M,3,0000*67
[2021-01-08 10:22:27.417] $GPGGA,012243.30,4304.1668745,N,14120.4316946,E,5,07,1.9,19.4009,M,31.96,M,3,0000*68
[2021-01-08 10:22:27.526] $GPGGA,012243.40,4304.1668740,N,14120.4316924,E,5,07,1.9,19.4013,M,31.96,M,3,0000*65
[2021-01-08 10:22:27.620] $GPGGA,012243.50,4304.1668734,N,14120.4316915,E,5,07,1.9,19.3998,M,31.96,M,3,0000*68
[2021-01-08 10:22:27.714] $GPGGA,012243.60,4304.1668720,N,14120.4316919,E,5,07,1.9,19.4000,M,31.96,M,3,0000*6D
[2021-01-08 10:22:27.823] $GPGGA,012243.70,4304.1668714,N,14120.4316902,E,5,07,1.9,19.3997,M,31.96,M,3,0000*61
[2021-01-08 10:22:27.917] $GPGGA,012243.80,4304.1668713,N,14120.4316890,E,5,07,1.9,19.3994,M,31.96,M,3,0000*60
[2021-01-08 10:22:28.026] $GPGGA,012243.90,4304.1668697,N,14120.4316890,E,5,07,1.9,19.3961,M,31.96,M,3,0000*66
[2021-01-08 10:22:28.120] $GPGGA,012244.00,4304.1668687,N,14120.4316871,E,5,07,1.9,19.3957,M,31.96,M,4,0000*64
[2021-01-08 10:22:28.229] $GPGGA,012244.10,4304.1668685,N,14120.4316869,E,5,07,1.9,19.3962,M,31.96,M,4,0000*68
[2021-01-08 10:22:28.323] $GPGGA,012244.20,4304.1668680,N,14120.4316874,E,5,07,1.9,19.3959,M,31.96,M,4,0000*6A
[2021-01-08 10:22:28.417] $GPGGA,012244.30,4304.1668671,N,14120.4316864,E,5,07,1.9,19.3975,M,31.96,M,4,0000*6A
[2021-01-08 10:22:28.511] $GPGGA,012244.40,4304.1668680,N,14120.4316862,E,5,07,1.9,19.3980,M,31.96,M,4,0000*6F
[2021-01-08 10:22:28.620] $GPGGA,012244.50,4304.1668676,N,14120.4316850,E,5,07,1.9,19.4001,M,31.96,M,4,0000*61
[2021-01-08 10:22:28.714] $GPGGA,012244.60,4304.1668683,N,14120.4316852,E,5,07,1.9,19.4008,M,31.96,M,4,0000*63
[2021-01-08 10:22:28.823] $GPGGA,012244.70,4304.1668660,N,14120.4316833,E,5,07,1.9,19.4022,M,31.96,M,4,0000*60
[2021-01-08 10:22:28.917] $GPGGA,012244.80,4304.1668640,N,14120.4316813,E,5,07,1.9,19.4019,M,31.96,M,4,0000*67
[2021-01-08 10:22:29.026] $GPGGA,012244.90,4304.1668626,N,14120.4316811,E,5,07,1.9,19.3985,M,31.96,M,4,0000*6F
[2021-01-08 10:22:29.120] $GPGGA,012245.00,4304.1668613,N,14120.4316802,E,5,07,1.9,19.3981,M,31.96,M,5,0000*66
[2021-01-08 10:22:29.214] $GPGGA,012245.10,4304.1668619,N,14120.4316790,E,5,07,1.9,19.3983,M,31.96,M,5,0000*6B
[2021-01-08 10:22:29.323] $GPGGA,012245.20,4304.1668599,N,14120.4316775,E,5,07,1.9,19.3974,M,31.96,M,5,0000*60
[2021-01-08 10:22:29.417] $GPGGA,012245.30,4304.1668578,N,14120.4316773,E,5,07,1.9,19.3958,M,31.96,M,5,0000*66
[2021-01-08 10:22:29.526] $GPGGA,012245.40,4304.1668557,N,14120.4316766,E,5,07,1.9,19.3951,M,31.96,M,5,0000*61
[2021-01-08 10:22:29.620] $GPGGA,012245.50,4304.1668541,N,14120.4316758,E,5,07,1.9,19.3939,M,31.96,M,5,0000*64
[2021-01-08 10:22:29.729] $GPGGA,012245.60,4304.1668544,N,14120.4316753,E,5,07,1.9,19.3960,M,31.96,M,5,0000*65
[2021-01-08 10:22:29.823] $GPGGA,012245.70,4304.1668538,N,14120.4316750,E,5,07,1.9,19.3969,M,31.96,M,5,0000*65
[2021-01-08 10:22:29.917] $GPGGA,012245.80,4304.1668527,N,14120.4316747,E,5,07,1.9,19.3982,M,31.96,M,5,0000*67
[2021-01-08 10:22:30.026] $GPGGA,012245.90,4304.1668522,N,14120.4316753,E,5,07,1.9,19.3972,M,31.96,M,5,0000*69
[2021-01-08 10:22:30.120] $GPGGA,012246.00,4304.1668513,N,14120.4316734,E,5,07,1.9,19.3967,M,31.96,M,6,0000*67
[2021-01-08 10:22:30.214] $GPGGA,012246.10,4304.1668506,N,14120.4316727,E,5,07,1.9,19.3972,M,31.96,M,6,0000*64
[2021-01-08 10:22:30.323] $GPGGA,012246.20,4304.1668472,N,14120.4316648,E,5,07,1.9,19.3999,M,31.96,M,1,0000*6F
[2021-01-08 10:22:30.417] $GPGGA,012246.30,4304.1668455,N,14120.4316596,E,5,07,1.9,19.4002,M,31.96,M,1,0000*67
[2021-01-08 10:22:30.526] $GPGGA,012246.40,4304.1668426,N,14120.4316567,E,5,07,1.9,19.4003,M,31.96,M,1,0000*6B
[2021-01-08 10:22:30.620] $GPGGA,012246.50,4304.1668412,N,14120.4316545,E,5,07,1.9,19.4025,M,31.96,M,1,0000*69
[2021-01-08 10:22:30.714] $GPGGA,012246.60,4304.1668410,N,14120.4316537,E,5,07,1.9,19.4051,M,31.96,M,1,0000*6E
[2021-01-08 10:22:30.823] $GPGGA,012246.70,4304.1668400,N,14120.4316535,E,5,07,1.9,19.4048,M,31.96,M,1,0000*64
[2021-01-08 10:22:30.917] $GPGGA,012246.80,4304.1668383,N,14120.4316528,E,5,07,1.9,19.4060,M,31.96,M,1,0000*61
[2021-01-08 10:22:31.026] $GPGGA,012246.90,4304.1668382,N,14120.4316530,E,5,07,1.9,19.4055,M,31.96,M,1,0000*6E
[2021-01-08 10:22:31.120] $GPGGA,012247.00,4304.1668360,N,14120.4316520,E,5,07,1.9,19.4037,M,31.96,M,2,0000*6C
[2021-01-08 10:22:31.229] $GPGGA,012247.10,4304.1668347,N,14120.4316521,E,5,07,1.9,19.4033,M,31.96,M,2,0000*6D
[2021-01-08 10:22:31.323] $GPGGA,012247.20,4304.1668333,N,14120.4316518,E,5,07,1.9,19.4034,M,31.96,M,2,0000*60
[2021-01-08 10:22:31.417] $GPGGA,012247.30,4304.1668332,N,14120.4316515,E,5,07,1.9,19.4035,M,31.96,M,2,0000*6C
[2021-01-08 10:22:31.526] $GPGGA,012247.40,4304.1668335,N,14120.4316514,E,5,07,1.9,19.4045,M,31.96,M,2,0000*6A
[2021-01-08 10:22:31.620] $GPGGA,012247.50,4304.1668324,N,14120.4316509,E,5,07,1.9,19.4041,M,31.96,M,2,0000*63
[2021-01-08 10:22:31.714] $GPGGA,012247.60,4304.1668316,N,14120.4316504,E,5,07,1.9,19.4047,M,31.96,M,2,0000*6A
[2021-01-08 10:22:31.823] $GPGGA,012247.70,4304.1668307,N,14120.4316504,E,5,07,1.9,19.4024,M,31.96,M,2,0000*6E
[2021-01-08 10:22:31.917] $GPGGA,012247.80,4304.1668287,N,14120.4316501,E,5,07,1.9,19.4008,M,31.96,M,2,0000*63
[2021-01-08 10:22:32.026] $GPGGA,012247.90,4304.1668264,N,14120.4316493,E,5,07,1.9,19.3988,M,31.96,M,2,0000*63
[2021-01-08 10:22:32.120] $GPGGA,012248.00,4304.1668261,N,14120.4316493,E,5,07,1.9,19.3966,M,31.96,M,3,0000*61
[2021-01-08 10:22:32.229] $GPGGA,012248.10,4304.1668246,N,14120.4316481,E,5,07,1.9,19.3956,M,31.96,M,3,0000*65
[2021-01-08 10:22:32.323] $GPGGA,012248.20,4304.1668241,N,14120.4316474,E,5,07,1.9,19.3964,M,31.96,M,3,0000*6A
[2021-01-08 10:22:32.417] $GPGGA,012248.30,4304.1668237,N,14120.4316476,E,5,07,1.9,19.3959,M,31.96,M,3,0000*66
[2021-01-08 10:22:32.510] $GPGGA,012248.40,4304.1668222,N,14120.4316470,E,5,07,1.9,19.3938,M,31.96,M,3,0000*64
[2021-01-08 10:22:32.620] $GPGGA,012248.50,4304.1668199,N,14120.4316462,E,5,07,1.9,19.3919,M,31.96,M,3,0000*66
[2021-01-08 10:22:32.713] $GPGGA,012248.60,4304.1668197,N,14120.4316463,E,5,07,1.9,19.3925,M,31.96,M,3,0000*65
[2021-01-08 10:22:32.823] $GPGGA,012248.70,4304.1668184,N,14120.4316449,E,5,07,1.9,19.3915,M,31.96,M,3,0000*6D
[2021-01-08 10:22:32.917] $GPGGA,012248.80,4304.1668171,N,14120.4316449,E,5,07,1.9,19.3931,M,31.96,M,3,0000*6E
[2021-01-08 10:22:33.026] $GPGGA,012248.90,4304.1668154,N,14120.4316451,E,5,07,1.9,19.3909,M,31.96,M,3,0000*6A
[2021-01-08 10:22:33.120] $GPGGA,012249.00,4304.1668141,N,14120.4316443,E,5,07,1.9,19.3890,M,31.96,M,4,0000*63
[2021-01-08 10:22:33.213] $GPGGA,012249.10,4304.1668125,N,14120.4316443,E,5,07,1.9,19.3863,M,31.96,M,4,0000*6C
[2021-01-08 10:22:33.323] $GPGGA,012249.20,4304.1668106,N,14120.4316448,E,5,07,1.9,19.3846,M,31.96,M,4,0000*62
[2021-01-08 10:22:33.417] $GPGGA,012249.30,4304.1668098,N,14120.4316456,E,5,07,1.9,19.3824,M,31.96,M,4,0000*6E
[2021-01-08 10:22:33.526] $GPGGA,012249.40,4304.1668089,N,14120.4316432,E,5,07,1.9,19.3801,M,31.96,M,4,0000*6C
[2021-01-08 10:22:33.620] $GPGGA,012249.50,4304.1668072,N,14120.4316425,E,5,07,1.9,19.3755,M,31.96,M,4,0000*61
[2021-01-08 10:22:33.729] $GPGGA,012249.60,4304.1668053,N,14120.4316424,E,5,07,1.9,19.3729,M,31.96,M,4,0000*6B
[2021-01-08 10:22:33.823] $GPGGA,012249.70,4304.1668048,N,14120.4316406,E,5,07,1.9,19.3733,M,31.96,M,4,0000*6B
[2021-01-08 10:22:33.916] $GPGGA,012249.80,4304.1668039,N,14120.4316400,E,5,07,1.9,19.3726,M,31.96,M,4,0000*60
[2021-01-08 10:22:34.026] $GPGGA,012249.90,4304.1668023,N,14120.4316414,E,5,07,1.9,19.3701,M,31.96,M,4,0000*6A
[2021-01-08 10:22:34.120] $GPGGA,012250.00,4304.1668009,N,14120.4316418,E,5,07,1.9,19.3680,M,31.96,M,5,0000*66
[2021-01-08 10:22:34.213] $GPGGA,012250.10,4304.1668005,N,14120.4316400,E,5,07,1.9,19.3686,M,31.96,M,5,0000*64
[2021-01-08 10:22:34.323] $GPGGA,012250.20,4304.1668002,N,14120.4316406,E,5,07,1.9,19.3667,M,31.96,M,5,0000*69
[2021-01-08 10:22:34.416] $GPGGA,012250.30,4304.1667980,N,14120.4316402,E,5,07,1.9,19.3659,M,31.96,M,5,0000*6D
[2021-01-08 10:22:34.526] $GPGGA,012250.40,4304.1667972,N,14120.4316401,E,5,07,1.9,19.3643,M,31.96,M,5,0000*6F
[2021-01-08 10:22:34.620] $GPGGA,012250.50,4304.1667971,N,14120.4316385,E,5,07,1.9,19.3642,M,31.96,M,5,0000*67
[2021-01-08 10:22:34.713] $GPGGA,012250.60,4304.1667961,N,14120.4316401,E,5,07,1.9,19.3643,M,31.96,M,5,0000*6F
[2021-01-08 10:22:34.823] $GPGGA,012250.70,4304.1667947,N,14120.4316401,E,5,07,1.9,19.3635,M,31.96,M,5,0000*6B
[2021-01-08 10:22:34.916] $GPGGA,012250.80,4304.1667929,N,14120.4316380,E,5,07,1.9,19.3634,M,31.96,M,5,0000*63
[2021-01-08 10:22:35.026] $GPGGA,012250.90,4304.1667916,N,14120.4316376,E,5,07,1.9,19.3597,M,31.96,M,5,0000*6D
[2021-01-08 10:22:35.120] $GPGGA,012251.00,4304.1667904,N,14120.4316383,E,5,07,1.9,19.3596,M,31.96,M,6,0000*6E
[2021-01-08 10:22:35.229] $GPGGA,012251.10,4304.1667897,N,14120.4316379,E,5,07,1.9,19.3587,M,31.96,M,6,0000*61
[2021-01-08 10:22:35.323] $GPGGA,012251.20,4304.1667882,N,14120.4316300,E,5,07,1.9,19.3560,M,31.96,M,1,0000*66
[2021-01-08 10:22:35.416] $GPGGA,012251.30,4304.1667865,N,14120.4316263,E,5,07,1.9,19.3563,M,31.96,M,1,0000*69
[2021-01-08 10:22:35.526] $GPGGA,012251.40,4304.1667854,N,14120.4316261,E,5,07,1.9,19.3517,M,31.96,M,1,0000*6D
[2021-01-08 10:22:35.620] $GPGGA,012251.50,4304.1667825,N,14120.4316239,E,5,07,1.9,19.3506,M,31.96,M,1,0000*67
[2021-01-08 10:22:35.713] $GPGGA,012251.60,4304.1667807,N,14120.4316225,E,5,07,1.9,19.3505,M,31.96,M,1,0000*6A
[2021-01-08 10:22:35.823] $GPGGA,012251.70,4304.1667780,N,14120.4316222,E,5,07,1.9,19.3500,M,31.96,M,1,0000*69
[2021-01-08 10:22:35.916] $GPGGA,012251.80,4304.1667758,N,14120.4316232,E,5,07,1.9,19.3497,M,31.96,M,1,0000*6D
[2021-01-08 10:22:36.026] $GPGGA,012251.90,4304.1667729,N,14120.4316221,E,5,07,1.9,19.3467,M,31.96,M,1,0000*67
[2021-01-08 10:22:36.119] $GPGGA,012252.00,4304.1667702,N,14120.4316222,E,5,07,1.9,19.3428,M,31.96,M,2,0000*6F
[2021-01-08 10:22:36.213] $GPGGA,012252.10,4304.1667687,N,14120.4316229,E,5,07,1.9,19.3403,M,31.96,M,2,0000*60
[2021-01-08 10:22:36.323] $GPGGA,012252.20,4304.1667671,N,14120.4316215,E,5,07,1.9,19.3386,M,31.96,M,2,0000*6F
[2021-01-08 10:22:36.416] $GPGGA,012252.30,4304.1667651,N,14120.4316206,E,5,07,1.9,19.3383,M,31.96,M,2,0000*6B
[2021-01-08 10:22:36.526] $GPGGA,012252.40,4304.1667642,N,14120.4316200,E,5,07,1.9,19.3386,M,31.96,M,2,0000*6D
[2021-01-08 10:22:36.619] $GPGGA,012252.50,4304.1667628,N,14120.4316197,E,5,07,1.9,19.3385,M,31.96,M,2,0000*6E
[2021-01-08 10:22:36.729] $GPGGA,012252.60,4304.1667618,N,14120.4316187,E,5,07,1.9,19.3395,M,31.96,M,2,0000*6E
[2021-01-08 10:22:36.823] $GPGGA,012252.70,4304.1667597,N,14120.4316170,E,5,07,1.9,19.3398,M,31.96,M,2,0000*6E
[2021-01-08 10:22:36.916] $GPGGA,012252.80,4304.1667587,N,14120.4316174,E,5,07,1.9,19.3403,M,31.96,M,2,0000*61
[2021-01-08 10:22:37.026] $GPGGA,012252.90,4304.1667561,N,14120.4316171,E,5,07,1.9,19.3389,M,31.96,M,2,0000*68
[2021-01-08 10:22:37.119] $GPGGA,012253.00,4304.1667563,N,14120.4316166,E,5,07,1.9,19.3408,M,31.96,M,3,0000*6B
[2021-01-08 10:22:37.213] $GPGGA,012253.10,4304.1667540,N,14120.4316177,E,5,07,1.9,19.3398,M,31.96,M,3,0000*65
[2021-01-08 10:22:37.322] $GPGGA,012253.20,4304.1667524,N,14120.4316177,E,5,07,1.9,19.3394,M,31.96,M,3,0000*68
[2021-01-08 10:22:37.416] $GPGGA,012253.30,4304.1667519,N,14120.4316162,E,5,07,1.9,19.3401,M,31.96,M,3,0000*68
[2021-01-08 10:22:37.526] $GPGGA,012253.40,4304.1667498,N,14120.4316154,E,5,07,1.9,19.3391,M,31.96,M,3,0000*6C
[2021-01-08 10:22:37.619] $GPGGA,012253.50,4304.1667474,N,14120.4316159,E,5,07,1.9,19.3378,M,31.96,M,3,0000*65
[2021-01-08 10:22:37.729] $GPGGA,012253.60,4304.1667458,N,14120.4316153,E,5,07,1.9,19.3353,M,31.96,M,3,0000*6B
[2021-01-08 10:22:37.822] $GPGGA,012253.70,4304.1667447,N,14120.4316135,E,5,07,1.9,19.3359,M,31.96,M,3,0000*6E
[2021-01-08 10:22:37.916] $GPGGA,012253.80,4304.1667426,N,14120.4316146,E,5,07,1.9,19.3325,M,31.96,M,3,0000*69
[2021-01-08 10:22:38.010] $GPGGA,012253.90,4304.1667419,N,14120.4316153,E,5,07,1.9,19.3333,M,31.96,M,3,0000*67
[2021-01-08 10:22:38.119] $GPGGA,012254.00,4304.1667408,N,14120.4316142,E,5,07,1.9,19.3331,M,31.96,M,4,0000*6C
[2021-01-08 10:22:38.213] $GPGGA,012254.10,4304.1667390,N,14120.4316136,E,5,07,1.9,19.3314,M,31.96,M,4,0000*6F
[2021-01-08 10:22:38.322] $GPGGA,012254.20,4304.1667362,N,14120.4316133,E,5,07,1.9,19.3288,M,31.96,M,4,0000*60
[2021-01-08 10:22:38.416] $GPGGA,012254.30,4304.1667359,N,14120.4316142,E,5,07,1.9,19.3278,M,31.96,M,4,0000*60
[2021-01-08 10:22:38.526] $GPGGA,012254.40,4304.1667341,N,14120.4316135,E,5,07,1.9,19.3262,M,31.96,M,4,0000*65
[2021-01-08 10:22:38.619] $GPGGA,012254.50,4304.1667316,N,14120.4316127,E,5,07,1.9,19.3241,M,31.96,M,4,0000*64
[2021-01-08 10:22:38.713] $GPGGA,012254.60,4304.1667284,N,14120.4316122,E,5,07,1.9,19.3219,M,31.96,M,4,0000*65
[2021-01-08 10:22:38.822] $GPGGA,012254.70,4304.1667284,N,14120.4316118,E,5,07,1.9,19.3207,M,31.96,M,4,0000*62
[2021-01-08 10:22:38.916] $GPGGA,012254.80,4304.1667273,N,14120.4316111,E,5,07,1.9,19.3200,M,31.96,M,4,0000*6B
[2021-01-08 10:22:39.026] $GPGGA,012254.90,4304.1667249,N,14120.4316112,E,5,07,1.9,19.3192,M,31.96,M,4,0000*68
[2021-01-08 10:22:39.119] $GPGGA,012255.00,4304.1667238,N,14120.4316112,E,5,07,1.9,19.3173,M,31.96,M,5,0000*68
[2021-01-08 10:22:39.229] $GPGGA,012255.10,4304.1667223,N,14120.4316111,E,5,07,1.9,19.3156,M,31.96,M,5,0000*67
[2021-01-08 10:22:39.322] $GPGGA,012255.20,4304.1667247,N,14120.4316143,E,5,07,1.9,19.3038,M,31.96,M,5,0000*68
[2021-01-08 10:22:39.432] $GPGGA,012255.30,4304.1667266,N,14120.4316152,E,5,07,1.9,19.2938,M,31.96,M,5,0000*62
[2021-01-08 10:22:39.525] $GPGGA,012255.40,4304.1667267,N,14120.4316177,E,5,07,1.9,19.2844,M,31.96,M,5,0000*69
[2021-01-08 10:22:39.619] $GPGGA,012255.50,4304.1667247,N,14120.4316173,E,5,07,1.9,19.2764,M,31.96,M,5,0000*63
[2021-01-08 10:22:39.729] $GPGGA,012255.60,4304.1667226,N,14120.4316176,E,5,07,1.9,19.2700,M,31.96,M,5,0000*60
[2021-01-08 10:22:39.822] $GPGGA,012255.70,4304.1667214,N,14120.4316165,E,5,07,1.9,19.2683,M,31.96,M,5,0000*68
[2021-01-08 10:22:39.916] $GPGGA,012255.80,4304.1667179,N,14120.4316166,E,5,07,1.9,19.2625,M,31.96,M,5,0000*60
[2021-01-08 10:22:40.025] $GPGGA,012255.90,4304.1667158,N,14120.4316158,E,5,07,1.9,19.2592,M,31.96,M,5,0000*60
[2021-01-08 10:22:40.135] $GPGGA,012256.00,4304.1667136,N,14120.4316158,E,5,07,1.9,19.2558,M,31.96,M,6,0000*67
[2021-01-08 10:22:40.229] $GPGGA,012256.10,4304.1667115,N,14120.4316156,E,5,07,1.9,19.2511,M,31.96,M,6,0000*64
[2021-01-08 10:22:40.322] $GPGGA,012256.20,4304.1667112,N,14120.4316128,E,5,07,1.9,19.2481,M,31.96,M,1,0000*66
[2021-01-08 10:22:40.416] $GPGGA,012256.30,4304.1667106,N,14120.4316119,E,5,07,1.9,19.2442,M,31.96,M,1,0000*6F
[2021-01-08 10:22:40.525] $GPGGA,012256.40,4304.1667104,N,14120.4316112,E,5,07,1.9,19.2424,M,31.96,M,1,0000*61
[2021-01-08 10:22:40.619] $GPGGA,012256.50,4304.1667089,N,14120.4316107,E,5,07,1.9,19.2410,M,31.96,M,1,0000*67
[2021-01-08 10:22:40.729] $GPGGA,012256.60,4304.1667072,N,14120.4316099,E,5,07,1.9,19.2399,M,31.96,M,1,0000*60
[2021-01-08 10:22:40.822] $GPGGA,012256.70,4304.1667062,N,14120.4316109,E,5,07,1.9,19.2369,M,31.96,M,1,0000*67
[2021-01-08 10:22:40.932] $GPGGA,012256.80,4304.1667037,N,14120.4316097,E,5,07,1.9,19.2341,M,31.96,M,1,0000*64
[2021-01-08 10:22:41.025] $GPGGA,012256.90,4304.1667032,N,14120.4316096,E,5,07,1.9,19.2328,M,31.96,M,1,0000*6E
[2021-01-08 10:22:41.135] $GPGGA,012257.00,4304.1667010,N,14120.4316088,E,5,07,1.9,19.2309,M,31.96,M,2,0000*69
[2021-01-08 10:22:41.228] $GPGGA,012257.10,4304.1667002,N,14120.4316087,E,5,07,1.9,19.2309,M,31.96,M,2,0000*64
[2021-01-08 10:22:41.322] $GPGGA,012257.20,4304.1666985,N,14120.4316086,E,5,07,1.9,19.2271,M,31.96,M,2,0000*6F
[2021-01-08 10:22:41.416] $GPGGA,012257.30,4304.1666967,N,14120.4316079,E,5,07,1.9,19.2246,M,31.96,M,2,0000*66
[2021-01-08 10:22:41.525] $GPGGA,012257.40,4304.1666947,N,14120.4316076,E,5,07,1.9,19.2234,M,31.96,M,2,0000*69
[2021-01-08 10:22:41.619] $GPGGA,012257.50,4304.1666923,N,14120.4316070,E,5,07,1.9,19.2226,M,31.96,M,2,0000*6F
[2021-01-08 10:22:41.728] $GPGGA,012257.60,4304.1666914,N,14120.4316066,E,5,07,1.9,19.2210,M,31.96,M,2,0000*6A
[2021-01-08 10:22:41.822] $GPGGA,012257.70,4304.1666893,N,14120.4316057,E,5,07,1.9,19.2181,M,31.96,M,2,0000*6C
[2021-01-08 10:22:41.932] $GPGGA,012257.80,4304.1666893,N,14120.4316057,E,5,07,1.9,19.2191,M,31.96,M,2,0000*62
[2021-01-08 10:22:42.025] $GPGGA,012257.90,4304.1666875,N,14120.4316054,E,5,07,1.9,19.2178,M,31.96,M,2,0000*6F
[2021-01-08 10:22:42.135] $GPGGA,012258.00,4304.1666863,N,14120.4316056,E,5,07,1.9,19.2155,M,31.96,M,3,0000*62
[2021-01-08 10:22:42.228] $GPGGA,012258.10,4304.1666850,N,14120.4316055,E,5,07,1.9,19.2155,M,31.96,M,3,0000*60
[2021-01-08 10:22:42.322] $GPGGA,012258.20,4304.1666830,N,14120.4316055,E,5,07,1.9,19.2138,M,31.96,M,3,0000*6E
[2021-01-08 10:22:42.432] $GPGGA,012258.30,4304.1666817,N,14120.4316059,E,5,07,1.9,19.2113,M,31.96,M,3,0000*6F
[2021-01-08 10:22:42.525] $GPGGA,012258.40,4304.1666792,N,14120.4316052,E,5,07,1.9,19.2088,M,31.96,M,3,0000*62
[2021-01-08 10:22:42.619] $GPGGA,012258.50,4304.1666770,N,14120.4316041,E,5,07,1.9,19.2064,M,31.96,M,3,0000*6F
[2021-01-08 10:22:42.728] $GPGGA,012258.60,4304.1666747,N,14120.4316047,E,5,07,1.9,19.2015,M,31.96,M,3,0000*68
[2021-01-08 10:22:42.822] $GPGGA,012258.70,4304.1666745,N,14120.4316036,E,5,07,1.9,19.2006,M,31.96,M,3,0000*6F
[2021-01-08 10:22:42.916] $GPGGA,012258.80,4304.1666741,N,14120.4316033,E,5,07,1.9,19.2003,M,31.96,M,3,0000*64
[2021-01-08 10:22:43.025] $GPGGA,012258.90,4304.1666730,N,14120.4316035,E,5,07,1.9,19.1991,M,31.96,M,3,0000*64
[2021-01-08 10:22:43.119] $GPGGA,012259.00,4304.1666719,N,14120.4316030,E,5,07,1.9,19.1963,M,31.96,M,4,0000*68
[2021-01-08 10:22:43.228] $GPGGA,012259.10,4304.1666703,N,14120.4316025,E,5,07,1.9,19.1939,M,31.96,M,4,0000*69
[2021-01-08 10:22:43.322] $GPGGA,012259.20,4304.1666686,N,14120.4316030,E,5,07,1.9,19.1906,M,31.96,M,4,0000*6E
[2021-01-08 10:22:43.431] $GPGGA,012259.30,4304.1666674,N,14120.4316020,E,5,07,1.9,19.1891,M,31.96,M,4,0000*6C
[2021-01-08 10:22:43.525] $GPGGA,012259.40,4304.1666668,N,14120.4316020,E,5,07,1.9,19.1881,M,31.96,M,4,0000*67
[2021-01-08 10:22:43.619] $GPGGA,012259.50,4304.1666643,N,14120.4316024,E,5,07,1.9,19.1853,M,31.96,M,4,0000*64
[2021-01-08 10:22:43.728] $GPGGA,012259.60,4304.1666615,N,14120.4316023,E,5,07,1.9,19.1825,M,31.96,M,4,0000*62
[2021-01-08 10:22:43.822] $GPGGA,012259.70,4304.1666588,N,14120.4316010,E,5,07,1.9,19.1802,M,31.96,M,4,0000*61
[2021-01-08 10:22:43.931] $GPGGA,012259.80,4304.1666568,N,14120.4316007,E,5,07,1.9,19.1773,M,31.96,M,4,0000*6F
[2021-01-08 10:22:44.025] $GPGGA,012259.90,4304.1666539,N,14120.4316006,E,5,07,1.9,19.1726,M,31.96,M,4,0000*6B
[2021-01-08 10:22:44.135] $GPGGA,012300.00,4304.1666526,N,14120.4316005,E,5,07,1.9,19.1682,M,31.96,M,5,0000*6C
[2021-01-08 10:22:44.228] $GPGGA,012300.10,4304.1666518,N,14120.4315999,E,5,07,1.9,19.1677,M,31.96,M,5,0000*65
[2021-01-08 10:22:44.322] $GPGGA,012300.20,4304.1666500,N,14120.4315997,E,5,07,1.9,19.1637,M,31.96,M,5,0000*65
[2021-01-08 10:22:44.416] $GPGGA,012300.30,4304.1666500,N,14120.4315996,E,5,07,1.9,19.1637,M,31.96,M,5,0000*65
[2021-01-08 10:22:44.525] $GPGGA,012300.40,4304.1666475,N,14120.4315998,E,5,07,1.9,19.1606,M,31.96,M,5,0000*6D
[2021-01-08 10:22:44.619] $GPGGA,012300.50,4304.1666442,N,14120.4315981,E,5,07,1.9,19.1569,M,31.96,M,5,0000*6A
[2021-01-08 10:22:44.728] $GPGGA,012300.60,4304.1666439,N,14120.4315980,E,5,07,1.9,19.1551,M,31.96,M,5,0000*6F
[2021-01-08 10:22:44.822] $GPGGA,012300.70,4304.1666408,N,14120.4315990,E,5,07,1.9,19.1511,M,31.96,M,5,0000*69
[2021-01-08 10:22:44.931] $GPGGA,012300.80,4304.1666397,N,14120.4315971,E,5,07,1.9,19.1524,M,31.96,M,5,0000*6E
[2021-01-08 10:22:45.025] $GPGGA,012300.90,4304.1666384,N,14120.4315969,E,5,07,1.9,19.1505,M,31.96,M,5,0000*67
[2021-01-08 10:22:45.134] $GPGGA,012301.00,4304.1666367,N,14120.4315954,E,5,07,1.9,19.1513,M,31.96,M,6,0000*68
[2021-01-08 10:22:45.228] $GPGGA,012301.10,4304.1666357,N,14120.4315977,E,5,07,1.9,19.1505,M,31.96,M,6,0000*6C
[2021-01-08 10:22:45.322] $GPGGA,012301.20,4304.1666413,N,14120.4315977,E,5,07,1.9,19.1478,M,31.96,M,1,0000*64
[2021-01-08 10:22:45.431] $GPGGA,012301.30,4304.1666449,N,14120.4315985,E,5,07,1.9,19.1444,M,31.96,M,1,0000*68
[2021-01-08 10:22:45.525] $GPGGA,012301.40,4304.1666450,N,14120.4315990,E,5,07,1.9,19.1398,M,31.96,M,1,0000*65
[2021-01-08 10:22:45.634] $GPGGA,012301.50,4304.1666451,N,14120.4315996,E,5,07,1.9,19.1368,M,31.96,M,1,0000*6C
[2021-01-08 10:22:45.728] $GPGGA,012301.60,4304.1666449,N,14120.4316003,E,5,07,1.9,19.1324,M,31.96,M,1,0000*68
[2021-01-08 10:22:45.822] $GPGGA,012301.70,4304.1666439,N,14120.4316012,E,5,07,1.9,19.1308,M,31.96,M,1,0000*60
[2021-01-08 10:22:45.916] $GPGGA,012301.80,4304.1666426,N,14120.4316024,E,5,07,1.9,19.1272,M,31.96,M,1,0000*68
[2021-01-08 10:22:46.025] $GPGGA,012301.90,4304.1666408,N,14120.4316017,E,5,07,1.9,19.1264,M,31.96,M,1,0000*62
[2021-01-08 10:22:46.119] $GPGGA,012302.00,4304.1666391,N,14120.4316018,E,5,07,1.9,19.1244,M,31.96,M,2,0000*61
[2021-01-08 10:22:46.228] $GPGGA,012302.10,4304.1666364,N,14120.4316026,E,5,07,1.9,19.1200,M,31.96,M,2,0000*67
[2021-01-08 10:22:46.322] $GPGGA,012302.20,4304.1666365,N,14120.4316023,E,5,07,1.9,19.1199,M,31.96,M,2,0000*63
[2021-01-08 10:22:46.431] $GPGGA,012302.30,4304.1666350,N,14120.4316013,E,5,07,1.9,19.1193,M,31.96,M,2,0000*6D
[2021-01-08 10:22:46.525] $GPGGA,012302.40,4304.1666326,N,14120.4316004,E,5,07,1.9,19.1172,M,31.96,M,2,0000*62
[2021-01-08 10:22:46.619] $GPGGA,012302.50,4304.1666318,N,14120.4316013,E,5,07,1.9,19.1139,M,31.96,M,2,0000*67
[2021-01-08 10:22:46.728] $GPGGA,012302.60,4304.1666296,N,14120.4316006,E,5,07,1.9,19.1117,M,31.96,M,2,0000*6B
[2021-01-08 10:22:46.822] $GPGGA,012302.70,4304.1666293,N,14120.4316006,E,5,07,1.9,19.1098,M,31.96,M,2,0000*69
[2021-01-08 10:22:46.916] $GPGGA,012302.80,4304.1666281,N,14120.4316017,E,5,07,1.9,19.1076,M,31.96,M,2,0000*65
[2021-01-08 10:22:47.025] $GPGGA,012302.90,4304.1666262,N,14120.4316013,E,5,07,1.9,19.1039,M,31.96,M,2,0000*66
[2021-01-08 10:22:47.119] $GPGGA,012303.00,4304.1666258,N,14120.4316003,E,5,07,1.9,19.1021,M,31.96,M,3,0000*6E
[2021-01-08 10:22:47.228] $GPGGA,012303.10,4304.1666254,N,14120.4316001,E,5,07,1.9,19.1017,M,31.96,M,3,0000*64
[2021-01-08 10:22:47.322] $GPGGA,012303.20,4304.1666254,N,14120.4315997,E,5,07,1.9,19.1011,M,31.96,M,3,0000*64
[2021-01-08 10:22:47.431] $GPGGA,012303.30,4304.1666253,N,14120.4316004,E,5,07,1.9,19.1012,M,31.96,M,3,0000*61
[2021-01-08 10:22:47.525] $GPGGA,012303.40,4304.1666250,N,14120.4316001,E,5,07,1.9,19.1014,M,31.96,M,3,0000*66
[2021-01-08 10:22:47.619] $GPGGA,012303.50,4304.1666242,N,14120.4316000,E,5,07,1.9,19.1013,M,31.96,M,3,0000*62
[2021-01-08 10:22:47.728] $GPGGA,012303.60,4304.1666238,N,14120.4316002,E,5,07,1.9,19.1017,M,31.96,M,3,0000*6A
[2021-01-08 10:22:47.822] $GPGGA,012303.70,4304.1666230,N,14120.4316004,E,5,07,1.9,19.1007,M,31.96,M,3,0000*64
[2021-01-08 10:22:47.931] $GPGGA,012303.80,4304.1666221,N,14120.4316010,E,5,07,1.9,19.0993,M,31.96,M,3,0000*6B
[2021-01-08 10:22:48.025] $GPGGA,012303.90,4304.1666224,N,14120.4316012,E,5,07,1.9,19.0994,M,31.96,M,3,0000*6A
[2021-01-08 10:22:48.134] $GPGGA,012304.00,4304.1666211,N,14120.4316013,E,5,07,1.9,19.0951,M,31.96,M,4,0000*6D
[2021-01-08 10:22:48.228] $GPGGA,012304.10,4304.1666209,N,14120.4316018,E,5,07,1.9,19.0940,M,31.96,M,4,0000*6E
[2021-01-08 10:22:48.322] $GPGGA,012304.20,4304.1666202,N,14120.4316022,E,5,07,1.9,19.0937,M,31.96,M,4,0000*6F
[2021-01-08 10:22:48.415] $GPGGA,012304.30,4304.1666205,N,14120.4316030,E,5,07,1.9,19.0915,M,31.96,M,4,0000*6A
[2021-01-08 10:22:48.525] $GPGGA,012304.40,4304.1666199,N,14120.4316038,E,5,07,1.9,19.0888,M,31.96,M,4,0000*66
[2021-01-08 10:22:48.619] $GPGGA,012304.50,4304.1666201,N,14120.4316044,E,5,07,1.9,19.0885,M,31.96,M,4,0000*63
[2021-01-08 10:22:48.728] $GPGGA,012304.60,4304.1666203,N,14120.4316050,E,5,07,1.9,19.0887,M,31.96,M,4,0000*65
[2021-01-08 10:22:48.822] $GPGGA,012304.70,4304.1666202,N,14120.4316043,E,5,07,1.9,19.0908,M,31.96,M,4,0000*61
[2021-01-08 10:22:48.931] $GPGGA,012304.80,4304.1666201,N,14120.4316044,E,5,07,1.9,19.0876,M,31.96,M,4,0000*62
[2021-01-08 10:22:49.025] $GPGGA,012304.90,4304.1666190,N,14120.4316049,E,5,07,1.9,19.0848,M,31.96,M,4,0000*68
[2021-01-08 10:22:49.134] $GPGGA,012305.00,4304.1666195,N,14120.4316058,E,5,07,1.9,19.0859,M,31.96,M,5,0000*64
[2021-01-08 10:22:49.228] $GPGGA,012305.10,4304.1666183,N,14120.4316050,E,5,07,1.9,19.0858,M,31.96,M,5,0000*6B
[2021-01-08 10:22:49.322] $GPGGA,012305.20,4304.1666189,N,14120.4316056,E,5,07,1.9,19.0856,M,31.96,M,5,0000*6A
[2021-01-08 10:22:49.431] $GPGGA,012305.30,4304.1666192,N,14120.4316058,E,5,07,1.9,19.0857,M,31.96,M,5,0000*6E
[2021-01-08 10:22:49.525] $GPGGA,012305.40,4304.1666186,N,14120.4316065,E,5,07,1.9,19.0853,M,31.96,M,5,0000*66
[2021-01-08 10:22:49.634] $GPGGA,012305.50,4304.1666187,N,14120.4316056,E,5,07,1.9,19.0852,M,31.96,M,5,0000*67
[2021-01-08 10:22:49.728] $GPGGA,012305.60,4304.1666192,N,14120.4316051,E,5,07,1.9,19.0869,M,31.96,M,5,0000*6F
[2021-01-08 10:22:49.822] $GPGGA,012305.70,4304.1666193,N,14120.4316056,E,5,07,1.9,19.0878,M,31.96,M,5,0000*68
[2021-01-08 10:22:49.931] $GPGGA,012305.80,4304.1666190,N,14120.4316051,E,5,07,1.9,19.0878,M,31.96,M,5,0000*63
[2021-01-08 10:22:50.025] $GPGGA,012305.90,4304.1666196,N,14120.4316057,E,5,07,1.9,19.0882,M,31.96,M,5,0000*67
[2021-01-08 10:22:50.118] $GPGGA,012306.00,4304.1666193,N,14120.4316046,E,5,07,1.9,19.0884,M,31.96,M,6,0000*6D
[2021-01-08 10:22:50.228] $GPGGA,012306.10,4304.1666196,N,14120.4316058,E,5,07,1.9,19.0857,M,31.96,M,6,0000*68
[2021-01-08 10:22:50.322] $GPGGA,012306.20,4304.1666215,N,14120.4316058,E,5,07,1.9,19.0907,M,31.96,M,1,0000*60
[2021-01-08 10:22:50.431] $GPGGA,012306.30,4304.1666236,N,14120.4316066,E,5,07,1.9,19.0938,M,31.96,M,1,0000*61
[2021-01-08 10:22:50.525] $GPGGA,012306.40,4304.1666235,N,14120.4316072,E,5,07,1.9,19.0945,M,31.96,M,1,0000*6A
[2021-01-08 10:22:50.618] $GPGGA,012306.50,4304.1666250,N,14120.4316066,E,5,07,1.9,19.0974,M,31.96,M,1,0000*6F
[2021-01-08 10:22:50.728] $GPGGA,012306.60,4304.1666243,N,14120.4316070,E,5,07,1.9,19.0962,M,31.96,M,1,0000*6E
[2021-01-08 10:22:50.822] $GPGGA,012306.70,4304.1666241,N,14120.4316072,E,5,07,1.9,19.0951,M,31.96,M,1,0000*6F
[2021-01-08 10:22:50.931] $GPGGA,012306.80,4304.1666251,N,14120.4316074,E,5,07,1.9,19.0962,M,31.96,M,1,0000*67
[2021-01-08 10:22:51.025] $GPGGA,012306.90,4304.1666250,N,14120.4316078,E,5,07,1.9,19.0961,M,31.96,M,1,0000*68
[2021-01-08 10:22:51.134] $GPGGA,012307.00,4304.1666263,N,14120.4316091,E,5,07,1.9,19.0933,M,31.96,M,2,0000*63
[2021-01-08 10:22:51.228] $GPGGA,012307.10,4304.1666254,N,14120.4316090,E,5,07,1.9,19.0910,M,31.96,M,2,0000*66
[2021-01-08 10:22:51.322] $GPGGA,012307.20,4304.1666248,N,14120.4316100,E,5,07,1.9,19.0880,M,31.96,M,2,0000*68
[2021-01-08 10:22:51.431] $GPGGA,012307.30,4304.1666259,N,14120.4316124,E,5,07,1.9,19.0865,M,31.96,M,2,0000*64
[2021-01-08 10:22:51.525] $GPGGA,012307.40,4304.1666256,N,14120.4316118,E,5,07,1.9,19.0862,M,31.96,M,2,0000*64
[2021-01-08 10:22:51.618] $GPGGA,012307.50,4304.1666252,N,14120.4316114,E,5,07,1.9,19.0873,M,31.96,M,2,0000*6D
[2021-01-08 10:22:51.728] $GPGGA,012307.60,4304.1666254,N,14120.4316116,E,5,07,1.9,19.0869,M,31.96,M,2,0000*61
[2021-01-08 10:22:51.821] $GPGGA,012307.70,4304.1666253,N,14120.4316116,E,5,07,1.9,19.0875,M,31.96,M,2,0000*6A
[2021-01-08 10:22:51.931] $GPGGA,012307.80,4304.1666256,N,14120.4316125,E,5,07,1.9,19.0867,M,31.96,M,2,0000*63
[2021-01-08 10:22:52.025] $GPGGA,012307.90,4304.1666265,N,14120.4316141,E,5,07,1.9,19.0855,M,31.96,M,2,0000*61
[2021-01-08 10:22:52.134] $GPGGA,012308.00,4304.1666258,N,14120.4316154,E,5,07,1.9,19.0816,M,31.96,M,3,0000*6B
[2021-01-08 10:22:52.228] $GPGGA,012308.10,4304.1666272,N,14120.4316162,E,5,07,1.9,19.0812,M,31.96,M,3,0000*63
[2021-01-08 10:22:52.321] $GPGGA,012308.20,4304.1666280,N,14120.4316169,E,5,07,1.9,19.0812,M,31.96,M,3,0000*66
[2021-01-08 10:22:52.415] $GPGGA,012308.30,4304.1666289,N,14120.4316180,E,5,07,1.9,19.0774,M,31.96,M,3,0000*66
[2021-01-08 10:22:52.525] $GPGGA,012308.40,4304.1666300,N,14120.4316186,E,5,07,1.9,19.0758,M,31.96,M,3,0000*69
[2021-01-08 10:22:52.634] $GPGGA,012308.50,4304.1666311,N,14120.4316195,E,5,07,1.9,19.0761,M,31.96,M,3,0000*60
[2021-01-08 10:22:52.728] $GPGGA,012308.60,4304.1666302,N,14120.4316196,E,5,07,1.9,19.0744,M,31.96,M,3,0000*65
[2021-01-08 10:22:52.821] $GPGGA,012308.70,4304.1666307,N,14120.4316197,E,5,07,1.9,19.0730,M,31.96,M,3,0000*63
[2021-01-08 10:22:52.931] $GPGGA,012308.80,4304.1666318,N,14120.4316210,E,5,07,1.9,19.0727,M,31.96,M,3,0000*68
[2021-01-08 10:22:53.025] $GPGGA,012308.90,4304.1666327,N,14120.4316215,E,5,07,1.9,19.0737,M,31.96,M,3,0000*61
[2021-01-08 10:22:53.118] $GPGGA,012309.00,4304.1666320,N,14120.4316209,E,5,07,1.9,19.0711,M,31.96,M,4,0000*60
[2021-01-08 10:22:53.228] $GPGGA,012309.10,4304.1666321,N,14120.4316218,E,5,07,1.9,19.0682,M,31.96,M,4,0000*6B
[2021-01-08 10:22:53.321] $GPGGA,012309.20,4304.1666317,N,14120.4316219,E,5,07,1.9,19.0673,M,31.96,M,4,0000*62
[2021-01-08 10:22:53.431] $GPGGA,012309.30,4304.1666337,N,14120.4316226,E,5,07,1.9,19.0684,M,31.96,M,4,0000*65
[2021-01-08 10:22:53.524] $GPGGA,012309.40,4304.1666327,N,14120.4316229,E,5,07,1.9,19.0652,M,31.96,M,4,0000*67
[2021-01-08 10:22:53.618] $GPGGA,012309.50,4304.1666330,N,14120.4316246,E,5,07,1.9,19.0620,M,31.96,M,4,0000*6C
[2021-01-08 10:22:53.728] $GPGGA,012309.60,4304.1666344,N,14120.4316259,E,5,07,1.9,19.0590,M,31.96,M,4,0000*6A
[2021-01-08 10:22:53.821] $GPGGA,012309.70,4304.1666352,N,14120.4316268,E,5,07,1.9,19.0585,M,31.96,M,4,0000*6A
[2021-01-08 10:22:53.915] $GPGGA,012309.80,4304.1666362,N,14120.4316266,E,5,07,1.9,19.0585,M,31.96,M,4,0000*68
[2021-01-08 10:22:54.024] $GPGGA,012309.90,4304.1666359,N,14120.4316275,E,5,07,1.9,19.0564,M,31.96,M,4,0000*6C
[2021-01-08 10:22:54.118] $GPGGA,012310.00,4304.1666365,N,14120.4316280,E,5,07,1.9,19.0582,M,31.96,M,5,0000*61
[2021-01-08 10:22:54.228] $GPGGA,012310.10,4304.1666353,N,14120.4316287,E,5,07,1.9,19.0557,M,31.96,M,5,0000*6A
[2021-01-08 10:22:54.321] $GPGGA,012310.20,4304.1666351,N,14120.4316284,E,5,07,1.9,19.0528,M,31.96,M,5,0000*60
[2021-01-08 10:22:54.431] $GPGGA,012310.30,4304.1666348,N,14120.4316292,E,5,07,1.9,19.0503,M,31.96,M,5,0000*67
[2021-01-08 10:22:54.524] $GPGGA,012310.40,4304.1666365,N,14120.4316296,E,5,07,1.9,19.0514,M,31.96,M,5,0000*6D
[2021-01-08 10:22:54.618] $GPGGA,012310.50,4304.1666356,N,14120.4316304,E,5,07,1.9,19.0491,M,31.96,M,5,0000*6A
[2021-01-08 10:22:54.728] $GPGGA,012310.60,4304.1666359,N,14120.4316311,E,5,07,1.9,19.0478,M,31.96,M,5,0000*65
[2021-01-08 10:22:54.821] $GPGGA,012310.70,4304.1666370,N,14120.4316319,E,5,07,1.9,19.0467,M,31.96,M,5,0000*69
[2021-01-08 10:22:54.931] $GPGGA,012310.80,4304.1666368,N,14120.4316320,E,5,07,1.9,19.0441,M,31.96,M,5,0000*61
[2021-01-08 10:22:55.024] $GPGGA,012310.90,4304.1666362,N,14120.4316325,E,5,07,1.9,19.0414,M,31.96,M,5,0000*6F
[2021-01-08 10:22:55.134] $GPGGA,012311.00,4304.1666345,N,14120.4316333,E,5,07,1.9,19.0378,M,31.96,M,6,0000*6B
[2021-01-08 10:22:55.228] $GPGGA,012311.10,4304.1666347,N,14120.4316338,E,5,07,1.9,19.0359,M,31.96,M,6,0000*60
[2021-01-08 10:22:55.321] $GPGGA,012311.20,4304.1666350,N,14120.4316345,E,5,07,1.9,19.0367,M,31.96,M,1,0000*65
[2021-01-08 10:22:55.431] $GPGGA,012311.30,4304.1666347,N,14120.4316359,E,5,07,1.9,19.0338,M,31.96,M,1,0000*65
[2021-01-08 10:22:55.524] $GPGGA,012311.40,4304.1666338,N,14120.4316368,E,5,07,1.9,19.0326,M,31.96,M,1,0000*67
[2021-01-08 10:22:55.618] $GPGGA,012311.50,4304.1666353,N,14120.4316383,E,5,07,1.9,19.0318,M,31.96,M,1,0000*63
[2021-01-08 10:22:55.727] $GPGGA,012311.60,4304.1666360,N,14120.4316391,E,5,07,1.9,19.0325,M,31.96,M,1,0000*6D
[2021-01-08 10:22:55.821] $GPGGA,012311.70,4304.1666372,N,14120.4316405,E,5,07,1.9,19.0326,M,31.96,M,1,0000*66
[2021-01-08 10:22:55.931] $GPGGA,012311.80,4304.1666372,N,14120.4316408,E,5,07,1.9,19.0296,M,31.96,M,1,0000*6E
[2021-01-08 10:22:56.024] $GPGGA,012311.90,4304.1666379,N,14120.4316415,E,5,07,1.9,19.0283,M,31.96,M,1,0000*6C
[2021-01-08 10:22:56.134] $GPGGA,012312.00,4304.1666386,N,14120.4316415,E,5,07,1.9,19.0293,M,31.96,M,2,0000*64
[2021-01-08 10:22:56.227] $GPGGA,012312.10,4304.1666387,N,14120.4316428,E,5,07,1.9,19.0275,M,31.96,M,2,0000*62
[2021-01-08 10:22:56.321] $GPGGA,012312.20,4304.1666394,N,14120.4316443,E,5,07,1.9,19.0259,M,31.96,M,2,0000*60
[2021-01-08 10:22:56.431] $GPGGA,012312.30,4304.1666407,N,14120.4316457,E,5,07,1.9,19.0267,M,31.96,M,2,0000*64
