
[2021-01-07 10:06:59.764] $GNGGA,010638.10,4304.167888000,N,14120.431542000,E,1,11,0.97,16.486,M,32.006,M,,*73
[2021-01-07 10:06:59.779] $GNGGA,010638.20,4304.167888000,N,14120.431536000,E,1,11,0.97,16.488,M,32.006,M,,*7D
[2021-01-07 10:06:59.779] $GNGGA,010638.30,4304.167888000,N,14120.431542000,E,1,11,0.97,16.490,M,32.006,M,,*76
[2021-01-07 10:06:59.779] $GNGGA,010638.40,4304.167888000,N,14120.431536000,E,1,11,0.97,16.490,M,32.006,M,,*72
[2021-01-07 10:06:59.779] $GNGGA,010638.50,4304.167888000,N,14120.431542000,E,1,11,0.97,16.492,M,32.006,M,,*72
[2021-01-07 10:06:59.779] $GNGGA,010638.60,4304.167888000,N,14120.431542000,E,1,11,0.97,16.491,M,32.006,M,,*72
[2021-01-07 10:06:59.779] $GNGGA,010638.70,4304.167888000,N,14120.431542000,E,1,11,0.97,16.496,M,32.006,M,,*74
[2021-01-07 10:06:59.779] $GNGGA,010638.80,4304.167888000,N,14120.431542000,E,1,11,0.97,16.495,M,32.006,M,,*78
[2021-01-07 10:06:59.779] $GNGGA,010638.90,4304.167888000,N,14120.431542000,E,1,11,0.97,16.496,M,32.006,M,,*7A
[2021-01-07 10:06:59.779] $GNGGA,010639.00,4304.167888000,N,14120.431542000,E,1,11,0.97,16.499,M,32.006,M,,*7D
[2021-01-07 10:06:59.779] $GNGGA,010639.10,4304.167888000,N,14120.431536000,E,1,11,0.97,16.497,M,32.006,M,,*71
[2021-01-07 10:06:59.779] $GNGGA,010639.20,4304.167888000,N,14120.431542000,E,1,11,0.97,16.499,M,32.006,M,,*7F
[2021-01-07 10:06:59.779] $GNGGA,010639.30,4304.167888000,N,14120.431536000,E,1,11,0.97,16.497,M,32.006,M,,*73
[2021-01-07 10:06:59.795] $GNGGA,010639.40,4304.167888000,N,14120.431542000,E,1,11,0.97,16.501,M,32.006,M,,*79
[2021-01-07 10:06:59.795] $GNGGA,010639.50,4304.167888000,N,14120.431536000,E,1,11,0.97,16.504,M,32.006,M,,*7E
[2021-01-07 10:06:59.795] $GNGGA,010639.60,4304.167888000,N,14120.431542000,E,1,11,0.97,16.500,M,32.006,M,,*7A
[2021-01-07 10:06:59.795] $GNGGA,010639.70,4304.167888000,N,14120.431542000,E,1,11,0.97,16.502,M,32.006,M,,*79
[2021-01-07 10:06:59.795] $GNGGA,010639.80,4304.167888000,N,14120.431542000,E,1,11,0.97,16.501,M,32.006,M,,*75
[2021-01-07 10:06:59.795] $GNGGA,010639.90,4304.167888000,N,14120.431542000,E,1,11,0.97,16.503,M,32.006,M,,*76
[2021-01-07 10:06:59.795] $GNGGA,010640.00,4304.167888000,N,14120.431542000,E,1,11,0.97,16.500,M,32.006,M,,*72
[2021-01-07 10:06:59.795] $GNGGA,010640.10,4304.167894000,N,14120.431542000,E,1,11,0.97,16.499,M,32.006,M,,*7F
[2021-01-07 10:06:59.795] $GNGGA,010640.20,4304.167888000,N,14120.431542000,E,1,11,0.97,16.501,M,32.006,M,,*71
[2021-01-07 10:06:59.795] $GNGGA,010640.30,4304.167894000,N,14120.431542000,E,1,11,0.97,16.501,M,32.006,M,,*7D
[2021-01-07 10:06:59.795] $GNGGA,010640.40,4304.167894000,N,14120.431542000,E,1,11,0.97,16.499,M,32.006,M,,*7A
[2021-01-07 10:06:59.795] $GNGGA,010640.50,4304.167894000,N,14120.431542000,E,1,11,0.97,16.501,M,32.006,M,,*7B
[2021-01-07 10:06:59.811] $GNGGA,010640.60,4304.167894000,N,14120.431542000,E,1,11,0.97,16.496,M,32.006,M,,*77
[2021-01-07 10:06:59.811] $GNGGA,010640.70,4304.167894000,N,14120.431542000,E,1,11,0.97,16.501,M,32.006,M,,*79
[2021-01-07 10:06:59.811] $GNGGA,010640.80,4304.167894000,N,14120.431542000,E,1,11,0.97,16.498,M,32.006,M,,*77
[2021-01-07 10:06:59.811] $GNGGA,010640.90,4304.167894000,N,14120.431542000,E,1,11,0.97,16.498,M,32.006,M,,*76
[2021-01-07 10:06:59.811] $GNGGA,010641.00,4304.167894000,N,14120.431542000,E,1,12,0.92,16.496,M,32.006,M,,*76
[2021-01-07 10:06:59.811] $GNGGA,010641.10,4304.167894000,N,14120.431542000,E,1,12,0.92,16.496,M,32.006,M,,*77
[2021-01-07 10:06:59.811] $GNGGA,010641.20,4304.167894000,N,14120.431542000,E,1,12,0.92,16.490,M,32.006,M,,*72
[2021-01-07 10:06:59.811] $GNGGA,010641.30,4304.167894000,N,14120.431542000,E,1,12,0.92,16.494,M,32.006,M,,*77
[2021-01-07 10:06:59.811] $GNGGA,010641.40,4304.167894000,N,14120.431536000,E,1,12,0.92,16.493,M,32.006,M,,*74
[2021-01-07 10:06:59.811] $GNGGA,010641.50,4304.167894000,N,14120.431536000,E,1,12,0.92,16.492,M,32.006,M,,*74
[2021-01-07 10:06:59.811] $GNGGA,010641.60,4304.167894000,N,14120.431536000,E,1,12,0.92,16.489,M,32.006,M,,*7D
[2021-01-07 10:06:59.811] $GNGGA,010641.70,4304.167894000,N,14120.431542000,E,1,12,0.92,16.492,M,32.006,M,,*75
[2021-01-07 10:06:59.826] $GNGGA,010641.80,4304.167894000,N,14120.431542000,E,1,12,0.92,16.487,M,32.006,M,,*7E
[2021-01-07 10:06:59.826] $GNGGA,010641.90,4304.167894000,N,14120.431542000,E,1,12,0.92,16.483,M,32.006,M,,*7B
[2021-01-07 10:06:59.826] $GNGGA,010642.00,4304.167894000,N,14120.431536000,E,1,12,0.92,16.486,M,32.006,M,,*77
[2021-01-07 10:06:59.826] $GNGGA,010642.10,4304.167894000,N,14120.431536000,E,1,12,0.92,16.483,M,32.006,M,,*73
[2021-01-07 10:06:59.826] $GNGGA,010642.20,4304.167894000,N,14120.431542000,E,1,12,0.92,16.484,M,32.006,M,,*74
[2021-01-07 10:06:59.826] $GNGGA,010642.30,4304.167900000,N,14120.431536000,E,1,12,0.92,16.486,M,32.006,M,,*78
[2021-01-07 10:06:59.826] $GNGGA,010642.40,4304.167900000,N,14120.431536000,E,1,12,0.92,16.485,M,32.006,M,,*7C
[2021-01-07 10:06:59.826] $GNGGA,010642.50,4304.167900000,N,14120.431536000,E,1,12,0.92,16.486,M,32.006,M,,*7E
[2021-01-07 10:06:59.826] $GNGGA,010642.60,4304.167900000,N,14120.431536000,E,1,12,0.92,16.484,M,32.006,M,,*7F
[2021-01-07 10:06:59.826] $GNGGA,010642.70,4304.167900000,N,14120.431536000,E,1,12,0.92,16.480,M,32.006,M,,*7A
[2021-01-07 10:06:59.826] $GNGGA,010642.80,4304.167900000,N,14120.431536000,E,1,12,0.92,16.483,M,32.006,M,,*76
[2021-01-07 10:06:59.826] $GNGGA,010642.90,4304.167900000,N,14120.431536000,E,1,12,0.92,16.482,M,32.006,M,,*76
[2021-01-07 10:06:59.842] $GNGGA,010643.00,4304.167900000,N,14120.431536000,E,1,12,0.92,16.481,M,32.006,M,,*7D
[2021-01-07 10:06:59.842] $GNGGA,010643.10,4304.167900000,N,14120.431536000,E,1,12,0.92,16.480,M,32.006,M,,*7D
[2021-01-07 10:06:59.842] $GNGGA,010643.20,4304.167900000,N,14120.431536000,E,1,12,0.92,16.479,M,32.006,M,,*78
[2021-01-07 10:06:59.842] $GNGGA,010643.30,4304.167900000,N,14120.431536000,E,1,12,0.92,16.479,M,32.006,M,,*79
[2021-01-07 10:06:59.842] $GNGGA,010643.40,4304.167900000,N,14120.431536000,E,1,12,0.92,16.480,M,32.006,M,,*78
[2021-01-07 10:06:59.842] $GNGGA,010643.50,4304.167900000,N,14120.431536000,E,1,12,0.92,16.477,M,32.006,M,,*71
[2021-01-07 10:06:59.842] $GNGGA,010643.60,4304.167900000,N,14120.431536000,E,1,12,0.92,16.478,M,32.006,M,,*7D
[2021-01-07 10:06:59.842] $GNGGA,010643.70,4304.167900000,N,14120.431536000,E,1,12,0.92,16.477,M,32.006,M,,*73
[2021-01-07 10:06:59.842] $GNGGA,010643.80,4304.167900000,N,14120.431536000,E,1,12,0.92,16.480,M,32.006,M,,*74
[2021-01-07 10:06:59.842] $GNGGA,010643.90,4304.167900000,N,14120.431536000,E,1,12,0.92,16.480,M,32.006,M,,*75
[2021-01-07 10:06:59.842] $GNGGA,010644.00,4304.167900000,N,14120.431536000,E,1,12,0.92,16.479,M,32.006,M,,*7D
[2021-01-07 10:06:59.857] $GNGGA,010644.10,4304.167900000,N,14120.431536000,E,1,12,0.92,16.482,M,32.006,M,,*78
[2021-01-07 10:06:59.857] $GNGGA,010644.20,4304.167900000,N,14120.431536000,E,1,12,0.92,16.483,M,32.006,M,,*7A
[2021-01-07 10:06:59.857] $GNGGA,010644.30,4304.167900000,N,14120.431536000,E,1,12,0.92,16.480,M,32.006,M,,*78
[2021-01-07 10:06:59.857] $GNGGA,010644.40,4304.167906000,N,14120.431536000,E,1,12,0.92,16.483,M,32.006,M,,*7A
[2021-01-07 10:06:59.857] $GNGGA,010644.50,4304.167900000,N,14120.431536000,E,1,12,0.92,16.481,M,32.006,M,,*7F
[2021-01-07 10:06:59.857] $GNGGA,010644.60,4304.167906000,N,14120.431536000,E,1,12,0.92,16.481,M,32.006,M,,*7A
[2021-01-07 10:06:59.857] $GNGGA,010644.70,4304.167906000,N,14120.431536000,E,1,12,0.92,16.486,M,32.006,M,,*7C
[2021-01-07 10:06:59.857] $GNGGA,010644.80,4304.167906000,N,14120.431536000,E,1,12,0.92,16.479,M,32.006,M,,*73
[2021-01-07 10:06:59.857] $GNGGA,010644.90,4304.167906000,N,14120.431536000,E,1,12,0.92,16.478,M,32.006,M,,*73
[2021-01-07 10:06:59.857] $GNGGA,010645.00,4304.167906000,N,14120.431536000,E,1,12,0.92,16.483,M,32.006,M,,*7F
[2021-01-07 10:06:59.857] $GNGGA,010645.10,4304.167906000,N,14120.431536000,E,1,12,0.92,16.487,M,32.006,M,,*7A
[2021-01-07 10:06:59.857] $GNGGA,010645.20,4304.167906000,N,14120.431536000,E,1,12,0.92,16.480,M,32.006,M,,*7E
[2021-01-07 10:06:59.873] $GNGGA,010645.30,4304.167906000,N,14120.431536000,E,1,12,0.92,16.482,M,32.006,M,,*7D
[2021-01-07 10:06:59.873] $GNGGA,010645.40,4304.167906000,N,14120.431536000,E,1,12,0.92,16.480,M,32.006,M,,*78
[2021-01-07 10:06:59.873] $GNGGA,010645.50,4304.167906000,N,14120.431536000,E,1,12,0.92,16.480,M,32.006,M,,*79
[2021-01-07 10:06:59.873] $GNGGA,010645.60,4304.167906000,N,14120.431536000,E,1,12,0.92,16.482,M,32.006,M,,*78
[2021-01-07 10:06:59.873] $GNGGA,010645.70,4304.167906000,N,14120.431536000,E,1,12,0.92,16.483,M,32.006,M,,*78
[2021-01-07 10:06:59.873] $GNGGA,010645.80,4304.167906000,N,14120.431536000,E,1,12,0.92,16.480,M,32.006,M,,*74
[2021-01-07 10:06:59.873] $GNGGA,010645.90,4304.167906000,N,14120.431536000,E,1,12,0.92,16.483,M,32.006,M,,*76
[2021-01-07 10:06:59.873] $GNGGA,010646.00,4304.167906000,N,14120.431536000,E,1,12,0.92,16.481,M,32.006,M,,*7E
[2021-01-07 10:06:59.873] $GNGGA,010646.10,4304.167906000,N,14120.431536000,E,1,12,0.92,16.479,M,32.006,M,,*78
[2021-01-07 10:06:59.873] $GNGGA,010646.20,4304.167906000,N,14120.431536000,E,1,12,0.92,16.480,M,32.006,M,,*7D
[2021-01-07 10:06:59.873] $GNGGA,010646.30,4304.167906000,N,14120.431536000,E,1,12,0.92,16.477,M,32.006,M,,*74
[2021-01-07 10:06:59.873] $GNGGA,010646.40,4304.167906000,N,14120.431536000,E,1,12,0.92,16.477,M,32.006,M,,*73
[2021-01-07 10:06:59.889] $GNGGA,010646.50,4304.167906000,N,14120.431536000,E,1,12,0.92,16.479,M,32.006,M,,*7C
[2021-01-07 10:06:59.889] $GNGGA,010646.60,4304.167906000,N,14120.431536000,E,1,12,0.92,16.480,M,32.006,M,,*79
[2021-01-07 10:06:59.889] $GNGGA,010646.70,4304.167906000,N,14120.431536000,E,1,12,0.92,16.476,M,32.006,M,,*71
[2021-01-07 10:06:59.889] $GNGGA,010646.80,4304.167906000,N,14120.431536000,E,1,12,0.92,16.477,M,32.006,M,,*7F
[2021-01-07 10:06:59.889] $GNGGA,010646.90,4304.167906000,N,14120.431536000,E,1,12,0.92,16.479,M,32.006,M,,*70
[2021-01-07 10:06:59.889] $GNGGA,010647.00,4304.167906000,N,14120.431536000,E,1,12,0.92,16.479,M,32.006,M,,*78
[2021-01-07 10:06:59.889] $GNGGA,010647.10,4304.167906000,N,14120.431536000,E,1,12,0.92,16.478,M,32.006,M,,*78
[2021-01-07 10:06:59.889] $GNGGA,010647.20,4304.167906000,N,14120.431536000,E,1,12,0.92,16.477,M,32.006,M,,*74
[2021-01-07 10:06:59.889] $GNGGA,010647.30,4304.167906000,N,14120.431536000,E,1,12,0.92,16.481,M,32.006,M,,*7C
[2021-01-07 10:06:59.889] $GNGGA,010647.40,4304.167906000,N,14120.431536000,E,1,12,0.92,16.479,M,32.006,M,,*7C
[2021-01-07 10:06:59.889] $GNGGA,010647.50,4304.167906000,N,14120.431536000,E,1,12,0.92,16.482,M,32.006,M,,*79
[2021-01-07 10:06:59.889] $GNGGA,010647.60,4304.167912000,N,14120.431536000,E,1,12,0.92,16.481,M,32.006,M,,*7C
[2021-01-07 10:06:59.889] $GNGGA,010647.70,4304.$GNGGA,010658.70,4304.167924000,N,14120.431500000,E,1,12,0.92,16.526,M,32.006,M,,*7F
[2021-01-07 10:06:59.889] $GNGGA,010658.80,4304.167924000,N,14120.431500000,E,1,12,0.92,16.525,M,32.006,M,,*73
[2021-01-07 10:06:59.982] $GNGGA,010658.90,4304.167924000,N,14120.431500000,E,1,12,0.92,16.527,M,32.006,M,,*70
[2021-01-07 10:07:00.076] $GNGGA,010659.00,4304.167924000,N,14120.431500000,E,1,12,0.92,16.528,M,32.006,M,,*77
[2021-01-07 10:07:00.170] $GNGGA,010659.10,4304.167924000,N,14120.431500000,E,1,12,0.92,16.530,M,32.006,M,,*7F
[2021-01-07 10:07:00.279] $GNGGA,010659.20,4304.167930000,N,14120.431500000,E,1,12,0.92,16.527,M,32.006,M,,*7F
[2021-01-07 10:07:00.373] $GNGGA,010659.30,4304.167924000,N,14120.431500000,E,1,12,0.92,16.527,M,32.006,M,,*7B
[2021-01-07 10:07:00.482] $GNGGA,010659.40,4304.167930000,N,14120.431500000,E,1,12,0.92,16.526,M,32.006,M,,*78
[2021-01-07 10:07:00.576] $GNGGA,010659.50,4304.167930000,N,14120.431500000,E,1,12,0.92,16.526,M,32.006,M,,*79
[2021-01-07 10:07:00.670] $GNGGA,010659.60,4304.167930000,N,14120.431500000,E,1,12,0.92,16.529,M,32.006,M,,*75
[2021-01-07 10:07:00.779] $GNGGA,010659.70,4304.167930000,N,14120.431500000,E,1,12,0.92,16.526,M,32.006,M,,*7B
[2021-01-07 10:07:00.873] $GNGGA,010659.80,4304.167930000,N,14120.431500000,E,1,12,0.92,16.529,M,32.006,M,,*7B
[2021-01-07 10:07:00.982] $GNGGA,010659.90,4304.167930000,N,14120.431500000,E,1,12,0.92,16.527,M,32.006,M,,*74
[2021-01-07 10:07:01.076] $GNGGA,010700.00,4304.167930000,N,14120.431500000,E,1,12,0.92,16.528,M,32.006,M,,*7F
[2021-01-07 10:07:01.170] $GNGGA,010700.10,4304.167930000,N,14120.431500000,E,1,12,0.85,16.528,M,32.006,M,,*78
[2021-01-07 10:07:01.279] $GNGGA,010700.20,4304.167930000,N,14120.431500000,E,1,12,0.85,16.529,M,32.006,M,,*7A
[2021-01-07 10:07:01.373] $GNGGA,010700.30,4304.167930000,N,14120.431500000,E,1,12,0.85,16.526,M,32.006,M,,*74
[2021-01-07 10:07:01.482] $GNGGA,010700.40,4304.167930000,N,14120.431500000,E,1,12,0.85,16.528,M,32.006,M,,*7D
[2021-01-07 10:07:01.576] $GNGGA,010700.50,4304.167930000,N,14120.431500000,E,1,12,0.85,16.530,M,32.006,M,,*75
[2021-01-07 10:07:01.670] $GNGGA,010700.60,4304.167930000,N,14120.431500000,E,1,12,0.86,16.528,M,32.006,M,,*7C
[2021-01-07 10:07:01.779] $GNGGA,010700.70,4304.167930000,N,14120.431500000,E,1,12,0.86,16.525,M,32.006,M,,*70
[2021-01-07 10:07:01.873] $GNGGA,010700.80,4304.167930000,N,14120.431500000,E,1,12,0.86,16.523,M,32.006,M,,*79
[2021-01-07 10:07:01.982] $GNGGA,010700.90,4304.167930000,N,14120.431500000,E,1,12,0.86,16.527,M,32.006,M,,*7C
[2021-01-07 10:07:02.076] $GNGGA,010701.00,4304.167930000,N,14120.431500000,E,1,12,0.86,16.524,M,32.006,M,,*77
[2021-01-07 10:07:02.170] $GNGGA,010701.10,4304.167936000,N,14120.431500000,E,1,12,0.86,16.530,M,32.006,M,,*75
[2021-01-07 10:07:02.279] $GNGGA,010701.20,4304.167936000,N,14120.431500000,E,1,12,0.86,16.523,M,32.006,M,,*74
[2021-01-07 10:07:02.373] $GNGGA,010701.30,4304.167936000,N,14120.431500000,E,1,12,0.86,16.529,M,32.006,M,,*7F
[2021-01-07 10:07:02.482] $GNGGA,010701.40,4304.167936000,N,14120.431500000,E,1,12,0.86,16.528,M,32.006,M,,*79
[2021-01-07 10:07:02.576] $GNGGA,010701.50,4304.167936000,N,14120.431500000,E,1,12,0.86,16.524,M,32.006,M,,*74
[2021-01-07 10:07:02.670] $GNGGA,010701.60,4304.167936000,N,14120.431500000,E,1,12,0.86,16.527,M,32.006,M,,*74
[2021-01-07 10:07:02.779] $GNGGA,010701.70,4304.167936000,N,14120.431500000,E,1,12,0.86,16.527,M,32.006,M,,*75
[2021-01-07 10:07:02.873] $GNGGA,010701.80,4304.167936000,N,14120.431500000,E,1,12,0.86,16.525,M,32.006,M,,*78
[2021-01-07 10:07:02.982] $GNGGA,010701.90,4304.167936000,N,14120.431500000,E,1,12,0.86,16.524,M,32.006,M,,*78
[2021-01-07 10:07:03.076] $GNGGA,010702.00,4304.167936000,N,14120.431500000,E,1,12,0.86,16.528,M,32.006,M,,*7E
[2021-01-07 10:07:03.170] $GNGGA,010702.10,4304.167936000,N,14120.431500000,E,1,12,0.86,16.527,M,32.006,M,,*70
[2021-01-07 10:07:03.279] $GNGGA,010702.20,4304.167936000,N,14120.431500000,E,1,12,0.86,16.523,M,32.006,M,,*77
[2021-01-07 10:07:03.373] $GNGGA,010702.30,4304.167936000,N,14120.431500000,E,1,12,0.86,16.528,M,32.006,M,,*7D
[2021-01-07 10:07:03.482] $GNGGA,010702.40,4304.167936000,N,14120.431500000,E,1,12,0.86,16.526,M,32.006,M,,*74
[2021-01-07 10:07:03.576] $GNGGA,010702.50,4304.167936000,N,14120.431500000,E,1,12,0.86,16.525,M,32.006,M,,*76
[2021-01-07 10:07:03.670] $GNGGA,010702.60,4304.167936000,N,14120.431500000,E,1,12,0.86,16.526,M,32.006,M,,*76
[2021-01-07 10:07:03.779] $GNGGA,010702.70,4304.167936000,N,14120.431500000,E,1,12,0.86,16.527,M,32.006,M,,*76
[2021-01-07 10:07:03.873] $GNGGA,010702.80,4304.167936000,N,14120.431500000,E,1,12,0.86,16.527,M,32.006,M,,*79
[2021-01-07 10:07:03.982] $GNGGA,010702.90,4304.167936000,N,14120.431500000,E,1,12,0.86,16.525,M,32.006,M,,*7A
[2021-01-07 10:07:04.076] $GNGGA,010703.00,4304.167936000,N,14120.431500000,E,1,12,0.86,16.529,M,32.006,M,,*7E
[2021-01-07 10:07:04.170] $GNGGA,010703.10,4304.167936000,N,14120.431500000,E,1,12,0.86,16.527,M,32.006,M,,*71
[2021-01-07 10:07:04.279] $GNGGA,010703.20,4304.167942000,N,14120.431500000,E,1,12,0.86,16.528,M,32.006,M,,*7E
[2021-01-07 10:07:04.373] $GNGGA,010703.30,4304.167942000,N,14120.431500000,E,1,12,0.86,16.524,M,32.006,M,,*73
[2021-01-07 10:07:04.482] $GNGGA,010703.40,4304.167942000,N,14120.431500000,E,1,12,0.86,16.530,M,32.006,M,,*71
[2021-01-07 10:07:04.576] $GNGGA,010703.50,4304.167942000,N,14120.431500000,E,1,12,0.86,16.526,M,32.006,M,,*77
[2021-01-07 10:07:04.670] $GNGGA,010703.60,4304.167942000,N,14120.431500000,E,1,12,0.86,16.529,M,32.006,M,,*7B
[2021-01-07 10:07:04.779] $GNGGA,010703.70,4304.167942000,N,14120.431500000,E,1,12,0.86,16.530,M,32.006,M,,*72
[2021-01-07 10:07:04.873] $GNGGA,010703.80,4304.167942000,N,14120.431500000,E,1,12,0.86,16.526,M,32.006,M,,*7A
[2021-01-07 10:07:04.982] $GNGGA,010703.90,4304.167942000,N,14120.431500000,E,1,12,0.86,16.531,M,32.006,M,,*7D
[2021-01-07 10:07:05.076] $GNGGA,010704.00,4304.167942000,N,14120.431500000,E,1,12,0.86,16.531,M,32.006,M,,*73
[2021-01-07 10:07:05.170] $GNGGA,010704.10,4304.167942000,N,14120.431500000,E,1,12,0.86,16.529,M,32.006,M,,*7B
[2021-01-07 10:07:05.279] $GNGGA,010704.20,4304.167942000,N,14120.431500000,E,1,12,0.86,16.533,M,32.006,M,,*73
[2021-01-07 10:07:05.373] $GNGGA,010704.30,4304.167942000,N,14120.431500000,E,1,12,0.86,16.532,M,32.006,M,,*73
[2021-01-07 10:07:05.482] $GNGGA,010704.40,4304.167942000,N,14120.431500000,E,1,12,0.86,16.532,M,32.006,M,,*74
[2021-01-07 10:07:05.576] $GNGGA,010704.50,4304.167942000,N,14120.431500000,E,1,12,0.86,16.532,M,32.006,M,,*75
[2021-01-07 10:07:05.670] $GNGGA,010704.60,4304.167942000,N,14120.431500000,E,1,12,0.86,16.536,M,32.006,M,,*72
[2021-01-07 10:07:05.779] $GNGGA,010704.70,4304.167942000,N,14120.431500000,E,1,12,0.86,16.535,M,32.006,M,,*70
[2021-01-07 10:07:05.873] $GNGGA,010704.80,4304.167942000,N,14120.431500000,E,1,12,0.86,16.534,M,32.006,M,,*7E
[2021-01-07 10:07:05.982] $GNGGA,010704.90,4304.167942000,N,14120.431500000,E,1,12,0.86,16.539,M,32.006,M,,*72
[2021-01-07 10:07:06.076] $GNGGA,010705.00,4304.167942000,N,14120.431500000,E,1,12,0.86,16.537,M,32.006,M,,*74
[2021-01-07 10:07:06.170] $GNGGA,010705.10,4304.167942000,N,14120.431500000,E,1,12,0.86,16.538,M,32.006,M,,*7A
[2021-01-07 10:07:06.279] $GNGGA,010705.20,4304.167942000,N,14120.431500000,E,1,12,0.86,16.539,M,32.006,M,,*78
[2021-01-07 10:07:06.373] $GNGGA,010705.30,4304.167942000,N,14120.431500000,E,1,12,0.86,16.538,M,32.006,M,,*78
[2021-01-07 10:07:06.482] $GNGGA,010705.40,4304.167942000,N,14120.431500000,E,1,12,0.86,16.535,M,32.006,M,,*72
[2021-01-07 10:07:06.576] $GNGGA,010705.50,4304.167942000,N,14120.431500000,E,1,12,0.86,16.540,M,32.006,M,,*71
[2021-01-07 10:07:06.669] $GNGGA,010705.60,4304.167942000,N,14120.431500000,E,1,12,0.86,16.537,M,32.006,M,,*72
[2021-01-07 10:07:06.779] $GNGGA,010705.70,4304.167942000,N,14120.431500000,E,1,12,0.86,16.541,M,32.006,M,,*72
[2021-01-07 10:07:06.873] $GNGGA,010705.80,4304.167942000,N,14120.431500000,E,1,12,0.86,16.541,M,32.006,M,,*7D
[2021-01-07 10:07:06.982] $GNGGA,010705.90,4304.167942000,N,14120.431494000,E,1,12,0.86,16.541,M,32.006,M,,*70
[2021-01-07 10:07:07.076] $GNGGA,010706.00,4304.167942000,N,14120.431500000,E,1,12,0.86,16.541,M,32.006,M,,*76
[2021-01-07 10:07:07.169] $GNGGA,010706.10,4304.167942000,N,14120.431494000,E,1,12,0.86,16.542,M,32.006,M,,*78
[2021-01-07 10:07:07.279] $GNGGA,010706.20,4304.167942000,N,14120.431500000,E,1,12,0.86,16.546,M,32.006,M,,*73
[2021-01-07 10:07:07.373] $GNGGA,010706.30,4304.167942000,N,14120.431494000,E,1,12,0.86,16.543,M,32.006,M,,*7B
[2021-01-07 10:07:07.482] $GNGGA,010706.40,4304.167942000,N,14120.431500000,E,1,12,0.86,16.541,M,32.006,M,,*72
[2021-01-07 10:07:07.576] $GNGGA,010706.50,4304.167948000,N,14120.431494000,E,1,12,0.86,16.543,M,32.006,M,,*77
[2021-01-07 10:07:07.669] $GNGGA,010706.60,4304.167948000,N,14120.431494000,E,1,12,0.86,16.545,M,32.006,M,,*72
[2021-01-07 10:07:07.779] $GNGGA,010706.70,4304.167948000,N,14120.431494000,E,1,12,0.86,16.544,M,32.006,M,,*72
[2021-01-07 10:07:07.873] $GNGGA,010706.80,4304.167948000,N,14120.431494000,E,1,12,0.86,16.543,M,32.006,M,,*7A
[2021-01-07 10:07:07.982] $GNGGA,010706.90,4304.167948000,N,14120.431494000,E,1,12,0.86,16.546,M,32.006,M,,*7E
[2021-01-07 10:07:08.076] $GNGGA,010707.00,4304.167948000,N,14120.431494000,E,1,12,0.86,16.546,M,32.006,M,,*76
[2021-01-07 10:07:08.169] $GNGGA,010707.10,4304.167948000,N,14120.431494000,E,1,12,0.86,16.547,M,32.006,M,,*76
[2021-01-07 10:07:08.279] $GNGGA,010707.20,4304.167948000,N,14120.431494000,E,1,12,0.86,16.549,M,32.006,M,,*7B
[2021-01-07 10:07:08.372] $GNGGA,010707.30,4304.167948000,N,14120.431494000,E,1,12,0.86,16.550,M,32.006,M,,*72
[2021-01-07 10:07:08.482] $GNGGA,010707.40,4304.167948000,N,14120.431494000,E,1,12,0.86,16.548,M,32.006,M,,*7C
[2021-01-07 10:07:08.576] $GNGGA,010707.50,4304.167948000,N,14120.431494000,E,1,12,0.86,16.546,M,32.006,M,,*73
[2021-01-07 10:07:08.669] $GNGGA,010707.60,4304.167948000,N,14120.431494000,E,1,12,0.86,16.551,M,32.006,M,,*76
[2021-01-07 10:07:08.779] $GNGGA,010707.70,4304.167948000,N,14120.431494000,E,1,12,0.86,16.550,M,32.006,M,,*76
[2021-01-07 10:07:08.872] $GNGGA,010707.80,4304.167948000,N,14120.431494000,E,1,12,0.86,16.547,M,32.006,M,,*7F
[2021-01-07 10:07:08.982] $GNGGA,010707.90,4304.167948000,N,14120.431494000,E,1,12,0.86,16.552,M,32.006,M,,*7A
[2021-01-07 10:07:09.076] $GNGGA,010708.00,4304.167948000,N,14120.431494000,E,1,12,0.86,16.552,M,32.006,M,,*7C
[2021-01-07 10:07:09.169] $GNGGA,010708.10,4304.167948000,N,14120.431494000,E,1,12,0.86,16.552,M,32.006,M,,*7D
[2021-01-07 10:07:09.279] $GNGGA,010708.20,4304.167948000,N,14120.431494000,E,1,12,0.86,16.556,M,32.006,M,,*7A
[2021-01-07 10:07:09.372] $GNGGA,010708.30,4304.167948000,N,14120.431494000,E,1,12,0.86,16.556,M,32.006,M,,*7B
[2021-01-07 10:07:09.482] $GNGGA,010708.40,4304.167948000,N,14120.431494000,E,1,12,0.86,16.558,M,32.006,M,,*72
[2021-01-07 10:07:09.576] $GNGGA,010708.50,4304.167948000,N,14120.431494000,E,1,12,0.86,16.558,M,32.006,M,,*73
[2021-01-07 10:07:09.669] $GNGGA,010708.60,4304.167948000,N,14120.431494000,E,1,12,0.86,16.559,M,32.006,M,,*71
[2021-01-07 10:07:09.779] $GNGGA,010708.70,4304.167948000,N,14120.431494000,E,1,12,0.86,16.560,M,32.006,M,,*7A
[2021-01-07 10:07:09.872] $GNGGA,010708.80,4304.167948000,N,14120.431494000,E,1,12,0.86,16.560,M,32.006,M,,*75
[2021-01-07 10:07:09.982] $GNGGA,010708.90,4304.167948000,N,14120.431494000,E,1,12,0.86,16.560,M,32.006,M,,*74
[2021-01-07 10:07:10.075] $GNGGA,010709.00,4304.167948000,N,14120.431494000,E,1,12,0.86,16.558,M,32.006,M,,*77
[2021-01-07 10:07:10.169] $GNGGA,010709.10,4304.167948000,N,14120.431488000,E,1,12,0.86,16.562,M,32.006,M,,*72
[2021-01-07 10:07:10.279] $GNGGA,010709.20,4304.167948000,N,14120.431488000,E,1,12,0.86,16.563,M,32.006,M,,*70
[2021-01-07 10:07:10.372] $GNGGA,010709.30,4304.167948000,N,14120.431488000,E,1,12,0.86,16.562,M,32.006,M,,*70
[2021-01-07 10:07:10.482] $GNGGA,010709.40,4304.167948000,N,14120.431488000,E,1,12,0.86,16.564,M,32.006,M,,*71
[2021-01-07 10:07:10.575] $GNGGA,010709.50,4304.167948000,N,14120.431488000,E,1,12,0.86,16.562,M,32.006,M,,*76
[2021-01-07 10:07:10.669] $GNGGA,010709.60,4304.167948000,N,14120.431488000,E,1,12,0.86,16.564,M,32.006,M,,*73
[2021-01-07 10:07:10.779] $GNGGA,010709.70,4304.167948000,N,14120.431488000,E,1,12,0.86,16.559,M,32.006,M,,*7C
[2021-01-07 10:07:10.872] $GNGGA,010709.80,4304.167948000,N,14120.431488000,E,1,12,0.86,16.560,M,32.006,M,,*79
[2021-01-07 10:07:10.982] $GNGGA,010709.90,4304.167948000,N,14120.431488000,E,1,12,0.86,16.562,M,32.006,M,,*7A
[2021-01-07 10:07:11.075] $GNGGA,010710.00,4304.167948000,N,14120.431488000,E,1,12,0.86,16.558,M,32.006,M,,*72
[2021-01-07 10:07:11.169] $GNGGA,010710.10,4304.167948000,N,14120.431488000,E,1,12,0.86,16.561,M,32.006,M,,*79
[2021-01-07 10:07:11.279] $GNGGA,010710.20,4304.167948000,N,14120.431488000,E,1,12,0.86,16.556,M,32.006,M,,*7E
[2021-01-07 10:07:11.372] $GNGGA,010710.30,4304.167948000,N,14120.431488000,E,1,12,0.86,16.558,M,32.006,M,,*71
[2021-01-07 10:07:11.482] $GNGGA,010710.40,4304.167948000,N,14120.431488000,E,1,12,0.86,16.556,M,32.006,M,,*78
[2021-01-07 10:07:11.575] $GNGGA,010710.50,4304.167948000,N,14120.431488000,E,1,12,0.86,16.552,M,32.006,M,,*7D
[2021-01-07 10:07:11.669] $GNGGA,010710.60,4304.167948000,N,14120.431488000,E,1,12,0.86,16.556,M,32.006,M,,*7A
[2021-01-07 10:07:11.778] $GNGGA,010710.70,4304.167948000,N,14120.431488000,E,1,12,0.86,16.553,M,32.006,M,,*7E
[2021-01-07 10:07:11.872] $GNGGA,010710.80,4304.167948000,N,14120.431482000,E,1,12,0.86,16.552,M,32.006,M,,*7A
[2021-01-07 10:07:11.982] $GNGGA,010710.90,4304.167948000,N,14120.431482000,E,1,12,0.86,16.550,M,32.006,M,,*79
[2021-01-07 10:07:12.075] $GNGGA,010711.00,4304.167948000,N,14120.431488000,E,1,12,0.86,16.550,M,32.006,M,,*7B
[2021-01-07 10:07:12.169] $GNGGA,010711.10,4304.167948000,N,14120.431482000,E,1,12,0.86,16.549,M,32.006,M,,*78
[2021-01-07 10:07:12.279] $GNGGA,010711.20,4304.167948000,N,14120.431482000,E,1,12,0.86,16.546,M,32.006,M,,*74
[2021-01-07 10:07:12.372] $GNGGA,010711.30,4304.167948000,N,14120.431482000,E,1,12,0.86,16.548,M,32.006,M,,*7B
[2021-01-07 10:07:12.482] $GNGGA,010711.40,4304.167948000,N,14120.431482000,E,1,12,0.86,16.545,M,32.006,M,,*71
[2021-01-07 10:07:12.575] $GNGGA,010711.50,4304.167948000,N,14120.431482000,E,1,12,0.86,16.541,M,32.006,M,,*74
[2021-01-07 10:07:12.669] $GNGGA,010711.60,4304.167948000,N,14120.431482000,E,1,12,0.86,16.540,M,32.006,M,,*76
[2021-01-07 10:07:12.778] $GNGGA,010711.70,4304.167948000,N,14120.431482000,E,1,12,0.86,16.542,M,32.006,M,,*75
[2021-01-07 10:07:12.872] $GNGGA,010711.80,4304.167948000,N,14120.431482000,E,1,12,0.86,16.538,M,32.006,M,,*77
[2021-01-07 10:07:12.982] $GNGGA,010711.90,4304.167954000,N,14120.431482000,E,1,12,0.86,16.535,M,32.006,M,,*76
[2021-01-07 10:07:13.075] $GNGGA,010712.00,4304.167948000,N,14120.431482000,E,1,12,0.86,16.539,M,32.006,M,,*7D
[2021-01-07 10:07:13.169] $GNGGA,010712.10,4304.167954000,N,14120.431482000,E,1,12,0.86,16.535,M,32.006,M,,*7D
[2021-01-07 10:07:13.278] $GNGGA,010712.20,4304.167954000,N,14120.431482000,E,1,12,0.86,16.529,M,32.006,M,,*73
[2021-01-07 10:07:13.372] $GNGGA,010712.30,4304.167948000,N,14120.431482000,E,1,12,0.86,16.532,M,32.006,M,,*75
[2021-01-07 10:07:13.482] $GNGGA,010712.40,4304.167954000,N,14120.431482000,E,1,12,0.86,16.532,M,32.006,M,,*7F
[2021-01-07 10:07:13.575] $GNGGA,010712.50,4304.167954000,N,14120.431482000,E,1,12,0.86,16.530,M,32.006,M,,*7C
[2021-01-07 10:07:13.669] $GNGGA,010712.60,4304.167954000,N,14120.431482000,E,1,12,0.86,16.530,M,32.006,M,,*7F
[2021-01-07 10:07:13.778] $GNGGA,010712.70,4304.167954000,N,14120.431482000,E,1,12,0.86,16.527,M,32.006,M,,*78
[2021-01-07 10:07:13.872] $GNGGA,010712.80,4304.167954000,N,14120.431476000,E,1,12,0.86,16.526,M,32.006,M,,*7D
[2021-01-07 10:07:13.981] $GNGGA,010712.90,4304.167954000,N,14120.431476000,E,1,12,0.86,16.523,M,32.006,M,,*79
[2021-01-07 10:07:14.075] $GNGGA,010713.00,4304.167954000,N,14120.431476000,E,1,12,0.86,16.521,M,32.006,M,,*73
[2021-01-07 10:07:14.169] $GNGGA,010713.10,4304.167954000,N,14120.431476000,E,1,12,0.86,16.523,M,32.006,M,,*70
[2021-01-07 10:07:14.278] $GNGGA,010713.20,4304.167954000,N,14120.431476000,E,1,12,0.86,16.519,M,32.006,M,,*7A
[2021-01-07 10:07:14.372] $GNGGA,010713.30,4304.167954000,N,14120.431476000,E,1,12,0.86,16.517,M,32.006,M,,*75
[2021-01-07 10:07:14.481] $GNGGA,010713.40,4304.167954000,N,14120.431476000,E,1,12,0.86,16.521,M,32.006,M,,*77
[2021-01-07 10:07:14.575] $GNGGA,010713.50,4304.167954000,N,14120.431476000,E,1,12,0.86,16.513,M,32.006,M,,*77
[2021-01-07 10:07:14.685] $GNGGA,010713.60,4304.167954000,N,14120.431476000,E,1,12,0.86,16.515,M,32.006,M,,*72
[2021-01-07 10:07:14.778] $GNGGA,010713.70,4304.167954000,N,14120.431476000,E,1,12,0.86,16.516,M,32.006,M,,*70
[2021-01-07 10:07:14.872] $GNGGA,010713.80,4304.167954000,N,14120.431476000,E,1,12,0.86,16.512,M,32.006,M,,*7B
[2021-01-07 10:07:14.981] $GNGGA,010713.90,4304.167954000,N,14120.431476000,E,1,12,0.86,16.510,M,32.006,M,,*78
[2021-01-07 10:07:15.075] $GNGGA,010714.00,4304.167954000,N,14120.431470000,E,1,12,0.86,16.508,M,32.006,M,,*79
[2021-01-07 10:07:15.185] $GNGGA,010714.10,4304.167954000,N,14120.431476000,E,1,12,0.86,16.510,M,32.006,M,,*77
[2021-01-07 10:07:15.278] $GNGGA,010714.20,4304.167954000,N,14120.431470000,E,1,12,0.86,16.506,M,32.006,M,,*75
[2021-01-07 10:07:15.372] $GNGGA,010714.30,4304.167954000,N,14120.431470000,E,1,12,0.86,16.505,M,32.006,M,,*77
[2021-01-07 10:07:15.481] $GNGGA,010714.40,4304.167954000,N,14120.431470000,E,1,12,0.86,16.506,M,32.006,M,,*73
[2021-01-07 10:07:15.575] $GNGGA,010714.50,4304.167954000,N,14120.431470000,E,1,12,0.86,16.501,M,32.006,M,,*75
[2021-01-07 10:07:15.684] $GNGGA,010714.60,4304.167954000,N,14120.431470000,E,1,12,0.86,16.497,M,32.006,M,,*78
[2021-01-07 10:07:15.778] $GNGGA,010714.70,4304.167954000,N,14120.431470000,E,1,12,0.86,16.499,M,32.006,M,,*77
[2021-01-07 10:07:15.872] $GNGGA,010714.80,4304.167954000,N,14120.431470000,E,1,12,0.86,16.497,M,32.006,M,,*76
[2021-01-07 10:07:15.981] $GNGGA,010714.90,4304.167954000,N,14120.431470000,E,1,12,0.86,16.492,M,32.006,M,,*72
[2021-01-07 10:07:16.075] $GNGGA,010715.00,4304.167954000,N,14120.431470000,E,1,12,0.86,16.495,M,32.006,M,,*7D
[2021-01-07 10:07:16.184] $GNGGA,010715.10,4304.167954000,N,14120.431470000,E,1,12,0.86,16.493,M,32.006,M,,*7A
[2021-01-07 10:07:16.278] $GNGGA,010715.20,4304.167960000,N,14120.431464000,E,1,12,0.86,16.487,M,32.006,M,,*7E
[2021-01-07 10:07:16.372] $GNGGA,010715.30,4304.167960000,N,14120.431464000,E,1,12,0.86,16.487,M,32.006,M,,*7F
[2021-01-07 10:07:16.481] $GNGGA,010715.40,4304.167954000,N,14120.431464000,E,1,12,0.86,16.486,M,32.006,M,,*7E
[2021-01-07 10:07:16.575] $GNGGA,010715.50,4304.167960000,N,14120.431464000,E,1,12,0.86,16.485,M,32.006,M,,*7B
[2021-01-07 10:07:16.684] $GNGGA,010715.60,4304.167960000,N,14120.431464000,E,1,12,0.86,16.481,M,32.006,M,,*7C
[2021-01-07 10:07:16.778] $GNGGA,010715.70,4304.167954000,N,14120.431464000,E,1,12,0.86,16.479,M,32.006,M,,*7D
[2021-01-07 10:07:16.872] $GNGGA,010715.80,4304.167960000,N,14120.431464000,E,1,12,0.86,16.481,M,32.006,M,,*72
[2021-01-07 10:07:16.981] $GNGGA,010715.90,4304.167960000,N,14120.431464000,E,1,12,0.86,16.476,M,32.006,M,,*7B
[2021-01-07 10:07:17.075] $GNGGA,010716.00,4304.167954000,N,14120.431464000,E,1,12,0.86,16.478,M,32.006,M,,*78
[2021-01-07 10:07:17.169] $GNGGA,010716.10,4304.167567590,N,14120.431239102,E,5,12,1.05,16.792,M,32.006,M,4.1,2110*54
[2021-01-07 10:07:17.278] $GNGGA,010716.20,4304.167311896,N,14120.430973470,E,5,12,1.05,17.611,M,32.006,M,4.2,2110*57
[2021-01-07 10:07:17.372] $GNGGA,010716.30,4304.167256377,N,14120.430939370,E,5,12,1.05,17.657,M,32.006,M,4.3,2110*5A
[2021-01-07 10:07:17.481] $GNGGA,010716.40,4304.167230455,N,14120.430923669,E,5,12,1.05,17.661,M,32.006,M,4.4,2110*5E
[2021-01-07 10:07:17.575] $GNGGA,010716.50,4304.167216551,N,14120.430912820,E,5,12,1.05,17.663,M,32.006,M,4.5,2110*5C
[2021-01-07 10:07:17.684] $GNGGA,010716.60,4304.167204774,N,14120.430904560,E,5,12,1.05,17.656,M,32.006,M,4.6,2110*52
[2021-01-07 10:07:17.778] $GNGGA,010716.70,4304.167198026,N,14120.430900699,E,5,12,1.05,17.651,M,32.006,M,4.7,2110*52
[2021-01-07 10:07:17.872] $GNGGA,010716.80,4304.167194009,N,14120.430901189,E,5,12,1.05,17.652,M,32.006,M,4.8,2110*57
[2021-01-07 10:07:17.981] $GNGGA,010716.90,4304.167191709,N,14120.430900927,E,5,12,1.05,17.648,M,32.006,M,4.9,2110*53
[2021-01-07 10:07:18.075] $GNGGA,010717.00,4304.167191169,N,14120.430901919,E,5,12,1.05,17.657,M,32.006,M,5.0,2110*51
[2021-01-07 10:07:18.184] $GNGGA,010717.10,4304.167190691,N,14120.430903734,E,5,12,1.05,17.648,M,32.006,M,5.1,2110*5D
[2021-01-07 10:07:18.278] $GNGGA,010717.20,4304.167960000,N,14120.431452000,E,1,12,0.86,16.457,M,32.006,M,5.2,*5D
[2021-01-07 10:07:18.372] $GNGGA,010717.30,4304.167564875,N,14120.431152514,E,5,12,1.05,16.808,M,32.006,M,5.3,2110*50
[2021-01-07 10:07:18.481] $GNGGA,010717.40,4304.167337137,N,14120.431019137,E,5,12,1.05,17.339,M,32.006,M,5.4,2110*5C
[2021-01-07 10:07:18.575] $GNGGA,010717.50,4304.167276714,N,14120.430982640,E,5,12,1.05,17.463,M,32.006,M,5.5,2110*5A
[2021-01-07 10:07:18.684] $GNGGA,010717.60,4304.167248905,N,14120.430956134,E,5,12,1.05,17.520,M,32.006,M,5.6,2110*52
[2021-01-07 10:07:18.778] $GNGGA,010717.70,4304.167236453,N,14120.430944411,E,5,12,1.05,17.559,M,32.006,M,5.7,2110*5A
[2021-01-07 10:07:18.872] $GNGGA,010717.80,4304.167230541,N,14120.430937605,E,5,12,1.05,17.572,M,32.006,M,5.8,2110*54
[2021-01-07 10:07:18.981] $GNGGA,010717.90,4304.167224557,N,14120.430935211,E,5,12,1.05,17.582,M,32.006,M,5.9,2110*5A
[2021-01-07 10:07:19.075] $GNGGA,010718.00,4304.167219348,N,14120.430932401,E,5,12,1.05,17.586,M,32.006,M,6.0,2110*54
[2021-01-07 10:07:19.184] $GNGGA,010718.10,4304.167217611,N,14120.430930517,E,5,12,1.05,17.590,M,32.006,M,1.1,2110*57
[2021-01-07 10:07:19.278] $GNGGA,010718.20,4304.167217106,N,14120.430930841,E,5,12,1.05,17.586,M,32.006,M,1.2,2110*5F
[2021-01-07 10:07:19.372] $GNGGA,010718.30,4304.167217793,N,14120.430930782,E,5,12,1.05,17.589,M,32.006,M,1.3,2110*5A
[2021-01-07 10:07:19.481] $GNGGA,010718.40,4304.167217178,N,14120.430929350,E,5,12,1.05,17.595,M,32.006,M,1.4,2110*57
[2021-01-07 10:07:19.575] $GNGGA,010718.50,4304.167217643,N,14120.430929217,E,5,12,1.05,17.592,M,32.006,M,1.5,2110*5D
[2021-01-07 10:07:19.684] $GNGGA,010718.60,4304.167216523,N,14120.430930686,E,5,12,1.05,17.598,M,32.006,M,1.6,2110*57
[2021-01-07 10:07:19.778] $GNGGA,010718.70,4304.167436177,N,14120.431235530,E,4,12,1.05,18.014,M,32.006,M,1.7,2110*58
[2021-01-07 10:07:19.872] $GNGGA,010718.80,4304.167437932,N,14120.431237340,E,4,12,1.05,18.018,M,32.006,M,1.8,2110*5F
[2021-01-07 10:07:19.981] $GNGGA,010718.90,4304.167437735,N,14120.431237236,E,4,12,1.05,18.017,M,32.006,M,1.9,2110*59
[2021-01-07 10:07:20.075] $GNGGA,010719.00,4304.167437363,N,14120.431236385,E,4,12,1.05,18.015,M,32.006,M,2.0,2110*56
[2021-01-07 10:07:20.184] $GNGGA,010719.10,4304.167438250,N,14120.431237300,E,4,12,1.05,18.015,M,32.006,M,2.1,2110*54
[2021-01-07 10:07:20.278] $GNGGA,010719.20,4304.167437721,N,14120.431237055,E,4,12,1.05,18.015,M,32.006,M,2.2,2110*5B
[2021-01-07 10:07:20.372] $GNGGA,010719.30,4304.167437190,N,14120.431235768,E,4,12,1.05,18.011,M,32.006,M,2.3,2110*58
[2021-01-07 10:07:20.481] $GNGGA,010719.40,4304.167436109,N,14120.431236345,E,4,12,1.05,18.010,M,32.006,M,2.4,2110*50
[2021-01-07 10:07:20.575] $GNGGA,010719.50,4304.167437066,N,14120.431236732,E,4,12,1.05,18.015,M,32.006,M,2.5,2110*58
[2021-01-07 10:07:20.684] $GNGGA,010719.60,4304.167435852,N,14120.431235836,E,4,12,1.05,18.013,M,32.006,M,2.6,2110*5B
[2021-01-07 10:07:20.778] $GNGGA,010719.70,4304.167434912,N,14120.431234330,E,4,12,1.05,18.011,M,32.006,M,2.7,2110*51
[2021-01-07 10:07:20.872] $GNGGA,010719.80,4304.167436237,N,14120.431234724,E,4,12,1.05,18.012,M,32.006,M,2.8,2110*5D
[2021-01-07 10:07:20.981] $GNGGA,010719.90,4304.167436265,N,14120.431234792,E,4,12,1.05,18.012,M,32.006,M,2.9,2110*57
[2021-01-07 10:07:21.075] $GNGGA,010720.00,4304.167437331,N,14120.431235178,E,4,12,1.05,18.014,M,32.006,M,3.0,2110*58
[2021-01-07 10:07:21.184] $GNGGA,010720.10,4304.167436886,N,14120.431235561,E,4,12,1.05,18.016,M,32.006,M,3.1,2110*50
[2021-01-07 10:07:21.278] $GNGGA,010720.20,4304.167435564,N,14120.431234803,E,4,12,1.05,18.015,M,32.006,M,3.2,2110*59
[2021-01-07 10:07:21.372] $GNGGA,010720.30,4304.167436702,N,14120.431235375,E,4,12,1.05,18.017,M,32.006,M,3.3,2110*51
[2021-01-07 10:07:21.481] $GNGGA,010720.40,4304.167436605,N,14120.431235784,E,4,12,1.05,18.019,M,32.006,M,3.4,2110*53
[2021-01-07 10:07:21.575] $GNGGA,010720.50,4304.167436481,N,14120.431234403,E,4,12,1.05,18.016,M,32.006,M,3.5,2110*5F
[2021-01-07 10:07:21.684] $GNGGA,010720.60,4304.167435400,N,14120.431234625,E,4,12,1.05,18.017,M,32.006,M,3.6,2110*52
[2021-01-07 10:07:22.403] $GNGGA,010720.70,4304.167433516,N,14120.431232294,E,4,12,1.05,18.008,M,32.006,M,3.7,2110*54
[2021-01-07 10:07:22.418] $GNGGA,010720.80,4304.167434332,N,14120.431232358,E,4,12,1.05,18.006,M,32.006,M,3.8,2110*5C
[2021-01-07 10:07:22.418] $GNGGA,010720.90,4304.167433488,N,14120.431231572,E,4,12,1.05,18.008,M,32.006,M,3.9,2110*5E
[2021-01-07 10:07:22.418] $GNGGA,010721.00,4304.167433977,N,14120.431230839,E,4,12,1.05,18.005,M,32.006,M,4.0,2110*5B
[2021-01-07 10:07:22.418] $GNGGA,010721.10,4304.167433895,N,14120.431231373,E,4,12,1.05,18.010,M,32.006,M,4.1,2110*56
[2021-01-07 10:07:22.418] $GNGGA,010721.20,4304.167434784,N,14120.431232832,E,4,12,1.05,18.011,M,32.006,M,4.2,2110*52
[2021-01-07 10:07:22.418] $GNGGA,010721.30,4304.167435249,N,14120.431233143,E,4,12,1.05,18.009,M,32.006,M,4.3,2110*50
[2021-01-07 10:07:22.481] $GNGGA,010721.40,4304.167434517,N,14120.431232224,E,4,12,1.05,18.011,M,32.006,M,4.4,2110*57
[2021-01-07 10:07:22.575] $GNGGA,010721.50,4304.167433927,N,14120.431232865,E,4,12,1.05,18.010,M,32.006,M,4.5,2110*51
[2021-01-07 10:07:22.684] $GNGGA,010721.60,4304.167434832,N,14120.431232259,E,4,12,1.05,18.010,M,32.006,M,4.6,2110*56
[2021-01-07 10:07:22.778] $GNGGA,010721.70,4304.167433641,N,14120.431231548,E,4,12,1.05,18.010,M,32.006,M,4.7,2110*5F
[2021-01-07 10:07:22.871] $GNGGA,010721.80,4304.167433531,N,14120.431232308,E,4,12,1.05,18.011,M,32.006,M,4.8,2110*5B
[2021-01-07 10:07:22.981] $GNGGA,010721.90,4304.167434215,N,14120.431232387,E,4,12,1.05,18.012,M,32.006,M,4.9,2110*59
[2021-01-07 10:07:23.075] $GNGGA,010722.00,4304.167433843,N,14120.431232144,E,4,12,1.05,18.013,M,32.006,M,5.0,2110*59
[2021-01-07 10:07:23.184] $GNGGA,010722.10,4304.167432249,N,14120.431230849,E,4,12,1.05,18.012,M,32.006,M,5.1,2110*5F
[2021-01-07 10:07:23.278] $GNGGA,010722.20,4304.167432398,N,14120.431230445,E,4,12,1.05,18.012,M,32.006,M,5.2,2110*52
[2021-01-07 10:07:23.371] $GNGGA,010722.30,4304.167433151,N,14120.431231582,E,4,12,1.05,18.016,M,32.006,M,5.3,2110*5B
[2021-01-07 10:07:23.481] $GNGGA,010722.40,4304.167434487,N,14120.431233535,E,4,12,1.05,18.020,M,32.006,M,5.4,2110*59
[2021-01-07 10:07:23.575] $GNGGA,010722.50,4304.167434182,N,14120.431233606,E,4,12,1.05,18.023,M,32.006,M,5.5,2110*59
[2021-01-07 10:07:23.684] $GNGGA,010722.60,4304.167436726,N,14120.431236154,E,4,12,1.05,18.024,M,32.006,M,5.6,2110*51
[2021-01-07 10:07:23.778] $GNGGA,010722.70,4304.167437822,N,14120.431236477,E,4,12,1.05,18.025,M,32.006,M,5.7,2110*5E
[2021-01-07 10:07:23.871] $GNGGA,010722.80,4304.167438693,N,14120.431236839,E,4,12,1.05,18.027,M,32.006,M,5.8,2110*51
[2021-01-07 10:07:23.981] $GNGGA,010722.90,4304.167438119,N,14120.431236140,E,4,12,1.05,18.027,M,32.006,M,5.9,2110*53
[2021-01-07 10:07:24.075] $GNGGA,010723.00,4304.167437406,N,14120.431235655,E,4,12,1.05,18.025,M,32.006,M,6.0,2110*57
[2021-01-07 10:07:24.184] $GNGGA,010723.10,4304.167439234,N,14120.431236904,E,4,12,1.05,18.021,M,32.006,M,1.1,2110*55
[2021-01-07 10:07:24.278] $GNGGA,010723.20,4304.167440412,N,14120.431237058,E,4,12,1.05,18.016,M,32.006,M,1.2,2110*5C
[2021-01-07 10:07:24.371] $GNGGA,010723.30,4304.167441831,N,14120.431237539,E,4,12,1.05,18.013,M,32.006,M,1.3,2110*57
[2021-01-07 10:07:24.481] $GNGGA,010723.40,4304.167441966,N,14120.431237262,E,4,12,1.05,18.015,M,32.006,M,1.4,2110*5B
[2021-01-07 10:07:24.574] $GNGGA,010723.50,4304.167441613,N,14120.431236556,E,4,12,1.05,18.010,M,32.006,M,1.5,2110*52
[2021-01-07 10:07:24.684] $GNGGA,010723.60,4304.167443083,N,14120.431237502,E,4,12,1.05,18.007,M,32.006,M,1.6,2110*59
[2021-01-07 10:07:24.778] $GNGGA,010723.70,4304.167443486,N,14120.431236953,E,4,12,1.05,18.009,M,32.006,M,1.7,2110*5F
[2021-01-07 10:07:24.871] $GNGGA,010723.80,4304.167444233,N,14120.431237995,E,4,12,1.05,18.013,M,32.006,M,1.8,2110*50
[2021-01-07 10:07:24.981] $GNGGA,010723.90,4304.167443810,N,14120.431237594,E,4,12,1.05,18.012,M,32.006,M,1.9,2110*50
[2021-01-07 10:07:25.074] $GNGGA,010724.00,4304.167444916,N,14120.431238870,E,4,12,1.05,18.010,M,32.006,M,2.0,2110*5E
[2021-01-07 10:07:25.184] $GNGGA,010724.10,4304.167445958,N,14120.431240119,E,4,12,1.05,18.015,M,32.006,M,2.1,2110*59
[2021-01-07 10:07:25.278] $GNGGA,010724.20,4304.167444950,N,14120.431239543,E,4,12,1.05,18.011,M,32.006,M,2.2,2110*51
[2021-01-07 10:07:25.371] $GNGGA,010724.30,4304.167444789,N,14120.431238997,E,4,12,1.05,18.014,M,32.006,M,2.3,2110*5A
[2021-01-07 10:07:25.481] $GNGGA,010724.40,4304.167444932,N,14120.431239197,E,4,12,1.05,18.015,M,32.006,M,2.4,2110*5C
[2021-01-07 10:07:25.574] $GNGGA,010724.50,4304.167444552,N,14120.431238914,E,4,12,1.05,18.014,M,32.006,M,2.5,2110*55
[2021-01-07 10:07:25.684] $GNGGA,010724.60,4304.167445601,N,14120.431239360,E,4,12,1.05,18.016,M,32.006,M,2.6,2110*5B
[2021-01-07 10:07:25.778] $GNGGA,010724.70,4304.167445619,N,14120.431239833,E,4,12,1.05,18.017,M,32.006,M,2.7,2110*5E
[2021-01-07 10:07:25.871] $GNGGA,010724.80,4304.167445665,N,14120.431239532,E,4,12,1.05,18.010,M,32.006,M,2.8,2110*5E
[2021-01-07 10:07:25.981] $GNGGA,010724.90,4304.167445498,N,14120.431238725,E,4,12,1.05,18.014,M,32.006,M,2.9,2110*5F
[2021-01-07 10:07:26.074] $GNGGA,010725.00,4304.167445853,N,14120.431239512,E,4,12,1.05,18.012,M,32.006,M,3.0,2110*55
[2021-01-07 10:07:26.184] $GNGGA,010725.10,4304.167446147,N,14120.431240578,E,4,12,1.05,18.012,M,32.006,M,3.1,2110*58
[2021-01-07 10:07:26.278] $GNGGA,010725.20,4304.167445617,N,14120.431239922,E,4,12,1.05,18.011,M,32.006,M,3.2,2110*57
[2021-01-07 10:07:26.371] $GNGGA,010725.30,4304.167445433,N,14120.431239891,E,4,12,1.05,18.011,M,32.006,M,3.3,2110*5A
[2021-01-07 10:07:26.481] $GNGGA,010725.40,4304.167445251,N,14120.431240016,E,4,12,1.05,18.010,M,32.006,M,3.4,2110*50
[2021-01-07 10:07:26.574] $GNGGA,010725.50,4304.167445042,N,14120.431240070,E,4,12,1.05,18.009,M,32.006,M,3.5,2110*58
[2021-01-07 10:07:26.684] $GNGGA,010725.60,4304.167445580,N,14120.431240351,E,4,12,1.05,18.011,M,32.006,M,3.6,2110*5A
[2021-01-07 10:07:26.777] $GNGGA,010725.70,4304.167445719,N,14120.431240265,E,4,12,1.05,18.010,M,32.006,M,3.7,2110*5F
[2021-01-07 10:07:26.871] $GNGGA,010725.80,4304.167445725,N,14120.431241022,E,4,12,1.05,18.013,M,32.006,M,3.8,2110*53
[2021-01-07 10:07:26.981] $GNGGA,010725.90,4304.167445950,N,14120.431240974,E,4,12,1.05,18.015,M,32.006,M,3.9,2110*52
[2021-01-07 10:07:27.074] $GNGGA,010726.00,4304.167445947,N,14120.431240486,E,4,12,1.05,18.015,M,32.006,M,4.0,2110*50
[2021-01-07 10:07:27.184] $GNGGA,010726.10,4304.167445920,N,14120.431240379,E,4,12,1.05,18.019,M,32.006,M,4.1,2110*5A
[2021-01-07 10:07:27.277] $GNGGA,010726.20,4304.167446134,N,14120.431240308,E,4,12,1.05,18.018,M,32.006,M,4.2,2110*53
[2021-01-07 10:07:27.371] $GNGGA,010726.30,4304.167446344,N,14120.431240293,E,4,12,1.05,18.020,M,32.006,M,4.3,2110*5E
[2021-01-07 10:07:27.481] $GNGGA,010726.40,4304.167446049,N,14120.431240870,E,4,12,1.05,18.020,M,32.006,M,4.4,2110*57
[2021-01-07 10:07:27.574] $GNGGA,010726.50,4304.167446001,N,14120.431240447,E,4,12,1.05,18.018,M,32.006,M,4.5,2110*58
[2021-01-07 10:07:27.684] $GNGGA,010726.60,4304.167445703,N,14120.431240084,E,4,12,1.05,18.020,M,32.006,M,4.6,2110*5E
[2021-01-07 10:07:27.777] $GNGGA,010726.70,4304.167445357,N,14120.431239745,E,4,12,1.05,18.019,M,32.006,M,4.7,2110*55
[2021-01-07 10:07:27.871] $GNGGA,010726.80,4304.167445276,N,14120.431239911,E,4,12,1.05,18.020,M,32.006,M,4.8,2110*52
[2021-01-07 10:07:27.981] $GNGGA,010726.90,4304.167444504,N,14120.431238765,E,4,12,1.05,18.020,M,32.006,M,4.9,2110*5D
[2021-01-07 10:07:28.074] $GNGGA,010727.00,4304.167444165,N,14120.431239011,E,4,12,1.05,18.017,M,32.006,M,5.0,2110*5F
[2021-01-07 10:07:28.184] $GNGGA,010727.10,4304.167443462,N,14120.431238731,E,4,12,1.05,18.018,M,32.006,M,5.1,2110*51
[2021-01-07 10:07:28.277] $GNGGA,010727.20,4304.167443317,N,14120.431239261,E,4,12,1.05,18.023,M,32.006,M,5.2,2110*5D
[2021-01-07 10:07:28.371] $GNGGA,010727.30,4304.167443759,N,14120.431239183,E,4,12,1.05,18.020,M,32.006,M,5.3,2110*5F
[2021-01-07 10:07:28.480] $GNGGA,010727.40,4304.167442578,N,14120.431238234,E,4,12,1.05,18.023,M,32.006,M,5.4,2110*52
[2021-01-07 10:07:28.574] $GNGGA,010727.50,4304.167442333,N,14120.431238033,E,4,12,1.05,18.022,M,32.006,M,5.5,2110*5F
[2021-01-07 10:07:28.684] $GNGGA,010727.60,4304.167442839,N,14120.431238385,E,4,12,1.05,18.022,M,32.006,M,5.6,2110*50
[2021-01-07 10:07:28.777] $GNGGA,010727.70,4304.167442748,N,14120.431239087,E,4,12,1.05,18.025,M,32.006,M,5.7,2110*5E
[2021-01-07 10:07:28.871] $GNGGA,010727.80,4304.167444035,N,14120.431239692,E,4,12,1.05,18.025,M,32.006,M,5.8,2110*57
[2021-01-07 10:07:28.980] $GNGGA,010727.90,4304.167443051,N,14120.431239317,E,4,12,1.05,18.025,M,32.006,M,5.9,2110*5A
[2021-01-07 10:07:29.074] $GNGGA,010728.00,4304.167443657,N,14120.431239839,E,4,12,1.05,18.025,M,32.006,M,6.0,2110*51
[2021-01-07 10:07:29.184] $GNGGA,010728.10,4304.167441826,N,14120.431239514,E,4,12,1.05,18.032,M,32.006,M,1.1,2110*58
[2021-01-07 10:07:29.277] $GNGGA,010728.20,4304.167440225,N,14120.431238678,E,4,12,1.05,18.037,M,32.006,M,1.2,2110*5D
[2021-01-07 10:07:29.371] $GNGGA,010728.30,4304.167438527,N,14120.431238046,E,4,12,1.05,18.041,M,32.006,M,1.3,2110*5D
[2021-01-07 10:07:29.480] $GNGGA,010728.40,4304.167437280,N,14120.431237446,E,4,12,1.05,18.044,M,32.006,M,1.4,2110*56
[2021-01-07 10:07:29.574] $GNGGA,010728.50,4304.167437308,N,14120.431237315,E,4,12,1.05,18.050,M,32.006,M,1.5,2110*53
[2021-01-07 10:07:29.683] $GNGGA,010728.60,4304.167437045,N,14120.431237091,E,4,12,1.05,18.050,M,32.006,M,1.6,2110*56
[2021-01-07 10:07:29.777] $GNGGA,010728.70,4304.167436075,N,14120.431236707,E,4,12,1.05,18.051,M,32.006,M,1.7,2110*5C
[2021-01-07 10:07:29.871] $GNGGA,010728.80,4304.167437707,N,14120.431237394,E,4,12,1.05,18.056,M,32.006,M,1.8,2110*57
[2021-01-07 10:07:29.980] $GNGGA,010728.90,4304.167438365,N,14120.431237391,E,4,12,1.05,18.056,M,32.006,M,1.9,2110*5D
[2021-01-07 10:07:30.074] $GNGGA,010729.00,4304.167437324,N,14120.431236714,E,4,12,1.05,18.054,M,32.006,M,2.0,2110*5F
[2021-01-07 10:07:30.183] $GNGGA,010729.10,4304.167437961,N,14120.431236314,E,4,12,1.05,18.057,M,32.006,M,2.1,2110*53
[2021-01-07 10:07:30.277] $GNGGA,010729.20,4304.167436543,N,14120.431235832,E,4,12,1.05,18.053,M,32.006,M,2.2,2110*56
[2021-01-07 10:07:30.371] $GNGGA,010729.30,4304.167437240,N,14120.431236471,E,4,12,1.05,18.056,M,32.006,M,2.3,2110*5E
[2021-01-07 10:07:30.480] $GNGGA,010729.40,4304.167436489,N,14120.431235742,E,4,12,1.05,18.053,M,32.006,M,2.4,2110*59
[2021-01-07 10:07:30.574] $GNGGA,010729.50,4304.167436369,N,14120.431235851,E,4,12,1.05,18.053,M,32.006,M,2.5,2110*5D
[2021-01-07 10:07:30.683] $GNGGA,010729.60,4304.167436090,N,14120.431235193,E,4,12,1.05,18.054,M,32.006,M,2.6,2110*58
[2021-01-07 10:07:30.777] $GNGGA,010729.70,4304.167436347,N,14120.431236141,E,4,12,1.05,18.055,M,32.006,M,2.7,2110*5C
[2021-01-07 10:07:30.871] $GNGGA,010729.80,4304.167435712,N,14120.431235654,E,4,12,1.05,18.055,M,32.006,M,2.8,2110*5B
[2021-01-07 10:07:30.980] $GNGGA,010729.90,4304.167435920,N,14120.431236002,E,4,12,1.05,18.054,M,32.006,M,2.9,2110*53
[2021-01-07 10:07:31.074] $GNGGA,010730.00,4304.167434948,N,14120.431235847,E,4,12,1.05,18.055,M,32.006,M,3.0,2110*5E
[2021-01-07 10:07:31.183] $GNGGA,010730.10,4304.167434893,N,14120.431235717,E,4,12,1.05,18.052,M,32.006,M,3.1,2110*54
[2021-01-07 10:07:31.277] $GNGGA,010730.20,4304.167435798,N,14120.431235489,E,4,12,1.05,18.056,M,32.006,M,3.2,2110*51
[2021-01-07 10:07:31.371] $GNGGA,010730.30,4304.167434588,N,14120.431234200,E,4,12,1.05,18.053,M,32.006,M,3.3,2110*50
[2021-01-07 10:07:31.480] $GNGGA,010730.40,4304.167435304,N,14120.431234717,E,4,12,1.05,18.055,M,32.006,M,3.4,2110*56
[2021-01-07 10:07:31.574] $GNGGA,010730.50,4304.167435623,N,14120.431234648,E,4,12,1.05,18.053,M,32.006,M,3.5,2110*5B
[2021-01-07 10:07:31.683] $GNGGA,010730.60,4304.167435829,N,14120.431233964,E,4,12,1.05,18.049,M,32.006,M,3.6,2110*52
[2021-01-07 10:07:31.777] $GNGGA,010730.70,4304.167435927,N,14120.431234762,E,4,12,1.05,18.051,M,32.006,M,3.7,2110*5B
[2021-01-07 10:07:31.871] $GNGGA,010730.80,4304.167430761,N,14120.431229605,E,4,12,1.05,18.029,M,32.006,M,3.8,2110*51
[2021-01-07 10:07:31.980] $GNGGA,010730.90,4304.167430380,N,14120.431229048,E,4,12,1.05,18.033,M,32.006,M,3.9,2110*5E
[2021-01-07 10:07:32.074] $GNGGA,010731.00,4304.167429699,N,14120.431229487,E,4,12,1.05,18.034,M,32.006,M,4.0,2110*5D
[2021-01-07 10:07:32.183] $GNGGA,010731.10,4304.167430180,N,14120.431229986,E,4,12,1.05,18.035,M,32.006,M,4.1,2110*57
[2021-01-07 10:07:32.277] $GNGGA,010731.20,4304.167429459,N,14120.431229277,E,4,12,1.05,18.035,M,32.006,M,4.2,2110*5B
[2021-01-07 10:07:32.371] $GNGGA,010731.30,4304.167428790,N,14120.431228845,E,4,12,1.05,18.036,M,32.006,M,4.3,2110*55
[2021-01-07 10:07:32.480] $GNGGA,010731.40,4304.167428212,N,14120.431228511,E,4,12,1.05,18.033,M,32.006,M,4.4,2110*53
[2021-01-07 10:07:32.574] $GNGGA,010731.50,4304.167428475,N,14120.431228806,E,4,12,1.05,18.033,M,32.006,M,4.5,2110*5F
[2021-01-07 10:07:32.683] $GNGGA,010731.60,4304.167428317,N,14120.431229241,E,4,12,1.05,18.034,M,32.006,M,4.6,2110*53
[2021-01-07 10:07:32.777] $GNGGA,010731.70,4304.167428964,N,14120.431228802,E,4,12,1.05,18.035,M,32.006,M,4.7,2110*50
[2021-01-07 10:07:32.871] $GNGGA,010731.80,4304.167428895,N,14120.431228274,E,4,12,1.05,18.035,M,32.006,M,4.8,2110*54
[2021-01-07 10:07:32.980] $GNGGA,010731.90,4304.167428741,N,14120.431228775,E,4,12,1.05,18.033,M,32.006,M,4.9,2110*50
[2021-01-07 10:07:33.074] $GNGGA,010732.00,4304.167429035,N,14120.431229018,E,4,12,1.05,18.035,M,32.006,M,5.0,2110*5C
[2021-01-07 10:07:33.183] $GNGGA,010732.10,4304.167428731,N,14120.431227939,E,4,12,1.05,18.034,M,32.006,M,5.1,2110*5B
[2021-01-07 10:07:33.277] $GNGGA,010732.20,4304.167428330,N,14120.431227786,E,4,12,1.05,18.037,M,32.006,M,5.2,2110*57
[2021-01-07 10:07:33.371] $GNGGA,010732.30,4304.167428520,N,14120.431227321,E,4,12,1.05,18.040,M,32.006,M,5.3,2110*59
[2021-01-07 10:07:33.480] $GNGGA,010732.40,4304.167428669,N,14120.431226998,E,4,12,1.05,18.042,M,32.006,M,5.4,2110*5C
[2021-01-07 10:07:33.574] $GNGGA,010732.50,4304.167429535,N,14120.431228653,E,4,12,1.05,18.045,M,32.006,M,5.5,2110*56
[2021-01-07 10:07:33.683] $GNGGA,010732.60,4304.167430111,N,14120.431229712,E,4,12,1.05,18.047,M,32.006,M,5.6,2110*5B
[2021-01-07 10:07:33.777] $GNGGA,010732.70,4304.167430285,N,14120.431229021,E,4,12,1.05,18.049,M,32.006,M,5.7,2110*5C
[2021-01-07 10:07:33.871] $GNGGA,010732.80,4304.167429175,N,14120.431229240,E,4,12,1.05,18.050,M,32.006,M,5.8,2110*55
[2021-01-07 10:07:33.980] $GNGGA,010732.90,4304.167429089,N,14120.431230013,E,4,12,1.05,18.052,M,32.006,M,5.9,2110*59
[2021-01-07 10:07:34.074] $GNGGA,010733.00,4304.167428671,N,14120.431229322,E,4,12,1.05,18.052,M,32.006,M,6.0,2110*52
[2021-01-07 10:07:34.183] $GNGGA,010733.10,4304.167427584,N,14120.431229915,E,4,12,1.05,18.055,M,32.006,M,1.1,2110*5A
[2021-01-07 10:07:34.277] $GNGGA,010733.20,4304.167425929,N,14120.431229788,E,4,12,1.05,18.061,M,32.006,M,1.2,2110*5E
[2021-01-07 10:07:34.371] $GNGGA,010733.30,4304.167426635,N,14120.431230545,E,4,12,1.05,18.064,M,32.006,M,1.3,2110*51
[2021-01-07 10:07:34.480] $GNGGA,010733.40,4304.167426677,N,14120.431230905,E,4,12,1.05,18.067,M,32.006,M,1.4,2110*5C
[2021-01-07 10:07:34.574] $GNGGA,010733.50,4304.167426103,N,14120.431229842,E,4,12,1.05,18.068,M,32.006,M,1.5,2110*5D
[2021-01-07 10:07:34.683] $GNGGA,010733.60,4304.167425369,N,14120.431229995,E,4,12,1.05,18.071,M,32.006,M,1.6,2110*53
[2021-01-07 10:07:34.777] $GNGGA,010733.70,4304.167424811,N,14120.431229684,E,4,12,1.05,18.073,M,32.006,M,1.7,2110*5B
[2021-01-07 10:07:34.871] $GNGGA,010733.80,4304.167424566,N,14120.431230137,E,4,12,1.05,18.077,M,32.006,M,1.8,2110*55
[2021-01-07 10:07:34.980] $GNGGA,010733.90,4304.167424343,N,14120.431230982,E,4,12,1.05,18.077,M,32.006,M,1.9,2110*52
[2021-01-07 10:07:35.074] $GNGGA,010734.00,4304.167424177,N,14120.431230313,E,4,12,1.05,18.077,M,32.006,M,2.0,2110*51
[2021-01-07 10:07:35.183] $GNGGA,010734.10,4304.167423749,N,14120.431229672,E,4,12,1.05,18.078,M,32.006,M,2.1,2110*58
[2021-01-07 10:07:35.277] $GNGGA,010734.20,4304.167424353,N,14120.431229191,E,4,12,1.05,18.079,M,32.006,M,2.2,2110*5B
[2021-01-07 10:07:35.371] $GNGGA,010734.30,4304.167423467,N,14120.431229751,E,4,12,1.05,18.084,M,32.006,M,2.3,2110*54
[2021-01-07 10:07:35.480] $GNGGA,010734.40,4304.167422835,N,14120.431229649,E,4,12,1.05,18.082,M,32.006,M,2.4,2110*50
[2021-01-07 10:07:35.574] $GNGGA,010734.50,4304.167423072,N,14120.431229443,E,4,12,1.05,18.080,M,32.006,M,2.5,2110*50
[2021-01-07 10:07:35.683] $GNGGA,010734.60,4304.167422356,N,14120.431229327,E,4,12,1.05,18.085,M,32.006,M,2.6,2110*54
[2021-01-07 10:07:35.777] $GNGGA,010734.70,4304.167423128,N,14120.431230387,E,4,12,1.05,18.087,M,32.006,M,2.7,2110*5E
[2021-01-07 10:07:35.871] $GNGGA,010734.80,4304.167422840,N,14120.431229097,E,4,12,1.05,18.088,M,32.006,M,2.8,2110*5D
[2021-01-07 10:07:35.980] $GNGGA,010734.90,4304.167423249,N,14120.431229216,E,4,12,1.05,18.086,M,32.006,M,2.9,2110*5A
[2021-01-07 10:07:36.074] $GNGGA,010735.00,4304.167423069,N,14120.431230130,E,4,12,1.05,18.086,M,32.006,M,3.0,2110*55
[2021-01-07 10:07:36.183] $GNGGA,010735.10,4304.167422320,N,14120.431229235,E,4,12,1.05,18.086,M,32.006,M,3.1,2110*54
[2021-01-07 10:07:36.277] $GNGGA,010735.20,4304.167423002,N,14120.431229342,E,4,12,1.05,18.089,M,32.006,M,3.2,2110*58
[2021-01-07 10:07:36.371] $GNGGA,010735.30,4304.167422322,N,14120.431228515,E,4,12,1.05,18.086,M,32.006,M,3.3,2110*52
[2021-01-07 10:07:36.480] $GNGGA,010735.40,4304.167420956,N,14120.431228006,E,4,12,1.05,18.087,M,32.006,M,3.4,2110*5F
[2021-01-07 10:07:36.574] $GNGGA,010735.50,4304.167421943,N,14120.431229014,E,4,12,1.05,18.089,M,32.006,M,3.5,2110*56
[2021-01-07 10:07:36.683] $GNGGA,010735.60,4304.167421408,N,14120.431229109,E,4,12,1.05,18.090,M,32.006,M,3.6,2110*51
[2021-01-07 10:07:36.777] $GNGGA,010735.70,4304.167421977,N,14120.431229507,E,4,12,1.05,18.091,M,32.006,M,3.7,2110*5F
[2021-01-07 10:07:36.871] $GNGGA,010735.80,4304.167422447,N,14120.431228808,E,4,12,1.05,18.094,M,32.006,M,3.8,2110*54
[2021-01-07 10:07:36.980] $GNGGA,010735.90,4304.167421558,N,14120.431227867,E,4,12,1.05,18.091,M,32.006,M,3.9,2110*5B
[2021-01-07 10:07:37.074] $GNGGA,010736.00,4304.167420024,N,14120.431226728,E,4,12,1.05,18.090,M,32.006,M,4.0,2110*54
[2021-01-07 10:07:37.183] $GNGGA,010736.10,4304.167420825,N,14120.431227586,E,4,12,1.05,18.091,M,32.006,M,4.1,2110*5B
[2021-01-07 10:07:37.277] $GNGGA,010736.20,4304.167420608,N,14120.431227220,E,4,12,1.05,18.089,M,32.006,M,4.2,2110*58
[2021-01-07 10:07:37.371] $GNGGA,010736.30,4304.167419797,N,14120.431226897,E,4,12,1.05,18.090,M,32.006,M,4.3,2110*5A
[2021-01-07 10:07:37.480] $GNGGA,010736.40,4304.167420384,N,14120.431227486,E,4,12,1.05,18.094,M,32.006,M,4.4,2110*5F
[2021-01-07 10:07:37.574] $GNGGA,010736.50,4304.167419585,N,14120.431227283,E,4,12,1.05,18.097,M,32.006,M,4.5,2110*52
[2021-01-07 10:07:37.683] $GNGGA,010736.60,4304.167420222,N,14120.431227218,E,4,12,1.05,18.095,M,32.006,M,4.6,2110*52
[2021-01-07 10:07:37.777] $GNGGA,010736.70,4304.167420604,N,14120.431227654,E,4,12,1.05,18.096,M,32.006,M,4.7,2110*5D
[2021-01-07 10:07:37.870] $GNGGA,010736.80,4304.167420762,N,14120.431228443,E,4,12,1.05,18.096,M,32.006,M,4.8,2110*57
[2021-01-07 10:07:37.980] $GNGGA,010736.90,4304.167421245,N,14120.431228170,E,4,12,1.05,18.096,M,32.006,M,4.9,2110*53
[2021-01-07 10:07:38.074] $GNGGA,010737.00,4304.167420851,N,14120.431227227,E,4,12,1.05,18.096,M,32.006,M,5.0,2110*53
[2021-01-07 10:07:38.183] $GNGGA,010737.10,4304.167421924,N,14120.431229027,E,4,12,1.05,18.094,M,32.006,M,5.1,2110*5F
[2021-01-07 10:07:38.292] $GNGGA,010737.20,4304.167423918,N,14120.431229616,E,4,12,1.05,18.090,M,32.006,M,5.2,2110*52
[2021-01-07 10:07:38.386] $GNGGA,010737.30,4304.167425377,N,14120.431230646,E,4,12,1.05,18.089,M,32.006,M,5.3,2110*52
[2021-01-07 10:07:38.480] $GNGGA,010737.40,4304.167425766,N,14120.431230199,E,4,12,1.05,18.084,M,32.006,M,5.4,2110*5E
[2021-01-07 10:07:38.573] $GNGGA,010737.50,4304.167425986,N,14120.431230425,E,4,12,1.05,18.082,M,32.006,M,5.5,2110*5A
[2021-01-07 10:07:38.683] $GNGGA,010737.60,4304.167426788,N,14120.431230624,E,4,12,1.05,18.081,M,32.006,M,5.6,2110*59
[2021-01-07 10:07:38.777] $GNGGA,010737.70,4304.167425563,N,14120.431230018,E,4,12,1.05,18.076,M,32.006,M,5.7,2110*5C
[2021-01-07 10:07:38.870] $GNGGA,010737.80,4304.167426413,N,14120.431232410,E,4,12,1.05,18.083,M,32.006,M,5.8,2110*5D
[2021-01-07 10:07:38.980] $GNGGA,010737.90,4304.167425554,N,14120.431231363,E,4,12,1.05,18.081,M,32.006,M,5.9,2110*5E
[2021-01-07 10:07:39.073] $GNGGA,010738.00,4304.167422362,N,14120.431225139,E,4,12,1.05,18.054,M,32.006,M,6.0,2110*56
[2021-01-07 10:07:39.183] $GNGGA,010738.10,4304.167422096,N,14120.431225419,E,4,12,1.05,18.057,M,32.006,M,1.1,2110*5D
[2021-01-07 10:07:39.277] $GNGGA,010738.20,4304.167421864,N,14120.431225704,E,4,12,1.05,18.055,M,32.006,M,1.2,2110*56
[2021-01-07 10:07:39.370] $GNGGA,010738.30,4304.167422218,N,14120.431225641,E,4,12,1.05,18.056,M,32.006,M,1.3,2110*57
[2021-01-07 10:07:39.480] $GNGGA,010738.40,4304.167421624,N,14120.431225073,E,4,12,1.05,18.053,M,32.006,M,1.4,2110*5D
[2021-01-07 10:07:39.573] $GNGGA,010738.50,4304.167422485,N,14120.431225353,E,4,12,1.05,18.054,M,32.006,M,1.5,2110*51
[2021-01-07 10:07:39.683] $GNGGA,010738.60,4304.167423488,N,14120.431226123,E,4,12,1.05,18.055,M,32.006,M,1.6,2110*5A
[2021-01-07 10:07:39.777] $GNGGA,010738.70,4304.167422666,N,14120.431225887,E,4,12,1.05,18.053,M,32.006,M,1.7,2110*5B
[2021-01-07 10:07:39.870] $GNGGA,010738.80,4304.167423839,N,14120.431227160,E,4,12,1.05,18.056,M,32.006,M,1.8,2110*59
[2021-01-07 10:07:39.980] $GNGGA,010738.90,4304.167423124,N,14120.431226826,E,4,12,1.05,18.060,M,32.006,M,1.9,2110*53
[2021-01-07 10:07:40.073] $GNGGA,010739.00,4304.167422244,N,14120.431224832,E,4,12,1.05,18.058,M,32.006,M,2.0,2110*59
[2021-01-07 10:07:40.183] $GNGGA,010739.10,4304.167422300,N,14120.431225391,E,4,12,1.05,18.057,M,32.006,M,2.1,2110*54
[2021-01-07 10:07:40.276] $GNGGA,010739.20,4304.167421813,N,14120.431225077,E,4,12,1.05,18.054,M,32.006,M,2.2,2110*56
[2021-01-07 10:07:40.370] $GNGGA,010739.30,4304.167420998,N,14120.431224458,E,4,12,1.05,18.055,M,32.006,M,2.3,2110*5C
[2021-01-07 10:07:40.480] $GNGGA,010739.40,4304.167421900,N,14120.431225072,E,4,12,1.05,18.055,M,32.006,M,2.4,2110*51
[2021-01-07 10:07:40.573] $GNGGA,010739.50,4304.167420873,N,14120.431224876,E,4,12,1.05,18.052,M,32.006,M,2.5,2110*5F
[2021-01-07 10:07:40.683] $GNGGA,010739.60,4304.167422623,N,14120.431226455,E,4,12,1.05,18.055,M,32.006,M,2.6,2110*5E
[2021-01-07 10:07:40.776] $GNGGA,010739.70,4304.167422037,N,14120.431226316,E,4,12,1.05,18.053,M,32.006,M,2.7,2110*5B
[2021-01-07 10:07:40.870] $GNGGA,010739.80,4304.167421997,N,14120.431225951,E,4,12,1.05,18.055,M,32.006,M,2.8,2110*57
[2021-01-07 10:07:40.980] $GNGGA,010739.90,4304.167423204,N,14120.431226407,E,4,12,1.05,18.059,M,32.006,M,2.9,2110*55
[2021-01-07 10:07:41.073] $GNGGA,010740.00,4304.167422896,N,14120.431226082,E,4,12,1.05,18.059,M,32.006,M,3.0,2110*53
[2021-01-07 10:07:41.183] $GNGGA,010740.10,4304.167422384,N,14120.431225623,E,4,12,1.05,18.058,M,32.006,M,3.1,2110*54
[2021-01-07 10:07:41.276] $GNGGA,010740.20,4304.167422803,N,14120.431225647,E,4,12,1.05,18.056,M,32.006,M,3.2,2110*5C
[2021-01-07 10:07:41.370] $GNGGA,010740.30,4304.167421918,N,14120.431225742,E,4,12,1.05,18.057,M,32.006,M,3.3,2110*51
[2021-01-07 10:07:41.480] $GNGGA,010740.40,4304.167422043,N,14120.431225492,E,4,12,1.05,18.054,M,32.006,M,3.4,2110*58
[2021-01-07 10:07:41.573] $GNGGA,010740.50,4304.167421692,N,14120.431225821,E,4,12,1.05,18.053,M,32.006,M,3.5,2110*52
[2021-01-07 10:07:41.683] $GNGGA,010740.60,4304.167421854,N,14120.431225997,E,4,12,1.05,18.051,M,32.006,M,3.6,2110*58
[2021-01-07 10:07:41.776] $GNGGA,010740.70,4304.167421853,N,14120.431225664,E,4,12,1.05,18.050,M,32.006,M,3.7,2110*5D
[2021-01-07 10:07:41.870] $GNGGA,010740.80,4304.167421066,N,14120.431224629,E,4,12,1.05,18.050,M,32.006,M,3.8,2110*5B
[2021-01-07 10:07:41.980] $GNGGA,010740.90,4304.167422111,N,14120.431226083,E,4,12,1.05,18.054,M,32.006,M,3.9,2110*59
[2021-01-07 10:07:42.073] $GNGGA,010741.00,4304.167423344,N,14120.431226263,E,4,12,1.05,18.056,M,32.006,M,4.0,2110*52
[2021-01-07 10:07:42.183] $GNGGA,010741.10,4304.167424510,N,14120.431226398,E,4,12,1.05,18.055,M,32.006,M,4.1,2110*54
[2021-01-07 10:07:42.276] $GNGGA,010741.20,4304.167424502,N,14120.431226290,E,4,12,1.05,18.056,M,32.006,M,4.2,2110*5D
[2021-01-07 10:07:42.370] $GNGGA,010741.30,4304.167424965,N,14120.431226818,E,4,12,1.05,18.056,M,32.006,M,4.3,2110*5A
[2021-01-07 10:07:42.479] $GNGGA,010741.40,4304.167424411,N,14120.431226643,E,4,12,1.05,18.054,M,32.006,M,4.4,2110*56
