
[2021-01-06 11:09:57.282] $GPGGA,020705.60,4304.1665257,N,14120.4306047,E,5,08,1.5,20.7795,M,31.96,M,3,0000*61
[2021-01-06 11:09:57.313] $GPGGA,020705.70,4304.1665249,N,14120.4306049,E,5,08,1.5,20.7787,M,31.96,M,3,0000*62
[2021-01-06 11:09:57.313] $GPGGA,020705.80,4304.1665257,N,14120.4306057,E,5,08,1.5,20.7762,M,31.96,M,3,0000*66
[2021-01-06 11:09:57.313] $GPGGA,020705.90,4304.1665250,N,14120.4306053,E,5,08,1.5,20.7772,M,31.96,M,3,0000*65
[2021-01-06 11:09:57.313] $GPGGA,020706.00,4304.1665244,N,14120.4306064,E,5,08,1.5,20.7771,M,31.96,M,4,0000*6A
[2021-01-06 11:09:57.313] $GPGGA,020706.10,4304.1665245,N,14120.4306068,E,5,08,1.5,20.7792,M,31.96,M,4,0000*6B
[2021-01-06 11:09:57.313] $GPGGA,020706.20,4304.1665240,N,14120.4306068,E,5,08,1.5,20.7808,M,31.96,M,4,0000*61
[2021-01-06 11:09:57.313] $GPGGA,020706.30,4304.1665234,N,14120.4306071,E,5,08,1.5,20.7808,M,31.96,M,4,0000*6B
[2021-01-06 11:09:57.313] $GPGGA,020706.40,4304.1665237,N,14120.4306077,E,5,08,1.5,20.7801,M,31.96,M,4,0000*60
[2021-01-06 11:09:57.313] $GPGGA,020706.50,4304.1665240,N,14120.4306077,E,5,08,1.5,20.7810,M,31.96,M,4,0000*61
[2021-01-06 11:09:57.313] $GPGGA,020706.60,4304.1665240,N,14120.4306069,E,5,08,1.5,20.7838,M,31.96,M,4,0000*67
[2021-01-06 11:09:57.313] $GPGGA,020706.70,4304.1665239,N,14120.4306074,E,5,08,1.5,20.7836,M,31.96,M,4,0000*6A
[2021-01-06 11:09:57.329] $GPGGA,020706.80,4304.1665243,N,14120.4306078,E,5,08,1.5,20.7843,M,31.96,M,4,0000*66
[2021-01-06 11:09:57.329] $GPGGA,020706.90,4304.1665239,N,14120.4306086,E,5,08,1.5,20.7845,M,31.96,M,4,0000*6D
[2021-01-06 11:09:57.329] $GPGGA,020707.00,4304.1665242,N,14120.4306085,E,5,08,1.5,20.7841,M,31.96,M,5,0000*6F
[2021-01-06 11:09:57.329] $GPGGA,020707.10,4304.1665235,N,14120.4306093,E,5,08,1.5,20.7821,M,31.96,M,5,0000*6F
[2021-01-06 11:09:57.329] $GPGGA,020707.20,4304.1665242,N,14120.4306152,E,5,08,1.5,20.7731,M,31.96,M,5,0000*6E
[2021-01-06 11:09:57.329] $GPGGA,020707.30,4304.1665244,N,14120.4306187,E,5,08,1.5,20.7651,M,31.96,M,5,0000*66
[2021-01-06 11:09:57.329] $GPGGA,020707.40,4304.1665252,N,14120.4306198,E,5,08,1.5,20.7589,M,31.96,M,5,0000*6E
[2021-01-06 11:09:57.329] $GPGGA,020707.50,4304.1665258,N,14120.4306206,E,5,08,1.5,20.7528,M,31.96,M,5,0000*6A
[2021-01-06 11:09:57.329] $GPGGA,020707.60,4304.1665254,N,14120.4306207,E,5,08,1.5,20.7511,M,31.96,M,5,0000*6E
[2021-01-06 11:09:57.329] $GPGGA,020707.70,4304.1665265,N,14120.4306208,E,5,08,1.5,20.7493,M,31.96,M,5,0000*69
[2021-01-06 11:09:57.329] $GPGGA,020707.80,4304.1665267,N,14120.4306208,E,5,08,1.5,20.7464,M,31.96,M,5,0000*6C
[2021-01-06 11:09:57.329] $GPGGA,020707.90,4304.1665267,N,14120.4306219,E,5,08,1.5,20.7441,M,31.96,M,5,0000*6A
[2021-01-06 11:09:57.345] $GPGGA,020708.00,4304.1665270,N,14120.4306228,E,5,08,1.5,20.7408,M,31.96,M,6,0000*66
[2021-01-06 11:09:57.345] $GPGGA,020708.10,4304.1665273,N,14120.4306228,E,5,08,1.5,20.7398,M,31.96,M,6,0000*6A
[2021-01-06 11:09:57.345] $GPGGA,020708.20,4304.1665257,N,14120.4306217,E,5,08,1.5,20.7375,M,31.96,M,1,0000*67
[2021-01-06 11:09:57.345] $GPGGA,020708.30,4304.1665248,N,14120.4306209,E,5,08,1.5,20.7375,M,31.96,M,1,0000*67
[2021-01-06 11:09:57.345] $GPGGA,020708.40,4304.1665238,N,14120.4306208,E,5,08,1.5,20.7380,M,31.96,M,1,0000*6C
[2021-01-06 11:09:57.345] $GPGGA,020708.50,4304.1665240,N,14120.4306212,E,5,08,1.5,20.7402,M,31.96,M,1,0000*64
[2021-01-06 11:09:57.345] $GPGGA,020708.60,4304.1665237,N,14120.4306218,E,5,08,1.5,20.7421,M,31.96,M,1,0000*6C
[2021-01-06 11:09:57.345] $GPGGA,020708.70,4304.1665253,N,14120.4306226,E,5,08,1.5,20.7450,M,31.96,M,1,0000*64
[2021-01-06 11:09:57.345] $GPGGA,020708.80,4304.1665252,N,14120.4306236,E,5,08,1.5,20.7472,M,31.96,M,1,0000*6B
[2021-01-06 11:09:57.345] $GPGGA,020708.90,4304.1665258,N,14120.4306237,E,5,08,1.5,20.7516,M,31.96,M,1,0000*62
[2021-01-06 11:09:57.345] $GPGGA,020709.00,4304.1665262,N,14120.4306244,E,5,08,1.5,20.7541,M,31.96,M,2,0000*66
[2021-01-06 11:09:57.345] $GPGGA,020709.10,4304.1665267,N,14120.4306250,E,5,08,1.5,20.7563,M,31.96,M,2,0000*67
[2021-01-06 11:09:57.360] $GPGGA,020709.20,4304.1665276,N,14120.4306256,E,5,08,1.5,20.7608,M,31.96,M,2,0000*6C
[2021-01-06 11:09:57.360] $GPGGA,020709.30,4304.1665284,N,14120.4306262,E,5,08,1.5,20.7641,M,31.96,M,2,0000*6A
[2021-01-06 11:09:57.360] $GPGGA,020709.40,4304.1665287,N,14120.4306265,E,5,08,1.5,20.7666,M,31.96,M,2,0000*6C
[2021-01-06 11:09:57.360] $GPGGA,020709.50,4304.1665290,N,14120.4306274,E,5,08,1.5,20.7676,M,31.96,M,2,0000*6A
[2021-01-06 11:09:57.360] $GPGGA,020709.60,4304.1665301,N,14120.4306277,E,5,08,1.5,20.7688,M,31.96,M,2,0000*62
[2021-01-06 11:09:57.360] $GPGGA,020709.70,4304.1665301,N,14120.4306280,E,5,08,1.5,20.7719,M,31.96,M,2,0000*62
[2021-01-06 11:09:57.360] $GPGGA,020709.80,4304.1665299,N,14120.4306287,E,5,08,1.5,20.7751,M,31.96,M,2,0000*66
[2021-01-06 11:09:57.360] $GPGGA,020709.90,4304.1665312,N,14120.4306290,E,5,08,1.5,20.7776,M,31.96,M,2,0000*66
[2021-01-06 11:09:57.360] $GPGGA,020710.00,4304.1665321,N,14120.4306297,E,5,08,1.5,20.7807,M,31.96,M,3,0000*68
[2021-01-06 11:09:57.360] $GPGGA,020710.10,4304.1665326,N,14120.4306307,E,5,08,1.5,20.7839,M,31.96,M,3,0000*6B
[2021-01-06 11:09:57.360] $GPGGA,020710.20,4304.1665333,N,14120.4306315,E,5,08,1.5,20.7851,M,31.96,M,3,0000*61
[2021-01-06 11:09:57.360] $GPGGA,020710.30,4304.1665337,N,14120.4306326,E,5,08,1.5,20.7852,M,31.96,M,3,0000*67
[2021-01-06 11:09:57.376] $GPGGA,020710.40,4304.1665345,N,14120.4306334,E,5,08,1.5,20.7876,M,31.96,M,3,0000*60
[2021-01-06 11:09:57.376] $GPGGA,020710.50,4304.1665349,N,14120.4306339,E,5,08,1.5,20.7892,M,31.96,M,3,0000*6A
[2021-01-06 11:09:57.376] $GPGGA,020710.60,4304.1665351,N,14120.4306347,E,5,08,1.5,20.7905,M,31.96,M,3,0000*66
[2021-01-06 11:09:57.376] $GPGGA,020710.70,4304.1665352,N,14120.4306353,E,5,08,1.5,20.7932,M,31.96,M,3,0000*65
[2021-01-06 11:09:57.376] $GPGGA,020710.80,4304.1665349,N,14120.4306354,E,5,08,1.5,20.7951,M,31.96,M,3,0000*62
[2021-01-06 11:09:57.376] $GPGGA,020710.90,4304.1665364,N,14120.4306361,E,5,08,1.5,20.7979,M,31.96,M,3,0000*60
[2021-01-06 11:09:57.376] $GPGGA,020711.00,4304.1665360,N,14120.4306365,E,5,08,1.5,20.7983,M,31.96,M,4,0000*6A
[2021-01-06 11:09:57.376] $GPGGA,020711.10,4304.1665357,N,14120.4306375,E,5,08,1.5,20.8004,M,31.96,M,4,0000*67
[2021-01-06 11:09:57.376] $GPGGA,020711.20,4304.1665360,N,14120.4306376,E,5,08,1.5,20.8028,M,31.96,M,4,0000*6D
[2021-01-06 11:09:57.376] $GPGGA,020711.30,4304.1665366,N,14120.4306374,E,5,08,1.5,20.8040,M,31.96,M,4,0000*66
[2021-01-06 11:09:57.376] $GPGGA,020711.40,4304.1665368,N,14120.4306381,E,5,08,1.5,20.8058,M,31.96,M,4,0000*6C
[2021-01-06 11:09:57.376] $GPGGA,020711.50,4304.1665372,N,14120.4306382,E,5,08,1.5,20.8071,M,31.96,M,4,0000*6E
[2021-01-06 11:09:57.391] $GPGGA,020711.60,4304.1665368,N,14120.4306378,E,5,08,1.5,20.8086,M,31.96,M,4,0000*6B
[2021-01-06 11:09:57.391] $GPGGA,020711.70,4304.1665374,N,14120.4306382,E,5,08,1.5,20.8100,M,31.96,M,4,0000*6D
[2021-01-06 11:09:57.391] $GPGGA,020711.80,4304.1665381,N,14120.4306392,E,5,08,1.5,20.8103,M,31.96,M,4,0000*6A
[2021-01-06 11:09:57.391] $GPGGA,020711.90,4304.1665381,N,14120.4306394,E,5,08,1.5,20.8119,M,31.96,M,4,0000*66
[2021-01-06 11:09:57.391] $GPGGA,020712.00,4304.1665386,N,14120.4306396,E,5,08,1.5,20.8132,M,31.96,M,5,0000*61
[2021-01-06 11:09:57.391] $GPGGA,020712.10,4304.1665397,N,14120.4306400,E,5,08,1.5,20.8133,M,31.96,M,5,0000*69
[2021-01-06 11:09:57.391] $GPGGA,020712.20,4304.1665406,N,14120.4306404,E,5,08,1.5,20.8139,M,31.96,M,5,0000*6B
[2021-01-06 11:09:57.391] $GPGGA,020712.30,4304.1665406,N,14120.4306411,E,5,08,1.5,20.8152,M,31.96,M,5,0000*63
[2021-01-06 11:09:57.391] $GPGGA,020712.40,4304.1665407,N,14120.4306419,E,5,08,1.5,20.8180,M,31.96,M,5,0000*62
[2021-01-06 11:09:57.391] $GPGGA,020712.50,4304.1665403,N,14120.4306428,E,5,08,1.5,20.8192,M,31.96,M,5,0000*66
[2021-01-06 11:09:57.391] $GPGGA,020712.60,4304.1665401,N,14120.4306442,E,5,08,1.5,20.8214,M,31.96,M,5,0000*66
[2021-01-06 11:09:57.407] $GPGGA,020712.70,4304.1665405,N,14120.4306446,E,5,08,1.5,20.8206,M,31.96,M,5,0000*64
[2021-01-06 11:09:57.407] $GPGGA,020712.80,4304.1665411,N,14120.4306451,E,5,08,1.5,20.8215,M,31.96,M,5,0000*6A
[2021-01-06 11:09:57.407] $GPGGA,020712.90,4304.1665413,N,14120.4306457,E,5,08,1.5,20.8209,M,31.96,M,5,0000*62
[2021-01-06 11:09:57.407] $GPGGA,020713.00,4304.1665414,N,14120.4306469,E,5,08,1.5,20.8196,M,31.96,M,6,0000*66
[2021-01-06 11:09:57.407] $GPGGA,020713.10,4304.1665415,N,14120.4306474,E,5,08,1.5,20.8203,M,31.96,M,6,0000*65
[2021-01-06 11:09:57.407] $GPGGA,020713.20,4304.1665417,N,14120.4306500,E,5,08,1.5,20.8136,M,31.96,M,1,0000*64
[2021-01-06 11:09:57.407] $GPGGA,020713.30,4304.1665413,N,14120.4306516,E,5,08,1.5,20.8086,M,31.96,M,1,0000*6C
[2021-01-06 11:09:57.407] $GPGGA,020713.40,4304.1665417,N,14120.4306527,E,5,08,1.5,20.8048,M,31.96,M,1,0000*6F
[2021-01-06 11:09:57.407] $GPGGA,020713.50,4304.1665427,N,14120.4306540,E,5,08,1.5,20.8002,M,31.96,M,1,0000*62
[2021-01-06 11:09:57.407] $GPGGA,020713.60,4304.1665425,N,14120.4306545,E,5,08,1.5,20.7987,M,31.96,M,1,0000*6D
[2021-01-06 11:09:57.407] $GPGGA,020713.70,4304.1665424,N,14120.4306539,E,5,08,1.5,20.7959,M,31.96,M,1,0000*65
[2021-01-06 11:09:57.407] $GPGGA,020713.80,4304.1665427,N,14120.4306549,E,5,08,1.5,20.7924,M,31.96,M,1,0000*64
[2021-01-06 11:09:57.423] $GPGGA,020713.90,4304.1665431,N,14120.4306549,E,5,08,1.5,20.7908,M,31.96,M,1,0000*6C
[2021-01-06 11:09:57.423] $GPGGA,020714.00,4304.1665427,N,14120.4306553,E,5,08,1.5,20.7915,M,31.96,M,2,0000*61
[2021-01-06 11:09:57.423] $GPGGA,020714.10,4304.1665426,N,14120.4306557,E,5,08,1.5,20.7909,M,31.96,M,2,0000*68
[2021-01-06 11:09:57.423] $GPGGA,020714.20,4304.1665422,N,14120.4306562,E,5,08,1.5,20.7895,M,31.96,M,2,0000*6D
[2021-01-06 11:09:57.423] $GPGGA,020714.30,4304.1665420,N,14120.4306564,E,5,08,1.5,20.7915,M,31.96,M,2,0000*61
[2021-01-06 11:09:57.423] $GPGGA,020714.40,4304.1665413,N,14120.4306564,E,5,08,1.5,20.7899,M,31.96,M,2,0000*63
[2021-01-06 11:09:57.423] $GPGGA,020714.50,4304.1665407,N,14120.4306573,E,5,08,1.5,20.7878,M,31.96,M,2,0000*6E
[2021-01-06 11:09:57.423] $GPGGA,020714.60,4304.1665409,N,14120.4306578,E,5,08,1.5,20.7861,M,31.96,M,2,0000*60
[2021-01-06 11:09:57.423] $GPGGA,020714.70,4304.1665410,N,14120.4306579,E,5,08,1.5,20.7848,M,31.96,M,2,0000*63
[2021-01-06 11:09:57.423] $GPGGA,020714.80,4304.1665405,N,14120.4306576,E,5,08,1.5,20.7843,M,31.96,M,2,0000*6C
[2021-01-06 11:09:57.423] $GPGGA,020714.90,4304.1665402,N,14120.4306577,E,5,08,1.5,20.7847,M,31.96,M,2,0000*6F
[2021-01-06 11:09:57.423] $GPGGA,020715.00,4304.1665409,N,14120.4306580,E,5,08,1.5,20.7844,M,31.96,M,3,0000*66
[2021-01-06 11:09:57.423] $GPGGA,020715.10,4304.16654$GPGGA,020742.90,4304.1664974,N,14120.4308708,E,5,08,1.5,20.8986,M,31.96,M,5,0000*61
[2021-01-06 11:09:57.423] $GPGGA,020743.00,4304.1664973,N,14120.4308720,E,5,08,1.5,20.8984,M,31.96,M,6,0000*65
[2021-01-06 11:09:57.501] $GPGGA,020743.10,4304.1664974,N,14120.4308733,E,5,08,1.5,20.8990,M,31.96,M,6,0000*64
[2021-01-06 11:09:57.595] $GPGGA,020743.20,4304.1665024,N,14120.4308752,E,5,08,1.5,20.9173,M,31.96,M,1,0000*6E
[2021-01-06 11:09:57.704] $GPGGA,020743.30,4304.1665051,N,14120.4308778,E,5,08,1.5,20.9317,M,31.96,M,1,0000*65
[2021-01-06 11:09:57.798] $GPGGA,020743.40,4304.1665067,N,14120.4308804,E,5,08,1.5,20.9436,M,31.96,M,1,0000*67
[2021-01-06 11:09:57.891] $GPGGA,020743.50,4304.1665070,N,14120.4308817,E,5,08,1.5,20.9541,M,31.96,M,1,0000*63
[2021-01-06 11:09:58.001] $GPGGA,020743.60,4304.1665060,N,14120.4308828,E,5,08,1.5,20.9613,M,31.96,M,1,0000*69
[2021-01-06 11:09:58.095] $GPGGA,020743.70,4304.1665064,N,14120.4308840,E,5,08,1.5,20.9672,M,31.96,M,1,0000*65
[2021-01-06 11:09:58.204] $GPGGA,020743.80,4304.1665071,N,14120.4308850,E,5,08,1.5,20.9689,M,31.96,M,1,0000*6B
[2021-01-06 11:09:58.298] $GPGGA,020743.90,4304.1665074,N,14120.4308873,E,5,08,1.5,20.9707,M,31.96,M,1,0000*69
[2021-01-06 11:09:58.407] $GPGGA,020744.00,4304.1665074,N,14120.4308888,E,5,08,1.5,20.9705,M,31.96,M,2,0000*62
[2021-01-06 11:09:58.501] $GPGGA,020744.10,4304.1665085,N,14120.4308900,E,5,08,1.5,20.9695,M,31.96,M,2,0000*64
[2021-01-06 11:09:58.595] $GPGGA,020744.20,4304.1665097,N,14120.4308907,E,5,08,1.5,20.9679,M,31.96,M,2,0000*61
[2021-01-06 11:09:58.704] $GPGGA,020744.30,4304.1665105,N,14120.4308916,E,5,08,1.5,20.9678,M,31.96,M,2,0000*6B
[2021-01-06 11:09:58.798] $GPGGA,020744.40,4304.1665105,N,14120.4308929,E,5,08,1.5,20.9667,M,31.96,M,2,0000*6E
[2021-01-06 11:09:58.891] $GPGGA,020744.50,4304.1665115,N,14120.4308946,E,5,08,1.5,20.9665,M,31.96,M,2,0000*65
[2021-01-06 11:09:59.001] $GPGGA,020744.60,4304.1665121,N,14120.4308948,E,5,08,1.5,20.9682,M,31.96,M,2,0000*66
[2021-01-06 11:09:59.094] $GPGGA,020744.70,4304.1665129,N,14120.4308964,E,5,08,1.5,20.9668,M,31.96,M,2,0000*65
[2021-01-06 11:09:59.204] $GPGGA,020744.80,4304.1665135,N,14120.4308983,E,5,08,1.5,20.9665,M,31.96,M,2,0000*63
[2021-01-06 11:09:59.298] $GPGGA,020744.90,4304.1665147,N,14120.4309000,E,5,08,1.5,20.9674,M,31.96,M,2,0000*64
[2021-01-06 11:09:59.407] $GPGGA,020745.00,4304.1665152,N,14120.4309009,E,5,08,1.5,20.9659,M,31.96,M,3,0000*6F
[2021-01-06 11:09:59.501] $GPGGA,020745.10,4304.1665158,N,14120.4309025,E,5,08,1.5,20.9659,M,31.96,M,3,0000*6A
[2021-01-06 11:09:59.594] $GPGGA,020745.20,4304.1665170,N,14120.4309041,E,5,08,1.5,20.9670,M,31.96,M,3,0000*6A
[2021-01-06 11:09:59.704] $GPGGA,020745.30,4304.1665182,N,14120.4309055,E,5,08,1.5,20.9665,M,31.96,M,3,0000*67
[2021-01-06 11:09:59.798] $GPGGA,020745.40,4304.1665191,N,14120.4309069,E,5,08,1.5,20.9662,M,31.96,M,3,0000*6A
[2021-01-06 11:09:59.907] $GPGGA,020745.50,4304.1665189,N,14120.4309081,E,5,08,1.5,20.9664,M,31.96,M,3,0000*62
[2021-01-06 11:10:00.001] $GPGGA,020745.60,4304.1665201,N,14120.4309103,E,5,08,1.5,20.9674,M,31.96,M,3,0000*68
[2021-01-06 11:10:00.094] $GPGGA,020745.70,4304.1665207,N,14120.4309114,E,5,08,1.5,20.9676,M,31.96,M,3,0000*6B
[2021-01-06 11:10:00.204] $GPGGA,020745.80,4304.1665215,N,14120.4309128,E,5,08,1.5,20.9683,M,31.96,M,3,0000*62
[2021-01-06 11:10:00.298] $GPGGA,020745.90,4304.1665232,N,14120.4309152,E,5,08,1.5,20.9679,M,31.96,M,3,0000*6E
[2021-01-06 11:10:00.391] $GPGGA,020746.00,4304.1665243,N,14120.4309159,E,5,08,1.5,20.9678,M,31.96,M,4,0000*6F
[2021-01-06 11:10:00.501] $GPGGA,020746.10,4304.1665252,N,14120.4309179,E,5,08,1.5,20.9680,M,31.96,M,4,0000*6B
[2021-01-06 11:10:00.594] $GPGGA,020746.20,4304.1665262,N,14120.4309195,E,5,08,1.5,20.9675,M,31.96,M,4,0000*63
[2021-01-06 11:10:00.704] $GPGGA,020746.30,4304.1665273,N,14120.4309221,E,5,08,1.5,20.9663,M,31.96,M,4,0000*69
[2021-01-06 11:10:00.797] $GPGGA,020746.40,4304.1665284,N,14120.4309235,E,5,08,1.5,20.9676,M,31.96,M,4,0000*67
[2021-01-06 11:10:00.891] $GPGGA,020746.50,4304.1665294,N,14120.4309251,E,5,08,1.5,20.9670,M,31.96,M,4,0000*63
[2021-01-06 11:10:01.001] $GPGGA,020746.60,4304.1665306,N,14120.4309269,E,5,08,1.5,20.9659,M,31.96,M,4,0000*6A
[2021-01-06 11:10:01.094] $GPGGA,020746.70,4304.1665321,N,14120.4309271,E,5,08,1.5,20.9675,M,31.96,M,4,0000*69
[2021-01-06 11:10:01.204] $GPGGA,020746.80,4304.1665335,N,14120.4309292,E,5,08,1.5,20.9662,M,31.96,M,4,0000*68
[2021-01-06 11:10:01.297] $GPGGA,020746.90,4304.1665341,N,14120.4309312,E,5,08,1.5,20.9660,M,31.96,M,4,0000*61
[2021-01-06 11:10:01.407] $GPGGA,020747.00,4304.1665350,N,14120.4309321,E,5,08,1.5,20.9660,M,31.96,M,5,0000*68
[2021-01-06 11:10:01.501] $GPGGA,020747.10,4304.1665365,N,14120.4309336,E,5,08,1.5,20.9640,M,31.96,M,5,0000*6B
[2021-01-06 11:10:01.594] $GPGGA,020747.20,4304.1665381,N,14120.4309346,E,5,08,1.5,20.9658,M,31.96,M,5,0000*6C
[2021-01-06 11:10:01.704] $GPGGA,020747.30,4304.1665387,N,14120.4309356,E,5,08,1.5,20.9674,M,31.96,M,5,0000*64
[2021-01-06 11:10:01.797] $GPGGA,020747.40,4304.1665393,N,14120.4309377,E,5,08,1.5,20.9690,M,31.96,M,5,0000*6F
[2021-01-06 11:10:01.891] $GPGGA,020747.50,4304.1665409,N,14120.4309395,E,5,08,1.5,20.9687,M,31.96,M,5,0000*60
[2021-01-06 11:10:02.001] $GPGGA,020747.60,4304.1665413,N,14120.4309404,E,5,08,1.5,20.9703,M,31.96,M,5,0000*6A
[2021-01-06 11:10:02.094] $GPGGA,020747.70,4304.1665430,N,14120.4309422,E,5,08,1.5,20.9701,M,31.96,M,5,0000*6C
[2021-01-06 11:10:02.204] $GPGGA,020747.80,4304.1665443,N,14120.4309430,E,5,08,1.5,20.9742,M,31.96,M,5,0000*63
[2021-01-06 11:10:02.297] $GPGGA,020747.90,4304.1665451,N,14120.4309445,E,5,08,1.5,20.9742,M,31.96,M,5,0000*63
[2021-01-06 11:10:02.407] $GPGGA,020748.00,4304.1665454,N,14120.4309456,E,5,08,1.5,20.9747,M,31.96,M,6,0000*64
[2021-01-06 11:10:02.500] $GPGGA,020748.10,4304.1665465,N,14120.4309470,E,5,08,1.5,20.9769,M,31.96,M,6,0000*6F
[2021-01-06 11:10:02.594] $GPGGA,020748.20,4304.1665514,N,14120.4309511,E,5,08,1.5,20.9863,M,31.96,M,1,0000*6F
[2021-01-06 11:10:02.688] $GPGGA,020748.30,4304.1665543,N,14120.4309544,E,5,08,1.5,20.9947,M,31.96,M,1,0000*6B
[2021-01-06 11:10:02.797] $GPGGA,020748.40,4304.1665560,N,14120.4309560,E,5,08,1.5,21.0011,M,31.96,M,1,0000*69
[2021-01-06 11:10:02.907] $GPGGA,020748.50,4304.1665575,N,14120.4309582,E,5,08,1.5,21.0051,M,31.96,M,1,0000*64
[2021-01-06 11:10:03.000] $GPGGA,020748.60,4304.1665580,N,14120.4309594,E,5,08,1.5,21.0090,M,31.96,M,1,0000*67
[2021-01-06 11:10:03.094] $GPGGA,020748.70,4304.1665586,N,14120.4309598,E,5,08,1.5,21.0129,M,31.96,M,1,0000*6F
[2021-01-06 11:10:03.204] $GPGGA,020748.80,4304.1665596,N,14120.4309606,E,5,08,1.5,21.0149,M,31.96,M,1,0000*63
[2021-01-06 11:10:03.297] $GPGGA,020748.90,4304.1665601,N,14120.4309618,E,5,08,1.5,21.0177,M,31.96,M,1,0000*6D
[2021-01-06 11:10:03.407] $GPGGA,020749.00,4304.1665602,N,14120.4309630,E,5,08,1.5,21.0183,M,31.96,M,2,0000*64
[2021-01-06 11:10:03.500] $GPGGA,020749.10,4304.1665609,N,14120.4309642,E,5,08,1.5,21.0189,M,31.96,M,2,0000*61
[2021-01-06 11:10:03.594] $GPGGA,020749.20,4304.1665619,N,14120.4309657,E,5,08,1.5,21.0196,M,31.96,M,2,0000*69
[2021-01-06 11:10:03.704] $GPGGA,020749.30,4304.1665633,N,14120.4309671,E,5,08,1.5,21.0192,M,31.96,M,2,0000*60
[2021-01-06 11:10:03.797] $GPGGA,020749.40,4304.1665647,N,14120.4309683,E,5,08,1.5,21.0196,M,31.96,M,2,0000*6D
[2021-01-06 11:10:03.907] $GPGGA,020749.50,4304.1665647,N,14120.4309696,E,5,08,1.5,21.0194,M,31.96,M,2,0000*6A
[2021-01-06 11:10:04.000] $GPGGA,020749.60,4304.1665656,N,14120.4309706,E,5,08,1.5,21.0201,M,31.96,M,2,0000*6E
[2021-01-06 11:10:04.094] $GPGGA,020749.70,4304.1665666,N,14120.4309717,E,5,08,1.5,21.0216,M,31.96,M,2,0000*6A
[2021-01-06 11:10:04.188] $GPGGA,020749.80,4304.1665670,N,14120.4309729,E,5,08,1.5,21.0219,M,31.96,M,2,0000*60
[2021-01-06 11:10:04.297] $GPGGA,020749.90,4304.1665690,N,14120.4309739,E,5,08,1.5,21.0232,M,31.96,M,2,0000*67
[2021-01-06 11:10:04.391] $GPGGA,020750.00,4304.1665695,N,14120.4309745,E,5,08,1.5,21.0242,M,31.96,M,3,0000*6E
[2021-01-06 11:10:04.500] $GPGGA,020750.10,4304.1665706,N,14120.4309754,E,5,08,1.5,21.0268,M,31.96,M,3,0000*6C
[2021-01-06 11:10:04.594] $GPGGA,020750.20,4304.1665714,N,14120.4309770,E,5,08,1.5,21.0292,M,31.96,M,3,0000*6F
[2021-01-06 11:10:04.703] $GPGGA,020750.30,4304.1665726,N,14120.4309786,E,5,08,1.5,21.0293,M,31.96,M,3,0000*67
[2021-01-06 11:10:04.797] $GPGGA,020750.40,4304.1665738,N,14120.4309794,E,5,08,1.5,21.0294,M,31.96,M,3,0000*6B
[2021-01-06 11:10:04.891] $GPGGA,020750.50,4304.1665751,N,14120.4309809,E,5,08,1.5,21.0307,M,31.96,M,3,0000*65
[2021-01-06 11:10:05.000] $GPGGA,020750.60,4304.1665765,N,14120.4309822,E,5,08,1.5,21.0333,M,31.96,M,3,0000*6F
[2021-01-06 11:10:05.094] $GPGGA,020750.70,4304.1665786,N,14120.4309834,E,5,08,1.5,21.0359,M,31.96,M,3,0000*68
[2021-01-06 11:10:05.203] $GPGGA,020750.80,4304.1665790,N,14120.4309850,E,5,08,1.5,21.0393,M,31.96,M,3,0000*64
[2021-01-06 11:10:05.297] $GPGGA,020750.90,4304.1665798,N,14120.4309863,E,5,08,1.5,21.0399,M,31.96,M,3,0000*67
[2021-01-06 11:10:05.407] $GPGGA,020751.00,4304.1665810,N,14120.4309869,E,5,08,1.5,21.0400,M,31.96,M,4,0000*6A
[2021-01-06 11:10:05.500] $GPGGA,020751.10,4304.1665819,N,14120.4309877,E,5,08,1.5,21.0422,M,31.96,M,4,0000*6D
[2021-01-06 11:10:05.594] $GPGGA,020751.20,4304.1665830,N,14120.4309891,E,5,08,1.5,21.0454,M,31.96,M,4,0000*6C
[2021-01-06 11:10:05.703] $GPGGA,020751.30,4304.1665840,N,14120.4309910,E,5,08,1.5,21.0490,M,31.96,M,4,0000*6A
[2021-01-06 11:10:05.797] $GPGGA,020751.40,4304.1665850,N,14120.4309926,E,5,08,1.5,21.0512,M,31.96,M,4,0000*62
[2021-01-06 11:10:05.891] $GPGGA,020751.50,4304.1665863,N,14120.4309942,E,5,08,1.5,21.0545,M,31.96,M,4,0000*63
[2021-01-06 11:10:06.000] $GPGGA,020751.60,4304.1665874,N,14120.4309950,E,5,08,1.5,21.0563,M,31.96,M,4,0000*61
[2021-01-06 11:10:06.094] $GPGGA,020751.70,4304.1665884,N,14120.4309955,E,5,08,1.5,21.0610,M,31.96,M,4,0000*6D
[2021-01-06 11:10:06.203] $GPGGA,020751.80,4304.1665902,N,14120.4309974,E,5,08,1.5,21.0628,M,31.96,M,4,0000*65
[2021-01-06 11:10:06.297] $GPGGA,020751.90,4304.1665910,N,14120.4309979,E,5,08,1.5,21.0659,M,31.96,M,4,0000*6C
[2021-01-06 11:10:06.406] $GPGGA,020752.00,4304.1665917,N,14120.4309994,E,5,08,1.5,21.0667,M,31.96,M,5,0000*6E
[2021-01-06 11:10:06.500] $GPGGA,020752.10,4304.1665923,N,14120.4310007,E,5,08,1.5,21.0705,M,31.96,M,5,0000*66
[2021-01-06 11:10:06.594] $GPGGA,020752.20,4304.1665938,N,14120.4310009,E,5,08,1.5,21.0735,M,31.96,M,5,0000*62
[2021-01-06 11:10:06.703] $GPGGA,020752.30,4304.1665958,N,14120.4310025,E,5,08,1.5,21.0745,M,31.96,M,5,0000*6C
[2021-01-06 11:10:06.797] $GPGGA,020752.40,4304.1665970,N,14120.4310030,E,5,08,1.5,21.0768,M,31.96,M,5,0000*6A
[2021-01-06 11:10:06.906] $GPGGA,020752.50,4304.1665980,N,14120.4310051,E,5,08,1.5,21.0780,M,31.96,M,5,0000*65
[2021-01-06 11:10:07.000] $GPGGA,020752.60,4304.1665984,N,14120.4310064,E,5,08,1.5,21.0798,M,31.96,M,5,0000*6D
[2021-01-06 11:10:07.094] $GPGGA,020752.70,4304.1666000,N,14120.4310066,E,5,08,1.5,21.0813,M,31.96,M,5,0000*64
[2021-01-06 11:10:07.203] $GPGGA,020752.80,4304.1666009,N,14120.4310078,E,5,08,1.5,21.0863,M,31.96,M,5,0000*6A
[2021-01-06 11:10:07.297] $GPGGA,020752.90,4304.1666019,N,14120.4310091,E,5,08,1.5,21.0894,M,31.96,M,5,0000*65
[2021-01-06 11:10:07.391] $GPGGA,020753.00,4304.1666030,N,14120.4310101,E,5,08,1.5,21.0912,M,31.96,M,6,0000*62
[2021-01-06 11:10:07.500] $GPGGA,020753.10,4304.1666047,N,14120.4310109,E,5,08,1.5,21.0944,M,31.96,M,6,0000*68
[2021-01-06 11:10:07.594] $GPGGA,020753.20,4304.1666033,N,14120.4310085,E,5,08,1.5,21.0899,M,31.96,M,1,0000*6B
[2021-01-06 11:10:07.703] $GPGGA,020753.30,4304.1666032,N,14120.4310087,E,5,08,1.5,21.0866,M,31.96,M,1,0000*69
[2021-01-06 11:10:07.797] $GPGGA,020753.40,4304.1666032,N,14120.4310090,E,5,08,1.5,21.0830,M,31.96,M,1,0000*6B
[2021-01-06 11:10:07.906] $GPGGA,020753.50,4304.1666033,N,14120.4310096,E,5,08,1.5,21.0821,M,31.96,M,1,0000*6D
[2021-01-06 11:10:08.000] $GPGGA,020753.60,4304.1666037,N,14120.4310096,E,5,08,1.5,21.0826,M,31.96,M,1,0000*6D
[2021-01-06 11:10:08.094] $GPGGA,020753.70,4304.1666048,N,14120.4310104,E,5,08,1.5,21.0812,M,31.96,M,1,0000*69
[2021-01-06 11:10:08.188] $GPGGA,020753.80,4304.1666057,N,14120.4310113,E,5,08,1.5,21.0823,M,31.96,M,1,0000*6C
[2021-01-06 11:10:08.297] $GPGGA,020753.90,4304.1666070,N,14120.4310116,E,5,08,1.5,21.0809,M,31.96,M,1,0000*65
[2021-01-06 11:10:08.406] $GPGGA,020754.00,4304.1666079,N,14120.4310126,E,5,08,1.5,21.0799,M,31.96,M,2,0000*64
[2021-01-06 11:10:08.500] $GPGGA,020754.10,4304.1666093,N,14120.4310132,E,5,08,1.5,21.0795,M,31.96,M,2,0000*68
[2021-01-06 11:10:08.594] $GPGGA,020754.20,4304.1666099,N,14120.4310129,E,5,08,1.5,21.0818,M,31.96,M,2,0000*61
[2021-01-06 11:10:08.703] $GPGGA,020754.30,4304.1666104,N,14120.4310131,E,5,08,1.5,21.0823,M,31.96,M,2,0000*64
[2021-01-06 11:10:08.797] $GPGGA,020754.40,4304.1666108,N,14120.4310139,E,5,08,1.5,21.0840,M,31.96,M,2,0000*62
[2021-01-06 11:10:08.891] $GPGGA,020754.50,4304.1666111,N,14120.4310145,E,5,08,1.5,21.0843,M,31.96,M,2,0000*63
[2021-01-06 11:10:09.000] $GPGGA,020754.60,4304.1666116,N,14120.4310151,E,5,08,1.5,21.0880,M,31.96,M,2,0000*6D
[2021-01-06 11:10:09.094] $GPGGA,020754.70,4304.1666118,N,14120.4310141,E,5,08,1.5,21.0885,M,31.96,M,2,0000*66
[2021-01-06 11:10:09.203] $GPGGA,020754.80,4304.1666121,N,14120.4310151,E,5,08,1.5,21.0902,M,31.96,M,2,0000*6C
[2021-01-06 11:10:09.297] $GPGGA,020754.90,4304.1666126,N,14120.4310161,E,5,08,1.5,21.0911,M,31.96,M,2,0000*6B
[2021-01-06 11:10:09.406] $GPGGA,020755.00,4304.1666126,N,14120.4310163,E,5,08,1.5,21.0921,M,31.96,M,3,0000*63
[2021-01-06 11:10:09.500] $GPGGA,020755.10,4304.1666127,N,14120.4310165,E,5,08,1.5,21.0920,M,31.96,M,3,0000*64
[2021-01-06 11:10:09.594] $GPGGA,020755.20,4304.1666133,N,14120.4310164,E,5,08,1.5,21.0920,M,31.96,M,3,0000*63
[2021-01-06 11:10:09.687] $GPGGA,020755.30,4304.1666130,N,14120.4310169,E,5,08,1.5,21.0941,M,31.96,M,3,0000*6B
[2021-01-06 11:10:09.797] $GPGGA,020755.40,4304.1666135,N,14120.4310167,E,5,08,1.5,21.0957,M,31.96,M,3,0000*60
[2021-01-06 11:10:09.891] $GPGGA,020755.50,4304.1666139,N,14120.4310172,E,5,08,1.5,21.0959,M,31.96,M,3,0000*67
[2021-01-06 11:10:10.000] $GPGGA,020755.60,4304.1666141,N,14120.4310177,E,5,08,1.5,21.0969,M,31.96,M,3,0000*6D
[2021-01-06 11:10:10.094] $GPGGA,020755.70,4304.1666142,N,14120.4310174,E,5,08,1.5,21.0993,M,31.96,M,3,0000*69
[2021-01-06 11:10:10.203] $GPGGA,020755.80,4304.1666150,N,14120.4310181,E,5,08,1.5,21.1015,M,31.96,M,3,0000*69
[2021-01-06 11:10:10.297] $GPGGA,020755.90,4304.1666159,N,14120.4310186,E,5,08,1.5,21.1041,M,31.96,M,3,0000*67
[2021-01-06 11:10:10.406] $GPGGA,020756.00,4304.1666157,N,14120.4310186,E,5,08,1.5,21.1056,M,31.96,M,4,0000*62
[2021-01-06 11:10:10.500] $GPGGA,020756.10,4304.1666158,N,14120.4310191,E,5,08,1.5,21.1068,M,31.96,M,4,0000*67
[2021-01-06 11:10:10.594] $GPGGA,020756.20,4304.1666168,N,14120.4310194,E,5,08,1.5,21.1103,M,31.96,M,4,0000*6E
[2021-01-06 11:10:10.703] $GPGGA,020756.30,4304.1666172,N,14120.4310194,E,5,08,1.5,21.1123,M,31.96,M,4,0000*66
[2021-01-06 11:10:10.797] $GPGGA,020756.40,4304.1666174,N,14120.4310202,E,5,08,1.5,21.1144,M,31.96,M,4,0000*6A
[2021-01-06 11:10:10.906] $GPGGA,020756.50,4304.1666183,N,14120.4310211,E,5,08,1.5,21.1180,M,31.96,M,4,0000*69
[2021-01-06 11:10:11.000] $GPGGA,020756.60,4304.1666192,N,14120.4310206,E,5,08,1.5,21.1205,M,31.96,M,4,0000*62
[2021-01-06 11:10:11.094] $GPGGA,020756.70,4304.1666191,N,14120.4310212,E,5,08,1.5,21.1230,M,31.96,M,4,0000*63
[2021-01-06 11:10:11.203] $GPGGA,020756.80,4304.1666199,N,14120.4310219,E,5,08,1.5,21.1251,M,31.96,M,4,0000*68
[2021-01-06 11:10:11.297] $GPGGA,020756.90,4304.1666207,N,14120.4310221,E,5,08,1.5,21.1253,M,31.96,M,4,0000*64
[2021-01-06 11:10:11.390] $GPGGA,020757.00,4304.1666214,N,14120.4310219,E,5,08,1.5,21.1258,M,31.96,M,5,0000*6F
[2021-01-06 11:10:11.500] $GPGGA,020757.10,4304.1666217,N,14120.4310221,E,5,08,1.5,21.1281,M,31.96,M,5,0000*62
[2021-01-06 11:10:11.594] $GPGGA,020757.20,4304.1666225,N,14120.4310225,E,5,08,1.5,21.1289,M,31.96,M,5,0000*6C
[2021-01-06 11:10:11.703] $GPGGA,020757.30,4304.1666228,N,14120.4310221,E,5,08,1.5,21.1314,M,31.96,M,5,0000*61
[2021-01-06 11:10:11.797] $GPGGA,020757.40,4304.1666231,N,14120.4310213,E,5,08,1.5,21.1308,M,31.96,M,5,0000*62
[2021-01-06 11:10:11.890] $GPGGA,020757.50,4304.1666241,N,14120.4310210,E,5,08,1.5,21.1323,M,31.96,M,5,0000*6E
[2021-01-06 11:10:12.000] $GPGGA,020757.60,4304.1666241,N,14120.4310217,E,5,08,1.5,21.1334,M,31.96,M,5,0000*6C
[2021-01-06 11:10:12.094] $GPGGA,020757.70,4304.1666239,N,14120.4310206,E,5,08,1.5,21.1362,M,31.96,M,5,0000*61
[2021-01-06 11:10:12.203] $GPGGA,020757.80,4304.1666240,N,14120.4310211,E,5,08,1.5,21.1382,M,31.96,M,5,0000*68
[2021-01-06 11:10:12.297] $GPGGA,020757.90,4304.1666242,N,14120.4310215,E,5,08,1.5,21.1372,M,31.96,M,5,0000*60
[2021-01-06 11:10:12.406] $GPGGA,020758.00,4304.1666251,N,14120.4310221,E,5,08,1.5,21.1378,M,31.96,M,6,0000*6A
[2021-01-06 11:10:12.500] $GPGGA,020758.10,4304.1666253,N,14120.4310222,E,5,08,1.5,21.1383,M,31.96,M,6,0000*6E
[2021-01-06 11:10:12.594] $GPGGA,020758.20,4304.1666284,N,14120.4310220,E,5,08,1.5,21.1471,M,31.96,M,1,0000*68
[2021-01-06 11:10:12.703] $GPGGA,020758.30,4304.1666303,N,14120.4310226,E,5,08,1.5,21.1541,M,31.96,M,1,0000*63
[2021-01-06 11:10:12.797] $GPGGA,020758.40,4304.1666315,N,14120.4310235,E,5,08,1.5,21.1593,M,31.96,M,1,0000*6E
[2021-01-06 11:10:12.890] $GPGGA,020758.50,4304.1666318,N,14120.4310232,E,5,08,1.5,21.1670,M,31.96,M,1,0000*6B
[2021-01-06 11:10:13.000] $GPGGA,020758.60,4304.1666316,N,14120.4310239,E,5,08,1.5,21.1719,M,31.96,M,1,0000*63
[2021-01-06 11:10:13.093] $GPGGA,020758.70,4304.1666317,N,14120.4310229,E,5,08,1.5,21.1757,M,31.96,M,1,0000*68
[2021-01-06 11:10:13.203] $GPGGA,020758.80,4304.1666319,N,14120.4310235,E,5,08,1.5,21.1780,M,31.96,M,1,0000*6E
[2021-01-06 11:10:13.297] $GPGGA,020758.90,4304.1666317,N,14120.4310237,E,5,08,1.5,21.1804,M,31.96,M,1,0000*60
[2021-01-06 11:10:13.406] $GPGGA,020759.00,4304.1666325,N,14120.4310247,E,5,08,1.5,21.1802,M,31.96,M,2,0000*6B
[2021-01-06 11:10:13.500] $GPGGA,020759.10,4304.1666330,N,14120.4310245,E,5,08,1.5,21.1797,M,31.96,M,2,0000*6F
[2021-01-06 11:10:13.593] $GPGGA,020759.20,4304.1666332,N,14120.4310241,E,5,08,1.5,21.1802,M,31.96,M,2,0000*69
[2021-01-06 11:10:13.703] $GPGGA,020759.30,4304.1666338,N,14120.4310238,E,5,08,1.5,21.1793,M,31.96,M,2,0000*6B
[2021-01-06 11:10:13.797] $GPGGA,020759.40,4304.1666345,N,14120.4310244,E,5,08,1.5,21.1780,M,31.96,M,2,0000*6F
[2021-01-06 11:10:13.906] $GPGGA,020759.50,4304.1666351,N,14120.4310244,E,5,08,1.5,21.1760,M,31.96,M,2,0000*65
[2021-01-06 11:10:14.000] $GPGGA,020759.60,4304.1666349,N,14120.4310247,E,5,08,1.5,21.1747,M,31.96,M,2,0000*69
[2021-01-06 11:10:14.093] $GPGGA,020759.70,4304.1666357,N,14120.4310244,E,5,08,1.5,21.1757,M,31.96,M,2,0000*65
[2021-01-06 11:10:14.203] $GPGGA,020759.80,4304.1666361,N,14120.4310238,E,5,08,1.5,21.1762,M,31.96,M,2,0000*62
[2021-01-06 11:10:14.297] $GPGGA,020759.90,4304.1666364,N,14120.4310240,E,5,08,1.5,21.1758,M,31.96,M,2,0000*60
[2021-01-06 11:10:14.406] $GPGGA,020800.00,4304.1666368,N,14120.4310247,E,5,08,1.5,21.1743,M,31.96,M,3,0000*6A
[2021-01-06 11:10:14.500] $GPGGA,020800.10,4304.1666374,N,14120.4310245,E,5,08,1.5,21.1738,M,31.96,M,3,0000*68
[2021-01-06 11:10:14.593] $GPGGA,020800.20,4304.1666382,N,14120.4310253,E,5,08,1.5,21.1739,M,31.96,M,3,0000*64
[2021-01-06 11:10:14.703] $GPGGA,020800.30,4304.1666379,N,14120.4310251,E,5,08,1.5,21.1745,M,31.96,M,3,0000*68
[2021-01-06 11:10:14.796] $GPGGA,020800.40,4304.1666380,N,14120.4310255,E,5,08,1.5,21.1724,M,31.96,M,3,0000*6A
[2021-01-06 11:10:14.906] $GPGGA,020800.50,4304.1666387,N,14120.4310261,E,5,08,1.5,21.1729,M,31.96,M,3,0000*66
[2021-01-06 11:10:15.000] $GPGGA,020800.60,4304.1666396,N,14120.4310256,E,5,08,1.5,21.1735,M,31.96,M,3,0000*6C
[2021-01-06 11:10:15.093] $GPGGA,020800.70,4304.1666405,N,14120.4310253,E,5,08,1.5,21.1753,M,31.96,M,3,0000*65
[2021-01-06 11:10:15.187] $GPGGA,020800.80,4304.1666404,N,14120.4310254,E,5,08,1.5,21.1746,M,31.96,M,3,0000*68
[2021-01-06 11:10:15.296] $GPGGA,020800.90,4304.1666416,N,14120.4310263,E,5,08,1.5,21.1742,M,31.96,M,3,0000*6A
[2021-01-06 11:10:15.406] $GPGGA,020801.00,4304.1666418,N,14120.4310273,E,5,08,1.5,21.1734,M,31.96,M,4,0000*6B
[2021-01-06 11:10:15.500] $GPGGA,020801.10,4304.1666417,N,14120.4310280,E,5,08,1.5,21.1741,M,31.96,M,4,0000*6B
[2021-01-06 11:10:15.593] $GPGGA,020801.20,4304.1666428,N,14120.4310291,E,5,08,1.5,21.1746,M,31.96,M,4,0000*63
[2021-01-06 11:10:15.703] $GPGGA,020801.30,4304.1666429,N,14120.4310290,E,5,08,1.5,21.1755,M,31.96,M,4,0000*60
[2021-01-06 11:10:15.796] $GPGGA,020801.40,4304.1666442,N,14120.4310291,E,5,08,1.5,21.1750,M,31.96,M,4,0000*6E
[2021-01-06 11:10:15.890] $GPGGA,020801.50,4304.1666445,N,14120.4310292,E,5,08,1.5,21.1743,M,31.96,M,4,0000*69
[2021-01-06 11:10:16.000] $GPGGA,020801.60,4304.1666454,N,14120.4310288,E,5,08,1.5,21.1754,M,31.96,M,4,0000*67
[2021-01-06 11:10:16.093] $GPGGA,020801.70,4304.1666457,N,14120.4310296,E,5,08,1.5,21.1769,M,31.96,M,4,0000*64
[2021-01-06 11:10:16.203] $GPGGA,020801.80,4304.1666465,N,14120.4310298,E,5,08,1.5,21.1770,M,31.96,M,4,0000*6C
[2021-01-06 11:10:16.296] $GPGGA,020801.90,4304.1666470,N,14120.4310302,E,5,08,1.5,21.1753,M,31.96,M,4,0000*6A
[2021-01-06 11:10:16.406] $GPGGA,020802.00,4304.1666473,N,14120.4310305,E,5,08,1.5,21.1755,M,31.96,M,5,0000*63
[2021-01-06 11:10:16.500] $GPGGA,020802.10,4304.1666479,N,14120.4310301,E,5,08,1.5,21.1771,M,31.96,M,5,0000*6A
[2021-01-06 11:10:16.593] $GPGGA,020802.20,4304.1666489,N,14120.4310309,E,5,08,1.5,21.1761,M,31.96,M,5,0000*6F
[2021-01-06 11:10:16.703] $GPGGA,020802.30,4304.1666492,N,14120.4310313,E,5,08,1.5,21.1770,M,31.96,M,5,0000*6F
[2021-01-06 11:10:16.796] $GPGGA,020802.40,4304.1666491,N,14120.4310319,E,5,08,1.5,21.1785,M,31.96,M,5,0000*6B
[2021-01-06 11:10:16.890] $GPGGA,020802.50,4304.1666497,N,14120.4310317,E,5,08,1.5,21.1793,M,31.96,M,5,0000*65
[2021-01-06 11:10:16.999] $GPGGA,020802.60,4304.1666496,N,14120.4310313,E,5,08,1.5,21.1813,M,31.96,M,5,0000*64
[2021-01-06 11:10:17.093] $GPGGA,020802.70,4304.1666503,N,14120.4310316,E,5,08,1.5,21.1808,M,31.96,M,5,0000*67
[2021-01-06 11:10:17.203] $GPGGA,020802.80,4304.1666511,N,14120.4310321,E,5,08,1.5,21.1812,M,31.96,M,5,0000*64
[2021-01-06 11:10:17.296] $GPGGA,020802.90,4304.1666511,N,14120.4310323,E,5,08,1.5,21.1834,M,31.96,M,5,0000*63
[2021-01-06 11:10:17.406] $GPGGA,020803.00,4304.1666513,N,14120.4310316,E,5,08,1.5,21.1841,M,31.96,M,6,0000*6E
[2021-01-06 11:10:17.499] $GPGGA,020803.10,4304.1666522,N,14120.4310327,E,5,08,1.5,21.1849,M,31.96,M,6,0000*67
[2021-01-06 11:10:17.593] $GPGGA,020803.20,4304.1666540,N,14120.4310322,E,5,08,1.5,21.1921,M,31.96,M,1,0000*6D
[2021-01-06 11:10:17.703] $GPGGA,020803.30,4304.1666549,N,14120.4310327,E,5,08,1.5,21.1980,M,31.96,M,1,0000*6B
[2021-01-06 11:10:17.796] $GPGGA,020803.40,4304.1666551,N,14120.4310332,E,5,08,1.5,21.2007,M,31.96,M,1,0000*64
[2021-01-06 11:10:17.906] $GPGGA,020803.50,4304.1666557,N,14120.4310333,E,5,08,1.5,21.2036,M,31.96,M,1,0000*60
[2021-01-06 11:10:17.999] $GPGGA,020803.60,4304.1666549,N,14120.4310331,E,5,08,1.5,21.2061,M,31.96,M,1,0000*6C
[2021-01-06 11:10:18.093] $GPGGA,020803.70,4304.1666556,N,14120.4310331,E,5,08,1.5,21.2066,M,31.96,M,1,0000*64
[2021-01-06 11:10:18.202] $GPGGA,020803.80,4304.1666560,N,14120.4310330,E,5,08,1.5,21.2083,M,31.96,M,1,0000*64
[2021-01-06 11:10:18.296] $GPGGA,020803.90,4304.1666562,N,14120.4310335,E,5,08,1.5,21.2091,M,31.96,M,1,0000*61
[2021-01-06 11:10:18.406] $GPGGA,020804.00,4304.1666560,N,14120.4310340,E,5,08,1.5,21.2088,M,31.96,M,2,0000*64
[2021-01-06 11:10:18.499] $GPGGA,020804.10,4304.1666558,N,14120.4310337,E,5,08,1.5,21.2098,M,31.96,M,2,0000*6F
[2021-01-06 11:10:18.593] $GPGGA,020804.20,4304.1666561,N,14120.4310335,E,5,08,1.5,21.2089,M,31.96,M,2,0000*64
[2021-01-06 11:10:18.702] $GPGGA,020804.30,4304.1666571,N,14120.4310339,E,5,08,1.5,21.2081,M,31.96,M,2,0000*60
[2021-01-06 11:10:18.796] $GPGGA,020804.40,4304.1666567,N,14120.4310340,E,5,08,1.5,21.2096,M,31.96,M,2,0000*68
[2021-01-06 11:10:18.890] $GPGGA,020804.50,4304.1666567,N,14120.4310345,E,5,08,1.5,21.2105,M,31.96,M,2,0000*67
[2021-01-06 11:10:18.999] $GPGGA,020804.60,4304.1666577,N,14120.4310346,E,5,08,1.5,21.2110,M,31.96,M,2,0000*62
[2021-01-06 11:10:19.093] $GPGGA,020804.70,4304.1666584,N,14120.4310351,E,5,08,1.5,21.2110,M,31.96,M,2,0000*69
[2021-01-06 11:10:19.202] $GPGGA,020804.80,4304.1666588,N,14120.4310354,E,5,08,1.5,21.2124,M,31.96,M,2,0000*68
[2021-01-06 11:10:19.296] $GPGGA,020804.90,4304.1666590,N,14120.4310356,E,5,08,1.5,21.2124,M,31.96,M,2,0000*62
[2021-01-06 11:10:19.406] $GPGGA,020805.00,4304.1666589,N,14120.4310354,E,5,08,1.5,21.2126,M,31.96,M,3,0000*63
[2021-01-06 11:10:19.499] $GPGGA,020805.10,4304.1666599,N,14120.4310359,E,5,08,1.5,21.2117,M,31.96,M,3,0000*6C
[2021-01-06 11:10:19.593] $GPGGA,020805.20,4304.1666593,N,14120.4310350,E,5,08,1.5,21.2117,M,31.96,M,3,0000*6C
[2021-01-06 11:10:19.702] $GPGGA,020805.30,4304.1666593,N,14120.4310350,E,5,08,1.5,21.2112,M,31.96,M,3,0000*68
[2021-01-06 11:10:19.796] $GPGGA,020805.40,4304.1666590,N,14120.4310352,E,5,08,1.5,21.2109,M,31.96,M,3,0000*64
[2021-01-06 11:10:19.890] $GPGGA,020805.50,4304.1666587,N,14120.4310346,E,5,08,1.5,21.2114,M,31.96,M,3,0000*6A
[2021-01-06 11:10:19.999] $GPGGA,020805.60,4304.1666587,N,14120.4310346,E,5,08,1.5,21.2122,M,31.96,M,3,0000*6C
[2021-01-06 11:10:20.093] $GPGGA,020805.70,4304.1666592,N,14120.4310346,E,5,08,1.5,21.2120,M,31.96,M,3,0000*6B
[2021-01-06 11:10:20.202] $GPGGA,020805.80,4304.1666593,N,14120.4310342,E,5,08,1.5,21.2126,M,31.96,M,3,0000*67
[2021-01-06 11:10:20.296] $GPGGA,020805.90,4304.1666594,N,14120.4310344,E,5,08,1.5,21.2106,M,31.96,M,3,0000*65
[2021-01-06 11:10:20.405] $GPGGA,020806.00,4304.1666599,N,14120.4310340,E,5,08,1.5,21.2101,M,31.96,M,4,0000*66
[2021-01-06 11:10:20.499] $GPGGA,020806.10,4304.1666600,N,14120.4310344,E,5,08,1.5,21.2102,M,31.96,M,4,0000*63
[2021-01-06 11:10:20.593] $GPGGA,020806.20,4304.1666601,N,14120.4310343,E,5,08,1.5,21.2097,M,31.96,M,4,0000*6B
[2021-01-06 11:10:20.702] $GPGGA,020806.30,4304.1666598,N,14120.4310340,E,5,08,1.5,21.2100,M,31.96,M,4,0000*65
[2021-01-06 11:10:20.796] $GPGGA,020806.40,4304.1666596,N,14120.4310335,E,5,08,1.5,21.2109,M,31.96,M,4,0000*67
[2021-01-06 11:10:20.905] $GPGGA,020806.50,4304.1666601,N,14120.4310332,E,5,08,1.5,21.2112,M,31.96,M,4,0000*66
[2021-01-06 11:10:20.999] $GPGGA,020806.60,4304.1666601,N,14120.4310326,E,5,08,1.5,21.2127,M,31.96,M,4,0000*66
[2021-01-06 11:10:21.093] $GPGGA,020806.70,4304.1666595,N,14120.4310331,E,5,08,1.5,21.2114,M,31.96,M,4,0000*6F
[2021-01-06 11:10:21.202] $GPGGA,020806.80,4304.1666597,N,14120.4310332,E,5,08,1.5,21.2122,M,31.96,M,4,0000*64
[2021-01-06 11:10:21.296] $GPGGA,020806.90,4304.1666603,N,14120.4310333,E,5,08,1.5,21.2115,M,31.96,M,4,0000*6E
[2021-01-06 11:10:21.405] $GPGGA,020807.00,4304.1666599,N,14120.4310342,E,5,08,1.5,21.2112,M,31.96,M,5,0000*66
[2021-01-06 11:10:21.499] $GPGGA,020807.10,4304.1666598,N,14120.4310342,E,5,08,1.5,21.2130,M,31.96,M,5,0000*66
[2021-01-06 11:10:21.593] $GPGGA,020807.20,4304.1666572,N,14120.4310376,E,5,08,1.5,21.2005,M,31.96,M,5,0000*61
[2021-01-06 11:10:21.702] $GPGGA,020807.30,4304.1666556,N,14120.4310388,E,5,08,1.5,21.1895,M,31.96,M,5,0000*65
[2021-01-06 11:10:21.796] $GPGGA,020807.40,4304.1666557,N,14120.4310388,E,5,08,1.5,21.1809,M,31.96,M,5,0000*66
[2021-01-06 11:10:21.905] $GPGGA,020807.50,4304.1666556,N,14120.4310386,E,5,08,1.5,21.1755,M,31.96,M,5,0000*6E
[2021-01-06 11:10:21.999] $GPGGA,020807.60,4304.1666566,N,14120.4310388,E,5,08,1.5,21.1726,M,31.96,M,5,0000*64
[2021-01-06 11:10:22.093] $GPGGA,020807.70,4304.1666575,N,14120.4310386,E,5,08,1.5,21.1708,M,31.96,M,5,0000*65
[2021-01-06 11:10:22.202] $GPGGA,020807.80,4304.1666583,N,14120.4310387,E,5,08,1.5,21.1711,M,31.96,M,5,0000*6A
[2021-01-06 11:10:22.296] $GPGGA,020807.90,4304.1666591,N,14120.4310384,E,5,08,1.5,21.1725,M,31.96,M,5,0000*6C
[2021-01-06 11:10:22.405] $GPGGA,020808.00,4304.1666587,N,14120.4310381,E,5,08,1.5,21.1758,M,31.96,M,6,0000*61
[2021-01-06 11:10:22.499] $GPGGA,020808.10,4304.1666591,N,14120.4310386,E,5,08,1.5,21.1802,M,31.96,M,6,0000*60
[2021-01-06 11:10:22.608] $GPGGA,020808.20,4304.1666595,N,14120.4310388,E,5,08,1.5,21.1871,M,31.96,M,1,0000*6A
[2021-01-06 11:10:22.702] $GPGGA,020808.30,4304.1666606,N,14120.4310393,E,5,08,1.5,21.1934,M,31.96,M,1,0000*68
[2021-01-06 11:10:22.796] $GPGGA,020808.40,4304.1666614,N,14120.4310397,E,5,08,1.5,21.2007,M,31.96,M,1,0000*62
[2021-01-06 11:10:22.890] $GPGGA,020808.50,4304.1666611,N,14120.4310394,E,5,08,1.5,21.2066,M,31.96,M,1,0000*62
[2021-01-06 11:10:22.999] $GPGGA,020808.60,4304.1666612,N,14120.4310403,E,5,08,1.5,21.2121,M,31.96,M,1,0000*69
[2021-01-06 11:10:23.093] $GPGGA,020808.70,4304.1666612,N,14120.4310405,E,5,08,1.5,21.2197,M,31.96,M,1,0000*63
[2021-01-06 11:10:23.202] $GPGGA,020808.80,4304.1666611,N,14120.4310408,E,5,08,1.5,21.2271,M,31.96,M,1,0000*69
[2021-01-06 11:10:23.296] $GPGGA,020808.90,4304.1666613,N,14120.4310409,E,5,08,1.5,21.2342,M,31.96,M,1,0000*6A
[2021-01-06 11:10:23.405] $GPGGA,020809.00,4304.1666613,N,14120.4310415,E,5,08,1.5,21.2398,M,31.96,M,2,0000*6B
[2021-01-06 11:10:23.499] $GPGGA,020809.10,4304.1666620,N,14120.4310418,E,5,08,1.5,21.2456,M,31.96,M,2,0000*62
[2021-01-06 11:10:23.593] $GPGGA,020809.20,4304.1666620,N,14120.4310418,E,5,08,1.5,21.2508,M,31.96,M,2,0000*6B
[2021-01-06 11:10:23.702] $GPGGA,020809.30,4304.1666620,N,14120.4310421,E,5,08,1.5,21.2555,M,31.96,M,2,0000*68
[2021-01-06 11:10:23.796] $GPGGA,020809.40,4304.1666623,N,14120.4310421,E,5,08,1.5,21.2598,M,31.96,M,2,0000*6D
[2021-01-06 11:10:23.890] $GPGGA,020809.50,4304.1666621,N,14120.4310425,E,5,08,1.5,21.2654,M,31.96,M,2,0000*69
[2021-01-06 11:10:23.999] $GPGGA,020809.60,4304.1666624,N,14120.4310427,E,5,08,1.5,21.2677,M,31.96,M,2,0000*6C
[2021-01-06 11:10:24.093] $GPGGA,020809.70,4304.1666625,N,14120.4310431,E,5,08,1.5,21.2706,M,31.96,M,2,0000*6C
[2021-01-06 11:10:24.202] $GPGGA,020809.80,4304.1666626,N,14120.4310431,E,5,08,1.5,21.2738,M,31.96,M,2,0000*6D
[2021-01-06 11:10:24.296] $GPGGA,020809.90,4304.1666625,N,14120.4310425,E,5,08,1.5,21.2774,M,31.96,M,2,0000*62
[2021-01-06 11:10:24.405] $GPGGA,020810.00,4304.1666630,N,14120.4310428,E,5,08,1.5,21.2817,M,31.96,M,3,0000*61
[2021-01-06 11:10:24.499] $GPGGA,020810.10,4304.1666636,N,14120.4310429,E,5,08,1.5,21.2845,M,31.96,M,3,0000*60
[2021-01-06 11:10:24.593] $GPGGA,020810.20,4304.1666635,N,14120.4310426,E,5,08,1.5,21.2871,M,31.96,M,3,0000*68
[2021-01-06 11:10:24.702] $GPGGA,020810.30,4304.1666634,N,14120.4310426,E,5,08,1.5,21.2903,M,31.96,M,3,0000*6C
[2021-01-06 11:10:24.796] $GPGGA,020810.40,4304.1666634,N,14120.4310426,E,5,08,1.5,21.2928,M,31.96,M,3,0000*62
[2021-01-06 11:10:24.905] $GPGGA,020810.50,4304.1666642,N,14120.4310430,E,5,08,1.5,21.2974,M,31.96,M,3,0000*6C
[2021-01-06 11:10:24.999] $GPGGA,020810.60,4304.1666639,N,14120.4310436,E,5,08,1.5,21.3012,M,31.96,M,3,0000*6D
[2021-01-06 11:10:25.093] $GPGGA,020810.70,4304.1666634,N,14120.4310432,E,5,08,1.5,21.3063,M,31.96,M,3,0000*63
[2021-01-06 11:10:25.202] $GPGGA,020810.80,4304.1666641,N,14120.4310434,E,5,08,1.5,21.3101,M,31.96,M,3,0000*6D
[2021-01-06 11:10:25.296] $GPGGA,020810.90,4304.1666650,N,14120.4310436,E,5,08,1.5,21.3145,M,31.96,M,3,0000*6E
[2021-01-06 11:10:25.405] $GPGGA,020811.00,4304.1666650,N,14120.4310439,E,5,08,1.5,21.3195,M,31.96,M,4,0000*63
[2021-01-06 11:10:25.499] $GPGGA,020811.10,4304.1666655,N,14120.4310442,E,5,08,1.5,21.3240,M,31.96,M,4,0000*60
[2021-01-06 11:10:25.593] $GPGGA,020811.20,4304.1666654,N,14120.4310444,E,5,08,1.5,21.3272,M,31.96,M,4,0000*65
[2021-01-06 11:10:25.702] $GPGGA,020811.30,4304.1666660,N,14120.4310441,E,5,08,1.5,21.3303,M,31.96,M,4,0000*61
[2021-01-06 11:10:25.796] $GPGGA,020811.40,4304.1666657,N,14120.4310441,E,5,08,1.5,21.3349,M,31.96,M,4,0000*6C
[2021-01-06 11:10:25.905] $GPGGA,020811.50,4304.1666657,N,14120.4310447,E,5,08,1.5,21.3402,M,31.96,M,4,0000*63
[2021-01-06 11:10:25.999] $GPGGA,020811.60,4304.1666660,N,14120.4310441,E,5,08,1.5,21.3444,M,31.96,M,4,0000*60
[2021-01-06 11:10:26.093] $GPGGA,020811.70,4304.1666660,N,14120.4310448,E,5,08,1.5,21.3481,M,31.96,M,4,0000*61
[2021-01-06 11:10:26.202] $GPGGA,020811.80,4304.1666659,N,14120.4310452,E,5,08,1.5,21.3530,M,31.96,M,4,0000*64
[2021-01-06 11:10:26.296] $GPGGA,020811.90,4304.1666665,N,14120.4310450,E,5,08,1.5,21.3610,M,31.96,M,4,0000*69
[2021-01-06 11:10:26.405] $GPGGA,020812.00,4304.1666668,N,14120.4310452,E,5,08,1.5,21.3649,M,31.96,M,5,0000*61
[2021-01-06 11:10:26.499] $GPGGA,020812.10,4304.1666674,N,14120.4310455,E,5,08,1.5,21.3706,M,31.96,M,5,0000*60
[2021-01-06 11:10:26.608] $GPGGA,020812.20,4304.1666675,N,14120.4310443,E,5,08,1.5,21.3745,M,31.96,M,5,0000*62
[2021-01-06 11:10:26.702] $GPGGA,020812.30,4304.1666681,N,14120.4310444,E,5,08,1.5,21.3781,M,31.96,M,5,0000*67
[2021-01-06 11:10:26.796] $GPGGA,020812.40,4304.1666683,N,14120.4310446,E,5,08,1.5,21.3833,M,31.96,M,5,0000*66
[2021-01-06 11:10:26.889] $GPGGA,020812.50,4304.1666681,N,14120.4310451,E,5,08,1.5,21.3885,M,31.96,M,5,0000*6E
[2021-01-06 11:10:26.999] $GPGGA,020812.60,4304.1666686,N,14120.4310452,E,5,08,1.5,21.3943,M,31.96,M,5,0000*62
[2021-01-06 11:10:27.093] $GPGGA,020812.70,4304.1666682,N,14120.4310453,E,5,08,1.5,21.3999,M,31.96,M,5,0000*61
[2021-01-06 11:10:27.202] $GPGGA,020812.80,4304.1666694,N,14120.4310451,E,5,08,1.5,21.4053,M,31.96,M,5,0000*63
[2021-01-06 11:10:27.296] $GPGGA,020812.90,4304.1666702,N,14120.4310451,E,5,08,1.5,21.4093,M,31.96,M,5,0000*60
[2021-01-06 11:10:27.405] $GPGGA,020813.00,4304.1666709,N,14120.4310454,E,5,08,1.5,21.4138,M,31.96,M,6,0000*65
[2021-01-06 11:10:27.499] $GPGGA,020813.10,4304.1666704,N,14120.4310458,E,5,08,1.5,21.4174,M,31.96,M,6,0000*6D
[2021-01-06 11:10:27.592] $GPGGA,020813.20,4304.1666721,N,14120.4310469,E,5,08,1.5,21.4391,M,31.96,M,1,0000*65
[2021-01-06 11:10:27.702] $GPGGA,020813.30,4304.1666732,N,14120.4310482,E,5,08,1.5,21.4565,M,31.96,M,1,0000*6E
[2021-01-06 11:10:27.796] $GPGGA,020813.40,4304.1666742,N,14120.4310494,E,5,08,1.5,21.4729,M,31.96,M,1,0000*63
[2021-01-06 11:10:27.889] $GPGGA,020813.50,4304.1666745,N,14120.4310498,E,5,08,1.5,21.4853,M,31.96,M,1,0000*6B
[2021-01-06 11:10:27.999] $GPGGA,020813.60,4304.1666738,N,14120.4310507,E,5,08,1.5,21.4960,M,31.96,M,1,0000*64
[2021-01-06 11:10:28.108] $GPGGA,020813.70,4304.1666738,N,14120.4310505,E,5,08,1.5,21.5058,M,31.96,M,1,0000*64
[2021-01-06 11:10:28.202] $GPGGA,020813.80,4304.1666743,N,14120.4310510,E,5,08,1.5,21.5124,M,31.96,M,1,0000*69
[2021-01-06 11:10:28.295] $GPGGA,020813.90,4304.1666745,N,14120.4310516,E,5,08,1.5,21.5195,M,31.96,M,1,0000*62
[2021-01-06 11:10:28.405] $GPGGA,020814.00,4304.1666751,N,14120.4310518,E,5,08,1.5,21.5229,M,31.96,M,2,0000*60
[2021-01-06 11:10:28.499] $GPGGA,020814.10,4304.1666753,N,14120.4310518,E,5,08,1.5,21.5261,M,31.96,M,2,0000*6F
[2021-01-06 11:10:28.592] $GPGGA,020814.20,4304.1666757,N,14120.4310522,E,5,08,1.5,21.5308,M,31.96,M,2,0000*6F
[2021-01-06 11:10:28.702] $GPGGA,020814.30,4304.1666763,N,14120.4310519,E,5,08,1.5,21.5337,M,31.96,M,2,0000*6D
[2021-01-06 11:10:28.796] $GPGGA,020814.40,4304.1666766,N,14120.4310527,E,5,08,1.5,21.5382,M,31.96,M,2,0000*6C
[2021-01-06 11:10:28.905] $GPGGA,020814.50,4304.1666773,N,14120.4310528,E,5,08,1.5,21.5402,M,31.96,M,2,0000*69
[2021-01-06 11:10:28.999] $GPGGA,020814.60,4304.1666780,N,14120.4310535,E,5,08,1.5,21.5426,M,31.96,M,2,0000*6C
[2021-01-06 11:10:29.092] $GPGGA,020814.70,4304.1666788,N,14120.4310536,E,5,08,1.5,21.5458,M,31.96,M,2,0000*6F
[2021-01-06 11:10:29.202] $GPGGA,020814.80,4304.1666789,N,14120.4310537,E,5,08,1.5,21.5492,M,31.96,M,2,0000*66
[2021-01-06 11:10:29.295] $GPGGA,020814.90,4304.1666803,N,14120.4310537,E,5,08,1.5,21.5515,M,31.96,M,2,0000*64
[2021-01-06 11:10:29.405] $GPGGA,020815.00,4304.1666810,N,14120.4310542,E,5,08,1.5,21.5548,M,31.96,M,3,0000*65
[2021-01-06 11:10:29.499] $GPGGA,020815.10,4304.1666819,N,14120.4310554,E,5,08,1.5,21.5575,M,31.96,M,3,0000*64
[2021-01-06 11:10:29.592] $GPGGA,020815.20,4304.1666823,N,14120.4310558,E,5,08,1.5,21.5604,M,31.96,M,3,0000*67
[2021-01-06 11:10:29.702] $GPGGA,020815.30,4304.1666828,N,14120.4310553,E,5,08,1.5,21.5645,M,31.96,M,3,0000*63
[2021-01-06 11:10:29.795] $GPGGA,020815.40,4304.1666833,N,14120.4310560,E,5,08,1.5,21.5672,M,31.96,M,3,0000*6A
[2021-01-06 11:10:29.905] $GPGGA,020815.50,4304.1666840,N,14120.4310568,E,5,08,1.5,21.5714,M,31.96,M,3,0000*66
[2021-01-06 11:10:29.999] $GPGGA,020815.60,4304.1666845,N,14120.4310572,E,5,08,1.5,21.5759,M,31.96,M,3,0000*62
[2021-01-06 11:10:30.092] $GPGGA,020815.70,4304.1666848,N,14120.4310577,E,5,08,1.5,21.5817,M,31.96,M,3,0000*6E
[2021-01-06 11:10:30.202] $GPGGA,020815.80,4304.1666858,N,14120.4310583,E,5,08,1.5,21.5862,M,31.96,M,3,0000*69
[2021-01-06 11:10:30.295] $GPGGA,020815.90,4304.1666864,N,14120.4310585,E,5,08,1.5,21.5904,M,31.96,M,3,0000*60
[2021-01-06 11:10:30.405] $GPGGA,020816.00,4304.1666871,N,14120.4310588,E,5,08,1.5,21.5938,M,31.96,M,4,0000*6B
[2021-01-06 11:10:30.499] $GPGGA,020816.10,4304.1666872,N,14120.4310597,E,5,08,1.5,21.5994,M,31.96,M,4,0000*61
[2021-01-06 11:10:30.592] $GPGGA,020816.20,4304.1666883,N,14120.4310604,E,5,08,1.5,21.6040,M,31.96,M,4,0000*66
[2021-01-06 11:10:30.702] $GPGGA,020816.30,4304.1666894,N,14120.4310613,E,5,08,1.5,21.6081,M,31.96,M,4,0000*6A
[2021-01-06 11:10:30.795] $GPGGA,020816.40,4304.1666898,N,14120.4310615,E,5,08,1.5,21.6125,M,31.96,M,4,0000*68
[2021-01-06 11:10:30.889] $GPGGA,020816.50,4304.1666901,N,14120.4310619,E,5,08,1.5,21.6163,M,31.96,M,4,0000*66
[2021-01-06 11:10:30.998] $GPGGA,020816.60,4304.1666910,N,14120.4310630,E,5,08,1.5,21.6195,M,31.96,M,4,0000*67
[2021-01-06 11:10:31.092] $GPGGA,020816.70,4304.1666919,N,14120.4310632,E,5,08,1.5,21.6248,M,31.96,M,4,0000*6E
[2021-01-06 11:10:31.202] $GPGGA,020816.80,4304.1666925,N,14120.4310639,E,5,08,1.5,21.6266,M,31.96,M,4,0000*69
[2021-01-06 11:10:31.295] $GPGGA,020816.90,4304.1666934,N,14120.4310637,E,5,08,1.5,21.6310,M,31.96,M,4,0000*66
[2021-01-06 11:10:31.405] $GPGGA,020817.00,4304.1666940,N,14120.4310634,E,5,08,1.5,21.6346,M,31.96,M,5,0000*6C
[2021-01-06 11:10:31.498] $GPGGA,020817.10,4304.1666944,N,14120.4310638,E,5,08,1.5,21.6379,M,31.96,M,5,0000*69
[2021-01-06 11:10:31.592] $GPGGA,020817.20,4304.1666959,N,14120.4310640,E,5,08,1.5,21.6411,M,31.96,M,5,0000*60
[2021-01-06 11:10:31.702] $GPGGA,020817.30,4304.1666955,N,14120.4310641,E,5,08,1.5,21.6456,M,31.96,M,5,0000*6F
[2021-01-06 11:10:31.795] $GPGGA,020817.40,4304.1666970,N,14120.4310655,E,5,08,1.5,21.6494,M,31.96,M,5,0000*64
[2021-01-06 11:10:31.905] $GPGGA,020817.50,4304.1666980,N,14120.4310660,E,5,08,1.5,21.6522,M,31.96,M,5,0000*60
[2021-01-06 11:10:31.998] $GPGGA,020817.60,4304.1666982,N,14120.4310658,E,5,08,1.5,21.6566,M,31.96,M,5,0000*6A
[2021-01-06 11:10:32.108] $GPGGA,020817.70,4304.1666989,N,14120.4310654,E,5,08,1.5,21.6589,M,31.96,M,5,0000*6D
[2021-01-06 11:10:32.202] $GPGGA,020817.80,4304.1666993,N,14120.4310655,E,5,08,1.5,21.6625,M,31.96,M,5,0000*6D
[2021-01-06 11:10:32.295] $GPGGA,020817.90,4304.1667006,N,14120.4310663,E,5,08,1.5,21.6641,M,31.96,M,5,0000*6F
[2021-01-06 11:10:32.405] $GPGGA,020818.00,4304.1667014,N,14120.4310661,E,5,08,1.5,21.6676,M,31.96,M,6,0000*6F
[2021-01-06 11:10:32.498] $GPGGA,020818.10,4304.1667016,N,14120.4310671,E,5,08,1.5,21.6697,M,31.96,M,6,0000*62
[2021-01-06 11:10:32.592] $GPGGA,020818.20,4304.1667019,N,14120.4310671,E,5,08,1.5,21.6757,M,31.96,M,1,0000*64
[2021-01-06 11:10:32.701] $GPGGA,020818.30,4304.1667018,N,14120.4310675,E,5,08,1.5,21.6807,M,31.96,M,1,0000*6A
[2021-01-06 11:10:32.795] $GPGGA,020818.40,4304.1667024,N,14120.4310676,E,5,08,1.5,21.6850,M,31.96,M,1,0000*63
[2021-01-06 11:10:32.905] $GPGGA,020818.50,4304.1667038,N,14120.4310676,E,5,08,1.5,21.6878,M,31.96,M,1,0000*65
[2021-01-06 11:10:32.998] $GPGGA,020818.60,4304.1667046,N,14120.4310673,E,5,08,1.5,21.6928,M,31.96,M,1,0000*6E
[2021-01-06 11:10:33.092] $GPGGA,020818.70,4304.1667042,N,14120.4310671,E,5,08,1.5,21.6969,M,31.96,M,1,0000*6C
[2021-01-06 11:10:33.201] $GPGGA,020818.80,4304.1667044,N,14120.4310676,E,5,08,1.5,21.7013,M,31.96,M,1,0000*67
[2021-01-06 11:10:33.295] $GPGGA,020818.90,4304.1667056,N,14120.4310687,E,5,08,1.5,21.7042,M,31.96,M,1,0000*6F
[2021-01-06 11:10:33.405] $GPGGA,020819.00,4304.1667061,N,14120.4310695,E,5,08,1.5,21.7068,M,31.96,M,2,0000*6B
[2021-01-06 11:10:33.498] $GPGGA,020819.10,4304.1667066,N,14120.4310698,E,5,08,1.5,21.7103,M,31.96,M,2,0000*6C
[2021-01-06 11:10:33.608] $GPGGA,020819.20,4304.1667076,N,14120.4310699,E,5,08,1.5,21.7118,M,31.96,M,2,0000*65
[2021-01-06 11:10:33.701] $GPGGA,020819.30,4304.1667077,N,14120.4310706,E,5,08,1.5,21.7139,M,31.96,M,2,0000*61
[2021-01-06 11:10:33.795] $GPGGA,020819.40,4304.1667086,N,14120.4310708,E,5,08,1.5,21.7168,M,31.96,M,2,0000*62
[2021-01-06 11:10:33.904] $GPGGA,020819.50,4304.1667095,N,14120.4310715,E,5,08,1.5,21.7174,M,31.96,M,2,0000*60
[2021-01-06 11:10:33.998] $GPGGA,020819.60,4304.1667104,N,14120.4310719,E,5,08,1.5,21.7192,M,31.96,M,2,0000*6E
[2021-01-06 11:10:34.092] $GPGGA,020819.70,4304.1667115,N,14120.4310724,E,5,08,1.5,21.7232,M,31.96,M,2,0000*68
[2021-01-06 11:10:34.201] $GPGGA,020819.80,4304.1667119,N,14120.4310729,E,5,08,1.5,21.7265,M,31.96,M,2,0000*64
[2021-01-06 11:10:34.295] $GPGGA,020819.90,4304.1667134,N,14120.4310736,E,5,08,1.5,21.7282,M,31.96,M,2,0000*6D
[2021-01-06 11:10:34.404] $GPGGA,020820.00,4304.1667142,N,14120.4310738,E,5,08,1.5,21.7296,M,31.96,M,3,0000*65
[2021-01-06 11:10:34.498] $GPGGA,020820.10,4304.1667145,N,14120.4310739,E,5,08,1.5,21.7319,M,31.96,M,3,0000*64
[2021-01-06 11:10:34.592] $GPGGA,020820.20,4304.1667150,N,14120.4310741,E,5,08,1.5,21.7343,M,31.96,M,3,0000*63
[2021-01-06 11:10:34.701] $GPGGA,020820.30,4304.1667155,N,14120.4310743,E,5,08,1.5,21.7376,M,31.96,M,3,0000*63
[2021-01-06 11:10:34.795] $GPGGA,020820.40,4304.1667160,N,14120.4310741,E,5,08,1.5,21.7394,M,31.96,M,3,0000*6C
[2021-01-06 11:10:34.889] $GPGGA,020820.50,4304.1667164,N,14120.4310748,E,5,08,1.5,21.7438,M,31.96,M,3,0000*61
[2021-01-06 11:10:34.998] $GPGGA,020820.60,4304.1667169,N,14120.4310757,E,5,08,1.5,21.7472,M,31.96,M,3,0000*6F
[2021-01-06 11:10:35.108] $GPGGA,020820.70,4304.1667177,N,14120.4310760,E,5,08,1.5,21.7485,M,31.96,M,3,0000*6D
[2021-01-06 11:10:35.201] $GPGGA,020820.80,4304.1667183,N,14120.4310761,E,5,08,1.5,21.7514,M,31.96,M,3,0000*61
[2021-01-06 11:10:35.295] $GPGGA,020820.90,4304.1667194,N,14120.4310759,E,5,08,1.5,21.7523,M,31.96,M,3,0000*69
[2021-01-06 11:10:35.404] $GPGGA,020821.00,4304.1667201,N,14120.4310758,E,5,08,1.5,21.7517,M,31.96,M,4,0000*6F
[2021-01-06 11:10:35.498] $GPGGA,020821.10,4304.1667210,N,14120.4310764,E,5,08,1.5,21.7537,M,31.96,M,4,0000*63
[2021-01-06 11:10:35.592] $GPGGA,020821.20,4304.1667227,N,14120.4310767,E,5,08,1.5,21.7563,M,31.96,M,4,0000*66
[2021-01-06 11:10:35.701] $GPGGA,020821.30,4304.1667236,N,14120.4310780,E,5,08,1.5,21.7582,M,31.96,M,4,0000*61
[2021-01-06 11:10:35.795] $GPGGA,020821.40,4304.1667243,N,14120.4310780,E,5,08,1.5,21.7611,M,31.96,M,4,0000*6D
[2021-01-06 11:10:35.904] $GPGGA,020821.50,4304.1667250,N,14120.4310790,E,5,08,1.5,21.7635,M,31.96,M,4,0000*69
[2021-01-06 11:10:35.998] $GPGGA,020821.60,4304.1667262,N,14120.4310792,E,5,08,1.5,21.7654,M,31.96,M,4,0000*6E
[2021-01-06 11:10:36.092] $GPGGA,020821.70,4304.1667268,N,14120.4310802,E,5,08,1.5,21.7690,M,31.96,M,4,0000*6B
[2021-01-06 11:10:36.201] $GPGGA,020821.80,4304.1667285,N,14120.4310809,E,5,08,1.5,21.7699,M,31.96,M,4,0000*65
[2021-01-06 11:10:36.295] $GPGGA,020821.90,4304.1667292,N,14120.4310809,E,5,08,1.5,21.7728,M,31.96,M,4,0000*69
[2021-01-06 11:10:36.404] $GPGGA,020822.00,4304.1667296,N,14120.4310811,E,5,08,1.5,21.7747,M,31.96,M,5,0000*66
[2021-01-06 11:10:36.498] $GPGGA,020822.10,4304.1667302,N,14120.4310816,E,5,08,1.5,21.7776,M,31.96,M,5,0000*6E
[2021-01-06 11:10:36.592] $GPGGA,020822.20,4304.1667319,N,14120.4310818,E,5,08,1.5,21.7805,M,31.96,M,5,0000*62
[2021-01-06 11:10:36.701] $GPGGA,020822.30,4304.1667328,N,14120.4310816,E,5,08,1.5,21.7849,M,31.96,M,5,0000*67
[2021-01-06 11:10:36.795] $GPGGA,020822.40,4304.1667335,N,14120.4310824,E,5,08,1.5,21.7879,M,31.96,M,5,0000*6E
[2021-01-06 11:10:36.904] $GPGGA,020822.50,4304.1667343,N,14120.4310828,E,5,08,1.5,21.7910,M,31.96,M,5,0000*6C
[2021-01-06 11:10:36.998] $GPGGA,020822.60,4304.1667359,N,14120.4310838,E,5,08,1.5,21.7922,M,31.96,M,5,0000*64
[2021-01-06 11:10:37.092] $GPGGA,020822.70,4304.1667366,N,14120.4310838,E,5,08,1.5,21.7954,M,31.96,M,5,0000*68
[2021-01-06 11:10:37.201] $GPGGA,020822.80,4304.1667369,N,14120.4310846,E,5,08,1.5,21.7990,M,31.96,M,5,0000*69
[2021-01-06 11:10:37.295] $GPGGA,020822.90,4304.1667372,N,14120.4310853,E,5,08,1.5,21.8009,M,31.96,M,5,0000*60
[2021-01-06 11:10:37.404] $GPGGA,020823.00,4304.1667377,N,14120.4310861,E,5,08,1.5,21.8032,M,31.96,M,6,0000*67
[2021-01-06 11:10:37.498] $GPGGA,020823.10,4304.1667386,N,14120.4310865,E,5,08,1.5,21.8058,M,31.96,M,6,0000*60
[2021-01-06 11:10:37.592] $GPGGA,020823.20,4304.1667419,N,14120.4310874,E,5,08,1.5,21.8110,M,31.96,M,1,0000*68
[2021-01-06 11:10:37.701] $GPGGA,020823.30,4304.1667441,N,14120.4310880,E,5,08,1.5,21.8173,M,31.96,M,1,0000*6A
[2021-01-06 11:10:37.795] $GPGGA,020823.40,4304.1667456,N,14120.4310885,E,5,08,1.5,21.8211,M,31.96,M,1,0000*69
[2021-01-06 11:10:37.889] $GPGGA,020823.50,4304.1667459,N,14120.4310892,E,5,08,1.5,21.8242,M,31.96,M,1,0000*67
[2021-01-06 11:10:37.998] $GPGGA,020823.60,4304.1667467,N,14120.4310893,E,5,08,1.5,21.8276,M,31.96,M,1,0000*6F
[2021-01-06 11:10:38.092] $GPGGA,020823.70,4304.1667475,N,14120.4310897,E,5,08,1.5,21.8291,M,31.96,M,1,0000*60
[2021-01-06 11:10:38.201] $GPGGA,020823.80,4304.1667480,N,14120.4310901,E,5,08,1.5,21.8320,M,31.96,M,1,0000*60
[2021-01-06 11:10:38.295] $GPGGA,020823.90,4304.1667492,N,14120.4310908,E,5,08,1.5,21.8304,M,31.96,M,1,0000*6D
[2021-01-06 11:10:38.404] $GPGGA,020824.00,4304.1667505,N,14120.4310918,E,5,08,1.5,21.8310,M,31.96,M,2,0000*6B
[2021-01-06 11:10:38.498] $GPGGA,020824.10,4304.1667512,N,14120.4310919,E,5,08,1.5,21.8331,M,31.96,M,2,0000*6E
[2021-01-06 11:10:38.592] $GPGGA,020824.20,4304.1667522,N,14120.4310918,E,5,08,1.5,21.8360,M,31.96,M,2,0000*6B
[2021-01-06 11:10:38.701] $GPGGA,020824.30,4304.1667533,N,14120.4310922,E,5,08,1.5,21.8358,M,31.96,M,2,0000*68
[2021-01-06 11:10:38.795] $GPGGA,020824.40,4304.1667540,N,14120.4310927,E,5,08,1.5,21.8365,M,31.96,M,2,0000*60
[2021-01-06 11:10:38.904] $GPGGA,020824.50,4304.1667545,N,14120.4310929,E,5,08,1.5,21.8369,M,31.96,M,2,0000*66
[2021-01-06 11:10:38.998] $GPGGA,020824.60,4304.1667551,N,14120.4310930,E,5,08,1.5,21.8377,M,31.96,M,2,0000*67
[2021-01-06 11:10:39.107] $GPGGA,020824.70,4304.1667556,N,14120.4310925,E,5,08,1.5,21.8394,M,31.96,M,2,0000*68
[2021-01-06 11:10:39.201] $GPGGA,020824.80,4304.1667564,N,14120.4310937,E,5,08,1.5,21.8400,M,31.96,M,2,0000*6F
[2021-01-06 11:10:39.295] $GPGGA,020824.90,4304.1667580,N,14120.4310936,E,5,08,1.5,21.8414,M,31.96,M,2,0000*60
[2021-01-06 11:10:39.404] $GPGGA,020825.00,4304.1667581,N,14120.4310938,E,5,08,1.5,21.8414,M,31.96,M,3,0000*66
[2021-01-06 11:10:39.498] $GPGGA,020825.10,4304.1667589,N,14120.4310953,E,5,08,1.5,21.8432,M,31.96,M,3,0000*66
[2021-01-06 11:10:39.592] $GPGGA,020825.20,4304.1667595,N,14120.4310949,E,5,08,1.5,21.8423,M,31.96,M,3,0000*63
[2021-01-06 11:10:39.701] $GPGGA,020825.30,4304.1667595,N,14120.4310956,E,5,08,1.5,21.8451,M,31.96,M,3,0000*69
[2021-01-06 11:10:39.795] $GPGGA,020825.40,4304.1667608,N,14120.4310959,E,5,08,1.5,21.8466,M,31.96,M,3,0000*62
[2021-01-06 11:10:39.904] $GPGGA,020825.50,4304.1667615,N,14120.4310952,E,5,08,1.5,21.8479,M,31.96,M,3,0000*6A
[2021-01-06 11:10:39.998] $GPGGA,020825.60,4304.1667618,N,14120.4310958,E,5,08,1.5,21.8488,M,31.96,M,3,0000*60
[2021-01-06 11:10:40.092] $GPGGA,020825.70,4304.1667624,N,14120.4310953,E,5,08,1.5,21.8487,M,31.96,M,3,0000*6A
[2021-01-06 11:10:40.201] $GPGGA,020825.80,4304.1667631,N,14120.4310957,E,5,08,1.5,21.8493,M,31.96,M,3,0000*60
[2021-01-06 11:10:40.295] $GPGGA,020825.90,4304.1667638,N,14120.4310957,E,5,08,1.5,21.8474,M,31.96,M,3,0000*61
[2021-01-06 11:10:40.404] $GPGGA,020826.00,4304.1667643,N,14120.4310958,E,5,08,1.5,21.8471,M,31.96,M,4,0000*6A
[2021-01-06 11:10:40.498] $GPGGA,020826.10,4304.1667650,N,14120.4310964,E,5,08,1.5,21.8492,M,31.96,M,4,0000*6B
[2021-01-06 11:10:40.607] $GPGGA,020826.20,4304.1667651,N,14120.4310959,E,5,08,1.5,21.8500,M,31.96,M,4,0000*6D
[2021-01-06 11:10:40.701] $GPGGA,020826.30,4304.1667664,N,14120.4310958,E,5,08,1.5,21.8499,M,31.96,M,4,0000*6A
[2021-01-06 11:10:40.795] $GPGGA,020826.40,4304.1667668,N,14120.4310959,E,5,08,1.5,21.8489,M,31.96,M,4,0000*61
[2021-01-06 11:10:40.904] $GPGGA,020826.50,4304.1667673,N,14120.4310960,E,5,08,1.5,21.8500,M,31.96,M,4,0000*60
[2021-01-06 11:10:40.998] $GPGGA,020826.60,4304.1667679,N,14120.4310961,E,5,08,1.5,21.8500,M,31.96,M,4,0000*68
[2021-01-06 11:10:41.092] $GPGGA,020826.70,4304.1667685,N,14120.4310964,E,5,08,1.5,21.8504,M,31.96,M,4,0000*6B
[2021-01-06 11:10:41.201] $GPGGA,020826.80,4304.1667682,N,14120.4310964,E,5,08,1.5,21.8493,M,31.96,M,4,0000*6C
[2021-01-06 11:10:41.295] $GPGGA,020826.90,4304.1667686,N,14120.4310967,E,5,08,1.5,21.8497,M,31.96,M,4,0000*6E
[2021-01-06 11:10:41.404] $GPGGA,020827.00,4304.1667688,N,14120.4310964,E,5,08,1.5,21.8472,M,31.96,M,5,0000*61
[2021-01-06 11:10:41.498] $GPGGA,020827.10,4304.1667695,N,14120.4310963,E,5,08,1.5,21.8482,M,31.96,M,5,0000*64
[2021-01-06 11:10:41.591] $GPGGA,020827.20,4304.1667703,N,14120.4310970,E,5,08,1.5,21.8481,M,31.96,M,5,0000*68
[2021-01-06 11:10:41.701] $GPGGA,020827.30,4304.1667709,N,14120.4310971,E,5,08,1.5,21.8468,M,31.96,M,5,0000*65
