,Format,Time,Latitude,LatType,Longitude,LonType,Status,Satellite,LevelAccuracy,Altitude(sea),M(sea),Altitude(geoid),M(geoid),DGPS use,checksum,Lat,Lon,UTM_X,UTM_Y
1200,[2021-01-29 10:50:21.099] $GPGGA,15019.7,4327.758489899999,N,14148.3116701,E,4,11,1.0,113.5638,M,31.83,M,2.0,0000*5C,43.462641498333326,141.80519450166668,565135.64879274,4812507.276541822
1201,[2021-01-29 10:50:21.208] $GPGGA,15019.8,4327.758489899999,N,14148.3116707,E,4,11,1.0,113.5628,M,31.83,M,2.0,0000*54,43.462641498333326,141.8051945116667,565135.6496016877,4812507.276549641
1202,[2021-01-29 10:50:21.288] $GPGGA,15019.9,4327.7584902,N,14148.311670200002,E,4,11,1.0,113.5653,M,31.83,M,2.0,0000*5F,43.46264150333334,141.80519450333335,565135.6489221955,4812507.277098415
1203,[2021-01-29 10:50:21.397] $GPGGA,15020.0,4327.7584902,N,14148.3116706,E,4,11,1.0,113.5641,M,31.83,M,3.0,0000*5A,43.46264150333334,141.80519451,565135.6494614934,4812507.277103628
1204,[2021-01-29 10:50:21.506] $GPGGA,15020.1,4327.758489399999,N,14148.311670200002,E,4,11,1.0,113.5645,M,31.83,M,3.0,0000*55,43.46264148999999,141.80519450333335,565135.6489365111,4812507.275617641
1205,[2021-01-29 10:50:21.600] $GPGGA,15020.2,4327.7584901,N,14148.311670299998,E,4,11,1.0,113.5637,M,31.83,M,3.0,0000*5F,43.46264150166666,141.80519450499997,565135.649058807,4812507.276914621
1206,[2021-01-29 10:50:21.694] $GPGGA,15020.3,4327.758490300001,N,14148.3116706,E,4,11,1.0,113.5636,M,31.83,M,3.0,0000*58,43.46264150500001,141.80519451,565135.649459704,4812507.277288726
1207,[2021-01-29 10:50:21.803] $GPGGA,15020.4,4327.758489600001,N,14148.3116706,E,4,11,1.0,113.5638,M,31.83,M,3.0,0000*5C,43.462641493333344,141.80519451,565135.64947223,4812507.27599305
1208,[2021-01-29 10:50:21.897] $GPGGA,15020.5,4327.7584898000005,N,14148.3116707,E,4,11,1.0,113.5652,M,31.83,M,3.0,0000*5E,43.46264149666668,141.8051945116667,565135.6496034771,4812507.276364547
1209,[2021-01-29 10:50:21.991] $GPGGA,15020.6,4327.7584897,N,14148.311671000001,E,4,11,1.0,113.5646,M,31.83,M,3.0,0000*51,43.46264149499999,141.8051945166667,565135.6500097383,4812507.276183359
1210,[2021-01-29 10:50:22.100] $GPGGA,15020.7,4327.758489399999,N,14148.3116707,E,4,11,1.0,113.5641,M,31.83,M,3.0,0000*52,43.46264148999999,141.8051945116667,565135.6496106349,4812507.27562416
1211,[2021-01-29 10:50:22.194] $GPGGA,15020.8,4327.7584905,N,14148.311670200002,E,4,11,1.0,113.5613,M,31.83,M,3.0,0000*56,43.46264150833334,141.80519450333335,565135.6489168273,4812507.277653704
1212,[2021-01-29 10:50:22.305] $GPGGA,15020.9,4327.7584898000005,N,14148.3116701,E,4,11,1.0,113.5603,M,31.83,M,3.0,0000*50,43.46264149666668,141.80519450166668,565135.6487945295,4812507.276356726
1213,[2021-01-29 10:50:22.398] $GPGGA,15021.0,4327.7584898000005,N,14148.311671000001,E,4,11,1.0,113.5606,M,31.83,M,4.0,0000*5A,43.46264149666668,141.8051945166667,565135.6500079489,4812507.276368457
1214,[2021-01-29 10:50:22.508] $GPGGA,15021.1,4327.758490300001,N,14148.311671000001,E,4,11,1.0,113.5591,M,31.83,M,4.0,0000*55,43.46264150500001,141.8051945166667,565135.6499990016,4812507.277293939
1215,[2021-01-29 10:50:22.601] $GPGGA,15021.2,4327.7584906,N,14148.3116707,E,4,11,1.0,113.5587,M,31.83,M,4.0,0000*52,43.462641510000005,141.8051945116667,565135.6495891615,4812507.277845318
1216,[2021-01-29 10:50:22.695] $GPGGA,15021.3,4327.7584904,N,14148.3116708,E,4,11,1.0,113.5597,M,31.83,M,4.0,0000*5F,43.46264150666666,141.80519451333336,565135.6497275643,4812507.277476427
1217,[2021-01-29 10:50:22.789] $GPGGA,15021.4,4327.7584898000005,N,14148.311671200001,E,4,11,1.0,113.5614,M,31.83,M,4.0,0000*5F,43.46264149666668,141.80519452,565135.6502775946,4812507.276371064
1218,[2021-01-29 10:50:22.898] $GPGGA,15021.5,4327.7584904,N,14148.311670899999,E,4,11,1.0,113.5609,M,31.83,M,4.0,0000*5C,43.46264150666666,141.805194515,565135.6498623862,4812507.277477731
1219,[2021-01-29 10:50:22.992] $GPGGA,15021.6,4327.7584904,N,14148.311670899999,E,4,11,1.0,113.5602,M,31.83,M,4.0,0000*54,43.46264150666666,141.805194515,565135.6498623862,4812507.277477731
1220,[2021-01-29 10:50:23.101] $GPGGA,15021.7,4327.7584908,N,14148.3116708,E,4,11,1.0,113.5591,M,31.83,M,4.0,0000*51,43.46264151333334,141.80519451333336,565135.6497204065,4812507.278216816
1221,[2021-01-29 10:50:23.195] $GPGGA,15021.8,4327.7584902,N,14148.311671200001,E,4,11,1.0,113.558,M,31.83,M,4.0,0000*5F,43.46264150333334,141.80519452,565135.6502704368,4812507.277111449
1222,[2021-01-29 10:50:23.306] $GPGGA,15021.9,4327.758491,N,14148.311671200001,E,4,11,1.0,113.5582,M,31.83,M,4.0,0000*5F,43.46264151666666,141.80519452,565135.6502561213,4812507.27859222
1223,[2021-01-29 10:50:23.400] $GPGGA,15022.0,4327.7584909,N,14148.311671399999,E,4,11,1.0,113.5585,M,31.83,M,5.0,0000*5D,43.462641514999994,141.80519452333328,565135.6505275565,4812507.278409732
1224,[2021-01-29 10:50:23.494] $GPGGA,15022.1,4327.7584904,N,14148.311671599999,E,4,11,1.0,113.5596,M,31.83,M,5.0,0000*51,43.46264150666666,141.80519452666664,565135.6508061537,4812507.277486854
1225,[2021-01-29 10:50:23.588] $GPGGA,15022.2,4327.7584904,N,14148.3116715,E,4,11,1.0,113.5582,M,31.83,M,5.0,0000*54,43.46264150666666,141.805194525,565135.6506713318,4812507.277485551
1226,[2021-01-29 10:50:23.697] $GPGGA,15022.3,4327.758491,N,14148.3116718,E,4,11,1.0,113.5569,M,31.83,M,5.0,0000*58,43.46264151666666,141.80519453,565135.6510650668,4812507.27860004
1227,[2021-01-29 10:50:23.791] $GPGGA,15022.4,4327.7584905,N,14148.311671200001,E,4,11,1.0,113.5592,M,31.83,M,5.0,0000*55,43.46264150833334,141.80519452,565135.6502650685,4812507.277666739
1228,[2021-01-29 10:50:23.900] $GPGGA,15022.5,4327.7584912,N,14148.311672100002,E,4,11,1.0,113.5576,M,31.83,M,5.0,0000*58,43.462641520000005,141.80519453500003,565135.6514659638,4812507.278974147
1229,[2021-01-29 10:50:23.994] $GPGGA,15022.6,4327.758491,N,14148.3116713,E,4,11,1.0,113.5569,M,31.83,M,5.0,0000*56,43.46264151666666,141.80519452166664,565135.6503909432,4812507.278593523
1230,[2021-01-29 10:50:24.103] $GPGGA,15022.7,4327.7584904,N,14148.311670899999,E,4,11,1.0,113.5584,M,31.83,M,5.0,0000*5A,43.46264150666666,141.805194515,565135.6498623862,4812507.277477731
1231,[2021-01-29 10:50:24.197] $GPGGA,15022.8,4327.7584907,N,14148.311671000001,E,4,11,1.0,113.5573,M,31.83,M,5.0,0000*56,43.46264151166666,141.8051945166667,565135.6499918438,4812507.278034324
1232,[2021-01-29 10:50:24.292] $GPGGA,15022.9,4327.7584914,N,14148.3116725,E,4,11,1.0,113.5577,M,31.83,M,5.0,0000*57,43.46264152333334,141.80519454166668,565135.6520016827,4812507.2793495525
1233,[2021-01-29 10:50:24.402] $GPGGA,15023.0,4327.7584913,N,14148.311672,E,4,11,1.0,113.558,M,31.83,M,6.0,0000*56,43.46264152166666,141.80519453333332,565135.6513293483,4812507.279157938
1234,[2021-01-29 10:50:24.496] $GPGGA,15023.1,4327.7584908,N,14148.311671399999,E,4,11,1.0,113.5576,M,31.83,M,6.0,0000*53,43.46264151333334,141.80519452333328,565135.650529346,4812507.278224635
1235,[2021-01-29 10:50:24.605] $GPGGA,15023.2,4327.7584959,N,14148.3116766,E,4,11,1.0,113.5513,M,31.83,M,1.0,0000*55,43.46264159833333,141.80519461,565135.6574489526,4812507.287732337
1236,[2021-01-29 10:50:24.699] $GPGGA,15023.3,4327.758497999999,N,14148.3116789,E,4,11,1.0,113.5458,M,31.83,M,1.0,0000*5F,43.46264163333332,141.80519464833336,565135.6605123366,4812507.291649342
1237,[2021-01-29 10:50:24.793] $GPGGA,15023.4,4327.758497999999,N,14148.3116775,E,4,11,1.0,113.5438,M,31.83,M,1.0,0000*5D,43.46264163333332,141.80519462499998,565135.6586247935,4812507.291631094
1238,[2021-01-29 10:50:24.886] $GPGGA,15023.5,4327.758497600001,N,14148.3116775,E,4,11,1.0,113.5407,M,31.83,M,1.0,0000*59,43.46264162666668,141.80519462499998,565135.6586319513,4812507.290890711
1239,[2021-01-29 10:50:24.996] $GPGGA,15023.6,4327.7584978,N,14148.311678,E,4,11,1.0,113.5399,M,31.83,M,1.0,0000*5E,43.462641630000014,141.80519463333331,565135.6593024919,4812507.291267421
1240,[2021-01-29 10:50:25.089] $GPGGA,15023.7,4327.758497600001,N,14148.311678100003,E,4,11,1.0,113.541,M,31.83,M,1.0,0000*56,43.46264162666668,141.80519463500005,565135.6594409009,4812507.290898532
1241,[2021-01-29 10:50:25.199] $GPGGA,15023.8,4327.7584977,N,14148.311677700001,E,4,11,1.0,113.541,M,31.83,M,1.0,0000*51,43.46264162833333,141.80519462833337,565135.6588998138,4812507.291078412
1242,[2021-01-29 10:50:25.294] $GPGGA,15023.9,4327.7584975,N,14148.3116778,E,4,11,1.0,113.5428,M,31.83,M,1.0,0000*56,43.462641624999996,141.80519463000002,565135.6590382146,4812507.290709522
1243,[2021-01-29 10:50:25.403] $GPGGA,15024.0,4327.7584971999995,N,14148.3116771,E,4,11,1.0,113.5428,M,31.83,M,2.0,0000*55,43.462641619999985,141.80519461833333,565135.6580998114,4812507.2901451085
1244,[2021-01-29 10:50:25.497] $GPGGA,15024.1,4327.758497600001,N,14148.311677599999,E,4,11,1.0,113.5426,M,31.83,M,2.0,0000*59,43.46264162666668,141.80519462666663,565135.6587667732,4812507.290892014
1245,[2021-01-29 10:50:25.590] $GPGGA,15024.2,4327.7584973,N,14148.311678,E,4,11,1.0,113.5428,M,31.83,M,2.0,0000*58,43.46264162166667,141.80519463333331,565135.6593114393,4812507.290341937
1246,[2021-01-29 10:50:25.700] $GPGGA,15024.3,4327.7584974,N,14148.311678600001,E,4,11,1.0,113.5427,M,31.83,M,2.0,0000*57,43.46264162333333,141.80519464333335,565135.6601185994,4812507.290534854
1247,[2021-01-29 10:50:25.794] $GPGGA,15024.4,4327.7584973,N,14148.311678100003,E,4,11,1.0,113.5419,M,31.83,M,2.0,0000*5D,43.46264162166667,141.80519463500005,565135.6594462693,4812507.29034324
1248,[2021-01-29 10:50:25.903] $GPGGA,15024.5,4327.758497,N,14148.3116778,E,4,11,1.0,113.5414,M,31.83,M,2.0,0000*54,43.462641616666666,141.80519463000002,565135.6590471618,4812507.28978404
1249,[2021-01-29 10:50:25.997] $GPGGA,15024.6,4327.758497899999,N,14148.3116779,E,4,11,1.0,113.5419,M,31.83,M,2.0,0000*52,43.46264163166666,141.80519463166667,565135.6591658806,4812507.291451211
1250,[2021-01-29 10:50:26.106] $GPGGA,15024.7,4327.7584978,N,14148.3116775,E,4,11,1.0,113.5409,M,31.83,M,2.0,0000*5F,43.462641630000014,141.80519462499998,565135.6586283724,4812507.291260903
1251,[2021-01-29 10:50:26.200] $GPGGA,15024.8,4327.7584971,N,14148.3116775,E,4,11,1.0,113.541,M,31.83,M,2.0,0000*51,43.46264161833333,141.80519462499998,565135.6586408985,4812507.289965226
1252,[2021-01-29 10:50:26.310] $GPGGA,15024.9,4327.758497600001,N,14148.311677200001,E,4,11,1.0,113.5388,M,31.83,M,2.0,0000*56,43.46264162666668,141.80519462000004,565135.6582274816,4812507.290886802
1253,[2021-01-29 10:50:26.403] $GPGGA,15025.0,4327.7584977,N,14148.311677000002,E,4,11,1.0,113.5376,M,31.83,M,3.0,0000*5D,43.46264162833333,141.80519461666668,565135.6579560422,4812507.291069288
1254,[2021-01-29 10:50:26.497] $GPGGA,15025.1,4327.7584975,N,14148.3116779,E,4,11,1.0,113.5388,M,31.83,M,3.0,0000*56,43.462641624999996,141.80519463166667,565135.6591730386,4812507.2907108255
1255,[2021-01-29 10:50:26.591] $GPGGA,15025.2,4327.7584971999995,N,14148.3116775,E,4,11,1.0,113.5389,M,31.83,M,3.0,0000*5F,43.462641619999985,141.80519462499998,565135.6586391091,4812507.290150322
1256,[2021-01-29 10:50:26.700] $GPGGA,15025.3,4327.7584971999995,N,14148.3116771,E,4,11,1.0,113.5391,M,31.83,M,3.0,0000*53,43.462641619999985,141.80519461833333,565135.6580998114,4812507.2901451085
1257,[2021-01-29 10:50:26.794] $GPGGA,15025.4,4327.7584971,N,14148.3116773,E,4,11,1.0,113.5402,M,31.83,M,3.0,0000*58,43.46264161833333,141.8051946216667,565135.6583712527,4812507.28996262
1258,[2021-01-29 10:50:26.903] $GPGGA,15025.5,4327.758497,N,14148.311677200001,E,4,11,1.0,113.541,M,31.83,M,3.0,0000*5A,43.462641616666666,141.80519462000004,565135.6582382183,4812507.289776219
1259,[2021-01-29 10:50:26.997] $GPGGA,15025.6,4327.7584967,N,14148.311677599999,E,4,11,1.0,113.5404,M,31.83,M,3.0,0000*5E,43.46264161166667,141.80519462666663,565135.6587828782,4812507.289226144
1260,[2021-01-29 10:50:27.107] $GPGGA,15025.7,4327.7584975,N,14148.3116779,E,4,11,1.0,113.5394,M,31.83,M,3.0,0000*5D,43.462641624999996,141.80519463166667,565135.6591730386,4812507.2907108255
1261,[2021-01-29 10:50:27.185] $GPGGA,15025.8,4327.7584969,N,14148.3116773,E,4,11,1.0,113.5399,M,31.83,M,3.0,0000*58,43.462641615,141.8051946216667,565135.6583748317,4812507.289592426
1262,[2021-01-29 10:50:27.296] $GPGGA,15025.9,4327.7584968,N,14148.311677700001,E,4,11,1.0,113.5403,M,31.83,M,3.0,0000*58,43.46264161333333,141.80519462833337,565135.6589159188,4812507.289412544
1263,[2021-01-29 10:50:27.405] $GPGGA,15026.0,4327.7584969,N,14148.311678400001,E,4,11,1.0,113.5412,M,31.83,M,4.0,0000*58,43.462641615,141.80519464,565135.6598578969,4812507.289606763
1264,[2021-01-29 10:50:27.499] $GPGGA,15026.1,4327.758497,N,14148.3116768,E,4,11,1.0,113.5393,M,31.83,M,4.0,0000*5D,43.462641616666666,141.80519461333333,565135.6576989165,4812507.289771005
1265,[2021-01-29 10:50:27.593] $GPGGA,15026.2,4327.758497,N,14148.311677000002,E,4,11,1.0,113.5394,M,31.83,M,4.0,0000*50,43.462641616666666,141.80519461666668,565135.6579685684,4812507.289773612
1266,[2021-01-29 10:50:27.702] $GPGGA,15026.3,4327.7584973,N,14148.3116778,E,4,11,1.0,113.5397,M,31.83,M,4.0,0000*59,43.46264162166667,141.80519463000002,565135.6590417934,4812507.29033933
1267,[2021-01-29 10:50:27.796] $GPGGA,15026.4,4327.7584964,N,14148.311676899999,E,4,11,1.0,113.5385,M,31.83,M,4.0,0000*5B,43.462641606666665,141.80519461499998,565135.6578444771,4812507.2886617305
1268,[2021-01-29 10:50:27.905] $GPGGA,15026.5,4327.7584968,N,14148.3116774,E,4,11,1.0,113.5394,M,31.83,M,4.0,0000*5A,43.46264161333333,141.80519462333334,565135.658511443,4812507.2894086335
1269,[2021-01-29 10:50:27.999] $GPGGA,15026.6,4327.7584973,N,14148.311678299999,E,4,11,1.0,113.5397,M,31.83,M,4.0,0000*58,43.46264162166667,141.80519463833332,565135.659715913,4812507.290345848
1270,[2021-01-29 10:50:28.108] $GPGGA,15026.7,4327.7584971999995,N,14148.311677200001,E,4,11,1.0,113.539,M,31.83,M,4.0,0000*51,43.462641619999985,141.80519462000004,565135.6582346394,4812507.290146412
1271,[2021-01-29 10:50:28.202] $GPGGA,15026.8,4327.7584964,N,14148.311676199999,E,4,11,1.0,113.5383,M,31.83,M,4.0,0000*5A,43.462641606666665,141.8051946033333,565135.6569007055,4812507.288652605
1272,[2021-01-29 10:50:28.297] $GPGGA,15026.9,4327.758496500001,N,14148.311676899999,E,4,11,1.0,113.5369,M,31.83,M,4.0,0000*55,43.462641608333335,141.80519461499998,565135.6578426876,4812507.288846826
1273,[2021-01-29 10:50:28.407] $GPGGA,15027.0,4327.7584967,N,14148.311676700003,E,4,11,1.0,113.5365,M,31.83,M,5.0,0000*5C,43.46264161166667,141.80519461166674,565135.6575694671,4812507.289214414
1274,[2021-01-29 10:50:28.500] $GPGGA,15027.1,4327.7584971,N,14148.311677200001,E,4,11,1.0,113.5374,M,31.83,M,5.0,0000*5E,43.46264161833333,141.80519462000004,565135.6582364289,4812507.289961315
1275,[2021-01-29 10:50:28.594] $GPGGA,15027.2,4327.7584967,N,14148.3116766,E,4,11,1.0,113.5372,M,31.83,M,5.0,0000*59,43.46264161166667,141.80519461,565135.657434637,4812507.289213109
1276,[2021-01-29 10:50:28.704] $GPGGA,15027.3,4327.7584968,N,14148.311676199999,E,4,11,1.0,113.5364,M,31.83,M,5.0,0000*54,43.46264161333333,141.8051946033333,565135.6568935477,4812507.289392992
1277,[2021-01-29 10:50:28.797] $GPGGA,15027.4,4327.758497,N,14148.311676899999,E,4,11,1.0,113.5373,M,31.83,M,5.0,0000*57,43.462641616666666,141.80519461499998,565135.6578337403,4812507.2897723075
1278,[2021-01-29 10:50:28.891] $GPGGA,15027.5,4327.7584971,N,14148.3116771,E,4,11,1.0,113.537,M,31.83,M,5.0,0000*5D,43.46264161833333,141.80519461833333,565135.6581016008,4812507.289960012
1279,[2021-01-29 10:50:29.000] $GPGGA,15027.6,4327.7584967,N,14148.3116759,E,4,11,1.0,113.5374,M,31.83,M,5.0,0000*57,43.46264161166667,141.80519459833334,565135.6564908675,4812507.289203985
1280,[2021-01-29 10:50:29.094] $GPGGA,15027.7,4327.7584966,N,14148.311675799998,E,4,11,1.0,113.5375,M,31.83,M,5.0,0000*57,43.46264161000001,141.8051945966666,565135.6563578268,4812507.289017586
1281,[2021-01-29 10:50:29.188] $GPGGA,15027.8,4327.7584973,N,14148.3116766,E,4,11,1.0,113.5364,M,31.83,M,5.0,0000*51,43.46264162166667,141.80519461,565135.6574239002,4812507.290323689
1282,[2021-01-29 10:50:29.299] $GPGGA,15027.9,4327.7584971,N,14148.311675799998,E,4,11,1.0,113.5373,M,31.83,M,5.0,0000*59,43.46264161833333,141.8051945966666,565135.6563488796,4812507.289943067
1283,[2021-01-29 10:50:29.393] $GPGGA,15028.0,4327.758497,N,14148.3116761,E,4,11,1.0,113.5382,M,31.83,M,6.0,0000*59,43.462641616666666,141.80519460166664,565135.6567551449,4812507.289761881
1284,[2021-01-29 10:50:29.502] $GPGGA,15028.1,4327.7584977,N,14148.3116764,E,4,11,1.0,113.5377,M,31.83,M,6.0,0000*50,43.46264162833333,141.8051946066667,565135.6571470967,4812507.291061468
1285,[2021-01-29 10:50:29.596] $GPGGA,15028.2,4327.7584975,N,14148.3116774,E,4,11,1.0,113.5389,M,31.83,M,1.0,0000*56,43.462641624999996,141.80519462333334,565135.6584989168,4812507.29070431
1286,[2021-01-29 10:50:29.705] $GPGGA,15028.3,4327.758497999999,N,14148.3116771,E,4,11,1.0,113.5374,M,31.83,M,1.0,0000*5A,43.46264163333332,141.80519461833333,565135.6580854958,4812507.29162588
1287,[2021-01-29 10:50:29.799] $GPGGA,15028.4,4327.758498300001,N,14148.3116782,E,4,11,1.0,113.5387,M,31.83,M,1.0,0000*5E,43.46264163833334,141.80519463666667,565135.6595631967,4812507.29219551
1288,[2021-01-29 10:50:29.908] $GPGGA,15028.5,4327.758497999999,N,14148.311676899999,E,4,11,1.0,113.5393,M,31.83,M,1.0,0000*5C,43.46264163333332,141.80519461499998,565135.6578158459,4812507.291623273
1289,[2021-01-29 10:50:29.987] $GPGGA,15028.6,4327.7584987,N,14148.311677700001,E,4,11,1.0,113.5388,M,31.83,M,1.0,0000*5D,43.462641645,141.80519462833337,565135.6588819193,4812507.292929377
1290,[2021-01-29 10:50:30.096] $GPGGA,15028.7,4327.7584978,N,14148.3116766,E,4,11,1.0,113.5379,M,31.83,M,1.0,0000*52,43.462641630000014,141.80519461,565135.657414953,4812507.291249174
1291,[2021-01-29 10:50:30.190] $GPGGA,15028.8,4327.758497999999,N,14148.3116764,E,4,11,1.0,113.5388,M,31.83,M,1.0,0000*56,43.46264163333332,141.8051946066667,565135.6571417283,4812507.291616756
1292,[2021-01-29 10:50:30.302] $GPGGA,15028.9,4327.7584987,N,14148.311676899999,E,4,11,1.0,113.5374,M,31.83,M,1.0,0000*5E,43.462641645,141.80519461499998,565135.6578033197,4812507.29291895
1293,[2021-01-29 10:50:30.395] $GPGGA,15029.0,4327.7584982,N,14148.311676700003,E,4,11,1.0,113.5394,M,31.83,M,2.0,0000*50,43.46264163666667,141.80519461166674,565135.6575426253,4812507.291990861
1294,[2021-01-29 10:50:30.505] $GPGGA,15029.1,4327.7584984,N,14148.3116778,E,4,11,1.0,113.5371,M,31.83,M,2.0,0000*52,43.46264163999999,141.80519463000002,565135.6590221096,4812507.29237539
1295,[2021-01-29 10:50:30.583] $GPGGA,15029.2,4327.7584990000005,N,14148.311676899999,E,4,11,1.0,113.5355,M,31.83,M,2.0,0000*52,43.462641650000016,141.80519461499998,565135.6577979515,4812507.293474241
1296,[2021-01-29 10:50:30.692] $GPGGA,15029.3,4327.7584977,N,14148.311677000002,E,4,11,1.0,113.5371,M,31.83,M,2.0,0000*54,43.46264162833333,141.80519461666668,565135.6579560422,4812507.291069288
1297,[2021-01-29 10:50:30.786] $GPGGA,15029.4,4327.758498100001,N,14148.3116778,E,4,11,1.0,113.5368,M,31.83,M,2.0,0000*5A,43.46264163500002,141.80519463000002,565135.6590274778,4812507.291820103
1298,[2021-01-29 10:50:30.895] $GPGGA,15029.5,4327.758498800001,N,14148.311678600001,E,4,11,1.0,113.5355,M,31.83,M,2.0,0000*5D,43.46264164666668,141.80519464333335,565135.6600935472,4812507.293126208
1299,[2021-01-29 10:50:31.005] $GPGGA,15029.6,4327.7584996000005,N,14148.3116779,E,4,11,1.0,113.5349,M,31.83,M,2.0,0000*5C,43.46264166,141.80519463166667,565135.6591354602,4812507.294597854
1300,[2021-01-29 10:50:31.098] $GPGGA,15029.7,4327.7584990000005,N,14148.3116771,E,4,11,1.0,113.5351,M,31.83,M,2.0,0000*5A,43.462641650000016,141.80519461833333,565135.6580676013,4812507.293476848
1301,[2021-01-29 10:50:31.192] $GPGGA,15029.8,4327.7584986,N,14148.3116774,E,4,11,1.0,113.535,M,31.83,M,2.0,0000*56,43.462641643333335,141.80519462333334,565135.6584792329,4812507.292740372
1302,[2021-01-29 10:50:31.303] $GPGGA,15029.9,4327.758498800001,N,14148.3116778,E,4,11,1.0,113.5356,M,31.83,M,2.0,0000*53,43.46264164666668,141.80519463000002,565135.6590149518,4812507.293115781
1303,[2021-01-29 10:50:31.397] $GPGGA,15030.0,4327.758498800001,N,14148.3116773,E,4,11,1.0,113.5349,M,31.83,M,3.0,0000*56,43.46264164666668,141.8051946216667,565135.6583408321,4812507.293109263
1304,[2021-01-29 10:50:31.490] $GPGGA,15030.1,4327.758498899999,N,14148.3116778,E,4,11,1.0,113.5365,M,31.83,M,3.0,0000*53,43.46264164833332,141.80519463000002,565135.6590131624,4812507.293300873
1305,[2021-01-29 10:50:31.600] $GPGGA,15030.2,4327.7584987,N,14148.3116774,E,4,11,1.0,113.5371,M,31.83,M,3.0,0000*57,43.462641645,141.80519462333334,565135.6584774435,4812507.292925467
1306,[2021-01-29 10:50:31.693] $GPGGA,15030.3,4327.7584986,N,14148.3116778,E,4,11,1.0,113.536,M,31.83,M,3.0,0000*5B,43.462641643333335,141.80519463000002,565135.6590185306,4812507.292745586
1307,[2021-01-29 10:50:31.803] $GPGGA,15030.4,4327.758498300001,N,14148.3116774,E,4,11,1.0,113.5367,M,31.83,M,3.0,0000*52,43.46264163833334,141.80519462333334,565135.6584846013,4812507.292185082
1308,[2021-01-29 10:50:31.896] $GPGGA,15030.5,4327.758498100001,N,14148.3116759,E,4,11,1.0,113.5374,M,31.83,M,3.0,0000*5C,43.46264163500002,141.80519459833334,565135.6564658153,4812507.291795338
1309,[2021-01-29 10:50:31.990] $GPGGA,15030.6,4327.7584982,N,14148.311677000002,E,4,11,1.0,113.5359,M,31.83,M,3.0,0000*58,43.46264163666667,141.80519461666668,565135.657947095,4812507.291994771
1310,[2021-01-29 10:50:32.100] $GPGGA,15030.7,4327.7584984,N,14148.3116774,E,4,11,1.0,113.5349,M,31.83,M,3.0,0000*5A,43.46264163999999,141.80519462333334,565135.6584828119,4812507.292370178
1311,[2021-01-29 10:50:32.193] $GPGGA,15030.8,4327.7584991,N,14148.3116773,E,4,11,1.0,113.5331,M,31.83,M,3.0,0000*59,43.46264165166667,141.8051946216667,565135.6583354638,4812507.29366455
1312,[2021-01-29 10:50:32.288] $GPGGA,15030.9,4327.758498300001,N,14148.3116766,E,4,11,1.0,113.533,M,31.83,M,3.0,0000*5E,43.46264163833334,141.80519461,565135.6574060058,4812507.292174655
1313,[2021-01-29 10:50:32.398] $GPGGA,15031.0,4327.758498100001,N,14148.311677200001,E,4,11,1.0,113.5328,M,31.83,M,4.0,0000*5F,43.46264163500002,141.80519462000004,565135.6582185343,4812507.291812283
1314,[2021-01-29 10:50:32.491] $GPGGA,15031.1,4327.758498800001,N,14148.311677000002,E,4,11,1.0,113.5332,M,31.83,M,4.0,0000*5E,43.46264164666668,141.80519461666668,565135.6579363584,4812507.293105353
1315,[2021-01-29 10:50:32.601] $GPGGA,15031.2,4327.758497899999,N,14148.3116771,E,4,11,1.0,113.5358,M,31.83,M,4.0,0000*5E,43.46264163166666,141.80519461833333,565135.6580872852,4812507.291440785
1316,[2021-01-29 10:50:32.695] $GPGGA,15031.3,4327.758498100001,N,14148.3116771,E,4,11,1.0,113.5363,M,31.83,M,4.0,0000*50,43.46264163500002,141.80519461833333,565135.6580837064,4812507.291810979
1317,[2021-01-29 10:50:32.788] $GPGGA,15031.4,4327.7584978,N,14148.3116768,E,4,11,1.0,113.5361,M,31.83,M,4.0,0000*5B,43.462641630000014,141.80519461333333,565135.6576846009,4812507.2912517795
1318,[2021-01-29 10:50:32.898] $GPGGA,15031.5,4327.758497999999,N,14148.311677200001,E,4,11,1.0,113.536,M,31.83,M,4.0,0000*57,43.46264163333332,141.80519462000004,565135.6582203239,4812507.291627184
1319,[2021-01-29 10:50:32.991] $GPGGA,15031.6,4327.7584991,N,14148.3116773,E,4,11,1.0,113.5337,M,31.83,M,4.0,0000*57,43.46264165166667,141.8051946216667,565135.6583354638,4812507.29366455
1320,[2021-01-29 10:50:33.101] $GPGGA,15031.7,4327.7584991,N,14148.311677000002,E,4,11,1.0,113.5338,M,31.83,M,4.0,0000*5A,43.46264165166667,141.80519461666668,565135.65793099,4812507.29366064
1321,[2021-01-29 10:50:33.195] $GPGGA,15031.8,4327.7584986,N,14148.311677000002,E,4,11,1.0,113.535,M,31.83,M,4.0,0000*5D,43.462641643333335,141.80519461666668,565135.6579399372,4812507.292735158
1322,[2021-01-29 10:50:33.305] $GPGGA,15031.9,4327.7584975,N,14148.311676700003,E,4,11,1.0,113.5353,M,31.83,M,4.0,0000*55,43.462641624999996,141.80519461166674,565135.6575551515,4812507.290695185
1323,[2021-01-29 10:50:33.399] $GPGGA,15032.0,4327.7584977,N,14148.311676700003,E,4,11,1.0,113.5355,M,31.83,M,5.0,0000*5A,43.46264162833333,141.80519461166674,565135.6575515725,4812507.291065377
1324,[2021-01-29 10:50:33.493] $GPGGA,15032.1,4327.7584974,N,14148.311676499998,E,4,11,1.0,113.5355,M,31.83,M,5.0,0000*5A,43.46264162333333,141.8051946083333,565135.6572872848,4812507.290507482
1325,[2021-01-29 10:50:33.587] $GPGGA,15032.2,4327.758497899999,N,14148.311677000002,E,4,11,1.0,113.5348,M,31.83,M,5.0,0000*5C,43.46264163166666,141.80519461666668,565135.6579524634,4812507.291439481
1326,[2021-01-29 10:50:33.696] $GPGGA,15032.3,4327.758497999999,N,14148.311677200001,E,4,11,1.0,113.5341,M,31.83,M,5.0,0000*50,43.46264163333332,141.80519462000004,565135.6582203239,4812507.291627184
1327,[2021-01-29 10:50:33.790] $GPGGA,15032.4,4327.7584974,N,14148.311675799998,E,4,11,1.0,113.5338,M,31.83,M,5.0,0000*5A,43.46264162333333,141.8051945966666,565135.6563435113,4812507.290498358
1328,[2021-01-29 10:50:33.899] $GPGGA,15032.5,4327.7584966,N,14148.311675799998,E,4,11,1.0,113.5348,M,31.83,M,5.0,0000*5F,43.46264161000001,141.8051945966666,565135.6563578268,4812507.289017586
1329,[2021-01-29 10:50:33.993] $GPGGA,15032.6,4327.758497899999,N,14148.3116768,E,4,11,1.0,113.5353,M,31.83,M,5.0,0000*5B,43.46264163166666,141.80519461333333,565135.6576828114,4812507.291436874
1330,[2021-01-29 10:50:34.087] $GPGGA,15032.7,4327.7584977,N,14148.3116768,E,4,11,1.0,113.5345,M,31.83,M,5.0,0000*53,43.46264162833333,141.80519461333333,565135.6576863903,4812507.291066681
1331,[2021-01-29 10:50:34.196] $GPGGA,15032.8,4327.7584975,N,14148.311676299998,E,4,11,1.0,113.5337,M,31.83,M,5.0,0000*50,43.462641624999996,141.80519460499994,565135.6570158434,4812507.290689971
1332,[2021-01-29 10:50:34.292] $GPGGA,15032.9,4327.7584974,N,14148.311676299998,E,4,11,1.0,113.5352,M,31.83,M,5.0,0000*53,43.46264162333333,141.80519460499994,565135.6570176329,4812507.290504875
1333,[2021-01-29 10:50:34.386] $GPGGA,15033.0,4327.7584978,N,14148.311677200001,E,4,11,1.0,113.5346,M,31.83,M,6.0,0000*51,43.462641630000014,141.80519462000004,565135.6582239027,4812507.291256993
1334,[2021-01-29 10:50:34.496] $GPGGA,15033.1,4327.7584984,N,14148.311677599999,E,4,11,1.0,113.5342,M,31.83,M,6.0,0000*53,43.46264163999999,141.80519462666663,565135.6587524576,4812507.292372784
1335,[2021-01-29 10:50:34.589] $GPGGA,15033.2,4327.758498300001,N,14148.311677700001,E,4,11,1.0,113.54,M,31.83,M,1.0,0000*50,43.46264163833334,141.80519462833337,565135.6588890771,4812507.292188993
1336,[2021-01-29 10:50:34.699] $GPGGA,15033.3,4327.758498300001,N,14148.311679100001,E,4,11,1.0,113.5416,M,31.83,M,1.0,0000*5E,43.46264163833334,141.80519465166668,565135.6607766161,4812507.29220724
1337,[2021-01-29 10:50:34.792] $GPGGA,15033.4,4327.758498100001,N,14148.311678,E,4,11,1.0,113.5432,M,31.83,M,1.0,0000*5D,43.46264163500002,141.80519463333331,565135.6592971237,4812507.29182271
1338,[2021-01-29 10:50:34.902] $GPGGA,15033.5,4327.7584977,N,14148.311678100003,E,4,11,1.0,113.5438,M,31.83,M,1.0,0000*5E,43.46264162833333,141.80519463500005,565135.6594391116,4812507.291083626
1339,[2021-01-29 10:50:34.996] $GPGGA,15033.6,4327.7584973,N,14148.3116779,E,4,11,1.0,113.544,M,31.83,M,1.0,0000*51,43.46264162166667,141.80519463166667,565135.6591766174,4812507.290340634
1340,[2021-01-29 10:50:35.105] $GPGGA,15033.7,4327.7584974,N,14148.311677700001,E,4,11,1.0,113.5448,M,31.83,M,1.0,0000*51,43.46264162333333,141.80519462833337,565135.6589051822,4812507.290523123
1341,[2021-01-29 10:50:35.199] $GPGGA,15033.8,4327.7584971999995,N,14148.311677700001,E,4,11,1.0,113.5451,M,31.83,M,1.0,0000*50,43.462641619999985,141.80519462833337,565135.6589087611,4812507.290152929
1342,[2021-01-29 10:50:35.293] $GPGGA,15033.9,4327.7584982,N,14148.311678299999,E,4,11,1.0,113.5434,M,31.83,M,1.0,0000*56,43.46264163666667,141.80519463833332,565135.659699808,4812507.2920117155
1343,[2021-01-29 10:50:35.403] $GPGGA,15034.0,4327.7584977,N,14148.311678299999,E,4,11,1.0,113.5436,M,31.83,M,2.0,0000*53,43.46264162833333,141.80519463833332,565135.6597087553,4812507.291086232
1344,[2021-01-29 10:50:35.496] $GPGGA,15034.1,4327.7584982,N,14148.311678299999,E,4,11,1.0,113.543,M,31.83,M,2.0,0000*5E,43.46264163666667,141.80519463833332,565135.659699808,4812507.2920117155
1345,[2021-01-29 10:50:35.590] $GPGGA,15034.2,4327.758498300001,N,14148.3116778,E,4,11,1.0,113.5427,M,31.83,M,2.0,0000*5E,43.46264163833334,141.80519463000002,565135.659023899,4812507.292190296
1346,[2021-01-29 10:50:35.684] $GPGGA,15034.3,4327.7584978,N,14148.3116778,E,4,11,1.0,113.5416,M,31.83,M,2.0,0000*59,43.462641630000014,141.80519463000002,565135.6590328462,4812507.291264814
1347,[2021-01-29 10:50:35.793] $GPGGA,15034.4,4327.758497899999,N,14148.3116782,E,4,11,1.0,113.5431,M,31.83,M,2.0,0000*5F,43.46264163166666,141.80519463666667,565135.6595703545,4812507.291455123
1348,[2021-01-29 10:50:35.887] $GPGGA,15034.5,4327.758497600001,N,14148.311678600001,E,4,11,1.0,113.5435,M,31.83,M,2.0,0000*51,43.46264162666668,141.80519464333335,565135.6601150206,4812507.290905049
1349,[2021-01-29 10:50:35.996] $GPGGA,15034.6,4327.7584984,N,14148.311678400001,E,4,11,1.0,113.5425,M,31.83,M,2.0,0000*5C,43.46264163999999,141.80519464,565135.6598310551,4812507.292383212
1350,[2021-01-29 10:50:36.090] $GPGGA,15034.7,4327.758498899999,N,14148.311679299999,E,4,11,1.0,113.5425,M,31.83,M,2.0,0000*56,43.46264164833332,141.80519465499998,565135.6610355253,4812507.293320425
1351,[2021-01-29 10:50:36.199] $GPGGA,15034.8,4327.758498300001,N,14148.311678999999,E,4,11,1.0,113.5425,M,31.83,M,2.0,0000*50,43.46264163833334,141.80519465,565135.6606417901,4812507.292205936
1352,[2021-01-29 10:50:36.294] $GPGGA,15034.9,4327.758498300001,N,14148.311678799999,E,4,11,1.0,113.5425,M,31.83,M,2.0,0000*58,43.46264163833334,141.80519464666665,565135.6603721402,4812507.29220333
1353,[2021-01-29 10:50:36.403] $GPGGA,15035.0,4327.7584978,N,14148.3116785,E,4,11,1.0,113.5416,M,31.83,M,3.0,0000*58,43.462641630000014,141.80519464166665,565135.6599766136,4812507.291273938
1354,[2021-01-29 10:50:36.497] $GPGGA,15035.1,4327.7584977,N,14148.3116787,E,4,11,1.0,113.5428,M,31.83,M,3.0,0000*59,43.46264162833333,141.805194645,565135.660248055,4812507.291091446
1355,[2021-01-29 10:50:36.590] $GPGGA,15035.2,4327.7584974,N,14148.311678400001,E,4,11,1.0,113.5423,M,31.83,M,3.0,0000*51,43.46264162333333,141.80519464,565135.6598489496,4812507.290532247
1356,[2021-01-29 10:50:36.700] $GPGGA,15035.3,4327.758497899999,N,14148.311678600001,E,4,11,1.0,113.5414,M,31.83,M,3.0,0000*5B,43.46264163166666,141.80519464333335,565135.6601096522,4812507.291460336
1357,[2021-01-29 10:50:36.794] $GPGGA,15035.4,4327.758498100001,N,14148.311678999999,E,4,11,1.0,113.5415,M,31.83,M,3.0,0000*5D,43.46264163500002,141.80519465,565135.660645369,4812507.291835744
1358,[2021-01-29 10:50:36.903] $GPGGA,15035.5,4327.7584984,N,14148.311679299999,E,4,11,1.0,113.5408,M,31.83,M,3.0,0000*56,43.46264163999999,141.80519465499998,565135.6610444725,4812507.292394942
1359,[2021-01-29 10:50:36.997] $GPGGA,15035.6,4327.758497600001,N,14148.311678,E,4,11,1.0,113.5392,M,31.83,M,3.0,0000*5E,43.46264162666668,141.80519463333331,565135.6593060709,4812507.290897228
1360,[2021-01-29 10:50:37.106] $GPGGA,15035.7,4327.7584974,N,14148.311678600001,E,4,11,1.0,113.541,M,31.83,M,3.0,0000*56,43.46264162333333,141.80519464333335,565135.6601185994,4812507.290534854
1361,[2021-01-29 10:50:37.200] $GPGGA,15035.8,4327.7584978,N,14148.311679100001,E,4,11,1.0,113.5406,M,31.83,M,3.0,0000*54,43.462641630000014,141.80519465166668,565135.6607855633,4812507.291281758
1362,[2021-01-29 10:50:37.295] $GPGGA,15035.9,4327.7584982,N,14148.311678999999,E,4,11,1.0,113.5401,M,31.83,M,3.0,0000*56,43.46264163666667,141.80519465,565135.6606435796,4812507.29202084
1363,[2021-01-29 10:50:37.389] $GPGGA,15036.0,4327.7584978,N,14148.311679499999,E,4,11,1.0,113.5409,M,31.83,M,4.0,0000*53,43.462641630000014,141.80519465833333,565135.661324859,4812507.291286972
1364,[2021-01-29 10:50:37.498] $GPGGA,15036.1,4327.7584978,N,14148.311678600001,E,4,11,1.0,113.5406,M,31.83,M,4.0,0000*5F,43.462641630000014,141.80519464333335,565135.6601114416,4812507.291275241
1365,[2021-01-29 10:50:37.592] $GPGGA,15036.2,4327.7584984,N,14148.3116789,E,4,11,1.0,113.5409,M,31.83,M,4.0,0000*5F,43.46264163999999,141.80519464833336,565135.6605051789,4812507.292389728
1366,[2021-01-29 10:50:37.701] $GPGGA,15036.3,4327.7584986,N,14148.311679499999,E,4,11,1.0,113.5408,M,31.83,M,4.0,0000*50,43.462641643333335,141.80519465833333,565135.6613105434,4812507.292767744
1367,[2021-01-29 10:50:37.795] $GPGGA,15036.4,4327.7584987,N,14148.3116796,E,4,11,1.0,113.539,M,31.83,M,4.0,0000*53,43.462641645,141.80519465999998,565135.6614435778,4812507.292954142
1368,[2021-01-29 10:50:37.889] $GPGGA,15036.5,4327.7584984,N,14148.311679499999,E,4,11,1.0,113.5384,M,31.83,M,4.0,0000*57,43.46264163999999,141.80519465833333,565135.6613141224,4812507.292397548
1369,[2021-01-29 10:50:37.998] $GPGGA,15036.6,4327.7584990000005,N,14148.311679499999,E,4,11,1.0,113.5376,M,31.83,M,4.0,0000*5C,43.462641650000016,141.80519465833333,565135.6613033856,4812507.29350813
1370,[2021-01-29 10:50:38.092] $GPGGA,15036.7,4327.7584990000005,N,14148.3116789,E,4,11,1.0,113.5369,M,31.83,M,4.0,0000*5E,43.462641650000016,141.80519464833336,565135.6604944421,4812507.29350031
1371,[2021-01-29 10:50:38.201] $GPGGA,15036.8,4327.758498899999,N,14148.311678999999,E,4,11,1.0,113.5383,M,31.83,M,4.0,0000*55,43.46264164833332,141.80519465,565135.6606310535,4812507.293316514
1372,[2021-01-29 10:50:38.297] $GPGGA,15036.9,4327.7584986,N,14148.311678299999,E,4,11,1.0,113.5369,M,31.83,M,4.0,0000*5D,43.462641643333335,141.80519463833332,565135.6596926502,4812507.292752102
1373,[2021-01-29 10:50:38.406] $GPGGA,15037.0,4327.758498899999,N,14148.3116792,E,4,11,1.0,113.5363,M,31.83,M,5.0,0000*51,43.46264164833332,141.80519465333333,565135.6609007013,4812507.29331912
1374,[2021-01-29 10:50:38.500] $GPGGA,15037.1,4327.7584982,N,14148.311678799999,E,4,11,1.0,113.5372,M,31.83,M,5.0,0000*50,43.46264163666667,141.80519464666665,565135.6603739297,4812507.292018232
1375,[2021-01-29 10:50:38.594] $GPGGA,15037.2,4327.7585026,N,14148.311677700001,E,4,11,1.0,113.5541,M,31.83,M,5.0,0000*53,43.46264170999999,141.80519462833337,565135.6588121309,4812507.3001481425
1376,[2021-01-29 10:50:38.687] $GPGGA,15037.3,4327.7585048,N,14148.3116779,E,4,11,1.0,113.5655,M,31.83,M,5.0,0000*52,43.46264174666666,141.80519463166667,565135.6590424088,4812507.304222873
1377,[2021-01-29 10:50:38.797] $GPGGA,15037.4,4327.758504300001,N,14148.3116774,E,4,11,1.0,113.5744,M,31.83,M,5.0,0000*52,43.462641738333346,141.80519462333334,565135.6583772344,4812507.303290876
1378,[2021-01-29 10:50:38.891] $GPGGA,15037.5,4327.7585031,N,14148.3116771,E,4,11,1.0,113.5795,M,31.83,M,5.0,0000*5F,43.46264171833334,141.80519461833333,565135.657994234,4812507.301065806
1379,[2021-01-29 10:50:39.000] $GPGGA,15037.6,4327.7585031,N,14148.3116779,E,4,11,1.0,113.5818,M,31.83,M,5.0,0000*5E,43.46264171833334,141.80519463166667,565135.6590728294,4812507.301076233
1380,[2021-01-29 10:50:39.094] $GPGGA,15037.7,4327.7585033,N,14148.3116774,E,4,11,1.0,113.5821,M,31.83,M,5.0,0000*5A,43.46264172166666,141.80519462333334,565135.6583951289,4812507.301439907
1381,[2021-01-29 10:50:39.187] $GPGGA,15037.8,4327.7585026,N,14148.3116775,E,4,11,1.0,113.5823,M,31.83,M,5.0,0000*52,43.46264170999999,141.80519462499998,565135.6585424789,4812507.300145536
1382,[2021-01-29 10:50:39.298] $GPGGA,15037.9,4327.7585025,N,14148.311677000002,E,4,11,1.0,113.5817,M,31.83,M,5.0,0000*52,43.46264170833334,141.80519461666668,565135.6578701488,4812507.299953924
1383,[2021-01-29 10:50:39.392] $GPGGA,15038.0,4327.7585029,N,14148.311677000002,E,4,11,1.0,113.5816,M,31.83,M,6.0,0000*5A,43.462641715000004,141.80519461666668,565135.657862991,4812507.300694308
1384,[2021-01-29 10:50:39.486] $GPGGA,15038.1,4327.7585024,N,14148.311677200001,E,4,11,1.0,113.5823,M,31.83,M,6.0,0000*52,43.46264170666666,141.80519462000004,565135.6581415882,4812507.299771431
1385,[2021-01-29 10:50:39.595] $GPGGA,15038.2,4327.7585014,N,14148.3116759,E,4,11,1.0,113.5837,M,31.83,M,1.0,0000*59,43.46264168999999,141.80519459833334,565135.6564067635,4812507.297903522
1386,[2021-01-29 10:50:39.689] $GPGGA,15038.3,4327.758501300001,N,14148.311675799998,E,4,11,1.0,113.5857,M,31.83,M,1.0,0000*58,43.46264168833334,141.8051945966666,565135.6562737228,4812507.297717124
1387,[2021-01-29 10:50:39.798] $GPGGA,15038.4,4327.758500600001,N,14148.311675,E,4,11,1.0,113.5853,M,31.83,M,1.0,0000*57,43.462641676666685,141.80519458333336,565135.6552076617,4812507.296411022
1388,[2021-01-29 10:50:39.892] $GPGGA,15038.5,4327.758501199999,N,14148.3116747,E,4,11,1.0,113.585,M,31.83,M,1.0,0000*56,43.46264168666665,141.80519457833333,565135.6547924492,4812507.297517687
1389,[2021-01-29 10:50:40.001] $GPGGA,15038.6,4327.758500999999,N,14148.3116748,E,4,11,1.0,113.5854,M,31.83,M,1.0,0000*5C,43.462641683333324,141.80519457999998,565135.654930852,4812507.297148799
1390,[2021-01-29 10:50:40.095] $GPGGA,15038.7,4327.7585007,N,14148.311675,E,4,11,1.0,113.5846,M,31.83,M,1.0,0000*51,43.462641678333334,141.80519458333336,565135.6552058723,4812507.296596115
1391,[2021-01-29 10:50:40.189] $GPGGA,15038.8,4327.7585008999995,N,14148.3116754,E,4,11,1.0,113.5846,M,31.83,M,1.0,0000*54,43.46264168166665,141.80519459,565135.655741589,4812507.29697152
1392,[2021-01-29 10:50:40.300] $GPGGA,15038.9,4327.758501199999,N,14148.311676299998,E,4,11,1.0,113.5844,M,31.83,M,1.0,0000*59,43.46264168666665,141.80519460499994,565135.656949634,4812507.29753854
1393,[2021-01-29 10:50:40.394] $GPGGA,15039.0,4327.758500800001,N,14148.3116748,E,4,11,1.0,113.5843,M,31.83,M,2.0,0000*57,43.462641680000004,141.80519457999998,565135.6549344308,4812507.296778606
1394,[2021-01-29 10:50:40.488] $GPGGA,15039.1,4327.758500600001,N,14148.3116738,E,4,11,1.0,113.5837,M,31.83,M,2.0,0000*5C,43.462641676666685,141.80519456333334,565135.6535897686,4812507.29639538
1395,[2021-01-29 10:50:40.597] $GPGGA,15039.2,4327.758500399999,N,14148.3116739,E,4,11,1.0,113.5833,M,31.83,M,2.0,0000*58,43.46264167333332,141.805194565,565135.6537281714,4812507.296026487
1396,[2021-01-29 10:50:40.706] $GPGGA,15039.3,4327.758500399999,N,14148.3116746,E,4,11,1.0,113.5834,M,31.83,M,2.0,0000*56,43.46264167333332,141.80519457666668,565135.6546719429,4812507.296035612
1397,[2021-01-29 10:50:40.785] $GPGGA,15039.4,4327.758500399999,N,14148.311674899998,E,4,11,1.0,113.5836,M,31.83,M,2.0,0000*5C,43.46264167333332,141.80519458166663,565135.6550764105,4812507.296039521
1398,[2021-01-29 10:50:40.894] $GPGGA,15039.5,4327.758500800001,N,14148.311675,E,4,11,1.0,113.584,M,31.83,M,2.0,0000*58,43.462641680000004,141.80519458333336,565135.6552040828,4812507.296781213
1399,[2021-01-29 10:50:40.988] $GPGGA,15039.6,4327.7585005,N,14148.3116755,E,4,11,1.0,113.5856,M,31.83,M,2.0,0000*54,43.462641675,141.80519459166666,565135.6558835708,4812507.2962324405
1400,[2021-01-29 10:50:41.097] $GPGGA,15039.7,4327.7585007,N,14148.311675100002,E,4,11,1.0,113.5855,M,31.83,M,2.0,0000*50,43.462641678333334,141.805194585,565135.6553406962,4812507.296597419
1401,[2021-01-29 10:50:41.191] $GPGGA,15039.8,4327.7584999,N,14148.3116746,E,4,11,1.0,113.5843,M,31.83,M,2.0,0000*51,43.462641665,141.80519457666668,565135.6546808901,4812507.29511013
1402,[2021-01-29 10:50:41.302] $GPGGA,15039.9,4327.758500399999,N,14148.311674300001,E,4,11,1.0,113.5814,M,31.83,M,2.0,0000*5B,43.46264167333332,141.80519457166668,565135.6542674691,4812507.296031701
1403,[2021-01-29 10:50:41.396] $GPGGA,15040.0,4327.758500800001,N,14148.3116748,E,4,11,1.0,113.5825,M,31.83,M,3.0,0000*58,43.462641680000004,141.80519457999998,565135.6549344308,4812507.296778606
1404,[2021-01-29 10:50:41.489] $GPGGA,15040.1,4327.7585007,N,14148.3116741,E,4,11,1.0,113.5823,M,31.83,M,3.0,0000*59,43.462641678333334,141.80519456833335,565135.6539924529,4812507.2965843845
1405,[2021-01-29 10:50:41.583] $GPGGA,15040.2,4327.7585005,N,14148.311675600002,E,4,11,1.0,113.582,M,31.83,M,3.0,0000*5D,43.462641675,141.80519459333337,565135.6560183988,4812507.296233744
1406,[2021-01-29 10:50:41.693] $GPGGA,15040.3,4327.7585005,N,14148.3116747,E,4,11,1.0,113.5817,M,31.83,M,3.0,0000*58,43.462641675,141.80519457833333,565135.6548049753,4812507.296222013
1407,[2021-01-29 10:50:41.802] $GPGGA,15040.4,4327.758500399999,N,14148.311674399998,E,4,11,1.0,113.5807,M,31.83,M,3.0,0000*5C,43.46264167333332,141.8051945733333,565135.654402289,4812507.296033004
1408,[2021-01-29 10:50:41.896] $GPGGA,15040.5,4327.758500999999,N,14148.3116752,E,4,11,1.0,113.5811,M,31.83,M,3.0,0000*58,43.462641683333324,141.80519458666666,565135.6554701497,4812507.297154011
1409,[2021-01-29 10:50:41.989] $GPGGA,15040.6,4327.7585014,N,14148.3116753,E,4,11,1.0,113.5797,M,31.83,M,3.0,0000*5F,43.46264168999999,141.8051945883333,565135.6555978159,4812507.297895702
1410,[2021-01-29 10:50:42.099] $GPGGA,15040.7,4327.7585016,N,14148.3116747,E,4,11,1.0,113.5799,M,31.83,M,3.0,0000*57,43.46264169333334,141.80519457833333,565135.6547852914,4812507.298258075
1411,[2021-01-29 10:50:42.193] $GPGGA,15040.8,4327.7585008999995,N,14148.3116745,E,4,11,1.0,113.5811,M,31.83,M,3.0,0000*5B,43.46264168166665,141.80519457500003,565135.6545281718,4812507.296959791
1412,[2021-01-29 10:50:42.291] $GPGGA,15040.9,4327.7585007,N,14148.3116759,E,4,11,1.0,113.5806,M,31.83,M,3.0,0000*5F,43.462641678333334,141.80519459833334,565135.6564192896,4812507.296607846
1413,[2021-01-29 10:50:42.400] $GPGGA,15041.0,4327.7585002,N,14148.311675100002,E,4,11,1.0,113.5793,M,31.83,M,4.0,0000*5E,43.46264166999999,141.805194585,565135.6553496434,4812507.295671935
1414,[2021-01-29 10:50:42.494] $GPGGA,15041.1,4327.758500999999,N,14148.3116745,E,4,11,1.0,113.5791,M,31.83,M,4.0,0000*5B,43.462641683333324,141.80519457500003,565135.6545263823,4812507.297144887
1415,[2021-01-29 10:50:42.603] $GPGGA,15041.2,4327.758501100001,N,14148.311674300001,E,4,11,1.0,113.5794,M,31.83,M,4.0,0000*5A,43.46264168500002,141.80519457166668,565135.6542549429,4812507.29732738
1416,[2021-01-29 10:50:42.697] $GPGGA,15041.3,4327.758501300001,N,14148.3116748,E,4,11,1.0,113.5794,M,31.83,M,4.0,0000*52,43.46264168833334,141.80519457999998,565135.6549254836,4812507.297704089
1417,[2021-01-29 10:50:42.791] $GPGGA,15041.4,4327.758500600001,N,14148.311674300001,E,4,11,1.0,113.579,M,31.83,M,4.0,0000*5E,43.462641676666685,141.80519457166668,565135.6542638902,4812507.296401897
1418,[2021-01-29 10:50:42.900] $GPGGA,15041.5,4327.7585007,N,14148.3116745,E,4,11,1.0,113.5791,M,31.83,M,4.0,0000*59,43.462641678333334,141.80519457500003,565135.6545317506,4812507.296589599
1419,[2021-01-29 10:50:42.994] $GPGGA,15041.6,4327.758501100001,N,14148.3116754,E,4,11,1.0,113.5788,M,31.83,M,4.0,0000*55,43.46264168500002,141.80519459,565135.6557380102,4812507.297341718
1420,[2021-01-29 10:50:43.088] $GPGGA,15041.7,4327.758500600001,N,14148.3116745,E,4,11,1.0,113.5776,M,31.83,M,4.0,0000*53,43.462641676666685,141.80519457500003,565135.6545335401,4812507.296404504
1421,[2021-01-29 10:50:43.197] $GPGGA,15041.8,4327.758501199999,N,14148.311675,E,4,11,1.0,113.5772,M,31.83,M,4.0,0000*59,43.46264168666665,141.80519458333336,565135.655196925,4812507.297521596
1422,[2021-01-29 10:50:43.289] $GPGGA,15041.9,4327.7585008999995,N,14148.3116752,E,4,11,1.0,113.5774,M,31.83,M,4.0,0000*56,43.46264168166665,141.80519458666666,565135.6554719391,4812507.296968915
1423,[2021-01-29 10:50:43.399] $GPGGA,15042.0,4327.758501100001,N,14148.311673299999,E,4,11,1.0,113.577,M,31.83,M,5.0,0000*57,43.46264168500002,141.80519455499996,565135.6529066955,4812507.297314346
1424,[2021-01-29 10:50:43.492] $GPGGA,15042.1,4327.758501199999,N,14148.3116746,E,4,11,1.0,113.5759,M,31.83,M,5.0,0000*5C,43.46264168666665,141.80519457666668,565135.6546576273,4812507.297516383
1425,[2021-01-29 10:50:43.586] $GPGGA,15042.2,4327.758501300001,N,14148.3116748,E,4,11,1.0,113.5751,M,31.83,M,5.0,0000*58,43.46264168833334,141.80519457999998,565135.6549254836,4812507.297704089
1426,[2021-01-29 10:50:43.695] $GPGGA,15042.3,4327.7585016,N,14148.3116752,E,4,11,1.0,113.576,M,31.83,M,5.0,0000*55,43.46264169333334,141.80519458666666,565135.6554594131,4812507.298264591
1427,[2021-01-29 10:50:43.789] $GPGGA,15042.4,4327.758501300001,N,14148.3116746,E,4,11,1.0,113.5737,M,31.83,M,5.0,0000*50,43.46264168833334,141.80519457666668,565135.6546558378,4812507.297701483
1428,[2021-01-29 10:50:43.899] $GPGGA,15042.5,4327.758501199999,N,14148.311674399998,E,4,11,1.0,113.5736,M,31.83,M,5.0,0000*53,43.46264168666665,141.8051945733333,565135.6543879734,4812507.297513776
1429,[2021-01-29 10:50:43.992] $GPGGA,15042.6,4327.7585018,N,14148.3116753,E,4,11,1.0,113.5719,M,31.83,M,5.0,0000*51,43.46264169666666,141.8051945883333,565135.6555906581,4812507.298636087
1430,[2021-01-29 10:50:44.102] $GPGGA,15042.7,4327.7585021,N,14148.3116754,E,4,11,1.0,113.5722,M,31.83,M,5.0,0000*55,43.462641701666676,141.80519459,565135.6557201156,4812507.299192682
1431,[2021-01-29 10:50:44.195] $GPGGA,15042.8,4327.758501300001,N,14148.311675,E,4,11,1.0,113.5728,M,31.83,M,5.0,0000*55,43.46264168833334,141.80519458333336,565135.6551951356,4812507.297706697
1432,[2021-01-29 10:50:44.291] $GPGGA,15042.9,4327.7585018,N,14148.3116755,E,4,11,1.0,113.5728,M,31.83,M,5.0,0000*5A,43.46264169666666,141.80519459166666,565135.655860308,4812507.298638694
1433,[2021-01-29 10:50:44.401] $GPGGA,15043.0,4327.7585025,N,14148.311675799998,E,4,11,1.0,113.5734,M,31.83,M,6.0,0000*5F,43.46264170833334,141.8051945966666,565135.6562522494,4812507.299938282
1434,[2021-01-29 10:50:44.494] $GPGGA,15043.1,4327.7585016,N,14148.3116753,E,4,11,1.0,113.5729,M,31.83,M,6.0,0000*59,43.46264169333334,141.8051945883333,565135.6555942369,4812507.298265895
1435,[2021-01-29 10:50:44.588] $GPGGA,15043.2,4327.758498100001,N,14148.3116782,E,4,11,1.0,113.5656,M,31.83,M,1.0,0000*5E,43.46264163500002,141.80519463666667,565135.6595667757,4812507.291825318
1436,[2021-01-29 10:50:44.698] $GPGGA,15043.3,4327.758497899999,N,14148.31168,E,4,11,1.0,113.5592,M,31.83,M,1.0,0000*56,43.46264163166666,141.80519466666667,565135.6619971911,4812507.2914785845
1437,[2021-01-29 10:50:44.791] $GPGGA,15043.4,4327.758497899999,N,14148.3116799,E,4,11,1.0,113.5553,M,31.83,M,1.0,0000*53,43.46264163166666,141.805194665,565135.6618623652,4812507.291477282
1438,[2021-01-29 10:50:44.901] $GPGGA,15043.5,4327.758498100001,N,14148.311679299999,E,4,11,1.0,113.5532,M,31.83,M,1.0,0000*58,43.46264163500002,141.80519465499998,565135.6610498407,4812507.291839655
1439,[2021-01-29 10:50:44.994] $GPGGA,15043.6,4327.7584985,N,14148.311680200002,E,4,11,1.0,113.5525,M,31.83,M,1.0,0000*5E,43.46264164166667,141.80519467000002,565135.6622561044,4812507.292591771
1440,[2021-01-29 10:50:45.088] $GPGGA,15043.7,4327.758497899999,N,14148.311678799999,E,4,11,1.0,113.5523,M,31.83,M,1.0,0000*57,43.46264163166666,141.80519464666665,565135.660379298,4812507.291462943
1441,[2021-01-29 10:50:45.197] $GPGGA,15043.8,4327.7584992,N,14148.311680300001,E,4,11,1.0,113.552,M,31.83,M,1.0,0000*52,43.462641653333336,141.80519467166667,565135.6623784022,4812507.2938887505
1442,[2021-01-29 10:50:45.293] $GPGGA,15043.9,4327.7584984,N,14148.3116794,E,4,11,1.0,113.5527,M,31.83,M,1.0,0000*52,43.46264163999999,141.80519465666669,565135.6611793005,4812507.2923962455
1443,[2021-01-29 10:50:45.402] $GPGGA,15044.0,4327.758498800001,N,14148.311679100001,E,4,11,1.0,113.5539,M,31.83,M,2.0,0000*59,43.46264164666668,141.80519465166668,565135.6607676689,4812507.293132725
1444,[2021-01-29 10:50:45.496] $GPGGA,15044.1,4327.7584982,N,14148.311679799997,E,4,11,1.0,113.5536,M,31.83,M,2.0,0000*54,43.46264163666667,141.80519466333328,565135.6617221709,4812507.292031267
1445,[2021-01-29 10:50:45.589] $GPGGA,15044.2,4327.7584978,N,14148.3116796,E,4,11,1.0,113.5555,M,31.83,M,2.0,0000*59,43.462641630000014,141.80519465999998,565135.661459683,4812507.291288276
1446,[2021-01-29 10:50:45.699] $GPGGA,15044.3,4327.7584986,N,14148.311679100001,E,4,11,1.0,113.5547,M,31.83,M,2.0,0000*5D,43.462641643333335,141.80519465166668,565135.6607712477,4812507.29276253
1447,[2021-01-29 10:50:45.793] $GPGGA,15044.4,4327.758498899999,N,14148.3116789,E,4,11,1.0,113.5552,M,31.83,M,2.0,0000*58,43.46264164833332,141.80519464833336,565135.6604962316,4812507.29331521
1448,[2021-01-29 10:50:45.902] $GPGGA,15044.5,4327.758497999999,N,14148.3116796,E,4,11,1.0,113.5561,M,31.83,M,2.0,0000*5E,43.46264163333332,141.80519465999998,565135.661456104,4812507.291658466
1449,[2021-01-29 10:50:45.996] $GPGGA,15044.6,4327.7584978,N,14148.311678999999,E,4,11,1.0,113.5563,M,31.83,M,2.0,0000*5E,43.462641630000014,141.80519465,565135.6606507374,4812507.291280455
1450,[2021-01-29 10:50:46.089] $GPGGA,15044.7,4327.7584982,N,14148.311679499999,E,4,11,1.0,113.5572,M,31.83,M,2.0,0000*5F,43.46264163666667,141.80519465833333,565135.6613177012,4812507.292027357
1451,[2021-01-29 10:50:46.199] $GPGGA,15044.8,4327.758498300001,N,14148.3116799,E,4,11,1.0,113.5569,M,31.83,M,2.0,0000*57,43.46264163833334,141.805194665,565135.6618552074,4812507.292217668
1452,[2021-01-29 10:50:46.294] $GPGGA,15044.9,4327.758497,N,14148.311678600001,E,4,11,1.0,113.5583,M,31.83,M,2.0,0000*50,43.462641616666666,141.80519464333335,565135.6601257572,4812507.289794466
1453,[2021-01-29 10:50:46.403] $GPGGA,15045.0,4327.7584969,N,14148.311678999999,E,4,11,1.0,113.5587,M,31.83,M,3.0,0000*52,43.462641615,141.80519465,565135.6606668424,4812507.289614585
1454,[2021-01-29 10:50:46.497] $GPGGA,15045.1,4327.7584971,N,14148.3116787,E,4,11,1.0,113.5581,M,31.83,M,3.0,0000*5A,43.46264161833333,141.805194645,565135.6602587918,4812507.289980867
1455,[2021-01-29 10:50:46.591] $GPGGA,15045.2,4327.7584971,N,14148.311678999999,E,4,11,1.0,113.5585,M,31.83,M,3.0,0000*5B,43.46264161833333,141.80519465,565135.6606632634,4812507.289984778
1456,[2021-01-29 10:50:46.685] $GPGGA,15045.3,4327.7584975,N,14148.3116789,E,4,11,1.0,113.5574,M,31.83,M,3.0,0000*58,43.462641624999996,141.80519464833336,565135.6605212839,4812507.29072386
1457,[2021-01-29 10:50:46.794] $GPGGA,15045.4,4327.758497899999,N,14148.311678999999,E,4,11,1.0,113.5565,M,31.83,M,3.0,0000*5B,43.46264163166666,141.80519465,565135.6606489479,4812507.29146555
1458,[2021-01-29 10:50:46.888] $GPGGA,15045.5,4327.7584969,N,14148.311678400001,E,4,11,1.0,113.5578,M,31.83,M,3.0,0000*52,43.462641615,141.80519464,565135.6598578969,4812507.289606763
1459,[2021-01-29 10:50:46.997] $GPGGA,15045.6,4327.7584974,N,14148.3116787,E,4,11,1.0,113.5583,M,31.83,M,3.0,0000*5A,43.46264162333333,141.805194645,565135.6602534234,4812507.290536157
1460,[2021-01-29 10:50:47.106] $GPGGA,15045.7,4327.7584971999995,N,14148.3116782,E,4,11,1.0,113.5574,M,31.83,M,3.0,0000*50,43.462641619999985,141.80519463666667,565135.6595828807,4812507.290159446
1461,[2021-01-29 10:50:47.185] $GPGGA,15045.8,4327.7584959,N,14148.311678600001,E,4,11,1.0,113.5591,M,31.83,M,3.0,0000*59,43.46264159833333,141.80519464333335,565135.6601454412,4812507.287758404
1462,[2021-01-29 10:50:47.294] $GPGGA,15045.9,4327.7584964,N,14148.3116782,E,4,11,1.0,113.56,M,31.83,M,3.0,0000*59,43.462641606666665,141.80519463666667,565135.6595971963,4812507.288678674
1463,[2021-01-29 10:50:47.388] $GPGGA,15046.0,4327.7584961,N,14148.3116775,E,4,11,1.0,113.5611,M,31.83,M,4.0,0000*59,43.46264160166667,141.80519462499998,565135.658658793,4812507.288114262
1464,[2021-01-29 10:50:47.497] $GPGGA,15046.1,4327.7584956,N,14148.311678400001,E,4,11,1.0,113.5635,M,31.83,M,4.0,0000*54,43.46264159333333,141.80519464,565135.6598811597,4812507.287200509
1465,[2021-01-29 10:50:47.591] $GPGGA,15046.2,4327.7584962,N,14148.311678799999,E,4,11,1.0,113.5631,M,31.83,M,4.0,0000*58,43.46264160333333,141.80519464666665,565135.6604097186,4812507.288316302
1466,[2021-01-29 10:50:47.700] $GPGGA,15046.3,4327.7584967,N,14148.311678799999,E,4,11,1.0,113.5625,M,31.83,M,4.0,0000*59,43.46264161166667,141.80519464666665,565135.6604007714,4812507.289241785
1467,[2021-01-29 10:50:47.794] $GPGGA,15046.4,4327.7584973,N,14148.311678100003,E,4,11,1.0,113.5618,M,31.83,M,4.0,0000*5C,43.46264162166667,141.80519463500005,565135.6594462693,4812507.29034324
1468,[2021-01-29 10:50:47.888] $GPGGA,15046.5,4327.758497600001,N,14148.311678,E,4,11,1.0,113.5612,M,31.83,M,4.0,0000*53,43.46264162666668,141.80519463333331,565135.6593060709,4812507.290897228
1469,[2021-01-29 10:50:47.981] $GPGGA,15046.6,4327.7584973,N,14148.3116785,E,4,11,1.0,113.5611,M,31.83,M,4.0,0000*53,43.46264162166667,141.80519464166665,565135.6599855609,4812507.290348454
1470,[2021-01-29 10:50:48.091] $GPGGA,15046.7,4327.7584974,N,14148.3116779,E,4,11,1.0,113.5619,M,31.83,M,4.0,0000*5E,43.46264162333333,141.80519463166667,565135.659174828,4812507.29052573
1471,[2021-01-29 10:50:48.185] $GPGGA,15046.8,4327.7584971,N,14148.311678400001,E,4,11,1.0,113.5602,M,31.83,M,4.0,0000*5C,43.46264161833333,141.80519464,565135.6598543179,4812507.289976956
1472,[2021-01-29 10:50:48.296] $GPGGA,15046.9,4327.758497,N,14148.311678799999,E,4,11,1.0,113.5601,M,31.83,M,4.0,0000*53,43.462641616666666,141.80519464666665,565135.660395403,4812507.289797074
1473,[2021-01-29 10:50:48.390] $GPGGA,15047.0,4327.7584967,N,14148.311678299999,E,4,11,1.0,113.5634,M,31.83,M,5.0,0000*51,43.46264161166667,141.80519463833332,565135.6597266498,4812507.289235268
1474,[2021-01-29 10:50:48.499] $GPGGA,15047.1,4327.7584966,N,14148.3116787,E,4,11,1.0,113.5631,M,31.83,M,5.0,0000*50,43.46264161000001,141.805194645,565135.660267739,4812507.289055387
1475,[2021-01-29 10:50:48.593] $GPGGA,15047.2,4327.7584973,N,14148.311679499999,E,4,11,1.0,113.5603,M,31.83,M,5.0,0000*55,43.46264162166667,141.80519465833333,565135.6613338062,4812507.290361487
1476,[2021-01-29 10:50:48.702] $GPGGA,15047.3,4327.7584973,N,14148.3116796,E,4,11,1.0,113.5603,M,31.83,M,5.0,0000*57,43.46264162166667,141.80519465999998,565135.6614686301,4812507.290362791
1477,[2021-01-29 10:50:48.781] $GPGGA,15047.4,4327.7584968,N,14148.3116799,E,4,11,1.0,113.5592,M,31.83,M,5.0,0000*5E,43.46264161333333,141.805194665,565135.6618820492,4812507.28944122
1478,[2021-01-29 10:50:48.890] $GPGGA,15047.5,4327.758496500001,N,14148.311680300001,E,4,11,1.0,113.5597,M,31.83,M,5.0,0000*5B,43.462641608333335,141.80519467166667,565135.6624267172,4812507.288891144
1479,[2021-01-29 10:50:48.999] $GPGGA,15047.6,4327.758497999999,N,14148.31168,E,4,11,1.0,113.559,M,31.83,M,5.0,0000*57,43.46264163333332,141.80519466666667,565135.6619954017,4812507.291663679
1480,[2021-01-29 10:50:49.093] $GPGGA,15047.7,4327.7584969,N,14148.3116787,E,4,11,1.0,113.5608,M,31.83,M,5.0,0000*53,43.462641615,141.805194645,565135.6602623706,4812507.289610675
1481,[2021-01-29 10:50:49.187] $GPGGA,15047.8,4327.7584973,N,14148.3116792,E,4,11,1.0,113.5598,M,31.83,M,5.0,0000*59,43.46264162166667,141.80519465333333,565135.6609293324,4812507.290357578
1482,[2021-01-29 10:50:49.282] $GPGGA,15047.9,4327.7584975,N,14148.3116794,E,4,11,1.0,113.5593,M,31.83,M,5.0,0000*53,43.462641624999996,141.80519465666669,565135.6611954054,4812507.290730378
1483,[2021-01-29 10:50:49.392] $GPGGA,15048.0,4327.7584974,N,14148.3116796,E,4,11,1.0,113.5595,M,31.83,M,6.0,0000*53,43.46264162333333,141.80519465999998,565135.6614668407,4812507.290547889
1484,[2021-01-29 10:50:49.485] $GPGGA,15048.1,4327.758497600001,N,14148.311679799997,E,4,11,1.0,113.5588,M,31.83,M,6.0,0000*52,43.46264162666668,141.80519466333328,565135.6617329075,4812507.29092069
1485,[2021-01-29 10:50:49.595] $GPGGA,15048.2,4327.758497999999,N,14148.311679100001,E,4,11,1.0,113.5572,M,31.83,M,1.0,0000*53,43.46264163333332,141.80519465166668,565135.6607819845,4812507.291651948
1486,[2021-01-29 10:50:49.689] $GPGGA,15048.3,4327.758498100001,N,14148.311678,E,4,11,1.0,113.5593,M,31.83,M,1.0,0000*5C,43.46264163500002,141.80519463333331,565135.6592971237,4812507.29182271
1487,[2021-01-29 10:50:49.798] $GPGGA,15048.4,4327.758498100001,N,14148.311678400001,E,4,11,1.0,113.5585,M,31.83,M,1.0,0000*58,43.46264163500002,141.80519464,565135.6598364235,4812507.291827924
1488,[2021-01-29 10:50:49.892] $GPGGA,15048.5,4327.758498100001,N,14148.311677700001,E,4,11,1.0,113.5598,M,31.83,M,1.0,0000*59,43.46264163500002,141.80519462833337,565135.658892656,4812507.291818799
1489,[2021-01-29 10:50:49.985] $GPGGA,15048.6,4327.7584993,N,14148.311678799999,E,4,11,1.0,113.5579,M,31.83,M,1.0,0000*56,43.462641655,141.80519464666665,565135.6603542457,4812507.294054296
1490,[2021-01-29 10:50:50.095] $GPGGA,15048.7,4327.758498300001,N,14148.3116785,E,4,11,1.0,113.5587,M,31.83,M,1.0,0000*5A,43.46264163833334,141.80519464166665,565135.6599676664,4812507.29219942
1491,[2021-01-29 10:50:50.189] $GPGGA,15048.8,4327.758498100001,N,14148.311678299999,E,4,11,1.0,113.5596,M,31.83,M,1.0,0000*51,43.46264163500002,141.80519463833332,565135.6597015974,4812507.29182662
1492,[2021-01-29 10:50:50.284] $GPGGA,15048.9,4327.7584984,N,14148.3116782,E,4,11,1.0,113.5583,M,31.83,M,1.0,0000*50,43.46264163999999,141.80519463666667,565135.6595614073,4812507.292380604
1493,[2021-01-29 10:50:50.393] $GPGGA,15049.0,4327.758497999999,N,14148.311678299999,E,4,11,1.0,113.5574,M,31.83,M,2.0,0000*56,43.46264163333332,141.80519463833332,565135.659703387,4812507.291641521
1494,[2021-01-29 10:50:50.487] $GPGGA,15049.1,4327.758498100001,N,14148.3116792,E,4,11,1.0,113.5578,M,31.83,M,2.0,0000*5A,43.46264163500002,141.80519465333333,565135.6609150168,4812507.291838353
1495,[2021-01-29 10:50:50.596] $GPGGA,15049.2,4327.7584978,N,14148.31168,E,4,11,1.0,113.558,M,31.83,M,2.0,0000*5C,43.462641630000014,141.80519466666667,565135.6619989806,4812507.291293489
1496,[2021-01-29 10:50:50.690] $GPGGA,15049.3,4327.7584984,N,14148.3116807,E,4,11,1.0,113.559,M,31.83,M,2.0,0000*58,43.46264163999999,141.80519467833335,565135.6629320155,4812507.29241319
1497,[2021-01-29 10:50:50.784] $GPGGA,15049.4,4327.7584982,N,14148.31168,E,4,11,1.0,113.5591,M,31.83,M,2.0,0000*5F,43.46264163666667,141.80519466666667,565135.6619918229,4812507.292033873
1498,[2021-01-29 10:50:50.893] $GPGGA,15049.5,4327.7584987,N,14148.31168,E,4,11,1.0,113.5582,M,31.83,M,2.0,0000*59,43.462641645,141.80519466666667,565135.6619828757,4812507.292959357
1499,[2021-01-29 10:50:50.987] $GPGGA,15049.6,4327.7584993,N,14148.311681099998,E,4,11,1.0,113.5579,M,31.83,M,2.0,0000*5B,43.462641655,141.80519468499995,565135.663455202,4812507.294084274
1500,[2021-01-29 10:50:51.096] $GPGGA,15049.7,4327.7584987,N,14148.3116806,E,4,11,1.0,113.5557,M,31.83,M,2.0,0000*55,43.462641645,141.80519467666667,565135.6627918233,4812507.292967178
1501,[2021-01-29 10:50:51.190] $GPGGA,15049.8,4327.7584993,N,14148.3116807,E,4,11,1.0,113.5561,M,31.83,M,2.0,0000*5B,43.462641655,141.80519467833335,565135.6629159105,4812507.294079061
1502,[2021-01-29 10:50:51.301] $GPGGA,15049.9,4327.7584992,N,14148.311680200002,E,4,11,1.0,113.5564,M,31.83,M,2.0,0000*5B,43.462641653333336,141.80519467000002,565135.6622435782,4812507.293887447
1503,[2021-01-29 10:50:51.395] $GPGGA,15050.0,4327.7584992,N,14148.3116807,E,4,11,1.0,113.5543,M,31.83,M,3.0,0000*5B,43.462641653333336,141.80519467833335,565135.6629176999,4812507.293893965
1504,[2021-01-29 10:50:51.489] $GPGGA,15050.1,4327.7584986,N,14148.3116808,E,4,11,1.0,113.5548,M,31.83,M,3.0,0000*5B,43.462641643333335,141.80519468,565135.6630632605,4812507.292784688
1505,[2021-01-29 10:50:51.582] $GPGGA,15050.2,4327.758498800001,N,14148.311681000001,E,4,11,1.0,113.5544,M,31.83,M,3.0,0000*53,43.46264164666668,141.80519468333335,565135.6633293314,4812507.293157491
1506,[2021-01-29 10:50:51.692] $GPGGA,15050.3,4327.7584985,N,14148.3116812,E,4,11,1.0,113.5559,M,31.83,M,3.0,0000*51,43.46264164166667,141.8051946866667,565135.6636043497,4812507.292604806
1507,[2021-01-29 10:50:51.785] $GPGGA,15050.4,4327.758498800001,N,14148.311680399998,E,4,11,1.0,113.5566,M,31.83,M,3.0,0000*50,43.46264164666668,141.80519467333332,565135.6625203819,4812507.29314967
1508,[2021-01-29 10:50:51.895] $GPGGA,15050.5,4327.7584998,N,14148.3116812,E,4,11,1.0,113.5586,M,31.83,M,3.0,0000*59,43.462641663333336,141.8051946866667,565135.6635810869,4812507.29501106
1509,[2021-01-29 10:50:51.989] $GPGGA,15050.6,4327.758498899999,N,14148.311681000001,E,4,11,1.0,113.5587,M,31.83,M,3.0,0000*59,43.46264164833332,141.80519468333335,565135.6633275421,4812507.293342582
