,Format,Time,Latitude,LatType,Longitude,LonType,Status,Satellite,LevelAccuracy,Altitude(sea),M(sea),Altitude(geoid),M(geoid),DGPS use,checksum,Lat,Lon,UTM_X,UTM_Y
769,[2021-01-29 10:49:03.389] $GPGGA,14902.0,4327.75875317,N,14148.31146758,E,4,7.0,1.2,113.743,M,31.59,M,1.0,0157*4E,43.46264588616667,141.80519112633334,565135.3710354437,4812507.76120577
770,[2021-01-29 10:49:03.483] $GPGGA,14902.1,4327.75875545,N,14148.31146826,E,4,7.0,1.2,113.734,M,31.59,M,1.1,0157*49,43.46264592416666,141.8051911376667,565135.371911452,4812507.765434833
771,[2021-01-29 10:49:03.608] $GPGGA,14902.2,4327.7587553,N,14148.31146522,E,4,7.0,1.2,113.743,M,31.59,M,1.2,0157*42,43.46264592166667,141.80519108700003,565135.3678154766,4812507.765117565
772,[2021-01-29 10:49:03.701] $GPGGA,14902.3,4327.75875292,N,14148.31146656,E,4,7.0,1.2,113.734,M,31.59,M,1.3,0157*4D,43.462645882,141.80519110933332,565135.3696647082,4812507.760729733
773,[2021-01-29 10:49:03.811] $GPGGA,14902.4,4327.758754,N,14148.3114673,E,4,7.0,1.2,113.741,M,31.59,M,1.4,0157*43,43.46264590000001,141.80519112166664,565135.3706430815,4812507.762738423
774,[2021-01-29 10:49:03.889] $GPGGA,14902.5,4327.75875425,N,14148.31146483,E,4,7.0,1.2,113.742,M,31.59,M,1.5,0157*4C,43.462645904166656,141.80519108049998,565135.367308448,4812507.763168967
775,[2021-01-29 10:49:03.998] $GPGGA,14902.6,4327.75875393,N,14148.31146555,E,4,7.0,1.2,113.73299999999999,M,31.59,M,1.6,0157*4A,43.46264589883334,141.8051910925,565135.3682849095,4812507.762586043
776,[2021-01-29 10:49:04.092] $GPGGA,14902.7,4327.75875452,N,14148.3114667,E,4,7.0,1.2,113.74,M,31.59,M,1.7,0157*40,43.46264590866668,141.80519111166666,565135.3698248309,4812507.763693104
777,[2021-01-29 10:49:04.201] $GPGGA,14902.8,4327.75875619,N,14148.31146483,E,4,7.0,1.2,113.73299999999999,M,31.59,M,1.8,0157*47,43.462645936499996,141.80519108049998,565135.3672737328,4812507.766759839
778,[2021-01-29 10:49:04.295] $GPGGA,14902.9,4327.75875262,N,14148.31146315,E,4,7.0,1.2,113.745,M,31.59,M,0.9,0157*47,43.462645877,141.8051910525,565135.3650725671,4812507.760129997
779,[2021-01-29 10:49:04.405] $GPGGA,14903.0,4327.75875227,N,14148.3114629,E,4,7.0,1.2,113.74600000000001,M,31.59,M,1.0,0157*49,43.46264587116666,141.80519104833334,565135.3647417704,4812507.759478899
780,[2021-01-29 10:49:04.498] $GPGGA,14903.1,4327.75875398,N,14148.31146425,E,4,7.0,1.2,113.745,M,31.59,M,1.1,0157*47,43.46264589966666,141.80519107083333,565135.3665313,4812507.762661647
781,[2021-01-29 10:49:04.608] $GPGGA,14903.2,4327.75875156,N,14148.31146434,E,4,7.0,1.2,113.742,M,31.59,M,1.2,0157*40,43.46264585933333,141.80519107233334,565135.3666959463,4812507.758183483
782,[2021-01-29 10:49:04.701] $GPGGA,14903.3,4327.75875324,N,14148.31146184,E,4,7.0,1.2,113.74700000000001,M,31.59,M,1.3,0157*4C,43.462645887333345,141.8051910306667,565135.3632952778,4812507.7612605225
783,[2021-01-29 10:49:04.811] $GPGGA,14903.4,4327.7587536,N,14148.31146215,E,4,7.0,1.2,113.745,M,31.59,M,1.4,0157*45,43.46264589333333,141.80519103583336,565135.3637067896,4812507.761930908
784,[2021-01-29 10:49:04.889] $GPGGA,14903.5,4327.75875158,N,14148.31146149,E,4,7.0,1.2,113.736,M,31.59,M,1.5,0157*42,43.46264585966666,141.80519102483336,565135.3628530967,4812507.758183356
785,[2021-01-29 10:49:04.998] $GPGGA,14903.6,4327.75875484,N,14148.31146226,E,4,7.0,1.2,113.744,M,31.59,M,1.6,0157*49,43.462645914,141.80519103766667,565135.3638329064,4812507.76422754
786,[2021-01-29 10:49:05.092] $GPGGA,14903.7,4327.75875318,N,14148.31145961,E,4,7.0,1.2,113.749,M,31.59,M,1.7,0157*4D,43.462645886333334,141.8051909935,565135.3602897652,4812507.761120397
787,[2021-01-29 10:49:05.201] $GPGGA,14903.8,4327.75875318,N,14148.31146298,E,4,7.0,1.2,113.735,M,31.59,M,1.8,0157*48,43.462645886333334,141.8051910496667,565135.3648333485,4812507.761164322
788,[2021-01-29 10:49:05.297] $GPGGA,14903.9,4327.75875333,N,14148.3114624,E,4,7.0,1.2,113.74700000000001,M,31.59,M,1.9,0157*41,43.462645888833336,141.80519103999998,565135.3640486788,4812507.761434406
789,[2021-01-29 10:49:05.406] $GNGGA,14904.0,4327.75875099,N,14148.31146448,E,4,8.0,1.2,113.76,M,31.59,M,1.0,0157*5F,43.462645849833336,141.80519107466665,565135.366894898,4812507.757130259
790,[2021-01-29 10:49:05.500] $GNGGA,14904.1,4327.75875165,N,14148.31146565,E,4,8.0,1.2,113.75200000000001,M,31.59,M,1.1,0157*52,43.462645860833334,141.80519109416664,565135.3684605327,4812507.758367146
791,[2021-01-29 10:49:05.594] $GNGGA,14904.2,4327.75875064,N,14148.31146689,E,4,8.0,1.2,113.75399999999999,M,31.59,M,1.2,0157*55,43.462645843999994,141.80519111483332,565135.3701504271,4812507.756513833
792,[2021-01-29 10:49:05.703] $GNGGA,14904.3,4327.75875094,N,14148.31146706,E,4,8.0,1.2,113.764,M,31.59,M,1.3,0157*5F,43.462645849,141.80519111766668,565135.3703742627,4812507.757071339
793,[2021-01-29 10:49:05.797] $GNGGA,14904.4,4327.75874865,N,14148.31146592,E,4,8.0,1.2,113.76700000000001,M,31.59,M,1.4,0157*54,43.46264581083333,141.80519109866665,565135.3688782416,4812507.752817769
794,[2021-01-29 10:49:05.891] $GNGGA,14904.5,4327.75875053,N,14148.31146903,E,4,8.0,1.2,113.755,M,31.59,M,1.5,0157*5D,43.462645842166665,141.8051911505,565135.3730376377,4812507.756338121
795,[2021-01-29 10:49:06.000] $GNGGA,14904.6,4327.75874906,N,14148.31146575,E,4,8.0,1.2,113.76299999999999,M,31.59,M,1.6,0157*5D,43.46264581766666,141.8051910958333,565135.3686417011,4812507.753574448
796,[2021-01-29 10:49:06.094] $GNGGA,14904.7,4327.75875015,N,14148.31146463,E,4,8.0,1.2,113.755,M,31.59,M,1.7,0157*54,43.462645835833335,141.80519107716668,565135.3671121692,4812507.755577403
797,[2021-01-29 10:49:06.203] $GNGGA,14904.8,4327.75875129,N,14148.31146908,E,4,8.0,1.2,113.756,M,31.59,M,1.8,0157*59,43.46264585483333,141.80519115133333,565135.37309145,4812507.757745505
798,[2021-01-29 10:49:06.298] $GNGGA,14904.9,4327.75874993,N,14148.31146663,E,4,8.0,1.2,113.766,M,31.59,M,1.9,0157*50,43.462645832166665,141.8051911105,565135.3698125903,4812507.755196258
799,[2021-01-29 10:49:06.408] $GNGGA,14905.0,4327.75875235,N,14148.31146807,E,4,10.0,1.1,113.75200000000001,M,31.59,M,1.0,0157*56,43.46264587249999,141.8051911345,565135.3717107568,4812507.759694365
800,[2021-01-29 10:49:06.501] $GNGGA,14905.1,4327.75875261,N,14148.31146741,E,4,10.0,1.1,113.74799999999999,M,31.59,M,1.1,0157*51,43.462645876833335,141.80519112349998,565135.3708162607,4812507.760167014
801,[2021-01-29 10:49:06.595] $GNGGA,14905.2,4327.75875404,N,14148.31146871,E,4,10.0,1.1,113.751,M,31.59,M,1.2,0157*50,43.462645900666665,141.80519114516667,565135.3725433907,4812507.762830838
802,[2021-01-29 10:49:06.705] $GNGGA,14905.3,4327.75875325,N,14148.31146731,E,4,10.0,1.1,113.74799999999999,M,31.59,M,1.3,0157*57,43.4626458875,141.80519112183333,565135.3706699864,4812507.761350328
803,[2021-01-29 10:49:06.798] $GNGGA,14905.4,4327.75875171,N,14148.31146936,E,4,10.0,1.1,113.751,M,31.59,M,1.4,0157*55,43.46264586183334,141.80519115599998,565135.37346144,4812507.758526562
804,[2021-01-29 10:49:06.892] $GNGGA,14905.5,4327.75874926,N,14148.31146685,E,4,10.0,1.1,113.756,M,31.59,M,1.5,0157*5E,43.462645820999995,141.8051911141667,565135.3701211954,4812507.75395898
805,[2021-01-29 10:49:07.001] $GNGGA,14905.6,4327.758754,N,14148.31147051,E,4,10.0,1.1,113.749,M,31.59,M,1.6,0157*56,43.46264590000001,141.80519117516667,565135.3749709451,4812507.762780262
806,[2021-01-29 10:49:07.095] $GNGGA,14905.7,4327.75875191,N,14148.31146935,E,4,10.0,1.1,113.755,M,31.59,M,1.7,0157*5C,43.46264586516666,141.80519115583334,565135.3734443813,4812507.758896622
807,[2021-01-29 10:49:07.204] $GNGGA,14905.8,4327.75875496,N,14148.31146961,E,4,10.0,1.1,113.75299999999999,M,31.59,M,1.8,0157*59,43.462645916,141.80519116016666,565135.3737403451,4812507.764545457
808,[2021-01-29 10:49:07.300] $GNGGA,14905.9,4327.75875176,N,14148.31146872,E,4,10.0,1.1,113.75399999999999,M,31.59,M,1.9,0157*56,43.462645862666676,141.8051911453333,565135.3725976698,4812507.758610768
809,[2021-01-29 10:49:07.409] $GNGGA,14906.0,4327.75875694,N,14148.31146631,E,4,10.0,1.1,113.755,M,31.59,M,1.0,0157*56,43.462645949000006,141.80519110516667,565135.3692557128,4812507.768167356
810,[2021-01-29 10:49:07.503] $GNGGA,14906.1,4327.75875447,N,14148.31146821,E,4,10.0,1.1,113.762,M,31.59,M,1.1,0157*51,43.46264590783333,141.80519113683332,565135.3718615724,4812507.763620236
811,[2021-01-29 10:49:07.597] $GNGGA,14906.2,4327.75875255,N,14148.3114653,E,4,10.0,1.1,113.759,M,31.59,M,1.2,0157*51,43.46264587583334,141.80519108833334,565135.367972544,4812507.760028453
812,[2021-01-29 10:49:07.691] $GNGGA,14906.3,4327.75875629,N,14148.3114663,E,4,10.0,1.1,113.76100000000001,M,31.59,M,1.3,0157*56,43.46264593816666,141.805191105,565135.3692538622,4812507.7669640975
813,[2021-01-29 10:49:07.800] $GNGGA,14906.4,4327.7587538,N,14148.31146894,E,4,10.0,1.1,113.76,M,31.59,M,1.4,0157*51,43.462645896666665,141.805191149,565135.3728577811,4812507.762389605
814,[2021-01-29 10:49:07.894] $GNGGA,14906.5,4327.75875564,N,14148.31146713,E,4,10.0,1.1,113.75399999999999,M,31.59,M,1.5,0157*5A,43.462645927333334,141.80519111883333,565135.3703845349,4812507.765771789
815,[2021-01-29 10:49:08.003] $GNGGA,14906.6,4327.75875448,N,14148.31146418,E,4,10.0,1.1,113.75299999999999,M,31.59,M,1.6,0157*5A,43.462645908,141.80519106966668,565135.3664279748,4812507.763586218
816,[2021-01-29 10:49:08.097] $GNGGA,14906.7,4327.75875649,N,14148.31146976,E,4,10.0,1.1,113.76,M,31.59,M,1.7,0157*5C,43.46264594150001,141.80519116266666,565135.3739152045,4812507.767379389
817,[2021-01-29 10:49:08.206] $GNGGA,14906.8,4327.75875532,N,14148.31146585,E,4,10.0,1.1,113.762,M,31.59,M,1.8,0157*51,43.462645922,141.8051910975,565135.3686645102,4812507.765162796
818,[2021-01-29 10:49:08.302] $GNGGA,14906.9,4327.75875474,N,14148.31146631,E,4,10.0,1.1,113.76100000000001,M,31.59,M,1.9,0157*5D,43.46264591233333,141.80519110516667,565135.3692950805,4812507.764095232
819,[2021-01-29 10:49:08.396] $GNGGA,14907.0,4327.75875032,N,14148.31146941,E,4,10.0,1.1,113.77600000000001,M,31.59,M,1.0,0157*54,43.462645838666674,141.80519115683336,565135.3735537293,4812507.755954372
820,[2021-01-29 10:49:08.489] $GNGGA,14907.1,4327.75874477,N,14148.31147046,E,4,10.0,1.1,113.78299999999999,M,31.59,M,1.1,0157*55,43.462645746166665,141.80519117433332,565135.3750686963,4812507.745695199
821,[2021-01-29 10:49:08.599] $GNGGA,14907.2,4327.75874938,N,14148.31146817,E,4,10.0,1.1,113.779,M,31.59,M,1.2,0157*5B,43.462645822999995,141.80519113616668,565135.3718987291,4812507.7541983
822,[2021-01-29 10:49:08.692] $GNGGA,14907.3,4327.75874939,N,14148.31146539,E,4,10.0,1.1,113.771,M,31.59,M,1.3,0157*53,43.46264582316667,141.80519108983333,565135.3681504324,4812507.754180575
823,[2021-01-29 10:49:08.802] $GNGGA,14907.4,4327.75874815,N,14148.31146541,E,4,10.0,1.1,113.777,M,31.59,M,1.4,0157*55,43.46264580250001,141.8051910901667,565135.3681995873,4812507.7518856395
824,[2021-01-29 10:49:08.896] $GNGGA,14907.5,4327.75875141,N,14148.3114668,E,4,10.0,1.1,113.775,M,31.59,M,1.5,0157*50,43.46264585683333,141.8051911133333,565135.3700153064,4812507.7579379035
825,[2021-01-29 10:49:09.005] $GNGGA,14907.6,4327.75874899,N,14148.31146966,E,4,10.0,1.1,113.781,M,31.59,M,1.6,0157*51,43.4626458165,141.805191161,565135.3739145886,4812507.753495846
826,[2021-01-29 10:49:09.099] $GNGGA,14907.7,4327.75874843,N,14148.3114651,E,4,10.0,1.1,113.78200000000001,M,31.59,M,1.7,0157*58,43.462645807166666,141.805191085,565135.3677766192,4812507.752399868
827,[2021-01-29 10:49:09.208] $GNGGA,14907.8,4327.75875118,N,14148.31146814,E,4,10.0,1.1,113.771,M,31.59,M,1.8,0157*5B,43.462645853,141.80519113566666,565135.3718260691,4812507.757529647
828,[2021-01-29 10:49:09.290] $GNGGA,14907.9,4327.75874947,N,14148.31146585,E,4,10.0,1.1,113.77600000000001,M,31.59,M,1.9,0157*5A,43.4626458245,141.8051910975,565135.3687691924,4812507.754334648
829,[2021-01-29 10:49:09.399] $GNGGA,14908.0,4327.75875306,N,14148.31146672,E,4,11.0,1.0,113.76,M,31.59,M,1.0,0157*57,43.462645884333334,141.805191112,565135.3698779228,4812507.760990954
830,[2021-01-29 10:49:09.493] $GNGGA,14908.1,4327.75875154,N,14148.31146782,E,4,11.0,1.0,113.765,M,31.59,M,1.1,0157*59,43.462645859,141.80519113033333,565135.3713881894,4812507.758191824
831,[2021-01-29 10:49:09.602] $GNGGA,14908.2,4327.75875695,N,14148.31146888,E,4,11.0,1.0,113.76299999999999,M,31.59,M,1.2,0157*50,43.462645949166664,141.80519114799998,565135.3727205178,4812507.768219363
832,[2021-01-29 10:49:09.696] $GNGGA,14908.3,4327.75875092,N,14148.31146719,E,4,11.0,1.0,113.765,M,31.59,M,1.3,0157*50,43.462645848666675,141.80519111983335,565135.3705498924,4812507.757036014
833,[2021-01-29 10:49:09.805] $GNGGA,14908.4,4327.75875349,N,14148.31146703,E,4,11.0,1.0,113.76,M,31.59,M,1.4,0157*5B,43.4626458915,141.8051911171667,565135.370288186,4812507.761790911
834,[2021-01-29 10:49:09.899] $GNGGA,14908.5,4327.7587515,N,14148.31146508,E,4,11.0,1.0,113.771,M,31.59,M,1.5,0157*58,43.462645858333325,141.80519108466666,565135.3676947193,4812507.758082071
835,[2021-01-29 10:49:10.008] $GNGGA,14908.6,4327.75875438,N,14148.31146427,E,4,11.0,1.0,113.757,M,31.59,M,1.6,0157*5B,43.462645906333336,141.80519107116666,565135.3665511061,4812507.763402293
836,[2021-01-29 10:49:10.102] $GNGGA,14908.7,4327.75875358,N,14148.31146494,E,4,11.0,1.0,113.75200000000001,M,31.59,M,1.7,0157*57,43.462645893,141.80519108233332,565135.3674687431,4812507.761930255
837,[2021-01-29 10:49:10.196] $GNGGA,14908.8,4327.75875327,N,14148.31146623,E,4,11.0,1.0,113.76700000000001,M,31.59,M,1.8,0157*57,43.462645887833325,141.8051911038333,565135.3692135233,4812507.761373268
838,[2021-01-29 10:49:10.290] $GNGGA,14908.9,4327.75875109,N,14148.31146726,E,4,11.0,1.0,113.762,M,31.59,M,1.9,0157*58,43.46264585150001,141.805191121,565135.3706412263,4812507.757351591
839,[2021-01-29 10:49:10.400] $GNGGA,14909.0,4327.75875246,N,14148.31146498,E,4,11.0,1.0,113.76299999999999,M,31.59,M,2.0,0157*55,43.46264587433333,141.805191083,565135.3675427168,4812507.759857695
840,[2021-01-29 10:49:10.494] $GNGGA,14909.1,4327.75875262,N,14148.3114685,E,4,11.0,1.0,113.766,M,31.59,M,2.1,0157*5E,43.462645877,141.80519114166668,565135.372285671,4812507.76019973
841,[2021-01-29 10:49:10.603] $GNGGA,14909.2,4327.75875221,N,14148.31146546,E,4,11.0,1.0,113.756,M,31.59,M,2.2,0157*50,43.46264587016667,141.805191091,565135.3681943481,4812507.759401211
842,[2021-01-29 10:49:10.697] $GNGGA,14909.3,4327.75875145,N,14148.31146325,E,4,10.0,1.1,113.76700000000001,M,31.59,M,1.3,0157*53,43.4626458575,141.80519105416664,565135.3652283275,4812507.757965671
843,[2021-01-29 10:49:10.806] $GNGGA,14909.4,4327.7587524,N,14148.31146291,E,4,10.0,1.1,113.771,M,31.59,M,1.4,0157*5C,43.46264587333333,141.80519104849998,565135.3647529241,4812507.759719657
844,[2021-01-29 10:49:10.900] $GNGGA,14909.5,4327.75875161,N,14148.31146199,E,4,10.0,1.1,113.76100000000001,M,31.59,M,1.5,0157*56,43.46264586016667,141.80519103316666,565135.3635266795,4812507.758245402
845,[2021-01-29 10:49:10.994] $GNGGA,14909.6,4327.75875278,N,14148.31146293,E,4,10.0,1.1,113.76899999999999,M,31.59,M,1.6,0157*5C,43.46264587966666,141.8051910488333,565135.3647730902,4812507.760423283
846,[2021-01-29 10:49:11.103] $GNGGA,14909.7,4327.75874961,N,14148.31146358,E,4,10.0,1.1,113.779,M,31.59,M,1.7,0157*59,43.46264582683334,141.80519105966667,565135.365706175,4812507.754564196
847,[2021-01-29 10:49:11.197] $GNGGA,14909.8,4327.75875243,N,14148.31146304,E,4,10.0,1.1,113.764,M,31.59,M,1.8,0157*56,43.462645873833324,141.80519105066665,565135.3649276592,4812507.759776877
848,[2021-01-29 10:49:11.293] $GNGGA,14909.9,4327.75875213,N,14148.3114643,E,4,10.0,1.1,113.76899999999999,M,31.59,M,1.9,0157*5E,43.462645868833334,141.8051910716667,565135.3666318207,4812507.759238014
849,[2021-01-29 10:49:11.402] $GNGGA,14910.0,4327.75875174,N,14148.31146354,E,4,10.0,1.1,113.77600000000001,M,31.59,M,1.0,0157*5F,43.46264586233333,141.805191059,565135.3656141299,4812507.75850623
850,[2021-01-29 10:49:11.496] $GNGGA,14910.1,4327.75875255,N,14148.31146242,E,4,10.0,1.1,113.773,M,31.59,M,1.1,0157*5C,43.46264587583334,141.80519104033334,565135.3640896044,4812507.759990914
851,[2021-01-29 10:49:11.605] $GNGGA,14910.2,4327.75875119,N,14148.31146672,E,4,10.0,1.1,113.774,M,31.59,M,1.2,0157*57,43.46264585316667,141.805191112,565135.3699113854,4812507.757529649
852,[2021-01-29 10:49:11.699] $GNGGA,14910.3,4327.75875183,N,14148.31146443,E,4,10.0,1.1,113.78,M,31.59,M,1.3,0157*5F,43.46264586383332,141.80519107383333,565135.3668124547,4812507.758684417
853,[2021-01-29 10:49:11.808] $GNGGA,14910.4,4327.75875008,N,14148.31146327,E,4,10.0,1.1,113.78,M,31.59,M,1.4,0157*58,43.462645834666674,141.8051910545,565135.3652798089,4812507.755430109
854,[2021-01-29 10:49:11.902] $GNGGA,14910.5,4327.7587525,N,14148.31146532,E,4,10.0,1.1,113.781,M,31.59,M,1.5,0157*54,43.462645875,141.80519108866667,565135.3680004048,4812507.759936165
855,[2021-01-29 10:49:11.996] $GNGGA,14910.6,4327.75875119,N,14148.3114634,E,4,10.0,1.1,113.781,M,31.59,M,1.6,0157*59,43.46264585316667,141.80519105666667,565135.365435218,4812507.757486375
856,[2021-01-29 10:49:12.090] $GNGGA,14910.7,4327.75875297,N,14148.31146317,E,4,10.0,1.1,113.779,M,31.59,M,1.7,0157*59,43.46264588283334,141.80519105283335,565135.3650932722,4812507.7607780965
857,[2021-01-29 10:49:12.199] $GNGGA,14910.8,4327.75875077,N,14148.31146168,E,4,10.0,1.1,113.781,M,31.59,M,1.8,0157*58,43.462645846166666,141.80519102799997,565135.363123753,4812507.75668655
858,[2021-01-29 10:49:12.293] $GNGGA,14910.9,4327.75874927,N,14148.31146349,E,4,10.0,1.1,113.779,M,31.59,M,1.9,0157*53,43.46264582116668,141.80519105816668,565135.3655909192,4812507.753933697
859,[2021-01-29 10:49:12.402] $GNGGA,14911.0,4327.75875457,N,14148.31146679,E,4,10.0,1.1,113.77,M,31.59,M,1.0,0157*56,43.462645909500004,141.80519111316667,565135.3699452801,4812507.763786824
860,[2021-01-29 10:49:12.496] $GNGGA,14911.1,4327.75875455,N,14148.31146506,E,4,10.0,1.1,113.76299999999999,M,31.59,M,1.1,0157*5D,43.46264590916666,141.8051910843333,565135.3676131734,4812507.763727253
861,[2021-01-29 10:49:12.605] $GNGGA,14911.2,4327.75875403,N,14148.31147091,E,4,10.0,1.1,113.772,M,31.59,M,1.2,0157*54,43.46264590050001,141.80519118183332,565135.3755097039,4812507.762841005
862,[2021-01-29 10:49:12.699] $GNGGA,14911.3,4327.75875591,N,14148.31146581,E,4,10.0,1.1,113.758,M,31.59,M,1.3,0157*53,43.46264593183333,141.8051910968333,565135.3686000204,4812507.766254344
863,[2021-01-29 10:49:12.808] $GNGGA,14911.4,4327.75875369,N,14148.3114648,E,4,10.0,1.1,113.775,M,31.59,M,1.4,0157*5D,43.46264589483334,141.80519108,565135.3672780208,4812507.762132036
864,[2021-01-29 10:49:12.902] $GNGGA,14911.5,4327.75875611,N,14148.31146594,E,4,10.0,1.1,113.759,M,31.59,M,1.5,0157*5D,43.46264593516666,141.805191099,565135.3687717156,4812507.76662623
865,[2021-01-29 10:49:12.996] $GNGGA,14911.6,4327.7587548,N,14148.3114649,E,4,10.0,1.1,113.76299999999999,M,31.59,M,1.6,0157*5B,43.46264591333333,141.80519108166664,565135.367392982,4812507.764187911
866,[2021-01-29 10:49:13.090] $GNGGA,14911.7,4327.75875275,N,14148.3114666,E,4,10.0,1.1,113.76100000000001,M,31.59,M,1.7,0157*58,43.46264587916667,141.80519111,565135.3697216822,4812507.760415591
867,[2021-01-29 10:49:13.199] $GNGGA,14911.8,4327.75875577,N,14148.3114701,E,4,10.0,1.1,113.765,M,31.59,M,1.8,0157*59,43.462645929500006,141.80519116833335,565135.3743864923,4812507.766051127
868,[2021-01-29 10:49:13.295] $GNGGA,14911.9,4327.75875457,N,14148.3114656,E,4,10.0,1.1,113.766,M,31.59,M,1.9,0157*5A,43.462645909500004,141.80519109333332,565135.3683408691,4812507.763771314
869,[2021-01-29 10:49:13.388] $GNGGA,14912.0,4327.7587524,N,14148.31146491,E,4,10.0,1.1,113.77,M,31.59,M,1.0,0157*51,43.46264587333333,141.80519108183333,565135.3674494126,4812507.7597457245
870,[2021-01-29 10:49:13.482] $GNGGA,14912.1,4327.75875357,N,14148.31146704,E,4,10.0,1.1,113.77,M,31.59,M,1.1,0157*59,43.46264589283334,141.80519111733332,565135.3703002343,4812507.761939119
871,[2021-01-29 10:49:13.607] $GNGGA,14912.2,4327.75875464,N,14148.31146436,E,4,10.0,1.1,113.76,M,31.59,M,1.2,0157*5D,43.462645910666666,141.80519107266667,565135.3666677956,4812507.7638847185
872,[2021-01-29 10:49:13.701] $GNGGA,14912.3,4327.75875207,N,14148.31146788,E,4,10.0,1.1,113.771,M,31.59,M,1.3,0157*58,43.462645867833324,141.80519113133334,565135.3714596013,4812507.759173617
873,[2021-01-29 10:49:13.795] $GNGGA,14912.4,4327.75875055,N,14148.31146496,E,4,10.0,1.1,113.77,M,31.59,M,1.4,0157*50,43.46264584249999,141.80519108266665,565135.3675499291,4812507.75632209
874,[2021-01-29 10:49:13.888] $GNGGA,14912.5,4327.75875219,N,14148.311466,E,4,10.0,1.1,113.764,M,31.59,M,1.5,0157*52,43.46264586983334,141.80519109999997,565135.3689227534,4812507.759371229
875,[2021-01-29 10:49:13.998] $GNGGA,14912.6,4327.7587511,N,14148.31146573,E,4,10.0,1.1,113.759,M,31.59,M,1.6,0157*51,43.462645851666664,141.80519109550002,565135.3685782367,4812507.757350158
876,[2021-01-29 10:49:14.092] $GNGGA,14912.7,4327.75875323,N,14148.31146519,E,4,10.0,1.1,113.765,M,31.59,M,1.7,0157*50,43.46264588716667,141.8051910865,565135.367812068,4812507.761285677
877,[2021-01-29 10:49:14.201] $GNGGA,14912.8,4327.75875247,N,14148.31146835,E,4,10.0,1.1,113.773,M,31.59,M,1.8,0157*57,43.462645874500005,141.8051911391667,565135.3720861212,4812507.7599201305
878,[2021-01-29 10:49:14.295] $GNGGA,14912.9,4327.75875611,N,14148.31145965,E,4,11.0,1.0,113.757,M,31.59,M,0.9,0157*50,43.46264593516666,141.80519099416668,565135.3602912666,4812507.766544245
879,[2021-01-29 10:49:14.404] $GNGGA,14913.0,4327.75875308,N,14148.31146419,E,4,11.0,1.0,113.771,M,31.59,M,1.0,0157*5C,43.462645884666664,141.8051910698333,565135.366466509,4812507.760994996
880,[2021-01-29 10:49:14.498] $GNGGA,14913.1,4327.75875201,N,14148.31146391,E,4,11.0,1.0,113.774,M,31.59,M,1.1,0157*56,43.462645866833334,141.80519106516667,565135.3661081481,4812507.759010814
881,[2021-01-29 10:49:14.607] $GNGGA,14913.2,4327.75875316,N,14148.31146595,E,4,11.0,1.0,113.77600000000001,M,31.59,M,1.2,0157*51,43.46264588600001,141.8051910991667,565135.3688379901,4812507.761166016
882,[2021-01-29 10:49:14.701] $GNGGA,14913.3,4327.7587523,N,14148.31146453,E,4,11.0,1.0,113.779,M,31.59,M,1.3,0157*50,43.462645871666666,141.80519107549998,565135.3669388682,4812507.759555674
883,[2021-01-29 10:49:14.795] $GNGGA,14913.4,4327.75875239,N,14148.31146671,E,4,11.0,1.0,113.77799999999999,M,31.59,M,1.4,0157*5A,43.46264587316667,141.80519111183335,565135.3698764321,4812507.759750676
884,[2021-01-29 10:49:14.904] $GNGGA,14913.5,4327.75875075,N,14148.31146767,E,4,11.0,1.0,113.772,M,31.59,M,1.5,0157*5C,43.462645845833336,141.80519112783335,565135.3712000921,4812507.756727607
885,[2021-01-29 10:49:14.998] $GNGGA,14913.6,4327.7587517,N,14148.31146483,E,4,11.0,1.0,113.775,M,31.59,M,1.6,0157*56,43.462645861666665,141.80519108049998,565135.3673540787,4812507.758449006
886,[2021-01-29 10:49:15.091] $GNGGA,14913.7,4327.75875279,N,14148.31146478,E,4,11.0,1.0,113.77,M,31.59,M,1.7,0157*5D,43.462645879833325,141.80519107966666,565135.3672671618,4812507.760465905
887,[2021-01-29 10:49:15.201] $GNGGA,14913.8,4327.75875301,N,14148.31146441,E,4,11.0,1.0,113.76899999999999,M,31.59,M,1.8,0157*51,43.4626458835,141.8051910735,565135.3667643754,4812507.760868297
888,[2021-01-29 10:49:15.296] $GNGGA,14913.9,4327.75875232,N,14148.31146735,E,4,11.0,1.0,113.775,M,31.59,M,1.9,0157*5D,43.462645871999996,141.80519112250002,565135.3707405602,4812507.75962945
889,[2021-01-29 10:49:15.406] $GNGGA,14914.0,4327.75875092,N,14148.3114657,E,4,10.0,1.1,113.76299999999999,M,31.59,M,1.0,0157*56,43.462645848666675,141.80519109500003,565135.3685410117,4812507.7570165945
890,[2021-01-29 10:49:15.499] $GNGGA,14914.1,4327.75875294,N,14148.31146426,E,4,10.0,1.1,113.766,M,31.59,M,1.1,0157*55,43.46264588233333,141.80519107099997,565135.36656339,4812507.760736774
891,[2021-01-29 10:49:15.593] $GNGGA,14914.2,4327.75875345,N,14148.31146412,E,4,10.0,1.1,113.77,M,31.59,M,1.2,0157*58,43.462645890833336,141.8051910686667,565135.3663655141,4812507.761678942
892,[2021-01-29 10:49:15.703] $GNGGA,14914.3,4327.75875387,N,14148.31146369,E,4,10.0,1.1,113.76299999999999,M,31.59,M,1.3,0157*5F,43.462645897833326,141.8051910615,565135.3657782528,4812507.762450741
893,[2021-01-29 10:49:15.796] $GNGGA,14914.4,4327.75875353,N,14148.31146476,E,4,10.0,1.1,113.764,M,31.59,M,1.4,0157*58,43.46264589216667,141.80519107933333,565135.367226956,4812507.761835362
894,[2021-01-29 10:49:15.890] $GNGGA,14914.5,4327.75875158,N,14148.31146186,E,4,10.0,1.1,113.765,M,31.59,M,1.5,0157*5A,43.46264585966666,141.80519103099996,565135.3633519423,4812507.758188178
895,[2021-01-29 10:49:15.999] $GNGGA,14914.6,4327.75875327,N,14148.31146532,E,4,10.0,1.1,113.762,M,31.59,M,1.6,0157*5C,43.462645887833325,141.80519108866667,565135.3679866261,4812507.761361407
896,[2021-01-29 10:49:16.093] $GNGGA,14914.7,4327.75875281,N,14148.31146483,E,4,10.0,1.1,113.766,M,31.59,M,1.7,0157*5E,43.46264588016667,141.80519108049998,565135.3673342159,4812507.760503578
897,[2021-01-29 10:49:16.202] $GNGGA,14914.8,4327.75875294,N,14148.31146481,E,4,10.0,1.1,113.76299999999999,M,31.59,M,1.8,0157*5D,43.46264588233333,141.80519108016668,565135.3673049257,4812507.760743941
898,[2021-01-29 10:49:16.298] $GNGGA,14914.9,4327.75875203,N,14148.31146468,E,4,10.0,1.1,113.775,M,31.59,M,1.9,0157*53,43.46264586716667,141.805191078,565135.3671459376,4812507.759057869
899,[2021-01-29 10:49:16.407] $GNGGA,14915.0,4327.75875092,N,14148.31146158,E,4,11.0,1.0,113.75399999999999,M,31.59,M,1.0,0157*5D,43.462645848666675,141.80519102633332,565135.3629862448,4812507.756962892
900,[2021-01-29 10:49:16.501] $GNGGA,14915.1,4327.75875036,N,14148.31146068,E,4,11.0,1.0,113.759,M,31.59,M,1.1,0157*5C,43.46264583933333,141.80519101133333,565135.3617828485,4812507.755914619
901,[2021-01-29 10:49:16.595] $GNGGA,14915.2,4327.75874908,N,14148.31146397,E,4,11.0,1.0,113.757,M,31.59,M,1.2,0157*54,43.46264581799999,141.80519106616669,565135.3662414748,4812507.753588266
902,[2021-01-29 10:49:16.688] $GNGGA,14915.3,4327.75875,N,14148.31146085,E,4,11.0,1.0,113.762,M,31.59,M,1.3,0157*52,43.46264583333334,141.80519101416664,565135.3620184903,4812507.755250489
903,[2021-01-29 10:49:16.798] $GNGGA,14915.4,4327.75874869,N,14148.31146184,E,4,11.0,1.0,113.756,M,31.59,M,1.4,0157*53,43.4626458115,141.8051910306667,565135.3633766973,4812507.752838628
904,[2021-01-29 10:49:16.891] $GNGGA,14915.5,4327.75874922,N,14148.31146173,E,4,11.0,1.0,113.766,M,31.59,M,1.5,0157*56,43.46264582033333,141.80519102883335,565135.3632189053,4812507.753818206
905,[2021-01-29 10:49:17.001] $GNGGA,14915.6,4327.75874606,N,14148.31146142,E,4,11.0,1.0,113.758,M,31.59,M,1.6,0157*50,43.46264576766666,141.80519102366665,565135.3628574938,4812507.747965113
906,[2021-01-29 10:49:17.095] $GNGGA,14915.7,4327.75874825,N,14148.31146005,E,4,11.0,1.0,113.758,M,31.59,M,1.7,0157*5D,43.46264580416667,141.8051910008333,565135.3609712101,4812507.752000871
907,[2021-01-29 10:49:17.204] $GNGGA,14915.8,4327.75874946,N,14148.31146249,E,4,11.0,1.0,113.764,M,31.59,M,1.8,0157*5C,43.46264582433333,141.8051910415,565135.3642392741,4812507.754272343
908,[2021-01-29 10:49:17.299] $GNGGA,14915.9,4327.75874948,N,14148.31146093,E,4,11.0,1.0,113.759,M,31.59,M,1.9,0157*59,43.46264582466667,141.80519101550001,565135.3621356573,4812507.754289031
909,[2021-01-29 10:49:17.409] $GNGGA,14916.0,4327.75875332,N,14148.31146542,E,4,12.0,1.0,113.76700000000001,M,31.59,M,1.0,0157*5B,43.46264588866668,141.80519109033332,565135.3681205532,4812507.761455263
910,[2021-01-29 10:49:17.503] $GNGGA,14916.1,4327.75875437,N,14148.31146393,E,4,12.0,1.0,113.773,M,31.59,M,1.1,0157*56,43.46264590616667,141.8051910655,565135.3660928813,4812507.763379353
911,[2021-01-29 10:49:17.596] $GNGGA,14916.2,4327.75875313,N,14148.31146621,E,4,12.0,1.0,113.76700000000001,M,31.59,M,1.2,0157*5E,43.46264588549999,141.80519110350002,565135.3691890687,4812507.761113874
912,[2021-01-29 10:49:17.690] $GNGGA,14916.3,4327.75875299,N,14148.31146692,E,4,12.0,1.0,113.771,M,31.59,M,1.3,0157*52,43.46264588316667,141.80519111533334,565135.3701488252,4812507.760863993
913,[2021-01-29 10:49:17.799] $GNGGA,14916.4,4327.75875277,N,14148.31146843,E,4,12.0,1.0,113.766,M,31.59,M,1.4,0157*56,43.4626458795,141.8051911405,565135.3721886089,4812507.760476463
914,[2021-01-29 10:49:17.893] $GNGGA,14916.5,4327.75875046,N,14148.31146433,E,4,12.0,1.0,113.771,M,31.59,M,1.5,0157*5B,43.462645841,141.80519107216665,565135.3667021461,4812507.7561472915
915,[2021-01-29 10:49:18.003] $GNGGA,14916.6,4327.75875228,N,14148.31146799,E,4,12.0,1.0,113.771,M,31.59,M,1.6,0157*52,43.46264587133334,141.8051911331667,565135.3716041514,4812507.759563755
916,[2021-01-29 10:49:18.096] $GNGGA,14916.7,4327.75875267,N,14148.31146469,E,4,12.0,1.0,113.77,M,31.59,M,1.7,0157*54,43.462645877833324,141.80519107816664,565135.3671479651,4812507.760242618
917,[2021-01-29 10:49:18.206] $GNGGA,14916.8,4327.75875234,N,14148.31146614,E,4,12.0,1.0,113.766,M,31.59,M,1.8,0157*5D,43.46264587233333,141.80519110233334,565135.3691088252,4812507.759650699
918,[2021-01-29 10:49:18.302] $GNGGA,14916.9,4327.75875239,N,14148.31146415,E,4,12.0,1.0,113.765,M,31.59,M,1.9,0157*50,43.46264587316667,141.80519106916668,565135.3664249281,4812507.759717311
919,[2021-01-29 10:49:18.411] $GNGGA,14917.0,4327.75875291,N,14148.31146051,E,4,12.0,1.0,113.757,M,31.59,M,1.0,0157*56,43.46264588183334,141.80519100850003,565135.36150802,4812507.760632367
920,[2021-01-29 10:49:18.489] $GNGGA,14917.1,4327.75875577,N,14148.31146205,E,4,12.0,1.0,113.74799999999999,M,31.59,M,1.1,0157*54,43.462645929500006,141.80519103416668,565135.3635331348,4812507.7659462
921,[2021-01-29 10:49:18.599] $GNGGA,14917.2,4327.75875196,N,14148.31146266,E,4,12.0,1.0,113.75200000000001,M,31.59,M,1.2,0157*51,43.46264586600001,141.80519104433336,565135.3644237419,4812507.758901974
922,[2021-01-29 10:49:18.692] $GNGGA,14917.3,4327.75875229,N,14148.31146266,E,4,12.0,1.0,113.75,M,31.59,M,1.3,0157*54,43.46264587150001,141.80519104433336,565135.3644178368,4812507.759512793
923,[2021-01-29 10:49:18.802] $GNGGA,14917.4,4327.75875244,N,14148.31146137,E,4,12.0,1.0,113.759,M,31.59,M,1.4,0157*51,43.462645873999996,141.80519102283333,565135.3626759156,4812507.759773622
924,[2021-01-29 10:49:18.895] $GNGGA,14917.5,4327.7587532,N,14148.31146371,E,4,12.0,1.0,113.756,M,31.59,M,1.5,0157*5D,43.462645886666664,141.80519106183337,565135.3658172081,4812507.761210855
925,[2021-01-29 10:49:19.005] $GNGGA,14917.6,4327.75875296,N,14148.31146011,E,4,12.0,1.0,113.756,M,31.59,M,1.6,0157*54,43.46264588266666,141.80519100183332,565135.3609678235,4812507.7607197
926,[2021-01-29 10:49:19.099] $GNGGA,14917.7,4327.75875424,N,14148.31146054,E,4,12.0,1.0,113.74600000000001,M,31.59,M,1.7,0157*5B,43.462645904,141.805191009,565135.3615246643,4812507.763094541
927,[2021-01-29 10:49:19.208] $GNGGA,14917.8,4327.75875305,N,14148.31146277,E,4,12.0,1.0,113.755,M,31.59,M,1.8,0157*5E,43.462645884166676,141.80519104616664,565135.3645525388,4812507.76092096
928,[2021-01-29 10:49:19.303] $GNGGA,14917.9,4327.75875185,N,14148.31146019,E,4,12.0,1.0,113.758,M,31.59,M,1.9,0157*53,43.462645864166674,141.80519100316664,565135.3610955442,4812507.758666174
929,[2021-01-29 10:49:19.397] $GNGGA,14918.0,4327.75875564,N,14148.31146459,E,4,11.0,1.0,113.76899999999999,M,31.59,M,1.0,0157*56,43.462645927333334,141.8051910765,565135.366959997,4812507.765738682
930,[2021-01-29 10:49:19.490] $GNGGA,14918.1,4327.75875406,N,14148.31146244,E,4,11.0,1.0,113.766,M,31.59,M,1.1,0157*56,43.462645900999995,141.80519104066667,565135.3640895479,4812507.762786132
931,[2021-01-29 10:49:19.600] $GNGGA,14918.2,4327.75875571,N,14148.31146373,E,4,11.0,1.0,113.76700000000001,M,31.59,M,1.2,0157*53,43.462645928499995,141.80519106216664,565135.365799253,4812507.765857039
932,[2021-01-29 10:49:19.694] $GNGGA,14918.3,4327.75875239,N,14148.31146375,E,4,11.0,1.0,113.771,M,31.59,M,1.3,0157*59,43.46264587316667,141.8051910625,565135.3658856304,4812507.759712095
933,[2021-01-29 10:49:19.803] $GNGGA,14918.4,4327.75875547,N,14148.31146489,E,4,11.0,1.0,113.76899999999999,M,31.59,M,1.4,0157*5A,43.46264592450001,141.8051910815,565135.3673675128,4812507.765427928
934,[2021-01-29 10:49:19.897] $GNGGA,14918.5,4327.75875231,N,14148.3114619,E,4,11.0,1.0,113.76899999999999,M,31.59,M,1.5,0157*51,43.46264587183334,141.8051910316667,565135.3633928156,4812507.759539905
935,[2021-01-29 10:49:20.006] $GNGGA,14918.6,4327.75875235,N,14148.31146195,E,4,11.0,1.0,113.76899999999999,M,31.59,M,1.6,0157*50,43.46264587249999,141.80519103249998,565135.3634595056,4812507.759614594
936,[2021-01-29 10:49:20.100] $GNGGA,14918.7,4327.75875371,N,14148.31146277,E,4,11.0,1.0,113.76799999999999,M,31.59,M,1.7,0157*5F,43.46264589516666,141.80519104616664,565135.3645407285,4812507.762142595
937,[2021-01-29 10:49:20.209] $GNGGA,14918.8,4327.75875389,N,14148.31146143,E,4,11.0,1.0,113.771,M,31.59,M,1.8,0157*54,43.46264589816667,141.80519102383334,565135.3627308647,4812507.762458304
938,[2021-01-29 10:49:20.305] $GNGGA,14918.9,4327.75875365,N,14148.31146259,E,4,11.0,1.0,113.759,M,31.59,M,1.9,0157*54,43.462645894166656,141.80519104316664,565135.3642991184,4812507.76202919
939,[2021-01-29 10:49:20.398] $GNGGA,14919.0,4327.75875,N,14148.31145784,E,4,11.0,1.0,113.758,M,31.59,M,1.0,0157*52,43.46264583333334,141.80519096400002,565135.3579602807,4812507.755211256
940,[2021-01-29 10:49:20.492] $GNGGA,14919.1,4327.75874838,N,14148.311463,E,4,11.0,1.0,113.76100000000001,M,31.59,M,1.1,0157*51,43.46264580633333,141.80519105,565135.3649462035,4812507.752279948
941,[2021-01-29 10:49:20.601] $GNGGA,14919.2,4327.75874785,N,14148.31145655,E,4,11.0,1.0,113.765,M,31.59,M,1.2,0157*5A,43.4626457975,141.8051909425,565135.3562595188,4812507.7512148665
942,[2021-01-29 10:49:20.695] $GNGGA,14919.3,4327.75874878,N,14148.3114587,E,4,11.0,1.0,113.755,M,31.59,M,1.3,0157*5D,43.462645812999995,141.80519097833331,565135.3591415993,4812507.752964286
943,[2021-01-29 10:49:20.805] $GNGGA,14919.4,4327.75874623,N,14148.31146114,E,4,11.0,1.0,113.766,M,31.59,M,1.4,0157*55,43.462645770499996,141.805191019,565135.362476944,4812507.748276129
944,[2021-01-29 10:49:20.898] $GNGGA,14919.5,4327.7587468,N,14148.31145883,E,4,11.0,1.0,113.764,M,31.59,M,1.5,0157*5A,43.46264578,141.8051909805,565135.359352302,4812507.749301071
945,[2021-01-29 10:49:21.008] $GNGGA,14919.6,4327.7587476,N,14148.31145938,E,4,11.0,1.0,113.757,M,31.59,M,1.6,0157*54,43.46264579333334,141.80519098966667,565135.3600795221,4812507.750789012
946,[2021-01-29 10:49:21.101] $GNGGA,14919.7,4327.7587481,N,14148.31145781,E,4,11.0,1.0,113.765,M,31.59,M,1.7,0157*51,43.46264580166666,141.80519096349997,565135.35795383,4812507.75169403
947,[2021-01-29 10:49:21.195] $GNGGA,14919.8,4327.75874529,N,14148.31145801,E,4,11.0,1.0,113.766,M,31.59,M,1.8,0157*52,43.46264575483333,141.80519096683332,565135.3582737632,4812507.746495425
948,[2021-01-29 10:49:21.306] $GNGGA,14919.9,4327.75874904,N,14148.31145861,E,4,11.0,1.0,113.76100000000001,M,31.59,M,1.9,0157*50,43.46264581733334,141.8051909768333,565135.3590156026,4812507.753444366
949,[2021-01-29 10:49:21.400] $GNGGA,14920.0,4327.75874884,N,14148.31146138,E,4,11.0,1.0,113.76899999999999,M,31.59,M,1.0,0157*5D,43.462645814000005,141.80519102300002,565135.3627538194,4812507.753110278
950,[2021-01-29 10:49:21.494] $GNGGA,14920.1,4327.75875173,N,14148.31146025,E,4,11.0,1.0,113.759,M,31.59,M,1.1,0157*53,43.46264586216667,141.80519100416666,565135.3611785875,4812507.758444838
951,[2021-01-29 10:49:21.603] $GNGGA,14920.2,4327.75874809,N,14148.31146036,E,4,11.0,1.0,113.755,M,31.59,M,1.2,0157*58,43.4626458015,141.805191006,565135.3613920311,4812507.751708758
952,[2021-01-29 10:49:21.697] $GNGGA,14920.3,4327.75875015,N,14148.31146003,E,4,11.0,1.0,113.766,M,31.59,M,1.3,0157*5A,43.462645835833335,141.80519100049997,565135.3609102468,4812507.7555174455
953,[2021-01-29 10:49:21.806] $GNGGA,14920.4,4327.75874966,N,14148.31145978,E,4,11.0,1.0,113.756,M,31.59,M,1.4,0157*53,43.46264582766666,141.8051909963333,565135.3605819532,4812507.754607214
954,[2021-01-29 10:49:21.900] $GNGGA,14920.5,4327.75875025,N,14148.31145982,E,4,11.0,1.0,113.762,M,31.59,M,1.5,0157*5E,43.4626458375,141.80519099700004,565135.3606253318,4812507.755699804
955,[2021-01-29 10:49:22.009] $GNGGA,14920.6,4327.75874872,N,14148.31146039,E,4,11.0,1.0,113.76700000000001,M,31.59,M,1.6,0157*5A,43.462645812000005,141.8051910065,565135.3614212035,4812507.752875257
956,[2021-01-29 10:49:22.103] $GNGGA,14920.7,4327.75874937,N,14148.31145936,E,4,11.0,1.0,113.76100000000001,M,31.59,M,1.7,0157*59,43.46264582283334,141.8051909893333,565135.3600208809,4812507.7540649595
957,[2021-01-29 10:49:22.197] $GNGGA,14920.8,4327.7587503,N,14148.31145904,E,4,11.0,1.0,113.76,M,31.59,M,1.8,0157*56,43.462645838333344,141.80519098399998,565135.3595728014,4812507.755782188
958,[2021-01-29 10:49:22.276] $GNGGA,14920.9,4327.75874778,N,14148.31145892,E,4,11.0,1.0,113.762,M,31.59,M,1.9,0157*50,43.46264579633333,141.805190982,565135.3594561075,4812507.751116189
959,[2021-01-29 10:49:22.401] $GNGGA,14921.0,4327.7587489,N,14148.31145884,E,4,12.0,1.0,113.76799999999999,M,31.59,M,1.0,0157*56,43.462645814999995,141.80519098066668,565135.3593282078,4812507.753188226
960,[2021-01-29 10:49:22.495] $GNGGA,14921.1,4327.75875157,N,14148.31146337,E,4,12.0,1.0,113.76299999999999,M,31.59,M,1.1,0157*5E,43.4626458595,141.80519105616668,565135.3653879722,4812507.758189351
961,[2021-01-29 10:49:22.605] $GNGGA,14921.2,4327.75874906,N,14148.31145898,E,4,12.0,1.0,113.765,M,31.59,M,1.2,0157*58,43.46264581766666,141.80519098300002,565135.3595140986,4812507.753486205
962,[2021-01-29 10:49:22.698] $GNGGA,14921.3,4327.75874957,N,14148.31146136,E,4,12.0,1.0,113.766,M,31.59,M,1.3,0157*51,43.462645826166664,141.80519102266663,565135.3627137884,4812507.75446122
963,[2021-01-29 10:49:22.808] $GNGGA,14921.4,4327.75874974,N,14148.31146073,E,4,12.0,1.0,113.764,M,31.59,M,1.4,0157*52,43.462645828999996,141.80519101216666,565135.361861355,4812507.754767674
964,[2021-01-29 10:49:22.901] $GNGGA,14921.5,4327.75874973,N,14148.31145995,E,4,12.0,1.0,113.765,M,31.59,M,1.5,0157*56,43.46264582883334,141.80519099916665,565135.3608099045,4812507.754738999
965,[2021-01-29 10:49:23.011] $GNGGA,14921.6,4327.75874764,N,14148.31146111,E,4,12.0,1.0,113.76799999999999,M,31.59,M,1.6,0157*54,43.462645794000004,141.8051910185,565135.3624112669,4812507.7508856
966,[2021-01-29 10:49:23.089] $GNGGA,14921.7,4327.75875116,N,14148.31146127,E,4,12.0,1.0,113.76799999999999,M,31.59,M,1.7,0157*53,43.462645852666675,141.80519102116662,565135.3625639924,4812507.757403083
967,[2021-01-29 10:49:23.198] $GNGGA,14921.8,4327.75874956,N,14148.31145988,E,4,12.0,1.0,113.76299999999999,M,31.59,M,1.8,0157*5B,43.462645826000006,141.805190998,565135.3607185687,4812507.754423421
968,[2021-01-29 10:49:23.294] $GNGGA,14921.9,4327.75874949,N,14148.3114609,E,4,12.0,1.0,113.762,M,31.59,M,1.9,0157*57,43.46264582483333,141.80519101500002,565135.3620950325,4812507.754307147
969,[2021-01-29 10:49:23.387] $GNGGA,14922.0,4327.75875129,N,14148.31146494,E,4,11.0,1.0,113.771,M,31.59,M,1.0,0157*5A,43.46264585483333,141.80519108233332,565135.3675097212,4812507.757691544
970,[2021-01-29 10:49:23.497] $GNGGA,14922.1,4327.75874965,N,14148.31146319,E,4,11.0,1.0,113.77,M,31.59,M,1.1,0157*58,43.4626458275,141.80519105316668,565135.3651796456,4812507.754633151
971,[2021-01-29 10:49:23.606] $GNGGA,14922.2,4327.75874694,N,14148.3114628,E,4,11.0,1.0,113.77600000000001,M,31.59,M,1.2,0157*5E,43.462645782333325,141.8051910466667,565135.3647023258,4812507.7496119505
972,[2021-01-29 10:49:23.700] $GNGGA,14922.3,4327.75875011,N,14148.311462,E,4,11.0,1.0,113.772,M,31.59,M,1.3,0157*58,43.462645835166654,141.80519103333336,565135.3635670051,4812507.755469084
973,[2021-01-29 10:49:23.793] $GNGGA,14922.4,4327.75874874,N,14148.31146299,E,4,11.0,1.0,113.771,M,31.59,M,1.4,0157*51,43.46264581233333,141.80519104983333,565135.3649262795,4812507.752946165
974,[2021-01-29 10:49:23.903] $GNGGA,14922.5,4327.75874812,N,14148.31146393,E,4,11.0,1.0,113.775,M,31.59,M,1.5,0157*5E,43.462645802000004,141.8051910655,565135.3662047213,4812507.751810821
975,[2021-01-29 10:49:23.997] $GNGGA,14922.6,4327.75874891,N,14148.31146269,E,4,11.0,1.0,113.76799999999999,M,31.59,M,1.6,0157*5D,43.46264581516667,141.80519104483335,565135.3645187658,4812507.75325692
976,[2021-01-29 10:49:24.090] $GNGGA,14922.7,4327.75874696,N,14148.31146236,E,4,11.0,1.0,113.77799999999999,M,31.59,M,1.7,0157*5F,43.46264578266667,141.80519103933332,565135.364108738,4812507.7496432355
977,[2021-01-29 10:49:24.200] $GNGGA,14922.8,4327.75874739,N,14148.31146497,E,4,11.0,1.0,113.771,M,31.59,M,1.8,0157*5F,43.462645789833346,141.80519108283335,565135.3676199594,4812507.7504731715
978,[2021-01-29 10:49:24.294] $GNGGA,14922.9,4327.75875158,N,14148.31146449,E,4,12.0,1.0,113.78,M,31.59,M,0.9,0157*50,43.46264585966666,141.80519107483332,565135.3668978222,4812507.758222459
979,[2021-01-29 10:49:24.403] $GNGGA,14923.0,4327.75875058,N,14148.31146277,E,4,12.0,1.0,113.777,M,31.59,M,1.0,0157*52,43.462645843,141.80519104616664,565135.364596738,4812507.756349074
980,[2021-01-29 10:49:24.497] $GNGGA,14923.1,4327.758749,N,14148.31146658,E,4,12.0,1.0,113.789,M,31.59,M,1.1,0157*5F,43.46264581666666,141.80519110966668,565135.3697618202,4812507.753474209
981,[2021-01-29 10:49:24.607] $GNGGA,14923.2,4327.75875209,N,14148.31146286,E,4,12.0,1.0,113.779,M,31.59,M,1.2,0157*54,43.46264586816667,141.80519104766665,565135.3646910614,4812507.759145206
982,[2021-01-29 10:49:24.700] $GNGGA,14923.3,4327.75875067,N,14148.31146543,E,4,12.0,1.0,113.77799999999999,M,31.59,M,1.3,0157*51,43.4626458445,141.80519109050002,565135.3681814575,4812507.756550333
983,[2021-01-29 10:49:24.810] $GNGGA,14923.4,4327.75875164,N,14148.31146324,E,4,12.0,1.0,113.773,M,31.59,M,1.4,0157*5F,43.46264586066666,141.805191054,565135.3652114477,4812507.758317223
984,[2021-01-29 10:49:24.903] $GNGGA,14923.5,4327.75875163,N,14148.31146408,E,4,12.0,1.0,113.777,M,31.59,M,1.5,0157*55,43.462645860500004,141.80519106799997,565135.3663441478,4812507.758309664
985,[2021-01-29 10:49:24.997] $GNGGA,14923.6,4327.75875231,N,14148.31146324,E,4,12.0,1.0,113.773,M,31.59,M,1.6,0157*5C,43.46264587183334,141.805191054,565135.3651994584,4812507.75955737
986,[2021-01-29 10:49:25.091] $GNGGA,14923.7,4327.75875158,N,14148.31146387,E,4,12.0,1.0,113.777,M,31.59,M,1.7,0157*5D,43.46264585966666,141.80519106450004,565135.3660619169,4812507.758214377
987,[2021-01-29 10:49:25.200] $GNGGA,14923.8,4327.75874951,N,14148.3114651,E,4,12.0,1.0,113.779,M,31.59,M,1.8,0157*5B,43.46264582516665,141.805191085,565135.3677572932,4812507.754398909
988,[2021-01-29 10:49:25.295] $GNGGA,14923.9,4327.75875178,N,14148.31146278,E,4,12.0,1.0,113.78200000000001,M,31.59,M,1.9,0157*54,43.462645863,141.80519104633333,565135.3645887488,4812507.758570363
989,[2021-01-29 10:49:25.405] $GNGGA,14924.0,4327.75874939,N,14148.31146232,E,4,11.0,1.0,113.759,M,31.59,M,1.0,0157*54,43.46264582316667,141.8051910386667,565135.3640113268,4812507.75414056
990,[2021-01-29 10:49:25.499] $GNGGA,14924.1,4327.75874892,N,14148.31146192,E,4,11.0,1.0,113.76100000000001,M,31.59,M,1.1,0157*56,43.462645815333325,141.80519103199998,565135.3634804374,4812507.753265391
991,[2021-01-29 10:49:25.608] $GNGGA,14924.2,4327.75874745,N,14148.31146242,E,4,11.0,1.0,113.76799999999999,M,31.59,M,1.2,0157*54,43.46264579083333,141.80519104033334,565135.3641808658,4812507.75055099
992,[2021-01-29 10:49:25.702] $GNGGA,14924.3,4327.75874984,N,14148.31146149,E,4,11.0,1.0,113.75299999999999,M,31.59,M,1.3,0157*57,43.46264583066666,141.80519102483336,565135.362884233,4812507.754962675
993,[2021-01-29 10:49:25.795] $GNGGA,14924.4,4327.75874648,N,14148.31146549,E,4,11.0,1.0,113.765,M,31.59,M,1.4,0157*59,43.46264577466667,141.80519109149998,565135.3683373268,4812507.74879557
994,[2021-01-29 10:49:25.905] $GNGGA,14924.5,4327.75874779,N,14148.31146132,E,4,11.0,1.0,113.76,M,31.59,M,1.5,0157*57,43.4626457965,141.805191022,565135.3626917126,4812507.751165981
995,[2021-01-29 10:49:25.999] $GNGGA,14924.6,4327.75874861,N,14148.31146228,E,4,11.0,1.0,113.762,M,31.59,M,1.6,0157*5B,43.46264581016667,141.805191038,565135.3639713523,4812507.752696286
996,[2021-01-29 10:49:26.092] $GNGGA,14924.7,4327.7587481,N,14148.31146485,E,4,11.0,1.0,113.764,M,31.59,M,1.7,0157*5A,43.46264580166666,141.8051910808333,565135.3674454624,4812507.7517857915
997,[2021-01-29 10:49:26.202] $GNGGA,14924.8,4327.758752,N,14148.31146131,E,4,11.0,1.0,113.755,M,31.59,M,1.8,0157*58,43.46264586666666,141.80519102183337,565135.3626028972,4812507.758958414
998,[2021-01-29 10:49:26.297] $GNGGA,14924.9,4327.75874966,N,14148.31146015,E,4,11.0,1.0,113.75299999999999,M,31.59,M,1.9,0157*53,43.46264582766666,141.8051910025,565135.361080807,4812507.754612037
999,[2021-01-29 10:49:26.407] $GNGGA,14925.0,4327.75875217,N,14148.3114582,E,4,11.0,1.0,113.75399999999999,M,31.59,M,1.0,0157*54,43.4626458695,141.80519096999998,565135.3584068157,4812507.759232543
1000,[2021-01-29 10:49:26.500] $GNGGA,14925.1,4327.75875315,N,14148.3114625,E,4,11.0,1.0,113.759,M,31.59,M,1.1,0157*54,43.46264588583334,141.80519104166663,565135.3641867236,4812507.761102537
1001,[2021-01-29 10:49:26.610] $GNGGA,14925.2,4327.75875217,N,14148.31146167,E,4,11.0,1.0,113.76,M,31.59,M,1.2,0157*5A,43.4626458695,141.80519102783333,565135.3630852208,4812507.759277772
1002,[2021-01-29 10:49:26.704] $GNGGA,14925.3,4327.75875047,N,14148.31146348,E,4,11.0,1.0,113.764,M,31.59,M,1.3,0157*56,43.46264584116667,141.80519105800002,565135.3655559618,4812507.7561547225
1003,[2021-01-29 10:49:26.797] $GNGGA,14925.4,4327.75875118,N,14148.31146281,E,4,11.0,1.0,113.758,M,31.59,M,1.4,0157*56,43.462645853,141.80519104683333,565135.3646399335,4812507.757460175
1004,[2021-01-29 10:49:26.891] $GNGGA,14925.5,4327.75874957,N,14148.31145824,E,4,11.0,1.0,113.762,M,31.59,M,1.5,0157*5B,43.462645826166664,141.80519097066664,565135.358507269,4812507.754420553
1005,[2021-01-29 10:49:27.000] $GNGGA,14925.6,4327.75875341,N,14148.31146352,E,4,11.0,1.0,113.75200000000001,M,31.59,M,1.6,0157*5D,43.46264589016667,141.80519105866665,565135.3655572803,4812507.761597083
1006,[2021-01-29 10:49:27.094] $GNGGA,14925.7,4327.75875201,N,14148.31146322,E,4,11.0,1.0,113.76,M,31.59,M,1.7,0157*5E,43.462645866833334,141.80519105366668,565135.3651778607,4812507.759001821
1007,[2021-01-29 10:49:27.204] $GNGGA,14925.8,4327.75875278,N,14148.31146158,E,4,11.0,1.0,113.756,M,31.59,M,1.8,0157*5A,43.46264587966666,141.80519102633332,565135.3629529614,4812507.760405688
1008,[2021-01-29 10:49:27.299] $GNGGA,14925.9,4327.75875173,N,14148.31145997,E,4,11.0,1.0,113.75299999999999,M,31.59,M,1.9,0157*5F,43.46264586216667,141.8051909995,565135.3608010818,4812507.758441187
1009,[2021-01-29 10:49:27.408] $GNGGA,14926.0,4327.75874851,N,14148.31146033,E,4,11.0,1.0,113.772,M,31.59,M,1.0,0157*53,43.4626458085,141.8051910055,565135.3613440695,4812507.752485773
1010,[2021-01-29 10:49:27.502] $GNGGA,14926.1,4327.75874935,N,14148.31146304,E,4,11.0,1.0,113.772,M,31.59,M,1.1,0157*57,43.46264582249999,141.80519105066665,565135.3649827739,4812507.754075904
1011,[2021-01-29 10:49:27.596] $GNGGA,14926.2,4327.75874846,N,14148.31146003,E,4,11.0,1.0,113.765,M,31.59,M,1.2,0157*50,43.46264580766666,141.80519100049997,565135.3609404883,4812507.752389313
1012,[2021-01-29 10:49:27.689] $GNGGA,14926.3,4327.75874842,N,14148.31146074,E,4,11.0,1.0,113.76700000000001,M,31.59,M,1.3,0157*56,43.46264580700001,141.80519101233335,565135.3618984596,4812507.752324531
1013,[2021-01-29 10:49:27.799] $GNGGA,14926.4,4327.75874648,N,14148.31146043,E,4,11.0,1.0,113.76799999999999,M,31.59,M,1.4,0157*59,43.46264577466667,141.80519100716666,565135.3615152169,4812507.748729616
1014,[2021-01-29 10:49:27.893] $GNGGA,14926.5,4327.75874948,N,14148.31146165,E,4,11.0,1.0,113.771,M,31.59,M,1.5,0157*5B,43.46264582466667,141.80519102750003,565135.3631063949,4812507.754298415
1015,[2021-01-29 10:49:28.002] $GNGGA,14926.6,4327.75874676,N,14148.31146358,E,4,11.0,1.0,113.775,M,31.59,M,1.6,0157*51,43.462645779333336,141.80519105966667,565135.365757174,4812507.749288945
1016,[2021-01-29 10:49:28.096] $GNGGA,14926.7,4327.75874785,N,14148.31146161,E,4,11.0,1.0,113.765,M,31.59,M,1.7,0157*55,43.4626457975,141.8051910268333,565135.3630816287,4812507.751280819
1017,[2021-01-29 10:49:28.205] $GNGGA,14926.8,4327.75874611,N,14148.31145982,E,4,11.0,1.0,113.77,M,31.59,M,1.8,0157*5B,43.46264576850001,141.80519099700004,565135.3606994145,4812507.748036809
1018,[2021-01-29 10:49:28.301] $GNGGA,14926.9,4327.75874854,N,14148.31146055,E,4,11.0,1.0,113.76899999999999,M,31.59,M,1.9,0157*5C,43.462645808999994,141.80519100916666,565135.3616401444,4812507.752544168
1019,[2021-01-29 10:49:28.411] $GNGGA,14927.0,4327.75875206,N,14148.31146301,E,4,11.0,1.0,113.75299999999999,M,31.59,M,1.0,0157*5A,43.462645867666666,141.80519105016668,565135.3648938362,4812507.759091631
1020,[2021-01-29 10:49:28.505] $GNGGA,14927.1,4327.75874869,N,14148.31146413,E,4,11.0,1.0,113.76700000000001,M,31.59,M,1.1,0157*5B,43.4626458115,141.80519106883335,565135.3664641734,4812507.752868477
1021,[2021-01-29 10:49:28.598] $GNGGA,14927.2,4327.7587486,N,14148.31146509,E,4,11.0,1.0,113.755,M,31.59,M,1.2,0157*59,43.462645810000005,141.80519108483335,565135.3677600971,4812507.752714403
1022,[2021-01-29 10:49:28.692] $GNGGA,14927.3,4327.75875012,N,14148.31146355,E,4,11.0,1.0,113.76,M,31.59,M,1.3,0157*5C,43.462645835333326,141.8051910591667,565135.365656605,4812507.755507795
1023,[2021-01-29 10:49:28.801] $GNGGA,14927.4,4327.75874998,N,14148.31146288,E,4,11.0,1.0,113.757,M,31.59,M,1.4,0157*53,43.462645832999996,141.80519104799998,565135.3647557825,4812507.755239927
1024,[2021-01-29 10:49:28.895] $GNGGA,14927.5,4327.75874937,N,14148.31145984,E,4,11.0,1.0,113.76,M,31.59,M,1.5,0157*56,43.46264582283334,141.8051909973333,565135.3606680386,4812507.754071216
1025,[2021-01-29 10:49:29.005] $GNGGA,14927.6,4327.75875037,N,14148.31146318,E,4,11.0,1.0,113.76,M,31.59,M,1.6,0157*52,43.4626458395,141.805191053,565135.3651532775,4812507.755965715
1026,[2021-01-29 10:49:29.098] $GNGGA,14927.7,4327.75874971,N,14148.31146672,E,4,11.0,1.0,113.756,M,31.59,M,1.7,0157*54,43.4626458285,141.805191112,565135.369937869,4812507.754790219
1027,[2021-01-29 10:49:29.208] $GNGGA,14927.8,4327.75874906,N,14148.3114632,E,4,11.0,1.0,113.762,M,31.59,M,1.8,0157*51,43.46264581766666,141.80519105333332,565135.3652036831,4812507.753541211
1028,[2021-01-29 10:49:29.287] $GNGGA,14927.9,4327.75875168,N,14148.31146468,E,4,11.0,1.0,113.759,M,31.59,M,1.9,0157*53,43.46264586133334,141.805191078,565135.3671522007,4812507.758410032
1029,[2021-01-29 10:49:29.397] $GNGGA,14928.0,4327.75875064,N,14148.31146343,E,4,11.0,1.0,113.76799999999999,M,31.59,M,1.0,0157*5D,43.462645843999994,141.80519105716667,565135.3654855079,4812507.756468734
1030,[2021-01-29 10:49:29.490] $GNGGA,14928.1,4327.75874986,N,14148.31146315,E,4,11.0,1.0,113.766,M,31.59,M,1.1,0157*54,43.462645830999996,141.8051910525,565135.3651219558,4812507.755021332
1031,[2021-01-29 10:49:29.600] $GNGGA,14928.2,4327.75874967,N,14148.31146632,E,4,11.0,1.0,113.76700000000001,M,31.59,M,1.2,0157*5A,43.462645827833335,141.8051911053333,565135.3693992851,4812507.754710968
1032,[2021-01-29 10:49:29.694] $GNGGA,14928.3,4327.75874995,N,14148.31146492,E,4,11.0,1.0,113.77,M,31.59,M,1.3,0157*59,43.46264583249999,141.805191082,565135.3675067358,4812507.755210988
1033,[2021-01-29 10:49:29.803] $GNGGA,14928.4,4327.75875194,N,14148.31146352,E,4,11.0,1.0,113.765,M,31.59,M,1.4,0157*5E,43.462645865666666,141.80519105866665,565135.3655835851,4812507.758876162
1034,[2021-01-29 10:49:29.897] $GNGGA,14928.5,4327.75875034,N,14148.31146542,E,4,11.0,1.0,113.76899999999999,M,31.59,M,1.5,0157*5E,43.462645839,141.80519109033332,565135.3681738785,4812507.755939383
1035,[2021-01-29 10:49:30.006] $GNGGA,14928.6,4327.7587495,N,14148.31146458,E,4,11.0,1.0,113.771,M,31.59,M,1.6,0157*57,43.462645824999996,141.8051910763333,565135.3670563844,4812507.754373624
1036,[2021-01-29 10:49:30.100] $GNGGA,14928.7,4327.75875067,N,14148.31146457,E,4,11.0,1.0,113.76700000000001,M,31.59,M,1.7,0157*53,43.4626458445,141.80519107616666,565135.3670219681,4812507.756539123
1037,[2021-01-29 10:49:30.209] $GNGGA,14928.8,4327.75874921,N,14148.31146418,E,4,11.0,1.0,113.76899999999999,M,31.59,M,1.8,0157*5C,43.46264582016667,141.80519106966668,565135.3665222783,4812507.753831631
1038,[2021-01-29 10:49:30.304] $GNGGA,14928.9,4327.75874926,N,14148.3114641,E,4,11.0,1.0,113.765,M,31.59,M,1.9,0157*5F,43.462645820999995,141.8051910683333,565135.3664135215,4812507.753923135
1039,[2021-01-29 10:49:30.413] $GNGGA,14929.0,4327.75875221,N,14148.31146225,E,4,12.0,1.0,113.76,M,31.59,M,1.0,0157*55,43.46264587016667,141.8051910375,565135.3638664866,4812507.75935937
1040,[2021-01-29 10:49:30.507] $GNGGA,14929.1,4327.75875209,N,14148.31146071,E,4,12.0,1.0,113.757,M,31.59,M,1.1,0157*58,43.46264586816667,141.80519101183333,565135.3617923392,4812507.759117181
1041,[2021-01-29 10:49:30.601] $GNGGA,14929.2,4327.75874936,N,14148.31146356,E,4,12.0,1.0,113.756,M,31.59,M,1.2,0157*59,43.46264582266667,141.80519105933334,565135.3656836846,4812507.754101195
1042,[2021-01-29 10:49:30.694] $GNGGA,14929.3,4327.75875171,N,14148.31146316,E,4,12.0,1.0,113.76100000000001,M,31.59,M,1.3,0157*53,43.46264586183334,141.80519105266666,565135.365102333,4812507.758445749
1043,[2021-01-29 10:49:30.804] $GNGGA,14929.4,4327.75875204,N,14148.31145984,E,4,12.0,1.0,113.759,M,31.59,M,1.4,0157*5B,43.46264586733334,141.8051909973333,565135.3606202606,4812507.759013293
1044,[2021-01-29 10:49:30.898] $GNGGA,14929.5,4327.75875054,N,14148.31146321,E,4,12.0,1.0,113.762,M,31.59,M,1.5,0157*52,43.46264584233333,141.8051910535,565135.3651906835,4812507.7562807705
1045,[2021-01-29 10:49:31.007] $GNGGA,14929.6,4327.75874901,N,14148.31146382,E,4,12.0,1.0,113.759,M,31.59,M,1.6,0157*5B,43.46264581683334,141.80519106366665,565135.3660404894,4812507.753456744
1046,[2021-01-29 10:49:31.101] $GNGGA,14929.7,4327.75875226,N,14148.3114621,E,4,12.0,1.0,113.765,M,31.59,M,1.7,0157*51,43.46264587099999,141.805191035,565135.363663356,4812507.759449963
1047,[2021-01-29 10:49:31.194] $GNGGA,14929.8,4327.75875094,N,14148.31146085,E,4,12.0,1.0,113.76100000000001,M,31.59,M,1.8,0157*50,43.462645849,141.80519101416664,565135.3620016696,4812507.756990396
1048,[2021-01-29 10:49:31.290] $GNGGA,14929.9,4327.75874971,N,14148.31146041,E,4,12.0,1.0,113.764,M,31.59,M,1.9,0157*5E,43.4626458285,141.80519100683333,565135.3614304541,4812507.754707973
1049,[2021-01-29 10:49:31.399] $GNGGA,14930.0,4327.75875264,N,14148.31146149,E,4,12.0,0.9,113.78,M,31.59,M,1.0,0157*53,43.462645877333344,141.80519102483336,565135.3628341287,4812507.760145381
1050,[2021-01-29 10:49:31.493] $GNGGA,14930.1,4327.75874836,N,14148.31146372,E,4,12.0,0.9,113.796,M,31.59,M,1.1,0157*52,43.462645806000005,141.805191062,565135.3659172968,4812507.752252315
1051,[2021-01-29 10:49:31.602] $GNGGA,14930.2,4327.75875011,N,14148.31146285,E,4,12.0,0.9,113.794,M,31.59,M,1.2,0157*55,43.462645835166654,141.80519104750002,565135.3647130104,4812507.755480161
1052,[2021-01-29 10:49:31.696] $GNGGA,14930.3,4327.75875045,N,14148.31146005,E,4,12.0,0.9,113.78399999999999,M,31.59,M,1.3,0157*5F,43.46264584083333,141.8051910008333,565135.3609318425,4812507.756072995
1053,[2021-01-29 10:49:31.806] $GNGGA,14930.4,4327.75874765,N,14148.31146169,E,4,12.0,0.9,113.791,M,31.59,M,1.4,0157*54,43.46264579416667,141.80519102816666,565135.3631930675,4812507.750911669
1054,[2021-01-29 10:49:31.899] $GNGGA,14930.5,4327.75875179,N,14148.31146206,E,4,12.0,0.9,113.788,M,31.59,M,1.5,0157*5C,43.46264586316667,141.80519103433338,565135.3636178385,4812507.758579489
1055,[2021-01-29 10:49:32.009] $GNGGA,14930.6,4327.7587513,N,14148.31146344,E,4,12.0,0.9,113.78299999999999,M,31.59,M,1.6,0157*5D,43.462645855,141.80519105733336,565135.3654871816,4812507.757690502
1056,[2021-01-29 10:49:32.102] $GNGGA,14930.7,4327.75875056,N,14148.31146254,E,4,12.0,0.9,113.789,M,31.59,M,1.7,0157*56,43.462645842666674,141.80519104233332,565135.364287,4812507.756309058
1057,[2021-01-29 10:49:32.196] $GNGGA,14930.8,4327.75875127,N,14148.31145855,E,4,12.0,0.9,113.786,M,31.59,M,1.8,0157*56,43.4626458545,141.80519097583334,565135.3588948062,4812507.757571236
1058,[2021-01-29 10:49:32.276] $GNGGA,14930.9,4327.7587509,N,14148.31146275,E,4,12.0,0.9,113.789,M,31.59,M,1.9,0157*5F,43.462645848333345,141.8051910458333,565135.3645640478,4812507.756941123
1059,[2021-01-29 10:49:32.401] $GNGGA,14931.0,4327.75874951,N,14148.31146352,E,4,11.0,1.0,113.77600000000001,M,31.59,M,1.0,0157*54,43.46264582516665,141.80519105866665,565135.3656270684,4812507.754378316
1060,[2021-01-29 10:49:32.495] $GNGGA,14931.1,4327.75874645,N,14148.31146307,E,4,11.0,1.0,113.787,M,31.59,M,1.1,0157*50,43.46264577416667,141.8051910511667,565135.3650751198,4812507.748708498
1061,[2021-01-29 10:49:32.604] $GNGGA,14931.2,4327.75874869,N,14148.31146315,E,4,11.0,1.0,113.78200000000001,M,31.59,M,1.2,0157*56,43.4626458115,141.8051910525,565135.3651428921,4812507.752855703
1062,[2021-01-29 10:49:32.698] $GNGGA,14931.3,4327.75874668,N,14148.31146173,E,4,11.0,1.0,113.78399999999999,M,31.59,M,1.3,0157*5D,43.46264577799999,141.80519102883335,565135.3632643571,4812507.749116752
1063,[2021-01-29 10:49:32.807] $GNGGA,14931.4,4327.75874677,N,14148.3114635,E,4,11.0,1.0,113.78399999999999,M,31.59,M,1.4,0157*50,43.462645779499994,141.80519105833332,565135.3656491351,4812507.7493064115
1064,[2021-01-29 10:49:32.901] $GNGGA,14931.5,4327.75874626,N,14148.31146351,E,4,11.0,1.0,113.78299999999999,M,31.59,M,1.5,0157*52,43.462645771000005,141.80519105849996,565135.3656717412,4812507.7483625505
1065,[2021-01-29 10:49:33.010] $GNGGA,14931.6,4327.75874851,N,14148.31146702,E,4,11.0,1.0,113.78299999999999,M,31.59,M,1.6,0157*5E,43.4626458085,141.805191117,565135.3703638139,4812507.752572973
1066,[2021-01-29 10:49:33.104] $GNGGA,14931.7,4327.75874791,N,14148.31146175,E,4,11.0,1.0,113.786,M,31.59,M,1.7,0157*5E,43.4626457985,141.80519102916668,565135.3632693109,4812507.751393703
1067,[2021-01-29 10:49:33.198] $GNGGA,14931.8,4327.75874689,N,14148.31146188,E,4,11.0,1.0,113.785,M,31.59,M,1.8,0157*57,43.4626457815,141.80519103133332,565135.3634628331,4812507.749507412
1068,[2021-01-29 10:49:33.293] $GNGGA,14931.9,4327.75874704,N,14148.31146446,E,4,11.0,1.0,113.788,M,31.59,M,1.9,0157*59,43.462645784,141.80519107433332,565135.3669386168,4812507.749818685
1069,[2021-01-29 10:49:33.387] $GNGGA,14932.0,4327.75875298,N,14148.31146141,E,4,11.0,1.0,113.775,M,31.59,M,1.0,0157*5B,43.462645883,141.80519102350002,565135.3627201846,4812507.760773663
1070,[2021-01-29 10:49:33.480] $GNGGA,14932.1,4327.75875201,N,14148.31146011,E,4,11.0,1.0,113.77799999999999,M,31.59,M,1.1,0157*52,43.462645866833334,141.80519100183332,565135.3609848232,4812507.758961284
1071,[2021-01-29 10:49:33.605] $GNGGA,14932.2,4327.75874849,N,14148.31146043,E,4,11.0,1.0,113.78399999999999,M,31.59,M,1.2,0157*51,43.46264580816666,141.80519100716666,565135.3614792492,4812507.752450055
1072,[2021-01-29 10:49:33.699] $GNGGA,14932.3,4327.75875049,N,14148.31146095,E,4,11.0,1.0,113.78299999999999,M,31.59,M,1.3,0157*54,43.462645841500006,141.80519101583334,565135.362144548,4812507.756158766
1073,[2021-01-29 10:49:33.809] $GNGGA,14932.4,4327.75874986,N,14148.31145854,E,4,11.0,1.0,113.777,M,31.59,M,1.4,0157*52,43.462645830999996,141.80519097566665,565135.3589065534,4812507.754961243
1074,[2021-01-29 10:49:33.902] $GNGGA,14932.5,4327.75875108,N,14148.31146195,E,4,11.0,1.0,113.779,M,31.59,M,1.5,0157*54,43.46264585133334,141.80519103249998,565135.3634822314,4812507.75726387
1075,[2021-01-29 10:49:33.996] $GNGGA,14932.6,4327.75874947,N,14148.31145939,E,4,11.0,1.0,113.78200000000001,M,31.59,M,1.6,0157*5F,43.4626458245,141.80519098983336,565135.3600595436,4812507.754250446
1076,[2021-01-29 10:49:34.105] $GNGGA,14932.7,4327.75875059,N,14148.31146072,E,4,11.0,1.0,113.77799999999999,M,31.59,M,1.7,0157*58,43.46264584316667,141.80519101200002,565135.3618326648,4812507.756340864
