,Format,Time,Latitude,LatType,Longitude,LonType,Status,Satellite,LevelAccuracy,Altitude(sea),M(sea),Altitude(geoid),M(geoid),DGPS use,checksum,Lat,Lon,UTM_X,UTM_Y
497,[2021-01-29 10:49:03.214] $GPGGA,14901.8,4327.75875326,N,14148.31145949,E,4,9.0,1.1,113.699,M,31.59,M,1.8,0000*4A,43.46264588766667,141.8051909915,565135.3601265458,4812507.76126691
498,[2021-01-29 10:49:03.295] $GPGGA,14901.9,4327.75875463,N,14148.31146036,E,4,9.0,1.1,113.691,M,31.59,M,1.9,0000*46,43.462645910499994,141.805191006,565135.3612750017,4812507.763814071
499,[2021-01-29 10:49:03.389] $GPGGA,14902.0,4327.75875392,N,14148.31146039,E,4,9.0,1.1,113.698,M,31.59,M,2.0,0000*49,43.46264589866668,141.8051910065,565135.3613281526,4812507.762500279
500,[2021-01-29 10:49:03.483] $GPGGA,14902.1,4327.75875546,N,14148.31146101,E,4,9.0,1.1,113.695,M,31.59,M,2.1,0000*41,43.46264592433334,141.8051910168333,565135.3621365047,4812507.765358844
501,[2021-01-29 10:49:03.608] $GPGGA,14902.2,4327.75875441,N,14148.31145948,E,4,9.0,1.1,113.699,M,31.59,M,2.2,0000*4D,43.46264590683332,141.80519099133335,565135.3600924852,4812507.763395389
502,[2021-01-29 10:49:03.701] $GPGGA,14902.3,4327.75875282,N,14148.31145996,E,4,9.0,1.1,113.7,M,31.59,M,2.3,0000*46,43.46264588033333,141.80519099933332,565135.3607680928,4812507.76045861
503,[2021-01-29 10:49:03.811] $GPGGA,14902.4,4327.75875424,N,14148.31145933,E,4,9.0,1.1,113.693,M,31.59,M,2.4,0000*48,43.462645904,141.80519098883335,565135.3598932914,4812507.763078769
504,[2021-01-29 10:49:03.904] $GPGGA,14902.5,4327.75875497,N,14148.31145841,E,4,9.0,1.1,113.695,M,31.59,M,2.5,0000*42,43.46264591616667,141.8051909735,565135.3586398432,4812507.764417984
505,[2021-01-29 10:49:04.014] $GPGGA,14902.6,4327.75875486,N,14148.31146017,E,4,9.0,1.1,113.699,M,31.59,M,2.6,0000*46,43.462645914333336,141.80519100283334,565135.3610147202,4812507.764237317
506,[2021-01-29 10:49:04.092] $GPGGA,14902.7,4327.75875552,N,14148.31146028,E,4,9.0,1.1,113.7,M,31.59,M,1.7,0000*40,43.462645925333334,141.80519100466665,565135.3611512157,4812507.765460388
507,[2021-01-29 10:49:04.201] $GPGGA,14902.8,4327.75875527,N,14148.31145721,E,4,9.0,1.1,113.70100000000001,M,31.59,M,1.8,0000*4E,43.46264592116666,141.8051909535,565135.3570165818,4812507.76495763
508,[2021-01-29 10:49:04.295] $GPGGA,14902.9,4327.75875634,N,14148.31146103,E,4,9.0,1.1,113.708,M,31.59,M,1.9,0000*43,43.462645939000005,141.80519101716666,565135.3621477258,4812507.766987956
509,[2021-01-29 10:49:04.405] $GPGGA,14903.0,4327.75875301,N,14148.31145604,E,4,9.0,1.1,113.697,M,31.59,M,2.0,0000*46,43.4626458835,141.805190934,565135.3554795801,4812507.7607592
510,[2021-01-29 10:49:04.498] $GPGGA,14903.1,4327.75875358,N,14148.31145689,E,4,9.0,1.1,113.695,M,31.59,M,2.1,0000*4D,43.462645893,141.80519094816665,565135.3566153855,4812507.761825329
511,[2021-01-29 10:49:04.608] $GPGGA,14903.2,4327.75875374,N,14148.31145748,E,4,9.0,1.1,113.698,M,31.59,M,2.2,0000*42,43.46264589566667,141.805190958,565135.357407986,4812507.762129174
512,[2021-01-29 10:49:04.701] $GPGGA,14903.3,4327.75875444,N,14148.31145685,E,4,9.0,1.1,113.706,M,31.59,M,2.3,0000*40,43.462645907333346,141.80519094750002,565135.3565460704,4812507.76341664
513,[2021-01-29 10:49:04.811] $GPGGA,14903.4,4327.75875408,N,14148.31145655,E,4,9.0,1.1,113.70200000000001,M,31.59,M,2.4,0000*41,43.46264590133333,141.8051909425,565135.3561480367,4812507.762746379
514,[2021-01-29 10:49:04.904] $GPGGA,14903.5,4327.75875313,N,14148.31145509,E,4,9.0,1.1,113.70100000000001,M,31.59,M,2.5,0000*45,43.46264588549999,141.8051909181667,565135.3541966036,4812507.760968933
515,[2021-01-29 10:49:04.998] $GPGGA,14903.6,4327.75875531,N,14148.31145814,E,4,9.0,1.1,113.70700000000001,M,31.59,M,2.6,0000*44,43.46264592183334,141.805190969,565135.3582697333,4812507.765043793
516,[2021-01-29 10:49:05.076] $GPGGA,14903.7,4327.75875469,N,14148.31145848,E,4,9.0,1.1,113.70299999999999,M,31.59,M,2.7,0000*45,43.462645911500005,141.8051909746667,565135.3587392316,4812507.763900627
517,[2021-01-29 10:49:05.201] $GPGGA,14903.8,4327.75875274,N,14148.31145548,E,4,9.0,1.1,113.695,M,31.59,M,1.8,0000*4F,43.462645879,141.80519092466665,565135.354729394,4812507.76025214
518,[2021-01-29 10:49:05.297] $GPGGA,14903.9,4327.75875374,N,14148.31145602,E,4,9.0,1.1,113.695,M,31.59,M,1.9,0000*43,43.46264589566667,141.80519093366667,565135.3554395512,4812507.762110144
519,[2021-01-29 10:49:05.406] $GPGGA,14904.0,4327.75875211,N,14148.31145697,E,4,9.0,1.1,113.70200000000001,M,31.59,M,2.0,0000*46,43.462645868500005,141.80519094949997,565135.3567495482,4812507.759105453
520,[2021-01-29 10:49:05.500] $GPGGA,14904.1,4327.75875286,N,14148.31145782,E,4,9.0,1.1,113.705,M,31.59,M,2.1,0000*4A,43.46264588099999,141.80519096366666,565135.3578821368,4812507.760504754
521,[2021-01-29 10:49:05.609] $GPGGA,14904.2,4327.75875308,N,14148.31145677,E,4,9.0,1.1,113.7,M,31.59,M,2.2,0000*43,43.462645884666664,141.80519094616668,565135.3564625449,4812507.760898282
522,[2021-01-29 10:49:05.703] $GPGGA,14904.3,4327.75875406,N,14148.3114557,E,4,9.0,1.1,113.70299999999999,M,31.59,M,2.3,0000*4D,43.462645900999995,141.80519092833336,565135.3550023893,4812507.762698281
523,[2021-01-29 10:49:05.812] $GPGGA,14904.4,4327.75875387,N,14148.31145753,E,4,9.0,1.1,113.70100000000001,M,31.59,M,2.4,0000*42,43.462645897833326,141.80519095883332,565135.3574730717,4812507.7623704495
524,[2021-01-29 10:49:05.906] $GPGGA,14904.5,4327.75875283,N,14148.31145629,E,4,9.0,1.1,113.705,M,31.59,M,2.5,0000*4F,43.462645880500006,141.80519093816667,565135.3558198629,4812507.760429285
525,[2021-01-29 10:49:06.000] $GPGGA,14904.6,4327.75875283,N,14148.31145601,E,4,9.0,1.1,113.70100000000001,M,31.59,M,2.6,0000*41,43.462645880500006,141.8051909335,565135.3554423531,4812507.760425636
526,[2021-01-29 10:49:06.094] $GPGGA,14904.7,4327.75875427,N,14148.31145529,E,4,9.0,1.1,113.7,M,31.59,M,2.7,0000*41,43.46264590450001,141.80519092150004,565135.3544458539,4812507.763081641
527,[2021-01-29 10:49:06.203] $GPGGA,14904.8,4327.758754,N,14148.31146172,E,4,9.0,1.1,113.72200000000001,M,31.59,M,1.8,0000*4E,43.46264590000001,141.80519102866668,565135.3631198881,4812507.762665691
528,[2021-01-29 10:49:06.298] $GPGGA,14904.9,4327.75875473,N,14148.31146083,E,4,9.0,1.1,113.71799999999999,M,31.59,M,1.9,0000*4C,43.46264591216667,141.80519101383337,565135.36190689,4812507.764005295
529,[2021-01-29 10:49:06.408] $GPGGA,14905.0,4327.75875408,N,14148.31146111,E,4,9.0,1.1,113.723,M,31.59,M,2.0,0000*40,43.46264590133333,141.8051910185,565135.362296027,4812507.762805816
530,[2021-01-29 10:49:06.501] $GPGGA,14905.1,4327.75875496,N,14148.31145997,E,4,9.0,1.1,113.71600000000001,M,31.59,M,2.1,0000*44,43.462645916,141.8051909995,565135.360743283,4812507.764419807
531,[2021-01-29 10:49:06.611] $GPGGA,14905.2,4327.75875482,N,14148.31146071,E,4,9.0,1.1,113.72,M,31.59,M,2.2,0000*46,43.46264591366666,141.80519101183333,565135.3617434875,4812507.764170317
532,[2021-01-29 10:49:06.705] $GPGGA,14905.3,4327.75875391,N,14148.31146086,E,4,9.0,1.1,113.72200000000001,M,31.59,M,2.3,0000*49,43.46264589850001,141.80519101433333,565135.3619620072,4812507.762487894
533,[2021-01-29 10:49:06.814] $GPGGA,14905.4,4327.75875603,N,14148.31146163,E,4,9.0,1.1,113.71799999999999,M,31.59,M,2.4,0000*44,43.46264593383333,141.8051910271667,565135.3629622206,4812507.7664219765
534,[2021-01-29 10:49:06.892] $GPGGA,14905.5,4327.75875411,N,14148.31146076,E,4,9.0,1.1,113.721,M,31.59,M,2.5,0000*4A,43.46264590183334,141.80519101266665,565135.3618236025,4812507.762856784
535,[2021-01-29 10:49:07.001] $GPGGA,14905.6,4327.75875532,N,14148.31146068,E,4,9.0,1.1,113.714,M,31.59,M,2.6,0000*43,43.462645922,141.80519101133333,565135.3616940923,4812507.765095409
536,[2021-01-29 10:49:07.079] $GPGGA,14905.7,4327.75875519,N,14148.31145974,E,4,9.0,1.1,113.715,M,31.59,M,2.7,0000*4C,43.46264591983333,141.80519099566666,565135.3604290694,4812507.76484253
537,[2021-01-29 10:49:07.189] $GPGGA,14905.8,4327.75875706,N,14148.31146149,E,4,9.0,1.1,113.711,M,31.59,M,1.8,0000*42,43.462645951,141.80519102483336,565135.3627550355,4812507.768326647
538,[2021-01-29 10:49:07.300] $GPGGA,14905.9,4327.75875482,N,14148.31145782,E,4,9.0,1.1,113.706,M,31.59,M,1.9,0000*49,43.46264591366666,141.80519096366666,565135.3578470638,4812507.764132648
539,[2021-01-29 10:49:07.409] $GPGGA,14906.0,4327.75875636,N,14148.31145976,E,4,9.0,1.1,113.713,M,31.59,M,2.0,0000*45,43.462645939333335,141.80519099600002,565135.360435101,4812507.767008421
540,[2021-01-29 10:49:07.503] $GPGGA,14906.1,4327.75875496,N,14148.31145646,E,4,9.0,1.1,113.706,M,31.59,M,2.1,0000*45,43.462645916,141.80519094099998,565135.3560109456,4812507.764374056
541,[2021-01-29 10:49:07.613] $GPGGA,14906.2,4327.75875571,N,14148.3114578,E,4,9.0,1.1,113.709,M,31.59,M,2.2,0000*49,43.462645928499995,141.80519096333333,565135.3578041738,4812507.765779746
542,[2021-01-29 10:49:07.706] $GPGGA,14906.3,4327.7587565,N,14148.31145803,E,4,9.0,1.1,113.704,M,31.59,M,2.3,0000*40,43.46264594166667,141.80519096716665,565135.358100131,4812507.767245006
543,[2021-01-29 10:49:07.800] $GPGGA,14906.4,4327.75875413,N,14148.31145934,E,4,9.0,1.1,113.709,M,31.59,M,2.4,0000*4D,43.46264590216667,141.80519098900004,565135.3599087438,4812507.762875294
544,[2021-01-29 10:49:07.894] $GPGGA,14906.5,4327.75875619,N,14148.31145753,E,4,9.0,1.1,113.71,M,31.59,M,2.5,0000*42,43.462645936499996,141.80519095883332,565135.3574315567,4812507.76666469
545,[2021-01-29 10:49:08.003] $GPGGA,14906.6,4327.75875662,N,14148.31145755,E,4,9.0,1.1,113.70700000000001,M,31.59,M,2.6,0000*4E,43.462645943666665,141.80519095916665,565135.3574508281,4812507.767460867
546,[2021-01-29 10:49:08.097] $GPGGA,14906.7,4327.75875615,N,14148.311459,E,4,9.0,1.1,113.7,M,31.59,M,2.7,0000*47,43.46264593583334,141.80519098333335,565135.3594141933,4812507.766609814
547,[2021-01-29 10:49:08.206] $GPGGA,14906.8,4327.75875384,N,14148.3114586,E,4,9.0,1.1,113.71600000000001,M,31.59,M,1.8,0000*49,43.462645897333346,141.80519097666667,565135.3589162297,4812507.76232887
548,[2021-01-29 10:49:08.302] $GPGGA,14906.9,4327.75875372,N,14148.3114608,E,4,9.0,1.1,113.712,M,31.59,M,1.9,0000*41,43.46264589533333,141.8051910133333,565135.3618845112,4812507.762135427
549,[2021-01-29 10:49:08.411] $GPGGA,14907.0,4327.75875291,N,14148.31146079,E,4,9.0,1.1,113.714,M,31.59,M,2.0,0000*4F,43.46264588183334,141.80519101316668,565135.3618855258,4812507.760636017
550,[2021-01-29 10:49:08.505] $GPGGA,14907.1,4327.75875367,N,14148.31145772,E,4,9.0,1.1,113.705,M,31.59,M,2.1,0000*48,43.46264589450001,141.80519096199998,565135.3577328164,4812507.7620027345
551,[2021-01-29 10:49:08.614] $GPGGA,14907.2,4327.75875429,N,14148.31145994,E,4,9.0,1.1,113.708,M,31.59,M,2.2,0000*4E,43.46264590483334,141.80519099899996,565135.36071482,4812507.763179269
552,[2021-01-29 10:49:08.692] $GPGGA,14907.3,4327.75875387,N,14148.31146091,E,4,9.0,1.1,113.712,M,31.59,M,2.3,0000*49,43.462645897833326,141.80519101516666,565135.362030135,4812507.762414505
553,[2021-01-29 10:49:08.802] $GPGGA,14907.4,4327.75875362,N,14148.3114589,E,4,9.0,1.1,113.706,M,31.59,M,2.4,0000*4D,43.46264589366667,141.80519098166667,565135.3593246402,4812507.761925567
554,[2021-01-29 10:49:08.896] $GPGGA,14907.5,4327.75875406,N,14148.31146095,E,4,9.0,1.1,113.708,M,31.59,M,2.5,0000*48,43.462645900999995,141.80519101583334,565135.3620806651,4812507.762766711
555,[2021-01-29 10:49:09.005] $GPGGA,14907.6,4327.75875399,N,14148.3114595,E,4,9.0,1.1,113.708,M,31.59,M,2.6,0000*4A,43.462645899833326,141.8051909916667,565135.3601269689,4812507.762618244
556,[2021-01-29 10:49:09.083] $GPGGA,14907.7,4327.75875443,N,14148.31146012,E,4,9.0,1.1,113.714,M,31.59,M,2.7,0000*4B,43.462645907166674,141.805191002,565135.3609550007,4812507.7634407515
557,[2021-01-29 10:49:09.208] $GPGGA,14907.8,4327.75875629,N,14148.31146011,E,4,12.0,1.0,113.698,M,31.59,M,1.8,0000*4B,43.46264593816666,141.80519100183332,565135.3609082352,4812507.766883415
558,[2021-01-29 10:49:09.305] $GPGGA,14907.9,4327.75875536,N,14148.31146187,E,4,12.0,1.0,113.705,M,31.59,M,1.9,0000*4D,43.46264592266667,141.80519103116666,565135.3632977855,4812507.765184958
559,[2021-01-29 10:49:09.415] $GPGGA,14908.0,4327.75875675,N,14148.31146042,E,4,12.0,1.0,113.695,M,31.59,M,2.0,0000*45,43.462645945833344,141.80519100700002,565135.3613179616,4812507.767738902
560,[2021-01-29 10:49:09.493] $GPGGA,14908.1,4327.75875559,N,14148.31146224,E,4,12.0,1.0,113.70100000000001,M,31.59,M,2.1,0000*46,43.462645926499995,141.80519103733332,565135.3637925196,4812507.765615501
561,[2021-01-29 10:49:09.602] $GPGGA,14908.2,4327.75875682,N,14148.31146042,E,4,12.0,1.0,113.7,M,31.59,M,2.2,0000*40,43.462645947,141.80519100700002,565135.361316709,4812507.767868468
562,[2021-01-29 10:49:09.696] $GPGGA,14908.3,4327.75875511,N,14148.31146163,E,4,12.0,1.0,113.70700000000001,M,31.59,M,2.3,0000*4C,43.462645918499994,141.8051910271667,565135.3629786834,4812507.764719089
563,[2021-01-29 10:49:09.805] $GPGGA,14908.4,4327.7587563,N,14148.31146071,E,4,12.0,1.0,113.7,M,31.59,M,2.4,0000*49,43.46264593833333,141.80519101183333,565135.3617170037,4812507.7669097455
564,[2021-01-29 10:49:09.899] $GPGGA,14908.5,4327.75875693,N,14148.31146083,E,4,12.0,1.0,113.70299999999999,M,31.59,M,2.5,0000*4E,43.46264594883334,141.80519101383337,565135.3618675224,4812507.768077418
565,[2021-01-29 10:49:10.008] $GPGGA,14908.6,4327.75875621,N,14148.31146241,E,4,12.0,1.0,113.70200000000001,M,31.59,M,2.6,0000*4A,43.462645936833326,141.80519104016668,565135.3640106269,4812507.766765315
566,[2021-01-29 10:49:10.102] $GPGGA,14908.7,4327.75875504,N,14148.31145862,E,4,12.0,1.0,113.709,M,31.59,M,1.7,0000*4E,43.46264591733333,141.805190977,565135.3589217224,4812507.764550287
567,[2021-01-29 10:49:10.211] $GPGGA,14908.8,4327.75875608,N,14148.31146167,E,4,12.0,1.0,113.71700000000001,M,31.59,M,1.8,0000*41,43.46264593466667,141.80519102783333,565135.3630152538,4812507.766515046
568,[2021-01-29 10:49:10.306] $GPGGA,14908.9,4327.75875427,N,14148.31145858,E,4,12.0,1.0,113.713,M,31.59,M,1.9,0000*4C,43.46264590450001,141.80519097633334,565135.3588815711,4812507.763124524
569,[2021-01-29 10:49:10.415] $GPGGA,14909.0,4327.75875558,N,14148.31146033,E,4,12.0,1.0,113.713,M,31.59,M,2.0,0000*41,43.46264592633334,141.8051910055,565135.361217556,4812507.765572097
570,[2021-01-29 10:49:10.494] $GPGGA,14909.1,4327.75875593,N,14148.31146123,E,4,12.0,1.0,113.715,M,31.59,M,2.1,0000*40,43.46264593216667,141.8051910205,565135.3624247103,4812507.766231666
571,[2021-01-29 10:49:10.603] $GPGGA,14909.2,4327.75875536,N,14148.31146024,E,4,12.0,1.0,113.709,M,31.59,M,2.2,0000*44,43.46264592266667,141.80519100400002,565135.361100151,4812507.765163712
572,[2021-01-29 10:49:10.697] $GPGGA,14909.3,4327.75875464,N,14148.31146009,E,4,12.0,1.0,113.708,M,31.59,M,2.3,0000*4C,43.462645910666666,141.8051910015,565135.360910797,4812507.763829062
573,[2021-01-29 10:49:10.806] $GPGGA,14909.4,4327.75875579,N,14148.31146073,E,4,12.0,1.0,113.71600000000001,M,31.59,M,2.4,0000*43,43.46264592983333,141.80519101216666,565135.3617530939,4812507.765966014
574,[2021-01-29 10:49:10.900] $GPGGA,14909.5,4327.75875701,N,14148.31146115,E,4,12.0,1.0,113.708,M,31.59,M,2.5,0000*40,43.462645950166674,141.8051910191667,565135.3622975284,4812507.768229667
575,[2021-01-29 10:49:11.009] $GPGGA,14909.6,4327.75875475,N,14148.31146024,E,4,12.0,1.0,113.71,M,31.59,M,2.6,0000*4A,43.462645912499994,141.80519100400002,565135.3611110665,4812507.764034623
576,[2021-01-29 10:49:11.103] $GPGGA,14909.7,4327.75875336,N,14148.31145846,E,4,12.0,1.0,113.71600000000001,M,31.59,M,2.7,0000*43,43.46264588933333,141.80519097433333,565135.3587360651,4812507.761438579
577,[2021-01-29 10:49:11.212] $GPGGA,14909.8,4327.75875529,N,14148.31146042,E,4,12.0,1.0,113.70700000000001,M,31.59,M,1.8,0000*47,43.462645921500005,141.80519100700002,565135.3613440874,4812507.765036491
578,[2021-01-29 10:49:11.293] $GPGGA,14909.9,4327.7587548,N,14148.31146053,E,4,12.0,1.0,113.706,M,31.59,M,1.9,0000*44,43.46264591333333,141.8051910088333,565135.3615011595,4812507.764130952
579,[2021-01-29 10:49:11.402] $GPGGA,14910.0,4327.75875541,N,14148.3114624,E,4,12.0,1.0,113.708,M,31.59,M,2.0,0000*4D,43.462645923500006,141.80519103999998,565135.3640114584,4812507.765284415
580,[2021-01-29 10:49:11.496] $GPGGA,14910.1,4327.75875415,N,14148.31145976,E,4,12.0,1.0,113.704,M,31.59,M,2.1,0000*4C,43.46264590249999,141.80519099600002,565135.3604746476,4812507.762917786
581,[2021-01-29 10:49:11.605] $GPGGA,14910.2,4327.75875605,N,14148.31146198,E,4,12.0,1.0,113.70700000000001,M,31.59,M,2.2,0000*47,43.46264593416666,141.805191033,565135.3634337464,4812507.766463556
582,[2021-01-29 10:49:11.699] $GPGGA,14910.3,4327.75875554,N,14148.31145918,E,4,12.0,1.0,113.70700000000001,M,31.59,M,2.3,0000*43,43.46264592566666,141.80519098633337,565135.3596677949,4812507.765483069
583,[2021-01-29 10:49:11.808] $GPGGA,14910.4,4327.75875436,N,14148.31146127,E,4,12.0,1.0,113.705,M,31.59,M,2.4,0000*43,43.462645906,141.80519102116662,565135.3625067304,4812507.763326172
584,[2021-01-29 10:49:11.902] $GPGGA,14910.5,4327.75875451,N,14148.31146064,E,4,12.0,1.0,113.712,M,31.59,M,2.5,0000*42,43.462645908499994,141.80519101066665,565135.3616546547,4812507.763595605
585,[2021-01-29 10:49:12.011] $GPGGA,14910.6,4327.7587539,N,14148.31145934,E,4,12.0,1.0,113.7,M,31.59,M,2.6,0000*44,43.46264589833333,141.80519098900004,565135.3599128595,4812507.762449571
586,[2021-01-29 10:49:12.105] $GPGGA,14910.7,4327.75875569,N,14148.31145841,E,4,12.0,1.0,113.708,M,31.59,M,1.7,0000*4C,43.46264592816666,141.8051909735,565135.3586269591,4812507.765750677
587,[2021-01-29 10:49:12.215] $GPGGA,14910.8,4327.75875552,N,14148.31146127,E,4,12.0,1.0,113.706,M,31.59,M,1.8,0000*40,43.462645925333334,141.80519102116662,565135.3624859728,4812507.765473292
588,[2021-01-29 10:49:12.293] $GPGGA,14910.9,4327.75875412,N,14148.31145919,E,4,12.0,1.0,113.71600000000001,M,31.59,M,1.9,0000*42,43.462645902,141.8051909865,565135.3597066848,4812507.7628548285
589,[2021-01-29 10:49:12.402] $GPGGA,14911.0,4327.75875392,N,14148.31145813,E,4,12.0,1.0,113.71,M,31.59,M,2.0,0000*42,43.46264589866668,141.8051909688333,565135.3582811224,4812507.762470822
590,[2021-01-29 10:49:12.496] $GPGGA,14911.1,4327.75875493,N,14148.31145754,E,4,12.0,1.0,113.70200000000001,M,31.59,M,2.1,0000*4B,43.46264591549999,141.80519095900002,565135.3574675898,4812507.764332603
591,[2021-01-29 10:49:12.605] $GPGGA,14911.2,4327.75875506,N,14148.31145837,E,4,12.0,1.0,113.709,M,31.59,M,2.2,0000*47,43.46264591766667,141.80519097283334,565135.3585843048,4812507.764584049
592,[2021-01-29 10:49:12.699] $GPGGA,14911.3,4327.75875416,N,14148.31145926,E,4,12.0,1.0,113.714,M,31.59,M,2.3,0000*4A,43.462645902666665,141.80519098766666,565135.3598003449,4812507.76292978
593,[2021-01-29 10:49:12.808] $GPGGA,14911.4,4327.758754,N,14148.31145852,E,4,12.0,1.0,113.70700000000001,M,31.59,M,2.4,0000*4D,43.46264590000001,141.80519097533335,565135.3588055087,4812507.762623982
594,[2021-01-29 10:49:12.902] $GPGGA,14911.5,4327.75875443,N,14148.31145859,E,4,12.0,1.0,113.708,M,31.59,M,2.5,0000*4E,43.462645907166674,141.80519097650003,565135.358892192,4812507.763420809
595,[2021-01-29 10:49:13.011] $GPGGA,14911.6,4327.75875599,N,14148.31146013,E,4,12.0,1.0,113.713,M,31.59,M,2.6,0000*47,43.46264593316668,141.80519100216668,565135.3609405695,4812507.766328388
596,[2021-01-29 10:49:13.090] $GPGGA,14911.7,4327.75875321,N,14148.31145782,E,4,12.0,1.0,113.704,M,31.59,M,2.7,0000*48,43.462645886833336,141.80519096366666,565135.3578758738,4812507.761152593
597,[2021-01-29 10:49:13.183] $GPGGA,14911.8,4327.75875339,N,14148.31145789,E,4,12.0,1.0,113.711,M,31.59,M,1.8,0000*4D,43.462645889833325,141.80519096483334,565135.3579670307,4812507.761486679
598,[2021-01-29 10:49:13.295] $GPGGA,14911.9,4327.7587529,N,14148.31146042,E,4,12.0,1.0,113.709,M,31.59,M,1.9,0000*45,43.46264588166667,141.80519100700002,565135.361386855,4812507.760612684
599,[2021-01-29 10:49:13.388] $GPGGA,14912.0,4327.75875283,N,14148.31145848,E,4,12.0,1.0,113.712,M,31.59,M,2.0,0000*4C,43.462645880500006,141.8051909746667,565135.3587725151,4812507.76045783
600,[2021-01-29 10:49:13.482] $GPGGA,14912.1,4327.7587523,N,14148.31145936,E,4,12.0,1.0,113.708,M,31.59,M,2.1,0000*47,43.462645871666666,141.8051909893333,565135.3599684504,4812507.759488287
601,[2021-01-29 10:49:13.607] $GPGGA,14912.2,4327.75875294,N,14148.311458,E,4,12.0,1.0,113.70700000000001,M,31.59,M,2.2,0000*42,43.46264588233333,141.8051909666667,565135.3581233912,4812507.760655178
602,[2021-01-29 10:49:13.701] $GPGGA,14912.3,4327.75875212,N,14148.31145966,E,4,12.0,1.0,113.712,M,31.59,M,2.3,0000*49,43.46264586866668,141.80519099433337,565135.3603761492,4812507.759159027
603,[2021-01-29 10:49:13.810] $GPGGA,14912.4,4327.75875307,N,14148.31145738,E,4,12.0,1.0,113.708,M,31.59,M,2.4,0000*42,43.462645884500006,141.8051909563333,565135.3572851493,4812507.760887724
604,[2021-01-29 10:49:13.904] $GPGGA,14912.5,4327.75875276,N,14148.31146027,E,4,12.0,1.0,113.713,M,31.59,M,2.5,0000*45,43.46264587933333,141.8051910045,565135.3611871223,4812507.760351593
605,[2021-01-29 10:49:14.013] $GPGGA,14912.6,4327.75875256,N,14148.31145747,E,4,12.0,1.0,113.708,M,31.59,M,2.6,0000*4F,43.46264587600001,141.8051909578333,565135.3574156173,4812507.7599449055
606,[2021-01-29 10:49:14.107] $GPGGA,14912.7,4327.75875287,N,14148.31145825,E,4,12.0,1.0,113.706,M,31.59,M,2.7,0000*46,43.46264588116666,141.80519097083334,565135.3584617035,4812507.760528869
607,[2021-01-29 10:49:14.201] $GPGGA,14912.8,4327.75875491,N,14148.31145768,E,4,12.0,1.0,113.715,M,31.59,M,1.8,0000*40,43.46264591516666,141.80519096133335,565135.3576567015,4812507.764297409
608,[2021-01-29 10:49:14.295] $GPGGA,14912.9,4327.75875418,N,14148.31146029,E,4,12.0,1.0,113.714,M,31.59,M,1.9,0000*41,43.462645903,141.80519100483335,565135.3611886782,4812507.7629802255
609,[2021-01-29 10:49:14.404] $GPGGA,14913.0,4327.75875379,N,14148.31145709,E,4,12.0,1.0,113.71,M,31.59,M,2.0,0000*41,43.46264589649999,141.8051909515,565135.3568812776,4812507.762216637
610,[2021-01-29 10:49:14.498] $GPGGA,14913.1,4327.7587548,N,14148.31145825,E,4,12.0,1.0,113.72,M,31.59,M,2.1,0000*42,43.46264591333333,141.80519097083334,565135.3584271674,4812507.764101232
611,[2021-01-29 10:49:14.607] $GPGGA,14913.2,4327.75875456,N,14148.31145861,E,4,12.0,1.0,113.712,M,31.59,M,2.2,0000*48,43.46264590933333,141.8051909768333,565135.3589168256,4812507.763661694
612,[2021-01-29 10:49:14.701] $GPGGA,14913.3,4327.75875443,N,14148.31145924,E,4,12.0,1.0,113.714,M,31.59,M,2.3,0000*4A,43.462645907166674,141.80519098733333,565135.3597685475,4812507.763429281
613,[2021-01-29 10:49:14.810] $GPGGA,14913.4,4327.75875435,N,14148.3114571,E,4,12.0,1.0,113.709,M,31.59,M,2.4,0000*4E,43.46264590583334,141.8051909516667,565135.3568847429,4812507.763253311
614,[2021-01-29 10:49:14.904] $GPGGA,14913.5,4327.75875487,N,14148.31145935,E,4,12.0,1.0,113.712,M,31.59,M,2.5,0000*44,43.46264591450001,141.80519098916668,565135.3599089818,4812507.764245139
615,[2021-01-29 10:49:15.013] $GPGGA,14913.6,4327.75875492,N,14148.31145705,E,4,12.0,1.0,113.711,M,31.59,M,2.6,0000*4E,43.46264591533333,141.80519095083332,565135.356807127,4812507.7643077085
616,[2021-01-29 10:49:15.091] $GPGGA,14913.7,4327.75875451,N,14148.31145633,E,4,12.0,1.0,113.711,M,31.59,M,2.7,0000*45,43.462645908499994,141.80519093883333,565135.3558437283,4812507.763539427
617,[2021-01-29 10:49:15.201] $GPGGA,14913.8,4327.75875583,N,14148.31146294,E,4,12.0,1.0,113.709,M,31.59,M,1.8,0000*4B,43.462645930499995,141.805191049,565135.3647319963,4812507.766068857
618,[2021-01-29 10:49:15.296] $GPGGA,14913.9,4327.75875522,N,14148.31145907,E,4,12.0,1.0,113.70700000000001,M,31.59,M,1.9,0000*4C,43.46264592033334,141.80519098450003,565135.3595252131,4812507.764889328
619,[2021-01-29 10:49:15.406] $GPGGA,14914.0,4327.75875547,N,14148.31145941,E,4,12.0,1.0,113.70100000000001,M,31.59,M,2.0,0000*4F,43.46264592450001,141.8051909901667,565135.3599791412,4812507.765356502
620,[2021-01-29 10:49:15.499] $GPGGA,14914.1,4327.75875457,N,14148.3114584,E,4,12.0,1.0,113.709,M,31.59,M,2.1,0000*47,43.462645909500004,141.8051909733333,565135.3586335169,4812507.763677468
621,[2021-01-29 10:49:15.609] $GPGGA,14914.2,4327.75875583,N,14148.31145951,E,4,12.0,1.0,113.7,M,31.59,M,2.2,0000*47,43.462645930499995,141.80519099183334,565135.3601075232,4812507.766024149
622,[2021-01-29 10:49:15.703] $GPGGA,14914.3,4327.75875546,N,14148.31145878,E,4,12.0,1.0,113.706,M,31.59,M,2.3,0000*42,43.46264592433334,141.80519097966666,565135.3591299246,4812507.765329778
623,[2021-01-29 10:49:15.812] $GPGGA,14914.4,4327.75875582,N,14148.31145953,E,4,12.0,1.0,113.70700000000001,M,31.59,M,2.4,0000*43,43.46264593033334,141.80519099216664,565135.360134664,4812507.766005903
624,[2021-01-29 10:49:15.906] $GPGGA,14914.5,4327.75875415,N,14148.31145723,E,4,12.0,1.0,113.699,M,31.59,M,2.5,0000*43,43.46264590249999,141.80519095383332,565135.3570635874,4812507.76288481
625,[2021-01-29 10:49:15.999] $GPGGA,14914.6,4327.75875503,N,14148.31145774,E,4,12.0,1.0,113.706,M,31.59,M,2.6,0000*40,43.462645917166675,141.8051909623333,565135.3577354461,4812507.764520308
626,[2021-01-29 10:49:16.093] $GPGGA,14914.7,4327.75875644,N,14148.31145909,E,4,12.0,1.0,113.70100000000001,M,31.59,M,2.7,0000*43,43.46264594066667,141.80519098483336,565135.3595303459,4812507.7671477655
627,[2021-01-29 10:49:16.202] $GPGGA,14914.8,4327.75875446,N,14148.31145975,E,4,12.0,1.0,113.71,M,31.59,M,1.8,0000*4B,43.46264590766667,141.80519099583336,565135.3604556163,4812507.763491456
628,[2021-01-29 10:49:16.298] $GPGGA,14914.9,4327.75875512,N,14148.31145901,E,4,12.0,1.0,113.70200000000001,M,31.59,M,1.9,0000*4B,43.46264591866668,141.8051909835,565135.3594461066,4812507.76470345
629,[2021-01-29 10:49:16.407] $GPGGA,14915.0,4327.75875365,N,14148.31145803,E,4,12.0,1.0,113.706,M,31.59,M,2.0,0000*48,43.462645894166656,141.80519096716665,565135.35815113,4812507.7619697545
630,[2021-01-29 10:49:16.501] $GPGGA,14915.1,4327.75875393,N,14148.31146025,E,4,12.0,1.0,113.713,M,31.59,M,2.1,0000*4A,43.46264589883334,141.80519100416666,565135.3611392198,4812507.762516961
631,[2021-01-29 10:49:16.610] $GPGGA,14915.2,4327.75875386,N,14148.31145824,E,4,12.0,1.0,113.706,M,31.59,M,2.2,0000*40,43.46264589766667,141.80519097066664,565135.358430502,4812507.762361195
632,[2021-01-29 10:49:16.704] $GPGGA,14915.3,4327.75875366,N,14148.31145659,E,4,12.0,1.0,113.705,M,31.59,M,2.3,0000*49,43.462645894333335,141.80519094316665,565135.3562094802,4812507.761969497
633,[2021-01-29 10:49:16.813] $GPGGA,14915.4,4327.75875483,N,14148.3114596,E,4,12.0,1.0,113.70700000000001,M,31.59,M,2.4,0000*42,43.46264591383333,141.80519099333335,565135.3602467595,4812507.764174358
634,[2021-01-29 10:49:16.907] $GPGGA,14915.5,4327.75875432,N,14148.31145999,E,4,12.0,1.0,113.71,M,31.59,M,2.5,0000*48,43.46264590533333,141.80519099983334,565135.3607816992,4812507.76323545
635,[2021-01-29 10:49:17.001] $GPGGA,14915.6,4327.75875397,N,14148.31145814,E,4,12.0,1.0,113.71,M,31.59,M,2.6,0000*44,43.462645899500004,141.805190969,565135.3582937118,4812507.762563499
636,[2021-01-29 10:49:17.079] $GPGGA,14915.7,4327.75875333,N,14148.31145758,E,4,12.0,1.0,113.705,M,31.59,M,2.7,0000*49,43.462645888833336,141.80519095966665,565135.3575501466,4812507.761371582
637,[2021-01-29 10:49:17.204] $GPGGA,14915.8,4327.75875363,N,14148.31145862,E,4,12.0,1.0,113.71700000000001,M,31.59,M,1.8,0000*4A,43.462645893833326,141.805190977,565135.3589469536,4812507.761940425
638,[2021-01-29 10:49:17.299] $GPGGA,14915.9,4327.75875564,N,14148.31145633,E,4,12.0,1.0,113.706,M,31.59,M,1.9,0000*41,43.462645927333334,141.80519093883333,565135.3558235075,4812507.765631018
639,[2021-01-29 10:49:17.409] $GPGGA,14916.0,4327.7587539,N,14148.31145644,E,4,12.0,1.0,113.714,M,31.59,M,2.0,0000*4F,43.46264589833333,141.80519094066668,565135.3560029517,4812507.762411771
640,[2021-01-29 10:49:17.503] $GPGGA,14916.1,4327.75875297,N,14148.31145727,E,4,12.0,1.0,113.71700000000001,M,31.59,M,2.1,0000*4E,43.46264588283334,141.8051909545,565135.3571386349,4812507.760701194
641,[2021-01-29 10:49:17.612] $GPGGA,14916.2,4327.75875386,N,14148.31145892,E,4,12.0,1.0,113.721,M,31.59,M,2.2,0000*4B,43.46264589766667,141.805190982,565135.3593473096,4812507.762370058
642,[2021-01-29 10:49:17.706] $GPGGA,14916.3,4327.75875432,N,14148.31146093,E,4,12.0,1.0,113.71600000000001,M,31.59,M,2.3,0000*4D,43.46264590533333,141.80519101550001,565135.3620490485,4812507.763247702
643,[2021-01-29 10:49:17.799] $GPGGA,14916.4,4327.75875312,N,14148.31145681,E,4,12.0,1.0,113.711,M,31.59,M,2.4,0000*49,43.46264588533333,141.80519094683333,565135.3565157591,4812507.760972842
644,[2021-01-29 10:49:17.893] $GPGGA,14916.5,4327.75875496,N,14148.31145782,E,4,12.0,1.0,113.713,M,31.59,M,2.5,0000*42,43.462645916,141.80519096366666,565135.3578445585,4812507.764391784
645,[2021-01-29 10:49:18.003] $GPGGA,14916.6,4327.7587538,N,14148.31145508,E,4,12.0,1.0,113.71,M,31.59,M,2.6,0000*41,43.462645896666665,141.805190918,565135.3541711303,4812507.76220895
646,[2021-01-29 10:49:18.096] $GPGGA,14916.7,4327.75875433,N,14148.31146132,E,4,12.0,1.0,113.715,M,31.59,M,1.7,0000*46,43.46264590549999,141.805191022,565135.3625746833,4812507.763271294
647,[2021-01-29 10:49:18.206] $GPGGA,14916.8,4327.75875379,N,14148.31145625,E,4,12.0,1.0,113.706,M,31.59,M,1.8,0000*4F,43.46264589649999,141.8051909375,565135.3557487522,4812507.762205689
648,[2021-01-29 10:49:18.302] $GPGGA,14916.9,4327.75875385,N,14148.31145664,E,4,12.0,1.0,113.70299999999999,M,31.59,M,1.9,0000*4C,43.4626458975,141.80519094399997,565135.3562734922,4812507.762321832
649,[2021-01-29 10:49:18.411] $GPGGA,14917.0,4327.75875547,N,14148.31145797,E,4,12.0,1.0,113.708,M,31.59,M,2.0,0000*40,43.46264592450001,141.80519096616663,565135.3580376663,4812507.765337732
650,[2021-01-29 10:49:18.505] $GPGGA,14917.1,4327.75875186,N,14148.31145716,E,4,12.0,1.0,113.714,M,31.59,M,2.1,0000*4D,43.46264586433333,141.80519095266666,565135.3570101897,4812507.758645187
651,[2021-01-29 10:49:18.599] $GPGGA,14917.2,4327.75875416,N,14148.31145734,E,4,12.0,1.0,113.713,M,31.59,M,2.2,0000*46,43.462645902666665,141.80519095566666,565135.3572117165,4812507.762904753
652,[2021-01-29 10:49:18.692] $GPGGA,14917.3,4327.75875424,N,14148.31145775,E,4,12.0,1.0,113.705,M,31.59,M,2.3,0000*45,43.462645904,141.8051909625,565135.3577630667,4812507.763058175
653,[2021-01-29 10:49:18.802] $GPGGA,14917.4,4327.75875286,N,14148.31145615,E,4,12.0,1.0,113.711,M,31.59,M,2.4,0000*49,43.46264588099999,141.80519093583334,565135.3556305701,4812507.760482987
654,[2021-01-29 10:49:18.895] $GPGGA,14917.5,4327.75875532,N,14148.31145802,E,4,12.0,1.0,113.714,M,31.59,M,2.5,0000*4C,43.462645922,141.80519096700002,565135.3581077665,4812507.765060737
655,[2021-01-29 10:49:19.005] $GPGGA,14917.6,4327.75875358,N,14148.31145631,E,4,12.0,1.0,113.709,M,31.59,M,2.6,0000*44,43.462645893,141.8051909385,565135.3558334061,4812507.761817769
656,[2021-01-29 10:49:19.099] $GPGGA,14917.7,4327.75875453,N,14148.31145764,E,4,12.0,1.0,113.70700000000001,M,31.59,M,2.7,0000*47,43.46264590883334,141.80519096066666,565135.3576095693,4812507.763593522
657,[2021-01-29 10:49:19.208] $GPGGA,14917.8,4327.75875468,N,14148.31146154,E,4,12.0,1.0,113.711,M,31.59,M,1.8,0000*4D,43.46264591133332,141.8051910256667,565135.3628650361,4812507.763921999
658,[2021-01-29 10:49:19.303] $GPGGA,14917.9,4327.7587519,N,14148.3114569,E,4,12.0,1.0,113.709,M,31.59,M,1.9,0000*4A,43.462645865,141.80519094833335,565135.3566589322,4812507.758715837
659,[2021-01-29 10:49:19.412] $GPGGA,14918.0,4327.75875456,N,14148.31145937,E,4,12.0,1.0,113.705,M,31.59,M,2.0,0000*47,43.46264590933333,141.80519098949998,565135.359941491,4812507.763671599
660,[2021-01-29 10:49:19.506] $GPGGA,14918.1,4327.75875412,N,14148.31145865,E,4,12.0,1.0,113.711,M,31.59,M,2.1,0000*44,43.462645902,141.8051909775,565135.3589786312,4812507.7628477905
661,[2021-01-29 10:49:19.600] $GPGGA,14918.2,4327.75875395,N,14148.31145982,E,4,12.0,1.0,113.711,M,31.59,M,2.2,0000*44,43.46264589916666,141.80519099700004,565135.3605591224,4812507.762548377
662,[2021-01-29 10:49:19.709] $GPGGA,14918.3,4327.75875414,N,14148.31145902,E,4,12.0,1.0,113.71,M,31.59,M,2.3,0000*43,43.46264590233333,141.80519098366665,565135.359477123,4812507.762889631
663,[2021-01-29 10:49:19.803] $GPGGA,14918.4,4327.75875486,N,14148.31145927,E,4,12.0,1.0,113.715,M,31.59,M,2.4,0000*4A,43.462645914333336,141.80519098783333,565135.3598013008,4812507.764225586
664,[2021-01-29 10:49:19.912] $GPGGA,14918.5,4327.75875264,N,14148.31145617,E,4,12.0,1.0,113.70700000000001,M,31.59,M,2.5,0000*4F,43.462645877333344,141.80519093616667,565135.3556614729,4812507.760076039
665,[2021-01-29 10:49:20.006] $GPGGA,14918.6,4327.75875287,N,14148.3114578,E,4,12.0,1.0,113.708,M,31.59,M,2.6,0000*42,43.46264588116666,141.80519096333333,565135.3578549939,4812507.760523004
666,[2021-01-29 10:49:20.100] $GPGGA,14918.7,4327.75875289,N,14148.31145979,E,4,12.0,1.0,113.71600000000001,M,31.59,M,1.7,0000*48,43.4626458815,141.8051909965,565135.3605376383,4812507.760585963
667,[2021-01-29 10:49:20.209] $GPGGA,14918.8,4327.75875398,N,14148.31145724,E,4,12.0,1.0,113.715,M,31.59,M,1.8,0000*4C,43.46264589966666,141.805190954,565135.3570801156,4812507.762570276
668,[2021-01-29 10:49:20.305] $GPGGA,14918.9,4327.75875353,N,14148.31145948,E,4,12.0,1.0,113.71700000000001,M,31.59,M,1.9,0000*4D,43.46264589216667,141.80519099133335,565135.3601082322,4812507.761766541
669,[2021-01-29 10:49:20.414] $GPGGA,14919.0,4327.75875343,N,14148.31145734,E,4,12.0,1.0,113.71600000000001,M,31.59,M,2.0,0000*4A,43.462645890500006,141.80519095566666,565135.3572247793,4812507.761553551
670,[2021-01-29 10:49:20.508] $GPGGA,14919.1,4327.75875279,N,14148.31145995,E,4,12.0,1.0,113.72,M,31.59,M,2.1,0000*42,43.462645879833325,141.80519099916665,565135.3607551478,4812507.76040295
671,[2021-01-29 10:49:20.601] $GPGGA,14919.2,4327.75875154,N,14148.31145807,E,4,12.0,1.0,113.71600000000001,M,31.59,M,2.2,0000*41,43.462645859,141.80519096783334,565135.3582428192,4812507.758064739
672,[2021-01-29 10:49:20.695] $GPGGA,14919.3,4327.75875203,N,14148.31145787,E,4,12.0,1.0,113.71600000000001,M,31.59,M,2.3,0000*47,43.46264586716667,141.80519096449999,565135.3579644011,4812507.758969106
673,[2021-01-29 10:49:20.805] $GPGGA,14919.4,4327.75875217,N,14148.31145801,E,4,12.0,1.0,113.719,M,31.59,M,2.4,0000*4C,43.4626458695,141.80519096683332,565135.3581506498,4812507.759230066
674,[2021-01-29 10:49:20.898] $GPGGA,14919.5,4327.75875133,N,14148.31145784,E,4,12.0,1.0,113.71799999999999,M,31.59,M,2.5,0000*4A,43.46264585550001,141.80519096400002,565135.3579364812,4812507.757673041
675,[2021-01-29 10:49:21.008] $GPGGA,14919.6,4327.758752,N,14148.31145874,E,4,12.0,1.0,113.71799999999999,M,31.59,M,2.6,0000*49,43.46264586666666,141.805190979,565135.3591379093,4812507.758924917
676,[2021-01-29 10:49:21.101] $GPGGA,14919.7,4327.75875106,N,14148.31145438,E,4,12.0,1.0,113.71700000000001,M,31.59,M,2.7,0000*47,43.462645851,141.80519090633337,565135.3532763936,4812507.75712818
677,[2021-01-29 10:49:21.211] $GPGGA,14919.8,4327.75875155,N,14148.31145955,E,4,12.0,1.0,113.721,M,31.59,M,2.8,0000*42,43.46264585916667,141.80519099249997,565135.3602380371,4812507.75810254
678,[2021-01-29 10:49:21.306] $GPGGA,14919.9,4327.75875254,N,14148.31145621,E,4,12.0,1.0,113.715,M,31.59,M,2.9,0000*4B,43.46264587566667,141.80519093683336,565135.3557171944,4812507.759891462
679,[2021-01-29 10:49:21.416] $GPGGA,14920.0,4327.75875075,N,14148.31145927,E,4,12.0,1.0,113.71799999999999,M,31.59,M,3.0,0000*45,43.462645845833336,141.80519098783333,565135.3598748469,4812507.756618119
680,[2021-01-29 10:49:21.509] $GPGGA,14920.1,4327.75875184,N,14148.31145679,E,4,12.0,1.0,113.72200000000001,M,31.59,M,3.1,0000*47,43.462645863999995,141.8051909465,565135.3565117,4812507.758603346
681,[2021-01-29 10:49:21.603] $GPGGA,14920.2,4327.75875125,N,14148.31145691,E,4,12.0,1.0,113.721,M,31.59,M,3.2,0000*49,43.462645854166674,141.80519094849998,565135.3566840434,4812507.75751284
682,[2021-01-29 10:49:21.697] $GPGGA,14920.3,4327.75875153,N,14148.31145658,E,4,12.0,1.0,113.725,M,31.59,M,3.3,0000*49,43.46264585883333,141.805190943,565135.3562341153,4812507.758026809
683,[2021-01-29 10:49:21.806] $GPGGA,14920.4,4327.75875042,N,14148.311457,E,4,12.0,1.0,113.71799999999999,M,31.59,M,3.4,0000*4A,43.46264584033333,141.80519095,565135.3568202398,4812507.755977712
684,[2021-01-29 10:49:21.900] $GPGGA,14920.5,4327.75875096,N,14148.31145537,E,4,12.0,1.0,113.72,M,31.59,M,3.5,0000*4E,43.46264584933333,141.80519092283333,565135.3546129401,4812507.756955987
685,[2021-01-29 10:49:22.009] $GPGGA,14920.6,4327.75875124,N,14148.3114579,E,4,12.0,1.0,113.723,M,31.59,M,3.6,0000*4A,43.462645853999994,141.80519096499998,565135.3580189836,4812507.757507234
686,[2021-01-29 10:49:22.103] $GPGGA,14920.7,4327.75875018,N,14148.31145794,E,4,12.0,1.0,113.71600000000001,M,31.59,M,3.7,0000*46,43.46264583633333,141.80519096566667,565135.3580918837,4812507.755545733
687,[2021-01-29 10:49:22.212] $GPGGA,14920.8,4327.7587527,N,14148.31145882,E,4,12.0,1.0,113.719,M,31.59,M,1.8,0000*4F,43.462645878333326,141.80519098033335,565135.3592332451,4812507.760221634
688,[2021-01-29 10:49:22.308] $GPGGA,14920.9,4327.75875149,N,14148.31145792,E,4,12.0,1.0,113.715,M,31.59,M,1.9,0000*44,43.46264585816667,141.8051909653333,565135.358041474,4812507.757970236
689,[2021-01-29 10:49:22.417] $GPGGA,14921.0,4327.75875246,N,14148.31145853,E,4,12.0,1.0,113.715,M,31.59,M,2.0,0000*48,43.46264587433333,141.8051909755,565135.358846548,4812507.759773623
690,[2021-01-29 10:49:22.511] $GPGGA,14921.1,4327.75875158,N,14148.31145771,E,4,12.0,1.0,113.719,M,31.59,M,2.1,0000*47,43.46264585966666,141.80519096183332,565135.3577567337,4812507.758134086
691,[2021-01-29 10:49:22.605] $GPGGA,14921.2,4327.75875311,N,14148.31145688,E,4,12.0,1.0,113.711,M,31.59,M,2.2,0000*47,43.46264588516666,141.80519094800002,565135.356610316,4812507.760955243
692,[2021-01-29 10:49:22.698] $GPGGA,14921.3,4327.75874994,N,14148.3114569,E,4,12.0,1.0,113.713,M,31.59,M,2.3,0000*4A,43.46264583233333,141.80519094833335,565135.3566940052,4812507.755087946
693,[2021-01-29 10:49:22.808] $GPGGA,14921.4,4327.7587513,N,14148.31145762,E,4,12.0,1.0,113.72200000000001,M,31.59,M,2.4,0000*43,43.462645855,141.80519096033333,565135.3576404043,4812507.757614643
694,[2021-01-29 10:49:22.901] $GPGGA,14921.5,4327.75875191,N,14148.31146036,E,4,12.0,1.0,113.71799999999999,M,31.59,M,2.5,0000*44,43.46264586516666,141.805191006,565135.3613236744,4812507.758779445
695,[2021-01-29 10:49:23.011] $GPGGA,14921.6,4327.75875131,N,14148.3114574,E,4,12.0,1.0,113.71600000000001,M,31.59,M,2.6,0000*45,43.462645855166656,141.80519095666665,565135.3573436094,4812507.757630283
696,[2021-01-29 10:49:23.073] $GPGGA,14921.7,4327.75875152,N,14148.31145606,E,4,12.0,1.0,113.715,M,31.59,M,2.7,0000*40,43.462645858666676,141.80519093433333,565135.3555332067,4812507.758001522
697,[2021-01-29 10:49:23.183] $GPGGA,14921.8,4327.75875405,N,14148.31146084,E,4,12.0,1.0,113.71799999999999,M,31.59,M,1.8,0000*46,43.46264590083334,141.805191014,565135.3619325381,4812507.762746768
698,[2021-01-29 10:49:23.309] $GPGGA,14921.9,4327.75875221,N,14148.31145945,E,4,12.0,1.0,113.71700000000001,M,31.59,M,1.9,0000*4E,43.46264587016667,141.80519099083332,565135.3600914049,4812507.759322873
699,[2021-01-29 10:49:23.387] $GPGGA,14922.0,4327.75875465,N,14148.31146002,E,4,12.0,1.0,113.71,M,31.59,M,2.0,0000*46,43.46264591083334,141.80519100033334,565135.360816242,4812507.76384666
700,[2021-01-29 10:49:23.481] $GPGGA,14922.1,4327.75875342,N,14148.31145932,E,4,12.0,1.0,113.714,M,31.59,M,2.1,0000*49,43.462645890333334,141.80519098866668,565135.3598944828,4812507.761560849
701,[2021-01-29 10:49:23.606] $GPGGA,14922.2,4327.75875314,N,14148.31145842,E,4,12.0,1.0,113.713,M,31.59,M,2.2,0000*4B,43.46264588566667,141.80519097366667,565135.3586860719,4812507.761030847
702,[2021-01-29 10:49:23.700] $GPGGA,14922.3,4327.758753,N,14148.3114584,E,4,12.0,1.0,113.71,M,31.59,M,2.3,0000*4F,43.46264588333333,141.8051909733333,565135.3586616111,4812507.7607714515
703,[2021-01-29 10:49:23.809] $GPGGA,14922.4,4327.75875394,N,14148.31146007,E,4,12.0,1.0,113.711,M,31.59,M,2.4,0000*4B,43.462645899,141.80519100116666,565135.360896357,4812507.762533126
704,[2021-01-29 10:49:23.903] $GPGGA,14922.5,4327.75875336,N,14148.31145959,E,4,12.0,1.0,113.71600000000001,M,31.59,M,2.5,0000*45,43.46264588933333,141.8051909931667,565135.3602595823,4812507.761453308
705,[2021-01-29 10:49:24.012] $GPGGA,14922.6,4327.75875238,N,14148.31145836,E,4,12.0,1.0,113.71600000000001,M,31.59,M,2.6,0000*42,43.462645873,141.80519097266668,565135.3586187777,4812507.759623331
706,[2021-01-29 10:49:24.106] $GPGGA,14922.7,4327.75875346,N,14148.31145905,E,4,12.0,1.0,113.711,M,31.59,M,2.7,0000*4C,43.462645890999994,141.80519098416667,565135.3595297392,4812507.761631368
707,[2021-01-29 10:49:24.215] $GPGGA,14922.8,4327.758755,N,14148.31145884,E,4,12.0,1.0,113.706,M,31.59,M,1.8,0000*45,43.462645916666666,141.80519098066668,565135.359219052,4812507.764479117
708,[2021-01-29 10:49:24.310] $GPGGA,14922.9,4327.75875438,N,14148.31145868,E,4,12.0,1.0,113.705,M,31.59,M,1.9,0000*4E,43.462645906333336,141.805190978,565135.3590144287,4812507.763329432
709,[2021-01-29 10:49:24.403] $GPGGA,14923.0,4327.7587558,N,14148.31145776,E,4,12.0,1.0,113.70100000000001,M,31.59,M,2.0,0000*4A,43.46264592999999,141.8051909626667,565135.3577486355,4812507.76594581
710,[2021-01-29 10:49:24.513] $GPGGA,14923.1,4327.75875372,N,14148.31145765,E,4,12.0,1.0,113.705,M,31.59,M,2.1,0000*47,43.46264589533333,141.8051909608333,565135.3576375437,4812507.76209437
711,[2021-01-29 10:49:24.607] $GPGGA,14923.2,4327.75875493,N,14148.31145953,E,4,12.0,1.0,113.704,M,31.59,M,2.2,0000*45,43.46264591549999,141.80519099216664,565135.3601505901,4812507.764358541
712,[2021-01-29 10:49:24.700] $GPGGA,14923.3,4327.75875496,N,14148.31145955,E,4,12.0,1.0,113.70200000000001,M,31.59,M,2.3,0000*40,43.462645916,141.80519099249997,565135.3601770172,4812507.764414333
713,[2021-01-29 10:49:24.810] $GPGGA,14923.4,4327.75875469,N,14148.31145758,E,4,12.0,1.0,113.70700000000001,M,31.59,M,2.4,0000*46,43.462645911500005,141.80519095966665,565135.3575258103,4812507.763888895
714,[2021-01-29 10:49:24.903] $GPGGA,14923.5,4327.75875494,N,14148.3114585,E,4,12.0,1.0,113.70100000000001,M,31.59,M,2.5,0000*45,43.46264591566666,141.80519097500002,565135.358761724,4812507.764363625
715,[2021-01-29 10:49:25.013] $GPGGA,14923.6,4327.75875375,N,14148.31145714,E,4,12.0,1.0,113.704,M,31.59,M,2.6,0000*47,43.46264589583334,141.80519095233333,565135.3569494054,4812507.762143252
716,[2021-01-29 10:49:25.075] $GPGGA,14923.7,4327.75875532,N,14148.31145951,E,4,12.0,1.0,113.7,M,31.59,M,2.7,0000*49,43.462645922,141.80519099183334,565135.3601166493,4812507.765080158
717,[2021-01-29 10:49:25.200] $GPGGA,14923.8,4327.75875196,N,14148.31145874,E,4,12.0,1.0,113.71,M,31.59,M,1.8,0000*47,43.46264586600001,141.805190979,565135.359138625,4812507.75885088
718,[2021-01-29 10:49:25.311] $GPGGA,14923.9,4327.75875308,N,14148.31146099,E,4,12.0,1.0,113.713,M,31.59,M,1.9,0000*49,43.462645884666664,141.80519101650003,565135.3621521336,4812507.760953287
719,[2021-01-29 10:49:25.405] $GPGGA,14924.0,4327.75875217,N,14148.31145897,E,4,12.0,1.0,113.71600000000001,M,31.59,M,2.0,0000*42,43.4626458695,141.80519098283332,565135.3594449629,4812507.759242579
720,[2021-01-29 10:49:25.514] $GPGGA,14924.1,4327.75875212,N,14148.3114589,E,4,12.0,1.0,113.709,M,31.59,M,2.1,0000*4E,43.46264586866668,141.80519098166667,565135.3593514818,4812507.75914912
721,[2021-01-29 10:49:25.608] $GPGGA,14924.2,4327.75875264,N,14148.31145911,E,4,12.0,1.0,113.709,M,31.59,M,2.2,0000*47,43.462645877333344,141.80519098516666,565135.3596253066,4812507.760114359
722,[2021-01-29 10:49:25.702] $GPGGA,14924.3,4327.75875255,N,14148.31145932,E,4,12.0,1.0,113.71,M,31.59,M,2.3,0000*4C,43.46264587583334,141.80519098866668,565135.3599100509,4812507.759950507
723,[2021-01-29 10:49:25.811] $GPGGA,14924.4,4327.75875206,N,14148.31145984,E,4,12.0,1.0,113.70700000000001,M,31.59,M,2.4,0000*41,43.462645867666666,141.8051909973333,565135.3606199027,4812507.759050312
724,[2021-01-29 10:49:25.905] $GPGGA,14924.5,4327.75875276,N,14148.31145624,E,4,12.0,1.0,113.70100000000001,M,31.59,M,2.5,0000*45,43.46264587933333,141.80519093733335,565135.3557537036,4812507.760299065
725,[2021-01-29 10:49:25.999] $GPGGA,14924.6,4327.75875242,N,14148.31146034,E,4,12.0,1.0,113.715,M,31.59,M,2.6,0000*43,43.462645873666666,141.80519100566667,565135.3612875843,4812507.759723178
726,[2021-01-29 10:49:26.108] $GPGGA,14924.7,4327.75875268,N,14148.31146036,E,4,12.0,1.0,113.709,M,31.59,M,1.7,0000*47,43.462645878,141.805191006,565135.3613098958,4812507.760204689
727,[2021-01-29 10:49:26.202] $GPGGA,14924.8,4327.75875254,N,14148.31146224,E,4,12.0,1.0,113.711,M,31.59,M,1.8,0000*40,43.46264587566667,141.80519103733332,565135.3638470975,4812507.759970058
728,[2021-01-29 10:49:26.313] $GPGGA,14924.9,4327.75875294,N,14148.3114611,E,4,12.0,1.0,113.712,M,31.59,M,1.9,0000*4B,43.46264588233333,141.80519101833332,565135.3623029427,4812507.760695584
729,[2021-01-29 10:49:26.407] $GPGGA,14925.0,4327.75875208,N,14148.31146108,E,4,12.0,1.0,113.711,M,31.59,M,2.0,0000*46,43.462645867999996,141.80519101800002,565135.3622913678,4812507.759103494
730,[2021-01-29 10:49:26.500] $GPGGA,14925.1,4327.758753,N,14148.31145887,E,4,12.0,1.0,113.711,M,31.59,M,2.1,0000*42,43.46264588333333,141.80519098116667,565135.3592952888,4812507.760777577
731,[2021-01-29 10:49:26.610] $GPGGA,14925.2,4327.75875162,N,14148.31146046,E,4,12.0,1.0,113.71,M,31.59,M,2.2,0000*43,43.46264586033333,141.80519100766665,565135.3614636877,4812507.75824397
732,[2021-01-29 10:49:26.704] $GPGGA,14925.3,4327.75875222,N,14148.31146077,E,4,12.0,1.0,113.71,M,31.59,M,2.3,0000*46,43.46264587033333,141.80519101283335,565135.3618709089,4812507.759358589
733,[2021-01-29 10:49:26.813] $GPGGA,14925.4,4327.7587522,N,14148.3114622,E,4,12.0,1.0,113.71,M,31.59,M,2.4,0000*44,43.46264587000001,141.80519103666666,565135.3637992516,4812507.759340209
734,[2021-01-29 10:49:26.907] $GPGGA,14925.5,4327.75875273,N,14148.31146058,E,4,12.0,1.0,113.712,M,31.59,M,2.5,0000*4D,43.462645878833335,141.8051910096667,565135.361605617,4812507.7603001045
735,[2021-01-29 10:49:27.016] $GPGGA,14925.6,4327.75875241,N,14148.31146292,E,4,12.0,1.0,113.708,M,31.59,M,2.6,0000*43,43.4626458735,141.80519104866667,565135.3647662313,4812507.759738297
736,[2021-01-29 10:49:27.110] $GPGGA,14925.7,4327.75875376,N,14148.31145915,E,4,12.0,1.0,113.70200000000001,M,31.59,M,2.7,0000*4B,43.462645896,141.80519098583332,565135.3596591948,4812507.76218796
737,[2021-01-29 10:49:27.204] $GPGGA,14925.8,4327.75875211,N,14148.3114609,E,4,12.0,1.0,113.709,M,31.59,M,1.8,0000*44,43.462645868500005,141.80519101500002,565135.3620481492,4812507.759156678
738,[2021-01-29 10:49:27.299] $GPGGA,14925.9,4327.75875136,N,14148.31146103,E,4,12.0,1.0,113.715,M,31.59,M,1.9,0000*44,43.46264585600001,141.80519101716666,565135.3622368398,4812507.757770149
739,[2021-01-29 10:49:27.408] $GPGGA,14926.0,4327.75875263,N,14148.31145966,E,4,12.0,1.0,113.708,M,31.59,M,2.0,0000*43,43.46264587716667,141.80519099433337,565135.3603670232,4812507.760103019
740,[2021-01-29 10:49:27.502] $GPGGA,14926.1,4327.75875082,N,14148.31146172,E,4,12.0,1.0,113.71,M,31.59,M,2.1,0000*49,43.46264584700001,141.80519102866668,565135.3631767923,4812507.756779621
741,[2021-01-29 10:49:27.611] $GPGGA,14926.2,4327.75875325,N,14148.31145866,E,4,12.0,1.0,113.70299999999999,M,31.59,M,2.2,0000*4A,43.4626458875,141.80519097766668,565135.3590076833,4812507.761237581
742,[2021-01-29 10:49:27.705] $GPGGA,14926.3,4327.75875057,N,14148.31145925,E,4,12.0,1.0,113.705,M,31.59,M,2.3,0000*4C,43.46264584283334,141.80519098750003,565135.3598511058,4812507.756284685
743,[2021-01-29 10:49:27.799] $GPGGA,14926.4,4327.75875227,N,14148.3114582,E,4,12.0,1.0,113.708,M,31.59,M,2.4,0000*40,43.46264587116666,141.80519096999998,565135.3584050261,4812507.759417638
744,[2021-01-29 10:49:27.893] $GPGGA,14926.5,4327.75875226,N,14148.31146004,E,4,12.0,1.0,113.71,M,31.59,M,2.5,0000*45,43.46264587099999,141.80519100066667,565135.3608859737,4812507.7594231125
745,[2021-01-29 10:49:28.002] $GPGGA,14926.6,4327.75875208,N,14148.31145997,E,4,12.0,1.0,113.708,M,31.59,M,2.6,0000*40,43.462645867999996,141.8051909995,565135.3607948187,4812507.759089027
746,[2021-01-29 10:49:28.111] $GPGGA,14926.7,4327.75875274,N,14148.31146024,E,4,12.0,1.0,113.699,M,31.59,M,1.7,0000*43,43.462645879,141.80519100400002,565135.3611470342,4812507.760314183
747,[2021-01-29 10:49:28.205] $GPGGA,14926.8,4327.75875123,N,14148.31146131,E,4,12.0,1.0,113.71,M,31.59,M,1.8,0000*47,43.46264585383332,141.80519102183337,565135.3626166759,4812507.75753317
748,[2021-01-29 10:49:28.301] $GPGGA,14926.9,4327.75875377,N,14148.31146285,E,4,12.0,1.0,113.709,M,31.59,M,1.9,0000*40,43.46264589616667,141.80519104750002,565135.3646475169,4812507.762254696
749,[2021-01-29 10:49:28.411] $GPGGA,14927.0,4327.75875377,N,14148.31146054,E,4,12.0,1.0,113.709,M,31.59,M,2.0,0000*4C,43.46264589616667,141.805191009,565135.3615330748,4812507.762224588
750,[2021-01-29 10:49:28.505] $GPGGA,14927.1,4327.75875223,N,14148.31146088,E,4,12.0,1.0,113.70299999999999,M,31.59,M,2.1,0000*47,43.462645870500005,141.8051910146667,565135.3620190358,4812507.759378534
751,[2021-01-29 10:49:28.614] $GPGGA,14927.2,4327.75875269,N,14148.3114612,E,4,12.0,1.0,113.709,M,31.59,M,2.2,0000*40,43.46264587816667,141.80519102000002,565135.3624422422,4812507.760234147
752,[2021-01-29 10:49:28.708] $GPGGA,14927.3,4327.7587527,N,14148.31146105,E,4,12.0,1.0,113.709,M,31.59,M,2.3,0000*4F,43.462645878333326,141.8051910175,565135.3622398253,4812507.760250702
753,[2021-01-29 10:49:28.801] $GPGGA,14927.4,4327.75875188,N,14148.31145951,E,4,12.0,1.0,113.705,M,31.59,M,2.4,0000*4D,43.462645864666676,141.80519099183334,565135.360178206,4812507.758712838
754,[2021-01-29 10:49:28.911] $GPGGA,14927.5,4327.75875137,N,14148.31146009,E,4,12.0,1.0,113.70700000000001,M,31.59,M,2.5,0000*4C,43.46264585616667,141.8051910015,565135.3609693117,4812507.757776405
755,[2021-01-29 10:49:29.005] $GPGGA,14927.6,4327.75875391,N,14148.31146081,E,4,12.0,1.0,113.70299999999999,M,31.59,M,2.6,0000*46,43.46264589850001,141.8051910135,565135.3618945953,4812507.762487244
756,[2021-01-29 10:49:29.083] $GPGGA,14927.7,4327.75875187,N,14148.31146126,E,4,12.0,1.0,113.708,M,31.59,M,2.7,0000*44,43.462645864500004,141.80519102099998,565135.3625378074,4812507.758717138
757,[2021-01-29 10:49:29.176] $GPGGA,14927.8,4327.7587532,N,14148.31146078,E,4,12.0,1.0,113.713,M,31.59,M,1.8,0000*48,43.462645886666664,141.80519101299998,565135.3618668523,4812507.761172664
758,[2021-01-29 10:49:29.303] $GPGGA,14927.9,4327.75875213,N,14148.31146086,E,4,12.0,1.0,113.708,M,31.59,M,1.9,0000*42,43.462645868833334,141.80519101433333,565135.3619938593,4812507.759193176
759,[2021-01-29 10:49:29.412] $GPGGA,14928.0,4327.75875364,N,14148.31145963,E,4,12.0,1.0,113.706,M,31.59,M,2.0,0000*40,43.462645894,141.80519099383332,565135.3603084977,4812507.7619721005
760,[2021-01-29 10:49:29.506] $GPGGA,14928.1,4327.75875173,N,14148.3114621,E,4,12.0,1.0,113.709,M,31.59,M,2.1,0000*47,43.46264586216667,141.805191035,565135.3636728401,4812507.758468952
761,[2021-01-29 10:49:29.600] $GPGGA,14928.2,4327.75875374,N,14148.31146066,E,4,12.0,1.0,113.711,M,31.59,M,2.2,0000*48,43.46264589566667,141.805191011,565135.3616954015,4812507.762170622
762,[2021-01-29 10:49:29.709] $GPGGA,14928.3,4327.75875419,N,14148.3114598,E,4,12.0,1.0,113.706,M,31.59,M,2.3,0000*40,43.462645903166674,141.80519099666665,565135.3605278577,4812507.7629923485
763,[2021-01-29 10:49:29.803] $GPGGA,14928.4,4327.75875428,N,14148.31145967,E,4,12.0,1.0,113.7,M,31.59,M,2.4,0000*4D,43.462645904666665,141.8051909945,565135.3603509773,4812507.763157239
764,[2021-01-29 10:49:29.912] $GPGGA,14928.5,4327.75875214,N,14148.31145871,E,4,12.0,1.0,113.706,M,31.59,M,2.5,0000*44,43.462645869,141.8051909785,565135.359094958,4812507.759183661
765,[2021-01-29 10:49:30.006] $GPGGA,14928.6,4327.75875317,N,14148.31146168,E,4,12.0,1.0,113.70700000000001,M,31.59,M,2.6,0000*45,43.46264588616667,141.80519102799997,565135.3630808063,4812507.761128868
766,[2021-01-29 10:49:30.100] $GPGGA,14928.7,4327.75875436,N,14148.31146116,E,4,12.0,1.0,113.704,M,31.59,M,2.7,0000*4B,43.462645906,141.80519101933334,565135.3623584285,4812507.763324738
767,[2021-01-29 10:49:30.209] $GPGGA,14928.8,4327.75875361,N,14148.31145975,E,4,12.0,1.0,113.699,M,31.59,M,1.8,0000*46,43.4626458935,141.80519099583336,565135.3604708265,4812507.761918137
768,[2021-01-29 10:49:30.304] $GPGGA,14928.9,4327.75875307,N,14148.31146054,E,4,12.0,1.0,113.70700000000001,M,31.59,M,1.9,0000*49,43.462645884500006,141.805191009,565135.3615456008,4812507.760928911
769,[2021-01-29 10:49:30.413] $GPGGA,14929.0,4327.75875278,N,14148.31145983,E,4,12.0,1.0,113.70200000000001,M,31.59,M,2.0,0000*47,43.46264587966666,141.80519099716668,565135.3605935387,4812507.760382878
770,[2021-01-29 10:49:30.507] $GPGGA,14929.1,4327.7587543,N,14148.31146228,E,4,12.0,1.0,113.706,M,31.59,M,2.1,0000*40,43.462645905,141.805191038,565135.3638695333,4812507.76322828
771,[2021-01-29 10:49:30.601] $GPGGA,14929.2,4327.75875316,N,14148.31146044,E,4,12.0,1.0,113.705,M,31.59,M,2.2,0000*48,43.46264588600001,141.80519100733332,565135.3614091643,4812507.761094197
772,[2021-01-29 10:49:30.710] $GPGGA,14929.3,4327.75875286,N,14148.31146037,E,4,12.0,1.0,113.70299999999999,M,31.59,M,2.3,0000*42,43.46264588099999,141.80519100616664,565135.3613201547,4812507.760537991
773,[2021-01-29 10:49:30.804] $GPGGA,14929.4,4327.75875294,N,14148.31146119,E,4,12.0,1.0,113.706,M,31.59,M,2.4,0000*49,43.46264588233333,141.80519101983333,565135.3624242846,4812507.760696758
774,[2021-01-29 10:49:30.898] $GPGGA,14929.5,4327.75875378,N,14148.31146042,E,4,12.0,1.0,113.704,M,31.59,M,2.5,0000*47,43.462645896333335,141.80519100700002,565135.3613711079,4812507.762241534
775,[2021-01-29 10:49:31.007] $GPGGA,14929.6,4327.75875421,N,14148.31146321,E,4,12.0,1.0,113.706,M,31.59,M,2.6,0000*48,43.462645903500004,141.8051910535,565135.3651250111,4812507.763073814
776,[2021-01-29 10:49:31.101] $GPGGA,14929.7,4327.75875302,N,14148.31145909,E,4,12.0,1.0,113.709,M,31.59,M,2.7,0000*42,43.46264588366667,141.80519098483336,565135.3595915447,4812507.760817464
777,[2021-01-29 10:49:31.210] $GPGGA,14929.8,4327.75875487,N,14148.31146265,E,4,12.0,1.0,113.697,M,31.59,M,2.8,0000*4C,43.46264591450001,141.80519104416666,565135.3643581832,4812507.764288153
778,[2021-01-29 10:49:31.306] $GPGGA,14929.9,4327.75875321,N,14148.311457,E,4,12.0,1.0,113.7,M,31.59,M,2.9,0000*4D,43.462645886833336,141.80519095,565135.3567703144,4812507.761141906
779,[2021-01-29 10:49:31.415] $GPGGA,14930.0,4327.75875288,N,14148.31145956,E,4,12.0,1.0,113.709,M,31.59,M,3.0,0000*42,43.462645881333344,141.80519099266667,565135.3602277215,4812507.760564456
780,[2021-01-29 10:49:31.509] $GPGGA,14930.1,4327.75875382,N,14148.3114602,E,4,12.0,1.0,113.704,M,31.59,M,3.1,0000*4F,43.462645896999994,141.80519100333333,565135.3610737784,4812507.762312704
781,[2021-01-29 10:49:31.602] $GPGGA,14930.2,4327.75875329,N,14148.31145879,E,4,12.0,1.0,113.705,M,31.59,M,3.2,0000*48,43.46264588816667,141.80519097983333,565135.3591822374,4812507.7613133155
782,[2021-01-29 10:49:31.696] $GPGGA,14930.3,4327.75875397,N,14148.31146025,E,4,12.0,1.0,113.70200000000001,M,31.59,M,3.3,0000*48,43.462645899500004,141.80519100416666,565135.361138504,4812507.762591002
783,[2021-01-29 10:49:31.806] $GPGGA,14930.4,4327.75875293,N,14148.31145917,E,4,12.0,1.0,113.70100000000001,M,31.59,M,3.4,0000*45,43.46264588216667,141.80519098616668,565135.3597010132,4812507.760651919
784,[2021-01-29 10:49:31.899] $GPGGA,14930.5,4327.75875475,N,14148.3114607,E,4,12.0,1.0,113.705,M,31.59,M,3.5,0000*44,43.462645912499994,141.80519101166666,565135.361731256,4812507.764040618
785,[2021-01-29 10:49:32.009] $GPGGA,14930.6,4327.75875345,N,14148.31145893,E,4,12.0,1.0,113.70299999999999,M,31.59,M,3.6,0000*40,43.462645890833336,141.8051909821667,565135.3593681323,4812507.761611295
786,[2021-01-29 10:49:32.102] $GPGGA,14930.7,4327.7587533,N,14148.31145845,E,4,12.0,1.0,113.704,M,31.59,M,3.7,0000*4E,43.46264588833333,141.80519097416663,565135.3587236548,4812507.761327391
787,[2021-01-29 10:49:32.212] $GPGGA,14930.8,4327.75875393,N,14148.31146026,E,4,12.0,1.0,113.70299999999999,M,31.59,M,3.8,0000*4E,43.46264589883334,141.80519100433335,565135.361152706,4812507.762517093
788,[2021-01-29 10:49:32.307] $GPGGA,14930.9,4327.75875226,N,14148.31145845,E,4,12.0,1.0,113.70100000000001,M,31.59,M,3.9,0000*4D,43.46264587099999,141.80519097416663,565135.3587422649,4812507.759402388
789,[2021-01-29 10:49:32.417] $GPGGA,14931.0,4327.75875294,N,14148.31145956,E,4,12.0,1.0,113.708,M,31.59,M,4.0,0000*48,43.46264588233333,141.80519099266667,565135.3602266478,4812507.760675511
790,[2021-01-29 10:49:32.510] $GPGGA,14931.1,4327.75875358,N,14148.31146124,E,4,12.0,1.0,113.713,M,31.59,M,2.1,0000*4B,43.462645893,141.80519102066668,565135.3624802461,4812507.761882029
791,[2021-01-29 10:49:32.604] $GPGGA,14931.2,4327.75875391,N,14148.3114597,E,4,12.0,1.0,113.712,M,31.59,M,2.2,0000*45,43.46264589850001,141.805190995,565135.3603980462,4812507.762472775
792,[2021-01-29 10:49:32.698] $GPGGA,14931.3,4327.75875225,N,14148.31146222,E,4,12.0,1.0,113.71600000000001,M,31.59,M,2.3,0000*40,43.462645870833335,141.805191037,565135.3638253208,4812507.759433018
793,[2021-01-29 10:49:32.807] $GPGGA,14931.4,4327.75875232,N,14148.31146047,E,4,12.0,1.0,113.711,M,31.59,M,2.4,0000*40,43.462645871999996,141.80519100783334,565135.3614646457,4812507.759539775
794,[2021-01-29 10:49:32.901] $GPGGA,14931.5,4327.75875231,N,14148.31145883,E,4,12.0,1.0,113.714,M,31.59,M,2.5,0000*45,43.46264587183334,141.8051909805,565135.3592537038,4812507.75949989
795,[2021-01-29 10:49:33.010] $GPGGA,14931.6,4327.75875305,N,14148.31146109,E,4,12.0,1.0,113.721,M,31.59,M,2.6,0000*4D,43.462645884166676,141.80519101816668,565135.3622874944,4812507.760899062
796,[2021-01-29 10:49:33.104] $GPGGA,14931.7,4327.75875241,N,14148.31146045,E,4,12.0,1.0,113.713,M,31.59,M,2.7,0000*44,43.4626458735,141.8051910075,565135.3614360712,4812507.7597061
797,[2021-01-29 10:49:33.213] $GPGGA,14931.8,4327.75875267,N,14148.31146015,E,4,12.0,1.0,113.715,M,31.59,M,1.8,0000*40,43.462645877833324,141.8051910025,565135.361026945,4812507.760183441
798,[2021-01-29 10:49:33.309] $GPGGA,14931.9,4327.75875182,N,14148.31146165,E,4,12.0,1.0,113.72,M,31.59,M,1.9,0000*48,43.462645863666665,141.80519102750003,565135.363064522,4812507.758629673
799,[2021-01-29 10:49:33.387] $GPGGA,14932.0,4327.75875106,N,14148.31145877,E,4,12.0,1.0,113.71600000000001,M,31.59,M,2.0,0000*48,43.462645851,141.80519097950003,565135.35919518,4812507.757185401
800,[2021-01-29 10:49:33.480] $GPGGA,14932.1,4327.75875093,N,14148.31146079,E,4,12.0,1.0,113.71600000000001,M,31.59,M,2.1,0000*40,43.46264584883333,141.80519101316668,565135.3619209566,4812507.756971105
801,[2021-01-29 10:49:33.605] $GPGGA,14932.2,4327.75874945,N,14148.31145911,E,4,12.0,1.0,113.719,M,31.59,M,2.2,0000*48,43.46264582416667,141.80519098516666,565135.3596823897,4812507.754209778
802,[2021-01-29 10:49:33.699] $GPGGA,14932.3,4327.75875105,N,14148.31146041,E,4,12.0,1.0,113.714,M,31.59,M,2.3,0000*47,43.46264585083333,141.80519100683333,565135.3614064755,4812507.757188268
803,[2021-01-29 10:49:33.809] $GPGGA,14932.4,4327.7587505,N,14148.31145864,E,4,12.0,1.0,113.719,M,31.59,M,2.4,0000*47,43.462645841666664,141.80519097733335,565135.3590299289,4812507.756147165
804,[2021-01-29 10:49:33.902] $GPGGA,14932.5,4327.75875172,N,14148.31146231,E,4,12.0,1.0,113.71700000000001,M,31.59,M,2.5,0000*41,43.462645861999995,141.8051910385,565135.3639561489,4812507.758453178
805,[2021-01-29 10:49:34.012] $GPGGA,14932.6,4327.75874935,N,14148.31145908,E,4,12.0,1.0,113.71700000000001,M,31.59,M,2.6,0000*49,43.46264582249999,141.80519098466667,565135.3596437331,4812507.754024289
806,[2021-01-29 10:49:34.105] $GPGGA,14932.7,4327.75875114,N,14148.31146062,E,4,12.0,1.0,113.719,M,31.59,M,2.7,0000*4B,43.46264585233333,141.80519101033332,565135.3616879949,4812507.757357591
