,Format,Time,Latitude,LatType,Longitude,LonType,Status,Satellite,LevelAccuracy,Altitude(sea),M(sea),Altitude(geoid),M(geoid),DGPS use,checksum,Lat,Lon,UTM_X,UTM_Y
3764,[2021-01-29 11:11:09.769] $GNGGA,21108.2,4327.729252292,N,14148.329540821002,E,4,9,1.24,110.65700000000001,M,31.866,M,6.2,2010*6E,43.462154204866664,141.8054923470167,565160.2662556977,4812453.391719708
3765,[2021-01-29 11:11:09.873] $GNGGA,21108.3,4327.72925249,N,14148.329541079,E,4,9,1.24,110.654,M,31.866,M,6.3,2010*6D,43.46215420816667,141.80549235131664,565160.2665999974,4812453.392089564
3766,[2021-01-29 11:11:09.969] $GNGGA,21108.4,4327.729252706,N,14148.32954123,E,4,9,1.24,110.65799999999999,M,31.866,M,6.4,2010*62,43.462154211766666,141.8054923538333,565160.2667997165,4812453.392491341
3767,[2021-01-29 11:11:10.065] $GNGGA,21108.5,4327.7292528259995,N,14148.329541625,E,4,9,1.24,110.65299999999999,M,31.866,M,6.5,2010*64,43.46215421376667,141.80549236041668,565160.2673301336,4812453.392718607
3768,[2021-01-29 11:11:10.166] $GNGGA,21108.6,4327.729253023,N,14148.32954027,E,4,9,1.24,110.65899999999999,M,31.866,M,6.6,2010*67,43.46215421705,141.80549233783336,565160.2654997223,4812453.393065579
3769,[2021-01-29 11:11:10.262] $GNGGA,21108.7,4327.72925353,N,14148.32954048,E,4,10,1.21,110.65700000000001,M,31.866,M,6.7,2010*6A,43.46215422550001,141.80549234133335,565160.2657737806,4812453.394006758
3770,[2021-01-29 11:11:10.366] $GNGGA,21108.8,4327.729252832,N,14148.32954148,E,4,10,1.21,110.65899999999999,M,31.866,M,6.8,2010*6B,43.462154213866675,141.80549235799998,565160.2671345256,4812453.392727825
3771,[2021-01-29 11:11:10.462] $GNGGA,21108.9,4327.729253188,N,14148.329541517,E,4,10,1.21,110.666,M,31.866,M,6.9,2010*61,43.4621542198,141.80549235861668,565160.2671780407,4812453.393387248
3772,[2021-01-29 11:11:10.567] $GNGGA,21109.0,4327.729253941,N,14148.329540407,E,4,10,1.21,110.662,M,31.866,M,7.0,2010*69,43.462154232349995,141.80549234011664,565160.265667998,4812453.394766551
3773,[2021-01-29 11:11:10.663] $GNGGA,21109.1,4327.729253282,N,14148.329540336,E,4,10,1.21,110.67,M,31.866,M,2.1,2010*6E,43.46215422136667,141.80549233893336,565160.2655840719,4812453.39354584
3774,[2021-01-29 11:11:10.767] $GNGGA,21109.2,4327.729252102999,N,14148.329540168,E,4,10,1.21,110.676,M,31.866,M,2.2,2010*6A,43.46215420171665,141.80549233613334,565160.2653786698,4812453.391361359
3775,[2021-01-29 11:11:10.863] $GNGGA,21109.3,4327.729252449,N,14148.329540173001,E,4,10,1.21,110.677,M,31.866,M,2.3,2010*6A,43.46215420748334,141.80549233621667,565160.265379217,4812453.392001861
3776,[2021-01-29 11:11:10.967] $GNGGA,21109.4,4327.729251447,N,14148.329540328,E,4,10,1.21,110.681,M,31.866,M,2.4,2010*62,43.46215419078333,141.8054923388,565160.2656061323,4812453.390149214
3777,[2021-01-29 11:11:11.063] $GNGGA,21109.5,4327.729250899,N,14148.329541548,E,4,10,1.21,110.677,M,31.866,M,2.5,2010*64,43.46215418165,141.80549235913332,565160.2672608104,4812453.389150792
3778,[2021-01-29 11:11:11.167] $GNGGA,21109.6,4327.729251214,N,14148.329540973999,E,4,10,1.21,110.681,M,31.866,M,2.6,2010*61,43.4621541869,141.80549234956663,565160.2664812729,4812453.389726362
3779,[2021-01-29 11:11:11.268] $GNGGA,21109.7,4327.729250954,N,14148.329540588,E,4,10,1.21,110.678,M,31.866,M,2.7,2010*66,43.46215418256667,141.80549234313332,565160.265965502,4812453.389240079
3780,[2021-01-29 11:11:11.364] $GNGGA,21109.8,4327.729249824,N,14148.329540373,E,4,10,1.21,110.677,M,31.866,M,2.8,2010*65,43.46215416373334,141.80549233955003,565160.2656958591,4812453.387145684
3781,[2021-01-29 11:11:11.459] $GNGGA,21109.9,4327.729250926,N,14148.32953972,E,4,10,1.21,110.678,M,31.866,M,2.9,2010*6D,43.46215418209999,141.80549232866667,565160.264795721,4812453.389176931
3782,[2021-01-29 11:11:11.568] $GNGGA,21110.0,4327.729251363,N,14148.32954112,E,4,10,1.21,110.67299999999999,M,31.866,M,3.0,2010*6C,43.462154189383334,141.80549235200002,565160.2666754544,4812453.39000406
3783,[2021-01-29 11:11:11.664] $GNGGA,21110.1,4327.729252295,N,14148.329541026002,E,4,10,1.21,110.67299999999999,M,31.866,M,3.1,2010*60,43.462154204916665,141.80549235043335,565160.2665320351,4812453.391727935
3784,[2021-01-29 11:11:11.763] $GNGGA,21110.2,4327.729252597,N,14148.329541093,E,4,10,1.21,110.671,M,31.866,M,3.2,2010*69,43.46215420994999,141.80549235155,565160.266616959,4812453.392287797
3785,[2021-01-29 11:11:11.867] $GNGGA,21110.3,4327.729252721,N,14148.329540761999,E,4,10,1.21,110.67200000000001,M,31.866,M,3.3,2010*6D,43.46215421201667,141.8054923460333,565160.2661684656,4812453.392513003
3786,[2021-01-29 11:11:11.968] $GNGGA,21110.4,4327.729252325,N,14148.329541223,E,4,10,1.21,110.67299999999999,M,31.866,M,3.4,2010*6D,43.46215420541666,141.8054923537167,565160.2667971035,4812453.391786031
3787,[2021-01-29 11:11:12.063] $GNGGA,21110.5,4327.729252082,N,14148.329541391002,E,4,10,1.21,110.67299999999999,M,31.866,M,3.5,2010*6B,43.462154201366666,141.80549235651668,565160.2670279606,4812453.391338438
3788,[2021-01-29 11:11:12.166] $GNGGA,21110.6,4327.729251906,N,14148.329540022,E,4,10,1.21,110.67399999999999,M,31.866,M,3.6,2010*60,43.46215419843334,141.8054923337,565160.2651853495,4812453.390994818
3789,[2021-01-29 11:11:12.262] $GNGGA,21110.7,4327.729251334,N,14148.329540826,E,4,10,1.21,110.679,M,31.866,M,3.7,2010*6A,43.4621541889,141.8054923471,565160.2662795858,4812453.389946549
3790,[2021-01-29 11:11:12.366] $GNGGA,21110.8,4327.729251637,N,14148.32954058,E,4,10,1.21,110.67399999999999,M,31.866,M,3.8,2010*60,43.46215419394999,141.805492343,565160.2659424901,4812453.390504184
3791,[2021-01-29 11:11:12.462] $GNGGA,21110.9,4327.729252217,N,14148.329539311999,E,4,9,1.24,110.663,M,31.866,M,3.9,2010*6D,43.46215420361667,141.80549232186664,565160.264222519,4812453.39156121
3792,[2021-01-29 11:11:12.566] $GNGGA,21111.0,4327.729251616,N,14148.329540768998,E,4,9,1.24,110.66,M,31.866,M,4.0,2010*68,43.46215419359999,141.80549234614998,565160.2661976857,4812453.390467777
3793,[2021-01-29 11:11:12.667] $GNGGA,21111.1,4327.729252245999,N,14148.329540403001,E,4,9,1.24,110.65899999999999,M,31.866,M,4.1,2010*6F,43.46215420409999,141.80549234005,565160.2656929472,4812453.391629111
3794,[2021-01-29 11:11:12.763] $GNGGA,21111.2,4327.729251562,N,14148.329539572,E,4,9,1.24,110.66,M,31.866,M,4.2,2010*6E,43.462154192700005,141.8054923262,565160.2645847949,4812453.390352218
3795,[2021-01-29 11:11:12.863] $GNGGA,21111.3,4327.72925152,N,14148.329541428999,E,4,9,1.24,110.662,M,31.866,M,4.3,2010*6A,43.46215419199999,141.80549235714997,565160.2670892508,4812453.390298691
3796,[2021-01-29 11:11:12.967] $GNGGA,21111.4,4327.72925129,N,14148.329540371002,E,4,10,1.21,110.65899999999999,M,31.866,M,4.4,2010*68,43.46215418816667,141.80549233951672,565160.265666922,4812453.389859173
3797,[2021-01-29 11:11:13.066] $GNGGA,21111.5,4327.7292512740005,N,14148.32954015,E,4,10,1.21,110.664,M,31.866,M,4.5,2010*6D,43.462154187900005,141.80549233583332,565160.2653692377,4812453.389826677
3798,[2021-01-29 11:11:13.155] $GNGGA,21111.6,4327.729249955,N,14148.329541088,E,4,10,1.21,110.671,M,31.866,M,4.6,2010*6D,43.462154165916665,141.80549235146668,565160.2666575143,4812453.387397484
3799,[2021-01-29 11:11:13.265] $GNGGA,21111.7,4327.729250064001,N,14148.329541168001,E,4,10,1.21,110.67,M,31.866,M,4.7,2010*60,43.462154167733345,141.80549235280003,565160.2667634238,4812453.387600283
3800,[2021-01-29 11:11:13.361] $GNGGA,21111.8,4327.729250276,N,14148.329541733001,E,4,10,1.21,110.667,M,31.866,M,4.8,2010*6F,43.46215417126666,141.80549236221665,565160.2675213895,4812453.388000053
3801,[2021-01-29 11:11:13.465] $GNGGA,21111.9,4327.729249925,N,14148.329544148,E,4,10,1.21,110.666,M,31.866,M,4.9,2010*64,43.462154165416656,141.80549240246668,565160.2707837103,4812453.3873818545
3802,[2021-01-29 11:11:13.561] $GNGGA,21112.0,4327.7292508479995,N,14148.329541627,E,4,9,1.24,110.65799999999999,M,31.866,M,5.0,2010*6F,43.46215418079999,141.80549236044996,565160.2673682339,4812453.389057423
3803,[2021-01-29 11:11:13.663] $GNGGA,21112.1,4327.729249866,N,14148.329541701001,E,4,9,1.24,110.662,M,31.866,M,5.1,2010*67,43.46215416443333,141.80549236168338,565160.2674855903,4812453.38724074
3804,[2021-01-29 11:11:13.767] $GNGGA,21112.2,4327.729249651,N,14148.329541831,E,4,9,1.24,110.661,M,31.866,M,5.2,2010*62,43.46215416085,141.80549236385002,565160.2676647103,4812453.3868444795
3805,[2021-01-29 11:11:13.863] $GNGGA,21112.3,4327.729248972,N,14148.329541888,E,4,9,1.24,110.665,M,31.866,M,5.3,2010*6B,43.46215414953334,141.80549236480002,565160.2677537149,4812453.385588417
3806,[2021-01-29 11:11:13.969] $GNGGA,21112.4,4327.729249575999,N,14148.329540674,E,4,9,1.24,110.661,M,31.866,M,5.4,2010*6A,43.46215415959999,141.8054923445667,565160.2661061217,4812453.386690569
3807,[2021-01-29 11:11:14.065] $GNGGA,21112.5,4327.729249358,N,14148.329541916999,E,4,9,1.24,110.666,M,31.866,M,5.5,2010*6C,43.462154155966665,141.80549236528333,565160.2677859033,4812453.3863032665
3808,[2021-01-29 11:11:14.165] $GNGGA,21112.6,4327.729249744,N,14148.329540953,E,4,9,1.24,110.663,M,31.866,M,5.6,2010*61,43.462154162400005,141.80549234921668,565160.2664792769,4812453.387005171
3809,[2021-01-29 11:11:14.253] $GNGGA,21112.7,4327.729250372,N,14148.329540708999,E,4,9,1.24,110.661,M,31.866,M,5.7,2010*6B,43.46215417286666,141.80549234515,565160.2661390599,4812453.388164394
3810,[2021-01-29 11:11:14.365] $GNGGA,21112.8,4327.729250990999,N,14148.329540155,E,4,9,1.24,110.663,M,31.866,M,5.8,2010*61,43.462154183183316,141.80549233591668,565160.2653810489,4812453.389302917
3811,[2021-01-29 11:11:14.461] $GNGGA,21112.9,4327.72925078,N,14148.329538818998,E,4,9,1.24,110.661,M,31.866,M,5.9,2010*63,43.462154179666676,141.80549231364998,565160.2635835551,4812453.388894945
3812,[2021-01-29 11:11:14.568] $GNGGA,21113.0,4327.72924908,N,14148.32953962,E,4,9,1.24,110.663,M,31.866,M,6.0,2010*69,43.46215415133334,141.805492327,565160.264693939,4812453.385758748
3813,[2021-01-29 11:11:14.664] $GNGGA,21113.1,4327.729249748,N,14148.329539925,E,4,10,1.21,110.661,M,31.866,M,6.1,2010*6F,43.462154162466675,141.80549233208336,565160.2650932014,4812453.386999171
3814,[2021-01-29 11:11:14.768] $GNGGA,21113.2,4327.729249350999,N,14148.329539798,E,4,10,1.21,110.666,M,31.866,M,6.2,2010*6C,43.462154155849994,141.80549232996665,565160.2649290772,4812453.38626268
3815,[2021-01-29 11:11:14.862] $GNGGA,21113.3,4327.729248612,N,14148.329540623,E,4,10,1.21,110.67,M,31.866,M,6.3,2010*67,43.46215414353334,141.80549234371668,565160.2660546175,4812453.384905575
3816,[2021-01-29 11:11:14.966] $GNGGA,21113.4,4327.729248937,N,14148.329540142,E,4,10,1.21,110.67299999999999,M,31.866,M,6.4,2010*6C,43.462154148950006,141.80549233570002,565160.2654002906,4812453.385500867
3817,[2021-01-29 11:11:15.063] $GNGGA,21113.5,4327.729249731,N,14148.329539215,E,4,10,1.21,110.67200000000001,M,31.866,M,6.5,2010*6B,43.46215416218333,141.80549232024998,565160.2641362424,4812453.386958445
3818,[2021-01-29 11:11:15.167] $GNGGA,21113.6,4327.729248703,N,14148.329540538001,E,4,10,1.21,110.67200000000001,M,31.866,M,6.6,2010*6D,43.46215414504999,141.8054923423,565160.2659383846,4812453.385072904
3819,[2021-01-29 11:11:15.268] $GNGGA,21113.7,4327.729249545,N,14148.32954079,E,4,10,1.21,110.675,M,31.866,M,6.7,2010*6B,43.46215415908333,141.80549234650002,565160.266263075,4812453.386634703
3820,[2021-01-29 11:11:15.366] $GNGGA,21113.8,4327.729249039,N,14148.329540316001,E,4,9,1.24,110.664,M,31.866,M,6.8,2010*62,43.46215415065001,141.80549233860003,565160.2656330613,4812453.385691935
3821,[2021-01-29 11:11:15.462] $GNGGA,21113.9,4327.72924881,N,14148.329540301002,E,4,9,1.24,110.662,M,31.866,M,6.9,2010*60,43.462154146833335,141.80549233835,565160.2656169333,4812453.385267866
3822,[2021-01-29 11:11:15.567] $GNGGA,21114.0,4327.729249610999,N,14148.329541478999,E,4,9,1.24,110.664,M,31.866,M,7.0,2010*67,43.462154160183324,141.8054923579833,565160.2671908363,4812453.38676585
3823,[2021-01-29 11:11:15.655] $GNGGA,21114.1,4327.729248492,N,14148.32954206,E,4,9,1.24,110.666,M,31.866,M,7.1,2010*62,43.462154141533325,141.80549236766666,565160.2679942056,4812453.384702195
3824,[2021-01-29 11:11:15.766] $GNGGA,21114.2,4327.729249369,N,14148.329540734,E,4,9,1.24,110.665,M,31.866,M,7.2,2010*67,43.46215415615,141.80549234556665,565160.2661907197,4812453.3863082025
3825,[2021-01-29 11:11:15.854] $GNGGA,21114.3,4327.729249583,N,14148.32954123,E,4,9,1.24,110.667,M,31.866,M,7.3,2010*67,43.46215415971666,141.8054923538333,565160.2668556211,4812453.386710775
3826,[2021-01-29 11:11:15.968] $GNGGA,21114.4,4327.729248801,N,14148.329542123998,E,4,9,1.24,110.666,M,31.866,M,7.4,2010*65,43.46215414668333,141.8054923687333,565160.2680749595,4812453.385274978
3827,[2021-01-29 11:11:16.064] $GNGGA,21114.5,4327.729249505,N,14148.329541003,E,4,9,1.24,110.666,M,31.866,M,7.5,2010*6A,43.462154158416666,141.80549235005,565160.2665509678,4812453.386563441
3828,[2021-01-29 11:11:16.168] $GNGGA,21114.6,4327.729248932,N,14148.329541996001,E,4,9,1.24,110.666,M,31.866,M,7.6,2010*66,43.46215414886666,141.8054923666,565160.2679000397,4812453.385515786
3829,[2021-01-29 11:11:16.260] $GNGGA,21114.7,4327.729249886,N,14148.329542296999,E,4,10,1.21,110.667,M,31.866,M,7.7,2010*6C,43.462154164766666,141.80549237161662,565160.2682887833,4812453.3872855315
3830,[2021-01-29 11:11:16.366] $GNGGA,21114.8,4327.7292490029995,N,14148.329542746002,E,4,10,1.21,110.67,M,31.866,M,7.8,2010*66,43.46215415004999,141.8054923791,565160.2689099603,4812453.385656983
3831,[2021-01-29 11:11:16.462] $GNGGA,21114.9,4327.7292494779995,N,14148.32954165,E,4,10,1.21,110.671,M,31.866,M,7.9,2010*6A,43.46215415796665,141.80549236083334,565160.2674237711,4812453.386521898
3832,[2021-01-29 11:11:16.566] $GNGGA,21115.0,4327.7292491709995,N,14148.329542193,E,4,9,1.24,110.666,M,31.866,M,8.0,2010*68,43.46215415284999,141.80549236988332,565160.2681613688,4812453.385960734
3833,[2021-01-29 11:11:16.662] $GNGGA,21115.1,4327.72924872,N,14148.329541587,E,4,9,1.24,110.665,M,31.866,M,3.1,2010*61,43.462154145333336,141.80549235978333,565160.2673523987,4812453.385118049
3834,[2021-01-29 11:11:16.763] $GNGGA,21115.2,4327.729248545,N,14148.329541092,E,4,9,1.24,110.662,M,31.866,M,3.2,2010*66,43.462154142416665,141.80549235153333,565160.2666881474,4812453.384787674
3835,[2021-01-29 11:11:16.867] $GNGGA,21115.3,4327.729249424,N,14148.3295414,E,4,9,1.24,110.66,M,31.866,M,3.3,2010*6C,43.46215415706667,141.80549235666666,565160.2670876732,4812453.38641869
3836,[2021-01-29 11:11:16.965] $GNGGA,21115.4,4327.729248543,N,14148.329541773,E,4,9,1.24,110.664,M,31.866,M,3.4,2010*6E,43.462154142383326,141.80549236288334,565160.2676063443,4812453.384792852
3837,[2021-01-29 11:11:17.064] $GNGGA,21115.5,4327.729248372,N,14148.329542782,E,4,9,1.24,110.65700000000001,M,31.866,M,3.5,2010*67,43.46215413953334,141.80549237969998,565160.2689697912,4812453.384489495
3838,[2021-01-29 11:11:17.168] $GNGGA,21115.6,4327.729248612,N,14148.329542565,E,4,9,1.24,110.65700000000001,M,31.866,M,3.6,2010*6F,43.46215414353334,141.80549237608332,565160.2686729255,4812453.3849308975
3839,[2021-01-29 11:11:17.264] $GNGGA,21115.7,4327.729248785,N,14148.329542522,E,4,9,1.24,110.65899999999999,M,31.866,M,3.7,2010*6D,43.462154146416665,141.80549237536667,565160.2686118536,4812453.385250553
3840,[2021-01-29 11:11:17.369] $GNGGA,21115.8,4327.729248679,N,14148.329541563999,E,4,9,1.24,110.656,M,31.866,M,3.8,2010*61,43.46215414465001,141.80549235939998,565160.2673221218,4812453.38504186
3841,[2021-01-29 11:11:17.465] $GNGGA,21115.9,4327.729248792,N,14148.32954189,E,4,9,1.24,110.65700000000001,M,31.866,M,3.9,2010*62,43.46215414653334,141.8054923648333,565160.2677596294,4812453.385255269
3842,[2021-01-29 11:11:17.561] $GNGGA,21116.0,4327.729249346,N,14148.329542569,E,4,9,1.24,110.65799999999999,M,31.866,M,4.0,2010*6D,43.46215415576667,141.80549237614997,565160.268665177,4812453.386289557
3843,[2021-01-29 11:11:17.666] $GNGGA,21116.1,4327.729249303,N,14148.329541628,E,4,9,1.24,110.655,M,31.866,M,4.1,2010*64,43.462154155049994,141.80549236046664,565160.2673972411,4812453.386197695
3844,[2021-01-29 11:11:17.763] $GNGGA,21116.2,4327.729249495,N,14148.329542393001,E,4,9,1.24,110.656,M,31.866,M,4.2,2010*69,43.462154158249994,141.80549237321668,565160.268425221,4812453.386563055
3845,[2021-01-29 11:11:17.869] $GNGGA,21116.3,4327.729248762,N,14148.329542192,E,4,9,1.24,110.65299999999999,M,31.866,M,4.3,2010*65,43.46215414603333,141.80549236986664,565160.26816734,4812453.385203677
3846,[2021-01-29 11:11:17.965] $GNGGA,21116.4,4327.729248679,N,14148.329542005,E,4,9,1.24,110.655,M,31.866,M,4.4,2010*67,43.46215414465001,141.80549236675003,565160.2679167065,4812453.38504761
3847,[2021-01-29 11:11:18.069] $GNGGA,21116.5,4327.729249455,N,14148.329542538,E,4,9,1.24,110.652,M,31.866,M,4.5,2010*66,43.46215415758334,141.80549237563332,565160.2686214313,4812453.386490909
3848,[2021-01-29 11:11:18.165] $GNGGA,21116.6,4327.729249084,N,14148.329541279,E,4,9,1.24,110.654,M,31.866,M,4.6,2010*69,43.46215415139999,141.80549235465,565160.266930622,4812453.385787782
3849,[2021-01-29 11:11:18.261] $GNGGA,21116.7,4327.729249414,N,14148.329541098,E,4,9,1.24,110.656,M,31.866,M,4.7,2010*6B,43.4621541569,141.80549235163338,565160.2666806828,4812453.386396242
3850,[2021-01-29 11:11:18.365] $GNGGA,21116.8,4327.729250204,N,14148.329540065,E,4,9,1.24,110.65100000000001,M,31.866,M,4.8,2010*60,43.46215417006666,141.80549233441667,565160.265273792,4812453.387845035
3851,[2021-01-29 11:11:18.467] $GNGGA,21116.9,4327.729250306,N,14148.329540759,E,4,9,1.24,110.65100000000001,M,31.866,M,4.9,2010*6B,43.46215417176666,141.8054923459833,565160.2662076518,4812453.388042882
3852,[2021-01-29 11:11:18.562] $GNGGA,21117.0,4327.729250949,N,14148.329541518,E,4,9,1.24,110.65299999999999,M,31.866,M,5.0,2010*6E,43.462154182483324,141.80549235863336,565160.267219471,4812453.38924295
3853,[2021-01-29 11:11:18.664] $GNGGA,21117.1,4327.729250406,N,14148.329540725,E,4,9,1.24,110.65299999999999,M,31.866,M,5.1,2010*65,43.46215417343333,141.8054923454167,565160.2661600267,4812453.388227537
3854,[2021-01-29 11:11:18.768] $GNGGA,21117.2,4327.729249762,N,14148.329542122,E,4,9,1.24,110.652,M,31.866,M,5.2,2010*6E,43.4621541627,141.8054923687,565160.2680550624,4812453.38705373
3855,[2021-01-29 11:11:18.864] $GNGGA,21117.3,4327.729248984,N,14148.329542908,E,4,9,1.24,110.65299999999999,M,31.866,M,5.3,2010*68,43.46215414973334,141.80549238180004,565160.2691287205,4812453.385623928
3856,[2021-01-29 11:11:18.968] $GNGGA,21117.4,4327.729248977,N,14148.329541586001,E,4,9,1.24,110.65299999999999,M,31.866,M,5.4,2010*6D,43.462154149616666,141.80549235976667,565160.267346452,4812453.385593734
3857,[2021-01-29 11:11:19.064] $GNGGA,21117.5,4327.729249702,N,14148.329541675,E,4,9,1.24,110.649,M,31.866,M,5.5,2010*64,43.4621541617,141.80549236125,565160.2674534685,4812453.386936842
3858,[2021-01-29 11:11:19.168] $GNGGA,21117.6,4327.729248744,N,14148.329542717,E,4,9,1.24,110.649,M,31.866,M,5.6,2010*61,43.46215414573334,141.80549237861666,565160.2688754965,4812453.385177205
3859,[2021-01-29 11:11:19.265] $GNGGA,21117.7,4327.729249275,N,14148.329542217,E,4,9,1.24,110.649,M,31.866,M,5.7,2010*62,43.46215415458333,141.8054923702833,565160.268191862,4812453.386153549
3860,[2021-01-29 11:11:19.364] $GNGGA,21117.8,4327.72924874,N,14148.329543008,E,4,10,1.21,110.648,M,31.866,M,5.8,2010*61,43.46215414566666,141.80549238346669,565160.2692679134,4812453.385173595
3861,[2021-01-29 11:11:19.468] $GNGGA,21117.9,4327.7292490340005,N,14148.329543921001,E,4,9,1.24,110.64399999999999,M,31.866,M,5.9,2010*67,43.46215415056667,141.80549239868338,565160.2704936084,4812453.3857296845
3862,[2021-01-29 11:11:19.564] $GNGGA,21118.0,4327.729249459,N,14148.329542173999,E,4,9,1.24,110.646,M,31.866,M,6.0,2010*6F,43.46215415765,141.80549236956665,565160.2681305952,4812453.386493566
3863,[2021-01-29 11:11:19.668] $GNGGA,21118.1,4327.7292494309995,N,14148.329542225,E,4,9,1.25,110.649,M,31.866,M,6.1,2010*68,43.46215415718333,141.80549237041666,565160.2681998572,4812453.386442402
3864,[2021-01-29 11:11:19.763] $GNGGA,21118.2,4327.729249703,N,14148.329542274,E,4,9,1.25,110.647,M,31.866,M,6.2,2010*60,43.462154161716676,141.8054923712333,565160.2682610503,4812453.386946505
3865,[2021-01-29 11:11:19.857] $GNGGA,21118.3,4327.729249231,N,14148.32954194,E,4,9,1.25,110.65,M,31.866,M,6.3,2010*6D,43.462154153849994,141.80549236566668,565160.2678191876,4812453.386068493
3866,[2021-01-29 11:11:19.967] $GNGGA,21118.4,4327.7292486920005,N,14148.329542273,E,4,9,1.25,110.65,M,31.866,M,6.4,2010*69,43.46215414486667,141.80549237121667,565160.2682778041,4812453.385075167
3867,[2021-01-29 11:11:20.061] $GNGGA,21118.5,4327.729248535,N,14148.329541878,E,4,9,1.25,110.65100000000001,M,31.866,M,6.5,2010*64,43.46215414224999,141.80549236463332,565160.2677480535,4812453.384779413
3868,[2021-01-29 11:11:20.165] $GNGGA,21118.6,4327.729249209,N,14148.329542078998,E,4,9,1.25,110.652,M,31.866,M,6.6,2010*64,43.46215415348333,141.80549236798328,565160.2680069824,4812453.386029586
3869,[2021-01-29 11:11:20.267] $GNGGA,21118.7,4327.7292481879995,N,14148.329541927,E,4,9,1.25,110.654,M,31.866,M,6.7,2010*68,43.46215413646666,141.80549236545002,565160.2678203315,4812453.384137766
3870,[2021-01-29 11:11:20.363] $GNGGA,21118.8,4327.729248682,N,14148.329542092,E,4,9,1.25,110.65,M,31.866,M,6.8,2010*65,43.462154144699994,141.8054923682,565160.268033947,4812453.385054296
3871,[2021-01-29 11:11:20.457] $GNGGA,21118.9,4327.729248054,N,14148.329543098998,E,4,9,1.25,110.654,M,31.866,M,6.9,2010*66,43.46215413423333,141.8054923849833,565160.2694028784,4812453.383905021
3872,[2021-01-29 11:11:20.569] $GNGGA,21119.0,4327.7292481740005,N,14148.329542243,E,4,9,1.25,110.65299999999999,M,31.866,M,7.0,2010*66,43.462154136233345,141.80549237071665,565160.2682466264,4812453.384115976
3873,[2021-01-29 11:11:20.668] $GNGGA,21119.1,4327.729247677,N,14148.329542948999,E,4,9,1.25,110.65899999999999,M,31.866,M,2.1,2010*63,43.46215412795,141.80549238248332,565160.2692073915,4812453.383205251
3874,[2021-01-29 11:11:20.765] $GNGGA,21119.2,4327.729247376,N,14148.329543249,E,4,9,1.25,110.661,M,31.866,M,2.2,2010*66,43.462154122933335,141.80549238748333,565160.2696172568,4812453.382652022
3875,[2021-01-29 11:11:20.869] $GNGGA,21119.3,4327.729246547,N,14148.329543541999,E,4,9,1.25,110.666,M,31.866,M,2.3,2010*68,43.46215410911666,141.80549239236666,565160.2700271342,4812453.381121391
3876,[2021-01-29 11:11:20.968] $GNGGA,21119.4,4327.729246842,N,14148.329543105,E,4,9,1.25,110.664,M,31.866,M,2.4,2010*65,43.46215411403333,141.8054923850833,565160.2694326655,4812453.381661728
3877,[2021-01-29 11:11:21.070] $GNGGA,21119.5,4327.72924662,N,14148.329543733998,E,4,9,1.25,110.664,M,31.866,M,2.5,2010*6B,43.46215411033332,141.80549239556666,565160.2702846938,4812453.381259015
3878,[2021-01-29 11:11:21.166] $GNGGA,21119.6,4327.729246604,N,14148.329542754,E,4,9,1.25,110.667,M,31.866,M,2.6,2010*69,43.462154110066656,141.8054923792333,565160.2689636883,4812453.381216622
3879,[2021-01-29 11:11:21.270] $GNGGA,21119.7,4327.729246305,N,14148.329542016001,E,4,9,1.25,110.664,M,31.866,M,2.7,2010*6F,43.46215410508333,141.80549236693335,565160.2679740337,4812453.38065356
3880,[2021-01-29 11:11:21.366] $GNGGA,21119.8,4327.729245437999,N,14148.329541986,E,4,9,1.25,110.666,M,31.866,M,2.8,2010*64,43.46215409063333,141.80549236643336,565160.2679491055,4812453.379048382
3881,[2021-01-29 11:11:21.461] $GNGGA,21119.9,4327.729245575,N,14148.32954154,E,4,9,1.25,110.665,M,31.866,M,2.9,2010*69,43.46215409291667,141.805492359,565160.2673453293,4812453.37929615
3882,[2021-01-29 11:11:21.566] $GNGGA,21120.0,4327.729244885,N,14148.329540966999,E,4,9,1.25,110.669,M,31.866,M,3.0,2010*65,43.46215408141668,141.80549234944996,565160.2665851284,4812453.378011513
3883,[2021-01-29 11:11:21.661] $GNGGA,21120.1,4327.729244164,N,14148.329542979,E,4,9,1.25,110.67,M,31.866,M,3.1,2010*66,43.4621540694,141.80549238298332,565160.2693107259,4812453.376703201
3884,[2021-01-29 11:11:21.765] $GNGGA,21120.2,4327.729244738,N,14148.329543416,E,4,9,1.25,110.666,M,31.866,M,3.2,2010*6B,43.46215407896666,141.80549239026666,565160.2698896385,4812453.377771352
3885,[2021-01-29 11:11:21.869] $GNGGA,21120.3,4327.729244325,N,14148.329544118998,E,4,10,1.21,110.665,M,31.866,M,3.3,2010*61,43.46215407208333,141.80549240198332,565160.2708448534,4812453.37701607
3886,[2021-01-29 11:11:21.967] $GNGGA,21120.4,4327.729244526,N,14148.329543771999,E,4,9,1.25,110.669,M,31.866,M,3.4,2010*68,43.46215407543334,141.80549239619998,565160.2703734103,4812453.377383592
3887,[2021-01-29 11:11:22.063] $GNGGA,21120.5,4327.729243871,N,14148.329543963999,E,4,9,1.25,110.669,M,31.866,M,3.5,2010*69,43.46215406451667,141.80549239939998,565160.2706439998,4812453.376173711
3888,[2021-01-29 11:11:22.154] $GNGGA,21120.6,4327.729244185,N,14148.329544089,E,4,9,1.25,110.669,M,31.866,M,3.6,2010*61,43.46215406975,141.80549240148335,565160.2708069131,4812453.376756545
3889,[2021-01-29 11:11:22.262] $GNGGA,21120.7,4327.729244647,N,14148.329543539,E,4,9,1.25,110.67200000000001,M,31.866,M,3.7,2010*6B,43.46215407745,141.80549239231667,565160.2700571014,4812453.377604518
3890,[2021-01-29 11:11:22.357] $GNGGA,21120.8,4327.729245157,N,14148.329543434,E,4,9,1.25,110.67299999999999,M,31.866,M,3.8,2010*61,43.46215408595,141.80549239056666,565160.2699064058,4812453.378547142
3891,[2021-01-29 11:11:22.466] $GNGGA,21120.9,4327.729244914,N,14148.329543131002,E,4,9,1.25,110.67200000000001,M,31.866,M,3.9,2010*6E,43.46215408190001,141.8054923855167,565160.269502236,4812453.378093408
3892,[2021-01-29 11:11:22.560] $GNGGA,21121.0,4327.729244487,N,14148.329542783998,E,4,9,1.25,110.66799999999999,M,31.866,M,4.0,2010*6D,43.462154074783335,141.8054923797333,565160.2690420308,4812453.377298521
3893,[2021-01-29 11:11:22.654] $GNGGA,21121.1,4327.729244221,N,14148.329542776999,E,4,9,1.25,110.671,M,31.866,M,4.1,2010*63,43.462154070349996,141.80549237961668,565160.269037359,4812453.376806072
3894,[2021-01-29 11:11:22.763] $GNGGA,21121.2,4327.729244741,N,14148.329542108999,E,4,9,1.25,110.67,M,31.866,M,4.2,2010*6E,43.46215407901666,141.80549236848333,565160.2681274161,4812453.377759864
3895,[2021-01-29 11:11:22.857] $GNGGA,21121.3,4327.729244604,N,14148.329543787,E,4,9,1.25,110.669,M,31.866,M,4.3,2010*67,43.462154076733334,141.80549239645,565160.2703922392,4812453.377528163
3896,[2021-01-29 11:11:22.966] $GNGGA,21121.4,4327.7292436729995,N,14148.329543181,E,4,9,1.25,110.66799999999999,M,31.866,M,4.4,2010*61,43.46215406121666,141.80549238635,565160.2695918637,4812453.37579701
3897,[2021-01-29 11:11:23.060] $GNGGA,21121.5,4327.729244032,N,14148.329543552,E,4,9,1.25,110.671,M,31.866,M,4.5,2010*67,43.4621540672,141.80549239253335,565160.2700856412,4812453.376466345
3898,[2021-01-29 11:11:23.154] $GNGGA,21121.6,4327.729243492,N,14148.329544262,E,4,9,1.25,110.665,M,31.866,M,4.6,2010*68,43.4621540582,141.80549240436667,565160.2710525669,4812453.375476083
3899,[2021-01-29 11:11:23.264] $GNGGA,21121.7,4327.729243148,N,14148.329543687,E,4,9,1.25,110.66799999999999,M,31.866,M,4.7,2010*6F,43.462154052466666,141.8054923947833,565160.2702834739,4812453.374831852
3900,[2021-01-29 11:11:23.368] $GNGGA,21121.8,4327.729243878,N,14148.329542522,E,4,9,1.25,110.671,M,31.866,M,4.8,2010*60,43.462154064633324,141.80549237536667,565160.2686996935,4812453.376167865
3901,[2021-01-29 11:11:23.461] $GNGGA,21121.9,4327.729243234,N,14148.329543323998,E,4,9,1.25,110.669,M,31.866,M,4.9,2010*6A,43.462154053899994,141.8054923887333,565160.2697925202,4812453.374986301
3902,[2021-01-29 11:11:23.555] $GNGGA,21122.0,4327.729243433,N,14148.329542567,E,4,9,1.25,110.67200000000001,M,31.866,M,5.0,2010*63,43.462154057216665,141.8054923761167,565160.2687683329,4812453.375344773
3903,[2021-01-29 11:11:23.664] $GNGGA,21122.1,4327.729243373,N,14148.329543001,E,4,9,1.25,110.669,M,31.866,M,5.1,2010*6E,43.46215405621666,141.80549238335,565160.2693545481,4812453.375239374
3904,[2021-01-29 11:11:23.758] $GNGGA,21122.2,4327.729242138,N,14148.329543176002,E,4,9,1.25,110.67,M,31.866,M,5.2,2010*6B,43.462154035633326,141.80549238626668,565160.2696126006,4812453.3729557125
3905,[2021-01-29 11:11:23.868] $GNGGA,21122.3,4327.729242297,N,14148.329542128,E,4,9,1.25,110.67200000000001,M,31.866,M,5.3,2010*65,43.462154038283344,141.80549236879997,565160.26819678,4812453.3732363535
3906,[2021-01-29 11:11:23.961] $GNGGA,21122.4,4327.729242486,N,14148.32954221,E,4,9,1.25,110.67,M,31.866,M,5.4,2010*69,43.46215404143334,141.8054923701667,565160.268303958,4812453.373587255
3907,[2021-01-29 11:11:24.055] $GNGGA,21122.5,4327.729242239,N,14148.329543026,E,4,9,1.25,110.67,M,31.866,M,5.5,2010*6D,43.462154037316665,141.80549238376668,565160.2694085551,4812453.373140705
3908,[2021-01-29 11:11:24.164] $GNGGA,21122.6,4327.72924247,N,14148.329542459,E,4,9,1.25,110.676,M,31.866,M,5.6,2010*6D,43.46215404116667,141.80549237431663,565160.2686399546,4812453.373560885
3909,[2021-01-29 11:11:24.267] $GNGGA,21122.7,4327.729243079,N,14148.329541775,E,4,9,1.25,110.676,M,31.866,M,5.7,2010*6F,43.46215405131667,141.80549236291665,565160.2677068493,4812453.374679206
3910,[2021-01-29 11:11:24.361] $GNGGA,21122.8,4327.7292417809995,N,14148.329543046,E,4,9,1.25,110.681,M,31.866,M,5.8,2010*60,43.462154029683326,141.8054923841,565160.2694437179,4812453.372293224
3911,[2021-01-29 11:11:24.455] $GNGGA,21122.9,4327.729242305,N,14148.329542918998,E,4,9,1.25,110.682,M,31.866,M,5.9,2010*6A,43.462154038416664,141.8054923819833,565160.269263107,4812453.373261475
3912,[2021-01-29 11:11:24.566] $GNGGA,21123.0,4327.7292433190005,N,14148.32954352,E,4,9,1.25,110.68299999999999,M,31.866,M,6.0,2010*62,43.462154055316674,141.80549239200002,565160.2700552598,4812453.37514619
3913,[2021-01-29 11:11:24.669] $GNGGA,21123.1,4327.729243321,N,14148.329544001,E,4,9,1.25,110.682,M,31.866,M,6.1,2010*69,43.46215405534999,141.80549240001667,565160.2707037331,4812453.375156161
3914,[2021-01-29 11:11:24.762] $GNGGA,21123.2,4327.72924368,N,14148.329543857,E,4,9,1.25,110.681,M,31.866,M,6.2,2010*68,43.46215406133333,141.80549239761666,565160.2705031564,4812453.375818782
3915,[2021-01-29 11:11:24.856] $GNGGA,21123.3,4327.7292432409995,N,14148.329543856002,E,4,9,1.25,110.682,M,31.866,M,6.3,2010*63,43.46215405401666,141.80549239760003,565160.2705096708,4812453.375006194
3916,[2021-01-29 11:11:24.964] $GNGGA,21123.4,4327.729243106,N,14148.329544711001,E,4,9,1.25,110.681,M,31.866,M,6.4,2010*6B,43.46215405176666,141.80549241185003,565160.2716648431,4812453.374767463
3917,[2021-01-29 11:11:25.058] $GNGGA,21123.5,4327.729243269,N,14148.32954488,E,4,9,1.25,110.681,M,31.866,M,6.5,2010*66,43.46215405448334,141.80549241466665,565160.2718897766,4812453.375071376
3918,[2021-01-29 11:11:25.167] $GNGGA,21123.6,4327.729243259,N,14148.329545003,E,4,9,1.25,110.68299999999999,M,31.866,M,6.6,2010*65,43.46215405431667,141.80549241671667,565160.2720557934,4812453.37505447
3919,[2021-01-29 11:11:25.267] $GNGGA,21123.7,4327.729243265,N,14148.329544802,E,4,9,1.25,110.68299999999999,M,31.866,M,6.7,2010*62,43.462154054416665,141.80549241336664,565160.2717846838,4812453.375062954
3920,[2021-01-29 11:11:25.362] $GNGGA,21123.8,4327.729244362,N,14148.329544813001,E,4,9,1.25,110.681,M,31.866,M,6.8,2010*61,43.462154072699995,141.80549241355,565160.2717798809,4812453.377093606
3921,[2021-01-29 11:11:25.456] $GNGGA,21123.9,4327.729242859,N,14148.329545207,E,4,9,1.25,110.68299999999999,M,31.866,M,6.9,2010*68,43.46215404765,141.80549242011665,565160.2723379968,4812453.374316743
3922,[2021-01-29 11:11:25.565] $GNGGA,21124.0,4327.729242974,N,14148.329546856,E,4,9,1.25,110.682,M,31.866,M,7.0,2010*6C,43.46215404956667,141.80549244760002,565160.2745592106,4812453.374551106
3923,[2021-01-29 11:11:25.659] $GNGGA,21124.1,4327.729243795,N,14148.329544831002,E,4,9,1.25,110.68299999999999,M,31.866,M,2.1,2010*6B,43.462154063250004,141.80549241385006,565160.2718143025,4812453.376044344
3924,[2021-01-29 11:11:25.768] $GNGGA,21124.2,4327.729242607,N,14148.329544315,E,4,9,1.25,110.681,M,31.866,M,2.2,2010*6F,43.46215404345,141.80549240525002,565160.2711398663,4812453.373838669
3925,[2021-01-29 11:11:25.862] $GNGGA,21124.3,4327.72924175,N,14148.329544332,E,4,9,1.25,110.681,M,31.866,M,2.3,2010*6A,43.46215402916667,141.80549240553333,565160.271178127,4812453.372252613
3926,[2021-01-29 11:11:25.969] $GNGGA,21124.4,4327.729242923,N,14148.329543917,E,4,9,1.25,110.681,M,31.866,M,2.4,2010*69,43.46215404871667,141.80549239861668,565160.270597604,4812453.374418384
3927,[2021-01-29 11:11:26.060] $GNGGA,21124.5,4327.729242191,N,14148.329544463999,E,4,9,1.25,110.682,M,31.866,M,2.5,2010*65,43.462154036516665,141.8054924077333,565160.2713482004,4812453.373070611
3928,[2021-01-29 11:11:26.154] $GNGGA,21124.6,4327.729242514,N,14148.329544538,E,4,9,1.25,110.682,M,31.866,M,2.6,2010*64,43.46215404190001,141.80549240896667,565160.271442192,4812453.373669438
3929,[2021-01-29 11:11:26.262] $GNGGA,21124.7,4327.72924252,N,14148.329545413999,E,4,9,1.25,110.682,M,31.866,M,2.7,2010*6D,43.462154042,141.80549242356662,565160.2726231506,4812453.373691965
3930,[2021-01-29 11:11:26.369] $GNGGA,21124.8,4327.729242456,N,14148.329543602,E,4,9,1.25,110.682,M,31.866,M,2.8,2010*6E,43.462154040933335,141.80549239336668,565160.2701812636,4812453.373549876
3931,[2021-01-29 11:11:26.465] $GNGGA,21124.9,4327.729242018,N,14148.329543803999,E,4,9,1.25,110.682,M,31.866,M,2.9,2010*68,43.46215403363334,141.8054923967333,565160.2704614506,4812453.372741789
3932,[2021-01-29 11:11:26.569] $GNGGA,21125.0,4327.729240913,N,14148.329544388998,E,4,9,1.25,110.685,M,31.866,M,3.0,2010*66,43.46215401521666,141.8054924064833,565160.271269958,4812453.370704099
3933,[2021-01-29 11:11:26.665] $GNGGA,21125.1,4327.729241465,N,14148.329543492,E,4,9,1.25,110.686,M,31.866,M,3.1,2010*62,43.46215402441666,141.80549239153333,565160.2700506962,4812453.371714135
3934,[2021-01-29 11:11:26.766] $GNGGA,21125.2,4327.729240181,N,14148.329543615,E,4,9,1.25,110.69,M,31.866,M,3.2,2010*66,43.46215400301667,141.80549239358334,565160.2702395149,4812453.369339099
3935,[2021-01-29 11:11:26.862] $GNGGA,21125.3,4327.729240529,N,14148.329543635,E,4,9,1.25,110.68799999999999,M,31.866,M,3.3,2010*6B,43.46215400881666,141.80549239391667,565160.2702602516,4812453.369983495
3936,[2021-01-29 11:11:26.966] $GNGGA,21125.4,4327.729241134,N,14148.329543745,E,4,9,1.25,110.68700000000001,M,31.866,M,3.4,2010*6B,43.46215401890001,141.80549239575,565160.2703977285,4812453.371104765
3937,[2021-01-29 11:11:27.062] $GNGGA,21125.5,4327.729241049,N,14148.329544118,E,4,9,1.25,110.68799999999999,M,31.866,M,3.5,2010*66,43.46215401748333,141.80549240196666,565160.2709021486,4812453.370952295
3938,[2021-01-29 11:11:27.166] $GNGGA,21125.6,4327.729241033,N,14148.329543898,E,4,9,1.25,110.685,M,31.866,M,3.6,2010*60,43.46215401721666,141.8054923983,565160.2706058208,4812453.370919812
3939,[2021-01-29 11:11:27.262] $GNGGA,21125.7,4327.729240902,N,14148.329544788001,E,4,9,1.25,110.68799999999999,M,31.866,M,3.7,2010*6E,43.462154015033335,141.80549241313335,565160.2718081129,4812453.370688941
3940,[2021-01-29 11:11:27.355] $GNGGA,21125.8,4327.729240941,N,14148.329545078,E,4,9,1.25,110.689,M,31.866,M,3.8,2010*61,43.46215401568334,141.8054924179667,565160.2721984077,4812453.37076491
3941,[2021-01-29 11:11:27.465] $GNGGA,21125.9,4327.729241179,N,14148.329544728998,E,4,9,1.25,110.686,M,31.866,M,3.9,2010*6E,43.46215401965,141.80549241214996,565160.2717236017,4812453.371200888
3942,[2021-01-29 11:11:27.558] $GNGGA,21126.0,4327.729241955,N,14148.329544703001,E,4,9,1.25,110.686,M,31.866,M,4.0,2010*64,43.462154032583335,141.80549241171667,565160.2716746593,4812453.372636898
3943,[2021-01-29 11:11:27.668] $GNGGA,21126.1,4327.729241413,N,14148.329544548998,E,4,9,1.25,110.686,M,31.866,M,4.1,2010*67,43.46215402354999,141.80549240914996,565160.2714767271,4812453.371631665
3944,[2021-01-29 11:11:27.761] $GNGGA,21126.2,4327.729241036,N,14148.329545815,E,4,9,1.25,110.685,M,31.866,M,4.2,2010*62,43.46215401726666,141.80549243024998,565160.2731903679,4812453.370950361
3945,[2021-01-29 11:11:27.864] $GNGGA,21126.3,4327.729240951,N,14148.329546556999,E,4,9,1.25,110.686,M,31.866,M,4.3,2010*60,43.462154015850004,141.80549244261667,565160.2741922954,4812453.370802705
3946,[2021-01-29 11:11:27.964] $GNGGA,21126.4,4327.729240437,N,14148.329545798999,E,4,9,1.25,110.689,M,31.866,M,4.4,2010*61,43.46215400728334,141.8054924299833,565160.2731795171,4812453.369841424
3947,[2021-01-29 11:11:28.058] $GNGGA,21126.5,4327.729240767,N,14148.329546594,E,4,9,1.25,110.686,M,31.866,M,4.5,2010*64,43.46215401278334,141.8054924432333,565160.2742454729,4812453.370462609
3948,[2021-01-29 11:11:28.167] $GNGGA,21126.6,4327.72924054,N,14148.329546128998,E,4,9,1.25,110.691,M,31.866,M,4.6,2010*67,43.46215400900001,141.80549243548327,565160.2736225945,4812453.370036378
3949,[2021-01-29 11:11:28.264] $GNGGA,21126.7,4327.729241049,N,14148.329545102,E,4,9,1.25,110.68799999999999,M,31.866,M,4.7,2010*68,43.46215401748333,141.8054924183667,565160.2722288334,4812453.370965126
3950,[2021-01-29 11:11:28.367] $GNGGA,21126.8,4327.729241775,N,14148.329545218001,E,4,9,1.25,110.68700000000001,M,31.866,M,4.8,2010*67,43.46215402958334,141.80549242030003,565160.2723722358,4812453.372310441
3951,[2021-01-29 11:11:28.461] $GNGGA,21126.9,4327.729241675,N,14148.329545059,E,4,9,1.25,110.685,M,31.866,M,4.9,2010*63,43.462154027916654,141.80549241765,565160.2721596482,4812453.372123269
3952,[2021-01-29 11:11:28.554] $GNGGA,21127.0,4327.729242191,N,14148.329545026001,E,4,9,1.25,110.682,M,31.866,M,5.0,2010*62,43.462154036516665,141.80549241710003,565160.2721059226,4812453.373077937
3953,[2021-01-29 11:11:28.664] $GNGGA,21127.1,4327.729242299,N,14148.329544075,E,4,9,1.25,110.689,M,31.866,M,5.1,2010*65,43.46215403831667,141.80549240125,565160.2708217994,4812453.373265442
3954,[2021-01-29 11:11:28.757] $GNGGA,21127.2,4327.7292413820005,N,14148.329544895,E,4,9,1.25,110.68700000000001,M,31.866,M,5.2,2010*65,43.46215402303334,141.80549241491667,565160.2719437829,4812453.3715788005
3955,[2021-01-29 11:11:28.866] $GNGGA,21127.3,4327.729241629,N,14148.329544733,E,4,9,1.25,110.68799999999999,M,31.866,M,5.3,2010*6D,43.46215402715001,141.80549241221667,565160.2717209433,4812453.372033875
3956,[2021-01-29 11:11:28.968] $GNGGA,21127.4,4327.7292408329995,N,14148.329546588,E,4,9,1.25,110.686,M,31.866,M,5.4,2010*67,43.46215401388333,141.80549244313332,565160.2742362022,4812453.370584693
3957,[2021-01-29 11:11:29.061] $GNGGA,21127.5,4327.729241968,N,14148.329545021,E,4,9,1.25,110.68799999999999,M,31.866,M,5.5,2010*62,43.462154032799994,141.80549241701667,565160.2721031713,4812453.372665107
3958,[2021-01-29 11:11:29.165] $GNGGA,21127.6,4327.72924288,N,14148.329545444,E,4,9,1.25,110.68700000000001,M,31.866,M,5.6,2010*6E,43.462154048,141.80549242406667,565160.2726571587,4812453.374358703
3959,[2021-01-29 11:11:29.265] $GNGGA,21127.7,4327.729242767,N,14148.329545705,E,4,9,1.25,110.68299999999999,M,31.866,M,5.7,2010*6A,43.462154046116666,141.8054924284167,565160.2730110763,4812453.374152947
3960,[2021-01-29 11:11:29.366] $GNGGA,21127.8,4327.729242648,N,14148.32954648,E,4,9,1.25,110.685,M,31.866,M,5.8,2010*6D,43.46215404413333,141.8054924413333,565160.2740580993,4812453.373942788
3961,[2021-01-29 11:11:29.467] $GNGGA,21127.9,4327.729242779,N,14148.329547262,E,4,9,1.25,110.682,M,31.866,M,5.9,2010*62,43.46215404631667,141.80549245436666,565160.2751100906,4812453.374195461
3962,[2021-01-29 11:11:29.563] $GNGGA,21128.0,4327.729242785,N,14148.329547574,E,4,9,1.25,110.68,M,31.866,M,6.0,2010*6F,43.462154046416664,141.80549245956666,565160.2755306388,4812453.374210634
3963,[2021-01-29 11:11:29.668] $GNGGA,21128.1,4327.729241888,N,14148.329546088999,E,4,9,1.25,110.684,M,31.866,M,1.1,2010*6B,43.46215403146666,141.80549243481664,565160.2735445378,4812453.372530955
3964,[2021-01-29 11:11:29.766] $GNGGA,21128.2,4327.729241768,N,14148.329544781001,E,4,9,1.25,110.685,M,31.866,M,1.2,2010*66,43.46215402946667,141.80549241301668,565160.2717831711,4812453.372291785
3965,[2021-01-29 11:11:29.862] $GNGGA,21128.3,4327.729241362,N,14148.329544002,E,4,9,1.25,110.689,M,31.866,M,1.3,2010*68,43.46215402269999,141.8054924000333,565160.2707401451,4812453.371530135
3966,[2021-01-29 11:11:29.966] $GNGGA,21128.4,4327.729240838,N,14148.329543113,E,4,9,1.25,110.68700000000001,M,31.866,M,1.4,2010*65,43.46215401396667,141.8054923852167,565160.2695509326,4812453.370548638
3967,[2021-01-29 11:11:30.062] $GNGGA,21128.5,4327.729241061,N,14148.329542213998,E,4,9,1.25,110.689,M,31.866,M,1.5,2010*6B,43.462154017683325,141.80549237023328,565160.2683348536,4812453.37094968
3968,[2021-01-29 11:11:30.167] $GNGGA,21128.6,4327.7292419529995,N,14148.329541143,E,4,9,1.25,110.69,M,31.866,M,1.6,2010*69,43.46215403254999,141.80549235238337,565160.2668749131,4812453.372586776
3969,[2021-01-29 11:11:30.271] $GNGGA,21128.7,4327.729241515,N,14148.329541136001,E,4,9,1.25,110.689,M,31.866,M,1.7,2010*6D,43.46215402524999,141.8054923522667,565160.2668733163,4812453.371775962
3970,[2021-01-29 11:11:30.367] $GNGGA,21128.8,4327.729240759,N,14148.329540896,E,4,9,1.25,110.69200000000001,M,31.866,M,1.8,2010*6E,43.462154012650004,141.80549234826668,565160.2665632669,4812453.370373505
3971,[2021-01-29 11:11:30.463] $GNGGA,21128.9,4327.729239823,N,14148.329542448,E,4,9,1.25,110.694,M,31.866,M,1.9,2010*69,43.46215399705,141.8054923741333,565160.2686725081,4812453.368661238
3972,[2021-01-29 11:11:30.567] $GNGGA,21129.0,4327.729240365999,N,14148.32954196,E,4,9,1.25,110.693,M,31.866,M,2.0,2010*6C,43.462154006099986,141.805492366,565160.2680048435,4812453.369659946
3973,[2021-01-29 11:11:30.663] $GNGGA,21129.1,4327.72924034,N,14148.329542622,E,4,9,1.25,110.695,M,31.866,M,2.1,2010*64,43.46215400566666,141.80549237703332,565160.2688978519,4812453.369620454
3974,[2021-01-29 11:11:30.767] $GNGGA,21129.2,4327.729240821,N,14148.329541781999,E,4,9,1.25,110.694,M,31.866,M,2.2,2010*61,43.462154013683325,141.80549236303332,565160.267756707,4812453.370499816
3975,[2021-01-29 11:11:30.863] $GNGGA,21129.3,4327.729241245,N,14148.329541078001,E,4,9,1.25,110.69200000000001,M,31.866,M,2.3,2010*6C,43.46215402074999,141.80549235130002,565160.2667999492,4812453.371275445
3976,[2021-01-29 11:11:30.969] $GNGGA,21129.4,4327.729241287,N,14148.329542807,E,4,9,1.25,110.689,M,31.866,M,2.4,2010*6B,43.462154021450004,141.80549238011665,565160.2691303267,4812453.371375731
3977,[2021-01-29 11:11:31.069] $GNGGA,21129.5,4327.729240562,N,14148.329542108,E,4,9,1.25,110.691,M,31.866,M,2.5,2010*69,43.46215400936667,141.8054923684667,565160.268200878,4812453.370024667
3978,[2021-01-29 11:11:31.163] $GNGGA,21129.6,4327.729241466,N,14148.329542862,E,4,9,1.25,110.68799999999999,M,31.866,M,2.6,2010*60,43.462154024433325,141.80549238103336,565160.2692012801,4812453.371707771
3979,[2021-01-29 11:11:31.268] $GNGGA,21129.7,4327.729240453,N,14148.329543206,E,4,9,1.25,110.68799999999999,M,31.866,M,2.7,2010*6E,43.462154007550005,141.80549238676667,565160.2696832098,4812453.36983723
3980,[2021-01-29 11:11:31.355] $GNGGA,21129.8,4327.729240529,N,14148.329542713998,E,4,9,1.25,110.691,M,31.866,M,2.8,2010*6D,43.46215400881666,141.80549237856664,565160.2690185059,4812453.369971487
3981,[2021-01-29 11:11:31.464] $GNGGA,21129.9,4327.729240916,N,14148.329543135,E,4,9,1.25,110.689,M,31.866,M,2.9,2010*60,43.46215401526666,141.80549238558334,565160.2695791969,4812453.3706933
3982,[2021-01-29 11:11:31.558] $GNGGA,21130.0,4327.729242082,N,14148.329542968999,E,4,9,1.25,110.689,M,31.866,M,3.0,2010*6F,43.462154034700006,141.80549238281662,565160.2693345094,4812453.372849362
3983,[2021-01-29 11:11:31.668] $GNGGA,21130.1,4327.729241755,N,14148.329543656,E,4,9,1.25,110.69,M,31.866,M,3.1,2010*6B,43.46215402925,141.80549239426668,565160.2702666195,4812453.372253054
3984,[2021-01-29 11:11:31.770] $GNGGA,21130.2,4327.729241958,N,14148.329543501999,E,4,9,1.25,110.68799999999999,M,31.866,M,3.2,2010*63,43.462154032633336,141.80549239169997,565160.2700553512,4812453.372626791
3985,[2021-01-29 11:11:31.861] $GNGGA,21130.3,4327.729242191,N,14148.329543868998,E,4,9,1.25,110.69,M,31.866,M,3.3,2010*64,43.462154036516665,141.80549239781666,565160.2705459914,4812453.373062852
3986,[2021-01-29 11:11:31.963] $GNGGA,21130.4,4327.72924174,N,14148.329543736001,E,4,9,1.25,110.689,M,31.866,M,3.4,2010*60,43.46215402900001,141.8054923956,565160.2703747468,4812453.372226333
3987,[2021-01-29 11:11:32.053] $GNGGA,21130.5,4327.729242646,N,14148.329543814,E,4,9,1.25,110.686,M,31.866,M,3.5,2010*64,43.462154044100004,141.8054923969,565160.270463693,4812453.373904323
3988,[2021-01-29 11:11:32.163] $GNGGA,21130.6,4327.729241938,N,14148.329543363001,E,4,9,1.25,110.685,M,31.866,M,3.6,2010*69,43.462154032300006,141.80549238938337,565160.2698683061,4812453.37258796
3989,[2021-01-29 11:11:32.256] $GNGGA,21130.7,4327.729241768,N,14148.329543913,E,4,9,1.25,110.681,M,31.866,M,3.7,2010*6B,43.46215402946667,141.80549239854997,565160.2706128847,4812453.372280466
3990,[2021-01-29 11:11:32.356] $GNGGA,21130.8,4327.729241667,N,14148.329544221999,E,4,9,1.25,110.684,M,31.866,M,3.8,2010*6E,43.462154027783335,141.8054924037,565160.2710313036,4812453.372097548
3991,[2021-01-29 11:11:32.465] $GNGGA,21130.9,4327.729241238,N,14148.329544105,E,4,9,1.25,110.68299999999999,M,31.866,M,3.9,2010*61,43.462154020633335,141.80549240174997,565160.2708812365,4812453.371301959
3992,[2021-01-29 11:11:32.559] $GNGGA,21131.0,4327.729242234001,N,14148.32954577,E,4,9,1.25,110.68,M,31.866,M,4.0,2010*6E,43.46215403723334,141.8054924295,565160.273108251,4812453.373167231
3993,[2021-01-29 11:11:32.668] $GNGGA,21131.1,4327.729242472,N,14148.329546491,E,4,9,1.25,110.681,M,31.866,M,4.1,2010*64,43.4621540412,141.8054924415167,565160.2740760843,4812453.373617161
3994,[2021-01-29 11:11:32.763] $GNGGA,21131.2,4327.729241966,N,14148.329546091001,E,4,9,1.25,110.681,M,31.866,M,4.2,2010*6B,43.46215403276667,141.80549243485,565160.27354584,4812453.372675358
3995,[2021-01-29 11:11:32.862] $GNGGA,21131.3,4327.729242539001,N,14148.329545633,E,4,9,1.25,110.679,M,31.866,M,4.3,2010*64,43.46215404231668,141.80549242721665,565160.2729180804,4812453.373729991
3996,[2021-01-29 11:11:32.957] $GNGGA,21131.4,4327.72924256,N,14148.329544974,E,4,9,1.25,110.682,M,31.866,M,4.4,2010*61,43.46215404266666,141.80549241623336,565160.2720292083,4812453.373760265
3997,[2021-01-29 11:11:33.066] $GNGGA,21131.5,4327.729242452,N,14148.329546641002,E,4,9,1.25,110.679,M,31.866,M,4.5,2010*6E,43.462154040866665,141.80549244401672,565160.2742786838,4812453.373582097
3998,[2021-01-29 11:11:33.160] $GNGGA,21131.6,4327.729242355999,N,14148.329546066001,E,4,9,1.25,110.678,M,31.866,M,4.6,2010*6F,43.46215403926665,141.80549243443335,565160.2735051535,4812453.373396906
3999,[2021-01-29 11:11:33.254] $GNGGA,21131.7,4327.729242823,N,14148.329546772,E,4,9,1.25,110.679,M,31.866,M,4.7,2010*65,43.46215404705001,141.80549244620002,565160.2744486601,4812453.3742705155
4000,[2021-01-29 11:11:33.363] $GNGGA,21131.8,4327.729243127,N,14148.329546518999,E,4,9,1.25,110.675,M,31.866,M,4.8,2010*6A,43.46215405211667,141.80549244198332,565160.274102109,4812453.37482991
4001,[2021-01-29 11:11:33.457] $GNGGA,21131.9,4327.729243539,N,14148.329546228,E,4,9,1.25,110.67299999999999,M,31.866,M,4.9,2010*62,43.46215405898334,141.80549243713335,565160.2737023927,4812453.375588712
4002,[2021-01-29 11:11:33.566] $GNGGA,21132.0,4327.729243454,N,14148.3295464,E,4,9,1.25,110.67,M,31.866,M,5.0,2010*65,43.46215405756667,141.80549244000002,565160.2739358144,4812453.375433623
4003,[2021-01-29 11:11:33.660] $GNGGA,21132.1,4327.729242872,N,14148.329547248999,E,4,9,1.25,110.667,M,31.866,M,5.1,2010*60,43.46215404786667,141.80549245415,565160.2750908991,4812453.374367432
4004,[2021-01-29 11:11:33.754] $GNGGA,21132.2,4327.729243713,N,14148.329547127,E,4,9,1.25,110.665,M,31.866,M,5.2,2010*60,43.46215406188333,141.80549245211665,565160.2749113567,4812453.375922502
4005,[2021-01-29 11:11:33.864] $GNGGA,21132.3,4327.72924318,N,14148.329547283001,E,4,9,1.25,110.66799999999999,M,31.866,M,5.3,2010*6C,43.462154053,141.80549245471667,565160.2751312268,4812453.374937972
4006,[2021-01-29 11:11:33.958] $GNGGA,21132.4,4327.729244086,N,14148.32954567,E,4,9,1.25,110.67,M,31.866,M,5.4,2010*6F,43.462154068100006,141.80549242783334,565160.2729402756,4812453.376593915
4007,[2021-01-29 11:11:34.067] $GNGGA,21132.5,4327.729243913,N,14148.329545573,E,4,9,1.25,110.665,M,31.866,M,5.5,2010*69,43.46215406521666,141.80549242621666,565160.2728125901,4812453.376272431
4008,[2021-01-29 11:11:34.161] $GNGGA,21132.6,4327.729244551,N,14148.329546003,E,4,9,1.25,110.665,M,31.866,M,5.6,2010*65,43.46215407585,141.80549243338334,565160.2733809196,4812453.377458956
4009,[2021-01-29 11:11:34.264] $GNGGA,21132.7,4327.729245027,N,14148.329545195,E,4,9,1.25,110.664,M,31.866,M,5.7,2010*6C,43.462154083783325,141.80549241991667,565160.272283009,4812453.378329478
4010,[2021-01-29 11:11:34.367] $GNGGA,21132.8,4327.729244096,N,14148.329545453,E,4,9,1.25,110.662,M,31.866,M,5.8,2010*6E,43.46215406826666,141.80549242421668,565160.272647525,4812453.376609593
4011,[2021-01-29 11:11:34.468] $GNGGA,21132.9,4327.729244794,N,14148.329544896002,E,4,9,1.25,110.66799999999999,M,31.866,M,5.9,2010*65,43.462154079899996,141.80549241493335,565160.2718840531,4812453.377894305
4012,[2021-01-29 11:11:34.564] $GNGGA,21133.0,4327.72924486,N,14148.329544702,E,4,10,1.21,110.666,M,31.866,M,6.0,2010*63,43.462154081,141.8054924117,565160.2716213089,4812453.37801394
4013,[2021-01-29 11:11:34.668] $GNGGA,21133.1,4327.729244141,N,14148.329544932,E,4,10,1.21,110.666,M,31.866,M,6.1,2010*64,43.46215406901666,141.80549241553334,565160.2719442779,4812453.3766860925
4014,[2021-01-29 11:11:34.764] $GNGGA,21133.2,4327.729244139,N,14148.32954472,E,4,10,1.21,110.667,M,31.866,M,1.2,2010*60,43.46215406898334,141.80549241199998,565160.2716584832,4812453.376679628
4015,[2021-01-29 11:11:34.868] $GNGGA,21133.3,4327.72924337,N,14148.329545097,E,4,10,1.21,110.67,M,31.866,M,1.3,2010*64,43.462154056166675,141.8054924182833,565160.2721805401,4812453.375261153
4016,[2021-01-29 11:11:34.964] $GNGGA,21133.4,4327.72924334,N,14148.329545232,E,4,10,1.21,110.67,M,31.866,M,1.4,2010*6A,43.462154055666666,141.8054924205333,565160.2723630916,4812453.375207383
4017,[2021-01-29 11:11:35.066] $GNGGA,21133.5,4327.729243005,N,14148.329545646999,E,4,10,1.21,110.67,M,31.866,M,1.5,2010*6E,43.46215405008334,141.80549242745,565160.2729286157,4812453.3745927205
4018,[2021-01-29 11:11:35.161] $GNGGA,21133.6,4327.729244081,N,14148.329545413,E,4,10,1.21,110.669,M,31.866,M,1.6,2010*6E,43.46215406801666,141.80549242355,565160.2725938611,4812453.376581307
4019,[2021-01-29 11:11:35.270] $GNGGA,21133.7,4327.729244452,N,14148.329545511,E,4,10,1.21,110.67299999999999,M,31.866,M,1.7,2010*6C,43.4621540742,141.80549242518336,565160.2727193525,4812453.377269294
4020,[2021-01-29 11:11:35.365] $GNGGA,21133.8,4327.729243228,N,14148.329545767,E,4,10,1.21,110.67299999999999,M,31.866,M,1.8,2010*63,43.4621540538,141.80549242944997,565160.2730864108,4812453.37500705
4021,[2021-01-29 11:11:35.462] $GNGGA,21133.9,4327.729243306,N,14148.329544801001,E,4,10,1.21,110.679,M,31.866,M,1.9,2010*6A,43.46215405510001,141.80549241335,565160.2717826058,4812453.375138831
4022,[2021-01-29 11:11:35.568] $GNGGA,21134.0,4327.729243751,N,14148.329545104,E,4,10,1.21,110.676,M,31.866,M,2.0,2010*6A,43.46215406251667,141.80549241839998,565160.2721831574,4812453.375966461
4023,[2021-01-29 11:11:35.665] $GNGGA,21134.1,4327.729242595,N,14148.329545056002,E,4,10,1.21,110.678,M,31.866,M,2.1,2010*69,43.46215404325,141.80549241760002,565160.2721391389,4812453.37382612
4024,[2021-01-29 11:11:35.769] $GNGGA,21134.2,4327.729243042,N,14148.329545586,E,4,10,1.21,110.678,M,31.866,M,2.2,2010*6F,43.46215405070001,141.80549242643335,565160.2728457105,4812453.374660411
4025,[2021-01-29 11:11:35.868] $GNGGA,21134.3,4327.729243125,N,14148.329545553,E,4,10,1.21,110.676,M,31.866,M,2.3,2010*69,43.46215405208333,141.80549242588333,565160.2727997318,4812453.37481361
4026,[2021-01-29 11:11:35.964] $GNGGA,21134.4,4327.729243115999,N,14148.329545443,E,4,10,1.21,110.676,M,31.866,M,2.4,2010*69,43.46215405193332,141.80549242405004,565160.272651588,4812453.374795516
4027,[2021-01-29 11:11:36.060] $GNGGA,21134.5,4327.729242948,N,14148.329545028999,E,4,10,1.21,110.679,M,31.866,M,2.5,2010*6C,43.462154049133346,141.80549241715,565160.2720964141,4812453.374479159
4028,[2021-01-29 11:11:36.169] $GNGGA,21134.6,4327.72924266,N,14148.329545203,E,4,10,1.21,110.679,M,31.866,M,2.6,2010*63,43.46215404433333,141.80549242005,565160.2723361661,4812453.373948349
4029,[2021-01-29 11:11:36.265] $GNGGA,21134.7,4327.72924229,N,14148.329545065,E,4,10,1.21,110.677,M,31.866,M,2.7,2010*64,43.46215403816666,141.80549241774997,565160.2721567284,4812453.373261692
4030,[2021-01-29 11:11:36.369] $GNGGA,21134.8,4327.729243002,N,14148.329546056999,E,4,10,1.21,110.682,M,31.866,M,2.8,2010*64,43.46215405003333,141.8054924342833,565160.2734814514,4812453.374592514
4031,[2021-01-29 11:11:36.465] $GNGGA,21134.9,4327.72924347,N,14148.329546166999,E,4,10,1.21,110.68299999999999,M,31.866,M,2.9,2010*66,43.46215405783334,141.80549243611665,565160.273621383,4812453.3754602
4032,[2021-01-29 11:11:36.569] $GNGGA,21135.0,4327.729243003,N,14148.329546158999,E,4,10,1.21,110.68299999999999,M,31.866,M,3.0,2010*6B,43.46215405005,141.80549243598333,565160.273618957,4812453.374595695
4033,[2021-01-29 11:11:36.665] $GNGGA,21135.1,4327.729243934,N,14148.32954511,E,4,10,1.21,110.684,M,31.866,M,3.1,2010*6F,43.46215406556667,141.8054924185,565160.2721879728,4812453.376305267
4034,[2021-01-29 11:11:36.769] $GNGGA,21135.2,4327.729242602,N,14148.329546751002,E,4,10,1.21,110.68299999999999,M,31.866,M,3.2,2010*63,43.462154043366674,141.80549244585,565160.2744243017,4812453.373861177
4035,[2021-01-29 11:11:36.865] $GNGGA,21135.3,4327.729242435999,N,14148.329546565,E,4,10,1.21,110.68299999999999,M,31.866,M,3.3,2010*63,43.462154040599984,141.80549244275,565160.2741764982,4812453.37355149
4036,[2021-01-29 11:11:36.970] $GNGGA,21135.4,4327.729242816,N,14148.32954517,E,4,10,1.21,110.685,M,31.866,M,3.4,2010*68,43.46215404693333,141.8054924195,565160.2722888828,4812453.374236669
4037,[2021-01-29 11:11:37.068] $GNGGA,21135.5,4327.7292425079995,N,14148.329545768998,E,4,10,1.21,110.681,M,31.866,M,3.5,2010*60,43.462154041799984,141.8054924294833,565160.273101998,4812453.37367438
4038,[2021-01-29 11:11:37.164] $GNGGA,21135.6,4327.729242497,N,14148.329544818,E,4,10,1.21,110.677,M,31.866,M,3.6,2010*66,43.462154041616664,141.80549241363335,565160.2718200071,4812453.37364162
4039,[2021-01-29 11:11:37.268] $GNGGA,21135.7,4327.729242337,N,14148.329546011999,E,4,10,1.21,110.681,M,31.866,M,3.7,2010*62,43.46215403895,141.80549243353332,565160.2734326841,4812453.373361034
4040,[2021-01-29 11:11:37.364] $GNGGA,21135.8,4327.7292425040005,N,14148.329546083998,E,4,10,1.21,110.678,M,31.866,M,3.8,2010*6D,43.462154041733335,141.80549243473328,565160.2735267658,4812453.373671085
4041,[2021-01-29 11:11:37.469] $GNGGA,21135.9,4327.729242453,N,14148.329545092,E,4,10,1.21,110.681,M,31.866,M,3.9,2010*6C,43.46215404088333,141.8054924182,565160.2721902163,4812453.373563751
4042,[2021-01-29 11:11:37.567] $GNGGA,21136.0,4327.729242062,N,14148.329546138,E,4,10,1.21,110.678,M,31.866,M,4.0,2010*6A,43.46215403436667,141.80549243563334,565160.2736074894,4812453.372853662
4043,[2021-01-29 11:11:37.663] $GNGGA,21136.1,4327.72924203,N,14148.329546275,E,4,10,1.21,110.679,M,31.866,M,4.1,2010*66,43.462154033833336,141.80549243791666,565160.2737927709,4812453.372796218
4044,[2021-01-29 11:11:37.767] $GNGGA,21136.2,4327.7292413840005,N,14148.329546343,E,4,10,1.21,110.684,M,31.866,M,4.2,2010*6F,43.46215402306667,141.80549243905003,565160.2738960193,4812453.37160138
4045,[2021-01-29 11:11:37.863] $GNGGA,21136.3,4327.729242042,N,14148.329545876,E,4,10,1.21,110.681,M,31.866,M,4.3,2010*6E,43.462154034033325,141.80549243126669,565160.2732546064,4812453.372813226
4046,[2021-01-29 11:11:37.965] $GNGGA,21136.4,4327.729241934,N,14148.329545766,E,4,10,1.21,110.684,M,31.866,M,4.4,2010*6E,43.462154032233336,141.80549242943334,565160.2731082306,4812453.372611888
4047,[2021-01-29 11:11:38.069] $GNGGA,21136.5,4327.729242853,N,14148.329546222,E,4,10,1.21,110.682,M,31.866,M,4.5,2010*6D,43.462154047549994,141.8054924370333,565160.2737065814,4812453.374318872
4048,[2021-01-29 11:11:38.164] $GNGGA,21136.6,4327.729242793,N,14148.329546383999,E,4,10,1.21,110.678,M,31.866,M,4.6,2010*66,43.46215404655,141.8054924397333,565160.2739260715,4812453.374209926
4049,[2021-01-29 11:11:38.264] $GNGGA,21136.7,4327.729242119,N,14148.32954661,E,4,10,1.21,110.682,M,31.866,M,4.7,2010*6F,43.46215403531667,141.80549244350001,565160.2742428463,4812453.372965323
4050,[2021-01-29 11:11:38.358] $GNGGA,21136.8,4327.729241413,N,14148.3295475,E,4,10,1.21,110.68299999999999,M,31.866,M,4.8,2010*61,43.46215402354999,141.80549245833333,565160.2754554293,4812453.371670145
4051,[2021-01-29 11:11:38.468] $GNGGA,21136.9,4327.7292432720005,N,14148.32954623,E,4,10,1.21,110.679,M,31.866,M,4.9,2010*62,43.462154054533336,141.80549243716666,565160.2737098687,4812453.375094531
4052,[2021-01-29 11:11:38.561] $GNGGA,21137.0,4327.729242615,N,14148.329546582,E,4,10,1.21,110.68,M,31.866,M,5.0,2010*6E,43.46215404358333,141.80549244303333,565160.2741962135,4812453.373883035
4053,[2021-01-29 11:11:38.655] $GNGGA,21137.1,4327.729245036,N,14148.329547468998,E,4,11,1.15,110.68,M,31.866,M,5.1,2010*6D,43.462154083933335,141.80549245781663,565160.2753487736,4812453.378375789
4054,[2021-01-29 11:11:38.765] $GNGGA,21137.2,4327.729247943,N,14148.329548993,E,4,11,1.15,110.67399999999999,M,31.866,M,5.2,2010*68,43.462154132383326,141.80549248321668,565160.27735148,4812453.383776414
4055,[2021-01-29 11:11:38.865] $GNGGA,21137.3,4327.7292492120005,N,14148.329550811999,E,4,11,1.15,110.679,M,31.866,M,5.3,2010*65,43.46215415353334,141.80549251353332,565160.2797812358,4812453.386149011
4056,[2021-01-29 11:11:38.959] $GNGGA,21137.4,4327.729250702,N,14148.3295517,E,4,11,1.15,110.675,M,31.866,M,5.4,2010*68,43.46215417836667,141.80549252833336,565160.2809518161,4812453.388918526
4057,[2021-01-29 11:11:39.068] $GNGGA,21137.5,4327.729252166,N,14148.329551863999,E,4,11,1.15,110.671,M,31.866,M,5.5,2010*67,43.46215420276667,141.80549253106662,565160.2811467175,4812453.391630478
4058,[2021-01-29 11:11:39.162] $GNGGA,21137.6,4327.729252630999,N,14148.329552878999,E,4,11,1.15,110.671,M,31.866,M,5.6,2010*6D,43.46215421051665,141.80549254798333,565160.282506875,4812453.39250441
4059,[2021-01-29 11:11:39.265] $GNGGA,21137.7,4327.729252799,N,14148.329552631001,E,4,11,1.15,110.671,M,31.866,M,5.7,2010*6C,43.462154213316666,141.80549254385,565160.2821694994,4812453.392812139
4060,[2021-01-29 11:11:39.368] $GNGGA,21137.8,4327.729252106,N,14148.329553022,E,4,11,1.15,110.669,M,31.866,M,5.8,2010*60,43.462154201766666,141.80549255036667,565160.282709073,4812453.391534519
4061,[2021-01-29 11:11:39.462] $GNGGA,21137.9,4327.729253308,N,14148.329553307,E,4,11,1.15,110.669,M,31.866,M,5.9,2010*69,43.4621542218,141.80549255511664,565160.2830718079,4812453.393763096
4062,[2021-01-29 11:11:39.555] $GNGGA,21138.0,4327.729253415,N,14148.329554046,E,4,11,1.15,110.66799999999999,M,31.866,M,6.0,2010*6E,43.46215422358333,141.80549256743333,565160.2840662539,4812453.393970785
4063,[2021-01-29 11:11:39.667] $GNGGA,21138.1,4327.729252938,N,14148.329554858,E,4,11,1.15,110.671,M,31.866,M,6.1,2010*62,43.46215421563333,141.80549258096667,565160.2851695752,4812453.393098461
4064,[2021-01-29 11:11:39.768] $GNGGA,21138.2,4327.729253015,N,14148.329554429,E,4,11,1.15,110.67,M,31.866,M,1.2,2010*69,43.462154216916666,141.80549257381668,565160.2845897968,4812453.393235393
4065,[2021-01-29 11:11:39.862] $GNGGA,21138.3,4327.72925273,N,14148.329553366,E,4,11,1.15,110.67200000000001,M,31.866,M,1.3,2010*61,43.462154212166666,141.8054925561,565160.2831617031,4812453.392694008
4066,[2021-01-29 11:11:39.964] $GNGGA,21138.4,4327.72925259,N,14148.329552333,E,4,11,1.15,110.67,M,31.866,M,1.4,2010*6A,43.462154209833336,141.8054925388833,565160.2817714601,4812453.392421402
