,Format,Time,Latitude,LatType,Longitude,LonType,Status,Satellite,LevelAccuracy,Altitude(sea),M(sea),Altitude(geoid),M(geoid),DGPS use,checksum,Lat,Lon,UTM_X,UTM_Y
1957,[2021-01-29 11:08:23.297] $GPGGA,20821.9,4327.729222999999,N,14148.32953,E,4,9,1.2,110.7673,M,31.83,M,4.0,0000*5D,43.462153716666656,141.80549216666668,565160.2521905918,4812453.337360137
1958,[2021-01-29 11:08:23.391] $GPGGA,20822.0,4327.729222,N,14148.32953,E,4,9,1.2,110.7678,M,31.83,M,5.0,0000*57,43.4621537,141.80549216666668,565160.2522084926,4812453.335509172
1959,[2021-01-29 11:08:23.485] $GPGGA,20822.1,4327.729222,N,14148.32953,E,4,9,1.2,110.76700000000001,M,31.83,M,5.0,0000*5E,43.4621537,141.80549216666668,565160.2522084926,4812453.335509172
1960,[2021-01-29 11:08:23.579] $GPGGA,20822.2,4327.729222999999,N,14148.32953,E,4,9,1.2,110.7687,M,31.83,M,5.0,0000*51,43.462153716666656,141.80549216666668,565160.2521905918,4812453.337360137
1961,[2021-01-29 11:08:23.688] $GPGGA,20822.3,4327.729222999999,N,14148.32953,E,4,9,1.2,110.7681,M,31.83,M,5.0,0000*5A,43.462153716666656,141.80549216666668,565160.2521905918,4812453.337360137
1962,[2021-01-29 11:08:23.782] $GPGGA,20822.4,4327.729222999999,N,14148.32953,E,4,9,1.2,110.7695,M,31.83,M,5.0,0000*5D,43.462153716666656,141.80549216666668,565160.2521905918,4812453.337360137
1963,[2021-01-29 11:08:23.891] $GPGGA,20822.5,4327.729222,N,14148.32953,E,4,9,1.2,110.7679,M,31.83,M,5.0,0000*51,43.4621537,141.80549216666668,565160.2522084926,4812453.335509172
1964,[2021-01-29 11:08:23.985] $GPGGA,20822.6,4327.729222999999,N,14148.32953,E,4,9,1.2,110.7649,M,31.83,M,5.0,0000*5B,43.462153716666656,141.80549216666668,565160.2521905918,4812453.337360137
1965,[2021-01-29 11:08:24.079] $GPGGA,20822.7,4327.729222999999,N,14148.32953,E,4,9,1.2,110.76299999999999,M,31.83,M,5.0,0000*5D,43.462153716666656,141.80549216666668,565160.2521905918,4812453.337360137
1966,[2021-01-29 11:08:24.188] $GPGGA,20822.8,4327.729222999999,N,14148.32953,E,4,9,1.2,110.7654,M,31.83,M,5.0,0000*5A,43.462153716666656,141.80549216666668,565160.2521905918,4812453.337360137
1967,[2021-01-29 11:08:24.284] $GPGGA,20822.9,4327.729222999999,N,14148.32953,E,4,9,1.2,110.7661,M,31.83,M,5.0,0000*58,43.462153716666656,141.80549216666668,565160.2521905918,4812453.337360137
1968,[2021-01-29 11:08:24.393] $GPGGA,20823.0,4327.729222999999,N,14148.32953,E,4,9,1.2,110.7651,M,31.83,M,6.0,0000*5D,43.462153716666656,141.80549216666668,565160.2521905918,4812453.337360137
1969,[2021-01-29 11:08:24.487] $GPGGA,20823.1,4327.729222999999,N,14148.32953,E,4,9,1.2,110.7632,M,31.83,M,6.0,0000*5F,43.462153716666656,141.80549216666668,565160.2521905918,4812453.337360137
1970,[2021-01-29 11:08:24.580] $GPGGA,20823.2,4327.729228,N,14148.32954,E,4,9,1.2,110.7601,M,31.83,M,1.0,0000*58,43.46215380000001,141.80549233333335,565160.2655836284,4812453.346745358
1971,[2021-01-29 11:08:24.690] $GPGGA,20823.3,4327.729229,N,14148.32954,E,4,9,1.2,110.7557,M,31.83,M,1.0,0000*5B,43.462153816666664,141.80549233333335,565160.2655657276,4812453.3485963205
1972,[2021-01-29 11:08:24.784] $GPGGA,20823.4,4327.729229,N,14148.32954,E,4,9,1.2,110.7532,M,31.83,M,1.0,0000*5B,43.462153816666664,141.80549233333335,565160.2655657276,4812453.3485963205
1973,[2021-01-29 11:08:24.877] $GPGGA,20823.5,4327.729228,N,14148.32954,E,4,9,1.2,110.7481,M,31.83,M,1.0,0000*52,43.46215380000001,141.80549233333335,565160.2655836284,4812453.346745358
1974,[2021-01-29 11:08:24.987] $GPGGA,20823.6,4327.729229,N,14148.32954,E,4,9,1.2,110.749,M,31.83,M,1.0,0000*59,43.462153816666664,141.80549233333335,565160.2655657276,4812453.3485963205
1975,[2021-01-29 11:08:25.080] $GPGGA,20823.7,4327.729229,N,14148.32954,E,4,9,1.2,110.7505,M,31.83,M,1.0,0000*54,43.462153816666664,141.80549233333335,565160.2655657276,4812453.3485963205
1976,[2021-01-29 11:08:25.190] $GPGGA,20823.8,4327.729228,N,14148.32954,E,4,9,1.2,110.751,M,31.83,M,1.0,0000*54,43.46215380000001,141.80549233333335,565160.2655836284,4812453.346745358
1977,[2021-01-29 11:08:25.285] $GPGGA,20823.9,4327.729228,N,14148.32954,E,4,9,1.2,110.7521,M,31.83,M,1.0,0000*5A,43.46215380000001,141.80549233333335,565160.2655836284,4812453.346745358
1978,[2021-01-29 11:08:25.395] $GPGGA,20824.0,4327.729228,N,14148.32954,E,4,9,1.2,110.7533,M,31.83,M,2.0,0000*5E,43.46215380000001,141.80549233333335,565160.2655836284,4812453.346745358
1979,[2021-01-29 11:08:25.489] $GPGGA,20824.1,4327.729227000001,N,14148.32954,E,4,9,1.2,110.7553,M,31.83,M,2.0,0000*5E,43.46215378333334,141.80549233333335,565160.2656015294,4812453.3448943915
1980,[2021-01-29 11:08:25.582] $GPGGA,20824.2,4327.729228,N,14148.32954,E,4,9,1.2,110.7561,M,31.83,M,2.0,0000*5B,43.46215380000001,141.80549233333335,565160.2655836284,4812453.346745358
1981,[2021-01-29 11:08:25.676] $GPGGA,20824.3,4327.729228,N,14148.32954,E,4,9,1.2,110.7565,M,31.83,M,2.0,0000*5D,43.46215380000001,141.80549233333335,565160.2655836284,4812453.346745358
1982,[2021-01-29 11:08:25.785] $GPGGA,20824.4,4327.729227000001,N,14148.32954,E,4,9,1.2,110.7578,M,31.83,M,2.0,0000*5B,43.46215378333334,141.80549233333335,565160.2656015294,4812453.3448943915
1983,[2021-01-29 11:08:25.879] $GPGGA,20824.5,4327.7292259999995,N,14148.32954,E,4,9,1.2,110.7614,M,31.83,M,2.0,0000*59,43.46215376666666,141.80549233333335,565160.2656194303,4812453.343043425
1984,[2021-01-29 11:08:25.989] $GPGGA,20824.6,4327.729229,N,14148.32954,E,4,9,1.2,110.7607,M,31.83,M,2.0,0000*5D,43.462153816666664,141.80549233333335,565160.2655657276,4812453.3485963205
1985,[2021-01-29 11:08:26.082] $GPGGA,20824.7,4327.729227000001,N,14148.32954,E,4,9,1.2,110.759,M,31.83,M,2.0,0000*55,43.46215378333334,141.80549233333335,565160.2656015294,4812453.3448943915
1986,[2021-01-29 11:08:26.176] $GPGGA,20824.8,4327.729228,N,14148.32954,E,4,9,1.2,110.7563,M,31.83,M,2.0,0000*57,43.46215380000001,141.80549233333335,565160.2655836284,4812453.346745358
1987,[2021-01-29 11:08:26.288] $GPGGA,20824.9,4327.729228,N,14148.32954,E,4,9,1.2,110.7581,M,31.83,M,2.0,0000*59,43.46215380000001,141.80549233333335,565160.2655836284,4812453.346745358
1988,[2021-01-29 11:08:26.382] $GPGGA,20825.0,4327.729227000001,N,14148.32954,E,4,9,1.2,110.7575,M,31.83,M,3.0,0000*5F,43.46215378333334,141.80549233333335,565160.2656015294,4812453.3448943915
1989,[2021-01-29 11:08:26.491] $GPGGA,20825.1,4327.729227000001,N,14148.32954,E,4,9,1.2,110.76,M,31.83,M,3.0,0000*5A,43.46215378333334,141.80549233333335,565160.2656015294,4812453.3448943915
1990,[2021-01-29 11:08:26.585] $GPGGA,20825.2,4327.729227000001,N,14148.32954,E,4,9,1.2,110.7616,M,31.83,M,3.0,0000*5F,43.46215378333334,141.80549233333335,565160.2656015294,4812453.3448943915
1991,[2021-01-29 11:08:26.679] $GPGGA,20825.3,4327.729228,N,14148.32954,E,4,9,1.2,110.7617,M,31.83,M,3.0,0000*5E,43.46215380000001,141.80549233333335,565160.2655836284,4812453.346745358
1992,[2021-01-29 11:08:26.788] $GPGGA,20825.4,4327.729228,N,14148.32954,E,4,9,1.2,110.7657,M,31.83,M,3.0,0000*52,43.46215380000001,141.80549233333335,565160.2655836284,4812453.346745358
1993,[2021-01-29 11:08:26.882] $GPGGA,20825.5,4327.729228,N,14148.32954,E,4,9,1.2,110.7632,M,31.83,M,3.0,0000*5F,43.46215380000001,141.80549233333335,565160.2655836284,4812453.346745358
1994,[2021-01-29 11:08:26.976] $GPGGA,20825.6,4327.729227000001,N,14148.32954,E,4,9,1.2,110.7636,M,31.83,M,3.0,0000*54,43.46215378333334,141.80549233333335,565160.2656015294,4812453.3448943915
1995,[2021-01-29 11:08:27.085] $GPGGA,20825.7,4327.729227000001,N,14148.32954,E,4,9,1.2,110.7606,M,31.83,M,3.0,0000*50,43.46215378333334,141.80549233333335,565160.2656015294,4812453.3448943915
1996,[2021-01-29 11:08:27.179] $GPGGA,20825.8,4327.729228,N,14148.32954,E,4,9,1.2,110.7586,M,31.83,M,3.0,0000*5B,43.46215380000001,141.80549233333335,565160.2655836284,4812453.346745358
1997,[2021-01-29 11:08:27.288] $GPGGA,20825.9,4327.729228,N,14148.32954,E,4,9,1.2,110.7609,M,31.83,M,3.0,0000*50,43.46215380000001,141.80549233333335,565160.2655836284,4812453.346745358
1998,[2021-01-29 11:08:27.382] $GPGGA,20826.0,4327.729228,N,14148.32954,E,4,9,1.2,110.7606,M,31.83,M,4.0,0000*5C,43.46215380000001,141.80549233333335,565160.2655836284,4812453.346745358
1999,[2021-01-29 11:08:27.491] $GPGGA,20826.1,4327.7292259999995,N,14148.32954,E,4,9,1.2,110.7631,M,31.83,M,4.0,0000*5E,43.46215376666666,141.80549233333335,565160.2656194303,4812453.343043425
2000,[2021-01-29 11:08:27.585] $GPGGA,20826.2,4327.7292259999995,N,14148.32954,E,4,9,1.2,110.7597,M,31.83,M,4.0,0000*51,43.46215376666666,141.80549233333335,565160.2656194303,4812453.343043425
2001,[2021-01-29 11:08:27.679] $GPGGA,20826.3,4327.7292259999995,N,14148.32954,E,4,9,1.2,110.7597,M,31.83,M,4.0,0000*56,43.46215376666666,141.80549233333335,565160.2656194303,4812453.343043425
2002,[2021-01-29 11:08:27.788] $GPGGA,20826.4,4327.7292259999995,N,14148.32954,E,4,10,1.1,110.7611,M,31.83,M,4.0,0000*58,43.46215376666666,141.80549233333335,565160.2656194303,4812453.343043425
2003,[2021-01-29 11:08:27.882] $GPGGA,20826.5,4327.7292259999995,N,14148.32954,E,4,10,1.1,110.7602,M,31.83,M,4.0,0000*54,43.46215376666666,141.80549233333335,565160.2656194303,4812453.343043425
2004,[2021-01-29 11:08:27.991] $GPGGA,20826.6,4327.729225,N,14148.32954,E,4,10,1.1,110.7609,M,31.83,M,4.0,0000*58,43.462153750000006,141.80549233333335,565160.2656373313,4812453.341192461
2005,[2021-01-29 11:08:28.085] $GPGGA,20826.7,4327.729225,N,14148.32954,E,4,10,1.1,110.7618,M,31.83,M,4.0,0000*50,43.462153750000006,141.80549233333335,565160.2656373313,4812453.341192461
2006,[2021-01-29 11:08:28.194] $GPGGA,20826.8,4327.7292259999995,N,14148.32954,E,4,10,1.1,110.7617,M,31.83,M,4.0,0000*5C,43.46215376666666,141.80549233333335,565160.2656194303,4812453.343043425
2007,[2021-01-29 11:08:28.291] $GPGGA,20826.9,4327.7292259999995,N,14148.32953,E,4,10,1.1,110.7628,M,31.83,M,4.0,0000*5B,43.46215376666666,141.80549216666668,565160.2521368889,4812453.3429130325
2008,[2021-01-29 11:08:28.401] $GPGGA,20827.0,4327.7292259999995,N,14148.32954,E,4,10,1.1,110.7593,M,31.83,M,5.0,0000*5A,43.46215376666666,141.80549233333335,565160.2656194303,4812453.343043425
2009,[2021-01-29 11:08:28.479] $GPGGA,20827.1,4327.729225,N,14148.32954,E,4,10,1.1,110.7611,M,31.83,M,5.0,0000*58,43.462153750000006,141.80549233333335,565160.2656373313,4812453.341192461
2010,[2021-01-29 11:08:28.588] $GPGGA,20827.2,4327.7292259999995,N,14148.32954,E,4,10,1.1,110.762,M,31.83,M,5.0,0000*5E,43.46215376666666,141.80549233333335,565160.2656194303,4812453.343043425
2011,[2021-01-29 11:08:28.682] $GPGGA,20827.3,4327.7292259999995,N,14148.32954,E,4,10,1.1,110.7625,M,31.83,M,5.0,0000*52,43.46215376666666,141.80549233333335,565160.2656194303,4812453.343043425
2012,[2021-01-29 11:08:28.791] $GPGGA,20827.4,4327.7292259999995,N,14148.32954,E,4,10,1.1,110.7609,M,31.83,M,5.0,0000*51,43.46215376666666,141.80549233333335,565160.2656194303,4812453.343043425
2013,[2021-01-29 11:08:28.885] $GPGGA,20827.5,4327.7292259999995,N,14148.32954,E,4,10,1.1,110.7632,M,31.83,M,5.0,0000*50,43.46215376666666,141.80549233333335,565160.2656194303,4812453.343043425
2014,[2021-01-29 11:08:28.994] $GPGGA,20827.6,4327.7292259999995,N,14148.32954,E,4,10,1.1,110.7641,M,31.83,M,5.0,0000*5A,43.46215376666666,141.80549233333335,565160.2656194303,4812453.343043425
2015,[2021-01-29 11:08:29.088] $GPGGA,20827.7,4327.7292259999995,N,14148.32954,E,4,10,1.1,110.7655,M,31.83,M,5.0,0000*50,43.46215376666666,141.80549233333335,565160.2656194303,4812453.343043425
2016,[2021-01-29 11:08:29.182] $GPGGA,20827.8,4327.7292259999995,N,14148.32954,E,4,10,1.1,110.764,M,31.83,M,5.0,0000*57,43.46215376666666,141.80549233333335,565160.2656194303,4812453.343043425
2017,[2021-01-29 11:08:29.292] $GPGGA,20827.9,4327.7292259999995,N,14148.32954,E,4,10,1.1,110.7667,M,31.83,M,5.0,0000*53,43.46215376666666,141.80549233333335,565160.2656194303,4812453.343043425
2018,[2021-01-29 11:08:29.385] $GPGGA,20828.0,4327.729225,N,14148.32954,E,4,10,1.1,110.7624,M,31.83,M,6.0,0000*59,43.462153750000006,141.80549233333335,565160.2656373313,4812453.341192461
2019,[2021-01-29 11:08:29.479] $GPGGA,20828.1,4327.7292259999995,N,14148.32954,E,4,10,1.1,110.7654,M,31.83,M,6.0,0000*59,43.46215376666666,141.80549233333335,565160.2656194303,4812453.343043425
2020,[2021-01-29 11:08:29.589] $GPGGA,20828.2,4327.729227000001,N,14148.32954,E,4,10,1.1,110.7596,M,31.83,M,1.0,0000*50,43.46215378333334,141.80549233333335,565160.2656015294,4812453.3448943915
2021,[2021-01-29 11:08:29.698] $GPGGA,20828.3,4327.729229,N,14148.32954,E,4,10,1.1,110.7566,M,31.83,M,1.0,0000*55,43.462153816666664,141.80549233333335,565160.2655657276,4812453.3485963205
2022,[2021-01-29 11:08:29.792] $GPGGA,20828.4,4327.729229,N,14148.32954,E,4,10,1.1,110.7557,M,31.83,M,1.0,0000*5D,43.462153816666664,141.80549233333335,565160.2655657276,4812453.3485963205
2023,[2021-01-29 11:08:29.901] $GPGGA,20828.5,4327.729228,N,14148.32954,E,4,10,1.1,110.7537,M,31.83,M,1.0,0000*54,43.46215380000001,141.80549233333335,565160.2655836284,4812453.346745358
2024,[2021-01-29 11:08:29.995] $GPGGA,20828.6,4327.729229,N,14148.32954,E,4,10,1.1,110.7521,M,31.83,M,1.0,0000*58,43.462153816666664,141.80549233333335,565160.2655657276,4812453.3485963205
2025,[2021-01-29 11:08:30.088] $GPGGA,20828.7,4327.72923,N,14148.32954,E,4,10,1.1,110.7522,M,31.83,M,1.0,0000*51,43.46215383333333,141.80549233333335,565160.2655478267,4812453.350447285
2026,[2021-01-29 11:08:30.182] $GPGGA,20828.8,4327.72923,N,14148.32954,E,4,10,1.1,110.7525,M,31.83,M,1.0,0000*58,43.46215383333333,141.80549233333335,565160.2655478267,4812453.350447285
2027,[2021-01-29 11:08:30.295] $GPGGA,20828.9,4327.729229,N,14148.32954,E,4,10,1.1,110.7515,M,31.83,M,1.0,0000*5C,43.462153816666664,141.80549233333335,565160.2655657276,4812453.3485963205
2028,[2021-01-29 11:08:30.389] $GPGGA,20829.0,4327.729229,N,14148.32954,E,4,10,1.1,110.7506,M,31.83,M,2.0,0000*53,43.462153816666664,141.80549233333335,565160.2655657276,4812453.3485963205
2029,[2021-01-29 11:08:30.498] $GPGGA,20829.1,4327.729229,N,14148.32954,E,4,10,1.1,110.7494,M,31.83,M,2.0,0000*59,43.462153816666664,141.80549233333335,565160.2655657276,4812453.3485963205
2030,[2021-01-29 11:08:30.592] $GPGGA,20829.2,4327.72923,N,14148.32954,E,4,10,1.1,110.7502,M,31.83,M,2.0,0000*55,43.46215383333333,141.80549233333335,565160.2655478267,4812453.350447285
2031,[2021-01-29 11:08:30.685] $GPGGA,20829.3,4327.729229,N,14148.32954,E,4,10,1.1,110.7486,M,31.83,M,2.0,0000*5D,43.462153816666664,141.80549233333335,565160.2655657276,4812453.3485963205
2032,[2021-01-29 11:08:30.779] $GPGGA,20829.4,4327.729229,N,14148.32954,E,4,10,1.1,110.7508,M,31.83,M,2.0,0000*5D,43.462153816666664,141.80549233333335,565160.2655657276,4812453.3485963205
2033,[2021-01-29 11:08:30.889] $GPGGA,20829.5,4327.729229,N,14148.32954,E,4,10,1.1,110.7494,M,31.83,M,2.0,0000*53,43.462153816666664,141.80549233333335,565160.2655657276,4812453.3485963205
2034,[2021-01-29 11:08:30.982] $GPGGA,20829.6,4327.729229,N,14148.32954,E,4,10,1.1,110.7504,M,31.83,M,2.0,0000*5E,43.462153816666664,141.80549233333335,565160.2655657276,4812453.3485963205
2035,[2021-01-29 11:08:31.092] $GPGGA,20829.7,4327.72923,N,14148.32954,E,4,10,1.1,110.7494,M,31.83,M,2.0,0000*5F,43.46215383333333,141.80549233333335,565160.2655478267,4812453.350447285
2036,[2021-01-29 11:08:31.185] $GPGGA,20829.8,4327.729229,N,14148.32954,E,4,10,1.1,110.749,M,31.83,M,2.0,0000*55,43.462153816666664,141.80549233333335,565160.2655657276,4812453.3485963205
2037,[2021-01-29 11:08:31.294] $GPGGA,20829.9,4327.729229,N,14148.32954,E,4,10,1.1,110.7486,M,31.83,M,2.0,0000*56,43.462153816666664,141.80549233333335,565160.2655657276,4812453.3485963205
2038,[2021-01-29 11:08:31.387] $GPGGA,20830.0,4327.729229,N,14148.32954,E,4,10,1.1,110.7496,M,31.83,M,3.0,0000*53,43.462153816666664,141.80549233333335,565160.2655657276,4812453.3485963205
2039,[2021-01-29 11:08:31.497] $GPGGA,20830.1,4327.729229,N,14148.32955,E,4,10,1.1,110.7506,M,31.83,M,3.0,0000*5C,43.462153816666664,141.80549249999999,565160.2790482668,4812453.348726712
2040,[2021-01-29 11:08:31.591] $GPGGA,20830.2,4327.729229,N,14148.32954,E,4,10,1.1,110.7499,M,31.83,M,3.0,0000*53,43.462153816666664,141.80549233333335,565160.2655657276,4812453.3485963205
2041,[2021-01-29 11:08:31.684] $GPGGA,20830.3,4327.729229,N,14148.32954,E,4,10,1.1,110.7501,M,31.83,M,3.0,0000*58,43.462153816666664,141.80549233333335,565160.2655657276,4812453.3485963205
2042,[2021-01-29 11:08:31.794] $GPGGA,20830.4,4327.729229,N,14148.32955,E,4,10,1.1,110.7495,M,31.83,M,3.0,0000*5B,43.462153816666664,141.80549249999999,565160.2790482668,4812453.348726712
2043,[2021-01-29 11:08:31.887] $GPGGA,20830.5,4327.729229,N,14148.32954,E,4,10,1.1,110.749,M,31.83,M,3.0,0000*50,43.462153816666664,141.80549233333335,565160.2655657276,4812453.3485963205
2044,[2021-01-29 11:08:31.997] $GPGGA,20830.6,4327.72923,N,14148.32954,E,4,10,1.1,110.7485,M,31.83,M,3.0,0000*52,43.46215383333333,141.80549233333335,565160.2655478267,4812453.350447285
2045,[2021-01-29 11:08:32.091] $GPGGA,20830.7,4327.72923,N,14148.32955,E,4,10,1.1,110.7466,M,31.83,M,3.0,0000*5A,43.46215383333333,141.80549249999999,565160.279030366,4812453.350577677
2046,[2021-01-29 11:08:32.184] $GPGGA,20830.8,4327.729229,N,14148.32955,E,4,10,1.1,110.7467,M,31.83,M,3.0,0000*5A,43.462153816666664,141.80549249999999,565160.2790482668,4812453.348726712
2047,[2021-01-29 11:08:32.280] $GPGGA,20830.9,4327.729229,N,14148.32955,E,4,10,1.1,110.7484,M,31.83,M,3.0,0000*56,43.462153816666664,141.80549249999999,565160.2790482668,4812453.348726712
2048,[2021-01-29 11:08:32.389] $GPGGA,20831.0,4327.729229,N,14148.32954,E,4,10,1.1,110.7461,M,31.83,M,4.0,0000*5A,43.462153816666664,141.80549233333335,565160.2655657276,4812453.3485963205
2049,[2021-01-29 11:08:32.483] $GPGGA,20831.1,4327.729229,N,14148.32955,E,4,10,1.1,110.74600000000001,M,31.83,M,4.0,0000*58,43.462153816666664,141.80549249999999,565160.2790482668,4812453.348726712
2050,[2021-01-29 11:08:32.592] $GPGGA,20831.2,4327.729229,N,14148.32955,E,4,10,1.1,110.7474,M,31.83,M,4.0,0000*58,43.462153816666664,141.80549249999999,565160.2790482668,4812453.348726712
2051,[2021-01-29 11:08:32.686] $GPGGA,20831.3,4327.729229,N,14148.32955,E,4,10,1.1,110.7479,M,31.83,M,4.0,0000*54,43.462153816666664,141.80549249999999,565160.2790482668,4812453.348726712
2052,[2021-01-29 11:08:32.795] $GPGGA,20831.4,4327.729229,N,14148.32955,E,4,10,1.1,110.7505,M,31.83,M,4.0,0000*5C,43.462153816666664,141.80549249999999,565160.2790482668,4812453.348726712
2053,[2021-01-29 11:08:32.889] $GPGGA,20831.5,4327.72923,N,14148.32955,E,4,10,1.1,110.7505,M,31.83,M,4.0,0000*5F,43.46215383333333,141.80549249999999,565160.279030366,4812453.350577677
2054,[2021-01-29 11:08:32.983] $GPGGA,20831.6,4327.729229,N,14148.32955,E,4,10,1.1,110.7512,M,31.83,M,4.0,0000*58,43.462153816666664,141.80549249999999,565160.2790482668,4812453.348726712
2055,[2021-01-29 11:08:33.092] $GPGGA,20831.7,4327.72923,N,14148.32955,E,4,10,1.1,110.7486,M,31.83,M,4.0,0000*57,43.46215383333333,141.80549249999999,565160.279030366,4812453.350577677
2056,[2021-01-29 11:08:33.186] $GPGGA,20831.8,4327.72923,N,14148.32955,E,4,10,1.1,110.7476,M,31.83,M,4.0,0000*55,43.46215383333333,141.80549249999999,565160.279030366,4812453.350577677
2057,[2021-01-29 11:08:33.297] $GPGGA,20831.9,4327.729229,N,14148.32955,E,4,10,1.1,110.7494,M,31.83,M,4.0,0000*5A,43.462153816666664,141.80549249999999,565160.2790482668,4812453.348726712
2058,[2021-01-29 11:08:33.391] $GPGGA,20832.0,4327.729229,N,14148.32955,E,4,10,1.1,110.7464,M,31.83,M,5.0,0000*53,43.462153816666664,141.80549249999999,565160.2790482668,4812453.348726712
2059,[2021-01-29 11:08:33.484] $GPGGA,20832.1,4327.729228,N,14148.32955,E,4,10,1.1,110.7501,M,31.83,M,5.0,0000*5D,43.46215380000001,141.80549249999999,565160.2790661678,4812453.346875748
2060,[2021-01-29 11:08:33.594] $GPGGA,20832.2,4327.729229,N,14148.32955,E,4,10,1.1,110.7489,M,31.83,M,5.0,0000*5F,43.462153816666664,141.80549249999999,565160.2790482668,4812453.348726712
2061,[2021-01-29 11:08:33.688] $GPGGA,20832.3,4327.729229,N,14148.32955,E,4,10,1.1,110.7498,M,31.83,M,5.0,0000*59,43.462153816666664,141.80549249999999,565160.2790482668,4812453.348726712
2062,[2021-01-29 11:08:33.781] $GPGGA,20832.4,4327.72923,N,14148.32955,E,4,10,1.1,110.75,M,31.83,M,5.0,0000*5A,43.46215383333333,141.80549249999999,565160.279030366,4812453.350577677
2063,[2021-01-29 11:08:33.891] $GPGGA,20832.5,4327.729229,N,14148.32955,E,4,10,1.1,110.75299999999999,M,31.83,M,5.0,0000*58,43.462153816666664,141.80549249999999,565160.2790482668,4812453.348726712
2064,[2021-01-29 11:08:33.984] $GPGGA,20832.6,4327.729229,N,14148.32955,E,4,10,1.1,110.7527,M,31.83,M,5.0,0000*55,43.462153816666664,141.80549249999999,565160.2790482668,4812453.348726712
2065,[2021-01-29 11:08:34.094] $GPGGA,20832.7,4327.729229,N,14148.32955,E,4,10,1.1,110.7496,M,31.83,M,5.0,0000*5D,43.462153816666664,141.80549249999999,565160.2790482668,4812453.348726712
2066,[2021-01-29 11:08:34.188] $GPGGA,20832.8,4327.729229,N,14148.32955,E,4,10,1.1,110.7501,M,31.83,M,5.0,0000*59,43.462153816666664,141.80549249999999,565160.2790482668,4812453.348726712
2067,[2021-01-29 11:08:34.299] $GPGGA,20832.9,4327.729229,N,14148.32955,E,4,10,1.1,110.7489,M,31.83,M,5.0,0000*59,43.462153816666664,141.80549249999999,565160.2790482668,4812453.348726712
2068,[2021-01-29 11:08:34.392] $GPGGA,20833.0,4327.729229,N,14148.32955,E,4,10,1.1,110.7468,M,31.83,M,6.0,0000*5B,43.462153816666664,141.80549249999999,565160.2790482668,4812453.348726712
2069,[2021-01-29 11:08:34.486] $GPGGA,20833.1,4327.729229,N,14148.32955,E,4,10,1.1,110.7494,M,31.83,M,6.0,0000*5B,43.462153816666664,141.80549249999999,565160.2790482668,4812453.348726712
2070,[2021-01-29 11:08:34.580] $GPGGA,20833.2,4327.729229,N,14148.32955,E,4,10,1.1,110.7577,M,31.83,M,1.0,0000*5C,43.462153816666664,141.80549249999999,565160.2790482668,4812453.348726712
2071,[2021-01-29 11:08:34.689] $GPGGA,20833.3,4327.729228,N,14148.32955,E,4,10,1.1,110.7632,M,31.83,M,1.0,0000*5B,43.46215380000001,141.80549249999999,565160.2790661678,4812453.346875748
2072,[2021-01-29 11:08:34.783] $GPGGA,20833.4,4327.729228,N,14148.32955,E,4,10,1.1,110.7658,M,31.83,M,1.0,0000*55,43.46215380000001,141.80549249999999,565160.2790661678,4812453.346875748
2073,[2021-01-29 11:08:34.892] $GPGGA,20833.5,4327.729228,N,14148.32955,E,4,10,1.1,110.7671,M,31.83,M,1.0,0000*5D,43.46215380000001,141.80549249999999,565160.2790661678,4812453.346875748
2074,[2021-01-29 11:08:34.986] $GPGGA,20833.6,4327.729228,N,14148.32955,E,4,10,1.1,110.7651,M,31.83,M,1.0,0000*5A,43.46215380000001,141.80549249999999,565160.2790661678,4812453.346875748
2075,[2021-01-29 11:08:35.095] $GPGGA,20833.7,4327.729229,N,14148.32955,E,4,10,1.1,110.7654,M,31.83,M,1.0,0000*56,43.462153816666664,141.80549249999999,565160.2790482668,4812453.348726712
2076,[2021-01-29 11:08:35.189] $GPGGA,20833.8,4327.729228,N,14148.32955,E,4,10,1.1,110.7656,M,31.83,M,1.0,0000*52,43.46215380000001,141.80549249999999,565160.2790661678,4812453.346875748
2077,[2021-01-29 11:08:35.285] $GPGGA,20833.9,4327.729229,N,14148.32955,E,4,10,1.1,110.7648,M,31.83,M,1.0,0000*5D,43.462153816666664,141.80549249999999,565160.2790482668,4812453.348726712
2078,[2021-01-29 11:08:35.395] $GPGGA,20834.0,4327.729229,N,14148.32955,E,4,10,1.1,110.7625,M,31.83,M,2.0,0000*59,43.462153816666664,141.80549249999999,565160.2790482668,4812453.348726712
2079,[2021-01-29 11:08:35.488] $GPGGA,20834.1,4327.72923,N,14148.32955,E,4,10,1.1,110.76,M,31.83,M,2.0,0000*55,43.46215383333333,141.80549249999999,565160.279030366,4812453.350577677
2080,[2021-01-29 11:08:35.598] $GPGGA,20834.2,4327.729229,N,14148.32955,E,4,10,1.1,110.7638,M,31.83,M,2.0,0000*58,43.462153816666664,141.80549249999999,565160.2790482668,4812453.348726712
2081,[2021-01-29 11:08:35.691] $GPGGA,20834.3,4327.729228,N,14148.32955,E,4,10,1.1,110.7648,M,31.83,M,2.0,0000*57,43.46215380000001,141.80549249999999,565160.2790661678,4812453.346875748
2082,[2021-01-29 11:08:35.785] $GPGGA,20834.4,4327.729229,N,14148.32955,E,4,10,1.1,110.7621,M,31.83,M,2.0,0000*53,43.462153816666664,141.80549249999999,565160.2790482668,4812453.348726712
2083,[2021-01-29 11:08:35.894] $GPGGA,20834.5,4327.729228,N,14148.32955,E,4,10,1.1,110.7644,M,31.83,M,2.0,0000*52,43.46215380000001,141.80549249999999,565160.2790661678,4812453.346875748
2084,[2021-01-29 11:08:35.988] $GPGGA,20834.6,4327.729228,N,14148.32955,E,4,10,1.1,110.7651,M,31.83,M,2.0,0000*58,43.46215380000001,141.80549249999999,565160.2790661678,4812453.346875748
2085,[2021-01-29 11:08:36.082] $GPGGA,20834.7,4327.729229,N,14148.32955,E,4,10,1.1,110.76299999999999,M,31.83,M,2.0,0000*5F,43.462153816666664,141.80549249999999,565160.2790482668,4812453.348726712
2086,[2021-01-29 11:08:36.191] $GPGGA,20834.8,4327.72923,N,14148.32955,E,4,10,1.1,110.7639,M,31.83,M,2.0,0000*5D,43.46215383333333,141.80549249999999,565160.279030366,4812453.350577677
2087,[2021-01-29 11:08:36.286] $GPGGA,20834.9,4327.72923,N,14148.32955,E,4,10,1.1,110.7644,M,31.83,M,2.0,0000*5F,43.46215383333333,141.80549249999999,565160.279030366,4812453.350577677
2088,[2021-01-29 11:08:36.396] $GPGGA,20835.0,4327.729229,N,14148.32955,E,4,10,1.1,110.762,M,31.83,M,3.0,0000*54,43.462153816666664,141.80549249999999,565160.2790482668,4812453.348726712
2089,[2021-01-29 11:08:36.489] $GPGGA,20835.1,4327.729228,N,14148.32955,E,4,10,1.1,110.7609,M,31.83,M,3.0,0000*51,43.46215380000001,141.80549249999999,565160.2790661678,4812453.346875748
2090,[2021-01-29 11:08:36.583] $GPGGA,20835.2,4327.729228,N,14148.32955,E,4,10,1.1,110.7639,M,31.83,M,3.0,0000*58,43.46215380000001,141.80549249999999,565160.2790661678,4812453.346875748
2091,[2021-01-29 11:08:36.677] $GPGGA,20835.3,4327.729229,N,14148.32955,E,4,10,1.1,110.7651,M,31.83,M,3.0,0000*53,43.462153816666664,141.80549249999999,565160.2790482668,4812453.348726712
2092,[2021-01-29 11:08:36.786] $GPGGA,20835.4,4327.729228,N,14148.32955,E,4,10,1.1,110.765,M,31.83,M,3.0,0000*54,43.46215380000001,141.80549249999999,565160.2790661678,4812453.346875748
2093,[2021-01-29 11:08:36.895] $GPGGA,20835.5,4327.729229,N,14148.32955,E,4,10,1.1,110.7647,M,31.83,M,3.0,0000*5D,43.462153816666664,141.80549249999999,565160.2790482668,4812453.348726712
2094,[2021-01-29 11:08:36.989] $GPGGA,20835.6,4327.729229,N,14148.32955,E,4,10,1.1,110.7656,M,31.83,M,3.0,0000*5B,43.462153816666664,141.80549249999999,565160.2790482668,4812453.348726712
2095,[2021-01-29 11:08:37.099] $GPGGA,20835.7,4327.729228,N,14148.32955,E,4,10,1.1,110.7647,M,31.83,M,3.0,0000*5C,43.46215380000001,141.80549249999999,565160.2790661678,4812453.346875748
2096,[2021-01-29 11:08:37.192] $GPGGA,20835.8,4327.729228,N,14148.32955,E,4,10,1.1,110.7631,M,31.83,M,3.0,0000*50,43.46215380000001,141.80549249999999,565160.2790661678,4812453.346875748
2097,[2021-01-29 11:08:37.288] $GPGGA,20835.9,4327.729229,N,14148.32955,E,4,10,1.1,110.76100000000001,M,31.83,M,3.0,0000*5B,43.462153816666664,141.80549249999999,565160.2790482668,4812453.348726712
2098,[2021-01-29 11:08:37.397] $GPGGA,20836.0,4327.729229,N,14148.32955,E,4,10,1.1,110.7576,M,31.83,M,4.0,0000*50,43.462153816666664,141.80549249999999,565160.2790482668,4812453.348726712
2099,[2021-01-29 11:08:37.491] $GPGGA,20836.1,4327.729229,N,14148.32955,E,4,10,1.1,110.757,M,31.83,M,4.0,0000*58,43.462153816666664,141.80549249999999,565160.2790482668,4812453.348726712
2100,[2021-01-29 11:08:37.585] $GPGGA,20836.2,4327.729229,N,14148.32955,E,4,10,1.1,110.7581,M,31.83,M,4.0,0000*5E,43.462153816666664,141.80549249999999,565160.2790482668,4812453.348726712
2101,[2021-01-29 11:08:37.694] $GPGGA,20836.3,4327.72923,N,14148.32955,E,4,10,1.1,110.7565,M,31.83,M,4.0,0000*58,43.46215383333333,141.80549249999999,565160.279030366,4812453.350577677
2102,[2021-01-29 11:08:37.788] $GPGGA,20836.4,4327.72923,N,14148.32955,E,4,10,1.1,110.7566,M,31.83,M,4.0,0000*59,43.46215383333333,141.80549249999999,565160.279030366,4812453.350577677
2103,[2021-01-29 11:08:37.897] $GPGGA,20836.5,4327.729229,N,14148.32955,E,4,10,1.1,110.7565,M,31.83,M,4.0,0000*57,43.462153816666664,141.80549249999999,565160.2790482668,4812453.348726712
2104,[2021-01-29 11:08:37.991] $GPGGA,20836.6,4327.72923,N,14148.32955,E,4,10,1.1,110.7541,M,31.83,M,4.0,0000*50,43.46215383333333,141.80549249999999,565160.279030366,4812453.350577677
2105,[2021-01-29 11:08:38.085] $GPGGA,20836.7,4327.729229,N,14148.32955,E,4,10,1.1,110.7543,M,31.83,M,4.0,0000*5D,43.462153816666664,141.80549249999999,565160.2790482668,4812453.348726712
2106,[2021-01-29 11:08:38.178] $GPGGA,20836.8,4327.729229,N,14148.32955,E,4,10,1.1,110.7539,M,31.83,M,4.0,0000*5A,43.462153816666664,141.80549249999999,565160.2790482668,4812453.348726712
2107,[2021-01-29 11:08:38.290] $GPGGA,20836.9,4327.729229,N,14148.32955,E,4,10,1.1,110.7549,M,31.83,M,4.0,0000*59,43.462153816666664,141.80549249999999,565160.2790482668,4812453.348726712
2108,[2021-01-29 11:08:38.383] $GPGGA,20837.0,4327.72923,N,14148.32955,E,4,10,1.1,110.7515,M,31.83,M,5.0,0000*56,43.46215383333333,141.80549249999999,565160.279030366,4812453.350577677
2109,[2021-01-29 11:08:38.493] $GPGGA,20837.1,4327.72923,N,14148.32955,E,4,10,1.1,110.7541,M,31.83,M,5.0,0000*5D,43.46215383333333,141.80549249999999,565160.279030366,4812453.350577677
2110,[2021-01-29 11:08:38.586] $GPGGA,20837.2,4327.729234,N,14148.32955,E,4,10,1.1,110.7725,M,31.83,M,5.0,0000*50,43.462153900000004,141.80549249999999,565160.2789587622,4812453.357981538
2111,[2021-01-29 11:08:38.696] $GPGGA,20837.3,4327.729236,N,14148.32954,E,4,10,1.1,110.7862,M,31.83,M,5.0,0000*50,43.46215393333334,141.80549233333335,565160.2654404211,4812453.361553079
2112,[2021-01-29 11:08:38.789] $GPGGA,20837.4,4327.729236,N,14148.32954,E,4,10,1.1,110.794,M,31.83,M,5.0,0000*5B,43.46215393333334,141.80549233333335,565160.2654404211,4812453.361553079
2113,[2021-01-29 11:08:38.883] $GPGGA,20837.5,4327.729236,N,14148.32954,E,4,10,1.1,110.8016,M,31.83,M,5.0,0000*56,43.46215393333334,141.80549233333335,565160.2654404211,4812453.361553079
2114,[2021-01-29 11:08:38.993] $GPGGA,20837.6,4327.729234,N,14148.32954,E,4,10,1.1,110.8029,M,31.83,M,5.0,0000*56,43.462153900000004,141.80549233333335,565160.2654762228,4812453.357851147
2115,[2021-01-29 11:08:39.086] $GPGGA,20837.7,4327.729235,N,14148.32954,E,4,10,1.1,110.8035,M,31.83,M,5.0,0000*57,43.46215391666666,141.80549233333335,565160.265458322,4812453.359702111
2116,[2021-01-29 11:08:39.196] $GPGGA,20837.8,4327.729234,N,14148.32954,E,4,10,1.1,110.8011,M,31.83,M,5.0,0000*5E,43.462153900000004,141.80549233333335,565160.2654762228,4812453.357851147
2117,[2021-01-29 11:08:39.291] $GPGGA,20837.9,4327.729235,N,14148.32954,E,4,10,1.1,110.7985,M,31.83,M,5.0,0000*50,43.46215391666666,141.80549233333335,565160.265458322,4812453.359702111
2118,[2021-01-29 11:08:39.400] $GPGGA,20838.0,4327.729235,N,14148.32954,E,4,10,1.1,110.7936,M,31.83,M,6.0,0000*58,43.46215391666666,141.80549233333335,565160.265458322,4812453.359702111
2119,[2021-01-29 11:08:39.479] $GPGGA,20838.1,4327.729236,N,14148.32955,E,4,10,1.1,110.7983,M,31.83,M,6.0,0000*5C,43.46215393333334,141.80549249999999,565160.2789229603,4812453.36168347
2120,[2021-01-29 11:08:39.588] $GPGGA,20838.2,4327.729237,N,14148.32955,E,4,10,1.1,110.7946,M,31.83,M,1.0,0000*57,43.462153949999994,141.80549249999999,565160.2789050594,4812453.363534434
2121,[2021-01-29 11:08:39.682] $GPGGA,20838.3,4327.729237,N,14148.32955,E,4,10,1.1,110.7951,M,31.83,M,1.0,0000*51,43.462153949999994,141.80549249999999,565160.2789050594,4812453.363534434
2122,[2021-01-29 11:08:39.791] $GPGGA,20838.4,4327.729238,N,14148.32955,E,4,10,1.1,110.7943,M,31.83,M,1.0,0000*57,43.46215396666666,141.80549249999999,565160.2788871585,4812453.365385398
2123,[2021-01-29 11:08:39.885] $GPGGA,20838.5,4327.729237,N,14148.32955,E,4,10,1.1,110.7933,M,31.83,M,1.0,0000*50,43.462153949999994,141.80549249999999,565160.2789050594,4812453.363534434
2124,[2021-01-29 11:08:39.994] $GPGGA,20838.6,4327.729239,N,14148.32955,E,4,10,1.1,110.7934,M,31.83,M,1.0,0000*5A,43.46215398333333,141.80549249999999,565160.2788692575,4812453.367236365
2125,[2021-01-29 11:08:40.088] $GPGGA,20838.7,4327.729238,N,14148.32955,E,4,10,1.1,110.7926,M,31.83,M,1.0,0000*5F,43.46215396666666,141.80549249999999,565160.2788871585,4812453.365385398
2126,[2021-01-29 11:08:40.182] $GPGGA,20838.8,4327.729237,N,14148.32955,E,4,10,1.1,110.7927,M,31.83,M,1.0,0000*57,43.462153949999994,141.80549249999999,565160.2789050594,4812453.363534434
2127,[2021-01-29 11:08:40.293] $GPGGA,20838.9,4327.729237,N,14148.32955,E,4,10,1.1,110.792,M,31.83,M,1.0,0000*55,43.462153949999994,141.80549249999999,565160.2789050594,4812453.363534434
2128,[2021-01-29 11:08:40.386] $GPGGA,20839.0,4327.729238,N,14148.32955,E,4,10,1.1,110.7886,M,31.83,M,2.0,0000*5C,43.46215396666666,141.80549249999999,565160.2788871585,4812453.365385398
2129,[2021-01-29 11:08:40.496] $GPGGA,20839.1,4327.729238,N,14148.32955,E,4,10,1.1,110.7857,M,31.83,M,2.0,0000*54,43.46215396666666,141.80549249999999,565160.2788871585,4812453.365385398
2130,[2021-01-29 11:08:40.589] $GPGGA,20839.2,4327.729238,N,14148.32955,E,4,10,1.1,110.7841,M,31.83,M,2.0,0000*5D,43.46215396666666,141.80549249999999,565160.2788871585,4812453.365385398
2131,[2021-01-29 11:08:40.683] $GPGGA,20839.3,4327.729238,N,14148.32955,E,4,10,1.1,110.7822,M,31.83,M,2.0,0000*5B,43.46215396666666,141.80549249999999,565160.2788871585,4812453.365385398
2132,[2021-01-29 11:08:40.793] $GPGGA,20839.4,4327.729238,N,14148.32955,E,4,10,1.1,110.7835,M,31.83,M,2.0,0000*5A,43.46215396666666,141.80549249999999,565160.2788871585,4812453.365385398
2133,[2021-01-29 11:08:40.886] $GPGGA,20839.5,4327.729238,N,14148.32955,E,4,10,1.1,110.7831,M,31.83,M,2.0,0000*59,43.46215396666666,141.80549249999999,565160.2788871585,4812453.365385398
2134,[2021-01-29 11:08:40.980] $GPGGA,20839.6,4327.729239,N,14148.32955,E,4,10,1.1,110.7872,M,31.83,M,2.0,0000*55,43.46215398333333,141.80549249999999,565160.2788692575,4812453.367236365
2135,[2021-01-29 11:08:41.089] $GPGGA,20839.7,4327.729238,N,14148.32955,E,4,10,1.1,110.7878,M,31.83,M,2.0,0000*5B,43.46215396666666,141.80549249999999,565160.2788871585,4812453.365385398
2136,[2021-01-29 11:08:41.183] $GPGGA,20839.8,4327.729239,N,14148.32955,E,4,10,1.1,110.7843,M,31.83,M,2.0,0000*52,43.46215398333333,141.80549249999999,565160.2788692575,4812453.367236365
2137,[2021-01-29 11:08:41.294] $GPGGA,20839.9,4327.729239,N,14148.32955,E,4,10,1.1,110.7879,M,31.83,M,2.0,0000*58,43.46215398333333,141.80549249999999,565160.2788692575,4812453.367236365
2138,[2021-01-29 11:08:41.388] $GPGGA,20840.0,4327.729239,N,14148.32955,E,4,10,1.1,110.7848,M,31.83,M,3.0,0000*5B,43.46215398333333,141.80549249999999,565160.2788692575,4812453.367236365
2139,[2021-01-29 11:08:41.497] $GPGGA,20840.1,4327.729238,N,14148.32955,E,4,10,1.1,110.7834,M,31.83,M,3.0,0000*51,43.46215396666666,141.80549249999999,565160.2788871585,4812453.365385398
2140,[2021-01-29 11:08:41.591] $GPGGA,20840.2,4327.729238,N,14148.32955,E,4,10,1.1,110.78200000000001,M,31.83,M,3.0,0000*5D,43.46215396666666,141.80549249999999,565160.2788871585,4812453.365385398
2141,[2021-01-29 11:08:41.685] $GPGGA,20840.3,4327.729238,N,14148.32955,E,4,10,1.1,110.7832,M,31.83,M,3.0,0000*50,43.46215396666666,141.80549249999999,565160.2788871585,4812453.365385398
2142,[2021-01-29 11:08:41.779] $GPGGA,20840.4,4327.729239,N,14148.32955,E,4,10,1.1,110.7845,M,31.83,M,3.0,0000*57,43.46215398333333,141.80549249999999,565160.2788692575,4812453.367236365
2143,[2021-01-29 11:08:41.888] $GPGGA,20840.5,4327.729239,N,14148.32955,E,4,10,1.1,110.7845,M,31.83,M,3.0,0000*59,43.46215398333333,141.80549249999999,565160.2788692575,4812453.367236365
2144,[2021-01-29 11:08:41.982] $GPGGA,20840.6,4327.729239,N,14148.32955,E,4,10,1.1,110.7835,M,31.83,M,3.0,0000*5A,43.46215398333333,141.80549249999999,565160.2788692575,4812453.367236365
2145,[2021-01-29 11:08:42.091] $GPGGA,20840.7,4327.729238,N,14148.32955,E,4,10,1.1,110.7829,M,31.83,M,3.0,0000*5C,43.46215396666666,141.80549249999999,565160.2788871585,4812453.365385398
2146,[2021-01-29 11:08:42.185] $GPGGA,20840.8,4327.729239,N,14148.32955,E,4,10,1.1,110.7824,M,31.83,M,3.0,0000*5F,43.46215398333333,141.80549249999999,565160.2788692575,4812453.367236365
2147,[2021-01-29 11:08:42.295] $GPGGA,20840.9,4327.729239,N,14148.32955,E,4,10,1.1,110.7839,M,31.83,M,3.0,0000*5E,43.46215398333333,141.80549249999999,565160.2788692575,4812453.367236365
2148,[2021-01-29 11:08:42.389] $GPGGA,20841.0,4327.729239,N,14148.32955,E,4,10,1.1,110.7811,M,31.83,M,4.0,0000*57,43.46215398333333,141.80549249999999,565160.2788692575,4812453.367236365
2149,[2021-01-29 11:08:42.482] $GPGGA,20841.1,4327.729239,N,14148.32955,E,4,10,1.1,110.7806,M,31.83,M,4.0,0000*5C,43.46215398333333,141.80549249999999,565160.2788692575,4812453.367236365
2150,[2021-01-29 11:08:42.592] $GPGGA,20841.2,4327.729238,N,14148.32955,E,4,10,1.1,110.7772,M,31.83,M,4.0,0000*5F,43.46215396666666,141.80549249999999,565160.2788871585,4812453.365385398
2151,[2021-01-29 11:08:42.685] $GPGGA,20841.3,4327.729239,N,14148.32955,E,4,10,1.1,110.7789,M,31.83,M,4.0,0000*5F,43.46215398333333,141.80549249999999,565160.2788692575,4812453.367236365
2152,[2021-01-29 11:08:42.795] $GPGGA,20841.4,4327.729239,N,14148.32955,E,4,10,1.1,110.7765,M,31.83,M,4.0,0000*52,43.46215398333333,141.80549249999999,565160.2788692575,4812453.367236365
2153,[2021-01-29 11:08:42.889] $GPGGA,20841.5,4327.72924,N,14148.32955,E,4,10,1.1,110.7762,M,31.83,M,4.0,0000*52,43.46215399999999,141.80549249999999,565160.2788513566,4812453.369087329
2154,[2021-01-29 11:08:42.982] $GPGGA,20841.6,4327.729239,N,14148.32955,E,4,10,1.1,110.7788,M,31.83,M,4.0,0000*55,43.46215398333333,141.80549249999999,565160.2788692575,4812453.367236365
2155,[2021-01-29 11:08:43.092] $GPGGA,20841.7,4327.72924,N,14148.32955,E,4,10,1.1,110.7757,M,31.83,M,4.0,0000*52,43.46215399999999,141.80549249999999,565160.2788513566,4812453.369087329
2156,[2021-01-29 11:08:43.185] $GPGGA,20841.8,4327.729241,N,14148.32955,E,4,10,1.1,110.775,M,31.83,M,4.0,0000*5A,43.462154016666666,141.80549249999999,565160.2788334558,4812453.3709382955
2157,[2021-01-29 11:08:43.281] $GPGGA,20841.9,4327.72924,N,14148.32955,E,4,10,1.1,110.774,M,31.83,M,4.0,0000*50,43.46215399999999,141.80549249999999,565160.2788513566,4812453.369087329
2158,[2021-01-29 11:08:43.390] $GPGGA,20842.0,4327.729238,N,14148.32955,E,4,10,1.1,110.7733,M,31.83,M,5.0,0000*5A,43.46215396666666,141.80549249999999,565160.2788871585,4812453.365385398
2159,[2021-01-29 11:08:43.484] $GPGGA,20842.1,4327.729239,N,14148.32955,E,4,10,1.1,110.773,M,31.83,M,5.0,0000*5D,43.46215398333333,141.80549249999999,565160.2788692575,4812453.367236365
2160,[2021-01-29 11:08:43.593] $GPGGA,20842.2,4327.72924,N,14148.32955,E,4,10,1.1,110.7742,M,31.83,M,5.0,0000*58,43.46215399999999,141.80549249999999,565160.2788513566,4812453.369087329
2161,[2021-01-29 11:08:43.687] $GPGGA,20842.3,4327.72924,N,14148.32955,E,4,10,1.1,110.7744,M,31.83,M,5.0,0000*57,43.46215399999999,141.80549249999999,565160.2788513566,4812453.369087329
2162,[2021-01-29 11:08:43.781] $GPGGA,20842.4,4327.72924,N,14148.32955,E,4,10,1.1,110.7752,M,31.83,M,5.0,0000*5F,43.46215399999999,141.80549249999999,565160.2788513566,4812453.369087329
2163,[2021-01-29 11:08:43.890] $GPGGA,20842.5,4327.729239,N,14148.32955,E,4,10,1.1,110.7734,M,31.83,M,5.0,0000*5A,43.46215398333333,141.80549249999999,565160.2788692575,4812453.367236365
2164,[2021-01-29 11:08:43.984] $GPGGA,20842.6,4327.72924,N,14148.32955,E,4,10,1.1,110.7717,M,31.83,M,5.0,0000*5C,43.46215399999999,141.80549249999999,565160.2788513566,4812453.369087329
2165,[2021-01-29 11:08:44.093] $GPGGA,20842.7,4327.72924,N,14148.32955,E,4,10,1.1,110.7715,M,31.83,M,5.0,0000*54,43.46215399999999,141.80549249999999,565160.2788513566,4812453.369087329
2166,[2021-01-29 11:08:44.187] $GPGGA,20842.8,4327.72924,N,14148.32956,E,4,10,1.1,110.772,M,31.83,M,5.0,0000*5F,43.46215399999999,141.80549266666665,565160.2923338979,4812453.369217721
2167,[2021-01-29 11:08:44.282] $GPGGA,20842.9,4327.72924,N,14148.32956,E,4,10,1.1,110.7729,M,31.83,M,5.0,0000*52,43.46215399999999,141.80549266666665,565160.2923338979,4812453.369217721
2168,[2021-01-29 11:08:44.392] $GPGGA,20843.0,4327.729239,N,14148.32955,E,4,10,1.1,110.7728,M,31.83,M,6.0,0000*58,43.46215398333333,141.80549249999999,565160.2788692575,4812453.367236365
2169,[2021-01-29 11:08:44.485] $GPGGA,20843.1,4327.729239,N,14148.32955,E,4,10,1.1,110.7742,M,31.83,M,6.0,0000*59,43.46215398333333,141.80549249999999,565160.2788692575,4812453.367236365
2170,[2021-01-29 11:08:44.579] $GPGGA,20843.2,4327.729241,N,14148.32956,E,4,10,1.1,110.7664,M,31.83,M,1.0,0000*5B,43.462154016666666,141.80549266666665,565160.2923159971,4812453.371068686
2171,[2021-01-29 11:08:44.689] $GPGGA,20843.3,4327.729242,N,14148.32956,E,4,10,1.1,110.7575,M,31.83,M,1.0,0000*5D,43.462154033333334,141.80549266666665,565160.2922980961,4812453.372919652
2172,[2021-01-29 11:08:44.782] $GPGGA,20843.4,4327.729241,N,14148.32956,E,4,10,1.1,110.7514,M,31.83,M,1.0,0000*5B,43.462154016666666,141.80549266666665,565160.2923159971,4812453.371068686
2173,[2021-01-29 11:08:44.892] $GPGGA,20843.5,4327.729241,N,14148.32956,E,4,10,1.1,110.7463,M,31.83,M,1.0,0000*57,43.462154016666666,141.80549266666665,565160.2923159971,4812453.371068686
2174,[2021-01-29 11:08:44.985] $GPGGA,20843.6,4327.729242,N,14148.32956,E,4,10,1.1,110.7434,M,31.83,M,1.0,0000*58,43.462154033333334,141.80549266666665,565160.2922980961,4812453.372919652
2175,[2021-01-29 11:08:45.095] $GPGGA,20843.7,4327.729243,N,14148.32956,E,4,10,1.1,110.744,M,31.83,M,1.0,0000*56,43.462154049999995,141.80549266666665,565160.2922801952,4812453.374770617
2176,[2021-01-29 11:08:45.189] $GPGGA,20843.8,4327.729243,N,14148.32956,E,4,10,1.1,110.7403,M,31.83,M,1.0,0000*51,43.462154049999995,141.80549266666665,565160.2922801952,4812453.374770617
2177,[2021-01-29 11:08:45.284] $GPGGA,20843.9,4327.729243,N,14148.32956,E,4,10,1.1,110.7421,M,31.83,M,1.0,0000*5A,43.462154049999995,141.80549266666665,565160.2922801952,4812453.374770617
2178,[2021-01-29 11:08:45.394] $GPGGA,20844.0,4327.729242,N,14148.32956,E,4,10,1.1,110.7379,M,31.83,M,2.0,0000*53,43.462154033333334,141.80549266666665,565160.2922980961,4812453.372919652
2179,[2021-01-29 11:08:45.488] $GPGGA,20844.1,4327.729242,N,14148.32956,E,4,10,1.1,110.7375,M,31.83,M,2.0,0000*57,43.462154033333334,141.80549266666665,565160.2922980961,4812453.372919652
2180,[2021-01-29 11:08:45.581] $GPGGA,20844.2,4327.729243,N,14148.32956,E,4,10,1.1,110.74,M,31.83,M,2.0,0000*5A,43.462154049999995,141.80549266666665,565160.2922801952,4812453.374770617
2181,[2021-01-29 11:08:45.691] $GPGGA,20844.3,4327.729243,N,14148.32956,E,4,10,1.1,110.7412,M,31.83,M,2.0,0000*54,43.462154049999995,141.80549266666665,565160.2922801952,4812453.374770617
2182,[2021-01-29 11:08:45.785] $GPGGA,20844.4,4327.729242,N,14148.32956,E,4,10,1.1,110.7409,M,31.83,M,2.0,0000*5D,43.462154033333334,141.80549266666665,565160.2922980961,4812453.372919652
2183,[2021-01-29 11:08:45.894] $GPGGA,20844.5,4327.729243,N,14148.32956,E,4,10,1.1,110.7418,M,31.83,M,2.0,0000*59,43.462154049999995,141.80549266666665,565160.2922801952,4812453.374770617
2184,[2021-01-29 11:08:45.988] $GPGGA,20844.6,4327.729242,N,14148.32956,E,4,10,1.1,110.741,M,31.83,M,2.0,0000*55,43.462154033333334,141.80549266666665,565160.2922980961,4812453.372919652
2185,[2021-01-29 11:08:46.081] $GPGGA,20844.7,4327.729242,N,14148.32956,E,4,10,1.1,110.7413,M,31.83,M,2.0,0000*55,43.462154033333334,141.80549266666665,565160.2922980961,4812453.372919652
2186,[2021-01-29 11:08:46.191] $GPGGA,20844.8,4327.729242,N,14148.32956,E,4,10,1.1,110.742,M,31.83,M,2.0,0000*53,43.462154033333334,141.80549266666665,565160.2922980961,4812453.372919652
2187,[2021-01-29 11:08:46.286] $GPGGA,20844.9,4327.729241,N,14148.32956,E,4,10,1.1,110.7425,M,31.83,M,2.0,0000*5C,43.462154016666666,141.80549266666665,565160.2923159971,4812453.371068686
2188,[2021-01-29 11:08:46.395] $GPGGA,20845.0,4327.729241,N,14148.32956,E,4,10,1.1,110.7412,M,31.83,M,3.0,0000*5E,43.462154016666666,141.80549266666665,565160.2923159971,4812453.371068686
2189,[2021-01-29 11:08:46.489] $GPGGA,20845.1,4327.729242,N,14148.32956,E,4,10,1.1,110.7433,M,31.83,M,3.0,0000*51,43.462154033333334,141.80549266666665,565160.2922980961,4812453.372919652
2190,[2021-01-29 11:08:46.583] $GPGGA,20845.2,4327.729242,N,14148.32956,E,4,10,1.1,110.7416,M,31.83,M,3.0,0000*5D,43.462154033333334,141.80549266666665,565160.2922980961,4812453.372919652
2191,[2021-01-29 11:08:46.692] $GPGGA,20845.3,4327.729242,N,14148.32956,E,4,10,1.1,110.7391,M,31.83,M,3.0,0000*5E,43.462154033333334,141.80549266666665,565160.2922980961,4812453.372919652
2192,[2021-01-29 11:08:46.786] $GPGGA,20845.4,4327.729241,N,14148.32956,E,4,10,1.1,110.7399,M,31.83,M,3.0,0000*53,43.462154016666666,141.80549266666665,565160.2923159971,4812453.371068686
2193,[2021-01-29 11:08:46.880] $GPGGA,20845.5,4327.729241,N,14148.32956,E,4,10,1.1,110.7393,M,31.83,M,3.0,0000*50,43.462154016666666,141.80549266666665,565160.2923159971,4812453.371068686
2194,[2021-01-29 11:08:46.989] $GPGGA,20845.6,4327.729241,N,14148.32956,E,4,10,1.1,110.742,M,31.83,M,3.0,0000*5E,43.462154016666666,141.80549266666665,565160.2923159971,4812453.371068686
2195,[2021-01-29 11:08:47.083] $GPGGA,20845.7,4327.729241,N,14148.32956,E,4,10,1.1,110.7423,M,31.83,M,3.0,0000*53,43.462154016666666,141.80549266666665,565160.2923159971,4812453.371068686
2196,[2021-01-29 11:08:47.192] $GPGGA,20845.8,4327.729241,N,14148.32956,E,4,10,1.1,110.7446,M,31.83,M,3.0,0000*56,43.462154016666666,141.80549266666665,565160.2923159971,4812453.371068686
2197,[2021-01-29 11:08:47.287] $GPGGA,20845.9,4327.72924,N,14148.32956,E,4,10,1.1,110.7447,M,31.83,M,3.0,0000*51,43.46215399999999,141.80549266666665,565160.2923338979,4812453.369217721
2198,[2021-01-29 11:08:47.397] $GPGGA,20846.0,4327.72924,N,14148.32956,E,4,10,1.1,110.7431,M,31.83,M,4.0,0000*53,43.46215399999999,141.80549266666665,565160.2923338979,4812453.369217721
2199,[2021-01-29 11:08:47.475] $GPGGA,20846.1,4327.729241,N,14148.32956,E,4,10,1.1,110.745,M,31.83,M,4.0,0000*58,43.462154016666666,141.80549266666665,565160.2923159971,4812453.371068686
2200,[2021-01-29 11:08:47.584] $GPGGA,20846.2,4327.729242,N,14148.32956,E,4,10,1.1,110.7457,M,31.83,M,4.0,0000*59,43.462154033333334,141.80549266666665,565160.2922980961,4812453.372919652
2201,[2021-01-29 11:08:47.694] $GPGGA,20846.3,4327.729241,N,14148.32956,E,4,10,1.1,110.7452,M,31.83,M,4.0,0000*58,43.462154016666666,141.80549266666665,565160.2923159971,4812453.371068686
2202,[2021-01-29 11:08:47.787] $GPGGA,20846.4,4327.729242,N,14148.32956,E,4,10,1.1,110.7463,M,31.83,M,4.0,0000*52,43.462154033333334,141.80549266666665,565160.2922980961,4812453.372919652
2203,[2021-01-29 11:08:47.881] $GPGGA,20846.5,4327.729242,N,14148.32956,E,4,10,1.1,110.7459,M,31.83,M,4.0,0000*59,43.462154033333334,141.80549266666665,565160.2922980961,4812453.372919652
2204,[2021-01-29 11:08:47.990] $GPGGA,20846.6,4327.729242,N,14148.32956,E,4,10,1.1,110.7465,M,31.83,M,4.0,0000*5B,43.462154033333334,141.80549266666665,565160.2922980961,4812453.372919652
2205,[2021-01-29 11:08:48.084] $GPGGA,20846.7,4327.729242,N,14148.32956,E,4,10,1.1,110.7419,M,31.83,M,4.0,0000*5D,43.462154033333334,141.80549266666665,565160.2922980961,4812453.372919652
2206,[2021-01-29 11:08:48.178] $GPGGA,20846.8,4327.729241,N,14148.32956,E,4,10,1.1,110.7403,M,31.83,M,4.0,0000*58,43.462154016666666,141.80549266666665,565160.2923159971,4812453.371068686
2207,[2021-01-29 11:08:48.289] $GPGGA,20846.9,4327.729241,N,14148.32956,E,4,10,1.1,110.7384,M,31.83,M,4.0,0000*53,43.462154016666666,141.80549266666665,565160.2923159971,4812453.371068686
2208,[2021-01-29 11:08:48.383] $GPGGA,20847.0,4327.729241,N,14148.32956,E,4,10,1.1,110.7346,M,31.83,M,5.0,0000*58,43.462154016666666,141.80549266666665,565160.2923159971,4812453.371068686
2209,[2021-01-29 11:08:48.492] $GPGGA,20847.1,4327.729241,N,14148.32956,E,4,10,1.1,110.7344,M,31.83,M,5.0,0000*53,43.462154016666666,141.80549266666665,565160.2923159971,4812453.371068686
2210,[2021-01-29 11:08:48.586] $GPGGA,20847.2,4327.729241,N,14148.32956,E,4,10,1.1,110.7331,M,31.83,M,5.0,0000*5F,43.462154016666666,141.80549266666665,565160.2923159971,4812453.371068686
2211,[2021-01-29 11:08:48.680] $GPGGA,20847.3,4327.729241,N,14148.32956,E,4,10,1.1,110.7336,M,31.83,M,5.0,0000*50,43.462154016666666,141.80549266666665,565160.2923159971,4812453.371068686
2212,[2021-01-29 11:08:48.789] $GPGGA,20847.4,4327.729241,N,14148.32956,E,4,10,1.1,110.7379,M,31.83,M,5.0,0000*54,43.462154016666666,141.80549266666665,565160.2923159971,4812453.371068686
2213,[2021-01-29 11:08:48.883] $GPGGA,20847.5,4327.729242,N,14148.32956,E,4,10,1.1,110.7381,M,31.83,M,5.0,0000*59,43.462154033333334,141.80549266666665,565160.2922980961,4812453.372919652
2214,[2021-01-29 11:08:48.976] $GPGGA,20847.6,4327.729242,N,14148.32956,E,4,10,1.1,110.7396,M,31.83,M,5.0,0000*56,43.462154033333334,141.80549266666665,565160.2922980961,4812453.372919652
2215,[2021-01-29 11:08:49.086] $GPGGA,20847.7,4327.729242,N,14148.32956,E,4,10,1.1,110.7418,M,31.83,M,5.0,0000*5E,43.462154033333334,141.80549266666665,565160.2922980961,4812453.372919652
2216,[2021-01-29 11:08:49.180] $GPGGA,20847.8,4327.729242,N,14148.32956,E,4,10,1.1,110.7431,M,31.83,M,5.0,0000*5E,43.462154033333334,141.80549266666665,565160.2922980961,4812453.372919652
2217,[2021-01-29 11:08:49.290] $GPGGA,20847.9,4327.729242,N,14148.32956,E,4,10,1.1,110.7451,M,31.83,M,5.0,0000*5E,43.462154033333334,141.80549266666665,565160.2922980961,4812453.372919652
2218,[2021-01-29 11:08:49.400] $GPGGA,20848.0,4327.729242,N,14148.32956,E,4,10,1.1,110.7442,M,31.83,M,6.0,0000*57,43.462154033333334,141.80549266666665,565160.2922980961,4812453.372919652
2219,[2021-01-29 11:08:49.478] $GPGGA,20848.1,4327.729241,N,14148.32956,E,4,10,1.1,110.745,M,31.83,M,6.0,0000*58,43.462154016666666,141.80549266666665,565160.2923159971,4812453.371068686
2220,[2021-01-29 11:08:49.587] $GPGGA,20848.2,4327.729241,N,14148.32956,E,4,10,1.1,110.74799999999999,M,31.83,M,1.0,0000*56,43.462154016666666,141.80549266666665,565160.2923159971,4812453.371068686
2221,[2021-01-29 11:08:49.681] $GPGGA,20848.3,4327.729241,N,14148.32956,E,4,10,1.1,110.7508,M,31.83,M,1.0,0000*5F,43.462154016666666,141.80549266666665,565160.2923159971,4812453.371068686
2222,[2021-01-29 11:08:49.790] $GPGGA,20848.4,4327.729241,N,14148.32956,E,4,10,1.1,110.7511,M,31.83,M,1.0,0000*5B,43.462154016666666,141.80549266666665,565160.2923159971,4812453.371068686
2223,[2021-01-29 11:08:49.884] $GPGGA,20848.5,4327.72924,N,14148.32955,E,4,10,1.1,110.7519,M,31.83,M,1.0,0000*5B,43.46215399999999,141.80549249999999,565160.2788513566,4812453.369087329
2224,[2021-01-29 11:08:49.993] $GPGGA,20848.6,4327.729241,N,14148.32956,E,4,10,1.1,110.7504,M,31.83,M,1.0,0000*51,43.462154016666666,141.80549266666665,565160.2923159971,4812453.371068686
2225,[2021-01-29 11:08:50.087] $GPGGA,20848.7,4327.72924,N,14148.32956,E,4,10,1.1,110.7495,M,31.83,M,1.0,0000*52,43.46215399999999,141.80549266666665,565160.2923338979,4812453.369217721
2226,[2021-01-29 11:08:50.181] $GPGGA,20848.8,4327.72924,N,14148.32956,E,4,10,1.1,110.7502,M,31.83,M,1.0,0000*52,43.46215399999999,141.80549266666665,565160.2923338979,4812453.369217721
2227,[2021-01-29 11:08:50.276] $GPGGA,20848.9,4327.729241,N,14148.32956,E,4,10,1.1,110.75,M,31.83,M,1.0,0000*5B,43.462154016666666,141.80549266666665,565160.2923159971,4812453.371068686
2228,[2021-01-29 11:08:50.386] $GPGGA,20849.0,4327.729241,N,14148.32956,E,4,10,1.1,110.7497,M,31.83,M,2.0,0000*5C,43.462154016666666,141.80549266666665,565160.2923159971,4812453.371068686
2229,[2021-01-29 11:08:50.479] $GPGGA,20849.1,4327.729241,N,14148.32956,E,4,10,1.1,110.751,M,31.83,M,2.0,0000*5C,43.462154016666666,141.80549266666665,565160.2923159971,4812453.371068686
2230,[2021-01-29 11:08:50.589] $GPGGA,20849.2,4327.729241,N,14148.32956,E,4,10,1.1,110.7513,M,31.83,M,2.0,0000*5E,43.462154016666666,141.80549266666665,565160.2923159971,4812453.371068686
2231,[2021-01-29 11:08:50.683] $GPGGA,20849.3,4327.729241,N,14148.32956,E,4,10,1.1,110.7513,M,31.83,M,2.0,0000*58,43.462154016666666,141.80549266666665,565160.2923159971,4812453.371068686
2232,[2021-01-29 11:08:50.792] $GPGGA,20849.4,4327.729242,N,14148.32956,E,4,10,1.1,110.7522,M,31.83,M,2.0,0000*5E,43.462154033333334,141.80549266666665,565160.2922980961,4812453.372919652
2233,[2021-01-29 11:08:50.886] $GPGGA,20849.5,4327.729241,N,14148.32956,E,4,10,1.1,110.7511,M,31.83,M,2.0,0000*50,43.462154016666666,141.80549266666665,565160.2923159971,4812453.371068686
2234,[2021-01-29 11:08:50.979] $GPGGA,20849.6,4327.72924,N,14148.32956,E,4,10,1.1,110.7522,M,31.83,M,2.0,0000*5C,43.46215399999999,141.80549266666665,565160.2923338979,4812453.369217721
2235,[2021-01-29 11:08:51.089] $GPGGA,20849.7,4327.72924,N,14148.32956,E,4,10,1.1,110.7525,M,31.83,M,2.0,0000*5C,43.46215399999999,141.80549266666665,565160.2923338979,4812453.369217721
2236,[2021-01-29 11:08:51.183] $GPGGA,20849.8,4327.729239,N,14148.32956,E,4,10,1.1,110.75299999999999,M,31.83,M,2.0,0000*5B,43.46215398333333,141.80549266666665,565160.2923517989,4812453.367366756
2237,[2021-01-29 11:08:51.294] $GPGGA,20849.9,4327.729239,N,14148.32956,E,4,10,1.1,110.7527,M,31.83,M,2.0,0000*5E,43.46215398333333,141.80549266666665,565160.2923517989,4812453.367366756
2238,[2021-01-29 11:08:51.387] $GPGGA,20850.0,4327.72924,N,14148.32956,E,4,10,1.1,110.7518,M,31.83,M,3.0,0000*57,43.46215399999999,141.80549266666665,565160.2923338979,4812453.369217721
2239,[2021-01-29 11:08:51.481] $GPGGA,20850.1,4327.729239,N,14148.32956,E,4,10,1.1,110.7535,M,31.83,M,3.0,0000*5E,43.46215398333333,141.80549266666665,565160.2923517989,4812453.367366756
2240,[2021-01-29 11:08:51.591] $GPGGA,20850.2,4327.729239,N,14148.32956,E,4,10,1.1,110.7565,M,31.83,M,3.0,0000*5F,43.46215398333333,141.80549266666665,565160.2923517989,4812453.367366756
2241,[2021-01-29 11:08:51.684] $GPGGA,20850.3,4327.72924,N,14148.32956,E,4,10,1.1,110.7571,M,31.83,M,3.0,0000*56,43.46215399999999,141.80549266666665,565160.2923338979,4812453.369217721
2242,[2021-01-29 11:08:51.778] $GPGGA,20850.4,4327.72924,N,14148.32956,E,4,10,1.1,110.7577,M,31.83,M,3.0,0000*5D,43.46215399999999,141.80549266666665,565160.2923338979,4812453.369217721
2243,[2021-01-29 11:08:51.887] $GPGGA,20850.5,4327.729239,N,14148.32956,E,4,10,1.1,110.7601,M,31.83,M,3.0,0000*5C,43.46215398333333,141.80549266666665,565160.2923517989,4812453.367366756
2244,[2021-01-29 11:08:51.981] $GPGGA,20850.6,4327.72924,N,14148.32956,E,4,10,1.1,110.7623,M,31.83,M,3.0,0000*51,43.46215399999999,141.80549266666665,565160.2923338979,4812453.369217721
2245,[2021-01-29 11:08:52.091] $GPGGA,20850.7,4327.729239,N,14148.32955,E,4,10,1.1,110.7641,M,31.83,M,3.0,0000*5F,43.46215398333333,141.80549249999999,565160.2788692575,4812453.367236365
2246,[2021-01-29 11:08:52.184] $GPGGA,20850.8,4327.72924,N,14148.32955,E,4,10,1.1,110.7625,M,31.83,M,3.0,0000*5E,43.46215399999999,141.80549249999999,565160.2788513566,4812453.369087329
2247,[2021-01-29 11:08:52.294] $GPGGA,20850.9,4327.729239,N,14148.32956,E,4,10,1.1,110.7602,M,31.83,M,3.0,0000*5D,43.46215398333333,141.80549266666665,565160.2923517989,4812453.367366756
2248,[2021-01-29 11:08:52.388] $GPGGA,20851.0,4327.729239,N,14148.32956,E,4,10,1.1,110.7563,M,31.83,M,4.0,0000*5C,43.46215398333333,141.80549266666665,565160.2923517989,4812453.367366756
2249,[2021-01-29 11:08:52.482] $GPGGA,20851.1,4327.729239,N,14148.32956,E,4,10,1.1,110.7579,M,31.83,M,4.0,0000*50,43.46215398333333,141.80549266666665,565160.2923517989,4812453.367366756
2250,[2021-01-29 11:08:52.575] $GPGGA,20851.2,4327.729239,N,14148.32956,E,4,10,1.1,110.7583,M,31.83,M,4.0,0000*54,43.46215398333333,141.80549266666665,565160.2923517989,4812453.367366756
2251,[2021-01-29 11:08:52.685] $GPGGA,20851.3,4327.729239,N,14148.32956,E,4,10,1.1,110.7595,M,31.83,M,4.0,0000*5B,43.46215398333333,141.80549266666665,565160.2923517989,4812453.367366756
2252,[2021-01-29 11:08:52.779] $GPGGA,20851.4,4327.72924,N,14148.32956,E,4,10,1.1,110.7596,M,31.83,M,4.0,0000*54,43.46215399999999,141.80549266666665,565160.2923338979,4812453.369217721
2253,[2021-01-29 11:08:52.888] $GPGGA,20851.5,4327.729238,N,14148.32956,E,4,10,1.1,110.7588,M,31.83,M,4.0,0000*58,43.46215396666666,141.80549266666665,565160.2923696998,4812453.36551579
2254,[2021-01-29 11:08:52.982] $GPGGA,20851.6,4327.729238,N,14148.32956,E,4,10,1.1,110.7587,M,31.83,M,4.0,0000*51,43.46215396666666,141.80549266666665,565160.2923696998,4812453.36551579
2255,[2021-01-29 11:08:53.091] $GPGGA,20851.7,4327.72924,N,14148.32956,E,4,10,1.1,110.7598,M,31.83,M,4.0,0000*56,43.46215399999999,141.80549266666665,565160.2923338979,4812453.369217721
2256,[2021-01-29 11:08:53.185] $GPGGA,20851.8,4327.729239,N,14148.32955,E,4,10,1.1,110.7588,M,31.83,M,4.0,0000*59,43.46215398333333,141.80549249999999,565160.2788692575,4812453.367236365
2257,[2021-01-29 11:08:53.280] $GPGGA,20851.9,4327.72924,N,14148.32956,E,4,10,1.1,110.7612,M,31.83,M,4.0,0000*54,43.46215399999999,141.80549266666665,565160.2923338979,4812453.369217721
2258,[2021-01-29 11:08:53.390] $GPGGA,20852.0,4327.729239,N,14148.32956,E,4,10,1.1,110.759,M,31.83,M,5.0,0000*57,43.46215398333333,141.80549266666665,565160.2923517989,4812453.367366756
2259,[2021-01-29 11:08:53.483] $GPGGA,20852.1,4327.729238,N,14148.32956,E,4,10,1.1,110.7574,M,31.83,M,5.0,0000*5F,43.46215396666666,141.80549266666665,565160.2923696998,4812453.36551579
2260,[2021-01-29 11:08:53.593] $GPGGA,20852.2,4327.729239,N,14148.32956,E,4,10,1.1,110.7586,M,31.83,M,5.0,0000*55,43.46215398333333,141.80549266666665,565160.2923517989,4812453.367366756
2261,[2021-01-29 11:08:53.686] $GPGGA,20852.3,4327.72924,N,14148.32956,E,4,10,1.1,110.7581,M,31.83,M,5.0,0000*57,43.46215399999999,141.80549266666665,565160.2923338979,4812453.369217721
2262,[2021-01-29 11:08:53.780] $GPGGA,20852.4,4327.729239,N,14148.32956,E,4,10,1.1,110.7603,M,31.83,M,5.0,0000*5A,43.46215398333333,141.80549266666665,565160.2923517989,4812453.367366756
2263,[2021-01-29 11:08:53.890] $GPGGA,20852.5,4327.729239,N,14148.32955,E,4,10,1.1,110.7615,M,31.83,M,5.0,0000*54,43.46215398333333,141.80549249999999,565160.2788692575,4812453.367236365
2264,[2021-01-29 11:08:53.983] $GPGGA,20852.6,4327.729239,N,14148.32956,E,4,10,1.1,110.7597,M,31.83,M,5.0,0000*56,43.46215398333333,141.80549266666665,565160.2923517989,4812453.367366756
2265,[2021-01-29 11:08:54.077] $GPGGA,20852.7,4327.729239,N,14148.32956,E,4,10,1.1,110.7577,M,31.83,M,5.0,0000*54,43.46215398333333,141.80549266666665,565160.2923517989,4812453.367366756
2266,[2021-01-29 11:08:54.186] $GPGGA,20852.8,4327.729239,N,14148.32956,E,4,10,1.1,110.7561,M,31.83,M,5.0,0000*58,43.46215398333333,141.80549266666665,565160.2923517989,4812453.367366756
2267,[2021-01-29 11:08:54.282] $GPGGA,20852.9,4327.729239,N,14148.32956,E,4,10,1.1,110.7574,M,31.83,M,5.0,0000*57,43.46215398333333,141.80549266666665,565160.2923517989,4812453.367366756
2268,[2021-01-29 11:08:54.391] $GPGGA,20853.0,4327.729238,N,14148.32956,E,4,10,1.1,110.7545,M,31.83,M,6.0,0000*5E,43.46215396666666,141.80549266666665,565160.2923696998,4812453.36551579
2269,[2021-01-29 11:08:54.485] $GPGGA,20853.1,4327.729239,N,14148.32956,E,4,10,1.1,110.7542,M,31.83,M,6.0,0000*5B,43.46215398333333,141.80549266666665,565160.2923517989,4812453.367366756
2270,[2021-01-29 11:08:54.579] $GPGGA,20853.2,4327.729238,N,14148.32955,E,4,10,1.1,110.7631,M,31.83,M,1.0,0000*53,43.46215396666666,141.80549249999999,565160.2788871585,4812453.365385398
2271,[2021-01-29 11:08:54.688] $GPGGA,20853.3,4327.729237,N,14148.32955,E,4,10,1.1,110.7714,M,31.83,M,1.0,0000*5F,43.462153949999994,141.80549249999999,565160.2789050594,4812453.363534434
2272,[2021-01-29 11:08:54.782] $GPGGA,20853.4,4327.729236,N,14148.32955,E,4,10,1.1,110.7756,M,31.83,M,1.0,0000*54,43.46215393333334,141.80549249999999,565160.2789229603,4812453.36168347
2273,[2021-01-29 11:08:54.891] $GPGGA,20853.5,4327.729236,N,14148.32955,E,4,10,1.1,110.7789,M,31.83,M,1.0,0000*55,43.46215393333334,141.80549249999999,565160.2789229603,4812453.36168347
2274,[2021-01-29 11:08:54.985] $GPGGA,20853.6,4327.729236,N,14148.32955,E,4,10,1.1,110.7778,M,31.83,M,1.0,0000*53,43.46215393333334,141.80549249999999,565160.2789229603,4812453.36168347
