,Format,Time,Latitude,LatType,Longitude,LonType,Status,Satellite,LevelAccuracy,Altitude(sea),M(sea),Altitude(geoid),M(geoid),DGPS use,checksum,Lat,Lon,UTM_X,UTM_Y
842,[2021-01-29 11:06:37.295] $GPGGA,20635.9,4327.72949211,N,14148.32931975,E,4,6.0,1.4,110.97399999999999,M,31.59,M,1.9,0202*4B,43.46215820183333,141.80548866250004,565159.963902859,4812453.832731918
843,[2021-01-29 11:06:37.404] $GPGGA,20636.0,4327.72949409,N,14148.32931825,E,4,6.0,1.4,110.978,M,31.59,M,2.0,0202*4C,43.46215823483333,141.80548863750002,565159.9618450322,4812453.8363772705
844,[2021-01-29 11:06:37.498] $GPGGA,20636.1,4327.72949239,N,14148.32931773,E,4,6.0,1.4,110.979,M,31.59,M,1.1,0202*47,43.4621582065,141.80548862883333,565159.9611743684,4812453.83322385
845,[2021-01-29 11:06:37.591] $GPGGA,20636.2,4327.7294924,N,14148.32931921,E,4,6.0,1.4,110.973,M,31.59,M,1.2,0202*4A,43.46215820666666,141.80548865350002,565159.9631696083,4812453.833261656
846,[2021-01-29 11:06:37.701] $GPGGA,20636.3,4327.72949326,N,14148.3293187,E,4,6.0,1.4,110.977,M,31.59,M,1.3,0202*4A,43.462158221,141.80548864499997,565159.9624666004,4812453.834846837
847,[2021-01-29 11:06:37.795] $GPGGA,20636.4,4327.72949028,N,14148.32931396,E,4,6.0,1.4,110.98299999999999,M,31.59,M,1.4,0202*4F,43.462158171333336,141.80548856599998,565159.9561292212,4812453.829269156
848,[2021-01-29 11:06:37.888] $GPGGA,20636.5,4327.72949298,N,14148.32931903,E,4,6.0,1.4,110.973,M,31.59,M,1.5,0202*4F,43.462158216333336,141.8054886505,565159.9629165379,4812453.83433287
849,[2021-01-29 11:06:37.998] $GPGGA,20636.6,4327.7294908,N,14148.32931842,E,4,6.0,1.4,110.98299999999999,M,31.59,M,1.6,0202*4F,43.46215818,141.80548864033332,565159.9621331256,4812453.830289813
850,[2021-01-29 11:06:38.091] $GPGGA,20636.7,4327.72949084,N,14148.32931689,E,4,6.0,1.4,110.99,M,31.59,M,1.7,0202*40,43.46215818066667,141.8054886148333,565159.9600695802,4812453.830343901
851,[2021-01-29 11:06:38.201] $GPGGA,20636.8,4327.72949114,N,14148.32931694,E,4,6.0,1.4,110.985,M,31.59,M,0.8,0202*41,43.462158185666674,141.8054886156667,565159.9601316266,4812453.830899843
852,[2021-01-29 11:06:38.295] $GPGGA,20636.9,4327.72949125,N,14148.32931837,E,4,6.0,1.4,110.979,M,31.59,M,0.9,0202*47,43.46215818750001,141.8054886395,565159.9620576598,4812453.831122096
853,[2021-01-29 11:06:38.404] $GPGGA,20637.0,4327.72949208,N,14148.32931756,E,4,6.0,1.4,110.986,M,31.59,M,1.0,0202*43,43.46215820133334,141.80548862599997,565159.9609507138,4812453.832647834
854,[2021-01-29 11:06:38.498] $GPGGA,20637.1,4327.72949393,N,14148.32931557,E,4,6.0,1.4,110.999,M,31.59,M,1.1,0202*4D,43.462158232166665,141.8054885928333,565159.9582345714,4812453.836046172
855,[2021-01-29 11:06:38.607] $GPGGA,20637.2,4327.72949345,N,14148.32931671,E,4,6.0,1.4,110.99700000000001,M,31.59,M,1.2,0202*4F,43.462158224166664,141.8054886118333,565159.9597801731,4812453.835172573
856,[2021-01-29 11:06:38.701] $GPGGA,20637.3,4327.72949063,N,14148.3293182,E,4,6.0,1.4,110.988,M,31.59,M,1.3,0202*4C,43.462158177166664,141.8054886366667,565159.9618395567,4812453.829972279
857,[2021-01-29 11:06:38.795] $GPGGA,20637.4,4327.72949355,N,14148.32931544,E,4,6.0,1.4,110.986,M,31.59,M,1.4,0202*4B,43.462158225833335,141.80548859066667,565159.9580661024,4812453.835341111
858,[2021-01-29 11:06:38.889] $GPGGA,20637.5,4327.72949215,N,14148.32931581,E,4,6.0,1.4,110.991,M,31.59,M,1.5,0202*41,43.46215820249999,141.80548859683333,565159.9585900173,4812453.832754582
859,[2021-01-29 11:06:38.998] $GPGGA,20637.6,4327.72949167,N,14148.32931611,E,4,6.0,1.4,110.98700000000001,M,31.59,M,1.6,0202*4A,43.4621581945,141.80548860183333,565159.9590030868,4812453.831870031
860,[2021-01-29 11:06:39.092] $GPGGA,20637.7,4327.72949245,N,14148.32931377,E,4,6.0,1.4,110.98899999999999,M,31.59,M,1.7,0202*42,43.46215820750001,141.80548856283335,565159.9558342106,4812453.8332832735
861,[2021-01-29 11:06:39.201] $GPGGA,20637.8,4327.7294889,N,14148.32931614,E,4,6.0,1.4,110.98899999999999,M,31.59,M,1.8,0202*41,43.46215814833334,141.8054886023333,565159.9590931162,4812453.82674325
862,[2021-01-29 11:06:39.296] $GPGGA,20637.9,4327.72949189,N,14148.32931543,E,4,6.0,1.4,110.99600000000001,M,31.59,M,1.9,0202*4E,43.46215819816666,141.80548859050003,565159.9580823379,4812453.832268378
863,[2021-01-29 11:06:39.406] $GPGGA,20638.0,4327.72948869,N,14148.32931449,E,4,6.0,1.4,110.96799999999999,M,31.59,M,2.0,0202*4E,43.46215814483334,141.8054885748333,565159.9568722569,4812453.826333032
864,[2021-01-29 11:06:39.500] $GPGGA,20638.1,4327.72949041,N,14148.32931618,E,4,6.0,1.4,110.988,M,31.59,M,2.1,0202*45,43.46215817349999,141.805488603,565159.9591200185,4812453.829538727
865,[2021-01-29 11:06:39.593] $GPGGA,20638.2,4327.72949003,N,14148.32931334,E,4,6.0,1.4,110.98,M,31.59,M,2.2,0202*40,43.46215816716668,141.80548855566667,565159.9552977802,4812453.828798331
866,[2021-01-29 11:06:39.687] $GPGGA,20638.3,4327.72949014,N,14148.32931304,E,4,6.0,1.4,110.98,M,31.59,M,2.3,0202*45,43.462158169,141.80548855066667,565159.9548913342,4812453.8289980255
867,[2021-01-29 11:06:39.796] $GPGGA,20638.4,4327.72949084,N,14148.32931126,E,4,6.0,1.4,110.985,M,31.59,M,2.4,0202*4B,43.46215818066667,141.805488521,565159.9524789117,4812453.830270492
868,[2021-01-29 11:06:39.890] $GPGGA,20638.5,4327.72949244,N,14148.32931649,E,4,6.0,1.4,110.98100000000001,M,31.59,M,1.5,0202*4C,43.46215820733334,141.80548860816668,565159.9595016409,4812453.83330023
869,[2021-01-29 11:06:40.000] $GPGGA,20638.6,4327.72948876,N,14148.32931631,E,4,6.0,1.4,111.00200000000001,M,31.59,M,1.6,0202*4A,43.462158146,141.80548860516666,565159.9593248281,4812453.8264863305
870,[2021-01-29 11:06:40.093] $GPGGA,20638.7,4327.72948943,N,14148.32931538,E,4,6.0,1.4,110.992,M,31.59,M,1.7,0202*46,43.46215815716668,141.80548858966665,565159.9580589572,4812453.827714352
871,[2021-01-29 11:06:40.203] $GPGGA,20638.8,4327.72948953,N,14148.32931564,E,4,6.0,1.4,110.99799999999999,M,31.59,M,1.8,0202*44,43.46215815883334,141.80548859400002,565159.9584077159,4812453.827902838
872,[2021-01-29 11:06:40.298] $GPGGA,20638.9,4327.72948779,N,14148.32931096,E,4,6.0,1.4,110.988,M,31.59,M,1.9,0202*4B,43.46215812983334,141.805488516,565159.9521290322,4812453.824621136
873,[2021-01-29 11:06:40.408] $GPGGA,20639.0,4327.72949183,N,14148.32931768,E,4,6.0,1.4,111.009,M,31.59,M,1.0,0202*4F,43.462158197166666,141.805488628,565159.9611169824,4812453.832186657
874,[2021-01-29 11:06:40.501] $GPGGA,20639.1,4327.72949622,N,14148.32931715,E,4,6.0,1.4,111.007,M,31.59,M,1.1,0202*47,43.46215827033334,141.80548861916668,565159.9603238223,4812453.840305484
875,[2021-01-29 11:06:40.595] $GPGGA,20639.2,4327.72949051,N,14148.32931888,E,4,6.0,1.4,111.00399999999999,M,31.59,M,1.2,0202*4D,43.462158175166664,141.805488648,565159.9627585155,4812453.829759031
876,[2021-01-29 11:06:40.689] $GPGGA,20639.3,4327.72949276,N,14148.32931746,E,4,6.0,1.4,111.00399999999999,M,31.59,M,1.3,0202*47,43.46215821266666,141.80548862433332,565159.9608037163,4812453.833905186
877,[2021-01-29 11:06:40.798] $GPGGA,20639.4,4327.72949272,N,14148.32931696,E,4,6.0,1.4,111.007,M,31.59,M,1.4,0202*4C,43.462158212000006,141.805488616,565159.9601303053,4812453.833824629
878,[2021-01-29 11:06:40.892] $GPGGA,20639.5,4327.72949451,N,14148.32931697,E,4,6.0,1.4,110.986,M,31.59,M,1.5,0202*4B,43.462158241833336,141.80548861616668,565159.9601117469,4812453.837137986
879,[2021-01-29 11:06:41.001] $GPGGA,20639.6,4327.72948908,N,14148.32932052,E,4,6.0,1.4,110.99700000000001,M,31.59,M,1.6,0202*47,43.462158151333334,141.80548867533332,565159.9649952481,4812453.8271335345
880,[2021-01-29 11:06:41.095] $GPGGA,20639.7,4327.72949441,N,14148.32931686,E,4,6.0,1.4,111.0,M,31.59,M,1.7,0202*4C,43.46215824016668,141.80548861433334,565159.95996523,4812453.836951457
881,[2021-01-29 11:06:41.204] $GPGGA,20639.8,4327.72949784,N,14148.32931608,E,4,6.0,1.4,110.99700000000001,M,31.59,M,0.8,0202*47,43.462158297333325,141.80548860133334,565159.9588521902,4812453.843290094
882,[2021-01-29 11:06:41.300] $GPGGA,20639.9,4327.72949548,N,14148.32931935,E,4,6.0,1.4,110.993,M,31.59,M,0.9,0202*40,43.462158257999995,141.80548865583333,565159.963303227,4812453.838964455
883,[2021-01-29 11:06:41.409] $GPGGA,20640.0,4327.7294964,N,14148.32931485,E,4,6.0,1.4,110.99700000000001,M,31.59,M,1.0,0202*46,43.46215827333333,141.80548858083333,565159.9572196151,4812453.840608668
884,[2021-01-29 11:06:41.487] $GPGGA,20640.1,4327.72949838,N,14148.32931865,E,4,6.0,1.4,110.993,M,31.59,M,1.1,0202*41,43.46215830633334,141.80548864416664,565159.9623075355,4812453.844323128
885,[2021-01-29 11:06:41.596] $GPGGA,20640.2,4327.72949449,N,14148.32931782,E,4,6.0,1.4,110.99799999999999,M,31.59,M,1.2,0202*46,43.46215824150001,141.80548863033334,565159.9612581215,4812453.837112052
886,[2021-01-29 11:06:41.690] $GPGGA,20640.3,4327.72949788,N,14148.32931713,E,4,6.0,1.4,110.98200000000001,M,31.59,M,1.3,0202*4B,43.462158298,141.80548861883335,565159.9602671427,4812453.843377825
887,[2021-01-29 11:06:41.800] $GPGGA,20640.4,4327.72949844,N,14148.32931868,E,4,6.0,1.4,111.00200000000001,M,31.59,M,1.4,0202*47,43.462158307333326,141.8054886446667,565159.9623469139,4812453.844434575
888,[2021-01-29 11:06:41.893] $GPGGA,20640.5,4327.72949739,N,14148.32931991,E,4,6.0,1.4,110.978,M,31.59,M,1.5,0202*40,43.46215828983333,141.8054886651667,565159.9640240622,4812453.842507101
889,[2021-01-29 11:06:42.003] $GPGGA,20640.6,4327.7294968,N,14148.32931682,E,4,6.0,1.4,110.991,M,31.59,M,1.6,0202*49,43.46215828,141.80548861366665,565159.9598685144,4812453.841374741
890,[2021-01-29 11:06:42.096] $GPGGA,20640.7,4327.72949666,N,14148.32931731,E,4,6.0,1.4,110.986,M,31.59,M,1.7,0202*4E,43.462158277666674,141.8054886218333,565159.9605316635,4812453.841121995
891,[2021-01-29 11:06:42.206] $GPGGA,20640.8,4327.72949642,N,14148.32932078,E,4,6.0,1.4,111.00299999999999,M,31.59,M,0.8,0202*45,43.462158273666674,141.80548867966664,565159.9652144025,4812453.84072301
892,[2021-01-29 11:06:42.301] $GPGGA,20640.9,4327.729497,N,14148.32931904,E,4,6.0,1.4,110.98299999999999,M,31.59,M,0.9,0202*43,43.46215828333333,141.80548865066666,565159.9628580586,4812453.84177388
893,[2021-01-29 11:06:42.395] $GPGGA,20641.0,4327.72949984,N,14148.3293207,E,4,6.0,1.4,110.984,M,31.59,M,1.0,0202*4F,43.46215833066667,141.80548867833335,565159.9650453229,4812453.847052266
894,[2021-01-29 11:06:42.489] $GPGGA,20641.1,4327.72949873,N,14148.32931961,E,4,6.0,1.4,110.994,M,31.59,M,1.1,0202*4D,43.46215831216667,141.80548866016665,565159.9635955938,4812453.844983483
895,[2021-01-29 11:06:42.598] $GPGGA,20641.2,4327.72949527,N,14148.32932089,E,4,6.0,1.4,110.985,M,31.59,M,1.2,0202*4D,43.462158254500004,141.80548868149998,565159.9653832957,4812453.838595833
896,[2021-01-29 11:06:42.692] $GPGGA,20641.3,4327.72949533,N,14148.32932189,E,4,6.0,1.4,110.993,M,31.59,M,1.3,0202*4E,43.4621582555,141.80548869816667,565159.9667304776,4812453.8387199305
897,[2021-01-29 11:06:42.801] $GPGGA,20641.4,4327.72949727,N,14148.32932245,E,4,6.0,1.4,110.985,M,31.59,M,1.4,0202*4D,43.46215828783333,141.8054887075,565159.9674507716,4812453.842318104
898,[2021-01-29 11:06:42.895] $GPGGA,20641.5,4327.72949768,N,14148.32931928,E,4,6.0,1.4,110.98700000000001,M,31.59,M,1.5,0202*47,43.462158294666665,141.80548865466668,565159.9631694685,4812453.843035665
899,[2021-01-29 11:06:43.005] $GPGGA,20641.6,4327.7294947,N,14148.32931992,E,4,6.0,1.4,110.98899999999999,M,31.59,M,1.6,0202*42,43.462158245000005,141.80548866533334,565159.9640856955,4812453.837528136
900,[2021-01-29 11:06:43.083] $GPGGA,20641.7,4327.72949797,N,14148.32932312,E,4,6.0,1.4,110.98299999999999,M,31.59,M,1.7,0202*43,43.462158299500004,141.80548871866668,565159.9683415738,4812453.843622517
901,[2021-01-29 11:06:43.208] $GPGGA,20641.8,4327.72949398,N,14148.32932253,E,4,6.0,1.4,110.999,M,31.59,M,0.8,0202*46,43.462158233000004,141.80548870883334,565159.9676175262,4812453.836229472
902,[2021-01-29 11:06:43.288] $GPGGA,20641.9,4327.72949525,N,14148.32932514,E,4,6.0,1.4,111.008,M,31.59,M,0.9,0202*42,43.46215825416667,141.80548875233333,565159.9711137364,4812453.83861423
903,[2021-01-29 11:06:43.382] $GPGGA,20642.0,4327.72949526,N,14148.32932649,E,4,6.0,1.4,110.99600000000001,M,31.59,M,1.0,0202*47,43.462158254333325,141.80548877483332,565159.9729336989,4812453.838650341
904,[2021-01-29 11:06:43.476] $GPGGA,20642.1,4327.72949579,N,14148.32932174,E,4,6.0,1.4,110.98700000000001,M,31.59,M,1.1,0202*44,43.46215826316667,141.8054886956667,565159.9665200078,4812453.839569418
905,[2021-01-29 11:06:43.601] $GPGGA,20642.2,4327.72949566,N,14148.32932733,E,4,6.0,1.4,110.99700000000001,M,31.59,M,1.2,0202*4E,43.462158261000006,141.80548878883334,565159.974059073,4812453.839401683
906,[2021-01-29 11:06:43.695] $GPGGA,20642.3,4327.72949607,N,14148.32932327,E,4,6.0,1.4,110.993,M,31.59,M,1.3,0202*4F,43.46215826783334,141.80548872116665,565159.9685778208,4812453.840107639
907,[2021-01-29 11:06:43.804] $GPGGA,20642.4,4327.72949687,N,14148.329326,E,4,6.0,1.4,110.994,M,31.59,M,1.4,0202*40,43.462158281166666,141.80548876666663,565159.9722442315,4812453.841624007
908,[2021-01-29 11:06:43.898] $GPGGA,20642.5,4327.7294962,N,14148.32932415,E,4,6.0,1.4,110.991,M,31.59,M,1.5,0202*4E,43.462158269999996,141.80548873583334,565159.9697619586,4812453.840359737
909,[2021-01-29 11:06:44.007] $GPGGA,20642.6,4327.72949736,N,14148.32932371,E,4,6.0,1.4,111.00299999999999,M,31.59,M,1.6,0202*4E,43.46215828933333,141.80548872850002,565159.9691479633,4812453.842501121
910,[2021-01-29 11:06:44.101] $GPGGA,20642.7,4327.72949975,N,14148.32932122,E,4,6.0,1.4,110.999,M,31.59,M,0.7,0202*49,43.46215832916667,141.805488687,565159.9657480272,4812453.84689246
911,[2021-01-29 11:06:44.195] $GPGGA,20642.8,4327.7294988,N,14148.32931972,E,4,6.0,1.4,110.979,M,31.59,M,0.8,0202*42,43.46215831333333,141.805488662,565159.9637426499,4812453.845114484
912,[2021-01-29 11:06:44.290] $GPGGA,20642.9,4327.72950068,N,14148.32931464,E,4,6.0,1.4,110.994,M,31.59,M,0.9,0202*4D,43.46215834466666,141.80548857733334,565159.9568598674,4812453.848528061
913,[2021-01-29 11:06:44.399] $GPGGA,20643.0,4327.7295008,N,14148.32931884,E,4,6.0,1.4,110.991,M,31.59,M,1.0,0202*4C,43.46215834666667,141.80548864733336,565159.9625203875,4812453.848804941
914,[2021-01-29 11:06:44.493] $GPGGA,20643.1,4327.72949844,N,14148.32931815,E,4,6.0,1.4,110.99,M,31.59,M,1.1,0202*4D,43.462158307333326,141.8054886358333,565159.9616323345,4812453.844427665
915,[2021-01-29 11:06:44.602] $GPGGA,20643.2,4327.72949796,N,14148.32932224,E,4,6.0,1.4,110.98299999999999,M,31.59,M,1.2,0202*44,43.46215829933333,141.805488704,565159.967155288,4812453.843592532
916,[2021-01-29 11:06:44.696] $GPGGA,20643.3,4327.72949901,N,14148.32931923,E,4,6.0,1.4,110.99799999999999,M,31.59,M,1.3,0202*41,43.462158316833325,141.80548865383335,565159.9630782478,4812453.845496797
917,[2021-01-29 11:06:44.805] $GPGGA,20643.4,4327.72950028,N,14148.32931693,E,4,6.0,1.4,110.986,M,31.59,M,1.4,0202*40,43.462158338,141.8054886155,565159.9599545287,4812453.847817535
918,[2021-01-29 11:06:44.899] $GPGGA,20643.5,4327.72949965,N,14148.32931866,E,4,6.0,1.4,110.984,M,31.59,M,1.5,0202*4E,43.462158327500006,141.80548864433334,565159.9622982856,4812453.846673984
919,[2021-01-29 11:06:44.993] $GPGGA,20643.6,4327.72950119,N,14148.32932037,E,4,6.0,1.4,110.98899999999999,M,31.59,M,1.6,0202*47,43.46215835316666,141.80548867283332,565159.9645762314,4812453.849546765
920,[2021-01-29 11:06:45.102] $GPGGA,20643.7,4327.7294907,N,14148.32932501,E,4,6.0,1.4,111.012,M,31.59,M,0.7,0202*4A,43.46215817833333,141.80548875016666,565159.9710199119,4812453.830190644
921,[2021-01-29 11:06:45.196] $GPGGA,20643.8,4327.72949087,N,14148.32932426,E,4,6.0,1.4,111.014,M,31.59,M,0.8,0202*40,43.46215818116666,141.80548873766665,565159.9700056773,4812453.830495526
922,[2021-01-29 11:06:45.291] $GPGGA,20643.9,4327.72948938,N,14148.32932493,E,4,6.0,1.4,111.01100000000001,M,31.59,M,0.9,0202*47,43.46215815633333,141.80548874883334,565159.9709356802,4812453.827746324
923,[2021-01-29 11:06:45.401] $GPGGA,20644.0,4327.72948947,N,14148.32932459,E,4,6.0,1.4,111.02,M,31.59,M,1.0,0202*4D,43.46215815783333,141.80548874316668,565159.9704756638,4812453.827908478
924,[2021-01-29 11:06:45.494] $GPGGA,20644.1,4327.72949284,N,14148.32932699,E,4,6.0,1.4,111.024,M,31.59,M,1.1,0202*42,43.46215821399999,141.80548878316668,565159.973651148,4812453.834177525
925,[2021-01-29 11:06:45.604] $GPGGA,20644.2,4327.72948936,N,14148.32932668,E,4,6.0,1.4,111.01299999999999,M,31.59,M,1.2,0202*4B,43.462158156,141.80548877799998,565159.9732954818,4812453.827732124
926,[2021-01-29 11:06:45.697] $GPGGA,20644.3,4327.72948871,N,14148.32932696,E,4,6.0,1.4,111.009,M,31.59,M,1.3,0202*43,43.46215814516666,141.80548878266669,565159.9736846302,4812453.826532647
927,[2021-01-29 11:06:45.807] $GPGGA,20644.4,4327.72949044,N,14148.32932511,E,4,6.0,1.4,111.024,M,31.59,M,1.4,0202*4F,43.46215817399999,141.80548875183334,565159.9711593911,4812453.829710695
928,[2021-01-29 11:06:45.900] $GPGGA,20644.5,4327.72949163,N,14148.32932402,E,4,6.0,1.4,111.0,M,31.59,M,1.5,0202*4E,43.46215819383333,141.80548873366666,565159.9696684922,4812453.831899133
929,[2021-01-29 11:06:45.994] $GPGGA,20644.6,4327.72948725,N,14148.32932613,E,4,6.0,1.4,111.023,M,31.59,M,1.6,0202*48,43.46215812083332,141.80548876883333,565159.9725917131,4812453.823819417
930,[2021-01-29 11:06:46.088] $GNGGA,20644.7,4327.72949849,N,14148.32932022,E,4,7.0,1.3,110.96,M,31.59,M,0.7,0202*5E,43.46215830816667,141.80548867033335,565159.9644223283,4812453.844547205
931,[2021-01-29 11:06:46.197] $GNGGA,20644.8,4327.72949781,N,14148.32931686,E,4,7.0,1.3,110.941,M,31.59,M,0.8,0202*5D,43.46215829683334,141.80548861433334,565159.9599043671,4812453.843244737
932,[2021-01-29 11:06:46.292] $GNGGA,20644.9,4327.72949934,N,14148.32931692,E,4,7.0,1.3,110.961,M,31.59,M,0.9,0202*5A,43.46215832233333,141.80548861533336,565159.9599578754,4812453.846077496
933,[2021-01-29 11:06:46.402] $GNGGA,20645.0,4327.72950067,N,14148.32931763,E,4,7.0,1.3,110.941,M,31.59,M,1.0,0202*50,43.46215834449999,141.80548862716662,565159.9608913223,4812453.848548536
934,[2021-01-29 11:06:46.496] $GNGGA,20645.1,4327.72950106,N,14148.32931491,E,4,7.0,1.3,110.93700000000001,M,31.59,M,1.1,0202*59,43.462158351,141.80548858183334,565159.9572170938,4812453.849234948
935,[2021-01-29 11:06:46.605] $GNGGA,20645.2,4327.72949903,N,14148.32931601,E,4,7.0,1.3,110.95100000000001,M,31.59,M,1.2,0202*57,43.46215831716667,141.80548860016668,565159.9587365115,4812453.845491832
936,[2021-01-29 11:06:46.699] $GNGGA,20645.3,4327.72949924,N,14148.32931612,E,4,7.0,1.3,110.943,M,31.59,M,1.3,0202*53,43.46215832066667,141.80548860200003,565159.9588810615,4812453.84588197
937,[2021-01-29 11:06:46.792] $GNGGA,20645.4,4327.72950074,N,14148.32931865,E,4,7.0,1.3,110.941,M,31.59,M,1.4,0202*5B,43.462158345666666,141.80548864416664,565159.9622652895,4812453.848691405
938,[2021-01-29 11:06:46.902] $GNGGA,20645.5,4327.72950075,N,14148.3293135,E,4,7.0,1.3,110.94,M,31.59,M,1.5,0202*56,43.46215834583332,141.80548855833334,565159.9553216049,4812453.848642762
939,[2021-01-29 11:06:46.995] $GNGGA,20645.6,4327.72950092,N,14148.3293192,E,4,7.0,1.3,110.94,M,31.59,M,1.6,0202*52,43.46215834866666,141.80548865333333,565159.9630036089,4812453.84903175
940,[2021-01-29 11:06:47.089] $GNGGA,20645.7,4327.72950069,N,14148.32931665,E,4,7.0,1.3,110.94,M,31.59,M,1.7,0202*58,43.46215834483334,141.80548861083335,565159.9595696785,4812453.8485727785
941,[2021-01-29 11:06:47.199] $GNGGA,20645.8,4327.72950067,N,14148.3293147,E,4,7.0,1.3,110.93799999999999,M,31.59,M,1.8,0202*5F,43.46215834449999,141.80548857833335,565159.956940943,4812453.8485103315
942,[2021-01-29 11:06:47.294] $GPGGA,20645.9,4327.72949703,N,14148.32931916,E,4,6.0,1.4,110.985,M,31.59,M,0.9,0202*40,43.46215828383333,141.8054886526667,565159.9630193149,4812453.8418309735
943,[2021-01-29 11:06:47.403] $GPGGA,20646.0,4327.7294954,N,14148.32931832,E,4,6.0,1.4,110.99,M,31.59,M,1.0,0202*44,43.46215825666666,141.80548863866667,565159.9619159588,4812453.838802948
944,[2021-01-29 11:06:47.497] $GPGGA,20646.1,4327.72949664,N,14148.32932051,E,4,6.0,1.4,110.98299999999999,M,31.59,M,1.1,0202*4D,43.462158277333344,141.80548867516669,565159.9648464377,4812453.841126702
945,[2021-01-29 11:06:47.606] $GPGGA,20646.2,4327.72949655,N,14148.32931758,E,4,6.0,1.4,110.98,M,31.59,M,1.2,0202*41,43.46215827583333,141.80548862633336,565159.9608976654,4812453.840921909
946,[2021-01-29 11:06:47.700] $GPGGA,20646.3,4327.72949881,N,14148.32931571,E,4,6.0,1.4,110.977,M,31.59,M,1.3,0202*47,43.462158313500005,141.80548859516668,565159.9583359747,4812453.845080709
947,[2021-01-29 11:06:47.794] $GPGGA,20646.4,4327.72949483,N,14148.32931714,E,4,6.0,1.4,110.98899999999999,M,31.59,M,1.4,0202*49,43.46215824716666,141.805488619,565159.9603352203,4812453.837732511
948,[2021-01-29 11:06:47.887] $GPGGA,20646.5,4327.72949641,N,14148.32932119,E,4,6.0,1.4,110.98,M,31.59,M,1.5,0202*44,43.4621582735,141.80548868649998,565159.9657673656,4812453.840709846
949,[2021-01-29 11:06:47.997] $GPGGA,20646.6,4327.72949593,N,14148.3293166,E,4,6.0,1.4,110.98,M,31.59,M,1.6,0202*42,43.4621582655,141.80548861000003,565159.9595874761,4812453.839761534
950,[2021-01-29 11:06:48.091] $GPGGA,20646.7,4327.72949822,N,14148.32931686,E,4,6.0,1.4,110.976,M,31.59,M,1.7,0202*44,43.462158303666676,141.80548861433334,565159.9598970277,4812453.8440036345
951,[2021-01-29 11:06:48.200] $GPGGA,20646.8,4327.72949828,N,14148.32932058,E,4,6.0,1.4,110.975,M,31.59,M,1.8,0202*4B,43.462158304666666,141.80548867633334,565159.964911459,4812453.844163196
952,[2021-01-29 11:06:48.294] $GNGGA,20646.9,4327.72950033,N,14148.32931837,E,4,7.0,1.3,110.98299999999999,M,31.59,M,0.9,0202*53,43.462158338833326,141.8054886395,565159.9618951201,4812453.847928857
953,[2021-01-29 11:06:48.396] $GNGGA,20647.0,4327.72949887,N,14148.32932,E,4,7.0,1.3,110.98100000000001,M,31.59,M,1.0,0202*51,43.46215831449999,141.8054886666667,565159.9641189097,4812453.845247702
954,[2021-01-29 11:06:48.490] $GNGGA,20647.1,4327.72950102,N,14148.32931855,E,4,7.0,1.3,110.97399999999999,M,31.59,M,1.1,0202*5C,43.46215835033332,141.8054886425,565159.9621254522,4812453.849208369
955,[2021-01-29 11:06:48.599] $GNGGA,20647.2,4327.72949972,N,14148.32931931,E,4,7.0,1.3,110.973,M,31.59,M,1.2,0202*5F,43.46215832866666,141.80548865516667,565159.963173397,4812453.846812026
956,[2021-01-29 11:06:48.693] $GNGGA,20647.3,4327.72949994,N,14148.32932307,E,4,7.0,1.3,110.978,M,31.59,M,1.3,0202*50,43.46215833233333,141.80548871783336,565159.9682388967,4812453.847268266
957,[2021-01-29 11:06:48.802] $GNGGA,20647.4,4327.72949784,N,14148.32932409,E,4,7.0,1.3,110.98200000000001,M,31.59,M,1.4,0202*53,43.462158297333325,141.80548873483332,565159.9696517045,4812453.843394537
958,[2021-01-29 11:06:48.896] $GNGGA,20647.5,4327.72949884,N,14148.32931894,E,4,7.0,1.3,110.98,M,31.59,M,1.5,0202*55,43.462158314,141.805488649,565159.9626902981,4812453.845178354
959,[2021-01-29 11:06:49.005] $GNGGA,20647.6,4327.72949865,N,14148.32931697,E,4,7.0,1.3,110.986,M,31.59,M,1.6,0202*51,43.46215831083334,141.80548861616668,565159.9600376375,4812453.844800984
960,[2021-01-29 11:06:49.099] $GNGGA,20647.7,4327.72949924,N,14148.32931888,E,4,7.0,1.3,110.973,M,31.59,M,1.7,0202*5F,43.46215832066667,141.805488648,565159.9626022412,4812453.845917956
961,[2021-01-29 11:06:49.193] $GPGGA,20647.8,4327.72950149,N,14148.32931862,E,4,6.0,1.4,110.944,M,31.59,M,0.8,0202*4D,43.46215835816666,141.80548864366668,565159.9622114197,4812453.850079237
962,[2021-01-29 11:06:49.302] $GPGGA,20647.9,4327.72949909,N,14148.32931853,E,4,6.0,1.4,110.95200000000001,M,31.59,M,0.9,0202*4C,43.46215831816667,141.80548864216667,565159.9621330367,4812453.845635749
963,[2021-01-29 11:06:49.396] $GPGGA,20648.0,4327.72950041,N,14148.32932038,E,4,6.0,1.4,110.93700000000001,M,31.59,M,1.0,0202*4A,43.46215834016666,141.805488673,565159.9646036782,4812453.848103144
964,[2021-01-29 11:06:49.490] $GPGGA,20648.1,4327.72949876,N,14148.32931862,E,4,6.0,1.4,110.945,M,31.59,M,1.1,0202*4F,43.462158312666666,141.80548864366668,565159.962260289,4812453.845026103
965,[2021-01-29 11:06:49.599] $GPGGA,20648.2,4327.72950359,N,14148.32932017,E,4,6.0,1.4,110.939,M,31.59,M,1.2,0202*43,43.46215839316666,141.80548866950002,565159.9642636215,4812453.853986476
966,[2021-01-29 11:06:49.693] $GPGGA,20648.3,4327.72949858,N,14148.32932052,E,4,6.0,1.4,110.954,M,31.59,M,1.3,0202*4B,43.46215830966666,141.80548867533332,565159.9648251901,4812453.844717703
967,[2021-01-29 11:06:49.802] $GPGGA,20648.4,4327.72949665,N,14148.32931918,E,4,6.0,1.4,110.947,M,31.59,M,1.4,0202*4D,43.4621582775,141.80548865300003,565159.9630530814,4812453.841127869
968,[2021-01-29 11:06:49.896] $GPGGA,20648.5,4327.72949875,N,14148.32932106,E,4,6.0,1.4,110.95,M,31.59,M,1.5,0202*40,43.4621583125,141.80548868433334,565159.9655502065,4812453.845039408
969,[2021-01-29 11:06:50.005] $GPGGA,20648.6,4327.72950066,N,14148.3293202,E,4,6.0,1.4,110.95100000000001,M,31.59,M,1.6,0202*46,43.46215834433333,141.80548867,565159.9643565151,4812453.848563539
970,[2021-01-29 11:06:50.099] $GPGGA,20648.7,4327.72949689,N,14148.32932022,E,4,6.0,1.4,110.962,M,31.59,M,1.7,0202*4B,43.46215828149999,141.80548867033335,565159.9644509696,4812453.84158566
971,[2021-01-29 11:06:50.193] $GPGGA,20648.8,4327.72949966,N,14148.32932357,E,4,6.0,1.4,110.939,M,31.59,M,1.8,0202*4A,43.46215832766668,141.80548872616666,565159.9689180339,4812453.846756516
972,[2021-01-29 11:06:50.297] $GPGGA,20648.9,4327.72949813,N,14148.32932065,E,4,6.0,1.4,110.95100000000001,M,31.59,M,1.9,0202*45,43.46215830216667,141.80548867750002,565159.9650085228,4812453.843886465
973,[2021-01-29 11:06:50.407] $GPGGA,20649.0,4327.72949931,N,14148.3293194,E,4,6.0,1.4,110.946,M,31.59,M,2.0,0202*4D,43.46215832183334,141.80548865666665,565159.9633020792,4812453.846054305
974,[2021-01-29 11:06:50.501] $GPGGA,20649.1,4327.72949938,N,14148.32932034,E,4,6.0,1.4,110.95,M,31.59,M,2.1,0202*4A,43.462158323,141.80548867233333,565159.9645681856,4812453.846196128
975,[2021-01-29 11:06:50.594] $GPGGA,20649.2,4327.72949884,N,14148.32932202,E,4,6.0,1.4,110.946,M,31.59,M,2.2,0202*4C,43.462158314,141.8054887003333,565159.9668429169,4812453.845218513
976,[2021-01-29 11:06:50.688] $GPGGA,20649.3,4327.72949888,N,14148.32931919,E,4,6.0,1.4,110.94200000000001,M,31.59,M,2.3,0202*46,43.46215831466667,141.80548865316666,565159.9630266426,4812453.845255651
977,[2021-01-29 11:06:50.797] $GPGGA,20649.4,4327.72949877,N,14148.32932079,E,4,6.0,1.4,110.958,M,31.59,M,2.4,0202*41,43.462158312833324,141.80548867983333,565159.9651858197,4812453.845072906
978,[2021-01-29 11:06:50.891] $GPGGA,20649.5,4327.7294992,N,14148.32931988,E,4,6.0,1.4,110.941,M,31.59,M,2.5,0202*4E,43.46215831999999,141.80548866466665,565159.9639512092,4812453.845856956
979,[2021-01-29 11:06:51.001] $GPGGA,20649.6,4327.72949803,N,14148.32932088,E,4,6.0,1.4,110.95,M,31.59,M,2.6,0202*44,43.46215830050001,141.80548868133334,565159.9653204093,4812453.843704367
980,[2021-01-29 11:06:51.094] $GPGGA,20649.7,4327.72950026,N,14148.32932022,E,4,6.0,1.4,110.944,M,31.59,M,2.7,0202*46,43.46215833766668,141.80548867033335,565159.9643906438,4812453.847823414
981,[2021-01-29 11:06:51.204] $GPGGA,20649.8,4327.72949997,N,14148.32931953,E,4,6.0,1.4,110.94200000000001,M,31.59,M,2.8,0202*47,43.462158332833326,141.80548865883335,565159.9634655401,4812453.847277636
982,[2021-01-29 11:06:51.299] $GPGGA,20649.9,4327.72949863,N,14148.32931667,E,4,6.0,1.4,110.95,M,31.59,M,2.9,0202*46,43.46215831050001,141.80548861116668,565159.9596335205,4812453.844760052
983,[2021-01-29 11:06:51.409] $GPGGA,20650.0,4327.72949858,N,14148.32932097,E,4,6.0,1.4,110.935,M,31.59,M,3.0,0202*4E,43.46215830966666,141.80548868283336,565159.9654319087,4812453.84472357
984,[2021-01-29 11:06:51.503] $GPGGA,20650.1,4327.72949887,N,14148.32931915,E,4,6.0,1.4,110.93799999999999,M,31.59,M,3.1,0202*41,43.46215831449999,141.8054886525,565159.9629728931,4812453.845236619
985,[2021-01-29 11:06:51.596] $GPGGA,20650.2,4327.72950026,N,14148.32932026,E,4,6.0,1.4,110.961,M,31.59,M,3.2,0202*4C,43.46215833766668,141.805488671,565159.9644445721,4812453.8478239365
986,[2021-01-29 11:06:51.690] $GPGGA,20650.3,4327.72949924,N,14148.32931974,E,4,6.0,1.4,110.946,M,31.59,M,3.3,0202*47,43.46215832066667,141.80548866233335,565159.9637617398,4812453.84592917
987,[2021-01-29 11:06:51.799] $GPGGA,20650.4,4327.72950084,N,14148.32932129,E,4,6.0,1.4,110.934,M,31.59,M,3.4,0202*4A,43.46215834733333,141.8054886881667,565159.965822894,4812453.848910925
988,[2021-01-29 11:06:51.893] $GPGGA,20650.5,4327.72949912,N,14148.32932132,E,4,6.0,1.4,110.947,M,31.59,M,3.5,0202*4A,43.46215831866666,141.80548868866666,565159.9658941277,4812453.845727655
989,[2021-01-29 11:06:52.003] $GPGGA,20650.6,4327.72949976,N,14148.3293192,E,4,6.0,1.4,110.93700000000001,M,31.59,M,3.6,0202*47,43.462158329333334,141.80548865333333,565159.9630243739,4812453.846884632
990,[2021-01-29 11:06:52.096] $GNGGA,20650.7,4327.72949613,N,14148.329313,E,4,7.0,1.3,110.96799999999999,M,31.59,M,2.7,0202*50,43.462158268833335,141.80548854999998,565159.9547301778,4812453.840084785
991,[2021-01-29 11:06:52.206] $GNGGA,20650.8,4327.72949401,N,14148.32931778,E,4,7.0,1.3,110.97399999999999,M,31.59,M,2.8,0202*57,43.4621582335,141.80548862966666,565159.9612127815,4812453.836223065
992,[2021-01-29 11:06:52.285] $GNGGA,20650.9,4327.72949852,N,14148.32931617,E,4,7.0,1.3,110.963,M,31.59,M,2.9,0202*53,43.46215830866666,141.80548860283335,565159.9589613626,4812453.844549924
993,[2021-01-29 11:06:52.410] $GPGGA,20651.0,4327.72949371,N,14148.3293154,E,4,6.0,1.4,110.99700000000001,M,31.59,M,1.0,0202*49,43.462158228499995,141.80548858999998,565159.9580093079,4812453.835636743
994,[2021-01-29 11:06:52.488] $GPGGA,20651.1,4327.72949258,N,14148.32931835,E,4,6.0,1.4,111.00399999999999,M,31.59,M,1.1,0202*4E,43.46215820966667,141.80548863916667,565159.9620068854,4812453.833583618
995,[2021-01-29 11:06:52.598] $GPGGA,20651.2,4327.72949204,N,14148.32931448,E,4,6.0,1.4,111.008,M,31.59,M,1.2,0202*4D,43.46215820066667,141.80548857466667,565159.956798809,4812453.832533636
996,[2021-01-29 11:06:52.691] $GPGGA,20651.3,4327.72949306,N,14148.32931853,E,4,6.0,1.4,110.99700000000001,M,31.59,M,1.3,0202*46,43.46215821766667,141.80548864216667,565159.9622409788,4812453.834474428
997,[2021-01-29 11:06:52.801] $GPGGA,20651.4,4327.72949151,N,14148.32931911,E,4,6.0,1.4,111.007,M,31.59,M,1.4,0202*40,43.46215819183333,141.80548865183331,565159.963050711,4812453.831612994
998,[2021-01-29 11:06:52.895] $GPGGA,20651.5,4327.72949437,N,14148.32931577,E,4,6.0,1.4,110.979,M,31.59,M,1.5,0202*48,43.4621582395,141.8054885961667,565159.9584963511,4812453.836863203
999,[2021-01-29 11:06:53.004] $GPGGA,20651.6,4327.7294932,N,14148.3293167,E,4,6.0,1.4,110.99700000000001,M,31.59,M,1.6,0202*4D,43.462158220000006,141.80548861166668,565159.9597711684,4812453.834709702
1000,[2021-01-29 11:06:53.098] $GPGGA,20651.7,4327.72949136,N,14148.32931954,E,4,6.0,1.4,111.001,M,31.59,M,1.7,0202*46,43.46215818933334,141.805488659,565159.9636331464,4812453.831340957
1001,[2021-01-29 11:06:53.207] $GPGGA,20651.8,4327.72950317,N,14148.32932033,E,4,6.0,1.4,110.984,M,31.59,M,0.8,0202*40,43.46215838616666,141.8054886721667,565159.9644868615,4812453.853211155
6385,[2021-01-29 11:15:58.799] $GPGGA,21557.4,4327.72949319,N,14148.32932908,E,4,6.0,1.5,110.988,M,31.59,M,1.4,0208*45,43.46215821983333,141.805488818,565159.9764627316,4812453.834852615
6386,[2021-01-29 11:15:58.893] $GPGGA,21557.5,4327.7294935,N,14148.32932376,E,4,6.0,1.5,110.999,M,31.59,M,1.5,0208*4B,43.462158225,141.8054887293333,565159.9692844689,4812453.835357048
6387,[2021-01-29 11:15:59.002] $GPGGA,21557.6,4327.72949535,N,14148.32932851,E,4,6.0,1.5,110.98299999999999,M,31.59,M,1.6,0208*4B,43.46215825583334,141.80548880850003,565159.9756555642,4812453.838843269
6388,[2021-01-29 11:15:59.096] $GPGGA,21557.7,4327.72949093,N,14148.32933144,E,4,6.0,1.5,110.99600000000001,M,31.59,M,1.7,0208*4A,43.46215818216666,141.8054888573333,565159.9796850652,4812453.830700205
6389,[2021-01-29 11:15:59.205] $GPGGA,21557.8,4327.72949564,N,14148.32932815,E,4,6.0,1.5,110.98700000000001,M,31.59,M,1.8,0208*4B,43.46215826066666,141.80548880249998,565159.9751649973,4812453.8393753525
6390,[2021-01-29 11:15:59.299] $GPGGA,21557.9,4327.72949505,N,14148.3293252,E,4,6.0,1.5,111.00399999999999,M,31.59,M,1.9,0208*44,43.46215825083333,141.80548875333335,565159.9711982132,4812453.838244819
6391,[2021-01-29 11:15:59.409] $GPGGA,21558.0,4327.72949208,N,14148.32932771,E,4,6.0,1.5,110.98899999999999,M,31.59,M,2.0,0208*49,43.46215820133334,141.80548879516664,565159.9746354918,4812453.832780181
6392,[2021-01-29 11:15:59.503] $GPGGA,21558.1,4327.72949273,N,14148.32931948,E,4,6.0,1.5,110.986,M,31.59,M,1.1,0208*4E,43.46215821216666,141.80548865800003,565159.9635277297,4812453.833875996
6393,[2021-01-29 11:15:59.596] $GPGGA,21558.2,4327.72949428,N,14148.32931792,E,4,6.0,1.5,110.97,M,31.59,M,1.2,0208*46,43.462158237999994,141.80548863200002,565159.9613967078,4812453.83672465
6394,[2021-01-29 11:15:59.690] $GPGGA,21558.3,4327.72949101,N,14148.32931997,E,4,6.0,1.5,110.985,M,31.59,M,1.3,0208*49,43.462158183499994,141.80548866616667,565159.964219162,4812453.830698724
6395,[2021-01-29 11:15:59.799] $GPGGA,21558.4,4327.72949493,N,14148.32931676,E,4,6.0,1.5,110.98899999999999,M,31.59,M,1.4,0208*4B,43.46215824883333,141.8054886126667,565159.9598210965,4812453.837912654
6396,[2021-01-29 11:15:59.893] $GPGGA,21558.5,4327.72948929,N,14148.32932057,E,4,6.0,1.5,110.993,M,31.59,M,1.5,0208*4B,43.46215815483334,141.80548867616665,565159.9650589015,4812453.82752289
6397,[2021-01-29 11:16:00.002] $GPGGA,21558.6,4327.72949179,N,14148.32932003,E,4,6.0,1.5,110.988,M,31.59,M,1.6,0208*4C,43.4621581965,141.80548866716663,565159.964286092,4812453.83214326
6398,[2021-01-29 11:16:00.096] $GPGGA,21558.7,4327.72949115,N,14148.32931972,E,4,6.0,1.5,110.986,M,31.59,M,1.7,0208*44,43.46215818583333,141.805488662,565159.9638795914,4812453.8309546
6399,[2021-01-29 11:16:00.206] $GPGGA,21558.8,4327.72948932,N,14148.32932233,E,4,6.0,1.5,110.98700000000001,M,31.59,M,1.8,0208*44,43.46215815533332,141.80548870549998,565159.9674312922,4812453.827601365
6400,[2021-01-29 11:16:00.301] $GPGGA,21558.9,4327.72949513,N,14148.32931798,E,4,6.0,1.5,110.985,M,31.59,M,1.9,0208*4F,43.46215825216667,141.805488633,565159.9614623846,4812453.838298755
6401,[2021-01-29 11:16:00.395] $GPGGA,21559.0,4327.72949189,N,14148.32932289,E,4,6.0,1.5,110.995,M,31.59,M,2.0,0208*4D,43.46215819816666,141.80548871483336,565159.9681403127,4812453.832365649
6402,[2021-01-29 11:16:00.489] $GPGGA,21559.1,4327.72949083,N,14148.32931906,E,4,6.0,1.5,110.98100000000001,M,31.59,M,2.1,0208*4C,43.4621581805,141.805488651,565159.962995471,4812453.830353686
6403,[2021-01-29 11:16:00.598] $GPGGA,21559.2,4327.72948966,N,14148.32932374,E,4,6.0,1.5,110.98100000000001,M,31.59,M,2.2,0208*43,43.462158161,141.80548872900002,565159.9693262482,4812453.828249079
6404,[2021-01-29 11:16:00.692] $GPGGA,21559.3,4327.72949542,N,14148.32932415,E,4,6.0,1.5,110.98299999999999,M,31.59,M,2.3,0208*4A,43.46215825699999,141.80548873583334,565159.9697759213,4812453.838915984
6405,[2021-01-29 11:16:00.801] $GPGGA,21559.4,4327.72949385,N,14148.32932187,E,4,6.0,1.5,110.994,M,31.59,M,2.4,0208*4F,43.46215823083333,141.80548869783334,565159.9667300067,4812453.83598024
6406,[2021-01-29 11:16:00.895] $GPGGA,21559.5,4327.72949063,N,14148.32932059,E,4,6.0,1.5,110.98200000000001,M,31.59,M,2.5,0208*41,43.462158177166664,141.8054886765,565159.9650618826,4812453.830003442
6407,[2021-01-29 11:16:01.004] $GPGGA,21559.6,4327.72949693,N,14148.32932087,E,4,6.0,1.5,110.991,M,31.59,M,2.6,0208*49,43.46215828216667,141.80548868116665,565159.9653266161,4812453.8416681755
6408,[2021-01-29 11:16:01.098] $GPGGA,21559.7,4327.7294978,N,14148.32932487,E,4,6.0,1.5,110.99700000000001,M,31.59,M,1.7,0208*4B,43.462158296666665,141.80548874783332,565159.9707040584,4812453.84333067
6409,[2021-01-29 11:16:01.192] $GPGGA,21559.8,4327.72949841,N,14148.329324,E,4,6.0,1.5,110.994,M,31.59,M,1.8,0208*45,43.462158306833324,141.80548873333333,565159.9695201602,4812453.844448414
6410,[2021-01-29 11:16:01.303] $GPGGA,21559.9,4327.72949325,N,14148.32932585,E,4,6.0,1.5,110.985,M,31.59,M,1.9,0208*40,43.46215822083333,141.80548876416665,565159.9721067972,4812453.834921557
6411,[2021-01-29 11:16:01.397] $GPGGA,21600.0,4327.72949522,N,14148.32932587,E,4,6.0,1.5,110.985,M,31.59,M,2.0,0208*4F,43.46215825366667,141.8054887645,565159.9720984987,4812453.838568219
6412,[2021-01-29 11:16:01.491] $GPGGA,21600.1,4327.7294957,N,14148.32932655,E,4,6.0,1.5,110.991,M,31.59,M,2.1,0208*41,43.46215826166667,141.80548877583334,565159.9730067191,4812453.839465549
6413,[2021-01-29 11:16:01.600] $GPGGA,21600.2,4327.72949557,N,14148.32932374,E,4,6.0,1.5,110.98899999999999,M,31.59,M,2.2,0208*4B,43.4621582595,141.80548872900002,565159.9692204541,4812453.839188285
6414,[2021-01-29 11:16:01.694] $GPGGA,21600.3,4327.72949701,N,14148.32931729,E,4,6.0,1.5,111.007,M,31.59,M,1.3,0208*48,43.4621582835,141.80548862150002,565159.9604984381,4812453.841769571
6415,[2021-01-29 11:16:01.803] $GPGGA,21600.4,4327.72949874,N,14148.32931485,E,4,6.0,1.5,111.01,M,31.59,M,1.4,0208*46,43.46215831233333,141.80548858083333,565159.9571777271,4812453.844939925
6416,[2021-01-29 11:16:01.897] $GPGGA,21600.5,4327.72949565,N,14148.32931857,E,4,6.0,1.5,111.00399999999999,M,31.59,M,1.5,0208*4D,43.462158260833334,141.80548864283335,565159.9622485482,4812453.83926895
6417,[2021-01-29 11:16:01.990] $GPGGA,21600.6,4327.72949419,N,14148.32931985,E,4,6.0,1.5,111.008,M,31.59,M,1.6,0208*45,43.4621582365,141.8054886641667,565159.9640004482,4812453.83658323
6418,[2021-01-29 11:16:02.100] $GPGGA,21600.7,4327.72949781,N,14148.32931513,E,4,6.0,1.5,111.008,M,31.59,M,1.7,0208*44,43.46215829683334,141.80548858550003,565159.9575718878,4812453.84322218
6419,[2021-01-29 11:16:02.194] $GPGGA,21600.8,4327.72949531,N,14148.32932217,E,4,6.0,1.5,110.985,M,31.59,M,0.8,0208*41,43.46215825516666,141.80548870283332,565159.9671083465,4812453.838686561
6420,[2021-01-29 11:16:02.289] $GPGGA,21600.9,4327.7294935,N,14148.32932356,E,4,6.0,1.5,110.99799999999999,M,31.59,M,0.9,0208*48,43.462158225,141.805488726,565159.969014821,4812453.83535444
6421,[2021-01-29 11:16:02.398] $GPGGA,21601.0,4327.72949623,N,14148.32932468,E,4,6.0,1.5,110.984,M,31.59,M,1.0,0208*4E,43.462158270500005,141.80548874466666,565159.9704759949,4812453.840422179
6422,[2021-01-29 11:16:02.492] $GPGGA,21601.1,4327.72949387,N,14148.32932075,E,4,6.0,1.5,110.994,M,31.59,M,1.1,0208*4C,43.46215823116666,141.80548867916667,565159.9652196035,4812453.836002655
6423,[2021-01-29 11:16:02.601] $GPGGA,21601.2,4327.72949242,N,14148.32932393,E,4,6.0,1.5,110.98700000000001,M,31.59,M,1.2,0208*4D,43.46215820699999,141.80548873216665,565159.9695330056,4812453.833360219
6424,[2021-01-29 11:16:02.695] $GPGGA,21601.3,4327.72949519,N,14148.32932472,E,4,6.0,1.5,110.99,M,31.59,M,1.3,0208*4A,43.46215825316667,141.80548874533335,565159.9705485442,4812453.838497696
6425,[2021-01-29 11:16:02.804] $GPGGA,21601.4,4327.72949493,N,14148.32932118,E,4,6.0,1.5,110.98899999999999,M,31.59,M,1.4,0208*48,43.46215824883333,141.80548868633335,565159.9657803789,4812453.837970286
6426,[2021-01-29 11:16:02.898] $GPGGA,21601.5,4327.7294923,N,14148.32932458,E,4,6.0,1.5,110.99,M,31.59,M,1.5,0208*4E,43.462158205,141.80548874299998,565159.9704115202,4812453.833146581
6427,[2021-01-29 11:16:03.007] $GPGGA,21601.6,4327.72949297,N,14148.32932255,E,4,6.0,1.5,110.991,M,31.59,M,1.6,0208*49,43.462158216166664,141.80548870916667,565159.9676625723,4812453.834360258
6428,[2021-01-29 11:16:03.085] $GPGGA,21601.7,4327.72949537,N,14148.32932431,E,4,6.0,1.5,110.98200000000001,M,31.59,M,1.7,0208*42,43.46215825616667,141.8054887385,565159.9699925359,4812453.838825523
6429,[2021-01-29 11:16:03.195] $GPGGA,21601.8,4327.72949222,N,14148.32932359,E,4,6.0,1.5,110.994,M,31.59,M,1.8,0208*4F,43.46215820366667,141.8054887265,565159.9690781804,4812453.832985594
6430,[2021-01-29 11:16:03.290] $GPGGA,21601.9,4327.72949129,N,14148.32932578,E,4,6.0,1.5,110.991,M,31.59,M,1.9,0208*47,43.46215818816666,141.805488763,565159.9720475061,4812453.831292751
6431,[2021-01-29 11:16:03.384] $GPGGA,21602.0,4327.72949207,N,14148.32932428,E,4,6.0,1.5,110.98899999999999,M,31.59,M,2.0,0208*45,43.46215820116666,141.80548873799998,565159.9700111604,4812453.832716946
6432,[2021-01-29 11:16:03.478] $GPGGA,21602.1,4327.72949196,N,14148.32932582,E,4,6.0,1.5,110.993,M,31.59,M,2.1,0208*44,43.462158199333324,141.80548876366663,565159.9720894389,4812453.832533419
6433,[2021-01-29 11:16:03.603] $GPGGA,21602.2,4327.72949348,N,14148.32932186,E,4,6.0,1.5,110.98200000000001,M,31.59,M,2.2,0208*45,43.46215822466667,141.80548869766665,565159.9667231459,4812453.835295253
6434,[2021-01-29 11:16:03.697] $GPGGA,21602.3,4327.72949393,N,14148.32931769,E,4,6.0,1.5,110.991,M,31.59,M,1.3,0208*46,43.462158232166665,141.8054886281667,565159.9610928748,4812453.836073815
6435,[2021-01-29 11:16:03.790] $GPGGA,21602.4,4327.72949319,N,14148.32931713,E,4,6.0,1.5,110.985,M,31.59,M,1.4,0208*4C,43.46215821983333,141.80548861883335,565159.9603510977,4812453.834696798
6436,[2021-01-29 11:16:03.900] $GPGGA,21602.5,4327.72949137,N,14148.32931383,E,4,6.0,1.5,110.999,M,31.59,M,1.5,0208*42,43.462158189499995,141.8054885638333,565159.9559344361,4812453.831285013
6437,[2021-01-29 11:16:03.993] $GPGGA,21602.6,4327.72949471,N,14148.32931662,E,4,6.0,1.5,110.98700000000001,M,31.59,M,1.6,0208*40,43.46215824516666,141.80548861033336,565159.9596362794,4812453.837503615
6438,[2021-01-29 11:16:04.087] $GPGGA,21602.7,4327.72949089,N,14148.32931996,E,4,6.0,1.5,110.99,M,31.59,M,1.7,0208*41,43.46215818150001,141.80548866599997,565159.964207826,4812453.83047648
6439,[2021-01-29 11:16:04.197] $GPGGA,21602.8,4327.72949678,N,14148.32932406,E,4,6.0,1.5,110.99600000000001,M,31.59,M,0.8,0208*49,43.46215827966666,141.80548873433335,565159.9696302353,4812453.841432123
6440,[2021-01-29 11:16:04.292] $GPGGA,21602.9,4327.72949682,N,14148.32932132,E,4,6.0,1.5,110.986,M,31.59,M,0.9,0208*4F,43.46215828033334,141.80548868866666,565159.9659352996,4812453.841470437
6441,[2021-01-29 11:16:04.401] $GPGGA,21603.0,4327.72949734,N,14148.32932099,E,4,6.0,1.5,110.99700000000001,M,31.59,M,1.0,0208*43,43.46215828900001,141.8054886831667,565159.96548107,4812453.842428636
6442,[2021-01-29 11:16:04.495] $GPGGA,21603.1,4327.72949704,N,14148.32932229,E,4,6.0,1.5,110.986,M,31.59,M,1.1,0208*49,43.462158284,141.80548870483332,565159.9672391672,4812453.841890296
6443,[2021-01-29 11:16:04.605] $GPGGA,21603.2,4327.72949707,N,14148.32932171,E,4,6.0,1.5,110.99799999999999,M,31.59,M,1.2,0208*4B,43.462158284500006,141.80548869516667,565159.9664566444,4812453.841938264
6444,[2021-01-29 11:16:04.698] $GPGGA,21603.3,4327.72949407,N,14148.32932439,E,4,6.0,1.5,110.99700000000001,M,31.59,M,1.3,0208*4E,43.4621582345,141.80548873983332,565159.9701236679,4812453.8364203125
6445,[2021-01-29 11:16:04.792] $GPGGA,21603.4,4327.72949578,N,14148.32932283,E,4,6.0,1.5,110.988,M,31.59,M,1.4,0208*4E,43.462158263000006,141.80548871383334,565159.9679897818,4812453.839565122
6446,[2021-01-29 11:16:04.901] $GPGGA,21603.5,4327.72949778,N,14148.32932313,E,4,6.0,1.5,110.99,M,31.59,M,1.5,0208*4D,43.46215829633334,141.80548871883332,565159.968358455,4812453.843270965
6447,[2021-01-29 11:16:04.995] $GPGGA,21603.6,4327.72949577,N,14148.32932238,E,4,6.0,1.5,111.0,M,31.59,M,1.6,0208*49,43.46215826283332,141.8054887063333,565159.9673832442,4812453.839540742
6448,[2021-01-29 11:16:05.089] $GPGGA,21603.7,4327.72949828,N,14148.32932126,E,4,6.0,1.5,110.98899999999999,M,31.59,M,1.7,0208*4B,43.462158304666666,141.80548868766664,565159.9658282677,4812453.844172063
6449,[2021-01-29 11:16:05.198] $GPGGA,21603.8,4327.72949054,N,14148.32932704,E,4,6.0,1.5,111.01,M,31.59,M,0.8,0208*47,43.46215817566667,141.805488784,565159.9737597324,4812453.829920959
6450,[2021-01-29 11:16:05.294] $GPGGA,21603.9,4327.72949241,N,14148.32932442,E,4,6.0,1.5,111.007,M,31.59,M,0.9,0208*46,43.46215820683333,141.80548874033332,565159.9701938295,4812453.8333481
6451,[2021-01-29 11:16:05.403] $GPGGA,21604.0,4327.72949283,N,14148.32932591,E,4,6.0,1.5,111.01,M,31.59,M,1.0,0208*47,43.46215821383333,141.80548876516664,565159.9721952102,4812453.834144934
6452,[2021-01-29 11:16:05.497] $GPGGA,21604.1,4327.72949128,N,14148.32932535,E,4,6.0,1.5,111.027,M,31.59,M,1.1,0208*4F,43.46215818799999,141.80548875583332,565159.9714679349,4812453.831268635
6453,[2021-01-29 11:16:05.606] $GPGGA,21604.2,4327.72949259,N,14148.32932196,E,4,6.0,1.5,111.008,M,31.59,M,1.2,0208*4A,43.462158209833326,141.80548869933332,565159.9668739027,4812453.833649198
6454,[2021-01-29 11:16:05.700] $GPGGA,21604.3,4327.72949295,N,14148.3293266,E,4,6.0,1.5,111.012,M,31.59,M,1.3,0208*4F,43.462158215833334,141.80548877666666,565159.973123359,4812453.834376047
6455,[2021-01-29 11:16:05.794] $GPGGA,21604.4,4327.72949725,N,14148.32932103,E,4,6.0,1.5,110.99700000000001,M,31.59,M,1.4,0208*46,43.4621582875,141.80548868383332,565159.9655366094,4812453.84226257
6456,[2021-01-29 11:16:05.888] $GPGGA,21604.5,4327.7294924,N,14148.32932353,E,4,6.0,1.5,111.008,M,31.59,M,1.5,0208*49,43.46215820666666,141.80548872550003,565159.9689940657,4812453.833317985
6457,[2021-01-29 11:16:05.997] $GPGGA,21604.6,4327.72949025,N,14148.32932683,E,4,6.0,1.5,111.023,M,31.59,M,1.6,0208*49,43.46215817083333,141.8054887805,565159.9734817896,4812453.82938144
6458,[2021-01-29 11:16:06.091] $GPGGA,21604.7,4327.72949185,N,14148.32932498,E,4,6.0,1.5,111.007,M,31.59,M,1.7,0208*4C,43.46215819750001,141.80548874966667,565159.9709588776,4812453.832318863
6459,[2021-01-29 11:16:06.200] $GPGGA,21604.8,4327.72949118,N,14148.32932551,E,4,6.0,1.5,111.01100000000001,M,31.59,M,1.8,0208*4B,43.46215818633333,141.8054887585,565159.9716854445,4812453.831085626
6460,[2021-01-29 11:16:06.294] $GPGGA,21604.9,4327.7294938,N,14148.32932361,E,4,6.0,1.5,110.999,M,31.59,M,1.9,0208*45,43.46215822999999,141.80548872683332,565159.9690768612,4812453.83591038
6461,[2021-01-29 11:16:06.403] $GPGGA,21605.0,4327.72949042,N,14148.32932402,E,4,6.0,1.5,111.009,M,31.59,M,2.0,0208*49,43.462158173666666,141.80548873366666,565159.9696901522,4812453.829659464
6462,[2021-01-29 11:16:06.497] $GPGGA,21605.1,4327.72949109,N,14148.32932423,E,4,6.0,1.5,111.01700000000001,M,31.59,M,2.1,0208*4B,43.46215818483333,141.80548873716666,565159.9699612907,4812453.830902348
6463,[2021-01-29 11:16:06.607] $GPGGA,21605.2,4327.72949324,N,14148.3293245,E,4,6.0,1.5,111.007,M,31.59,M,2.2,0208*43,43.46215822066666,141.80548874166666,565159.9702868327,4812453.834885444
6464,[2021-01-29 11:16:06.700] $GPGGA,21605.3,4327.72948982,N,14148.32932373,E,4,6.0,1.5,111.009,M,31.59,M,1.3,0208*4F,43.462158163666665,141.80548872883335,565159.9693098998,4812453.828545104
6465,[2021-01-29 11:16:06.794] $GPGGA,21605.4,4327.72948914,N,14148.32932116,E,4,6.0,1.5,111.01899999999999,M,31.59,M,1.4,0208*40,43.46215815233333,141.805488686,565159.9658570586,4812453.827252935
6466,[2021-01-29 11:16:06.888] $GPGGA,21605.5,4327.72949071,N,14148.32931843,E,4,6.0,1.5,111.00399999999999,M,31.59,M,1.5,0208*4D,43.46215817850001,141.80548864050002,565159.9621482228,4812453.830123357
6467,[2021-01-29 11:16:06.997] $GPGGA,21605.6,4327.72948911,N,14148.32932287,E,4,6.0,1.5,111.009,M,31.59,M,1.6,0208*4F,43.46215815183333,141.8054887145,565159.9681631108,4812453.827219705
6468,[2021-01-29 11:16:07.091] $GPGGA,21605.7,4327.72948964,N,14148.32932157,E,4,6.0,1.5,110.995,M,31.59,M,1.7,0208*4E,43.46215816066667,141.80548869283334,565159.9664008922,4812453.8281837655
6469,[2021-01-29 11:16:07.200] $GPGGA,21605.8,4327.72948633,N,14148.3293235,E,4,6.0,1.5,111.01100000000001,M,31.59,M,1.8,0208*42,43.4621581055,141.80548872499998,565159.9690622734,4812453.8220822355
6470,[2021-01-29 11:16:07.295] $GPGGA,21605.9,4327.72949017,N,14148.32932796,E,4,6.0,1.5,111.005,M,31.59,M,0.9,0208*49,43.46215816949999,141.80548879933332,565159.975006747,4812453.829248095
6471,[2021-01-29 11:16:07.405] $GPGGA,21606.0,4327.72948976,N,14148.329322,E,4,6.0,1.5,110.994,M,31.59,M,1.0,0208*4E,43.46215816266667,141.8054887,565159.9669784945,4812453.828411487
6472,[2021-01-29 11:16:07.499] $GPGGA,21606.1,4327.7294953,N,14148.3293208,E,4,6.0,1.5,110.97399999999999,M,31.59,M,1.1,0208*45,43.462158255000006,141.80548868,565159.9652614177,4812453.838650188
6473,[2021-01-29 11:16:07.608] $GPGGA,21606.2,4327.72949325,N,14148.32931655,E,4,6.0,1.5,110.97399999999999,M,31.59,M,1.2,0208*4A,43.46215822083333,141.80548860916664,565159.9595680338,4812453.834800294
6474,[2021-01-29 11:16:07.702] $GPGGA,21606.3,4327.72949061,N,14148.3293218,E,4,6.0,1.5,110.99,M,31.59,M,1.3,0208*4F,43.46215817683333,141.80548869666666,565159.9666936267,4812453.8299822
6475,[2021-01-29 11:16:07.795] $GPGGA,21606.4,4327.72949139,N,14148.3293189,E,4,6.0,1.5,110.97399999999999,M,31.59,M,1.4,0208*42,43.462158189833325,141.80548864833332,565159.962769727,4812453.831388139
6476,[2021-01-29 11:16:07.889] $GPGGA,21606.5,4327.72949264,N,14148.3293217,E,4,6.0,1.5,110.98100000000001,M,31.59,M,1.5,0208*47,43.46215821066667,141.80548869499998,565159.966522461,4812453.833738357
6477,[2021-01-29 11:16:07.999] $GPGGA,21606.6,4327.72949237,N,14148.32931794,E,4,6.0,1.5,110.98200000000001,M,31.59,M,1.6,0208*4D,43.46215820616666,141.80548863233332,565159.9614578605,4812453.8331895685
6478,[2021-01-29 11:16:08.092] $GPGGA,21606.7,4327.72949595,N,14148.32931898,E,4,6.0,1.5,110.98100000000001,M,31.59,M,1.7,0208*42,43.46215826583333,141.80548864966667,565159.9627959599,4812453.839829585
6479,[2021-01-29 11:16:08.202] $GPGGA,21606.8,4327.72949051,N,14148.32932141,E,4,6.0,1.5,110.98899999999999,M,31.59,M,1.8,0208*49,43.462158175166664,141.80548869016667,565159.966169599,4812453.829792019
6480,[2021-01-29 11:16:08.298] $GPGGA,21606.9,4327.72949203,N,14148.32932178,E,4,6.0,1.5,110.999,M,31.59,M,0.9,0208*46,43.4621582005,141.80548869633333,565159.9666412413,4812453.832610311
6481,[2021-01-29 11:16:08.408] $GPGGA,21607.0,4327.72949203,N,14148.32932182,E,4,6.0,1.5,111.005,M,31.59,M,1.0,0208*4E,43.4621582005,141.80548869700002,565159.9666951738,4812453.8326108325
6482,[2021-01-29 11:16:08.501] $GPGGA,21607.1,4327.72949335,N,14148.32932196,E,4,6.0,1.5,110.99799999999999,M,31.59,M,1.1,0208*43,43.462158222499994,141.80548869933332,565159.9668602981,4812453.83505593
6483,[2021-01-29 11:16:08.595] $GPGGA,21607.2,4327.72949108,N,14148.32932366,E,4,6.0,1.5,111.007,M,31.59,M,1.2,0208*4C,43.46215818466667,141.80548872766664,565159.969192964,4812453.830876407
6484,[2021-01-29 11:16:08.689] $GPGGA,21607.3,4327.72949102,N,14148.32932377,E,4,6.0,1.5,111.001,M,31.59,M,1.3,0208*40,43.462158183666666,141.80548872949998,565159.9693423471,4812453.830766782
6485,[2021-01-29 11:16:08.798] $GPGGA,21607.4,4327.72948978,N,14148.32932548,E,4,6.0,1.5,111.01299999999999,M,31.59,M,1.4,0208*4D,43.462158163000005,141.805488758,565159.9716700594,4812453.828493884
6486,[2021-01-29 11:16:08.892] $GPGGA,21607.5,4327.7294934,N,14148.32932282,E,4,6.0,1.5,110.994,M,31.59,M,1.5,0208*4B,43.46215822333334,141.80548871366668,565159.9680189036,4812453.835159694
6487,[2021-01-29 11:16:09.001] $GPGGA,21607.6,4327.72949129,N,14148.32932453,E,4,6.0,1.5,111.006,M,31.59,M,1.6,0208*4F,43.46215818816666,141.80548874216666,565159.9703621876,4812453.831276452
6488,[2021-01-29 11:16:09.095] $GPGGA,21607.7,4327.7294891,N,14148.32932501,E,4,6.0,1.5,111.00399999999999,M,31.59,M,1.7,0208*48,43.46215815166667,141.80548875016666,565159.9710485532,4812453.827229099
6489,[2021-01-29 11:16:09.204] $GPGGA,21607.8,4327.72949378,N,14148.32932249,E,4,6.0,1.5,110.99600000000001,M,31.59,M,0.8,0208*44,43.46215822966667,141.80548870816665,565159.967567176,4812453.835858759
6490,[2021-01-29 11:16:09.299] $GPGGA,21607.9,4327.72949712,N,14148.32932471,E,4,6.0,1.5,110.995,M,31.59,M,0.9,0208*42,43.46215828533333,141.80548874516666,565159.9705005115,4812453.842069928
6491,[2021-01-29 11:16:09.393] $GPGGA,21608.0,4327.72949167,N,14148.32932405,E,4,6.0,1.5,110.99600000000001,M,31.59,M,1.0,0208*48,43.4621581945,141.8054887341667,565159.9697082245,4812453.831973561
6492,[2021-01-29 11:16:09.487] $GPGGA,21608.1,4327.72949235,N,14148.32932345,E,4,6.0,1.5,111.006,M,31.59,M,1.1,0208*4E,43.46215820583333,141.80548872416665,565159.9688870979,4812453.833224394
6493,[2021-01-29 11:16:09.596] $GPGGA,21608.2,4327.72949302,N,14148.32932303,E,4,6.0,1.5,110.999,M,31.59,M,1.2,0208*47,43.46215821699999,141.80548871716667,565159.9683088381,4812453.834459064
6494,[2021-01-29 11:16:09.690] $GPGGA,21608.3,4327.72949326,N,14148.32932347,E,4,6.0,1.5,110.999,M,31.59,M,1.3,0208*41,43.462158221,141.8054887245,565159.9688977742,4812453.834909034
6495,[2021-01-29 11:16:09.799] $GPGGA,21608.4,4327.72949418,N,14148.32932429,E,4,6.0,1.5,110.999,M,31.59,M,1.4,0208*44,43.46215823633334,141.80548873816667,565159.9699868737,4812453.836622615
6496,[2021-01-29 11:16:09.893] $GPGGA,21608.5,4327.72949565,N,14148.32932387,E,4,6.0,1.5,110.988,M,31.59,M,1.5,0208*4C,43.462158260833334,141.8054887311667,565159.9693942954,4812453.839338057
6497,[2021-01-29 11:16:10.002] $GPGGA,21608.6,4327.7294906,N,14148.32932545,E,4,6.0,1.5,111.01299999999999,M,31.59,M,1.6,0208*4E,43.462158176666655,141.80548875750003,565159.9716149365,4812453.830011282
6498,[2021-01-29 11:16:10.096] $GPGGA,21608.7,4327.72949571,N,14148.32932652,E,4,6.0,1.5,110.993,M,31.59,M,1.7,0208*4E,43.46215826183334,141.80548877533337,565159.9729660959,4812453.839483668
6499,[2021-01-29 11:16:10.205] $GPGGA,21608.8,4327.7294953,N,14148.32932324,E,4,6.0,1.5,110.988,M,31.59,M,0.8,0208*44,43.462158255000006,141.80548872066666,565159.9685511582,4812453.838682004
6500,[2021-01-29 11:16:10.301] $GPGGA,21608.9,4327.72949442,N,14148.32932529,E,4,6.0,1.5,110.985,M,31.59,M,0.9,0208*46,43.46215824033334,141.80548875483336,565159.9713308336,4812453.8370798845
6501,[2021-01-29 11:16:10.411] $GPGGA,21609.0,4327.72949586,N,14148.3293271,E,4,6.0,1.5,110.98200000000001,M,31.59,M,1.0,0208*40,43.462158264333326,141.80548878500002,565159.9737453966,4812453.839768874
6502,[2021-01-29 11:16:10.489] $GPGGA,21609.1,4327.72949658,N,14148.32932523,E,4,6.0,1.5,110.98299999999999,M,31.59,M,1.1,0208*43,43.46215827633334,141.80548875383334,565159.9712112711,4812453.841077189
6503,[2021-01-29 11:16:10.598] $GPGGA,21609.2,4327.72949833,N,14148.32932237,E,4,6.0,1.5,110.977,M,31.59,M,1.2,0208*49,43.46215830549999,141.80548870616667,565159.9673239379,4812453.844279083
6504,[2021-01-29 11:16:10.692] $GPGGA,21609.3,4327.72949743,N,14148.3293247,E,4,6.0,1.5,110.984,M,31.59,M,1.3,0208*48,43.46215829050001,141.80548874500002,565159.9704814821,4812453.842643598
6505,[2021-01-29 11:16:10.801] $GPGGA,21609.4,4327.72949771,N,14148.32932514,E,4,6.0,1.5,110.979,M,31.59,M,1.4,0208*48,43.46215829516667,141.80548875233333,565159.9710697003,4812453.843167605
6506,[2021-01-29 11:16:10.895] $GPGGA,21609.5,4327.72949834,N,14148.32932454,E,4,6.0,1.5,110.98100000000001,M,31.59,M,1.5,0208*44,43.46215830566666,141.80548874233335,565159.9702494708,4812453.844325888
6507,[2021-01-29 11:16:11.004] $GPGGA,21609.6,4327.72949777,N,14148.32932404,E,4,6.0,1.5,110.969,M,31.59,M,1.6,0208*4F,43.46215829616667,141.805488734,565159.9695855451,4812453.84326432
6508,[2021-01-29 11:16:11.098] $GPGGA,21609.7,4327.72949754,N,14148.32932453,E,4,6.0,1.5,110.979,M,31.59,M,1.7,0208*4D,43.46215829233333,141.80548874216666,565159.9702503072,4812453.842844985
6509,[2021-01-29 11:16:11.208] $GPGGA,21609.8,4327.72949194,N,14148.32932203,E,4,6.0,1.5,111.001,M,31.59,M,0.8,0208*42,43.462158199,141.8054887005,565159.9669799169,4812453.832446983
6510,[2021-01-29 11:16:11.287] $GPGGA,21609.9,4327.72949088,N,14148.32932286,E,4,6.0,1.5,110.99799999999999,M,31.59,M,0.9,0208*4B,43.462158181333336,141.8054887143333,565159.9681179401,4812453.830495782
6511,[2021-01-29 11:16:11.397] $GPGGA,21610.0,4327.72949195,N,14148.32932199,E,4,6.0,1.5,111.00399999999999,M,31.59,M,1.0,0208*4F,43.462158199166666,141.80548869983338,565159.9669258116,4812453.832464972
6512,[2021-01-29 11:16:11.490] $GPGGA,21610.1,4327.72949187,N,14148.3293232,E,4,6.0,1.5,111.006,M,31.59,M,1.1,0208*4E,43.46215819783333,141.80548872,565159.9685586278,4812453.832332672
6513,[2021-01-29 11:16:11.600] $GPGGA,21610.2,4327.72949389,N,14148.32932034,E,4,6.0,1.5,110.992,M,31.59,M,1.2,0208*41,43.46215823150001,141.80548867233333,565159.9646664613,4812453.836034331
6514,[2021-01-29 11:16:11.693] $GPGGA,21610.3,4327.7294895,N,14148.32932284,E,4,6.0,1.5,111.0,M,31.59,M,1.3,0208*44,43.46215815833334,141.80548871399998,565159.9681156791,4812453.82794119
6515,[2021-01-29 11:16:11.803] $GPGGA,21610.4,4327.72949382,N,14148.32931879,E,4,6.0,1.5,110.99700000000001,M,31.59,M,1.4,0208*4D,43.46215823033334,141.80548864649998,565159.9625779188,4812453.8358845515
6516,[2021-01-29 11:16:11.897] $GPGGA,21610.5,4327.72949063,N,14148.32932378,E,4,6.0,1.5,111.008,M,31.59,M,1.5,0208*46,43.462158177166664,141.80548872966668,565159.9693628127,4812453.830045037
6517,[2021-01-29 11:16:12.006] $GPGGA,21610.6,4327.72949337,N,14148.32932117,E,4,6.0,1.5,110.99799999999999,M,31.59,M,1.6,0208*4E,43.46215822283333,141.80548868616668,565159.9657948222,4812453.83508265
6518,[2021-01-29 11:16:12.100] $GPGGA,21610.7,4327.72949109,N,14148.32932338,E,4,6.0,1.5,111.00399999999999,M,31.59,M,1.7,0208*43,43.46215818483333,141.805488723,565159.9688152762,4812453.830891265
6519,[2021-01-29 11:16:12.193] $GPGGA,21610.8,4327.72949015,N,14148.32932332,E,4,6.0,1.5,111.006,M,31.59,M,1.8,0208*47,43.46215816916666,141.80548872200004,565159.9687512105,4812453.829150576
6520,[2021-01-29 11:16:12.288] $GPGGA,21610.9,4327.72949138,N,14148.32932414,E,4,6.0,1.5,111.00200000000001,M,31.59,M,1.9,0208*4E,43.46215818966667,141.8054887356667,565159.9698347606,4812453.831437955
6521,[2021-01-29 11:16:12.398] $GPGGA,21611.0,4327.72949282,N,14148.3293208,E,4,6.0,1.5,111.005,M,31.59,M,2.0,0208*40,43.46215821366667,141.80548868,565159.9653058118,4812453.834059794
6522,[2021-01-29 11:16:12.491] $GPGGA,21611.1,4327.72949107,N,14148.32932187,E,4,6.0,1.5,111.00299999999999,M,31.59,M,2.1,0208*4E,43.4621581845,141.80548869783334,565159.9667797711,4812453.830834557
6523,[2021-01-29 11:16:12.601] $GPGGA,21611.2,4327.72949345,N,14148.32932054,E,4,6.0,1.5,111.01100000000001,M,31.59,M,1.2,0208*45,43.462158224166664,141.80548867566668,565159.9649439898,4812453.8352225125
6524,[2021-01-29 11:16:12.694] $GPGGA,21611.3,4327.72949758,N,14148.3293197,E,4,6.0,1.5,110.999,M,31.59,M,1.3,0208*49,43.462158292999995,141.80548866166666,565159.9637375248,4812453.842856046
6525,[2021-01-29 11:16:12.804] $GPGGA,21611.4,4327.72949526,N,14148.32932239,E,4,6.0,1.5,111.007,M,31.59,M,1.4,0208*48,43.462158254333325,141.8054887065,565159.9674058578,4812453.838596881
6526,[2021-01-29 11:16:12.897] $GPGGA,21611.5,4327.72949397,N,14148.32932248,E,4,6.0,1.5,111.015,M,31.59,M,1.5,0208*41,43.46215823283333,141.805488708,565159.9675502948,4812453.83621031
6527,[2021-01-29 11:16:13.007] $GPGGA,21611.6,4327.72949771,N,14148.32932231,E,4,6.0,1.5,110.99700000000001,M,31.59,M,1.6,0208*41,43.46215829516667,141.8054887051667,565159.967254144,4812453.843130704
6528,[2021-01-29 11:16:13.101] $GPGGA,21611.7,4327.72949432,N,14148.32932112,E,4,6.0,1.5,111.016,M,31.59,M,1.7,0208*46,43.462158238666674,141.80548868533333,565159.9657104018,4812453.836840416
6529,[2021-01-29 11:16:13.194] $GPGGA,21611.8,4327.72949625,N,14148.32931952,E,4,6.0,1.5,110.98899999999999,M,31.59,M,0.8,0208*42,43.462158270833335,141.80548865866666,565159.9635186471,4812453.840391915
6530,[2021-01-29 11:16:13.290] $GPGGA,21611.9,4327.72949283,N,14148.32931992,E,4,6.0,1.5,110.99600000000001,M,31.59,M,0.9,0208*48,43.46215821383333,141.80548866533334,565159.96411917,4812453.83406683
6531,[2021-01-29 11:16:13.384] $GPGGA,21612.0,4327.72949357,N,14148.329321,E,4,6.0,1.5,110.995,M,31.59,M,1.0,0208*41,43.462158226166665,141.80548868333332,565159.9655620361,4812453.835450626
6532,[2021-01-29 11:16:13.493] $GPGGA,21612.1,4327.72949517,N,14148.32931963,E,4,6.0,1.5,110.986,M,31.59,M,1.1,0208*4F,43.46215825283332,141.8054886605,565159.963686287,4812453.838394306
