,Format,Time,Latitude,LatType,Longitude,LonType,Status,Satellite,LevelAccuracy,Altitude(sea),M(sea),Altitude(geoid),M(geoid),DGPS use,checksum,Lat,Lon,UTM_X,UTM_Y
0,[2021-01-29 11:06:33.896] $GPGGA,20632.5,4327.729489,N,14148.32931,E,4,6.0,1.6,110.902,M,31.59,M,2.5,0000*41,43.46215815,141.8054885,565159.9508130486,4812453.826848284
1,[2021-01-29 11:06:34.007] $GPGGA,20632.6,4327.729488,N,14148.329319999999,E,4,6.0,1.6,110.906,M,31.59,M,2.6,0000*44,43.46215813333333,141.80548866666666,565159.9643134899,4812453.825127711
2,[2021-01-29 11:06:34.096] $GPGGA,20632.7,4327.729494,N,14148.32931,E,4,6.0,1.6,110.92299999999999,M,31.59,M,1.7,0000*42,43.46215823333334,141.8054885,565159.9507235443,4812453.8361031115
3,[2021-01-29 11:06:34.190] $GPGGA,20632.8,4327.7294950000005,N,14148.32931,E,4,6.0,1.6,110.921,M,31.59,M,1.8,0000*42,43.46215825000001,141.8054885,565159.9507056435,4812453.837954079
4,[2021-01-29 11:06:34.300] $GPGGA,20632.9,4327.729492,N,14148.32931,E,4,6.0,1.6,110.925,M,31.59,M,1.9,0000*4B,43.462158200000005,141.8054885,565159.9507593461,4812453.8324011825
5,[2021-01-29 11:06:34.409] $GPGGA,20633.0,4327.729494,N,14148.32931,E,4,6.0,1.6,110.928,M,31.59,M,2.0,0000*4D,43.46215823333334,141.8054885,565159.9507235443,4812453.8361031115
6,[2021-01-29 11:06:34.503] $GPGGA,20633.1,4327.7294950000005,N,14148.32931,E,4,6.0,1.6,110.926,M,31.59,M,2.1,0000*40,43.46215825000001,141.8054885,565159.9507056435,4812453.837954079
7,[2021-01-29 11:06:34.612] $GPGGA,20633.2,4327.729492,N,14148.32931,E,4,6.0,1.6,110.921,M,31.59,M,2.2,0000*41,43.462158200000005,141.8054885,565159.9507593461,4812453.8324011825
8,[2021-01-29 11:06:34.690] $GPGGA,20633.3,4327.729494,N,14148.32931,E,4,6.0,1.6,110.92200000000001,M,31.59,M,2.3,0000*4D,43.46215823333334,141.8054885,565159.9507235443,4812453.8361031115
9,[2021-01-29 11:06:34.800] $GPGGA,20633.4,4327.729492,N,14148.329319999999,E,4,6.0,1.6,110.92399999999999,M,31.59,M,2.4,0000*47,43.462158200000005,141.80548866666666,565159.9642418865,4812453.832531573
10,[2021-01-29 11:06:34.893] $GPGGA,20633.5,4327.729494,N,14148.32931,E,4,6.0,1.6,110.921,M,31.59,M,2.5,0000*49,43.46215823333334,141.8054885,565159.9507235443,4812453.8361031115
11,[2021-01-29 11:06:35.003] $GPGGA,20633.6,4327.729493,N,14148.32931,E,4,6.0,1.6,110.92299999999999,M,31.59,M,2.6,0000*44,43.46215821666666,141.8054885,565159.9507414452,4812453.834252145
12,[2021-01-29 11:06:35.096] $GPGGA,20633.7,4327.729494,N,14148.329319999999,E,4,6.0,1.6,110.915,M,31.59,M,2.7,0000*45,43.46215823333334,141.80548866666666,565159.9642060848,4812453.836233503
13,[2021-01-29 11:06:35.206] $GPGGA,20633.8,4327.729491,N,14148.329319999999,E,4,6.0,1.6,110.906,M,31.59,M,1.8,0000*45,43.46215818333334,141.80548866666666,565159.9642597873,4812453.830680607
14,[2021-01-29 11:06:35.294] $GPGGA,20633.9,4327.729492,N,14148.329319999999,E,4,6.0,1.6,110.898,M,31.59,M,1.9,0000*46,43.462158200000005,141.80548866666666,565159.9642418865,4812453.832531573
15,[2021-01-29 11:06:35.403] $GPGGA,20634.0,4327.729492,N,14148.329319999999,E,4,6.0,1.6,110.895,M,31.59,M,2.0,0000*4D,43.462158200000005,141.80548866666666,565159.9642418865,4812453.832531573
16,[2021-01-29 11:06:35.497] $GPGGA,20634.1,4327.729493,N,14148.329319999999,E,4,6.0,1.6,110.897,M,31.59,M,2.1,0000*4B,43.46215821666666,141.80548866666666,565159.9642239857,4812453.834382535
17,[2021-01-29 11:06:35.607] $GPGGA,20634.2,4327.729491,N,14148.329319999999,E,4,6.0,1.6,110.89200000000001,M,31.59,M,2.2,0000*4D,43.46215818333334,141.80548866666666,565159.9642597873,4812453.830680607
18,[2021-01-29 11:06:35.700] $GPGGA,20634.3,4327.729493,N,14148.329319999999,E,4,6.0,1.6,110.904,M,31.59,M,2.3,0000*40,43.46215821666666,141.80548866666666,565159.9642239857,4812453.834382535
19,[2021-01-29 11:06:35.810] $GPGGA,20634.4,4327.729492,N,14148.329319999999,E,4,6.0,1.6,110.88799999999999,M,31.59,M,2.4,0000*44,43.462158200000005,141.80548866666666,565159.9642418865,4812453.832531573
20,[2021-01-29 11:06:35.903] $GPGGA,20634.5,4327.72949,N,14148.329319999999,E,4,6.0,1.6,110.9,M,31.59,M,2.5,0000*4C,43.462158166666654,141.80548866666666,565159.9642776882,4812453.82882964
21,[2021-01-29 11:06:35.997] $GPGGA,20634.6,4327.729492,N,14148.329319999999,E,4,6.0,1.6,110.895,M,31.59,M,2.6,0000*42,43.462158200000005,141.80548866666666,565159.9642418865,4812453.832531573
22,[2021-01-29 11:06:36.106] $GPGGA,20634.7,4327.729493,N,14148.329319999999,E,4,6.0,1.6,110.91,M,31.59,M,1.7,0000*41,43.46215821666666,141.80548866666666,565159.9642239857,4812453.834382535
23,[2021-01-29 11:06:36.200] $GPGGA,20634.8,4327.72949,N,14148.329319999999,E,4,6.0,1.6,110.914,M,31.59,M,1.8,0000*49,43.462158166666654,141.80548866666666,565159.9642776882,4812453.82882964
24,[2021-01-29 11:06:36.292] $GPGGA,20634.9,4327.729493,N,14148.329319999999,E,4,6.0,1.6,110.91,M,31.59,M,1.9,0000*44,43.46215821666666,141.80548866666666,565159.9642239857,4812453.834382535
25,[2021-01-29 11:06:36.401] $GPGGA,20635.0,4327.729492,N,14148.329319999999,E,4,6.0,1.6,110.915,M,31.59,M,2.0,0000*44,43.462158200000005,141.80548866666666,565159.9642418865,4812453.832531573
26,[2021-01-29 11:06:36.495] $GPGGA,20635.1,4327.729493,N,14148.329319999999,E,4,6.0,1.6,110.915,M,31.59,M,2.1,0000*42,43.46215821666666,141.80548866666666,565159.9642239857,4812453.834382535
27,[2021-01-29 11:06:36.604] $GPGGA,20635.2,4327.729492,N,14148.329319999999,E,4,6.0,1.6,110.912,M,31.59,M,2.2,0000*49,43.462158200000005,141.80548866666666,565159.9642418865,4812453.832531573
28,[2021-01-29 11:06:36.698] $GPGGA,20635.3,4327.729491,N,14148.329319999999,E,4,6.0,1.6,110.914,M,31.59,M,2.3,0000*46,43.46215818333334,141.80548866666666,565159.9642597873,4812453.830680607
29,[2021-01-29 11:06:36.807] $GPGGA,20635.4,4327.729492,N,14148.329319999999,E,4,6.0,1.6,110.92399999999999,M,31.59,M,2.4,0000*47,43.462158200000005,141.80548866666666,565159.9642418865,4812453.832531573
30,[2021-01-29 11:06:36.901] $GPGGA,20635.5,4327.729492,N,14148.329319999999,E,4,6.0,1.6,110.911,M,31.59,M,2.5,0000*44,43.462158200000005,141.80548866666666,565159.9642418865,4812453.832531573
31,[2021-01-29 11:06:37.010] $GPGGA,20635.6,4327.729494,N,14148.329319999999,E,4,6.0,1.6,110.915,M,31.59,M,2.6,0000*42,43.46215823333334,141.80548866666666,565159.9642060848,4812453.836233503
32,[2021-01-29 11:06:37.104] $GPGGA,20635.7,4327.729491,N,14148.32931,E,4,6.0,1.6,110.926,M,31.59,M,1.7,0000*45,43.46215818333334,141.8054885,565159.950777247,4812453.830550216
33,[2021-01-29 11:06:37.198] $GPGGA,20635.8,4327.729494,N,14148.32931,E,4,6.0,1.6,110.914,M,31.59,M,1.8,0000*4A,43.46215823333334,141.8054885,565159.9507235443,4812453.8361031115
34,[2021-01-29 11:06:37.295] $GPGGA,20635.9,4327.729492,N,14148.32931,E,4,6.0,1.6,110.925,M,31.59,M,1.9,0000*43,43.462158200000005,141.8054885,565159.9507593461,4812453.8324011825
35,[2021-01-29 11:06:37.404] $GPGGA,20636.0,4327.729494,N,14148.329319999999,E,4,6.0,1.6,110.92299999999999,M,31.59,M,2.0,0000*4C,43.46215823333334,141.80548866666666,565159.9642060848,4812453.836233503
36,[2021-01-29 11:06:37.498] $GPGGA,20636.1,4327.729492,N,14148.32931,E,4,6.0,1.6,110.917,M,31.59,M,2.1,0000*49,43.462158200000005,141.8054885,565159.9507593461,4812453.8324011825
37,[2021-01-29 11:06:37.607] $GPGGA,20636.2,4327.7294950000005,N,14148.32931,E,4,6.0,1.6,110.921,M,31.59,M,2.2,0000*4F,43.46215825000001,141.8054885,565159.9507056435,4812453.837954079
38,[2021-01-29 11:06:37.701] $GPGGA,20636.3,4327.729494,N,14148.329319999999,E,4,6.0,1.6,110.91799999999999,M,31.59,M,2.3,0000*4E,43.46215823333334,141.80548866666666,565159.9642060848,4812453.836233503
39,[2021-01-29 11:06:37.810] $GPGGA,20636.4,4327.7294950000005,N,14148.32931,E,4,6.0,1.6,110.916,M,31.59,M,2.4,0000*4F,43.46215825000001,141.8054885,565159.9507056435,4812453.837954079
40,[2021-01-29 11:06:37.904] $GPGGA,20636.5,4327.729494,N,14148.32931,E,4,6.0,1.6,110.92200000000001,M,31.59,M,2.5,0000*42,43.46215823333334,141.8054885,565159.9507235443,4812453.8361031115
41,[2021-01-29 11:06:37.998] $GPGGA,20636.6,4327.729494,N,14148.329319999999,E,4,6.0,1.6,110.914,M,31.59,M,2.6,0000*40,43.46215823333334,141.80548866666666,565159.9642060848,4812453.836233503
42,[2021-01-29 11:06:38.091] $GPGGA,20636.7,4327.729494,N,14148.32931,E,4,6.0,1.6,110.916,M,31.59,M,1.7,0000*45,43.46215823333334,141.8054885,565159.9507235443,4812453.8361031115
43,[2021-01-29 11:06:38.201] $GPGGA,20636.8,4327.729493,N,14148.32931,E,4,6.0,1.6,110.913,M,31.59,M,1.8,0000*4E,43.46215821666666,141.8054885,565159.9507414452,4812453.834252145
44,[2021-01-29 11:06:38.295] $GPGGA,20636.9,4327.729491,N,14148.329319999999,E,4,6.0,1.6,110.905,M,31.59,M,1.9,0000*49,43.46215818333334,141.80548866666666,565159.9642597873,4812453.830680607
45,[2021-01-29 11:06:38.404] $GPGGA,20637.0,4327.729493,N,14148.32931,E,4,6.0,1.6,110.91,M,31.59,M,2.0,0000*4D,43.46215821666666,141.8054885,565159.9507414452,4812453.834252145
46,[2021-01-29 11:06:38.498] $GPGGA,20637.1,4327.729492,N,14148.32931,E,4,6.0,1.6,110.916,M,31.59,M,2.1,0000*4B,43.462158200000005,141.8054885,565159.9507593461,4812453.8324011825
47,[2021-01-29 11:06:38.607] $GPGGA,20637.2,4327.729491,N,14148.32931,E,4,6.0,1.6,110.90700000000001,M,31.59,M,2.2,0000*46,43.46215818333334,141.8054885,565159.950777247,4812453.830550216
48,[2021-01-29 11:06:38.701] $GPGGA,20637.3,4327.729492,N,14148.32931,E,4,6.0,1.6,110.90899999999999,M,31.59,M,2.3,0000*45,43.462158200000005,141.8054885,565159.9507593461,4812453.8324011825
49,[2021-01-29 11:06:38.810] $GPGGA,20637.4,4327.729491,N,14148.329319999999,E,4,6.0,1.6,110.91,M,31.59,M,2.4,0000*48,43.46215818333334,141.80548866666666,565159.9642597873,4812453.830680607
50,[2021-01-29 11:06:38.904] $GPGGA,20637.5,4327.729491,N,14148.32931,E,4,6.0,1.6,110.90299999999999,M,31.59,M,2.5,0000*4A,43.46215818333334,141.8054885,565159.950777247,4812453.830550216
51,[2021-01-29 11:06:38.998] $GPGGA,20637.6,4327.729492,N,14148.329319999999,E,4,6.0,1.6,110.90899999999999,M,31.59,M,2.6,0000*4B,43.462158200000005,141.80548866666666,565159.9642418865,4812453.832531573
52,[2021-01-29 11:06:39.092] $GPGGA,20637.7,4327.729492,N,14148.329319999999,E,4,6.0,1.6,110.915,M,31.59,M,1.7,0000*45,43.462158200000005,141.80548866666666,565159.9642418865,4812453.832531573
53,[2021-01-29 11:06:39.201] $GPGGA,20637.8,4327.729492,N,14148.32931,E,4,6.0,1.6,110.913,M,31.59,M,1.8,0000*41,43.462158200000005,141.8054885,565159.9507593461,4812453.8324011825
54,[2021-01-29 11:06:39.296] $GPGGA,20637.9,4327.729491,N,14148.329319999999,E,4,6.0,1.6,110.919,M,31.59,M,1.9,0000*4F,43.46215818333334,141.80548866666666,565159.9642597873,4812453.830680607
55,[2021-01-29 11:06:39.406] $GPGGA,20638.0,4327.729491,N,14148.32931,E,4,6.0,1.6,110.91,M,31.59,M,2.0,0000*4A,43.46215818333334,141.8054885,565159.950777247,4812453.830550216
56,[2021-01-29 11:06:39.500] $GPGGA,20638.1,4327.729493,N,14148.32931,E,4,6.0,1.6,110.911,M,31.59,M,2.1,0000*4E,43.46215821666666,141.8054885,565159.9507414452,4812453.834252145
57,[2021-01-29 11:06:39.609] $GPGGA,20638.2,4327.729491,N,14148.329319999999,E,4,6.0,1.6,110.92,M,31.59,M,2.2,0000*4F,43.46215818333334,141.80548866666666,565159.9642597873,4812453.830680607
58,[2021-01-29 11:06:39.703] $GPGGA,20638.3,4327.729492,N,14148.329319999999,E,4,6.0,1.6,110.919,M,31.59,M,2.3,0000*46,43.462158200000005,141.80548866666666,565159.9642418865,4812453.832531573
59,[2021-01-29 11:06:39.796] $GPGGA,20638.4,4327.729491,N,14148.32931,E,4,6.0,1.6,110.91799999999999,M,31.59,M,2.4,0000*44,43.46215818333334,141.8054885,565159.950777247,4812453.830550216
60,[2021-01-29 11:06:39.906] $GPGGA,20638.5,4327.729491,N,14148.329319999999,E,4,6.0,1.6,110.91799999999999,M,31.59,M,2.5,0000*44,43.46215818333334,141.80548866666666,565159.9642597873,4812453.830680607
61,[2021-01-29 11:06:40.000] $GPGGA,20638.6,4327.72949,N,14148.32931,E,4,6.0,1.6,110.914,M,31.59,M,2.6,0000*44,43.462158166666654,141.8054885,565159.9507951478,4812453.82869925
62,[2021-01-29 11:06:40.093] $GPGGA,20638.7,4327.729491,N,14148.329319999999,E,4,6.0,1.6,110.90899999999999,M,31.59,M,1.7,0000*4A,43.46215818333334,141.80548866666666,565159.9642597873,4812453.830680607
63,[2021-01-29 11:06:40.203] $GPGGA,20638.8,4327.729492,N,14148.329319999999,E,4,6.0,1.6,110.90899999999999,M,31.59,M,1.8,0000*4A,43.462158200000005,141.80548866666666,565159.9642418865,4812453.832531573
64,[2021-01-29 11:06:40.298] $GPGGA,20638.9,4327.729489,N,14148.329319999999,E,4,6.0,1.6,110.916,M,31.59,M,1.9,0000*43,43.46215815,141.80548866666666,565159.964295589,4812453.826978676
65,[2021-01-29 11:06:40.408] $GPGGA,20639.0,4327.729492,N,14148.329319999999,E,4,6.0,1.6,110.90899999999999,M,31.59,M,2.0,0000*4E,43.462158200000005,141.80548866666666,565159.9642418865,4812453.832531573
66,[2021-01-29 11:06:40.501] $GPGGA,20639.1,4327.729493,N,14148.329319999999,E,4,6.0,1.6,110.917,M,31.59,M,2.1,0000*47,43.46215821666666,141.80548866666666,565159.9642239857,4812453.834382535
67,[2021-01-29 11:06:40.611] $GPGGA,20639.2,4327.729491,N,14148.329319999999,E,4,6.0,1.6,110.914,M,31.59,M,2.2,0000*4E,43.46215818333334,141.80548866666666,565159.9642597873,4812453.830680607
68,[2021-01-29 11:06:40.704] $GPGGA,20639.3,4327.72949,N,14148.329319999999,E,4,6.0,1.6,110.919,M,31.59,M,2.3,0000*43,43.462158166666654,141.80548866666666,565159.9642776882,4812453.82882964
69,[2021-01-29 11:06:40.798] $GPGGA,20639.4,4327.72949,N,14148.32931,E,4,6.0,1.6,110.90700000000001,M,31.59,M,2.4,0000*44,43.462158166666654,141.8054885,565159.9507951478,4812453.82869925
70,[2021-01-29 11:06:40.892] $GPGGA,20639.5,4327.729493,N,14148.32931,E,4,6.0,1.6,110.92200000000001,M,31.59,M,2.5,0000*4C,43.46215821666666,141.8054885,565159.9507414452,4812453.834252145
71,[2021-01-29 11:06:41.001] $GPGGA,20639.6,4327.729489,N,14148.329319999999,E,4,6.0,1.6,110.915,M,31.59,M,2.6,0000*4F,43.46215815,141.80548866666666,565159.964295589,4812453.826978676
72,[2021-01-29 11:06:41.095] $GPGGA,20639.7,4327.729492,N,14148.32931,E,4,6.0,1.6,110.92299999999999,M,31.59,M,1.7,0000*4E,43.462158200000005,141.8054885,565159.9507593461,4812453.8324011825
73,[2021-01-29 11:06:41.204] $GPGGA,20639.8,4327.729491,N,14148.32931,E,4,6.0,1.6,110.926,M,31.59,M,1.8,0000*4E,43.46215818333334,141.8054885,565159.950777247,4812453.830550216
74,[2021-01-29 11:06:41.300] $GPGGA,20639.9,4327.72949,N,14148.32931,E,4,6.0,1.6,110.916,M,31.59,M,1.9,0000*4F,43.462158166666654,141.8054885,565159.9507951478,4812453.82869925
75,[2021-01-29 11:06:41.409] $GPGGA,20640.0,4327.72949,N,14148.329319999999,E,4,6.0,1.6,110.927,M,31.59,M,2.0,0000*45,43.462158166666654,141.80548866666666,565159.9642776882,4812453.82882964
76,[2021-01-29 11:06:41.503] $GPGGA,20640.1,4327.729491,N,14148.32931,E,4,6.0,1.6,110.92399999999999,M,31.59,M,2.1,0000*42,43.46215818333334,141.8054885,565159.950777247,4812453.830550216
77,[2021-01-29 11:06:41.612] $GPGGA,20640.2,4327.72949,N,14148.329319999999,E,4,6.0,1.6,110.92200000000001,M,31.59,M,2.2,0000*49,43.462158166666654,141.80548866666666,565159.9642776882,4812453.82882964
78,[2021-01-29 11:06:41.706] $GPGGA,20640.3,4327.729491,N,14148.32931,E,4,6.0,1.6,110.92,M,31.59,M,2.3,0000*41,43.46215818333334,141.8054885,565159.950777247,4812453.830550216
79,[2021-01-29 11:06:41.800] $GPGGA,20640.4,4327.729491,N,14148.329319999999,E,4,6.0,1.6,110.927,M,31.59,M,2.4,0000*4C,43.46215818333334,141.80548866666666,565159.9642597873,4812453.830680607
80,[2021-01-29 11:06:41.909] $GPGGA,20640.5,4327.729491,N,14148.329319999999,E,4,6.0,1.6,110.926,M,31.59,M,2.5,0000*45,43.46215818333334,141.80548866666666,565159.9642597873,4812453.830680607
81,[2021-01-29 11:06:42.003] $GPGGA,20640.6,4327.72949,N,14148.32931,E,4,6.0,1.6,110.92,M,31.59,M,2.6,0000*4F,43.462158166666654,141.8054885,565159.9507951478,4812453.82869925
82,[2021-01-29 11:06:42.096] $GPGGA,20640.7,4327.729488,N,14148.32931,E,4,6.0,1.6,110.891,M,31.59,M,1.7,0000*4F,43.46215813333333,141.8054885,565159.9508309495,4812453.824997321
83,[2021-01-29 11:06:42.206] $GPGGA,20640.8,4327.729489,N,14148.32931,E,4,6.0,1.6,110.896,M,31.59,M,1.8,0000*42,43.46215815,141.8054885,565159.9508130486,4812453.826848284
84,[2021-01-29 11:06:42.301] $GPGGA,20640.9,4327.729488,N,14148.329319999999,E,4,6.0,1.6,110.895,M,31.59,M,1.9,0000*4C,43.46215813333333,141.80548866666666,565159.9643134899,4812453.825127711
85,[2021-01-29 11:06:42.411] $GPGGA,20641.0,4327.729489,N,14148.32931,E,4,6.0,1.6,110.891,M,31.59,M,2.0,0000*44,43.46215815,141.8054885,565159.9508130486,4812453.826848284
86,[2021-01-29 11:06:42.505] $GPGGA,20641.1,4327.729488,N,14148.329319999999,E,4,6.0,1.6,110.889,M,31.59,M,2.1,0000*4F,43.46215813333333,141.80548866666666,565159.9643134899,4812453.825127711
87,[2021-01-29 11:06:42.598] $GPGGA,20641.2,4327.729489,N,14148.32931,E,4,6.0,1.6,110.897,M,31.59,M,2.2,0000*4C,43.46215815,141.8054885,565159.9508130486,4812453.826848284
88,[2021-01-29 11:06:42.708] $GPGGA,20641.3,4327.729489,N,14148.329319999999,E,4,6.0,1.6,110.885,M,31.59,M,2.3,0000*40,43.46215815,141.80548866666666,565159.964295589,4812453.826978676
89,[2021-01-29 11:06:42.801] $GPGGA,20641.4,4327.729488,N,14148.32931,E,4,6.0,1.6,110.9,M,31.59,M,2.4,0000*4F,43.46215813333333,141.8054885,565159.9508309495,4812453.824997321
90,[2021-01-29 11:06:42.895] $GPGGA,20641.5,4327.729489,N,14148.329319999999,E,4,6.0,1.6,110.89,M,31.59,M,2.5,0000*47,43.46215815,141.80548866666666,565159.964295589,4812453.826978676
91,[2021-01-29 11:06:43.005] $GPGGA,20641.6,4327.729489,N,14148.32931,E,4,6.0,1.6,110.89,M,31.59,M,2.6,0000*43,43.46215815,141.8054885,565159.9508130486,4812453.826848284
92,[2021-01-29 11:06:43.098] $GPGGA,20641.7,4327.729493,N,14148.329319999999,E,4,6.0,1.6,110.896,M,31.59,M,1.7,0000*43,43.46215821666666,141.80548866666666,565159.9642239857,4812453.834382535
93,[2021-01-29 11:06:43.208] $GPGGA,20641.8,4327.729491,N,14148.329319999999,E,4,6.0,1.6,110.904,M,31.59,M,1.8,0000*41,43.46215818333334,141.80548866666666,565159.9642597873,4812453.830680607
94,[2021-01-29 11:06:43.304] $GPGGA,20641.9,4327.729493,N,14148.32931,E,4,6.0,1.6,110.899,M,31.59,M,1.9,0000*45,43.46215821666666,141.8054885,565159.9507414452,4812453.834252145
95,[2021-01-29 11:06:43.398] $GPGGA,20642.0,4327.729491,N,14148.32931,E,4,6.0,1.6,110.896,M,31.59,M,2.0,0000*40,43.46215818333334,141.8054885,565159.950777247,4812453.830550216
96,[2021-01-29 11:06:43.476] $GPGGA,20642.1,4327.729491,N,14148.329319999999,E,4,6.0,1.6,110.898,M,31.59,M,2.1,0000*49,43.46215818333334,141.80548866666666,565159.9642597873,4812453.830680607
97,[2021-01-29 11:06:43.601] $GPGGA,20642.2,4327.729492,N,14148.329319999999,E,4,6.0,1.6,110.896,M,31.59,M,2.2,0000*4E,43.462158200000005,141.80548866666666,565159.9642418865,4812453.832531573
98,[2021-01-29 11:06:43.695] $GPGGA,20642.3,4327.729492,N,14148.32931,E,4,6.0,1.6,110.897,M,31.59,M,2.3,0000*42,43.462158200000005,141.8054885,565159.9507593461,4812453.8324011825
99,[2021-01-29 11:06:43.804] $GPGGA,20642.4,4327.729492,N,14148.329319999999,E,4,6.0,1.6,110.899,M,31.59,M,2.4,0000*41,43.462158200000005,141.80548866666666,565159.9642418865,4812453.832531573
100,[2021-01-29 11:06:43.898] $GPGGA,20642.5,4327.729492,N,14148.329319999999,E,4,6.0,1.6,110.90299999999999,M,31.59,M,2.5,0000*43,43.462158200000005,141.80548866666666,565159.9642418865,4812453.832531573
101,[2021-01-29 11:06:44.007] $GPGGA,20642.6,4327.729491,N,14148.32931,E,4,6.0,1.6,110.9,M,31.59,M,2.6,0000*47,43.46215818333334,141.8054885,565159.950777247,4812453.830550216
102,[2021-01-29 11:06:44.101] $GPGGA,20642.7,4327.72949,N,14148.329319999999,E,4,6.0,1.6,110.898,M,31.59,M,1.7,0000*4F,43.462158166666654,141.80548866666666,565159.9642776882,4812453.82882964
103,[2021-01-29 11:06:44.210] $GPGGA,20642.8,4327.729488,N,14148.329319999999,E,4,6.0,1.6,110.896,M,31.59,M,1.8,0000*42,43.46215813333333,141.80548866666666,565159.9643134899,4812453.825127711
104,[2021-01-29 11:06:44.290] $GPGGA,20642.9,4327.729489,N,14148.329319999999,E,4,6.0,1.6,110.891,M,31.59,M,1.9,0000*46,43.46215815,141.80548866666666,565159.964295589,4812453.826978676
105,[2021-01-29 11:06:44.415] $GPGGA,20643.0,4327.72949,N,14148.329319999999,E,4,6.0,1.6,110.89299999999999,M,31.59,M,2.0,0000*4E,43.462158166666654,141.80548866666666,565159.9642776882,4812453.82882964
106,[2021-01-29 11:06:44.493] $GPGGA,20643.1,4327.729487,N,14148.329319999999,E,4,6.0,1.6,110.896,M,31.59,M,2.1,0000*43,43.462158116666664,141.80548866666666,565159.9643313907,4812453.823276746
107,[2021-01-29 11:06:44.602] $GPGGA,20643.2,4327.72949,N,14148.329319999999,E,4,6.0,1.6,110.897,M,31.59,M,2.2,0000*4C,43.462158166666654,141.80548866666666,565159.9642776882,4812453.82882964
108,[2021-01-29 11:06:44.696] $GPGGA,20643.3,4327.729489,N,14148.329319999999,E,4,6.0,1.6,110.89299999999999,M,31.59,M,2.3,0000*48,43.46215815,141.80548866666666,565159.964295589,4812453.826978676
109,[2021-01-29 11:06:44.805] $GPGGA,20643.4,4327.72949,N,14148.329319999999,E,4,6.0,1.6,110.89200000000001,M,31.59,M,2.4,0000*4D,43.462158166666654,141.80548866666666,565159.9642776882,4812453.82882964
110,[2021-01-29 11:06:44.899] $GPGGA,20643.5,4327.729488,N,14148.32931,E,4,6.0,1.6,110.89399999999999,M,31.59,M,2.5,0000*41,43.46215813333333,141.8054885,565159.9508309495,4812453.824997321
111,[2021-01-29 11:06:45.008] $GPGGA,20643.6,4327.72949,N,14148.329319999999,E,4,6.0,1.6,110.891,M,31.59,M,2.6,0000*4D,43.462158166666654,141.80548866666666,565159.9642776882,4812453.82882964
112,[2021-01-29 11:06:45.102] $GPGGA,20643.7,4327.729491,N,14148.329319999999,E,4,6.0,1.6,110.89399999999999,M,31.59,M,2.7,0000*47,43.46215818333334,141.80548866666666,565159.9642597873,4812453.830680607
113,[2021-01-29 11:06:45.211] $GPGGA,20643.8,4327.729494,N,14148.329319999999,E,4,6.0,1.6,110.915,M,31.59,M,1.8,0000*40,43.46215823333334,141.80548866666666,565159.9642060848,4812453.836233503
114,[2021-01-29 11:06:45.291] $GPGGA,20643.9,4327.7294950000005,N,14148.329319999999,E,4,6.0,1.6,110.90899999999999,M,31.59,M,1.9,0000*40,43.46215825000001,141.80548866666666,565159.9641881839,4812453.83808447
115,[2021-01-29 11:06:45.401] $GPGGA,20644.0,4327.729491,N,14148.329319999999,E,4,6.0,1.6,110.912,M,31.59,M,2.0,0000*46,43.46215818333334,141.80548866666666,565159.9642597873,4812453.830680607
116,[2021-01-29 11:06:45.494] $GPGGA,20644.1,4327.729494,N,14148.329319999999,E,4,6.0,1.6,110.913,M,31.59,M,2.1,0000*42,43.46215823333334,141.80548866666666,565159.9642060848,4812453.836233503
117,[2021-01-29 11:06:45.604] $GPGGA,20644.2,4327.729492,N,14148.329319999999,E,4,6.0,1.6,110.90799999999999,M,31.59,M,2.2,0000*4F,43.462158200000005,141.80548866666666,565159.9642418865,4812453.832531573
118,[2021-01-29 11:06:45.697] $GPGGA,20644.3,4327.729493,N,14148.329319999999,E,4,6.0,1.6,110.912,M,31.59,M,2.3,0000*41,43.46215821666666,141.80548866666666,565159.9642239857,4812453.834382535
119,[2021-01-29 11:06:45.807] $GPGGA,20644.4,4327.729494,N,14148.329319999999,E,4,6.0,1.6,110.912,M,31.59,M,2.4,0000*4D,43.46215823333334,141.80548866666666,565159.9642060848,4812453.836233503
120,[2021-01-29 11:06:45.900] $GPGGA,20644.5,4327.729491,N,14148.329319999999,E,4,6.0,1.6,110.902,M,31.59,M,2.5,0000*4F,43.46215818333334,141.80548866666666,565159.9642597873,4812453.830680607
121,[2021-01-29 11:06:46.010] $GPGGA,20644.6,4327.729492,N,14148.329319999999,E,4,6.0,1.6,110.91,M,31.59,M,2.6,0000*47,43.462158200000005,141.80548866666666,565159.9642418865,4812453.832531573
122,[2021-01-29 11:06:46.104] $GPGGA,20644.7,4327.729494,N,14148.32931,E,4,6.0,1.6,110.90799999999999,M,31.59,M,1.7,0000*4B,43.46215823333334,141.8054885,565159.9507235443,4812453.8361031115
123,[2021-01-29 11:06:46.213] $GPGGA,20644.8,4327.729493,N,14148.32931,E,4,6.0,1.6,110.90299999999999,M,31.59,M,1.8,0000*42,43.46215821666666,141.8054885,565159.9507414452,4812453.834252145
124,[2021-01-29 11:06:46.292] $GPGGA,20644.9,4327.7294950000005,N,14148.32931,E,4,6.0,1.6,110.90299999999999,M,31.59,M,1.9,0000*44,43.46215825000001,141.8054885,565159.9507056435,4812453.837954079
125,[2021-01-29 11:06:46.402] $GPGGA,20645.0,4327.729494,N,14148.32931,E,4,6.0,1.6,110.911,M,31.59,M,2.0,0000*44,43.46215823333334,141.8054885,565159.9507235443,4812453.8361031115
126,[2021-01-29 11:06:46.496] $GPGGA,20645.1,4327.729496,N,14148.32931,E,4,6.0,1.6,110.902,M,31.59,M,2.1,0000*4C,43.46215826666666,141.8054885,565159.9506877427,4812453.839805042
127,[2021-01-29 11:06:46.605] $GPGGA,20645.2,4327.7294950000005,N,14148.32931,E,4,6.0,1.6,110.90700000000001,M,31.59,M,2.2,0000*48,43.46215825000001,141.8054885,565159.9507056435,4812453.837954079
128,[2021-01-29 11:06:46.699] $GPGGA,20645.3,4327.729494,N,14148.32931,E,4,6.0,1.6,110.911,M,31.59,M,2.3,0000*44,43.46215823333334,141.8054885,565159.9507235443,4812453.8361031115
129,[2021-01-29 11:06:46.808] $GPGGA,20645.4,4327.729494,N,14148.329319999999,E,4,6.0,1.6,110.90100000000001,M,31.59,M,2.4,0000*40,43.46215823333334,141.80548866666666,565159.9642060848,4812453.836233503
130,[2021-01-29 11:06:46.902] $GPGGA,20645.5,4327.7294950000005,N,14148.32931,E,4,6.0,1.6,110.913,M,31.59,M,2.5,0000*41,43.46215825000001,141.8054885,565159.9507056435,4812453.837954079
131,[2021-01-29 11:06:47.011] $GPGGA,20645.6,4327.729494,N,14148.329319999999,E,4,6.0,1.6,110.90299999999999,M,31.59,M,2.6,0000*44,43.46215823333334,141.80548866666666,565159.9642060848,4812453.836233503
132,[2021-01-29 11:06:47.105] $GPGGA,20645.7,4327.729491,N,14148.32931,E,4,6.0,1.6,110.883,M,31.59,M,1.7,0000*4B,43.46215818333334,141.8054885,565159.950777247,4812453.830550216
133,[2021-01-29 11:06:47.199] $GPGGA,20645.8,4327.729491,N,14148.32931,E,4,6.0,1.6,110.896,M,31.59,M,1.8,0000*43,43.46215818333334,141.8054885,565159.950777247,4812453.830550216
134,[2021-01-29 11:06:47.294] $GPGGA,20645.9,4327.72949,N,14148.32931,E,4,6.0,1.6,110.89200000000001,M,31.59,M,1.9,0000*45,43.462158166666654,141.8054885,565159.9507951478,4812453.82869925
135,[2021-01-29 11:06:47.403] $GPGGA,20646.0,4327.729493,N,14148.32931,E,4,6.0,1.6,110.9,M,31.59,M,2.0,0000*4B,43.46215821666666,141.8054885,565159.9507414452,4812453.834252145
136,[2021-01-29 11:06:47.497] $GPGGA,20646.1,4327.7294950000005,N,14148.329319999999,E,4,6.0,1.6,110.885,M,31.59,M,2.1,0000*42,43.46215825000001,141.80548866666666,565159.9641881839,4812453.83808447
137,[2021-01-29 11:06:47.606] $GPGGA,20646.2,4327.729492,N,14148.32931,E,4,6.0,1.6,110.89399999999999,M,31.59,M,2.2,0000*45,43.462158200000005,141.8054885,565159.9507593461,4812453.8324011825
138,[2021-01-29 11:06:47.700] $GPGGA,20646.3,4327.729491,N,14148.32931,E,4,6.0,1.6,110.887,M,31.59,M,2.3,0000*4F,43.46215818333334,141.8054885,565159.950777247,4812453.830550216
139,[2021-01-29 11:06:47.809] $GPGGA,20646.4,4327.729492,N,14148.32931,E,4,6.0,1.6,110.90100000000001,M,31.59,M,2.4,0000*40,43.462158200000005,141.8054885,565159.9507593461,4812453.8324011825
140,[2021-01-29 11:06:47.903] $GPGGA,20646.5,4327.729491,N,14148.32931,E,4,6.0,1.6,110.89399999999999,M,31.59,M,2.5,0000*4B,43.46215818333334,141.8054885,565159.950777247,4812453.830550216
141,[2021-01-29 11:06:48.012] $GPGGA,20646.6,4327.729492,N,14148.32931,E,4,6.0,1.6,110.899,M,31.59,M,2.6,0000*40,43.462158200000005,141.8054885,565159.9507593461,4812453.8324011825
142,[2021-01-29 11:06:48.091] $GPGGA,20646.7,4327.729494,N,14148.32931,E,4,6.0,1.6,110.897,M,31.59,M,1.7,0000*43,43.46215823333334,141.8054885,565159.9507235443,4812453.8361031115
143,[2021-01-29 11:06:48.200] $GPGGA,20646.8,4327.729493,N,14148.32931,E,4,6.0,1.6,110.88799999999999,M,31.59,M,1.8,0000*4C,43.46215821666666,141.8054885,565159.9507414452,4812453.834252145
144,[2021-01-29 11:06:48.294] $GPGGA,20646.9,4327.729496,N,14148.329319999999,E,4,6.0,1.6,110.89200000000001,M,31.59,M,1.9,0000*4E,43.46215826666666,141.80548866666666,565159.964170283,4812453.839935432
145,[2021-01-29 11:06:48.412] $GPGGA,20647.0,4327.729493,N,14148.32931,E,4,6.0,1.6,110.885,M,31.59,M,2.0,0000*4C,43.46215821666666,141.8054885,565159.9507414452,4812453.834252145
146,[2021-01-29 11:06:48.505] $GPGGA,20647.1,4327.729494,N,14148.32931,E,4,6.0,1.6,110.89299999999999,M,31.59,M,2.1,0000*47,43.46215823333334,141.8054885,565159.9507235443,4812453.8361031115
147,[2021-01-29 11:06:48.599] $GPGGA,20647.2,4327.729492,N,14148.32931,E,4,6.0,1.6,110.889,M,31.59,M,2.2,0000*46,43.462158200000005,141.8054885,565159.9507593461,4812453.8324011825
148,[2021-01-29 11:06:48.693] $GPGGA,20647.3,4327.729492,N,14148.32931,E,4,6.0,1.6,110.88799999999999,M,31.59,M,2.3,0000*42,43.462158200000005,141.8054885,565159.9507593461,4812453.8324011825
149,[2021-01-29 11:06:48.802] $GPGGA,20647.4,4327.729492,N,14148.32931,E,4,6.0,1.6,110.89200000000001,M,31.59,M,2.4,0000*4A,43.462158200000005,141.8054885,565159.9507593461,4812453.8324011825
150,[2021-01-29 11:06:48.896] $GPGGA,20647.5,4327.7294950000005,N,14148.32931,E,4,6.0,1.6,110.885,M,31.59,M,2.5,0000*4A,43.46215825000001,141.8054885,565159.9507056435,4812453.837954079
151,[2021-01-29 11:06:49.005] $GPGGA,20647.6,4327.729494,N,14148.32931,E,4,6.0,1.6,110.89299999999999,M,31.59,M,2.6,0000*4C,43.46215823333334,141.8054885,565159.9507235443,4812453.8361031115
152,[2021-01-29 11:06:49.099] $GPGGA,20647.7,4327.729486,N,14148.32931,E,4,6.0,1.6,110.88,M,31.59,M,1.7,0000*43,43.46215810000001,141.8054885,565159.9508667511,4812453.821295391
153,[2021-01-29 11:06:49.208] $GPGGA,20647.8,4327.729487,N,14148.32931,E,4,6.0,1.6,110.88799999999999,M,31.59,M,1.8,0000*45,43.462158116666664,141.8054885,565159.9508488503,4812453.823146354
154,[2021-01-29 11:06:49.302] $GPGGA,20647.9,4327.729487,N,14148.32931,E,4,6.0,1.6,110.884,M,31.59,M,1.9,0000*4B,43.462158116666664,141.8054885,565159.9508488503,4812453.823146354
155,[2021-01-29 11:06:49.411] $GPGGA,20648.0,4327.729487,N,14148.32931,E,4,6.0,1.6,110.883,M,31.59,M,2.0,0000*4D,43.462158116666664,141.8054885,565159.9508488503,4812453.823146354
156,[2021-01-29 11:06:49.505] $GPGGA,20648.1,4327.729486,N,14148.329319999999,E,4,6.0,1.6,110.889,M,31.59,M,2.1,0000*41,43.46215810000001,141.80548866666666,565159.9643492915,4812453.821425782
157,[2021-01-29 11:06:49.599] $GPGGA,20648.2,4327.729488,N,14148.32931,E,4,6.0,1.6,110.884,M,31.59,M,2.2,0000*42,43.46215813333333,141.8054885,565159.9508309495,4812453.824997321
158,[2021-01-29 11:06:49.693] $GPGGA,20648.3,4327.729486,N,14148.32931,E,4,6.0,1.6,110.884,M,31.59,M,2.3,0000*40,43.46215810000001,141.8054885,565159.9508667511,4812453.821295391
159,[2021-01-29 11:06:49.802] $GPGGA,20648.4,4327.729487,N,14148.32931,E,4,6.0,1.6,110.882,M,31.59,M,2.4,0000*43,43.462158116666664,141.8054885,565159.9508488503,4812453.823146354
160,[2021-01-29 11:06:49.896] $GPGGA,20648.5,4327.729486,N,14148.329319999999,E,4,6.0,1.6,110.88600000000001,M,31.59,M,2.5,0000*42,43.46215810000001,141.80548866666666,565159.9643492915,4812453.821425782
161,[2021-01-29 11:06:50.005] $GPGGA,20648.6,4327.729486,N,14148.32931,E,4,6.0,1.6,110.89,M,31.59,M,2.6,0000*42,43.46215810000001,141.8054885,565159.9508667511,4812453.821295391
162,[2021-01-29 11:06:50.099] $GPGGA,20648.7,4327.729489,N,14148.329319999999,E,4,6.0,1.6,110.899,M,31.59,M,1.7,0000*48,43.46215815,141.80548866666666,565159.964295589,4812453.826978676
163,[2021-01-29 11:06:50.208] $GPGGA,20648.8,4327.729492,N,14148.329319999999,E,4,6.0,1.6,110.89399999999999,M,31.59,M,1.8,0000*47,43.462158200000005,141.80548866666666,565159.9642418865,4812453.832531573
164,[2021-01-29 11:06:50.297] $GPGGA,20648.9,4327.729489,N,14148.329319999999,E,4,6.0,1.6,110.904,M,31.59,M,1.9,0000*4E,43.46215815,141.80548866666666,565159.964295589,4812453.826978676
165,[2021-01-29 11:06:50.407] $GPGGA,20649.0,4327.729488,N,14148.329319999999,E,4,6.0,1.6,110.899,M,31.59,M,2.0,0000*4D,43.46215813333333,141.80548866666666,565159.9643134899,4812453.825127711
166,[2021-01-29 11:06:50.501] $GPGGA,20649.1,4327.729491,N,14148.329319999999,E,4,6.0,1.6,110.902,M,31.59,M,2.1,0000*43,43.46215818333334,141.80548866666666,565159.9642597873,4812453.830680607
167,[2021-01-29 11:06:50.610] $GPGGA,20649.2,4327.729489,N,14148.329319999999,E,4,6.0,1.6,110.887,M,31.59,M,2.2,0000*4A,43.46215815,141.80548866666666,565159.964295589,4812453.826978676
168,[2021-01-29 11:06:50.704] $GPGGA,20649.3,4327.729488,N,14148.329319999999,E,4,6.0,1.6,110.89299999999999,M,31.59,M,2.3,0000*4B,43.46215813333333,141.80548866666666,565159.9643134899,4812453.825127711
169,[2021-01-29 11:06:50.813] $GPGGA,20649.4,4327.729487,N,14148.329319999999,E,4,6.0,1.6,110.891,M,31.59,M,2.4,0000*4F,43.462158116666664,141.80548866666666,565159.9643313907,4812453.823276746
170,[2021-01-29 11:06:50.891] $GPGGA,20649.5,4327.729488,N,14148.329319999999,E,4,6.0,1.6,110.897,M,31.59,M,2.5,0000*4A,43.46215813333333,141.80548866666666,565159.9643134899,4812453.825127711
171,[2021-01-29 11:06:51.001] $GPGGA,20649.6,4327.72949,N,14148.329319999999,E,4,6.0,1.6,110.88799999999999,M,31.59,M,2.6,0000*4E,43.462158166666654,141.80548866666666,565159.9642776882,4812453.82882964
172,[2021-01-29 11:06:51.094] $GPGGA,20649.7,4327.729493,N,14148.329319999999,E,4,6.0,1.6,110.899,M,31.59,M,1.7,0000*46,43.46215821666666,141.80548866666666,565159.9642239857,4812453.834382535
173,[2021-01-29 11:06:51.204] $GPGGA,20649.8,4327.729492,N,14148.329319999999,E,4,6.0,1.6,110.90799999999999,M,31.59,M,1.8,0000*47,43.462158200000005,141.80548866666666,565159.9642418865,4812453.832531573
174,[2021-01-29 11:06:51.299] $GPGGA,20649.9,4327.729493,N,14148.329319999999,E,4,6.0,1.6,110.912,M,31.59,M,1.9,0000*47,43.46215821666666,141.80548866666666,565159.9642239857,4812453.834382535
175,[2021-01-29 11:06:51.409] $GPGGA,20650.0,4327.729492,N,14148.329319999999,E,4,6.0,1.6,110.90100000000001,M,31.59,M,2.0,0000*49,43.462158200000005,141.80548866666666,565159.9642418865,4812453.832531573
176,[2021-01-29 11:06:51.503] $GPGGA,20650.1,4327.729492,N,14148.329319999999,E,4,6.0,1.6,110.905,M,31.59,M,2.1,0000*48,43.462158200000005,141.80548866666666,565159.9642418865,4812453.832531573
177,[2021-01-29 11:06:51.612] $GPGGA,20650.2,4327.729491,N,14148.329319999999,E,4,6.0,1.6,110.90299999999999,M,31.59,M,2.2,0000*49,43.46215818333334,141.80548866666666,565159.9642597873,4812453.830680607
178,[2021-01-29 11:06:51.706] $GPGGA,20650.3,4327.729491,N,14148.329319999999,E,4,6.0,1.6,110.906,M,31.59,M,2.3,0000*4D,43.46215818333334,141.80548866666666,565159.9642597873,4812453.830680607
179,[2021-01-29 11:06:51.799] $GPGGA,20650.4,4327.729492,N,14148.329319999999,E,4,6.0,1.6,110.906,M,31.59,M,2.4,0000*43,43.462158200000005,141.80548866666666,565159.9642418865,4812453.832531573
180,[2021-01-29 11:06:51.909] $GPGGA,20650.5,4327.729492,N,14148.329319999999,E,4,6.0,1.6,110.897,M,31.59,M,2.5,0000*41,43.462158200000005,141.80548866666666,565159.9642418865,4812453.832531573
181,[2021-01-29 11:06:52.003] $GPGGA,20650.6,4327.729491,N,14148.329319999999,E,4,6.0,1.6,110.898,M,31.59,M,2.6,0000*46,43.46215818333334,141.80548866666666,565159.9642597873,4812453.830680607
182,[2021-01-29 11:06:52.096] $GPGGA,20650.7,4327.729491,N,14148.329319999999,E,4,6.0,1.6,110.885,M,31.59,M,1.7,0000*46,43.46215818333334,141.80548866666666,565159.9642597873,4812453.830680607
183,[2021-01-29 11:06:52.206] $GPGGA,20650.8,4327.729491,N,14148.329319999999,E,4,6.0,1.6,110.89299999999999,M,31.59,M,1.8,0000*4E,43.46215818333334,141.80548866666666,565159.9642597873,4812453.830680607
184,[2021-01-29 11:06:52.301] $GPGGA,20650.9,4327.72949,N,14148.329319999999,E,4,6.0,1.6,110.889,M,31.59,M,1.9,0000*4C,43.462158166666654,141.80548866666666,565159.9642776882,4812453.82882964
185,[2021-01-29 11:06:52.410] $GPGGA,20651.0,4327.729492,N,14148.329319999999,E,4,6.0,1.6,110.89,M,31.59,M,2.0,0000*45,43.462158200000005,141.80548866666666,565159.9642418865,4812453.832531573
186,[2021-01-29 11:06:52.504] $GPGGA,20651.1,4327.72949,N,14148.329319999999,E,4,6.0,1.6,110.881,M,31.59,M,2.1,0000*45,43.462158166666654,141.80548866666666,565159.9642776882,4812453.82882964
187,[2021-01-29 11:06:52.613] $GPGGA,20651.2,4327.72949,N,14148.329319999999,E,4,6.0,1.6,110.887,M,31.59,M,2.2,0000*40,43.462158166666654,141.80548866666666,565159.9642776882,4812453.82882964
188,[2021-01-29 11:06:52.707] $GPGGA,20651.3,4327.729491,N,14148.329319999999,E,4,6.0,1.6,110.883,M,31.59,M,2.3,0000*4D,43.46215818333334,141.80548866666666,565159.9642597873,4812453.830680607
189,[2021-01-29 11:06:52.801] $GPGGA,20651.4,4327.729491,N,14148.329319999999,E,4,6.0,1.6,110.89,M,31.59,M,2.4,0000*40,43.46215818333334,141.80548866666666,565159.9642597873,4812453.830680607
190,[2021-01-29 11:06:52.910] $GPGGA,20651.5,4327.72949,N,14148.329319999999,E,4,6.0,1.6,110.887,M,31.59,M,2.5,0000*4A,43.462158166666654,141.80548866666666,565159.9642776882,4812453.82882964
191,[2021-01-29 11:06:53.004] $GPGGA,20651.6,4327.729492,N,14148.329319999999,E,4,6.0,1.6,110.891,M,31.59,M,2.6,0000*42,43.462158200000005,141.80548866666666,565159.9642418865,4812453.832531573
192,[2021-01-29 11:06:53.098] $GPGGA,20651.7,4327.729489,N,14148.32931,E,4,6.0,1.6,110.882,M,31.59,M,1.7,0000*40,43.46215815,141.8054885,565159.9508130486,4812453.826848284
193,[2021-01-29 11:06:53.207] $GPGGA,20651.8,4327.729491,N,14148.329319999999,E,4,6.0,1.6,110.891,M,31.59,M,1.8,0000*4A,43.46215818333334,141.80548866666666,565159.9642597873,4812453.830680607
440,[2021-01-29 11:07:24.207] $GPGGA,20722.8,4327.72949,N,14148.32931,E,4,6.0,1.6,110.9,M,31.59,M,1.8,0000*42,43.462158166666654,141.8054885,565159.9507951478,4812453.82869925
441,[2021-01-29 11:07:24.304] $GPGGA,20722.9,4327.72949,N,14148.32931,E,4,6.0,1.6,110.898,M,31.59,M,1.9,0000*49,43.462158166666654,141.8054885,565159.9507951478,4812453.82869925
442,[2021-01-29 11:07:24.413] $GPGGA,20723.0,4327.729491,N,14148.32931,E,4,6.0,1.6,110.902,M,31.59,M,2.0,0000*40,43.46215818333334,141.8054885,565159.950777247,4812453.830550216
443,[2021-01-29 11:07:24.491] $GPGGA,20723.1,4327.729491,N,14148.32931,E,4,6.0,1.6,110.896,M,31.59,M,2.1,0000*4F,43.46215818333334,141.8054885,565159.950777247,4812453.830550216
444,[2021-01-29 11:07:24.601] $GPGGA,20723.2,4327.72949,N,14148.32931,E,4,6.0,1.6,110.90700000000001,M,31.59,M,2.2,0000*44,43.462158166666654,141.8054885,565159.9507951478,4812453.82869925
445,[2021-01-29 11:07:24.694] $GPGGA,20723.3,4327.72949,N,14148.32931,E,4,6.0,1.6,110.902,M,31.59,M,2.3,0000*40,43.462158166666654,141.8054885,565159.9507951478,4812453.82869925
446,[2021-01-29 11:07:24.804] $GPGGA,20723.4,4327.72949,N,14148.32931,E,4,6.0,1.6,110.906,M,31.59,M,2.4,0000*45,43.462158166666654,141.8054885,565159.9507951478,4812453.82869925
447,[2021-01-29 11:07:24.897] $GPGGA,20723.5,4327.72949,N,14148.329319999999,E,4,6.0,1.6,110.897,M,31.59,M,2.5,0000*46,43.462158166666654,141.80548866666666,565159.9642776882,4812453.82882964
448,[2021-01-29 11:07:25.007] $GPGGA,20723.6,4327.729492,N,14148.32931,E,4,6.0,1.6,110.902,M,31.59,M,2.6,0000*46,43.462158200000005,141.8054885,565159.9507593461,4812453.8324011825
449,[2021-01-29 11:07:25.101] $GPGGA,20723.7,4327.729492,N,14148.32931,E,4,6.0,1.6,110.88600000000001,M,31.59,M,1.7,0000*4B,43.462158200000005,141.8054885,565159.9507593461,4812453.8324011825
450,[2021-01-29 11:07:25.210] $GPGGA,20723.8,4327.729491,N,14148.329319999999,E,4,6.0,1.6,110.881,M,31.59,M,1.8,0000*43,43.46215818333334,141.80548866666666,565159.9642597873,4812453.830680607
451,[2021-01-29 11:07:25.288] $GPGGA,20723.9,4327.729493,N,14148.32931,E,4,6.0,1.6,110.887,M,31.59,M,1.9,0000*44,43.46215821666666,141.8054885,565159.9507414452,4812453.834252145
452,[2021-01-29 11:07:25.398] $GPGGA,20724.0,4327.729491,N,14148.32931,E,4,6.0,1.6,110.883,M,31.59,M,2.0,0000*42,43.46215818333334,141.8054885,565159.950777247,4812453.830550216
453,[2021-01-29 11:07:25.491] $GPGGA,20724.1,4327.729491,N,14148.329319999999,E,4,6.0,1.6,110.87799999999999,M,31.59,M,2.1,0000*4E,43.46215818333334,141.80548866666666,565159.9642597873,4812453.830680607
454,[2021-01-29 11:07:25.601] $GPGGA,20724.2,4327.729493,N,14148.32931,E,4,6.0,1.6,110.885,M,31.59,M,2.2,0000*4B,43.46215821666666,141.8054885,565159.9507414452,4812453.834252145
455,[2021-01-29 11:07:25.695] $GPGGA,20724.3,4327.729492,N,14148.329319999999,E,4,6.0,1.6,110.88799999999999,M,31.59,M,2.3,0000*4A,43.462158200000005,141.80548866666666,565159.9642418865,4812453.832531573
456,[2021-01-29 11:07:25.804] $GPGGA,20724.4,4327.729492,N,14148.32931,E,4,6.0,1.6,110.884,M,31.59,M,2.4,0000*4B,43.462158200000005,141.8054885,565159.9507593461,4812453.8324011825
457,[2021-01-29 11:07:25.898] $GPGGA,20724.5,4327.729492,N,14148.32931,E,4,6.0,1.6,110.88799999999999,M,31.59,M,2.5,0000*47,43.462158200000005,141.8054885,565159.9507593461,4812453.8324011825
458,[2021-01-29 11:07:26.007] $GPGGA,20724.6,4327.729493,N,14148.329319999999,E,4,6.0,1.6,110.881,M,31.59,M,2.6,0000*45,43.46215821666666,141.80548866666666,565159.9642239857,4812453.834382535
459,[2021-01-29 11:07:26.101] $GPGGA,20724.7,4327.729488,N,14148.32931,E,4,6.0,1.6,110.895,M,31.59,M,1.7,0000*48,43.46215813333333,141.8054885,565159.9508309495,4812453.824997321
460,[2021-01-29 11:07:26.210] $GPGGA,20724.8,4327.729487,N,14148.32931,E,4,6.0,1.6,110.889,M,31.59,M,1.8,0000*45,43.462158116666664,141.8054885,565159.9508488503,4812453.823146354
461,[2021-01-29 11:07:26.291] $GPGGA,20724.9,4327.729489,N,14148.32931,E,4,6.0,1.6,110.88799999999999,M,31.59,M,1.9,0000*44,43.46215815,141.8054885,565159.9508130486,4812453.826848284
462,[2021-01-29 11:07:26.401] $GPGGA,20725.0,4327.729488,N,14148.32931,E,4,6.0,1.6,110.89200000000001,M,31.59,M,2.0,0000*44,43.46215813333333,141.8054885,565159.9508309495,4812453.824997321
463,[2021-01-29 11:07:26.494] $GPGGA,20725.1,4327.729489,N,14148.32931,E,4,6.0,1.6,110.887,M,31.59,M,2.1,0000*4C,43.46215815,141.8054885,565159.9508130486,4812453.826848284
464,[2021-01-29 11:07:26.604] $GPGGA,20725.2,4327.729488,N,14148.32931,E,4,6.0,1.6,110.88799999999999,M,31.59,M,2.2,0000*49,43.46215813333333,141.8054885,565159.9508309495,4812453.824997321
465,[2021-01-29 11:07:26.697] $GPGGA,20725.3,4327.729489,N,14148.32931,E,4,6.0,1.6,110.887,M,31.59,M,2.3,0000*43,43.46215815,141.8054885,565159.9508130486,4812453.826848284
466,[2021-01-29 11:07:26.807] $GPGGA,20725.4,4327.729488,N,14148.32931,E,4,6.0,1.6,110.889,M,31.59,M,2.4,0000*41,43.46215813333333,141.8054885,565159.9508309495,4812453.824997321
467,[2021-01-29 11:07:26.901] $GPGGA,20725.5,4327.729491,N,14148.32931,E,4,6.0,1.6,110.883,M,31.59,M,2.5,0000*49,43.46215818333334,141.8054885,565159.950777247,4812453.830550216
468,[2021-01-29 11:07:27.010] $GPGGA,20725.6,4327.729487,N,14148.32931,E,4,6.0,1.6,110.88799999999999,M,31.59,M,2.6,0000*4A,43.462158116666664,141.8054885,565159.9508488503,4812453.823146354
469,[2021-01-29 11:07:27.104] $GPGGA,20725.7,4327.729491,N,14148.32931,E,4,6.0,1.6,110.904,M,31.59,M,1.7,0000*49,43.46215818333334,141.8054885,565159.950777247,4812453.830550216
470,[2021-01-29 11:07:27.197] $GPGGA,20725.8,4327.729488,N,14148.329319999999,E,4,6.0,1.6,110.906,M,31.59,M,1.8,0000*41,43.46215813333333,141.80548866666666,565159.9643134899,4812453.825127711
471,[2021-01-29 11:07:27.291] $GPGGA,20725.9,4327.729491,N,14148.329319999999,E,4,6.0,1.6,110.906,M,31.59,M,1.9,0000*48,43.46215818333334,141.80548866666666,565159.9642597873,4812453.830680607
472,[2021-01-29 11:07:27.401] $GPGGA,20726.0,4327.729489,N,14148.329319999999,E,4,6.0,1.6,110.91,M,31.59,M,2.0,0000*4E,43.46215815,141.80548866666666,565159.964295589,4812453.826978676
473,[2021-01-29 11:07:27.495] $GPGGA,20726.1,4327.729492,N,14148.32931,E,4,6.0,1.6,110.90700000000001,M,31.59,M,2.1,0000*40,43.462158200000005,141.8054885,565159.9507593461,4812453.8324011825
474,[2021-01-29 11:07:27.604] $GPGGA,20726.2,4327.729491,N,14148.32931,E,4,6.0,1.6,110.90700000000001,M,31.59,M,2.2,0000*45,43.46215818333334,141.8054885,565159.950777247,4812453.830550216
475,[2021-01-29 11:07:27.698] $GPGGA,20726.3,4327.729492,N,14148.32931,E,4,6.0,1.6,110.90299999999999,M,31.59,M,2.3,0000*48,43.462158200000005,141.8054885,565159.9507593461,4812453.8324011825
476,[2021-01-29 11:07:27.807] $GPGGA,20726.4,4327.72949,N,14148.32931,E,4,6.0,1.6,110.90899999999999,M,31.59,M,2.4,0000*4E,43.462158166666654,141.8054885,565159.9507951478,4812453.82869925
477,[2021-01-29 11:07:27.901] $GPGGA,20726.5,4327.729492,N,14148.32931,E,4,6.0,1.6,110.90100000000001,M,31.59,M,2.5,0000*43,43.462158200000005,141.8054885,565159.9507593461,4812453.8324011825
478,[2021-01-29 11:07:28.010] $GPGGA,20726.6,4327.729492,N,14148.32931,E,4,6.0,1.6,110.914,M,31.59,M,2.6,0000*4E,43.462158200000005,141.8054885,565159.9507593461,4812453.8324011825
479,[2021-01-29 11:07:28.104] $GPGGA,20726.7,4327.729488,N,14148.32931,E,4,6.0,1.6,110.874,M,31.59,M,1.7,0000*43,43.46215813333333,141.8054885,565159.9508309495,4812453.824997321
480,[2021-01-29 11:07:28.198] $GPGGA,20726.8,4327.729488,N,14148.32931,E,4,6.0,1.6,110.881,M,31.59,M,1.8,0000*43,43.46215813333333,141.8054885,565159.9508309495,4812453.824997321
481,[2021-01-29 11:07:28.293] $GPGGA,20726.9,4327.72949,N,14148.32931,E,4,6.0,1.6,110.87899999999999,M,31.59,M,1.9,0000*44,43.462158166666654,141.8054885,565159.9507951478,4812453.82869925
482,[2021-01-29 11:07:28.403] $GPGGA,20727.0,4327.72949,N,14148.32931,E,4,6.0,1.6,110.883,M,31.59,M,2.0,0000*4F,43.462158166666654,141.8054885,565159.9507951478,4812453.82869925
483,[2021-01-29 11:07:28.496] $GPGGA,20727.1,4327.729489,N,14148.32931,E,4,6.0,1.6,110.891,M,31.59,M,2.1,0000*4F,43.46215815,141.8054885,565159.9508130486,4812453.826848284
484,[2021-01-29 11:07:28.606] $GPGGA,20727.2,4327.729489,N,14148.32931,E,4,6.0,1.6,110.88799999999999,M,31.59,M,2.2,0000*4B,43.46215815,141.8054885,565159.9508130486,4812453.826848284
485,[2021-01-29 11:07:28.700] $GPGGA,20727.3,4327.729489,N,14148.32931,E,4,6.0,1.6,110.885,M,31.59,M,2.3,0000*4B,43.46215815,141.8054885,565159.9508130486,4812453.826848284
486,[2021-01-29 11:07:28.809] $GPGGA,20727.4,4327.729489,N,14148.32931,E,4,6.0,1.6,110.883,M,31.59,M,2.4,0000*4D,43.46215815,141.8054885,565159.9508130486,4812453.826848284
487,[2021-01-29 11:07:28.903] $GPGGA,20727.5,4327.729489,N,14148.32931,E,4,6.0,1.6,110.89,M,31.59,M,2.5,0000*46,43.46215815,141.8054885,565159.9508130486,4812453.826848284
488,[2021-01-29 11:07:28.996] $GPGGA,20727.6,4327.729489,N,14148.32931,E,4,6.0,1.6,110.882,M,31.59,M,2.6,0000*49,43.46215815,141.8054885,565159.9508130486,4812453.826848284
489,[2021-01-29 11:07:29.090] $GPGGA,20727.7,4327.729488,N,14148.32931,E,4,6.0,1.6,110.906,M,31.59,M,1.7,0000*4C,43.46215813333333,141.8054885,565159.9508309495,4812453.824997321
490,[2021-01-29 11:07:29.200] $GPGGA,20727.8,4327.729488,N,14148.32931,E,4,6.0,1.6,110.914,M,31.59,M,1.8,0000*4E,43.46215813333333,141.8054885,565159.9508309495,4812453.824997321
491,[2021-01-29 11:07:29.309] $GPGGA,20727.9,4327.729489,N,14148.32931,E,4,6.0,1.6,110.904,M,31.59,M,1.9,0000*4E,43.46215815,141.8054885,565159.9508130486,4812453.826848284
492,[2021-01-29 11:07:29.403] $GPGGA,20728.0,4327.729488,N,14148.32931,E,4,6.0,1.6,110.91,M,31.59,M,2.0,0000*45,43.46215813333333,141.8054885,565159.9508309495,4812453.824997321
493,[2021-01-29 11:07:29.497] $GPGGA,20728.1,4327.729489,N,14148.32931,E,4,6.0,1.6,110.914,M,31.59,M,2.1,0000*44,43.46215815,141.8054885,565159.9508130486,4812453.826848284
494,[2021-01-29 11:07:29.606] $GPGGA,20728.2,4327.729488,N,14148.32931,E,4,6.0,1.6,110.911,M,31.59,M,2.2,0000*4F,43.46215813333333,141.8054885,565159.9508309495,4812453.824997321
495,[2021-01-29 11:07:29.700] $GPGGA,20728.3,4327.729488,N,14148.32931,E,4,6.0,1.6,110.911,M,31.59,M,2.3,0000*4F,43.46215813333333,141.8054885,565159.9508309495,4812453.824997321
496,[2021-01-29 11:07:29.809] $GPGGA,20728.4,4327.729489,N,14148.32931,E,4,6.0,1.6,110.90799999999999,M,31.59,M,2.4,0000*48,43.46215815,141.8054885,565159.9508130486,4812453.826848284
497,[2021-01-29 11:07:29.903] $GPGGA,20728.5,4327.729487,N,14148.32931,E,4,6.0,1.6,110.914,M,31.59,M,2.5,0000*40,43.462158116666664,141.8054885,565159.9508488503,4812453.823146354
498,[2021-01-29 11:07:29.997] $GPGGA,20728.6,4327.729488,N,14148.32931,E,4,6.0,1.6,110.90899999999999,M,31.59,M,2.6,0000*4E,43.46215813333333,141.8054885,565159.9508309495,4812453.824997321
499,[2021-01-29 11:07:30.106] $GPGGA,20728.7,4327.729488,N,14148.32931,E,4,6.0,1.6,110.896,M,31.59,M,1.7,0000*46,43.46215813333333,141.8054885,565159.9508309495,4812453.824997321
500,[2021-01-29 11:07:30.200] $GPGGA,20728.8,4327.729487,N,14148.32931,E,4,6.0,1.6,110.90700000000001,M,31.59,M,1.8,0000*4C,43.462158116666664,141.8054885,565159.9508488503,4812453.823146354
501,[2021-01-29 11:07:30.295] $GPGGA,20728.9,4327.729489,N,14148.32931,E,4,6.0,1.6,110.90100000000001,M,31.59,M,1.9,0000*43,43.46215815,141.8054885,565159.9508130486,4812453.826848284
502,[2021-01-29 11:07:30.404] $GPGGA,20729.0,4327.729488,N,14148.32931,E,4,6.0,1.6,110.906,M,31.59,M,2.0,0000*47,43.46215813333333,141.8054885,565159.9508309495,4812453.824997321
503,[2021-01-29 11:07:30.498] $GPGGA,20729.1,4327.729487,N,14148.32931,E,4,6.0,1.6,110.906,M,31.59,M,2.1,0000*4A,43.462158116666664,141.8054885,565159.9508488503,4812453.823146354
504,[2021-01-29 11:07:30.608] $GPGGA,20729.2,4327.729488,N,14148.32931,E,4,6.0,1.6,110.897,M,31.59,M,2.2,0000*4A,43.46215813333333,141.8054885,565159.9508309495,4812453.824997321
505,[2021-01-29 11:07:30.701] $GPGGA,20729.3,4327.729487,N,14148.32931,E,4,6.0,1.6,110.898,M,31.59,M,2.3,0000*47,43.462158116666664,141.8054885,565159.9508488503,4812453.823146354
506,[2021-01-29 11:07:30.811] $GPGGA,20729.4,4327.729488,N,14148.32931,E,4,6.0,1.6,110.90299999999999,M,31.59,M,2.4,0000*40,43.46215813333333,141.8054885,565159.9508309495,4812453.824997321
507,[2021-01-29 11:07:30.889] $GPGGA,20729.5,4327.729487,N,14148.32931,E,4,6.0,1.6,110.905,M,31.59,M,2.5,0000*4D,43.462158116666664,141.8054885,565159.9508488503,4812453.823146354
508,[2021-01-29 11:07:30.998] $GPGGA,20729.6,4327.729486,N,14148.32931,E,4,6.0,1.6,110.902,M,31.59,M,2.6,0000*48,43.46215810000001,141.8054885,565159.9508667511,4812453.821295391
509,[2021-01-29 11:07:31.092] $GPGGA,20729.7,4327.72949,N,14148.32931,E,4,6.0,1.6,110.90100000000001,M,31.59,M,1.7,0000*4E,43.462158166666654,141.8054885,565159.9507951478,4812453.82869925
510,[2021-01-29 11:07:31.201] $GPGGA,20729.8,4327.72949,N,14148.329319999999,E,4,6.0,1.6,110.912,M,31.59,M,1.8,0000*41,43.462158166666654,141.80548866666666,565159.9642776882,4812453.82882964
511,[2021-01-29 11:07:31.297] $GPGGA,20729.9,4327.729491,N,14148.32931,E,4,6.0,1.6,110.904,M,31.59,M,1.9,0000*42,43.46215818333334,141.8054885,565159.950777247,4812453.830550216
512,[2021-01-29 11:07:31.406] $GPGGA,20730.0,4327.72949,N,14148.32931,E,4,6.0,1.6,110.91,M,31.59,M,2.0,0000*4A,43.462158166666654,141.8054885,565159.9507951478,4812453.82869925
513,[2021-01-29 11:07:31.500] $GPGGA,20730.1,4327.72949,N,14148.32931,E,4,6.0,1.6,110.902,M,31.59,M,2.1,0000*4E,43.462158166666654,141.8054885,565159.9507951478,4812453.82869925
514,[2021-01-29 11:07:31.609] $GPGGA,20730.2,4327.729491,N,14148.32931,E,4,6.0,1.6,110.90299999999999,M,31.59,M,2.2,0000*4B,43.46215818333334,141.8054885,565159.950777247,4812453.830550216
515,[2021-01-29 11:07:31.703] $GPGGA,20730.3,4327.72949,N,14148.32931,E,4,6.0,1.6,110.90299999999999,M,31.59,M,2.3,0000*4A,43.462158166666654,141.8054885,565159.9507951478,4812453.82869925
516,[2021-01-29 11:07:31.797] $GPGGA,20730.4,4327.729489,N,14148.32931,E,4,6.0,1.6,110.90299999999999,M,31.59,M,2.4,0000*4D,43.46215815,141.8054885,565159.9508130486,4812453.826848284
517,[2021-01-29 11:07:31.891] $GPGGA,20730.5,4327.729489,N,14148.32931,E,4,6.0,1.6,110.90899999999999,M,31.59,M,2.5,0000*47,43.46215815,141.8054885,565159.9508130486,4812453.826848284
518,[2021-01-29 11:07:32.000] $GPGGA,20730.6,4327.72949,N,14148.32931,E,4,6.0,1.6,110.9,M,31.59,M,2.6,0000*46,43.462158166666654,141.8054885,565159.9507951478,4812453.82869925
519,[2021-01-29 11:07:32.094] $GPGGA,20730.7,4327.729491,N,14148.32931,E,4,6.0,1.6,110.905,M,31.59,M,2.7,0000*4D,43.46215818333334,141.8054885,565159.950777247,4812453.830550216
520,[2021-01-29 11:07:32.203] $GPGGA,20730.8,4327.729491,N,14148.32931,E,4,6.0,1.6,110.90100000000001,M,31.59,M,2.8,0000*4B,43.46215818333334,141.8054885,565159.950777247,4812453.830550216
521,[2021-01-29 11:07:32.299] $GPGGA,20730.9,4327.729489,N,14148.32931,E,4,6.0,1.6,110.902,M,31.59,M,2.9,0000*4D,43.46215815,141.8054885,565159.9508130486,4812453.826848284
522,[2021-01-29 11:07:32.408] $GPGGA,20731.0,4327.72949,N,14148.32931,E,4,6.0,1.6,110.891,M,31.59,M,3.0,0000*40,43.462158166666654,141.8054885,565159.9507951478,4812453.82869925
523,[2021-01-29 11:07:32.502] $GPGGA,20731.1,4327.729491,N,14148.32931,E,4,6.0,1.6,110.889,M,31.59,M,3.1,0000*41,43.46215818333334,141.8054885,565159.950777247,4812453.830550216
524,[2021-01-29 11:07:32.612] $GPGGA,20731.2,4327.729489,N,14148.32931,E,4,6.0,1.6,110.89200000000001,M,31.59,M,3.2,0000*49,43.46215815,141.8054885,565159.9508130486,4812453.826848284
525,[2021-01-29 11:07:32.690] $GPGGA,20731.3,4327.72949,N,14148.329319999999,E,4,6.0,1.6,110.891,M,31.59,M,3.3,0000*45,43.462158166666654,141.80548866666666,565159.9642776882,4812453.82882964
526,[2021-01-29 11:07:32.799] $GPGGA,20731.4,4327.729489,N,14148.329319999999,E,4,6.0,1.6,110.89299999999999,M,31.59,M,3.4,0000*47,43.46215815,141.80548866666666,565159.964295589,4812453.826978676
527,[2021-01-29 11:07:32.893] $GPGGA,20731.5,4327.729491,N,14148.329319999999,E,4,6.0,1.6,110.889,M,31.59,M,3.5,0000*42,43.46215818333334,141.80548866666666,565159.9642597873,4812453.830680607
528,[2021-01-29 11:07:33.002] $GPGGA,20731.6,4327.729489,N,14148.32931,E,4,6.0,1.6,110.891,M,31.59,M,3.6,0000*45,43.46215815,141.8054885,565159.9508130486,4812453.826848284
529,[2021-01-29 11:07:33.096] $GPGGA,20731.7,4327.729491,N,14148.329319999999,E,4,6.0,1.6,110.89,M,31.59,M,3.7,0000*42,43.46215818333334,141.80548866666666,565159.9642597873,4812453.830680607
530,[2021-01-29 11:07:33.205] $GPGGA,20731.8,4327.72949,N,14148.329319999999,E,4,6.0,1.6,110.89399999999999,M,31.59,M,3.8,0000*4C,43.462158166666654,141.80548866666666,565159.9642776882,4812453.82882964
531,[2021-01-29 11:07:33.300] $GPGGA,20731.9,4327.72949,N,14148.329319999999,E,4,6.0,1.6,110.89,M,31.59,M,3.9,0000*4C,43.462158166666654,141.80548866666666,565159.9642776882,4812453.82882964
532,[2021-01-29 11:07:33.394] $GPGGA,20732.0,4327.729491,N,14148.32931,E,4,6.0,1.6,110.89299999999999,M,31.59,M,4.0,0000*49,43.46215818333334,141.8054885,565159.950777247,4812453.830550216
533,[2021-01-29 11:07:33.472] $GPGGA,20732.1,4327.729491,N,14148.32931,E,4,6.0,1.6,110.889,M,31.59,M,4.1,0000*48,43.46215818333334,141.8054885,565159.950777247,4812453.830550216
534,[2021-01-29 11:07:33.597] $GPGGA,20732.2,4327.72949,N,14148.329319999999,E,4,6.0,1.6,110.885,M,31.59,M,4.2,0000*4C,43.462158166666654,141.80548866666666,565159.9642776882,4812453.82882964
535,[2021-01-29 11:07:33.707] $GPGGA,20732.3,4327.729491,N,14148.329319999999,E,4,6.0,1.6,110.89299999999999,M,31.59,M,4.3,0000*46,43.46215818333334,141.80548866666666,565159.9642597873,4812453.830680607
536,[2021-01-29 11:07:33.800] $GPGGA,20732.4,4327.72949,N,14148.329319999999,E,4,6.0,1.6,110.88799999999999,M,31.59,M,4.4,0000*40,43.462158166666654,141.80548866666666,565159.9642776882,4812453.82882964
537,[2021-01-29 11:07:33.894] $GPGGA,20732.5,4327.729491,N,14148.329319999999,E,4,6.0,1.6,110.887,M,31.59,M,4.5,0000*47,43.46215818333334,141.80548866666666,565159.9642597873,4812453.830680607
538,[2021-01-29 11:07:34.003] $GPGGA,20732.6,4327.729491,N,14148.329319999999,E,4,6.0,1.6,110.887,M,31.59,M,4.6,0000*4E,43.46215818333334,141.80548866666666,565159.9642597873,4812453.830680607
539,[2021-01-29 11:07:34.097] $GPGGA,20732.7,4327.729492,N,14148.329319999999,E,4,6.0,1.6,110.90700000000001,M,31.59,M,1.7,0000*45,43.462158200000005,141.80548866666666,565159.9642418865,4812453.832531573
540,[2021-01-29 11:07:34.207] $GPGGA,20732.8,4327.729493,N,14148.329319999999,E,4,6.0,1.6,110.897,M,31.59,M,1.8,0000*4E,43.46215821666666,141.80548866666666,565159.9642239857,4812453.834382535
541,[2021-01-29 11:07:34.303] $GPGGA,20732.9,4327.729492,N,14148.329319999999,E,4,6.0,1.6,110.90100000000001,M,31.59,M,1.9,0000*43,43.462158200000005,141.80548866666666,565159.9642418865,4812453.832531573
542,[2021-01-29 11:07:34.412] $GPGGA,20733.0,4327.729491,N,14148.329319999999,E,4,6.0,1.6,110.904,M,31.59,M,2.0,0000*4C,43.46215818333334,141.80548866666666,565159.9642597873,4812453.830680607
543,[2021-01-29 11:07:34.490] $GPGGA,20733.1,4327.729492,N,14148.329319999999,E,4,6.0,1.6,110.899,M,31.59,M,2.1,0000*44,43.462158200000005,141.80548866666666,565159.9642418865,4812453.832531573
544,[2021-01-29 11:07:34.600] $GPGGA,20733.2,4327.729492,N,14148.329319999999,E,4,6.0,1.6,110.902,M,31.59,M,2.2,0000*43,43.462158200000005,141.80548866666666,565159.9642418865,4812453.832531573
545,[2021-01-29 11:07:34.694] $GPGGA,20733.3,4327.729492,N,14148.329319999999,E,4,6.0,1.6,110.9,M,31.59,M,2.3,0000*49,43.462158200000005,141.80548866666666,565159.9642418865,4812453.832531573
546,[2021-01-29 11:07:34.803] $GPGGA,20733.4,4327.729493,N,14148.329319999999,E,4,6.0,1.6,110.897,M,31.59,M,2.4,0000*48,43.46215821666666,141.80548866666666,565159.9642239857,4812453.834382535
547,[2021-01-29 11:07:34.897] $GPGGA,20733.5,4327.72949,N,14148.329319999999,E,4,6.0,1.6,110.90299999999999,M,31.59,M,2.5,0000*4A,43.462158166666654,141.80548866666666,565159.9642776882,4812453.82882964
548,[2021-01-29 11:07:35.006] $GPGGA,20733.6,4327.729493,N,14148.329319999999,E,4,6.0,1.6,110.9,M,31.59,M,2.6,0000*45,43.46215821666666,141.80548866666666,565159.9642239857,4812453.834382535
549,[2021-01-29 11:07:35.100] $GPGGA,20733.7,4327.729492,N,14148.32931,E,4,6.0,1.6,110.88799999999999,M,31.59,M,1.7,0000*4F,43.462158200000005,141.8054885,565159.9507593461,4812453.8324011825
550,[2021-01-29 11:07:35.209] $GPGGA,20733.8,4327.729491,N,14148.32931,E,4,6.0,1.6,110.88,M,31.59,M,1.8,0000*41,43.46215818333334,141.8054885,565159.950777247,4812453.830550216
551,[2021-01-29 11:07:35.291] $GPGGA,20733.9,4327.729492,N,14148.329319999999,E,4,6.0,1.6,110.889,M,31.59,M,1.9,0000*47,43.462158200000005,141.80548866666666,565159.9642418865,4812453.832531573
552,[2021-01-29 11:07:35.400] $GPGGA,20734.0,4327.729493,N,14148.32931,E,4,6.0,1.6,110.87899999999999,M,31.59,M,2.0,0000*48,43.46215821666666,141.8054885,565159.9507414452,4812453.834252145
553,[2021-01-29 11:07:35.494] $GPGGA,20734.1,4327.7294950000005,N,14148.32931,E,4,6.0,1.6,110.889,M,31.59,M,2.1,0000*49,43.46215825000001,141.8054885,565159.9507056435,4812453.837954079
554,[2021-01-29 11:07:35.603] $GPGGA,20734.2,4327.729494,N,14148.32931,E,4,6.0,1.6,110.885,M,31.59,M,2.2,0000*46,43.46215823333334,141.8054885,565159.9507235443,4812453.8361031115
555,[2021-01-29 11:07:35.697] $GPGGA,20734.3,4327.729493,N,14148.329319999999,E,4,6.0,1.6,110.882,M,31.59,M,2.3,0000*4D,43.46215821666666,141.80548866666666,565159.9642239857,4812453.834382535
556,[2021-01-29 11:07:35.806] $GPGGA,20734.4,4327.729493,N,14148.32931,E,4,6.0,1.6,110.882,M,31.59,M,2.4,0000*40,43.46215821666666,141.8054885,565159.9507414452,4812453.834252145
557,[2021-01-29 11:07:35.900] $GPGGA,20734.5,4327.729493,N,14148.329319999999,E,4,6.0,1.6,110.88600000000001,M,31.59,M,2.5,0000*44,43.46215821666666,141.80548866666666,565159.9642239857,4812453.834382535
558,[2021-01-29 11:07:36.009] $GPGGA,20734.6,4327.729493,N,14148.32931,E,4,6.0,1.6,110.88799999999999,M,31.59,M,2.6,0000*4E,43.46215821666666,141.8054885,565159.9507414452,4812453.834252145
559,[2021-01-29 11:07:36.103] $GPGGA,20734.7,4327.729493,N,14148.329319999999,E,4,6.0,1.6,110.884,M,31.59,M,1.7,0000*4B,43.46215821666666,141.80548866666666,565159.9642239857,4812453.834382535
560,[2021-01-29 11:07:36.197] $GPGGA,20734.8,4327.729493,N,14148.32931,E,4,6.0,1.6,110.881,M,31.59,M,1.8,0000*4E,43.46215821666666,141.8054885,565159.9507414452,4812453.834252145
561,[2021-01-29 11:07:36.291] $GPGGA,20734.9,4327.729493,N,14148.32931,E,4,6.0,1.6,110.891,M,31.59,M,1.9,0000*47,43.46215821666666,141.8054885,565159.9507414452,4812453.834252145
562,[2021-01-29 11:07:36.400] $GPGGA,20735.0,4327.729493,N,14148.32931,E,4,6.0,1.6,110.889,M,31.59,M,2.0,0000*48,43.46215821666666,141.8054885,565159.9507414452,4812453.834252145
563,[2021-01-29 11:07:36.494] $GPGGA,20735.1,4327.729492,N,14148.32931,E,4,6.0,1.6,110.88600000000001,M,31.59,M,2.1,0000*44,43.462158200000005,141.8054885,565159.9507593461,4812453.8324011825
