,Format,Time,Latitude,LatType,Longitude,LonType,Status,Satellite,LevelAccuracy,Altitude(sea),M(sea),Altitude(geoid),M(geoid),DGPS use,checksum,Lat,Lon,UTM_X,UTM_Y
495,[2021-01-29 11:27:25.853] $GNGGA,22724.3,4327.722636394,N,14148.341826121,E,4,7.0,2.01,111.40700000000001,M,31.865,M,227.3,2010*6B,43.462043939900006,141.80569710201667,565176.9484232229,4812441.306132762
496,[2021-01-29 11:27:25.963] $GNGGA,22724.4,4327.722638682,N,14148.341844761,E,4,7.0,2.01,111.435,M,31.865,M,227.4,2010*60,43.46204397803334,141.80569741268334,565176.9735137598,4812441.310610881
497,[2021-01-29 11:27:26.056] $GNGGA,22724.5,4327.722638810999,N,14148.341845673,E,4,7.0,2.01,111.434,M,31.865,M,227.5,2010*66,43.462043980183324,141.80569742788333,565176.9747410599,4812441.310861548
498,[2021-01-29 11:27:26.166] $GNGGA,22724.6,4327.722638247,N,14148.34184487,E,4,7.0,2.01,111.431,M,31.865,M,227.6,2010*66,43.46204397078333,141.8056974145,565176.9736685078,4812441.309807131
499,[2021-01-29 11:27:26.260] $GNGGA,22724.7,4327.7226390020005,N,14148.341844433,E,4,7.0,2.01,111.43,M,31.865,M,227.7,2010*6E,43.46204398336668,141.80569740721666,565176.9730658003,4812441.311198913
500,[2021-01-29 11:27:26.354] $GNGGA,22724.8,4327.722638932,N,14148.341845486,E,4,7.0,2.01,111.432,M,31.865,M,227.8,2010*68,43.46204398220001,141.8056974247667,565176.9744867695,4812441.311083078
501,[2021-01-29 11:27:26.463] $GNGGA,22724.9,4327.7226381870005,N,14148.341845137,E,4,7.0,2.01,111.434,M,31.865,M,227.9,2010*67,43.462043969783345,141.80569741895,565176.9740295648,4812441.309699558
502,[2021-01-29 11:27:26.557] $GNGGA,22725.0,4327.722638844,N,14148.341844432,E,4,7.0,2.01,111.434,M,31.865,M,228.0,2010*6E,43.46204398073334,141.8056974072,565176.9730672811,4812441.310906446
503,[2021-01-29 11:27:26.667] $GNGGA,22725.1,4327.722638431,N,14148.341843455,E,4,7.0,2.01,111.439,M,31.865,M,228.1,2010*6B,43.462043973849994,141.80569739091666,565176.9717574304,4812441.310129253
504,[2021-01-29 11:27:26.760] $GNGGA,22725.2,4327.722637873,N,14148.341844643,E,4,7.0,2.01,111.436,M,31.865,M,228.2,2010*63,43.46204396455,141.80569741071665,565176.9733691481,4812441.30911191
505,[2021-01-29 11:27:26.854] $GNGGA,22725.3,4327.722635186,N,14148.341846161002,E,4,7.0,2.01,111.439,M,31.865,M,228.3,2010*68,43.46204391976667,141.80569743601671,565176.9754639189,4812441.304158165
506,[2021-01-29 11:27:26.963] $GNGGA,22725.4,4327.7226331229995,N,14148.341845891999,E,4,7.0,2.01,111.441,M,31.865,M,228.4,2010*68,43.46204388538333,141.80569743153333,565176.9751381725,4812441.300336116
507,[2021-01-29 11:27:27.057] $GNGGA,22725.5,4327.722632445,N,14148.34184599,E,4,7.0,2.01,111.44200000000001,M,31.865,M,228.5,2010*6C,43.46204387408334,141.80569743316667,565176.9752824433,4812441.299082441
508,[2021-01-29 11:27:27.167] $GNGGA,22725.6,4327.722631289001,N,14148.341846568,E,4,7.0,2.01,111.443,M,31.865,M,228.6,2010*60,43.46204385481668,141.80569744280004,565176.976082437,4812441.296950263
509,[2021-01-29 11:27:27.263] $GNGGA,22725.7,4327.7226313,N,14148.341846948,E,4,7.0,2.01,111.439,M,31.865,M,228.7,2010*63,43.462043855,141.80569744913333,565176.9765945747,4812441.296975578
510,[2021-01-29 11:27:27.356] $GNGGA,22725.8,4327.722629453,N,14148.341847518,E,4,7.0,2.01,111.445,M,31.865,M,228.8,2010*68,43.46204382421667,141.80569745863335,565176.9773961533,4812441.293564281
511,[2021-01-29 11:27:27.465] $GNGGA,22725.9,4327.722629546,N,14148.341847566999,E,4,7.0,2.01,111.448,M,31.865,M,228.9,2010*68,43.46204382576666,141.80569745945,565176.9774605505,4812441.293737059
512,[2021-01-29 11:27:27.559] $GNGGA,22726.0,4327.722630533,N,14148.341847521999,E,4,7.0,2.01,111.45200000000001,M,31.865,M,229.0,2010*6A,43.46204384221666,141.8056974587,565176.9773822061,4812441.295563375
513,[2021-01-29 11:27:27.668] $GNGGA,22726.1,4327.722629014001,N,14148.341849345,E,4,7.0,2.01,111.45100000000001,M,31.865,M,229.1,2010*68,43.462043816900014,141.80569748908337,565176.9798672802,4812441.292775537
514,[2021-01-29 11:27:27.762] $GNGGA,22726.2,4327.72262912,N,14148.341848134,E,4,7.0,2.01,111.445,M,31.865,M,229.2,2010*6E,43.46204381866667,141.80569746889998,565176.9782326387,4812441.292955944
1508,[2021-01-29 11:29:07.162] $GNGGA,22905.6,4327.721687747,N,14148.344881731999,E,4,9.0,1.33,112.615,M,31.865,M,328.6,2010*69,43.462028129116675,141.80574802886665,565181.0851579746,4812439.590074105
1509,[2021-01-29 11:29:07.264] $GNGGA,22905.7,4327.721680673,N,14148.344889353999,E,4,9.0,1.33,112.619,M,31.865,M,328.7,2010*68,43.462028011216674,141.80574815589998,565181.0955610606,4812439.5770797925
1510,[2021-01-29 11:29:07.352] $GNGGA,22905.8,4327.721680925,N,14148.344889063,E,4,9.0,1.33,112.619,M,31.865,M,328.8,2010*63,43.46202801541668,141.80574815105,565181.0951642062,4812439.577542442
1511,[2021-01-29 11:29:07.462] $GNGGA,22905.9,4327.7216817809995,N,14148.344889424,E,4,9.0,1.33,112.615,M,31.865,M,328.9,2010*69,43.462028029683324,141.80574815706663,565181.0956355971,4812439.579131574
1512,[2021-01-29 11:29:07.555] $GNGGA,22906.0,4327.72168117,N,14148.344889573,E,4,9.0,1.33,112.61399999999999,M,31.865,M,329.0,2010*61,43.4620280195,141.80574815954998,565181.0958474277,4812439.578002579
1513,[2021-01-29 11:29:07.665] $GNGGA,22906.1,4327.721680972,N,14148.344889803,E,4,9.0,1.33,112.61399999999999,M,31.865,M,329.1,2010*60,43.4620280162,141.80574816338333,565181.0961610742,4812439.577639087
1514,[2021-01-29 11:29:07.759] $GNGGA,22906.2,4327.721680365999,N,14148.344890453998,E,4,9.0,1.33,112.611,M,31.865,M,329.2,2010*6C,43.46202800609999,141.80574817423332,565181.0970496403,4812439.576525893
1515,[2021-01-29 11:29:07.852] $GNGGA,22906.3,4327.721680082,N,14148.344891146999,E,4,9.0,1.33,112.613,M,31.865,M,329.3,2010*61,43.46202800136667,141.80574818578333,565181.0979890693,4812439.576009259
1516,[2021-01-29 11:29:07.962] $GNGGA,22906.4,4327.721680114,N,14148.344890928998,E,4,9.0,1.33,112.613,M,31.865,M,329.4,2010*6E,43.4620280019,141.80574818214998,565181.0976945738,4812439.5760656465
1517,[2021-01-29 11:29:08.055] $GNGGA,22906.5,4327.721680242,N,14148.344891035,E,4,9.0,1.33,112.61399999999999,M,31.865,M,329.5,2010*6C,43.462028004033336,141.80574818391668,565181.0978352004,4812439.576303953
1518,[2021-01-29 11:29:08.165] $GNGGA,22906.6,4327.721680552,N,14148.344890751001,E,4,9.0,1.33,112.61399999999999,M,31.865,M,329.6,2010*6E,43.4620280092,141.80574817918338,565181.097446747,4812439.5768740475
1519,[2021-01-29 11:29:08.265] $GNGGA,22906.7,4327.721681076,N,14148.344890969,E,4,9.0,1.33,112.615,M,31.865,M,329.7,2010*68,43.462028017933335,141.80574818281667,565181.0977312803,4812439.577846798
1520,[2021-01-29 11:29:08.354] $GNGGA,22906.8,4327.721681713,N,14148.344889558999,E,4,9.0,1.33,112.611,M,31.865,M,329.8,2010*6F,43.46202802855001,141.80574815931664,565181.0958188295,4812439.579007471
1521,[2021-01-29 11:29:08.463] $GNGGA,22906.9,4327.721680949,N,14148.344889539,E,4,9.0,1.33,112.61,M,31.865,M,329.9,2010*68,43.462028015816664,141.8057481589833,565181.0958055438,4812439.577593071
1522,[2021-01-29 11:29:08.557] $GNGGA,22907.0,4327.72168116,N,14148.344890252,E,4,9.0,1.33,112.61200000000001,M,31.865,M,330.0,2010*63,43.46202801933333,141.80574817086665,565181.0967630754,4812439.5779929245
1523,[2021-01-29 11:29:08.667] $GNGGA,22907.1,4327.721681282,N,14148.344890629,E,4,9.0,1.33,112.61200000000001,M,31.865,M,330.1,2010*64,43.46202802136667,141.80574817714998,565181.097269183,4812439.5782236615
1524,[2021-01-29 11:29:08.760] $GNGGA,22907.2,4327.721682164,N,14148.344890736002,E,4,9.0,1.33,112.611,M,31.865,M,330.2,2010*60,43.46202803606667,141.80574817893336,565181.0973976563,4812439.579857608
1525,[2021-01-29 11:29:08.854] $GNGGA,22907.3,4327.721681929001,N,14148.34489166,E,4,9.0,1.33,112.61,M,31.865,M,330.3,2010*60,43.46202803215001,141.80574819433332,565181.098647651,4812439.579434684
1526,[2021-01-29 11:29:08.963] $GNGGA,22907.4,4327.721682104,N,14148.3448909,E,4,9.0,1.33,112.611,M,31.865,M,330.4,2010*6D,43.462028035066666,141.80574818166667,565181.0976198437,4812439.579748688
1527,[2021-01-29 11:29:09.057] $GNGGA,22907.5,4327.721682122,N,14148.344891933999,E,4,9.0,1.33,112.61,M,31.865,M,330.5,2010*6E,43.46202803536667,141.80574819889998,565181.0990136154,4812439.579795493
1528,[2021-01-29 11:29:09.166] $GNGGA,22907.6,4327.721682656,N,14148.344892146,E,4,9.0,1.33,112.609,M,31.865,M,330.6,2010*6C,43.46202804426667,141.80574820243334,565181.0992898864,4812439.580786673
1529,[2021-01-29 11:29:09.259] $GNGGA,22907.7,4327.721682662,N,14148.344891476001,E,4,9.0,1.33,112.609,M,31.865,M,330.7,2010*6E,43.46202804436666,141.80574819126667,565181.0983864464,4812439.580789039
1530,[2021-01-29 11:29:09.354] $GNGGA,22907.8,4327.721682104,N,14148.344891853001,E,4,9.0,1.33,112.61,M,31.865,M,330.8,2010*6A,43.462028035066666,141.80574819755,565181.0989047326,4812439.57976112
1531,[2021-01-29 11:29:09.464] $GNGGA,22907.9,4327.721682132,N,14148.344892515,E,4,9.0,1.33,112.61,M,31.865,M,330.9,2010*63,43.46202803553333,141.80574820858337,565181.0997967782,4812439.57982158
1532,[2021-01-29 11:29:09.558] $GNGGA,22908.0,4327.721682306,N,14148.3448917,E,4,9.0,1.33,112.611,M,31.865,M,331.0,2010*6C,43.46202803843334,141.805748195,565181.0986948308,4812439.580133019
1533,[2021-01-29 11:29:09.651] $GNGGA,22908.1,4327.721681649,N,14148.344892747,E,4,9.0,1.33,112.61200000000001,M,31.865,M,331.1,2010*62,43.46202802748333,141.80574821245,565181.1001182203,4812439.57893059
1534,[2021-01-29 11:29:09.761] $GNGGA,22908.2,4327.721682263,N,14148.344892336001,E,4,9.0,1.33,112.61,M,31.865,M,331.2,2010*6D,43.46202803771666,141.80574820560003,565181.0995530942,4812439.580061721
1535,[2021-01-29 11:29:09.854] $GNGGA,22908.3,4327.72168252,N,14148.344892117,E,4,9.0,1.33,112.61,M,31.865,M,331.3,2010*6C,43.462028042,141.80574820195002,565181.0992532236,4812439.580534563
1536,[2021-01-29 11:29:09.964] $GNGGA,22908.4,4327.721682304,N,14148.344892178,E,4,9.0,1.33,112.61200000000001,M,31.865,M,331.4,2010*67,43.4620280384,141.80574820296667,565181.0993393344,4812439.58013555
1537,[2021-01-29 11:29:10.058] $GNGGA,22908.5,4327.7216819840005,N,14148.344892638,E,4,9.0,1.33,112.609,M,31.865,M,331.5,2010*6F,43.46202803306668,141.8057482106333,565181.0999652604,4812439.579549244
1538,[2021-01-29 11:29:10.151] $GNGGA,22908.6,4327.721682352,N,14148.344891462,E,4,9.0,1.33,112.60799999999999,M,31.865,M,331.6,2010*62,43.4620280392,141.80574819103333,565181.0983731224,4812439.580215059
1539,[2021-01-29 11:29:10.264] $GNGGA,22908.7,4327.72168209,N,14148.344891388999,E,4,9.0,1.33,112.61,M,31.865,M,331.7,2010*64,43.46202803483334,141.80574818981665,565181.0982793904,4812439.579729154
1540,[2021-01-29 11:29:10.355] $GNGGA,22908.8,4327.721681737,N,14148.34489185,E,4,9.0,1.33,112.60600000000001,M,31.865,M,331.8,2010*65,43.462028028949995,141.80574819749998,565181.0989072575,4812439.579081776
1541,[2021-01-29 11:29:10.465] $GNGGA,22908.9,4327.721681947,N,14148.344891223,E,4,9.0,1.33,112.60799999999999,M,31.865,M,331.9,2010*6C,43.46202803245001,141.80574818704997,565181.0980581376,4812439.5794623
1542,[2021-01-29 11:29:10.558] $GNGGA,22909.0,4327.721681375,N,14148.344892503,E,4,9.0,1.33,112.60600000000001,M,31.865,M,332.0,2010*6D,43.46202802291667,141.80574820838336,565181.0997941549,4812439.578420243
1543,[2021-01-29 11:29:10.652] $GNGGA,22909.1,4327.7216814779995,N,14148.344892578001,E,4,9.0,1.33,112.604,M,31.865,M,332.1,2010*69,43.46202802463333,141.80574820963335,565181.0998934285,4812439.578611871
1544,[2021-01-29 11:29:10.761] $GNGGA,22909.2,4327.721681855,N,14148.344892664,E,4,9.0,1.33,112.605,M,31.865,M,332.2,2010*65,43.462028030916656,141.80574821106666,565181.100002626,4812439.579310805
1545,[2021-01-29 11:29:10.855] $GNGGA,22909.3,4327.72168172,N,14148.34489296,E,4,9.0,1.33,112.604,M,31.865,M,332.3,2010*62,43.462028028666666,141.805748216,565181.1004041283,4812439.579064787
1546,[2021-01-29 11:29:10.965] $GNGGA,22909.4,4327.721681802,N,14148.344892807,E,4,9.0,1.33,112.60600000000001,M,31.865,M,332.4,2010*6F,43.46202803003332,141.80574821345002,565181.1001963775,4812439.579214569
1547,[2021-01-29 11:29:11.058] $GNGGA,22909.5,4327.721681492,N,14148.344893656002,E,4,9.0,1.33,112.60700000000001,M,31.865,M,332.5,2010*60,43.46202802486667,141.80574822760005,565181.1013466014,4812439.578651845
1548,[2021-01-29 11:29:11.152] $GNGGA,22909.6,4327.721682975,N,14148.344893255,E,4,9.0,1.33,112.60799999999999,M,31.865,M,332.6,2010*6F,43.462028049583324,141.80574822091668,565181.1007793925,4812439.581391595
1549,[2021-01-29 11:29:11.262] $GNGGA,22909.7,4327.721682499,N,14148.344893439,E,4,9.0,1.33,112.61,M,31.865,M,332.7,2010*65,43.46202804165,141.80574822398333,565181.1010359931,4812439.580512936
1550,[2021-01-29 11:29:11.357] $GNGGA,22909.8,4327.721681635,N,14148.344894643,E,4,9.0,1.33,112.61,M,31.865,M,332.8,2010*6A,43.46202802725,141.80574824405,565181.1026747668,4812439.578929406
1551,[2021-01-29 11:29:11.451] $GNGGA,22909.9,4327.72183809,N,14148.344174718999,E,4,10.0,1.3,113.303,M,31.865,M,332.9,2010*6B,43.46203063483334,141.80573624531667,565180.1292306856,4812439.859132065
1552,[2021-01-29 11:29:11.560] $GNGGA,22910.0,4327.721838081,N,14148.344175249,E,4,10.0,1.3,113.301,M,31.865,M,333.0,2010*61,43.46203063468333,141.80573625415,565180.1299454237,4812439.859122318
1553,[2021-01-29 11:29:11.654] $GNGGA,22910.1,4327.721838792,N,14148.34417594,E,4,10.0,1.3,113.29899999999999,M,31.865,M,333.1,2010*66,43.462030646533336,141.80573626566667,565180.1308643373,4812439.8604473695
1554,[2021-01-29 11:29:11.763] $GNGGA,22910.2,4327.7218383829995,N,14148.344175345,E,4,10.0,1.3,113.29899999999999,M,31.865,M,333.2,2010*6D,43.46203063971666,141.80573625575,565180.1300694484,4812439.859682561
1555,[2021-01-29 11:29:11.857] $GNGGA,22910.3,4327.721838251,N,14148.344176561,E,4,10.0,1.3,113.29899999999999,M,31.865,M,333.3,2010*60,43.46203063751667,141.80573627601666,565180.1317112929,4812439.859454096
1556,[2021-01-29 11:29:11.951] $GNGGA,22910.4,4327.721838276,N,14148.344178166,E,4,10.0,1.3,113.29899999999999,M,31.865,M,333.4,2010*68,43.46203063793334,141.80573630276666,565180.1338747969,4812439.859521304
1557,[2021-01-29 11:29:12.060] $GNGGA,22910.5,4327.721837765,N,14148.344177531999,E,4,10.0,1.3,113.29799999999999,M,31.865,M,333.5,2010*6B,43.46203062941666,141.80573629219998,565180.133029152,4812439.858567191
1558,[2021-01-29 11:29:12.154] $GNGGA,22910.6,4327.7218376929995,N,14148.344179303,E,4,10.0,1.3,113.296,M,31.865,M,333.6,2010*67,43.46203062821666,141.8057363217167,565180.1354182063,4812439.85845702
1559,[2021-01-29 11:29:12.264] $GNGGA,22910.7,4327.721837262,N,14148.344180181,E,4,10.0,1.3,113.29700000000001,M,31.865,M,333.7,2010*62,43.46203062103333,141.80573633635004,565180.1366096949,4812439.857670706
1560,[2021-01-29 11:29:12.357] $GNGGA,22910.8,4327.721836305,N,14148.344181696999,E,4,10.0,1.3,113.295,M,31.865,M,333.8,2010*60,43.46203060508333,141.80573636161665,565180.138670784,4812439.855919106
1561,[2021-01-29 11:29:12.451] $GNGGA,22910.9,4327.721835384,N,14148.344183298,E,4,10.0,1.3,113.296,M,31.865,M,333.9,2010*60,43.46203058973333,141.80573638830003,565180.1408458406,4812439.85423525
1562,[2021-01-29 11:29:12.561] $GNGGA,22911.0,4327.721835549,N,14148.344183358,E,4,10.0,1.3,113.294,M,31.865,M,334.0,2010*6E,43.462030592483345,141.8057363893,565180.1409237767,4812439.854541443
1563,[2021-01-29 11:29:12.654] $GNGGA,22911.1,4327.72183487,N,14148.344185001999,E,4,10.0,1.3,113.294,M,31.865,M,334.1,2010*62,43.46203058116666,141.8057364167,565180.143152471,4812439.853306078
1564,[2021-01-29 11:29:12.764] $GNGGA,22911.2,4327.721834661,N,14148.344185627,E,4,10.0,1.3,113.295,M,31.865,M,334.2,2010*6C,43.46203057768333,141.80573642711664,565180.1439988725,4812439.852927379
1565,[2021-01-29 11:29:12.857] $GNGGA,22911.3,4327.721834764,N,14148.344185316,E,4,10.0,1.3,113.29299999999999,M,31.865,M,334.3,2010*69,43.4620305794,141.80573642193335,565180.143577722,4812439.853113973
1566,[2021-01-29 11:29:12.967] $GNGGA,22911.4,4327.721834485999,N,14148.344185713,E,4,10.0,1.3,113.294,M,31.865,M,334.4,2010*60,43.46203057476666,141.80573642855,565180.1441179585,4812439.852604581
1567,[2021-01-29 11:29:13.060] $GNGGA,22911.5,4327.721834242,N,14148.344187126,E,4,10.0,1.3,113.294,M,31.865,M,334.5,2010*6C,43.4620305707,141.8057364521,565180.1460274144,4812439.852171376
1568,[2021-01-29 11:29:13.154] $GNGGA,22911.6,4327.721833092,N,14148.344188778,E,4,10.0,1.3,113.29,M,31.865,M,334.6,2010*62,43.462030551533346,141.80573647963334,565180.1482753264,4812439.850064316
1569,[2021-01-29 11:29:13.266] $GNGGA,22911.7,4327.721832783,N,14148.344189111001,E,4,10.0,1.3,113.29,M,31.865,M,334.7,2010*6C,43.46203054638333,141.80573648518333,565180.1487298282,4812439.849496709
1570,[2021-01-29 11:29:13.359] $GNGGA,22911.8,4327.721832549,N,14148.344189123998,E,4,10.0,1.3,113.289,M,31.865,M,334.8,2010*66,43.46203054248334,141.80573648539996,565180.148751543,4812439.849063753
1571,[2021-01-29 11:29:13.453] $GNGGA,22911.9,4327.721679562,N,14148.344888756,E,4,9.0,1.33,112.616,M,31.865,M,334.9,2010*6D,43.4620279927,141.80574814593334,565181.0947746976,4812439.57501557
1572,[2021-01-29 11:29:13.562] $GNGGA,22912.0,4327.721679645,N,14148.344888942,E,4,9.0,1.33,112.618,M,31.865,M,335.0,2010*6C,43.46202799408334,141.80574814903335,565181.095023989,4812439.575171628
1573,[2021-01-29 11:29:13.656] $GNGGA,22912.1,4327.721679259001,N,14148.344889004,E,4,9.0,1.33,112.62,M,31.865,M,335.1,2010*64,43.46202798765,141.80574815006665,565181.09511449,4812439.574457963
1574,[2021-01-29 11:29:13.766] $GNGGA,22912.2,4327.721678749001,N,14148.344889039,E,4,9.0,1.33,112.62,M,31.865,M,335.2,2010*6F,43.46202797915001,141.80574815064998,565181.0951708119,4812439.573514428
1575,[2021-01-29 11:29:13.859] $GNGGA,22912.3,4327.721678442,N,14148.344890127,E,4,9.0,1.33,112.62100000000001,M,31.865,M,335.3,2010*60,43.46202797403333,141.80574816878334,565181.0966432149,4812439.572960372
1576,[2021-01-29 11:29:13.953] $GNGGA,22912.4,4327.721677798,N,14148.344890475,E,4,9.0,1.33,112.62200000000001,M,31.865,M,335.4,2010*6A,43.4620279633,141.80574817458333,565181.0971239387,4812439.571772889
1577,[2021-01-29 11:29:14.062] $GNGGA,22912.5,4327.721677675,N,14148.344890143,E,4,9.0,1.33,112.62100000000001,M,31.865,M,335.5,2010*6B,43.46202796125,141.80574816905,565181.0966785186,4812439.57154089
1578,[2021-01-29 11:29:14.156] $GNGGA,22912.6,4327.72167721,N,14148.344890339,E,4,9.0,1.33,112.62299999999999,M,31.865,M,335.6,2010*61,43.4620279535,141.8057481723167,565181.0969511069,4812439.570682748
1579,[2021-01-29 11:29:14.267] $GNGGA,22912.7,4327.7216770820005,N,14148.344890408,E,4,9.0,1.33,112.62100000000001,M,31.865,M,335.7,2010*6F,43.46202795136667,141.80574817346667,565181.0970464277,4812439.570446725
1580,[2021-01-29 11:29:14.361] $GNGGA,22912.8,4327.72167696,N,14148.344890527,E,4,9.0,1.33,112.62100000000001,M,31.865,M,335.8,2010*67,43.46202794933334,141.80574817545,565181.0972090536,4812439.57022246
1581,[2021-01-29 11:29:14.455] $GNGGA,22912.9,4327.7216775,N,14148.344890591,E,4,9.0,1.33,112.62,M,31.865,M,335.9,2010*60,43.46202795833333,141.80574817651666,565181.0972856716,4812439.571222815
1582,[2021-01-29 11:29:14.564] $GNGGA,22913.0,4327.721828781,N,14148.344196073998,E,4,10.0,1.3,113.288,M,31.865,M,336.0,2010*60,43.462030479683335,141.8057366012333,565180.1581893996,4812439.842179966
1583,[2021-01-29 11:29:14.658] $GNGGA,22913.1,4327.721681569,N,14148.344888601001,E,4,10.0,1.3,112.60799999999999,M,31.865,M,336.1,2010*66,43.462028026149994,141.80574814335003,565181.0945297821,4812439.578728435
1584,[2021-01-29 11:29:14.752] $GNGGA,22913.2,4327.721828758,N,14148.344197643999,E,4,10.0,1.3,113.289,M,31.865,M,336.2,2010*61,43.4620304793,141.8057366274,565180.1603065777,4812439.84215787
1585,[2021-01-29 11:29:14.861] $GNGGA,22913.3,4327.721829035,N,14148.344197523998,E,4,10.0,1.3,113.289,M,31.865,M,336.3,2010*69,43.462030483916664,141.8057366254,565180.1601398261,4812439.842669021
1586,[2021-01-29 11:29:14.955] $GNGGA,22913.4,4327.7218296890005,N,14148.344198253999,E,4,10.0,1.3,113.287,M,31.865,M,336.4,2010*69,43.46203049481667,141.80573663756667,565180.1611123448,4812439.843889075
1587,[2021-01-29 11:29:15.064] $GNGGA,22913.5,4327.721829352,N,14148.344199028,E,4,10.0,1.3,113.289,M,31.865,M,336.5,2010*6C,43.462030489200004,141.80573665046666,565180.162161928,4812439.843275396
1588,[2021-01-29 11:29:15.158] $GNGGA,22913.6,4327.7218292570005,N,14148.344199788,E,4,10.0,1.3,113.288,M,31.865,M,336.6,2010*64,43.46203048761667,141.80573666313333,565180.1631883049,4812439.843109468
1589,[2021-01-29 11:29:15.260] $GNGGA,22913.7,4327.721828907,N,14148.344200516001,E,4,10.0,1.3,113.286,M,31.865,M,336.7,2010*63,43.46203048178333,141.8057366752667,565180.1641761072,4812439.842471124
1590,[2021-01-29 11:29:15.362] $GNGGA,22913.8,4327.721828149,N,14148.344199977,E,4,10.0,1.3,113.29,M,31.865,M,336.8,2010*6E,43.462030469150015,141.80573666628334,565180.1634629674,4812439.841061064
1591,[2021-01-29 11:29:15.456] $GNGGA,22913.9,4327.721827406,N,14148.344199942,E,4,10.0,1.3,113.29,M,31.865,M,336.9,2010*69,43.46203045676666,141.80573666569998,565180.1634290802,4812439.839685338
1592,[2021-01-29 11:29:15.566] $GNGGA,22914.0,4327.721680637,N,14148.344886986,E,4,10.0,1.3,112.616,M,31.865,M,337.0,2010*68,43.46202801061666,141.80574811643336,565181.0923690372,4812439.576982271
1593,[2021-01-29 11:29:15.659] $GNGGA,22914.1,4327.7218270779995,N,14148.344200963,E,4,10.0,1.3,113.292,M,31.865,M,337.1,2010*60,43.462030451299995,141.80573668271668,565180.1648115269,4812439.839091538
1594,[2021-01-29 11:29:15.753] $GNGGA,22914.2,4327.721827011,N,14148.344201568001,E,4,10.0,1.3,113.292,M,31.865,M,337.2,2010*69,43.46203045018333,141.8057366928,565180.1656284194,4812439.838975415
1595,[2021-01-29 11:29:15.862] $GNGGA,22914.3,4327.721826978,N,14148.344201537,E,4,10.0,1.3,113.291,M,31.865,M,337.3,2010*67,43.462030449633325,141.80573669228335,565180.1655872158,4812439.838913928
1596,[2021-01-29 11:29:15.956] $GNGGA,22914.4,4327.721826699,N,14148.344202093,E,4,10.0,1.3,113.29299999999999,M,31.865,M,337.4,2010*6D,43.46203044498334,141.80573670155,565180.1663418419,4812439.8384047635
1597,[2021-01-29 11:29:16.066] $GNGGA,22914.5,4327.721826544001,N,14148.344202179,E,4,10.0,1.3,113.292,M,31.865,M,337.5,2010*6A,43.46203044240001,141.8057367029833,565180.1664605637,4812439.838118984
1598,[2021-01-29 11:29:16.159] $GNGGA,22914.6,4327.721826687,N,14148.344202926,E,4,10.0,1.3,113.289,M,31.865,M,337.6,2010*6E,43.46203044478334,141.80573671543334,565180.1674651562,4812439.838393415
1599,[2021-01-29 11:29:16.262] $GNGGA,22914.7,4327.7218267729995,N,14148.344202577,E,4,10.0,1.3,113.289,M,31.865,M,337.7,2010*6C,43.46203044621665,141.80573670961664,565180.1669930719,4812439.838548045
1600,[2021-01-29 11:29:16.364] $GNGGA,22914.8,4327.721826377,N,14148.344203556,E,4,10.0,1.3,113.29,M,31.865,M,337.8,2010*66,43.46203043961667,141.80573672593331,565180.1683201073,4812439.837827834
1601,[2021-01-29 11:29:16.458] $GNGGA,22914.9,4327.72182623,N,14148.344204158999,E,4,10.0,1.3,113.291,M,31.865,M,337.9,2010*69,43.462030437166675,141.80573673598332,565180.1691357378,4812439.837563608
1602,[2021-01-29 11:29:16.552] $GNGGA,22915.0,4327.72182597,N,14148.344202971999,E,4,10.0,1.3,113.292,M,31.865,M,338.0,2010*6F,43.46203043283333,141.80573671619996,565180.1675400106,4812439.837066873
1603,[2021-01-29 11:29:16.661] $GNGGA,22915.1,4327.721826607,N,14148.344203,E,4,10.0,1.3,113.294,M,31.865,M,338.1,2010*68,43.462030443450004,141.80573671666664,565180.1675663564,4812439.838246304
1604,[2021-01-29 11:29:16.755] $GNGGA,22915.2,4327.721826359,N,14148.344203665,E,4,10.0,1.3,113.292,M,31.865,M,338.2,2010*65,43.46203043931667,141.80573672774997,565180.1684673887,4812439.837795937
1605,[2021-01-29 11:29:16.864] $GNGGA,22915.3,4327.7218260479995,N,14148.344203162,E,4,10.0,1.3,113.296,M,31.865,M,338.3,2010*62,43.46203043413333,141.80573671936668,565180.1677947865,4812439.837213728
1606,[2021-01-29 11:29:16.958] $GNGGA,22915.4,4327.7218263429995,N,14148.3442028,E,4,10.0,1.3,113.295,M,31.865,M,338.4,2010*65,43.46203043904999,141.80573671333335,565180.1673014351,4812439.837755039
1607,[2021-01-29 11:29:17.067] $GNGGA,22915.5,4327.721826378,N,14148.344202032,E,4,10.0,1.3,113.294,M,31.865,M,338.5,2010*65,43.462030439633324,141.80573670053334,565180.1662653469,4812439.837809806
1608,[2021-01-29 11:29:17.161] $GNGGA,22915.6,4327.72182594,N,14148.344201573998,E,4,10.0,1.3,113.295,M,31.865,M,338.6,2010*62,43.46203043233332,141.80573669289998,565180.1656556863,4812439.836993109
1609,[2021-01-29 11:29:17.265] $GNGGA,22915.7,4327.721826267,N,14148.344202496999,E,4,10.0,1.3,113.295,M,31.865,M,338.7,2010*60,43.46203043778334,141.80573670828335,565180.1668942735,4812439.837610414
1610,[2021-01-29 11:29:17.366] $GNGGA,22915.8,4327.721825488,N,14148.344202453001,E,4,10.0,1.3,113.29299999999999,M,31.865,M,338.8,2010*6A,43.4620304248,141.80573670755,565180.1668488991,4812439.836167938
1611,[2021-01-29 11:29:17.460] $GNGGA,22915.9,4327.7218260029995,N,14148.344201923,E,4,10.0,1.3,113.295,M,31.865,M,338.9,2010*61,43.462030433383326,141.8057366987167,565180.1661251027,4812439.837114272
1612,[2021-01-29 11:29:17.554] $GNGGA,22916.0,4327.721825089,N,14148.344201951999,E,4,10.0,1.3,113.295,M,31.865,M,339.0,2010*64,43.46203041815,141.8057366992,565180.1661805671,4812439.835422869
1613,[2021-01-29 11:29:17.663] $GNGGA,22916.1,4327.721824823,N,14148.344202469,E,4,10.0,1.3,113.294,M,31.865,M,339.1,2010*6A,43.46203041371667,141.80573670781666,565180.1668823782,4812439.834937256
1614,[2021-01-29 11:29:17.757] $GNGGA,22916.2,4327.721825554,N,14148.344202563001,E,4,10.0,1.3,113.292,M,31.865,M,339.2,2010*6B,43.4620304259,141.80573670938335,565180.1669960268,4812439.836291537
1615,[2021-01-29 11:29:17.866] $GNGGA,22916.3,4327.721825762,N,14148.344201801001,E,4,10.0,1.3,113.291,M,31.865,M,339.3,2010*65,43.46203042936666,141.80573669668334,565180.1659649301,4812439.836666598
1616,[2021-01-29 11:29:17.960] $GNGGA,22916.4,4327.7218256159995,N,14148.34420154,E,4,10.0,1.3,113.288,M,31.865,M,339.4,2010*67,43.46203042693333,141.8057366923333,565180.1656156468,4812439.836392953
1617,[2021-01-29 11:29:18.054] $GNGGA,22916.5,4327.721826042,N,14148.344202333,E,4,10.0,1.3,113.289,M,31.865,M,339.5,2010*63,43.462030434033345,141.80573670555003,565180.1666771916,4812439.83719181
1618,[2021-01-29 11:29:18.163] $GNGGA,22916.6,4327.721826709,N,14148.34420255,E,4,10.0,1.3,113.288,M,31.865,M,339.6,2010*69,43.46203044515,141.8057367091667,565180.1669578182,4812439.838429231
1619,[2021-01-29 11:29:18.267] $GNGGA,22916.7,4327.721826291,N,14148.344202836,E,4,10.0,1.3,113.288,M,31.865,M,339.7,2010*60,43.46203043818333,141.80573671393333,565180.1673509019,4812439.837659257
1620,[2021-01-29 11:29:18.352] $GNGGA,22916.8,4327.721825625999,N,14148.34420324,E,4,10.0,1.3,113.29,M,31.865,M,339.8,2010*68,43.46203042709999,141.8057367206667,565180.1679075076,4812439.836433635
1621,[2021-01-29 11:29:18.461] $GNGGA,22916.9,4327.7218244,N,14148.344203593999,E,4,10.0,1.3,113.29,M,31.865,M,339.9,2010*61,43.46203040666666,141.80573672656664,565180.1684067401,4812439.834168971
1622,[2021-01-29 11:29:18.555] $GNGGA,22917.0,4327.721825138,N,14148.344203566001,E,4,10.0,1.3,113.291,M,31.865,M,340.0,2010*6D,43.46203041896666,141.8057367261,565180.1683557773,4812439.835534617
1623,[2021-01-29 11:29:18.664] $GNGGA,22917.1,4327.721825997,N,14148.344203086,E,4,10.0,1.3,113.289,M,31.865,M,340.1,2010*62,43.462030433283346,141.8057367181,565180.1676932316,4812439.837118337
1624,[2021-01-29 11:29:18.758] $GNGGA,22917.2,4327.721825637,N,14148.344202485,E,4,10.0,1.3,113.29299999999999,M,31.865,M,340.2,2010*6A,43.46203042728333,141.8057367080833,565180.1668893718,4812439.836444149
1625,[2021-01-29 11:29:18.852] $GNGGA,22917.3,4327.721825922,N,14148.344202469,E,4,10.0,1.3,113.29,M,31.865,M,340.3,2010*60,43.46203043203333,141.80573670781666,565180.1668626992,4812439.8369714655
1626,[2021-01-29 11:29:18.961] $GNGGA,22917.4,4327.721825669,N,14148.344202683,E,4,10.0,1.3,113.289,M,31.865,M,340.4,2010*6E,43.46203042781668,141.80573671138333,565180.1671557571,4812439.836505964
1627,[2021-01-29 11:29:19.055] $GNGGA,22917.5,4327.721825827,N,14148.344203466999,E,4,10.0,1.3,113.289,M,31.865,M,340.5,2010*63,43.46203043045001,141.80573672444999,565180.1682099607,4812439.836808643
1628,[2021-01-29 11:29:19.164] $GNGGA,22917.6,4327.721825465,N,14148.344203813998,E,4,10.0,1.3,113.288,M,31.865,M,340.6,2010*60,43.46203042441666,141.8057367302333,565180.1686842847,4812439.836143117
1629,[2021-01-29 11:29:19.264] $GNGGA,22917.7,4327.721825471,N,14148.344203187,E,4,10.0,1.3,113.288,M,31.865,M,340.7,2010*66,43.462030424516655,141.80573671978334,565180.1678388239,4812439.836146045
1630,[2021-01-29 11:29:19.353] $GNGGA,22917.8,4327.721825708,N,14148.344203683,E,4,10.0,1.3,113.288,M,31.865,M,340.8,2010*68,43.46203042846667,141.80573672805002,565180.1685033176,4812439.836591193
1631,[2021-01-29 11:29:19.463] $GNGGA,22917.9,4327.7218256529995,N,14148.344203435,E,4,10.0,1.3,113.287,M,31.865,M,340.9,2010*67,43.46203042755,141.80573672391665,565180.1681699316,4812439.836486156
1632,[2021-01-29 11:29:19.556] $GNGGA,22918.0,4327.721826178,N,14148.344202945,E,4,10.0,1.3,113.288,M,31.865,M,341.0,2010*60,43.4620304363,141.80573671575002,565180.1674998865,4812439.837451521
1633,[2021-01-29 11:29:19.666] $GNGGA,22918.1,4327.721825812,N,14148.344202393,E,4,10.0,1.3,113.28200000000001,M,31.865,M,341.1,2010*6D,43.4620304302,141.80573670655,565180.1667622006,4812439.83676687
1634,[2021-01-29 11:29:19.760] $GNGGA,22918.2,4327.721826422,N,14148.344202656,E,4,10.0,1.3,113.28200000000001,M,31.865,M,341.2,2010*6D,43.462030440366675,141.80573671093333,565180.1671058699,4812439.837899389
1635,[2021-01-29 11:29:19.853] $GNGGA,22918.3,4327.721826174,N,14148.344203031002,E,4,10.0,1.3,113.28200000000001,M,31.865,M,341.3,2010*6D,43.46203043623333,141.80573671718335,565180.1676159084,4812439.83744524
1636,[2021-01-29 11:29:19.963] $GNGGA,22918.4,4327.721825843,N,14148.344202579,E,4,10.0,1.3,113.28399999999999,M,31.865,M,341.4,2010*6D,43.46203043071667,141.80573670965,565180.1670124232,4812439.836826676
1637,[2021-01-29 11:29:20.056] $GNGGA,22918.5,4327.721826393,N,14148.344202744,E,4,10.0,1.3,113.28399999999999,M,31.865,M,341.5,2010*64,43.46203043988333,141.80573671239998,565180.1672250337,4812439.8378468575
1638,[2021-01-29 11:29:20.166] $GNGGA,22918.6,4327.721826304,N,14148.344202248001,E,4,10.0,1.3,113.28299999999999,M,31.865,M,341.6,2010*64,43.46203043840001,141.80573670413335,565180.166557896,4812439.837675653
1639,[2021-01-29 11:29:20.260] $GNGGA,22918.7,4327.721826219,N,14148.344202503,E,4,10.0,1.3,113.28200000000001,M,31.865,M,341.7,2010*60,43.462030436983326,141.80573670838334,565180.1669032222,4812439.837521645
1640,[2021-01-29 11:29:20.355] $GNGGA,22918.8,4327.721826628,N,14148.344201865,E,4,10.0,1.3,113.28200000000001,M,31.865,M,341.8,2010*68,43.46203044379999,141.80573669775,565180.1660357108,4812439.838270368
1641,[2021-01-29 11:29:20.464] $GNGGA,22918.9,4327.721827061,N,14148.344201512,E,4,10.0,1.3,113.28200000000001,M,31.865,M,341.9,2010*6F,43.462030451016666,141.80573669186668,565180.1655520243,4812439.839067234
1642,[2021-01-29 11:29:20.558] $GNGGA,22919.0,4327.721827182,N,14148.344201409,E,4,10.0,1.3,113.28,M,31.865,M,342.0,2010*68,43.46203045303334,141.80573669015,565180.1654109856,4812439.839289858
1643,[2021-01-29 11:29:20.652] $GNGGA,22919.1,4327.721679941,N,14148.344891748,E,4,10.0,1.3,112.634,M,31.865,M,342.1,2010*65,43.46202799901666,141.8057481958,565181.0988018961,4812439.575756112
1644,[2021-01-29 11:29:20.761] $GNGGA,22919.2,4327.721680544,N,14148.344891768998,E,4,10.0,1.3,112.635,M,31.865,M,342.2,2010*68,43.46202800906668,141.80574819615,565181.0988194129,4812439.576872519
1645,[2021-01-29 11:29:20.855] $GNGGA,22919.3,4327.72168034,N,14148.344892297,E,4,10.0,1.3,112.634,M,31.865,M,342.3,2010*6C,43.46202800566666,141.80574820495002,565181.0995349464,4812439.576501806
1646,[2021-01-29 11:29:20.964] $GNGGA,22919.4,4327.721681128,N,14148.344891611001,E,4,10.0,1.3,112.635,M,31.865,M,342.4,2010*69,43.4620280188,141.80574819351668,565181.0985959319,4812439.57795142
1647,[2021-01-29 11:29:21.058] $GNGGA,22919.5,4327.721680795,N,14148.344892231002,E,4,10.0,1.3,112.635,M,31.865,M,342.5,2010*6D,43.46202801325,141.80574820385002,565181.0994378127,4812439.577343136
1648,[2021-01-29 11:29:21.152] $GNGGA,22919.6,4327.721680926,N,14148.34489276,E,4,10.0,1.3,112.632,M,31.865,M,342.6,2010*6D,43.462028015433326,141.80574821266666,565181.1001486935,4812439.577592513
1649,[2021-01-29 11:29:21.262] $GNGGA,22919.7,4327.721681103,N,14148.344892663,E,4,10.0,1.3,112.634,M,31.865,M,342.7,2010*67,43.462028018383336,141.80574821105003,565181.1000147455,4812439.5779188685
1650,[2021-01-29 11:29:21.357] $GNGGA,22919.8,4327.7216816,N,14148.344892316001,E,4,10.0,1.3,112.634,M,31.865,M,342.8,2010*64,43.462028026666665,141.8057482052667,565181.099538002,4812439.578834271
1651,[2021-01-29 11:29:21.466] $GNGGA,22919.9,4327.7216823320005,N,14148.344893472,E,4,10.0,1.3,112.632,M,31.865,M,342.9,2010*61,43.46202803886667,141.80574822453335,565181.1010834787,4812439.580204257
1652,[2021-01-29 11:29:21.560] $GNGGA,22920.0,4327.721682480999,N,14148.344893598001,E,4,10.0,1.3,112.633,M,31.865,M,343.0,2010*61,43.46202804134998,141.80574822663337,565181.1012506915,4812439.58048169
1653,[2021-01-29 11:29:21.654] $GNGGA,22920.1,4327.721682684,N,14148.344893922,E,4,10.0,1.3,112.633,M,31.865,M,343.1,2010*6B,43.46202804473334,141.80574823203335,565181.1016838914,4812439.580861665
1654,[2021-01-29 11:29:21.763] $GNGGA,22920.2,4327.721682358,N,14148.344893168001,E,4,10.0,1.3,112.632,M,31.865,M,343.2,2010*68,43.46202803930001,141.8057482194667,565181.1006731422,4812439.580248416
1655,[2021-01-29 11:29:21.857] $GNGGA,22920.3,4327.721682281,N,14148.344892966,E,4,10.0,1.3,112.632,M,31.865,M,343.3,2010*6A,43.46202803801666,141.8057482161,565181.1004021721,4812439.580103257
1656,[2021-01-29 11:29:21.966] $GNGGA,22920.4,4327.721682479,N,14148.34489369,E,4,10.0,1.3,112.63,M,31.865,M,343.4,2010*6E,43.46202804131667,141.80574822816666,565181.1013747647,4812439.580479192
1657,[2021-01-29 11:29:22.060] $GNGGA,22920.5,4327.721682097,N,14148.344893895,E,4,10.0,1.3,112.631,M,31.865,M,343.5,2010*60,43.462028034949995,141.80574823158335,565181.1016579987,4812439.579774796
1658,[2021-01-29 11:29:22.154] $GNGGA,22920.6,4327.721682271,N,14148.344894265,E,4,10.0,1.3,112.63,M,31.865,M,343.6,2010*69,43.46202803784999,141.80574823775,565181.1021537378,4812439.58010169
1659,[2021-01-29 11:29:22.263] $GNGGA,22920.7,4327.721682714,N,14148.34489484,E,4,10.0,1.3,112.62700000000001,M,31.865,M,343.7,2010*64,43.46202804523334,141.80574824733333,565181.1029210516,4812439.580929168
1660,[2021-01-29 11:29:22.357] $GNGGA,22920.8,4327.72168279,N,14148.34489462,E,4,10.0,1.3,112.626,M,31.865,M,343.8,2010*61,43.462028046499995,141.8057482436667,565181.1026230779,4812439.581066971
1661,[2021-01-29 11:29:22.466] $GNGGA,22920.9,4327.721682662,N,14148.344893873,E,4,10.0,1.3,112.624,M,31.865,M,343.9,2010*60,43.46202804436666,141.80574823121665,565181.1016182167,4812439.580820304
1662,[2021-01-29 11:29:22.560] $GNGGA,22921.0,4327.721682485,N,14148.344894816,E,4,10.0,1.3,112.62299999999999,M,31.865,M,344.0,2010*6E,43.462028041416666,141.80574824693335,565181.1028927951,4812439.580504984
1663,[2021-01-29 11:29:22.654] $GNGGA,22921.1,4327.721682999,N,14148.344895271,E,4,10.0,1.3,112.62100000000001,M,31.865,M,344.1,2010*66,43.46202804998334,141.8057482545167,565181.103497048,4812439.581462315
1664,[2021-01-29 11:29:22.763] $GNGGA,22921.2,4327.721682562,N,14148.344894842,E,4,10.0,1.3,112.62200000000001,M,31.865,M,344.2,2010*66,43.462028042700005,141.80574824736667,565181.1029264698,4812439.580647849
1665,[2021-01-29 11:29:22.857] $GNGGA,22921.3,4327.72168322,N,14148.344894193999,E,4,10.0,1.3,112.62200000000001,M,31.865,M,344.3,2010*64,43.46202805366667,141.80574823656667,565181.1020410173,4812439.58185733
1666,[2021-01-29 11:29:22.966] $GNGGA,22921.4,4327.721683191,N,14148.344894967,E,4,10.0,1.3,112.62100000000001,M,31.865,M,344.4,2010*6A,43.46202805318334,141.80574824944998,565181.1030837371,4812439.581813735
1667,[2021-01-29 11:29:23.060] $GNGGA,22921.5,4327.721683967,N,14148.344894986001,E,4,10.0,1.3,112.62200000000001,M,31.865,M,344.5,2010*67,43.46202806611666,141.8057482497667,565181.1030954638,4812439.583250332
1668,[2021-01-29 11:29:23.154] $GNGGA,22921.6,4327.721684322,N,14148.344894724,E,4,10.0,1.3,112.62100000000001,M,31.865,M,344.6,2010*6E,43.46202807203334,141.8057482454,565181.1027358611,4812439.583904007
1669,[2021-01-29 11:29:23.265] $GNGGA,22921.7,4327.721684076,N,14148.344896083001,E,4,10.0,1.3,112.62,M,31.865,M,344.7,2010*65,43.46202806793334,141.80574826805,565181.1045725455,4812439.583466397
1670,[2021-01-29 11:29:23.358] $GNGGA,22921.8,4327.721684686,N,14148.34489488,E,4,10.0,1.3,112.619,M,31.865,M,344.8,2010*6F,43.4620280781,141.80574824800001,565181.1029396724,4812439.584579794
1671,[2021-01-29 11:29:23.452] $GNGGA,22921.9,4327.721684878,N,14148.344894578,E,4,10.0,1.3,112.617,M,31.865,M,344.9,2010*64,43.4620280813,141.80574824296667,565181.10252906,4812439.5849312395
2434,[2021-01-29 11:30:39.755] $GNGGA,23038.2,4327.72170919,N,14148.345460379,E,4,10.0,1.31,107.889,M,31.865,M,6.2,2010*67,43.462028486499996,141.80575767298333,565181.8649388488,4812439.63731185
2435,[2021-01-29 11:30:39.864] $GNGGA,23038.3,4327.7217089509995,N,14148.345460663999,E,4,10.0,1.31,107.889,M,31.865,M,6.3,2010*6A,43.46202848251666,141.8057576777333,565181.8653273791,4812439.636873186
2436,[2021-01-29 11:30:39.958] $GNGGA,23038.4,4327.7217096290005,N,14148.345459021,E,4,10.0,1.31,107.895,M,31.865,M,6.4,2010*6B,43.46202849381667,141.80575765035002,565181.8631000565,4812439.638106711
2437,[2021-01-29 11:30:40.052] $GNGGA,23038.5,4327.72170939,N,14148.345458391,E,4,10.0,1.31,107.897,M,31.865,M,6.5,2010*67,43.46202848983333,141.80575763985001,565181.8622549342,4812439.637656113
2438,[2021-01-29 11:30:40.161] $GNGGA,23038.6,4327.721708905,N,14148.345458653,E,4,10.0,1.31,107.896,M,31.865,M,6.6,2010*6A,43.462028481749996,141.80575764421667,565181.8626168607,4812439.636761812
2439,[2021-01-29 11:30:40.265] $GNGGA,23038.7,4327.721708476,N,14148.345457651001,E,4,10.0,1.31,107.902,M,31.865,M,6.7,2010*62,43.4620284746,141.8057576275167,565181.8612735914,4812439.635954679
2440,[2021-01-29 11:30:40.366] $GNGGA,23038.8,4327.721707902,N,14148.34545837,E,4,10.0,1.31,107.90100000000001,M,31.865,M,6.8,2010*69,43.46202846503334,141.8057576395,565181.862253265,4812439.634901605
2441,[2021-01-29 11:30:40.460] $GNGGA,23038.9,4327.721707109,N,14148.345458389,E,4,10.0,1.31,107.90100000000001,M,31.865,M,6.9,2010*6C,43.462028451816664,141.80575763981665,565181.862293079,4812439.633434035
2442,[2021-01-29 11:30:40.554] $GNGGA,23039.0,4327.721707866,N,14148.345457533,E,4,10.0,1.31,107.898,M,31.865,M,7.0,2010*65,43.462028464433324,141.80575762555,565181.8611254174,4812439.63482405
2443,[2021-01-29 11:30:40.663] $GNGGA,23039.1,4327.72170707,N,14148.345459576001,E,4,10.0,1.31,107.9,M,31.865,M,2.1,2010*60,43.46202845116666,141.8057576596,565181.8638941622,4812439.633377329
2444,[2021-01-29 11:30:40.757] $GNGGA,23039.2,4327.721707042,N,14148.345458373999,E,4,10.0,1.31,107.9,M,31.865,M,2.2,2010*64,43.462028450700004,141.80575763956665,565181.8622740556,4812439.633309825
2445,[2021-01-29 11:30:40.866] $GNGGA,23039.3,4327.7217077509995,N,14148.345459682,E,4,10.0,1.31,107.90100000000001,M,31.865,M,2.3,2010*6D,43.462028462516656,141.80575766136667,565181.8640248822,4812439.634639218
2446,[2021-01-29 11:30:40.960] $GNGGA,23039.4,4327.7217077820005,N,14148.345460178001,E,4,10.0,1.31,107.9,M,31.865,M,2.4,2010*6A,43.46202846303334,141.80575766963335,565181.8646930627,4812439.634703071
2447,[2021-01-29 11:30:41.054] $GNGGA,23039.5,4327.721707287,N,14148.345460183,E,4,10.0,1.31,107.897,M,31.865,M,2.5,2010*61,43.462028454783336,141.80575766971668,565181.8647086676,4812439.633786908
2448,[2021-01-29 11:30:41.163] $GNGGA,23039.6,4327.721706989,N,14148.345459336,E,4,10.0,1.31,107.9,M,31.865,M,2.6,2010*6C,43.462028449816664,141.8057576556,565181.8635720295,4812439.633224272
2449,[2021-01-29 11:30:41.265] $GNGGA,23039.7,4327.721707129001,N,14148.345460027,E,4,10.0,1.31,107.896,M,31.865,M,2.7,2010*68,43.46202845215001,141.80575766711667,565181.8645011677,4812439.633492422
2450,[2021-01-29 11:30:41.368] $GNGGA,23039.8,4327.721707166,N,14148.345459046,E,4,10.0,1.31,107.899,M,31.865,M,2.8,2010*61,43.46202845276666,141.80575765076668,565181.8631778663,4812439.633548109
2451,[2021-01-29 11:30:41.461] $GNGGA,23039.9,4327.721707712,N,14148.345458263,E,4,10.0,1.31,107.90100000000001,M,31.865,M,2.9,2010*60,43.46202846186668,141.80575763771668,565181.8621124044,4812439.634548526
2452,[2021-01-29 11:30:41.555] $GNGGA,23040.0,4327.721706165,N,14148.345459275,E,4,10.0,1.31,107.90299999999999,M,31.865,M,3.0,2010*6C,43.46202843608333,141.80575765458335,565181.8635045417,4812439.6316982815
2453,[2021-01-29 11:30:41.664] $GNGGA,23040.1,4327.721706436,N,14148.345459933998,E,4,10.0,1.31,107.902,M,31.865,M,3.1,2010*60,43.4620284406,141.80575766556663,565181.8643881872,4812439.632208489
2454,[2021-01-29 11:30:41.758] $GNGGA,23040.2,4327.721706165,N,14148.345460805,E,4,10.0,1.31,107.90100000000001,M,31.865,M,3.2,2010*69,43.46202843608333,141.80575768008336,565181.8655673756,4812439.631718237
2455,[2021-01-29 11:30:41.852] $GNGGA,23040.3,4327.721705457,N,14148.345461367,E,4,10.0,1.31,107.902,M,31.865,M,3.3,2010*63,43.46202842428334,141.80575768945002,565181.8663377753,4812439.630415086
2456,[2021-01-29 11:30:41.961] $GNGGA,23040.4,4327.721706668,N,14148.345461477,E,4,10.0,1.31,107.897,M,31.865,M,3.4,2010*65,43.46202844446666,141.80575769128336,565181.8664643975,4812439.632658037
2457,[2021-01-29 11:30:42.055] $GNGGA,23040.5,4327.7217067,N,14148.345460716,E,4,10.0,1.31,107.897,M,31.865,M,3.5,2010*6F,43.462028445,141.80575767860003,565181.8654378025,4812439.632707343
2458,[2021-01-29 11:30:42.164] $GNGGA,23040.6,4327.721706677,N,14148.345461475,E,4,10.0,1.31,107.898,M,31.865,M,3.6,2010*66,43.462028444616664,141.80575769125,565181.8664615379,4812439.63267467
2459,[2021-01-29 11:30:42.259] $GNGGA,23040.7,4327.721706695,N,14148.345460166001,E,4,10.0,1.31,107.899,M,31.865,M,3.7,2010*6D,43.462028444916655,141.80575766943335,565181.8646963489,4812439.632690913
2460,[2021-01-29 11:30:42.354] $GNGGA,23040.8,4327.72170682,N,14148.345460622,E,4,10.0,1.31,107.898,M,31.865,M,3.8,2010*6B,43.462028446999994,141.8057576770333,565181.8653089136,4812439.632928232
2461,[2021-01-29 11:30:42.463] $GNGGA,23040.9,4327.72170631,N,14148.345461486999,E,4,10.0,1.31,107.9,M,31.865,M,3.9,2010*6F,43.46202843849999,141.80575769145,565181.8664842882,4812439.631995522
2462,[2021-01-29 11:30:42.557] $GNGGA,23041.0,4327.721706838,N,14148.345459618999,E,4,10.0,1.31,107.902,M,31.865,M,4.0,2010*64,43.46202844729999,141.80575766031663,565181.8639562876,4812439.6329484675
2463,[2021-01-29 11:30:42.666] $GNGGA,23041.1,4327.721706102,N,14148.345460213,E,4,10.0,1.31,107.9,M,31.865,M,4.1,2010*62,43.46202843503334,141.80575767021665,565181.8647703335,4812439.631593905
2464,[2021-01-29 11:30:42.760] $GNGGA,23041.2,4327.721705177,N,14148.345460747,E,4,10.0,1.31,107.904,M,31.865,M,4.2,2010*63,43.46202841961667,141.80575767911662,565181.865506863,4812439.629888728
2465,[2021-01-29 11:30:42.854] $GNGGA,23041.3,4327.721705591,N,14148.34545984,E,4,10.0,1.31,107.9,M,31.865,M,4.3,2010*69,43.46202842651665,141.80575766400003,565181.8642765866,4812439.6306431955
2466,[2021-01-29 11:30:42.963] $GNGGA,23041.4,4327.721706212,N,14148.345461025,E,4,10.0,1.31,107.899,M,31.865,M,4.4,2010*67,43.46202843686667,141.80575768375,565181.8658631487,4812439.631808102
2467,[2021-01-29 11:30:43.057] $GNGGA,23041.5,4327.721705700999,N,14148.345461138999,E,4,10.0,1.31,107.90100000000001,M,31.865,M,4.5,2010*6F,43.46202842834999,141.80575768564998,565181.8660259993,4812439.630863745
2468,[2021-01-29 11:30:43.166] $GNGGA,23041.6,4327.7217061129995,N,14148.345460536999,E,4,10.0,1.31,107.899,M,31.865,M,4.6,2010*62,43.46202843521666,141.80575767561663,565181.8652069696,4812439.631618491
2469,[2021-01-29 11:30:43.264] $GNGGA,23041.7,4327.721707024,N,14148.345459918999,E,4,10.0,1.31,107.898,M,31.865,M,4.7,2010*6D,43.46202845040001,141.80575766531666,565181.8643574369,4812439.633296661
2470,[2021-01-29 11:30:43.355] $GNGGA,23041.8,4327.721706228,N,14148.345460201,E,4,10.0,1.31,107.899,M,31.865,M,4.8,2010*6B,43.46202843713333,141.80575767001667,565181.8647518988,4812439.63182697
2471,[2021-01-29 11:30:43.465] $GNGGA,23041.9,4327.721706603,N,14148.345460347,E,4,10.0,1.31,107.899,M,31.865,M,4.9,2010*65,43.46202844338333,141.80575767245,565181.8649420288,4812439.632522986
2472,[2021-01-29 11:30:43.559] $GNGGA,23042.0,4327.721707449,N,14148.345461055,E,4,10.0,1.31,107.896,M,31.865,M,5.0,2010*64,43.46202845748333,141.80575768424998,565181.8658814444,4812439.634098137
2473,[2021-01-29 11:30:43.652] $GNGGA,23042.1,4327.721706441,N,14148.345460291,E,4,10.0,1.31,107.896,M,31.865,M,5.1,2010*66,43.462028440683326,141.80575767151666,565181.8648694278,4812439.632222399
2474,[2021-01-29 11:30:43.762] $GNGGA,23042.2,4327.72170568,N,14148.345461039,E,4,10.0,1.31,107.9,M,31.865,M,5.2,2010*65,43.462028427999996,141.80575768398333,565181.8658915501,4812439.630823571
2475,[2021-01-29 11:30:43.855] $GNGGA,23042.3,4327.721705956,N,14148.345459765,E,4,10.0,1.31,107.899,M,31.865,M,5.3,2010*65,43.4620284326,141.80575766274998,565181.8641689286,4812439.63131782
2476,[2021-01-29 11:30:43.965] $GNGGA,23042.4,4327.721705805,N,14148.345458783999,E,4,10.0,1.31,107.90299999999999,M,31.865,M,5.4,2010*6E,43.46202843008333,141.80575764639997,565181.8628489915,4812439.6310255295
2477,[2021-01-29 11:30:44.059] $GNGGA,23042.5,4327.721705088,N,14148.345458013,E,4,10.0,1.31,107.90700000000001,M,31.865,M,5.5,2010*6E,43.46202841813333,141.80575763355,565181.8618223266,4812439.629688331
2478,[2021-01-29 11:30:44.152] $GNGGA,23042.6,4327.721704458,N,14148.345458044,E,4,10.0,1.31,107.90299999999999,M,31.865,M,5.6,2010*60,43.46202840763333,141.80575763406665,565181.8618754024,4812439.628522626
2479,[2021-01-29 11:30:44.262] $GNGGA,23042.7,4327.721705016,N,14148.345458916001,E,4,10.0,1.31,107.904,M,31.865,M,5.7,2010*66,43.46202841693333,141.8057576486,565181.8630410922,4812439.629566839
2480,[2021-01-29 11:30:44.356] $GNGGA,23042.8,4327.72170529,N,14148.345460289,E,4,10.0,1.31,107.90799999999999,M,31.865,M,5.8,2010*60,43.4620284215,141.80575767148332,565181.8648873421,4812439.630091913
2481,[2021-01-29 11:30:44.465] $GNGGA,23042.9,4327.721705814,N,14148.345459126002,E,4,10.0,1.31,107.90700000000001,M,31.865,M,5.9,2010*65,43.46202843023334,141.80575765210006,565181.8633099414,4812439.631046649
2482,[2021-01-29 11:30:44.559] $GNGGA,23043.0,4327.721706106,N,14148.345460093,E,4,10.0,1.31,107.905,M,31.865,M,6.0,2010*69,43.4620284351,141.80575766821667,565181.8646084724,4812439.631599744
2483,[2021-01-29 11:30:44.653] $GNGGA,23043.1,4327.721705304,N,14148.345460297,E,4,10.0,1.31,107.90700000000001,M,31.865,M,6.1,2010*6E,43.46202842173334,141.80575767161667,565181.8648978791,4812439.6301179305
2484,[2021-01-29 11:30:44.762] $GNGGA,23043.2,4327.721705361,N,14148.345460174,E,4,10.0,1.31,107.90899999999999,M,31.865,M,6.2,2010*6D,43.46202842268334,141.80575766956665,565181.8647310202,4812439.630221833
2485,[2021-01-29 11:30:44.856] $GNGGA,23043.3,4327.721705481,N,14148.345460645,E,4,10.0,1.31,107.90799999999999,M,31.865,M,6.3,2010*60,43.462028424683325,141.80575767741664,565181.8653638996,4812439.630450089
2486,[2021-01-29 11:30:44.965] $GNGGA,23043.4,4327.721705696,N,14148.345459668,E,4,10.0,1.31,107.911,M,31.865,M,6.4,2010*69,43.46202842826666,141.80575766113333,565181.8640428036,4812439.630835304
2487,[2021-01-29 11:30:45.059] $GNGGA,23043.5,4327.7217064179995,N,14148.345459044,E,4,10.0,1.31,107.90700000000001,M,31.865,M,6.5,2010*61,43.46202844029999,141.80575765073334,565181.8631885642,4812439.632163562
2488,[2021-01-29 11:30:45.153] $GNGGA,23043.6,4327.721705152,N,14148.345460421,E,4,10.0,1.31,107.906,M,31.865,M,6.6,2010*65,43.46202841920001,141.80575767368336,565181.8650677854,4812439.629838202
2489,[2021-01-29 11:30:45.264] $GNGGA,23043.7,4327.721705687,N,14148.34545988,E,4,10.0,1.31,107.905,M,31.865,M,6.7,2010*64,43.46202842811667,141.80575766466666,565181.8643287959,4812439.6308214115
2490,[2021-01-29 11:30:45.357] $GNGGA,23043.8,4327.721705985,N,14148.345460307,E,4,10.0,1.31,107.90299999999999,M,31.865,M,6.8,2010*61,43.46202843308334,141.80575767178337,565181.8648991687,4812439.631378569
2491,[2021-01-29 11:30:45.451] $GNGGA,23043.9,4327.721706795,N,14148.345459609,E,4,10.0,1.31,107.905,M,31.865,M,6.9,2010*6A,43.46202844658333,141.80575766014996,565181.8639435755,4812439.632868746
2492,[2021-01-29 11:30:45.560] $GNGGA,23044.0,4327.721706899,N,14148.345459559,E,4,10.0,1.31,107.906,M,31.865,M,7.0,2010*6A,43.46202844831667,141.80575765931664,565181.8638743006,4812439.633060594
2493,[2021-01-29 11:30:45.654] $GNGGA,23044.1,4327.721706292,N,14148.34545916,E,4,10.0,1.31,107.904,M,31.865,M,7.1,2010*67,43.4620284382,141.80575765266667,565181.8633472171,4812439.631931854
2494,[2021-01-29 11:30:45.764] $GNGGA,23044.2,4327.721705855,N,14148.34545932,E,4,10.0,1.31,107.90700000000001,M,31.865,M,7.2,2010*60,43.46202843091668,141.80575765533334,565181.8635707644,4812439.63112507
2495,[2021-01-29 11:30:45.857] $GNGGA,23044.3,4327.721705528,N,14148.345460617,E,4,10.0,1.31,107.90799999999999,M,31.865,M,7.3,2010*63,43.46202842546666,141.80575767695,565181.8653253102,4812439.63053672
2496,[2021-01-29 11:30:45.951] $GNGGA,23044.4,4327.721704708,N,14148.345459625,E,4,10.0,1.31,107.90899999999999,M,31.865,M,7.4,2010*68,43.4620284118,141.80575766041667,565181.8640025224,4812439.62900599
2497,[2021-01-29 11:30:46.060] $GNGGA,23044.5,4327.721704808,N,14148.345460601999,E,4,10.0,1.31,107.904,M,31.865,M,7.5,2010*65,43.462028413466676,141.80575767669998,565181.8653179758,4812439.629203831
2498,[2021-01-29 11:30:46.154] $GNGGA,23044.6,4327.721704767,N,14148.345459384,E,4,10.0,1.31,107.905,M,31.865,M,7.6,2010*63,43.46202841278333,141.8057576564,565181.8636765346,4812439.629112052
2499,[2021-01-29 11:30:46.265] $GNGGA,23044.7,4327.721704385,N,14148.345459131,E,4,10.0,1.31,107.90299999999999,M,31.865,M,7.7,2010*61,43.46202840641666,141.80575765218333,565181.8633422651,4812439.628401684
2500,[2021-01-29 11:30:46.359] $GNGGA,23044.8,4327.721704656,N,14148.345458704,E,4,10.0,1.31,107.90700000000001,M,31.865,M,7.8,2010*6F,43.46202841093333,141.80575764506668,565181.8627617095,4812439.628897726
2501,[2021-01-29 11:30:46.453] $GNGGA,23044.9,4327.721705127,N,14148.345459248001,E,4,10.0,1.31,107.904,M,31.865,M,7.9,2010*60,43.46202841878333,141.80575765413334,565181.8634867272,4812439.629776627
2502,[2021-01-29 11:30:46.562] $GNGGA,23045.0,4327.721704135,N,14148.345460658998,E,4,10.0,1.31,107.905,M,31.865,M,8.0,2010*63,43.46202840225001,141.80575767764998,565181.8654068771,4812439.627958876
2503,[2021-01-29 11:30:46.656] $GNGGA,23045.1,4327.721704116,N,14148.345459308,E,4,10.0,1.31,107.90799999999999,M,31.865,M,3.1,2010*6F,43.46202840193333,141.80575765513336,565181.8635857279,4812439.627906085
2504,[2021-01-29 11:30:46.765] $GNGGA,23045.2,4327.721703653,N,14148.345459318001,E,4,10.0,1.31,107.90700000000001,M,31.865,M,3.2,2010*60,43.462028394216674,141.8057576553,565181.8636074987,4812439.627049217
2505,[2021-01-29 11:30:46.859] $GNGGA,23045.3,4327.721703983,N,14148.34545964,E,4,10.0,1.31,107.90700000000001,M,31.865,M,3.3,2010*6A,43.462028399716665,141.80575766066667,565181.864035728,4812439.627664236
2506,[2021-01-29 11:30:46.953] $GNGGA,23045.4,4327.721704724,N,14148.345460155,E,4,10.0,1.31,107.90299999999999,M,31.865,M,3.4,2010*63,43.462028412066665,141.80575766925,565181.8647168108,4812439.629042517
2507,[2021-01-29 11:30:47.062] $GNGGA,23045.5,4327.721704181,N,14148.345460027,E,4,10.0,1.31,107.904,M,31.865,M,3.5,2010*69,43.46202840301666,141.80575766711667,565181.8645539569,4812439.6280357735
2508,[2021-01-29 11:30:47.156] $GNGGA,23045.6,4327.721704479,N,14148.345460683999,E,4,10.0,1.31,107.90299999999999,M,31.865,M,3.6,2010*63,43.46202840798335,141.80575767806664,565181.8654344245,4812439.628595932
2509,[2021-01-29 11:30:47.260] $GNGGA,23045.7,4327.721705711,N,14148.345460098,E,4,10.0,1.31,107.899,M,31.865,M,3.7,2010*66,43.46202842851667,141.8057576683,565181.8646222866,4812439.630868677
2510,[2021-01-29 11:30:47.361] $GNGGA,23045.8,4327.7217053290005,N,14148.345459634,E,4,10.0,1.31,107.902,M,31.865,M,3.8,2010*60,43.462028422150006,141.80575766056668,565181.8640035362,4812439.630155558
2511,[2021-01-29 11:30:47.455] $GNGGA,23045.9,4327.7217060170005,N,14148.345460026001,E,4,10.0,1.31,107.899,M,31.865,M,3.9,2010*61,43.46202843361667,141.80575766710004,565181.8645197359,4812439.631434134
2512,[2021-01-29 11:30:47.564] $GNGGA,23046.0,4327.721705866,N,14148.345460464,E,4,10.0,1.31,107.898,M,31.865,M,4.0,2010*6B,43.4620284311,141.8057576744,565181.865112973,4812439.631160351
2513,[2021-01-29 11:30:47.658] $GNGGA,23046.1,4327.721706242,N,14148.34546044,E,4,10.0,1.31,107.898,M,31.865,M,4.1,2010*62,43.462028437366676,141.80575767399998,565181.8650738789,4812439.631856002
2514,[2021-01-29 11:30:47.752] $GNGGA,23046.2,4327.721705434,N,14148.3454608,E,4,10.0,1.31,107.898,M,31.865,M,4.2,2010*6E,43.4620284239,141.80575767999997,565181.8655737202,4812439.6303651165
2515,[2021-01-29 11:30:47.861] $GNGGA,23046.3,4327.721706128,N,14148.345460401999,E,4,10.0,1.31,107.897,M,31.865,M,4.3,2010*64,43.462028435466664,141.80575767336663,565181.8650246862,4812439.631644495
2516,[2021-01-29 11:30:47.955] $GNGGA,23046.4,4327.7217061090005,N,14148.345459028998,E,4,10.0,1.31,107.896,M,31.865,M,4.4,2010*61,43.46202843515001,141.80575765048332,565181.8631738721,4812439.631591419
2517,[2021-01-29 11:30:48.064] $GNGGA,23046.5,4327.72170607,N,14148.345459318001,E,4,10.0,1.31,107.897,M,31.865,M,4.5,2010*6E,43.462028434500006,141.8057576553,565181.863564218,4812439.631523001
2518,[2021-01-29 11:30:48.158] $GNGGA,23046.6,4327.721706788,N,14148.345459971999,E,4,10.0,1.31,107.896,M,31.865,M,4.6,2010*69,43.46202844646667,141.80575766619995,565181.864433116,4812439.632860525
2519,[2021-01-29 11:30:48.260] $GNGGA,23046.7,4327.721706712,N,14148.345459613001,E,4,10.0,1.31,107.896,M,31.865,M,4.7,2010*62,43.4620284452,141.80575766021667,565181.8639504566,4812439.6327151675
2520,[2021-01-29 11:30:48.362] $GNGGA,23046.8,4327.7217064470005,N,14148.345459195,E,4,10.0,1.31,107.897,M,31.865,M,4.8,2010*69,43.46202844078335,141.80575765325,565181.8633916309,4812439.632219211
2521,[2021-01-29 11:30:48.456] $GNGGA,23046.9,4327.721706644,N,14148.345460343999,E,4,10.0,1.31,107.897,M,31.865,M,4.9,2010*6C,43.46202844406666,141.80575767239998,565181.8649372479,4812439.632598837
2522,[2021-01-29 11:30:48.566] $GNGGA,23047.0,4327.721706215,N,14148.345460302,E,4,10.0,1.31,107.897,M,31.865,M,5.0,2010*6E,43.46202843691667,141.80575767169998,565181.8648883051,4812439.631804225
2523,[2021-01-29 11:30:48.659] $GNGGA,23047.1,4327.7217065859995,N,14148.345461387,E,4,10.0,1.31,107.9,M,31.865,M,5.1,2010*60,43.46202844309999,141.80575768978335,565181.8663445227,4812439.632505084
2524,[2021-01-29 11:30:48.753] $GNGGA,23047.2,4327.721706487,N,14148.345461125,E,4,10.0,1.31,107.9,M,31.865,M,5.2,2010*6A,43.46202844145,141.8057576854167,565181.8659930538,4812439.632318422
2525,[2021-01-29 11:30:48.862] $GNGGA,23047.3,4327.721706147,N,14148.345460385,E,4,10.0,1.31,107.899,M,31.865,M,5.3,2010*6B,43.46202843578333,141.80575767308332,565181.8650014284,4812439.631679442
2526,[2021-01-29 11:30:48.956] $GNGGA,23047.4,4327.721706602,N,14148.34546034,E,4,10.0,1.31,107.897,M,31.865,M,5.4,2010*6A,43.46202844336667,141.80575767233333,565181.8649326093,4812439.6325210435
2527,[2021-01-29 11:30:49.065] $GNGGA,23047.5,4327.72170545,N,14148.345460823,E,4,10.0,1.31,107.9,M,31.865,M,5.5,2010*6D,43.46202842416667,141.80575768038335,565181.8656044487,4812439.630395032
2528,[2021-01-29 11:30:49.159] $GNGGA,23047.6,4327.721705158,N,14148.345460483999,E,4,10.0,1.31,107.899,M,31.865,M,5.6,2010*60,43.462028419300005,141.8057576747333,565181.8651526112,4812439.629850129
2529,[2021-01-29 11:30:49.262] $GNGGA,23047.7,4327.72170483,N,14148.345460638,E,4,10.0,1.31,107.898,M,31.865,M,5.7,2010*62,43.46202841383334,141.80575767730002,565181.8653661236,4812439.629245022
2530,[2021-01-29 11:30:49.364] $GNGGA,23047.8,4327.721704898,N,14148.345460491999,E,4,10.0,1.31,107.89399999999999,M,31.865,M,5.8,2010*6E,43.46202841496667,141.80575767486664,565181.8651680547,4812439.629368981
2531,[2021-01-29 11:30:49.458] $GNGGA,23047.9,4327.721704596,N,14148.345460303,E,4,10.0,1.31,107.898,M,31.865,M,5.9,2010*6E,43.462028409933325,141.80575767171666,565181.8649186443,4812439.628807524
2532,[2021-01-29 11:30:49.552] $GNGGA,23048.0,4327.721704681,N,14148.34545954,E,4,10.0,1.31,107.9,M,31.865,M,6.0,2010*6C,43.462028411350005,141.805757659,565181.8638884018,4812439.628954906
2533,[2021-01-29 11:30:49.661] $GNGGA,23048.1,4327.721704967,N,14148.345459893999,E,4,10.0,1.31,107.9,M,31.865,M,6.1,2010*6F,43.46202841611667,141.8057576649,565181.8643605638,4812439.629488899
2534,[2021-01-29 11:30:49.755] $GNGGA,23048.2,4327.7217038690005,N,14148.345457906002,E,4,10.0,1.31,107.904,M,31.865,M,1.2,2010*60,43.462028397816674,141.80575763176668,565181.8616998922,4812439.627430609
2535,[2021-01-29 11:30:49.864] $GNGGA,23048.3,4327.721703512,N,14148.345457798001,E,4,10.0,1.31,107.912,M,31.865,M,1.3,2010*6F,43.462028391866674,141.80575762996668,565181.8615606739,4812439.626768406
2536,[2021-01-29 11:30:49.958] $GNGGA,23048.4,4327.7217022859995,N,14148.345457442,E,4,10.0,1.31,107.912,M,31.865,M,1.4,2010*60,43.46202837143332,141.80575762403333,565181.8611026459,4812439.624494477
2537,[2021-01-29 11:30:50.052] $GNGGA,23048.5,4327.721702164,N,14148.345457112,E,4,10.0,1.31,107.915,M,31.865,M,1.5,2010*68,43.462028369399995,141.80575761853333,565181.8606599062,4812439.624264355
2538,[2021-01-29 11:30:50.161] $GNGGA,23048.6,4327.721702659001,N,14148.345457227,E,4,10.0,1.31,107.916,M,31.865,M,1.6,2010*67,43.462028377650014,141.80575762045,565181.8608060929,4812439.625182086
2539,[2021-01-29 11:30:50.263] $GNGGA,23048.7,4327.72170241,N,14148.345456903,E,4,10.0,1.31,107.914,M,31.865,M,1.7,2010*66,43.4620283735,141.80575761504997,565181.8603737126,4812439.624716967
2540,[2021-01-29 11:30:50.366] $GNGGA,23048.8,4327.721700931,N,14148.345458325,E,4,10.0,1.31,107.914,M,31.865,M,1.8,2010*6A,43.46202834885,141.80575763874998,565181.8623174195,4812439.6219979385
2541,[2021-01-29 11:30:50.459] $GNGGA,23048.9,4327.721701192,N,14148.345458431,E,4,10.0,1.31,107.915,M,31.865,M,1.9,2010*69,43.462028353200004,141.80575764051667,565181.8624556625,4812439.622482422
2542,[2021-01-29 11:30:50.553] $GNGGA,23049.0,4327.721702092,N,14148.345457746002,E,4,10.0,1.31,107.913,M,31.865,M,2.0,2010*63,43.462028368199995,141.80575762910001,565181.8615159926,4812439.6241393555
2543,[2021-01-29 11:30:50.662] $GNGGA,23049.1,4327.7217018540005,N,14148.345457317,E,4,10.0,1.31,107.915,M,31.865,M,2.1,2010*64,43.46202836423335,141.80575762195002,565181.8609418509,4812439.623693232
2544,[2021-01-29 11:30:50.756] $GNGGA,23049.2,4327.7217014709995,N,14148.345457946001,E,4,10.0,1.31,107.914,M,31.865,M,2.2,2010*60,43.462028357849995,141.80575763243337,565181.8617967652,4812439.622992514
2545,[2021-01-29 11:30:50.866] $GNGGA,23049.3,4327.721701163,N,14148.3454572,E,4,10.0,1.31,107.912,M,31.865,M,2.3,2010*69,43.462028352716665,141.80575762,565181.8607964776,4812439.622412688
2546,[2021-01-29 11:30:50.959] $GNGGA,23049.4,4327.721700928,N,14148.345457544,E,4,10.0,1.31,107.913,M,31.865,M,2.4,2010*69,43.462028348800004,141.80575762573332,565181.8612644849,4812439.621982199
2547,[2021-01-29 11:30:51.053] $GNGGA,23049.5,4327.721701823,N,14148.345457783998,E,4,10.0,1.31,107.911,M,31.865,M,2.5,2010*6E,43.462028363716676,141.8057576297333,565181.8615720394,4812439.623641943
