,Format,Time,Latitude,LatType,Longitude,LonType,Status,Satellite,LevelAccuracy,Altitude(sea),M(sea),Altitude(geoid),M(geoid),DGPS use,checksum,Lat,Lon,UTM_X,UTM_Y
1816,[2021-01-29 11:29:47.379] $GPGGA,22946.0,4327.7217135,N,14148.3454604,E,4,9,1.3,107.9313,M,31.83,M,4.0,0000*50,43.46202855833334,141.80575767333335,565181.8648899851,4812439.645289784
1817,[2021-01-29 11:29:47.489] $GPGGA,22946.1,4327.7217132,N,14148.345460499999,E,4,9,1.3,107.9331,M,31.83,M,4.0,0000*57,43.462028553333326,141.805757675,565181.8650301823,4812439.644735799
1818,[2021-01-29 11:29:47.583] $GPGGA,22946.2,4327.7217135,N,14148.345461,E,4,9,1.3,107.9318,M,31.83,M,4.0,0000*5C,43.46202855833334,141.80575768333333,565181.8656989367,4812439.64529761
1819,[2021-01-29 11:29:47.676] $GPGGA,22946.3,4327.7217137,N,14148.345462399999,E,4,9,1.3,107.933,M,31.83,M,4.0,0000*52,43.46202856166667,141.80575770666664,565181.8675829134,4812439.645686066
1820,[2021-01-29 11:29:47.786] $GPGGA,22946.4,4327.721712899999,N,14148.3454622,E,4,9,1.3,107.9361,M,31.83,M,4.0,0000*58,43.46202854833332,141.80575770333334,565181.8673275904,4812439.644202683
1821,[2021-01-29 11:29:47.879] $GPGGA,22946.5,4327.7217128,N,14148.3454604,E,4,9,1.3,107.9363,M,31.83,M,4.0,0000*5E,43.46202854666667,141.80575767333335,565181.8649025197,4812439.64399411
1822,[2021-01-29 11:29:47.973] $GPGGA,22946.6,4327.721713399999,N,14148.3454629,E,4,9,1.3,107.9337,M,31.83,M,4.0,0000*5E,43.46202855666665,141.805757715,565181.868262416,4812439.645137295
1823,[2021-01-29 11:29:48.083] $GPGGA,22946.7,4327.7217135,N,14148.3454611,E,4,9,1.3,107.933,M,31.83,M,4.0,0000*52,43.46202855833334,141.80575768499997,565181.865833762,4812439.645298915
1824,[2021-01-29 11:29:48.192] $GPGGA,22946.8,4327.7217132,N,14148.345461300001,E,4,9,1.3,107.9345,M,31.83,M,4.0,0000*5A,43.462028553333326,141.80575768833336,565181.8661087888,4812439.644746233
1825,[2021-01-29 11:29:48.288] $GPGGA,22946.9,4327.7217124,N,14148.345461200002,E,4,9,1.3,107.936,M,31.83,M,4.0,0000*5A,43.46202853999999,141.8057576866667,565181.8659882909,4812439.643264157
1826,[2021-01-29 11:29:48.381] $GPGGA,22947.0,4327.721712899999,N,14148.345460600001,E,4,9,1.3,107.9333,M,31.83,M,5.0,0000*5D,43.46202854833332,141.80575767666667,565181.8651703796,4812439.644181813
1827,[2021-01-29 11:29:48.475] $GPGGA,22947.1,4327.7217123,N,14148.345459999999,E,4,9,1.3,107.9366,M,31.83,M,5.0,0000*50,43.462028538333335,141.80575766666664,565181.8643721659,4812439.643063409
1828,[2021-01-29 11:29:48.585] $GPGGA,22947.2,4327.7217124,N,14148.345459799999,E,4,9,1.3,107.9372,M,31.83,M,5.0,0000*53,43.46202853999999,141.8057576633333,565181.8641007247,4812439.643245896
1829,[2021-01-29 11:29:48.678] $GPGGA,22947.3,4327.7217118,N,14148.345459799999,E,4,9,1.3,107.9398,M,31.83,M,5.0,0000*59,43.46202852999999,141.8057576633333,565181.8641114687,4812439.642135317
1830,[2021-01-29 11:29:48.788] $GPGGA,22947.4,4327.7217115,N,14148.345459999999,E,4,9,1.3,107.9393,M,31.83,M,5.0,0000*5A,43.46202852500001,141.80575766666664,565181.8643864912,4812439.641582638
1831,[2021-01-29 11:29:48.881] $GPGGA,22947.5,4327.7217119,N,14148.345459999999,E,4,9,1.3,107.9383,M,31.83,M,5.0,0000*56,43.46202853166667,141.80575766666664,565181.8643793286,4812439.642323024
1832,[2021-01-29 11:29:48.991] $GPGGA,22947.6,4327.7217124,N,14148.3454603,E,4,9,1.3,107.9383,M,31.83,M,5.0,0000*58,43.46202853999999,141.80575767166664,565181.8647748531,4812439.643252418
1833,[2021-01-29 11:29:49.085] $GPGGA,22947.7,4327.7217118,N,14148.345459600001,E,4,9,1.3,107.9419,M,31.83,M,5.0,0000*5D,43.46202852999999,141.80575766,565181.8638418202,4812439.642132708
1834,[2021-01-29 11:29:49.178] $GPGGA,22947.8,4327.7217119,N,14148.345459399998,E,4,9,1.3,107.942,M,31.83,M,5.0,0000*5B,43.46202853166667,141.8057576566666,565181.8635703728,4812439.642315197
1835,[2021-01-29 11:29:49.273] $GPGGA,22947.9,4327.721712,N,14148.3454597,E,4,9,1.3,107.9421,M,31.83,M,5.0,0000*52,43.462028533333324,141.80575766166666,565181.8639730641,4812439.642504206
1836,[2021-01-29 11:29:49.383] $GPGGA,22948.0,4327.7217119,N,14148.345459900002,E,4,9,1.3,107.9416,M,31.83,M,6.0,0000*57,43.46202853166667,141.80575766500004,565181.8642445095,4812439.642321719
1837,[2021-01-29 11:29:49.477] $GPGGA,22948.1,4327.7217114,N,14148.3454603,E,4,9,1.3,107.9426,M,31.83,M,6.0,0000*58,43.46202852333332,141.80575767166664,565181.8647927599,4812439.641401452
1838,[2021-01-29 11:29:49.586] $GPGGA,22948.2,4327.72171,N,14148.3454574,E,4,9,1.3,107.9491,M,31.83,M,1.0,0000*56,43.4620285,141.80575762333334,565181.860907888,4812439.638772277
1839,[2021-01-29 11:29:49.680] $GPGGA,22948.3,4327.7217094,N,14148.3454571,E,4,9,1.3,107.9558,M,31.83,M,1.0,0000*5A,43.46202849,141.80575761833336,565181.8605141562,4812439.637657785
1840,[2021-01-29 11:29:49.789] $GPGGA,22948.4,4327.721709,N,14148.3454565,E,4,9,1.3,107.9596,M,31.83,M,1.0,0000*5E,43.462028483333334,141.80575760833332,565181.8597123611,4812439.6369095715
1841,[2021-01-29 11:29:49.883] $GPGGA,22948.5,4327.7217082,N,14148.3454555,E,4,9,1.3,107.9646,M,31.83,M,1.0,0000*51,43.46202847,141.8057575916667,565181.8583784336,4812439.635415757
1842,[2021-01-29 11:29:49.977] $GPGGA,22948.6,4327.7217086,N,14148.345457299998,E,4,9,1.3,107.9628,M,31.83,M,1.0,0000*5A,43.46202847666667,141.80575762166666,565181.8607981302,4812439.63617962
1843,[2021-01-29 11:29:50.086] $GPGGA,22948.7,4327.721707600001,N,14148.3454574,E,4,9,1.3,107.9618,M,31.83,M,1.0,0000*50,43.46202846000001,141.80575762333334,565181.8609508643,4812439.63432996
1844,[2021-01-29 11:29:50.180] $GPGGA,22948.8,4327.7217077,N,14148.3454581,E,4,9,1.3,107.9624,M,31.83,M,1.0,0000*5B,43.46202846166666,141.80575763500002,565181.8618928547,4812439.634524186
1845,[2021-01-29 11:29:50.291] $GPGGA,22948.9,4327.7217078,N,14148.345457899999,E,4,9,1.3,107.9628,M,31.83,M,1.0,0000*5E,43.46202846333335,141.80575763166664,565181.8616214072,4812439.634706676
1846,[2021-01-29 11:29:50.385] $GPGGA,22949.0,4327.721708399999,N,14148.345457799998,E,4,9,1.3,107.959,M,31.83,M,2.0,0000*57,43.46202847333332,141.80575763,565181.86147584,4812439.635815948
1847,[2021-01-29 11:29:50.478] $GPGGA,22949.1,4327.7217089,N,14148.345458700001,E,4,9,1.3,107.9565,M,31.83,M,2.0,0000*51,43.462028481666664,141.80575764500003,565181.8626803203,4812439.636753171
1848,[2021-01-29 11:29:50.588] $GPGGA,22949.2,4327.721709,N,14148.3454574,E,4,9,1.3,107.9566,M,31.83,M,2.0,0000*55,43.462028483333334,141.80575762333334,565181.8609257948,4812439.636921311
1849,[2021-01-29 11:29:50.682] $GPGGA,22949.3,4327.7217085,N,14148.345457799998,E,4,9,1.3,107.9561,M,31.83,M,2.0,0000*5B,43.462028475000004,141.80575763,565181.8614740493,4812439.636001047
1850,[2021-01-29 11:29:50.775] $GPGGA,22949.4,4327.7217089,N,14148.345457700003,E,4,9,1.3,107.9563,M,31.83,M,2.0,0000*5D,43.462028481666664,141.8057576283334,565181.8613320675,4812439.636740128
1851,[2021-01-29 11:29:50.885] $GPGGA,22949.5,4327.7217088,N,14148.3454574,E,4,9,1.3,107.9568,M,31.83,M,2.0,0000*55,43.46202848,141.80575762333334,565181.8609293762,4812439.6365511175
1852,[2021-01-29 11:29:50.978] $GPGGA,22949.6,4327.721709699999,N,14148.345459299999,E,4,9,1.3,107.9536,M,31.83,M,2.0,0000*5A,43.462028494999984,141.80575765499995,565181.8634749424,4812439.638241767
1853,[2021-01-29 11:29:51.088] $GPGGA,22949.7,4327.7217091,N,14148.3454572,E,4,9,1.3,107.9538,M,31.83,M,2.0,0000*5C,43.462028485000005,141.80575762,565181.8606543514,4812439.6371038
1854,[2021-01-29 11:29:51.182] $GPGGA,22949.8,4327.7217095,N,14148.345458000002,E,4,9,1.3,107.953,M,31.83,M,2.0,0000*52,43.462028491666665,141.80575763333337,565181.8617257972,4812439.63785462
1855,[2021-01-29 11:29:51.277] $GPGGA,22949.9,4327.7217094,N,14148.3454584,E,4,9,1.3,107.9536,M,31.83,M,2.0,0000*50,43.46202849,141.80575763999997,565181.8622668849,4812439.6376747405
1856,[2021-01-29 11:29:51.386] $GPGGA,22950.0,4327.7217086,N,14148.3454572,E,4,9,1.3,107.9543,M,31.83,M,3.0,0000*58,43.46202847666667,141.80575762,565181.8606633048,4812439.636178317
1857,[2021-01-29 11:29:51.480] $GPGGA,22950.1,4327.7217089,N,14148.3454569,E,4,9,1.3,107.9556,M,31.83,M,3.0,0000*58,43.462028481666664,141.805757615,565181.860253457,4812439.636729692
1858,[2021-01-29 11:29:51.573] $GPGGA,22950.2,4327.7217092,N,14148.3454567,E,4,9,1.3,107.9563,M,31.83,M,3.0,0000*59,43.46202848666667,141.80575761166665,565181.8599784303,4812439.637282374
1859,[2021-01-29 11:29:51.683] $GPGGA,22950.3,4327.721708399999,N,14148.3454571,E,4,9,1.3,107.9565,M,31.83,M,3.0,0000*5E,43.46202847333332,141.80575761833336,565181.8605320631,4812439.635806817
1860,[2021-01-29 11:29:51.777] $GPGGA,22950.4,4327.7217083000005,N,14148.345459399998,E,4,9,1.3,107.9554,M,31.83,M,3.0,0000*57,43.46202847166667,141.8057576566666,565181.8636348372,4812439.635651722
1861,[2021-01-29 11:29:51.886] $GPGGA,22950.5,4327.7217095,N,14148.345458000002,E,4,9,1.3,107.9548,M,31.83,M,3.0,0000*59,43.462028491666665,141.80575763333337,565181.8617257972,4812439.63785462
1862,[2021-01-29 11:29:51.980] $GPGGA,22950.6,4327.721710399999,N,14148.3454574,E,4,9,1.3,107.9554,M,31.83,M,3.0,0000*55,43.462028506666655,141.80575762333334,565181.8609007254,4812439.639512661
1863,[2021-01-29 11:29:52.073] $GPGGA,22950.7,4327.7217092,N,14148.345458000002,E,4,9,1.3,107.9558,M,31.83,M,3.0,0000*5D,43.46202848666667,141.80575763333337,565181.8617311692,4812439.63729933
1864,[2021-01-29 11:29:52.183] $GPGGA,22950.8,4327.7217088,N,14148.345459099999,E,4,9,1.3,107.9548,M,31.83,M,3.0,0000*58,43.46202848,141.80575765166665,565181.8632214101,4812439.636573291
1865,[2021-01-29 11:29:52.278] $GPGGA,22950.9,4327.7217082,N,14148.3454576,E,4,9,1.3,107.9546,M,31.83,M,3.0,0000*54,43.46202847,141.8057576266667,565181.8612097728,4812439.635443147
1866,[2021-01-29 11:29:52.388] $GPGGA,22951.0,4327.7217091,N,14148.3454588,E,4,9,1.3,107.9535,M,31.83,M,4.0,0000*5C,43.462028485000005,141.80575764666668,565181.8628115642,4812439.63712467
1867,[2021-01-29 11:29:52.481] $GPGGA,22951.1,4327.7217086,N,14148.345459,E,4,9,1.3,107.954,M,31.83,M,4.0,0000*50,43.46202847666667,141.80575765,565181.8630901681,4812439.636201794
1868,[2021-01-29 11:29:52.591] $GPGGA,22951.2,4327.7217089,N,14148.345457899999,E,4,9,1.3,107.9553,M,31.83,M,4.0,0000*59,43.462028481666664,141.80575763166664,565181.8616017099,4812439.636742735
1869,[2021-01-29 11:29:52.685] $GPGGA,22951.3,4327.7217089,N,14148.345457799998,E,4,9,1.3,107.9546,M,31.83,M,4.0,0000*5D,43.462028481666664,141.80575763,565181.8614668866,4812439.636741432
1870,[2021-01-29 11:29:52.778] $GPGGA,22951.4,4327.7217094,N,14148.345458200001,E,4,9,1.3,107.955,M,31.83,M,4.0,0000*54,43.46202849,141.80575763666667,565181.8619972364,4812439.637672132
1871,[2021-01-29 11:29:52.872] $GPGGA,22951.5,4327.721709699999,N,14148.345459399998,E,4,9,1.3,107.9539,M,31.83,M,4.0,0000*5E,43.462028494999984,141.8057576566666,565181.8636097678,4812439.638243071
1872,[2021-01-29 11:29:52.981] $GPGGA,22951.6,4327.7217099,N,14148.3454588,E,4,9,1.3,107.9529,M,31.83,M,4.0,0000*5F,43.46202849833333,141.80575764666668,565181.8627972387,4812439.63860544
1873,[2021-01-29 11:29:53.075] $GPGGA,22951.7,4327.7217099,N,14148.345459200002,E,4,9,1.3,107.9523,M,31.83,M,4.0,0000*5F,43.46202849833333,141.80575765333336,565181.8633365419,4812439.638610656
1874,[2021-01-29 11:29:53.185] $GPGGA,22951.8,4327.7217094,N,14148.3454584,E,4,9,1.3,107.9543,M,31.83,M,4.0,0000*5C,43.46202849,141.80575763999997,565181.8622668849,4812439.6376747405
1875,[2021-01-29 11:29:53.280] $GPGGA,22951.9,4327.7217088,N,14148.345458599999,E,4,9,1.3,107.9518,M,31.83,M,4.0,0000*5C,43.46202848,141.80575764333332,565181.8625472815,4812439.63656677
1876,[2021-01-29 11:29:53.389] $GPGGA,22952.0,4327.7217089,N,14148.3454584,E,4,9,1.3,107.9528,M,31.83,M,5.0,0000*57,43.462028481666664,141.80575763999997,565181.8622758383,4812439.636749257
1877,[2021-01-29 11:29:53.483] $GPGGA,22952.1,4327.721709699999,N,14148.345458200001,E,4,9,1.3,107.9522,M,31.83,M,5.0,0000*55,43.462028494999984,141.80575763666667,565181.8619918644,4812439.63822742
1878,[2021-01-29 11:29:53.577] $GPGGA,22952.2,4327.721710399999,N,14148.3454585,E,4,9,1.3,107.9513,M,31.83,M,5.0,0000*58,43.462028506666655,141.80575764166667,565181.8623838075,4812439.639527009
1879,[2021-01-29 11:29:53.686] $GPGGA,22952.3,4327.7217107,N,14148.345458200001,E,4,9,1.3,107.9502,M,31.83,M,5.0,0000*5D,43.46202851166667,141.80575763666667,565181.8619739575,4812439.640078386
1880,[2021-01-29 11:29:53.780] $GPGGA,22952.4,4327.721709699999,N,14148.345458000002,E,4,9,1.3,107.9507,M,31.83,M,5.0,0000*55,43.462028494999984,141.80575763333337,565181.8617222159,4812439.63822481
1881,[2021-01-29 11:29:53.889] $GPGGA,22952.5,4327.721709699999,N,14148.345458000002,E,4,9,1.3,107.9516,M,31.83,M,5.0,0000*54,43.462028494999984,141.80575763333337,565181.8617222159,4812439.63822481
1882,[2021-01-29 11:29:53.983] $GPGGA,22952.6,4327.72171,N,14148.345458700001,E,4,9,1.3,107.9508,M,31.83,M,5.0,0000*50,43.4620285,141.80575764500003,565181.8626606228,4812439.638789234
1883,[2021-01-29 11:29:54.077] $GPGGA,22952.7,4327.72171,N,14148.3454589,E,4,9,1.3,107.9475,M,31.83,M,5.0,0000*54,43.4620285,141.80575764833333,565181.8629302713,4812439.638791842
1884,[2021-01-29 11:29:54.186] $GPGGA,22952.8,4327.7217101999995,N,14148.3454576,E,4,9,1.3,107.9479,M,31.83,M,5.0,0000*55,43.46202850333332,141.8057576266667,565181.8611739592,4812439.639145077
1885,[2021-01-29 11:29:54.281] $GPGGA,22952.9,4327.7217105,N,14148.3454581,E,4,9,1.3,107.9506,M,31.83,M,5.0,0000*52,43.46202850833333,141.80575763500002,565181.8618427158,4812439.639706889
1886,[2021-01-29 11:29:54.375] $GPGGA,22953.0,4327.721710399999,N,14148.345459299999,E,4,9,1.3,107.9469,M,31.83,M,6.0,0000*53,43.462028506666655,141.80575765499995,565181.8634624076,4812439.639537444
1887,[2021-01-29 11:29:54.484] $GPGGA,22953.1,4327.721709699999,N,14148.3454588,E,4,9,1.3,107.948,M,31.83,M,6.0,0000*54,43.462028494999984,141.80575764666668,565181.8628008201,4812439.638235245
1888,[2021-01-29 11:29:54.578] $GPGGA,22953.2,4327.7217086,N,14148.345457700003,E,4,9,1.3,107.9505,M,31.83,M,1.0,0000*5C,43.46202847666667,141.8057576283334,565181.8613374395,4812439.636184838
1889,[2021-01-29 11:29:54.687] $GPGGA,22953.3,4327.7217094,N,14148.345457299998,E,4,9,1.3,107.9492,M,31.83,M,1.0,0000*55,43.46202849,141.80575762166666,565181.8607838048,4812439.6376603935
1890,[2021-01-29 11:29:54.781] $GPGGA,22953.4,4327.7217094,N,14148.345456000001,E,4,9,1.3,107.9522,M,31.83,M,1.0,0000*5A,43.46202849,141.80575760000002,565181.859031072,4812439.637643437
1891,[2021-01-29 11:29:54.875] $GPGGA,22953.5,4327.72171,N,14148.3454557,E,4,9,1.3,107.9519,M,31.83,M,1.0,0000*5B,43.4620285,141.80575759500002,565181.8586158521,4812439.638750104
1892,[2021-01-29 11:29:54.984] $GPGGA,22953.6,4327.721711,N,14148.345457799998,E,4,9,1.3,107.9514,M,31.83,M,1.0,0000*59,43.46202851666667,141.80575763,565181.8614292823,4812439.640628459
1893,[2021-01-29 11:29:55.078] $GPGGA,22953.7,4327.7217107,N,14148.3454583,E,4,9,1.3,107.9498,M,31.83,M,1.0,0000*5F,43.46202851166667,141.80575763833332,565181.8621087829,4812439.640079692
1894,[2021-01-29 11:29:55.172] $GPGGA,22953.8,4327.7217101999995,N,14148.3454572,E,4,9,1.3,107.9514,M,31.83,M,1.0,0000*5E,43.46202850333332,141.80575762,565181.8606346541,4812439.639139859
1895,[2021-01-29 11:29:55.282] $GPGGA,22953.9,4327.7217107,N,14148.3454581,E,4,9,1.3,107.9485,M,31.83,M,1.0,0000*5F,43.46202851166667,141.80575763500002,565181.8618391344,4812439.640077082
1896,[2021-01-29 11:29:55.392] $GPGGA,22954.0,4327.721710399999,N,14148.345457700003,E,4,9,1.3,107.9466,M,31.83,M,2.0,0000*55,43.462028506666655,141.8057576283334,565181.8613052072,4812439.639516576
1897,[2021-01-29 11:29:55.485] $GPGGA,22954.1,4327.7217114,N,14148.3454569,E,4,9,1.3,107.9475,M,31.83,M,2.0,0000*58,43.46202852333332,141.805757615,565181.86020869,4812439.641357103
1898,[2021-01-29 11:29:55.579] $GPGGA,22954.2,4327.7217114,N,14148.3454568,E,4,9,1.3,107.9477,M,31.83,M,2.0,0000*58,43.46202852333332,141.8057576133333,565181.8600738606,4812439.6413558
1899,[2021-01-29 11:29:55.673] $GPGGA,22954.3,4327.721710899999,N,14148.3454574,E,4,9,1.3,107.9479,M,31.83,M,2.0,0000*56,43.462028514999986,141.80575762333334,565181.860891772,4812439.640438142
1900,[2021-01-29 11:29:55.782] $GPGGA,22954.4,4327.721710899999,N,14148.3454569,E,4,9,1.3,107.9492,M,31.83,M,2.0,0000*58,43.462028514999986,141.805757615,565181.8602176434,4812439.640431622
1901,[2021-01-29 11:29:55.876] $GPGGA,22954.5,4327.721710399999,N,14148.3454565,E,4,9,1.3,107.9503,M,31.83,M,2.0,0000*51,43.462028506666655,141.80575760833332,565181.8596872916,4812439.6395009225
1902,[2021-01-29 11:29:55.985] $GPGGA,22954.6,4327.7217103,N,14148.3454585,E,4,9,1.3,107.9493,M,31.83,M,2.0,0000*53,43.462028505000006,141.80575764166667,565181.8623855981,4812439.639341915
1903,[2021-01-29 11:29:56.079] $GPGGA,22954.7,4327.7217107,N,14148.3454574,E,4,9,1.3,107.9489,M,31.83,M,2.0,0000*53,43.46202851166667,141.80575762333334,565181.8608953533,4812439.640067952
1904,[2021-01-29 11:29:56.188] $GPGGA,22954.8,4327.7217094,N,14148.345457700003,E,4,9,1.3,107.9502,M,31.83,M,2.0,0000*56,43.46202849,141.8057576283334,565181.861323114,4812439.637665611
1905,[2021-01-29 11:29:56.284] $GPGGA,22954.9,4327.7217092,N,14148.345457799998,E,4,9,1.3,107.9515,M,31.83,M,2.0,0000*58,43.46202848666667,141.80575763,565181.8614615145,4812439.637296721
1906,[2021-01-29 11:29:56.393] $GPGGA,22955.0,4327.721710100001,N,14148.345459,E,4,9,1.3,107.9487,M,31.83,M,3.0,0000*56,43.46202850166667,141.80575765,565181.863063308,4812439.638978242
1907,[2021-01-29 11:29:56.487] $GPGGA,22955.1,4327.7217105,N,14148.345457799998,E,4,9,1.3,107.9523,M,31.83,M,3.0,0000*5A,43.46202850833333,141.80575763,565181.8614382357,4812439.639702977
1908,[2021-01-29 11:29:56.581] $GPGGA,22955.2,4327.7217105,N,14148.3454585,E,4,9,1.3,107.9523,M,31.83,M,3.0,0000*5B,43.46202850833333,141.80575764166667,565181.8623820168,4812439.639712106
1909,[2021-01-29 11:29:56.674] $GPGGA,22955.3,4327.7217103,N,14148.345457700003,E,4,9,1.3,107.955,M,31.83,M,3.0,0000*55,43.462028505000006,141.8057576283334,565181.861306998,4812439.63933148
1910,[2021-01-29 11:29:56.784] $GPGGA,22955.4,4327.7217099,N,14148.3454584,E,4,9,1.3,107.9557,M,31.83,M,3.0,0000*5B,43.46202849833333,141.80575763999997,565181.8622579315,4812439.638600223
1911,[2021-01-29 11:29:56.878] $GPGGA,22955.5,4327.7217105,N,14148.345458000002,E,4,9,1.3,107.9541,M,31.83,M,3.0,0000*5D,43.46202850833333,141.80575763333337,565181.8617078904,4812439.639705583
1912,[2021-01-29 11:29:56.987] $GPGGA,22955.6,4327.7217101999995,N,14148.3454588,E,4,9,1.3,107.9537,M,31.83,M,3.0,0000*50,43.46202850333332,141.80575764666668,565181.8627918668,4812439.639160729
1913,[2021-01-29 11:29:57.081] $GPGGA,22955.7,4327.721710600001,N,14148.345458200001,E,4,9,1.3,107.9523,M,31.83,M,3.0,0000*5A,43.46202851000002,141.80575763666667,565181.8619757482,4812439.639893292
1914,[2021-01-29 11:29:57.190] $GPGGA,22955.8,4327.721711,N,14148.3454572,E,4,9,1.3,107.9521,M,31.83,M,3.0,0000*5F,43.46202851666667,141.80575762,565181.8606203286,4812439.640620633
1915,[2021-01-29 11:29:57.286] $GPGGA,22955.9,4327.721710399999,N,14148.3454571,E,4,9,1.3,107.9514,M,31.83,M,3.0,0000*5E,43.462028506666655,141.80575761833336,565181.8604962494,4812439.639508748
1916,[2021-01-29 11:29:57.379] $GPGGA,22956.0,4327.7217105,N,14148.345458599999,E,4,9,1.3,107.9499,M,31.83,M,4.0,0000*5E,43.46202850833333,141.80575764333332,565181.86251684,4812439.63971341
1917,[2021-01-29 11:29:57.489] $GPGGA,22956.1,4327.7217108,N,14148.345458599999,E,4,9,1.3,107.9493,M,31.83,M,4.0,0000*58,43.46202851333334,141.80575764333332,565181.862511468,4812439.6402687
1918,[2021-01-29 11:29:57.583] $GPGGA,22956.2,4327.7217107,N,14148.345458000002,E,4,9,1.3,107.9513,M,31.83,M,4.0,0000*5B,43.46202851166667,141.80575763333337,565181.861704309,4812439.640075778
1919,[2021-01-29 11:29:57.676] $GPGGA,22956.3,4327.7217112,N,14148.345458000002,E,4,9,1.3,107.9517,M,31.83,M,4.0,0000*5A,43.46202851999999,141.80575763333337,565181.8616953556,4812439.641001259
1920,[2021-01-29 11:29:57.786] $GPGGA,22956.4,4327.7217107,N,14148.3454576,E,4,9,1.3,107.9523,M,31.83,M,4.0,0000*57,43.46202851166667,141.8057576266667,565181.8611650058,4812439.64007056
1921,[2021-01-29 11:29:57.879] $GPGGA,22956.5,4327.7217098,N,14148.3454581,E,4,9,1.3,107.9525,M,31.83,M,4.0,0000*5F,43.46202849666667,141.80575763500002,565181.8618552504,4812439.638411214
1922,[2021-01-29 11:29:57.973] $GPGGA,22956.6,4327.721710399999,N,14148.345459099999,E,4,9,1.3,107.9501,M,31.83,M,4.0,0000*5F,43.462028506666655,141.80575765166665,565181.8631927591,4812439.639534836
1923,[2021-01-29 11:29:58.083] $GPGGA,22956.7,4327.7217108,N,14148.345458200001,E,4,9,1.3,107.9484,M,31.83,M,4.0,0000*5C,43.46202851333334,141.80575763666667,565181.8619721669,4812439.640263483
1924,[2021-01-29 11:29:58.176] $GPGGA,22956.8,4327.7217114,N,14148.345457799998,E,4,9,1.3,107.9497,M,31.83,M,4.0,0000*59,43.46202852333332,141.80575763,565181.8614221197,4812439.641368845
1925,[2021-01-29 11:29:58.289] $GPGGA,22956.9,4327.7217105,N,14148.3454583,E,4,9,1.3,107.9497,M,31.83,M,4.0,0000*5C,43.46202850833333,141.80575763833332,565181.8621123643,4812439.639709497
1926,[2021-01-29 11:29:58.382] $GPGGA,22957.0,4327.7217115,N,14148.3454585,E,4,9,1.3,107.9496,M,31.83,M,5.0,0000*53,43.46202852500001,141.80575764166667,565181.8623641101,4812439.641563074
1927,[2021-01-29 11:29:58.476] $GPGGA,22957.1,4327.7217108,N,14148.345458000002,E,4,9,1.3,107.9525,M,31.83,M,5.0,0000*52,43.46202851333334,141.80575763333337,565181.8617025184,4812439.640260874
1928,[2021-01-29 11:29:58.585] $GPGGA,22957.2,4327.7217112,N,14148.3454585,E,4,9,1.3,107.9511,M,31.83,M,5.0,0000*58,43.46202851999999,141.80575764166667,565181.862369482,4812439.64100778
1929,[2021-01-29 11:29:58.679] $GPGGA,22957.3,4327.7217112,N,14148.345457700003,E,4,9,1.3,107.9514,M,31.83,M,5.0,0000*51,43.46202851999999,141.8057576283334,565181.8612908819,4812439.6409973465
1930,[2021-01-29 11:29:58.773] $GPGGA,22957.4,4327.7217105,N,14148.345457799998,E,4,9,1.3,107.9511,M,31.83,M,5.0,0000*5A,43.46202850833333,141.80575763,565181.8614382357,4812439.639702977
1931,[2021-01-29 11:29:58.882] $GPGGA,22957.5,4327.7217114,N,14148.3454585,E,4,9,1.3,107.9516,M,31.83,M,5.0,0000*5E,43.46202852333332,141.80575764166667,565181.8623659007,4812439.641377974
1932,[2021-01-29 11:29:58.992] $GPGGA,22957.6,4327.7217115,N,14148.3454588,E,4,9,1.3,107.9514,M,31.83,M,5.0,0000*53,43.46202852500001,141.80575764666668,565181.8627685879,4812439.641566986
1933,[2021-01-29 11:29:59.085] $GPGGA,22957.7,4327.721710100001,N,14148.345458200001,E,4,9,1.3,107.9513,M,31.83,M,5.0,0000*5A,43.46202850166667,141.80575763666667,565181.8619847016,4812439.638967807
1934,[2021-01-29 11:29:59.179] $GPGGA,22957.8,4327.7217103,N,14148.345459200002,E,4,9,1.3,107.9495,M,31.83,M,5.0,0000*59,43.462028505000006,141.80575765333336,565181.8633293792,4812439.639351045
1935,[2021-01-29 11:29:59.273] $GPGGA,22957.9,4327.7217101999995,N,14148.3454583,E,4,9,1.3,107.9516,M,31.83,M,5.0,0000*53,43.46202850333332,141.80575763833332,565181.8621177363,4812439.639154208
1936,[2021-01-29 11:29:59.382] $GPGGA,22958.0,4327.7217101999995,N,14148.345458700001,E,4,9,1.3,107.9514,M,31.83,M,6.0,0000*50,43.46202850333332,141.80575764500003,565181.8626570415,4812439.639159425
1937,[2021-01-29 11:29:59.476] $GPGGA,22958.1,4327.7217099,N,14148.3454584,E,4,9,1.3,107.9519,M,31.83,M,6.0,0000*5C,43.46202849833333,141.80575763999997,565181.8622579315,4812439.638600223
1938,[2021-01-29 11:29:59.585] $GPGGA,22958.2,4327.7217091,N,14148.3454609,E,4,9,1.3,107.9481,M,31.83,M,1.0,0000*56,43.462028485000005,141.80575768166668,565181.8656429034,4812439.63715206
1939,[2021-01-29 11:29:59.679] $GPGGA,22958.3,4327.7217081,N,14148.3454609,E,4,9,1.3,107.9468,M,31.83,M,1.0,0000*51,43.46202846833333,141.80575768166668,565181.8656608101,4812439.6353010945
1940,[2021-01-29 11:29:59.789] $GPGGA,22958.4,4327.7217086,N,14148.345461300001,E,4,9,1.3,107.946,M,31.83,M,1.0,0000*52,43.46202847666667,141.80575768833336,565181.8661911599,4812439.636231795
1941,[2021-01-29 11:29:59.882] $GPGGA,22958.5,4327.7217086,N,14148.3454617,E,4,9,1.3,107.9461,M,31.83,M,1.0,0000*56,43.46202847666667,141.805757695,565181.8667304631,4812439.636237011
1942,[2021-01-29 11:29:59.976] $GPGGA,22958.6,4327.721708399999,N,14148.3454616,E,4,9,1.3,107.9467,M,31.83,M,1.0,0000*50,43.46202847333332,141.8057576933333,565181.8665992151,4812439.635865512
1943,[2021-01-29 11:30:00.085] $GPGGA,22958.7,4327.7217082,N,14148.345460699999,E,4,9,1.3,107.9456,M,31.83,M,1.0,0000*55,43.46202847,141.80575767833332,565181.8653893669,4812439.635483583
1944,[2021-01-29 11:30:00.179] $GPGGA,22958.8,4327.7217087,N,14148.345459999999,E,4,9,1.3,107.9462,M,31.83,M,1.0,0000*5F,43.46202847833333,141.80575766666664,565181.8644366303,4812439.636399934
1945,[2021-01-29 11:30:00.275] $GPGGA,22958.9,4327.721708399999,N,14148.345461300001,E,4,9,1.3,107.9458,M,31.83,M,1.0,0000*56,43.46202847333332,141.80575768833336,565181.8661947413,4812439.6358616
1946,[2021-01-29 11:30:00.384] $GPGGA,22959.0,4327.7217089,N,14148.345460499999,E,4,9,1.3,107.9421,M,31.83,M,2.0,0000*59,43.462028481666664,141.805757675,565181.8651071815,4812439.636776649
1947,[2021-01-29 11:30:00.478] $GPGGA,22959.1,4327.7217093,N,14148.345460600001,E,4,9,1.3,107.9434,M,31.83,M,2.0,0000*54,43.46202848833333,141.80575767666667,565181.8652348442,4812439.63751834
1948,[2021-01-29 11:30:00.587] $GPGGA,22959.2,4327.7217087,N,14148.3454604,E,4,9,1.3,107.9461,M,31.83,M,2.0,0000*50,43.46202847833333,141.80575767333335,565181.8649759375,4812439.636405152
1949,[2021-01-29 11:30:00.681] $GPGGA,22959.3,4327.7217091,N,14148.345459999999,E,4,9,1.3,107.945,M,31.83,M,2.0,0000*50,43.462028485000005,141.80575766666664,565181.8644294676,4812439.6371403225
1950,[2021-01-29 11:30:00.775] $GPGGA,22959.4,4327.7217086,N,14148.345459600001,E,4,9,1.3,107.9466,M,31.83,M,2.0,0000*58,43.46202847666667,141.80575766,565181.8638991219,4812439.63620962
1951,[2021-01-29 11:30:00.884] $GPGGA,22959.5,4327.7217085,N,14148.3454603,E,4,9,1.3,107.9464,M,31.83,M,2.0,0000*57,43.462028475000004,141.80575767166664,565181.8648446896,4812439.636033654
1952,[2021-01-29 11:30:00.978] $GPGGA,22959.6,4327.7217073,N,14148.345460100001,E,4,9,1.3,107.9478,M,31.83,M,2.0,0000*52,43.462028455,141.80575766833334,565181.8645965292,4812439.633809888
1953,[2021-01-29 11:30:01.087] $GPGGA,22959.7,4327.721708399999,N,14148.345460699999,E,4,9,1.3,107.9467,M,31.83,M,2.0,0000*53,43.46202847333332,141.80575767833332,565181.8653857855,4812439.635853774
1954,[2021-01-29 11:30:01.181] $GPGGA,22959.8,4327.7217086,N,14148.3454611,E,4,9,1.3,107.9449,M,31.83,M,2.0,0000*55,43.46202847666667,141.80575768499997,565181.8659215053,4812439.636229185
1955,[2021-01-29 11:30:01.276] $GPGGA,22959.9,4327.7217081,N,14148.345461,E,4,9,1.3,107.945,M,31.83,M,2.0,0000*5A,43.46202846833333,141.80575768333333,565181.8657956334,4812439.635302398
1956,[2021-01-29 11:30:01.385] $GPGGA,23000.0,4327.721707899999,N,14148.345459900002,E,4,9,1.3,107.9447,M,31.83,M,3.0,0000*55,43.462028464999996,141.80575766500004,565181.8643161366,4812439.634917857
1957,[2021-01-29 11:30:01.479] $GPGGA,23000.1,4327.7217078,N,14148.345461,E,4,9,1.3,107.9466,M,31.83,M,3.0,0000*54,43.46202846333335,141.80575768333333,565181.8658010054,4812439.63474711
1958,[2021-01-29 11:30:01.573] $GPGGA,23000.2,4327.7217085,N,14148.3454609,E,4,9,1.3,107.945,M,31.83,M,3.0,0000*58,43.462028475000004,141.80575768166668,565181.8656536475,4812439.636041481
1959,[2021-01-29 11:30:01.682] $GPGGA,23000.3,4327.721708399999,N,14148.345460699999,E,4,9,1.3,107.9451,M,31.83,M,3.0,0000*57,43.46202847333332,141.80575767833332,565181.8653857855,4812439.635853774
1960,[2021-01-29 11:30:01.776] $GPGGA,23000.4,4327.7217089,N,14148.345460499999,E,4,9,1.3,107.9444,M,31.83,M,3.0,0000*5B,43.462028481666664,141.805757675,565181.8651071815,4812439.636776649
1961,[2021-01-29 11:30:01.885] $GPGGA,23000.5,4327.7217085,N,14148.345459600001,E,4,9,1.3,107.9449,M,31.83,M,3.0,0000*52,43.462028475000004,141.80575766,565181.8639009126,4812439.636024524
1962,[2021-01-29 11:30:01.979] $GPGGA,23000.6,4327.7217087,N,14148.345460600001,E,4,9,1.3,107.9437,M,31.83,M,3.0,0000*50,43.46202847833333,141.80575767666667,565181.8652455881,4812439.636407761
1963,[2021-01-29 11:30:02.088] $GPGGA,23000.7,4327.7217087,N,14148.345461399998,E,4,9,1.3,107.9434,M,31.83,M,3.0,0000*51,43.46202847833333,141.80575768999998,565181.8663241925,4812439.6364181945
1964,[2021-01-29 11:30:02.182] $GPGGA,23000.8,4327.7217083000005,N,14148.3454611,E,4,9,1.3,107.9447,M,31.83,M,3.0,0000*5B,43.46202847166667,141.80575768499997,565181.8659268772,4812439.635673896
1965,[2021-01-29 11:30:02.279] $GPGGA,23000.9,4327.7217087,N,14148.3454611,E,4,9,1.3,107.9442,M,31.83,M,3.0,0000*5B,43.46202847833333,141.80575768499997,565181.8659197146,4812439.636414282
1966,[2021-01-29 11:30:02.388] $GPGGA,23001.0,4327.7217088,N,14148.3454603,E,4,9,1.3,107.9444,M,31.83,M,4.0,0000*5E,43.46202848,141.80575767166664,565181.8648393175,4812439.636588944
1967,[2021-01-29 11:30:02.482] $GPGGA,23001.1,4327.7217094,N,14148.345459600001,E,4,9,1.3,107.9448,M,31.83,M,4.0,0000*51,43.46202849,141.80575766,565181.8638847965,4812439.637690392
1968,[2021-01-29 11:30:02.591] $GPGGA,23001.2,4327.7217085,N,14148.3454602,E,4,9,1.3,107.9458,M,31.83,M,4.0,0000*5D,43.462028475000004,141.80575767,565181.8647098663,4812439.636032351
1969,[2021-01-29 11:30:02.685] $GPGGA,23001.3,4327.7217093,N,14148.3454603,E,4,9,1.3,107.9434,M,31.83,M,4.0,0000*50,43.46202848833333,141.80575767166664,565181.8648303641,4812439.637514426
1970,[2021-01-29 11:30:02.779] $GPGGA,23001.4,4327.7217089,N,14148.3454597,E,4,9,1.3,107.9435,M,31.83,M,4.0,0000*53,43.462028481666664,141.80575766166666,565181.8640285751,4812439.636766214
1971,[2021-01-29 11:30:02.873] $GPGGA,23001.5,4327.7217091,N,14148.345459,E,4,9,1.3,107.9455,M,31.83,M,4.0,0000*5A,43.462028485000005,141.80575765,565181.8630812147,4812439.637127277
1972,[2021-01-29 11:30:02.982] $GPGGA,23001.6,4327.721708399999,N,14148.345461,E,4,9,1.3,107.9447,M,31.83,M,4.0,0000*55,43.46202847333332,141.80575768333333,565181.8657902613,4812439.635857686
1973,[2021-01-29 11:30:03.076] $GPGGA,23001.7,4327.7217087,N,14148.345460799997,E,4,9,1.3,107.9459,M,31.83,M,4.0,0000*51,43.46202847833333,141.80575767999997,565181.8655152366,4812439.636410369
1974,[2021-01-29 11:30:03.185] $GPGGA,23001.8,4327.721709,N,14148.3454616,E,4,9,1.3,107.9441,M,31.83,M,4.0,0000*5E,43.462028483333334,141.8057576933333,565181.866588471,4812439.636976093
1975,[2021-01-29 11:30:03.278] $GPGGA,23001.9,4327.7217089,N,14148.345460799997,E,4,9,1.3,107.9459,M,31.83,M,4.0,0000*51,43.462028481666664,141.80575767999997,565181.8655116553,4812439.636780561
1976,[2021-01-29 11:30:03.388] $GPGGA,23002.0,4327.7217088,N,14148.3454602,E,4,9,1.3,107.9428,M,31.83,M,5.0,0000*57,43.46202848,141.80575767,565181.8647044942,4812439.636587639
1977,[2021-01-29 11:30:03.481] $GPGGA,23002.1,4327.7217086,N,14148.3454603,E,4,9,1.3,107.9445,M,31.83,M,5.0,0000*52,43.46202847666667,141.80575767166664,565181.8648428989,4812439.63621875
1978,[2021-01-29 11:30:03.575] $GPGGA,23002.2,4327.7217078,N,14148.345461,E,4,9,1.3,107.9447,M,31.83,M,5.0,0000*50,43.46202846333335,141.80575768333333,565181.8658010054,4812439.63474711
1979,[2021-01-29 11:30:03.684] $GPGGA,23002.3,4327.7217078,N,14148.345460699999,E,4,9,1.3,107.9461,M,31.83,M,5.0,0000*53,43.46202846333335,141.80575767833332,565181.8653965296,4812439.634743198
1980,[2021-01-29 11:30:03.778] $GPGGA,23002.4,4327.7217086,N,14148.345461300001,E,4,9,1.3,107.9433,M,31.83,M,5.0,0000*57,43.46202847666667,141.80575768833336,565181.8661911599,4812439.636231795
1981,[2021-01-29 11:30:03.872] $GPGGA,23002.5,4327.7217088,N,14148.345460499999,E,4,9,1.3,107.9433,M,31.83,M,5.0,0000*5F,43.46202848,141.805757675,565181.8651089722,4812439.636591553
1982,[2021-01-29 11:30:03.981] $GPGGA,23002.6,4327.7217083000005,N,14148.345461399998,E,4,9,1.3,107.9448,M,31.83,M,5.0,0000*5B,43.46202847166667,141.80575768999998,565181.8663313552,4812439.635677809
1983,[2021-01-29 11:30:04.075] $GPGGA,23002.7,4327.7217081,N,14148.345461,E,4,9,1.3,107.9425,M,31.83,M,5.0,0000*57,43.46202846833333,141.80575768333333,565181.8657956334,4812439.635302398
1984,[2021-01-29 11:30:04.184] $GPGGA,23002.8,4327.7217087,N,14148.345460499999,E,4,9,1.3,107.9425,M,31.83,M,5.0,0000*5A,43.46202847833333,141.805757675,565181.8651107629,4812439.636406456
1985,[2021-01-29 11:30:04.280] $GPGGA,23002.9,4327.7217089,N,14148.345459099999,E,4,9,1.3,107.9434,M,31.83,M,5.0,0000*5B,43.462028481666664,141.80575765166665,565181.8632196194,4812439.636758388
1986,[2021-01-29 11:30:04.389] $GPGGA,23003.0,4327.7217086,N,14148.3454602,E,4,9,1.3,107.9425,M,31.83,M,6.0,0000*56,43.46202847666667,141.80575767,565181.8647080756,4812439.636217447
1987,[2021-01-29 11:30:04.483] $GPGGA,23003.1,4327.7217081,N,14148.345459999999,E,4,9,1.3,107.9437,M,31.83,M,6.0,0000*51,43.46202846833333,141.80575766666664,565181.8644473744,4812439.635289355
1988,[2021-01-29 11:30:04.577] $GPGGA,23003.2,4327.7217108,N,14148.345461899999,E,4,9,1.3,107.9344,M,31.83,M,1.0,0000*5E,43.46202851333334,141.8057576983333,565181.8669607167,4812439.640311744
1989,[2021-01-29 11:30:04.686] $GPGGA,23003.3,4327.7217123,N,14148.345462000001,E,4,9,1.3,107.9279,M,31.83,M,1.0,0000*53,43.462028538333335,141.80575770000002,565181.8670686838,4812439.643089496
1990,[2021-01-29 11:30:04.780] $GPGGA,23003.4,4327.7217128,N,14148.3454604,E,4,9,1.3,107.9256,M,31.83,M,1.0,0000*54,43.46202854666667,141.80575767333335,565181.8649025197,4812439.64399411
1991,[2021-01-29 11:30:04.889] $GPGGA,23003.5,4327.721713100001,N,14148.345461300001,E,4,9,1.3,107.9232,M,31.83,M,1.0,0000*59,43.46202855166668,141.80575768833336,565181.8661105793,4812439.644561139
1992,[2021-01-29 11:30:04.983] $GPGGA,23003.6,4327.7217135,N,14148.3454609,E,4,9,1.3,107.9223,M,31.83,M,1.0,0000*55,43.46202855833334,141.80575768166668,565181.8655641135,4812439.645296307
1993,[2021-01-29 11:30:05.077] $GPGGA,23003.7,4327.7217137,N,14148.345462000001,E,4,9,1.3,107.9203,M,31.83,M,1.0,0000*5F,43.46202856166667,141.80575770000002,565181.8670436144,4812439.6456808485
1994,[2021-01-29 11:30:05.186] $GPGGA,23003.8,4327.7217133,N,14148.345460699999,E,4,9,1.3,107.9215,M,31.83,M,1.0,0000*56,43.462028555,141.80575767833332,565181.8652980422,4812439.644923505
1995,[2021-01-29 11:30:05.282] $GPGGA,23003.9,4327.7217133,N,14148.345460699999,E,4,9,1.3,107.9235,M,31.83,M,1.0,0000*55,43.462028555,141.80575767833332,565181.8652980422,4812439.644923505
1996,[2021-01-29 11:30:05.376] $GPGGA,23004.0,4327.721713,N,14148.345461300001,E,4,9,1.3,107.9236,M,31.83,M,2.0,0000*5D,43.46202854999999,141.80575768833336,565181.86611237,4812439.64437604
1997,[2021-01-29 11:30:05.485] $GPGGA,23004.1,4327.7217126000005,N,14148.345462000001,E,4,9,1.3,107.924,M,31.83,M,2.0,0000*5A,43.46202854333334,141.80575770000002,565181.8670633117,4812439.643644786
1998,[2021-01-29 11:30:05.579] $GPGGA,23004.2,4327.7217123,N,14148.3454617,E,4,9,1.3,107.9244,M,31.83,M,2.0,0000*5C,43.462028538333335,141.805757695,565181.866664208,4812439.643085582
1999,[2021-01-29 11:30:05.688] $GPGGA,23004.3,4327.7217121,N,14148.345460600001,E,4,9,1.3,107.9259,M,31.83,M,2.0,0000*53,43.46202853500001,141.80575767666667,565181.8651847051,4812439.642701044
2000,[2021-01-29 11:30:05.782] $GPGGA,23004.4,4327.7217126000005,N,14148.3454616,E,4,9,1.3,107.9269,M,31.83,M,2.0,0000*51,43.46202854333334,141.8057576933333,565181.8665240066,4812439.643639569
2001,[2021-01-29 11:30:05.876] $GPGGA,23004.5,4327.7217121,N,14148.3454622,E,4,9,1.3,107.9273,M,31.83,M,2.0,0000*5B,43.46202853500001,141.80575770333334,565181.8673419157,4812439.642721913
2002,[2021-01-29 11:30:05.985] $GPGGA,23004.6,4327.7217126000005,N,14148.345462000001,E,4,9,1.3,107.9269,M,31.83,M,2.0,0000*56,43.46202854333334,141.80575770000002,565181.8670633117,4812439.643644786
2003,[2021-01-29 11:30:06.079] $GPGGA,23004.7,4327.7217125,N,14148.3454622,E,4,9,1.3,107.9259,M,31.83,M,2.0,0000*55,43.46202854166667,141.80575770333334,565181.867334753,4812439.643462298
2004,[2021-01-29 11:30:06.188] $GPGGA,23004.8,4327.721712,N,14148.345461,E,4,9,1.3,107.9266,M,31.83,M,2.0,0000*52,43.462028533333324,141.80575768333333,565181.8657257969,4812439.642521162
2005,[2021-01-29 11:30:06.283] $GPGGA,23004.9,4327.7217124,N,14148.3454621,E,4,9,1.3,107.9256,M,31.83,M,2.0,0000*56,43.46202853999999,141.80575770166666,565181.8672017185,4812439.643275895
2006,[2021-01-29 11:30:06.393] $GPGGA,23005.0,4327.7217126000005,N,14148.345461,E,4,9,1.3,107.9259,M,31.83,M,3.0,0000*50,43.46202854333334,141.80575768333333,565181.8657150528,4812439.643631743
2007,[2021-01-29 11:30:06.486] $GPGGA,23005.1,4327.7217126000005,N,14148.345463,E,4,9,1.3,107.9246,M,31.83,M,3.0,0000*5D,43.46202854333334,141.80575771666665,565181.8684115667,4812439.64365783
2008,[2021-01-29 11:30:06.580] $GPGGA,23005.2,4327.721712,N,14148.3454616,E,4,9,1.3,107.9269,M,31.83,M,3.0,0000*51,43.462028533333324,141.8057576933333,565181.8665347507,4812439.642528988
2009,[2021-01-29 11:30:06.674] $GPGGA,23005.3,4327.7217125,N,14148.3454621,E,4,9,1.3,107.9248,M,31.83,M,3.0,0000*52,43.46202854166667,141.80575770166666,565181.8671999278,4812439.643460994
2010,[2021-01-29 11:30:06.783] $GPGGA,23005.4,4327.7217125,N,14148.3454621,E,4,9,1.3,107.9252,M,31.83,M,3.0,0000*5E,43.46202854166667,141.80575770166666,565181.8671999278,4812439.643460994
2011,[2021-01-29 11:30:06.877] $GPGGA,23005.5,4327.721712899999,N,14148.345462399999,E,4,9,1.3,107.9244,M,31.83,M,3.0,0000*51,43.46202854833332,141.80575770666664,565181.8675972389,4812439.644205292
2012,[2021-01-29 11:30:06.986] $GPGGA,23005.6,4327.721712699999,N,14148.3454617,E,4,9,1.3,107.925,M,31.83,M,3.0,0000*59,43.46202854499999,141.805757695,565181.8666570453,4812439.643825968
2013,[2021-01-29 11:30:07.080] $GPGGA,23005.7,4327.7217125,N,14148.345461899999,E,4,9,1.3,107.9255,M,31.83,M,3.0,0000*51,43.46202854166667,141.8057576983333,565181.8669302751,4812439.643458385
2014,[2021-01-29 11:30:07.189] $GPGGA,23005.8,4327.7217123,N,14148.3454618,E,4,9,1.3,107.925,M,31.83,M,3.0,0000*5C,43.462028538333335,141.80575769666666,565181.8667990313,4812439.643086888
2015,[2021-01-29 11:30:07.285] $GPGGA,23005.9,4327.7217122,N,14148.345462000001,E,4,9,1.3,107.9279,M,31.83,M,3.0,0000*5C,43.46202853666667,141.80575770000002,565181.8670704745,4812439.642904401
2016,[2021-01-29 11:30:07.379] $GPGGA,23006.0,4327.7217112,N,14148.345461200002,E,4,9,1.3,107.9257,M,31.83,M,4.0,0000*5F,43.46202851999999,141.8057576866667,565181.866009779,4812439.641042997
2017,[2021-01-29 11:30:07.473] $GPGGA,23006.1,4327.7217115,N,14148.3454621,E,4,9,1.3,107.9264,M,31.83,M,4.0,0000*59,43.46202852500001,141.80575770166666,565181.8672178346,4812439.64161003
2018,[2021-01-29 11:30:07.582] $GPGGA,23006.2,4327.7217124,N,14148.3454625,E,4,9,1.3,107.924,M,31.83,M,4.0,0000*5A,43.46202853999999,141.80575770833335,565181.8677410217,4812439.643281113
2019,[2021-01-29 11:30:07.676] $GPGGA,23006.3,4327.7217124,N,14148.3454618,E,4,9,1.3,107.9243,M,31.83,M,4.0,0000*56,43.46202853999999,141.80575769666666,565181.8667972406,4812439.643271983
2020,[2021-01-29 11:30:07.785] $GPGGA,23006.4,4327.721712899999,N,14148.345461899999,E,4,9,1.3,107.9239,M,31.83,M,4.0,0000*50,43.46202854833332,141.8057576983333,565181.8669231124,4812439.644198771
2021,[2021-01-29 11:30:07.879] $GPGGA,23006.5,4327.721712699999,N,14148.3454616,E,4,9,1.3,107.9246,M,31.83,M,4.0,0000*58,43.46202854499999,141.8057576933333,565181.8665222159,4812439.643824662
2022,[2021-01-29 11:30:07.973] $GPGGA,23006.6,4327.721713100001,N,14148.3454622,E,4,9,1.3,107.9235,M,31.83,M,4.0,0000*5F,43.46202855166668,141.80575770333334,565181.867324009,4812439.644572877
2023,[2021-01-29 11:30:08.082] $GPGGA,23006.7,4327.7217124,N,14148.345461399998,E,4,9,1.3,107.9255,M,31.83,M,4.0,0000*59,43.46202853999999,141.80575768999998,565181.8662579374,4812439.643266765
2024,[2021-01-29 11:30:08.176] $GPGGA,23006.8,4327.721713100001,N,14148.345461300001,E,4,9,1.3,107.9241,M,31.83,M,4.0,0000*50,43.46202855166668,141.80575768833336,565181.8661105793,4812439.644561139
2025,[2021-01-29 11:30:08.287] $GPGGA,23006.9,4327.7217125,N,14148.3454609,E,4,9,1.3,107.9267,M,31.83,M,4.0,0000*5B,43.46202854166667,141.80575768166668,565181.8655820203,4812439.643445342
2026,[2021-01-29 11:30:08.380] $GPGGA,23007.0,4327.7217116,N,14148.345460600001,E,4,9,1.3,107.9257,M,31.83,M,5.0,0000*5E,43.46202852666667,141.80575767666667,565181.8651936585,4812439.641775561
2027,[2021-01-29 11:30:08.490] $GPGGA,23007.1,4327.7217125,N,14148.3454628,E,4,9,1.3,107.9251,M,31.83,M,5.0,0000*55,43.46202854166667,141.80575771333335,565181.8681437089,4812439.643470124
2028,[2021-01-29 11:30:08.584] $GPGGA,23007.2,4327.7217116,N,14148.345454700002,E,4,9,1.3,107.932,M,31.83,M,5.0,0000*5B,43.46202852666667,141.80575757833336,565181.8572389443,4812439.6416986035
2029,[2021-01-29 11:30:08.693] $GPGGA,23007.3,4327.7217117,N,14148.345451899999,E,4,9,1.3,107.9366,M,31.83,M,5.0,0000*52,43.462028528333335,141.80575753166664,565181.8534620292,4812439.641847177
2030,[2021-01-29 11:30:08.787] $GPGGA,23007.4,4327.7217117,N,14148.3454521,E,4,9,1.3,107.9406,M,31.83,M,5.0,0000*5F,43.462028528333335,141.805757535,565181.8537316839,4812439.641849787
2031,[2021-01-29 11:30:08.880] $GPGGA,23007.5,4327.721710899999,N,14148.3454515,E,4,9,1.3,107.9422,M,31.83,M,5.0,0000*50,43.462028514999986,141.80575752500002,565181.8529370556,4812439.640361187
2032,[2021-01-29 11:30:08.974] $GPGGA,23007.6,4327.7217111,N,14148.3454525,E,4,9,1.3,107.9421,M,31.83,M,5.0,0000*5A,43.462028518333334,141.80575754166665,565181.8542817291,4812439.640744425
2033,[2021-01-29 11:30:09.084] $GPGGA,23007.7,4327.721710399999,N,14148.345452200001,E,4,9,1.3,107.9442,M,31.83,M,5.0,0000*5D,43.462028506666655,141.8057575366667,565181.8538897901,4812439.639444836
2034,[2021-01-29 11:30:09.177] $GPGGA,23007.8,4327.721709699999,N,14148.345451700003,E,4,9,1.3,107.9447,M,31.83,M,5.0,0000*5A,43.462028494999984,141.8057575283334,565181.8532282005,4812439.638142636
2035,[2021-01-29 11:30:09.288] $GPGGA,23007.9,4327.7217103,N,14148.345452000001,E,4,9,1.3,107.9418,M,31.83,M,5.0,0000*59,43.462028505000006,141.80575753333335,565181.8536219281,4812439.639257132
2036,[2021-01-29 11:30:09.382] $GPGGA,23008.0,4327.7217107,N,14148.345453299999,E,4,9,1.3,107.939,M,31.83,M,6.0,0000*5D,43.46202851166667,141.80575755499999,565181.8553674982,4812439.640014474
2037,[2021-01-29 11:30:09.475] $GPGGA,23008.1,4327.721711300001,N,14148.345452200001,E,4,9,1.3,107.9401,M,31.83,M,6.0,0000*56,43.462028521666674,141.8057575366667,565181.853873674,4812439.641110706
2038,[2021-01-29 11:30:09.569] $GPGGA,23008.2,4327.7217096,N,14148.3454514,E,4,9,1.3,107.9439,M,31.83,M,1.0,0000*50,43.462028493333335,141.80575752333337,565181.8528255112,4812439.63795363
2039,[2021-01-29 11:30:09.678] $GPGGA,23008.3,4327.7217092,N,14148.345451700003,E,4,9,1.3,107.9454,M,31.83,M,1.0,0000*5D,43.46202848666667,141.8057575283334,565181.8532371538,4812439.637217157
2040,[2021-01-29 11:30:09.788] $GPGGA,23008.4,4327.7217087,N,14148.345452000001,E,4,9,1.3,107.9493,M,31.83,M,1.0,0000*51,43.46202847833333,141.80575753333335,565181.853650579,4812439.636295587
2041,[2021-01-29 11:30:09.882] $GPGGA,23008.5,4327.7217082,N,14148.3454516,E,4,9,1.3,107.9512,M,31.83,M,1.0,0000*58,43.46202847,141.80575752666667,565181.8531202292,4812439.635364887
2042,[2021-01-29 11:30:09.991] $GPGGA,23008.6,4327.7217085,N,14148.345451899999,E,4,9,1.3,107.9525,M,31.83,M,1.0,0000*57,43.462028475000004,141.80575753166664,565181.853519331,4812439.63592409
2043,[2021-01-29 11:30:10.085] $GPGGA,23008.7,4327.721708399999,N,14148.345452200001,E,4,9,1.3,107.9526,M,31.83,M,1.0,0000*5C,43.46202847333332,141.8057575366667,565181.8539256037,4812439.635742905
2044,[2021-01-29 11:30:10.179] $GPGGA,23008.8,4327.7217085,N,14148.345452200001,E,4,9,1.3,107.9531,M,31.83,M,1.0,0000*54,43.462028475000004,141.8057575366667,565181.853923813,4812439.635928003
2045,[2021-01-29 11:30:10.274] $GPGGA,23008.9,4327.7217082,N,14148.345452000001,E,4,9,1.3,107.9543,M,31.83,M,1.0,0000*55,43.46202847,141.80575753333335,565181.8536595324,4812439.6353701055
2046,[2021-01-29 11:30:10.383] $GPGGA,23009.0,4327.7217083000005,N,14148.345451299998,E,4,9,1.3,107.9529,M,31.83,M,2.0,0000*53,43.46202847166667,141.8057575216666,565181.8527139565,4812439.6355460705
2047,[2021-01-29 11:30:10.477] $GPGGA,23009.1,4327.7217082,N,14148.345452000001,E,4,9,1.3,107.9547,M,31.83,M,2.0,0000*5B,43.46202847,141.80575753333335,565181.8536595324,4812439.6353701055
2048,[2021-01-29 11:30:10.586] $GPGGA,23009.2,4327.7217075,N,14148.3454514,E,4,9,1.3,107.9574,M,31.83,M,2.0,0000*57,43.46202845833333,141.80575752333337,565181.8528631155,4812439.634066602
2049,[2021-01-29 11:30:10.680] $GPGGA,23009.3,4327.721707899999,N,14148.345451899999,E,4,9,1.3,107.9566,M,31.83,M,2.0,0000*54,43.462028464999996,141.80575753166664,565181.853530075,4812439.634813509
2050,[2021-01-29 11:30:10.789] $GPGGA,23009.4,4327.721707899999,N,14148.3454516,E,4,9,1.3,107.9546,M,31.83,M,2.0,0000*5E,43.462028464999996,141.80575752666667,565181.8531256012,4812439.634809597
2051,[2021-01-29 11:30:10.883] $GPGGA,23009.5,4327.721708,N,14148.345451,E,4,9,1.3,107.955,M,31.83,M,2.0,0000*58,43.462028466666666,141.80575751666666,565181.8523148547,4812439.634986867
2052,[2021-01-29 11:30:10.977] $GPGGA,23009.6,4327.7217078,N,14148.3454516,E,4,9,1.3,107.9533,M,31.83,M,2.0,0000*5F,43.46202846333335,141.80575752666667,565181.8531273919,4812439.634624502
2053,[2021-01-29 11:30:11.086] $GPGGA,23009.7,4327.721708,N,14148.3454523,E,4,9,1.3,107.9526,M,31.83,M,2.0,0000*5B,43.462028466666666,141.80575753833335,565181.8540675916,4812439.635003824
2054,[2021-01-29 11:30:11.180] $GPGGA,23009.8,4327.7217086,N,14148.345451,E,4,9,1.3,107.9529,M,31.83,M,2.0,0000*5D,43.46202847666667,141.80575751666666,565181.8523041107,4812439.636097446
2055,[2021-01-29 11:30:11.276] $GPGGA,23009.9,4327.7217086,N,14148.3454511,E,4,9,1.3,107.952,M,31.83,M,2.0,0000*54,43.46202847666667,141.8057575183333,565181.852438936,4812439.636098751
2056,[2021-01-29 11:30:11.385] $GPGGA,23010.0,4327.7217081,N,14148.345450600002,E,4,9,1.3,107.9517,M,31.83,M,3.0,0000*51,43.46202846833333,141.80575751000003,565181.851773765,4812439.6351667475
2057,[2021-01-29 11:30:11.479] $GPGGA,23010.1,4327.7217078,N,14148.345452000001,E,4,9,1.3,107.9527,M,31.83,M,3.0,0000*51,43.46202846333335,141.80575753333335,565181.8536666951,4812439.63462972
2058,[2021-01-29 11:30:11.588] $GPGGA,23010.2,4327.7217085,N,14148.3454511,E,4,9,1.3,107.9515,M,31.83,M,3.0,0000*53,43.462028475000004,141.8057575183333,565181.8524407266,4812439.635913655
2059,[2021-01-29 11:30:11.682] $GPGGA,23010.3,4327.721707899999,N,14148.345450600002,E,4,9,1.3,107.9529,M,31.83,M,3.0,0000*58,43.462028464999996,141.80575751000003,565181.8517773463,4812439.634796553
2060,[2021-01-29 11:30:11.776] $GPGGA,23010.4,4327.721707899999,N,14148.3454509,E,4,9,1.3,107.9566,M,31.83,M,3.0,0000*5B,43.462028464999996,141.805757515,565181.8521818222,4812439.634800468
2061,[2021-01-29 11:30:11.885] $GPGGA,23010.5,4327.7217086,N,14148.3454511,E,4,9,1.3,107.9554,M,31.83,M,3.0,0000*52,43.46202847666667,141.8057575183333,565181.852438936,4812439.636098751
2062,[2021-01-29 11:30:11.979] $GPGGA,23010.6,4327.721708,N,14148.345450600002,E,4,9,1.3,107.954,M,31.83,M,3.0,0000*54,43.462028466666666,141.80575751000003,565181.8517755556,4812439.634981651
2063,[2021-01-29 11:30:12.088] $GPGGA,23010.7,4327.7217086,N,14148.345450499999,E,4,9,1.3,107.9522,M,31.83,M,3.0,0000*54,43.46202847666667,141.80575750833333,565181.8516299822,4812439.636090925
2064,[2021-01-29 11:30:12.182] $GPGGA,23010.8,4327.7217087,N,14148.3454508,E,4,9,1.3,107.9506,M,31.83,M,3.0,0000*51,43.46202847833333,141.80575751333333,565181.8520326695,4812439.636279934
2065,[2021-01-29 11:30:12.277] $GPGGA,23010.9,4327.7217091,N,14148.345451299998,E,4,9,1.3,107.9514,M,31.83,M,3.0,0000*5E,43.462028485000005,141.8057575216666,565181.8526996311,4812439.637026844
2066,[2021-01-29 11:30:12.387] $GPGGA,23011.0,4327.7217083000005,N,14148.345451,E,4,9,1.3,107.952,M,31.83,M,4.0,0000*56,43.46202847166667,141.80575751666666,565181.8523094828,4812439.635542158
2067,[2021-01-29 11:30:12.480] $GPGGA,23011.1,4327.721707600001,N,14148.3454511,E,4,9,1.3,107.9534,M,31.83,M,4.0,0000*59,43.46202846000001,141.8057575183333,565181.8524568427,4812439.634247787
2068,[2021-01-29 11:30:12.574] $GPGGA,23011.2,4327.7217086,N,14148.345451700003,E,4,9,1.3,107.9518,M,31.83,M,4.0,0000*5D,43.46202847666667,141.8057575283334,565181.8532478979,4812439.636106577
2069,[2021-01-29 11:30:12.684] $GPGGA,23011.3,4327.7217091,N,14148.345451700003,E,4,9,1.3,107.9518,M,31.83,M,4.0,0000*5A,43.462028485000005,141.8057575283334,565181.8532389445,4812439.637032061
2070,[2021-01-29 11:30:12.777] $GPGGA,23011.4,4327.7217089,N,14148.345451,E,4,9,1.3,107.9496,M,31.83,M,4.0,0000*54,43.462028481666664,141.80575751666666,565181.8522987387,4812439.636652736
2071,[2021-01-29 11:30:12.887] $GPGGA,23011.5,4327.7217089,N,14148.345452000001,E,4,9,1.3,107.9489,M,31.83,M,4.0,0000*58,43.462028481666664,141.80575753333335,565181.8536469976,4812439.63666578
2072,[2021-01-29 11:30:12.980] $GPGGA,23011.6,4327.7217091,N,14148.3454518,E,4,9,1.3,107.9495,M,31.83,M,4.0,0000*54,43.462028485000005,141.80575753,565181.8533737636,4812439.637033366
2073,[2021-01-29 11:30:13.074] $GPGGA,23011.7,4327.7217081,N,14148.3454514,E,4,9,1.3,107.9504,M,31.83,M,4.0,0000*51,43.46202846833333,141.80575752333337,565181.8528523714,4812439.63517718
2074,[2021-01-29 11:30:13.183] $GPGGA,23011.8,4327.721709,N,14148.345450499999,E,4,9,1.3,107.9489,M,31.83,M,4.0,0000*5A,43.462028483333334,141.80575750833333,565181.8516228196,4812439.6368313115
2075,[2021-01-29 11:30:13.279] $GPGGA,23011.9,4327.7217098,N,14148.3454508,E,4,9,1.3,107.9495,M,31.83,M,4.0,0000*53,43.46202849666667,141.80575751333333,565181.852012972,4812439.638315996
2076,[2021-01-29 11:30:13.388] $GPGGA,23012.0,4327.7217085,N,14148.3454507,E,4,9,1.3,107.949,M,31.83,M,5.0,0000*5E,43.462028475000004,141.80575751166668,565181.8519014276,4812439.635908439
2077,[2021-01-29 11:30:13.482] $GPGGA,23012.1,4327.7217087,N,14148.3454507,E,4,9,1.3,107.9496,M,31.83,M,5.0,0000*5B,43.46202847833333,141.80575751166668,565181.8518978462,4812439.636278631
2078,[2021-01-29 11:30:13.576] $GPGGA,23012.2,4327.7217088,N,14148.345452000001,E,4,9,1.3,107.9504,M,31.83,M,5.0,0000*58,43.46202848,141.80575753333335,565181.8536487883,4812439.636480684
2079,[2021-01-29 11:30:13.685] $GPGGA,23012.3,4327.7217083000005,N,14148.3454516,E,4,9,1.3,107.9489,M,31.83,M,5.0,0000*53,43.46202847166667,141.80575752666667,565181.8531184385,4812439.635549983
2080,[2021-01-29 11:30:13.779] $GPGGA,23012.4,4327.721708399999,N,14148.3454514,E,4,9,1.3,107.9487,M,31.83,M,5.0,0000*5F,43.46202847333332,141.80575752333337,565181.8528469993,4812439.63573247
2081,[2021-01-29 11:30:13.872] $GPGGA,23012.5,4327.7217092,N,14148.345451,E,4,9,1.3,107.9468,M,31.83,M,5.0,0000*5C,43.46202848666667,141.80575751666666,565181.8522933667,4812439.637208027
2082,[2021-01-29 11:30:13.982] $GPGGA,23012.6,4327.7217096,N,14148.345451700003,E,4,9,1.3,107.9438,M,31.83,M,5.0,0000*59,43.462028493333335,141.8057575283334,565181.8532299912,4812439.637957543
2083,[2021-01-29 11:30:14.076] $GPGGA,23012.7,4327.7217093,N,14148.3454515,E,4,9,1.3,107.9453,M,31.83,M,5.0,0000*52,43.46202848833333,141.80575752500002,565181.8529657065,4812439.637399644
2084,[2021-01-29 11:30:14.185] $GPGGA,23012.8,4327.7217095,N,14148.345451299998,E,4,9,1.3,107.9444,M,31.83,M,5.0,0000*5B,43.462028491666665,141.8057575216666,565181.8526924683,4812439.637767228
2085,[2021-01-29 11:30:14.279] $GPGGA,23012.9,4327.7217095,N,14148.3454515,E,4,9,1.3,107.9446,M,31.83,M,5.0,0000*5E,43.462028491666665,141.80575752500002,565181.8529621251,4812439.637769837
2086,[2021-01-29 11:30:14.389] $GPGGA,23013.0,4327.721709,N,14148.3454511,E,4,9,1.3,107.9447,M,31.83,M,6.0,0000*55,43.462028483333334,141.8057575183333,565181.8524317732,4812439.6368391365
2087,[2021-01-29 11:30:14.482] $GPGGA,23013.1,4327.7217091,N,14148.345450499999,E,4,9,1.3,107.9445,M,31.83,M,6.0,0000*52,43.462028485000005,141.80575750833333,565181.8516210287,4812439.637016408
2088,[2021-01-29 11:30:14.576] $GPGGA,23013.2,4327.7217117,N,14148.345450600002,E,4,9,1.3,107.9399,M,31.83,M,1.0,0000*5C,43.462028528333335,141.80575751000003,565181.8517093007,4812439.641830222
2089,[2021-01-29 11:30:14.686] $GPGGA,23013.3,4327.7217137,N,14148.345449899998,E,4,9,1.3,107.9359,M,31.83,M,1.0,0000*54,43.46202856166667,141.8057574983333,565181.8507297018,4812439.645523022
2090,[2021-01-29 11:30:14.779] $GPGGA,23013.4,4327.721713600001,N,14148.3454496,E,4,9,1.3,107.9346,M,31.83,M,1.0,0000*53,43.46202856000002,141.80575749333335,565181.8503270188,4812439.645334016
2091,[2021-01-29 11:30:14.873] $GPGGA,23013.5,4327.721713600001,N,14148.3454498,E,4,9,1.3,107.9314,M,31.83,M,1.0,0000*5B,43.46202856000002,141.80575749666664,565181.8505966672,4812439.645336623
2092,[2021-01-29 11:30:14.982] $GPGGA,23013.6,4327.7217145,N,14148.3454504,E,4,9,1.3,107.929,M,31.83,M,1.0,0000*55,43.462028575000005,141.80575750666668,565181.8513895089,4812439.647010315
2093,[2021-01-29 11:30:15.092] $GPGGA,23013.7,4327.7217148,N,14148.345449399998,E,4,9,1.3,107.9281,M,31.83,M,1.0,0000*51,43.462028579999995,141.80575748999996,565181.8500358759,4812439.647552562
2094,[2021-01-29 11:30:15.185] $GPGGA,23013.8,4327.7217137,N,14148.345450100001,E,4,9,1.3,107.9281,M,31.83,M,1.0,0000*5B,43.46202856166667,141.80575750166668,565181.8509993565,4812439.6455256315
2095,[2021-01-29 11:30:15.281] $GPGGA,23013.9,4327.721713100001,N,14148.345449399998,E,4,9,1.3,107.9323,M,31.83,M,1.0,0000*58,43.46202855166668,141.80575748999996,565181.8500663175,4812439.644405923
2096,[2021-01-29 11:30:15.390] $GPGGA,23014.0,4327.721713600001,N,14148.345449899998,E,4,9,1.3,107.9302,M,31.83,M,2.0,0000*5C,43.46202856000002,141.8057574983333,565181.8507314925,4812439.645337928
2097,[2021-01-29 11:30:15.484] $GPGGA,23014.1,4327.7217141,N,14148.345449899998,E,4,9,1.3,107.9302,M,31.83,M,2.0,0000*5D,43.46202856833334,141.8057574983333,565181.8507225391,4812439.646263409
2098,[2021-01-29 11:30:15.578] $GPGGA,23014.2,4327.7217133,N,14148.3454496,E,4,9,1.3,107.932,M,31.83,M,2.0,0000*54,43.462028555,141.80575749333335,565181.8503323907,4812439.644778724
2099,[2021-01-29 11:30:15.687] $GPGGA,23014.3,4327.721713600001,N,14148.3454502,E,4,9,1.3,107.9334,M,31.83,M,2.0,0000*59,43.46202856000002,141.80575750333333,565181.8511359724,4812439.645341841
2100,[2021-01-29 11:30:15.781] $GPGGA,23014.4,4327.7217138999995,N,14148.3454503,E,4,9,1.3,107.9325,M,31.83,M,2.0,0000*50,43.46202856499999,141.80575750499997,565181.8512654237,4812439.645898432
2101,[2021-01-29 11:30:15.875] $GPGGA,23014.5,4327.721713399999,N,14148.3454497,E,4,9,1.3,107.9319,M,31.83,M,2.0,0000*5F,43.46202855666665,141.805757495,565181.8504654254,4812439.6449651215
2102,[2021-01-29 11:30:15.984] $GPGGA,23014.6,4327.721714,N,14148.345450100001,E,4,9,1.3,107.9318,M,31.83,M,2.0,0000*50,43.462028566666675,141.80575750166668,565181.8509939845,4812439.6460809205
2103,[2021-01-29 11:30:16.078] $GPGGA,23014.7,4327.7217138000005,N,14148.3454509,E,4,9,1.3,107.9314,M,31.83,M,2.0,0000*5A,43.46202856333334,141.805757515,565181.8520761722,4812439.645721164
2104,[2021-01-29 11:30:16.171] $GPGGA,23014.8,4327.721714,N,14148.3454498,E,4,9,1.3,107.9325,M,31.83,M,2.0,0000*51,43.462028566666675,141.80575749666664,565181.8505895045,4812439.646077008
2105,[2021-01-29 11:30:16.283] $GPGGA,23014.9,4327.721713399999,N,14148.3454495,E,4,9,1.3,107.9335,M,31.83,M,2.0,0000*5F,43.46202855666665,141.8057574916667,565181.8501957769,4812439.644962513
2106,[2021-01-29 11:30:16.376] $GPGGA,23015.0,4327.721713,N,14148.34545,E,4,9,1.3,107.9326,M,31.83,M,3.0,0000*5D,43.46202854999999,141.8057575,565181.8508770639,4812439.644228649
2107,[2021-01-29 11:30:16.486] $GPGGA,23015.1,4327.7217123,N,14148.3454493,E,4,9,1.3,107.9334,M,31.83,M,3.0,0000*56,43.462028538333335,141.80575748833334,565181.8499458197,4812439.642923845
2108,[2021-01-29 11:30:16.580] $GPGGA,23015.2,4327.721712899999,N,14148.345449899998,E,4,9,1.3,107.9321,M,31.83,M,3.0,0000*51,43.46202854833332,141.8057574983333,565181.8507440273,4812439.644042249
2109,[2021-01-29 11:30:16.673] $GPGGA,23015.3,4327.7217142,N,14148.3454496,E,4,9,1.3,107.932,M,31.83,M,3.0,0000*53,43.462028569999994,141.80575749333335,565181.8503162747,4812439.646444591
2110,[2021-01-29 11:30:16.783] $GPGGA,23015.4,4327.721714,N,14148.3454496,E,4,9,1.3,107.933,M,31.83,M,3.0,0000*57,43.462028566666675,141.80575749333335,565181.850319856,4812439.646074399
2111,[2021-01-29 11:30:16.876] $GPGGA,23015.5,4327.7217144,N,14148.345449,E,4,9,1.3,107.9324,M,31.83,M,3.0,0000*51,43.46202857333333,141.80575748333337,565181.8495037416,4812439.646806958
2112,[2021-01-29 11:30:16.986] $GPGGA,23015.6,4327.7217142,N,14148.3454504,E,4,9,1.3,107.9312,M,31.83,M,3.0,0000*5D,43.462028569999994,141.80575750666668,565181.851394881,4812439.646455025
2113,[2021-01-29 11:30:17.080] $GPGGA,23015.7,4327.7217143,N,14148.3454503,E,4,9,1.3,107.9305,M,31.83,M,3.0,0000*5C,43.46202857166667,141.80575750499997,565181.8512582609,4812439.646638819
2114,[2021-01-29 11:30:17.189] $GPGGA,23015.8,4327.7217133,N,14148.3454491,E,4,9,1.3,107.9303,M,31.83,M,3.0,0000*58,43.462028555,141.80575748500002,565181.8496582623,4812439.644772202
2115,[2021-01-29 11:30:17.284] $GPGGA,23015.9,4327.7217132,N,14148.3454489,E,4,9,1.3,107.9302,M,31.83,M,3.0,0000*50,43.462028553333326,141.80575748166666,565181.8493904003,4812439.644584495
2116,[2021-01-29 11:30:17.394] $GPGGA,23016.0,4327.7217125,N,14148.345449200002,E,4,9,1.3,107.9305,M,31.83,M,4.0,0000*56,43.46202854166667,141.8057574866667,565181.849807415,4812439.6432927335
2117,[2021-01-29 11:30:17.472] $GPGGA,23016.1,4327.721713,N,14148.345449,E,4,9,1.3,107.9304,M,31.83,M,4.0,0000*50,43.46202854999999,141.80575748333337,565181.849528811,4812439.644215605
2118,[2021-01-29 11:30:17.581] $GPGGA,23016.2,4327.721713399999,N,14148.345450100001,E,4,9,1.3,107.9338,M,31.83,M,4.0,0000*51,43.46202855666665,141.80575750166668,565181.8510047286,4812439.644970339
2119,[2021-01-29 11:30:17.675] $GPGGA,23016.3,4327.721713,N,14148.3454509,E,4,9,1.3,107.933,M,31.83,M,4.0,0000*54,43.46202854999999,141.805757515,565181.8520904976,4812439.644240389
2120,[2021-01-29 11:30:17.784] $GPGGA,23016.4,4327.7217132,N,14148.345451,E,4,9,1.3,107.9331,M,31.83,M,4.0,0000*58,43.462028553333326,141.80575751666666,565181.8522217395,4812439.644611887
2121,[2021-01-29 11:30:17.878] $GPGGA,23016.5,4327.7217132,N,14148.3454502,E,4,9,1.3,107.9349,M,31.83,M,4.0,0000*55,43.462028553333326,141.80575750333333,565181.8511431352,4812439.644601451
2122,[2021-01-29 11:30:17.987] $GPGGA,23016.6,4327.7217132,N,14148.3454498,E,4,9,1.3,107.9349,M,31.83,M,4.0,0000*54,43.462028553333326,141.80575749666664,565181.85060383,4812439.644596234
2123,[2021-01-29 11:30:18.081] $GPGGA,23016.7,4327.721713,N,14148.3454496,E,4,9,1.3,107.9337,M,31.83,M,4.0,0000*50,43.46202854999999,141.80575749333335,565181.8503377629,4812439.644223433
2124,[2021-01-29 11:30:18.175] $GPGGA,23016.8,4327.721712,N,14148.34545,E,4,9,1.3,107.9345,M,31.83,M,4.0,0000*55,43.462028533333324,141.8057575,565181.8508949707,4812439.642377684
2125,[2021-01-29 11:30:18.270] $GPGGA,23016.9,4327.7217137,N,14148.3454497,E,4,9,1.3,107.9325,M,31.83,M,4.0,0000*5B,43.46202856166667,141.805757495,565181.8504600533,4812439.645520414
2126,[2021-01-29 11:30:18.380] $GPGGA,23017.0,4327.7217137,N,14148.345449899998,E,4,9,1.3,107.929,M,31.83,M,5.0,0000*53,43.46202856166667,141.8057574983333,565181.8507297018,4812439.645523022
2127,[2021-01-29 11:30:18.474] $GPGGA,23017.1,4327.7217138000005,N,14148.3454493,E,4,9,1.3,107.9311,M,31.83,M,5.0,0000*5F,43.46202856333334,141.80575748833334,565181.8499189594,4812439.645700293
2128,[2021-01-29 11:30:18.583] $GPGGA,23017.2,4327.7217138000005,N,14148.345448500002,E,4,9,1.3,107.932,M,31.83,M,5.0,0000*59,43.46202856333334,141.805757475,565181.8488403552,4812439.645689858
