,Format,Time,Latitude,LatType,Longitude,LonType,Status,Satellite,LevelAccuracy,Altitude(sea),M(sea),Altitude(geoid),M(geoid),DGPS use,checksum,Lat,Lon,UTM_X,UTM_Y
868,[2021-01-29 11:28:25.207] $GNGGA,22823.8,4327.72194631,N,14148.34523419,E,4,7.0,1.4,108.164,M,31.59,M,0.8,0208*54,43.4620324385,141.80575390316667,565181.55573192,4812440.073262445
869,[2021-01-29 11:28:25.287] $GNGGA,22823.9,4327.72194546,N,14148.34523592,E,4,7.0,1.4,108.162,M,31.59,M,0.9,0208*53,43.46203242433334,141.805753932,565181.5580796228,4812440.07171169
870,[2021-01-29 11:28:25.397] $GNGGA,22824.0,4327.72194484,N,14148.34523733,E,4,7.0,1.4,108.15899999999999,M,31.59,M,1.0,0208*5B,43.46203241400001,141.8057539555,565181.5599917691,4812440.070582481
871,[2021-01-29 11:28:25.490] $GNGGA,22824.1,4327.72194595,N,14148.34523478,E,4,7.0,1.4,108.17,M,31.59,M,1.1,0208*5D,43.4620324325,141.80575391299996,565181.5565338338,4812440.072603793
872,[2021-01-29 11:28:25.600] $GNGGA,22824.2,4327.72194558,N,14148.34523645,E,4,7.0,1.4,108.16,M,31.59,M,1.2,0208*51,43.46203242633332,141.80575394083334,565181.5587920529,4812440.071940716
873,[2021-01-29 11:28:25.694] $GNGGA,22824.3,4327.72194394,N,14148.34523627,E,4,7.0,1.4,108.169,M,31.59,M,1.3,0208*5A,43.462032399,141.80575393783334,565181.5585787336,4812440.068902787
874,[2021-01-29 11:28:25.803] $GNGGA,22824.4,4327.72194737,N,14148.34523591,E,4,7.0,1.4,108.165,M,31.59,M,1.4,0208*55,43.46203245616667,141.80575393183332,565181.5580319389,4812440.075246901
875,[2021-01-29 11:28:25.897] $GNGGA,22824.5,4327.72194504,N,14148.34523524,E,4,7.0,1.4,108.161,M,31.59,M,1.5,0208*5D,43.462032417333326,141.8057539206667,565181.557170333,4812440.070925414
876,[2021-01-29 11:28:26.006] $GNGGA,22824.6,4327.72194554,N,14148.34523839,E,4,7.0,1.4,108.161,M,31.59,M,1.6,0208*59,43.46203242566667,141.8057539731667,565181.5614083902,4812440.071891985
877,[2021-01-29 11:28:26.084] $GNGGA,22824.7,4327.72194918,N,14148.34523037,E,4,7.0,1.4,108.15799999999999,M,31.59,M,0.7,0208*50,43.46203248633333,141.8057538395,565181.5505301867,4812440.0785248885
878,[2021-01-29 11:28:26.194] $GNGGA,22824.8,4327.72194928,N,14148.34522848,E,4,7.0,1.4,108.164,M,31.59,M,0.8,0208*5D,43.46203248800001,141.805753808,565181.5479801897,4812440.078685334
879,[2021-01-29 11:28:26.289] $GNGGA,22824.9,4327.72194746,N,14148.34522933,E,4,7.0,1.4,108.16,M,31.59,M,0.9,0208*52,43.46203245766666,141.80575382216665,565181.5491587968,4812440.075327663
880,[2021-01-29 11:28:26.398] $GNGGA,22825.0,4327.72194512,N,14148.34523331,E,4,7.0,1.4,108.152,M,31.59,M,1.0,0208*59,43.46203241866666,141.8057538885,565181.5545667616,4812440.071048317
881,[2021-01-29 11:28:26.492] $GNGGA,22825.1,4327.72194785,N,14148.34522995,E,4,7.0,1.4,108.162,M,31.59,M,1.1,0208*53,43.46203246416667,141.80575383250002,565181.5499877352,4812440.076057628
882,[2021-01-29 11:28:26.601] $GNGGA,22825.2,4327.7219475,N,14148.34523076,E,4,7.0,1.4,108.154,M,31.59,M,1.2,0208*5B,43.46203245833334,141.80575384600002,565181.551086091,4812440.0754203545
883,[2021-01-29 11:28:26.695] $GNGGA,22825.3,4327.72194606,N,14148.34523031,E,4,7.0,1.4,108.15100000000001,M,31.59,M,1.3,0208*5F,43.46203243433334,141.80575383849998,565181.5505051587,4812440.072749094
884,[2021-01-29 11:28:26.804] $GNGGA,22825.4,4327.72194673,N,14148.34522973,E,4,7.0,1.4,108.15899999999999,M,31.59,M,1.4,0208*5B,43.4620324455,141.80575382883333,565181.5497111718,4812440.073981676
885,[2021-01-29 11:28:26.898] $GNGGA,22825.5,4327.7219455,N,14148.34523194,E,4,7.0,1.4,108.165,M,31.59,M,1.5,0208*56,43.462032425000004,141.8057538656667,565181.5527128496,4812440.071733815
886,[2021-01-29 11:28:26.992] $GNGGA,22825.6,4327.72194685,N,14148.34523148,E,4,7.0,1.4,108.156,M,31.59,M,1.6,0208*5C,43.4620324475,141.80575385799997,565181.5520684714,4812440.074226617
887,[2021-01-29 11:28:27.086] $GNGGA,22825.7,4327.72194622,N,14148.34522919,E,4,7.0,1.4,108.154,M,31.59,M,1.7,0208*5E,43.462032437000005,141.8057538198333,565181.5489922453,4812440.073030641
888,[2021-01-29 11:28:27.195] $GPGGA,22825.8,4327.72195044,N,14148.34523075,E,4,6.0,1.6,108.166,M,31.59,M,0.8,0208*46,43.46203250733333,141.80575384583332,565181.5510199611,4812440.080862061
889,[2021-01-29 11:28:27.291] $GPGGA,22825.9,4327.72194892,N,14148.34523084,E,4,6.0,1.6,108.169,M,31.59,M,0.9,0208*45,43.462032482,141.8057538473333,565181.5511685204,4812440.078049768
890,[2021-01-29 11:28:27.400] $GPGGA,22826.0,4327.72194846,N,14148.34522973,E,4,6.0,1.6,108.15700000000001,M,31.59,M,1.0,0208*43,43.46203247433334,141.80575382883333,565181.5496801932,4812440.077183846
891,[2021-01-29 11:28:27.494] $GPGGA,22826.1,4327.72194759,N,14148.34522954,E,4,6.0,1.6,108.167,M,31.59,M,1.1,0208*44,43.46203245983334,141.8057538256667,565181.5494396078,4812440.0755710285
892,[2021-01-29 11:28:27.603] $GPGGA,22826.2,4327.72194687,N,14148.34523348,E,4,6.0,1.6,108.15299999999999,M,31.59,M,1.2,0208*47,43.46203244783333,141.80575389133335,565181.5547646311,4812440.074289723
893,[2021-01-29 11:28:27.697] $GPGGA,22826.3,4327.72194849,N,14148.34523066,E,4,6.0,1.6,108.175,M,31.59,M,1.3,0208*40,43.46203247483332,141.8057538443333,565181.5509335339,4812440.077251503
894,[2021-01-29 11:28:27.791] $GPGGA,22826.4,4327.7219475,N,14148.34523139,E,4,6.0,1.6,108.15700000000001,M,31.59,M,1.4,0208*4C,43.46203245833334,141.8057538565,565181.551935491,4812440.075428572
895,[2021-01-29 11:28:27.884] $GPGGA,22826.5,4327.72194669,N,14148.34522996,E,4,6.0,1.6,108.16799999999999,M,31.59,M,1.5,0208*47,43.46203244483332,141.80575383266668,565181.5500219892,4812440.073910636
896,[2021-01-29 11:28:27.994] $GPGGA,22826.6,4327.72194573,N,14148.34523482,E,4,6.0,1.6,108.163,M,31.59,M,1.6,0208*4D,43.46203242883333,141.8057539136667,565181.55659171,4812440.072197102
897,[2021-01-29 11:28:28.088] $GNGGA,22826.7,4327.72194909,N,14148.34523227,E,4,7.0,1.4,108.166,M,31.59,M,0.7,0208*5C,43.46203248483332,141.80575387116667,565181.5530934867,4812440.078383083
898,[2021-01-29 11:28:28.197] $GNGGA,22826.8,4327.72194952,N,14148.34523163,E,4,7.0,1.4,108.176,M,31.59,M,0.8,0208*50,43.462032492,141.8057538605,565181.5522229025,4812440.079170652
899,[2021-01-29 11:28:28.292] $GNGGA,22826.9,4327.72194963,N,14148.34523342,E,4,7.0,1.4,108.17399999999999,M,31.59,M,0.9,0208*51,43.46203249383334,141.80575389033334,565181.5546343118,4812440.079397606
900,[2021-01-29 11:28:28.402] $GNGGA,22827.0,4327.72194924,N,14148.34523519,E,4,7.0,1.4,108.163,M,31.59,M,1.0,0208*5C,43.46203248733333,141.8057539198333,565181.5570277082,4812440.078698816
901,[2021-01-29 11:28:28.495] $GNGGA,22827.1,4327.72194887,N,14148.3452326,E,4,7.0,1.4,108.177,M,31.59,M,1.1,0208*58,43.46203248116667,141.8057538766667,565181.5535423524,4812440.077980176
902,[2021-01-29 11:28:28.605] $GNGGA,22827.2,4327.72194787,N,14148.34523178,E,4,7.0,1.4,108.16799999999999,M,31.59,M,1.2,0208*53,43.4620324645,141.80575386300004,565181.5524546886,4812440.076118515
903,[2021-01-29 11:28:28.698] $GNGGA,22827.3,4327.72195004,N,14148.34523336,E,4,7.0,1.4,108.164,M,31.59,M,1.3,0208*5A,43.46203250066666,141.80575388933332,565181.5545460733,4812440.080155718
904,[2021-01-29 11:28:28.792] $GNGGA,22827.4,4327.72194695,N,14148.34523488,E,4,7.0,1.4,108.17299999999999,M,31.59,M,1.4,0208*51,43.462032449166664,141.80575391466667,565181.5566507565,4812440.074456062
905,[2021-01-29 11:28:28.886] $GNGGA,22827.5,4327.72194884,N,14148.34523579,E,4,7.0,1.4,108.17399999999999,M,31.59,M,1.5,0208*57,43.46203248066666,141.80575392983334,565181.5578438265,4812440.077966254
906,[2021-01-29 11:28:28.995] $GNGGA,22827.6,4327.72195085,N,14148.34523105,E,4,7.0,1.4,108.17200000000001,M,31.59,M,1.6,0208*56,43.46203251416667,141.8057538508333,565181.5514170931,4812440.081624871
907,[2021-01-29 11:28:29.089] $GNGGA,22827.7,4327.72194899,N,14148.34523277,E,4,7.0,1.4,108.167,M,31.59,M,1.7,0208*50,43.46203248316667,141.8057538795,565181.5537694058,4812440.07820451
908,[2021-01-29 11:28:29.198] $GNGGA,22827.8,4327.72194876,N,14148.34523231,E,4,7.0,1.4,108.15899999999999,M,31.59,M,0.8,0208*5F,43.462032479333324,141.8057538718333,565181.5531533223,4812440.077772786
909,[2021-01-29 11:28:29.294] $GNGGA,22827.9,4327.72194923,N,14148.34523132,E,4,7.0,1.4,108.166,M,31.59,M,0.9,0208*52,43.46203248716667,141.8057538553333,565181.5518101314,4812440.078629828
910,[2021-01-29 11:28:29.403] $GNGGA,22828.0,4327.7219496,N,14148.3452329,E,4,7.0,1.4,108.155,M,31.59,M,1.0,0208*50,43.46203249333333,141.80575388166665,565181.5539337522,4812440.079335293
911,[2021-01-29 11:28:29.497] $GNGGA,22828.1,4327.72194919,N,14148.34523549,E,4,7.0,1.4,108.154,M,31.59,M,1.1,0208*5C,43.4620324865,141.80575392483334,565181.5574330833,4812440.078610179
912,[2021-01-29 11:28:29.591] $GNGGA,22828.2,4327.72194864,N,14148.34523101,E,4,7.0,1.4,108.161,M,31.59,M,1.2,0208*59,43.46203247733333,141.80575385016667,565181.5514027405,4812440.0775337145
913,[2021-01-29 11:28:29.700] $GNGGA,22828.3,4327.72194969,N,14148.34523349,E,4,7.0,1.4,108.167,M,31.59,M,1.3,0208*5D,43.46203249483332,141.8057538915,565181.5547276143,4812440.079509576
914,[2021-01-29 11:28:29.794] $GNGGA,22828.4,4327.72194638,N,14148.345233,E,4,7.0,1.4,108.16,M,31.59,M,1.4,0208*5C,43.46203243966667,141.80575388333335,565181.5541262412,4812440.073376492
915,[2021-01-29 11:28:29.887] $GNGGA,22828.5,4327.72195166,N,14148.3452349,E,4,7.0,1.4,108.15700000000001,M,31.59,M,1.5,0208*5B,43.462032527666665,141.805753915,565181.5565933802,4812440.083174369
916,[2021-01-29 11:28:29.997] $GNGGA,22828.6,4327.72194884,N,14148.34523388,E,4,7.0,1.4,108.161,M,31.59,M,1.6,0208*54,43.46203248066666,141.80575389799998,565181.5552686539,4812440.077941341
917,[2021-01-29 11:28:30.091] $GNGGA,22828.7,4327.72194908,N,14148.34523437,E,4,7.0,1.4,108.161,M,31.59,M,1.7,0208*52,43.462032484666665,141.80575390616664,565181.5559250027,4812440.0783919655
918,[2021-01-29 11:28:30.200] $GNGGA,22828.8,4327.72195039,N,14148.34523371,E,4,7.0,1.4,108.167,M,31.59,M,0.8,0208*5A,43.4620325065,141.80575389516667,565181.5550116964,4812440.080808122
919,[2021-01-29 11:28:30.294] $GNGGA,22828.9,4327.72194823,N,14148.34523032,E,4,7.0,1.4,108.167,M,31.59,M,0.9,0208*5C,43.4620324705,141.80575383866665,565181.5504797833,4812440.076765819
920,[2021-01-29 11:28:30.403] $GNGGA,22829.0,4327.72194889,N,14148.34523125,E,4,7.0,1.4,108.169,M,31.59,M,1.0,0208*55,43.4620324815,141.80575385416665,565181.5517218428,4812440.077999586
921,[2021-01-29 11:28:30.497] $GNGGA,22829.1,4327.7219492,N,14148.34523349,E,4,7.0,1.4,108.178,M,31.59,M,1.1,0208*5F,43.462032486666665,141.8057538915,565181.5547363886,4812440.078602604
922,[2021-01-29 11:28:30.591] $GNGGA,22829.2,4327.72194808,N,14148.34523133,E,4,7.0,1.4,108.179,M,31.59,M,1.2,0208*5A,43.46203246800001,141.8057538555,565181.5518442104,4812440.076501349
923,[2021-01-29 11:28:30.685] $GNGGA,22829.3,4327.72194914,N,14148.34523163,E,4,7.0,1.4,108.162,M,31.59,M,1.3,0208*59,43.462032485666676,141.8057538605,565181.5522297071,4812440.078467284
924,[2021-01-29 11:28:30.794] $GNGGA,22829.4,4327.72194955,N,14148.34523354,E,4,7.0,1.4,108.176,M,31.59,M,1.4,0208*5F,43.46203249250001,141.8057538923333,565181.5547975339,4812440.079251094
925,[2021-01-29 11:28:30.888] $GNGGA,22829.5,4327.72194922,N,14148.34523188,E,4,7.0,1.4,108.169,M,31.59,M,1.5,0208*52,43.46203248700001,141.80575386466668,565181.5525653398,4812440.078618624
926,[2021-01-29 11:28:30.997] $GNGGA,22829.6,4327.72194904,N,14148.34523177,E,4,7.0,1.4,108.166,M,31.59,M,1.6,0208*59,43.462032484,141.80575386283334,565181.5524202536,4812440.078284013
927,[2021-01-29 11:28:31.091] $GNGGA,22829.7,4327.7219475,N,14148.34523337,E,4,7.0,1.4,108.178,M,31.59,M,1.7,0208*5F,43.46203245833334,141.8057538895,565181.5546050405,4812440.075454398
928,[2021-01-29 11:28:31.200] $GNGGA,22829.8,4327.72194794,N,14148.34523084,E,4,7.0,1.4,108.175,M,31.59,M,1.8,0208*51,43.462032465666674,141.8057538473333,565181.5511860689,4812440.076235822
929,[2021-01-29 11:28:31.295] $GNGGA,22829.9,4327.72195151,N,14148.34523251,E,4,7.0,1.4,108.17200000000001,M,31.59,M,1.9,0208*52,43.462032525166656,141.8057538751667,565181.5533737335,4812440.082865548
930,[2021-01-29 11:28:31.405] $GNGGA,22830.0,4327.72194886,N,14148.34523173,E,4,7.0,1.4,108.17299999999999,M,31.59,M,2.0,0208*59,43.46203248100001,141.80575386216665,565181.5523695442,4812440.077950319
931,[2021-01-29 11:28:31.499] $GNGGA,22830.1,4327.72195082,N,14148.34523319,E,4,7.0,1.4,108.17299999999999,M,31.59,M,2.1,0208*5A,43.462032513666664,141.80575388649999,565181.5543029018,4812440.081597253
932,[2021-01-29 11:28:31.592] $GNGGA,22830.2,4327.72195043,N,14148.34523115,E,4,7.0,1.4,108.17200000000001,M,31.59,M,2.2,0208*58,43.46203250716667,141.8057538525,565181.5515594434,4812440.080848769
933,[2021-01-29 11:28:31.686] $GNGGA,22830.3,4327.72194803,N,14148.34523052,E,4,7.0,1.4,108.17399999999999,M,31.59,M,2.3,0208*51,43.462032467166665,141.80575384200003,565181.5507530193,4812440.076398235
934,[2021-01-29 11:28:31.795] $GNGGA,22830.4,4327.72195219,N,14148.34523059,E,4,7.0,1.4,108.178,M,31.59,M,2.4,0208*56,43.46203253649999,141.80575384316666,565181.5507729023,4812440.084099161
935,[2021-01-29 11:28:31.889] $GNGGA,22830.5,4327.72194799,N,14148.34523129,E,4,7.0,1.4,108.177,M,31.59,M,2.5,0208*53,43.462032466500006,141.80575385483334,565181.5517918915,4812440.076334241
936,[2021-01-29 11:28:31.999] $GNGGA,22830.6,4327.72195194,N,14148.34523359,E,4,7.0,1.4,108.17200000000001,M,31.59,M,2.6,0208*59,43.46203253233333,141.8057538931667,565181.5548221536,4812440.083675552
937,[2021-01-29 11:28:32.092] $GNGGA,22830.7,4327.7219486,N,14148.3452296,E,4,7.0,1.4,108.17399999999999,M,31.59,M,2.7,0208*5D,43.46203247666668,141.80575382666666,565181.5495024126,4812440.077441287
938,[2021-01-29 11:28:32.202] $GNGGA,22830.8,4327.72194947,N,14148.34523303,E,4,7.0,1.4,108.162,M,31.59,M,2.8,0208*50,43.462032491166674,141.80575388383332,565181.5541113559,4812440.079096365
939,[2021-01-29 11:28:32.297] $GNGGA,22830.9,4327.72195313,N,14148.34523016,E,4,7.0,1.4,108.184,M,31.59,M,2.9,0208*55,43.46203255216666,141.80575383599998,565181.5501763185,4812440.085833462
940,[2021-01-29 11:28:32.391] $GPGGA,22831.0,4327.72195101,N,14148.3452319,E,4,6.0,1.6,108.17299999999999,M,31.59,M,2.0,0208*4F,43.46203251683334,141.805753865,565181.5525602511,4812440.081932112
941,[2021-01-29 11:28:32.485] $GPGGA,22831.1,4327.72194726,N,14148.34523342,E,4,6.0,1.6,108.161,M,31.59,M,2.1,0208*43,43.46203245433334,141.80575389033334,565181.5546767507,4812440.075010818
942,[2021-01-29 11:28:32.594] $GPGGA,22831.2,4327.7219498,N,14148.3452319,E,4,6.0,1.6,108.182,M,31.59,M,2.2,0208*41,43.462032496666666,141.805753865,565181.5525819182,4812440.079692443
943,[2021-01-29 11:28:32.688] $GPGGA,22831.3,4327.72194623,N,14148.34523321,E,4,6.0,1.6,108.176,M,31.59,M,2.3,0208*44,43.46203243716666,141.80575388683334,565181.5544120619,4812440.073101584
944,[2021-01-29 11:28:32.797] $GPGGA,22831.4,4327.72194986,N,14148.34523279,E,4,6.0,1.6,108.16799999999999,M,31.59,M,2.4,0208*47,43.46203249766666,141.8057538798333,565181.5537807891,4812440.079815109
945,[2021-01-29 11:28:32.891] $GPGGA,22831.5,4327.72195024,N,14148.34523217,E,4,6.0,1.6,108.17200000000001,M,31.59,M,2.5,0208*44,43.462032504,141.80575386950002,565181.5529380688,4812440.08051039
946,[2021-01-29 11:28:33.001] $GPGGA,22831.6,4327.7219483,N,14148.34523133,E,4,6.0,1.6,108.17,M,31.59,M,2.6,0208*4F,43.46203247166666,141.8057538555,565181.5518402709,4812440.07690856
947,[2021-01-29 11:28:33.094] $GPGGA,22831.7,4327.72195103,N,14148.34523278,E,4,6.0,1.6,108.179,M,31.59,M,2.7,0208*42,43.46203251716667,141.80575387966667,565181.5537463583,4812440.081980609
948,[2021-01-29 11:28:33.204] $GPGGA,22831.8,4327.72194816,N,14148.34523343,E,4,6.0,1.6,108.18,M,31.59,M,2.8,0208*41,43.46203246933332,141.80575389050003,565181.5546741189,4812440.076676816
949,[2021-01-29 11:28:33.283] $GNGGA,22831.9,4327.72195047,N,14148.34523152,E,4,7.0,1.4,108.176,M,31.59,M,1.9,0208*59,43.462032507833335,141.80575385866666,565181.5520575818,4812440.080927634
950,[2021-01-29 11:28:33.393] $GNGGA,22832.0,4327.72195046,N,14148.34523369,E,4,7.0,1.4,108.171,M,31.59,M,2.0,0208*55,43.46203250766666,141.80575389483334,565181.5549834787,4812440.080937428
951,[2021-01-29 11:28:33.487] $GNGGA,22832.1,4327.72194792,N,14148.34523576,E,4,7.0,1.4,108.195,M,31.59,M,2.1,0208*58,43.46203246533333,141.80575392933332,565181.5578198523,4812440.076262975
952,[2021-01-29 11:28:33.596] $GNGGA,22832.2,4327.72194864,N,14148.34523336,E,4,7.0,1.4,108.176,M,31.59,M,2.2,0208*51,43.46203247733333,141.80575388933332,565181.5545711427,4812440.077564366
953,[2021-01-29 11:28:33.690] $GNGGA,22832.3,4327.72194948,N,14148.34523222,E,4,7.0,1.4,108.169,M,31.59,M,2.3,0208*54,43.46203249133333,141.8057538703333,565181.5530190864,4812440.079104308
954,[2021-01-29 11:28:33.799] $GNGGA,22832.4,4327.72194921,N,14148.34523341,E,4,7.0,1.4,108.175,M,31.59,M,2.4,0208*52,43.46203248683334,141.80575389016667,565181.5546283505,4812440.07862007
955,[2021-01-29 11:28:33.893] $GNGGA,22832.5,4327.7219488,N,14148.34523158,E,4,7.0,1.4,108.17299999999999,M,31.59,M,2.5,0208*54,43.46203248,141.80575385966668,565181.5521683828,4812440.077837304
956,[2021-01-29 11:28:34.002] $GNGGA,22832.6,4327.72195088,N,14148.34523178,E,4,7.0,1.4,108.18299999999999,M,31.59,M,2.6,0208*58,43.46203251466667,141.80575386300004,565181.5524007895,4812440.08168992
957,[2021-01-29 11:28:34.096] $GNGGA,22832.7,4327.7219487,N,14148.34522998,E,4,7.0,1.4,108.18,M,31.59,M,2.7,0208*52,43.46203247833334,141.80575383299995,565181.5500129567,4812440.077631339
958,[2021-01-29 11:28:34.190] $GNGGA,22832.8,4327.72194737,N,14148.34523467,E,4,7.0,1.4,108.17200000000001,M,31.59,M,2.8,0208*5F,43.46203245616667,141.80575391116668,565181.556360103,4812440.075230728
959,[2021-01-29 11:28:34.286] $GNGGA,22832.9,4327.72195019,N,14148.34523386,E,4,7.0,1.4,108.17,M,31.59,M,2.9,0208*5F,43.46203250316667,141.80575389766665,565181.5552175157,4812440.080439885
960,[2021-01-29 11:28:34.395] $GNGGA,22833.0,4327.72194984,N,14148.34523279,E,4,7.0,1.4,108.181,M,31.59,M,3.0,0208*5C,43.46203249733333,141.8057538798333,565181.5537811472,4812440.07977809
961,[2021-01-29 11:28:34.489] $GNGGA,22833.1,4327.72194801,N,14148.3452323,E,4,7.0,1.4,108.171,M,31.59,M,3.1,0208*52,43.462032466833335,141.80575387166667,565181.5531532723,4812440.076384433
962,[2021-01-29 11:28:34.599] $GPGGA,22833.2,4327.72194597,N,14148.34523468,E,4,6.0,1.6,108.17399999999999,M,31.59,M,2.2,0208*42,43.46203243283333,141.8057539113333,565181.5563986525,4812440.072639508
963,[2021-01-29 11:28:34.692] $GPGGA,22833.3,4327.72194694,N,14148.34523577,E,4,6.0,1.6,108.17,M,31.59,M,2.3,0208*49,43.46203244899999,141.8057539295,565181.5578508851,4812440.07444916
964,[2021-01-29 11:28:34.802] $GPGGA,22833.4,4327.72194743,N,14148.34523291,E,4,6.0,1.6,108.171,M,31.59,M,2.4,0208*4C,43.462032457166664,141.80575388183334,565181.553986096,4812440.07531883
965,[2021-01-29 11:28:34.895] $GPGGA,22833.5,4327.72194522,N,14148.34523335,E,4,6.0,1.6,108.17399999999999,M,31.59,M,2.5,0208*43,43.46203242033334,141.80575388916665,565181.5546189015,4812440.071233936
966,[2021-01-29 11:28:35.005] $GPGGA,22833.6,4327.72194715,N,14148.34523654,E,4,6.0,1.6,108.15700000000001,M,31.59,M,2.6,0208*46,43.462032452500004,141.80575394233335,565181.5588852825,4812440.074847908
967,[2021-01-29 11:28:35.083] $GPGGA,22833.7,4327.72194725,N,14148.34523435,E,4,6.0,1.6,108.17399999999999,M,31.59,M,2.7,0208*41,43.46203245416667,141.80575390583334,565181.5559308097,4812440.075004438
968,[2021-01-29 11:28:35.192] $GPGGA,22833.8,4327.72194742,N,14148.34523503,E,4,6.0,1.6,108.17299999999999,M,31.59,M,2.8,0208*43,43.46203245700001,141.80575391716664,565181.5568445763,4812440.075327973
969,[2021-01-29 11:28:35.287] $GPGGA,22833.9,4327.72194724,N,14148.34523306,E,4,6.0,1.6,108.171,M,31.59,M,2.9,0208*42,43.462032453999996,141.8057538843333,565181.5541917342,4812440.074969103
970,[2021-01-29 11:28:35.397] $GPGGA,22834.0,4327.7219479,N,14148.34523608,E,4,6.0,1.6,108.165,M,31.59,M,3.0,0208*45,43.46203246499999,141.80575393466668,565181.5582516546,4812440.076230129
971,[2021-01-29 11:28:35.490] $GPGGA,22834.1,4327.72194494,N,14148.34523524,E,4,6.0,1.6,108.171,M,31.59,M,3.1,0208*4A,43.46203241566667,141.8057539206667,565181.5571721236,4812440.070740318
972,[2021-01-29 11:28:35.600] $GPGGA,22834.2,4327.72194791,N,14148.34523475,E,4,6.0,1.6,108.166,M,31.59,M,3.2,0208*4F,43.46203246516667,141.80575391250002,565181.5564582944,4812440.076231293
973,[2021-01-29 11:28:35.693] $GPGGA,22834.3,4327.72194478,N,14148.3452371,E,4,6.0,1.6,108.178,M,31.59,M,3.3,0208*44,43.462032413,141.80575395166667,565181.5596827446,4812440.070468424
974,[2021-01-29 11:28:35.803] $GPGGA,22834.4,4327.72195497,N,14148.34523319,E,4,6.0,1.6,108.17200000000001,M,31.59,M,2.4,0208*42,43.46203258283333,141.80575388649999,565181.554228589,4812440.089278759
975,[2021-01-29 11:28:35.896] $GPGGA,22834.5,4327.72195367,N,14148.34523348,E,4,6.0,1.6,108.181,M,31.59,M,2.5,0208*42,43.46203256116667,141.80575389133335,565181.5546428656,4812440.086876287
976,[2021-01-29 11:28:35.990] $GPGGA,22834.6,4327.7219522,N,14148.34523517,E,4,6.0,1.6,108.166,M,31.59,M,2.6,0208*45,43.46203253666666,141.8057539195,565181.55694774,4812440.08417741
977,[2021-01-29 11:28:36.084] $GPGGA,22834.7,4327.72195515,N,14148.34523423,E,4,6.0,1.6,108.181,M,31.59,M,2.7,0208*4B,43.46203258583334,141.80575390383336,565181.5556275572,4812440.0896255
978,[2021-01-29 11:28:36.193] $GPGGA,22834.8,4327.72194531,N,14148.34523367,E,4,6.0,1.6,108.177,M,31.59,M,1.8,0208*41,43.46203242183333,141.8057538945,565181.555048732,4812440.071404696
979,[2021-01-29 11:28:36.289] $GPGGA,22834.9,4327.72194468,N,14148.34523956,E,4,6.0,1.6,108.178,M,31.59,M,1.9,0208*4B,43.462032411333325,141.8057539926667,565181.5630012489,4812440.070315413
980,[2021-01-29 11:28:36.398] $GPGGA,22835.0,4327.72194595,N,14148.34523848,E,4,6.0,1.6,108.178,M,31.59,M,2.0,0208*44,43.4620324325,141.80575397466666,565181.5615223874,4812440.072652054
981,[2021-01-29 11:28:36.492] $GPGGA,22835.1,4327.72194677,N,14148.34523871,E,4,6.0,1.6,108.149,M,31.59,M,1.1,0208*40,43.46203244616667,141.80575397850004,565181.561817807,4812440.074172843
982,[2021-01-29 11:28:36.601] $GPGGA,22835.2,4327.72194796,N,14148.34523531,E,4,6.0,1.6,108.15,M,31.59,M,1.2,0208*4F,43.462032466,141.80575392183334,565181.5572124223,4812440.076331145
983,[2021-01-29 11:28:36.695] $GPGGA,22835.3,4327.72194986,N,14148.34523774,E,4,6.0,1.6,108.147,M,31.59,M,1.3,0208*45,43.46203249766666,141.80575396233334,565181.5604546628,4812440.079879675
984,[2021-01-29 11:28:36.804] $GPGGA,22835.4,4327.72194888,N,14148.34523891,E,4,6.0,1.6,108.146,M,31.59,M,1.4,0208*4F,43.46203248133333,141.80575398183333,565181.5620496724,4812440.0780809885
985,[2021-01-29 11:28:36.898] $GPGGA,22835.5,4327.72194781,N,14148.34523832,E,4,6.0,1.6,108.148,M,31.59,M,1.5,0208*4E,43.46203246349999,141.805753972,565181.5612733589,4812440.07609276
986,[2021-01-29 11:28:36.992] $GPGGA,22835.6,4327.7219508,N,14148.34523518,E,4,6.0,1.6,108.147,M,31.59,M,1.6,0208*43,43.462032513333334,141.80575391966667,565181.5569862936,4812440.08158619
987,[2021-01-29 11:28:37.085] $GPGGA,22835.7,4327.72195063,N,14148.34523817,E,4,6.0,1.6,108.145,M,31.59,M,1.7,0208*4E,43.4620325105,141.80575396950002,565181.5610206261,4812440.081310527
988,[2021-01-29 11:28:37.195] $GPGGA,22835.8,4327.72194617,N,14148.34523965,E,4,6.0,1.6,108.149,M,31.59,M,1.8,0208*42,43.462032436166666,141.80575399416665,565181.5630959069,4812440.073074525
989,[2021-01-29 11:28:37.290] $GPGGA,22835.9,4327.72195114,N,14148.345237,E,4,6.0,1.6,108.16,M,31.59,M,0.9,0208*40,43.462032519,141.80575395000002,565181.5594340347,4812440.082239258
990,[2021-01-29 11:28:37.399] $GPGGA,22836.0,4327.72194997,N,14148.34523825,E,4,6.0,1.6,108.16,M,31.59,M,1.0,0208*48,43.462032499500005,141.8057539708333,565181.5611403015,4812440.080089932
991,[2021-01-29 11:28:37.493] $GPGGA,22836.1,4327.72194886,N,14148.34523964,E,4,6.0,1.6,108.166,M,31.59,M,1.1,0208*4B,43.46203248100001,141.80575399399999,565181.5630342558,4812440.078053492
992,[2021-01-29 11:28:37.602] $GPGGA,22836.2,4327.72194947,N,14148.34524283,E,4,6.0,1.6,108.155,M,31.59,M,1.2,0208*42,43.462032491166674,141.8057540471667,565181.5673242757,4812440.079224189
993,[2021-01-29 11:28:37.696] $GPGGA,22836.3,4327.7219536,N,14148.34523822,E,4,6.0,1.6,108.14299999999999,M,31.59,M,1.3,0208*4D,43.462032560000004,141.80575397033334,565181.5610348559,4812440.086808545
994,[2021-01-29 11:28:37.790] $GPGGA,22836.4,4327.72195066,N,14148.34523885,E,4,6.0,1.6,108.17,M,31.59,M,1.4,0208*45,43.46203251100001,141.80575398083334,565181.5619369036,4812440.0813749265
995,[2021-01-29 11:28:37.899] $GPGGA,22836.5,4327.72195001,N,14148.34524111,E,4,6.0,1.6,108.15,M,31.59,M,1.5,0208*45,43.46203250016667,141.80575401850004,565181.5649956061,4812440.080201276
996,[2021-01-29 11:28:37.993] $GPGGA,22836.6,4327.72195053,N,14148.34523928,E,4,6.0,1.6,108.154,M,31.59,M,1.6,0208*43,43.462032508833325,141.80575398800002,565181.562518983,4812440.081139907
997,[2021-01-29 11:28:38.087] $GPGGA,22836.7,4327.72195077,N,14148.34523201,E,4,6.0,1.6,108.163,M,31.59,M,0.7,0208*40,43.46203251283334,141.80575386683336,565181.5527128582,4812440.081489314
998,[2021-01-29 11:28:38.196] $GPGGA,22836.8,4327.72194788,N,14148.34523436,E,4,6.0,1.6,108.17299999999999,M,31.59,M,0.8,0208*45,43.46203246466666,141.80575390599998,565181.5559330086,4812440.076170676
999,[2021-01-29 11:28:38.291] $GPGGA,22836.9,4327.72194911,N,14148.34523123,E,4,6.0,1.6,108.16,M,31.59,M,0.9,0208*48,43.462032485166674,141.80575385383332,565181.5516909391,4812440.078406539
1000,[2021-01-29 11:28:38.401] $GPGGA,22837.0,4327.72195136,N,14148.34523007,E,4,6.0,1.6,108.156,M,31.59,M,1.0,0208*46,43.46203252266667,141.80575383449997,565181.5500866701,4812440.082556079
1001,[2021-01-29 11:28:38.495] $GPGGA,22837.1,4327.7219501,N,14148.34523197,E,4,6.0,1.6,108.164,M,31.59,M,1.1,0208*4A,43.46203250166666,141.80575386616667,565181.5526709231,4812440.0802486455
1002,[2021-01-29 11:28:38.588] $GPGGA,22837.2,4327.72194903,N,14148.34523041,E,4,6.0,1.6,108.165,M,31.59,M,1.2,0208*4B,43.46203248383334,141.80575384016663,565181.550586799,4812440.078247766
1003,[2021-01-29 11:28:38.698] $GPGGA,22837.3,4327.72194995,N,14148.34523487,E,4,6.0,1.6,108.15899999999999,M,31.59,M,1.3,0208*45,43.46203249916667,141.80575391449997,565181.5565835523,4812440.080008826
1004,[2021-01-29 11:28:38.792] $GPGGA,22837.4,4327.72195179,N,14148.3452331,E,4,6.0,1.6,108.155,M,31.59,M,1.4,0208*4B,43.46203252983334,141.805753885,565181.5541641912,4812440.0833915165
1005,[2021-01-29 11:28:38.885] $GPGGA,22837.5,4327.72195036,N,14148.34523239,E,4,6.0,1.6,108.163,M,31.59,M,1.5,0208*4E,43.462032506,141.80575387316665,565181.5532325327,4812440.080735375
1006,[2021-01-29 11:28:38.995] $GPGGA,22837.6,4327.72195119,N,14148.34523268,E,4,6.0,1.6,108.15899999999999,M,31.59,M,1.6,0208*4F,43.462032519833336,141.80575387800002,565181.5536086678,4812440.082275459
1007,[2021-01-29 11:28:39.088] $GPGGA,22837.7,4327.72194657,N,14148.34523313,E,4,6.0,1.6,108.167,M,31.59,M,0.7,0208*42,43.46203244283333,141.80575388549997,565181.5542981084,4812440.073729868
1008,[2021-01-29 11:28:39.198] $GPGGA,22837.8,4327.72194821,N,14148.34523255,E,4,6.0,1.6,108.177,M,31.59,M,0.8,0208*4F,43.46203247016667,141.80575387583332,565181.5534867541,4812440.076757886
1009,[2021-01-29 11:28:39.293] $GPGGA,22837.9,4327.72194752,N,14148.34523489,E,4,6.0,1.6,108.17,M,31.59,M,0.9,0208*44,43.46203245866666,141.8057539148333,565181.5566540298,4812440.075511241
1010,[2021-01-29 11:28:39.403] $GPGGA,22838.0,4327.72194805,N,14148.3452351,E,4,6.0,1.6,108.169,M,31.59,M,1.0,0208*4E,43.4620324675,141.8057539183333,565181.5569276719,4812440.076494993
1011,[2021-01-29 11:28:39.496] $GPGGA,22838.1,4327.72194845,N,14148.34523526,E,4,6.0,1.6,108.165,M,31.59,M,1.1,0208*43,43.46203247416667,141.80575392100002,565181.5571362354,4812440.077237466
1012,[2021-01-29 11:28:39.606] $GPGGA,22838.2,4327.72195143,N,14148.34523586,E,4,6.0,1.6,108.163,M,31.59,M,1.2,0208*41,43.462032523833344,141.805753931,565181.557891825,4812440.082761169
1013,[2021-01-29 11:28:39.699] $GPGGA,22838.3,4327.72194985,N,14148.34523312,E,4,6.0,1.6,108.171,M,31.59,M,1.3,0208*4A,43.46203249749999,141.80575388533333,565181.5542258945,4812440.079800904
1014,[2021-01-29 11:28:39.793] $GPGGA,22838.4,4327.72194802,N,14148.34523649,E,4,6.0,1.6,108.17,M,31.59,M,1.4,0208*4E,43.46203246700001,141.80575394150003,565181.558802291,4812440.076457595
1015,[2021-01-29 11:28:39.887] $GPGGA,22838.5,4327.72194883,N,14148.34523569,E,4,6.0,1.6,108.166,M,31.59,M,1.5,0208*41,43.4620324805,141.80575392816664,565181.5577091782,4812440.077946442
1016,[2021-01-29 11:28:39.996] $GPGGA,22838.6,4327.72194863,N,14148.34523516,E,4,6.0,1.6,108.15100000000001,M,31.59,M,1.6,0208*43,43.462032477166666,141.80575391933337,565181.5569981869,4812440.077569335
1017,[2021-01-29 11:28:40.090] $GNGGA,22838.7,4327.72194664,N,14148.34523518,E,4,7.0,1.4,108.182,M,31.59,M,0.7,0208*56,43.462032443999995,141.80575391966667,565181.5570607855,4812440.073886175
1018,[2021-01-29 11:28:40.199] $GNGGA,22838.8,4327.72194866,N,14148.34523284,E,4,7.0,1.4,108.177,M,31.59,M,0.8,0208*52,43.46203247766666,141.80575388066669,565181.5538696939,4812440.077594603
1019,[2021-01-29 11:28:40.296] $GNGGA,22838.9,4327.72194889,N,14148.34523612,E,4,7.0,1.4,108.179,M,31.59,M,0.9,0208*56,43.4620324815,141.8057539353333,565181.5582878534,4812440.078063108
1020,[2021-01-29 11:28:40.405] $GNGGA,22839.0,4327.72194793,N,14148.34523487,E,4,7.0,1.4,108.178,M,31.59,M,1.0,0208*5D,43.4620324655,141.80575391449997,565181.5566197238,4812440.076269878
1021,[2021-01-29 11:28:40.499] $GNGGA,22839.1,4327.72194956,N,14148.3452354,E,4,7.0,1.4,108.165,M,31.59,M,1.1,0208*5C,43.462032492666665,141.80575392333336,565181.5573051147,4812440.079293864
1022,[2021-01-29 11:28:40.592] $GNGGA,22839.2,4327.72194705,N,14148.34523518,E,4,7.0,1.4,108.179,M,31.59,M,1.2,0208*54,43.462032450833334,141.80575391966667,565181.5570534437,4812440.074645071
1023,[2021-01-29 11:28:40.686] $GNGGA,22839.3,4327.72194794,N,14148.34523404,E,4,7.0,1.4,108.18,M,31.59,M,1.3,0208*56,43.462032465666674,141.80575390066664,565181.5555004921,4812440.076277561
1024,[2021-01-29 11:28:40.795] $GNGGA,22839.4,4327.7219487,N,14148.345239,E,4,7.0,1.4,108.17,M,31.59,M,1.4,0208*55,43.46203247833334,141.80575398333332,565181.5621742366,4812440.077748991
1025,[2021-01-29 11:28:40.889] $GNGGA,22839.5,4327.72194935,N,14148.34523441,E,4,7.0,1.4,108.17,M,31.59,M,1.5,0208*5D,43.46203248916667,141.80575390683336,565181.5559741025,4812440.078892249
1026,[2021-01-29 11:28:40.999] $GNGGA,22839.6,4327.72195002,N,14148.34523336,E,4,7.0,1.4,108.17399999999999,M,31.59,M,1.6,0208*52,43.46203250033333,141.80575388933332,565181.5545464314,4812440.080118698
1027,[2021-01-29 11:28:41.092] $GNGGA,22839.7,4327.72194914,N,14148.34523551,E,4,7.0,1.4,108.17399999999999,M,31.59,M,1.7,0208*5A,43.462032485666676,141.80575392516664,565181.5574609409,4812440.078517893
1028,[2021-01-29 11:28:41.202] $GPGGA,22839.8,4327.721948,N,14148.34523474,E,4,6.0,1.6,108.163,M,31.59,M,0.8,0208*42,43.46203246666668,141.80575391233333,565181.5564431987,4812440.0763977505
1029,[2021-01-29 11:28:41.297] $GPGGA,22839.9,4327.7219487,N,14148.34523422,E,4,6.0,1.6,108.17200000000001,M,31.59,M,0.9,0208*46,43.46203247833334,141.80575390366667,565181.5557295693,4812440.077686643
1030,[2021-01-29 11:28:41.406] $GPGGA,22840.0,4327.721947,N,14148.34523265,E,4,6.0,1.6,108.166,M,31.59,M,1.0,0208*41,43.462032449999995,141.80575387749997,565181.5536432444,4812440.0745195225
1031,[2021-01-29 11:28:41.484] $GPGGA,22840.1,4327.72194756,N,14148.34522775,E,4,6.0,1.6,108.178,M,31.59,M,1.1,0208*48,43.462032459333344,141.8057537958333,565181.5470267598,4812440.075492152
1032,[2021-01-29 11:28:41.593] $GPGGA,22840.2,4327.72194868,N,14148.34522911,E,4,6.0,1.6,108.17200000000001,M,31.59,M,1.2,0208*4C,43.46203247800001,141.80575381850002,565181.5488403379,4812440.077582972
1033,[2021-01-29 11:28:41.687] $GPGGA,22840.3,4327.72194879,N,14148.34522966,E,4,6.0,1.6,108.184,M,31.59,M,1.3,0208*45,43.46203247983333,141.80575382766668,565181.5495799072,4812440.077793751
1034,[2021-01-29 11:28:41.797] $GPGGA,22840.4,4327.72194693,N,14148.34523023,E,4,6.0,1.6,108.167,M,31.59,M,1.4,0208*4B,43.462032448833334,141.80575383716663,565181.5503817168,4812440.07435839
1035,[2021-01-29 11:28:41.890] $GPGGA,22840.5,4327.72194819,N,14148.34523122,E,4,6.0,1.6,108.177,M,31.59,M,1.5,0208*46,43.46203246983334,141.80575385366666,565181.5516939312,4812440.07670352
1036,[2021-01-29 11:28:42.000] $GPGGA,22840.6,4327.72194759,N,14148.34522937,E,4,6.0,1.6,108.176,M,31.59,M,1.6,0208*41,43.46203245983334,141.80575382283334,565181.5492104015,4812440.07556881
1037,[2021-01-29 11:28:42.093] $GPGGA,22840.7,4327.72194726,N,14148.34523452,E,4,6.0,1.6,108.166,M,31.59,M,0.7,0208*46,43.46203245433334,141.80575390866665,565181.5561598308,4812440.075025166
1038,[2021-01-29 11:28:42.203] $GPGGA,22840.8,4327.72194968,N,14148.34523079,E,4,6.0,1.6,108.163,M,31.59,M,0.8,0208*4A,43.462032494666666,141.80575384649998,565181.5510874987,4812440.079455849
1039,[2021-01-29 11:28:42.297] $GPGGA,22840.9,4327.72194805,N,14148.34523198,E,4,6.0,1.6,108.161,M,31.59,M,0.9,0208*4C,43.4620324675,141.80575386633333,565181.5527211139,4812440.076454298
1040,[2021-01-29 11:28:42.406] $GPGGA,22841.0,4327.72194673,N,14148.34523157,E,4,6.0,1.6,108.16799999999999,M,31.59,M,1.0,0208*49,43.4620324455,141.8057538595,565181.5521919634,4812440.0740056755
1041,[2021-01-29 11:28:42.484] $GPGGA,22841.1,4327.72194604,N,14148.34523182,E,4,6.0,1.6,108.17,M,31.59,M,1.1,0208*48,43.46203243400001,141.80575386366667,565181.5525413863,4812440.072731771
1042,[2021-01-29 11:28:42.594] $GPGGA,22841.2,4327.72194727,N,14148.3452319,E,4,6.0,1.6,108.15899999999999,M,31.59,M,1.2,0208*40,43.4620324545,141.805753865,565181.5526272221,4812440.075009501
1043,[2021-01-29 11:28:42.687] $GPGGA,22841.3,4327.72194674,N,14148.34523207,E,4,6.0,1.6,108.15899999999999,M,31.59,M,1.3,0208*4A,43.46203244566667,141.80575386783332,565181.5528659128,4812440.0740307085
1044,[2021-01-29 11:28:42.797] $GPGGA,22841.4,4327.72194843,N,14148.34523159,E,4,6.0,1.6,108.166,M,31.59,M,1.4,0208*44,43.46203247383334,141.80575385983332,565181.5521884883,4812440.077152578
1045,[2021-01-29 11:28:42.890] $GPGGA,22841.5,4327.72194852,N,14148.34523268,E,4,6.0,1.6,108.166,M,31.59,M,1.5,0208*45,43.46203247533333,141.80575387800002,565181.5536564788,4812440.077333381
1046,[2021-01-29 11:28:43.000] $GPGGA,22841.6,4327.7219472,N,14148.34522996,E,4,6.0,1.6,108.156,M,31.59,M,1.6,0208*47,43.46203245333333,141.80575383266668,565181.5500128567,4812440.074854628
1047,[2021-01-29 11:28:43.094] $GPGGA,22841.7,4327.72194813,N,14148.34523403,E,4,6.0,1.6,108.156,M,31.59,M,1.7,0208*48,43.462032468833335,141.8057539005,565181.5554836077,4812440.076629114
1048,[2021-01-29 11:28:43.203] $GPGGA,22841.8,4327.72194886,N,14148.34523602,E,4,6.0,1.6,108.165,M,31.59,M,0.8,0208*46,43.46203248100001,141.80575393366667,565181.5581535674,4812440.078006276
1049,[2021-01-29 11:28:43.299] $GPGGA,22841.9,4327.72194956,N,14148.34523717,E,4,6.0,1.6,108.155,M,31.59,M,0.9,0208*4C,43.462032492666665,141.80575395283333,565181.5596915274,4812440.07931695
1050,[2021-01-29 11:28:43.392] $GPGGA,22842.0,4327.72194943,N,14148.34523515,E,4,6.0,1.6,108.15700000000001,M,31.59,M,1.0,0208*48,43.4620324905,141.80575391916668,565181.5569703773,4812440.0790499775
1051,[2021-01-29 11:28:43.470] $GPGGA,22842.1,4327.72195091,N,14148.34523537,E,4,6.0,1.6,108.155,M,31.59,M,1.1,0208*4D,43.462032515166655,141.8057539228333,565181.5572404902,4812440.081792274
1052,[2021-01-29 11:28:43.595] $GPGGA,22842.2,4327.72194928,N,14148.34523571,E,4,6.0,1.6,108.155,M,31.59,M,1.2,0208*45,43.46203248800001,141.8057539285,565181.5577280865,4812440.078779638
1053,[2021-01-29 11:28:43.689] $GPGGA,22842.3,4327.72194962,N,14148.34523545,E,4,6.0,1.6,108.155,M,31.59,M,1.3,0208*4C,43.46203249366666,141.80575392416668,565181.557371453,4812440.079405574
1054,[2021-01-29 11:28:43.799] $GPGGA,22842.4,4327.72194819,N,14148.34523272,E,4,6.0,1.6,108.164,M,31.59,M,1.4,0208*40,43.46203246983334,141.80575387866665,565181.5537163165,4812440.076723085
1055,[2021-01-29 11:28:43.892] $GPGGA,22842.5,4327.72194931,N,14148.34523575,E,4,6.0,1.6,108.15899999999999,M,31.59,M,1.5,0208*45,43.4620324885,141.80575392916666,565181.5577814798,4812440.078835688
1056,[2021-01-29 11:28:44.002] $GPGGA,22842.6,4327.72194824,N,14148.34523753,E,4,6.0,1.6,108.146,M,31.59,M,1.6,0208*48,43.462032470666664,141.80575395883335,565181.560200539,4812440.076878372
1057,[2021-01-29 11:28:44.095] $GNGGA,22842.7,4327.72194691,N,14148.34523656,E,4,7.0,1.4,108.15100000000001,M,31.59,M,0.7,0208*56,43.462032448500004,141.80575394266668,565181.5589165464,4812440.074403936
1058,[2021-01-29 11:28:44.205] $GNGGA,22842.8,4327.72194647,N,14148.34523397,E,4,7.0,1.4,108.15799999999999,M,31.59,M,0.8,0208*5C,43.46203244116667,141.8057538995,565181.5554324359,4812440.073555728
1059,[2021-01-29 11:28:44.284] $GNGGA,22842.9,4327.72194598,N,14148.34522897,E,4,7.0,1.4,108.175,M,31.59,M,0.9,0208*58,43.462032433000005,141.80575381616669,565181.5486999302,4812440.072583539
1060,[2021-01-29 11:28:44.394] $GNGGA,22843.0,4327.7219468,N,14148.34523539,E,4,7.0,1.4,108.145,M,31.59,M,1.0,0208*59,43.462032446666676,141.80575392316666,565181.557341053,4812440.07418507
1061,[2021-01-29 11:28:44.488] $GNGGA,22843.1,4327.72194664,N,14148.34523392,E,4,7.0,1.4,108.163,M,31.59,M,1.1,0208*50,43.462032443999995,141.80575389866667,565181.5553619813,4812440.073869741
1062,[2021-01-29 11:28:44.597] $GNGGA,22843.2,4327.72194802,N,14148.34523831,E,4,7.0,1.4,108.149,M,31.59,M,1.2,0208*54,43.46203246700001,141.80575397183333,565181.5612561164,4812440.076481335
1063,[2021-01-29 11:28:44.691] $GNGGA,22843.3,4327.72194716,N,14148.34523648,E,4,7.0,1.4,108.148,M,31.59,M,1.3,0208*5F,43.46203245266666,141.80575394133334,565181.5588042067,4812440.074865634
1064,[2021-01-29 11:28:44.800] $GNGGA,22843.4,4327.72194694,N,14148.34523363,E,4,7.0,1.4,108.15700000000001,M,31.59,M,1.4,0208*56,43.46203244899999,141.80575389383333,565181.5549656135,4812440.074421247
1065,[2021-01-29 11:28:44.894] $GNGGA,22843.5,4327.7219467,N,14148.34523694,E,4,7.0,1.4,108.152,M,31.59,M,1.5,0208*54,43.462032445000006,141.805753949,565181.5594326416,4812440.07402019
1066,[2021-01-29 11:28:45.003] $GNGGA,22843.6,4327.72194732,N,14148.34523652,E,4,7.0,1.4,108.152,M,31.59,M,1.6,0208*59,43.46203245533334,141.80575394199997,565181.55885527,4812440.075162311
1067,[2021-01-29 11:28:45.097] $GNGGA,22843.7,4327.72194928,N,14148.34523838,E,4,7.0,1.4,108.17200000000001,M,31.59,M,0.7,0208*5D,43.46203248800001,141.805753973,565181.5613279329,4812440.078814463
1068,[2021-01-29 11:28:45.191] $GNGGA,22843.8,4327.72194646,N,14148.34523564,E,4,7.0,1.4,108.161,M,31.59,M,0.8,0208*5C,43.462032441000005,141.8057539273333,565181.5576842045,4812440.073559002
1069,[2021-01-29 11:28:45.286] $GNGGA,22843.9,4327.72194883,N,14148.34523705,E,4,7.0,1.4,108.166,M,31.59,M,0.9,0208*59,43.4620324805,141.80575395083335,565181.5595428097,4812440.077964181
1070,[2021-01-29 11:28:45.396] $GNGGA,22844.0,4327.72194924,N,14148.34523349,E,4,7.0,1.4,108.17200000000001,M,31.59,M,1.0,0208*5A,43.46203248733333,141.8057538915,565181.5547356723,4812440.078676642
1071,[2021-01-29 11:28:45.489] $GNGGA,22844.1,4327.72194737,N,14148.34523572,E,4,7.0,1.4,108.17,M,31.59,M,1.1,0208*5A,43.46203245616667,141.8057539286667,565181.5577757725,4812440.075244423
1072,[2021-01-29 11:28:45.599] $GNGGA,22844.2,4327.7219488,N,14148.34523678,E,4,7.0,1.4,108.165,M,31.59,M,1.2,0208*54,43.46203248,141.80575394633334,565181.5591793176,4812440.07790513
1073,[2021-01-29 11:28:45.693] $GNGGA,22844.3,4327.72194607,N,14148.3452358,E,4,7.0,1.4,108.176,M,31.59,M,1.3,0208*53,43.462032434499996,141.80575392999998,565181.5579069081,4812440.072839213
1074,[2021-01-29 11:28:45.802] $GNGGA,22844.4,4327.72194929,N,14148.34523588,E,4,7.0,1.4,108.169,M,31.59,M,1.4,0208*56,43.46203248816667,141.80575393133336,565181.5579571137,4812440.0788003635
1075,[2021-01-29 11:28:45.896] $GNGGA,22844.5,4327.72194887,N,14148.34523373,E,4,7.0,1.4,108.18,M,31.59,M,1.5,0208*56,43.46203248116667,141.8057538955,565181.5550658809,4812440.077994915
1076,[2021-01-29 11:28:46.005] $GNGGA,22844.6,4327.72194943,N,14148.34523617,E,4,7.0,1.4,108.165,M,31.59,M,1.6,0208*53,43.4620324905,141.80575393616664,565181.5583455964,4812440.079063281
1077,[2021-01-29 11:28:46.099] $GPGGA,22844.7,4327.72194062,N,14148.34523566,E,4,6.0,1.6,108.179,M,31.59,M,0.7,0208*4D,43.46203234366667,141.80575392766667,565181.5578157459,4812440.062749626
1078,[2021-01-29 11:28:46.193] $GPGGA,22844.8,4327.72194102,N,14148.34523853,E,4,6.0,1.6,108.17299999999999,M,31.59,M,0.8,0208*4B,43.46203235033333,141.8057539755,565181.5616780822,4812440.063527446
1079,[2021-01-29 11:28:46.289] $GPGGA,22844.9,4327.72194068,N,14148.34523865,E,4,6.0,1.6,108.175,M,31.59,M,0.9,0208*45,43.46203234466668,141.80575397750002,565181.561845962,4812440.062899684
1080,[2021-01-29 11:28:46.398] $GPGGA,22845.0,4327.72194087,N,14148.34523637,E,4,6.0,1.6,108.176,M,31.59,M,1.0,0208*4E,43.46203234783334,141.8057539395,565181.5587685304,4812440.063221629
1081,[2021-01-29 11:28:46.492] $GPGGA,22845.1,4327.72194079,N,14148.34523759,E,4,6.0,1.6,108.175,M,31.59,M,1.1,0208*45,43.462032346499996,141.8057539598333,565181.5604148365,4812440.063089463
1082,[2021-01-29 11:28:46.601] $GPGGA,22845.2,4327.72193914,N,14148.34524154,E,4,6.0,1.6,108.15299999999999,M,31.59,M,1.2,0208*48,43.462032319,141.80575402566666,565181.5657699973,4812440.060086892
1083,[2021-01-29 11:28:46.695] $GPGGA,22845.3,4327.7219413,N,14148.34523639,E,4,6.0,1.6,108.179,M,31.59,M,1.3,0208*42,43.462032355000005,141.80575393983332,565181.5587877968,4812440.064017804
1084,[2021-01-29 11:28:46.805] $GPGGA,22845.4,4327.72194451,N,14148.34524078,E,4,6.0,1.6,108.16,M,31.59,M,1.4,0208*4C,43.4620324085,141.805754013,565181.5646491647,4812440.070016663
1085,[2021-01-29 11:28:46.898] $GPGGA,22845.5,4327.72193918,N,14148.3452379,E,4,6.0,1.6,108.184,M,31.59,M,1.5,0208*47,43.46203231966667,141.805753965,565181.5608616284,4812440.060113452
1086,[2021-01-29 11:28:46.992] $GPGGA,22845.6,4327.72194119,N,14148.34523928,E,4,6.0,1.6,108.17299999999999,M,31.59,M,1.6,0208*4C,43.46203235316666,141.80575398800002,565181.5626862317,4812440.063851893
1087,[2021-01-29 11:28:47.086] $GPGGA,22845.7,4327.72194224,N,14148.34523859,E,4,6.0,1.6,108.16799999999999,M,31.59,M,1.7,0208*4C,43.46203237066667,141.8057539765,565181.5617371307,4812440.065786407
1088,[2021-01-29 11:28:47.195] $GPGGA,22845.8,4327.72194792,N,14148.34523508,E,4,6.0,1.6,108.18299999999999,M,31.59,M,0.8,0208*49,43.46203246533333,141.80575391800002,565181.5569030396,4812440.076254106
1089,[2021-01-29 11:28:47.290] $GPGGA,22845.9,4327.72195111,N,14148.34523474,E,4,6.0,1.6,108.176,M,31.59,M,0.9,0208*45,43.4620325185,141.80575391233333,565181.5563875089,4812440.08215425
1090,[2021-01-29 11:28:47.399] $GPGGA,22846.0,4327.72195088,N,14148.34523347,E,4,6.0,1.6,108.17299999999999,M,31.59,M,1.0,0208*44,43.46203251466667,141.80575389116666,565181.554679341,4812440.081711964
1091,[2021-01-29 11:28:47.493] $GPGGA,22846.1,4327.72194988,N,14148.34523433,E,4,6.0,1.6,108.18299999999999,M,31.59,M,1.1,0208*47,43.46203249799999,141.8057539055,565181.5558567488,4812440.079872214
1092,[2021-01-29 11:28:47.602] $GPGGA,22846.2,4327.72195078,N,14148.34523394,E,4,6.0,1.6,108.17200000000001,M,31.59,M,1.2,0208*44,43.462032513,141.805753899,565181.5553148118,4812440.081532998
1093,[2021-01-29 11:28:47.696] $GPGGA,22846.3,4327.72194996,N,14148.34523422,E,4,6.0,1.6,108.181,M,31.59,M,1.3,0208*4A,43.462032499333326,141.80575390366667,565181.5557070068,4812440.0800188575
1094,[2021-01-29 11:28:47.790] $GPGGA,22846.4,4327.72195034,N,14148.34523405,E,4,6.0,1.6,108.17399999999999,M,31.59,M,1.4,0208*45,43.46203250566668,141.80575390083334,565181.5554710001,4812440.080720009
1095,[2021-01-29 11:28:47.884] $GPGGA,22846.5,4327.72195345,N,14148.34523729,E,4,6.0,1.6,108.175,M,31.59,M,1.5,0208*4C,43.462032557499995,141.8057539548333,565181.5597836599,4812440.086518768
1096,[2021-01-29 11:28:47.993] $GPGGA,22846.6,4327.7219506,N,14148.34523348,E,4,6.0,1.6,108.17299999999999,M,31.59,M,1.6,0208*4D,43.46203251,141.80575389133335,565181.5546978392,4812440.081193824
1097,[2021-01-29 11:28:48.087] $GPGGA,22846.7,4327.72195147,N,14148.34523527,E,4,6.0,1.6,108.178,M,31.59,M,1.7,0208*4D,43.4620325245,141.80575392116666,565181.5570956372,4812440.082827512
1098,[2021-01-29 11:28:48.196] $GPGGA,22846.8,4327.7219484,N,14148.3452351,E,4,6.0,1.6,108.169,M,31.59,M,0.8,0208*47,43.46203247333333,141.8057539183333,565181.5569214046,4812440.077142829
1099,[2021-01-29 11:28:48.291] $GPGGA,22846.9,4327.72194674,N,14148.34523521,E,4,6.0,1.6,108.177,M,31.59,M,0.9,0208*43,43.46203244566667,141.80575392016664,565181.5570994391,4812440.074071663
1100,[2021-01-29 11:28:48.400] $GPGGA,22847.0,4327.721949,N,14148.34523532,E,4,6.0,1.6,108.175,M,31.59,M,1.0,0208*4F,43.46203248333333,141.80575392199998,565181.5572072794,4812440.078256279
1101,[2021-01-29 11:28:48.494] $GPGGA,22847.1,4327.72194871,N,14148.34523688,E,4,6.0,1.6,108.164,M,31.59,M,1.1,0208*4A,43.4620324785,141.80575394800002,565181.5593157564,4812440.077739847
1102,[2021-01-29 11:28:48.603] $GPGGA,22847.2,4327.72194693,N,14148.34523575,E,4,6.0,1.6,108.177,M,31.59,M,1.2,0208*4B,43.462032448833334,141.80575392916666,565181.5578240978,4812440.074430389
1103,[2021-01-29 11:28:48.697] $GPGGA,22847.3,4327.72194977,N,14148.34523345,E,4,6.0,1.6,108.182,M,31.59,M,1.3,0208*41,43.46203249616666,141.8057538908333,565181.5546722491,4812440.079657131
1104,[2021-01-29 11:28:48.791] $GPGGA,22847.4,4327.72194762,N,14148.34523494,E,4,6.0,1.6,108.17299999999999,M,31.59,M,1.4,0208*4E,43.462032460333326,141.80575391566663,565181.5567196517,4812440.075696991
1105,[2021-01-29 11:28:48.885] $GPGGA,22847.5,4327.72195021,N,14148.34523729,E,4,6.0,1.6,108.17299999999999,M,31.59,M,1.5,0208*4A,43.46203250349999,141.8057539548333,565181.5598416775,4812440.080521642
1106,[2021-01-29 11:28:48.994] $GPGGA,22847.6,4327.72194918,N,14148.34523704,E,4,6.0,1.6,108.165,M,31.59,M,1.6,0208*40,43.46203248633333,141.80575395066666,565181.5595230582,4812440.078611887
1107,[2021-01-29 11:28:49.088] $GPGGA,22847.7,4327.72194522,N,14148.3452334,E,4,6.0,1.6,108.167,M,31.59,M,0.7,0208*42,43.46203242033334,141.80575388999998,565181.554686312,4812440.071234588
1108,[2021-01-29 11:28:49.197] $GPGGA,22847.8,4327.72194274,N,14148.34523195,E,4,6.0,1.6,108.182,M,31.59,M,0.8,0208*47,43.462032379,141.80575386583334,565181.5527757521,4812440.06662528
1109,[2021-01-29 11:28:49.293] $GPGGA,22847.9,4327.72194211,N,14148.34523265,E,4,6.0,1.6,108.169,M,31.59,M,0.9,0208*4D,43.4620323685,141.80575387749997,565181.5537308082,4812440.065468304
1110,[2021-01-29 11:28:49.402] $GPGGA,22848.0,4327.72194456,N,14148.34523164,E,4,6.0,1.6,108.16,M,31.59,M,1.0,0208*4D,43.46203240933334,141.80575386066664,565181.5523251998,4812440.069989996
1111,[2021-01-29 11:28:49.496] $GPGGA,22848.1,4327.72194367,N,14148.34523305,E,4,6.0,1.6,108.161,M,31.59,M,1.1,0208*4C,43.46203239449999,141.80575388416668,565181.554242181,4812440.068361025
1112,[2021-01-29 11:28:49.605] $GPGGA,22848.2,4327.72194695,N,14148.34523291,E,4,6.0,1.6,108.167,M,31.59,M,1.2,0208*4E,43.462032449166664,141.80575388183334,565181.5539946912,4812440.074430366
1113,[2021-01-29 11:28:49.699] $GPGGA,22848.3,4327.72194383,N,14148.34523332,E,4,6.0,1.6,108.16799999999999,M,31.59,M,1.3,0208*4B,43.462032397166666,141.8057538886667,565181.5546033453,4812440.068660702
1114,[2021-01-29 11:28:49.793] $GPGGA,22848.4,4327.72194408,N,14148.34522865,E,4,6.0,1.6,108.167,M,31.59,M,1.4,0208*48,43.462032401333325,141.8057538108333,565181.5483025046,4812440.06906253
1115,[2021-01-29 11:28:49.887] $GPGGA,22848.5,4327.7219447,N,14148.34523014,E,4,6.0,1.6,108.17200000000001,M,31.59,M,1.5,0208*4C,43.46203241166667,141.80575383566668,565181.5503003098,4812440.070229565
1116,[2021-01-29 11:28:49.996] $GPGGA,22848.6,4327.72194637,N,14148.3452335,E,4,6.0,1.6,108.167,M,31.59,M,1.6,0208*4A,43.4620324395,141.80575389166668,565181.5548005487,4812440.073364502
1117,[2021-01-29 11:28:50.090] $GPGGA,22848.7,4327.72194538,N,14148.34522871,E,4,6.0,1.6,108.169,M,31.59,M,0.7,0208*40,43.462032423000004,141.80575381183337,565181.5483601268,4812440.071469569
1118,[2021-01-29 11:28:50.199] $GPGGA,22848.8,4327.72194894,N,14148.34522826,E,4,6.0,1.6,108.164,M,31.59,M,0.8,0208*44,43.46203248233334,141.8057538043333,565181.547689659,4812440.078053137
1119,[2021-01-29 11:28:50.294] $GPGGA,22848.9,4327.72194622,N,14148.34523036,E,4,6.0,1.6,108.163,M,31.59,M,0.9,0208*48,43.462032437000005,141.80575383933336,565181.5505697104,4812440.073045902
1120,[2021-01-29 11:28:50.404] $GPGGA,22849.0,4327.72194883,N,14148.34522798,E,4,6.0,1.6,108.161,M,31.59,M,1.0,0208*4D,43.4620324805,141.80575379966666,565181.5473141193,4812440.077845878
1121,[2021-01-29 11:28:50.498] $GPGGA,22849.1,4327.7219466,N,14148.34522959,E,4,6.0,1.6,108.162,M,31.59,M,1.1,0208*4E,43.46203244333333,141.80575382650002,565181.5495247459,4812440.073739224
1122,[2021-01-29 11:28:50.591] $GPGGA,22849.2,4327.72194705,N,14148.34523221,E,4,6.0,1.6,108.156,M,31.59,M,1.2,0208*4E,43.462032450833334,141.80575387016665,565181.5530491195,4812440.074606332
1123,[2021-01-29 11:28:50.685] $GPGGA,22849.3,4327.72194754,N,14148.34522991,E,4,6.0,1.6,108.166,M,31.59,M,1.3,0208*48,43.46203245899999,141.80575383183336,565181.5499393558,4812440.0754833035
1124,[2021-01-29 11:28:50.795] $GPGGA,22849.4,4327.72194683,N,14148.34522777,E,4,6.0,1.6,108.171,M,31.59,M,1.4,0208*43,43.46203244716666,141.80575379616667,565181.547066798,4812440.074141206
1125,[2021-01-29 11:28:50.888] $GPGGA,22849.5,4327.72194769,N,14148.3452298,E,4,6.0,1.6,108.164,M,31.59,M,1.5,0208*44,43.4620324615,141.80575383000001,565181.5497883623,4812440.075759516
1126,[2021-01-29 11:28:50.998] $GPGGA,22849.6,4327.72194545,N,14148.34523223,E,4,6.0,1.6,108.163,M,31.59,M,1.6,0208*4C,43.462032424166665,141.80575387049998,565181.5531047345,4812440.071645048
1127,[2021-01-29 11:28:51.091] $GPGGA,22849.7,4327.72194762,N,14148.34523072,E,4,6.0,1.6,108.17,M,31.59,M,0.7,0208*4E,43.462032460333326,141.80575384533333,565181.5510300095,4812440.075641947
1128,[2021-01-29 11:28:51.201] $GPGGA,22849.8,4327.72194656,N,14148.34523088,E,4,6.0,1.6,108.17,M,31.59,M,0.8,0208*4D,43.46203244266666,141.805753848,565181.5512647128,4812440.073682011
1129,[2021-01-29 11:28:51.294] $GPGGA,22849.9,4327.72194534,N,14148.34523288,E,4,6.0,1.6,108.166,M,31.59,M,0.9,0208*4F,43.46203242233334,141.80575388133332,565181.5539830705,4812440.071449921
1130,[2021-01-29 11:28:51.404] $GPGGA,22850.0,4327.72194658,N,14148.34523301,E,4,6.0,1.6,108.17200000000001,M,31.59,M,1.0,0208*4A,43.462032443000005,141.80575388350005,565181.5541361461,4812440.0737468125
1131,[2021-01-29 11:28:51.497] $GPGGA,22850.1,4327.72194618,N,14148.34522912,E,4,6.0,1.6,108.175,M,31.59,M,1.1,0208*40,43.462032436333324,141.80575381866666,565181.5488985847,4812440.0729556875
1132,[2021-01-29 11:28:51.591] $GPGGA,22850.2,4327.72194559,N,14148.3452304,E,4,6.0,1.6,108.164,M,31.59,M,1.2,0208*49,43.4620324265,141.80575384,565181.550634918,4812440.0718803145
1133,[2021-01-29 11:28:51.685] $GPGGA,22850.3,4327.7219451,N,14148.34523398,E,4,6.0,1.6,108.163,M,31.59,M,1.3,0208*45,43.46203241833334,141.80575389966668,565181.5554704544,4812440.071020037
1134,[2021-01-29 11:28:51.794] $GPGGA,22850.4,4327.72194721,N,14148.34523141,E,4,6.0,1.6,108.17299999999999,M,31.59,M,1.4,0208*42,43.46203245349999,141.80575385683332,565181.5519676482,4812440.074892051
1135,[2021-01-29 11:28:51.888] $GPGGA,22850.5,4327.72194761,N,14148.34523083,E,4,6.0,1.6,108.162,M,31.59,M,1.5,0208*49,43.46203246016667,141.80575384716667,565181.5511784981,4812440.075624873
1136,[2021-01-29 11:28:51.997] $GPGGA,22850.6,4327.72194597,N,14148.34523446,E,4,6.0,1.6,108.16799999999999,M,31.59,M,1.6,0208*45,43.46203243283333,141.80575390766663,565181.5561020336,4812440.072636638
1137,[2021-01-29 11:28:52.091] $GPGGA,22850.7,4327.72194907,N,14148.34523835,E,4,6.0,1.6,108.182,M,31.59,M,0.7,0208*4D,43.4620324845,141.8057539725,565181.5612912469,4812440.078425369
1138,[2021-01-29 11:28:52.201] $GPGGA,22850.8,4327.72194566,N,14148.34523914,E,4,6.0,1.6,108.171,M,31.59,M,0.8,0208*48,43.46203242766666,141.80575398566666,565181.5624174288,4812440.07212388
1139,[2021-01-29 11:28:52.297] $GPGGA,22850.9,4327.72194972,N,14148.34523681,E,4,6.0,1.6,108.178,M,31.59,M,0.9,0208*4B,43.46203249533333,141.80575394683336,565181.5592032939,4812440.07960841
1140,[2021-01-29 11:28:52.406] $GPGGA,22851.0,4327.72194798,N,14148.34524286,E,4,6.0,1.6,108.175,M,31.59,M,1.0,0208*48,43.462032466333326,141.80575404766668,565181.567391403,4812440.076466642
1141,[2021-01-29 11:28:52.484] $GPGGA,22851.1,4327.72194725,N,14148.34523756,E,4,6.0,1.6,108.178,M,31.59,M,1.1,0208*4C,43.46203245416667,141.80575395933332,565181.5602587109,4812440.0750463065
1142,[2021-01-29 11:28:52.594] $GPGGA,22851.2,4327.72194823,N,14148.34524028,E,4,6.0,1.6,108.176,M,31.59,M,1.2,0208*42,43.4620324705,141.80575400466665,565181.5639084212,4812440.0768957315
1143,[2021-01-29 11:28:52.688] $GPGGA,22851.3,4327.72194784,N,14148.34524271,E,4,6.0,1.6,108.179,M,31.59,M,1.3,0208*41,43.462032463999996,141.80575404516665,565181.5671916701,4812440.07620555
1144,[2021-01-29 11:28:52.797] $GPGGA,22851.4,4327.72194805,N,14148.34523736,E,4,6.0,1.6,108.182,M,31.59,M,1.4,0208*42,43.4620324675,141.805753956,565181.5599747349,4812440.076524472
1145,[2021-01-29 11:28:52.891] $GPGGA,22851.5,4327.72194796,N,14148.34524171,E,4,6.0,1.6,108.16799999999999,M,31.59,M,1.5,0208*41,43.462032466,141.80575402850002,565181.5658412665,4812440.076414622
1146,[2021-01-29 11:28:53.000] $GPGGA,22851.6,4327.72194931,N,14148.34523888,E,4,6.0,1.6,108.177,M,31.59,M,1.6,0208*44,43.4620324885,141.80575398133334,565181.562001524,4812440.078876513
1147,[2021-01-29 11:28:53.094] $GPGGA,22851.7,4327.72194786,N,14148.34524046,E,4,6.0,1.6,108.18,M,31.59,M,1.7,0208*43,43.46203246433334,141.80575400766668,565181.5641577351,4812440.076213223
1148,[2021-01-29 11:28:53.203] $GNGGA,22851.8,4327.72194752,N,14148.34523649,E,4,7.0,1.4,108.171,M,31.59,M,0.8,0208*56,43.46203245866666,141.80575394150003,565181.5588112444,4812440.075532111
1149,[2021-01-29 11:28:53.298] $GNGGA,22851.9,4327.72194604,N,14148.34523848,E,4,7.0,1.4,108.169,M,31.59,M,0.9,0208*52,43.46203243400001,141.80575397466666,565181.5615207758,4812440.07281864
1150,[2021-01-29 11:28:53.391] $GNGGA,22852.0,4327.72194738,N,14148.34524288,E,4,7.0,1.4,108.165,M,31.59,M,1.0,0208*53,43.462032456333326,141.80575404799995,565181.5674291073,4812440.075356322
1151,[2021-01-29 11:28:53.470] $GNGGA,22852.1,4327.72194797,N,14148.34524479,E,4,7.0,1.4,108.146,M,31.59,M,1.1,0208*5F,43.462032466166654,141.80575407983332,565181.5699937169,4812440.076473305
1152,[2021-01-29 11:28:53.595] $GNGGA,22852.2,4327.72194708,N,14148.34524443,E,4,7.0,1.4,108.15700000000001,M,31.59,M,1.2,0208*50,43.46203245133333,141.80575407383336,565181.5695242833,4812440.0748212505
1153,[2021-01-29 11:28:53.688] $GNGGA,22852.3,4327.7219498,N,14148.34524296,E,4,7.0,1.4,108.15,M,31.59,M,1.3,0208*57,43.462032496666666,141.80575404933333,565181.5674936381,4812440.079836703
1154,[2021-01-29 11:28:53.798] $GNGGA,22852.4,4327.72195056,N,14148.34524494,E,4,7.0,1.4,108.154,M,31.59,M,1.4,0208*54,43.462032509333326,141.80575408233335,565181.5701495785,4812440.0812692605
1155,[2021-01-29 11:28:53.891] $GNGGA,22852.5,4327.72194744,N,14148.34524298,E,4,7.0,1.4,108.154,M,31.59,M,1.5,0208*5B,43.46203245733333,141.80575404966666,565181.5675628622,4812440.0754686855
1156,[2021-01-29 11:28:54.001] $GNGGA,22852.6,4327.72194964,N,14148.34523551,E,4,7.0,1.4,108.17200000000001,M,31.59,M,0.6,0208*57,43.462032494,141.80575392516664,565181.5574519875,4812440.079443376
1157,[2021-01-29 11:28:54.095] $GNGGA,22852.7,4327.72194816,N,14148.34523799,E,4,7.0,1.4,108.16799999999999,M,31.59,M,0.7,0208*5E,43.46203246933332,141.8057539665,565181.5608221673,4812440.076736294
1158,[2021-01-29 11:28:54.204] $GNGGA,22852.8,4327.72194912,N,14148.34523714,E,4,7.0,1.4,108.167,M,31.59,M,0.8,0208*51,43.46203248533333,141.80575395233333,565181.55965896,4812440.078502134
1159,[2021-01-29 11:28:54.284] $GNGGA,22852.9,4327.72194818,N,14148.34523577,E,4,7.0,1.4,108.177,M,31.59,M,0.9,0208*5C,43.462032469666674,141.8057539295,565181.5578286807,4812440.076744358
1160,[2021-01-29 11:28:54.409] $GNGGA,22853.0,4327.72194809,N,14148.34523524,E,4,7.0,1.4,108.17,M,31.59,M,1.0,0208*5D,43.46203246816667,141.8057539206667,565181.5571157176,4812440.076570857
1161,[2021-01-29 11:28:54.487] $GNGGA,22853.1,4327.72194884,N,14148.34523558,E,4,7.0,1.4,108.165,M,31.59,M,1.1,0208*57,43.46203248066666,141.80575392633335,565181.5575606939,4812440.077963515
1162,[2021-01-29 11:28:54.596] $GNGGA,22853.2,4327.72195055,N,14148.34523444,E,4,7.0,1.4,108.17200000000001,M,31.59,M,1.2,0208*58,43.46203250916667,141.80575390733335,565181.5559930608,4812440.081113799
1163,[2021-01-29 11:28:54.690] $GNGGA,22853.3,4327.72195006,N,14148.34523833,E,4,7.0,1.4,108.169,M,31.59,M,1.3,0208*58,43.46203250100001,141.80575397216668,565181.5612465551,4812440.080257565
1164,[2021-01-29 11:28:54.799] $GNGGA,22853.4,4327.72194657,N,14148.34523733,E,4,7.0,1.4,108.177,M,31.59,M,1.4,0208*5B,43.46203244283333,141.8057539555,565181.5599607906,4812440.07378465
1165,[2021-01-29 11:28:54.893] $GNGGA,22853.5,4327.72194953,N,14148.34523518,E,4,7.0,1.4,108.163,M,31.59,M,1.5,0208*5E,43.46203249216666,141.80575391966667,565181.5570090351,4812440.079235463
1166,[2021-01-29 11:28:55.002] $GNGGA,22853.6,4327.72194943,N,14148.34523708,E,4,7.0,1.4,108.176,M,31.59,M,1.6,0208*58,43.4620324905,141.80575395133332,565181.559572512,4812440.079075152
1167,[2021-01-29 11:28:55.096] $GNGGA,22853.7,4327.72194749,N,14148.34523368,E,4,7.0,1.4,108.16799999999999,M,31.59,M,1.7,0208*51,43.46203245816667,141.80575389466668,565181.5550231795,4812440.075439931
1168,[2021-01-29 11:28:55.206] $GNGGA,22853.8,4327.72194429,N,14148.34523446,E,4,7.0,1.4,108.16,M,31.59,M,0.8,0208*56,43.46203240483333,141.80575390766663,565181.5561321168,4812440.069527016
1169,[2021-01-29 11:28:55.287] $GNGGA,22853.9,4327.72194612,N,14148.3452377,E,4,7.0,1.4,108.155,M,31.59,M,0.9,0208*5C,43.46203243533334,141.80575396166665,565181.5604677012,4812440.072956543
1170,[2021-01-29 11:28:55.397] $GNGGA,22854.0,4327.72194352,N,14148.34523303,E,4,7.0,1.4,108.164,M,31.59,M,1.0,0208*59,43.462032392000005,141.80575388383332,565181.5542179007,4812440.068083121
1171,[2021-01-29 11:28:55.490] $GNGGA,22854.1,4327.72194573,N,14148.34523357,E,4,7.0,1.4,108.164,M,31.59,M,1.1,0208*5D,43.46203242883333,141.80575389283334,565181.5549063858,4812440.072180797
1172,[2021-01-29 11:28:55.600] $GNGGA,22854.2,4327.72194326,N,14148.34523266,E,4,7.0,1.4,108.165,M,31.59,M,1.2,0208*59,43.462032387666675,141.80575387766666,565181.5537237017,4812440.067597044
1173,[2021-01-29 11:28:55.694] $GNGGA,22854.3,4327.72194456,N,14148.34523306,E,4,7.0,1.4,108.16,M,31.59,M,1.3,0208*5B,43.46203240933334,141.8057538843333,565181.5542397241,4812440.070008517
1174,[2021-01-29 11:28:55.803] $GNGGA,22854.4,4327.72194533,N,14148.34523458,E,4,7.0,1.4,108.164,M,31.59,M,1.4,0208*51,43.46203242216668,141.80575390966666,565181.5562752874,4812440.071453585
1175,[2021-01-29 11:28:55.897] $GNGGA,22854.5,4327.72194432,N,14148.34523201,E,4,7.0,1.4,108.171,M,31.59,M,1.5,0208*5F,43.46203240533334,141.80575386683336,565181.5528283564,4812440.06955059
1176,[2021-01-29 11:28:55.990] $GNGGA,22854.6,4327.72194543,N,14148.34523558,E,4,7.0,1.4,108.15799999999999,M,31.59,M,1.6,0208*58,43.462032423833335,141.80575392633335,565181.5576217558,4812440.071651724
1177,[2021-01-29 11:28:56.100] $GPGGA,22854.7,4327.72194697,N,14148.34523248,E,4,6.0,1.6,108.164,M,31.59,M,0.7,0208*47,43.4620324495,141.80575387466666,565181.5534145816,4812440.074461778
