,Format,Time,Latitude,LatType,Longitude,LonType,Status,Satellite,LevelAccuracy,Altitude(sea),M(sea),Altitude(geoid),M(geoid),DGPS use,checksum,Lat,Lon,UTM_X,UTM_Y
657,[2021-01-29 11:28:21.201] $GPGGA,22819.8,4327.72194803,N,14148.34524071,E,4,5.0,2.1,108.079,M,31.59,M,1.8,0000*43,43.462032467166665,141.80575401183333,565181.564491754,4812440.076531147
658,[2021-01-29 11:28:21.297] $GPGGA,22819.9,4327.72195005,N,14148.34523865,E,4,5.0,2.1,108.08200000000001,M,31.59,M,1.9,0000*42,43.462032500833324,141.80575397750002,565181.5616781762,4812440.080243227
659,[2021-01-29 11:28:21.406] $GPGGA,22820.0,4327.72194644,N,14148.3452398,E,4,5.0,2.1,108.084,M,31.59,M,2.0,0000*45,43.46203244066666,141.80575399666665,565181.5632933121,4812440.073576242
660,[2021-01-29 11:28:21.484] $GPGGA,22820.1,4327.72194914,N,14148.34523984,E,4,5.0,2.1,108.07799999999999,M,31.59,M,2.1,0000*48,43.462032485666676,141.80575399733334,565181.5632988946,4812440.078574371
661,[2021-01-29 11:28:21.594] $GPGGA,22820.2,4327.7219462,N,14148.34523906,E,4,5.0,2.1,108.083,M,31.59,M,2.2,0000*4E,43.462032436666675,141.80575398433334,565181.5622999002,4812440.07312236
662,[2021-01-29 11:28:21.687] $GPGGA,22820.3,4327.72194836,N,14148.34524106,E,4,5.0,2.1,108.081,M,31.59,M,2.3,0000*4A,43.462032472666664,141.80575401766666,565181.5649577354,4812440.077146529
663,[2021-01-29 11:28:21.797] $GPGGA,22820.4,4327.72194725,N,14148.3452399,E,4,5.0,2.1,108.086,M,31.59,M,2.4,0000*40,43.46203245416667,141.8057539983333,565181.5634136308,4812440.07507683
664,[2021-01-29 11:28:21.890] $GPGGA,22820.5,4327.72194692,N,14148.34523849,E,4,5.0,2.1,108.083,M,31.59,M,2.5,0000*4D,43.46203244866666,141.80575397483335,565181.5615185021,4812440.074447619
665,[2021-01-29 11:28:22.000] $GPGGA,22820.6,4327.72194771,N,14148.34524069,E,4,5.0,2.1,108.083,M,31.59,M,2.6,0000*4C,43.46203246183333,141.8057540115,565181.56447052,4812440.075938577
666,[2021-01-29 11:28:22.078] $GPGGA,22820.7,4327.72194704,N,14148.34524089,E,4,5.0,2.1,108.07700000000001,M,31.59,M,2.7,0000*4B,43.46203245066666,141.80575401483335,565181.5647521701,4812440.074701038
667,[2021-01-29 11:28:22.203] $GPGGA,22820.8,4327.72194411,N,14148.34523576,E,4,5.0,2.1,108.066,M,31.59,M,1.8,0000*4D,43.462032401833326,141.80575392933332,565181.5578880769,4812440.069210798
668,[2021-01-29 11:28:22.282] $GPGGA,22820.9,4327.7219427,N,14148.34524274,E,4,5.0,2.1,108.066,M,31.59,M,1.9,0000*4E,43.46203237833333,141.80575404566667,565181.567324159,4812440.066691982
669,[2021-01-29 11:28:22.392] $GPGGA,22821.0,4327.72194495,N,14148.34524111,E,4,5.0,2.1,108.061,M,31.59,M,2.0,0000*46,43.46203241583333,141.80575401850004,565181.565086214,4812440.07083539
670,[2021-01-29 11:28:22.486] $GPGGA,22821.1,4327.72194612,N,14148.34524,E,4,5.0,2.1,108.059,M,31.59,M,2.1,0000*41,43.46203243533334,141.805754,565181.5635686949,4812440.072986542
671,[2021-01-29 11:28:22.595] $GPGGA,22821.2,4327.72194271,N,14148.34523895,E,4,5.0,2.1,108.068,M,31.59,M,2.2,0000*41,43.4620323785,141.8057539825,565181.5622140851,4812440.066661055
672,[2021-01-29 11:28:22.689] $GPGGA,22821.3,4327.72194386,N,14148.34524157,E,4,5.0,2.1,108.061,M,31.59,M,2.3,0000*41,43.462032397666654,141.80575402616665,565181.5657259261,4812440.068823838
673,[2021-01-29 11:28:22.798] $GPGGA,22821.4,4327.72194374,N,14148.3452394,E,4,5.0,2.1,108.057,M,31.59,M,2.4,0000*40,43.46203239566667,141.80575398999997,565181.5628023549,4812440.068573421
674,[2021-01-29 11:28:22.892] $GPGGA,22821.5,4327.72194449,N,14148.345241,E,4,5.0,2.1,108.06299999999999,M,31.59,M,2.5,0000*45,43.462032408166664,141.8057540166667,565181.5649461417,4812440.069982512
675,[2021-01-29 11:28:23.001] $GPGGA,22821.6,4327.72194478,N,14148.34523989,E,4,5.0,2.1,108.06299999999999,M,31.59,M,2.6,0000*49,43.462032413,141.80575399816667,565181.5634443804,4812440.070504814
676,[2021-01-29 11:28:23.095] $GPGGA,22821.7,4327.72194292,N,14148.34524068,E,4,5.0,2.1,108.06,M,31.59,M,2.7,0000*49,43.462032382000004,141.80575401133336,565181.5645428131,4812440.067072324
677,[2021-01-29 11:28:23.204] $GPGGA,22821.8,4327.72194653,N,14148.34523967,E,4,6.0,2.1,108.09899999999999,M,31.59,M,1.8,0000*47,43.46203244216668,141.80575399449998,565181.5631164268,4812440.073741134
678,[2021-01-29 11:28:23.285] $GPGGA,22821.9,4327.721946,N,14148.3452386,E,4,6.0,2.1,108.096,M,31.59,M,1.9,0000*48,43.46203243333333,141.8057539766667,565181.5616832857,4812440.072746167
679,[2021-01-29 11:28:23.379] $GPGGA,22822.0,4327.72194312,N,14148.34524304,E,4,6.0,2.1,108.09700000000001,M,31.59,M,2.0,0000*41,43.46203238533334,141.80575405066668,565181.567721116,4812440.0674733
680,[2021-01-29 11:28:23.488] $GPGGA,22822.1,4327.72194545,N,14148.34523707,E,4,6.0,2.1,108.095,M,31.59,M,2.1,0000*47,43.462032424166665,141.80575395116668,565181.5596303007,4812440.071708178
681,[2021-01-29 11:28:23.598] $GPGGA,22822.2,4327.72194547,N,14148.34524057,E,4,6.0,2.1,108.09899999999999,M,31.59,M,2.2,0000*4C,43.462032424499995,141.80575400950002,565181.5643488416,4812440.07179085
682,[2021-01-29 11:28:23.692] $GPGGA,22822.3,4327.72194566,N,14148.34524023,E,4,6.0,2.1,108.094,M,31.59,M,2.3,0000*41,43.46203242766666,141.80575400383333,565181.5638870288,4812440.072138097
683,[2021-01-29 11:28:23.801] $GPGGA,22822.4,4327.72194545,N,14148.34523925,E,4,6.0,2.1,108.098,M,31.59,M,2.4,0000*44,43.462032424166665,141.8057539875,565181.5625694987,4812440.071736612
684,[2021-01-29 11:28:23.895] $GPGGA,22822.5,4327.72194379,N,14148.34523783,E,4,6.0,2.1,108.101,M,31.59,M,2.5,0000*4E,43.4620323965,141.80575396383333,565181.5606846996,4812440.068645489
685,[2021-01-29 11:28:24.004] $GPGGA,22822.6,4327.72194509,N,14148.34524087,E,4,6.0,2.1,108.089,M,31.59,M,2.6,0000*4A,43.462032418166665,141.8057540145,565181.5647601219,4812440.071091397
686,[2021-01-29 11:28:24.082] $GPGGA,22822.7,4327.72194379,N,14148.34523925,E,4,6.0,2.1,108.104,M,31.59,M,2.7,0000*49,43.4620323965,141.8057539875,565181.5625992238,4812440.068664012
687,[2021-01-29 11:28:24.192] $GPGGA,22822.8,4327.72194757,N,14148.34523768,E,4,7.0,1.6,108.1,M,31.59,M,1.8,0000*44,43.4620324595,141.80575396133332,565181.5604147722,4812440.075640182
688,[2021-01-29 11:28:24.286] $GPGGA,22822.9,4327.72194611,N,14148.34523987,E,4,7.0,1.6,108.09200000000001,M,31.59,M,1.9,0000*42,43.46203243516667,141.80575399783334,565181.5633936003,4812440.072966337
689,[2021-01-29 11:28:24.395] $GPGGA,22823.0,4327.72194544,N,14148.34523754,E,4,7.0,1.6,108.10600000000001,M,31.59,M,2.0,0000*4F,43.46203242400001,141.805753959,565181.5602641577,4812440.0716958
690,[2021-01-29 11:28:24.489] $GPGGA,22823.1,4327.72194484,N,14148.34523762,E,4,7.0,1.6,108.10700000000001,M,31.59,M,2.1,0000*46,43.46203241400001,141.80575396033333,565181.5603827628,4812440.070586264
691,[2021-01-29 11:28:24.598] $GPGGA,22823.2,4327.7219462,N,14148.34523919,E,4,7.0,1.6,108.096,M,31.59,M,2.2,0000*41,43.462032436666675,141.80575398649998,565181.5624751719,4812440.073124055
692,[2021-01-29 11:28:24.692] $GPGGA,22823.3,4327.72194468,N,14148.34523943,E,4,7.0,1.6,108.09899999999999,M,31.59,M,2.3,0000*4F,43.462032411333325,141.8057539905,565181.5628259731,4812440.070313717
693,[2021-01-29 11:28:24.801] $GPGGA,22823.4,4327.72194806,N,14148.34523816,E,4,7.0,1.6,108.095,M,31.59,M,2.4,0000*46,43.46203246766666,141.80575396933332,565181.5610531622,4812440.076553415
694,[2021-01-29 11:28:24.895] $GPGGA,22823.5,4327.7219407,N,14148.34524481,E,4,7.0,1.6,108.09299999999999,M,31.59,M,2.5,0000*4C,43.462032345000004,141.80575408016665,565181.5701508629,4812440.063017051
695,[2021-01-29 11:28:25.004] $GPGGA,22823.6,4327.72194538,N,14148.34524026,E,4,7.0,1.6,108.102,M,31.59,M,2.6,0000*45,43.462032423000004,141.80575400433332,565181.5639324911,4812440.071620219
696,[2021-01-29 11:28:25.082] $GPGGA,22823.7,4327.72194569,N,14148.3452367,E,4,7.0,1.6,108.10700000000001,M,31.59,M,1.7,0000*45,43.462032428166665,141.80575394500002,565181.5591271484,4812440.0721475845
697,[2021-01-29 11:28:25.192] $GPGGA,22823.8,4327.72194564,N,14148.34523763,E,4,7.0,1.6,108.105,M,31.59,M,1.8,0000*49,43.46203242733333,141.8057539605,565181.5603819196,4812440.072067167
698,[2021-01-29 11:28:25.287] $GPGGA,22823.9,4327.72194572,N,14148.34523509,E,4,7.0,1.6,108.11399999999999,M,31.59,M,1.9,0000*40,43.46203242866666,141.80575391816666,565181.5569559145,4812440.072182112
699,[2021-01-29 11:28:25.397] $GPGGA,22824.0,4327.72194631,N,14148.34523908,E,4,7.0,1.6,108.105,M,31.59,M,2.0,0000*4D,43.4620324385,141.80575398466664,565181.5623248926,4812440.073326225
700,[2021-01-29 11:28:25.490] $GPGGA,22824.1,4327.72194482,N,14148.34523587,E,4,7.0,1.6,108.10799999999999,M,31.59,M,2.1,0000*41,43.46203241366667,141.80575393116666,565181.5580236726,4812440.070526419
701,[2021-01-29 11:28:25.600] $GPGGA,22824.2,4327.72194406,N,14148.3452402,E,4,7.0,1.6,108.11200000000001,M,31.59,M,2.2,0000*49,43.462032401,141.80575400333336,565181.5638752353,4812440.0691761635
702,[2021-01-29 11:28:25.694] $GPGGA,22824.3,4327.72194528,N,14148.34523705,E,4,7.0,1.6,108.1,M,31.59,M,2.3,0000*40,43.462032421333326,141.80575395083335,565181.5596063785,4812440.071393253
703,[2021-01-29 11:28:25.803] $GPGGA,22824.4,4327.72194414,N,14148.34523979,E,4,7.0,1.6,108.105,M,31.59,M,2.4,0000*4E,43.462032402333335,141.80575399650002,565181.5633210174,4812440.069318892
704,[2021-01-29 11:28:25.897] $GPGGA,22824.5,4327.72194435,N,14148.34523918,E,4,7.0,1.6,108.10700000000001,M,31.59,M,2.5,0000*48,43.462032405833334,141.80575398633334,565181.5624948192,4812440.069699639
705,[2021-01-29 11:28:26.006] $GPGGA,22824.6,4327.7219437,N,14148.3452391,E,4,7.0,1.6,108.103,M,31.59,M,2.6,0000*42,43.46203239500001,141.80575398499997,565181.5623985934,4812440.068495468
706,[2021-01-29 11:28:26.084] $GPGGA,22824.7,4327.72194505,N,14148.3452377,E,4,7.0,1.6,108.10799999999999,M,31.59,M,2.7,0000*45,43.4620324175,141.80575396166665,565181.5604868614,4812440.07097601
707,[2021-01-29 11:28:26.194] $GPGGA,22824.8,4327.72194407,N,14148.34524228,E,4,7.0,1.6,108.11,M,31.59,M,1.8,0000*43,43.46203240116667,141.80575403800003,565181.5666794309,4812440.069221803
708,[2021-01-29 11:28:26.289] $GPGGA,22824.9,4327.72194462,N,14148.34524087,E,4,7.0,1.6,108.111,M,31.59,M,1.9,0000*46,43.462032410333336,141.8057540145,565181.5647685381,4812440.070221443
709,[2021-01-29 11:28:26.398] $GPGGA,22825.0,4327.72194414,N,14148.34524418,E,4,7.0,1.6,108.11399999999999,M,31.59,M,2.0,0000*42,43.462032402333335,141.80575406966668,565181.5692398638,4812440.069376154
710,[2021-01-29 11:28:26.492] $GPGGA,22825.1,4327.72194344,N,14148.34524184,E,4,7.0,1.6,108.11,M,31.59,M,2.1,0000*44,43.46203239066667,141.80575403066666,565181.5660974764,4812440.068049956
711,[2021-01-29 11:28:26.601] $GPGGA,22825.2,4327.7219439,N,14148.34524393,E,4,7.0,1.6,108.10799999999999,M,31.59,M,2.2,0000*40,43.462032398333335,141.80575406550003,565181.5689070983,4812440.068928661
712,[2021-01-29 11:28:26.695] $GPGGA,22825.3,4327.72194279,N,14148.34524178,E,4,7.0,1.6,108.115,M,31.59,M,2.3,0000*4D,43.46203237983333,141.80575402966667,565181.566028221,4812440.066846047
713,[2021-01-29 11:28:26.804] $GPGGA,22825.4,4327.72194323,N,14148.34524524,E,4,7.0,1.6,108.113,M,31.59,M,2.4,0000*48,43.462032387166666,141.80575408733333,565181.5706853105,4812440.0677056005
714,[2021-01-29 11:28:26.898] $GPGGA,22825.5,4327.72194488,N,14148.34524312,E,4,7.0,1.6,108.109,M,31.59,M,2.5,0000*46,43.46203241466666,141.805754052,565181.5677974592,4812440.070732039
715,[2021-01-29 11:28:26.992] $GPGGA,22825.6,4327.72194224,N,14148.345242,E,4,7.0,1.6,108.111,M,31.59,M,2.6,0000*4D,43.46203237066667,141.80575403333333,565181.5663346845,4812440.0658308845
716,[2021-01-29 11:28:27.086] $GPGGA,22825.7,4327.72194755,N,14148.34523705,E,4,7.0,1.6,108.113,M,31.59,M,1.7,0000*48,43.462032459166664,141.80575395083335,565181.5595657304,4812440.075594944
717,[2021-01-29 11:28:27.195] $GPGGA,22825.8,4327.72194734,N,14148.34523964,E,4,7.0,1.6,108.115,M,31.59,M,1.8,0000*40,43.46203245566667,141.80575399399999,565181.563061474,4812440.075240025
718,[2021-01-29 11:28:27.291] $GPGGA,22825.9,4327.72194628,N,14148.34523888,E,4,7.0,1.6,108.111,M,31.59,M,1.9,0000*4B,43.46203243800001,141.80575398133334,565181.5620557814,4812440.0732680885
719,[2021-01-29 11:28:27.400] $GPGGA,22826.0,4327.72194556,N,14148.34523881,E,4,7.0,1.6,108.11200000000001,M,31.59,M,2.0,0000*4B,43.46203242599999,141.80575398016668,565181.5619742973,4812440.071934479
720,[2021-01-29 11:28:27.494] $GPGGA,22826.1,4327.72194802,N,14148.34523467,E,4,7.0,1.6,108.12200000000001,M,31.59,M,2.1,0000*40,43.46203246700001,141.80575391116668,565181.5563484636,4812440.076433856
721,[2021-01-29 11:28:27.603] $GPGGA,22826.2,4327.72194288,N,14148.34524235,E,4,7.0,1.6,108.10799999999999,M,31.59,M,2.2,0000*46,43.46203238133334,141.8057540391667,565181.5667951168,4812440.067020067
722,[2021-01-29 11:28:27.697] $GPGGA,22826.3,4327.72194689,N,14148.3452419,E,4,7.0,1.6,108.119,M,31.59,M,2.3,0000*4F,43.46203244816667,141.80575403166668,565181.5661165951,4812440.074436569
723,[2021-01-29 11:28:27.791] $GPGGA,22826.4,4327.721947,N,14148.34523874,E,4,7.0,1.6,108.11200000000001,M,31.59,M,2.4,0000*40,43.462032449999995,141.805753979,565181.5618541327,4812440.074598956
724,[2021-01-29 11:28:27.884] $GPGGA,22826.5,4327.72194462,N,14148.34524046,E,4,7.0,1.6,108.11200000000001,M,31.59,M,2.5,0000*49,43.462032410333336,141.80575400766668,565181.5642157528,4812440.070216095
725,[2021-01-29 11:28:27.994] $GPGGA,22826.6,4327.72194582,N,14148.34524196,E,4,7.0,1.6,108.11200000000001,M,31.59,M,2.6,0000*4A,43.46203243033332,141.80575403266664,565181.566216648,4812440.072456816
726,[2021-01-29 11:28:28.088] $GPGGA,22826.7,4327.72194441,N,14148.34524107,E,4,7.0,1.6,108.109,M,31.59,M,2.7,0000*46,43.46203240683333,141.8057540178333,565181.565041947,4812440.069835349
727,[2021-01-29 11:28:28.197] $GPGGA,22826.8,4327.72194799,N,14148.34523886,E,4,7.0,1.6,108.109,M,31.59,M,2.8,0000*47,43.462032466500006,141.805753981,565181.5619981966,4812440.07643298
728,[2021-01-29 11:28:28.292] $GPGGA,22826.9,4327.72194444,N,14148.34524236,E,4,7.0,1.6,108.115,M,31.59,M,2.9,0000*4F,43.462032407333325,141.80575403933332,565181.5667806624,4812440.0699077025
729,[2021-01-29 11:28:28.402] $GPGGA,22827.0,4327.72194638,N,14148.34524214,E,4,7.0,1.6,108.104,M,31.59,M,3.0,0000*46,43.46203243966667,141.80575403566664,565181.5664493066,4812440.0734957075
730,[2021-01-29 11:28:28.495] $GPGGA,22827.1,4327.72194605,N,14148.34524036,E,4,7.0,1.6,108.11399999999999,M,31.59,M,3.1,0000*4B,43.462032434166666,141.80575400600003,565181.564055323,4812440.072861671
731,[2021-01-29 11:28:28.605] $GPGGA,22827.2,4327.72194638,N,14148.34524196,E,4,7.0,1.6,108.10700000000001,M,31.59,M,3.2,0000*4C,43.46203243966667,141.80575403266664,565181.5662066202,4812440.07349336
732,[2021-01-29 11:28:28.683] $GPGGA,22827.3,4327.72194434,N,14148.3452415,E,4,7.0,1.6,108.10799999999999,M,31.59,M,3.3,0000*47,43.46203240566667,141.80575402499997,565181.5656229499,4812440.06971139
733,[2021-01-29 11:28:28.792] $GPGGA,22827.4,4327.7219481,N,14148.3452421,E,4,7.0,1.6,108.10799999999999,M,31.59,M,3.4,0000*4A,43.46203246833334,141.805754035,565181.5663645786,4812440.076678846
734,[2021-01-29 11:28:28.886] $GPGGA,22827.5,4327.72194606,N,14148.34524303,E,4,7.0,1.6,108.10700000000001,M,31.59,M,3.5,0000*4F,43.46203243433334,141.80575405049998,565181.567654986,4812440.072915006
735,[2021-01-29 11:28:28.995] $GPGGA,22827.6,4327.72194461,N,14148.34523961,E,4,7.0,1.6,108.111,M,31.59,M,3.6,0000*42,43.462032410166664,141.80575399350002,565181.5630699149,4812440.070186499
736,[2021-01-29 11:28:29.089] $GPGGA,22827.7,4327.72194585,N,14148.34524331,E,4,7.0,1.6,108.111,M,31.59,M,3.7,0000*41,43.46203243083335,141.80575405516663,565181.568036256,4812440.072529957
737,[2021-01-29 11:28:29.198] $GPGGA,22827.8,4327.72194678,N,14148.34523992,E,4,7.0,1.6,108.11,M,31.59,M,3.8,0000*45,43.462032446333325,141.80575399866666,565181.5634490154,4812440.074207136
738,[2021-01-29 11:28:29.294] $GPGGA,22827.9,4327.72194777,N,14148.34524163,E,4,7.0,1.6,108.105,M,31.59,M,3.9,0000*4E,43.462032462833335,141.80575402716667,565181.5657368076,4812440.076061897
739,[2021-01-29 11:28:29.403] $GPGGA,22828.0,4327.72194712,N,14148.34524077,E,4,7.0,1.6,108.10799999999999,M,31.59,M,4.0,0000*4C,43.462032451999995,141.80575401283335,565181.564588946,4812440.07484755
740,[2021-01-29 11:28:29.497] $GPGGA,22828.1,4327.72194791,N,14148.34524229,E,4,7.0,1.6,108.104,M,31.59,M,2.1,0000*44,43.46203246516667,141.80575403816667,565181.5666241492,4812440.076329641
741,[2021-01-29 11:28:29.591] $GPGGA,22828.2,4327.72194718,N,14148.34524213,E,4,7.0,1.6,108.096,M,31.59,M,2.2,0000*46,43.462032453000006,141.8057540355,565181.5664215011,4812440.074976349
742,[2021-01-29 11:28:29.700] $GPGGA,22828.3,4327.72194863,N,14148.34524144,E,4,7.0,1.6,108.1,M,31.59,M,2.3,0000*4A,43.462032477166666,141.805754024,565181.5654652395,4812440.077651247
743,[2021-01-29 11:28:29.794] $GPGGA,22828.4,4327.72194834,N,14148.3452403,E,4,7.0,1.6,108.105,M,31.59,M,2.4,0000*4F,43.46203247233334,141.805754005,565181.5639334199,4812440.077099599
744,[2021-01-29 11:28:29.887] $GPGGA,22828.5,4327.72194787,N,14148.34524273,E,4,7.0,1.6,108.104,M,31.59,M,2.5,0000*4C,43.4620324645,141.80575404549998,565181.567218097,4812440.07626134
745,[2021-01-29 11:28:29.997] $GPGGA,22828.6,4327.7219485,N,14148.34524232,E,4,7.0,1.6,108.09700000000001,M,31.59,M,2.6,0000*47,43.462032474999994,141.80575403866666,565181.5666540327,4812440.077422099
746,[2021-01-29 11:28:30.091] $GPGGA,22828.7,4327.72194869,N,14148.34523963,E,4,7.0,1.6,108.103,M,31.59,M,2.7,0000*49,43.46203247816667,141.80575399383335,565181.5630238198,4812440.077738698
747,[2021-01-29 11:28:30.200] $GPGGA,22828.8,4327.72195023,N,14148.34524021,E,4,7.0,1.6,108.11200000000001,M,31.59,M,1.8,0000*45,43.46203250383334,141.8057540035,565181.5637782309,4812440.08059675
748,[2021-01-29 11:28:30.294] $GPGGA,22828.9,4327.72194884,N,14148.34523925,E,4,7.0,1.6,108.117,M,31.59,M,1.9,0000*4E,43.46203248066666,141.8057539875,565181.562508795,4812440.078011383
749,[2021-01-29 11:28:30.403] $GPGGA,22829.0,4327.72195081,N,14148.34524041,E,4,7.0,1.6,108.118,M,31.59,M,2.0,0000*43,43.46203251349999,141.80575400683335,565181.5640374976,4812440.081672916
750,[2021-01-29 11:28:30.497] $GPGGA,22829.1,4327.72194901,N,14148.34524061,E,4,7.0,1.6,108.11200000000001,M,31.59,M,2.1,0000*4B,43.46203248349999,141.80575401016668,565181.5643393823,4812440.078343787
751,[2021-01-29 11:28:30.591] $GPGGA,22829.2,4327.72194902,N,14148.34524037,E,4,7.0,1.6,108.12200000000001,M,31.59,M,2.2,0000*48,43.46203248366666,141.80575400616667,565181.5640156202,4812440.078359168
752,[2021-01-29 11:28:30.685] $GPGGA,22829.3,4327.72194995,N,14148.34523894,E,4,7.0,1.6,108.109,M,31.59,M,2.3,0000*49,43.46203249916667,141.80575398233336,565181.5620709606,4812440.080061913
753,[2021-01-29 11:28:30.794] $GPGGA,22829.4,4327.7219491,N,14148.34523933,E,4,7.0,1.6,108.116,M,31.59,M,2.4,0000*46,43.462032484999995,141.80575398883332,565181.5626119982,4812440.07849368
754,[2021-01-29 11:28:30.888] $GPGGA,22829.5,4327.72194916,N,14148.34523989,E,4,7.0,1.6,108.11399999999999,M,31.59,M,2.5,0000*43,43.462032486,141.80575399816667,565181.563365949,4812440.078612042
755,[2021-01-29 11:28:30.997] $GPGGA,22829.6,4327.72194894,N,14148.34523821,E,4,7.0,1.6,108.115,M,31.59,M,2.6,0000*4A,43.46203248233334,141.80575397016668,565181.561104819,4812440.078182918
756,[2021-01-29 11:28:31.075] $GPGGA,22829.7,4327.72194843,N,14148.34523989,E,4,7.0,1.6,108.12700000000001,M,31.59,M,2.7,0000*42,43.46203247383334,141.80575399816667,565181.5633790209,4812440.077260838
757,[2021-01-29 11:28:31.184] $GPGGA,22829.8,4327.72194693,N,14148.34523835,E,4,7.0,1.6,108.105,M,31.59,M,1.8,0000*44,43.462032448833334,141.8057539725,565181.5613295672,4812440.0744643025
758,[2021-01-29 11:28:31.295] $GPGGA,22829.9,4327.72194729,N,14148.34523852,E,4,7.0,1.6,108.119,M,31.59,M,1.9,0000*48,43.46203245483332,141.80575397533332,565181.561552321,4812440.075132866
759,[2021-01-29 11:28:31.405] $GPGGA,22830.0,4327.7219463,N,14148.34524122,E,4,7.0,1.6,108.11200000000001,M,31.59,M,2.0,0000*48,43.46203243833334,141.80575402033332,565181.5652103432,4812440.07333563
760,[2021-01-29 11:28:31.483] $GPGGA,22830.1,4327.72194873,N,14148.34524066,E,4,7.0,1.6,108.10600000000001,M,31.59,M,2.1,0000*45,43.462032478833336,141.805754011,565181.5644118068,4812440.077826171
761,[2021-01-29 11:28:31.592] $GPGGA,22830.2,4327.72194476,N,14148.34523722,E,4,7.0,1.6,108.115,M,31.59,M,2.2,0000*4E,43.46203241266667,141.8057539536667,565181.5598448963,4812440.070432969
762,[2021-01-29 11:28:31.686] $GPGGA,22830.3,4327.72194874,N,14148.34523994,E,4,7.0,1.6,108.11399999999999,M,31.59,M,2.3,0000*42,43.462032478999994,141.805753999,565181.5634408825,4812440.077835288
763,[2021-01-29 11:28:31.795] $GPGGA,22830.4,4327.72194803,N,14148.34523802,E,4,7.0,1.6,108.117,M,31.59,M,2.4,0000*4F,43.462032467166665,141.805753967,565181.5608649416,4812440.076496061
764,[2021-01-29 11:28:31.889] $GPGGA,22830.5,4327.72194633,N,14148.34523805,E,4,7.0,1.6,108.11,M,31.59,M,2.5,0000*42,43.46203243883333,141.8057539675,565181.5609358334,4812440.07334981
765,[2021-01-29 11:28:31.999] $GPGGA,22830.6,4327.72194754,N,14148.34523918,E,4,7.0,1.6,108.11399999999999,M,31.59,M,2.6,0000*4B,43.46203245899999,141.80575398633334,565181.5624376968,4812440.075604215
766,[2021-01-29 11:28:32.092] $GPGGA,22830.7,4327.7219489,N,14148.34524082,E,4,7.0,1.6,108.11200000000001,M,31.59,M,2.7,0000*47,43.46203248166666,141.80575401366664,565181.5646244826,4812440.07814292
767,[2021-01-29 11:28:32.202] $GPGGA,22830.8,4327.7219462,N,14148.3452366,E,4,7.0,1.6,108.115,M,31.59,M,1.8,0000*4B,43.462032436666675,141.80575394333331,565181.5589831866,4812440.073090273
768,[2021-01-29 11:28:32.282] $GPGGA,22830.9,4327.72194787,N,14148.34523588,E,4,7.0,1.6,108.117,M,31.59,M,1.9,0000*40,43.4620324645,141.80575393133336,565181.5579825413,4812440.076171993
769,[2021-01-29 11:28:32.407] $GPGGA,22831.0,4327.72194997,N,14148.34523387,E,4,7.0,1.6,108.116,M,31.59,M,2.0,0000*45,43.462032499500005,141.80575389783334,565181.5552349393,4812440.080032803
770,[2021-01-29 11:28:32.485] $GPGGA,22831.1,4327.72194785,N,14148.34523647,E,4,7.0,1.6,108.109,M,31.59,M,2.1,0000*4F,43.46203246416667,141.8057539411667,565181.558778371,4812440.07614267
771,[2021-01-29 11:28:32.594] $GPGGA,22831.2,4327.7219501,N,14148.3452364,E,4,7.0,1.6,108.11399999999999,M,31.59,M,2.2,0000*4E,43.46203250166666,141.80575394000002,565181.558643702,4812440.080306427
772,[2021-01-29 11:28:32.688] $GPGGA,22831.3,4327.72194858,N,14148.34523508,E,4,7.0,1.6,108.12,M,31.59,M,2.3,0000*43,43.46203247633333,141.80575391800002,565181.5568912212,4812440.077475743
773,[2021-01-29 11:28:32.797] $GPGGA,22831.4,4327.72194941,N,14148.34523681,E,4,7.0,1.6,108.105,M,31.59,M,2.4,0000*4F,43.46203249016667,141.80575394683336,565181.5592088449,4812440.07903461
774,[2021-01-29 11:28:32.891] $GPGGA,22831.5,4327.72194771,N,14148.3452356,E,4,7.0,1.6,108.115,M,31.59,M,2.5,0000*4F,43.46203246183333,141.80575392666665,565181.5576078906,4812440.075872186
775,[2021-01-29 11:28:33.001] $GPGGA,22831.6,4327.72194775,N,14148.34523767,E,4,7.0,1.6,108.118,M,31.59,M,2.6,0000*43,43.462032462500005,141.80575396116666,565181.560398067,4812440.075973226
776,[2021-01-29 11:28:33.094] $GPGGA,22831.7,4327.72194755,N,14148.34523963,E,4,8.0,1.4,108.133,M,31.59,M,1.7,0000*4C,43.462032459166664,141.80575399383335,565181.5630442335,4812440.075628596
777,[2021-01-29 11:28:33.204] $GPGGA,22831.8,4327.72194769,N,14148.3452415,E,4,8.0,1.4,108.12299999999999,M,31.59,M,1.8,0000*4D,43.4620324615,141.80575402499997,565181.5655629624,4812440.075912124
778,[2021-01-29 11:28:33.283] $GPGGA,22831.9,4327.72194685,N,14148.34524214,E,4,8.0,1.4,108.12700000000001,M,31.59,M,1.9,0000*49,43.4620324475,141.80575403566664,565181.5664408903,4812440.074365659
779,[2021-01-29 11:28:33.393] $GPGGA,22832.0,4327.72194722,N,14148.34524224,E,4,8.0,1.4,108.12100000000001,M,31.59,M,2.0,0000*40,43.46203245366667,141.80575403733334,565181.5665690922,4812440.075051823
780,[2021-01-29 11:28:33.471] $GPGGA,22832.1,4327.72194773,N,14148.34523888,E,4,8.0,1.4,108.124,M,31.59,M,2.1,0000*4A,43.462032462166654,141.80575398133334,565181.5620298167,4812440.075951987
781,[2021-01-29 11:28:33.596] $GPGGA,22832.2,4327.72194612,N,14148.34524213,E,4,8.0,1.4,108.12700000000001,M,31.59,M,2.2,0000*40,43.46203243533334,141.8057540355,565181.5664404822,4812440.073014326
782,[2021-01-29 11:28:33.690] $GPGGA,22832.3,4327.72194856,N,14148.34523905,E,4,8.0,1.4,108.125,M,31.59,M,2.3,0000*47,43.462032476,141.8057539841667,565181.5622441603,4812440.077490506
783,[2021-01-29 11:28:33.799] $GPGGA,22832.4,4327.7219468,N,14148.34524321,E,4,8.0,1.4,108.125,M,31.59,M,2.4,0000*49,43.462032446666676,141.80575405349998,565181.5678844214,4812440.074287069
784,[2021-01-29 11:28:33.893] $GPGGA,22832.5,4327.72194799,N,14148.34524287,E,4,8.0,1.4,108.119,M,31.59,M,2.5,0000*42,43.462032466500006,141.80575404783332,565181.567404704,4812440.076485283
785,[2021-01-29 11:28:34.002] $GPGGA,22832.6,4327.72194762,N,14148.34524299,E,4,8.0,1.4,108.12200000000001,M,31.59,M,2.6,0000*41,43.462032460333326,141.80575404983335,565181.5675731231,4812440.075801989
786,[2021-01-29 11:28:34.096] $GPGGA,22832.7,4327.72194775,N,14148.34524085,E,4,8.0,1.4,108.125,M,31.59,M,2.7,0000*4F,43.462032462500005,141.80575401416667,565181.5646855237,4812440.076014703
787,[2021-01-29 11:28:34.205] $GPGGA,22832.8,4327.72194517,N,14148.34524414,E,4,8.0,1.4,108.12200000000001,M,31.59,M,1.8,0000*41,43.46203241950001,141.80575406900002,565181.5691674893,4812440.071282127
788,[2021-01-29 11:28:34.286] $GPGGA,22832.9,4327.72194344,N,14148.34524366,E,4,8.0,1.4,108.126,M,31.59,M,1.9,0000*47,43.46203239066667,141.80575406100002,565181.5685513058,4812440.068073695
789,[2021-01-29 11:28:34.395] $GPGGA,22833.0,4327.72194581,N,14148.34524417,E,4,8.0,1.4,108.12799999999999,M,31.59,M,2.0,0000*45,43.462032430166666,141.80575406949998,565181.5691964754,4812440.072467133
790,[2021-01-29 11:28:34.489] $GPGGA,22833.1,4327.72194453,N,14148.34524246,E,4,8.0,1.4,108.124,M,31.59,M,2.1,0000*45,43.46203240883333,141.80575404099997,565181.566913876,4812440.070075595
791,[2021-01-29 11:28:34.599] $GPGGA,22833.2,4327.72194516,N,14148.34524335,E,4,8.0,1.4,108.119,M,31.59,M,2.2,0000*4E,43.46203241933334,141.80575405583338,565181.5681025484,4812440.071253312
792,[2021-01-29 11:28:34.692] $GPGGA,22833.3,4327.72194502,N,14148.3452467,E,4,8.0,1.4,108.126,M,31.59,M,2.3,0000*43,43.462032417,141.8057541116667,565181.5726217142,4812440.071037872
793,[2021-01-29 11:28:34.802] $GPGGA,22833.4,4327.72194194,N,14148.34524034,E,4,8.0,1.4,108.132,M,31.59,M,2.4,0000*4B,43.462032365666666,141.80575400566667,565181.5641019512,4812440.065253943
794,[2021-01-29 11:28:34.895] $GPGGA,22833.5,4327.72194466,N,14148.34524555,E,4,8.0,1.4,108.12899999999999,M,31.59,M,2.5,0000*4B,43.462032411,141.80575409249997,565181.5710776597,4812440.070356524
795,[2021-01-29 11:28:35.005] $GPGGA,22833.6,4327.72194422,N,14148.3452454,E,4,8.0,1.4,108.124,M,31.59,M,2.6,0000*42,43.46203240366667,141.80575409,565181.5708833028,4812440.069540143
796,[2021-01-29 11:28:35.083] $GPGGA,22833.7,4327.72194582,N,14148.34524188,E,4,8.0,1.4,108.116,M,31.59,M,1.7,0000*4B,43.46203243033332,141.80575403133332,565181.566108789,4812440.072455773
797,[2021-01-29 11:28:35.192] $GPGGA,22833.8,4327.72194601,N,14148.34524461,E,4,8.0,1.4,108.117,M,31.59,M,1.8,0000*40,43.462032433499985,141.80575407683332,565181.5697861278,4812440.072843065
798,[2021-01-29 11:28:35.287] $GPGGA,22833.9,4327.72194685,N,14148.34524381,E,4,8.0,1.4,108.12200000000001,M,31.59,M,1.9,0000*43,43.4620324475,141.8057540635,565181.5686924799,4812440.074387442
799,[2021-01-29 11:28:35.397] $GPGGA,22834.0,4327.72194805,N,14148.34524485,E,4,8.0,1.4,108.12200000000001,M,31.59,M,2.0,0000*42,43.4620324675,141.80575408083334,565181.5700731812,4812440.076622166
800,[2021-01-29 11:28:35.490] $GPGGA,22834.1,4327.72194672,N,14148.34524341,E,4,8.0,1.4,108.113,M,31.59,M,2.1,0000*41,43.46203244533334,141.80575405683334,565181.5681555066,4812440.074141601
801,[2021-01-29 11:28:35.600] $GPGGA,22834.2,4327.72194773,N,14148.34524367,E,4,8.0,1.4,108.12299999999999,M,31.59,M,2.2,0000*46,43.462032462166654,141.8057540611667,565181.5684879703,4812440.076014465
802,[2021-01-29 11:28:35.693] $GPGGA,22834.3,4327.72194496,N,14148.34524624,E,4,8.0,1.4,108.119,M,31.59,M,2.3,0000*45,43.46203241599999,141.80575410400002,565181.5720025908,4812440.070920814
803,[2021-01-29 11:28:35.803] $GPGGA,22834.4,4327.72194833,N,14148.34524477,E,4,8.0,1.4,108.11399999999999,M,31.59,M,2.4,0000*4F,43.462032472166655,141.8057540795,565181.5699603042,4812440.077139392
804,[2021-01-29 11:28:35.896] $GPGGA,22834.5,4327.72194752,N,14148.34524249,E,4,8.0,1.4,108.117,M,31.59,M,2.5,0000*4F,43.46203245866666,141.80575404150002,565181.5669007854,4812440.075610371
805,[2021-01-29 11:28:36.006] $GPGGA,22834.6,4327.72194741,N,14148.3452453,E,4,8.0,1.4,108.116,M,31.59,M,2.6,0000*45,43.462032456833334,141.80575408833334,565181.5706913573,4812440.075443417
806,[2021-01-29 11:28:36.084] $GPGGA,22834.7,4327.72194637,N,14148.34524447,E,4,8.0,1.4,108.125,M,31.59,M,2.7,0000*44,43.4620324395,141.8057540745,565181.5695909235,4812440.073507588
807,[2021-01-29 11:28:36.193] $GPGGA,22834.8,4327.72194725,N,14148.34524219,E,4,8.0,1.4,108.12299999999999,M,31.59,M,1.8,0000*4E,43.46203245416667,141.80575403650002,565181.5665011444,4812440.075106698
808,[2021-01-29 11:28:36.289] $GPGGA,22834.9,4327.72194632,N,14148.34524642,E,4,8.0,1.4,108.117,M,31.59,M,1.9,0000*44,43.46203243866666,141.805754107,565181.5722209219,4812440.0734404735
809,[2021-01-29 11:28:36.398] $GPGGA,22835.0,4327.72194694,N,14148.34524406,E,4,8.0,1.4,108.111,M,31.59,M,2.0,0000*4E,43.46203244899999,141.80575406766664,565181.5690279314,4812440.0745572895
810,[2021-01-29 11:28:36.492] $GPGGA,22835.1,4327.7219489,N,14148.34524399,E,4,8.0,1.4,108.11399999999999,M,31.59,M,2.1,0000*40,43.46203248166666,141.8057540665,565181.5688984573,4812440.078184268
811,[2021-01-29 11:28:36.601] $GPGGA,22835.2,4327.72194786,N,14148.34524173,E,4,8.0,1.4,108.12,M,31.59,M,2.2,0000*49,43.46203246433334,141.80575402883332,565181.5658700193,4812440.076229788
812,[2021-01-29 11:28:36.695] $GPGGA,22835.3,4327.72194781,N,14148.34524494,E,4,8.0,1.4,108.115,M,31.59,M,2.3,0000*44,43.46203246349999,141.80575408233335,565181.570198822,4812440.076179106
813,[2021-01-29 11:28:36.804] $GPGGA,22835.4,4327.72194799,N,14148.34524614,E,4,8.0,1.4,108.115,M,31.59,M,2.4,0000*47,43.462032466500006,141.8057541023333,565181.5718135041,4812440.0765279345
814,[2021-01-29 11:28:36.882] $GPGGA,22835.5,4327.72194847,N,14148.34524434,E,4,8.0,1.4,108.113,M,31.59,M,2.5,0000*4D,43.4620324745,141.80575407233334,565181.5693780498,4812440.077392919
815,[2021-01-29 11:28:36.992] $GPGGA,22835.6,4327.72194944,N,14148.34524487,E,4,8.0,1.4,108.116,M,31.59,M,2.6,0000*42,43.46203249066666,141.80575408116667,565181.5700752551,4812440.0791952675
816,[2021-01-29 11:28:37.085] $GPGGA,22835.7,4327.72194763,N,14148.34524365,E,4,8.0,1.4,108.11399999999999,M,31.59,M,1.7,0000*43,43.4620324605,141.80575406083332,565181.5684627926,4812440.075829108
817,[2021-01-29 11:28:37.195] $GPGGA,22835.8,4327.72194641,N,14148.34524164,E,4,8.0,1.4,108.11399999999999,M,31.59,M,1.8,0000*41,43.462032440166666,141.8057540273333,565181.5657746409,4812440.073544714
818,[2021-01-29 11:28:37.290] $GPGGA,22835.9,4327.7219494,N,14148.34524066,E,4,8.0,1.4,108.109,M,31.59,M,1.9,0000*40,43.46203249,141.805754011,565181.5643998093,4812440.079066317
819,[2021-01-29 11:28:37.399] $GPGGA,22836.0,4327.72194839,N,14148.34524429,E,4,8.0,1.4,108.11,M,31.59,M,2.0,0000*48,43.462032473166666,141.8057540715,565181.5693120677,4812440.07724419
820,[2021-01-29 11:28:37.493] $GPGGA,22836.1,4327.72194868,N,14148.34524402,E,4,8.0,1.4,108.12299999999999,M,31.59,M,2.1,0000*45,43.46203247800001,141.805754067,565181.5689428452,4812440.077777449
821,[2021-01-29 11:28:37.602] $GPGGA,22836.2,4327.72194863,N,14148.34524562,E,4,8.0,1.4,108.105,M,31.59,M,2.2,0000*4D,43.462032477166666,141.80575409366665,565181.5711009512,4812440.07770577
822,[2021-01-29 11:28:37.696] $GPGGA,22836.3,4327.72194779,N,14148.34524395,E,4,8.0,1.4,108.11,M,31.59,M,2.3,0000*43,43.462032463166665,141.8057540658333,565181.5688644012,4812440.076129176
823,[2021-01-29 11:28:37.790] $GPGGA,22836.4,4327.72194779,N,14148.34524408,E,4,8.0,1.4,108.124,M,31.59,M,2.4,0000*47,43.462032463166665,141.805754068,565181.5690396769,4812440.076130871
824,[2021-01-29 11:28:37.884] $GPGGA,22836.5,4327.72194959,N,14148.34524375,E,4,8.0,1.4,108.10799999999999,M,31.59,M,2.5,0000*48,43.46203249316667,141.8057540625,565181.5685625207,4812440.079458305
825,[2021-01-29 11:28:37.993] $GPGGA,22836.6,4327.72194889,N,14148.34524241,E,4,8.0,1.4,108.10600000000001,M,31.59,M,2.6,0000*4C,43.4620324815,141.80575404016665,565181.5667683901,4812440.078145151
826,[2021-01-29 11:28:38.087] $GPGGA,22836.7,4327.72194975,N,14148.34524393,E,4,8.0,1.4,108.10799999999999,M,31.59,M,2.7,0000*4E,43.462032495833334,141.80575406550003,565181.568802344,4812440.079756807
827,[2021-01-29 11:28:38.196] $GPGGA,22836.8,4327.72194904,N,14148.34524563,E,4,8.0,1.4,108.12200000000001,M,31.59,M,1.8,0000*4A,43.462032484,141.80575409383334,565181.5711070936,4812440.078464794
828,[2021-01-29 11:28:38.291] $GPGGA,22836.9,4327.72194908,N,14148.34524419,E,4,8.0,1.4,108.12200000000001,M,31.59,M,1.9,0000*4A,43.462032484666665,141.80575406983334,565181.5691648868,4812440.078520051
829,[2021-01-29 11:28:38.401] $GPGGA,22837.0,4327.72195018,N,14148.34524359,E,4,8.0,1.4,108.11399999999999,M,31.59,M,2.0,0000*47,43.462032502999996,141.80575405983333,565181.5683362357,4812440.080548286
830,[2021-01-29 11:28:38.495] $GPGGA,22837.1,4327.72195158,N,14148.34524344,E,4,8.0,1.4,108.119,M,31.59,M,2.1,0000*43,43.46203252633333,141.80575405733333,565181.5681089264,4812440.083137682
831,[2021-01-29 11:28:38.604] $GPGGA,22837.2,4327.72195028,N,14148.34524407,E,4,8.0,1.4,108.115,M,31.59,M,2.2,0000*49,43.46203250466667,141.80575406783333,565181.5689816072,4812440.0807396425
832,[2021-01-29 11:28:38.698] $GPGGA,22837.3,4327.72195091,N,14148.34524409,E,4,8.0,1.4,108.117,M,31.59,M,2.3,0000*47,43.462032515166655,141.8057540681667,565181.5689972943,4812440.081906011
833,[2021-01-29 11:28:38.792] $GPGGA,22837.4,4327.72195162,N,14148.3452459,E,4,8.0,1.4,108.105,M,31.59,M,2.4,0000*48,43.46203252700001,141.80575409833335,565181.5714249237,4812440.083243808
834,[2021-01-29 11:28:38.885] $GPGGA,22837.5,4327.72195104,N,14148.34524555,E,4,8.0,1.4,108.116,M,31.59,M,2.5,0000*43,43.462032517333334,141.80575409249997,565181.570963415,4812440.082165682
835,[2021-01-29 11:28:38.995] $GPGGA,22837.6,4327.72195078,N,14148.34524457,E,4,8.0,1.4,108.12,M,31.59,M,2.6,0000*4F,43.462032513,141.8057540761667,565181.5696467843,4812440.081671648
836,[2021-01-29 11:28:39.073] $GPGGA,22837.7,4327.72195185,N,14148.34524613,E,4,8.0,1.4,108.115,M,31.59,M,2.7,0000*48,43.462032530833326,141.80575410216667,565181.5717309042,4812440.083672529
837,[2021-01-29 11:28:39.198] $GPGGA,22837.8,4327.72194959,N,14148.3452412,E,4,8.0,1.4,108.11399999999999,M,31.59,M,1.8,0000*45,43.46203249316667,141.80575402000002,565181.5651244681,4812440.079425044
838,[2021-01-29 11:28:39.293] $GPGGA,22837.9,4327.72194998,N,14148.34524303,E,4,8.0,1.4,108.10600000000001,M,31.59,M,1.9,0000*48,43.46203249966668,141.80575405049998,565181.5675847918,4812440.080170791
839,[2021-01-29 11:28:39.403] $GPGGA,22838.0,4327.7219515,N,14148.34524219,E,4,8.0,1.4,108.103,M,31.59,M,2.0,0000*46,43.462032525,141.80575403650002,565181.566425041,4812440.0829733
840,[2021-01-29 11:28:39.496] $GPGGA,22838.1,4327.72195183,N,14148.34524383,E,4,8.0,1.4,108.103,M,31.59,M,2.1,0000*4A,43.462032530500004,141.80575406383332,565181.5686302687,4812440.083605511
841,[2021-01-29 11:28:39.606] $GPGGA,22838.2,4327.7219521,N,14148.34524207,E,4,8.0,1.4,108.102,M,31.59,M,2.2,0000*4F,43.462032535,141.80575403449998,565181.5662525033,4812440.084082314
842,[2021-01-29 11:28:39.699] $GPGGA,22838.3,4327.72195176,N,14148.34524336,E,4,8.0,1.4,108.103,M,31.59,M,2.3,0000*4E,43.46203252933333,141.805754056,565181.5679978442,4812440.083469811
843,[2021-01-29 11:28:39.793] $GPGGA,22838.4,4327.72194876,N,14148.34524296,E,4,8.0,1.4,108.10600000000001,M,31.59,M,2.4,0000*48,43.462032479333324,141.80575404933333,565181.5675122611,4812440.077911697
844,[2021-01-29 11:28:39.887] $GPGGA,22838.5,4327.72195238,N,14148.34524432,E,4,8.0,1.4,108.109,M,31.59,M,2.5,0000*4E,43.46203253966668,141.805754072,565181.5692810683,4812440.084629933
845,[2021-01-29 11:28:39.996] $GPGGA,22838.6,4327.72195123,N,14148.34524344,E,4,8.0,1.4,108.09200000000001,M,31.59,M,2.6,0000*42,43.4620325205,141.80575405733333,565181.5681151937,4812440.082489844
846,[2021-01-29 11:28:40.090] $GPGGA,22838.7,4327.72194837,N,14148.34524411,E,4,8.0,1.4,108.111,M,31.59,M,2.7,0000*42,43.462032472833336,141.80575406849997,565181.5690697375,4812440.077204823
847,[2021-01-29 11:28:40.199] $GPGGA,22838.8,4327.72194858,N,14148.34524609,E,4,8.0,1.4,108.104,M,31.59,M,1.8,0000*47,43.46203247633333,141.80575410149999,565181.5717355266,4812440.0776193505
848,[2021-01-29 11:28:40.296] $GPGGA,22838.9,4327.72194771,N,14148.34524291,E,4,8.0,1.4,108.11200000000001,M,31.59,M,1.9,0000*41,43.46203246183333,141.8057540485,565181.5674636505,4812440.075967533
849,[2021-01-29 11:28:40.405] $GPGGA,22839.0,4327.72194909,N,14148.34524652,E,4,8.0,1.4,108.10700000000001,M,31.59,M,2.0,0000*4D,43.46203248483332,141.80575410866666,565181.5723061457,4812440.078568951
850,[2021-01-29 11:28:40.499] $GPGGA,22839.1,4327.72194983,N,14148.34524469,E,4,8.0,1.4,108.104,M,31.59,M,2.1,0000*46,43.46203249716667,141.80575407816667,565181.5698255851,4812440.079914797
851,[2021-01-29 11:28:40.592] $GPGGA,22839.2,4327.72194831,N,14148.34524613,E,4,8.0,1.4,108.11399999999999,M,31.59,M,2.2,0000*40,43.46203247183333,141.80575410216667,565181.5717942938,4812440.077120113
852,[2021-01-29 11:28:40.686] $GPGGA,22839.3,4327.72194826,N,14148.34524582,E,4,8.0,1.4,108.10600000000001,M,31.59,M,2.3,0000*4E,43.46203247100001,141.80575409700003,565181.5713772313,4812440.077023522
853,[2021-01-29 11:28:40.795] $GPGGA,22839.4,4327.72195,N,14148.34524614,E,4,8.0,1.4,108.104,M,31.59,M,2.4,0000*4D,43.4620325,141.8057541023333,565181.5717775116,4812440.080248374
854,[2021-01-29 11:28:40.889] $GPGGA,22839.5,4327.72194794,N,14148.34524363,E,4,8.0,1.4,108.11200000000001,M,31.59,M,2.5,0000*44,43.462032465666674,141.80575406049996,565181.5684302731,4812440.076402647
855,[2021-01-29 11:28:40.999] $GPGGA,22839.6,4327.72194857,N,14148.34524747,E,4,8.0,1.4,108.105,M,31.59,M,2.6,0000*40,43.462032476166655,141.80575412450003,565181.5735963034,4812440.07761884
856,[2021-01-29 11:28:41.092] $GPGGA,22839.7,4327.7219467,N,14148.3452443,E,4,8.0,1.4,108.109,M,31.59,M,1.7,0000*47,43.462032445000006,141.80575407166668,565181.5693558141,4812440.07411619
857,[2021-01-29 11:28:41.202] $GPGGA,22839.8,4327.72194836,N,14148.34524458,E,4,8.0,1.4,108.10600000000001,M,31.59,M,1.8,0000*4A,43.462032472666664,141.80575407633333,565181.5697035986,4812440.0771924425
858,[2021-01-29 11:28:41.297] $GPGGA,22839.9,4327.72194593,N,14148.34524534,E,4,8.0,1.4,108.111,M,31.59,M,1.9,0000*45,43.46203243216668,141.80575408899998,565181.5707717856,4812440.072704513
859,[2021-01-29 11:28:41.406] $GPGGA,22840.0,4327.72194619,N,14148.34524355,E,4,8.0,1.4,108.109,M,31.59,M,2.0,0000*41,43.4620324365,141.80575405916667,565181.568353753,4812440.073162414
860,[2021-01-29 11:28:41.484] $GPGGA,22840.1,4327.72194826,N,14148.34524623,E,4,8.0,1.4,108.105,M,31.59,M,2.1,0000*4B,43.46203247100001,141.80575410383332,565181.5719300124,4812440.07702887
861,[2021-01-29 11:28:41.593] $GPGGA,22840.2,4327.72194797,N,14148.34524422,E,4,8.0,1.4,108.10700000000001,M,31.59,M,2.2,0000*4F,43.462032466166654,141.8057540703333,565181.5692252076,4812440.07646587
862,[2021-01-29 11:28:41.687] $GPGGA,22840.3,4327.7219482,N,14148.34524677,E,4,8.0,1.4,108.10799999999999,M,31.59,M,2.3,0000*41,43.46203247,141.80575411283334,565181.5726591478,4812440.076924854
863,[2021-01-29 11:28:41.797] $GPGGA,22840.4,4327.72194775,N,14148.34524589,E,4,8.0,1.4,108.101,M,31.59,M,2.4,0000*45,43.462032462500005,141.80575409816666,565181.5714807385,4812440.0760804415
864,[2021-01-29 11:28:41.890] $GPGGA,22840.5,4327.72194679,N,14148.34524574,E,4,8.0,1.4,108.10700000000001,M,31.59,M,2.5,0000*4C,43.462032446500004,141.80575409566669,565181.571295693,4812440.0743015595
865,[2021-01-29 11:28:42.000] $GPGGA,22840.6,4327.72194954,N,14148.34524435,E,4,8.0,1.4,108.105,M,31.59,M,2.6,0000*4A,43.46203249233334,141.8057540725,565181.5693723718,4812440.079373583
866,[2021-01-29 11:28:42.093] $GPGGA,22840.7,4327.72194684,N,14148.3452491,E,4,8.0,1.4,108.098,M,31.59,M,2.7,0000*47,43.46203244733333,141.8057541516667,565181.5758249409,4812440.074437932
867,[2021-01-29 11:28:42.203] $GPGGA,22840.8,4327.72194604,N,14148.3452443,E,4,8.0,1.4,108.1,M,31.59,M,1.8,0000*43,43.46203243400001,141.80575407166668,565181.5693676326,4812440.072894553
868,[2021-01-29 11:28:42.297] $GPGGA,22840.9,4327.72194448,N,14148.34524428,E,4,8.0,1.4,108.09700000000001,M,31.59,M,1.9,0000*4F,43.462032408000006,141.80575407133333,565181.5693685987,4812440.070006787
869,[2021-01-29 11:28:42.406] $GPGGA,22841.0,4327.721947,N,14148.34524346,E,4,8.0,1.4,108.09700000000001,M,31.59,M,2.0,0000*4D,43.462032449999995,141.80575405766666,565181.5682179054,4812440.074660521
870,[2021-01-29 11:28:42.484] $GPGGA,22841.1,4327.72194444,N,14148.3452459,E,4,8.0,1.4,108.104,M,31.59,M,2.1,0000*48,43.462032407333325,141.80575409833335,565181.5715534938,4812440.069953876
871,[2021-01-29 11:28:42.594] $GPGGA,22841.2,4327.72194538,N,14148.34524545,E,4,8.0,1.4,108.09299999999999,M,31.59,M,2.2,0000*45,43.462032423000004,141.80575409083332,565181.5709299437,4812440.071687914
872,[2021-01-29 11:28:42.687] $GPGGA,22841.3,4327.72194533,N,14148.34524629,E,4,8.0,1.4,108.089,M,31.59,M,2.3,0000*4C,43.46203242216668,141.80575410483334,565181.5720633758,4812440.071606324
873,[2021-01-29 11:28:42.797] $GPGGA,22841.4,4327.72194795,N,14148.34524398,E,4,8.0,1.4,108.095,M,31.59,M,2.4,0000*40,43.46203246583333,141.80575406633335,565181.5689019887,4812440.076425721
874,[2021-01-29 11:28:42.890] $GPGGA,22841.5,4327.72194611,N,14148.34524611,E,4,8.0,1.4,108.09200000000001,M,31.59,M,2.5,0000*4E,43.46203243516667,141.80575410183334,565181.5718067244,4812440.073047728
875,[2021-01-29 11:28:43.000] $GPGGA,22841.6,4327.72194487,N,14148.34524455,E,4,8.0,1.4,108.09299999999999,M,31.59,M,2.6,0000*40,43.462032414499994,141.80575407583333,565181.5697256466,4812440.070732184
876,[2021-01-29 11:28:43.094] $GPGGA,22841.7,4327.72194553,N,14148.34524605,E,4,8.0,1.4,108.09700000000001,M,31.59,M,1.7,0000*48,43.4620324255,141.80575410083333,565181.5717362114,4812440.071973385
877,[2021-01-29 11:28:43.203] $GPGGA,22841.8,4327.72194576,N,14148.34524456,E,4,8.0,1.4,108.1,M,31.59,M,1.8,0000*44,43.46203242933334,141.805754076,565181.5697231918,4812440.072379674
878,[2021-01-29 11:28:43.283] $GPGGA,22841.9,4327.72194655,N,14148.34524714,E,4,8.0,1.4,108.09100000000001,M,31.59,M,1.9,0000*4A,43.4620324425,141.805754119,565181.5731875487,4812440.073875587
879,[2021-01-29 11:28:43.392] $GPGGA,22842.0,4327.72194633,N,14148.34524333,E,4,8.0,1.4,108.101,M,31.59,M,2.0,0000*43,43.46203243883333,141.80575405550002,565181.5680546312,4812440.07341868
880,[2021-01-29 11:28:43.470] $GPGGA,22842.1,4327.72194457,N,14148.34524542,E,4,8.0,1.4,108.087,M,31.59,M,2.1,0000*4C,43.46203240950001,141.80575409033335,565181.5709040038,4812440.070188242
881,[2021-01-29 11:28:43.595] $GPGGA,22842.2,4327.72194648,N,14148.34524458,E,4,8.0,1.4,108.098,M,31.59,M,2.2,0000*44,43.46203244133333,141.80575407633333,565181.5697372631,4812440.073712628
882,[2021-01-29 11:28:43.689] $GPGGA,22842.3,4327.72194517,N,14148.34524548,E,4,8.0,1.4,108.09200000000001,M,31.59,M,2.3,0000*47,43.46203241950001,141.80575409133337,565181.5709741566,4812440.071299605
883,[2021-01-29 11:28:43.799] $GPGGA,22842.4,4327.72194559,N,14148.34524455,E,4,8.0,1.4,108.09100000000001,M,31.59,M,2.4,0000*43,43.4620324265,141.80575407583333,565181.5697127538,4812440.072064878
884,[2021-01-29 11:28:43.892] $GPGGA,22842.5,4327.72194848,N,14148.34524254,E,4,8.0,1.4,108.09899999999999,M,31.59,M,2.5,0000*41,43.462032474666664,141.80575404233335,565181.5669510076,4812440.077387949
885,[2021-01-29 11:28:44.002] $GPGGA,22842.6,4327.72194659,N,14148.34524606,E,4,8.0,1.4,108.095,M,31.59,M,2.6,0000*40,43.46203244316666,141.80575410100002,565181.5717307165,4812440.0739355385
886,[2021-01-29 11:28:44.095] $GPGGA,22842.7,4327.72194734,N,14148.34524952,E,4,8.0,1.4,108.09200000000001,M,31.59,M,2.7,0000*43,43.46203245566667,141.80575415866667,565181.5763822529,4812440.075368893
887,[2021-01-29 11:28:44.205] $GPGGA,22842.8,4327.72194664,N,14148.34523923,E,4,8.0,1.4,108.094,M,31.59,M,1.8,0000*43,43.462032443999995,141.80575398716667,565181.5625212254,4812440.073939
888,[2021-01-29 11:28:44.284] $GPGGA,22842.9,4327.72194587,N,14148.34524199,E,4,8.0,1.4,108.1,M,31.59,M,1.9,0000*4F,43.46203243116667,141.80575403316666,565181.566256201,4812440.072549758
889,[2021-01-29 11:28:44.394] $GPGGA,22843.0,4327.72194665,N,14148.3452409,E,4,8.0,1.4,108.09100000000001,M,31.59,M,2.0,0000*43,43.46203244416667,141.805754015,565181.5647726338,4812440.073979294
890,[2021-01-29 11:28:44.488] $GPGGA,22843.1,4327.72194555,N,14148.34524427,E,4,8.0,1.4,108.09700000000001,M,31.59,M,2.1,0000*4D,43.46203242583333,141.8057540711667,565181.5693359585,4812440.0719871875
891,[2021-01-29 11:28:44.597] $GPGGA,22843.2,4327.72194635,N,14148.34524066,E,4,8.0,1.4,108.09200000000001,M,31.59,M,2.2,0000*4C,43.46203243916666,141.805754011,565181.5644544248,4812440.073420873
892,[2021-01-29 11:28:44.691] $GPGGA,22843.3,4327.72194681,N,14148.34524313,E,4,8.0,1.4,108.09,M,31.59,M,2.3,0000*40,43.462032446833334,141.80575405216663,565181.5677763793,4812440.074304534
893,[2021-01-29 11:28:44.800] $GPGGA,22843.4,4327.72194708,N,14148.3452432,E,4,8.0,1.4,108.1,M,31.59,M,2.4,0000*48,43.46203245133333,141.80575405333335,565181.5678659255,4812440.074805207
894,[2021-01-29 11:28:44.894] $GPGGA,22843.5,4327.72194818,N,14148.34524064,E,4,8.0,1.4,108.088,M,31.59,M,2.5,0000*44,43.462032469666674,141.80575401066667,565181.5643946913,4812440.07680788
895,[2021-01-29 11:28:45.003] $GPGGA,22843.6,4327.7219467,N,14148.3452434,E,4,8.0,1.4,108.09100000000001,M,31.59,M,2.6,0000*49,43.462032445000006,141.80575405666664,565181.5681423806,4812440.07410445
896,[2021-01-29 11:28:45.097] $GPGGA,22843.7,4327.72194798,N,14148.34524283,E,4,8.0,1.4,108.101,M,31.59,M,1.7,0000*4B,43.462032466333326,141.8057540471667,565181.5673509567,4812440.07646625
897,[2021-01-29 11:28:45.206] $GPGGA,22843.8,4327.72194543,N,14148.3452427,E,4,8.0,1.4,108.096,M,31.59,M,1.8,0000*4C,43.462032423833335,141.80575404500001,565181.5672213451,4812440.071744594
898,[2021-01-29 11:28:45.286] $GPGGA,22843.9,4327.72194857,N,14148.34523976,E,4,8.0,1.4,108.1,M,31.59,M,1.9,0000*40,43.462032476166655,141.805753996,565181.5632012403,4812440.077518276
899,[2021-01-29 11:28:45.396] $GPGGA,22844.0,4327.72194676,N,14148.34524398,E,4,8.0,1.4,108.096,M,31.59,M,2.0,0000*4A,43.462032445999995,141.80575406633335,565181.5689232977,4812440.074223072
900,[2021-01-29 11:28:45.489] $GPGGA,22844.1,4327.72194853,N,14148.34524396,E,4,8.0,1.4,108.095,M,31.59,M,2.1,0000*4E,43.4620324755,141.805754066,565181.5688646345,4812440.077499021
901,[2021-01-29 11:28:45.599] $GPGGA,22844.2,4327.72194862,N,14148.34524172,E,4,8.0,1.4,108.103,M,31.59,M,2.2,0000*4A,43.46203247700001,141.80575402866666,565181.5658429281,4812440.077636391
902,[2021-01-29 11:28:45.693] $GPGGA,22844.3,4327.72194755,N,14148.3452437,E,4,8.0,1.4,108.098,M,31.59,M,2.3,0000*42,43.462032459166664,141.80575406166665,565181.5685316357,4812440.075681684
903,[2021-01-29 11:28:45.802] $GPGGA,22844.4,4327.72194817,N,14148.34524292,E,4,8.0,1.4,108.09899999999999,M,31.59,M,2.4,0000*47,43.4620324695,141.8057540486667,565181.5674688976,4812440.076819109
904,[2021-01-29 11:28:45.896] $GPGGA,22844.5,4327.72194868,N,14148.34524316,E,4,8.0,1.4,108.096,M,31.59,M,2.5,0000*4D,43.46203247800001,141.80575405266666,565181.5677833442,4812440.077766232
905,[2021-01-29 11:28:46.005] $GPGGA,22844.6,4327.72195007,N,14148.34524403,E,4,8.0,1.4,108.09700000000001,M,31.59,M,2.6,0000*4F,43.46203250116667,141.80575406716667,565181.5689314391,4812440.08035042
906,[2021-01-29 11:28:46.099] $GPGGA,22844.7,4327.72194864,N,14148.34524196,E,4,8.0,1.4,108.10799999999999,M,31.59,M,1.7,0000*4E,43.46203247733333,141.80575403266664,565181.5661661511,4812440.077676539
907,[2021-01-29 11:28:46.193] $GPGGA,22844.8,4327.72194842,N,14148.34524102,E,4,8.0,1.4,108.11200000000001,M,31.59,M,1.8,0000*4C,43.462032473666675,141.80575401700003,565181.5649027325,4812440.077257069
908,[2021-01-29 11:28:46.289] $GPGGA,22844.9,4327.7219482,N,14148.34524329,E,4,8.0,1.4,108.11,M,31.59,M,1.9,0000*41,43.46203247,141.8057540548333,565181.567967211,4812440.076879462
909,[2021-01-29 11:28:46.398] $GPGGA,22845.0,4327.72194852,N,14148.34524139,E,4,8.0,1.4,108.10600000000001,M,31.59,M,2.0,0000*42,43.46203247533333,141.80575402316663,565181.5653997925,4812440.077446989
910,[2021-01-29 11:28:46.492] $GPGGA,22845.1,4327.72194805,N,14148.34524201,E,4,8.0,1.4,108.11200000000001,M,31.59,M,2.1,0000*4D,43.4620324675,141.80575403350002,565181.5662441327,4812440.076585123
911,[2021-01-29 11:28:46.601] $GPGGA,22845.2,4327.72194984,N,14148.34523602,E,4,8.0,1.4,108.12100000000001,M,31.59,M,2.2,0000*45,43.46203249733333,141.80575393366667,565181.5581360188,4812440.079820219
912,[2021-01-29 11:28:46.695] $GPGGA,22845.3,4327.72194783,N,14148.34524283,E,4,8.0,1.4,108.109,M,31.59,M,2.3,0000*4C,43.46203246383334,141.8057540471667,565181.5673536428,4812440.076188606
913,[2021-01-29 11:28:46.805] $GPGGA,22845.4,4327.72195006,N,14148.34524445,E,4,8.0,1.4,108.09899999999999,M,31.59,M,2.4,0000*43,43.46203250100001,141.80575407416666,565181.5694978834,4812440.08033739
914,[2021-01-29 11:28:46.898] $GPGGA,22845.5,4327.7219498,N,14148.34524262,E,4,8.0,1.4,108.11,M,31.59,M,2.5,0000*46,43.462032496666666,141.80575404366664,565181.5670352277,4812440.079832268
915,[2021-01-29 11:28:46.992] $GPGGA,22845.6,4327.72194781,N,14148.34524535,E,4,8.0,1.4,108.109,M,31.59,M,2.6,0000*44,43.46203246349999,141.80575408916667,565181.5707516052,4812440.076184453
916,[2021-01-29 11:28:47.070] $GPGGA,22845.7,4327.72194926,N,14148.34524157,E,4,8.0,1.4,108.10799999999999,M,31.59,M,2.7,0000*46,43.46203248766666,141.80575402616665,565181.5656292299,4812440.078819051
917,[2021-01-29 11:28:47.179] $GPGGA,22845.8,4327.72194807,N,14148.34524223,E,4,8.0,1.4,108.11399999999999,M,31.59,M,1.8,0000*4A,43.46203246783333,141.80575403716665,565181.5665403873,4812440.076625012
918,[2021-01-29 11:28:47.290] $GPGGA,22845.9,4327.72194986,N,14148.3452425,E,4,8.0,1.4,108.101,M,31.59,M,1.9,0000*42,43.46203249766666,141.80575404166666,565181.5668723638,4812440.079941761
919,[2021-01-29 11:28:47.399] $GPGGA,22846.0,4327.72194768,N,14148.34524255,E,4,8.0,1.4,108.103,M,31.59,M,2.0,0000*4B,43.46203246133333,141.80575404249998,565181.566978813,4812440.075907309
920,[2021-01-29 11:28:47.493] $GPGGA,22846.1,4327.721948,N,14148.34524246,E,4,8.0,1.4,108.10700000000001,M,31.59,M,2.1,0000*4C,43.46203246666668,141.80575404099997,565181.5668517398,4812440.076498445
921,[2021-01-29 11:28:47.602] $GPGGA,22846.2,4327.72194729,N,14148.34524126,E,4,8.0,1.4,108.105,M,31.59,M,2.2,0000*4F,43.46203245483332,141.805754021,565181.5652465482,4812440.075168605
922,[2021-01-29 11:28:47.696] $GPGGA,22846.3,4327.72194913,N,14148.34524324,E,4,8.0,1.4,108.102,M,31.59,M,2.3,0000*4F,43.4620324855,141.80575405400003,565181.5678831493,4812440.07860021
923,[2021-01-29 11:28:47.806] $GPGGA,22846.4,4327.72194813,N,14148.34524354,E,4,8.0,1.4,108.105,M,31.59,M,2.4,0000*4E,43.462032468833335,141.80575405899998,565181.5683055298,4812440.076753155
924,[2021-01-29 11:28:47.884] $GPGGA,22846.5,4327.7219509,N,14148.34524293,E,4,8.0,1.4,108.103,M,31.59,M,2.5,0000*40,43.462032515,141.80575404883334,565181.5674334924,4812440.081872374
925,[2021-01-29 11:28:47.993] $GPGGA,22846.6,4327.72194906,N,14148.34524218,E,4,8.0,1.4,108.10700000000001,M,31.59,M,2.6,0000*40,43.46203248433334,141.80575403633333,565181.5664552471,4812440.078456815
926,[2021-01-29 11:28:48.087] $GPGGA,22846.7,4327.7219493,N,14148.3452437,E,4,8.0,1.4,108.10600000000001,M,31.59,M,2.7,0000*4B,43.46203248833334,141.80575406166665,565181.5685002989,4812440.078920874
927,[2021-01-29 11:28:48.196] $GPGGA,22846.8,4327.72194664,N,14148.34524385,E,4,8.0,1.4,108.102,M,31.59,M,1.8,0000*48,43.462032443999995,141.80575406416665,565181.5687501708,4812440.0739992615
928,[2021-01-29 11:28:48.291] $GPGGA,22846.9,4327.72194821,N,14148.34524447,E,4,8.0,1.4,108.09899999999999,M,31.59,M,1.9,0000*4D,43.46203247016667,141.8057540745,565181.5695579752,4812440.076913363
929,[2021-01-29 11:28:48.400] $GPGGA,22847.0,4327.72194928,N,14148.34523936,E,4,8.0,1.4,108.101,M,31.59,M,2.0,0000*4B,43.46203248800001,141.80575398933334,565181.5626492255,4812440.078827245
930,[2021-01-29 11:28:48.494] $GPGGA,22847.1,4327.72194877,N,14148.3452438,E,4,8.0,1.4,108.10700000000001,M,31.59,M,2.1,0000*46,43.4620324795,141.80575406333332,565181.5686446169,4812440.077941165
931,[2021-01-29 11:28:48.603] $GPGGA,22847.2,4327.7219484,N,14148.34524481,E,4,8.0,1.4,108.09700000000001,M,31.59,M,2.2,0000*4C,43.46203247333333,141.80575408016665,565181.5700129813,4812440.077269481
932,[2021-01-29 11:28:48.697] $GPGGA,22847.3,4327.72194803,N,14148.34524198,E,4,8.0,1.4,108.105,M,31.59,M,2.3,0000*4C,43.462032467166665,141.80575403299997,565181.5662040383,4812440.076547713
933,[2021-01-29 11:28:48.791] $GPGGA,22847.4,4327.72194756,N,14148.3452438,E,4,8.0,1.4,108.10700000000001,M,31.59,M,2.4,0000*4A,43.462032459333344,141.80575406333332,565181.568666284,4812440.075701498
934,[2021-01-29 11:28:48.885] $GPGGA,22847.5,4327.72194977,N,14148.34524467,E,4,8.0,1.4,108.098,M,31.59,M,2.5,0000*4E,43.46203249616666,141.80575407783334,565181.5697996954,4812440.079803477
935,[2021-01-29 11:28:48.994] $GPGGA,22847.6,4327.72194723,N,14148.34524316,E,4,8.0,1.4,108.103,M,31.59,M,2.6,0000*43,43.46203245383334,141.80575405266666,565181.5678093089,4812440.075082332
936,[2021-01-29 11:28:49.088] $GPGGA,22847.7,4327.72195075,N,14148.3452412,E,4,8.0,1.4,108.103,M,31.59,M,1.7,0000*42,43.46203251250001,141.80575402000002,565181.5651036962,4812440.081572165
937,[2021-01-29 11:28:49.197] $GPGGA,22847.8,4327.72194775,N,14148.34524129,E,4,8.0,1.4,108.10799999999999,M,31.59,M,1.8,0000*46,43.462032462500005,141.80575402149998,565181.5652787554,4812440.076020442
938,[2021-01-29 11:28:49.293] $GPGGA,22847.9,4327.72194813,N,14148.34524188,E,4,8.0,1.4,108.103,M,31.59,M,1.9,0000*49,43.462032468833335,141.80575403133332,565181.5660674245,4812440.076731505
939,[2021-01-29 11:28:49.402] $GPGGA,22848.0,4327.72194785,N,14148.34524162,E,4,8.0,1.4,108.102,M,31.59,M,2.0,0000*40,43.46203246416667,141.805754027,565181.565721891,4812440.076209844
940,[2021-01-29 11:28:49.496] $GPGGA,22848.1,4327.7219496,N,14148.34523924,E,4,8.0,1.4,108.101,M,31.59,M,2.1,0000*4B,43.46203249333333,141.8057539873333,565181.5624817016,4812440.079417988
941,[2021-01-29 11:28:49.590] $GPGGA,22848.2,4327.72194834,N,14148.34524042,E,4,8.0,1.4,108.103,M,31.59,M,2.2,0000*47,43.46203247233334,141.805754007,565181.5640952073,4812440.077101164
942,[2021-01-29 11:28:49.699] $GPGGA,22848.3,4327.7219481,N,14148.34524259,E,4,8.0,1.4,108.102,M,31.59,M,2.3,0000*48,43.46203246833334,141.80575404316667,565181.5670252248,4812440.076685237
943,[2021-01-29 11:28:49.793] $GPGGA,22848.4,4327.72194706,N,14148.34523954,E,4,8.0,1.4,108.10799999999999,M,31.59,M,2.4,0000*4B,43.462032451000006,141.80575399233334,565181.5629316646,4812440.074720451
944,[2021-01-29 11:28:49.887] $GPGGA,22848.5,4327.72194735,N,14148.34524274,E,4,8.0,1.4,108.104,M,31.59,M,2.5,0000*49,43.46203245583333,141.80575404566667,565181.5672408928,4812440.075298968
945,[2021-01-29 11:28:49.996] $GPGGA,22848.6,4327.72194975,N,14148.34524029,E,4,8.0,1.4,108.1,M,31.59,M,2.6,0000*4D,43.462032495833334,141.80575400483335,565181.5638946872,4812440.079709329
946,[2021-01-29 11:28:50.090] $GPGGA,22848.7,4327.72194603,N,14148.34524086,E,4,8.0,1.4,108.10600000000001,M,31.59,M,2.7,0000*40,43.462032433833336,141.80575401433336,565181.5647298095,4812440.072831173
947,[2021-01-29 11:28:50.199] $GPGGA,22848.8,4327.721947,N,14148.34524449,E,4,8.0,1.4,108.113,M,31.59,M,1.8,0000*42,43.462032449999995,141.80575407483332,565181.5696066085,4812440.074673955
948,[2021-01-29 11:28:50.294] $GPGGA,22848.9,4327.72194729,N,14148.34523968,E,4,8.0,1.4,108.117,M,31.59,M,1.9,0000*44,43.46203245483332,141.80575399466667,565181.5631163019,4812440.075147997
949,[2021-01-29 11:28:50.404] $GPGGA,22849.0,4327.72194502,N,14148.3452433,E,4,8.0,1.4,108.113,M,31.59,M,2.0,0000*49,43.462032417,141.805754055,565181.5680376386,4812440.070993525
950,[2021-01-29 11:28:50.498] $GPGGA,22849.1,4327.72194659,N,14148.34524333,E,4,8.0,1.4,108.12200000000001,M,31.59,M,2.1,0000*45,43.46203244316666,141.80575405550002,565181.5680499754,4812440.07389993
951,[2021-01-29 11:28:50.591] $GPGGA,22849.2,4327.72194712,N,14148.34524474,E,4,8.0,1.4,108.109,M,31.59,M,2.2,0000*46,43.462032451999995,141.805754079,565181.569941525,4812440.074899333
952,[2021-01-29 11:28:50.685] $GPGGA,22849.3,4327.72194666,N,14148.34524318,E,4,8.0,1.4,108.12100000000001,M,31.59,M,2.3,0000*43,43.46203244433334,141.80575405300002,565181.567846482,4812440.074027542
953,[2021-01-29 11:28:50.795] $GPGGA,22849.4,4327.72194738,N,14148.3452408,E,4,8.0,1.4,108.113,M,31.59,M,2.4,0000*4A,43.462032456333326,141.80575401333334,565181.5646247386,4812440.075329193
954,[2021-01-29 11:28:50.888] $GPGGA,22849.5,4327.72194584,N,14148.34524348,E,4,8.0,1.4,108.111,M,31.59,M,2.5,0000*4A,43.462032430666675,141.805754058,565181.5682656413,4812440.072513664
955,[2021-01-29 11:28:50.998] $GPGGA,22849.6,4327.72194773,N,14148.34524312,E,4,8.0,1.4,108.117,M,31.59,M,2.6,0000*49,43.462032462166654,141.805754052,565181.567746425,4812440.076007291
956,[2021-01-29 11:28:51.091] $GPGGA,22849.7,4327.72194588,N,14148.34524194,E,4,8.0,1.4,108.11200000000001,M,31.59,M,1.7,0000*45,43.46203243133333,141.80575403233334,565181.5661886113,4812440.072567614
957,[2021-01-29 11:28:51.201] $GPGGA,22849.8,4327.72194891,N,14148.34524022,E,4,8.0,1.4,108.10600000000001,M,31.59,M,1.8,0000*49,43.46203248183333,141.80575400366664,565181.5638153479,4812440.078153606
958,[2021-01-29 11:28:51.294] $GPGGA,22849.9,4327.72194817,N,14148.34524313,E,4,8.0,1.4,108.10700000000001,M,31.59,M,1.9,0000*47,43.4620324695,141.80575405216663,565181.5677520263,4812440.076821848
959,[2021-01-29 11:28:51.404] $GPGGA,22850.0,4327.72194822,N,14148.34524357,E,4,8.0,1.4,108.10700000000001,M,31.59,M,2.0,0000*4A,43.46203247033333,141.8057540595,565181.5683443666,4812440.076920133
960,[2021-01-29 11:28:51.497] $GPGGA,22850.1,4327.7219474,N,14148.34524101,E,4,8.0,1.4,108.10799999999999,M,31.59,M,2.1,0000*4F,43.46203245666668,141.80575401683333,565181.5649075132,4812440.075368953
961,[2021-01-29 11:28:51.591] $GPGGA,22850.2,4327.72194819,N,14148.34524142,E,4,8.0,1.4,108.10799999999999,M,31.59,M,2.2,0000*4B,43.46203246983334,141.80575402366668,565181.5654461522,4812440.076836562
962,[2021-01-29 11:28:51.685] $GPGGA,22850.3,4327.72194893,N,14148.34524262,E,4,8.0,1.4,108.113,M,31.59,M,2.3,0000*42,43.462032482166656,141.80575404366664,565181.5670508065,4812440.078221927
963,[2021-01-29 11:28:51.794] $GPGGA,22850.4,4327.72194893,N,14148.34524183,E,4,8.0,1.4,108.105,M,31.59,M,2.4,0000*49,43.462032482166656,141.8057540305,565181.5659856865,4812440.078211623
964,[2021-01-29 11:28:51.888] $GPGGA,22850.5,4327.72194901,N,14148.34524279,E,4,8.0,1.4,108.10600000000001,M,31.59,M,2.5,0000*46,43.46203248349999,141.8057540465,565181.5672785803,4812440.078372221
