,Format,Time,Latitude,LatType,Longitude,LonType,Status,Satellite,LevelAccuracy,Altitude(sea),M(sea),Altitude(geoid),M(geoid),DGPS use,checksum,Lat,Lon,UTM_X,UTM_Y
1968,[2021-01-29 11:53:10.657] $GNGGA,25309.1,4327.732137654,N,14148.357783568,E,4,8,1.43,108.661,M,31.864,M,2.1,2010*63,43.462202294233336,141.80596305946665,565198.2929760261,4812459.100793332
1969,[2021-01-29 11:53:10.750] $GNGGA,25309.2,4327.732138871,N,14148.357782545,E,4,8,1.43,108.662,M,31.864,M,2.2,2010*68,43.46220231451667,141.80596304241666,565198.291574966,4812459.103032609
1970,[2021-01-29 11:53:10.860] $GNGGA,25309.3,4327.732139684001,N,14148.357780771,E,4,8,1.43,108.664,M,31.864,M,2.3,2010*6C,43.46220232806668,141.80596301285004,565198.2891686073,4812459.104514302
1971,[2021-01-29 11:53:10.953] $GNGGA,25309.4,4327.732137551,N,14148.357782818,E,4,8,1.43,108.66,M,31.864,M,2.4,2010*6F,43.462202292516665,141.8059630469667,565198.2919666843,4812459.100592897
1972,[2021-01-29 11:53:11.063] $GNGGA,25309.5,4327.732138289,N,14148.35778431,E,4,8,1.43,108.66,M,31.864,M,2.5,2010*67,43.46220230481667,141.80596307183333,565198.2939650576,4812459.1019783765
1973,[2021-01-29 11:53:11.157] $GNGGA,25309.6,4327.7321387209995,N,14148.357782747,E,4,8,1.43,108.662,M,31.864,M,2.6,2010*62,43.46220231201666,141.8059630457833,565198.2918499969,4812459.102757599
1974,[2021-01-29 11:53:11.260] $GNGGA,25309.7,4327.732138926,N,14148.357782459,E,4,8,1.43,108.663,M,31.864,M,2.7,2010*66,43.46220231543332,141.8059630409833,565198.291458029,4812459.103133289
1975,[2021-01-29 11:53:11.361] $GNGGA,25309.8,4327.732137384,N,14148.35778445,E,4,8,1.43,108.656,M,31.864,M,2.8,2010*62,43.46220228973334,141.80596307416664,565198.2941700206,4812459.100305079
1976,[2021-01-29 11:53:11.455] $GNGGA,25309.9,4327.732137344,N,14148.357784698,E,4,8,1.43,108.656,M,31.864,M,2.9,2010*68,43.462202289066674,141.8059630783,565198.294505107,4812459.100234277
1977,[2021-01-29 11:53:11.549] $GNGGA,25310.0,4327.732137853,N,14148.357783902,E,4,8,1.43,108.65799999999999,M,31.864,M,3.0,2010*69,43.46220229754999,141.80596306503332,565198.2934227797,4812459.10116603
1978,[2021-01-29 11:53:11.658] $GNGGA,25310.1,4327.732138439001,N,14148.357782971001,E,4,8,1.43,108.65799999999999,M,31.864,M,3.1,2010*63,43.46220230731668,141.8059630495167,565198.2921570609,4812459.102238553
1979,[2021-01-29 11:53:11.752] $GNGGA,25310.2,4327.7321395829995,N,14148.35778197,E,4,8,1.43,108.65899999999999,M,31.864,M,3.2,2010*61,43.46220232638332,141.80596303283335,565198.290786969,4812459.104342993
1980,[2021-01-29 11:53:11.861] $GNGGA,25310.3,4327.732137696,N,14148.357781653998,E,4,8,1.43,108.66,M,31.864,M,3.3,2010*6B,43.46220229493333,141.80596302756666,565198.2903947177,4812459.100846101
1981,[2021-01-29 11:53:11.955] $GNGGA,25310.4,4327.732137599,N,14148.357781455,E,4,8,1.43,108.66,M,31.864,M,3.4,2010*64,43.46220229331668,141.80596302425002,565198.2901281555,4812459.100663963
1982,[2021-01-29 11:53:12.049] $GNGGA,25310.5,4327.732137747,N,14148.35778221,E,4,8,1.43,108.662,M,31.864,M,3.5,2010*63,43.46220229578333,141.8059630368333,565198.2911434324,4812459.1009477535
1983,[2021-01-29 11:53:12.158] $GNGGA,25310.6,4327.732136529,N,14148.357782426001,E,4,8,1.43,108.661,M,31.864,M,3.6,2010*68,43.462202275483335,141.80596304043334,565198.2914564738,4812459.098696097
1984,[2021-01-29 11:53:12.262] $GNGGA,25310.7,4327.732137698,N,14148.357781948998,E,4,8,1.43,108.661,M,31.864,M,3.7,2010*67,43.462202294966666,141.80596303248333,565198.2907924176,4812459.100853652
1985,[2021-01-29 11:53:12.348] $GNGGA,25310.8,4327.7321369520005,N,14148.357784188,E,4,8,1.43,108.655,M,31.864,M,3.8,2010*68,43.46220228253334,141.8059630698,565198.2938245175,4812459.099502045
1986,[2021-01-29 11:53:12.457] $GNGGA,25310.9,4327.732137282,N,14148.357784501,E,4,8,1.43,108.65700000000001,M,31.864,M,3.9,2010*68,43.46220228803333,141.8059630750167,565198.2942406144,4812459.100116946
1987,[2021-01-29 11:53:12.551] $GNGGA,25311.0,4327.732137281,N,14148.357780445,E,4,8,1.43,108.665,M,31.864,M,4.0,2010*69,43.46220228801667,141.80596300741666,565198.2887721142,4812459.1000621775
1988,[2021-01-29 11:53:12.660] $GNGGA,25311.1,4327.732137886,N,14148.357779448,E,4,8,1.43,108.665,M,31.864,M,4.1,2010*6F,43.46220229809999,141.8059629908,565198.2874170693,4812459.101169002
1989,[2021-01-29 11:53:12.754] $GNGGA,25311.2,4327.732138447,N,14148.357777638,E,4,8,1.43,108.669,M,31.864,M,4.2,2010*66,43.46220230745,141.80596296063334,565198.2849666827,4812459.102183781
1990,[2021-01-29 11:53:12.863] $GNGGA,25311.3,4327.73213737,N,14148.357778058,E,4,8,1.43,108.669,M,31.864,M,4.3,2010*65,43.4622022895,141.80596296763332,565198.285552239,4812459.10019577
1991,[2021-01-29 11:53:12.957] $GNGGA,25311.4,4327.732138325,N,14148.357777464,E,4,8,1.43,108.669,M,31.864,M,4.4,2010*6E,43.46220230541666,141.80596295773333,565198.2847342715,4812459.101955691
1992,[2021-01-29 11:53:13.051] $GNGGA,25311.5,4327.732138697,N,14148.357775558,E,4,8,1.43,108.671,M,31.864,M,4.5,2010*67,43.46220231161666,141.80596292596667,565198.2821578379,4812459.1026193835
1993,[2021-01-29 11:53:13.160] $GNGGA,25311.6,4327.732138650999,N,14148.357776493,E,4,8,1.43,108.671,M,31.864,M,4.6,2010*68,43.462202310849996,141.80596294155,565198.2834192793,4812459.102546439
1994,[2021-01-29 11:53:13.254] $GNGGA,25311.7,4327.732139092,N,14148.357775722,E,4,8,1.43,108.67299999999999,M,31.864,M,4.7,2010*68,43.46220231819999,141.80596292869998,565198.2823718751,4812459.103352654
1995,[2021-01-29 11:53:13.350] $GNGGA,25311.8,4327.732139285,N,14148.35777544,E,4,8,1.43,108.669,M,31.864,M,4.8,2010*60,43.46220232141666,141.80596292399997,565198.2819882112,4812459.103706211
1996,[2021-01-29 11:53:13.460] $GNGGA,25311.9,4327.732138702,N,14148.357777071002,E,4,8,1.43,108.671,M,31.864,M,4.9,2010*66,43.462202311700004,141.80596295118335,565198.2841976567,4812459.102648379
1997,[2021-01-29 11:53:13.553] $GNGGA,25312.0,4327.732138384,N,14148.357777402,E,4,8,1.43,108.67,M,31.864,M,5.0,2010*6F,43.462202306399995,141.8059629567,565198.2846496237,4812459.102064089
1998,[2021-01-29 11:53:13.663] $GNGGA,25312.1,4327.732138179001,N,14148.357778068,E,4,8,1.43,108.667,M,31.864,M,5.1,2010*6E,43.46220230298335,141.8059629678,565198.2855512328,4812459.101693334
1999,[2021-01-29 11:53:13.757] $GNGGA,25312.2,4327.7321372,N,14148.357779013,E,4,8,1.43,108.671,M,31.864,M,5.2,2010*66,43.46220228666666,141.80596298355,565198.2868428656,4812459.099893565
2000,[2021-01-29 11:53:13.850] $GNGGA,25312.3,4327.732137695,N,14148.35777797,E,4,8,1.43,108.67299999999999,M,31.864,M,5.3,2010*6E,43.46220229491668,141.80596296616667,565198.2854277734,4812459.100796185
2001,[2021-01-29 11:53:13.960] $GNGGA,25312.4,4327.7321370029995,N,14148.357778633,E,4,8,1.43,108.67,M,31.864,M,5.4,2010*63,43.46220228338333,141.8059629772167,565198.2863340607,4812459.099523967
2002,[2021-01-29 11:53:14.053] $GNGGA,25312.5,4327.732138068,N,14148.357776953999,E,4,8,1.43,108.67299999999999,M,31.864,M,5.5,2010*62,43.462202301133324,141.8059629492333,565198.2840512639,4812459.10147334
2003,[2021-01-29 11:53:14.163] $GNGGA,25312.6,4327.732137256,N,14148.357776955,E,4,8,1.43,108.67399999999999,M,31.864,M,5.6,2010*64,43.46220228760001,141.80596294924996,565198.2840671542,4812459.09997037
2004,[2021-01-29 11:53:14.256] $GNGGA,25312.7,4327.732136744,N,14148.357776977,E,4,8,1.43,108.671,M,31.864,M,5.7,2010*66,43.46220227906667,141.80596294961666,565198.2841059895,4812459.099022963
2005,[2021-01-29 11:53:14.351] $GNGGA,25312.8,4327.732136828,N,14148.357777156001,E,4,8,1.43,108.67299999999999,M,31.864,M,5.8,2010*6B,43.46220228046666,141.80596295260003,565198.2843458265,4812459.0991807785
2006,[2021-01-29 11:53:14.460] $GNGGA,25312.9,4327.7321364459995,N,14148.357777886002,E,4,8,1.43,108.67200000000001,M,31.864,M,5.9,2010*6A,43.46220227409999,141.8059629647667,565198.2853368933,4812459.098483232
2007,[2021-01-29 11:53:14.554] $GNGGA,25313.0,4327.732137522999,N,14148.357775886001,E,4,8,1.43,108.67299999999999,M,31.864,M,6.0,2010*68,43.462202292049994,141.80596293143336,565198.2826210945,4812459.100450629
2008,[2021-01-29 11:53:14.663] $GNGGA,25313.1,4327.732138273,N,14148.357775618,E,4,8,1.43,108.675,M,31.864,M,6.1,2010*6A,43.46220230454999,141.80596292696669,565198.2822463289,4812459.101835357
2009,[2021-01-29 11:53:14.757] $GNGGA,25313.2,4327.7321391059995,N,14148.357773661,E,4,8,1.43,108.676,M,31.864,M,6.2,2010*61,43.46220231843332,141.80596289435002,565198.2795928775,4812459.103351679
2010,[2021-01-29 11:53:14.851] $GNGGA,25313.3,4327.732139297,N,14148.357772876001,E,4,8,1.43,108.677,M,31.864,M,6.3,2010*62,43.46220232161666,141.80596288126665,565198.2785310764,4812459.10369497
2011,[2021-01-29 11:53:14.960] $GNGGA,25313.4,4327.732139635,N,14148.357774134,E,4,8,1.43,108.67299999999999,M,31.864,M,6.4,2010*63,43.46220232725,141.80596290223332,565198.2802211232,4812459.104337011
2012,[2021-01-29 11:53:15.054] $GNGGA,25313.5,4327.7321399209995,N,14148.357774328999,E,4,8,1.43,108.676,M,31.864,M,6.5,2010*62,43.46220233201666,141.80596290548334,565198.2804789135,4812459.104868931
2013,[2021-01-29 11:53:15.163] $GNGGA,25313.6,4327.732137620999,N,14148.357776222,E,4,8,1.43,108.67299999999999,M,31.864,M,6.6,2010*6E,43.46220229368332,141.8059629370333,565198.2830723494,4812459.100636407
2014,[2021-01-29 11:53:15.257] $GNGGA,25313.7,4327.732138812999,N,14148.357776266,E,4,8,1.43,108.67399999999999,M,31.864,M,6.7,2010*69,43.46220231354999,141.8059629377667,565198.2831103284,4812459.102843332
2015,[2021-01-29 11:53:15.352] $GNGGA,25313.8,4327.7321377,N,14148.357777031999,E,4,8,1.43,108.67,M,31.864,M,6.8,2010*6D,43.462202295,141.8059629505333,565198.2841630197,4812459.100793202
2016,[2021-01-29 11:53:15.461] $GNGGA,25313.9,4327.732136785,N,14148.357777906002,E,4,8,1.43,108.67,M,31.864,M,6.9,2010*6F,43.46220227975,141.80596296510004,565198.2853577854,4812459.099110973
2017,[2021-01-29 11:53:15.555] $GNGGA,25314.0,4327.732136893,N,14148.357778186999,E,4,8,1.43,108.67200000000001,M,31.864,M,7.0,2010*6D,43.46220228154999,141.80596296978334,565198.2857347077,4812459.099314542
2018,[2021-01-29 11:53:15.649] $GNGGA,25314.1,4327.732137103,N,14148.357777633999,E,4,8,1.43,108.671,M,31.864,M,7.1,2010*6F,43.46220228505001,141.80596296056663,565198.2849853607,4812459.099696032
2019,[2021-01-29 11:53:15.758] $GNGGA,25314.2,4327.732136436,N,14148.357777821,E,4,8,1.43,108.67,M,31.864,M,2.2,2010*63,43.46220227393333,141.80596296368333,565198.2852494327,4812459.098463876
2020,[2021-01-29 11:53:15.852] $GNGGA,25314.3,4327.732137036,N,14148.357779108,E,4,8,1.43,108.669,M,31.864,M,2.3,2010*62,43.46220228393333,141.80596298513333,565198.286973889,4812459.099591247
2021,[2021-01-29 11:53:15.961] $GNGGA,25314.4,4327.732137692,N,14148.35778043,E,4,8,1.43,108.66799999999999,M,31.864,M,2.4,2010*63,43.462202294866664,141.8059630071667,565198.2887445316,4812459.100822727
2022,[2021-01-29 11:53:16.055] $GNGGA,25314.5,4327.732137418,N,14148.357780995,E,4,8,1.43,108.664,M,31.864,M,2.5,2010*6D,43.4622022903,141.80596301658332,565198.2895111972,4812459.100322935
2023,[2021-01-29 11:53:16.149] $GNGGA,25314.6,4327.732137756,N,14148.357781016,E,4,8,1.43,108.662,M,31.864,M,2.6,2010*61,43.46220229593333,141.80596301693333,565198.2895334576,4812459.100948834
2024,[2021-01-29 11:53:16.259] $GNGGA,25314.7,4327.73213724,N,14148.357780633998,E,4,8,1.43,108.662,M,31.864,M,2.7,2010*64,43.46220228733334,141.80596301056664,565198.289027666,4812459.099988754
2025,[2021-01-29 11:53:16.354] $GNGGA,25314.8,4327.7321379059995,N,14148.357778866,E,4,8,1.43,108.66,M,31.864,M,2.8,2010*61,43.46220229843333,141.8059629811,565198.2866320295,4812459.101198429
2026,[2021-01-29 11:53:16.463] $GNGGA,25314.9,4327.732137496,N,14148.357779273001,E,4,8,1.43,108.66,M,31.864,M,2.9,2010*6A,43.46220229160001,141.80596298788336,565198.2871881123,4812459.100444844
2027,[2021-01-29 11:53:16.557] $GNGGA,25315.0,4327.73213751,N,14148.3577794,E,4,8,1.43,108.662,M,31.864,M,3.0,2010*65,43.462202291833336,141.80596298999998,565198.2873590859,4812459.100472415
2028,[2021-01-29 11:53:16.651] $GNGGA,25315.1,4327.732137535,N,14148.357780277,E,4,8,1.43,108.663,M,31.864,M,3.1,2010*63,43.46220229225,141.80596300461664,565198.2885410555,4812459.100530131
2029,[2021-01-29 11:53:16.760] $GNGGA,25315.2,4327.732137036,N,14148.357781509,E,4,8,1.43,108.65799999999999,M,31.864,M,3.2,2010*62,43.46220228393333,141.80596302515,565198.2902110429,4812459.099622571
2030,[2021-01-29 11:53:16.854] $GNGGA,25315.3,4327.732137183,N,14148.357783106001,E,4,8,1.43,108.655,M,31.864,M,3.3,2010*69,43.462202286383345,141.8059630517667,565198.2923615739,4812459.0999155
2031,[2021-01-29 11:53:16.947] $GNGGA,25315.4,4327.732136636,N,14148.357783153,E,4,8,1.43,108.65700000000001,M,31.864,M,3.4,2010*63,43.46220227726666,141.80596305255,565198.2924347351,4812459.098903635
2032,[2021-01-29 11:53:17.057] $GNGGA,25315.5,4327.732136859,N,14148.357783362,E,4,8,1.43,108.654,M,31.864,M,3.5,2010*67,43.462202280983334,141.8059630560333,565198.2927125245,4812459.099319126
2033,[2021-01-29 11:53:17.151] $GNGGA,25315.6,4327.732135738,N,14148.357783362,E,4,8,1.43,108.655,M,31.864,M,3.6,2010*6D,43.462202262299996,141.8059630560333,565198.2927326033,4812459.097244196
2034,[2021-01-29 11:53:17.261] $GNGGA,25315.7,4327.732135222,N,14148.357785156,E,4,8,1.43,108.65100000000001,M,31.864,M,3.7,2010*64,43.4622022537,141.80596308593334,565198.2951606147,4812459.096312502
2035,[2021-01-29 11:53:17.355] $GNGGA,25315.8,4327.732135266,N,14148.357786106,E,4,8,1.43,108.65,M,31.864,M,3.8,2010*63,43.462202254433336,141.80596310176668,565198.2964406672,4812459.09640634
2036,[2021-01-29 11:53:17.449] $GNGGA,25315.9,4327.732136042,N,14148.357785461001,E,4,8,1.43,108.65,M,31.864,M,3.9,2010*63,43.46220226736667,141.8059630910167,565198.2955571471,4812459.097834274
2037,[2021-01-29 11:53:17.559] $GNGGA,25316.0,4327.732134443,N,14148.357787329,E,4,8,1.43,108.65100000000001,M,31.864,M,4.0,2010*68,43.462202240716664,141.80596312215,565198.29810432,4812459.094898949
2038,[2021-01-29 11:53:17.652] $GNGGA,25316.1,4327.732135746,N,14148.35778635,E,4,8,1.43,108.65100000000001,M,31.864,M,4.1,2010*60,43.46220226243333,141.8059631058333,565198.2967610407,4812459.097297986
2039,[2021-01-29 11:53:17.762] $GNGGA,25316.2,4327.732137052,N,14148.357784971999,E,4,8,1.43,108.65100000000001,M,31.864,M,4.2,2010*68,43.46220228420001,141.80596308286664,565198.2948797563,4812459.099697369
2040,[2021-01-29 11:53:17.855] $GNGGA,25316.3,4327.7321360490005,N,14148.357785154,E,4,8,1.43,108.65,M,31.864,M,4.3,2010*6F,43.46220226748334,141.80596308589998,565198.2951431035,4812459.097843227
2041,[2021-01-29 11:53:17.949] $GNGGA,25316.4,4327.732136103,N,14148.35778407,E,4,8,1.43,108.65299999999999,M,31.864,M,4.4,2010*65,43.46220226838333,141.80596306783335,565198.2936806317,4812459.097929034
2042,[2021-01-29 11:53:18.059] $GNGGA,25316.5,4327.732135569,N,14148.357784763999,E,4,8,1.43,108.65100000000001,M,31.864,M,4.5,2010*6E,43.462202259483334,141.8059630794,565198.2946258814,4812459.096949673
2043,[2021-01-29 11:53:18.152] $GNGGA,25316.6,4327.732136645,N,14148.357783823001,E,4,8,1.43,108.65100000000001,M,31.864,M,4.6,2010*6B,43.46220227741666,141.8059630637167,565198.2933379061,4812459.098929034
2044,[2021-01-29 11:53:18.263] $GNGGA,25316.7,4327.732134836,N,14148.357785878,E,4,8,1.43,108.65,M,31.864,M,4.7,2010*6A,43.462202247266674,141.80596309796667,565198.2961409674,4812459.09560745
2045,[2021-01-29 11:53:18.358] $GNGGA,25316.8,4327.732134818,N,14148.35778554,E,4,8,1.43,108.65,M,31.864,M,4.8,2010*60,43.46220224696667,141.80596309233334,565198.2956855792,4812459.095569723
2046,[2021-01-29 11:53:18.452] $GNGGA,25316.9,4327.7321340220005,N,14148.35778753,E,4,8,1.43,108.647,M,31.864,M,4.9,2010*62,43.46220223370001,141.8059631255,565198.2983828607,4812459.094122319
2047,[2021-01-29 11:53:18.561] $GNGGA,25317.0,4327.732134897,N,14148.357786523999,E,4,8,1.43,108.65,M,31.864,M,5.0,2010*66,43.46220224828333,141.80596310873332,565198.2970108439,4812459.095728788
2048,[2021-01-29 11:53:18.655] $GNGGA,25317.1,4327.732135229,N,14148.357787207,E,4,8,1.43,108.65100000000001,M,31.864,M,5.1,2010*6E,43.46220225381667,141.80596312011664,565198.297925754,4812459.096352219
2049,[2021-01-29 11:53:18.748] $GNGGA,25317.2,4327.732135403,N,14148.357787425,E,4,8,1.43,108.652,M,31.864,M,5.2,2010*65,43.462202256716665,141.80596312375002,565198.2982165591,4812459.09667713
2050,[2021-01-29 11:53:18.858] $GNGGA,25317.3,4327.732136529,N,14148.357787093999,E,4,8,1.43,108.649,M,31.864,M,5.3,2010*6B,43.462202275483335,141.80596311823334,565198.2977501176,4812459.098757
2051,[2021-01-29 11:53:18.952] $GNGGA,25317.4,4327.732136345,N,14148.357788943998,E,4,8,1.43,108.649,M,31.864,M,5.4,2010*6C,43.46220227241667,141.80596314906663,565198.3002476781,4812459.098440559
2052,[2021-01-29 11:53:19.061] $GNGGA,25317.5,4327.732135773,N,14148.35778823,E,4,8,1.43,108.649,M,31.864,M,5.5,2010*66,43.462202262883324,141.80596313716663,565198.2992952721,4812459.097372489
2053,[2021-01-29 11:53:19.155] $GNGGA,25317.6,4327.732135015,N,14148.35778782,E,4,8,1.43,108.649,M,31.864,M,5.6,2010*65,43.462202250249995,141.8059631303333,565198.2987560652,4812459.0959641095
2054,[2021-01-29 11:53:19.248] $GNGGA,25317.7,4327.732134604,N,14148.357788096999,E,4,8,1.43,108.646,M,31.864,M,5.7,2010*66,43.46220224339999,141.80596313495,565198.2991368948,4812459.095206976
2055,[2021-01-29 11:53:19.358] $GNGGA,25317.8,4327.732134336,N,14148.357788623001,E,4,8,1.43,108.648,M,31.864,M,5.8,2010*65,43.46220223893334,141.8059631437167,565198.2998508791,4812459.094717781
2056,[2021-01-29 11:53:19.451] $GNGGA,25317.9,4327.732134803,N,14148.357786548999,E,4,8,1.43,108.647,M,31.864,M,5.9,2010*66,43.462202246716664,141.80596310914999,565198.2970462347,4812459.095555121
2057,[2021-01-29 11:53:19.561] $GNGGA,25318.0,4327.732134006,N,14148.357786618,E,4,8,1.43,108.654,M,31.864,M,6.0,2010*62,43.46220223343333,141.8059631103,565198.2971535407,4812459.094080803
2058,[2021-01-29 11:53:19.655] $GNGGA,25318.1,4327.732135108,N,14148.357786376,E,4,8,1.43,108.652,M,31.864,M,6.1,2010*67,43.462202251799994,141.80596310626666,565198.2968075236,4812459.096117409
2059,[2021-01-29 11:53:19.748] $GNGGA,25318.2,4327.732134125,N,14148.357787877,E,4,8,1.43,108.649,M,31.864,M,6.2,2010*68,43.46220223541667,141.80596313128333,565198.2988488604,4812459.094317495
2060,[2021-01-29 11:53:19.858] $GNGGA,25318.3,4327.732134687,N,14148.357787853001,E,4,8,1.43,108.649,M,31.864,M,6.3,2010*61,43.46220224478334,141.80596313088336,565198.2988064372,4812459.095357425
2061,[2021-01-29 11:53:19.951] $GNGGA,25318.4,4327.732134815999,N,14148.357787144,E,4,8,1.43,108.652,M,31.864,M,6.4,2010*62,43.46220224693332,141.80596311906666,565198.2978482123,4812459.095586946
2062,[2021-01-29 11:53:20.061] $GNGGA,25318.5,4327.732134256,N,14148.357787549,E,4,8,1.43,108.649,M,31.864,M,6.5,2010*6F,43.4622022376,141.80596312581667,565198.2984042874,4812459.09455569
2063,[2021-01-29 11:53:20.154] $GNGGA,25318.6,4327.7321338540005,N,14148.357788493,E,4,8,1.43,108.65100000000001,M,31.864,M,6.6,2010*60,43.46220223090001,141.80596314155002,565198.2996842392,4812459.09382392
2064,[2021-01-29 11:53:20.257] $GNGGA,25318.7,4327.732133202,N,14148.357786051001,E,4,8,1.43,108.65299999999999,M,31.864,M,6.7,2010*6F,43.46220222003333,141.80596310085005,565198.2964034849,4812459.092585229
2065,[2021-01-29 11:53:20.360] $GNGGA,25318.8,4327.732134349,N,14148.357784687,E,4,8,1.43,108.649,M,31.864,M,6.8,2010*62,43.46220223915,141.80596307811666,565198.2945439193,4812459.0946904905
2066,[2021-01-29 11:53:20.453] $GNGGA,25318.9,4327.7321327340005,N,14148.357785171002,E,4,8,1.43,108.652,M,31.864,M,6.9,2010*6F,43.46220221223334,141.80596308618334,565198.2952254014,4812459.091707498
2067,[2021-01-29 11:53:20.563] $GNGGA,25319.0,4327.732133134,N,14148.357784077,E,4,8,1.43,108.652,M,31.864,M,7.0,2010*6E,43.462202218899996,141.80596306794996,565198.293743244,4812459.092433609
2068,[2021-01-29 11:53:20.656] $GNGGA,25319.1,4327.732133015,N,14148.35778324,E,4,8,1.43,108.655,M,31.864,M,2.1,2010*6F,43.46220221691666,141.80596305400002,565198.2926168926,4812459.092202425
2069,[2021-01-29 11:53:20.750] $GNGGA,25319.2,4327.732133898,N,14148.357782928999,E,4,8,1.43,108.655,M,31.864,M,2.2,2010*67,43.462202231633334,141.80596304881666,565198.2921817699,4812459.0938327685
2070,[2021-01-29 11:53:20.859] $GNGGA,25319.3,4327.732133605,N,14148.357784171001,E,4,8,1.43,108.65299999999999,M,31.864,M,2.3,2010*68,43.46220222675,141.80596306951668,565198.2938615475,4812459.093306641
2071,[2021-01-29 11:53:20.953] $GNGGA,25319.4,4327.732133554,N,14148.357785338001,E,4,8,1.43,108.654,M,31.864,M,2.4,2010*66,43.4622022259,141.80596308896668,565198.295435873,4812459.093227468
2072,[2021-01-29 11:53:21.063] $GNGGA,25319.5,4327.73213379,N,14148.357784767,E,4,8,1.43,108.656,M,31.864,M,2.5,2010*61,43.462202229833345,141.80596307945,565198.2946617925,4812459.093656846
2073,[2021-01-29 11:53:21.156] $GNGGA,25319.6,4327.7321330859995,N,14148.357785793998,E,4,8,1.43,108.65899999999999,M,31.864,M,2.6,2010*63,43.462202218099996,141.80596309656664,565198.2960590568,4812459.092367164
2074,[2021-01-29 11:53:21.260] $GNGGA,25319.7,4327.7321337309995,N,14148.357784963999,E,4,8,1.43,108.656,M,31.864,M,2.7,2010*67,43.46220222884999,141.80596308273334,565198.2949284565,4812459.093550207
2075,[2021-01-29 11:53:21.361] $GNGGA,25319.8,4327.732133462,N,14148.357784735,E,4,8,1.43,108.65700000000001,M,31.864,M,2.8,2010*69,43.46220222436666,141.80596307891668,565198.2946245248,4812459.093049311
2076,[2021-01-29 11:53:21.455] $GNGGA,25319.9,4327.732133478,N,14148.357784895,E,4,8,1.43,108.656,M,31.864,M,2.9,2010*66,43.46220222463333,141.80596308158334,565198.2948399576,4812459.093081014
2077,[2021-01-29 11:53:21.549] $GNGGA,25320.0,4327.73213372,N,14148.357784812,E,4,8,1.43,108.65700000000001,M,31.864,M,3.0,2010*6D,43.46220222866667,141.8059630802,565198.2947237177,4812459.093527865
2078,[2021-01-29 11:53:21.658] $GNGGA,25320.1,4327.732132604,N,14148.357785678001,E,4,8,1.43,108.654,M,31.864,M,3.1,2010*6B,43.46220221006667,141.80596309463337,565198.2959112979,4812459.091473486
2079,[2021-01-29 11:53:21.752] $GNGGA,25320.2,4327.732131865,N,14148.357787298,E,4,8,1.43,108.652,M,31.864,M,3.2,2010*6F,43.46220219775,141.8059631216333,565198.298108699,4812459.090126759
2080,[2021-01-29 11:53:21.861] $GNGGA,25320.3,4327.732131447,N,14148.357788005,E,4,8,1.43,108.649,M,31.864,M,3.3,2010*60,43.46220219078334,141.80596313341667,565198.2990694018,4812459.0893622795
2081,[2021-01-29 11:53:21.955] $GNGGA,25320.4,4327.732131682,N,14148.357787466999,E,4,8,1.43,108.65,M,31.864,M,3.4,2010*6C,43.4622021947,141.80596312445002,565198.2983398342,4812459.089790237
2082,[2021-01-29 11:53:22.049] $GNGGA,25320.5,4327.732131277,N,14148.357788498999,E,4,8,1.43,108.649,M,31.864,M,3.5,2010*64,43.46220218795,141.80596314164998,565198.2997384841,4812459.08905406
2083,[2021-01-29 11:53:22.158] $GNGGA,25320.6,4327.732132354,N,14148.357787251001,E,4,8,1.43,108.649,M,31.864,M,3.6,2010*6A,43.4622022059,141.80596312085,565198.2980365746,4812459.091031268
2084,[2021-01-29 11:53:22.260] $GNGGA,25320.7,4327.732132672,N,14148.357784656999,E,4,8,1.43,108.654,M,31.864,M,3.7,2010*66,43.4622022112,141.80596307761667,565198.2945335105,4812459.091586032
2085,[2021-01-29 11:53:22.362] $GNGGA,25320.8,4327.732132001,N,14148.35778568,E,4,8,1.42,108.65299999999999,M,31.864,M,3.8,2010*69,43.46220220001666,141.80596309466665,565198.2959247909,4812459.090357379
2086,[2021-01-29 11:53:22.456] $GNGGA,25320.9,4327.732131588,N,14148.357786711002,E,4,8,1.42,108.65,M,31.864,M,3.9,2010*67,43.462202193133336,141.80596311185005,565198.2973222419,4812459.089606383
2087,[2021-01-29 11:53:22.550] $GNGGA,25321.0,4327.732131439,N,14148.35778748,E,4,8,1.42,108.65299999999999,M,31.864,M,4.0,2010*63,43.462202190650004,141.80596312466668,565198.2983617134,4812459.089340623
2088,[2021-01-29 11:53:22.659] $GNGGA,25321.1,4327.732131409,N,14148.357788644,E,4,8,1.42,108.65,M,31.864,M,4.1,2010*66,43.46220219015,141.80596314406668,565198.2999316182,4812459.0893002795
2089,[2021-01-29 11:53:22.753] $GNGGA,25321.2,4327.732131345,N,14148.357788173,E,4,8,1.42,108.65299999999999,M,31.864,M,4.2,2010*69,43.462202189083335,141.80596313621663,565198.2992977339,4812459.089175671
2090,[2021-01-29 11:53:22.862] $GNGGA,25321.3,4327.732131199,N,14148.357788571,E,4,8,1.42,108.655,M,31.864,M,4.3,2010*6A,43.46220218665,141.80596314284998,565198.2998369542,4812459.088910624
2091,[2021-01-29 11:53:22.956] $GNGGA,25321.4,4327.732131461,N,14148.357787718,E,4,8,1.42,108.65299999999999,M,31.864,M,4.4,2010*6C,43.462202191016665,141.8059631286333,565198.298682199,4812459.089384448
2092,[2021-01-29 11:53:23.050] $GNGGA,25321.5,4327.732131167,N,14148.357788828,E,4,8,1.42,108.654,M,31.864,M,4.5,2010*6B,43.46220218611667,141.80596314713333,565198.3001840292,4812459.088854747
2093,[2021-01-29 11:53:23.159] $GNGGA,25321.6,4327.732130657,N,14148.357788288999,E,4,8,1.42,108.65299999999999,M,31.864,M,4.6,2010*68,43.46220217761667,141.80596313815,565198.2994664552,4812459.087903721
2094,[2021-01-29 11:53:23.263] $GNGGA,25321.7,4327.732131223,N,14148.357787863999,E,4,8,1.42,108.65299999999999,M,31.864,M,4.7,2010*68,43.46220218704999,141.80596313106662,565198.2988833064,4812459.088945822
2095,[2021-01-29 11:53:23.348] $GNGGA,25321.8,4327.732130961,N,14148.357789067,E,4,8,1.42,108.65100000000001,M,31.864,M,4.8,2010*63,43.46220218268333,141.80596315111669,565198.3005099528,4812459.088476565
2096,[2021-01-29 11:53:23.458] $GNGGA,25321.9,4327.732130695999,N,14148.35779031,E,4,8,1.42,108.65100000000001,M,31.864,M,4.9,2010*6F,43.46220217826665,141.8059631718333,565198.3021905753,4812459.088002275
2097,[2021-01-29 11:53:23.551] $GNGGA,25322.0,4327.732131115,N,14148.357789733998,E,4,8,1.42,108.647,M,31.864,M,5.0,2010*6D,43.46220218524999,141.8059631622333,565198.3014064758,4812459.088770315
2098,[2021-01-29 11:53:23.661] $GNGGA,25322.1,4327.732131885,N,14148.357788484,E,4,8,1.42,108.648,M,31.864,M,5.1,2010*6B,43.46220219808333,141.8059631414,565198.2997073708,4812459.090179251
2099,[2021-01-29 11:53:23.754] $GNGGA,25322.2,4327.7321304629995,N,14148.357788601,E,4,8,1.42,108.65,M,31.864,M,5.2,2010*68,43.46220217438332,141.80596314335003,565198.2998905894,4812459.087548704
2100,[2021-01-29 11:53:23.848] $GNGGA,25322.3,4327.732131805999,N,14148.35778745,E,4,8,1.42,108.65,M,31.864,M,5.3,2010*6F,43.46220219676666,141.80596312416668,565198.2983146937,4812459.090019533
2101,[2021-01-29 11:53:23.958] $GNGGA,25322.4,4327.732131856,N,14148.357786657,E,4,8,1.42,108.65299999999999,M,31.864,M,5.4,2010*6D,43.4622021976,141.80596311095,565198.2972446303,4812459.090101736
2102,[2021-01-29 11:53:24.051] $GNGGA,25322.5,4327.732131353,N,14148.35778646,E,4,8,1.42,108.65700000000001,M,31.864,M,5.5,2010*61,43.46220218921667,141.80596310766666,565198.2969880345,4812459.089168131
2103,[2021-01-29 11:53:24.161] $GNGGA,25322.6,4327.732131633,N,14148.357785581002,E,4,8,1.42,108.65700000000001,M,31.864,M,5.6,2010*6F,43.46220219388333,141.8059630930167,565198.2957979076,4812459.089674932
2104,[2021-01-29 11:53:24.263] $GNGGA,25322.7,4327.732130892,N,14148.357786372,E,4,8,1.42,108.654,M,31.864,M,5.7,2010*61,43.462202181533335,141.8059631062,565198.2968776473,4812459.0883136885
2105,[2021-01-29 11:53:24.350] $GNGGA,25322.8,4327.732131514001,N,14148.357787812,E,4,8,1.42,108.654,M,31.864,M,5.8,2010*6F,43.46220219190001,141.8059631302,565198.2988079916,4812459.089483777
2106,[2021-01-29 11:53:24.459] $GNGGA,25322.9,4327.732131932999,N,14148.357787363,E,4,8,1.42,108.656,M,31.864,M,5.9,2010*69,43.46220219888332,141.80596312271666,565198.2981951187,4812459.090253471
2107,[2021-01-29 11:53:24.553] $GNGGA,25323.0,4327.732131451,N,14148.357787164,E,4,8,1.42,108.654,M,31.864,M,6.0,2010*65,43.46220219084999,141.8059631194,565198.2979354484,4812459.08935871
2108,[2021-01-29 11:53:24.662] $GNGGA,25323.1,4327.7321308909995,N,14148.35778749,E,4,8,1.42,108.65299999999999,M,31.864,M,6.1,2010*6D,43.46220218151666,141.8059631248333,565198.2983850089,4812459.0883264225
2109,[2021-01-29 11:53:24.756] $GNGGA,25323.2,4327.732130358,N,14148.357789648999,E,4,8,1.42,108.655,M,31.864,M,6.2,2010*6D,43.46220217263334,141.80596316081662,565198.301305433,4812459.087368026
2110,[2021-01-29 11:53:24.850] $GNGGA,25323.3,4327.732130697,N,14148.357789326,E,4,8,1.42,108.65299999999999,M,31.864,M,6.3,2010*61,43.46220217828333,141.80596315543337,565198.3008638817,4812459.087991288
2111,[2021-01-29 11:53:24.959] $GNGGA,25323.4,4327.732130361,N,14148.357787986,E,4,8,1.42,108.656,M,31.864,M,6.4,2010*66,43.46220217268333,141.80596313310002,565198.2990632397,4812459.087351883
2112,[2021-01-29 11:53:25.053] $GNGGA,25323.5,4327.732130655,N,14148.357788685,E,4,8,1.42,108.65,M,31.864,M,6.5,2010*61,43.462202177583336,141.80596314474997,565198.3000003978,4812459.087905186
2113,[2021-01-29 11:53:25.162] $GNGGA,25323.6,4327.7321286629995,N,14148.357790143,E,4,8,1.42,108.65,M,31.864,M,6.6,2010*69,43.46220214438332,141.80596316905002,565198.3020018343,4812459.084237084
2114,[2021-01-29 11:53:25.256] $GNGGA,25323.7,4327.732129731,N,14148.357789799,E,4,8,1.42,108.648,M,31.864,M,6.7,2010*6E,43.46220216218334,141.80596316331665,565198.3015189029,4812459.086209429
2115,[2021-01-29 11:53:25.353] $GNGGA,25323.8,4327.732131093,N,14148.357788227,E,4,8,1.42,108.65100000000001,M,31.864,M,6.8,2010*61,43.46220218488333,141.80596313711666,565198.2993750549,4812459.088709933
2116,[2021-01-29 11:53:25.463] $GNGGA,25323.9,4327.7321306270005,N,14148.357789295,E,4,8,1.42,108.65100000000001,M,31.864,M,6.9,2010*61,43.46220217711667,141.80596315491667,565198.3008233369,4812459.087861319
2117,[2021-01-29 11:53:25.556] $GNGGA,25324.0,4327.732131605,N,14148.357788273,E,4,8,1.42,108.652,M,31.864,M,7.0,2010*6C,43.462202193416665,141.80596313788334,565198.299427904,4812459.089658227
2118,[2021-01-29 11:53:25.650] $GNGGA,25324.1,4327.732131202,N,14148.357791921999,E,4,8,1.42,108.649,M,31.864,M,2.1,2010*67,43.46220218670001,141.80596319869997,565198.304354895,4812459.088959898
2119,[2021-01-29 11:53:25.759] $GNGGA,25324.2,4327.732129548,N,14148.357793046001,E,4,8,1.42,108.645,M,31.864,M,2.2,2010*62,43.46220215913332,141.80596321743334,565198.3058999616,4812459.085913063
2120,[2021-01-29 11:53:25.853] $GNGGA,25324.3,4327.732130207,N,14148.357793181001,E,4,8,1.42,108.645,M,31.864,M,2.3,2010*6C,43.462202170116676,141.80596321968335,565198.3060701722,4812459.087134614
2121,[2021-01-29 11:53:25.963] $GNGGA,25324.4,4327.732130738,N,14148.357792402,E,4,8,1.42,108.649,M,31.864,M,2.4,2010*66,43.46220217896666,141.80596320669997,565198.3050103682,4812459.088107311
2122,[2021-01-29 11:53:26.056] $GNGGA,25324.5,4327.732130208,N,14148.357792619,E,4,8,1.42,108.647,M,31.864,M,2.5,2010*66,43.46220217013333,141.80596321031663,565198.3053124327,4812459.08712913
2123,[2021-01-29 11:53:26.150] $GNGGA,25324.6,4327.732130839,N,14148.357792892,E,4,8,1.42,108.64399999999999,M,31.864,M,2.6,2010*60,43.46220218065,141.80596321486667,565198.3056692057,4812459.088300652
2124,[2021-01-29 11:53:26.258] $GNGGA,25324.7,4327.732131603,N,14148.357779713999,E,4,8,1.42,108.677,M,31.864,M,2.7,2010*62,43.46220219338334,141.8059629952333,565198.2878882402,4812459.089542859
2125,[2021-01-29 11:53:26.353] $GNGGA,25324.8,4327.732131495,N,14148.35778007,E,4,8,1.42,108.675,M,31.864,M,2.8,2010*6E,43.46220219158334,141.80596300116667,565198.2883701551,4812459.089347599
2126,[2021-01-29 11:53:26.462] $GNGGA,25324.9,4327.732133812,N,14148.357777173998,E,4,8,1.42,108.675,M,31.864,M,2.9,2010*62,43.462202230200006,141.8059629529,565198.2844241109,4812459.093598505
2127,[2021-01-29 11:53:26.556] $GNGGA,25325.0,4327.732131826,N,14148.357778671001,E,4,8,1.42,108.678,M,31.864,M,3.0,2010*67,43.4622021971,141.80596297785002,565198.28647802,4812459.089942017
2128,[2021-01-29 11:53:26.650] $GNGGA,25325.1,4327.732132068,N,14148.357779083,E,4,8,1.42,108.677,M,31.864,M,3.1,2010*63,43.46220220113334,141.80596298471667,565198.2870291655,4812459.090395327
2129,[2021-01-29 11:53:26.759] $GNGGA,25325.2,4327.732131895999,N,14148.357779688,E,4,8,1.42,108.678,M,31.864,M,3.2,2010*6B,43.46220219826665,141.8059629948,565198.2878479408,4812459.090084851
2130,[2021-01-29 11:53:26.853] $GNGGA,25325.3,4327.732130905,N,14148.357779507,E,4,8,1.42,108.678,M,31.864,M,3.3,2010*65,43.46220218175,141.80596299178333,565198.2876216552,4812459.088248184
2131,[2021-01-29 11:53:26.962] $GNGGA,25325.4,4327.732132208,N,14148.35777864,E,4,8,1.42,108.676,M,31.864,M,3.4,2010*6E,43.46220220346667,141.8059629773333,565198.2864293793,4812459.090648681
2132,[2021-01-29 11:53:27.056] $GNGGA,25325.5,4327.732131755,N,14148.357778555,E,4,8,1.42,108.679,M,31.864,M,3.5,2010*68,43.462202195916674,141.80596297591669,565198.2863228954,4812459.089809084
2133,[2021-01-29 11:53:27.150] $GNGGA,25325.6,4327.732132954,N,14148.357777225,E,4,8,1.42,108.682,M,31.864,M,3.6,2010*6F,43.4622022159,141.80596295374997,565198.2845082396,4812459.092011039
2134,[2021-01-29 11:53:27.260] $GNGGA,25325.7,4327.732131172,N,14148.357777358,E,4,8,1.42,108.68299999999999,M,31.864,M,3.7,2010*6A,43.46220218619999,141.8059629559667,565198.2847194796,4812459.088714352
2135,[2021-01-29 11:53:27.355] $GNGGA,25325.8,4327.73213211,N,14148.357776118,E,4,8,1.42,108.684,M,31.864,M,3.8,2010*6D,43.46220220183333,141.80596293530002,565198.2830308434,4812459.090434381
2136,[2021-01-29 11:53:27.449] $GNGGA,25325.9,4327.73213241,N,14148.35777698,E,4,8,1.42,108.682,M,31.864,M,3.9,2010*67,43.46220220683333,141.80596294966668,565198.2841876642,4812459.091000918
2137,[2021-01-29 11:53:27.558] $GNGGA,25326.0,4327.7321327770005,N,14148.357778618001,E,4,8,1.42,108.681,M,31.864,M,4.0,2010*62,43.462202212950004,141.80596297696667,565198.2863895291,4812459.091701593
2138,[2021-01-29 11:53:27.652] $GNGGA,25326.1,4327.732131867,N,14148.357777515,E,4,8,1.42,108.68299999999999,M,31.864,M,4.1,2010*6C,43.46220219778334,141.80596295858334,565198.2849187059,4812459.090002825
2139,[2021-01-29 11:53:27.761] $GNGGA,25326.2,4327.732132637,N,14148.357777426001,E,4,8,1.42,108.681,M,31.864,M,4.2,2010*67,43.46220221061667,141.8059629571,565198.2847849196,4812459.091426906
2140,[2021-01-29 11:53:27.855] $GNGGA,25326.3,4327.732132772,N,14148.357777088,E,4,8,1.42,108.682,M,31.864,M,4.3,2010*64,43.46220221286667,141.80596295146668,565198.2843267929,4812459.091672377
2141,[2021-01-29 11:53:27.949] $GNGGA,25326.4,4327.732131396,N,14148.357778198,E,4,8,1.42,108.68299999999999,M,31.864,M,4.4,2010*67,43.462202189933336,141.80596296996666,565198.285847997,4812459.08913993
2142,[2021-01-29 11:53:28.058] $GNGGA,25326.5,4327.7321312720005,N,14148.357778397,E,4,8,1.42,108.684,M,31.864,M,4.5,2010*66,43.46220218786667,141.80596297328333,565198.2861185216,4812459.088913009
2143,[2021-01-29 11:53:28.152] $GNGGA,25326.6,4327.732132951,N,14148.357775609,E,4,8,1.42,108.685,M,31.864,M,4.6,2010*61,43.46220221584999,141.80596292681668,565198.2823295195,4812459.091984401
2144,[2021-01-29 11:53:28.261] $GNGGA,25326.7,4327.732132845999,N,14148.357775786,E,4,8,1.42,108.682,M,31.864,M,4.7,2010*67,43.46220221409998,141.80596292976665,565198.2825700392,4812459.091792359
2145,[2021-01-29 11:53:28.357] $GNGGA,25326.8,4327.732132053,N,14148.357775744,E,4,8,1.42,108.68700000000001,M,31.864,M,4.8,2010*60,43.46220220088333,141.80596292906668,565198.2825276181,4812459.090323998
2146,[2021-01-29 11:53:28.450] $GNGGA,25326.9,4327.732133409,N,14148.357773867,E,4,8,1.42,108.686,M,31.864,M,4.9,2010*63,43.46220222348334,141.80596289778333,565198.2799726578,4812459.092809418
2147,[2021-01-29 11:53:28.560] $GNGGA,25327.0,4327.732133274,N,14148.357772685,E,4,8,1.42,108.685,M,31.864,M,5.0,2010*6F,43.46220222123333,141.80596287808333,565198.2783814408,4812459.092544117
2148,[2021-01-29 11:53:28.653] $GNGGA,25327.1,4327.732132738,N,14148.357774228001,E,4,8,1.42,108.691,M,31.864,M,5.1,2010*63,43.46220221229999,141.8059629038,565198.2804713958,4812459.091572129
2149,[2021-01-29 11:53:28.763] $GNGGA,25327.2,4327.7321322,N,14148.357775446999,E,4,8,1.42,108.68799999999999,M,31.864,M,5.2,2010*6B,43.462202203333334,141.80596292411664,565198.282124551,4812459.090592215
2150,[2021-01-29 11:53:28.856] $GNGGA,25327.3,4327.73213043,N,14148.357776356,E,4,8,1.42,108.68799999999999,M,31.864,M,5.3,2010*68,43.46220217383334,141.80596293926666,565198.2833818183,4812459.087327867
2151,[2021-01-29 11:53:28.950] $GNGGA,25327.4,4327.732130801,N,14148.357775553999,E,4,8,1.42,108.691,M,31.864,M,5.4,2010*69,43.46220218001666,141.80596292589996,565198.2822938714,4812459.08800411
2152,[2021-01-29 11:53:29.060] $GNGGA,25327.5,4327.732130108,N,14148.357776714,E,4,8,1.42,108.68700000000001,M,31.864,M,5.5,2010*6B,43.46220216846667,141.80596294523332,565198.2838702586,4812459.086736525
2153,[2021-01-29 11:53:29.153] $GNGGA,25327.6,4327.732131363,N,14148.35777553,E,4,8,1.42,108.684,M,31.864,M,5.6,2010*61,43.462202189383326,141.80596292549998,565198.2822514483,4812459.089044038
2154,[2021-01-29 11:53:29.263] $GNGGA,25327.7,4327.73213087,N,14148.35777696,E,4,8,1.42,108.686,M,31.864,M,5.7,2010*61,43.462202181166674,141.80596294933335,565198.2841882836,4812459.088150172
2155,[2021-01-29 11:53:29.357] $GNGGA,25327.8,4327.732131958,N,14148.357773833999,E,4,8,1.42,108.69,M,31.864,M,5.8,2010*69,43.462202199299995,141.80596289723331,565198.2799541544,4812459.090123236
2156,[2021-01-29 11:53:29.451] $GNGGA,25327.9,4327.73213047,N,14148.357775301001,E,4,8,1.42,108.691,M,31.864,M,5.9,2010*65,43.46220217449999,141.80596292168337,565198.2819586974,4812459.087388138
2157,[2021-01-29 11:53:29.560] $GNGGA,25328.0,4327.732130602,N,14148.357774221002,E,4,8,1.42,108.693,M,31.864,M,6.0,2010*6E,43.46220217670001,141.8059629036834,565198.2805002213,4812459.087618379
2158,[2021-01-29 11:53:29.654] $GNGGA,25328.1,4327.732131856,N,14148.35777467,E,4,8,1.42,108.694,M,31.864,M,1.1,2010*60,43.4622021976,141.8059629111667,565198.2810831242,4812459.089945343
2159,[2021-01-29 11:53:29.748] $GNGGA,25328.2,4327.732132445,N,14148.357774921002,E,4,8,1.42,108.68799999999999,M,31.864,M,1.2,2010*6B,43.46220220741668,141.80596291535002,565198.2814109848,4812459.09103884
2160,[2021-01-29 11:53:29.857] $GNGGA,25328.3,4327.732132491,N,14148.357774298,E,4,8,1.42,108.69200000000001,M,31.864,M,1.3,2010*60,43.46220220818333,141.80596290496666,565198.2805701966,4812459.091115854
2161,[2021-01-29 11:53:29.951] $GNGGA,25328.4,4327.7321318,N,14148.3577755,E,4,8,1.42,108.689,M,31.864,M,1.4,2010*6A,43.462202196666674,141.805962925,565198.2822031747,4812459.089852522
2162,[2021-01-29 11:53:30.060] $GNGGA,25328.5,4327.732130903,N,14148.357776688,E,4,8,1.42,108.69200000000001,M,31.864,M,1.5,2010*63,43.46220218171667,141.80596294480003,565198.2838209677,4812459.088207703
2163,[2021-01-29 11:53:30.154] $GNGGA,25328.6,4327.732132245999,N,14148.357776891002,E,4,8,1.42,108.684,M,31.864,M,1.6,2010*6A,43.46220220409998,141.80596294818335,565198.284070607,4812459.090696196
2164,[2021-01-29 11:53:30.258] $GNGGA,25328.7,4327.732130820999,N,14148.357778317,E,4,8,1.42,108.685,M,31.864,M,1.7,2010*69,43.46220218034998,141.80596297195,565198.286018739,4812459.088077175
2165,[2021-01-29 11:53:30.359] $GNGGA,25328.8,4327.732129749,N,14148.357779191001,E,4,8,1.42,108.68700000000001,M,31.864,M,1.8,2010*6F,43.46220216248333,141.8059629865167,565198.2872163168,4812459.086104345
2166,[2021-01-29 11:53:30.453] $GNGGA,25328.9,4327.732131236,N,14148.357777093,E,4,8,1.42,108.686,M,31.864,M,1.9,2010*67,43.46220218726667,141.80596295155,565198.2843610438,4812459.088829359
2167,[2021-01-29 11:53:30.562] $GNGGA,25329.0,4327.7321311,N,14148.357777497,E,4,8,1.42,108.68799999999999,M,31.864,M,2.0,2010*6D,43.46220218499999,141.80596295828335,565198.2849081742,4812459.088582897
2168,[2021-01-29 11:53:30.656] $GNGGA,25329.1,4327.732131208,N,14148.357777009,E,4,8,1.42,108.686,M,31.864,M,2.1,2010*6B,43.462202186800006,141.80596295015,565198.2842482917,4812459.088776437
2169,[2021-01-29 11:53:30.750] $GNGGA,25329.2,4327.732130292,N,14148.357777373001,E,4,8,1.42,108.691,M,31.864,M,2.2,2010*61,43.462202171533335,141.8059629562167,565198.2847554648,4812459.087085701
2170,[2021-01-29 11:53:30.859] $GNGGA,25329.3,4327.732130746,N,14148.357778476999,E,4,8,1.42,108.685,M,31.864,M,2.3,2010*64,43.4622021791,141.80596297461662,565198.2862357997,4812459.087940442
2171,[2021-01-29 11:53:30.953] $GNGGA,25329.4,4327.732131505,N,14148.357778021002,E,4,8,1.42,108.686,M,31.864,M,2.4,2010*64,43.46220219175,141.8059629670167,565198.2856074077,4812459.089339376
2172,[2021-01-29 11:53:31.062] $GNGGA,25329.5,4327.732130262,N,14148.357778749,E,4,8,1.42,108.68799999999999,M,31.864,M,2.5,2010*64,43.46220217103334,141.80596297915,565198.2866111957,4812459.087048125
2173,[2021-01-29 11:53:31.156] $GNGGA,25329.6,4327.73213057,N,14148.35777846,E,4,8,1.42,108.684,M,31.864,M,2.6,2010*64,43.46220217616666,141.80596297433337,565198.2862160386,4812459.087614452
2174,[2021-01-29 11:53:31.250] $GNGGA,25329.7,4327.732130371,N,14148.357778778998,E,4,8,1.42,108.689,M,31.864,M,2.7,2010*65,43.46220217284999,141.80596297964996,565198.2866496895,4812459.087250269
2175,[2021-01-29 11:53:31.362] $GNGGA,25329.8,4327.732132295,N,14148.357776611001,E,4,8,1.42,108.686,M,31.864,M,2.8,2010*62,43.46220220491667,141.8059629435167,565198.2836922209,4812459.090783243
2176,[2021-01-29 11:53:31.456] $GNGGA,25329.9,4327.732131742,N,14148.357776741,E,4,8,1.42,108.691,M,31.864,M,2.9,2010*6C,43.46220219570001,141.80596294568332,565198.283877395,4812459.089761356
2177,[2021-01-29 11:53:31.550] $GNGGA,25330.0,4327.732130894,N,14148.357776441,E,4,8,1.42,108.69,M,31.864,M,3.0,2010*62,43.462202181566674,141.80596294068334,565198.2834881091,4812459.088187823
2178,[2021-01-29 11:53:31.659] $GNGGA,25330.1,4327.732132038,N,14148.357775509,E,4,8,1.42,108.69,M,31.864,M,3.1,2010*60,43.46220220063333,141.80596292514997,565198.2822110436,4812459.090293166
2179,[2021-01-29 11:53:31.753] $GNGGA,25330.2,4327.732133033,N,14148.357774566999,E,4,8,1.42,108.68700000000001,M,31.864,M,3.2,2010*65,43.462202217216664,141.80596290945002,565198.2809231709,4812459.092122587
2180,[2021-01-29 11:53:31.862] $GNGGA,25330.3,4327.732132137,N,14148.357775351002,E,4,8,1.42,108.693,M,31.864,M,3.3,2010*66,43.462202202283336,141.8059629225167,565198.2819962514,4812459.090474351
2181,[2021-01-29 11:53:31.956] $GNGGA,25330.4,4327.7321315359995,N,14148.357774387,E,4,8,1.42,108.689,M,31.864,M,3.4,2010*61,43.462202192266666,141.80596290645,565198.2807072966,4812459.089349344
2182,[2021-01-29 11:53:32.050] $GNGGA,25330.5,4327.732130496,N,14148.357776187,E,4,8,1.42,108.69,M,31.864,M,3.5,2010*63,43.46220217493333,141.80596293645002,565198.2831527828,4812459.087447824
2183,[2021-01-29 11:53:32.159] $GNGGA,25330.6,4327.732131831,N,14148.357774925,E,4,8,1.42,108.686,M,31.864,M,3.6,2010*66,43.46220219718332,141.80596291541667,565198.2814273753,4812459.089902396
2184,[2021-01-29 11:53:32.259] $GNGGA,25330.7,4327.732131654,N,14148.357776023999,E,4,8,1.42,108.685,M,31.864,M,3.7,2010*62,43.46220219423334,141.80596293373333,565198.2829122733,4812459.089589117
2185,[2021-01-29 11:53:32.362] $GNGGA,25330.8,4327.732130579,N,14148.357777338999,E,4,8,1.42,108.68700000000001,M,31.864,M,3.8,2010*63,43.46220217631667,141.80596295564996,565198.2847044789,4812459.087616486
2186,[2021-01-29 11:53:32.456] $GNGGA,25330.9,4327.7321306759995,N,14148.357776935,E,4,8,1.42,108.69,M,31.864,M,3.9,2010*6E,43.46220217793332,141.8059629489167,565198.2841580511,4812459.087790756
2187,[2021-01-29 11:53:32.549] $GNGGA,25331.0,4327.732132282,N,14148.357777328001,E,4,8,1.42,108.681,M,31.864,M,4.0,2010*62,43.4622022047,141.8059629554667,565198.2846591496,4812459.090768535
2188,[2021-01-29 11:53:32.659] $GNGGA,25331.1,4327.732130572,N,14148.357778618001,E,4,8,1.42,108.686,M,31.864,M,4.1,2010*66,43.46220217619999,141.80596297696667,565198.2864290238,4812459.087620213
2189,[2021-01-29 11:53:32.753] $GNGGA,25331.2,4327.73212993,N,14148.357779083,E,4,8,1.42,108.686,M,31.864,M,4.2,2010*61,43.462202165499995,141.80596298471667,565198.2870674601,4812459.086437961
2190,[2021-01-29 11:53:32.862] $GNGGA,25331.3,4327.732131867,N,14148.357776081999,E,4,8,1.42,108.684,M,31.864,M,4.3,2010*67,43.46220219778334,141.8059629347,565198.2829866583,4812459.089984128
2191,[2021-01-29 11:53:32.956] $GNGGA,25331.4,4327.732130592,N,14148.357777676001,E,4,8,1.42,108.689,M,31.864,M,4.4,2010*60,43.46220217653334,141.80596296126666,565198.2851586107,4812459.087644944
2192,[2021-01-29 11:53:33.049] $GNGGA,25331.5,4327.7321325170005,N,14148.357774991999,E,4,8,1.42,108.68799999999999,M,31.864,M,4.5,2010*68,43.46220220861668,141.8059629165333,565198.281505418,4812459.091173035
2193,[2021-01-29 11:53:33.159] $GNGGA,25331.6,4327.732132762,N,14148.357774885,E,4,8,1.42,108.689,M,31.864,M,4.6,2010*6E,43.4622022127,141.80596291474998,565198.2813567673,4812459.091625124
2194,[2021-01-29 11:53:33.261] $GNGGA,25331.7,4327.7321329979995,N,14148.357774663,E,4,8,1.42,108.691,M,31.864,M,4.7,2010*6A,43.46220221663333,141.80596291105002,565198.2810532299,4812459.092059055
2195,[2021-01-29 11:53:33.348] $GNGGA,25331.8,4327.732129717,N,14148.357776761,E,4,8,1.42,108.691,M,31.864,M,4.8,2010*68,43.46220216195001,141.80596294601668,565198.2839406318,4812459.086013412
2196,[2021-01-29 11:53:33.457] $GNGGA,25331.9,4327.732130829,N,14148.357774638998,E,4,8,1.42,108.694,M,31.864,M,4.9,2010*69,43.46220218048333,141.80596291064998,565198.2810597186,4812459.088044
2197,[2021-01-29 11:53:33.551] $GNGGA,25332.0,4327.732131275,N,14148.35777445,E,4,8,1.42,108.689,M,31.864,M,5.0,2010*68,43.46220218791666,141.8059629075,565198.2807969127,4812459.088867063
2198,[2021-01-29 11:53:33.660] $GNGGA,25332.1,4327.73212846,N,14148.35777719,E,4,8,1.42,108.69200000000001,M,31.864,M,5.1,2010*62,43.462202141,141.80596295316667,565198.2845415461,4812459.083692345
2199,[2021-01-29 11:53:33.754] $GNGGA,25332.2,4327.73213037,N,14148.35777424,E,4,8,1.42,108.69200000000001,M,31.864,M,5.2,2010*60,43.46220217283333,141.805962904,565198.2805299907,4812459.087189201
2200,[2021-01-29 11:53:33.848] $GNGGA,25332.3,4327.732131234,N,14148.357774798998,E,4,8,1.42,108.691,M,31.864,M,5.3,2010*62,43.46220218723333,141.80596291331665,565198.2812681859,4812459.088795727
2201,[2021-01-29 11:53:33.957] $GNGGA,25332.4,4327.732130727,N,14148.357776246,E,4,8,1.42,108.68700000000001,M,31.864,M,5.4,2010*66,43.462202178783336,141.80596293743335,565198.2832281917,4812459.087876166
2202,[2021-01-29 11:53:34.051] $GNGGA,25332.5,4327.732131598,N,14148.357775333001,E,4,8,1.42,108.689,M,31.864,M,5.5,2010*6F,43.462202193299994,141.80596292221665,565198.2819816339,4812459.089476446
2203,[2021-01-29 11:53:34.160] $GNGGA,25332.6,4327.732129532,N,14148.357776776002,E,4,8,1.42,108.693,M,31.864,M,5.6,2010*6B,43.46220215886667,141.80596294626667,565198.2839641685,4812459.085671179
2204,[2021-01-29 11:53:34.260] $GNGGA,25332.7,4327.732130738,N,14148.35777648,E,4,8,1.42,108.68799999999999,M,31.864,M,5.7,2010*6B,43.46220217896666,141.80596294133335,565198.2835434856,4812459.087899581
2205,[2021-01-29 11:53:34.350] $GNGGA,25332.8,4327.732128707,N,14148.357777473999,E,4,8,1.42,108.68700000000001,M,31.864,M,5.8,2010*6B,43.46220214511667,141.80596295789996,565198.2849200233,4812459.08415324
2206,[2021-01-29 11:53:34.459] $GNGGA,25332.9,4327.73213185,N,14148.357774811,E,4,8,1.42,108.689,M,31.864,M,5.9,2010*6C,43.4622021975,141.80596291351668,565198.2812733331,4812459.08993608
2207,[2021-01-29 11:53:34.553] $GNGGA,25333.0,4327.732129655999,N,14148.357776547,E,4,8,1.42,108.691,M,31.864,M,6.0,2010*6A,43.46220216093333,141.80596294244998,565198.2836531956,4812459.08589771
2208,[2021-01-29 11:53:34.662] $GNGGA,25333.1,4327.732130278,N,14148.357776854,E,4,8,1.42,108.693,M,31.864,M,6.1,2010*67,43.46220217130001,141.80596294756666,565198.2840559689,4812459.087053017
2209,[2021-01-29 11:53:34.756] $GNGGA,25333.2,4327.732130939,N,14148.357776261999,E,4,8,1.42,108.689,M,31.864,M,6.2,2010*6D,43.46220218231666,141.8059629377,565198.2832459657,4812459.088268778
2210,[2021-01-29 11:53:34.850] $GNGGA,25333.3,4327.73212994,N,14148.357777588,E,4,8,1.42,108.691,M,31.864,M,6.3,2010*60,43.46220216566667,141.8059629598,565198.2850516445,4812459.086436966
2211,[2021-01-29 11:53:34.959] $GNGGA,25333.4,4327.732131125999,N,14148.357776183,E,4,8,1.42,108.689,M,31.864,M,6.4,2010*66,43.46220218543333,141.8059629363833,565198.2831361018,4812459.08861388
2212,[2021-01-29 11:53:35.053] $GNGGA,25333.5,4327.732129094,N,14148.35777802,E,4,8,1.42,108.68799999999999,M,31.864,M,6.5,2010*60,43.46220215156667,141.805962967,565198.2856492398,4812459.084876686
2213,[2021-01-29 11:53:35.162] $GNGGA,25333.6,4327.732131555999,N,14148.357776948,E,4,8,1.42,108.68299999999999,M,31.864,M,6.6,2010*60,43.46220219259999,141.80596294913335,565198.2841598159,4812459.089419776
2214,[2021-01-29 11:53:35.256] $GNGGA,25333.7,4327.732131707,N,14148.35777531,E,4,8,1.42,108.68299999999999,M,31.864,M,6.7,2010*62,43.46220219511666,141.80596292183336,565198.2819486748,4812459.089677901
2215,[2021-01-29 11:53:35.351] $GNGGA,25333.8,4327.732130864,N,14148.357776225,E,4,8,1.42,108.68799999999999,M,31.864,M,6.8,2010*66,43.46220218106667,141.80596293708334,565198.2831974233,4812459.088129476
2216,[2021-01-29 11:53:35.460] $GNGGA,25333.9,4327.732133078,N,14148.357775868,E,4,8,1.42,108.684,M,31.864,M,6.9,2010*6C,43.46220221796666,141.80596293113337,565198.2826764429,4812459.092222854
2217,[2021-01-29 11:53:35.554] $GNGGA,25334.0,4327.732131603,N,14148.357775838,E,4,8,1.42,108.68700000000001,M,31.864,M,7.0,2010*64,43.46220219338334,141.8059629306333,565198.2826624119,4812459.08949229
2218,[2021-01-29 11:53:35.648] $GNGGA,25334.1,4327.732131885,N,14148.357776034,E,4,8,1.42,108.69200000000001,M,31.864,M,2.1,2010*62,43.46220219808333,141.80596293389996,565198.2829216158,4812459.090016818
2219,[2021-01-29 11:53:35.757] $GNGGA,25334.2,4327.732132279,N,14148.357774625,E,4,8,1.42,108.69,M,31.864,M,2.2,2010*6E,43.462202204650005,141.80596291041667,565198.2810148742,4812459.090727717
2220,[2021-01-29 11:53:35.851] $GNGGA,25334.3,4327.73213113,N,14148.357775863,E,4,8,1.42,108.695,M,31.864,M,2.3,2010*6B,43.4622021855,141.80596293104998,565198.2827045892,4812459.088617109
2221,[2021-01-29 11:53:35.960] $GNGGA,25334.4,4327.7321319659995,N,14148.357775178001,E,4,8,1.42,108.69,M,31.864,M,2.4,2010*66,43.46220219943333,141.80596291963337,565198.2817660682,4812459.090155579
2222,[2021-01-29 11:53:36.054] $GNGGA,25334.5,4327.73213217,N,14148.357774045,E,4,8,1.42,108.693,M,31.864,M,2.5,2010*67,43.46220220283333,141.80596290075,565198.2802348393,4812459.090518394
2223,[2021-01-29 11:53:36.148] $GNGGA,25334.6,4327.7321322279995,N,14148.357773036001,E,4,8,1.42,108.693,M,31.864,M,2.6,2010*6A,43.46220220379999,141.80596288393338,565198.2788734155,4812459.090612585
2224,[2021-01-29 11:53:36.260] $GNGGA,25334.7,4327.732130852,N,14148.357775622,E,4,8,1.42,108.693,M,31.864,M,2.7,2010*6A,43.46220218086667,141.80596292703333,565198.2823846423,4812459.088099397
2225,[2021-01-29 11:53:36.353] $GNGGA,25334.8,4327.7321307990005,N,14148.357774966002,E,4,8,1.42,108.694,M,31.864,M,2.8,2010*6B,43.46220217998334,141.80596291610001,565198.2815011383,4812459.087992738
2226,[2021-01-29 11:53:36.462] $GNGGA,25334.9,4327.732132017,N,14148.357774262,E,4,8,1.42,108.689,M,31.864,M,2.9,2010*6B,43.462202200283336,141.80596290436668,565198.2805301511,4812459.090238027
2227,[2021-01-29 11:53:36.556] $GNGGA,25335.0,4327.732131825,N,14148.35777506,E,4,8,1.42,108.686,M,31.864,M,3.0,2010*6F,43.46220219708333,141.80596291766668,565198.281609497,4812459.089893053
2228,[2021-01-29 11:53:36.650] $GNGGA,25335.1,4327.732132186,N,14148.357775306002,E,4,8,1.42,108.686,M,31.864,M,3.1,2010*6F,43.4622022031,141.8059629217667,565198.2819347024,4812459.09056446
2229,[2021-01-29 11:53:36.759] $GNGGA,25335.2,4327.732132596,N,14148.357772813,E,4,8,1.42,108.691,M,31.864,M,3.2,2010*64,43.46220220993334,141.80596288021667,565198.2785661614,4812459.0912908325
2230,[2021-01-29 11:53:36.853] $GNGGA,25335.3,4327.732131276,N,14148.357773518,E,4,8,1.42,108.694,M,31.864,M,3.3,2010*6C,43.46220218793332,141.8059628919667,565198.2795403239,4812459.088856754
2231,[2021-01-29 11:53:36.962] $GNGGA,25335.4,4327.73213021,N,14148.357773389,E,4,8,1.42,108.695,M,31.864,M,3.4,2010*62,43.46220217016666,141.80596288981667,565198.2793854926,4812459.086881943
2232,[2021-01-29 11:53:37.056] $GNGGA,25335.5,4327.7321302029995,N,14148.357773045,E,4,8,1.42,108.698,M,31.864,M,3.5,2010*6E,43.46220217004999,141.80596288408336,565198.27892182,4812459.0868644975
2233,[2021-01-29 11:53:37.150] $GNGGA,25335.6,4327.732131793,N,14148.357773833,E,4,8,1.42,108.68700000000001,M,31.864,M,3.6,2010*64,43.46220219655,141.8059628972167,565198.2799557636,4812459.0898178145
2234,[2021-01-29 11:53:37.259] $GNGGA,25335.7,4327.732132342,N,14148.357772069,E,4,8,1.42,108.68700000000001,M,31.864,M,3.7,2010*69,43.46220220570001,141.80596286781665,565198.2775676093,4812459.090810982
2235,[2021-01-29 11:53:37.356] $GNGGA,25335.8,4327.732131372,N,14148.357773434,E,4,8,1.42,108.696,M,31.864,M,3.8,2010*64,43.462202189533336,141.80596289056666,565198.2794253489,4812459.089033352
2236,[2021-01-29 11:53:37.450] $GNGGA,25335.9,4327.7321330429995,N,14148.357773585,E,4,8,1.42,108.689,M,31.864,M,3.9,2010*62,43.46220221738333,141.80596289308332,565198.2795990044,4812459.092128284
2237,[2021-01-29 11:53:37.559] $GNGGA,25336.0,4327.732134033,N,14148.35777086,E,4,8,1.42,108.69,M,31.864,M,4.0,2010*6B,43.46220223388333,141.80596284766665,565198.2759072824,4812459.093925188
2238,[2021-01-29 11:53:37.653] $GNGGA,25336.1,4327.732131748,N,14148.357774541999,E,4,8,1.42,108.69200000000001,M,31.864,M,4.1,2010*6E,43.4622021958,141.8059629090333,565198.2809124778,4812459.08974377
2239,[2021-01-29 11:53:37.762] $GNGGA,25336.2,4327.732131519,N,14148.357774056001,E,4,8,1.42,108.693,M,31.864,M,4.2,2010*69,43.46220219198334,141.80596290093334,565198.2802613298,4812459.08931356
2240,[2021-01-29 11:53:37.856] $GNGGA,25336.3,4327.732133824,N,14148.35777253,E,4,8,1.42,108.689,M,31.864,M,4.3,2010*60,43.4622022304,141.8059628755,565198.2781626111,4812459.093560125
2241,[2021-01-29 11:53:37.950] $GNGGA,25336.4,4327.732131688,N,14148.357775703,E,4,8,1.42,108.69200000000001,M,31.864,M,4.4,2010*65,43.4622021948,141.8059629283833,565198.2824788752,4812459.08964786
2242,[2021-01-29 11:53:38.059] $GNGGA,25336.5,4327.732132784,N,14148.357772857,E,4,8,1.42,108.68799999999999,M,31.864,M,4.5,2010*69,43.46220221306667,141.80596288095,565198.2786221174,4812459.091639387
2243,[2021-01-29 11:53:38.153] $GNGGA,25336.6,4327.732131124,N,14148.357774383001,E,4,8,1.42,108.696,M,31.864,M,4.6,2010*6D,43.4622021854,141.80596290638334,565198.2807092853,4812459.088586694
2244,[2021-01-29 11:53:38.261] $GNGGA,25336.7,4327.73213293,N,14148.35777141,E,4,8,1.42,108.69200000000001,M,31.864,M,4.7,2010*6F,43.4622022155,141.80596285683333,565198.2766685797,4812459.09189075
2245,[2021-01-29 11:53:38.355] $GNGGA,25336.8,4327.732130833,N,14148.357772846,E,4,8,1.42,108.696,M,31.864,M,4.8,2010*67,43.46220218055,141.80596288076669,565198.2786422322,4812459.088028009
2246,[2021-01-29 11:53:38.449] $GNGGA,25336.9,4327.732131354001,N,14148.357771763998,E,4,8,1.42,108.696,M,31.864,M,4.9,2010*60,43.462202189233345,141.80596286273328,565198.277174086,4812459.088978248
2247,[2021-01-29 11:53:38.558] $GNGGA,25337.0,4327.732132079001,N,14148.357772223999,E,4,8,1.42,108.694,M,31.864,M,5.0,2010*6F,43.46220220131668,141.8059628704,565198.2777813005,4812459.090326199
2248,[2021-01-29 11:53:38.652] $GNGGA,25337.1,4327.73213331,N,14148.357771873001,E,4,8,1.42,108.68700000000001,M,31.864,M,5.1,2010*6B,43.46220222183333,141.80596286455,565198.2772860142,4812459.0926001575
2249,[2021-01-29 11:53:38.761] $GNGGA,25337.2,4327.732133437,N,14148.357771391002,E,4,8,1.42,108.69200000000001,M,31.864,M,5.2,2010*6A,43.46220222395,141.80596285651671,565198.2766338848,4812459.0928289415
2250,[2021-01-29 11:53:38.855] $GNGGA,25337.3,4327.732134241,N,14148.357771135,E,4,8,1.42,108.691,M,31.864,M,5.3,2010*65,43.46220223735,141.80596285225,565198.2762743284,4812459.094313777
2251,[2021-01-29 11:53:38.949] $GNGGA,25337.4,4327.732134322,N,14148.35777115,E,4,8,1.42,108.69200000000001,M,31.864,M,5.4,2010*61,43.4622022387,141.80596285250002,565198.2762931028,4812459.094463901
2252,[2021-01-29 11:53:39.058] $GNGGA,25337.5,4327.732134737,N,14148.357771124,E,4,8,1.42,108.69200000000001,M,31.864,M,5.5,2010*62,43.462202245616666,141.80596285206667,565198.2762506141,4812459.095231712
2253,[2021-01-29 11:53:39.152] $GNGGA,25337.6,4327.732135547,N,14148.357770105,E,4,8,1.42,108.69,M,31.864,M,5.6,2010*66,43.462202259116665,141.80596283508333,565198.2748622347,4812459.096717699
2254,[2021-01-29 11:53:39.263] $GNGGA,25337.7,4327.732133826,N,14148.357770462,E,4,8,1.42,108.693,M,31.864,M,5.7,2010*6D,43.462202230433334,141.8059628410333,565198.2753743848,4812459.093536846
2255,[2021-01-29 11:53:39.359] $GNGGA,25337.8,4327.732135967,N,14148.357767898999,E,4,8,1.42,108.69,M,31.864,M,5.8,2010*62,43.46220226611668,141.8059627983166,565198.2718804626,4812459.0974663235
2256,[2021-01-29 11:53:39.453] $GNGGA,25337.9,4327.732135231,N,14148.357767616,E,4,8,1.42,108.68799999999999,M,31.864,M,5.9,2010*6A,43.462202253849995,141.8059627936,565198.2715120944,4812459.096100321
2257,[2021-01-29 11:53:39.562] $GNGGA,25338.0,4327.732134619,N,14148.357781051001,E,4,8,1.42,108.656,M,31.864,M,6.0,2010*67,43.46220224365,141.8059630175167,565198.2896368371,4812459.0951428125
2258,[2021-01-29 11:53:39.656] $GNGGA,25338.1,4327.732134968,N,14148.357780641001,E,4,8,1.42,108.65100000000001,M,31.864,M,1.1,2010*68,43.46220224946666,141.80596301068334,565198.2890778022,4812459.09578345
2259,[2021-01-29 11:53:39.750] $GNGGA,25338.2,4327.7321346829995,N,14148.35777973,E,4,8,1.42,108.656,M,31.864,M,1.2,2010*64,43.46220224471666,141.8059629955,565198.2878546485,4812459.09524404
2260,[2021-01-29 11:53:39.859] $GNGGA,25338.3,4327.7321337779995,N,14148.357781408999,E,4,8,1.42,108.655,M,31.864,M,1.3,2010*6B,43.46220222963333,141.80596302348332,565198.2901345713,4812459.093590823
2261,[2021-01-29 11:53:39.953] $GNGGA,25338.4,4327.732133975,N,14148.357781966999,E,4,8,1.42,108.65700000000001,M,31.864,M,1.4,2010*6F,43.46220223291666,141.80596303278332,565198.2908833695,4812459.093962742
2262,[2021-01-29 11:53:40.062] $GNGGA,25338.5,4327.732134633,N,14148.357782037,E,4,8,1.42,108.654,M,31.864,M,1.5,2010*69,43.46220224388333,141.80596303394998,565198.2909659604,4812459.095181591
2263,[2021-01-29 11:53:40.156] $GNGGA,25338.6,4327.732133954,N,14148.357782742,E,4,8,1.42,108.656,M,31.864,M,1.6,2010*67,43.46220223256667,141.8059630457,565198.2919286416,4812459.093933984
2264,[2021-01-29 11:53:40.255] $GNGGA,25338.7,4327.73213405,N,14148.357782981999,E,4,8,1.42,108.652,M,31.864,M,1.7,2010*6B,43.46220223416667,141.80596304969995,565198.2922505002,4812459.094114807
2265,[2021-01-29 11:53:40.358] $GNGGA,25338.8,4327.732134244,N,14148.357781452,E,4,8,1.42,108.654,M,31.864,M,1.8,2010*69,43.46220223739999,141.8059630242,565198.2901842017,4812459.094453934
2266,[2021-01-29 11:53:40.452] $GNGGA,25338.9,4327.732135029,N,14148.357781457,E,4,8,1.42,108.65799999999999,M,31.864,M,1.9,2010*68,43.46220225048334,141.80596302428333,565198.2901768822,4812459.095907007
2267,[2021-01-29 11:53:40.562] $GNGGA,25339.0,4327.732134844,N,14148.357781541,E,4,8,1.42,108.654,M,31.864,M,2.0,2010*62,43.46220224739999,141.80596302568333,565198.2902934494,4812459.095565672
2268,[2021-01-29 11:53:40.655] $GNGGA,25339.1,4327.732135223,N,14148.357780551001,E,4,8,1.42,108.652,M,31.864,M,2.1,2010*6E,43.462202253716676,141.80596300918336,565198.288951892,4812459.096254273
2269,[2021-01-29 11:53:40.749] $GNGGA,25339.2,4327.732135755,N,14148.357779518,E,4,8,1.42,108.656,M,31.864,M,2.2,2010*65,43.46220226258333,141.80596299196665,565198.2875496151,4812459.09722551
2270,[2021-01-29 11:53:40.858] $GNGGA,25339.3,4327.732135884,N,14148.357778733998,E,4,8,1.42,108.652,M,31.864,M,2.3,2010*6F,43.46220226473333,141.80596297889997,565198.2864902726,4812459.097454054
