,Format,Time,Latitude,LatType,Longitude,LonType,Status,Satellite,LevelAccuracy,Altitude(sea),M(sea),Altitude(geoid),M(geoid),DGPS use,checksum,Lat,Lon,UTM_X,UTM_Y
1231,[2021-01-29 11:52:11.271] $GPGGA,25209.9,4327.732134399999,N,14148.357805399999,E,4,9,1.4,108.6988,M,31.83,M,2.0,0000*5B,43.46220223999999,141.8059634233333,565198.3224693702,4812459.0950551275
1232,[2021-01-29 11:52:11.380] $GPGGA,25210.0,4327.7321348000005,N,14148.357804,E,4,9,1.4,108.699,M,31.83,M,3.0,0000*5B,43.46220224666668,141.8059634,565198.320574653,4812459.09577725
1233,[2021-01-29 11:52:11.474] $GPGGA,25210.1,4327.7321345,N,14148.357805599999,E,4,9,1.4,108.6976,M,31.83,M,3.0,0000*58,43.46220224166666,141.80596342666666,565198.322737233,4812459.095242833
1234,[2021-01-29 11:52:11.568] $GPGGA,25210.2,4327.7321342,N,14148.357806299999,E,4,9,1.4,108.6975,M,31.83,M,3.0,0000*59,43.462202236666656,141.8059634383333,565198.3236863806,4812459.094696675
1235,[2021-01-29 11:52:11.677] $GPGGA,25210.3,4327.732134100001,N,14148.3578067,E,4,9,1.4,108.6975,M,31.83,M,3.0,0000*5F,43.46220223500001,141.805963445,565198.3242274756,4812459.0945168
1236,[2021-01-29 11:52:11.771] $GPGGA,25210.4,4327.7321346,N,14148.357806799999,E,4,9,1.4,108.6968,M,31.83,M,3.0,0000*5C,43.46220224333334,141.80596344666665,565198.3243533447,4812459.095443587
1237,[2021-01-29 11:52:11.880] $GPGGA,25210.5,4327.7321343,N,14148.357806200002,E,4,9,1.4,108.6974,M,31.83,M,3.0,0000*5F,43.46220223833334,141.8059634366667,565198.3235497688,4812459.09488047
1238,[2021-01-29 11:52:11.974] $GPGGA,25210.6,4327.732134399999,N,14148.357806600001,E,4,9,1.4,108.6979,M,31.83,M,3.0,0000*52,43.46220223999999,141.80596344333335,565198.3240872793,4812459.095070783
1239,[2021-01-29 11:52:12.083] $GPGGA,25210.7,4327.7321335,N,14148.3578058,E,4,9,1.4,108.6979,M,31.83,M,3.0,0000*58,43.46220222499999,141.80596343000002,565198.3230247963,4812459.093394476
1240,[2021-01-29 11:52:12.177] $GPGGA,25210.8,4327.732133699999,N,14148.357806400001,E,4,9,1.4,108.6968,M,31.83,M,3.0,0000*5A,43.462202228333325,141.80596344,565198.3238301633,4812459.093772498
1241,[2021-01-29 11:52:12.272] $GPGGA,25210.9,4327.7321336,N,14148.357807100001,E,4,9,1.4,108.6984,M,31.83,M,3.0,0000*5C,43.462202226666676,141.80596345166668,565198.3247757328,4812459.093596537
1242,[2021-01-29 11:52:12.382] $GPGGA,25211.0,4327.7321342,N,14148.357805700001,E,4,9,1.4,108.6981,M,31.83,M,4.0,0000*51,43.462202236666656,141.80596342833337,565198.3228774334,4812459.094688847
1243,[2021-01-29 11:52:12.476] $GPGGA,25211.1,4327.7321343,N,14148.357806200002,E,4,9,1.4,108.6987,M,31.83,M,4.0,0000*51,43.46220223833334,141.8059634366667,565198.3235497688,4812459.09488047
1244,[2021-01-29 11:52:12.569] $GPGGA,25211.2,4327.732133699999,N,14148.357806099999,E,4,9,1.4,108.6985,M,31.83,M,4.0,0000*50,43.462202228333325,141.805963435,565198.3234256866,4812459.0937685855
1245,[2021-01-29 11:52:12.679] $GPGGA,25211.3,4327.732134100001,N,14148.357806400001,E,4,9,1.4,108.6979,M,31.83,M,4.0,0000*56,43.46220223500001,141.80596344,565198.3238229987,4812459.094512886
1246,[2021-01-29 11:52:12.772] $GPGGA,25211.4,4327.7321342,N,14148.357806600001,E,4,9,1.4,108.6979,M,31.83,M,4.0,0000*50,43.462202236666656,141.80596344333335,565198.3240908615,4812459.094700589
1247,[2021-01-29 11:52:12.882] $GPGGA,25211.5,4327.7321329999995,N,14148.357807799997,E,4,9,1.4,108.6981,M,31.83,M,4.0,0000*5C,43.462202216666654,141.80596346333328,565198.325730252,4812459.0924950875
1248,[2021-01-29 11:52:12.976] $GPGGA,25211.6,4327.732134000001,N,14148.3578067,E,4,9,1.4,108.6975,M,31.83,M,4.0,0000*5D,43.46220223333334,141.805963445,565198.3242292666,4812459.094331705
1249,[2021-01-29 11:52:13.069] $GPGGA,25211.7,4327.7321338,N,14148.357806999999,E,4,9,1.4,108.6973,M,31.83,M,4.0,0000*53,43.46220223,141.80596344999998,565198.3246373236,4812459.093965424
1250,[2021-01-29 11:52:13.163] $GPGGA,25211.8,4327.7321335,N,14148.357807600001,E,4,9,1.4,108.6986,M,31.83,M,4.0,0000*5D,43.46220222499999,141.80596346000002,565198.3254516505,4812459.093417961
1251,[2021-01-29 11:52:13.274] $GPGGA,25211.9,4327.732133199999,N,14148.3578092,E,4,9,1.4,108.697,M,31.83,M,4.0,0000*58,43.46220221999999,141.80596348666668,565198.3276142306,4812459.092883546
1252,[2021-01-29 11:52:13.368] $GPGGA,25212.0,4327.7321334,N,14148.3578086,E,4,9,1.4,108.6961,M,31.83,M,5.0,0000*50,43.462202223333335,141.80596347666665,565198.3268016927,4812459.093245912
1253,[2021-01-29 11:52:13.477] $GPGGA,25212.1,4327.7321334,N,14148.3578087,E,4,9,1.4,108.6963,M,31.83,M,5.0,0000*52,43.462202223333335,141.80596347833335,565198.3269365217,4812459.093247217
1254,[2021-01-29 11:52:13.571] $GPGGA,25212.2,4327.732133899999,N,14148.357807700002,E,4,9,1.4,108.6956,M,31.83,M,5.0,0000*55,43.46220223166665,141.80596346166672,565198.325579315,4812459.094159652
1255,[2021-01-29 11:52:13.680] $GPGGA,25212.3,4327.732133899999,N,14148.3578085,E,4,9,1.4,108.6949,M,31.83,M,5.0,0000*57,43.46220223166665,141.805963475,565198.3266579121,4812459.094170089
1256,[2021-01-29 11:52:13.774] $GPGGA,25212.4,4327.7321338,N,14148.357807799997,E,4,9,1.4,108.6947,M,31.83,M,5.0,0000*5D,43.46220223,141.80596346333328,565198.3257159228,4812459.093975862
1257,[2021-01-29 11:52:13.868] $GPGGA,25212.5,4327.732134100001,N,14148.357807100001,E,4,9,1.4,108.6943,M,31.83,M,5.0,0000*5F,43.46220223500001,141.80596345166668,565198.3247667771,4812459.094522019
1258,[2021-01-29 11:52:13.977] $GPGGA,25212.6,4327.7321347,N,14148.357807499999,E,4,9,1.4,108.6938,M,31.83,M,5.0,0000*52,43.46220224499999,141.80596345833334,565198.3252953319,4812459.095637814
1259,[2021-01-29 11:52:14.071] $GPGGA,25212.7,4327.7321347,N,14148.3578072,E,4,9,1.4,108.694,M,31.83,M,5.0,0000*5B,43.46220224499999,141.80596345333333,565198.3248908552,4812459.095633901
1260,[2021-01-29 11:52:14.180] $GPGGA,25212.8,4327.7321349,N,14148.357806900001,E,4,9,1.4,108.693,M,31.83,M,5.0,0000*57,43.46220224833334,141.80596344833333,565198.3244827961,4812459.096000182
1261,[2021-01-29 11:52:14.276] $GPGGA,25212.9,4327.732134000001,N,14148.357807600001,E,4,9,1.4,108.6922,M,31.83,M,5.0,0000*52,43.46220223333334,141.80596346000002,565198.3254426948,4812459.094343446
1262,[2021-01-29 11:52:14.385] $GPGGA,25213.0,4327.7321346,N,14148.357807299999,E,4,9,1.4,108.6918,M,31.83,M,6.0,0000*53,43.46220224333334,141.80596345499998,565198.3250274692,4812459.09545011
1263,[2021-01-29 11:52:14.479] $GPGGA,25213.1,4327.7321351,N,14148.357806799999,E,4,9,1.4,108.6934,M,31.83,M,6.0,0000*50,43.46220225166666,141.80596344666665,565198.324344389,4812459.096369067
1264,[2021-01-29 11:52:14.572] $GPGGA,25213.2,4327.732138,N,14148.357805200001,E,4,9,1.4,108.6965,M,31.83,M,1.0,0000*55,43.46220230000001,141.80596342,565198.3221352414,4812459.101715994
1265,[2021-01-29 11:52:14.666] $GPGGA,25213.3,4327.7321403999995,N,14148.3578035,E,4,9,1.4,108.6973,M,31.83,M,1.0,0000*59,43.46220233999998,141.80596339166667,565198.3198002225,4812459.106136129
1266,[2021-01-29 11:52:14.776] $GPGGA,25213.4,4327.7321412,N,14148.3578027,E,4,9,1.4,108.6983,M,31.83,M,1.0,0000*55,43.46220235333333,141.80596337833333,565198.3187072922,4812459.107606465
1267,[2021-01-29 11:52:14.869] $GPGGA,25213.5,4327.7321409999995,N,14148.3578025,E,4,9,1.4,108.7,M,31.83,M,1.0,0000*57,43.462202349999984,141.80596337500003,565198.3184412267,4812459.107233662
1268,[2021-01-29 11:52:14.979] $GPGGA,25213.6,4327.7321413,N,14148.3578027,E,4,9,1.4,108.7012,M,31.83,M,1.0,0000*56,43.462202355,141.80596337833333,565198.318705501,4812459.107791563
1269,[2021-01-29 11:52:15.072] $GPGGA,25213.7,4327.7321395,N,14148.357802200002,E,4,9,1.4,108.7005,M,31.83,M,1.0,0000*5D,43.462202325,141.80596337000003,565198.3180636171,4812459.104453301
1270,[2021-01-29 11:52:15.182] $GPGGA,25213.8,4327.732139899999,N,14148.3578021,E,4,9,1.4,108.7006,M,31.83,M,1.0,0000*5E,43.46220233166666,141.80596336833332,565198.3179216236,4812459.105192382
1271,[2021-01-29 11:52:15.277] $GPGGA,25213.9,4327.7321403999995,N,14148.3578012,E,4,9,1.4,108.7004,M,31.83,M,1.0,0000*5E,43.46220233999998,141.80596335333334,565198.3166992418,4812459.106106121
1272,[2021-01-29 11:52:15.371] $GPGGA,25214.0,4327.7321409,N,14148.3578019,E,4,9,1.4,108.6986,M,31.83,M,2.0,0000*57,43.46220234833333,141.805963365,565198.3176340624,4812459.107040739
1273,[2021-01-29 11:52:15.480] $GPGGA,25214.1,4327.732139899999,N,14148.3578027,E,4,9,1.4,108.6996,M,31.83,M,2.0,0000*54,43.46220233166666,141.80596337833333,565198.318730577,4812459.10520021
1274,[2021-01-29 11:52:15.574] $GPGGA,25214.2,4327.7321397,N,14148.3578037,E,4,9,1.4,108.6988,M,31.83,M,2.0,0000*57,43.462202328333326,141.805963395,565198.3200824123,4812459.104843064
1275,[2021-01-29 11:52:15.683] $GPGGA,25214.3,4327.732139600001,N,14148.3578034,E,4,9,1.4,108.6994,M,31.83,M,2.0,0000*59,43.46220232666668,141.80596339000002,565198.3196797288,4812459.104654055
1276,[2021-01-29 11:52:15.777] $GPGGA,25214.4,4327.7321403000005,N,14148.3578033,E,4,9,1.4,108.6984,M,31.83,M,2.0,0000*53,43.462202338333334,141.8059633883333,565198.3195323618,4812459.105948425
1277,[2021-01-29 11:52:15.871] $GPGGA,25214.5,4327.7321414,N,14148.3578019,E,4,9,1.4,108.6992,M,31.83,M,2.0,0000*5B,43.462202356666666,141.805963365,565198.3176251067,4812459.107966222
1278,[2021-01-29 11:52:15.965] $GPGGA,25214.6,4327.7321409999995,N,14148.357802200002,E,4,9,1.4,108.6982,M,31.83,M,2.0,0000*55,43.462202349999984,141.80596337000003,565198.31803675,4812459.107229748
1279,[2021-01-29 11:52:16.074] $GPGGA,25214.7,4327.7321407,N,14148.3578034,E,4,9,1.4,108.6977,M,31.83,M,2.0,0000*5F,43.462202345,141.80596339000002,565198.3196600262,4812459.106690116
1280,[2021-01-29 11:52:16.168] $GPGGA,25214.8,4327.7321409,N,14148.357802,E,4,9,1.4,108.6979,M,31.83,M,2.0,0000*55,43.46220234833333,141.80596336666667,565198.3177688892,4812459.107042043
1281,[2021-01-29 11:52:16.279] $GPGGA,25214.9,4327.7321412,N,14148.357800900001,E,4,9,1.4,108.6981,M,31.83,M,2.0,0000*52,43.46220235333333,141.80596334833336,565198.3162804379,4812459.107582981
1282,[2021-01-29 11:52:16.373] $GPGGA,25215.0,4327.7321415,N,14148.3578005,E,4,9,1.4,108.6985,M,31.83,M,3.0,0000*54,43.46220235833333,141.80596334166665,565198.3157357608,4812459.108133052
1283,[2021-01-29 11:52:16.482] $GPGGA,25215.1,4327.7321416,N,14148.357800299998,E,4,9,1.4,108.6976,M,31.83,M,3.0,0000*5C,43.46220236000001,141.80596333833333,565198.3154643199,4812459.1083155405
1284,[2021-01-29 11:52:16.576] $GPGGA,25215.2,4327.7321409,N,14148.3578018,E,4,9,1.4,108.6979,M,31.83,M,3.0,0000*54,43.46220234833333,141.80596336333335,565198.3174992395,4812459.107039433
1285,[2021-01-29 11:52:16.669] $GPGGA,25215.3,4327.7321413,N,14148.3578021,E,4,9,1.4,108.6975,M,31.83,M,3.0,0000*58,43.462202355,141.80596336833332,565198.3178965475,4812459.107783735
1286,[2021-01-29 11:52:16.779] $GPGGA,25215.4,4327.7321421999995,N,14148.357800999998,E,4,9,1.4,108.6966,M,31.83,M,3.0,0000*5D,43.462202369999986,141.80596334999996,565198.3163973473,4812459.10943525
1287,[2021-01-29 11:52:16.873] $GPGGA,25215.5,4327.7321421999995,N,14148.357800999998,E,4,9,1.4,108.697,M,31.83,M,3.0,0000*5B,43.462202369999986,141.80596334999996,565198.3163973473,4812459.10943525
1288,[2021-01-29 11:52:16.982] $GPGGA,25215.6,4327.732142600001,N,14148.3578005,E,4,9,1.4,108.6976,M,31.83,M,3.0,0000*5E,43.46220237666668,141.80596334166665,565198.3157160582,4812459.110169116
1289,[2021-01-29 11:52:17.076] $GPGGA,25215.7,4327.732141699999,N,14148.357800100002,E,4,9,1.4,108.6973,M,31.83,M,3.0,0000*5C,43.46220236166666,141.80596333500003,565198.3151928809,4812459.108498027
1290,[2021-01-29 11:52:17.185] $GPGGA,25215.8,4327.732142399999,N,14148.357800400001,E,4,9,1.4,108.6967,M,31.83,M,3.0,0000*53,43.46220237333332,141.80596334,565198.3155848156,4812459.109797615
1291,[2021-01-29 11:52:17.280] $GPGGA,25215.9,4327.732143,N,14148.357799599999,E,4,9,1.4,108.6973,M,31.83,M,3.0,0000*5F,43.462202383333334,141.80596332666664,565198.3144954655,4812459.110897758
1292,[2021-01-29 11:52:17.373] $GPGGA,25216.0,4327.7321436,N,14148.357799000001,E,4,9,1.4,108.6971,M,31.83,M,4.0,0000*50,43.462202393333335,141.8059633166667,565198.3136757693,4812459.112000509
1293,[2021-01-29 11:52:17.483] $GPGGA,25216.1,4327.7321432,N,14148.3577993,E,4,9,1.4,108.6971,M,31.83,M,4.0,0000*56,43.46220238666667,141.8059633216667,565198.3140874106,4812459.111264037
1294,[2021-01-29 11:52:17.576] $GPGGA,25216.2,4327.732142399999,N,14148.357800999998,E,4,9,1.4,108.6974,M,31.83,M,4.0,0000*5A,43.46220237333332,141.80596334999996,565198.316393765,4812459.109805443
1295,[2021-01-29 11:52:17.670] $GPGGA,25216.3,4327.732142399999,N,14148.3578012,E,4,9,1.4,108.6972,M,31.83,M,4.0,0000*5F,43.46220237333332,141.80596335333334,565198.3166634189,4812459.109808052
1296,[2021-01-29 11:52:17.780] $GPGGA,25216.4,4327.732142899999,N,14148.357800200001,E,4,9,1.4,108.6981,M,31.83,M,4.0,0000*58,43.462202381666664,141.80596333666668,565198.3153062101,4812459.110720489
1297,[2021-01-29 11:52:17.873] $GPGGA,25216.5,4327.7321427,N,14148.357799700001,E,4,9,1.4,108.695,M,31.83,M,4.0,0000*51,43.46220237833333,141.80596332833332,565198.3146356638,4812459.110343772
1298,[2021-01-29 11:52:17.983] $GPGGA,25216.6,4327.732142600001,N,14148.3578012,E,4,9,1.4,108.6947,M,31.83,M,4.0,0000*5E,43.46220237666668,141.80596335333334,565198.3166598366,4812459.110178249
1299,[2021-01-29 11:52:18.076] $GPGGA,25216.7,4327.732144,N,14148.3578,E,4,9,1.4,108.6946,M,31.83,M,4.0,0000*5D,43.46220239999999,141.80596333333332,565198.3150168557,4812459.112753941
1300,[2021-01-29 11:52:18.170] $GPGGA,25216.8,4327.732142,N,14148.3578011,E,4,9,1.4,108.6927,M,31.83,M,4.0,0000*53,43.462202366666666,141.8059633516667,565198.3165357606,4812459.109066363
1301,[2021-01-29 11:52:18.266] $GPGGA,25216.9,4327.732142600001,N,14148.357800999998,E,4,9,1.4,108.6923,M,31.83,M,4.0,0000*51,43.46220237666668,141.80596334999996,565198.3163901827,4812459.110175639
1302,[2021-01-29 11:52:18.375] $GPGGA,25217.0,4327.7321436,N,14148.357799899999,E,4,9,1.4,108.6898,M,31.83,M,5.0,0000*5F,43.462202393333335,141.80596333166662,565198.3148891913,4812459.112012251
1303,[2021-01-29 11:52:18.469] $GPGGA,25217.1,4327.7321432,N,14148.357800900001,E,4,9,1.4,108.6897,M,31.83,M,5.0,0000*5A,43.46220238666667,141.80596334833336,565198.3162446151,4812459.111284913
1304,[2021-01-29 11:52:18.578] $GPGGA,25217.2,4327.7321425,N,14148.357800400001,E,4,9,1.4,108.6893,M,31.83,M,5.0,0000*56,43.462202375,141.80596334,565198.3155830245,4812459.109982712
1305,[2021-01-29 11:52:18.672] $GPGGA,25217.3,4327.732142399999,N,14148.3578007,E,4,9,1.4,108.6872,M,31.83,M,5.0,0000*5A,43.46220237333332,141.805963345,565198.3159892923,4812459.109801529
1306,[2021-01-29 11:52:18.782] $GPGGA,25217.4,4327.7321432,N,14148.357800100002,E,4,9,1.4,108.6872,M,31.83,M,5.0,0000*5C,43.46220238666667,141.80596333500003,565198.3151660139,4812459.111274473
1307,[2021-01-29 11:52:18.875] $GPGGA,25217.5,4327.7321434,N,14148.357800400001,E,4,9,1.4,108.6875,M,31.83,M,5.0,0000*59,43.46220238999999,141.80596334,565198.3155669043,4812459.11164858
1308,[2021-01-29 11:52:18.969] $GPGGA,25217.6,4327.7321434,N,14148.357801299999,E,4,9,1.4,108.6874,M,31.83,M,5.0,0000*5D,43.46220238999999,141.805963355,565198.3167803324,4812459.111660321
1309,[2021-01-29 11:52:19.078] $GPGGA,25217.7,4327.7321439,N,14148.357800400001,E,4,9,1.4,108.6883,M,31.83,M,5.0,0000*5F,43.46220239833333,141.80596334,565198.3155579485,4812459.112574064
1310,[2021-01-29 11:52:19.172] $GPGGA,25217.8,4327.7321432,N,14148.357800400001,E,4,9,1.4,108.6879,M,31.83,M,5.0,0000*5E,43.46220238666667,141.80596334,565198.3155704865,4812459.111278388
1311,[2021-01-29 11:52:19.283] $GPGGA,25217.9,4327.7321434,N,14148.3578,E,4,9,1.4,108.6885,M,31.83,M,5.0,0000*5E,43.46220238999999,141.80596333333332,565198.3150276026,4812459.111643361
1312,[2021-01-29 11:52:19.376] $GPGGA,25218.0,4327.7321433,N,14148.3577998,E,4,9,1.4,108.6876,M,31.83,M,6.0,0000*57,43.46220238833333,141.80596332999997,565198.3147597419,4812459.1114556575
1313,[2021-01-29 11:52:19.470] $GPGGA,25218.1,4327.732142399999,N,14148.357801299999,E,4,9,1.4,108.6882,M,31.83,M,6.0,0000*5E,43.46220237333332,141.805963355,565198.3167982438,4812459.109809358
1314,[2021-01-29 11:52:19.579] $GPGGA,25218.2,4327.7321433,N,14148.357796,E,4,9,1.4,108.6917,M,31.83,M,1.0,0000*53,43.46220238833333,141.80596326666665,565198.3096363815,4812459.1114060795
1315,[2021-01-29 11:52:19.673] $GPGGA,25218.3,4327.7321441,N,14148.3577946,E,4,9,1.4,108.6939,M,31.83,M,1.0,0000*5F,43.46220240166667,141.80596324333334,565198.3077344997,4812459.112868587
1316,[2021-01-29 11:52:19.767] $GPGGA,25218.4,4327.7321439,N,14148.3577935,E,4,9,1.4,108.6956,M,31.83,M,1.0,0000*5A,43.46220239833333,141.805963225,565198.3062550019,4812459.112484042
1317,[2021-01-29 11:52:19.876] $GPGGA,25218.5,4327.7321446000005,N,14148.3577933,E,4,9,1.4,108.698,M,31.83,M,1.0,0000*5E,43.46220241,141.80596322166664,565198.3059728121,4812459.113777108
1318,[2021-01-29 11:52:19.970] $GPGGA,25218.6,4327.7321439,N,14148.3577946,E,4,9,1.4,108.6978,M,31.83,M,1.0,0000*50,43.46220239833333,141.80596324333334,565198.3077380819,4812459.112498393
1319,[2021-01-29 11:52:20.080] $GPGGA,25218.7,4327.732144,N,14148.3577938,E,4,9,1.4,108.6983,M,31.83,M,1.0,0000*52,43.46220239999999,141.80596323,565198.3066576875,4812459.112673051
1320,[2021-01-29 11:52:20.173] $GPGGA,25218.8,4327.7321443,N,14148.3577932,E,4,9,1.4,108.6986,M,31.83,M,1.0,0000*51,43.462202405,141.80596322,565198.3058433627,4812459.113220514
1321,[2021-01-29 11:52:20.269] $GPGGA,25218.9,4327.7321441,N,14148.3577938,E,4,9,1.4,108.6968,M,31.83,M,1.0,0000*58,43.46220240166667,141.80596323,565198.3066558964,4812459.112858149
1322,[2021-01-29 11:52:20.378] $GPGGA,25219.0,4327.7321438,N,14148.3577935,E,4,9,1.4,108.6955,M,31.83,M,2.0,0000*5E,43.46220239666667,141.805963225,565198.3062567931,4812459.112298944
1323,[2021-01-29 11:52:20.472] $GPGGA,25219.1,4327.7321438,N,14148.3577944,E,4,9,1.4,108.6952,M,31.83,M,2.0,0000*5E,43.46220239666667,141.80596324000004,565198.3074702254,4812459.112310686
1324,[2021-01-29 11:52:20.581] $GPGGA,25219.2,4327.7321445,N,14148.3577951,E,4,9,1.4,108.6936,M,31.83,M,2.0,0000*51,43.46220240833333,141.80596325166667,565198.3084014617,4812459.113615496
1325,[2021-01-29 11:52:20.675] $GPGGA,25219.3,4327.732144899999,N,14148.357793700001,E,4,9,1.4,108.6923,M,31.83,M,2.0,0000*58,43.462202414999986,141.80596322833335,565198.3065067445,4812459.114337615
1326,[2021-01-29 11:52:20.784] $GPGGA,25219.4,4327.732145,N,14148.357793399999,E,4,9,1.4,108.6935,M,31.83,M,2.0,0000*53,43.46220241666667,141.8059632233333,565198.3061004725,4812459.114518798
1327,[2021-01-29 11:52:20.878] $GPGGA,25219.5,4327.7321458999995,N,14148.3577917,E,4,9,1.4,108.6932,M,31.83,M,2.0,0000*5D,43.462202431666654,141.80596319499998,565198.3037923228,4812459.116162485
1328,[2021-01-29 11:52:20.972] $GPGGA,25219.6,4327.732145100001,N,14148.3577928,E,4,9,1.4,108.6927,M,31.83,M,2.0,0000*5E,43.46220241833334,141.8059632133333,565198.3052897298,4812459.114696068
1329,[2021-01-29 11:52:21.066] $GPGGA,25219.7,4327.732145,N,14148.357794900001,E,4,9,1.4,108.6938,M,31.83,M,2.0,0000*57,43.46220241666667,141.80596324833337,565198.3081228582,4812459.114538369
1330,[2021-01-29 11:52:21.175] $GPGGA,25219.8,4327.732145,N,14148.3577959,E,4,9,1.4,108.6939,M,31.83,M,2.0,0000*58,43.46220241666667,141.805963265,565198.3094711072,4812459.114551416
1331,[2021-01-29 11:52:21.270] $GPGGA,25219.9,4327.732145800001,N,14148.3577939,E,4,9,1.4,108.6913,M,31.83,M,2.0,0000*5F,43.462202430000005,141.80596323166668,565198.306760274,4812459.116006094
1332,[2021-01-29 11:52:21.380] $GPGGA,25220.0,4327.732145,N,14148.3577946,E,4,9,1.4,108.6898,M,31.83,M,3.0,0000*5F,43.46220241666667,141.80596324333334,565198.3077183794,4812459.114534455
1333,[2021-01-29 11:52:21.473] $GPGGA,25220.1,4327.7321456,N,14148.3577951,E,4,9,1.4,108.6907,M,31.83,M,3.0,0000*59,43.46220242666667,141.80596325166667,565198.3083817591,4812459.115651558
1334,[2021-01-29 11:52:21.583] $GPGGA,25220.2,4327.732146,N,14148.357794299998,E,4,9,1.4,108.6906,M,31.83,M,3.0,0000*5D,43.46220243333334,141.80596323833328,565198.3072959871,4812459.116381506
1335,[2021-01-29 11:52:21.676] $GPGGA,25220.3,4327.7321458999995,N,14148.357795200001,E,4,9,1.4,108.6903,M,31.83,M,3.0,0000*53,43.462202431666654,141.80596325333337,565198.3085112126,4812459.11620815
1336,[2021-01-29 11:52:21.770] $GPGGA,25220.4,4327.732144899999,N,14148.3577947,E,4,9,1.4,108.6906,M,31.83,M,3.0,0000*54,43.462202414999986,141.805963245,565198.3078549934,4812459.114350662
1337,[2021-01-29 11:52:21.879] $GPGGA,25220.5,4327.732145100001,N,14148.3577946,E,4,9,1.4,108.6908,M,31.83,M,3.0,0000*53,43.46220241833334,141.80596324333334,565198.3077165883,4812459.114719553
1338,[2021-01-29 11:52:21.973] $GPGGA,25220.6,4327.7321444,N,14148.3577954,E,4,9,1.4,108.6894,M,31.83,M,3.0,0000*53,43.46220240666667,141.80596325666667,565198.3088077274,4812459.113434312
1339,[2021-01-29 11:52:22.067] $GPGGA,25220.7,4327.7321455,N,14148.3577954,E,4,9,1.4,108.6887,M,31.83,M,3.0,0000*50,43.462202425,141.80596325666667,565198.3087880249,4812459.115470374
1340,[2021-01-29 11:52:22.176] $GPGGA,25220.8,4327.7321462,N,14148.357794100002,E,4,9,1.4,108.689,M,31.83,M,3.0,0000*59,43.46220243666667,141.80596323500004,565198.3070227612,4812459.11674909
1341,[2021-01-29 11:52:22.272] $GPGGA,25220.9,4327.7321469,N,14148.357794100002,E,4,9,1.4,108.6883,M,31.83,M,3.0,0000*51,43.462202448333336,141.80596323500004,565198.3070102233,4812459.118044766
1342,[2021-01-29 11:52:22.381] $GPGGA,25221.0,4327.732147199999,N,14148.3577933,E,4,9,1.4,108.6886,M,31.83,M,4.0,0000*54,43.462202453333326,141.80596322166664,565198.3059262424,4812459.118589617
1343,[2021-01-29 11:52:22.475] $GPGGA,25221.1,4327.732147199999,N,14148.3577942,E,4,9,1.4,108.6882,M,31.83,M,4.0,0000*57,43.462202453333326,141.80596323666663,565198.3071396685,4812459.1186013585
1344,[2021-01-29 11:52:22.569] $GPGGA,25221.2,4327.7321466,N,14148.357794799998,E,4,9,1.4,108.6889,M,31.83,M,4.0,0000*50,43.46220244333334,141.80596324666664,565198.3079593689,4812459.117498609
1345,[2021-01-29 11:52:22.678] $GPGGA,25221.3,4327.7321456,N,14148.357794900001,E,4,9,1.4,108.6873,M,31.83,M,4.0,0000*56,43.46220242666667,141.80596324833337,565198.3081121114,4812459.115648948
1346,[2021-01-29 11:52:22.772] $GPGGA,25221.4,4327.732145800001,N,14148.3577956,E,4,9,1.4,108.6896,M,31.83,M,4.0,0000*5A,43.462202430000005,141.80596326,565198.3090523012,4812459.1160282735
1347,[2021-01-29 11:52:22.881] $GPGGA,25221.5,4327.732145800001,N,14148.357794299998,E,4,9,1.4,108.6893,M,31.83,M,4.0,0000*5A,43.462202430000005,141.80596323833328,565198.3072995695,4812459.116011313
1348,[2021-01-29 11:52:22.975] $GPGGA,25221.6,4327.7321461,N,14148.357794900001,E,4,9,1.4,108.6883,M,31.83,M,4.0,0000*58,43.462202435,141.80596324833337,565198.3081031557,4812459.11657443
1349,[2021-01-29 11:52:23.069] $GPGGA,25221.7,4327.7321461,N,14148.357794799998,E,4,9,1.4,108.6871,M,31.83,M,4.0,0000*55,43.462202435,141.80596324666664,565198.3079683245,4812459.116573125
1350,[2021-01-29 11:52:23.178] $GPGGA,25221.8,4327.7321461,N,14148.3577956,E,4,9,1.4,108.6869,M,31.83,M,4.0,0000*5C,43.462202435,141.80596326,565198.3090469278,4812459.116583562
1351,[2021-01-29 11:52:23.275] $GPGGA,25221.9,4327.732146,N,14148.3577951,E,4,9,1.4,108.6867,M,31.83,M,4.0,0000*55,43.46220243333334,141.80596325166667,565198.3083745945,4812459.116391944
1352,[2021-01-29 11:52:23.368] $GPGGA,25222.0,4327.7321461,N,14148.3577961,E,4,9,1.4,108.6852,M,31.83,M,5.0,0000*5A,43.462202435,141.8059632683333,565198.3097210523,4812459.116590087
1353,[2021-01-29 11:52:23.478] $GPGGA,25222.1,4327.7321465,N,14148.357796200002,E,4,9,1.4,108.6857,M,31.83,M,5.0,0000*59,43.462202441666676,141.80596327000003,565198.3098487188,4812459.117331778
1354,[2021-01-29 11:52:23.572] $GPGGA,25222.2,4327.7321467,N,14148.357795500002,E,4,9,1.4,108.6851,M,31.83,M,5.0,0000*5A,43.462202445,141.80596325833335,565198.3089013582,4812459.117692838
1355,[2021-01-29 11:52:23.681] $GPGGA,25222.3,4327.732147199999,N,14148.357794100002,E,4,9,1.4,108.6841,M,31.83,M,5.0,0000*5B,43.462202453333326,141.80596323500004,565198.3070048499,4812459.118600055
1356,[2021-01-29 11:52:23.775] $GPGGA,25222.4,4327.7321474,N,14148.357794299998,E,4,9,1.4,108.6847,M,31.83,M,5.0,0000*5E,43.46220245666666,141.80596323833328,565198.3072709112,4812459.118972856
1357,[2021-01-29 11:52:23.868] $GPGGA,25222.5,4327.7321471000005,N,14148.3577946,E,4,9,1.4,108.6852,M,31.83,M,5.0,0000*5B,43.46220245166668,141.80596324333334,565198.3076807654,4812459.118421484
1358,[2021-01-29 11:52:23.978] $GPGGA,25222.6,4327.7321462,N,14148.3577963,E,4,9,1.4,108.6847,M,31.83,M,5.0,0000*59,43.46220243666667,141.80596327166668,565198.3099889171,4812459.116777793
1359,[2021-01-29 11:52:24.071] $GPGGA,25222.7,4327.7321461,N,14148.357795200001,E,4,9,1.4,108.6861,M,31.83,M,5.0,0000*5D,43.462202435,141.80596325333337,565198.3085076304,4812459.116578344
1360,[2021-01-29 11:52:24.181] $GPGGA,25222.8,4327.7321471000005,N,14148.357794799998,E,4,9,1.4,108.6855,M,31.83,M,5.0,0000*5F,43.46220245166668,141.80596324666664,565198.3079504132,4812459.1184240915
1361,[2021-01-29 11:52:24.275] $GPGGA,25222.9,4327.7321463,N,14148.357796799999,E,4,9,1.4,108.6842,M,31.83,M,5.0,0000*59,43.462202438333335,141.80596328,565198.3106612484,4812459.116969412
1362,[2021-01-29 11:52:24.384] $GPGGA,25223.0,4327.7321461,N,14148.3577959,E,4,9,1.4,108.684,M,31.83,M,6.0,0000*50,43.462202435,141.805963265,565198.3094514046,4812459.116587477
1363,[2021-01-29 11:52:24.478] $GPGGA,25223.1,4327.732145800001,N,14148.3577967,E,4,9,1.4,108.6836,M,31.83,M,6.0,0000*57,43.462202430000005,141.80596327833334,565198.3105353813,4812459.116042625
1364,[2021-01-29 11:52:24.572] $GPGGA,25223.2,4327.732145100001,N,14148.357790600001,E,4,9,1.4,108.6881,M,31.83,M,1.0,0000*51,43.46220241833334,141.8059631766667,565198.302323578,4812459.114667364
1365,[2021-01-29 11:52:24.681] $GPGGA,25223.3,4327.7321448,N,14148.3577878,E,4,9,1.4,108.692,M,31.83,M,1.0,0000*5A,43.46220241333334,141.80596313,565198.29855384,4812459.114075544
1366,[2021-01-29 11:52:24.775] $GPGGA,25223.4,4327.732145399999,N,14148.3577877,E,4,9,1.4,108.693,M,31.83,M,1.0,0000*5E,43.46220242333332,141.80596312833336,565198.2984082703,4812459.1151848165
1367,[2021-01-29 11:52:24.869] $GPGGA,25223.5,4327.7321458999995,N,14148.3577868,E,4,9,1.4,108.6954,M,31.83,M,1.0,0000*5E,43.462202431666654,141.80596311333332,565198.2971858823,4812459.116098558
1368,[2021-01-29 11:52:24.978] $GPGGA,25223.6,4327.732145,N,14148.3577873,E,4,9,1.4,108.6941,M,31.83,M,1.0,0000*5A,43.46220241666667,141.80596312166668,565198.2978761313,4812459.114439213
1369,[2021-01-29 11:52:25.072] $GPGGA,25223.7,4327.7321448,N,14148.357788199999,E,4,9,1.4,108.6943,M,31.83,M,1.0,0000*5E,43.46220241333334,141.80596313666666,565198.2990931396,4812459.114080763
1370,[2021-01-29 11:52:25.181] $GPGGA,25223.8,4327.7321457,N,14148.357788,E,4,9,1.4,108.6951,M,31.83,M,1.0,0000*5E,43.462202428333335,141.8059631333333,565198.2988073674,4812459.115744022
1371,[2021-01-29 11:52:25.277] $GPGGA,25223.9,4327.7321448,N,14148.3577886,E,4,9,1.4,108.6946,M,31.83,M,1.0,0000*51,43.46220241333334,141.80596314333334,565198.2996324432,4812459.114085983
1372,[2021-01-29 11:52:25.371] $GPGGA,25224.0,4327.732146,N,14148.3577873,E,4,9,1.4,108.6937,M,31.83,M,2.0,0000*5A,43.46220243333334,141.80596312166668,565198.2978582198,4812459.116290179
1373,[2021-01-29 11:52:25.465] $GPGGA,25224.1,4327.7321458999995,N,14148.3577879,E,4,9,1.4,108.6919,M,31.83,M,2.0,0000*57,43.462202431666654,141.80596313166666,565198.2986689623,4812459.116112909
1374,[2021-01-29 11:52:25.574] $GPGGA,25224.2,4327.7321457,N,14148.357788,E,4,9,1.4,108.6921,M,31.83,M,2.0,0000*57,43.462202428333335,141.8059631333333,565198.2988073674,4812459.115744022
1375,[2021-01-29 11:52:25.668] $GPGGA,25224.3,4327.7321461,N,14148.3577873,E,4,9,1.4,108.6908,M,31.83,M,2.0,0000*54,43.462202435,141.80596312166668,565198.2978564287,4812459.116475275
1376,[2021-01-29 11:52:25.777] $GPGGA,25224.4,4327.7321457,N,14148.3577884,E,4,9,1.4,108.6914,M,31.83,M,2.0,0000*53,43.462202428333335,141.80596314,565198.2993466712,4812459.11574924
1377,[2021-01-29 11:52:25.871] $GPGGA,25224.5,4327.7321461,N,14148.3577865,E,4,9,1.4,108.6923,M,31.83,M,2.0,0000*5C,43.462202435,141.80596310833334,565198.2967778274,4812459.116464837
1378,[2021-01-29 11:52:25.980] $GPGGA,25224.6,4327.732145,N,14148.357788,E,4,9,1.4,108.6935,M,31.83,M,2.0,0000*51,43.46220241666667,141.8059631333333,565198.2988199055,4812459.114448345
1379,[2021-01-29 11:52:26.074] $GPGGA,25224.7,4327.732145100001,N,14148.3577884,E,4,9,1.4,108.6928,M,31.83,M,2.0,0000*59,43.46220241833334,141.80596314,565198.299357418,4812459.114638663
1380,[2021-01-29 11:52:26.168] $GPGGA,25224.8,4327.7321457,N,14148.3577865,E,4,9,1.4,108.6934,M,31.83,M,2.0,0000*52,43.462202428333335,141.80596310833334,565198.296784992,4812459.115724451
1381,[2021-01-29 11:52:26.278] $GPGGA,25224.9,4327.7321462,N,14148.3577872,E,4,9,1.4,108.693,M,31.83,M,2.0,0000*57,43.46220243666667,141.80596312000003,565198.2977198147,4812459.116659068
1382,[2021-01-29 11:52:26.372] $GPGGA,25225.0,4327.7321463,N,14148.3577878,E,4,9,1.4,108.6916,M,31.83,M,3.0,0000*51,43.462202438333335,141.80596313,565198.2985269729,4812459.116851992
1383,[2021-01-29 11:52:26.481] $GPGGA,25225.1,4327.7321466,N,14148.3577875,E,4,9,1.4,108.6911,M,31.83,M,3.0,0000*5F,43.46220244333334,141.80596312499998,565198.2981171206,4812459.117403368
1384,[2021-01-29 11:52:26.575] $GPGGA,25225.2,4327.7321471000005,N,14148.357787,E,4,9,1.4,108.6914,M,31.83,M,3.0,0000*5A,43.46220245166668,141.80596311666667,565198.2974340426,4812459.118322328
1385,[2021-01-29 11:52:26.685] $GPGGA,25225.3,4327.7321464,N,14148.357788100002,E,4,9,1.4,108.6909,M,31.83,M,3.0,0000*5D,43.46220243999999,141.80596313500004,565198.2989296606,4812459.117041001
1386,[2021-01-29 11:52:26.778] $GPGGA,25225.4,4327.7321468,N,14148.357787,E,4,9,1.4,108.6914,M,31.83,M,3.0,0000*54,43.46220244666666,141.80596311666667,565198.2974394159,4812459.117767036
1387,[2021-01-29 11:52:26.872] $GPGGA,25225.5,4327.7321469,N,14148.3577866,E,4,9,1.4,108.6915,M,31.83,M,3.0,0000*52,43.462202448333336,141.80596311,565198.2968983211,4812459.117946914
1388,[2021-01-29 11:52:26.966] $GPGGA,25225.6,4327.732147,N,14148.3577879,E,4,9,1.4,108.6919,M,31.83,M,3.0,0000*5B,43.46220244999999,141.80596313166666,565198.2986492598,4812459.118148971
1389,[2021-01-29 11:52:27.075] $GPGGA,25225.7,4327.7321458999995,N,14148.357787600002,E,4,9,1.4,108.6918,M,31.83,M,3.0,0000*5F,43.462202431666654,141.8059631266667,565198.2982644897,4812459.116108994
1390,[2021-01-29 11:52:27.169] $GPGGA,25225.8,4327.7321471000005,N,14148.357785600001,E,4,9,1.4,108.6921,M,31.83,M,3.0,0000*52,43.46220245166668,141.80596309333336,565198.2955464878,4812459.118304062
1391,[2021-01-29 11:52:27.279] $GPGGA,25225.9,4327.7321474,N,14148.357786700002,E,4,9,1.4,108.6912,M,31.83,M,3.0,0000*54,43.46220245666666,141.80596311166667,565198.2970241924,4812459.118873701
1392,[2021-01-29 11:52:27.373] $GPGGA,25226.0,4327.7321465,N,14148.357786200002,E,4,9,1.4,108.6915,M,31.83,M,4.0,0000*5B,43.462202441666676,141.8059631033334,565198.2963661903,4812459.117201311
1393,[2021-01-29 11:52:27.482] $GPGGA,25226.1,4327.7321466,N,14148.3577866,E,4,9,1.4,108.6917,M,31.83,M,4.0,0000*5F,43.46220244333334,141.80596311,565198.2969036945,4812459.117391626
1394,[2021-01-29 11:52:27.576] $GPGGA,25226.2,4327.7321463,N,14148.357788100002,E,4,9,1.4,108.6905,M,31.83,M,4.0,0000*53,43.462202438333335,141.80596313500004,565198.2989314516,4812459.116855905
1395,[2021-01-29 11:52:27.685] $GPGGA,25226.3,4327.7321468,N,14148.357788,E,4,9,1.4,108.6912,M,31.83,M,4.0,0000*5E,43.46220244666666,141.8059631333333,565198.298787665,4812459.117780083
1396,[2021-01-29 11:52:27.779] $GPGGA,25226.4,4327.7321471000005,N,14148.3577884,E,4,9,1.4,108.6911,M,31.83,M,4.0,0000*56,43.46220245166668,141.80596314,565198.2993215952,4812459.118340593
1397,[2021-01-29 11:52:27.872] $GPGGA,25226.5,4327.7321473,N,14148.357786899998,E,4,9,1.4,108.6908,M,31.83,M,4.0,0000*5E,43.462202455,141.80596311499997,565198.2972956313,4812459.118691214
1398,[2021-01-29 11:52:27.982] $GPGGA,25226.6,4327.7321466,N,14148.3577872,E,4,9,1.4,108.6915,M,31.83,M,4.0,0000*5F,43.46220244333334,141.80596312000003,565198.2977126502,4812459.117399454
1399,[2021-01-29 11:52:28.076] $GPGGA,25226.7,4327.7321465,N,14148.357787600002,E,4,9,1.4,108.6917,M,31.83,M,4.0,0000*5B,43.462202441666676,141.8059631266667,565198.2982537429,4812459.117219576
1400,[2021-01-29 11:52:28.169] $GPGGA,25226.8,4327.732145399999,N,14148.3577889,E,4,9,1.4,108.6918,M,31.83,M,4.0,0000*59,43.46220242333332,141.80596314833335,565198.3000261732,4812459.115200472
1401,[2021-01-29 11:52:28.265] $GPGGA,25226.9,4327.7321457,N,14148.357789200001,E,4,9,1.4,108.6925,M,31.83,M,4.0,0000*5F,43.462202428333335,141.80596315333332,565198.3004252724,4812459.115759678
1402,[2021-01-29 11:52:28.375] $GPGGA,25227.0,4327.732146,N,14148.3577884,E,4,9,1.4,108.6896,M,31.83,M,5.0,0000*5C,43.46220243333334,141.80596314,565198.2993412977,4812459.116304531
1403,[2021-01-29 11:52:28.468] $GPGGA,25227.1,4327.7321462,N,14148.3577879,E,4,9,1.4,108.6894,M,31.83,M,5.0,0000*5F,43.46220243666667,141.80596313166666,565198.2986635889,4812459.1166682
1404,[2021-01-29 11:52:28.578] $GPGGA,25227.2,4327.7321462,N,14148.357788100002,E,4,9,1.4,108.6897,M,31.83,M,5.0,0000*58,43.46220243666667,141.80596313500004,565198.2989332428,4812459.11667081
1405,[2021-01-29 11:52:28.671] $GPGGA,25227.3,4327.732147,N,14148.3577885,E,4,9,1.4,108.6901,M,31.83,M,5.0,0000*50,43.46220244999999,141.80596314166664,565198.2994582092,4812459.118156799
1406,[2021-01-29 11:52:28.781] $GPGGA,25227.4,4327.732147,N,14148.3577878,E,4,9,1.4,108.6903,M,31.83,M,5.0,0000*57,43.46220244999999,141.80596313,565198.298514435,4812459.118147667
1407,[2021-01-29 11:52:28.875] $GPGGA,25227.5,4327.7321462,N,14148.3577887,E,4,9,1.4,108.692,M,31.83,M,5.0,0000*54,43.46220243666667,141.805963145,565198.2997421902,4812459.1166786365
1408,[2021-01-29 11:52:28.984] $GPGGA,25227.6,4327.7321467,N,14148.357787600002,E,4,9,1.4,108.6911,M,31.83,M,5.0,0000*5E,43.462202445,141.8059631266667,565198.2982501606,4812459.117589769
1409,[2021-01-29 11:52:29.078] $GPGGA,25227.7,4327.7321463,N,14148.3577886,E,4,9,1.4,108.692,M,31.83,M,5.0,0000*56,43.462202438333335,141.80596314333334,565198.2996055762,4812459.116862429
1410,[2021-01-29 11:52:29.171] $GPGGA,25227.8,4327.732147199999,N,14148.3577889,E,4,9,1.4,108.6884,M,31.83,M,5.0,0000*59,43.462202453333326,141.80596314833335,565198.2999939327,4812459.1185322115
1411,[2021-01-29 11:52:29.266] $GPGGA,25227.9,4327.732146,N,14148.357790600001,E,4,9,1.4,108.6902,M,31.83,M,5.0,0000*52,43.46220243333334,141.8059631766667,565198.3023074578,4812459.116333234
1412,[2021-01-29 11:52:29.376] $GPGGA,25228.0,4327.732147199999,N,14148.357788100002,E,4,9,1.4,108.6891,M,31.83,M,6.0,0000*51,43.462202453333326,141.80596313500004,565198.2989153315,4812459.118521773
1413,[2021-01-29 11:52:29.470] $GPGGA,25228.1,4327.732147,N,14148.357788799998,E,4,9,1.4,108.6902,M,31.83,M,6.0,0000*50,43.46220244999999,141.80596314666664,565198.299862686,4812459.118160713
1414,[2021-01-29 11:52:29.579] $GPGGA,25228.2,4327.7321466,N,14148.357786700002,E,4,9,1.4,108.6973,M,31.83,M,1.0,0000*54,43.46220244333334,141.80596311166667,565198.2970385215,4812459.11739293
1415,[2021-01-29 11:52:29.673] $GPGGA,25228.3,4327.7321445,N,14148.3577857,E,4,9,1.4,108.7021,M,31.83,M,1.0,0000*58,43.46220240833333,141.805963095,565198.2957278824,4812459.113492857
1416,[2021-01-29 11:52:29.782] $GPGGA,25228.4,4327.7321448,N,14148.357786000002,E,4,9,1.4,108.7045,M,31.83,M,1.0,0000*54,43.46220241333334,141.80596310000004,565198.2961269878,4812459.11405206
1417,[2021-01-29 11:52:29.876] $GPGGA,25228.5,4327.7321445,N,14148.3577865,E,4,9,1.4,108.7049,M,31.83,M,1.0,0000*51,43.46220240833333,141.80596310833334,565198.2968064856,4812459.113503295
1418,[2021-01-29 11:52:29.970] $GPGGA,25228.6,4327.732145,N,14148.357785100001,E,4,9,1.4,108.7068,M,31.83,M,1.0,0000*52,43.46220241666667,141.805963085,565198.2949099732,4812459.114410509
1419,[2021-01-29 11:52:30.079] $GPGGA,25228.7,4327.732145100001,N,14148.357784399997,E,4,9,1.4,108.7054,M,31.83,M,1.0,0000*59,43.46220241833334,141.8059630733333,565198.2939644016,4812459.114586475
1420,[2021-01-29 11:52:30.173] $GPGGA,25228.8,4327.7321458999995,N,14148.3577843,E,4,9,1.4,108.7049,M,31.83,M,1.0,0000*55,43.462202431666654,141.80596307166667,565198.2938152518,4812459.11606594
1421,[2021-01-29 11:52:30.284] $GPGGA,25228.9,4327.732145399999,N,14148.3577864,E,4,9,1.4,108.7037,M,31.83,M,1.0,0000*55,43.46220242333332,141.8059631066667,565198.2966555406,4812459.115167856
1422,[2021-01-29 11:52:30.378] $GPGGA,25229.0,4327.7321445,N,14148.357787399998,E,4,9,1.4,108.7039,M,31.83,M,2.0,0000*51,43.46220240833333,141.80596312333333,565198.2980199117,4812459.113515036
1423,[2021-01-29 11:52:30.472] $GPGGA,25229.1,4327.7321452,N,14148.3577865,E,4,9,1.4,108.7025,M,31.83,M,2.0,0000*5B,43.46220241999999,141.80596310833334,565198.2967939477,4812459.114798969
1424,[2021-01-29 11:52:30.566] $GPGGA,25229.2,4327.7321445,N,14148.3577877,E,4,9,1.4,108.7016,M,31.83,M,2.0,0000*5D,43.46220240833333,141.80596312833336,565198.2984243906,4812459.11351895
1425,[2021-01-29 11:52:30.675] $GPGGA,25229.3,4327.7321448,N,14148.357786899998,E,4,9,1.4,108.7015,M,31.83,M,2.0,0000*5D,43.46220241333334,141.80596311499997,565198.2973404097,4812459.114063802
1426,[2021-01-29 11:52:30.769] $GPGGA,25229.4,4327.7321452,N,14148.357786300001,E,4,9,1.4,108.7023,M,31.83,M,2.0,0000*5E,43.46220241999999,141.80596310500005,565198.2965243,4812459.11479636
1427,[2021-01-29 11:52:30.878] $GPGGA,25229.5,4327.732145800001,N,14148.357786700002,E,4,9,1.4,108.7008,M,31.83,M,2.0,0000*58,43.462202430000005,141.80596311166667,565198.2970528507,4812459.115912157
1428,[2021-01-29 11:52:30.972] $GPGGA,25229.6,4327.7321456,N,14148.3577857,E,4,9,1.4,108.7023,M,31.83,M,2.0,0000*5F,43.46220242666667,141.805963095,565198.2957081798,4812459.115528918
1429,[2021-01-29 11:52:31.081] $GPGGA,25229.7,4327.732145100001,N,14148.3577864,E,4,9,1.4,108.7011,M,31.83,M,2.0,0000*58,43.46220241833334,141.8059631066667,565198.296660914,4812459.114612568
1430,[2021-01-29 11:52:31.175] $GPGGA,25229.8,4327.732145800001,N,14148.357787600002,E,4,9,1.4,108.7007,M,31.83,M,2.0,0000*5A,43.462202430000005,141.8059631266667,565198.2982662809,4812459.1159239
1431,[2021-01-29 11:52:31.270] $GPGGA,25229.9,4327.7321453,N,14148.3577884,E,4,9,1.4,108.7014,M,31.83,M,2.0,0000*5F,43.462202421666674,141.80596314,565198.2993538358,4812459.115008855
1432,[2021-01-29 11:52:31.379] $GPGGA,25230.0,4327.7321453,N,14148.3577875,E,4,9,1.4,108.7006,M,31.83,M,3.0,0000*52,43.462202421666674,141.80596312499998,565198.2981404054,4812459.114997112
1433,[2021-01-29 11:52:31.473] $GPGGA,25230.1,4327.732145399999,N,14148.357786300001,E,4,9,1.4,108.7006,M,31.83,M,3.0,0000*53,43.46220242333332,141.80596310500005,565198.2965207177,4812459.1151665505
1434,[2021-01-29 11:52:31.582] $GPGGA,25230.2,4327.7321452,N,14148.357786899998,E,4,9,1.4,108.7017,M,31.83,M,3.0,0000*5C,43.46220241999999,141.80596311499997,565198.2973332453,4812459.114804187
1435,[2021-01-29 11:52:31.676] $GPGGA,25230.3,4327.732145,N,14148.3577879,E,4,9,1.4,108.701,M,31.83,M,3.0,0000*59,43.46220241666667,141.80596313166666,565198.2986850826,4812459.1144470405
1436,[2021-01-29 11:52:31.770] $GPGGA,25230.4,4327.7321452,N,14148.3577878,E,4,9,1.4,108.7001,M,31.83,M,3.0,0000*5D,43.46220241999999,141.80596313,565198.2985466755,4812459.114815929
1437,[2021-01-29 11:52:31.879] $GPGGA,25230.5,4327.732145399999,N,14148.357786700002,E,4,9,1.4,108.7005,M,31.83,M,3.0,0000*50,43.46220242333332,141.80596311166667,565198.2970600153,4812459.11517177
1438,[2021-01-29 11:52:31.973] $GPGGA,25230.6,4327.7321443,N,14148.357788999998,E,4,9,1.4,108.7005,M,31.83,M,3.0,0000*5D,43.462202405,141.80596315,565198.3001806986,4812459.113165717
1439,[2021-01-29 11:52:32.067] $GPGGA,25230.7,4327.7321445,N,14148.357788999998,E,4,9,1.4,108.7,M,31.83,M,3.0,0000*5F,43.46220240833333,141.80596315,565198.3001771163,4812459.113535911
1440,[2021-01-29 11:52:32.176] $GPGGA,25230.8,4327.7321445,N,14148.357788799998,E,4,9,1.4,108.6982,M,31.83,M,3.0,0000*5B,43.46220240833333,141.80596314666664,565198.2999074644,4812459.113533301
1441,[2021-01-29 11:52:32.271] $GPGGA,25230.9,4327.732144899999,N,14148.357787399998,E,4,9,1.4,108.6986,M,31.83,M,3.0,0000*51,43.462202414999986,141.80596312333333,565198.2980127472,4812459.11425542
1442,[2021-01-29 11:52:32.381] $GPGGA,25231.0,4327.7321462,N,14148.357785799997,E,4,9,1.4,108.6972,M,31.83,M,4.0,0000*52,43.46220243666667,141.8059630966666,565198.2958322518,4812459.116640801
1443,[2021-01-29 11:52:32.474] $GPGGA,25231.1,4327.7321455,N,14148.3577879,E,4,9,1.4,108.6968,M,31.83,M,4.0,0000*5F,43.462202425,141.80596313166666,565198.2986761269,4812459.115372524
1444,[2021-01-29 11:52:32.584] $GPGGA,25231.2,4327.7321452,N,14148.357789500002,E,4,9,1.4,108.6965,M,31.83,M,4.0,0000*54,43.46220241999999,141.80596315833338,565198.300838709,4812459.114838108
1445,[2021-01-29 11:52:32.677] $GPGGA,25231.3,4327.7321453,N,14148.3577903,E,4,9,1.4,108.6963,M,31.83,M,4.0,0000*5C,43.462202421666674,141.80596317166666,565198.301915517,4812459.115033643
1446,[2021-01-29 11:52:32.771] $GPGGA,25231.4,4327.7321455,N,14148.357788999998,E,4,9,1.4,108.6962,M,31.83,M,4.0,0000*57,43.462202425,141.80596315,565198.3001592049,4812459.115386875
1447,[2021-01-29 11:52:32.865] $GPGGA,25231.5,4327.732144899999,N,14148.3577896,E,4,9,1.4,108.697,M,31.83,M,4.0,0000*5E,43.462202414999986,141.80596316000003,565198.3009789073,4812459.114284123
1448,[2021-01-29 11:52:32.974] $GPGGA,25231.6,4327.7321446999995,N,14148.3577896,E,4,9,1.4,108.6969,M,31.83,M,4.0,0000*5B,43.46220241166665,141.80596316000003,565198.3009824896,4812459.11391393
1449,[2021-01-29 11:52:33.084] $GPGGA,25231.7,4327.7321448,N,14148.357788999998,E,4,9,1.4,108.6964,M,31.83,M,4.0,0000*5E,43.46220241333334,141.80596315,565198.3001717429,4812459.114091201
1450,[2021-01-29 11:52:33.178] $GPGGA,25231.8,4327.7321453,N,14148.357790200002,E,4,9,1.4,108.6959,M,31.83,M,4.0,0000*5F,43.462202421666674,141.80596317,565198.3017806921,4812459.1150323395
1451,[2021-01-29 11:52:33.273] $GPGGA,25231.9,4327.7321452,N,14148.3577899,E,4,9,1.4,108.696,M,31.83,M,4.0,0000*56,43.46220241999999,141.80596316499998,565198.3013780044,4812459.114843328
1452,[2021-01-29 11:52:33.382] $GPGGA,25232.0,4327.732145399999,N,14148.3577894,E,4,9,1.4,108.6952,M,31.83,M,5.0,0000*57,43.46220242333332,141.80596315666662,565198.3007002936,4812459.115206997
1453,[2021-01-29 11:52:33.476] $GPGGA,25232.1,4327.732146,N,14148.3577884,E,4,9,1.4,108.6943,M,31.83,M,5.0,0000*50,43.46220243333334,141.80596314,565198.2993412977,4812459.116304531
1454,[2021-01-29 11:52:33.570] $GPGGA,25232.2,4327.7321462,N,14148.357788999998,E,4,9,1.4,108.6949,M,31.83,M,5.0,0000*5E,43.46220243666667,141.80596315,565198.3001466668,4812459.116682551
1455,[2021-01-29 11:52:33.679] $GPGGA,25232.3,4327.7321462,N,14148.3577887,E,4,9,1.4,108.6934,M,31.83,M,5.0,0000*53,43.46220243666667,141.805963145,565198.2997421902,4812459.1166786365
1456,[2021-01-29 11:52:33.773] $GPGGA,25232.4,4327.7321465,N,14148.357789200001,E,4,9,1.4,108.6953,M,31.83,M,5.0,0000*56,43.462202441666676,141.80596315333332,565198.3004109432,4812459.117240449
1457,[2021-01-29 11:52:33.882] $GPGGA,25232.5,4327.7321458999995,N,14148.357789200001,E,4,9,1.4,108.6943,M,31.83,M,5.0,0000*59,43.462202431666654,141.80596315333332,565198.3004216901,4812459.11612987
1458,[2021-01-29 11:52:33.976] $GPGGA,25232.6,4327.7321456,N,14148.357791100001,E,4,9,1.4,108.693,M,31.83,M,5.0,0000*5B,43.46220242666667,141.805963185,565198.3029887448,4812459.1155993715
1459,[2021-01-29 11:52:34.070] $GPGGA,25232.7,4327.7321452,N,14148.357791600001,E,4,9,1.4,108.6933,M,31.83,M,5.0,0000*5A,43.46220241999999,141.80596319333333,565198.3036700359,4812459.114865506
1460,[2021-01-29 11:52:34.179] $GPGGA,25232.8,4327.7321465,N,14148.3577898,E,4,9,1.4,108.6931,M,31.83,M,5.0,0000*54,43.462202441666676,141.80596316333333,565198.3012198968,4812459.117248279
1461,[2021-01-29 11:52:34.274] $GPGGA,25232.9,4327.7321458999995,N,14148.3577914,E,4,9,1.4,108.6939,M,31.83,M,5.0,0000*57,43.462202431666654,141.80596319,565198.3033878481,4812459.116158572
1462,[2021-01-29 11:52:34.368] $GPGGA,25233.0,4327.7321452,N,14148.357791600001,E,4,9,1.4,108.6913,M,31.83,M,6.0,0000*5D,43.46220241999999,141.80596319333333,565198.3036700359,4812459.114865506
1463,[2021-01-29 11:52:34.478] $GPGGA,25233.1,4327.7321452,N,14148.3577914,E,4,9,1.4,108.6935,M,31.83,M,6.0,0000*5A,43.46220241999999,141.80596319,565198.3034003861,4812459.114862897
1464,[2021-01-29 11:52:34.571] $GPGGA,25233.2,4327.7321413,N,14148.357794100002,E,4,9,1.4,108.6966,M,31.83,M,1.0,0000*5D,43.462202355,141.80596323500004,565198.3071105271,4812459.107679361
1465,[2021-01-29 11:52:34.681] $GPGGA,25233.3,4327.7321403000005,N,14148.357793700001,E,4,9,1.4,108.6985,M,31.83,M,1.0,0000*51,43.462202338333334,141.80596322833335,565198.306589137,4812459.105823176
1466,[2021-01-29 11:52:34.774] $GPGGA,25233.4,4327.732139399999,N,14148.357794100002,E,4,9,1.4,108.7006,M,31.83,M,1.0,0000*5D,43.462202323333315,141.80596323500004,565198.3071445588,4812459.104162524
1467,[2021-01-29 11:52:34.868] $GPGGA,25233.5,4327.732139600001,N,14148.357794900001,E,4,9,1.4,108.7015,M,31.83,M,1.0,0000*54,43.46220232666668,141.80596324833337,565198.3082195799,4812459.104543157
1468,[2021-01-29 11:52:34.978] $GPGGA,25233.6,4327.7321401,N,14148.357794,E,4,9,1.4,108.702,M,31.83,M,1.0,0000*51,43.462202335,141.80596323333333,565198.3069971919,4812459.105456897
1469,[2021-01-29 11:52:35.071] $GPGGA,25233.7,4327.732139600001,N,14148.357795299999,E,4,9,1.4,108.7027,M,31.83,M,1.0,0000*5C,43.46220232666668,141.80596325499997,565198.3087588754,4812459.104548375
1470,[2021-01-29 11:52:35.181] $GPGGA,25233.8,4327.7321398,N,14148.357794999998,E,4,9,1.4,108.7015,M,31.83,M,1.0,0000*5F,43.46220233000001,141.80596324999996,565198.3083508163,4812459.104914655
1471,[2021-01-29 11:52:35.276] $GPGGA,25233.9,4327.7321403000005,N,14148.357794100002,E,4,9,1.4,108.7013,M,31.83,M,1.0,0000*5D,43.462202338333334,141.80596323500004,565198.3071284385,4812459.105828395
1472,[2021-01-29 11:52:35.385] $GPGGA,25234.0,4327.73214,N,14148.3577944,E,4,9,1.4,108.6997,M,31.83,M,2.0,0000*52,43.46220233333333,141.80596324000004,565198.3075382888,4812459.105277019
1473,[2021-01-29 11:52:35.479] $GPGGA,25234.1,4327.7321403000005,N,14148.3577945,E,4,9,1.4,108.6988,M,31.83,M,2.0,0000*5F,43.462202338333334,141.8059632416667,565198.3076677382,4812459.105833613
1474,[2021-01-29 11:52:35.573] $GPGGA,25234.2,4327.7321408,N,14148.357794999998,E,4,9,1.4,108.6985,M,31.83,M,2.0,0000*5E,43.462202346666665,141.80596324999996,565198.3083329048,4812459.106765619
1475,[2021-01-29 11:52:35.667] $GPGGA,25234.3,4327.7321402,N,14148.3577947,E,4,9,1.4,108.6985,M,31.83,M,2.0,0000*53,43.462202336666664,141.805963245,565198.307939177,4812459.105651125
1476,[2021-01-29 11:52:35.776] $GPGGA,25234.4,4327.7321402,N,14148.357795200001,E,4,9,1.4,108.6982,M,31.83,M,2.0,0000*57,43.462202336666664,141.80596325333337,565198.3086133077,4812459.10565765
1477,[2021-01-29 11:52:35.870] $GPGGA,25234.5,4327.7321406,N,14148.3577954,E,4,9,1.4,108.6985,M,31.83,M,2.0,0000*53,43.46220234333333,141.80596325666667,565198.3088757908,4812459.106400644
1478,[2021-01-29 11:52:35.979] $GPGGA,25234.6,4327.7321403000005,N,14148.357796200002,E,4,9,1.4,108.6987,M,31.83,M,2.0,0000*52,43.462202338333334,141.80596327000003,565198.3099597696,4812459.105855793
1479,[2021-01-29 11:52:36.073] $GPGGA,25234.7,4327.7321393,N,14148.3577967,E,4,9,1.4,108.7001,M,31.83,M,2.0,0000*5E,43.462202321666666,141.80596327833334,565198.3106518055,4812459.104011352
1480,[2021-01-29 11:52:36.182] $GPGGA,25234.8,4327.7321403000005,N,14148.3577946,E,4,9,1.4,108.7,M,31.83,M,2.0,0000*5D,43.462202338333334,141.80596324333334,565198.3078025631,4812459.105834918
1481,[2021-01-29 11:52:36.280] $GPGGA,25234.9,4327.7321402,N,14148.357795200001,E,4,9,1.4,108.699,M,31.83,M,2.0,0000*59,43.462202336666664,141.80596325333337,565198.3086133077,4812459.10565765
1482,[2021-01-29 11:52:36.373] $GPGGA,25235.0,4327.7321408,N,14148.357794100002,E,4,9,1.4,108.6996,M,31.83,M,3.0,0000*5E,43.462202346666665,141.80596323500004,565198.3071194829,4812459.106753876
1483,[2021-01-29 11:52:36.467] $GPGGA,25235.1,4327.7321409,N,14148.357795700002,E,4,9,1.4,108.7004,M,31.83,M,3.0,0000*5A,43.46220234833333,141.8059632616667,565198.3092748962,4812459.106959848
1484,[2021-01-29 11:52:36.577] $GPGGA,25235.2,4327.7321405,N,14148.357795299999,E,4,9,1.4,108.6993,M,31.83,M,3.0,0000*57,43.46220234166667,141.80596325499997,565198.308742755,4812459.106214243
1485,[2021-01-29 11:52:36.670] $GPGGA,25235.3,4327.7321402,N,14148.357797100001,E,4,9,1.4,108.6986,M,31.83,M,3.0,0000*55,43.462202336666664,141.80596328500002,565198.3111749869,4812459.105682439
1486,[2021-01-29 11:52:36.780] $GPGGA,25235.4,4327.7321406,N,14148.357797,E,4,9,1.4,108.6984,M,31.83,M,3.0,0000*55,43.46220234333333,141.80596328333334,565198.3110329973,4812459.10642152
1487,[2021-01-29 11:52:36.873] $GPGGA,25235.5,4327.7321407,N,14148.3577972,E,4,9,1.4,108.6981,M,31.83,M,3.0,0000*52,43.462202345,141.80596328666667,565198.3113008561,4812459.106609226
1488,[2021-01-29 11:52:36.983] $GPGGA,25235.6,4327.7321409,N,14148.357796399998,E,4,9,1.4,108.6975,M,31.83,M,3.0,0000*53,43.46220234833333,141.8059632733333,565198.3102186684,4812459.106968981
1489,[2021-01-29 11:52:37.077] $GPGGA,25235.7,4327.7321408,N,14148.3577958,E,4,9,1.4,108.698,M,31.83,M,3.0,0000*56,43.462202346666665,141.80596326333335,565198.3094115122,4812459.106776056
1490,[2021-01-29 11:52:37.170] $GPGGA,25235.8,4327.7321406,N,14148.3577963,E,4,9,1.4,108.6988,M,31.83,M,3.0,0000*57,43.46220234333333,141.80596327166668,565198.3100892211,4812459.106412387
1491,[2021-01-29 11:52:37.279] $GPGGA,25235.9,4327.7321405,N,14148.357795700002,E,4,9,1.4,108.7001,M,31.83,M,3.0,0000*5B,43.46220234166667,141.8059632616667,565198.3092820607,4812459.106219462
1492,[2021-01-29 11:52:37.373] $GPGGA,25236.0,4327.7321405,N,14148.3577959,E,4,9,1.4,108.6988,M,31.83,M,4.0,0000*51,43.46220234166667,141.805963265,565198.3095517085,4812459.106222072
1493,[2021-01-29 11:52:37.482] $GPGGA,25236.1,4327.7321409999995,N,14148.357795700002,E,4,9,1.4,108.699,M,31.83,M,4.0,0000*53,43.462202349999984,141.8059632616667,565198.3092731051,4812459.107144943
1494,[2021-01-29 11:52:37.576] $GPGGA,25236.2,4327.73214,N,14148.357797,E,4,9,1.4,108.7002,M,31.83,M,4.0,0000*57,43.46220233333333,141.80596328333334,565198.3110437442,4812459.105310939
1495,[2021-01-29 11:52:37.670] $GPGGA,25236.3,4327.7321398,N,14148.3577973,E,4,9,1.4,108.6987,M,31.83,M,4.0,0000*56,43.46220233000001,141.80596328833332,565198.3114517991,4812459.104944663
1496,[2021-01-29 11:52:37.779] $GPGGA,25236.4,4327.732139899999,N,14148.357796899998,E,4,9,1.4,108.6985,M,31.83,M,4.0,0000*59,43.46220233166666,141.80596328166664,565198.3109107064,4812459.105124539
1497,[2021-01-29 11:52:37.873] $GPGGA,25236.5,4327.7321405,N,14148.3577963,E,4,9,1.4,108.6998,M,31.83,M,4.0,0000*5C,43.46220234166667,141.80596327166668,565198.3100910122,4812459.10622729
1498,[2021-01-29 11:52:37.967] $GPGGA,25236.6,4327.7321408,N,14148.357797,E,4,9,1.4,108.7003,M,31.83,M,4.0,0000*5A,43.462202346666665,141.80596328333334,565198.3110294151,4812459.106791712
1499,[2021-01-29 11:52:38.076] $GPGGA,25236.7,4327.7321402,N,14148.3577963,E,4,9,1.4,108.7017,M,31.83,M,4.0,0000*56,43.462202336666664,141.80596327166668,565198.3100963857,4812459.105672002
1500,[2021-01-29 11:52:38.170] $GPGGA,25236.8,4327.7321398,N,14148.357797499999,E,4,9,1.4,108.7015,M,31.83,M,4.0,0000*58,43.46220233000001,141.80596329166667,565198.311721453,4812459.104947272
1501,[2021-01-29 11:52:38.280] $GPGGA,25236.9,4327.73214,N,14148.357796399998,E,4,9,1.4,108.7032,M,31.83,M,4.0,0000*5A,43.46220233333333,141.8059632733333,565198.3102347887,4812459.1053031115
1502,[2021-01-29 11:52:38.374] $GPGGA,25237.0,4327.7321409,N,14148.3577956,E,4,9,1.4,108.7006,M,31.83,M,5.0,0000*5C,43.46220234833333,141.80596326,565198.3091400672,4812459.106958543
1503,[2021-01-29 11:52:38.483] $GPGGA,25237.1,4327.7321409,N,14148.357797499999,E,4,9,1.4,108.6991,M,31.83,M,5.0,0000*5A,43.46220234833333,141.80596329166667,565198.3117017505,4812459.106983332
1504,[2021-01-29 11:52:38.577] $GPGGA,25237.2,4327.7321412,N,14148.3577947,E,4,9,1.4,108.6946,M,31.83,M,5.0,0000*58,43.46220235333333,141.805963245,565198.3079212656,4812459.107502092
1505,[2021-01-29 11:52:38.671] $GPGGA,25237.3,4327.7321416,N,14148.3577939,E,4,9,1.4,108.689,M,31.83,M,5.0,0000*5E,43.46220236000001,141.80596323166668,565198.3068355019,4812459.108232041
1506,[2021-01-29 11:52:38.780] $GPGGA,25237.4,4327.7321418,N,14148.357794900001,E,4,9,1.4,108.6873,M,31.83,M,5.0,0000*5D,43.46220236333333,141.80596324833337,565198.3081801747,4812459.10861528
1507,[2021-01-29 11:52:38.874] $GPGGA,25237.5,4327.7321409,N,14148.357796,E,4,9,1.4,108.6868,M,31.83,M,5.0,0000*5D,43.46220234833333,141.80596326666665,565198.3096793689,4812459.106963762
1508,[2021-01-29 11:52:38.983] $GPGGA,25237.6,4327.7321414,N,14148.3577954,E,4,9,1.4,108.6863,M,31.83,M,5.0,0000*5E,43.462202356666666,141.80596325666667,565198.3088614617,4812459.107881417
1509,[2021-01-29 11:52:39.077] $GPGGA,25237.7,4327.7321412,N,14148.357794900001,E,4,9,1.4,108.6861,M,31.83,M,5.0,0000*57,43.46220235333333,141.80596324833337,565198.3081909216,4812459.1075047
1510,[2021-01-29 11:52:39.186] $GPGGA,25237.8,4327.7321415,N,14148.357794999998,E,4,9,1.4,108.6862,M,31.83,M,5.0,0000*54,43.46220235833333,141.80596324999996,565198.3083203669,4812459.108061294
1511,[2021-01-29 11:52:39.266] $GPGGA,25237.9,4327.7321411,N,14148.3577956,E,4,9,1.4,108.6873,M,31.83,M,5.0,0000*57,43.46220235166667,141.80596326,565198.3091364849,4812459.107328738
1512,[2021-01-29 11:52:39.376] $GPGGA,25238.0,4327.7321415,N,14148.357795299999,E,4,9,1.4,108.6864,M,31.83,M,6.0,0000*55,43.46220235833333,141.80596325499997,565198.3087248435,4812459.108065208
1513,[2021-01-29 11:52:39.470] $GPGGA,25238.1,4327.7321418,N,14148.357795299999,E,4,9,1.4,108.6878,M,31.83,M,6.0,0000*54,43.46220236333333,141.80596325499997,565198.3087194702,4812459.108620499
1514,[2021-01-29 11:52:39.579] $GPGGA,25238.2,4327.7321389,N,14148.357794900001,E,4,9,1.4,108.6938,M,31.83,M,1.0,0000*51,43.462202315,141.80596324833337,565198.3082321178,4812459.10324748
1515,[2021-01-29 11:52:39.673] $GPGGA,25238.3,4327.7321375,N,14148.3577958,E,4,9,1.4,108.6986,M,31.83,M,1.0,0000*56,43.462202291666664,141.80596326333335,565198.3094706199,4812459.100667871
1516,[2021-01-29 11:52:39.782] $GPGGA,25238.4,4327.732137,N,14148.3577951,E,4,9,1.4,108.7012,M,31.83,M,1.0,0000*58,43.46220228333334,141.80596325166667,565198.3085357972,4812459.099733257
1517,[2021-01-29 11:52:39.876] $GPGGA,25238.5,4327.7321361,N,14148.3577945,E,4,9,1.4,108.7023,M,31.83,M,1.0,0000*5E,43.46220226833334,141.8059632416667,565198.307742966,4812459.09805956
1518,[2021-01-29 11:52:39.970] $GPGGA,25238.6,4327.7321359,N,14148.3577958,E,4,9,1.4,108.704,M,31.83,M,1.0,0000*5F,43.462202264999995,141.80596326333335,565198.3094992782,4812459.097706326
1519,[2021-01-29 11:52:40.079] $GPGGA,25238.7,4327.7321375,N,14148.3577946,E,4,9,1.4,108.7033,M,31.83,M,1.0,0000*5B,43.462202291666664,141.80596324333334,565198.307852715,4812459.100652214
1520,[2021-01-29 11:52:40.173] $GPGGA,25238.8,4327.7321376,N,14148.357794299998,E,4,9,1.4,108.7036,M,31.83,M,1.0,0000*57,43.46220229333334,141.80596323833328,565198.307446443,4812459.100833398
1521,[2021-01-29 11:52:40.283] $GPGGA,25238.9,4327.7321377,N,14148.3577939,E,4,9,1.4,108.7028,M,31.83,M,1.0,0000*55,43.462202295,141.80596323166668,565198.3069053564,4812459.101013275
1522,[2021-01-29 11:52:40.377] $GPGGA,25239.0,4327.7321366999995,N,14148.357794900001,E,4,9,1.4,108.7011,M,31.83,M,2.0,0000*52,43.46220227833332,141.80596324833337,565198.3082715229,4812459.099175356
1523,[2021-01-29 11:52:40.471] $GPGGA,25239.1,4327.7321378999995,N,14148.3577947,E,4,9,1.4,108.6999,M,31.83,M,2.0,0000*5A,43.462202298333324,141.805963245,565198.3079803733,4812459.101393905
1524,[2021-01-29 11:52:40.580] $GPGGA,25239.2,4327.7321368,N,14148.357795299999,E,4,9,1.4,108.7003,M,31.83,M,2.0,0000*57,43.46220228000001,141.80596325499997,565198.3088090272,4812459.099365673
1525,[2021-01-29 11:52:40.674] $GPGGA,25239.3,4327.732136899999,N,14148.3577954,E,4,9,1.4,108.7,M,31.83,M,2.0,0000*53,43.462202281666656,141.80596325666667,565198.308942063,4812459.099552073
1526,[2021-01-29 11:52:40.768] $GPGGA,25239.4,4327.732137399999,N,14148.357796200002,E,4,9,1.4,108.6994,M,31.83,M,2.0,0000*58,43.46220228999999,141.80596327000003,565198.3100117127,4812459.100487992
1527,[2021-01-29 11:52:40.877] $GPGGA,25239.5,4327.7321375,N,14148.357796,E,4,9,1.4,108.6993,M,31.83,M,2.0,0000*5D,43.462202291666664,141.80596326666665,565198.3097402677,4812459.100670479
1528,[2021-01-29 11:52:40.971] $GPGGA,25239.6,4327.7321373,N,14148.357797100001,E,4,9,1.4,108.6986,M,31.83,M,2.0,0000*5C,43.462202288333344,141.80596328500002,565198.3112269299,4812459.1003146395
1529,[2021-01-29 11:52:41.080] $GPGGA,25239.7,4327.7321366999995,N,14148.357796799999,E,4,9,1.4,108.698,M,31.83,M,2.0,0000*56,43.46220227833332,141.80596328,565198.310833198,4812459.099200145
1530,[2021-01-29 11:52:41.174] $GPGGA,25239.8,4327.7321366999995,N,14148.3577965,E,4,9,1.4,108.6985,M,31.83,M,2.0,0000*51,43.46220227833332,141.80596327499998,565198.3104287233,4812459.099196231
1531,[2021-01-29 11:52:41.269] $GPGGA,25239.9,4327.7321373,N,14148.357796200002,E,4,9,1.4,108.6988,M,31.83,M,2.0,0000*5F,43.462202288333344,141.80596327000003,565198.3100135038,4812459.100302898
1532,[2021-01-29 11:52:41.379] $GPGGA,25240.0,4327.732136600001,N,14148.357795500002,E,4,9,1.4,108.6995,M,31.83,M,3.0,0000*55,43.46220227666667,141.80596325833335,565198.3090822634,4812459.098998089
1533,[2021-01-29 11:52:41.472] $GPGGA,25240.1,4327.732137100001,N,14148.3577947,E,4,9,1.4,108.699,M,31.83,M,3.0,0000*54,43.46220228500001,141.805963245,565198.3079947024,4812459.099913135
1534,[2021-01-29 11:52:41.566] $GPGGA,25240.2,4327.7321377,N,14148.3577956,E,4,9,1.4,108.6992,M,31.83,M,3.0,0000*53,43.462202295,141.80596326,565198.3091973837,4812459.101035455
1535,[2021-01-29 11:52:41.675] $GPGGA,25240.3,4327.732137399999,N,14148.3577954,E,4,9,1.4,108.6996,M,31.83,M,3.0,0000*57,43.46220228999999,141.80596325666667,565198.3089331073,4812459.100477555
1536,[2021-01-29 11:52:41.769] $GPGGA,25240.4,4327.7321375,N,14148.3577966,E,4,9,1.4,108.6992,M,31.83,M,3.0,0000*54,43.462202291666664,141.80596327666663,565198.310549217,4812459.100678308
1537,[2021-01-29 11:52:41.878] $GPGGA,25240.5,4327.7321377,N,14148.357797499999,E,4,9,1.4,108.6994,M,31.83,M,3.0,0000*53,43.462202295,141.80596329166667,565198.311759067,4812459.101060243
1538,[2021-01-29 11:52:41.972] $GPGGA,25240.6,4327.7321377,N,14148.357797100001,E,4,9,1.4,108.6999,M,31.83,M,3.0,0000*59,43.462202295,141.80596328500002,565198.3112197653,4812459.101055025
1539,[2021-01-29 11:52:42.082] $GPGGA,25240.7,4327.7321373,N,14148.357796,E,4,9,1.4,108.702,M,31.83,M,3.0,0000*56,43.462202288333344,141.80596326666665,565198.3097438499,4812459.100300289
1540,[2021-01-29 11:52:42.175] $GPGGA,25240.8,4327.7321381,N,14148.357795299999,E,4,9,1.4,108.7013,M,31.83,M,3.0,0000*54,43.462202301666665,141.80596325499997,565198.3087857424,4812459.1017719265
1541,[2021-01-29 11:52:42.271] $GPGGA,25240.9,4327.7321378,N,14148.357795500002,E,4,9,1.4,108.7005,M,31.83,M,3.0,0000*52,43.46220229666666,141.80596325833335,565198.3090607697,4812459.101219246
1542,[2021-01-29 11:52:42.380] $GPGGA,25241.0,4327.7321375,N,14148.3577956,E,4,9,1.4,108.6998,M,31.83,M,4.0,0000*5F,43.462202291666664,141.80596326,565198.309200966,4812459.100665261
1543,[2021-01-29 11:52:42.474] $GPGGA,25241.1,4327.732137100001,N,14148.357796899998,E,4,9,1.4,108.7001,M,31.83,M,4.0,0000*5E,43.46220228500001,141.80596328166664,565198.3109608584,4812459.0999418385
