,Format,Time,Latitude,LatType,Longitude,LonType,Status,Satellite,LevelAccuracy,Altitude(sea),M(sea),Altitude(geoid),M(geoid),DGPS use,checksum,Lat,Lon,UTM_X,UTM_Y
1349,[2021-01-29 11:52:13.493] $GPGGA,25212.1,4327.73238783,N,14148.3575572,E,4,5.0,1.8,108.932,M,31.59,M,1.1,0266*4E,43.46220646383334,141.80595928666668,565197.9832936884,4812459.560907054
1350,[2021-01-29 11:52:13.587] $GPGGA,25212.2,4327.73238983,N,14148.3575567,E,4,5.0,1.8,108.92299999999999,M,31.59,M,1.2,0266*44,43.462206497166676,141.80595927833335,565197.9825837393,4812459.564602461
1351,[2021-01-29 11:52:13.696] $GPGGA,25212.3,4327.73238995,N,14148.35756004,E,4,5.0,1.8,108.929,M,31.59,M,1.3,0266*4F,43.46220649916666,141.805959334,565197.9870847539,4812459.564868151
1352,[2021-01-29 11:52:13.790] $GPGGA,25212.4,4327.73238874,N,14148.3575574,E,4,5.0,1.8,108.913,M,31.59,M,1.4,0266*4C,43.462206479,141.80595929000003,565197.983547041,4812459.562594041
1353,[2021-01-29 11:52:13.883] $GPGGA,25212.5,4327.73238895,N,14148.35755972,E,4,5.0,1.8,108.928,M,31.59,M,1.5,0266*44,43.46220648250001,141.80595932866666,565197.9866712244,4812459.5630130125
1354,[2021-01-29 11:52:13.993] $GPGGA,25212.6,4327.73239239,N,14148.35755632,E,4,5.0,1.8,108.932,M,31.59,M,1.6,0266*49,43.462206539833346,141.805959272,565197.9820255488,4812459.569335975
1355,[2021-01-29 11:52:14.086] $GPGGA,25212.7,4327.73238822,N,14148.35755945,E,4,5.0,1.8,108.92399999999999,M,31.59,M,1.7,0266*40,43.462206470333335,141.80595932416665,565197.9863202692,4812459.561658285
1356,[2021-01-29 11:52:14.196] $GPGGA,25212.8,4327.73238763,N,14148.35755932,E,4,5.0,1.8,108.919,M,31.59,M,1.8,0266*44,43.46220646049999,141.80595932200004,565197.9861555678,4812459.560564518
1357,[2021-01-29 11:52:14.291] $GPGGA,25212.9,4327.73238899,N,14148.35755845,E,4,5.0,1.8,108.917,M,31.59,M,1.9,0266*41,43.46220648316666,141.8059593075,565197.9849582245,4812459.563070481
1358,[2021-01-29 11:52:14.401] $GPGGA,25213.0,4327.7323909,N,14148.35755866,E,4,5.0,1.8,108.921,M,31.59,M,2.0,0266*47,43.46220651499999,141.805959311,565197.9852071498,4812459.566608563
1359,[2021-01-29 11:52:14.494] $GPGGA,25213.1,4327.73238547,N,14148.35756118,E,4,5.0,1.8,108.92200000000001,M,31.59,M,1.1,0266*4A,43.4622064245,141.80595935300002,565197.9887020069,4812459.556590701
1360,[2021-01-29 11:52:14.588] $GPGGA,25213.2,4327.73238738,N,14148.35756281,E,4,5.0,1.8,108.916,M,31.59,M,1.2,0266*44,43.46220645633332,141.80595938016666,565197.9908654448,4812459.56014731
1361,[2021-01-29 11:52:14.682] $GPGGA,25213.3,4327.73238981,N,14148.35755843,E,4,5.0,1.8,108.916,M,31.59,M,1.3,0266*4F,43.46220649683333,141.80595930716663,565197.984916571,4812459.564588012
1362,[2021-01-29 11:52:14.791] $GPGGA,25213.4,4327.7323901,N,14148.35756052,E,4,5.0,1.8,108.914,M,31.59,M,1.4,0266*46,43.46220650166667,141.805959342,565197.9877292275,4812459.565152059
1363,[2021-01-29 11:52:14.885] $GPGGA,25213.5,4327.73238558,N,14148.35756344,E,4,5.0,1.8,108.913,M,31.59,M,1.5,0266*4D,43.46220642633333,141.8059593906667,565197.991747089,4812459.556823794
1364,[2021-01-29 11:52:14.994] $GPGGA,25213.6,4327.73238922,N,14148.35756114,E,4,5.0,1.8,108.914,M,31.59,M,1.6,0266*4C,43.462206487,141.80595935233333,565197.988580907,4812459.5635313
1365,[2021-01-29 11:52:15.088] $GPGGA,25213.7,4327.73238895,N,14148.35756358,E,4,5.0,1.8,108.91,M,31.59,M,1.7,0266*4F,43.46220648250001,141.80595939300002,565197.9918754831,4812459.563063374
1366,[2021-01-29 11:52:15.197] $GPGGA,25213.8,4327.73238898,N,14148.35756211,E,4,5.0,1.8,108.92299999999999,M,31.59,M,1.8,0266*4E,43.462206483,141.80595936850003,565197.9898930145,4812459.563099723
1367,[2021-01-29 11:52:15.293] $GPGGA,25213.9,4327.73238829,N,14148.35756396,E,4,5.0,1.8,108.89299999999999,M,31.59,M,1.9,0266*40,43.4622064715,141.80595939933332,565197.9923996379,4812459.561846692
1368,[2021-01-29 11:52:15.402] $GPGGA,25214.0,4327.73238945,N,14148.35756048,E,4,5.0,1.8,108.906,M,31.59,M,2.0,0266*42,43.462206490833324,141.80595934133333,565197.9876869415,4812459.56394841
1369,[2021-01-29 11:52:15.480] $GPGGA,25214.1,4327.73238791,N,14148.35756352,E,4,5.0,1.8,108.921,M,31.59,M,1.1,0266*4B,43.46220646516667,141.805959392,565197.9918132143,4812459.561137588
1370,[2021-01-29 11:52:15.590] $GPGGA,25214.2,4327.73239073,N,14148.35756234,E,4,5.0,1.8,108.927,M,31.59,M,1.2,0266*46,43.46220651216666,141.80595937233332,565197.9901717637,4812459.566341912
1371,[2021-01-29 11:52:15.683] $GPGGA,25214.3,4327.73238667,N,14148.35756147,E,4,5.0,1.8,108.921,M,31.59,M,1.3,0266*45,43.462206444500005,141.80595935783336,565197.9890715058,4812459.558815644
1372,[2021-01-29 11:52:15.793] $GPGGA,25214.4,4327.73238879,N,14148.35756115,E,4,5.0,1.8,108.921,M,31.59,M,1.4,0266*43,43.46220647983334,141.80595935249997,565197.9886020889,4812459.562735516
1373,[2021-01-29 11:52:15.887] $GPGGA,25214.5,4327.73238384,N,14148.35756524,E,4,5.0,1.8,108.90299999999999,M,31.59,M,1.5,0266*4C,43.46220639733333,141.80595942066665,565197.9942051067,4812459.553626597
1374,[2021-01-29 11:52:15.996] $GPGGA,25214.6,4327.73238837,N,14148.3575622,E,4,5.0,1.8,108.921,M,31.59,M,1.6,0266*4C,43.46220647283333,141.80595937000004,565197.9900252833,4812459.561971808
1375,[2021-01-29 11:52:16.090] $GPGGA,25214.7,4327.73238829,N,14148.35756512,E,4,5.0,1.8,108.925,M,31.59,M,1.7,0266*41,43.4622064715,141.80595941866667,565197.9939636124,4812459.561861826
1376,[2021-01-29 11:52:16.199] $GPGGA,25214.8,4327.73238888,N,14148.35756005,E,4,5.0,1.8,108.929,M,31.59,M,1.8,0266*45,43.46220648133333,141.8059593341667,565197.9871174032,4812459.56288775
1377,[2021-01-29 11:52:16.294] $GPGGA,25214.9,4327.73238486,N,14148.35756665,E,4,5.0,1.8,108.90899999999999,M,31.59,M,1.9,0266*45,43.46220641433333,141.80595944416666,565197.9960878738,4812459.555532976
1378,[2021-01-29 11:52:16.404] $GPGGA,25215.0,4327.73238626,N,14148.35756094,E,4,5.0,1.8,108.926,M,31.59,M,2.0,0266*4A,43.462206437666666,141.80595934899998,565197.9883642728,4812459.558049833
1379,[2021-01-29 11:52:16.498] $GPGGA,25215.1,4327.73238102,N,14148.35756013,E,4,5.0,1.8,108.929,M,31.59,M,1.1,0266*48,43.462206350333325,141.8059593355,565197.9873660449,4812459.548340206
1380,[2021-01-29 11:52:16.591] $GPGGA,25215.2,4327.73237798,N,14148.35756373,E,4,5.0,1.8,108.927,M,31.59,M,1.2,0266*49,43.46220629966667,141.8059593955,565197.9922742055,4812459.542760241
1381,[2021-01-29 11:52:16.685] $GPGGA,25215.3,4327.73238006,N,14148.35756292,E,4,5.0,1.8,108.94,M,31.59,M,1.3,0266*49,43.462206334333324,141.805959382,565197.9911448648,4812459.546599679
1382,[2021-01-29 11:52:16.794] $GPGGA,25215.4,4327.73238069,N,14148.35756348,E,4,5.0,1.8,108.921,M,31.59,M,1.4,0266*41,43.462206344833334,141.80595939133332,565197.9918886016,4812459.547773095
1383,[2021-01-29 11:52:16.888] $GPGGA,25215.5,4327.73237946,N,14148.35756015,E,4,5.0,1.8,108.927,M,31.59,M,1.5,0266*47,43.46220632433332,141.80595933583334,565197.9874209507,4812459.545452961
1384,[2021-01-29 11:52:16.997] $GPGGA,25215.6,4327.73237887,N,14148.35756074,E,4,5.0,1.8,108.93700000000001,M,31.59,M,1.6,0266*4D,43.462206314499994,141.80595934566665,565197.9882269877,4812459.54436859
1385,[2021-01-29 11:52:17.091] $GPGGA,25215.7,4327.73238061,N,14148.35756083,E,4,5.0,1.8,108.931,M,31.59,M,1.7,0266*4C,43.4622063435,141.80595934716663,565197.9883171626,4812459.547590445
1386,[2021-01-29 11:52:17.201] $GPGGA,25215.8,4327.73238036,N,14148.35755954,E,4,5.0,1.8,108.927,M,31.59,M,1.8,0266*49,43.46220633933334,141.80595932566666,565197.986582397,4812459.547110872
1387,[2021-01-29 11:52:17.280] $GPGGA,25215.9,4327.73238001,N,14148.35755865,E,4,5.0,1.8,108.93700000000001,M,31.59,M,1.9,0266*4F,43.4622063335,141.80595931083332,565197.98538872,4812459.546451423
1388,[2021-01-29 11:52:17.389] $GPGGA,25216.0,4327.7323798,N,14148.35756371,E,4,5.0,1.8,108.926,M,31.59,M,2.0,0266*4D,43.462206329999994,141.80595939516664,565197.9922146407,4812459.546128736
1389,[2021-01-29 11:52:17.483] $GPGGA,25216.1,4327.73238208,N,14148.35755699,E,4,5.0,1.8,108.943,M,31.59,M,2.1,0266*4A,43.462206368,141.8059592831667,565197.9831135467,4812459.550261263
1390,[2021-01-29 11:52:17.592] $GPGGA,25216.2,4327.73239017,N,14148.35755576,E,4,5.0,1.8,108.91799999999999,M,31.59,M,1.2,0266*48,43.46220650283333,141.80595926266668,565197.981310291,4812459.565219524
1391,[2021-01-29 11:52:17.686] $GPGGA,25216.3,4327.73239215,N,14148.35755676,E,4,5.0,1.8,108.916,M,31.59,M,1.3,0266*45,43.46220653583333,141.80595927933336,565197.9826230817,4812459.568897481
1392,[2021-01-29 11:52:17.795] $GPGGA,25216.4,4327.73239258,N,14148.35754984,E,4,5.0,1.8,108.916,M,31.59,M,1.4,0266*4F,43.46220654300001,141.805959164,565197.9732854655,4812459.569603115
1393,[2021-01-29 11:52:17.889] $GPGGA,25216.5,4327.73238905,N,14148.35755731,E,4,5.0,1.8,108.917,M,31.59,M,1.5,0266*4D,43.462206484166664,141.80595928850002,565197.9834201457,4812459.563166666
1394,[2021-01-29 11:52:17.998] $GPGGA,25216.6,4327.7323902,N,14148.35755375,E,4,5.0,1.8,108.914,M,31.59,M,1.6,0266*45,43.462206503333334,141.80595922916666,565197.9785997636,4812459.56524883
1395,[2021-01-29 11:52:18.092] $GPGGA,25216.7,4327.73239204,N,14148.35755235,E,4,5.0,1.8,108.92200000000001,M,31.59,M,1.7,0266*41,43.462206534,141.80595920583335,565197.9766792542,4812459.568636342
1396,[2021-01-29 11:52:18.201] $GPGGA,25216.8,4327.7323886,N,14148.35755382,E,4,5.0,1.8,108.913,M,31.59,M,1.8,0266*47,43.46220647666667,141.80595923033334,565197.9787228004,4812459.5622882
1397,[2021-01-29 11:52:18.282] $GPGGA,25216.9,4327.73239306,N,14148.35755557,E,4,5.0,1.8,108.905,M,31.59,M,1.9,0266*44,43.462206550999994,141.8059592595,565197.9810023597,4812459.570566336
1398,[2021-01-29 11:52:18.391] $GPGGA,25217.0,4327.73239166,N,14148.3575546,E,4,5.0,1.8,108.914,M,31.59,M,2.0,0266*47,43.46220652766666,141.80595924333332,565197.9797196287,4812459.567962329
1399,[2021-01-29 11:52:18.485] $GPGGA,25217.1,4327.73238977,N,14148.35755217,E,4,5.0,1.8,108.925,M,31.59,M,1.1,0266*49,43.462206496166665,141.80595920283335,565197.9764772273,4812459.5644323
1400,[2021-01-29 11:52:18.594] $GPGGA,25217.2,4327.73238764,N,14148.35755516,E,4,5.0,1.8,108.925,M,31.59,M,1.2,0266*43,43.462206460666664,141.8059592526667,565197.9805466573,4812459.560528754
1401,[2021-01-29 11:52:18.688] $GPGGA,25217.3,4327.73238966,N,14148.35755551,E,4,5.0,1.8,108.921,M,31.59,M,1.3,0266*48,43.46220649433334,141.8059592585,565197.9809823615,4812459.564272271
1402,[2021-01-29 11:52:18.797] $GPGGA,25217.4,4327.73239324,N,14148.35755192,E,4,5.0,1.8,108.93,M,31.59,M,1.4,0266*4E,43.462206554000005,141.80595919866667,565197.9760780107,4812459.570851889
1403,[2021-01-29 11:52:18.891] $GPGGA,25217.5,4327.73239039,N,14148.35755219,E,4,5.0,1.8,108.916,M,31.59,M,1.5,0266*45,43.462206506499996,141.80595920316668,565197.9764930885,4812459.56558016
1404,[2021-01-29 11:52:19.000] $GPGGA,25217.6,4327.73239066,N,14148.35755192,E,4,5.0,1.8,108.917,M,31.59,M,1.6,0266*4E,43.462206511000005,141.80595919866667,565197.9761242219,4812459.566076398
1405,[2021-01-29 11:52:19.094] $GPGGA,25217.7,4327.73239255,N,14148.35755257,E,4,5.0,1.8,108.92299999999999,M,31.59,M,1.7,0266*41,43.46220654250001,141.80595920949997,565197.9769667313,4812459.569583204
1406,[2021-01-29 11:52:19.188] $GPGGA,25217.8,4327.73238984,N,14148.3575514,E,4,5.0,1.8,108.93299999999999,M,31.59,M,1.8,0266*43,43.462206497333334,141.80595918999998,565197.9754378166,4812459.564551824
1407,[2021-01-29 11:52:19.283] $GPGGA,25217.9,4327.73238875,N,14148.35755376,E,4,5.0,1.8,108.927,M,31.59,M,1.9,0266*4E,43.46220647916666,141.80595922933335,565197.9786392192,4812459.562565059
1408,[2021-01-29 11:52:19.392] $GPGGA,25218.0,4327.73238901,N,14148.35755089,E,4,5.0,1.8,108.926,M,31.59,M,2.0,0266*42,43.4622064835,141.80595918150001,565197.9747650764,4812459.563008867
1409,[2021-01-29 11:52:19.486] $GPGGA,25218.1,4327.73238389,N,14148.35755897,E,4,5.0,1.8,108.932,M,31.59,M,1.1,0266*49,43.46220639816667,141.80595931616665,565197.9857506648,4812459.553637343
1410,[2021-01-29 11:52:19.595] $GPGGA,25218.2,4327.73238655,N,14148.35755348,E,4,5.0,1.8,108.931,M,31.59,M,1.2,0266*47,43.462206442500005,141.80595922466665,565197.9783011115,4812459.558489284
1411,[2021-01-29 11:52:19.689] $GPGGA,25218.3,4327.73238491,N,14148.35755332,E,4,5.0,1.8,108.929,M,31.59,M,1.3,0266*49,43.46220641516667,141.80595922199998,565197.9781147646,4812459.555451614
1412,[2021-01-29 11:52:19.798] $GPGGA,25218.4,4327.73238328,N,14148.3575542,E,4,5.0,1.8,108.93799999999999,M,31.59,M,1.4,0266*48,43.462206388,141.8059592366667,565197.9793304261,4812459.552446022
1413,[2021-01-29 11:52:19.892] $GPGGA,25218.5,4327.73238527,N,14148.3575543,E,4,5.0,1.8,108.927,M,31.59,M,1.5,0266*4E,43.46220642116667,141.80595923833334,565197.9794296074,4812459.556130748
1414,[2021-01-29 11:52:19.986] $GPGGA,25218.6,4327.7323842,N,14148.35755221,E,4,5.0,1.8,108.936,M,31.59,M,1.6,0266*4E,43.462206403333326,141.8059592035,565197.9766309238,4812459.554122946
1415,[2021-01-29 11:52:20.095] $GPGGA,25218.7,4327.73238273,N,14148.35755497,E,4,5.0,1.8,108.94200000000001,M,31.59,M,1.7,0266*46,43.46220637883332,141.80595924949998,565197.9803784281,4812459.551438035
1416,[2021-01-29 11:52:20.189] $GPGGA,25218.8,4327.73238516,N,14148.35755311,E,4,5.0,1.8,108.936,M,31.59,M,1.8,0266*48,43.462206419333334,141.8059592185,565197.9778271549,4812459.555911616
1417,[2021-01-29 11:52:20.284] $GPGGA,25218.9,4327.73238517,N,14148.35755637,E,4,5.0,1.8,108.93799999999999,M,31.59,M,1.9,0266*46,43.462206419500006,141.80595927283332,565197.982222281,4812459.555972658
1418,[2021-01-29 11:52:20.394] $GPGGA,25219.0,4327.73238561,N,14148.35755464,E,4,5.0,1.8,108.926,M,31.59,M,2.0,0266*4E,43.46220642683334,141.805959244,565197.9798819226,4812459.556764511
1419,[2021-01-29 11:52:20.488] $GPGGA,25219.1,4327.73238812,N,14148.3575595,E,4,5.0,1.8,108.92399999999999,M,31.59,M,1.1,0266*4C,43.462206468666665,141.80595932499998,565197.9863894727,4812459.561473841
1420,[2021-01-29 11:52:20.597] $GPGGA,25219.2,4327.73239086,N,14148.35755624,E,4,5.0,1.8,108.917,M,31.59,M,1.2,0266*44,43.46220651433334,141.80595927066668,565197.9819450945,4812459.566502954
1421,[2021-01-29 11:52:20.691] $GPGGA,25219.3,4327.73238971,N,14148.35755723,E,4,5.0,1.8,108.92399999999999,M,31.59,M,1.3,0266*42,43.46220649516666,141.80595928716667,565197.9833004614,4812459.564387258
1422,[2021-01-29 11:52:20.800] $GPGGA,25219.4,4327.73238774,N,14148.35755858,E,4,5.0,1.8,108.91799999999999,M,31.59,M,1.4,0266*45,43.462206462333334,141.80595930966666,565197.9851558888,4812459.5607584715
1423,[2021-01-29 11:52:20.894] $GPGGA,25219.5,4327.73239059,N,14148.35755597,E,4,5.0,1.8,108.926,M,31.59,M,1.5,0266*4F,43.462206509833344,141.80595926616667,565197.9815859001,4812459.565999671
1424,[2021-01-29 11:52:20.988] $GPGGA,25219.6,4327.73238893,N,14148.35755841,E,4,5.0,1.8,108.919,M,31.59,M,1.6,0266*4A,43.46220648216666,141.80595930683336,565197.9849053728,4812459.562958901
1425,[2021-01-29 11:52:21.081] $GPGGA,25219.7,4327.73238949,N,14148.35755816,E,4,5.0,1.8,108.93,M,31.59,M,1.7,0266*45,43.4622064915,141.80595930266668,565197.9845582782,4812459.56399218
1426,[2021-01-29 11:52:21.191] $GPGGA,25219.8,4327.73239025,N,14148.35755574,E,4,5.0,1.8,108.921,M,31.59,M,1.8,0266*4E,43.462206504166666,141.80595926233335,565197.981281894,4812459.565367341
1427,[2021-01-29 11:52:21.286] $GPGGA,25219.9,4327.7323897,N,14148.35755904,E,4,5.0,1.8,108.912,M,31.59,M,1.9,0266*4D,43.46220649499999,141.80595931733333,565197.9857409787,4812459.564392363
1428,[2021-01-29 11:52:21.395] $GPGGA,25220.0,4327.73238877,N,14148.35755728,E,4,5.0,1.8,108.90899999999999,M,31.59,M,2.0,0266*48,43.46220647950001,141.805959288,565197.9833847105,4812459.562648006
1429,[2021-01-29 11:52:21.489] $GPGGA,25220.1,4327.73238965,N,14148.3575587,E,4,5.0,1.8,108.93299999999999,M,31.59,M,1.1,0266*42,43.462206494166665,141.80595931166664,565197.9852834652,4812459.564295379
1430,[2021-01-29 11:52:21.598] $GPGGA,25220.2,4327.73238695,N,14148.35756027,E,4,5.0,1.8,108.92399999999999,M,31.59,M,1.2,0266*4D,43.46220644916666,141.80595933783334,565197.9874485859,4812459.559318257
1431,[2021-01-29 11:52:21.692] $GPGGA,25220.3,4327.73238846,N,14148.35756266,E,4,5.0,1.8,108.917,M,31.59,M,1.3,0266*4A,43.462206474333335,141.80595937766665,565197.9906438632,4812459.562144396
1432,[2021-01-29 11:52:21.786] $GPGGA,25220.4,4327.73238943,N,14148.35756125,E,4,5.0,1.8,108.91799999999999,M,31.59,M,1.4,0266*45,43.462206490499995,141.80595935416667,565197.9887254547,4812459.563921437
1433,[2021-01-29 11:52:21.879] $GPGGA,25220.5,4327.73238845,N,14148.3575601,E,4,5.0,1.8,108.92200000000001,M,31.59,M,1.5,0266*4C,43.46220647416666,141.80595933499998,565197.9871925154,4812459.562092488
1434,[2021-01-29 11:52:21.989] $GPGGA,25220.6,4327.73238912,N,14148.35756055,E,4,5.0,1.8,108.91,M,31.59,M,1.6,0266*4F,43.46220648533334,141.8059593425,565197.9877872289,4812459.563338505
1435,[2021-01-29 11:52:22.083] $GPGGA,25220.7,4327.732387,N,14148.3575598,E,4,5.0,1.8,108.917,M,31.59,M,1.7,0266*47,43.462206450000004,141.80595933000004,565197.9868140143,4812459.559404673
1436,[2021-01-29 11:52:22.192] $GPGGA,25220.8,4327.73238773,N,14148.35756032,E,4,5.0,1.8,108.921,M,31.59,M,1.8,0266*45,43.46220646216666,141.80595933866667,565197.9875020275,4812459.560762663
1437,[2021-01-29 11:52:22.288] $GPGGA,25220.9,4327.73239025,N,14148.35755818,E,4,5.0,1.8,108.92200000000001,M,31.59,M,1.9,0266*40,43.462206504166666,141.80595930299998,565197.9845716278,4812459.5653991755
1438,[2021-01-29 11:52:22.397] $GPGGA,25221.0,4327.73238876,N,14148.35756242,E,4,5.0,1.8,108.914,M,31.59,M,2.0,0266*4E,43.46220647933333,141.80595937366667,565197.9903149097,4812459.562696555
1439,[2021-01-29 11:52:22.491] $GPGGA,25221.1,4327.73239117,N,14148.35756056,E,4,5.0,1.8,108.904,M,31.59,M,1.1,0266*44,43.46220651949999,141.80595934266668,565197.9877639948,4812459.567133114
1440,[2021-01-29 11:52:22.585] $GPGGA,25221.2,4327.73239289,N,14148.35756029,E,4,5.0,1.8,108.92200000000001,M,31.59,M,1.2,0266*4C,43.46220654816666,141.80595933816667,565197.9873691589,4812459.570313252
1441,[2021-01-29 11:52:22.694] $GPGGA,25221.3,4327.73239054,N,14148.35756002,E,4,5.0,1.8,108.916,M,31.59,M,1.3,0266*40,43.46220650899999,141.80595933366666,565197.98704722,4812459.565959959
1442,[2021-01-29 11:52:22.788] $GPGGA,25221.4,4327.7323935,N,14148.35756291,E,4,5.0,1.8,108.914,M,31.59,M,1.4,0266*4D,43.46220655833334,141.8059593818333,565197.9908906524,4812459.571476524
1443,[2021-01-29 11:52:22.881] $GPGGA,25221.5,4327.73238834,N,14148.35756038,E,4,5.0,1.8,108.911,M,31.59,M,1.5,0266*41,43.462206472333335,141.80595933966669,565197.9875719983,4812459.561892535
1444,[2021-01-29 11:52:22.991] $GPGGA,25221.6,4327.7323928,N,14148.35755989,E,4,5.0,1.8,108.90899999999999,M,31.59,M,1.6,0266*4C,43.46220654666666,141.80595933150002,565197.9868314693,4812459.570141445
1445,[2021-01-29 11:52:23.085] $GPGGA,25221.7,4327.73239257,N,14148.35756178,E,4,5.0,1.8,108.913,M,31.59,M,1.7,0266*48,43.462206542833336,141.805959363,565197.9893837859,4812459.569740383
1446,[2021-01-29 11:52:23.194] $GPGGA,25221.8,4327.73239245,N,14148.35756019,E,4,5.0,1.8,108.919,M,31.59,M,1.8,0266*47,43.46220654083333,141.80595933649997,565197.9872422109,4812459.569497522
1447,[2021-01-29 11:52:23.290] $GPGGA,25221.9,4327.73239044,N,14148.35756283,E,4,5.0,1.8,108.90899999999999,M,31.59,M,1.9,0266*44,43.462206507333335,141.8059593805,565197.9908376044,4812459.565811526
1448,[2021-01-29 11:52:23.384] $GPGGA,25222.0,4327.73239225,N,14148.35755777,E,4,5.0,1.8,108.91799999999999,M,31.59,M,2.0,0266*4C,43.4622065375,141.80595929616663,565197.9839830215,4812459.569095757
1449,[2021-01-29 11:52:23.462] $GPGGA,25222.1,4327.73239074,N,14148.3575561,E,4,5.0,1.8,108.915,M,31.59,M,1.1,0266*44,43.462206512333324,141.80595926833334,565197.9817584866,4812459.56627901
1450,[2021-01-29 11:52:23.587] $GPGGA,25222.2,4327.73239099,N,14148.35756179,E,4,5.0,1.8,108.90899999999999,M,31.59,M,1.2,0266*41,43.4622065165,141.8059593631667,565197.9894255699,4812459.566815987
1451,[2021-01-29 11:52:23.697] $GPGGA,25222.3,4327.73239322,N,14148.35755767,E,4,5.0,1.8,108.93299999999999,M,31.59,M,1.3,0266*41,43.46220655366666,141.80595929449998,565197.9838308225,4812459.5708898865
1452,[2021-01-29 11:52:23.790] $GPGGA,25222.4,4327.73239007,N,14148.35755635,E,4,5.0,1.8,108.93,M,31.59,M,1.4,0266*40,43.462206501166676,141.80595927250002,565197.9821075514,4812459.565042127
1453,[2021-01-29 11:52:23.884] $GPGGA,25222.5,4327.73239102,N,14148.35755379,E,4,5.0,1.8,108.915,M,31.59,M,1.5,0266*4E,43.462206517000006,141.80595922983335,565197.9786390087,4812459.566767144
1454,[2021-01-29 11:52:23.993] $GPGGA,25222.6,4327.73238917,N,14148.35755808,E,4,5.0,1.8,108.92,M,31.59,M,1.6,0266*48,43.462206486166664,141.80595930133333,565197.9844561492,4812459.563398828
1455,[2021-01-29 11:52:24.087] $GPGGA,25222.7,4327.73239159,N,14148.35755584,E,4,5.0,1.8,108.921,M,31.59,M,1.7,0266*43,43.4622065265,141.80595926400002,565197.9813927177,4812459.567848938
1456,[2021-01-29 11:52:24.197] $GPGGA,25222.8,4327.73238863,N,14148.35755377,E,4,5.0,1.8,108.921,M,31.59,M,1.8,0266*48,43.462206477166674,141.80595922950002,565197.9786548526,4812459.562343076
1457,[2021-01-29 11:52:24.291] $GPGGA,25222.9,4327.73239123,N,14148.35755459,E,4,5.0,1.8,108.928,M,31.59,M,1.9,0266*46,43.4622065205,141.80595924316668,565197.9797138505,4812459.567166283
1458,[2021-01-29 11:52:24.400] $GPGGA,25223.0,4327.73239097,N,14148.35755652,E,4,5.0,1.8,108.925,M,31.59,M,2.0,0266*4E,43.46220651616667,141.80595927533332,565197.9823206328,4812459.566710213
1459,[2021-01-29 11:52:24.494] $GPGGA,25223.1,4327.73238735,N,14148.35755705,E,4,5.0,1.8,108.916,M,31.59,M,2.1,0266*43,43.46220645583334,141.80595928416665,565197.9831000444,4812459.560016634
1460,[2021-01-29 11:52:24.588] $GPGGA,25223.2,4327.73238745,N,14148.35756031,E,4,5.0,1.8,108.936,M,31.59,M,1.2,0266*46,43.462206457499995,141.8059593385,565197.9874935606,4812459.560244261
1461,[2021-01-29 11:52:24.681] $GPGGA,25223.3,4327.73239093,N,14148.35755633,E,4,5.0,1.8,108.939,M,31.59,M,1.3,0266*43,43.4622065155,141.8059592721667,565197.9820651836,4812459.566633695
1462,[2021-01-29 11:52:24.791] $GPGGA,25223.4,4327.73238754,N,14148.35756045,E,4,5.0,1.8,108.928,M,31.59,M,1.4,0266*4A,43.462206459,141.80595934083334,565197.9876807039,4812459.560412675
1463,[2021-01-29 11:52:24.884] $GPGGA,25223.5,4327.73239057,N,14148.35755679,E,4,5.0,1.8,108.936,M,31.59,M,1.5,0266*4A,43.46220650949999,141.80595927983333,565197.9826918257,4812459.565973348
1464,[2021-01-29 11:52:24.994] $GPGGA,25223.6,4327.73238987,N,14148.3575567,E,4,5.0,1.8,108.929,M,31.59,M,1.6,0266*48,43.46220649783333,141.80595927833335,565197.9825830229,4812459.564676499
1465,[2021-01-29 11:52:25.087] $GPGGA,25223.7,4327.73239258,N,14148.35755815,E,4,5.0,1.8,108.93299999999999,M,31.59,M,1.7,0266*46,43.46220654300001,141.80595930250004,565197.9844894522,4812459.569711534
1466,[2021-01-29 11:52:25.197] $GPGGA,25223.8,4327.73238887,N,14148.35755774,E,4,5.0,1.8,108.936,M,31.59,M,1.8,0266*42,43.462206481166675,141.8059592956667,565197.9840031175,4812459.562839103
1467,[2021-01-29 11:52:25.293] $GPGGA,25223.9,4327.73238922,N,14148.35755951,E,4,5.0,1.8,108.931,M,31.59,M,1.9,0266*42,43.462206487,141.80595932516664,565197.9863832523,4812459.563510033
1468,[2021-01-29 11:52:25.402] $GPGGA,25224.0,4327.73238893,N,14148.35755904,E,4,5.0,1.8,108.94200000000001,M,31.59,M,2.0,0266*49,43.46220648216666,141.80595931733333,565197.9857547705,4812459.56296712
1469,[2021-01-29 11:52:25.496] $GPGGA,25224.1,4327.7323886,N,14148.35756149,E,4,5.0,1.8,108.916,M,31.59,M,1.1,0266*45,43.46220647666667,141.80595935816666,565197.9890639011,4812459.562388267
1470,[2021-01-29 11:52:25.590] $GPGGA,25224.2,4327.73238996,N,14148.35755727,E,4,5.0,1.8,108.928,M,31.59,M,1.2,0266*4D,43.462206499333334,141.80595928783333,565197.983349914,4812459.564850523
1471,[2021-01-29 11:52:25.684] $GPGGA,25224.3,4327.73238716,N,14148.35755525,E,4,5.0,1.8,108.90299999999999,M,31.59,M,1.3,0266*42,43.46220645266667,141.80595925416668,565197.9806765955,4812459.559641466
1472,[2021-01-29 11:52:25.793] $GPGGA,25224.4,4327.73238866,N,14148.35755889,E,4,5.0,1.8,108.926,M,31.59,M,1.4,0266*46,43.462206477666655,141.80595931483336,565197.9855573713,4812459.562465403
1473,[2021-01-29 11:52:25.887] $GPGGA,25224.5,4327.73239336,N,14148.35755476,E,4,5.0,1.8,108.927,M,31.59,M,1.5,0266*44,43.462206556000005,141.805959246,565197.9799048988,4812459.571111058
1474,[2021-01-29 11:52:25.996] $GPGGA,25224.6,4327.73238961,N,14148.35755812,E,4,5.0,1.8,108.932,M,31.59,M,1.6,0266*47,43.4622064935,141.805959302,565197.9845021964,4812459.564213774
1475,[2021-01-29 11:52:26.090] $GPGGA,25224.7,4327.73238931,N,14148.35755857,E,4,5.0,1.8,108.919,M,31.59,M,1.7,0266*4A,43.46220648850001,141.80595930950003,565197.985114288,4812459.563664356
1476,[2021-01-29 11:52:26.199] $GPGGA,25224.8,4327.73239025,N,14148.35755644,E,4,5.0,1.8,108.92,M,31.59,M,1.8,0266*41,43.462206504166666,141.80595927399997,565197.9822256682,4812459.565376474
1477,[2021-01-29 11:52:26.294] $GPGGA,25224.9,4327.73238917,N,14148.35756091,E,4,5.0,1.8,108.931,M,31.59,M,1.9,0266*45,43.462206486166664,141.8059593485,565197.9882717045,4812459.563435749
1478,[2021-01-29 11:52:26.388] $GPGGA,25225.0,4327.73238769,N,14148.35755778,E,4,5.0,1.8,108.92399999999999,M,31.59,M,2.0,0266*47,43.462206461499996,141.80595929633333,565197.9840781812,4812459.560655484
1479,[2021-01-29 11:52:26.497] $GPGGA,25225.1,4327.73238971,N,14148.35756165,E,4,5.0,1.8,108.92200000000001,M,31.59,M,2.1,0266*4F,43.46220649516666,141.80595936083333,565197.989259739,4812459.564444925
1480,[2021-01-29 11:52:26.591] $GPGGA,25225.2,4327.73238926,N,14148.3575586,E,4,5.0,1.8,108.917,M,31.59,M,1.2,0266*47,43.462206487666656,141.80595931,565197.9851556278,4812459.563572197
1481,[2021-01-29 11:52:26.685] $GPGGA,25225.3,4327.73238977,N,14148.3575607,E,4,5.0,1.8,108.92,M,31.59,M,1.3,0266*4D,43.462206496166665,141.80595934500002,565197.9879778259,4812459.564543589
1482,[2021-01-29 11:52:26.794] $GPGGA,25225.4,4327.73239212,N,14148.35755728,E,4,5.0,1.8,108.92399999999999,M,31.59,M,1.4,0266*49,43.462206535333344,141.805959288,565197.9833247075,4812459.568848739
1483,[2021-01-29 11:52:26.888] $GPGGA,25225.5,4327.73238838,N,14148.3575613,E,4,5.0,1.8,108.919,M,31.59,M,1.5,0266*48,43.462206473,141.805959355,565197.988811674,4812459.561978576
1484,[2021-01-29 11:52:26.997] $GPGGA,25225.6,4327.73239128,N,14148.35755847,E,4,5.0,1.8,108.931,M,31.59,M,1.6,0266*41,43.462206521333336,141.80595930783332,565197.9849441737,4812459.567309453
1485,[2021-01-29 11:52:27.091] $GPGGA,25225.7,4327.73238742,N,14148.35755749,E,4,5.0,1.8,108.926,M,31.59,M,1.7,0266*4D,43.462206457,141.80595929150002,565197.9836920247,4812459.56015194
1486,[2021-01-29 11:52:27.200] $GPGGA,25225.8,4327.73238933,N,14148.35755706,E,4,5.0,1.8,108.92299999999999,M,31.59,M,1.8,0266*4B,43.46220648883333,141.80595928433334,565197.9830780663,4812459.563681675
1487,[2021-01-29 11:52:27.294] $GPGGA,25225.9,4327.73239024,N,14148.35755588,E,4,5.0,1.8,108.92299999999999,M,31.59,M,1.9,0266*41,43.46220650400001,141.80595926466665,565197.9814708262,4812459.565350658
1488,[2021-01-29 11:52:27.388] $GPGGA,25226.0,4327.73239075,N,14148.35755686,E,4,5.0,1.8,108.934,M,31.59,M,2.0,0266*4E,43.46220651250001,141.805959281,565197.9827829803,4812459.566307438
1489,[2021-01-29 11:52:27.498] $GPGGA,25226.1,4327.73239322,N,14148.35756471,E,4,5.0,1.8,108.90799999999999,M,31.59,M,1.1,0266*4A,43.46220655366666,141.80595941183333,565197.9933225238,4812459.570981736
1490,[2021-01-29 11:52:27.591] $GPGGA,25226.2,4327.73239492,N,14148.35755776,E,4,5.0,1.8,108.917,M,31.59,M,1.2,0266*4F,43.46220658199999,141.805959296,565197.9839217182,4812459.574037704
1491,[2021-01-29 11:52:27.685] $GPGGA,25226.3,4327.73239584,N,14148.35756686,E,4,5.0,1.8,108.91,M,31.59,M,1.3,0266*43,43.46220659733334,141.80595944766665,565197.9961743393,4812459.575859318
1492,[2021-01-29 11:52:27.794] $GPGGA,25226.4,4327.73239531,N,14148.35756434,E,4,5.0,1.8,108.899,M,31.59,M,1.4,0266*46,43.4622065885,141.80595940566667,565197.9927862379,4812459.574845427
1493,[2021-01-29 11:52:27.888] $GPGGA,25226.5,4327.73239497,N,14148.35756397,E,4,5.0,1.8,108.914,M,31.59,M,1.5,0266*41,43.46220658283334,141.8059593995,565197.9922934744,4812459.5742112715
1494,[2021-01-29 11:52:27.997] $GPGGA,25226.6,4327.73239399,N,14148.35756411,E,4,5.0,1.8,108.91,M,31.59,M,1.6,0266*45,43.4622065665,141.80595940183335,565197.9924997827,4812459.572399153
1495,[2021-01-29 11:52:28.091] $GPGGA,25226.7,4327.73239516,N,14148.35756013,E,4,5.0,1.8,108.91799999999999,M,31.59,M,1.7,0266*4A,43.46220658600001,141.8059593355,565197.9871127787,4812459.574512856
1496,[2021-01-29 11:52:28.201] $GPGGA,25226.8,4327.73239295,N,14148.35756432,E,4,5.0,1.8,108.90799999999999,M,31.59,M,1.8,0266*40,43.462206549166666,141.80595940533334,565197.9928015424,4812459.570476887
1497,[2021-01-29 11:52:28.281] $GPGGA,25226.9,4327.73239315,N,14148.35756208,E,4,5.0,1.8,108.92,M,31.59,M,1.9,0266*4C,43.462206552499985,141.805959368,565197.989777874,4812459.570817855
1498,[2021-01-29 11:52:28.390] $GPGGA,25227.0,4327.73239344,N,14148.35756775,E,4,5.0,1.8,108.916,M,31.59,M,2.0,0266*40,43.46220655733334,141.8059594625,565197.9974172746,4812459.571428613
1499,[2021-01-29 11:52:28.484] $GPGGA,25227.1,4327.73239127,N,14148.35756244,E,4,5.0,1.8,108.915,M,31.59,M,1.1,0266*40,43.46220652116668,141.805959374,565197.9902969185,4812459.56734274
1500,[2021-01-29 11:52:28.593] $GPGGA,25227.2,4327.73239066,N,14148.35756037,E,4,5.0,1.8,108.92299999999999,M,31.59,M,1.2,0266*47,43.462206511000005,141.8059593395,565197.9875169598,4812459.566186642
1501,[2021-01-29 11:52:28.687] $GPGGA,25227.3,4327.73239109,N,14148.35756075,E,4,5.0,1.8,108.92399999999999,M,31.59,M,1.3,0266*4E,43.46220651816667,141.80595934583334,565197.9880215954,4812459.566987516
1502,[2021-01-29 11:52:28.796] $GPGGA,25227.4,4327.7323915,N,14148.35756066,E,4,5.0,1.8,108.93299999999999,M,31.59,M,1.4,0266*46,43.46220652499999,141.80595934433333,565197.9878929069,4812459.567745237
1503,[2021-01-29 11:52:28.890] $GPGGA,25227.5,4327.73238997,N,14148.35755894,E,4,5.0,1.8,108.92,M,31.59,M,1.5,0266*40,43.46220649950001,141.80595931566668,565197.9856013178,4812459.564890821
1504,[2021-01-29 11:52:29.000] $GPGGA,25227.6,4327.73239428,N,14148.35755763,E,4,5.0,1.8,108.916,M,31.59,M,1.6,0266*4A,43.46220657133334,141.80595929383335,565197.9837579103,4812459.57285139
1505,[2021-01-29 11:52:29.093] $GPGGA,25227.7,4327.73239073,N,14148.35756358,E,4,5.0,1.8,108.93299999999999,M,31.59,M,1.7,0266*48,43.46220651216666,141.80595939300002,565197.9918436009,4812459.566358091
1506,[2021-01-29 11:52:29.187] $GPGGA,25227.8,4327.73239101,N,14148.35756045,E,4,5.0,1.8,108.931,M,31.59,M,1.8,0266*41,43.462206516833334,141.80595934083334,565197.9876185516,4812459.5668355245
1507,[2021-01-29 11:52:29.282] $GPGGA,25227.9,4327.73239429,N,14148.35755966,E,4,5.0,1.8,108.916,M,31.59,M,1.9,0266*40,43.462206571500005,141.80595932766664,565197.9864946813,4812459.572896384
1508,[2021-01-29 11:52:29.391] $GPGGA,25228.0,4327.73239255,N,14148.35755716,E,4,5.0,1.8,108.929,M,31.59,M,2.0,0266*44,43.46220654250001,141.805959286,565197.9831552146,4812459.569643088
1509,[2021-01-29 11:52:29.485] $GPGGA,25228.1,4327.73238814,N,14148.35756284,E,4,5.0,1.8,108.927,M,31.59,M,1.1,0266*4A,43.462206469,141.80595938066665,565197.9908922805,4812459.561554437
1510,[2021-01-29 11:52:29.595] $GPGGA,25228.2,4327.73239338,N,14148.35755588,E,4,5.0,1.8,108.92399999999999,M,31.59,M,1.2,0266*45,43.46220655633333,141.80595926466665,565197.9814145847,4812459.571162689
1511,[2021-01-29 11:52:29.688] $GPGGA,25228.3,4327.73239093,N,14148.35755566,E,4,5.0,1.8,108.932,M,31.59,M,1.3,0266*40,43.4622065155,141.80595926100003,565197.9811618556,4812459.566624953
1512,[2021-01-29 11:52:29.798] $GPGGA,25228.4,4327.73239243,N,14148.35755965,E,4,5.0,1.8,108.919,M,31.59,M,1.4,0266*49,43.4622065405,141.8059593275,565197.9865145164,4812459.569453456
1513,[2021-01-29 11:52:29.891] $GPGGA,25228.5,4327.73239004,N,14148.35756166,E,4,5.0,1.8,108.93,M,31.59,M,1.5,0266*4B,43.46220650066667,141.80595936099996,565197.9892673083,4812459.565055875
1514,[2021-01-29 11:52:29.985] $GPGGA,25228.6,4327.73239287,N,14148.35755828,E,4,5.0,1.8,108.93,M,31.59,M,1.6,0266*42,43.46220654783333,141.80595930466666,565197.984659527,4812459.570250009
1515,[2021-01-29 11:52:30.095] $GPGGA,25228.7,4327.73239227,N,14148.35755405,E,4,5.0,1.8,108.926,M,31.59,M,1.7,0266*4C,43.46220653783333,141.80595923416666,565197.9789671638,4812459.569084242
1516,[2021-01-29 11:52:30.188] $GPGGA,25228.8,4327.73239385,N,14148.35755788,E,4,5.0,1.8,108.925,M,31.59,M,1.8,0266*40,43.46220656416667,141.80595929799998,565197.9841026702,4812459.572058736
1517,[2021-01-29 11:52:30.284] $GPGGA,25228.9,4327.73239108,N,14148.35755903,E,4,5.0,1.8,108.92399999999999,M,31.59,M,1.9,0266*4B,43.46220651799999,141.80595931716667,565197.985702779,4812459.566946564
1518,[2021-01-29 11:52:30.394] $GPGGA,25229.0,4327.7323892,N,14148.35756094,E,4,5.0,1.8,108.917,M,31.59,M,2.0,0266*4E,43.46220648666667,141.80595934899998,565197.9883116134,4812459.563491672
1519,[2021-01-29 11:52:30.487] $GPGGA,25229.1,4327.73239199,N,14148.35755377,E,4,5.0,1.8,108.925,M,31.59,M,1.1,0266*4A,43.462206533166665,141.80595922950002,565197.9785946707,4812459.568562318
1520,[2021-01-29 11:52:30.597] $GPGGA,25229.2,4327.73239126,N,14148.35755665,E,4,5.0,1.8,108.93700000000001,M,31.59,M,1.2,0266*4B,43.462206521000006,141.80595927750002,565197.9824907137,4812459.567248689
1521,[2021-01-29 11:52:30.691] $GPGGA,25229.3,4327.73239134,N,14148.35755595,E,4,5.0,1.8,108.92299999999999,M,31.59,M,1.3,0266*41,43.462206522333325,141.80595926583334,565197.9815455024,4812459.567387632
1522,[2021-01-29 11:52:30.800] $GPGGA,25229.4,4327.73239208,N,14148.35755638,E,4,5.0,1.8,108.93299999999999,M,31.59,M,1.4,0266*48,43.46220653466667,141.805959273,565197.9821119979,4812459.568762958
1523,[2021-01-29 11:52:30.894] $GPGGA,25229.5,4327.73238815,N,14148.35755759,E,4,5.0,1.8,108.92,M,31.59,M,1.5,0266*4B,43.46220646916666,141.80595929316667,565197.9838137743,4812459.56150445
1524,[2021-01-29 11:52:30.987] $GPGGA,25229.6,4327.73239187,N,14148.35755703,E,4,5.0,1.8,108.93700000000001,M,31.59,M,1.6,0266*41,43.46220653116668,141.80595928383332,565197.9829921211,4812459.568382736
1525,[2021-01-29 11:52:31.081] $GPGGA,25229.7,4327.732388,N,14148.35755573,E,4,5.0,1.8,108.934,M,31.59,M,1.7,0266*40,43.46220646666667,141.80595926216665,565197.9813087082,4812459.561202539
1526,[2021-01-29 11:52:31.191] $GPGGA,25229.8,4327.73239179,N,14148.35755374,E,4,5.0,1.8,108.925,M,31.59,M,1.8,0266*47,43.462206529833345,141.80595922899997,565197.9785578004,4812459.568191735
1527,[2021-01-29 11:52:31.285] $GPGGA,25229.9,4327.7323943,N,14148.35755833,E,4,5.0,1.8,108.928,M,31.59,M,1.9,0266*4A,43.46220657166666,141.80595930549998,565197.9847013262,4812459.57289754
1528,[2021-01-29 11:52:31.395] $GPGGA,25230.0,4327.73238924,N,14148.35755893,E,4,5.0,1.8,108.925,M,31.59,M,2.0,0266*4F,43.46220648733333,141.8059593155,565197.985600909,4812459.563539485
1529,[2021-01-29 11:52:31.489] $GPGGA,25230.1,4327.73239412,N,14148.35755508,E,4,5.0,1.8,108.935,M,31.59,M,1.1,0266*4B,43.46220656866667,141.80595925133332,565197.9803227271,4812459.572521967
1530,[2021-01-29 11:52:31.598] $GPGGA,25230.2,4327.73239529,N,14148.35755469,E,4,5.0,1.8,108.92299999999999,M,31.59,M,1.2,0266*43,43.462206588166666,141.80595924483333,565197.9797759533,4812459.574682507
1531,[2021-01-29 11:52:31.692] $GPGGA,25230.3,4327.73239234,N,14148.35755951,E,4,5.0,1.8,108.92200000000001,M,31.59,M,1.3,0266*4F,43.46220653899999,141.80595932516664,565197.986327369,4812459.5692850435
1532,[2021-01-29 11:52:31.785] $GPGGA,25230.4,4327.73239091,N,14148.35756079,E,4,5.0,1.8,108.92,M,31.59,M,1.4,0266*40,43.46220651516666,141.8059593465,565197.9880787499,4812459.566654863
1533,[2021-01-29 11:52:31.895] $GPGGA,25230.5,4327.73239339,N,14148.35755727,E,4,5.0,1.8,108.925,M,31.59,M,1.5,0266*4B,43.4622065565,141.80595928783333,565197.9832884781,4812459.571199334
1534,[2021-01-29 11:52:31.988] $GPGGA,25230.6,4327.73239179,N,14148.35755859,E,4,5.0,1.8,108.915,M,31.59,M,1.6,0266*48,43.462206529833345,141.8059593098333,565197.985096828,4812459.568255013
1535,[2021-01-29 11:52:32.082] $GPGGA,25230.7,4327.7323917,N,14148.35756084,E,4,5.0,1.8,108.921,M,31.59,M,1.7,0266*4D,43.46220652833334,141.80595934733333,565197.9881320102,4812459.56811778
1536,[2021-01-29 11:52:32.192] $GPGGA,25230.8,4327.73239184,N,14148.35755862,E,4,5.0,1.8,108.92200000000001,M,31.59,M,1.8,0266*46,43.46220653066667,141.80595931033335,565197.9851363827,4812459.568347951
1537,[2021-01-29 11:52:32.287] $GPGGA,25230.9,4327.73239222,N,14148.35755714,E,4,5.0,1.8,108.915,M,31.59,M,1.9,0266*43,43.46220653700001,141.80595928566666,565197.9831341611,4812459.569032009
1538,[2021-01-29 11:52:32.396] $GPGGA,25231.0,4327.73239275,N,14148.35755992,E,4,5.0,1.8,108.926,M,31.59,M,2.0,0266*43,43.46220654583333,141.80595933199996,565197.986872809,4812459.57004929
1539,[2021-01-29 11:52:32.490] $GPGGA,25231.1,4327.73239587,N,14148.35755606,E,4,5.0,1.8,108.916,M,31.59,M,1.1,0266*4B,43.46220659783334,141.80595926766668,565197.9816126731,4812459.575773941
1540,[2021-01-29 11:52:32.599] $GPGGA,25231.2,4327.73239392,N,14148.35755493,E,4,5.0,1.8,108.92,M,31.59,M,1.2,0266*42,43.462206565333325,141.80595924883335,565197.9801240742,4812459.572149815
1541,[2021-01-29 11:52:32.693] $GPGGA,25231.3,4327.73239695,N,14148.35755483,E,4,5.0,1.8,108.912,M,31.59,M,1.3,0266*40,43.46220661583334,141.80595924716667,565197.9799349759,4812459.577756937
1542,[2021-01-29 11:52:32.787] $GPGGA,25231.4,4327.73239273,N,14148.35755696,E,4,5.0,1.8,108.92299999999999,M,31.59,M,1.4,0266*48,43.4622065455,141.80595928266666,565197.9828823408,4812459.569973652
1543,[2021-01-29 11:52:32.881] $GPGGA,25231.5,4327.73239896,N,14148.35755274,E,4,5.0,1.8,108.914,M,31.59,M,1.5,0266*45,43.46220664933333,141.80595921233333,565197.9770811254,4812459.581450108
1544,[2021-01-29 11:52:32.990] $GPGGA,25231.6,4327.73239555,N,14148.3575578,E,4,5.0,1.8,108.914,M,31.59,M,1.6,0266*49,43.46220659249999,141.80595929666666,565197.9839643623,4812459.575204331
1545,[2021-01-29 11:52:33.084] $GPGGA,25231.7,4327.73239643,N,14148.35755333,E,4,5.0,1.8,108.919,M,31.59,M,1.7,0266*4C,43.46220660716667,141.80595922216668,565197.9779219123,4812459.576774865
1546,[2021-01-29 11:52:33.193] $GPGGA,25231.8,4327.73239619,N,14148.3575563,E,4,5.0,1.8,108.917,M,31.59,M,1.8,0266*4B,43.46220660316667,141.80595927166664,565197.9819305176,4812459.5763693815
1547,[2021-01-29 11:52:33.289] $GPGGA,25231.9,4327.73239605,N,14148.35755049,E,4,5.0,1.8,108.919,M,31.59,M,1.9,0266*40,43.46220660083333,141.8059591748333,565197.974099677,4812459.576034444
1548,[2021-01-29 11:52:33.382] $GPGGA,25232.0,4327.73239798,N,14148.35755112,E,4,5.0,1.8,108.915,M,31.59,M,2.0,0266*46,43.462206633,141.80595918533334,565197.9749145099,4812459.579615027
1549,[2021-01-29 11:52:33.476] $GPGGA,25232.1,4327.73239524,N,14148.35755706,E,4,5.0,1.8,108.902,M,31.59,M,1.1,0266*45,43.46220658733334,141.80595928433334,565197.9829722103,4812459.57462088
1550,[2021-01-29 11:52:33.586] $GPGGA,25232.2,4327.73239575,N,14148.35755316,E,4,5.0,1.8,108.913,M,31.59,M,1.2,0266*44,43.46220659583334,141.80595921933332,565197.9777048865,4812459.575513991
1551,[2021-01-29 11:52:33.695] $GPGGA,25232.3,4327.73239498,N,14148.35755524,E,4,5.0,1.8,108.90299999999999,M,31.59,M,1.3,0266*40,43.462206583,141.805959254,565197.9805230448,4812459.574115884
1552,[2021-01-29 11:52:33.789] $GPGGA,25232.4,4327.73239739,N,14148.35755068,E,4,5.0,1.8,108.90700000000001,M,31.59,M,1.4,0266*41,43.46220662316667,141.80595917800002,565197.9743318477,4812459.578517217
1553,[2021-01-29 11:52:33.898] $GPGGA,25232.5,4327.73239694,N,14148.35755861,E,4,5.0,1.8,108.91,M,31.59,M,1.5,0266*40,43.462206615666666,141.80595931016666,565197.9850315509,4812459.577787743
1554,[2021-01-29 11:52:33.992] $GPGGA,25232.6,4327.7323939,N,14148.35755664,E,4,5.0,1.8,108.897,M,31.59,M,1.6,0266*44,43.462206564999995,141.80595927733333,565197.9824299436,4812459.572135106
1555,[2021-01-29 11:52:34.086] $GPGGA,25232.7,4327.7323957,N,14148.35755515,E,4,5.0,1.8,108.914,M,31.59,M,1.7,0266*43,43.462206595,141.8059592525,565197.9803888059,4812459.575447404
1556,[2021-01-29 11:52:34.195] $GPGGA,25232.8,4327.73239624,N,14148.35755579,E,4,5.0,1.8,108.902,M,31.59,M,1.8,0266*4C,43.462206603999995,141.80595926316667,565197.9812420155,4812459.576455275
1557,[2021-01-29 11:52:34.290] $GPGGA,25232.9,4327.7323954,N,14148.35755517,E,4,5.0,1.8,108.90299999999999,M,31.59,M,1.9,0266*44,43.46220659000001,141.80595925283333,565197.9804211454,4812459.574892375
1558,[2021-01-29 11:52:34.399] $GPGGA,25233.0,4327.73239508,N,14148.35755499,E,4,5.0,1.8,108.906,M,31.59,M,2.0,0266*48,43.462206584666674,141.80595924983334,565197.9801841915,4812459.57429772
1559,[2021-01-29 11:52:34.493] $GPGGA,25233.1,4327.73239362,N,14148.35755723,E,4,5.0,1.8,108.936,M,31.59,M,1.1,0266*40,43.46220656033333,141.80595928716667,565197.9832304281,4812459.571624533
1560,[2021-01-29 11:52:34.587] $GPGGA,25233.2,4327.73239213,N,14148.35755495,E,4,5.0,1.8,108.936,M,31.59,M,1.2,0266*49,43.4622065355,141.80595924916665,565197.9801830974,4812459.568836849
1561,[2021-01-29 11:52:34.681] $GPGGA,25233.3,4327.73239511,N,14148.35755671,E,4,5.0,1.8,108.926,M,31.59,M,1.3,0266*45,43.462206585166655,141.80595927849998,565197.9825026476,4812459.574375687
1562,[2021-01-29 11:52:34.790] $GPGGA,25233.4,4327.73239349,N,14148.35755981,E,4,5.0,1.8,108.931,M,31.59,M,1.4,0266*48,43.46220655816666,141.80595933016667,565197.9867112498,4812459.571417568
1563,[2021-01-29 11:52:34.884] $GPGGA,25233.5,4327.73239534,N,14148.35755681,E,4,5.0,1.8,108.931,M,31.59,M,1.5,0266*4B,43.462206589,141.8059592801667,565197.9826333569,4812459.5748027135
1564,[2021-01-29 11:52:34.993] $GPGGA,25233.6,4327.73239053,N,14148.35756067,E,4,5.0,1.8,108.92,M,31.59,M,1.6,0266*42,43.46220650883333,141.80595934449997,565197.9879237609,4812459.565949931
1565,[2021-01-29 11:52:35.087] $GPGGA,25233.7,4327.7323952,N,14148.35756034,E,4,5.0,1.8,108.934,M,31.59,M,1.7,0266*40,43.46220658666666,141.805959339,565197.9873951941,4812459.574589632
1566,[2021-01-29 11:52:35.196] $GPGGA,25233.8,4327.73239542,N,14148.35755873,E,4,5.0,1.8,108.928,M,31.59,M,1.8,0266*41,43.46220659033333,141.8059593121667,565197.9852205692,4812459.574975842
1567,[2021-01-29 11:52:35.292] $GPGGA,25233.9,4327.732394,N,14148.35756117,E,4,5.0,1.8,108.92399999999999,M,31.59,M,1.9,0266*42,43.46220656666666,141.80595935283333,565197.9885357392,4812459.572379304
1568,[2021-01-29 11:52:35.401] $GPGGA,25234.0,4327.73239349,N,14148.35755669,E,4,5.0,1.8,108.92,M,31.59,M,2.0,0266*45,43.46220655816666,141.80595927816665,565197.9825046997,4812459.571376862
1569,[2021-01-29 11:52:35.479] $GPGGA,25234.1,4327.73239379,N,14148.35755901,E,4,5.0,1.8,108.91799999999999,M,31.59,M,1.1,0266*4F,43.46220656316667,141.80595931683334,565197.9856272731,4812459.571962421
1570,[2021-01-29 11:52:35.589] $GPGGA,25234.2,4327.73239385,N,14148.35755985,E,4,5.0,1.8,108.925,M,31.59,M,1.2,0266*4E,43.46220656416667,141.8059593308333,565197.9867587299,4812459.572084439
1571,[2021-01-29 11:52:35.682] $GPGGA,25234.3,4327.73239174,N,14148.35755989,E,4,5.0,1.8,108.917,M,31.59,M,1.3,0266*4F,43.46220652899999,141.80595933150002,565197.9868504553,4812459.568179423
1572,[2021-01-29 11:52:35.792] $GPGGA,25234.4,4327.73239416,N,14148.35756315,E,4,5.0,1.8,108.90799999999999,M,31.59,M,1.4,0266*4C,43.462206569333325,141.80595938583335,565197.9912024152,4812459.57270129
1573,[2021-01-29 11:52:35.885] $GPGGA,25234.5,4327.73239656,N,14148.35755557,E,4,5.0,1.8,108.92299999999999,M,31.59,M,1.5,0266*40,43.46220660933333,141.8059592595,565197.98093967,4812459.577044713
1574,[2021-01-29 11:52:35.995] $GPGGA,25234.6,4327.73239104,N,14148.35756093,E,4,5.0,1.8,108.915,M,31.59,M,1.6,0266*4B,43.462206517333335,141.80595934883334,565197.9882651765,4812459.566897316
1575,[2021-01-29 11:52:36.089] $GPGGA,25234.7,4327.73239083,N,14148.35756166,E,4,5.0,1.8,108.93,M,31.59,M,1.7,0266*49,43.462206513833344,141.80595936099996,565197.9892531583,4812459.566518138
1576,[2021-01-29 11:52:36.198] $GPGGA,25234.8,4327.73239301,N,14148.35755859,E,4,5.0,1.8,108.925,M,31.59,M,1.8,0266*42,43.46220655016667,141.8059593098333,565197.9850749762,4812459.570513189
1577,[2021-01-29 11:52:36.280] $GPGGA,25234.9,4327.73239378,N,14148.35755664,E,4,5.0,1.8,108.91799999999999,M,31.59,M,1.9,0266*42,43.462206562999995,141.80595927733333,565197.982432093,4812459.57191299
1578,[2021-01-29 11:52:36.389] $GPGGA,25235.0,4327.73239193,N,14148.35755963,E,4,5.0,1.8,108.93299999999999,M,31.59,M,2.0,0266*46,43.46220653216666,141.80595932716668,565197.9864965058,4812459.568527715
1579,[2021-01-29 11:52:36.483] $GPGGA,25235.1,4327.73238998,N,14148.35755941,E,4,5.0,1.8,108.91,M,31.59,M,1.1,0266*46,43.46220649966667,141.8059593235,565197.9862348168,4812459.564915462
1580,[2021-01-29 11:52:36.592] $GPGGA,25235.2,4327.73238802,N,14148.35756232,E,4,5.0,1.8,108.90899999999999,M,31.59,M,1.2,0266*40,43.462206467,141.80595937199996,565197.9901933372,4812459.561325535
1581,[2021-01-29 11:52:36.686] $GPGGA,25235.3,4327.73239217,N,14148.35756134,E,4,5.0,1.8,108.912,M,31.59,M,1.3,0266*40,43.46220653616667,141.8059593556667,565197.9887977205,4812459.568994257
1582,[2021-01-29 11:52:36.795] $GPGGA,25235.4,4327.73238837,N,14148.35756238,E,4,5.0,1.8,108.913,M,31.59,M,1.4,0266*47,43.46220647283333,141.80595937299998,565197.9902679648,4812459.561974156
1583,[2021-01-29 11:52:36.889] $GPGGA,25235.5,4327.73239131,N,14148.35756314,E,4,5.0,1.8,108.913,M,31.59,M,1.5,0266*46,43.46220652183333,141.80595938566665,565197.9912399783,4812459.567425909
1584,[2021-01-29 11:52:36.998] $GPGGA,25235.6,4327.73238952,N,14148.35756098,E,4,5.0,1.8,108.913,M,31.59,M,1.6,0266*4D,43.462206492,141.80595934966667,565197.9883598143,4812459.564084501
1585,[2021-01-29 11:52:37.092] $GPGGA,25235.7,4327.73239191,N,14148.35755987,E,4,5.0,1.8,108.916,M,31.59,M,1.7,0266*4A,43.46220653183333,141.8059593311667,565197.9868204462,4812459.568493825
1586,[2021-01-29 11:52:37.186] $GPGGA,25235.8,4327.73239141,N,14148.35755922,E,4,5.0,1.8,108.90299999999999,M,31.59,M,1.8,0266*4C,43.462206523499994,141.80595932033333,565197.985953036,4812459.5675598625
1587,[2021-01-29 11:52:37.295] $GPGGA,25235.9,4327.732389,N,14148.35756445,E,4,5.0,1.8,108.92299999999999,M,31.59,M,1.9,0266*4D,43.46220648333333,141.8059594075,565197.9930475652,4812459.563167271
1588,[2021-01-29 11:52:37.388] $GPGGA,25236.0,4327.73239186,N,14148.35756241,E,4,5.0,1.8,108.91,M,31.59,M,2.0,0266*48,43.46220653099999,141.80595937349997,565197.9902459005,4812459.568434415
1589,[2021-01-29 11:52:37.498] $GPGGA,25236.1,4327.73239046,N,14148.35755267,E,4,5.0,1.8,108.948,M,31.59,M,1.1,0266*4C,43.46220650766666,141.80595921116668,565197.977138995,4812459.565715989
1590,[2021-01-29 11:52:37.592] $GPGGA,25236.2,4327.73239192,N,14148.3575517,E,4,5.0,1.8,108.947,M,31.59,M,1.2,0266*4E,43.462206532,141.80595919500004,565197.9758050418,4812459.568405746
1591,[2021-01-29 11:52:37.685] $GPGGA,25236.3,4327.73238969,N,14148.35755204,E,4,5.0,1.8,108.95299999999999,M,31.59,M,1.3,0266*46,43.46220649483333,141.80595920066665,565197.976303385,4812459.564282527
1592,[2021-01-29 11:52:37.795] $GPGGA,25236.4,4327.73239189,N,14148.35755269,E,4,5.0,1.8,108.936,M,31.59,M,1.4,0266*49,43.4622065315,141.8059592115,565197.977140346,4812459.568363131
1593,[2021-01-29 11:52:37.888] $GPGGA,25236.5,4327.73239179,N,14148.35755255,E,4,5.0,1.8,108.949,M,31.59,M,1.5,0266*41,43.462206529833345,141.80595920916664,565197.9769533798,4812459.56817621
1594,[2021-01-29 11:52:37.998] $GPGGA,25236.6,4327.7323935,N,14148.35755248,E,4,5.0,1.8,108.95200000000001,M,31.59,M,1.6,0266*4E,43.46220655833334,141.805959208,565197.9768283748,4812459.571340446
1595,[2021-01-29 11:52:38.092] $GPGGA,25236.7,4327.73239279,N,14148.35755404,E,4,5.0,1.8,108.94200000000001,M,31.59,M,1.7,0266*4B,43.4622065465,141.80595923400003,565197.9789443699,4812459.570046613
1596,[2021-01-29 11:52:38.201] $GPGGA,25236.8,4327.73239085,N,14148.35755565,E,4,5.0,1.8,108.941,M,31.59,M,1.8,0266*4F,43.46220651416667,141.80595926083333,565197.9811498023,4812459.5664767455
1597,[2021-01-29 11:52:38.296] $GPGGA,25236.9,4327.73238919,N,14148.3575568,E,4,5.0,1.8,108.947,M,31.59,M,1.9,0266*4C,43.462206486499994,141.80595928,565197.9827300254,4812459.563419146
1598,[2021-01-29 11:52:38.389] $GPGGA,25237.0,4327.73239403,N,14148.35755219,E,4,5.0,1.8,108.94200000000001,M,31.59,M,2.0,0266*48,43.46220656716667,141.80595920316668,565197.9764278913,4812459.572317675
1599,[2021-01-29 11:52:38.483] $GPGGA,25237.1,4327.7323932,N,14148.35755503,E,4,5.0,1.8,108.941,M,31.59,M,1.1,0266*42,43.46220655333334,141.8059592505,565197.9802717931,4812459.570818426
1600,[2021-01-29 11:52:38.593] $GPGGA,25237.2,4327.73239329,N,14148.35755955,E,4,5.0,1.8,108.93,M,31.59,M,1.2,0266*42,43.46220655483333,141.80595932583336,565197.9863642878,4812459.571043984
1601,[2021-01-29 11:52:38.686] $GPGGA,25237.3,4327.73239205,N,14148.35755786,E,4,5.0,1.8,108.925,M,31.59,M,1.3,0266*49,43.46220653416667,141.80595929766665,565197.9841079465,4812459.568726738
1602,[2021-01-29 11:52:38.796] $GPGGA,25237.4,4327.73239273,N,14148.35755765,E,4,5.0,1.8,108.935,M,31.59,M,1.4,0266*44,43.4622065455,141.80595929416668,565197.983812637,4812459.569982654
1603,[2021-01-29 11:52:38.889] $GPGGA,25237.5,4327.73239261,N,14148.35755755,E,4,5.0,1.8,108.927,M,31.59,M,1.5,0266*47,43.462206543499995,141.8059592925,565197.9836799594,4812459.569759234
1604,[2021-01-29 11:52:38.999] $GPGGA,25237.6,4327.73239211,N,14148.35755898,E,4,5.0,1.8,108.93,M,31.59,M,1.6,0266*48,43.462206535166665,141.80595931633334,565197.985616918,4812459.568852407
1605,[2021-01-29 11:52:39.092] $GPGGA,25237.7,4327.73239338,N,14148.35756036,E,4,5.0,1.8,108.92399999999999,M,31.59,M,1.7,0266*48,43.46220655633333,141.80595933933333,565197.987454759,4812459.571221138
1606,[2021-01-29 11:52:39.186] $GPGGA,25237.8,4327.73239402,N,14148.35755467,E,4,5.0,1.8,108.932,M,31.59,M,1.8,0266*42,43.46220656700001,141.8059592445,565197.9797717367,4812459.572331521
1607,[2021-01-29 11:52:39.282] $GPGGA,25237.9,4327.73238969,N,14148.35756057,E,4,5.0,1.8,108.929,M,31.59,M,1.9,0266*4D,43.46220649483333,141.80595934283332,565197.9878039836,4812459.564393816
1608,[2021-01-29 11:52:39.391] $GPGGA,25238.0,4327.73239457,N,14148.35755564,E,4,5.0,1.8,108.93700000000001,M,31.59,M,2.0,0266*49,43.462206576166665,141.80595926066664,565197.981069688,4812459.573362207
1609,[2021-01-29 11:52:39.485] $GPGGA,25238.1,4327.73238826,N,14148.35755566,E,4,5.0,1.8,108.921,M,31.59,M,1.1,0266*44,43.462206471,141.80595926100003,565197.9812096788,4812459.561682877
1610,[2021-01-29 11:52:39.595] $GPGGA,25238.2,4327.73239269,N,14148.35755399,E,4,5.0,1.8,108.92299999999999,M,31.59,M,1.2,0266*40,43.46220654483333,141.80595923316665,565197.9788787445,4812459.5698608635
1611,[2021-01-29 11:52:39.688] $GPGGA,25238.3,4327.73239052,N,14148.35755682,E,4,5.0,1.8,108.93,M,31.59,M,1.3,0266*47,43.46220650866667,141.80595928033333,565197.9827331696,4812459.565881193
1612,[2021-01-29 11:52:39.798] $GPGGA,25238.4,4327.73239044,N,14148.35755501,E,4,5.0,1.8,108.921,M,31.59,M,1.4,0266*48,43.462206507333335,141.80595925016667,565197.9802942642,4812459.565709501
1613,[2021-01-29 11:52:39.891] $GPGGA,25238.5,4327.73238878,N,14148.35755452,E,4,5.0,1.8,108.92200000000001,M,31.59,M,1.5,0266*4A,43.46220647966667,141.80595924200003,565197.9796633546,4812459.562630506
1614,[2021-01-29 11:52:40.001] $GPGGA,25238.6,4327.73238786,N,14148.35755987,E,4,5.0,1.8,108.93299999999999,M,31.59,M,1.6,0266*41,43.462206464333335,141.8059593311667,565197.986892987,4812459.560997417
1615,[2021-01-29 11:52:40.079] $GPGGA,25238.7,4327.73238902,N,14148.35755898,E,4,5.0,1.8,108.92200000000001,M,31.59,M,1.7,0266*4C,43.462206483666655,141.80595931633334,565197.985672264,4812459.563132923
1616,[2021-01-29 11:52:40.188] $GPGGA,25238.8,4327.73239164,N,14148.35755396,E,4,5.0,1.8,108.925,M,31.59,M,1.8,0266*47,43.462206527333336,141.80595923266665,565197.9788571032,4812459.5679169595
1617,[2021-01-29 11:52:40.283] $GPGGA,25238.9,4327.73239035,N,14148.35755798,E,4,5.0,1.8,108.92399999999999,M,31.59,M,1.9,0266*49,43.46220650583333,141.80595929966668,565197.984300189,4812459.565581663
1618,[2021-01-29 11:52:40.393] $GPGGA,25239.0,4327.73239065,N,14148.35755451,E,4,5.0,1.8,108.927,M,31.59,M,2.0,0266*4B,43.462206510833326,141.80595924183334,565197.9796163763,4812459.566091679
1619,[2021-01-29 11:52:40.487] $GPGGA,25239.1,4327.732391,N,14148.35755865,E,4,5.0,1.8,108.917,M,31.59,M,1.1,0266*42,43.462206516666654,141.80595931083332,565197.9851918746,4812459.566793529
1620,[2021-01-29 11:52:40.596] $GPGGA,25239.2,4327.73238766,N,14148.35755592,E,4,5.0,1.8,108.926,M,31.59,M,1.2,0266*42,43.462206461,141.80595926533334,565197.9815709699,4812459.56057569
1621,[2021-01-29 11:52:40.690] $GPGGA,25239.3,4327.73238823,N,14148.35756227,E,4,5.0,1.8,108.905,M,31.59,M,1.3,0266*47,43.46220647049999,141.80595937116664,565197.9901221633,4812459.561713585
1622,[2021-01-29 11:52:40.799] $GPGGA,25239.4,4327.73238926,N,14148.35755939,E,4,5.0,1.8,108.917,M,31.59,M,1.4,0266*47,43.462206487666656,141.8059593231667,565197.9862207489,4812459.563582505
1623,[2021-01-29 11:52:40.893] $GPGGA,25239.5,4327.73238987,N,14148.35755752,E,4,5.0,1.8,108.917,M,31.59,M,1.5,0266*4F,43.46220649783333,141.805959292,565197.9836885902,4812459.564687197
1624,[2021-01-29 11:52:40.987] $GPGGA,25239.6,4327.73238952,N,14148.35755765,E,4,5.0,1.8,108.92,M,31.59,M,1.6,0266*47,43.462206492,141.80595929416668,565197.9838701324,4812459.564041057
1625,[2021-01-29 11:52:41.080] $GPGGA,25239.7,4327.73238898,N,14148.35755456,E,4,5.0,1.8,108.917,M,31.59,M,1.7,0266*47,43.462206483,141.80595924266666,565197.9797137007,4812459.56300122
1626,[2021-01-29 11:52:41.190] $GPGGA,25239.8,4327.73238791,N,14148.35755971,E,4,5.0,1.8,108.919,M,31.59,M,1.8,0266*47,43.46220646516667,141.80595932850002,565197.9866763721,4812459.561087879
1627,[2021-01-29 11:52:41.285] $GPGGA,25239.9,4327.73238862,N,14148.35755902,E,4,5.0,1.8,108.921,M,31.59,M,1.9,0266*4B,43.462206477,141.80595931699997,565197.9857333547,4812459.562393062
1628,[2021-01-29 11:52:41.394] $GPGGA,25240.0,4327.73239116,N,14148.35755967,E,4,5.0,1.8,108.919,M,31.59,M,2.0,0266*45,43.462206519333336,141.80595932783334,565197.9865642278,4812459.567102993
1629,[2021-01-29 11:52:41.488] $GPGGA,25240.1,4327.73238678,N,14148.35755705,E,4,5.0,1.8,108.925,M,31.59,M,1.1,0266*4D,43.46220644633332,141.80595928416665,565197.9831102539,4812459.558961581
1630,[2021-01-29 11:52:41.597] $GPGGA,25240.2,4327.73238844,N,14148.3575578,E,4,5.0,1.8,108.94,M,31.59,M,1.2,0266*42,43.462206474000006,141.80595929666666,565197.9840917118,4812459.56204397
1631,[2021-01-29 11:52:41.691] $GPGGA,25240.3,4327.73238791,N,14148.35756125,E,4,5.0,1.8,108.944,M,31.59,M,1.3,0266*4B,43.46220646516667,141.80595935416667,565197.9887526799,4812459.561107972
1632,[2021-01-29 11:52:41.800] $GPGGA,25240.4,4327.73238659,N,14148.35756331,E,4,5.0,1.8,108.931,M,31.59,M,1.4,0266*4B,43.46220644316667,141.8059593885,565197.9915537233,4812459.558691572
1633,[2021-01-29 11:52:41.894] $GPGGA,25240.5,4327.73238885,N,14148.35755717,E,4,5.0,1.8,108.946,M,31.59,M,1.5,0266*47,43.46220648083332,141.80595928616668,565197.9832349706,4812459.562794645
1634,[2021-01-29 11:52:41.988] $GPGGA,25240.6,4327.73238761,N,14148.35755893,E,4,5.0,1.8,108.925,M,31.59,M,1.6,0266*44,43.46220646016666,141.8059593155,565197.9856301044,4812459.560522412
1635,[2021-01-29 11:52:42.097] $GPGGA,25240.7,4327.73238828,N,14148.35756001,E,4,5.0,1.8,108.934,M,31.59,M,1.7,0266*46,43.46220647133334,141.80595933349997,565197.9870742154,4812459.56177665
1636,[2021-01-29 11:52:42.191] $GPGGA,25240.8,4327.7323864,N,14148.35756003,E,4,5.0,1.8,108.932,M,31.59,M,1.8,0266*42,43.46220644,141.8059593338333,565197.9871348529,4812459.558297096
1637,[2021-01-29 11:52:42.287] $GPGGA,25240.9,4327.73238691,N,14148.35756058,E,4,5.0,1.8,108.932,M,31.59,M,1.9,0266*40,43.462206448500005,141.80595934299998,565197.9878672591,4812459.559248265
1638,[2021-01-29 11:52:42.396] $GPGGA,25241.0,4327.73238782,N,14148.35756005,E,4,5.0,1.8,108.93299999999999,M,31.59,M,2.0,0266*48,43.46220646366668,141.8059593341667,565197.9871363891,4812459.560925728
1639,[2021-01-29 11:52:42.490] $GPGGA,25241.1,4327.73238689,N,14148.35755862,E,4,5.0,1.8,108.94,M,31.59,M,1.1,0266*4F,43.462206448166675,141.80595931033335,565197.9852250438,4812459.5591856735
1640,[2021-01-29 11:52:42.599] $GPGGA,25241.2,4327.73238812,N,14148.35755589,E,4,5.0,1.8,108.932,M,31.59,M,1.2,0266*4E,43.462206468666665,141.80595926483332,565197.9815222804,4812459.561426743
1641,[2021-01-29 11:52:42.693] $GPGGA,25241.3,4327.73239022,N,14148.35755833,E,4,5.0,1.8,108.939,M,31.59,M,1.3,0266*43,43.46220650366666,141.80595930549998,565197.9847744044,4812459.565345601
1642,[2021-01-29 11:52:42.786] $GPGGA,25241.4,4327.73239062,N,14148.35755378,E,4,5.0,1.8,108.93799999999999,M,31.59,M,1.4,0266*42,43.462206510333324,141.80595922966666,565197.9786326891,4812459.566026625
1643,[2021-01-29 11:52:42.880] $GPGGA,25241.5,4327.73239008,N,14148.35756019,E,4,5.0,1.8,108.941,M,31.59,M,1.5,0266*47,43.462206501333334,141.80595933649997,565197.9872846607,4812459.565110736
1644,[2021-01-29 11:52:42.990] $GPGGA,25241.6,4327.73238825,N,14148.35755848,E,4,5.0,1.8,108.934,M,31.59,M,1.6,0266*4C,43.462206470833344,141.805959308,565197.9850119292,4812459.56170116
1645,[2021-01-29 11:52:43.083] $GPGGA,25241.7,4327.73238806,N,14148.3575567,E,4,5.0,1.8,108.93700000000001,M,31.59,M,1.7,0266*4B,43.462206467666654,141.80595927833335,565197.9826154424,4812459.561326251
1646,[2021-01-29 11:52:43.193] $GPGGA,25241.8,4327.73238924,N,14148.35755676,E,4,5.0,1.8,108.931,M,31.59,M,1.8,0266*4A,43.46220648733333,141.80595927933336,565197.9826752036,4812459.563511173
1647,[2021-01-29 11:52:43.288] $GPGGA,25241.9,4327.73238906,N,14148.35755966,E,4,5.0,1.8,108.936,M,31.59,M,1.9,0266*43,43.462206484333336,141.80595932766664,565197.9865883575,4812459.563215836
1648,[2021-01-29 11:52:43.382] $GPGGA,25242.0,4327.73239012,N,14148.35755776,E,4,5.0,1.8,108.932,M,31.59,M,2.0,0266*45,43.462206502,141.805959296,565197.9840076925,4812459.56515307
1649,[2021-01-29 11:52:43.491] $GPGGA,25242.1,4327.73238798,N,14148.35756281,E,4,5.0,1.8,108.92200000000001,M,31.59,M,1.1,0266*4D,43.46220646633332,141.80595938016666,565197.990854698,4812459.5612578895
1650,[2021-01-29 11:52:43.601] $GPGGA,25242.2,4327.73238979,N,14148.35756261,E,4,5.0,1.8,108.914,M,31.59,M,1.2,0266*47,43.462206496499995,141.80595937683333,565197.9905526288,4812459.564605527
1651,[2021-01-29 11:52:43.694] $GPGGA,25242.3,4327.73238982,N,14148.35756408,E,4,5.0,1.8,108.905,M,31.59,M,1.3,0266*4A,43.462206497000004,141.80595940133335,565197.9925340267,4812459.564680236
1652,[2021-01-29 11:52:43.788] $GPGGA,25242.4,4327.7323901,N,14148.35756338,E,4,5.0,1.8,108.928,M,31.59,M,1.4,0266*42,43.46220650166667,141.80595938966667,565197.9915852312,4812459.565189373
1653,[2021-01-29 11:52:43.897] $GPGGA,25242.5,4327.73239265,N,14148.35756349,E,4,5.0,1.8,108.91,M,31.59,M,1.5,0266*4F,43.46220654416667,141.8059593915,565197.9916878663,4812459.569910769
1654,[2021-01-29 11:52:43.991] $GPGGA,25242.6,4327.73238782,N,14148.3575658,E,4,5.0,1.8,108.92,M,31.59,M,1.6,0266*42,43.46220646366668,141.80595943,565197.9948888427,4812459.561000747
1655,[2021-01-29 11:52:44.085] $GPGGA,25242.7,4327.73238917,N,14148.35756419,E,4,5.0,1.8,108.926,M,31.59,M,1.7,0266*47,43.462206486166664,141.8059594031667,565197.992693976,4812459.5634785425
1656,[2021-01-29 11:52:44.194] $GPGGA,25242.8,4327.73239024,N,14148.35756369,E,4,5.0,1.8,108.91,M,31.59,M,1.8,0266*4A,43.46220650400001,141.80595939483337,565197.9920006865,4812459.565452553
1657,[2021-01-29 11:52:44.290] $GPGGA,25242.9,4327.73238699,N,14148.3575635,E,4,5.0,1.8,108.919,M,31.59,M,1.9,0266*48,43.46220644983334,141.80595939166665,565197.9918027244,4812459.559434437
