,Format,Time,Latitude,LatType,Longitude,LonType,Status,Satellite,LevelAccuracy,Altitude(sea),M(sea),Altitude(geoid),M(geoid),DGPS use,checksum,Lat,Lon,UTM_X,UTM_Y
414,[2021-01-29 11:50:46.188] $GPGGA,25044.8,4327.73238406,N,14148.35754591,E,4,5.0,10.1,108.913,M,31.59,M,1.8,0000*70,43.46220640100001,141.80595909849998,565197.9681394347,4812459.553781618
415,[2021-01-29 11:50:46.284] $GPGGA,25044.9,4327.73238442,N,14148.35754593,E,4,5.0,10.1,108.911,M,31.59,M,1.9,0000*70,43.462206407,141.80595909883334,565197.9681599549,4812459.554448226
416,[2021-01-29 11:50:46.394] $GPGGA,25045.0,4327.73238546,N,14148.3575424,E,4,5.0,10.1,108.915,M,31.59,M,2.0,0000*7A,43.46220642433333,141.80595903999998,565197.9633819914,4812459.5563271735
417,[2021-01-29 11:50:46.488] $GPGGA,25045.1,4327.73238547,N,14148.35754426,E,4,5.0,10.1,108.92,M,31.59,M,2.1,0000*7B,43.4622064245,141.805959071,565197.965889563,4812459.556369952
418,[2021-01-29 11:50:46.597] $GPGGA,25045.2,4327.73238502,N,14148.35754685,E,4,5.0,10.1,108.91,M,31.59,M,2.2,0000*72,43.462206417,141.80595911416665,565197.9693895982,4812459.555570809
419,[2021-01-29 11:50:46.691] $GPGGA,25045.3,4327.7323842,N,14148.35754635,E,4,5.0,10.1,108.911,M,31.59,M,2.3,0000*79,43.462206403333326,141.80595910583332,565197.9687301591,4812459.554046492
420,[2021-01-29 11:50:46.800] $GPGGA,25045.4,4327.73238355,N,14148.35754696,E,4,5.0,10.1,108.91,M,31.59,M,2.4,0000*74,43.4622063925,141.805959116,565197.9695642369,4812459.552851325
421,[2021-01-29 11:50:46.894] $GPGGA,25045.5,4327.73238632,N,14148.35754473,E,4,5.0,10.1,108.91799999999999,M,31.59,M,2.5,0000*71,43.46220643866666,141.80595907883335,565197.9665080206,4812459.557949404
422,[2021-01-29 11:50:47.003] $GPGGA,25045.6,4327.73238663,N,14148.35754496,E,4,5.0,10.1,108.90899999999999,M,31.59,M,2.6,0000*7E,43.46220644383334,141.80595908266665,565197.9668125621,4812459.558526205
423,[2021-01-29 11:50:47.081] $GPGGA,25045.7,4327.7323841,N,14148.35754847,E,4,5.0,10.1,108.913,M,31.59,M,2.7,0000*73,43.46220640166666,141.80595914116665,565197.9715902472,4812459.553889054
424,[2021-01-29 11:50:47.191] $GPGGA,25045.8,4327.73237583,N,14148.35752365,E,4,5.0,10.1,108.947,M,31.59,M,1.8,0000*78,43.46220626383333,141.8059587275,565197.938274735,4812459.538257754
425,[2021-01-29 11:50:47.284] $GPGGA,25045.9,4327.73237555,N,14148.35752267,E,4,5.0,10.1,108.946,M,31.59,M,1.9,0000*71,43.46220625916666,141.80595871116665,565197.9369584613,4812459.5377266975
426,[2021-01-29 11:50:47.394] $GPGGA,25046.0,4327.73237401,N,14148.35752608,E,4,5.0,10.1,108.95,M,31.59,M,2.0,0000*7B,43.462206233500005,141.80595876799998,565197.9415835873,4812459.534920701
427,[2021-01-29 11:50:47.488] $GPGGA,25046.1,4327.73237644,N,14148.35752173,E,4,5.0,10.1,108.95299999999999,M,31.59,M,2.1,0000*70,43.46220627399999,141.8059586955,565197.9356751639,4812459.539361791
428,[2021-01-29 11:50:47.597] $GPGGA,25046.2,4327.73237484,N,14148.3575263,E,4,5.0,10.1,108.947,M,31.59,M,2.2,0000*7B,43.462206247333334,141.80595877166667,565197.941865337,4812459.536459872
429,[2021-01-29 11:50:47.691] $GPGGA,25046.3,4327.73237457,N,14148.35752649,E,4,5.0,10.1,108.949,M,31.59,M,2.3,0000*75,43.462206242833325,141.80595877483333,565197.9421263407,4812459.535962589
430,[2021-01-29 11:50:47.800] $GPGGA,25046.4,4327.73237457,N,14148.35752553,E,4,5.0,10.1,108.948,M,31.59,M,2.4,0000*7C,43.462206242833325,141.80595875883333,565197.9408320182,4812459.535950065
431,[2021-01-29 11:50:47.894] $GPGGA,25046.5,4327.73237588,N,14148.35752192,E,4,5.0,10.1,108.954,M,31.59,M,2.5,0000*7B,43.46220626466667,141.80595869866664,565197.9359413598,4812459.538327732
432,[2021-01-29 11:50:48.003] $GPGGA,25046.6,4327.73237577,N,14148.35752445,E,4,5.0,10.1,108.945,M,31.59,M,2.6,0000*74,43.46220626283333,141.80595874083335,565197.9393544128,4812459.538157132
433,[2021-01-29 11:50:48.081] $GPGGA,25046.7,4327.73237444,N,14148.35752589,E,4,5.0,10.1,108.96,M,31.59,M,2.7,0000*73,43.46220624066667,141.80595876483335,565197.9413197199,4812459.5357141355
434,[2021-01-29 11:50:48.191] $GPGGA,25046.8,4327.73237992,N,14148.3575328,E,4,5.0,10.1,108.927,M,31.59,M,1.8,0000*7A,43.46220633200001,141.80595888,565197.9505379918,4812459.545947579
435,[2021-01-29 11:50:48.287] $GPGGA,25046.9,4327.73237907,N,14148.35753282,E,4,5.0,10.1,108.931,M,31.59,M,1.9,0000*73,43.462206317833335,141.80595888033335,565197.9505801827,4812459.54437452
436,[2021-01-29 11:50:48.396] $GPGGA,25047.0,4327.73237833,N,14148.35753332,E,4,5.0,10.1,108.93700000000001,M,31.59,M,2.0,0000*7B,43.4622063055,141.80595888866668,565197.9512675635,4812459.543011326
437,[2021-01-29 11:50:48.490] $GPGGA,25047.1,4327.7323792,N,14148.35753305,E,4,5.0,10.1,108.925,M,31.59,M,2.1,0000*7F,43.46220631999999,141.80595888416667,565197.9508879522,4812459.544618145
438,[2021-01-29 11:50:48.599] $GPGGA,25047.2,4327.73238068,N,14148.35752862,E,4,5.0,10.1,108.939,M,31.59,M,2.2,0000*73,43.46220634466666,141.80595881033332,565197.9448886818,4812459.547299776
439,[2021-01-29 11:50:48.693] $GPGGA,25047.3,4327.73237797,N,14148.35753434,E,4,5.0,10.1,108.93299999999999,M,31.59,M,2.3,0000*7F,43.4622062995,141.8059589056667,565197.9526492308,4812459.5423582895
440,[2021-01-29 11:50:48.802] $GPGGA,25047.4,4327.73238012,N,14148.35753198,E,4,5.0,10.1,108.931,M,31.59,M,2.4,0000*7B,43.46220633533333,141.80595886633333,565197.9494288423,4812459.546307073
441,[2021-01-29 11:50:48.881] $GPGGA,25047.5,4327.7323786,N,14148.35753354,E,4,5.0,10.1,108.93700000000001,M,31.59,M,2.5,0000*7D,43.46220630999999,141.8059588923333,565197.9515593414,4812459.543513958
442,[2021-01-29 11:50:48.990] $GPGGA,25047.6,4327.7323796,N,14148.3575324,E,4,5.0,10.1,108.936,M,31.59,M,2.6,0000*79,43.46220632666666,141.8059588733333,565197.9500044219,4812459.545350051
443,[2021-01-29 11:50:49.084] $GPGGA,25047.7,4327.73237814,N,14148.35753531,E,4,5.0,10.1,108.926,M,31.59,M,2.7,0000*7B,43.462206302333335,141.80595892183334,565197.9539539906,4812459.542685609
444,[2021-01-29 11:50:49.193] $GPGGA,25047.8,4327.73238394,N,14148.35754292,E,4,5.0,10.1,108.916,M,31.59,M,1.8,0000*7E,43.462206398999996,141.80595904866664,565197.9641103072,4812459.553520491
445,[2021-01-29 11:50:49.288] $GPGGA,25047.9,4327.73238205,N,14148.35754295,E,4,5.0,10.1,108.911,M,31.59,M,1.9,0000*77,43.46220636749999,141.8059590491667,565197.964184612,4812459.550022557
446,[2021-01-29 11:50:49.397] $GPGGA,25048.0,4327.73238257,N,14148.35754315,E,4,5.0,10.1,108.916,M,31.59,M,2.0,0000*72,43.462206376166655,141.8059590525,565197.9644449458,4812459.550987669
447,[2021-01-29 11:50:49.491] $GPGGA,25048.1,4327.73238288,N,14148.35754239,E,4,5.0,10.1,108.915,M,31.59,M,2.1,0000*7C,43.46220638133333,141.8059590398333,565197.9634147184,4812459.551551553
448,[2021-01-29 11:50:49.600] $GPGGA,25048.2,4327.73238459,N,14148.35754221,E,4,5.0,10.1,108.912,M,31.59,M,2.2,0000*78,43.462206409833335,141.80595903683331,565197.9631414065,4812459.554714355
449,[2021-01-29 11:50:49.694] $GPGGA,25048.3,4327.73238197,N,14148.35754485,E,4,5.0,10.1,108.916,M,31.59,M,2.3,0000*73,43.462206366166654,141.80595908083333,565197.9667477219,4812459.549899269
450,[2021-01-29 11:50:49.788] $GPGGA,25048.4,4327.7323841,N,14148.35754142,E,4,5.0,10.1,108.917,M,31.59,M,2.4,0000*76,43.46220640166666,141.80595902366667,565197.9620850639,4812459.5537970755
451,[2021-01-29 11:50:49.881] $GPGGA,25048.5,4327.7323814,N,14148.357548,E,4,5.0,10.1,108.912,M,31.59,M,2.5,0000*7C,43.46220635666666,141.80595913333335,565197.9710049296,4812459.5488853175
452,[2021-01-29 11:50:49.991] $GPGGA,25048.6,4327.73238148,N,14148.3575442,E,4,5.0,10.1,108.917,M,31.59,M,2.6,0000*7F,43.462206357999996,141.80595906999997,565197.9658801325,4812459.548983817
453,[2021-01-29 11:50:50.085] $GPGGA,25048.7,4327.73238352,N,14148.35754139,E,4,5.0,10.1,108.919,M,31.59,M,2.7,0000*75,43.46220639200001,141.80595902316665,565197.9620550042,4812459.5527231265
454,[2021-01-29 11:50:50.194] $GPGGA,25048.8,4327.73237933,N,14148.35753721,E,4,5.0,10.1,108.93,M,31.59,M,1.8,0000*77,43.462206322166665,141.8059589535,565197.9564943572,4812459.544913045
455,[2021-01-29 11:50:50.289] $GPGGA,25048.9,4327.73237926,N,14148.35753452,E,4,5.0,10.1,108.935,M,31.59,M,1.9,0000*71,43.462206321000004,141.80595890866667,565197.9528688088,4812459.544748383
456,[2021-01-29 11:50:50.399] $GPGGA,25049.0,4327.73238031,N,14148.35753585,E,4,5.0,10.1,108.932,M,31.59,M,2.0,0000*7F,43.462206338499996,141.80595893083333,565197.9546431778,4812459.546709248
457,[2021-01-29 11:50:50.492] $GPGGA,25049.1,4327.73238181,N,14148.35753806,E,4,5.0,10.1,108.93299999999999,M,31.59,M,2.1,0000*72,43.4622063635,141.80595896766667,565197.9575959507,4812459.549514529
458,[2021-01-29 11:50:50.602] $GPGGA,25049.2,4327.73237965,N,14148.35753511,E,4,5.0,10.1,108.934,M,31.59,M,2.2,0000*73,43.46220632750001,141.8059589185,565197.9536572947,4812459.5454779565
459,[2021-01-29 11:50:50.696] $GPGGA,25049.3,4327.73238077,N,14148.35753652,E,4,5.0,10.1,108.93299999999999,M,31.59,M,2.3,0000*75,43.46220634616668,141.80595894199996,565197.9555382666,4812459.547569434
460,[2021-01-29 11:50:50.789] $GPGGA,25049.4,4327.73238046,N,14148.35753527,E,4,5.0,10.1,108.93,M,31.59,M,2.4,0000*75,43.462206341000005,141.80595892116668,565197.9538585059,4812459.546979326
461,[2021-01-29 11:50:50.883] $GPGGA,25049.5,4327.73238196,N,14148.35753384,E,4,5.0,10.1,108.934,M,31.59,M,2.5,0000*72,43.462206366,141.80595889733337,565197.9519036403,4812459.549737115
462,[2021-01-29 11:50:50.992] $GPGGA,25049.6,4327.7323803,N,14148.35753554,E,4,5.0,10.1,108.932,M,31.59,M,2.6,0000*72,43.46220633833334,141.8059589256667,565197.9542254002,4812459.546686694
463,[2021-01-29 11:50:51.086] $GPGGA,25049.7,4327.73237934,N,14148.3575366,E,4,5.0,10.1,108.928,M,31.59,M,2.7,0000*7F,43.46220632233334,141.80595894333334,565197.9556717426,4812459.544923596
464,[2021-01-29 11:50:51.196] $GPGGA,25049.8,4327.73237932,N,14148.35752958,E,4,5.0,10.1,108.94200000000001,M,31.59,M,1.8,0000*73,43.46220632200001,141.80595882633332,565197.9462073637,4812459.54479499
465,[2021-01-29 11:50:51.293] $GPGGA,25049.9,4327.73237794,N,14148.3575293,E,4,5.0,10.1,108.946,M,31.59,M,1.9,0000*7B,43.46220629900001,141.80595882166668,565197.9458545729,4812459.542237004
466,[2021-01-29 11:50:51.402] $GPGGA,25050.0,4327.73237615,N,14148.35753067,E,4,5.0,10.1,108.943,M,31.59,M,2.0,0000*77,43.462206269166664,141.8059588445,565197.9477337383,4812459.538941651
467,[2021-01-29 11:50:51.496] $GPGGA,25050.1,4327.73237709,N,14148.35753241,E,4,5.0,10.1,108.934,M,31.59,M,2.1,0000*7D,43.46220628483334,141.8059588735,565197.9500628634,4812459.540704259
468,[2021-01-29 11:50:51.589] $GPGGA,25050.2,4327.73237884,N,14148.3575274,E,4,5.0,10.1,108.944,M,31.59,M,2.2,0000*75,43.46220631399999,141.80595879,565197.9432767717,4812459.543878083
469,[2021-01-29 11:50:51.683] $GPGGA,25050.3,4327.73237615,N,14148.35753085,E,4,5.0,10.1,108.941,M,31.59,M,2.3,0000*79,43.462206269166664,141.80595884750002,565197.9479764261,4812459.5389439985
470,[2021-01-29 11:50:51.793] $GPGGA,25050.4,4327.73237795,N,14148.35752844,E,4,5.0,10.1,108.943,M,31.59,M,2.4,0000*76,43.46220629916667,141.80595880733333,565197.944694894,4812459.542244293
471,[2021-01-29 11:50:51.886] $GPGGA,25050.5,4327.73237568,N,14148.35753062,E,4,5.0,10.1,108.941,M,31.59,M,2.5,0000*79,43.46220626133332,141.80595884366667,565197.9476747443,4812459.538071043
472,[2021-01-29 11:50:51.996] $GPGGA,25050.6,4327.73237759,N,14148.3575298,E,4,5.0,10.1,108.94,M,31.59,M,2.6,0000*7C,43.462206293166666,141.80595883,565197.9465349683,4812459.54159569
473,[2021-01-29 11:50:52.089] $GPGGA,25050.7,4327.73237771,N,14148.3575314,E,4,5.0,10.1,108.939,M,31.59,M,2.7,0000*7D,43.462206295166666,141.80595885666668,565197.9486900233,4812459.54183868
474,[2021-01-29 11:50:52.199] $GPGGA,25050.8,4327.73237718,N,14148.35752888,E,4,5.0,10.1,108.943,M,31.59,M,2.8,0000*73,43.462206286333334,141.8059588146667,565197.9453019197,4812459.540824791
475,[2021-01-29 11:50:52.292] $GPGGA,25050.9,4327.73237501,N,14148.35753073,E,4,5.0,10.1,108.941,M,31.59,M,2.9,0000*76,43.46220625016667,141.8059588455,565197.9478350518,4812459.536832334
476,[2021-01-29 11:50:52.402] $GPGGA,25051.0,4327.7323762,N,14148.35753139,E,4,5.0,10.1,108.945,M,31.59,M,3.0,0000*7D,43.46220626999999,141.80595885649998,565197.9487035853,4812459.53904359
477,[2021-01-29 11:50:52.495] $GPGGA,25051.1,4327.73237751,N,14148.35752846,E,4,5.0,10.1,108.94200000000001,M,31.59,M,3.1,0000*7D,43.46220629183333,141.80595880766666,565197.9447297391,4812459.541430131
478,[2021-01-29 11:50:52.589] $GPGGA,25051.2,4327.73237492,N,14148.35753249,E,4,5.0,10.1,108.935,M,31.59,M,3.2,0000*75,43.46220624866668,141.80595887483332,565197.9502095897,4812459.53668871
479,[2021-01-29 11:50:52.683] $GPGGA,25051.3,4327.73237697,N,14148.3575292,E,4,5.0,10.1,108.93799999999999,M,31.59,M,3.3,0000*7A,43.46220628283333,141.80595882000003,565197.945737122,4812459.540440262
480,[2021-01-29 11:50:52.792] $GPGGA,25051.4,4327.73237636,N,14148.35753175,E,4,5.0,10.1,108.93700000000001,M,31.59,M,3.4,0000*77,43.462206272666656,141.8059588625,565197.9491860907,4812459.539344442
481,[2021-01-29 11:50:52.886] $GPGGA,25051.5,4327.73237617,N,14148.35753067,E,4,5.0,10.1,108.945,M,31.59,M,3.5,0000*73,43.462206269499994,141.8059588445,565197.9477333801,4812459.538978669
482,[2021-01-29 11:50:52.995] $GPGGA,25051.6,4327.73237499,N,14148.35753111,E,4,5.0,10.1,108.943,M,31.59,M,3.6,0000*71,43.46220624983333,141.80595885183334,565197.9483477474,4812459.53680027
483,[2021-01-29 11:50:53.089] $GPGGA,25051.7,4327.73237603,N,14148.35753393,E,4,5.0,10.1,108.94,M,31.59,M,3.7,0000*7B,43.46220626716666,141.80595889883335,565197.9521311951,4812459.538762066
484,[2021-01-29 11:50:53.199] $GPGGA,25051.8,4327.73236984,N,14148.3575179,E,4,5.0,10.1,108.964,M,31.59,M,1.8,0000*7B,43.462206163999994,141.8059586316667,565197.9306295702,4812459.527095453
485,[2021-01-29 11:50:53.294] $GPGGA,25051.9,4327.73237214,N,14148.35751412,E,4,5.0,10.1,108.973,M,31.59,M,1.9,0000*77,43.46220620233333,141.80595856866665,565197.925491974,4812459.5313033555
486,[2021-01-29 11:50:53.388] $GPGGA,25052.0,4327.73237205,N,14148.35751487,E,4,5.0,10.1,108.973,M,31.59,M,2.0,0000*7B,43.462206200833336,141.80595858116666,565197.9265047768,4812459.531146555
487,[2021-01-29 11:50:53.466] $GPGGA,25052.1,4327.73237173,N,14148.35751619,E,4,5.0,10.1,108.96799999999999,M,31.59,M,2.1,0000*76,43.46220619549999,141.8059586031667,565197.9282902044,4812459.530571466
488,[2021-01-29 11:50:53.591] $GPGGA,25052.2,4327.73237036,N,14148.3575156,E,4,5.0,10.1,108.97,M,31.59,M,2.2,0000*72,43.46220617266666,141.80595859333334,565197.9275192736,4812459.528027946
489,[2021-01-29 11:50:53.685] $GPGGA,25052.3,4327.73237021,N,14148.35751514,E,4,5.0,10.1,108.973,M,31.59,M,2.3,0000*74,43.462206170166674,141.80595858566667,565197.9269017641,4812459.527744302
490,[2021-01-29 11:50:53.794] $GPGGA,25052.4,4327.7323704,N,14148.35751645,E,4,5.0,10.1,108.971,M,31.59,M,2.4,0000*76,43.46220617333333,141.8059586075,565197.9286645707,4812459.5281130755
491,[2021-01-29 11:50:53.888] $GPGGA,25052.5,4327.73237064,N,14148.35751799,E,4,5.0,10.1,108.97200000000001,M,31.59,M,2.5,0000*73,43.46220617733334,141.80595863316665,565197.9307365818,4812459.5285774
492,[2021-01-29 11:50:53.997] $GPGGA,25052.6,4327.7323713,N,14148.35751592,E,4,5.0,10.1,108.978,M,31.59,M,2.6,0000*70,43.462206188333326,141.80595859866668,565197.9279338778,4812459.529772029
493,[2021-01-29 11:50:54.091] $GPGGA,25052.7,4327.73236979,N,14148.35751594,E,4,5.0,10.1,108.978,M,31.59,M,2.7,0000*72,43.46220616316667,141.805958599,565197.927987888,4812459.526977333
494,[2021-01-29 11:50:54.200] $GPGGA,25052.8,4327.73237872,N,14148.35753932,E,4,5.0,10.1,108.928,M,31.59,M,1.8,0000*7D,43.462206312000006,141.80595898866667,565197.9593500961,4812459.543811486
495,[2021-01-29 11:50:54.295] $GPGGA,25052.9,4327.73237676,N,14148.35754044,E,4,5.0,10.1,108.927,M,31.59,M,1.9,0000*77,43.46220627933334,141.80595900733334,565197.9608952462,4812459.540198206
496,[2021-01-29 11:50:54.404] $GPGGA,25053.0,4327.73237862,N,14148.35753998,E,4,5.0,10.1,108.926,M,31.59,M,2.0,0000*70,43.46220631033334,141.80595899966667,565197.960241733,4812459.5436350005
497,[2021-01-29 11:50:54.482] $GPGGA,25053.1,4327.73237853,N,14148.35753698,E,4,5.0,10.1,108.936,M,31.59,M,2.1,0000*7C,43.46220630883333,141.8059589496667,565197.9561985881,4812459.543429272
498,[2021-01-29 11:50:54.592] $GPGGA,25053.2,4327.73237893,N,14148.35753821,E,4,5.0,10.1,108.927,M,31.59,M,2.2,0000*7C,43.4622063155,141.8059589701667,565197.9578497767,4812459.5441857055
499,[2021-01-29 11:50:54.685] $GPGGA,25053.3,4327.73237914,N,14148.35753865,E,4,5.0,10.1,108.929,M,31.59,M,2.3,0000*7C,43.462206319,141.8059589775,565197.9584392433,4812459.544580149
500,[2021-01-29 11:50:54.795] $GPGGA,25053.4,4327.73237757,N,14148.35753983,E,4,5.0,10.1,108.927,M,31.59,M,2.4,0000*72,43.46220629283333,141.80595899716664,565197.9600583005,4812459.541689529
501,[2021-01-29 11:50:54.888] $GPGGA,25053.5,4327.73237564,N,14148.35754315,E,4,5.0,10.1,108.929,M,31.59,M,2.5,0000*7C,43.46220626066667,141.8059590525,565197.9645690713,4812459.538160481
502,[2021-01-29 11:50:54.998] $GPGGA,25053.6,4327.73237684,N,14148.35753833,E,4,5.0,10.1,108.925,M,31.59,M,2.6,0000*75,43.46220628066667,141.80595897216668,565197.9580489984,4812459.540318754
503,[2021-01-29 11:50:55.091] $GPGGA,25053.7,4327.7323785,N,14148.35753892,E,4,5.0,10.1,108.928,M,31.59,M,2.7,0000*74,43.462206308333336,141.80595898199996,565197.9588147328,4812459.543399054
504,[2021-01-29 11:50:55.201] $GPGGA,25053.8,4327.73237728,N,14148.3575319,E,4,5.0,10.1,108.944,M,31.59,M,1.8,0000*76,43.462206288000004,141.80595886499998,565197.9493718497,4812459.541049289
505,[2021-01-29 11:50:55.282] $GPGGA,25053.9,4327.73237699,N,14148.35753227,E,4,5.0,10.1,108.944,M,31.59,M,1.9,0000*72,43.462206283166665,141.80595887116667,565197.9498758992,4812459.540517336
506,[2021-01-29 11:50:55.392] $GPGGA,25054.0,4327.73237917,N,14148.35752815,E,4,5.0,10.1,108.95,M,31.59,M,2.0,0000*70,43.4622063195,141.80595880250002,565197.9442820497,4812459.544498688
507,[2021-01-29 11:50:55.486] $GPGGA,25054.1,4327.73237747,N,14148.35753151,E,4,5.0,10.1,108.95,M,31.59,M,2.1,0000*73,43.462206291166666,141.80595885850002,565197.9488426311,4812459.541395883
508,[2021-01-29 11:50:55.595] $GPGGA,25054.2,4327.73237904,N,14148.35752848,E,4,5.0,10.1,108.947,M,31.59,M,2.2,0000*7C,43.462206317333326,141.80595880799999,565197.944729301,4812459.544262367
509,[2021-01-29 11:50:55.689] $GPGGA,25054.3,4327.73237809,N,14148.35752819,E,4,5.0,10.1,108.947,M,31.59,M,2.3,0000*74,43.4622063015,141.80595880316665,565197.9443553222,4812459.542500166
510,[2021-01-29 11:50:55.798] $GPGGA,25054.4,4327.73237705,N,14148.35753252,E,4,5.0,10.1,108.949,M,31.59,M,2.4,0000*7D,43.46220628416666,141.80595887533335,565197.9502118889,4812459.540631654
511,[2021-01-29 11:50:55.892] $GPGGA,25054.5,4327.73237878,N,14148.35752869,E,4,5.0,10.1,108.947,M,31.59,M,2.5,0000*75,43.46220631299999,141.80595881149998,565197.9450170898,4812459.543783855
512,[2021-01-29 11:50:56.001] $GPGGA,25054.6,4327.7323776,N,14148.35753137,E,4,5.0,10.1,108.943,M,31.59,M,2.6,0000*74,43.46220629333334,141.80595885616668,565197.9486515453,4812459.541634683
513,[2021-01-29 11:50:56.095] $GPGGA,25054.7,4327.73237637,N,14148.35752972,E,4,5.0,10.1,108.946,M,31.59,M,2.7,0000*7A,43.46220627283333,141.80595882866666,565197.9464489573,4812459.539336466
514,[2021-01-29 11:50:56.189] $GPGGA,25054.8,4327.73238456,N,14148.35753501,E,4,5.0,10.1,108.931,M,31.59,M,1.8,0000*7A,43.462206409333334,141.80595891683336,565197.9534345253,4812459.554564891
515,[2021-01-29 11:50:56.283] $GPGGA,25054.9,4327.73238429,N,14148.35753831,E,4,5.0,10.1,108.92200000000001,M,31.59,M,1.9,0000*7E,43.462206404833324,141.80595897183335,565197.957888595,4812459.554108183
516,[2021-01-29 11:50:56.393] $GPGGA,25055.0,4327.73237958,N,14148.35754178,E,4,5.0,10.1,108.932,M,31.59,M,2.0,0000*7A,43.46220632633334,141.8059590296667,565197.9626513964,4812459.54543541
517,[2021-01-29 11:50:56.487] $GPGGA,25055.1,4327.7323792,N,14148.3575389,E,4,5.0,10.1,108.926,M,31.59,M,2.1,0000*78,43.46220631999999,141.8059589816667,565197.9587752329,4812459.544694468
518,[2021-01-29 11:50:56.596] $GPGGA,25055.2,4327.73238237,N,14148.35754158,E,4,5.0,10.1,108.928,M,31.59,M,2.2,0000*7E,43.462206372833336,141.80595902633334,565197.962331772,4812459.550596994
519,[2021-01-29 11:50:56.690] $GPGGA,25055.3,4327.73238267,N,14148.35753864,E,4,5.0,10.1,108.91799999999999,M,31.59,M,2.3,0000*79,43.46220637783334,141.80595897733338,565197.9583625363,4812459.551113927
520,[2021-01-29 11:50:56.799] $GPGGA,25055.4,4327.73238124,N,14148.35754024,E,4,5.0,10.1,108.925,M,31.59,M,2.4,0000*78,43.462206353999996,141.805959004,565197.9605453517,4812459.548487919
521,[2021-01-29 11:50:56.893] $GPGGA,25055.5,4327.73238198,N,14148.35753733,E,4,5.0,10.1,108.925,M,31.59,M,2.5,0000*79,43.46220636633334,141.8059589555,565197.9566086812,4812459.549819669
522,[2021-01-29 11:50:57.002] $GPGGA,25055.6,4327.73238334,N,14148.35753547,E,4,5.0,10.1,108.925,M,31.59,M,2.6,0000*7C,43.462206388999995,141.8059589245,565197.9540765712,4812459.552312713
523,[2021-01-29 11:50:57.096] $GPGGA,25055.7,4327.73238037,N,14148.35754285,E,4,5.0,10.1,108.925,M,31.59,M,2.7,0000*72,43.4622063395,141.80595904750004,565197.9640798781,4812459.546911632
524,[2021-01-29 11:50:57.190] $GPGGA,25055.8,4327.73237619,N,14148.35753208,E,4,5.0,10.1,108.939,M,31.59,M,1.8,0000*7B,43.46220626983333,141.80595886799998,565197.9496340565,4812459.5390340835
525,[2021-01-29 11:50:57.285] $GPGGA,25055.9,4327.73237868,N,14148.35752819,E,4,5.0,10.1,108.94,M,31.59,M,1.9,0000*76,43.462206311333325,141.80595880316665,565197.9443447544,4812459.543592236
526,[2021-01-29 11:50:57.394] $GPGGA,25056.0,4327.73237689,N,14148.35753215,E,4,5.0,10.1,108.934,M,31.59,M,2.0,0000*73,43.462206281499995,141.80595886916663,565197.9497158972,4812459.540330674
527,[2021-01-29 11:50:57.488] $GPGGA,25056.1,4327.73237755,N,14148.35752691,E,4,5.0,10.1,108.936,M,31.59,M,2.1,0000*78,43.4622062925,141.80595878183337,565197.9426392348,4812459.541483946
528,[2021-01-29 11:50:57.597] $GPGGA,25056.2,4327.73237821,N,14148.3575329,E,4,5.0,10.1,108.935,M,31.59,M,2.2,0000*73,43.46220630350001,141.80595888166664,565197.950703443,4812459.542783733
529,[2021-01-29 11:50:57.691] $GPGGA,25056.3,4327.73237486,N,14148.35753117,E,4,5.0,10.1,108.936,M,31.59,M,2.3,0000*7D,43.46220624766667,141.80595885283336,565197.9484309725,4812459.536560429
530,[2021-01-29 11:50:57.800] $GPGGA,25056.4,4327.73237698,N,14148.35753531,E,4,5.0,10.1,108.93299999999999,M,31.59,M,2.4,0000*75,43.462206283,141.80595892183334,565197.9539747677,4812459.540538488
531,[2021-01-29 11:50:57.894] $GPGGA,25056.5,4327.73237613,N,14148.35753154,E,4,5.0,10.1,108.94,M,31.59,M,2.5,0000*75,43.46220626883334,141.80595885900001,565197.9489070785,4812459.5389159825
532,[2021-01-29 11:50:58.003] $GPGGA,25056.6,4327.73237791,N,14148.35752912,E,4,5.0,10.1,108.932,M,31.59,M,2.6,0000*70,43.46220629849999,141.80595881866665,565197.9456124225,4812459.542179126
533,[2021-01-29 11:50:58.081] $GPGGA,25056.7,4327.7323766,N,14148.35753169,E,4,5.0,10.1,108.93299999999999,M,31.59,M,2.7,0000*7B,43.46220627666667,141.80595886150002,565197.9491008974,4812459.539787892
534,[2021-01-29 11:50:58.191] $GPGGA,25056.8,4327.73237562,N,14148.35752207,E,4,5.0,10.1,108.959,M,31.59,M,1.8,0000*7F,43.46220626033334,141.80595870116667,565197.9361482562,4812459.537848438
535,[2021-01-29 11:50:58.287] $GPGGA,25056.9,4327.73237479,N,14148.35752093,E,4,5.0,10.1,108.948,M,31.59,M,1.9,0000*7B,43.462206246499996,141.80595868216668,565197.9346261143,4812459.536297262
536,[2021-01-29 11:50:58.397] $GPGGA,25057.0,4327.73237523,N,14148.35752299,E,4,5.0,10.1,108.95200000000001,M,31.59,M,2.0,0000*74,43.46220625383333,141.8059587165,565197.9373956338,4812459.537138563
537,[2021-01-29 11:50:58.491] $GPGGA,25057.1,4327.73237646,N,14148.35752323,E,4,5.0,10.1,108.95,M,31.59,M,2.1,0000*76,43.46220627433333,141.80595872050003,565197.9376971872,4812459.539418381
538,[2021-01-29 11:50:58.600] $GPGGA,25057.2,4327.73237471,N,14148.35752455,E,4,5.0,10.1,108.95200000000001,M,31.59,M,2.2,0000*74,43.46220624516666,141.8059587425,565197.9395082217,4812459.536196413
539,[2021-01-29 11:50:58.694] $GPGGA,25057.3,4327.7323753,N,14148.35752263,E,4,5.0,10.1,108.955,M,31.59,M,2.3,0000*74,43.462206255,141.8059587105,565197.9369090088,4812459.537263434
540,[2021-01-29 11:50:58.803] $GPGGA,25057.4,4327.73237552,N,14148.35752315,E,4,5.0,10.1,108.95100000000001,M,31.59,M,2.4,0000*74,43.462206258666654,141.80595871916665,565197.9376061589,4812459.53767743
541,[2021-01-29 11:50:58.881] $GPGGA,25057.5,4327.73237738,N,14148.35752096,E,4,5.0,10.1,108.948,M,31.59,M,2.5,0000*7A,43.46220628966667,141.80595868266664,565197.9346201703,4812459.5410916535
542,[2021-01-29 11:50:58.991] $GPGGA,25057.6,4327.73237539,N,14148.35752716,E,4,5.0,10.1,108.954,M,31.59,M,2.6,0000*7B,43.4622062565,141.805958786,565197.9430149834,4812459.537489123
543,[2021-01-29 11:50:59.084] $GPGGA,25057.7,4327.73237304,N,14148.35752646,E,4,5.0,10.1,108.949,M,31.59,M,2.7,0000*7B,43.462206217333346,141.80595877433333,565197.9421132988,4812459.533130224
544,[2021-01-29 11:50:59.194] $GPGGA,25057.8,4327.73238118,N,14148.35754102,E,4,5.0,10.1,108.921,M,31.59,M,1.8,0000*77,43.46220635299999,141.805959017,565197.9615980635,4812459.5483870385
545,[2021-01-29 11:50:59.288] $GPGGA,25057.9,4327.73238364,N,14148.35753757,E,4,5.0,10.1,108.927,M,31.59,M,1.9,0000*79,43.462206394,141.80595895950003,565197.9569025306,4812459.552895401
546,[2021-01-29 11:50:59.397] $GPGGA,25058.0,4327.73237984,N,14148.35754361,E,4,5.0,10.1,108.917,M,31.59,M,2.0,0000*7B,43.462206330666675,141.80595906016669,565197.9651140419,4812459.545940537
547,[2021-01-29 11:50:59.491] $GPGGA,25058.1,4327.73238149,N,14148.35753904,E,4,5.0,10.1,108.919,M,31.59,M,2.1,0000*7D,43.46220635816667,141.805958984,565197.9589229712,4812459.548935005
548,[2021-01-29 11:50:59.600] $GPGGA,25058.2,4327.73238131,N,14148.35754176,E,4,5.0,10.1,108.927,M,31.59,M,2.2,0000*75,43.46220635516667,141.80595902933334,565197.9625934436,4812459.548637318
549,[2021-01-29 11:50:59.694] $GPGGA,25058.3,4327.73238183,N,14148.3575406,E,4,5.0,10.1,108.921,M,31.59,M,2.3,0000*7C,43.46220636383334,141.80595901,565197.9610201553,4812459.549584687
550,[2021-01-29 11:50:59.788] $GPGGA,25058.4,4327.73238015,N,14148.35754003,E,4,5.0,10.1,108.929,M,31.59,M,2.4,0000*7F,43.46220633583333,141.8059590005,565197.9602817411,4812459.546467628
551,[2021-01-29 11:50:59.897] $GPGGA,25058.5,4327.73238003,N,14148.35754093,E,4,5.0,10.1,108.92399999999999,M,31.59,M,2.5,0000*7C,43.462206333833336,141.80595901549998,565197.9614973166,4812459.546257255
552,[2021-01-29 11:50:59.991] $GPGGA,25058.6,4327.73238063,N,14148.35754449,E,4,5.0,10.1,108.917,M,31.59,M,2.6,0000*79,43.46220634383334,141.80595907483334,565197.9662863539,4812459.5474142805
553,[2021-01-29 11:51:00.084] $GPGGA,25058.7,4327.7323784,N,14148.35754317,E,4,5.0,10.1,108.925,M,31.59,M,2.7,0000*72,43.46220630666667,141.80595905283332,565197.9645466001,4812459.543269407
554,[2021-01-29 11:51:00.194] $GPGGA,25058.8,4327.73238307,N,14148.35754762,E,4,5.0,10.1,108.90799999999999,M,31.59,M,1.8,0000*7F,43.4622063845,141.805959127,565197.9704626803,4812459.551971471
555,[2021-01-29 11:51:00.291] $GPGGA,25058.9,4327.73238127,N,14148.357553,E,4,5.0,10.1,108.90299999999999,M,31.59,M,1.9,0000*75,43.4622063545,141.80595921666665,565197.9777485209,4812459.548709924
556,[2021-01-29 11:51:00.400] $GPGGA,25059.0,4327.73238007,N,14148.35754959,E,4,5.0,10.1,108.904,M,31.59,M,2.0,0000*74,43.462206334499996,141.80595915983332,565197.9731724719,4812459.546444276
557,[2021-01-29 11:51:00.494] $GPGGA,25059.1,4327.73238093,N,14148.35755152,E,4,5.0,10.1,108.90700000000001,M,31.59,M,2.1,0000*78,43.46220634883332,141.805959192,565197.9757591975,4812459.548061287
558,[2021-01-29 11:51:00.603] $GPGGA,25059.2,4327.73238109,N,14148.35755243,E,4,5.0,10.1,108.904,M,31.59,M,2.2,0000*7A,43.4622063515,141.80595920716667,565197.9769832419,4812459.5483693145
559,[2021-01-29 11:51:00.697] $GPGGA,25059.3,4327.7323802,N,14148.35754834,E,4,5.0,10.1,108.91,M,31.59,M,2.3,0000*7E,43.46220633666666,141.80595913899998,565197.9714848283,4812459.546668595
560,[2021-01-29 11:51:00.791] $GPGGA,25059.4,4327.73238081,N,14148.35755187,E,4,5.0,10.1,108.904,M,31.59,M,2.4,0000*70,43.462206346833334,141.80595919783335,565197.9762332381,4812459.547843738
561,[2021-01-29 11:51:00.884] $GPGGA,25059.5,4327.7323796,N,14148.3575521,E,4,5.0,10.1,108.913,M,31.59,M,2.5,0000*72,43.46220632666666,141.80595920166667,565197.9765650068,4812459.54560707
562,[2021-01-29 11:51:00.994] $GPGGA,25059.6,4327.73238139,N,14148.3575503,E,4,5.0,10.1,108.906,M,31.59,M,2.6,0000*7D,43.462206356500005,141.80595917166667,565197.9741060914,4812459.548896817
563,[2021-01-29 11:51:01.087] $GPGGA,25059.7,4327.7323794,N,14148.35755137,E,4,5.0,10.1,108.911,M,31.59,M,2.7,0000*74,43.46220632333334,141.80595918950002,565197.9755843666,4812459.545227355
564,[2021-01-29 11:51:01.197] $GPGGA,25059.8,4327.73238099,N,14148.3575473,E,4,5.0,10.1,108.911,M,31.59,M,2.8,0000*76,43.46220634983333,141.80595912166666,565197.9700684949,4812459.548117288
565,[2021-01-29 11:51:01.291] $GPGGA,25059.9,4327.73237926,N,14148.35755167,E,4,5.0,10.1,108.90299999999999,M,31.59,M,2.9,0000*72,43.462206321000004,141.8059591945,565197.9759913468,4812459.544972133
566,[2021-01-29 11:51:01.400] $GPGGA,25100.0,4327.73238336,N,14148.35754801,E,4,5.0,10.1,108.906,M,31.59,M,3.0,0000*77,43.46220638933333,141.8059591335,565197.9709833055,4812459.552513339
567,[2021-01-29 11:51:01.494] $GPGGA,25100.1,4327.73238108,N,14148.35755112,E,4,5.0,10.1,108.906,M,31.59,M,3.1,0000*72,43.46220635133333,141.80595918533334,565197.9752172113,4812459.548333713
568,[2021-01-29 11:51:01.603] $GPGGA,25100.2,4327.73238078,N,14148.35755178,E,4,5.0,10.1,108.90700000000001,M,31.59,M,3.2,0000*79,43.46220634633334,141.80595919633333,565197.9761124306,4812459.547787036
569,[2021-01-29 11:51:01.697] $GPGGA,25100.3,4327.73238022,N,14148.35755049,E,4,5.0,10.1,108.91,M,31.59,M,3.3,0000*73,43.462206337000005,141.8059591748333,565197.9743832133,4812459.546733664
570,[2021-01-29 11:51:01.791] $GPGGA,25100.4,4327.73238049,N,14148.35755202,E,4,5.0,10.1,108.902,M,31.59,M,3.4,0000*70,43.4622063415,141.80595920033332,565197.976441205,4812459.547253386
571,[2021-01-29 11:51:01.885] $GPGGA,25100.5,4327.73238055,N,14148.35754969,E,4,5.0,10.1,108.917,M,31.59,M,3.5,0000*7E,43.462206342500004,141.80595916149997,565197.9732986994,4812459.547334047
572,[2021-01-29 11:51:01.994] $GPGGA,25100.6,4327.73238083,N,14148.3575495,E,4,5.0,10.1,108.913,M,31.59,M,3.6,0000*7B,43.46220634716666,141.80595915833334,565197.9730375186,4812459.547849838
573,[2021-01-29 11:51:02.088] $GPGGA,25100.7,4327.73237937,N,14148.35755175,E,4,5.0,10.1,108.90700000000001,M,31.59,M,3.7,0000*79,43.46220632283333,141.8059591958333,565197.9760972352,4812459.545176783
574,[2021-01-29 11:51:02.197] $GPGGA,25100.8,4327.73237869,N,14148.35755213,E,4,5.0,10.1,108.905,M,31.59,M,3.8,0000*72,43.4622063115,141.80595920216666,565197.9766217544,4812459.543923084
575,[2021-01-29 11:51:02.292] $GPGGA,25100.9,4327.7323815,N,14148.35754837,E,4,5.0,10.1,108.915,M,31.59,M,3.9,0000*72,43.46220635833334,141.8059591395,565197.9715019917,4812459.549075241
576,[2021-01-29 11:51:02.401] $GPGGA,25101.0,4327.73238082,N,14148.3575543,E,4,5.0,10.1,108.911,M,31.59,M,4.0,0000*74,43.462206347000006,141.80595923833334,565197.9795093128,4812459.547893953
577,[2021-01-29 11:51:02.495] $GPGGA,25101.1,4327.73238068,N,14148.35754974,E,4,5.0,10.1,108.90899999999999,M,31.59,M,4.1,0000*75,43.46220634466666,141.80595916233335,565197.9733637874,4812459.547575324
578,[2021-01-29 11:51:02.589] $GPGGA,25101.2,4327.73238213,N,14148.35754378,E,4,5.0,10.1,108.911,M,31.59,M,2.2,0000*72,43.46220636883332,141.805959063,565197.9653022265,4812459.550181463
579,[2021-01-29 11:51:02.683] $GPGGA,25101.3,4327.73238371,N,14148.35754646,E,4,5.0,10.1,108.90700000000001,M,31.59,M,2.3,0000*78,43.46220639516667,141.80595910766667,565197.9688872446,4812459.553140956
580,[2021-01-29 11:51:02.792] $GPGGA,25101.4,4327.73238057,N,14148.35754722,E,4,5.0,10.1,108.91799999999999,M,31.59,M,2.4,0000*72,43.46220634283333,141.8059591203333,565197.9699681569,4812459.547338841
581,[2021-01-29 11:51:02.886] $GPGGA,25101.5,4327.73238372,N,14148.35754562,E,4,5.0,10.1,108.91,M,31.59,M,2.5,0000*78,43.46220639533333,141.80595909366664,565197.967754532,4812459.553148505
582,[2021-01-29 11:51:02.995] $GPGGA,25101.6,4327.73238287,N,14148.35754539,E,4,5.0,10.1,108.90899999999999,M,31.59,M,2.6,0000*75,43.462206381166666,141.80595908983332,565197.9674596585,4812459.551572184
583,[2021-01-29 11:51:03.089] $GPGGA,25101.7,4327.73238389,N,14148.3575437,E,4,5.0,10.1,108.911,M,31.59,M,2.7,0000*78,43.46220639816667,141.8059590616667,565197.9651628438,4812459.55343812
584,[2021-01-29 11:51:03.198] $GPGGA,25101.8,4327.73238529,N,14148.35755621,E,4,5.0,10.1,108.90299999999999,M,31.59,M,1.8,0000*74,43.46220642149999,141.80595927016665,565197.9820044102,4812459.556192685
585,[2021-01-29 11:51:03.295] $GPGGA,25101.9,4327.73238226,N,14148.35755658,E,4,5.0,10.1,108.90100000000001,M,31.59,M,1.9,0000*70,43.46220637100001,141.80595927633334,565197.9825575369,4812459.550589089
586,[2021-01-29 11:51:03.389] $GPGGA,25102.0,4327.73238479,N,14148.35755566,E,4,5.0,10.1,108.90299999999999,M,31.59,M,2.0,0000*70,43.46220641316667,141.80595926100003,565197.9812718311,4812459.555260028
587,[2021-01-29 11:51:03.467] $GPGGA,25102.1,4327.73238367,N,14148.3575539,E,4,5.0,10.1,108.90100000000001,M,31.59,M,2.1,0000*75,43.4622063945,141.80595923166663,565197.9789189599,4812459.553163984
588,[2021-01-29 11:51:03.592] $GPGGA,25102.2,4327.73238442,N,14148.35755269,E,4,5.0,10.1,108.904,M,31.59,M,2.2,0000*77,43.462206407,141.8059592115,565197.9772741435,4812459.554536421
589,[2021-01-29 11:51:03.686] $GPGGA,25102.3,4327.7323833,N,14148.35755447,E,4,5.0,10.1,108.90100000000001,M,31.59,M,2.3,0000*7A,43.46220638833333,141.80595924116665,565197.9796940942,4812459.552486563
590,[2021-01-29 11:51:03.795] $GPGGA,25102.4,4327.73238364,N,14148.35755661,E,4,5.0,10.1,108.9,M,31.59,M,2.4,0000*7C,43.462206394,141.80595927683333,565197.9825732656,4812459.553143811
591,[2021-01-29 11:51:03.889] $GPGGA,25102.5,4327.73238418,N,14148.35755365,E,4,5.0,10.1,108.904,M,31.59,M,2.5,0000*75,43.462206402999996,141.80595922749998,565197.9785727649,4812459.554104713
592,[2021-01-29 11:51:03.998] $GPGGA,25102.6,4327.73238267,N,14148.3575541,E,4,5.0,10.1,108.906,M,31.59,M,2.6,0000*7C,43.46220637783334,141.805959235,565197.979206525,4812459.551315628
593,[2021-01-29 11:51:04.092] $GPGGA,25102.7,4327.73238439,N,14148.35755361,E,4,5.0,10.1,108.90299999999999,M,31.59,M,2.7,0000*75,43.46220640650001,141.80595922683335,565197.9785150752,4812459.554492896
594,[2021-01-29 11:51:04.201] $GPGGA,25102.8,4327.73237758,N,14148.35753275,E,4,5.0,10.1,108.934,M,31.59,M,1.8,0000*7B,43.462206293,141.80595887916667,565197.9505124919,4812459.541615668
595,[2021-01-29 11:51:04.281] $GPGGA,25102.9,4327.73237834,N,14148.35753201,E,4,5.0,10.1,108.946,M,31.59,M,1.9,0000*78,43.46220630566667,141.80595886683335,565197.9495011747,4812459.543012747
596,[2021-01-29 11:51:04.406] $GPGGA,25103.0,4327.73237915,N,14148.35753114,E,4,5.0,10.1,108.93799999999999,M,31.59,M,2.0,0000*76,43.46220631916667,141.8059588523333,565197.9483136826,4812459.544500678
597,[2021-01-29 11:51:04.484] $GPGGA,25103.1,4327.73237637,N,14148.35753265,E,4,5.0,10.1,108.93799999999999,M,31.59,M,2.1,0000*7C,43.46220627283333,141.8059588775,565197.9503993397,4812459.539374693
598,[2021-01-29 11:51:04.593] $GPGGA,25103.2,4327.73237814,N,14148.35753308,E,4,5.0,10.1,108.93299999999999,M,31.59,M,2.2,0000*72,43.462206302333335,141.80595888466667,565197.9509473845,4812459.542656514
599,[2021-01-29 11:51:04.687] $GPGGA,25103.3,4327.73237755,N,14148.35753002,E,4,5.0,10.1,108.93299999999999,M,31.59,M,2.3,0000*71,43.4622062925,141.80595883366664,565197.9468322967,4812459.54152452
600,[2021-01-29 11:51:04.796] $GPGGA,25103.4,4327.73237835,N,14148.35753424,E,4,5.0,10.1,108.935,M,31.59,M,2.4,0000*7E,43.46220630583333,141.805958904,565197.9525075976,4812459.543060349
601,[2021-01-29 11:51:04.890] $GPGGA,25103.5,4327.73237797,N,14148.35753082,E,4,5.0,10.1,108.936,M,31.59,M,2.5,0000*72,43.4622062995,141.80595884699997,565197.9479033771,4812459.542312364
602,[2021-01-29 11:51:04.999] $GPGGA,25103.6,4327.73237924,N,14148.35752785,E,4,5.0,10.1,108.93799999999999,M,31.59,M,2.6,0000*7B,43.462206320666674,141.80595879749998,565197.9438763191,4812459.544624342
603,[2021-01-29 11:51:05.093] $GPGGA,25103.7,4327.7323794,N,14148.35753206,E,4,5.0,10.1,108.93299999999999,M,31.59,M,2.7,0000*7D,43.46220632333334,141.80595886766665,565197.949549597,4812459.544975423
604,[2021-01-29 11:51:05.202] $GPGGA,25103.8,4327.73238696,N,14148.3575472,E,4,5.0,10.1,108.906,M,31.59,M,1.8,0000*75,43.46220644933334,141.80595911999998,565197.9698267394,4812459.559166246
605,[2021-01-29 11:51:05.280] $GPGGA,25103.9,4327.73238704,N,14148.3575449,E,4,5.0,10.1,108.902,M,31.59,M,1.9,0000*73,43.46220645066666,141.80595908166666,565197.9667243239,4812459.559284316
606,[2021-01-29 11:51:05.405] $GPGGA,25104.0,4327.73238215,N,14148.35755,E,4,5.0,10.1,108.90899999999999,M,31.59,M,2.0,0000*75,43.46220636916667,141.80595916666667,565197.9736880021,4812459.550299635
607,[2021-01-29 11:51:05.483] $GPGGA,25104.1,4327.73238422,N,14148.35754787,E,4,5.0,10.1,108.9,M,31.59,M,2.1,0000*77,43.46220640366668,141.80595913116667,565197.9707791465,4812459.554103345
608,[2021-01-29 11:51:05.593] $GPGGA,25104.2,4327.73238245,N,14148.35754744,E,4,5.0,10.1,108.90100000000001,M,31.59,M,2.2,0000*7E,43.46220637416667,141.805959124,565197.9702310996,4812459.550821524
609,[2021-01-29 11:51:05.686] $GPGGA,25104.3,4327.7323843,N,14148.35754876,E,4,5.0,10.1,108.90700000000001,M,31.59,M,2.3,0000*72,43.46220640500001,141.80595914599996,565197.9719776555,4812459.554263032
610,[2021-01-29 11:51:05.796] $GPGGA,25104.4,4327.73238491,N,14148.35754762,E,4,5.0,10.1,108.906,M,31.59,M,2.4,0000*72,43.46220641516667,141.805959127,565197.9704297234,4812459.555377248
611,[2021-01-29 11:51:05.890] $GPGGA,25104.5,4327.73238275,N,14148.35754796,E,4,5.0,10.1,108.905,M,31.59,M,2.5,0000*76,43.46220637916667,141.8059591326667,565197.970926821,4812459.551383601
612,[2021-01-29 11:51:05.999] $GPGGA,25104.6,4327.73238535,N,14148.35754563,E,4,5.0,10.1,108.90100000000001,M,31.59,M,2.6,0000*79,43.4622064225,141.80595909383334,565197.9677388206,4812459.556165709
613,[2021-01-29 11:51:06.093] $GPGGA,25104.7,4327.73238245,N,14148.35754842,E,4,5.0,10.1,108.912,M,31.59,M,2.7,0000*75,43.46220637416667,141.80595914033333,565197.9715523885,4812459.550834311
614,[2021-01-29 11:51:06.202] $GPGGA,25104.8,4327.73237968,N,14148.35753863,E,4,5.0,10.0,108.911,M,31.59,M,1.8,0000*7B,43.46220632800001,141.80595897716668,565197.958402607,4812459.545579409
615,[2021-01-29 11:51:06.282] $GPGGA,25104.9,4327.73238047,N,14148.35753982,E,4,5.0,10.0,108.919,M,31.59,M,1.9,0000*76,43.46220634116666,141.805958997,565197.9599928777,4812459.5470571965
616,[2021-01-29 11:51:06.391] $GPGGA,25105.0,4327.73238185,N,14148.35753978,E,4,5.0,10.0,108.90899999999999,M,31.59,M,2.0,0000*7F,43.46220636416667,141.80595899633332,565197.9599142277,4812459.549611008
617,[2021-01-29 11:51:06.485] $GPGGA,25105.1,4327.73238074,N,14148.3575397,E,4,5.0,10.0,108.913,M,31.59,M,2.1,0000*73,43.46220634566666,141.80595899500003,565197.9598262527,4812459.547555392
618,[2021-01-29 11:51:06.595] $GPGGA,25105.2,4327.73238016,N,14148.35754131,E,4,5.0,10.0,108.90899999999999,M,31.59,M,2.2,0000*76,43.462206335999994,141.80595902183333,565197.9620073256,4812459.546502837
619,[2021-01-29 11:51:06.688] $GPGGA,25105.3,4327.73237777,N,14148.35754006,E,4,5.0,10.0,108.91799999999999,M,31.59,M,2.3,0000*7C,43.46220629616668,141.805959001,565197.9603648183,4812459.542062724
620,[2021-01-29 11:51:06.798] $GPGGA,25105.4,4327.73238004,N,14148.35753992,E,4,5.0,10.0,108.90799999999999,M,31.59,M,2.4,0000*72,43.462206333999994,141.80595899866665,565197.9601354024,4812459.5462625865
621,[2021-01-29 11:51:06.891] $GPGGA,25105.5,4327.73237847,N,14148.35753934,E,4,5.0,10.0,108.916,M,31.59,M,2.5,0000*71,43.462206307833334,141.805958989,565197.959381538,4812459.543349004
622,[2021-01-29 11:51:07.001] $GPGGA,25105.6,4327.7323809,N,14148.35753837,E,4,5.0,10.0,108.91799999999999,M,31.59,M,2.6,0000*70,43.46220634833334,141.80595897283337,565197.9580302108,4812459.547834195
623,[2021-01-29 11:51:07.094] $GPGGA,25105.7,4327.73237988,N,14148.35753997,E,4,5.0,10.0,108.913,M,31.59,M,2.7,0000*7F,43.46220633133333,141.80595899950004,565197.9602056848,4812459.545967083
624,[2021-01-29 11:51:07.188] $GPGGA,25105.8,4327.73238483,N,14148.35754691,E,4,5.0,10.0,108.9,M,31.59,M,1.8,0000*79,43.462206413833336,141.80595911516667,565197.969473898,4812459.555219907
625,[2021-01-29 11:51:07.286] $GPGGA,25105.9,4327.73238642,N,14148.35754613,E,4,5.0,10.0,108.904,M,31.59,M,1.9,0000*78,43.46220644033333,141.80595910216667,565197.968393782,4812459.558152765
626,[2021-01-29 11:51:07.395] $GPGGA,25106.0,4327.73238487,N,14148.35754783,E,4,5.0,10.0,108.905,M,31.59,M,2.0,0000*7A,43.4622064145,141.80595913049999,565197.9707135737,4812459.5553059485
627,[2021-01-29 11:51:07.489] $GPGGA,25106.1,4327.73238323,N,14148.35754889,E,4,5.0,10.0,108.899,M,31.59,M,2.1,0000*72,43.46220638716667,141.8059591481667,565197.9721720979,4812459.552284195
628,[2021-01-29 11:51:07.598] $GPGGA,25106.2,4327.73238342,N,14148.35755102,E,4,5.0,10.0,108.89200000000001,M,31.59,M,2.2,0000*75,43.46220639033333,141.8059591836667,565197.9750404739,4812459.552663668
629,[2021-01-29 11:51:07.692] $GPGGA,25106.3,4327.73238823,N,14148.35754452,E,4,5.0,10.0,108.90299999999999,M,31.59,M,2.3,0000*71,43.46220647049999,141.80595907533336,565197.9661906761,4812459.561482007
630,[2021-01-29 11:51:07.801] $GPGGA,25106.4,4327.73238368,N,14148.35754804,E,4,5.0,10.0,108.904,M,31.59,M,2.4,0000*7D,43.46220639466666,141.80595913399998,565197.9710180201,4812459.55310604
631,[2021-01-29 11:51:07.895] $GPGGA,25106.5,4327.7323829,N,14148.35754862,E,4,5.0,10.0,108.899,M,31.59,M,2.5,0000*7E,43.46220638166666,141.80595914366668,565197.9718139803,4812459.551669853
632,[2021-01-29 11:51:08.004] $GPGGA,25106.6,4327.73238425,N,14148.35754847,E,4,5.0,10.0,108.9,M,31.59,M,2.6,0000*70,43.46220640416667,141.80595914116665,565197.9715875606,4812459.554166701
633,[2021-01-29 11:51:08.098] $GPGGA,25106.7,4327.73238334,N,14148.35754474,E,4,5.0,10.0,108.90299999999999,M,31.59,M,2.7,0000*78,43.462206388999995,141.805959079,565197.9665748763,4812459.5524336565
634,[2021-01-29 11:51:08.192] $GPGGA,25106.8,4327.73238502,N,14148.35754346,E,4,5.0,10.0,108.906,M,31.59,M,1.8,0000*7B,43.462206417,141.80595905766666,565197.9648190198,4812459.55552658
635,[2021-01-29 11:51:08.285] $GPGGA,25106.9,4327.732384,N,14148.35754371,E,4,5.0,10.0,108.912,M,31.59,M,1.9,0000*79,43.4622064,141.80595906183333,565197.9651743537,4812459.553641856
636,[2021-01-29 11:51:08.395] $GPGGA,25107.0,4327.73238377,N,14148.35754553,E,4,5.0,10.0,108.904,M,31.59,M,2.0,0000*7D,43.46220639616666,141.80595909216663,565197.9676322915,4812459.553239877
637,[2021-01-29 11:51:08.489] $GPGGA,25107.1,4327.73238479,N,14148.35754398,E,4,5.0,10.0,108.905,M,31.59,M,2.1,0000*74,43.46220641316667,141.80595906633334,565197.9655242342,4812459.555107642
638,[2021-01-29 11:51:08.598] $GPGGA,25107.2,4327.73238518,N,14148.3575442,E,4,5.0,10.0,108.906,M,31.59,M,2.2,0000*75,43.462206419666664,141.80595906999997,565197.9658138606,4812459.555832389
639,[2021-01-29 11:51:08.692] $GPGGA,25107.3,4327.73238368,N,14148.35754234,E,4,5.0,10.0,108.90799999999999,M,31.59,M,2.3,0000*79,43.46220639466666,141.805959039,565197.963332979,4812459.553031673
640,[2021-01-29 11:51:08.801] $GPGGA,25107.4,4327.73238227,N,14148.35754458,E,4,5.0,10.0,108.905,M,31.59,M,2.4,0000*72,43.462206371166666,141.80595907633332,565197.96637832,4812459.550451037
641,[2021-01-29 11:51:08.895] $GPGGA,25107.5,4327.73238534,N,14148.35754211,E,4,5.0,10.0,108.90899999999999,M,31.59,M,2.5,0000*70,43.462206422333345,141.80595903516667,565197.9629931481,4812459.556101277
642,[2021-01-29 11:51:08.989] $GPGGA,25107.6,4327.73238364,N,14148.35754383,E,4,5.0,10.0,108.90700000000001,M,31.59,M,2.6,0000*77,43.462206394,141.8059590638333,565197.9653425908,4812459.552977074
643,[2021-01-29 11:51:09.082] $GPGGA,25107.7,4327.73238329,N,14148.35754376,E,4,5.0,10.0,108.91799999999999,M,31.59,M,2.7,0000*7A,43.46220638816667,141.80595906266666,565197.965254483,4812459.552328325
644,[2021-01-29 11:51:09.192] $GPGGA,25107.8,4327.73237481,N,14148.35754071,E,4,5.0,10.0,108.92299999999999,M,31.59,M,1.8,0000*7F,43.462206246833325,141.80595901183335,565197.9612942018,4812459.536592345
645,[2021-01-29 11:51:09.287] $GPGGA,25107.9,4327.73237695,N,14148.35753759,E,4,5.0,10.0,108.929,M,31.59,M,1.9,0000*78,43.4622062825,141.8059589598333,565197.9570493194,4812459.540512705
646,[2021-01-29 11:51:09.396] $GPGGA,25108.0,4327.73237461,N,14148.35753908,E,4,5.0,10.0,108.927,M,31.59,M,2.0,0000*79,43.462206243500006,141.80595898466663,565197.9591001272,4812459.536200887
647,[2021-01-29 11:51:09.490] $GPGGA,25108.1,4327.7323761,N,14148.35753621,E,4,5.0,10.0,108.93299999999999,M,31.59,M,2.1,0000*7C,43.46220626833333,141.80595893683332,565197.9552039556,4812459.53892138
648,[2021-01-29 11:51:09.599] $GPGGA,25108.2,4327.73237373,N,14148.35753964,E,4,5.0,10.0,108.93,M,31.59,M,2.2,0000*71,43.46220622883334,141.805958994,565197.9598709143,4812459.534579344
649,[2021-01-29 11:51:09.693] $GPGGA,25108.3,4327.73237228,N,14148.35753766,E,4,5.0,10.0,108.927,M,31.59,M,2.3,0000*74,43.462206204666664,141.80595896100002,565197.957227346,4812459.531869611
650,[2021-01-29 11:51:09.802] $GPGGA,25108.4,4327.7323763,N,14148.35753751,E,4,5.0,10.0,108.93,M,31.59,M,2.4,0000*7B,43.46220627166667,141.8059589585,565197.9569531031,4812459.539308535
651,[2021-01-29 11:51:09.896] $GPGGA,25108.5,4327.73237292,N,14148.35754061,E,4,5.0,10.0,108.93299999999999,M,31.59,M,2.5,0000*77,43.46220621533333,141.8059590101667,565197.9611932313,4812459.533092716
652,[2021-01-29 11:51:09.990] $GPGGA,25108.6,4327.73237536,N,14148.35753707,E,4,5.0,10.0,108.927,M,31.59,M,2.6,0000*7B,43.462206256,141.80595895116667,565197.9563767078,4812459.537562887
653,[2021-01-29 11:51:10.083] $GPGGA,25108.7,4327.73237431,N,14148.35753737,E,4,5.0,10.0,108.931,M,31.59,M,2.7,0000*79,43.462206238499995,141.80595895616668,565197.9567999914,4812459.535623286
654,[2021-01-29 11:51:10.193] $GPGGA,25108.8,4327.73237799,N,14148.35753272,E,4,5.0,10.0,108.939,M,31.59,M,1.8,0000*77,43.46220629983333,141.80595887866664,565197.9504647,4812459.542374171
655,[2021-01-29 11:51:10.289] $GPGGA,25108.9,4327.73237769,N,14148.35753655,E,4,5.0,10.0,108.936,M,31.59,M,1.9,0000*76,43.462206294833344,141.8059589425,565197.9556338837,4812459.5418688515
656,[2021-01-29 11:51:10.399] $GPGGA,25109.0,4327.73237638,N,14148.35753633,E,4,5.0,10.0,108.928,M,31.59,M,2.0,0000*7E,43.462206273,141.80595893883336,565197.9553607337,4812459.539441216
657,[2021-01-29 11:51:10.493] $GPGGA,25109.1,4327.73237947,N,14148.35753512,E,4,5.0,10.0,108.945,M,31.59,M,2.1,0000*72,43.462206324499995,141.80595891866665,565197.9536739988,4812459.545144912
658,[2021-01-29 11:51:10.602] $GPGGA,25109.2,4327.73237707,N,14148.35753381,E,4,5.0,10.0,108.934,M,31.59,M,2.2,0000*72,43.46220628450001,141.80595889683332,565197.9519507742,4812459.540685507
659,[2021-01-29 11:51:10.696] $GPGGA,25109.3,4327.73237471,N,14148.3575382,E,4,5.0,10.0,108.93299999999999,M,31.59,M,2.3,0000*77,43.46220624516666,141.80595897,565197.9579118763,4812459.5363745
660,[2021-01-29 11:51:10.789] $GPGGA,25109.4,4327.7323796,N,14148.35753541,E,4,5.0,10.0,108.932,M,31.59,M,2.4,0000*71,43.46220632666666,141.8059589235,565197.9540626629,4812459.545389322
661,[2021-01-29 11:51:10.883] $GPGGA,25109.5,4327.73237616,N,14148.3575334,E,4,5.0,10.0,108.929,M,31.59,M,2.5,0000*72,43.462206269333336,141.80595889,565197.9514142898,4812459.538995777
662,[2021-01-29 11:51:10.993] $GPGGA,25109.6,4327.73237501,N,14148.35753845,E,4,5.0,10.0,108.929,M,31.59,M,2.6,0000*79,43.46220625016667,141.80595897416666,565197.9582435652,4812459.536933053
663,[2021-01-29 11:51:11.086] $GPGGA,25109.7,4327.73237668,N,14148.35753507,E,4,5.0,10.0,108.93799999999999,M,31.59,M,2.7,0000*7E,43.462206278000004,141.80595891783332,565197.9536565589,4812459.539980068
664,[2021-01-29 11:51:11.196] $GPGGA,25109.8,4327.73237941,N,14148.3575383,E,4,5.0,10.0,108.936,M,31.59,M,1.8,0000*7E,43.4622063235,141.80595897166668,565197.9579625201,4812459.545075343
665,[2021-01-29 11:51:11.290] $GPGGA,25109.9,4327.73237866,N,14148.35753789,E,4,5.0,10.0,108.931,M,31.59,M,1.9,0000*70,43.462206311,141.80595896483337,565197.957423172,4812459.5436817715
666,[2021-01-29 11:51:11.400] $GPGGA,25110.0,4327.73238008,N,14148.35753299,E,4,5.0,10.0,108.93299999999999,M,31.59,M,2.0,0000*72,43.462206334666675,141.80595888316665,565197.9507912938,4812459.546246213
667,[2021-01-29 11:51:11.493] $GPGGA,25110.1,4327.732378,N,14148.35753728,E,4,5.0,10.0,108.934,M,31.59,M,2.1,0000*75,43.46220629999999,141.80595895466666,565197.9566125558,4812459.542452173
668,[2021-01-29 11:51:11.603] $GPGGA,25110.2,4327.73237988,N,14148.35753668,E,4,5.0,10.0,108.934,M,31.59,M,2.2,0000*71,43.46220633133333,141.80595894466663,565197.9557699271,4812459.54592416
669,[2021-01-29 11:51:11.696] $GPGGA,25110.3,4327.73237798,N,14148.35753745,E,4,5.0,10.0,108.934,M,31.59,M,2.3,0000*70,43.46220629966667,141.8059589575,565197.9568421155,4812459.542417373
670,[2021-01-29 11:51:11.790] $GPGGA,25110.4,4327.73237797,N,14148.35753642,E,4,5.0,10.0,108.93299999999999,M,31.59,M,2.4,0000*7E,43.4622062995,141.8059589403333,565197.9554535934,4812459.542385425
671,[2021-01-29 11:51:11.884] $GPGGA,25110.5,4327.73237855,N,14148.35753654,E,4,5.0,10.0,108.934,M,31.59,M,2.5,0000*7F,43.46220630916667,141.80595894233332,565197.955604996,4812459.543460551
672,[2021-01-29 11:51:11.993] $GPGGA,25110.6,4327.73237751,N,14148.35753753,E,4,5.0,10.0,108.936,M,31.59,M,2.6,0000*70,43.46220629183333,141.80595895883334,565197.9569583966,4812459.5415484635
673,[2021-01-29 11:51:12.087] $GPGGA,25110.7,4327.73237848,N,14148.35753491,E,4,5.0,10.0,108.931,M,31.59,M,2.7,0000*7D,43.462206308000006,141.80595891516666,565197.953408597,4812459.543309718
674,[2021-01-29 11:51:12.196] $GPGGA,25110.8,4327.73237797,N,14148.35753925,E,4,5.0,10.0,108.925,M,31.59,M,1.8,0000*74,43.4622062995,141.8059589875,565197.9592691509,4812459.542422348
675,[2021-01-29 11:51:12.293] $GPGGA,25110.9,4327.732378,N,14148.35753704,E,4,5.0,10.0,108.919,M,31.59,M,1.9,0000*77,43.46220629999999,141.80595895066665,565197.9562889737,4812459.542449043
676,[2021-01-29 11:51:12.403] $GPGGA,25111.0,4327.73237845,N,14148.35753556,E,4,5.0,10.0,108.926,M,31.59,M,2.0,0000*7D,43.46220630750001,141.80595892600002,565197.9542855023,4812459.54326267
677,[2021-01-29 11:51:12.496] $GPGGA,25111.1,4327.73237783,N,14148.357535,E,4,5.0,10.0,108.927,M,31.59,M,2.1,0000*7A,43.46220629716666,141.80595891666667,565197.9535415843,4812459.542107764
678,[2021-01-29 11:51:12.590] $GPGGA,25111.2,4327.73237875,N,14148.35753518,E,4,5.0,10.0,108.927,M,31.59,M,2.2,0000*75,43.4622063125,141.80595891966666,565197.9537677915,4812459.543813
679,[2021-01-29 11:51:12.684] $GPGGA,25111.3,4327.73237758,N,14148.35753648,E,4,5.0,10.0,108.92299999999999,M,31.59,M,2.3,0000*77,43.462206293,141.80595894133333,565197.9555414753,4812459.541664332
680,[2021-01-29 11:51:12.793] $GPGGA,25111.4,4327.73237696,N,14148.35753711,E,4,5.0,10.0,108.92399999999999,M,31.59,M,2.4,0000*7E,43.462206282666656,141.8059589518333,565197.956401978,4812459.540524953
681,[2021-01-29 11:51:12.887] $GPGGA,25111.5,4327.7323777,N,14148.35753481,E,4,5.0,10.0,108.92299999999999,M,31.59,M,2.5,0000*7A,43.462206295,141.8059589135,565197.953287745,4812459.54186466
682,[2021-01-29 11:51:12.996] $GPGGA,25111.6,4327.73237914,N,14148.35753525,E,4,5.0,10.0,108.92399999999999,M,31.59,M,2.6,0000*7E,43.462206319,141.80595892083332,565197.9538551826,4812459.544535791
683,[2021-01-29 11:51:13.090] $GPGGA,25111.7,4327.73237678,N,14148.357538,E,4,5.0,10.0,108.925,M,31.59,M,2.7,0000*70,43.46220627966667,141.80595896666665,565197.9576051481,4812459.540203391
684,[2021-01-29 11:51:13.199] $GPGGA,25111.8,4327.73239426,N,14148.35757115,E,4,5.0,10.0,108.854,M,31.59,M,1.8,0000*7A,43.462206570999996,141.8059595191667,565198.0019866478,4812459.57299076
685,[2021-01-29 11:51:13.292] $GPGGA,25111.9,4327.73239159,N,14148.35757637,E,4,5.0,10.0,108.845,M,31.59,M,1.9,0000*70,43.4622065265,141.80595960616668,565198.009072352,4812459.568116788
686,[2021-01-29 11:51:13.386] $GPGGA,25112.0,4327.73239393,N,14148.35757389,E,4,5.0,10.0,108.846,M,31.59,M,2.0,0000*77,43.462206565500004,141.8059595648333,565198.005686769,4812459.572415692
687,[2021-01-29 11:51:13.479] $GPGGA,25112.1,4327.73239235,N,14148.35757577,E,4,5.0,10.0,108.848,M,31.59,M,2.1,0000*73,43.462206539166665,141.80595959616667,565198.0082497859,4812459.569515693
688,[2021-01-29 11:51:13.589] $GPGGA,25112.2,4327.73239401,N,14148.35757246,E,4,5.0,10.0,108.852,M,31.59,M,2.2,0000*7C,43.46220656683333,141.805959541,565198.0037573354,4812459.572545111
689,[2021-01-29 11:51:13.682] $GPGGA,25112.3,4327.73239238,N,14148.35757505,E,4,5.0,10.0,108.84299999999999,M,31.59,M,2.3,0000*70,43.462206539666674,141.80595958416666,565198.0072785061,4812459.569561829
690,[2021-01-29 11:51:13.792] $GPGGA,25112.4,4327.73239309,N,14148.35757513,E,4,5.0,10.0,108.846,M,31.59,M,2.4,0000*71,43.4622065515,141.8059595855,565198.0073736497,4812459.570877058
691,[2021-01-29 11:51:13.886] $GPGGA,25112.5,4327.73239428,N,14148.35757343,E,4,5.0,10.0,108.851,M,31.59,M,2.5,0000*70,43.46220657133334,141.80595955716666,565198.005060304,4812459.573057528
692,[2021-01-29 11:51:13.995] $GPGGA,25112.6,4327.73239201,N,14148.35757327,E,4,5.0,10.0,108.846,M,31.59,M,2.6,0000*79,43.462206533499995,141.8059595545,565198.0048852433,4812459.568853747
693,[2021-01-29 11:51:14.089] $GPGGA,25112.7,4327.73239101,N,14148.35757468,E,4,5.0,10.0,108.855,M,31.59,M,2.7,0000*74,43.462206516833334,141.805959578,565198.0068041913,4812459.567021179
694,[2021-01-29 11:51:14.198] $GPGGA,25112.8,4327.73237226,N,14148.35753313,E,4,5.0,10.0,108.92200000000001,M,31.59,M,1.8,0000*71,43.462206204333334,141.8059588855,565197.9511201155,4812459.531773491
695,[2021-01-29 11:51:14.295] $GPGGA,25112.9,4327.7323729,N,14148.35753393,E,4,5.0,10.0,108.929,M,31.59,M,1.9,0000*7F,43.462206215,141.80595889883335,565197.9521872575,4812459.532968546
696,[2021-01-29 11:51:14.404] $GPGGA,25113.0,4327.73237281,N,14148.35753246,E,4,5.0,10.0,108.93299999999999,M,31.59,M,2.0,0000*7F,43.462206213500004,141.80595887433333,565197.9502069362,4812459.53278278
697,[2021-01-29 11:51:14.482] $GPGGA,25113.1,4327.73237306,N,14148.35753447,E,4,5.0,10.0,108.92200000000001,M,31.59,M,2.1,0000*76,43.46220621766667,141.80595890783334,565197.9529124465,4812459.533271745
698,[2021-01-29 11:51:14.592] $GPGGA,25113.2,4327.73237491,N,14148.35753082,E,4,5.0,10.0,108.931,M,31.59,M,2.2,0000*70,43.462206248499996,141.80595884699997,565197.9479581858,4812459.53664841
699,[2021-01-29 11:51:14.685] $GPGGA,25113.3,4327.73237247,N,14148.35753426,E,4,5.0,10.0,108.92200000000001,M,31.59,M,2.3,0000*75,43.462206207833326,141.80595890433335,565197.9526398823,4812459.532176935
700,[2021-01-29 11:51:14.795] $GPGGA,25113.4,4327.73237352,N,14148.35753395,E,4,5.0,10.0,108.928,M,31.59,M,2.4,0000*75,43.46220622533333,141.80595889916665,565197.9522031145,4812459.534116404
701,[2021-01-29 11:51:14.888] $GPGGA,25113.5,4327.732375,N,14148.35753269,E,4,5.0,10.0,108.92,M,31.59,M,2.5,0000*7E,43.46220624999999,141.80595887816665,565197.9504778065,4812459.536839393
702,[2021-01-29 11:51:14.998] $GPGGA,25113.6,4327.73237298,N,14148.35753441,E,4,5.0,10.0,108.92399999999999,M,31.59,M,2.6,0000*70,43.462206216333335,141.80595890683335,565197.9528329849,4812459.533122884
703,[2021-01-29 11:51:15.091] $GPGGA,25113.7,4327.73237247,N,14148.35753338,E,4,5.0,10.0,108.91799999999999,M,31.59,M,2.7,0000*74,43.462206207833326,141.80595888966664,565197.9514534163,4812459.532165455
704,[2021-01-29 11:51:15.201] $GPGGA,25113.8,4327.73238453,N,14148.35755073,E,4,5.0,10.0,108.895,M,31.59,M,1.8,0000*75,43.462206408833325,141.80595917883335,565197.9746295997,4812459.554714455
705,[2021-01-29 11:51:15.295] $GPGGA,25113.9,4327.73238558,N,14148.35755191,E,4,5.0,10.0,108.89200000000001,M,31.59,M,1.9,0000*75,43.46220642633333,141.80595919849998,565197.9762017274,4812459.556673365
706,[2021-01-29 11:51:15.405] $GPGGA,25114.0,4327.73238321,N,14148.35755126,E,4,5.0,10.0,108.88799999999999,M,31.59,M,2.0,0000*7E,43.46220638683334,141.80595918766667,565197.9753678155,4812459.552278096
707,[2021-01-29 11:51:15.483] $GPGGA,25114.1,4327.73238649,N,14148.35754976,E,4,5.0,10.0,108.889,M,31.59,M,2.1,0000*78,43.462206441499994,141.80595916266665,565197.9732866847,4812459.558329692
708,[2021-01-29 11:51:15.592] $GPGGA,25114.2,4327.73238581,N,14148.35754866,E,4,5.0,10.0,108.891,M,31.59,M,2.2,0000*76,43.46220643016666,141.80595914433331,565197.9718157866,4812459.557056685
709,[2021-01-29 11:51:15.686] $GPGGA,25114.3,4327.73238419,N,14148.35755477,E,4,5.0,10.0,108.88600000000001,M,31.59,M,2.3,0000*7D,43.46220640316667,141.80595924616668,565197.9800826298,4812459.554137836
710,[2021-01-29 11:51:15.795] $GPGGA,25114.4,4327.73238573,N,14148.35755117,E,4,5.0,10.0,108.89299999999999,M,31.59,M,2.4,0000*77,43.462206428833326,141.80595918616666,565197.975201334,4812459.556941354
711,[2021-01-29 11:51:15.889] $GPGGA,25114.5,4327.73238254,N,14148.35755127,E,4,5.0,10.0,108.889,M,31.59,M,2.5,0000*7D,43.46220637566666,141.80595918783337,565197.9753933002,4812459.55103808
712,[2021-01-29 11:51:15.998] $GPGGA,25114.6,4327.73238418,N,14148.3575527,E,4,5.0,10.0,108.884,M,31.59,M,2.6,0000*7F,43.462206402999996,141.80595921166667,565197.9772919264,4812459.554092319
713,[2021-01-29 11:51:16.092] $GPGGA,25114.7,4327.73238389,N,14148.35754989,E,4,5.0,10.0,108.891,M,31.59,M,2.7,0000*78,43.46220639816667,141.80595916483333,565197.9735085274,4812459.55351888
714,[2021-01-29 11:51:16.201] $GPGGA,25114.8,4327.73238889,N,14148.35755633,E,4,5.0,10.0,108.88,M,31.59,M,1.8,0000*7F,43.4622064815,141.8059592721667,565197.9821017226,4812459.562857726
715,[2021-01-29 11:51:16.281] $GPGGA,25114.9,4327.73238954,N,14148.35755587,E,4,5.0,10.0,108.88600000000001,M,31.59,M,1.9,0000*74,43.46220649233334,141.80595926449996,565197.9814698801,4812459.564054852
716,[2021-01-29 11:51:16.391] $GPGGA,25115.0,4327.73238815,N,14148.35755554,E,4,5.0,10.0,108.87799999999999,M,31.59,M,2.0,0000*7D,43.46220646916666,141.805959259,565197.9810498538,4812459.561477705
717,[2021-01-29 11:51:16.484] $GPGGA,25115.1,4327.73238785,N,14148.35755496,E,4,5.0,10.0,108.885,M,31.59,M,2.1,0000*76,43.46220646416666,141.80595924933334,565197.9802732421,4812459.560914848
718,[2021-01-29 11:51:16.594] $GPGGA,25115.2,4327.73238816,N,14148.35755285,E,4,5.0,10.0,108.881,M,31.59,M,2.2,0000*73,43.46220646933333,141.80595921416668,565197.9774228766,4812459.561461119
719,[2021-01-29 11:51:16.688] $GPGGA,25115.3,4327.73238626,N,14148.35755892,E,4,5.0,10.0,108.88,M,31.59,M,2.3,0000*73,43.462206437666666,141.80595931533333,565197.9856408027,4812459.558023479
720,[2021-01-29 11:51:16.797] $GPGGA,25115.4,4327.73238713,N,14148.35755517,E,4,5.0,10.0,108.884,M,31.59,M,2.4,0000*70,43.46220645216666,141.80595925283333,565197.9805692722,4812459.559584891
721,[2021-01-29 11:51:16.891] $GPGGA,25115.5,4327.73238726,N,14148.35755535,E,4,5.0,10.0,108.882,M,31.59,M,2.5,0000*70,43.462206454333334,141.80595925583333,565197.9808096272,4812459.559827868
722,[2021-01-29 11:51:17.000] $GPGGA,25115.6,4327.73238899,N,14148.35755553,E,4,5.0,10.0,108.875,M,31.59,M,2.6,0000*73,43.46220648316666,141.80595925883335,565197.9810213284,4812459.563032385
