,Format,Time,Latitude,LatType,Longitude,LonType,Status,Satellite,LevelAccuracy,Altitude(sea),M(sea),Altitude(geoid),M(geoid),DGPS use,checksum,Lat,Lon,UTM_X,UTM_Y
828,[2021-01-29 10:49:23.356] $GNGGA,14921.8,4327.758492497,N,14148.312443728999,E,4,10,1.06,116.07,M,31.868000000000002,M,174.8,1010*6D,43.46264154161667,141.80520739548334,565136.6917863985,4812507.291432598
829,[2021-01-29 10:49:23.465] $GNGGA,14921.9,4327.758750375,N,14148.311787064,E,4,10,1.06,115.03200000000001,M,31.868000000000002,M,174.9,1010*68,43.46264583958333,141.80519645106668,565135.8018275988,4812507.760196578
830,[2021-01-29 10:49:23.559] $GNGGA,14922.0,4327.758748465,N,14148.311784262,E,4,10,1.06,115.035,M,31.868000000000002,M,175.0,1010*65,43.46264580775001,141.80519640436668,565135.7980839992,4812507.756624714
831,[2021-01-29 10:49:23.669] $GNGGA,14922.1,4327.758748738,N,14148.31178026,E,4,10,1.06,115.03200000000001,M,31.868000000000002,M,175.1,1010*6F,43.462645812299996,141.8051963376667,565135.7926834469,4812507.757077862
832,[2021-01-29 10:49:23.762] $GNGGA,14922.2,4327.7587478840005,N,14148.311777394,E,4,10,1.06,115.03200000000001,M,31.868000000000002,M,175.2,1010*6A,43.462645798066674,141.80519628989998,565135.7888346576,4812507.755459782
833,[2021-01-29 10:49:23.856] $GNGGA,14922.3,4327.758746752,N,14148.311775806002,E,4,10,1.06,115.036,M,31.868000000000002,M,175.3,1010*69,43.4626457792,141.80519626343337,565135.78671391,4812507.753343791
834,[2021-01-29 10:49:23.965] $GNGGA,14922.4,4327.758747623,N,14148.311773148998,E,4,10,1.06,115.031,M,31.868000000000002,M,175.4,1010*6C,43.462645793716675,141.80519621914996,565135.7831160345,4812507.754921349
835,[2021-01-29 10:49:24.059] $GNGGA,14922.5,4327.758746998,N,14148.311766457,E,4,10,1.06,115.027,M,31.868000000000002,M,175.5,1010*6B,43.4626457833,141.80519610761664,565135.7741047756,4812507.753677269
836,[2021-01-29 10:49:24.169] $GNGGA,14922.6,4327.758746919,N,14148.311765302,E,4,10,1.06,115.024,M,31.868000000000002,M,175.6,1010*65,43.46264578198334,141.80519608836667,565135.7725489712,4812507.7535159895
837,[2021-01-29 10:49:24.263] $GNGGA,14922.7,4327.7587468520005,N,14148.311762761,E,4,10,1.06,115.025,M,31.868000000000002,M,175.7,1010*6C,43.46264578086667,141.80519604601668,565135.769124284,4812507.753358853
838,[2021-01-29 10:49:24.357] $GNGGA,14922.8,4327.758746689,N,14148.311761148001,E,4,10,1.06,115.029,M,31.868000000000002,M,175.8,1010*66,43.46264577815,141.80519601913332,565135.7669524834,4812507.753036121
839,[2021-01-29 10:49:24.466] $GNGGA,14922.9,4327.7587466840005,N,14148.311756461999,E,4,10,1.06,115.02600000000001,M,31.868000000000002,M,175.9,1010*6D,43.46264577806667,141.8051959410333,565135.7606347034,4812507.752965787
840,[2021-01-29 10:49:24.560] $GNGGA,14923.0,4327.758746087,N,14148.311755285,E,4,10,1.06,115.031,M,31.868000000000002,M,176.0,1010*60,43.46264576811667,141.80519592141664,565135.759058504,4812507.751845421
841,[2021-01-29 10:49:24.669] $GNGGA,14923.1,4327.758745969,N,14148.311755701001,E,4,10,1.06,115.02799999999999,M,31.868000000000002,M,176.1,1010*6B,43.462645766150004,141.80519592835003,565135.7596214906,4812507.751632429
842,[2021-01-29 10:49:24.763] $GNGGA,14923.2,4327.758745679001,N,14148.311755276001,E,4,10,1.06,115.027,M,31.868000000000002,M,176.2,1010*6F,43.46264576131668,141.8051959212667,565135.7590536753,4812507.751090109
843,[2021-01-29 10:49:24.857] $GNGGA,14923.3,4327.758745407,N,14148.311755915,E,4,10,1.06,115.029,M,31.868000000000002,M,176.3,1010*64,43.46264575678334,141.80519593191667,565135.75992007,4812507.750594975
844,[2021-01-29 10:49:24.966] $GNGGA,14923.4,4327.758745743,N,14148.311755136001,E,4,10,1.06,115.024,M,31.868000000000002,M,176.4,1010*63,43.46264576238334,141.80519591893335,565135.7588637762,4812507.751206746
845,[2021-01-29 10:49:25.060] $GNGGA,14923.5,4327.758745119,N,14148.311755428998,E,4,10,1.06,115.029,M,31.868000000000002,M,176.5,1010*6C,43.46264575198334,141.80519592381663,565135.7592699726,4812507.750055563
846,[2021-01-29 10:49:25.169] $GNGGA,14923.6,4327.758745153,N,14148.311750875,E,4,10,1.06,115.02,M,31.868000000000002,M,176.6,1010*6B,43.462645752549996,141.80519584791668,565135.7531294691,4812507.750059136
847,[2021-01-29 10:49:25.264] $GNGGA,14923.7,4327.75874487,N,14148.311751985,E,4,10,1.06,115.02,M,31.868000000000002,M,176.7,1010*6D,43.46264574783333,141.80519586641665,565135.7546310803,4812507.749549781
848,[2021-01-29 10:49:25.358] $GNGGA,14923.8,4327.758745292,N,14148.311750531999,E,4,10,1.06,115.02,M,31.868000000000002,M,176.8,1010*6B,43.46264575486666,141.8051958422,565135.7526645334,4812507.750311949
849,[2021-01-29 10:49:25.467] $GNGGA,14923.9,4327.758745726,N,14148.311748307,E,4,10,1.06,115.02,M,31.868000000000002,M,176.9,1010*68,43.462645762099996,141.80519580511668,565135.749656926,4812507.751086268
850,[2021-01-29 10:49:25.561] $GNGGA,14924.0,4327.75874487,N,14148.311748301001,E,4,10,1.06,115.01899999999999,M,31.868000000000002,M,177.0,1010*6F,43.46264574783333,141.80519580501667,565135.7496641545,4812507.749501763
851,[2021-01-29 10:49:25.670] $GNGGA,14924.1,4327.758744343,N,14148.311748949,E,4,10,1.06,115.021,M,31.868000000000002,M,177.1,1010*69,43.462645739050004,141.80519581581663,565135.750547244,4812507.748534751
852,[2021-01-29 10:49:25.764] $GNGGA,14924.2,4327.758745105,N,14148.311746812,E,4,10,1.06,115.01700000000001,M,31.868000000000002,M,177.2,1010*6C,43.46264575175,141.80519578019997,565135.7476524126,4812507.749917332
853,[2021-01-29 10:49:25.858] $GNGGA,14924.3,4327.7587444,N,14148.311747119,E,4,10,1.06,115.01899999999999,M,31.868000000000002,M,177.3,1010*60,43.46264574,141.80519578531664,565135.7480789394,4812507.748616403
854,[2021-01-29 10:49:25.967] $GNGGA,14924.4,4327.758744703,N,14148.311746461,E,4,10,1.06,115.01799999999999,M,31.868000000000002,M,177.4,1010*6A,43.462645745050004,141.80519577435004,565135.7471863785,4812507.74916867
855,[2021-01-29 10:49:26.061] $GNGGA,14924.5,4327.758744948,N,14148.31174617,E,4,10,1.06,115.021,M,31.868000000000002,M,177.5,1010*64,43.46264574913332,141.80519576950002,565135.7467896544,4812507.749618361
856,[2021-01-29 10:49:26.170] $GNGGA,14924.6,4327.7587451,N,14148.311745641002,E,4,10,1.06,115.025,M,31.868000000000002,M,177.6,1010*63,43.46264575166667,141.80519576068335,565135.746073713,4812507.749892814
857,[2021-01-29 10:49:26.266] $GNGGA,14924.7,4327.7587452590005,N,14148.311746098001,E,4,10,1.06,115.01700000000001,M,31.868000000000002,M,177.7,1010*6C,43.462645754316675,141.8051957683,565135.7466870127,4812507.750193075
858,[2021-01-29 10:49:26.360] $GNGGA,14924.8,4327.75874509,N,14148.311745525,E,4,10,1.06,115.02,M,31.868000000000002,M,177.8,1010*6F,43.4626457515,141.80519575874996,565135.7459174907,4812507.749872792
859,[2021-01-29 10:49:26.469] $GNGGA,14924.9,4327.758744443,N,14148.31174669,E,4,10,1.06,115.016,M,31.868000000000002,M,177.9,1010*6F,43.46264574071666,141.80519577816668,565135.7474997765,4812507.748690402
860,[2021-01-29 10:49:26.563] $GNGGA,14925.0,4327.758743979,N,14148.311747551,E,4,10,1.06,115.01799999999999,M,31.868000000000002,M,178.0,1010*63,43.46264573298334,141.80519579251666,565135.7486689151,4812507.747842778
861,[2021-01-29 10:49:26.657] $GNGGA,14925.1,4327.758744266,N,14148.311749683999,E,4,10,1.06,115.01899999999999,M,31.868000000000002,M,178.1,1010*65,43.462645737766664,141.80519582806664,565135.7515395802,4812507.748401806
862,[2021-01-29 10:49:26.766] $GNGGA,14925.2,4327.758743881,N,14148.31174888,E,4,10,1.06,115.022,M,31.868000000000002,M,178.2,1010*62,43.462645731349994,141.80519581466666,565135.7504624835,4812507.7476787055
863,[2021-01-29 10:49:26.860] $GNGGA,14925.3,4327.758742889,N,14148.311749898001,E,4,10,1.06,115.027,M,31.868000000000002,M,178.3,1010*66,43.46264571481667,141.80519583163337,565135.7518527497,4812507.745855818
864,[2021-01-29 10:49:26.969] $GNGGA,14925.4,4327.758742874,N,14148.311748332,E,4,10,1.06,115.02799999999999,M,31.868000000000002,M,178.4,1010*61,43.46264571456666,141.80519580553334,565135.7497416681,4812507.74580764
865,[2021-01-29 10:49:27.063] $GNGGA,14925.5,4327.758743153,N,14148.311749665,E,4,10,1.06,115.027,M,31.868000000000002,M,178.5,1010*65,43.46264571921667,141.80519582774997,565135.7515338811,4812507.746341435
866,[2021-01-29 10:49:27.157] $GNGGA,14925.6,4327.758743405,N,14148.311749682,E,4,10,1.06,115.02799999999999,M,31.868000000000002,M,178.6,1010*65,43.462645723416664,141.80519582803333,565135.7515522931,4812507.746808099
867,[2021-01-29 10:49:27.268] $GNGGA,14925.7,4327.758744035,N,14148.311750649,E,4,10,1.06,115.02799999999999,M,31.868000000000002,M,178.7,1010*6A,43.46264573391666,141.80519584415,565135.7528447722,4812507.74798681
868,[2021-01-29 10:49:27.361] $GNGGA,14925.8,4327.758744093,N,14148.311752063999,E,4,10,1.06,115.03200000000001,M,31.868000000000002,M,178.8,1010*66,43.46264573488333,141.8051958677333,565135.754751494,4812507.748112611
869,[2021-01-29 10:49:27.455] $GNGGA,14925.9,4327.758743087,N,14148.311753605,E,4,10,1.06,115.03399999999999,M,31.868000000000002,M,178.9,1010*62,43.46264571811667,141.80519589341668,565135.7568471429,4812507.746270626
870,[2021-01-29 10:49:27.564] $GNGGA,14926.0,4327.758743326,N,14148.311754932,E,4,10,1.06,115.025,M,31.868000000000002,M,179.0,1010*64,43.46264572209999,141.80519591553332,565135.7586319825,4812507.7467303015
871,[2021-01-29 10:49:27.658] $GNGGA,14926.1,4327.75874247,N,14148.311753499,E,4,10,1.06,115.029,M,31.868000000000002,M,179.1,1010*66,43.462645707833325,141.80519589165,565135.7567152688,4812507.745127197
872,[2021-01-29 10:49:27.768] $GNGGA,14926.2,4327.758742325,N,14148.311754183,E,4,10,1.06,115.02799999999999,M,31.868000000000002,M,179.2,1010*69,43.46264570541666,141.80519590304996,565135.7576400597,4812507.7448677225
873,[2021-01-29 10:49:27.861] $GNGGA,14926.3,4327.758742754,N,14148.311751628,E,4,10,1.06,115.022,M,31.868000000000002,M,179.3,1010*62,43.46264571256666,141.80519586046668,565135.7541876261,4812507.7456284845
874,[2021-01-29 10:49:27.971] $GNGGA,14926.4,4327.758743044,N,14148.311752503001,E,4,10,1.06,115.029,M,31.868000000000002,M,179.4,1010*67,43.4626457174,141.80519587505003,565135.755362151,4812507.74617667
875,[2021-01-29 10:49:28.064] $GNGGA,14926.5,4327.758742581,N,14148.311751464,E,4,10,1.06,115.02600000000001,M,31.868000000000002,M,179.5,1010*66,43.46264570968333,141.8051958577333,565135.7539696051,4812507.7453061305
876,[2021-01-29 10:49:28.158] $GNGGA,14926.6,4327.758742401,N,14148.311753224,E,4,10,1.06,115.02600000000001,M,31.868000000000002,M,179.6,1010*6F,43.46264570668333,141.80519588706665,565135.7563457346,4812507.744995898
877,[2021-01-29 10:49:28.270] $GNGGA,14926.7,4327.7587429840005,N,14148.311754071,E,4,10,1.06,115.027,M,31.868000000000002,M,179.7,1010*6B,43.462645716400004,141.80519590118334,565135.757477267,4812507.746086052
878,[2021-01-29 10:49:28.364] $GNGGA,14926.8,4327.75874232,N,14148.311753013999,E,4,10,1.06,115.025,M,31.868000000000002,M,179.8,1010*69,43.46264570533334,141.80519588356665,565135.7560640543,4812507.744843232
879,[2021-01-29 10:49:28.458] $GNGGA,14926.9,4327.75874164,N,14148.311752365,E,4,10,1.06,115.024,M,31.868000000000002,M,179.9,1010*6C,43.462645694,141.80519587275,565135.7552012133,4812507.743576117
880,[2021-01-29 10:49:28.567] $GNGGA,14927.0,4327.758741339,N,14148.311752962,E,4,10,1.06,115.025,M,31.868000000000002,M,180.0,1010*6C,43.462645688983336,141.8051958827,565135.7560115005,4812507.743026758
881,[2021-01-29 10:49:28.661] $GNGGA,14927.1,4327.758741777,N,14148.311751213001,E,4,10,1.06,115.025,M,31.868000000000002,M,180.1,1010*6C,43.46264569628333,141.80519585355,565135.7536455863,4812507.743814683
882,[2021-01-29 10:49:28.770] $GNGGA,14927.2,4327.75874212,N,14148.311751085,E,4,10,1.06,115.024,M,31.868000000000002,M,180.2,1010*67,43.462645701999996,141.80519585141667,565135.753466873,4812507.744447895
883,[2021-01-29 10:49:28.864] $GNGGA,14927.3,4327.75874196,N,14148.311751666,E,4,10,1.06,115.025,M,31.868000000000002,M,180.3,1010*62,43.462645699333336,141.8051958611,565135.7542530658,4812507.744159314
884,[2021-01-29 10:49:28.958] $GNGGA,14927.4,4327.758742757,N,14148.311752901001,E,4,10,1.06,115.025,M,31.868000000000002,M,180.4,1010*66,43.46264571261666,141.80519588168335,565135.7559038859,4812507.74565063
885,[2021-01-29 10:49:29.067] $GNGGA,14927.5,4327.758742458,N,14148.311752333,E,4,10,1.06,115.025,M,31.868000000000002,M,180.5,1010*61,43.46264570763333,141.80519587221667,565135.7551434332,4812507.745089789
886,[2021-01-29 10:49:29.161] $GNGGA,14927.6,4327.758742296,N,14148.311753611,E,4,10,1.06,115.02600000000001,M,31.868000000000002,M,180.6,1010*62,43.46264570493333,141.80519589351667,565135.7568693868,4812507.7448065905
887,[2021-01-29 10:49:29.272] $GNGGA,14927.7,4327.75874217,N,14148.31175288,E,4,10,1.06,115.025,M,31.868000000000002,M,180.7,1010*6D,43.46264570283333,141.80519588133333,565135.7558860758,4812507.74456384
888,[2021-01-29 10:49:29.365] $GNGGA,14927.8,4327.758741899001,N,14148.311752886999,E,4,10,1.06,115.029,M,31.868000000000002,M,180.8,1010*6B,43.462645698316685,141.80519588145,565135.7559003626,4812507.744062321
889,[2021-01-29 10:49:29.459] $GNGGA,14927.9,4327.7587408379995,N,14148.311754023998,E,4,10,1.06,115.035,M,31.868000000000002,M,180.9,1010*6B,43.46264568063332,141.80519590039998,565135.7574522991,4812507.742113265
890,[2021-01-29 10:49:29.569] $GNGGA,14928.0,4327.758741162,N,14148.311754258,E,4,10,1.06,115.03299999999999,M,31.868000000000002,M,181.0,1010*6D,43.462645686033326,141.8051959043,565135.7577619919,4812507.742716028
891,[2021-01-29 10:49:29.662] $GNGGA,14928.1,4327.758740127,N,14148.311755157,E,4,10,1.06,115.036,M,31.868000000000002,M,181.1,1010*65,43.46264566878334,141.8051959192833,565135.7589925819,4812507.740811999
892,[2021-01-29 10:49:29.756] $GNGGA,14928.2,4327.758740943,N,14148.311754503,E,4,10,1.06,115.03399999999999,M,31.868000000000002,M,181.2,1010*69,43.46264568238333,141.80519590838335,565135.7580962317,4812507.742313862
893,[2021-01-29 10:49:29.865] $GNGGA,14928.3,4327.7587401,N,14148.311754746,E,4,10,1.06,115.03200000000001,M,31.868000000000002,M,181.3,1010*63,43.46264566833333,141.80519591243336,565135.7584389412,4812507.740756664
894,[2021-01-29 10:49:29.959] $GNGGA,14928.4,4327.758740685999,N,14148.3117554,E,4,10,1.06,115.031,M,31.868000000000002,M,181.4,1010*69,43.46264567809999,141.80519592333332,565135.7593102012,4812507.741849854
895,[2021-01-29 10:49:30.069] $GNGGA,14928.5,4327.758741631,N,14148.311754002,E,4,10,1.06,115.037,M,31.868000000000002,M,181.5,1010*65,43.46264569385,141.80519590003334,565135.7574084505,4812507.743580795
896,[2021-01-29 10:49:30.162] $GNGGA,14928.6,4327.758741154,N,14148.311754503,E,4,10,1.06,115.035,M,31.868000000000002,M,181.6,1010*67,43.46264568589999,141.80519590838335,565135.7580924559,4812507.742704416
897,[2021-01-29 10:49:30.264] $GNGGA,14928.7,4327.75874079,N,14148.311751903,E,4,10,1.06,115.035,M,31.868000000000002,M,181.7,1010*61,43.46264567983334,141.80519586505,565135.7545935356,4812507.741996774
898,[2021-01-29 10:49:30.366] $GNGGA,14928.8,4327.7587415670005,N,14148.311754288,E,4,10,1.06,115.036,M,31.868000000000002,M,181.8,1010*64,43.46264569278334,141.8051959048,565135.7577951927,4812507.7434660625
899,[2021-01-29 10:49:30.460] $GNGGA,14928.9,4327.758740186,N,14148.311753116,E,4,10,1.06,115.038,M,31.868000000000002,M,181.9,1010*63,43.46264566976667,141.8051958852667,565135.7562397656,4812507.740894603
900,[2021-01-29 10:49:30.569] $GNGGA,14929.0,4327.758741407,N,14148.311754404,E,4,10,1.06,115.039,M,31.868000000000002,M,182.0,1010*6C,43.46264569011667,141.80519590673333,565135.7579544509,4812507.74317142
901,[2021-01-29 10:49:30.663] $GNGGA,14929.1,4327.75874096,N,14148.311754092,E,4,10,1.06,115.038,M,31.868000000000002,M,182.1,1010*6B,43.46264568266667,141.80519590153335,565135.7575417996,4812507.742339971
902,[2021-01-29 10:49:30.757] $GNGGA,14929.2,4327.758740535,N,14148.311753906,E,4,10,1.06,115.038,M,31.868000000000002,M,182.2,1010*64,43.46264567558333,141.80519589843334,565135.7572986296,4812507.741550885
903,[2021-01-29 10:49:30.866] $GNGGA,14929.3,4327.758741118,N,14148.311753674,E,4,10,1.06,115.037,M,31.868000000000002,M,182.3,1010*6B,43.462645685300004,141.80519589456665,565135.7569754029,4812507.742626974
904,[2021-01-29 10:49:30.960] $GNGGA,14929.4,4327.758740194,N,14148.311756145,E,4,10,1.06,115.038,M,31.868000000000002,M,182.4,1010*61,43.46264566989999,141.80519593575,565135.7603234478,4812507.740948889
905,[2021-01-29 10:49:31.069] $GNGGA,14929.5,4327.758740656,N,14148.311756299,E,4,10,1.06,115.036,M,31.868000000000002,M,182.5,1010*64,43.462645677599994,141.80519593831667,565135.7605228112,4812507.741806043
906,[2021-01-29 10:49:31.163] $GNGGA,14929.6,4327.758739795,N,14148.311756617,E,4,10,1.06,115.035,M,31.868000000000002,M,182.6,1010*65,43.46264566325,141.80519594361667,565135.7609669596,4812507.740216507
907,[2021-01-29 10:49:31.267] $GNGGA,14929.7,4327.75873978,N,14148.311755348,E,4,10,1.06,115.035,M,31.868000000000002,M,182.7,1010*6D,43.462645662999996,141.80519592246668,565135.7592563073,4812507.740172201
908,[2021-01-29 10:49:31.368] $GNGGA,14929.8,4327.75874008,N,14148.311754545,E,4,10,1.06,115.03200000000001,M,31.868000000000002,M,182.8,1010*69,43.462645668,141.80519590908332,565135.758168299,4812507.7407170255
909,[2021-01-29 10:49:31.462] $GNGGA,14929.9,4327.758739547,N,14148.311751598001,E,4,10,1.06,115.029,M,31.868000000000002,M,182.9,1010*66,43.46264565911667,141.8051958599667,565135.7542045658,4812507.739692048
910,[2021-01-29 10:49:31.571] $GNGGA,14930.0,4327.7587408029995,N,14148.311751175,E,4,10,1.06,115.027,M,31.868000000000002,M,183.0,1010*65,43.46264568004999,141.80519585291668,565135.7536117841,4812507.742011346
911,[2021-01-29 10:49:31.665] $GNGGA,14930.1,4327.75874141,N,14148.311748315,E,4,10,1.06,115.029,M,31.868000000000002,M,183.1,1010*68,43.46264569016666,141.80519580525,565135.7497449443,4812507.743097604
912,[2021-01-29 10:49:31.759] $GNGGA,14930.2,4327.758740026,N,14148.311748495,E,4,10,1.06,115.03200000000001,M,31.868000000000002,M,183.2,1010*6D,43.46264566709999,141.80519580824998,565135.7500123921,4812507.740538215
913,[2021-01-29 10:49:31.868] $GNGGA,14930.3,4327.758740544,N,14148.311744375,E,4,10,1.06,115.03200000000001,M,31.868000000000002,M,183.3,1010*69,43.462645675733334,141.80519573958333,565135.744448362,4812507.741443315
914,[2021-01-29 10:49:31.962] $GNGGA,14930.4,4327.758740487,N,14148.311743608001,E,4,10,1.06,115.02600000000001,M,31.868000000000002,M,183.4,1010*6A,43.46264567478333,141.80519572680004,565135.7434152834,4812507.741327812
915,[2021-01-29 10:49:32.071] $GNGGA,14930.5,4327.758741306,N,14148.311742758999,E,4,10,1.06,115.024,M,31.868000000000002,M,183.5,1010*63,43.46264568843333,141.80519571264995,565135.7422559625,4812507.742832685
916,[2021-01-29 10:49:32.165] $GNGGA,14930.6,4327.758741059,N,14148.311742698,E,4,10,1.06,115.024,M,31.868000000000002,M,183.6,1010*66,43.46264568431667,141.80519571163336,565135.7421781444,4812507.742374703
917,[2021-01-29 10:49:32.267] $GNGGA,14930.7,4327.758740963,N,14148.311740278,E,4,10,1.06,115.024,M,31.868000000000002,M,183.7,1010*6F,43.462645682716655,141.80519567130003,565135.7389171142,4812507.742165464
918,[2021-01-29 10:49:32.370] $GNGGA,14930.8,4327.75874068,N,14148.311739912,E,4,10,1.06,115.025,M,31.868000000000002,M,183.8,1010*65,43.462645678,141.80519566520002,565135.7384287214,4812507.741636872
919,[2021-01-29 10:49:32.464] $GNGGA,14930.9,4327.758740473,N,14148.311739017,E,4,10,1.06,115.025,M,31.868000000000002,M,183.9,1010*67,43.46264567455,141.8051956502833,565135.7372257431,4812507.741242058
920,[2021-01-29 10:49:32.557] $GNGGA,14931.0,4327.758740159,N,14148.311739285,E,4,10,1.06,115.029,M,31.868000000000002,M,184.0,1010*69,43.462645669316665,141.80519565475,565135.7375926955,4812507.740664347
921,[2021-01-29 10:49:32.667] $GNGGA,14931.1,4327.758739872,N,14148.311737262,E,4,10,1.06,115.03,M,31.868000000000002,M,184.1,1010*68,43.462645664533326,141.80519562103333,565135.7348703343,4812507.740106752
922,[2021-01-29 10:49:32.760] $GNGGA,14931.2,4327.75874048,N,14148.311737543001,E,4,10,1.06,115.03200000000001,M,31.868000000000002,M,184.2,1010*61,43.46264567466666,141.80519562571666,565135.7352383104,4812507.741235801
923,[2021-01-29 10:49:32.870] $GNGGA,14931.3,4327.758739258,N,14148.311736105,E,4,10,1.06,115.03299999999999,M,31.868000000000002,M,184.3,1010*6A,43.46264565429999,141.80519560175,565135.733321403,4812507.738955177
924,[2021-01-29 10:49:32.963] $GNGGA,14931.4,4327.758738994,N,14148.311735088,E,4,10,1.06,115.03200000000001,M,31.868000000000002,M,184.4,1010*66,43.462645649900004,141.8051955848,565135.7319549646,4812507.738453267
925,[2021-01-29 10:49:33.057] $GNGGA,14931.5,4327.758739445,N,14148.311733965,E,4,10,1.06,115.031,M,31.868000000000002,M,184.5,1010*69,43.46264565741667,141.8051955660833,565135.7304328143,4812507.739273416
926,[2021-01-29 10:49:33.167] $GNGGA,14931.6,4327.758738327,N,14148.311733186001,E,4,10,1.06,115.029,M,31.868000000000002,M,184.6,1010*67,43.462645638783336,141.8051955531,565135.7294025413,4812507.737193882
927,[2021-01-29 10:49:33.270] $GNGGA,14931.7,4327.758738315,N,14148.311730938001,E,4,10,1.06,115.03,M,31.868000000000002,M,184.7,1010*60,43.462645638583346,141.80519551563336,565135.7263719062,4812507.737142371
928,[2021-01-29 10:49:33.371] $GNGGA,14931.8,4327.758737943,N,14148.311731143,E,4,10,1.06,115.025,M,31.868000000000002,M,184.8,1010*67,43.46264563238333,141.80519551905,565135.7266549518,4812507.736456482
929,[2021-01-29 10:49:33.465] $GNGGA,14931.9,4327.758737405,N,14148.311730467,E,4,10,1.06,115.03299999999999,M,31.868000000000002,M,184.9,1010*6D,43.46264562341667,141.80519550778334,565135.7257531664,4812507.735451852
930,[2021-01-29 10:49:33.559] $GNGGA,14932.0,4327.758737238,N,14148.311730614,E,4,10,1.06,115.025,M,31.868000000000002,M,185.0,1010*66,43.46264562063334,141.80519551023335,565135.7259543481,4812507.735144658
931,[2021-01-29 10:49:33.668] $GNGGA,14932.1,4327.758737693,N,14148.31172946,E,4,10,1.06,115.02799999999999,M,31.868000000000002,M,185.1,1010*67,43.462645628216656,141.80519549099998,565135.7243903301,4812507.735971804
932,[2021-01-29 10:49:33.762] $GNGGA,14932.2,4327.758737042001,N,14148.311729707,E,4,10,1.06,115.02799999999999,M,31.868000000000002,M,185.2,1010*6F,43.46264561736668,141.8051954951167,565135.7247349988,4812507.7347700475
933,[2021-01-29 10:49:33.871] $GNGGA,14932.3,4327.758737276,N,14148.311729148001,E,4,10,1.06,115.03,M,31.868000000000002,M,185.3,1010*6E,43.46264562126666,141.8051954858,565135.723977142,4812507.735195884
934,[2021-01-29 10:49:33.965] $GNGGA,14932.4,4327.758736883,N,14148.311728521001,E,4,10,1.06,115.03,M,31.868000000000002,M,185.4,1010*65,43.46264561471666,141.80519547535,565135.7231388256,4812507.734460283
935,[2021-01-29 10:49:34.059] $GNGGA,14932.5,4327.758736739001,N,14148.311726576001,E,4,10,1.06,115.03,M,31.868000000000002,M,185.5,1010*67,43.46264561231668,141.80519544293333,565135.720519069,4812507.7341683945
936,[2021-01-29 10:49:34.168] $GNGGA,14932.6,4327.758737364,N,14148.311725578998,E,4,10,1.06,115.035,M,31.868000000000002,M,185.6,1010*63,43.462645622733326,141.80519542631663,565135.7191636843,4812507.7353122495
937,[2021-01-29 10:49:34.269] $GNGGA,14932.7,4327.758737635,N,14148.311725721001,E,4,10,1.06,115.035,M,31.868000000000002,M,185.7,1010*6D,43.46264562725,141.80519542868336,565135.7193502913,4812507.735815713
938,[2021-01-29 10:49:34.357] $GNGGA,14932.8,4327.758737403,N,14148.311725468999,E,4,10,1.06,115.037,M,31.868000000000002,M,185.8,1010*67,43.46264562338333,141.80519542448334,565135.7190146847,4812507.735383004
939,[2021-01-29 10:49:34.467] $GNGGA,14932.9,4327.758737547,N,14148.311724875,E,4,10,1.06,115.03299999999999,M,31.868000000000002,M,185.9,1010*62,43.462645625783345,141.80519541458335,565135.7182112514,4812507.735641803
940,[2021-01-29 10:49:34.560] $GNGGA,14933.0,4327.758737614,N,14148.311723843999,E,4,10,1.06,115.03399999999999,M,31.868000000000002,M,186.0,1010*67,43.4626456269,141.8051953974,565135.7168200131,4812507.735752378
941,[2021-01-29 10:49:34.670] $GNGGA,14933.1,4327.758737275,N,14148.311722868999,E,4,10,1.06,115.03399999999999,M,31.868000000000002,M,186.1,1010*6A,43.46264562125001,141.80519538114999,565135.7155115391,4812507.735112193
942,[2021-01-29 10:49:34.763] $GNGGA,14933.2,4327.758737675999,N,14148.311721623999,E,4,10,1.06,115.031,M,31.868000000000002,M,186.2,1010*6C,43.46264562793333,141.80519536039995,565135.7138257973,4812507.735838201
943,[2021-01-29 10:49:34.857] $GNGGA,14933.3,4327.758737524,N,14148.311721512,E,4,10,1.06,115.03399999999999,M,31.868000000000002,M,186.3,1010*6B,43.46264562540001,141.80519535853333,565135.7136775191,4812507.735555395
944,[2021-01-29 10:49:34.966] $GNGGA,14933.4,4327.758736725,N,14148.311721794,E,4,10,1.06,115.036,M,31.868000000000002,M,186.4,1010*67,43.462645612083335,141.8051953632333,565135.7140720189,4812507.734080148
945,[2021-01-29 10:49:35.060] $GNGGA,14933.5,4327.758736943,N,14148.31171978,E,4,10,1.06,115.03,M,31.868000000000002,M,186.5,1010*61,43.46264561571667,141.80519532966667,565135.7113527588,4812507.734457408
946,[2021-01-29 10:49:35.170] $GNGGA,14933.6,4327.758736871,N,14148.311718343,E,4,10,1.06,115.03200000000001,M,31.868000000000002,M,186.6,1010*69,43.46264561451667,141.8051953057167,565135.709416623,4812507.734305408
947,[2021-01-29 10:49:35.264] $GNGGA,14933.7,4327.758737556,N,14148.31171864,E,4,10,1.06,115.03,M,31.868000000000002,M,186.7,1010*64,43.46264562593333,141.80519531066665,565135.7098047903,4812507.735577189
948,[2021-01-29 10:49:35.358] $GNGGA,14933.8,4327.758737001,N,14148.311718748999,E,4,10,1.06,115.03299999999999,M,31.868000000000002,M,186.8,1010*68,43.462645616683325,141.80519531248333,565135.7099616815,4812507.7345513245
949,[2021-01-29 10:49:35.467] $GNGGA,14933.9,4327.758736682,N,14148.311717408998,E,4,10,1.06,115.03399999999999,M,31.868000000000002,M,186.9,1010*6B,43.46264561136667,141.80519529014998,565135.7081607429,4812507.733943402
950,[2021-01-29 10:49:35.561] $GNGGA,14934.0,4327.75873642,N,14148.311717129,E,4,10,1.06,115.038,M,31.868000000000002,M,187.0,1010*6C,43.462645607000006,141.8051952854833,565135.7077879235,4812507.7334548
951,[2021-01-29 10:49:35.670] $GNGGA,14934.1,4327.758736335,N,14148.311716563001,E,4,10,1.06,115.036,M,31.868000000000002,M,187.1,1010*6A,43.46264560558333,141.80519527605,565135.7070263398,4812507.733290089
952,[2021-01-29 10:49:35.764] $GNGGA,14934.2,4327.758737002,N,14148.311715783,E,4,10,1.06,115.037,M,31.868000000000002,M,187.2,1010*62,43.4626456167,141.80519526305002,565135.7059627768,4812507.734514518
953,[2021-01-29 10:49:35.858] $GNGGA,14934.3,4327.758737397,N,14148.311716361,E,4,10,1.06,115.038,M,31.868000000000002,M,187.3,1010*69,43.462645623283336,141.80519527268336,565135.7067349937,4812507.735253182
954,[2021-01-29 10:49:35.967] $GNGGA,14934.4,4327.758736436,N,14148.31171486,E,4,10,1.06,115.04299999999999,M,31.868000000000002,M,187.4,1010*60,43.46264560726666,141.80519524766666,565135.7047284732,4812507.73345484
955,[2021-01-29 10:49:36.061] $GNGGA,14934.5,4327.758736644,N,14148.311715001,E,4,10,1.06,115.035,M,31.868000000000002,M,187.5,1010*68,43.46264561073334,141.80519525001668,565135.7049148553,4812507.733841679
956,[2021-01-29 10:49:36.170] $GNGGA,14934.6,4327.758737238,N,14148.311714708001,E,4,10,1.06,115.037,M,31.868000000000002,M,187.6,1010*6B,43.46264562063334,141.80519524513335,565135.7045091916,4812507.734937333
957,[2021-01-29 10:49:36.266] $GNGGA,14934.7,4327.758737626,N,14148.311714423999,E,4,10,1.06,115.035,M,31.868000000000002,M,187.7,1010*6F,43.4626456271,141.8051952404,565135.7041193459,4812507.735651805
958,[2021-01-29 10:49:36.359] $GNGGA,14934.8,4327.758737667,N,14148.311714623998,E,4,10,1.06,115.03200000000001,M,31.868000000000002,M,187.8,1010*6F,43.46264562778333,141.8051952437333,565135.704388258,4812507.735730302
959,[2021-01-29 10:49:36.469] $GNGGA,14934.9,4327.758737449,N,14148.311714242,E,4,10,1.06,115.031,M,31.868000000000002,M,187.9,1010*66,43.46264562415001,141.80519523736663,565135.7038771309,4812507.735321812
960,[2021-01-29 10:49:36.562] $GNGGA,14935.0,4327.758737574,N,14148.311715458998,E,4,10,1.06,115.03399999999999,M,31.868000000000002,M,188.0,1010*6F,43.46264562623334,141.80519525764998,565135.7055157066,4812507.735569047
961,[2021-01-29 10:49:36.656] $GNGGA,14935.1,4327.75873615,N,14148.311714428999,E,4,10,1.06,115.036,M,31.868000000000002,M,188.1,1010*68,43.4626456025,141.80519524048333,565135.7041524992,4812507.732919846
962,[2021-01-29 10:49:36.765] $GNGGA,14935.2,4327.758736666,N,14148.311714655,E,4,10,1.06,115.03200000000001,M,31.868000000000002,M,188.2,1010*67,43.4626456111,141.80519524425,565135.7044479686,4812507.73387789
963,[2021-01-29 10:49:36.859] $GNGGA,14935.3,4327.758736563,N,14148.311716426,E,4,10,1.06,115.03399999999999,M,31.868000000000002,M,188.3,1010*63,43.46264560938333,141.80519527376666,565135.7068375505,4812507.733710323
964,[2021-01-29 10:49:36.969] $GNGGA,14935.4,4327.75873614,N,14148.311716114,E,4,10,1.06,115.038,M,31.868000000000002,M,188.4,1010*6E,43.46264560233334,141.80519526856668,565135.7064244698,4812507.732923298
965,[2021-01-29 10:49:37.062] $GNGGA,14935.5,4327.758736163,N,14148.311716183998,E,4,10,1.06,115.041,M,31.868000000000002,M,188.5,1010*68,43.46264560271668,141.80519526973328,565135.7065184279,4812507.732966784
966,[2021-01-29 10:49:37.156] $GNGGA,14935.6,4327.758735658,N,14148.31171577,E,4,10,1.06,115.04,M,31.868000000000002,M,188.6,1010*6B,43.4626455943,141.80519526283334,565135.7059692984,4812507.73202665
967,[2021-01-29 10:49:37.267] $GNGGA,14935.7,4327.758735172,N,14148.311715325,E,4,10,1.06,115.046,M,31.868000000000002,M,188.7,1010*66,43.462645586200004,141.80519525541666,565135.7053780265,4812507.731121281
968,[2021-01-29 10:49:37.361] $GNGGA,14935.8,4327.758735326,N,14148.311716098,E,4,10,1.06,115.044,M,31.868000000000002,M,188.8,1010*61,43.46264558876666,141.80519526829997,565135.7064174607,4812507.731416403
969,[2021-01-29 10:49:37.470] $GNGGA,14935.9,4327.758735655,N,14148.311716273001,E,4,10,1.06,115.044,M,31.868000000000002,M,188.9,1010*67,43.46264559425,141.80519527121672,565135.7066475224,4812507.732027653
970,[2021-01-29 10:49:37.564] $GNGGA,14936.0,4327.758736913,N,14148.311716471999,E,4,10,1.06,115.04299999999999,M,31.868000000000002,M,189.0,1010*6B,43.46264561521666,141.80519527453333,565135.7068933067,4812507.73435876
971,[2021-01-29 10:49:37.658] $GNGGA,14936.1,4327.758735515,N,14148.311718489,E,4,10,1.06,115.04299999999999,M,31.868000000000002,M,189.1,1010*68,43.46264559191666,141.80519530815002,565135.709637731,4812507.731797402
972,[2021-01-29 10:49:37.767] $GNGGA,14936.2,4327.758736554,N,14148.311718563,E,4,10,1.06,115.04700000000001,M,31.868000000000002,M,189.2,1010*6F,43.462645609233334,141.80519530938332,565135.7097189073,4812507.733721518
973,[2021-01-29 10:49:37.861] $GNGGA,14936.3,4327.758736605,N,14148.311718955,E,4,10,1.06,115.041,M,31.868000000000002,M,189.3,1010*67,43.462645610083335,141.80519531591668,565135.7102465067,4812507.733821029
974,[2021-01-29 10:49:37.970] $GNGGA,14936.4,4327.758736597,N,14148.311719653999,E,4,10,1.06,115.044,M,31.868000000000002,M,189.4,1010*65,43.46264560995,141.80519532756662,565135.711189067,4812507.733815332
975,[2021-01-29 10:49:38.064] $GNGGA,14936.5,4327.758737935999,N,14148.311718556,E,4,10,1.06,115.04299999999999,M,31.868000000000002,M,189.5,1010*64,43.46264563226666,141.80519530926665,565135.7096847377,4812507.7362794615
976,[2021-01-29 10:49:38.158] $GNGGA,14936.6,4327.758737953,N,14148.311717932,E,4,10,1.06,115.046,M,31.868000000000002,M,189.6,1010*63,43.46264563254999,141.80519529886666,565135.7088431312,4812507.736302795
977,[2021-01-29 10:49:38.269] $GNGGA,14936.7,4327.758738288,N,14148.311718566001,E,4,10,1.06,115.04700000000001,M,31.868000000000002,M,189.7,1010*62,43.46264563813333,141.80519530943334,565135.7096919249,4812507.736931133
978,[2021-01-29 10:49:38.364] $GNGGA,14936.8,4327.758737984001,N,14148.311719465,E,4,10,1.06,115.04700000000001,M,31.868000000000002,M,189.8,1010*69,43.46264563306668,141.80519532441664,565135.7109094318,4812507.736380158
979,[2021-01-29 10:49:38.457] $GNGGA,14936.9,4327.758737167,N,14148.311719389,E,4,10,1.06,115.051,M,31.868000000000002,M,189.9,1010*6E,43.462645619449994,141.80519532315,565135.7108215865,4812507.734866926
980,[2021-01-29 10:49:38.567] $GNGGA,14937.0,4327.758737617,N,14148.311721038,E,4,10,1.06,115.05,M,31.868000000000002,M,190.0,1010*64,43.46264562695001,141.80519535063337,565135.7130367905,4812507.735721356
981,[2021-01-29 10:49:38.660] $GNGGA,14937.1,4327.7587370559995,N,14148.311720837,E,4,10,1.06,115.04799999999999,M,31.868000000000002,M,190.1,1010*68,43.46264561759999,141.80519534728333,565135.7127758292,4812507.734680342
982,[2021-01-29 10:49:38.770] $GNGGA,14937.2,4327.758737639,N,14148.311721253998,E,4,10,1.06,115.04700000000001,M,31.868000000000002,M,190.2,1010*66,43.46264562731667,141.8051953542333,565135.7133276118,4812507.735764892
983,[2021-01-29 10:49:38.863] $GNGGA,14937.3,4327.758737411,N,14148.311720626001,E,4,10,1.06,115.044,M,31.868000000000002,M,190.3,1010*6D,43.462645623516664,141.80519534376668,565135.7124849987,4812507.735334687
984,[2021-01-29 10:49:38.957] $GNGGA,14937.4,4327.758736482,N,14148.311721297,E,4,10,1.06,115.053,M,31.868000000000002,M,190.4,1010*6F,43.462645608033334,141.80519535495,565135.7134062923,4812507.7336238865
985,[2021-01-29 10:49:39.067] $GNGGA,14937.5,4327.758737585999,N,14148.311720487,E,4,10,1.06,115.051,M,31.868000000000002,M,190.5,1010*6F,43.46264562643332,141.80519534144997,565135.7122944574,4812507.735656792
986,[2021-01-29 10:49:39.160] $GNGGA,14937.6,4327.758738225,N,14148.311720023,E,4,10,1.06,115.044,M,31.868000000000002,M,190.6,1010*60,43.46264563708334,141.80519533371665,565135.7116574404,4812507.736833513
987,[2021-01-29 10:49:39.271] $GNGGA,14937.7,4327.758738181,N,14148.311720841,E,4,10,1.06,115.046,M,31.868000000000002,M,190.7,1010*63,43.462645636350004,141.80519534734998,565135.7127610886,4812507.736762733
988,[2021-01-29 10:49:39.365] $GNGGA,14937.8,4327.758738286,N,14148.311721751,E,4,10,1.06,115.045,M,31.868000000000002,M,190.8,1010*6B,43.4626456381,141.80519536251666,565135.7139861131,4812507.736968946
989,[2021-01-29 10:49:39.458] $GNGGA,14937.9,4327.758738193,N,14148.311720893,E,4,10,1.06,115.04299999999999,M,31.868000000000002,M,190.9,1010*6A,43.46264563654999,141.80519534821667,565135.7128309864,4812507.736785621
990,[2021-01-29 10:49:39.568] $GNGGA,14938.0,4327.758738060999,N,14148.311722508999,E,4,10,1.06,115.042,M,31.868000000000002,M,191.0,1010*65,43.46264563434999,141.80519537514996,565135.7150121063,4812507.736562357
991,[2021-01-29 10:49:39.661] $GNGGA,14938.1,4327.758737862,N,14148.31172213,E,4,10,1.06,115.04700000000001,M,31.868000000000002,M,191.1,1010*6A,43.46264563103333,141.80519536883335,565135.7145046858,4812507.736189076
992,[2021-01-29 10:49:39.771] $GNGGA,14938.2,4327.758736982,N,14148.311722155,E,4,10,1.06,115.04700000000001,M,31.868000000000002,M,191.2,1010*67,43.46264561636667,141.80519536925001,565135.71455414,4812507.734560554
993,[2021-01-29 10:49:39.865] $GNGGA,14938.3,4327.758737403,N,14148.31172357,E,4,10,1.06,115.04799999999999,M,31.868000000000002,M,191.3,1010*6F,43.46264562338333,141.8051953928333,565135.7164543662,4812507.735358251
994,[2021-01-29 10:49:39.958] $GNGGA,14938.4,4327.7587367159995,N,14148.311722753999,E,4,10,1.06,115.04799999999999,M,31.868000000000002,M,191.4,1010*6C,43.462645611933326,141.8051953792333,565135.7153664932,4812507.734076003
995,[2021-01-29 10:49:40.068] $GNGGA,14938.5,4327.758737091,N,14148.311723528,E,4,10,1.06,115.053,M,31.868000000000002,M,191.5,1010*67,43.46264561818333,141.80519539213336,565135.7164033271,4812507.734780204
996,[2021-01-29 10:49:40.161] $GNGGA,14938.6,4327.758738275,N,14148.311723425,E,4,10,1.06,115.053,M,31.868000000000002,M,191.6,1010*6C,43.462645637916665,141.80519539041669,565135.7162432715,4812507.736970404
997,[2021-01-29 10:49:40.272] $GNGGA,14938.7,4327.758739288,N,14148.311723764,E,4,10,1.06,115.054,M,31.868000000000002,M,191.7,1010*6E,43.46264565479999,141.80519539606664,565135.7166821938,4812507.7388498485
998,[2021-01-29 10:49:40.366] $GNGGA,14938.8,4327.758738115,N,14148.311723545,E,4,10,1.06,115.06299999999999,M,31.868000000000002,M,191.8,1010*6D,43.46264563525,141.8051953924167,565135.7164079245,4812507.736675813
999,[2021-01-29 10:49:40.460] $GNGGA,14938.9,4327.758738413,N,14148.311724511,E,4,10,1.06,115.057,M,31.868000000000002,M,191.9,1010*6F,43.46264564021667,141.80519540851668,565135.7177049944,4812507.737239993
1000,[2021-01-29 10:49:40.569] $GNGGA,14939.0,4327.758738345,N,14148.311724349,E,4,10,1.06,115.053,M,31.868000000000002,M,192.0,1010*66,43.46264563908333,141.80519540581668,565135.7174877949,4812507.737112014
1001,[2021-01-29 10:49:40.663] $GNGGA,14939.1,4327.758738836,N,14148.31172478,E,4,10,1.06,115.053,M,31.868000000000002,M,192.1,1010*68,43.46264564726666,141.805195413,565135.7180601006,4812507.738026456
1002,[2021-01-29 10:49:40.757] $GNGGA,14939.2,4327.758738349,N,14148.311724759,E,4,10,1.06,115.055,M,31.868000000000002,M,192.2,1010*69,43.462645639150004,141.80519541265,565135.7180405009,4812507.737124763
1003,[2021-01-29 10:49:40.866] $GNGGA,14939.3,4327.758738217,N,14148.311725672,E,4,10,1.06,115.057,M,31.868000000000002,M,192.3,1010*68,43.46264563695001,141.80519542786666,565135.719273811,4812507.736892338
1004,[2021-01-29 10:49:40.960] $GNGGA,14939.4,4327.758738060999,N,14148.31172538,E,4,10,1.06,115.056,M,31.868000000000002,M,192.4,1010*62,43.46264563434999,141.80519542300001,565135.7188829163,4812507.736599779
1005,[2021-01-29 10:49:41.069] $GNGGA,14939.5,4327.758738583,N,14148.311725776999,E,4,10,1.06,115.05799999999999,M,31.868000000000002,M,192.5,1010*69,43.46264564305,141.80519542961667,565135.7194088264,4812507.737571158
1006,[2021-01-29 10:49:41.163] $GNGGA,14939.6,4327.75873913,N,14148.311726815,E,4,10,1.06,115.056,M,31.868000000000002,M,192.6,1010*62,43.46264565216667,141.80519544691668,565135.7207985149,4812507.738597167
1007,[2021-01-29 10:49:41.265] $GNGGA,14939.7,4327.758739357,N,14148.311726969,E,4,10,1.06,115.05799999999999,M,31.868000000000002,M,192.7,1010*65,43.462645655950006,141.8051954494833,565135.7210020794,4812507.739019345
1008,[2021-01-29 10:49:41.368] $GNGGA,14939.8,4327.758740319,N,14148.311727696,E,4,10,1.06,115.055,M,31.868000000000002,M,192.8,1010*62,43.46264567198333,141.8051954616,565135.7219650398,4812507.740809446
1009,[2021-01-29 10:49:41.461] $GNGGA,14939.9,4327.758739389,N,14148.311727194,E,4,10,1.06,115.05799999999999,M,31.868000000000002,M,192.9,1010*6D,43.46264565648334,141.80519545323332,565135.7213048637,4812507.739081506
1010,[2021-01-29 10:49:41.571] $GNGGA,14940.0,4327.758738707,N,14148.311727739,E,4,10,1.06,115.064,M,31.868000000000002,M,193.0,1010*6F,43.462645645116666,141.80519546231665,565135.7220518583,4812507.737826251
1011,[2021-01-29 10:49:41.665] $GNGGA,14940.1,4327.75873884,N,14148.311728536,E,4,10,1.06,115.06200000000001,M,31.868000000000002,M,193.1,1010*67,43.46264564733333,141.80519547560002,565135.7231240311,4812507.738082818
1012,[2021-01-29 10:49:41.758] $GNGGA,14940.2,4327.758739414,N,14148.311728793,E,4,10,1.06,115.06,M,31.868000000000002,M,193.2,1010*64,43.4626456569,141.8051954798833,565135.7234602548,4812507.739148622
1013,[2021-01-29 10:49:41.868] $GNGGA,14940.3,4327.75874011,N,14148.311728525,E,4,10,1.06,115.061,M,31.868000000000002,M,193.3,1010*65,43.4626456685,141.80519547541664,565135.7230864709,4812507.7404334005
1014,[2021-01-29 10:49:41.961] $GNGGA,14940.4,4327.758741426,N,14148.311731098,E,4,10,1.06,115.061,M,31.868000000000002,M,193.4,1010*6F,43.46264569043333,141.8051955183,565135.7265319544,4812507.742902808
1015,[2021-01-29 10:49:42.071] $GNGGA,14940.5,4327.758741292,N,14148.311732656,E,4,10,1.06,115.061,M,31.868000000000002,M,193.5,1010*61,43.4626456882,141.80519554426667,565135.7286349145,4812507.7426750865
1016,[2021-01-29 10:49:42.165] $GNGGA,14940.6,4327.758741577,N,14148.311733464,E,4,10,1.06,115.06200000000001,M,31.868000000000002,M,193.6,1010*6C,43.46264569295,141.8051955577333,565135.7297191935,4812507.743213143
1017,[2021-01-29 10:49:42.268] $GNGGA,14940.7,4327.758742437,N,14148.311733534,E,4,10,1.06,115.064,M,31.868000000000002,M,193.7,1010*68,43.46264570728334,141.80519555889998,565135.7297981821,4812507.744805888
1018,[2021-01-29 10:49:42.369] $GNGGA,14940.8,4327.758742129,N,14148.31173413,E,4,10,1.06,115.065,M,31.868000000000002,M,193.8,1010*64,43.46264570215,141.80519556883337,565135.7306072506,4812507.744243558
1019,[2021-01-29 10:49:42.463] $GNGGA,14940.9,4327.758741315,N,14148.311735939,E,4,10,1.06,115.07,M,31.868000000000002,M,193.9,1010*6E,43.462645688583336,141.80519559898335,565135.733060787,4812507.7427604515
1020,[2021-01-29 10:49:42.557] $GNGGA,14941.0,4327.758741762,N,14148.311736613,E,4,10,1.06,115.065,M,31.868000000000002,M,194.0,1010*6C,43.46264569603333,141.80519561021669,565135.7339615044,4812507.743596616
1021,[2021-01-29 10:49:42.666] $GNGGA,14941.1,4327.758740976,N,14148.311737205,E,4,10,1.06,115.066,M,31.868000000000002,M,194.1,1010*67,43.462645682933335,141.80519562008334,565135.7347737293,4812507.742149474
1022,[2021-01-29 10:49:42.760] $GNGGA,14941.2,4327.7587404959995,N,14148.311738598999,E,4,10,1.06,115.068,M,31.868000000000002,M,194.2,1010*67,43.46264567493333,141.80519564331667,565135.7366617684,4812507.741279181
1023,[2021-01-29 10:49:42.869] $GNGGA,14941.3,4327.758740173,N,14148.311739078,E,4,10,1.06,115.064,M,31.868000000000002,M,194.3,1010*6E,43.46264566954999,141.80519565129998,565135.7373133557,4812507.740687561
1024,[2021-01-29 10:49:42.963] $GNGGA,14941.4,4327.758741216,N,14148.311739973,E,4,10,1.06,115.068,M,31.868000000000002,M,194.4,1010*61,43.462645686933335,141.80519566621666,565135.7385013701,4812507.742629785
1025,[2021-01-29 10:49:43.057] $GNGGA,14941.5,4327.758740819,N,14148.31174102,E,4,10,1.06,115.065,M,31.868000000000002,M,194.5,1010*68,43.46264568031667,141.80519568366662,565135.7399200827,4812507.7419086
1026,[2021-01-29 10:49:43.166] $GNGGA,14941.6,4327.758742501,N,14148.311742373999,E,4,10,1.06,115.06700000000001,M,31.868000000000002,M,194.6,1010*6D,43.462645708349996,141.80519570623332,565135.7417155079,4812507.745039572
1027,[2021-01-29 10:49:43.268] $GNGGA,14941.7,4327.758741379001,N,14148.311743361,E,4,10,1.06,115.068,M,31.868000000000002,M,194.7,1010*6D,43.46264568965002,141.80519572268335,565135.7430663042,4812507.742975655
1028,[2021-01-29 10:49:43.371] $GNGGA,14941.8,4327.758741704,N,14148.311745966,E,4,10,1.06,115.07,M,31.868000000000002,M,194.8,1010*61,43.46264569506667,141.8051957661,565135.7465726614,4812507.743611172
1029,[2021-01-29 10:49:43.464] $GNGGA,14941.9,4327.758742505,N,14148.311747018999,E,4,10,1.06,115.066,M,31.868000000000002,M,194.9,1010*65,43.46264570841666,141.80519578365,565135.7479780256,4812507.745107519
1030,[2021-01-29 10:49:43.558] $GNGGA,14942.0,4327.758742375,N,14148.311747828,E,4,10,1.06,115.071,M,31.868000000000002,M,195.0,1010*6A,43.46264570625,141.80519579713334,565135.749071081,4812507.74487744
1031,[2021-01-29 10:49:43.668] $GNGGA,14942.1,4327.758742742,N,14148.311748359,E,4,10,1.06,115.066,M,31.868000000000002,M,195.1,1010*6E,43.46264571236667,141.80519580598335,565135.7497804336,4812507.745563666
1032,[2021-01-29 10:49:43.761] $GNGGA,14942.2,4327.758743377,N,14148.311749958999,E,4,10,1.06,115.066,M,31.868000000000002,M,195.2,1010*66,43.46264572295,141.80519583264996,565135.7519262552,4812507.746759884
1033,[2021-01-29 10:49:43.871] $GNGGA,14942.3,4327.758743309,N,14148.311751526999,E,4,10,1.06,115.064,M,31.868000000000002,M,195.3,1010*61,43.46264572181668,141.8051958587833,565135.7540415163,4812507.7466544565
1034,[2021-01-29 10:49:43.964] $GNGGA,14942.4,4327.7587441979995,N,14148.311753428,E,4,10,1.06,115.064,M,31.868000000000002,M,195.4,1010*60,43.46264573663333,141.80519589046668,565135.7565886229,4812507.748324741
1035,[2021-01-29 10:49:44.058] $GNGGA,14942.5,4327.758744006,N,14148.311753728001,E,4,10,1.06,115.06700000000001,M,31.868000000000002,M,195.5,1010*66,43.46264573343333,141.80519589546668,565135.7569965324,4812507.747973266
1036,[2021-01-29 10:49:44.167] $GNGGA,14942.6,4327.758744103,N,14148.311753873,E,4,10,1.06,115.064,M,31.868000000000002,M,195.6,1010*60,43.46264573505,141.80519589788332,565135.7571902896,4812507.7481547
1037,[2021-01-29 10:49:44.271] $GNGGA,14942.7,4327.758743377,N,14148.311755055,E,4,10,1.06,115.06700000000001,M,31.868000000000002,M,195.7,1010*6F,43.46264572295,141.80519591758332,565135.7587969044,4812507.746826306
1038,[2021-01-29 10:49:44.357] $GNGGA,14942.8,4327.758743928,N,14148.31175528,E,4,10,1.06,115.072,M,31.868000000000002,M,195.8,1010*61,43.46264573213333,141.80519592133334,565135.7590904013,4812507.747849121
1039,[2021-01-29 10:49:44.466] $GNGGA,14942.9,4327.758744136,N,14148.311756396,E,4,10,1.06,115.069,M,31.868000000000002,M,195.9,1010*6E,43.4626457356,141.80519593993336,565135.7605913196,4812507.748248667
1040,[2021-01-29 10:49:44.560] $GNGGA,14943.0,4327.758743804,N,14148.31175621,E,4,10,1.06,115.07,M,31.868000000000002,M,196.0,1010*64,43.46264573006667,141.80519593683334,565135.7603464855,4812507.747631723
1041,[2021-01-29 10:49:44.669] $GNGGA,14943.1,4327.758743757,N,14148.311756313,E,4,10,1.06,115.074,M,31.868000000000002,M,196.1,1010*6B,43.46264572928333,141.80519593855,565135.7604861971,4812507.747546069
1042,[2021-01-29 10:49:44.763] $GNGGA,14943.2,4327.758743793,N,14148.311756005,E,4,10,1.06,115.073,M,31.868000000000002,M,196.2,1010*60,43.46264572988333,141.80519593341668,565135.7600702936,4812507.74760869
1043,[2021-01-29 10:49:44.857] $GNGGA,14943.3,4327.758743533,N,14148.311756575,E,4,10,1.06,115.075,M,31.868000000000002,M,196.3,1010*6C,43.46264572555,141.80519594291667,565135.7608434437,4812507.747134869
1044,[2021-01-29 10:49:44.966] $GNGGA,14943.4,4327.758743817,N,14148.311755289,E,4,10,1.06,115.075,M,31.868000000000002,M,196.4,1010*60,43.462645730283334,141.80519592148335,565135.7591045215,4812507.747643781
1045,[2021-01-29 10:49:45.060] $GNGGA,14943.5,4327.758743315,N,14148.311756351,E,4,10,1.06,115.08,M,31.868000000000002,M,196.5,1010*64,43.46264572191667,141.80519593918333,565135.760545338,4812507.746728439
1046,[2021-01-29 10:49:45.169] $GNGGA,14943.6,4327.758744058,N,14148.311755563998,E,4,10,1.06,115.079,M,31.868000000000002,M,196.6,1010*6C,43.4626457343,141.80519592606663,565135.7594709715,4812507.748093447
1047,[2021-01-29 10:49:45.263] $GNGGA,14943.7,4327.758744358,N,14148.311755531002,E,4,10,1.06,115.07700000000001,M,31.868000000000002,M,196.7,1010*61,43.462645739299994,141.80519592551673,565135.7594211189,4812507.748648306
1048,[2021-01-29 10:49:45.357] $GNGGA,14943.8,4327.758743764,N,14148.311755866001,E,4,10,1.06,115.07700000000001,M,31.868000000000002,M,196.8,1010*62,43.4626457294,141.80519593110003,565135.7598834068,4812507.747553201
1049,[2021-01-29 10:49:45.467] $GNGGA,14943.9,4327.75874345,N,14148.311756371,E,4,10,1.06,115.07799999999999,M,31.868000000000002,M,196.9,1010*67,43.46264572416666,141.8051959395167,565135.7605698883,4812507.746978579
1050,[2021-01-29 10:49:45.560] $GNGGA,14944.0,4327.75874418,N,14148.311756078001,E,4,10,1.06,115.074,M,31.868000000000002,M,197.0,1010*68,43.46264573633332,141.80519593463336,565135.760161791,4812507.748325964
1051,[2021-01-29 10:49:45.670] $GNGGA,14944.1,4327.758744658,N,14148.311757197,E,4,10,1.06,115.07600000000001,M,31.868000000000002,M,197.1,1010*69,43.4626457443,141.80519595328332,565135.7616619181,4812507.749225312
1052,[2021-01-29 10:49:45.763] $GNGGA,14944.2,4327.7587460390005,N,14148.311758161999,E,4,10,1.06,115.075,M,31.868000000000002,M,197.2,1010*6C,43.46264576731667,141.80519596936662,565135.762938258,4812507.751794074
1053,[2021-01-29 10:49:45.857] $GNGGA,14944.3,4327.758745549,N,14148.311757713,E,4,10,1.06,115.07600000000001,M,31.868000000000002,M,197.3,1010*61,43.46264575915,141.80519596188333,565135.7623416691,4812507.750881247
1054,[2021-01-29 10:49:45.967] $GNGGA,14944.4,4327.75874673,N,14148.311758769,E,4,10,1.06,115.07,M,31.868000000000002,M,197.4,1010*6A,43.462645778833334,141.80519597948333,565135.76374428,4812507.753081001
1055,[2021-01-29 10:49:46.060] $GNGGA,14944.5,4327.758746642,N,14148.311757721001,E,4,10,1.06,115.072,M,31.868000000000002,M,197.5,1010*6F,43.46264577736667,141.80519596201668,565135.762332898,4812507.752904458
1056,[2021-01-29 10:49:46.170] $GNGGA,14944.6,4327.758747165,N,14148.311758043,E,4,10,1.06,115.071,M,31.868000000000002,M,197.6,1010*63,43.462645786083336,141.80519596738336,565135.7627576733,4812507.753876709
1057,[2021-01-29 10:49:46.265] $GNGGA,14944.7,4327.758747665,N,14148.311760203,E,4,10,1.06,115.072,M,31.868000000000002,M,197.7,1010*6A,43.462645794416666,141.80519600338334,565135.7656609302,4812507.7548303455
1058,[2021-01-29 10:49:46.359] $GNGGA,14944.8,4327.758747434,N,14148.311760315,E,4,10,1.06,115.07,M,31.868000000000002,M,197.8,1010*68,43.46264579056666,141.80519600525,565135.7658160662,4812507.754404233
1059,[2021-01-29 10:49:46.468] $GNGGA,14944.9,4327.758746927,N,14148.311758828,E,4,10,1.06,115.065,M,31.868000000000002,M,197.9,1010*6C,43.462645782116674,141.8051959804667,565135.7638203045,4812507.753446412
1060,[2021-01-29 10:49:46.562] $GNGGA,14945.0,4327.758747175,N,14148.311757993,E,4,10,1.06,115.06200000000001,M,31.868000000000002,M,198.0,1010*65,43.46264578625001,141.80519596655,565135.7626900803,4812507.753894569
1061,[2021-01-29 10:49:46.671] $GNGGA,14945.1,4327.7587469459995,N,14148.311758468,E,4,10,1.06,115.06700000000001,M,31.868000000000002,M,198.1,1010*6F,43.46264578243333,141.80519597446667,565135.7633345948,4812507.753476887
1062,[2021-01-29 10:49:46.765] $GNGGA,14945.2,4327.75874721,N,14148.311757612,E,4,10,1.06,115.06,M,31.868000000000002,M,198.2,1010*61,43.462645786833335,141.80519596020002,565135.7621757762,4812507.753954385
1063,[2021-01-29 10:49:46.859] $GNGGA,14945.3,4327.758747221,N,14148.311756953999,E,4,10,1.06,115.06299999999999,M,31.868000000000002,M,198.3,1010*6C,43.46264578701667,141.8051959492333,565135.7612884301,4812507.7539661685
1064,[2021-01-29 10:49:46.968] $GNGGA,14945.4,4327.758748062,N,14148.311758134,E,4,10,1.06,115.05799999999999,M,31.868000000000002,M,198.4,1010*6E,43.46264580103335,141.8051959689,565135.76286431,4812507.755538213
1065,[2021-01-29 10:49:47.062] $GNGGA,14945.5,4327.75874768,N,14148.311759142,E,4,10,1.06,115.06200000000001,M,31.868000000000002,M,198.5,1010*62,43.46264579466667,141.80519598569998,565135.7642301745,4812507.754844282
1066,[2021-01-29 10:49:47.171] $GNGGA,14945.6,4327.758748428,N,14148.311758685,E,4,10,1.06,115.061,M,31.868000000000002,M,198.6,1010*63,43.46264580713334,141.80519597808333,565135.7636006423,4812507.756222847
1067,[2021-01-29 10:49:47.267] $GNGGA,14945.7,4327.758748672,N,14148.311759013,E,4,10,1.06,115.065,M,31.868000000000002,M,198.7,1010*62,43.462645811200005,141.80519598355002,565135.7640385014,4812507.756678759
1068,[2021-01-29 10:49:47.360] $GNGGA,14945.8,4327.758748536,N,14148.311759238999,E,4,10,1.06,115.061,M,31.868000000000002,M,198.8,1010*6F,43.46264580893334,141.80519598731664,565135.764345634,4812507.756429972
1069,[2021-01-29 10:49:47.470] $GNGGA,14945.9,4327.758748822,N,14148.311758179,E,4,10,1.06,115.05799999999999,M,31.868000000000002,M,198.9,1010*6B,43.4626458137,141.80519596965,565135.7629113811,4812507.756945532
1070,[2021-01-29 10:49:47.563] $GNGGA,14946.0,4327.758749772001,N,14148.31175788,E,4,10,1.06,115.052,M,31.868000000000002,M,199.0,1010*68,43.46264582953334,141.80519596466667,565135.7624912579,4812507.758700053
1071,[2021-01-29 10:49:47.657] $GNGGA,14946.1,4327.758750039,N,14148.311756305,E,4,10,1.06,115.052,M,31.868000000000002,M,199.1,1010*6F,43.46264583398333,141.80519593841666,565135.7603629963,4812507.75917373
1072,[2021-01-29 10:49:47.767] $GNGGA,14946.2,4327.758750342,N,14148.311756375,E,4,10,1.06,115.053,M,31.868000000000002,M,199.2,1010*66,43.462645839033335,141.80519593958334,565135.7604519521,4812507.759735485
1073,[2021-01-29 10:49:47.860] $GNGGA,14946.3,4327.7587509509995,N,14148.31175528,E,4,10,1.06,115.053,M,31.868000000000002,M,199.3,1010*66,43.46264584918332,141.80519592133334,565135.7589647283,4812507.760848449
1074,[2021-01-29 10:49:47.970] $GNGGA,14946.4,4327.758749489,N,14148.311755534,E,4,10,1.06,115.054,M,31.868000000000002,M,199.4,1010*69,43.462645824816676,141.80519592556664,565135.7593333406,4812507.758145651
1075,[2021-01-29 10:49:48.063] $GNGGA,14946.5,4327.758750153,N,14148.311755847,E,4,10,1.06,115.055,M,31.868000000000002,M,199.5,1010*6B,43.462645835883336,141.80519593078336,565135.759743463,4812507.75937877
1076,[2021-01-29 10:49:48.157] $GNGGA,14946.6,4327.7587505209995,N,14148.311756906001,E,4,10,1.06,115.054,M,31.868000000000002,M,199.6,1010*6C,43.462645842016656,141.80519594843338,565135.761164669,4812507.760073729
1077,[2021-01-29 10:49:48.268] $GNGGA,14946.7,4327.758749325,N,14148.311756965,E,4,10,1.06,115.054,M,31.868000000000002,M,199.7,1010*63,43.46264582208334,141.80519594941669,565135.7612656144,4812507.757860744
1078,[2021-01-29 10:49:48.362] $GNGGA,14946.8,4327.758750229,N,14148.311757735,E,4,10,1.06,115.054,M,31.868000000000002,M,199.8,1010*6C,43.46264583714999,141.80519596225002,565135.7622875852,4812507.759544052
1079,[2021-01-29 10:49:48.471] $GNGGA,14946.9,4327.7587506,N,14148.311757223,E,4,10,1.06,115.053,M,31.868000000000002,M,199.9,1010*66,43.46264584333334,141.8051959537167,565135.7615906463,4812507.760224088
1080,[2021-01-29 10:49:48.565] $GNGGA,14947.0,4327.758749229,N,14148.311757313,E,4,10,1.06,115.053,M,31.868000000000002,M,200.0,1010*61,43.46264582048334,141.8051959552167,565135.7617365236,4812507.757687588
1081,[2021-01-29 10:49:48.659] $GNGGA,14947.1,4327.758749859,N,14148.311756557,E,4,10,1.06,115.052,M,31.868000000000002,M,200.1,1010*6A,43.462645830983334,141.80519594261665,565135.7607059734,4812507.75884384
1082,[2021-01-29 10:49:48.768] $GNGGA,14947.2,4327.758749895,N,14148.311755171,E,4,10,1.06,115.05,M,31.868000000000002,M,200.2,1010*6B,43.46264583158333,141.80519591951665,565135.7588366631,4812507.7588924095
1083,[2021-01-29 10:49:48.862] $GNGGA,14947.3,4327.758750002,N,14148.311754481001,E,4,10,1.06,115.057,M,31.868000000000002,M,200.3,1010*69,43.462645833366665,141.80519590801666,565135.7579044609,4812507.75908147
1084,[2021-01-29 10:49:48.971] $GNGGA,14947.4,4327.758749308,N,14148.311754296,E,4,10,1.06,115.053,M,31.868000000000002,M,200.4,1010*6C,43.462645821799995,141.80519590493333,565135.757667457,4812507.757794488
1085,[2021-01-29 10:49:49.065] $GNGGA,14947.5,4327.758749085,N,14148.311753392,E,4,10,1.06,115.054,M,31.868000000000002,M,200.5,1010*6F,43.46264581808334,141.80519588986667,565135.7564526353,4812507.757369941
1086,[2021-01-29 10:49:49.159] $GNGGA,14947.6,4327.758749874,N,14148.311752371,E,4,10,1.06,115.053,M,31.868000000000002,M,200.6,1010*62,43.46264583123334,141.80519587285002,565135.7550619611,4812507.758817045
1087,[2021-01-29 10:49:49.270] $GNGGA,14947.7,4327.758749529,N,14148.311751637,E,4,10,1.06,115.051,M,31.868000000000002,M,200.7,1010*61,43.462645825483335,141.8051958606167,565135.7540785247,4812507.758168894
1088,[2021-01-29 10:49:49.364] $GNGGA,14947.8,4327.758748874,N,14148.31175123,E,4,10,1.06,115.053,M,31.868000000000002,M,200.8,1010*64,43.46264581456667,141.80519585383334,565135.7535415083,4812507.756951206
1089,[2021-01-29 10:49:49.458] $GNGGA,14947.9,4327.75874913,N,14148.311749694,E,4,10,1.06,115.04700000000001,M,31.868000000000002,M,200.9,1010*6A,43.46264581883334,141.80519582823334,565135.7514660275,4812507.757405033
1090,[2021-01-29 10:49:49.567] $GNGGA,14948.0,4327.75874799,N,14148.31174899,E,4,10,1.06,115.05,M,31.868000000000002,M,201.0,1010*64,43.462645799833346,141.8051958165,565135.7505372629,4812507.7552857585
1091,[2021-01-29 10:49:49.661] $GNGGA,14948.1,4327.758747479,N,14148.311748628,E,4,10,1.06,115.05,M,31.868000000000002,M,201.1,1010*62,43.46264579131666,141.80519581046667,565135.7500583429,4812507.754335193
1092,[2021-01-29 10:49:49.770] $GNGGA,14948.2,4327.758747023,N,14148.31174699,E,4,10,1.06,115.044,M,31.868000000000002,M,201.2,1010*6E,43.462645783716674,141.80519578316668,565135.7478580805,4812507.753469805
1093,[2021-01-29 10:49:49.864] $GNGGA,14948.3,4327.758747541,N,14148.311746328998,E,4,10,1.06,115.045,M,31.868000000000002,M,201.3,1010*66,43.46264579235,141.80519577214994,565135.7469576173,4812507.754419988
1094,[2021-01-29 10:49:49.958] $GNGGA,14948.4,4327.758747314,N,14148.311745821002,E,4,10,1.06,115.046,M,31.868000000000002,M,201.4,1010*63,43.46264578856667,141.80519576368337,565135.7462767804,4812507.753993198
1095,[2021-01-29 10:49:50.067] $GNGGA,14948.5,4327.758747583,N,14148.311745326999,E,4,10,1.06,115.04299999999999,M,31.868000000000002,M,201.5,1010*63,43.462645793049994,141.80519575544997,565135.7456059282,4812507.754484667
1096,[2021-01-29 10:49:50.161] $GNGGA,14948.6,4327.758746889001,N,14148.311744248,E,4,10,1.06,115.04299999999999,M,31.868000000000002,M,201.6,1010*6C,43.46264578148334,141.80519573746665,565135.7441635941,4812507.753186034
1097,[2021-01-29 10:49:50.271] $GNGGA,14948.7,4327.758747226,N,14148.311742551,E,4,10,1.06,115.045,M,31.868000000000002,M,201.7,1010*6D,43.4626457871,141.80519570918335,565135.7418695977,4812507.75378769
1098,[2021-01-29 10:49:50.365] $GNGGA,14948.8,4327.758746306,N,14148.311743399,E,4,10,1.06,115.04700000000001,M,31.868000000000002,M,201.8,1010*6E,43.46264577176667,141.80519572331667,565135.7430293695,4812507.752095855
1099,[2021-01-29 10:49:50.459] $GNGGA,14948.9,4327.758746523,N,14148.311741925,E,4,10,1.06,115.045,M,31.868000000000002,M,201.9,1010*62,43.46264577538333,141.80519569875,565135.7410381748,4812507.7524783015
1100,[2021-01-29 10:49:50.568] $GNGGA,14949.0,4327.7587461309995,N,14148.311741303998,E,4,10,1.06,115.04899999999999,M,31.868000000000002,M,202.0,1010*62,43.46264576884999,141.80519568839998,565135.7402079297,4812507.751744628
1101,[2021-01-29 10:49:50.662] $GNGGA,14949.1,4327.758745714,N,14148.311742282,E,4,10,1.06,115.052,M,31.868000000000002,M,202.1,1010*66,43.4626457619,141.80519570469997,565135.7415339726,4812507.750985525
1102,[2021-01-29 10:49:50.771] $GNGGA,14949.2,4327.758746482,N,14148.311741101,E,4,10,1.06,115.046,M,31.868000000000002,M,202.2,1010*67,43.4626457747,141.80519568501666,565135.7399279564,4812507.752391673
1103,[2021-01-29 10:49:50.865] $GNGGA,14949.3,4327.758746204,N,14148.311740239,E,4,10,1.06,115.045,M,31.868000000000002,M,202.3,1010*65,43.46264577006667,141.80519567065002,565135.7387707473,4812507.751865868
1104,[2021-01-29 10:49:50.959] $GNGGA,14949.4,4327.7587444420005,N,14148.311738911001,E,4,10,1.06,115.04799999999999,M,31.868000000000002,M,202.4,1010*60,43.46264574070001,141.8051956485167,565135.7370118109,4812507.7485871585
1105,[2021-01-29 10:49:51.068] $GNGGA,14949.5,4327.7587453609995,N,14148.311738818998,E,4,10,1.06,115.04700000000001,M,31.868000000000002,M,202.5,1010*61,43.46264575601666,141.8051956469833,565135.7368713215,4812507.750286995
1106,[2021-01-29 10:49:51.162] $GNGGA,14949.6,4327.758744397001,N,14148.311738591,E,4,10,1.06,115.04799999999999,M,31.868000000000002,M,202.6,1010*6B,43.46264573995001,141.80519564318337,565135.7365811784,4812507.748499694
1107,[2021-01-29 10:49:51.266] $GNGGA,14949.7,4327.758745325999,N,14148.311737977,E,4,10,1.06,115.051,M,31.868000000000002,M,202.7,1010*63,43.46264575543333,141.80519563295,565135.73573673,4812507.750211236
1108,[2021-01-29 10:49:51.367] $GNGGA,14949.8,4327.758744754,N,14148.311738531002,E,4,10,1.06,115.04700000000001,M,31.868000000000002,M,202.8,1010*65,43.4626457459,141.80519564218335,565135.7364938941,4812507.749159705
1109,[2021-01-29 10:49:51.461] $GNGGA,14949.9,4327.758744125,N,14148.311738375,E,4,10,1.06,115.05,M,31.868000000000002,M,202.9,1010*65,43.462645735416665,141.80519563958333,565135.7362948227,4812507.747993414
