,Format,Time,Latitude,LatType,Longitude,LonType,Status,Satellite,LevelAccuracy,Altitude(sea),M(sea),Altitude(geoid),M(geoid),DGPS use,checksum,Lat,Lon,UTM_X,UTM_Y
1119,[2021-01-29 10:51:10.564] $GNGGA,15109.0,4327.758509,N,14148.31169,E,4,11,1.02,113.465,M,31.868000000000002,M,7.0,1010*6B,43.46264181666667,141.80519483333333,565135.6752809954,4812507.312154643
1120,[2021-01-29 10:51:10.658] $GNGGA,15109.1,4327.758509,N,14148.31169,E,4,11,1.02,113.465,M,31.868000000000002,M,2.1,1010*62,43.46264181666667,141.80519483333333,565135.6752809954,4812507.312154643
1121,[2021-01-29 10:51:10.767] $GNGGA,15109.2,4327.758509,N,14148.31169,E,4,11,1.02,113.46799999999999,M,31.868000000000002,M,2.2,1010*64,43.46264181666667,141.80519483333333,565135.6752809954,4812507.312154643
1122,[2021-01-29 10:51:10.861] $GNGGA,15109.3,4327.758509,N,14148.31169,E,4,11,1.02,113.473,M,31.868000000000002,M,2.3,1010*68,43.46264181666667,141.80519483333333,565135.6752809954,4812507.312154643
1123,[2021-01-29 10:51:10.970] $GNGGA,15109.4,4327.758510000001,N,14148.31169,E,4,11,1.02,113.473,M,31.868000000000002,M,2.4,1010*6E,43.462641833333336,141.80519483333333,565135.6752631009,4812507.31400561
1124,[2021-01-29 10:51:11.064] $GNGGA,15109.5,4327.758508,N,14148.31169,E,4,11,1.02,113.48299999999999,M,31.868000000000002,M,2.5,1010*68,43.4626418,141.80519483333333,565135.6752988899,4812507.310303678
1125,[2021-01-29 10:51:11.158] $GNGGA,15109.6,4327.758508,N,14148.31169,E,4,11,1.02,113.486,M,31.868000000000002,M,2.6,1010*69,43.4626418,141.80519483333333,565135.6752988899,4812507.310303678
1126,[2021-01-29 10:51:11.269] $GNGGA,15109.7,4327.758509,N,14148.31169,E,4,11,1.02,113.48700000000001,M,31.868000000000002,M,2.7,1010*6F,43.46264181666667,141.80519483333333,565135.6752809954,4812507.312154643
1127,[2021-01-29 10:51:11.363] $GNGGA,15109.8,4327.758509,N,14148.31169,E,4,11,1.02,113.486,M,31.868000000000002,M,2.8,1010*6B,43.46264181666667,141.80519483333333,565135.6752809954,4812507.312154643
1128,[2021-01-29 10:51:11.472] $GNGGA,15109.9,4327.758510000001,N,14148.31169,E,4,11,1.02,113.485,M,31.868000000000002,M,2.9,1010*63,43.462641833333336,141.80519483333333,565135.6752631009,4812507.31400561
1129,[2021-01-29 10:51:11.566] $GNGGA,15110.0,4327.758509,N,14148.31169,E,4,11,1.02,113.48,M,31.868000000000002,M,3.0,1010*61,43.46264181666667,141.80519483333333,565135.6752809954,4812507.312154643
1130,[2021-01-29 10:51:11.659] $GNGGA,15110.1,4327.758509,N,14148.31169,E,4,11,1.02,113.477,M,31.868000000000002,M,3.1,1010*6B,43.46264181666667,141.80519483333333,565135.6752809954,4812507.312154643
1131,[2021-01-29 10:51:11.769] $GNGGA,15110.2,4327.758509,N,14148.31169,E,4,11,1.02,113.478,M,31.868000000000002,M,3.2,1010*66,43.46264181666667,141.80519483333333,565135.6752809954,4812507.312154643
1132,[2021-01-29 10:51:11.863] $GNGGA,15110.3,4327.758509,N,14148.31169,E,4,11,1.02,113.476,M,31.868000000000002,M,3.3,1010*65,43.46264181666667,141.80519483333333,565135.6752809954,4812507.312154643
1133,[2021-01-29 10:51:11.956] $GNGGA,15110.4,4327.758509,N,14148.31169,E,4,11,1.02,113.478,M,31.868000000000002,M,3.4,1010*6E,43.46264181666667,141.80519483333333,565135.6752809954,4812507.312154643
1134,[2021-01-29 10:51:12.066] $GNGGA,15110.5,4327.758509,N,14148.31169,E,4,11,1.02,113.47399999999999,M,31.868000000000002,M,3.5,1010*65,43.46264181666667,141.80519483333333,565135.6752809954,4812507.312154643
1135,[2021-01-29 10:51:12.159] $GNGGA,15110.6,4327.758509,N,14148.31169,E,4,11,1.02,113.47200000000001,M,31.868000000000002,M,3.6,1010*65,43.46264181666667,141.80519483333333,565135.6752809954,4812507.312154643
1136,[2021-01-29 10:51:12.271] $GNGGA,15110.7,4327.758510000001,N,14148.31169,E,4,11,1.02,113.47200000000001,M,31.868000000000002,M,3.7,1010*60,43.462641833333336,141.80519483333333,565135.6752631009,4812507.31400561
1137,[2021-01-29 10:51:12.364] $GNGGA,15110.8,4327.758510000001,N,14148.31169,E,4,11,1.02,113.47200000000001,M,31.868000000000002,M,3.8,1010*66,43.462641833333336,141.80519483333333,565135.6752631009,4812507.31400561
1138,[2021-01-29 10:51:12.458] $GNGGA,15110.9,4327.758508,N,14148.31169,E,4,11,1.02,113.48,M,31.868000000000002,M,3.9,1010*6B,43.4626418,141.80519483333333,565135.6752988899,4812507.310303678
1139,[2021-01-29 10:51:12.568] $GNGGA,15111.0,4327.758508,N,14148.31169,E,4,11,1.02,113.478,M,31.868000000000002,M,4.0,1010*64,43.4626418,141.80519483333333,565135.6752988899,4812507.310303678
1140,[2021-01-29 10:51:12.661] $GNGGA,15111.1,4327.758509,N,14148.31169,E,4,11,1.02,113.479,M,31.868000000000002,M,4.1,1010*67,43.46264181666667,141.80519483333333,565135.6752809954,4812507.312154643
1141,[2021-01-29 10:51:12.771] $GNGGA,15111.2,4327.758508,N,14148.31169,E,4,11,1.02,113.479,M,31.868000000000002,M,4.2,1010*6A,43.4626418,141.80519483333333,565135.6752988899,4812507.310303678
1142,[2021-01-29 10:51:12.864] $GNGGA,15111.3,4327.758508,N,14148.31169,E,4,11,1.02,113.48200000000001,M,31.868000000000002,M,4.3,1010*6E,43.4626418,141.80519483333333,565135.6752988899,4812507.310303678
1143,[2021-01-29 10:51:12.958] $GNGGA,15111.4,4327.758508,N,14148.31169,E,4,11,1.02,113.479,M,31.868000000000002,M,4.4,1010*6E,43.4626418,141.80519483333333,565135.6752988899,4812507.310303678
1144,[2021-01-29 10:51:13.068] $GNGGA,15111.5,4327.758509,N,14148.31169,E,4,11,1.02,113.479,M,31.868000000000002,M,4.5,1010*60,43.46264181666667,141.80519483333333,565135.6752809954,4812507.312154643
1145,[2021-01-29 10:51:13.161] $GNGGA,15111.6,4327.758509,N,14148.31169,E,4,11,1.02,113.479,M,31.868000000000002,M,4.6,1010*6E,43.46264181666667,141.80519483333333,565135.6752809954,4812507.312154643
1146,[2021-01-29 10:51:13.265] $GNGGA,15111.7,4327.758509,N,14148.31169,E,4,11,1.02,113.47399999999999,M,31.868000000000002,M,4.7,1010*6A,43.46264181666667,141.80519483333333,565135.6752809954,4812507.312154643
1147,[2021-01-29 10:51:13.366] $GNGGA,15111.8,4327.758508,N,14148.31169,E,4,11,1.02,113.477,M,31.868000000000002,M,4.8,1010*6F,43.4626418,141.80519483333333,565135.6752988899,4812507.310303678
1148,[2021-01-29 10:51:13.460] $GNGGA,15111.9,4327.758508,N,14148.31169,E,4,11,1.02,113.48,M,31.868000000000002,M,4.9,1010*6E,43.4626418,141.80519483333333,565135.6752988899,4812507.310303678
1149,[2021-01-29 10:51:13.569] $GNGGA,15112.0,4327.758509,N,14148.31169,E,4,11,1.02,113.478,M,31.868000000000002,M,5.0,1010*67,43.46264181666667,141.80519483333333,565135.6752809954,4812507.312154643
1150,[2021-01-29 10:51:13.663] $GNGGA,15112.1,4327.758509,N,14148.31169,E,4,11,1.02,113.476,M,31.868000000000002,M,5.1,1010*69,43.46264181666667,141.80519483333333,565135.6752809954,4812507.312154643
1151,[2021-01-29 10:51:13.757] $GNGGA,15112.2,4327.758508,N,14148.31169,E,4,11,1.02,113.47399999999999,M,31.868000000000002,M,5.2,1010*6D,43.4626418,141.80519483333333,565135.6752988899,4812507.310303678
1152,[2021-01-29 10:51:13.866] $GNGGA,15112.3,4327.758509,N,14148.31169,E,4,11,1.02,113.47399999999999,M,31.868000000000002,M,5.3,1010*6D,43.46264181666667,141.80519483333333,565135.6752809954,4812507.312154643
1153,[2021-01-29 10:51:13.960] $GNGGA,15112.4,4327.758509,N,14148.31169,E,4,11,1.02,113.473,M,31.868000000000002,M,5.4,1010*64,43.46264181666667,141.80519483333333,565135.6752809954,4812507.312154643
1154,[2021-01-29 10:51:14.069] $GNGGA,15112.5,4327.758509,N,14148.31169,E,4,11,1.02,113.46700000000001,M,31.868000000000002,M,5.5,1010*6C,43.46264181666667,141.80519483333333,565135.6752809954,4812507.312154643
1155,[2021-01-29 10:51:14.163] $GNGGA,15112.6,4327.758508,N,14148.31169,E,4,11,1.02,113.477,M,31.868000000000002,M,5.6,1010*67,43.4626418,141.80519483333333,565135.6752988899,4812507.310303678
1156,[2021-01-29 10:51:14.267] $GNGGA,15112.7,4327.758508,N,14148.31169,E,4,11,1.02,113.476,M,31.868000000000002,M,5.7,1010*69,43.4626418,141.80519483333333,565135.6752988899,4812507.310303678
1157,[2021-01-29 10:51:14.368] $GNGGA,15112.8,4327.758509,N,14148.31169,E,4,11,1.02,113.477,M,31.868000000000002,M,5.8,1010*68,43.46264181666667,141.80519483333333,565135.6752809954,4812507.312154643
1158,[2021-01-29 10:51:14.461] $GNGGA,15112.9,4327.758509,N,14148.31169,E,4,11,1.02,113.479,M,31.868000000000002,M,5.9,1010*6A,43.46264181666667,141.80519483333333,565135.6752809954,4812507.312154643
1159,[2021-01-29 10:51:14.571] $GNGGA,15113.0,4327.758509,N,14148.31169,E,4,11,1.02,113.488,M,31.868000000000002,M,6.0,1010*61,43.46264181666667,141.80519483333333,565135.6752809954,4812507.312154643
1160,[2021-01-29 10:51:14.665] $GNGGA,15113.1,4327.758510000001,N,14148.31169,E,4,11,1.02,113.48100000000001,M,31.868000000000002,M,6.1,1010*6B,43.462641833333336,141.80519483333333,565135.6752631009,4812507.31400561
1161,[2021-01-29 10:51:14.758] $GNGGA,15113.2,4327.758509,N,14148.31169,E,4,11,1.02,113.48700000000001,M,31.868000000000002,M,6.2,1010*6B,43.46264181666667,141.80519483333333,565135.6752809954,4812507.312154643
1162,[2021-01-29 10:51:14.868] $GNGGA,15113.3,4327.758511,N,14148.31169,E,4,11,1.02,113.476,M,31.868000000000002,M,6.3,1010*6B,43.46264185,141.80519483333333,565135.6752452065,4812507.315856574
1163,[2021-01-29 10:51:14.961] $GNGGA,15113.4,4327.758509,N,14148.31169,E,4,11,1.02,113.48,M,31.868000000000002,M,6.4,1010*6B,43.46264181666667,141.80519483333333,565135.6752809954,4812507.312154643
1164,[2021-01-29 10:51:15.071] $GNGGA,15113.5,4327.758509,N,14148.31169,E,4,11,1.02,113.48100000000001,M,31.868000000000002,M,6.5,1010*6E,43.46264181666667,141.80519483333333,565135.6752809954,4812507.312154643
1165,[2021-01-29 10:51:15.165] $GNGGA,15113.6,4327.758508,N,14148.31169,E,4,11,1.02,113.48,M,31.868000000000002,M,6.6,1010*67,43.4626418,141.80519483333333,565135.6752988899,4812507.310303678
1166,[2021-01-29 10:51:15.268] $GNGGA,15113.7,4327.758508,N,14148.31169,E,4,11,1.02,113.484,M,31.868000000000002,M,6.7,1010*66,43.4626418,141.80519483333333,565135.6752988899,4812507.310303678
1167,[2021-01-29 10:51:15.369] $GNGGA,15113.8,4327.758509,N,14148.31169,E,4,11,1.02,113.48,M,31.868000000000002,M,6.8,1010*62,43.46264181666667,141.80519483333333,565135.6752809954,4812507.312154643
1168,[2021-01-29 10:51:15.463] $GNGGA,15113.9,4327.758509,N,14148.31169,E,4,11,1.02,113.479,M,31.868000000000002,M,6.9,1010*60,43.46264181666667,141.80519483333333,565135.6752809954,4812507.312154643
1169,[2021-01-29 10:51:15.557] $GNGGA,15114.0,4327.758508,N,14148.31169,E,4,11,1.02,113.48200000000001,M,31.868000000000002,M,7.0,1010*64,43.4626418,141.80519483333333,565135.6752988899,4812507.310303678
1170,[2021-01-29 10:51:15.666] $GNGGA,15114.1,4327.758509,N,14148.31169,E,4,11,1.02,113.478,M,31.868000000000002,M,7.1,1010*69,43.46264181666667,141.80519483333333,565135.6752809954,4812507.312154643
1171,[2021-01-29 10:51:15.760] $GNGGA,15114.2,4327.758508,N,14148.31169,E,4,11,1.02,113.48100000000001,M,31.868000000000002,M,7.2,1010*64,43.4626418,141.80519483333333,565135.6752988899,4812507.310303678
1172,[2021-01-29 10:51:15.869] $GNGGA,15114.3,4327.758509,N,14148.31169,E,4,11,1.02,113.48,M,31.868000000000002,M,7.3,1010*60,43.46264181666667,141.80519483333333,565135.6752809954,4812507.312154643
1173,[2021-01-29 10:51:15.963] $GNGGA,15114.4,4327.758509,N,14148.31169,E,4,11,1.02,113.48100000000001,M,31.868000000000002,M,7.4,1010*61,43.46264181666667,141.80519483333333,565135.6752809954,4812507.312154643
1174,[2021-01-29 10:51:16.057] $GNGGA,15114.5,4327.7585070000005,N,14148.31169,E,4,11,1.02,113.486,M,31.868000000000002,M,7.5,1010*62,43.462641783333346,141.80519483333333,565135.6753167843,4812507.308452714
1175,[2021-01-29 10:51:16.166] $GNGGA,15114.6,4327.758508,N,14148.31169,E,4,11,1.02,113.48100000000001,M,31.868000000000002,M,7.6,1010*6A,43.4626418,141.80519483333333,565135.6752988899,4812507.310303678
1176,[2021-01-29 10:51:16.270] $GNGGA,15114.7,4327.758509,N,14148.31169,E,4,11,1.02,113.478,M,31.868000000000002,M,7.7,1010*6A,43.46264181666667,141.80519483333333,565135.6752809954,4812507.312154643
1177,[2021-01-29 10:51:16.371] $GNGGA,15114.8,4327.758509,N,14148.31169,E,4,11,1.02,113.48200000000001,M,31.868000000000002,M,7.8,1010*65,43.46264181666667,141.80519483333333,565135.6752809954,4812507.312154643
1178,[2021-01-29 10:51:16.465] $GNGGA,15114.9,4327.758510000001,N,14148.31169,E,4,11,1.02,113.48100000000001,M,31.868000000000002,M,7.9,1010*6F,43.462641833333336,141.80519483333333,565135.6752631009,4812507.31400561
1179,[2021-01-29 10:51:16.558] $GNGGA,15115.0,4327.758510000001,N,14148.31169,E,4,11,1.02,113.48,M,31.868000000000002,M,8.0,1010*6C,43.462641833333336,141.80519483333333,565135.6752631009,4812507.31400561
1180,[2021-01-29 10:51:16.668] $GNGGA,15115.1,4327.758511,N,14148.31169,E,4,11,1.02,113.48,M,31.868000000000002,M,3.1,1010*6B,43.46264185,141.80519483333333,565135.6752452065,4812507.315856574
1181,[2021-01-29 10:51:16.761] $GNGGA,15115.2,4327.758509,N,14148.31169,E,4,11,1.02,113.48100000000001,M,31.868000000000002,M,3.2,1010*6F,43.46264181666667,141.80519483333333,565135.6752809954,4812507.312154643
1182,[2021-01-29 10:51:16.871] $GNGGA,15115.3,4327.758509,N,14148.31169,E,4,11,1.02,113.48899999999999,M,31.868000000000002,M,3.3,1010*6F,43.46264181666667,141.80519483333333,565135.6752809954,4812507.312154643
1183,[2021-01-29 10:51:16.964] $GNGGA,15115.4,4327.758510000001,N,14148.31169,E,4,11,1.02,113.48299999999999,M,31.868000000000002,M,3.4,1010*6C,43.462641833333336,141.80519483333333,565135.6752631009,4812507.31400561
1184,[2021-01-29 10:51:17.058] $GNGGA,15115.5,4327.758510000001,N,14148.31169,E,4,11,1.02,113.48299999999999,M,31.868000000000002,M,3.5,1010*60,43.462641833333336,141.80519483333333,565135.6752631009,4812507.31400561
1185,[2021-01-29 10:51:17.168] $GNGGA,15115.6,4327.758508,N,14148.31169,E,4,11,1.02,113.485,M,31.868000000000002,M,3.6,1010*6A,43.4626418,141.80519483333333,565135.6752988899,4812507.310303678
1186,[2021-01-29 10:51:17.270] $GNGGA,15115.7,4327.758510000001,N,14148.31169,E,4,11,1.02,113.48100000000001,M,31.868000000000002,M,3.7,1010*65,43.462641833333336,141.80519483333333,565135.6752631009,4812507.31400561
1187,[2021-01-29 10:51:17.357] $GNGGA,15115.8,4327.758510000001,N,14148.31169,E,4,11,1.02,113.478,M,31.868000000000002,M,3.8,1010*6E,43.462641833333336,141.80519483333333,565135.6752631009,4812507.31400561
1188,[2021-01-29 10:51:17.466] $GNGGA,15115.9,4327.758510000001,N,14148.31169,E,4,11,1.02,113.48100000000001,M,31.868000000000002,M,3.9,1010*65,43.462641833333336,141.80519483333333,565135.6752631009,4812507.31400561
1189,[2021-01-29 10:51:17.560] $GNGGA,15116.0,4327.758509,N,14148.31169,E,4,11,1.02,113.48,M,31.868000000000002,M,4.0,1010*61,43.46264181666667,141.80519483333333,565135.6752809954,4812507.312154643
1190,[2021-01-29 10:51:17.669] $GNGGA,15116.1,4327.758509,N,14148.31169,E,4,11,1.02,113.48,M,31.868000000000002,M,4.1,1010*6C,43.46264181666667,141.80519483333333,565135.6752809954,4812507.312154643
1191,[2021-01-29 10:51:17.763] $GNGGA,15116.2,4327.758510000001,N,14148.31169,E,4,11,1.02,113.478,M,31.868000000000002,M,4.2,1010*69,43.462641833333336,141.80519483333333,565135.6752631009,4812507.31400561
1192,[2021-01-29 10:51:17.857] $GNGGA,15116.3,4327.758511,N,14148.31169,E,4,11,1.02,113.473,M,31.868000000000002,M,4.3,1010*63,43.46264185,141.80519483333333,565135.6752452065,4812507.315856574
1193,[2021-01-29 10:51:17.966] $GNGGA,15116.4,4327.758511,N,14148.31169,E,4,11,1.02,113.478,M,31.868000000000002,M,4.4,1010*65,43.46264185,141.80519483333333,565135.6752452065,4812507.315856574
1194,[2021-01-29 10:51:18.060] $GNGGA,15116.5,4327.758511,N,14148.31169,E,4,11,1.02,113.475,M,31.868000000000002,M,4.5,1010*60,43.46264185,141.80519483333333,565135.6752452065,4812507.315856574
1195,[2021-01-29 10:51:18.169] $GNGGA,15116.6,4327.758511,N,14148.31169,E,4,11,1.02,113.47399999999999,M,31.868000000000002,M,4.6,1010*6A,43.46264185,141.80519483333333,565135.6752452065,4812507.315856574
1196,[2021-01-29 10:51:18.263] $GNGGA,15116.7,4327.758511,N,14148.31169,E,4,11,1.02,113.48,M,31.868000000000002,M,4.7,1010*68,43.46264185,141.80519483333333,565135.6752452065,4812507.315856574
1197,[2021-01-29 10:51:18.357] $GNGGA,15116.8,4327.758511999999,N,14148.31169,E,4,11,1.02,113.477,M,31.868000000000002,M,4.8,1010*65,43.462641866666665,141.80519483333333,565135.6752273119,4812507.317707539
1198,[2021-01-29 10:51:18.467] $GNGGA,15116.9,4327.758511,N,14148.31169,E,4,11,1.02,113.478,M,31.868000000000002,M,4.9,1010*66,43.46264185,141.80519483333333,565135.6752452065,4812507.315856574
1199,[2021-01-29 10:51:18.560] $GNGGA,15117.0,4327.758511,N,14148.31169,E,4,11,1.02,113.479,M,31.868000000000002,M,5.0,1010*6A,43.46264185,141.80519483333333,565135.6752452065,4812507.315856574
1200,[2021-01-29 10:51:18.670] $GNGGA,15117.1,4327.758511,N,14148.31169,E,4,11,1.02,113.478,M,31.868000000000002,M,5.1,1010*66,43.46264185,141.80519483333333,565135.6752452065,4812507.315856574
1201,[2021-01-29 10:51:18.763] $GNGGA,15117.2,4327.758510000001,N,14148.31169,E,4,11,1.02,113.48,M,31.868000000000002,M,5.2,1010*68,43.462641833333336,141.80519483333333,565135.6752631009,4812507.31400561
1202,[2021-01-29 10:51:18.857] $GNGGA,15117.3,4327.758510000001,N,14148.3117,E,4,11,1.02,113.477,M,31.868000000000002,M,5.3,1010*6D,43.462641833333336,141.805195,565135.6887455338,4812507.314135953
1203,[2021-01-29 10:51:18.966] $GNGGA,15117.4,4327.758511,N,14148.3117,E,4,11,1.02,113.476,M,31.868000000000002,M,5.4,1010*6F,43.46264185,141.805195,565135.6887276393,4812507.315986917
1204,[2021-01-29 10:51:19.060] $GNGGA,15117.5,4327.758511,N,14148.31169,E,4,11,1.02,113.478,M,31.868000000000002,M,5.5,1010*6D,43.46264185,141.80519483333333,565135.6752452065,4812507.315856574
1205,[2021-01-29 10:51:19.170] $GNGGA,15117.6,4327.758510000001,N,14148.31169,E,4,11,1.02,113.48200000000001,M,31.868000000000002,M,5.6,1010*6F,43.462641833333336,141.80519483333333,565135.6752631009,4812507.31400561
1206,[2021-01-29 10:51:19.265] $GNGGA,15117.7,4327.758511,N,14148.3117,E,4,11,1.02,113.478,M,31.868000000000002,M,5.7,1010*69,43.46264185,141.805195,565135.6887276393,4812507.315986917
1207,[2021-01-29 10:51:19.359] $GNGGA,15117.8,4327.758511,N,14148.31169,E,4,11,1.02,113.479,M,31.868000000000002,M,5.8,1010*6E,43.46264185,141.80519483333333,565135.6752452065,4812507.315856574
1208,[2021-01-29 10:51:19.468] $GNGGA,15117.9,4327.758511,N,14148.31169,E,4,11,1.02,113.484,M,31.868000000000002,M,5.9,1010*6F,43.46264185,141.80519483333333,565135.6752452065,4812507.315856574
1209,[2021-01-29 10:51:19.562] $GNGGA,15118.0,4327.758509,N,14148.31169,E,4,11,1.02,113.485,M,31.868000000000002,M,6.0,1010*63,43.46264181666667,141.80519483333333,565135.6752809954,4812507.312154643
1210,[2021-01-29 10:51:19.671] $GNGGA,15118.1,4327.758508,N,14148.31169,E,4,11,1.02,113.486,M,31.868000000000002,M,6.1,1010*69,43.4626418,141.80519483333333,565135.6752988899,4812507.310303678
1211,[2021-01-29 10:51:19.765] $GNGGA,15118.2,4327.758510000001,N,14148.31169,E,4,11,1.02,113.48,M,31.868000000000002,M,6.2,1010*6F,43.462641833333336,141.80519483333333,565135.6752631009,4812507.31400561
1212,[2021-01-29 10:51:19.859] $GNGGA,15118.3,4327.758510000001,N,14148.31169,E,4,11,1.02,113.48299999999999,M,31.868000000000002,M,6.3,1010*6E,43.462641833333336,141.80519483333333,565135.6752631009,4812507.31400561
1213,[2021-01-29 10:51:19.968] $GNGGA,15118.4,4327.758508,N,14148.31169,E,4,11,1.02,113.491,M,31.868000000000002,M,6.4,1010*6B,43.4626418,141.80519483333333,565135.6752988899,4812507.310303678
1214,[2021-01-29 10:51:20.062] $GNGGA,15118.5,4327.758508,N,14148.31169,E,4,11,1.02,113.49,M,31.868000000000002,M,6.5,1010*64,43.4626418,141.80519483333333,565135.6752988899,4812507.310303678
1215,[2021-01-29 10:51:20.171] $GNGGA,15118.6,4327.758508,N,14148.31169,E,4,11,1.02,113.495,M,31.868000000000002,M,6.6,1010*62,43.4626418,141.80519483333333,565135.6752988899,4812507.310303678
1216,[2021-01-29 10:51:20.267] $GNGGA,15118.7,4327.758508,N,14148.31169,E,4,11,1.02,113.48899999999999,M,31.868000000000002,M,6.7,1010*64,43.4626418,141.80519483333333,565135.6752988899,4812507.310303678
1217,[2021-01-29 10:51:20.360] $GNGGA,15118.8,4327.758508,N,14148.31169,E,4,11,1.02,113.492,M,31.868000000000002,M,6.8,1010*6C,43.4626418,141.80519483333333,565135.6752988899,4812507.310303678
1218,[2021-01-29 10:51:20.470] $GNGGA,15118.9,4327.758508,N,14148.31169,E,4,11,1.02,113.494,M,31.868000000000002,M,6.9,1010*68,43.4626418,141.80519483333333,565135.6752988899,4812507.310303678
1219,[2021-01-29 10:51:20.563] $GNGGA,15119.0,4327.758508,N,14148.31169,E,4,11,1.02,113.491,M,31.868000000000002,M,7.0,1010*6B,43.4626418,141.80519483333333,565135.6752988899,4812507.310303678
1220,[2021-01-29 10:51:20.657] $GNGGA,15119.1,4327.758508,N,14148.31169,E,4,11,1.02,113.48899999999999,M,31.868000000000002,M,2.1,1010*6E,43.4626418,141.80519483333333,565135.6752988899,4812507.310303678
1221,[2021-01-29 10:51:20.766] $GNGGA,15119.2,4327.7585070000005,N,14148.31169,E,4,11,1.02,113.492,M,31.868000000000002,M,2.2,1010*6E,43.462641783333346,141.80519483333333,565135.6753167843,4812507.308452714
1222,[2021-01-29 10:51:20.860] $GNGGA,15119.3,4327.7585070000005,N,14148.31169,E,4,11,1.02,113.492,M,31.868000000000002,M,2.3,1010*61,43.462641783333346,141.80519483333333,565135.6753167843,4812507.308452714
1223,[2021-01-29 10:51:20.970] $GNGGA,15119.4,4327.758506,N,14148.31169,E,4,11,1.02,113.48700000000001,M,31.868000000000002,M,2.4,1010*65,43.462641766666664,141.80519483333333,565135.6753346788,4812507.306601748
1224,[2021-01-29 10:51:21.063] $GNGGA,15119.5,4327.758506,N,14148.31169,E,4,11,1.02,113.493,M,31.868000000000002,M,2.5,1010*61,43.462641766666664,141.80519483333333,565135.6753346788,4812507.306601748
1225,[2021-01-29 10:51:21.157] $GNGGA,15119.6,4327.758508,N,14148.31169,E,4,11,1.02,113.488,M,31.868000000000002,M,2.6,1010*69,43.4626418,141.80519483333333,565135.6752988899,4812507.310303678
1226,[2021-01-29 10:51:21.268] $GNGGA,15119.7,4327.7585070000005,N,14148.31169,E,4,11,1.02,113.49,M,31.868000000000002,M,2.7,1010*6C,43.462641783333346,141.80519483333333,565135.6753167843,4812507.308452714
1227,[2021-01-29 10:51:21.362] $GNGGA,15119.8,4327.758506,N,14148.31169,E,4,11,1.02,113.493,M,31.868000000000002,M,2.8,1010*6D,43.462641766666664,141.80519483333333,565135.6753346788,4812507.306601748
1228,[2021-01-29 10:51:21.456] $GNGGA,15119.9,4327.7585070000005,N,14148.31169,E,4,11,1.02,113.488,M,31.868000000000002,M,2.9,1010*6A,43.462641783333346,141.80519483333333,565135.6753167843,4812507.308452714
1229,[2021-01-29 10:51:21.565] $GNGGA,15120.0,4327.758506,N,14148.31169,E,4,11,1.02,113.491,M,31.868000000000002,M,3.0,1010*63,43.462641766666664,141.80519483333333,565135.6753346788,4812507.306601748
1230,[2021-01-29 10:51:21.659] $GNGGA,15120.1,4327.758506,N,14148.31169,E,4,11,1.02,113.488,M,31.868000000000002,M,3.1,1010*61,43.462641766666664,141.80519483333333,565135.6753346788,4812507.306601748
1231,[2021-01-29 10:51:21.768] $GNGGA,15120.2,4327.758504,N,14148.31169,E,4,11,1.02,113.494,M,31.868000000000002,M,3.2,1010*69,43.46264173333334,141.80519483333333,565135.6753704677,4812507.302899818
1232,[2021-01-29 10:51:21.862] $GNGGA,15120.3,4327.758505,N,14148.31169,E,4,11,1.02,113.48899999999999,M,31.868000000000002,M,3.3,1010*65,43.462641749999996,141.80519483333333,565135.6753525733,4812507.3047507815
1233,[2021-01-29 10:51:21.956] $GNGGA,15120.4,4327.758505,N,14148.31169,E,4,11,1.02,113.491,M,31.868000000000002,M,3.4,1010*64,43.462641749999996,141.80519483333333,565135.6753525733,4812507.3047507815
1234,[2021-01-29 10:51:22.065] $GNGGA,15120.5,4327.758505,N,14148.31169,E,4,11,1.02,113.488,M,31.868000000000002,M,3.5,1010*6E,43.462641749999996,141.80519483333333,565135.6753525733,4812507.3047507815
1235,[2021-01-29 10:51:22.159] $GNGGA,15120.6,4327.758505,N,14148.31169,E,4,11,1.02,113.49600000000001,M,31.868000000000002,M,3.6,1010*6F,43.462641749999996,141.80519483333333,565135.6753525733,4812507.3047507815
1236,[2021-01-29 10:51:22.271] $GNGGA,15120.7,4327.758505,N,14148.31169,E,4,11,1.02,113.493,M,31.868000000000002,M,3.7,1010*6C,43.462641749999996,141.80519483333333,565135.6753525733,4812507.3047507815
1237,[2021-01-29 10:51:22.364] $GNGGA,15120.8,4327.758505,N,14148.31169,E,4,11,1.02,113.49600000000001,M,31.868000000000002,M,3.8,1010*66,43.462641749999996,141.80519483333333,565135.6753525733,4812507.3047507815
1238,[2021-01-29 10:51:22.458] $GNGGA,15120.9,4327.758506,N,14148.31169,E,4,11,1.02,113.49600000000001,M,31.868000000000002,M,3.9,1010*64,43.462641766666664,141.80519483333333,565135.6753346788,4812507.306601748
1239,[2021-01-29 10:51:22.567] $GNGGA,15121.0,4327.758506,N,14148.31169,E,4,11,1.02,113.495,M,31.868000000000002,M,4.0,1010*61,43.462641766666664,141.80519483333333,565135.6753346788,4812507.306601748
1240,[2021-01-29 10:51:22.661] $GNGGA,15121.1,4327.758505,N,14148.31169,E,4,11,1.02,113.49799999999999,M,31.868000000000002,M,4.1,1010*67,43.462641749999996,141.80519483333333,565135.6753525733,4812507.3047507815
1241,[2021-01-29 10:51:22.771] $GNGGA,15121.2,4327.758504,N,14148.31169,E,4,11,1.02,113.499,M,31.868000000000002,M,4.2,1010*6A,43.46264173333334,141.80519483333333,565135.6753704677,4812507.302899818
1242,[2021-01-29 10:51:22.864] $GNGGA,15121.3,4327.758505,N,14148.31169,E,4,11,1.02,113.49799999999999,M,31.868000000000002,M,4.3,1010*6B,43.462641749999996,141.80519483333333,565135.6753525733,4812507.3047507815
1243,[2021-01-29 10:51:22.958] $GNGGA,15121.4,4327.758504,N,14148.31169,E,4,11,1.02,113.49600000000001,M,31.868000000000002,M,4.4,1010*6C,43.46264173333334,141.80519483333333,565135.6753704677,4812507.302899818
1244,[2021-01-29 10:51:23.067] $GNGGA,15121.5,4327.758505,N,14148.31169,E,4,11,1.02,113.492,M,31.868000000000002,M,4.5,1010*63,43.462641749999996,141.80519483333333,565135.6753525733,4812507.3047507815
1245,[2021-01-29 10:51:23.161] $GNGGA,15121.6,4327.758504,N,14148.31169,E,4,11,1.02,113.493,M,31.868000000000002,M,4.6,1010*6A,43.46264173333334,141.80519483333333,565135.6753704677,4812507.302899818
1246,[2021-01-29 10:51:23.271] $GNGGA,15121.7,4327.758505,N,14148.31169,E,4,11,1.02,113.491,M,31.868000000000002,M,4.7,1010*68,43.462641749999996,141.80519483333333,565135.6753525733,4812507.3047507815
1247,[2021-01-29 10:51:23.366] $GNGGA,15121.8,4327.758505,N,14148.31169,E,4,11,1.02,113.49,M,31.868000000000002,M,4.8,1010*66,43.462641749999996,141.80519483333333,565135.6753525733,4812507.3047507815
1248,[2021-01-29 10:51:23.460] $GNGGA,15121.9,4327.758505,N,14148.31169,E,4,11,1.02,113.485,M,31.868000000000002,M,4.9,1010*64,43.462641749999996,141.80519483333333,565135.6753525733,4812507.3047507815
1249,[2021-01-29 10:51:23.569] $GNGGA,15122.0,4327.758505,N,14148.31169,E,4,11,1.02,113.48899999999999,M,31.868000000000002,M,5.0,1010*61,43.462641749999996,141.80519483333333,565135.6753525733,4812507.3047507815
1250,[2021-01-29 10:51:23.663] $GNGGA,15122.1,4327.758505,N,14148.31169,E,4,11,1.02,113.49,M,31.868000000000002,M,5.1,1010*66,43.462641749999996,141.80519483333333,565135.6753525733,4812507.3047507815
1251,[2021-01-29 10:51:23.757] $GNGGA,15122.2,4327.758505,N,14148.31169,E,4,11,1.02,113.495,M,31.868000000000002,M,5.2,1010*69,43.462641749999996,141.80519483333333,565135.6753525733,4812507.3047507815
1252,[2021-01-29 10:51:23.866] $GNGGA,15122.3,4327.758505,N,14148.31169,E,4,11,1.02,113.49600000000001,M,31.868000000000002,M,5.3,1010*62,43.462641749999996,141.80519483333333,565135.6753525733,4812507.3047507815
1253,[2021-01-29 10:51:23.960] $GNGGA,15122.4,4327.758505,N,14148.31169,E,4,11,1.02,113.49700000000001,M,31.868000000000002,M,5.4,1010*6E,43.462641749999996,141.80519483333333,565135.6753525733,4812507.3047507815
1254,[2021-01-29 10:51:24.069] $GNGGA,15122.5,4327.758505,N,14148.31169,E,4,11,1.02,113.49799999999999,M,31.868000000000002,M,5.5,1010*6D,43.462641749999996,141.80519483333333,565135.6753525733,4812507.3047507815
1255,[2021-01-29 10:51:24.163] $GNGGA,15122.6,4327.758504,N,14148.31169,E,4,11,1.02,113.495,M,31.868000000000002,M,5.6,1010*68,43.46264173333334,141.80519483333333,565135.6753704677,4812507.302899818
1256,[2021-01-29 10:51:24.264] $GNGGA,15122.7,4327.758504,N,14148.31169,E,4,11,1.02,113.5,M,31.868000000000002,M,5.7,1010*6A,43.46264173333334,141.80519483333333,565135.6753704677,4812507.302899818
1257,[2021-01-29 10:51:24.367] $GNGGA,15122.8,4327.758504,N,14148.31169,E,4,11,1.02,113.5,M,31.868000000000002,M,5.8,1010*6C,43.46264173333334,141.80519483333333,565135.6753704677,4812507.302899818
1258,[2021-01-29 10:51:24.461] $GNGGA,15122.9,4327.758505,N,14148.31169,E,4,11,1.02,113.499,M,31.868000000000002,M,5.9,1010*6C,43.462641749999996,141.80519483333333,565135.6753525733,4812507.3047507815
1259,[2021-01-29 10:51:24.570] $GNGGA,15123.0,4327.758504,N,14148.31169,E,4,11,1.02,113.501,M,31.868000000000002,M,6.0,1010*6E,43.46264173333334,141.80519483333333,565135.6753704677,4812507.302899818
1260,[2021-01-29 10:51:24.664] $GNGGA,15123.1,4327.758503,N,14148.31169,E,4,11,1.02,113.501,M,31.868000000000002,M,6.1,1010*62,43.46264171666666,141.80519483333333,565135.6753883623,4812507.301048851
1261,[2021-01-29 10:51:24.758] $GNGGA,15123.2,4327.758504,N,14148.31169,E,4,11,1.02,113.49700000000001,M,31.868000000000002,M,6.2,1010*65,43.46264173333334,141.80519483333333,565135.6753704677,4812507.302899818
1262,[2021-01-29 10:51:24.867] $GNGGA,15123.3,4327.758505,N,14148.31169,E,4,11,1.02,113.49700000000001,M,31.868000000000002,M,6.3,1010*66,43.462641749999996,141.80519483333333,565135.6753525733,4812507.3047507815
1263,[2021-01-29 10:51:24.961] $GNGGA,15123.4,4327.758505,N,14148.31169,E,4,11,1.02,113.49600000000001,M,31.868000000000002,M,6.4,1010*6B,43.462641749999996,141.80519483333333,565135.6753525733,4812507.3047507815
1264,[2021-01-29 10:51:25.070] $GNGGA,15123.5,4327.758505,N,14148.31169,E,4,11,1.02,113.494,M,31.868000000000002,M,6.5,1010*6A,43.462641749999996,141.80519483333333,565135.6753525733,4812507.3047507815
1265,[2021-01-29 10:51:25.164] $GNGGA,15123.6,4327.758505,N,14148.31169,E,4,11,1.02,113.49700000000001,M,31.868000000000002,M,6.6,1010*69,43.462641749999996,141.80519483333333,565135.6753525733,4812507.3047507815
1266,[2021-01-29 10:51:25.266] $GNGGA,15123.7,4327.758504,N,14148.31169,E,4,11,1.02,113.493,M,31.868000000000002,M,6.7,1010*66,43.46264173333334,141.80519483333333,565135.6753704677,4812507.302899818
1267,[2021-01-29 10:51:25.369] $GNGGA,15123.8,4327.758503,N,14148.31169,E,4,11,1.02,113.494,M,31.868000000000002,M,6.8,1010*6F,43.46264171666666,141.80519483333333,565135.6753883623,4812507.301048851
1268,[2021-01-29 10:51:25.462] $GNGGA,15123.9,4327.758504,N,14148.31169,E,4,11,1.02,113.492,M,31.868000000000002,M,6.9,1010*61,43.46264173333334,141.80519483333333,565135.6753704677,4812507.302899818
1269,[2021-01-29 10:51:25.556] $GNGGA,15124.0,4327.758503,N,14148.31169,E,4,11,1.02,113.499,M,31.868000000000002,M,7.0,1010*69,43.46264171666666,141.80519483333333,565135.6753883623,4812507.301048851
1270,[2021-01-29 10:51:25.665] $GNGGA,15124.1,4327.758502000001,N,14148.31169,E,4,11,1.02,113.50299999999999,M,31.868000000000002,M,2.1,1010*6D,43.462641700000006,141.80519483333333,565135.6754062567,4812507.299197887
1271,[2021-01-29 10:51:25.759] $GNGGA,15124.2,4327.758502000001,N,14148.31169,E,4,11,1.02,113.5,M,31.868000000000002,M,2.2,1010*61,43.462641700000006,141.80519483333333,565135.6754062567,4812507.299197887
1272,[2021-01-29 10:51:25.868] $GNGGA,15124.3,4327.758500999999,N,14148.31169,E,4,11,1.02,113.50399999999999,M,31.868000000000002,M,2.3,1010*65,43.462641683333324,141.80519483333333,565135.6754241512,4812507.29734692
1273,[2021-01-29 10:51:25.962] $GNGGA,15124.4,4327.758500999999,N,14148.31169,E,4,11,1.02,113.509,M,31.868000000000002,M,2.4,1010*67,43.462641683333324,141.80519483333333,565135.6754241512,4812507.29734692
1274,[2021-01-29 10:51:26.056] $GNGGA,15124.5,4327.758500999999,N,14148.31169,E,4,11,1.02,113.507,M,31.868000000000002,M,2.5,1010*62,43.462641683333324,141.80519483333333,565135.6754241512,4812507.29734692
1275,[2021-01-29 10:51:26.165] $GNGGA,15124.6,4327.7585,N,14148.31169,E,4,11,1.02,113.51700000000001,M,31.868000000000002,M,2.6,1010*6F,43.46264166666667,141.80519483333333,565135.6754420457,4812507.295495955
1276,[2021-01-29 10:51:26.268] $GNGGA,15124.7,4327.758500999999,N,14148.31169,E,4,11,1.02,113.508,M,31.868000000000002,M,2.7,1010*60,43.462641683333324,141.80519483333333,565135.6754241512,4812507.29734692
1277,[2021-01-29 10:51:26.370] $GNGGA,15124.8,4327.758500999999,N,14148.31169,E,4,11,1.02,113.51299999999999,M,31.868000000000002,M,2.8,1010*68,43.462641683333324,141.80519483333333,565135.6754241512,4812507.29734692
1278,[2021-01-29 10:51:26.464] $GNGGA,15124.9,4327.758502000001,N,14148.31169,E,4,11,1.02,113.508,M,31.868000000000002,M,2.9,1010*6A,43.462641700000006,141.80519483333333,565135.6754062567,4812507.299197887
1279,[2021-01-29 10:51:26.558] $GNGGA,15125.0,4327.758500999999,N,14148.31169,E,4,11,1.02,113.507,M,31.868000000000002,M,3.0,1010*6E,43.462641683333324,141.80519483333333,565135.6754241512,4812507.29734692
1280,[2021-01-29 10:51:26.667] $GNGGA,15125.1,4327.758502000001,N,14148.31169,E,4,11,1.02,113.51,M,31.868000000000002,M,3.1,1010*66,43.462641700000006,141.80519483333333,565135.6754062567,4812507.299197887
1281,[2021-01-29 10:51:26.761] $GNGGA,15125.2,4327.758500999999,N,14148.31169,E,4,11,1.02,113.506,M,31.868000000000002,M,3.2,1010*6F,43.462641683333324,141.80519483333333,565135.6754241512,4812507.29734692
1282,[2021-01-29 10:51:26.870] $GNGGA,15125.3,4327.758500999999,N,14148.31169,E,4,11,1.02,113.508,M,31.868000000000002,M,3.3,1010*68,43.462641683333324,141.80519483333333,565135.6754241512,4812507.29734692
1283,[2021-01-29 10:51:26.964] $GNGGA,15125.4,4327.758502000001,N,14148.31169,E,4,11,1.02,113.505,M,31.868000000000002,M,3.4,1010*69,43.462641700000006,141.80519483333333,565135.6754062567,4812507.299197887
1284,[2021-01-29 10:51:27.058] $GNGGA,15125.5,4327.7585,N,14148.31169,E,4,11,1.02,113.51100000000001,M,31.868000000000002,M,3.5,1010*65,43.46264166666667,141.80519483333333,565135.6754420457,4812507.295495955
1285,[2021-01-29 10:51:27.167] $GNGGA,15125.6,4327.758500999999,N,14148.31169,E,4,11,1.02,113.507,M,31.868000000000002,M,3.6,1010*6F,43.462641683333324,141.80519483333333,565135.6754241512,4812507.29734692
1286,[2021-01-29 10:51:27.271] $GNGGA,15125.7,4327.758500999999,N,14148.31169,E,4,11,1.02,113.512,M,31.868000000000002,M,3.7,1010*61,43.462641683333324,141.80519483333333,565135.6754241512,4812507.29734692
1287,[2021-01-29 10:51:27.356] $GNGGA,15125.8,4327.7585,N,14148.31169,E,4,11,1.02,113.51299999999999,M,31.868000000000002,M,3.8,1010*6D,43.46264166666667,141.80519483333333,565135.6754420457,4812507.295495955
1288,[2021-01-29 10:51:27.465] $GNGGA,15125.9,4327.758500999999,N,14148.31169,E,4,11,1.02,113.514,M,31.868000000000002,M,3.9,1010*6E,43.462641683333324,141.80519483333333,565135.6754241512,4812507.29734692
1289,[2021-01-29 10:51:27.559] $GNGGA,15126.0,4327.7585,N,14148.31169,E,4,11,1.02,113.515,M,31.868000000000002,M,4.0,1010*67,43.46264166666667,141.80519483333333,565135.6754420457,4812507.295495955
1290,[2021-01-29 10:51:27.669] $GNGGA,15126.1,4327.7585,N,14148.31169,E,4,11,1.02,113.515,M,31.868000000000002,M,4.1,1010*66,43.46264166666667,141.80519483333333,565135.6754420457,4812507.295495955
1291,[2021-01-29 10:51:27.762] $GNGGA,15126.2,4327.7584990000005,N,14148.31169,E,4,11,1.02,113.514,M,31.868000000000002,M,4.2,1010*6C,43.462641650000016,141.80519483333333,565135.6754599402,4812507.293644992
1292,[2021-01-29 10:51:27.856] $GNGGA,15126.3,4327.7584990000005,N,14148.31169,E,4,11,1.02,113.51299999999999,M,31.868000000000002,M,4.3,1010*6F,43.462641650000016,141.80519483333333,565135.6754599402,4812507.293644992
1293,[2021-01-29 10:51:27.965] $GNGGA,15126.4,4327.7584990000005,N,14148.31169,E,4,11,1.02,113.51,M,31.868000000000002,M,4.4,1010*6E,43.462641650000016,141.80519483333333,565135.6754599402,4812507.293644992
1294,[2021-01-29 10:51:28.059] $GNGGA,15126.5,4327.7584990000005,N,14148.31169,E,4,11,1.02,113.508,M,31.868000000000002,M,4.5,1010*61,43.462641650000016,141.80519483333333,565135.6754599402,4812507.293644992
1295,[2021-01-29 10:51:28.168] $GNGGA,15126.6,4327.7585,N,14148.31169,E,4,11,1.02,113.507,M,31.868000000000002,M,4.6,1010*6C,43.46264166666667,141.80519483333333,565135.6754420457,4812507.295495955
1296,[2021-01-29 10:51:28.263] $GNGGA,15126.7,4327.758500999999,N,14148.31169,E,4,11,1.02,113.50399999999999,M,31.868000000000002,M,4.7,1010*67,43.462641683333324,141.80519483333333,565135.6754241512,4812507.29734692
1297,[2021-01-29 10:51:28.357] $GNGGA,15126.8,4327.758502000001,N,14148.31169,E,4,11,1.02,113.51,M,31.868000000000002,M,4.8,1010*62,43.462641700000006,141.80519483333333,565135.6754062567,4812507.299197887
1298,[2021-01-29 10:51:28.466] $GNGGA,15126.9,4327.758502000001,N,14148.31169,E,4,11,1.02,113.512,M,31.868000000000002,M,4.9,1010*65,43.462641700000006,141.80519483333333,565135.6754062567,4812507.299197887
1299,[2021-01-29 10:51:28.560] $GNGGA,15127.0,4327.758500999999,N,14148.31169,E,4,11,1.02,113.51100000000001,M,31.868000000000002,M,5.0,1010*6E,43.462641683333324,141.80519483333333,565135.6754241512,4812507.29734692
1300,[2021-01-29 10:51:28.669] $GNGGA,15127.1,4327.758500999999,N,14148.31169,E,4,11,1.02,113.516,M,31.868000000000002,M,5.1,1010*6B,43.462641683333324,141.80519483333333,565135.6754241512,4812507.29734692
1301,[2021-01-29 10:51:28.763] $GNGGA,15127.2,4327.758500999999,N,14148.31169,E,4,11,1.02,113.51899999999999,M,31.868000000000002,M,5.2,1010*6F,43.462641683333324,141.80519483333333,565135.6754241512,4812507.29734692
1302,[2021-01-29 10:51:28.857] $GNGGA,15127.3,4327.758502000001,N,14148.31169,E,4,11,1.02,113.51700000000001,M,31.868000000000002,M,5.3,1010*67,43.462641700000006,141.80519483333333,565135.6754062567,4812507.299197887
1303,[2021-01-29 10:51:28.966] $GNGGA,15127.4,4327.758502000001,N,14148.31169,E,4,11,1.02,113.516,M,31.868000000000002,M,5.4,1010*6C,43.462641700000006,141.80519483333333,565135.6754062567,4812507.299197887
1304,[2021-01-29 10:51:29.060] $GNGGA,15127.5,4327.758502000001,N,14148.31169,E,4,11,1.02,113.51899999999999,M,31.868000000000002,M,5.5,1010*64,43.462641700000006,141.80519483333333,565135.6754062567,4812507.299197887
1305,[2021-01-29 10:51:29.169] $GNGGA,15127.6,4327.758502000001,N,14148.31169,E,4,11,1.02,113.51299999999999,M,31.868000000000002,M,5.6,1010*6F,43.462641700000006,141.80519483333333,565135.6754062567,4812507.299197887
1306,[2021-01-29 10:51:29.264] $GNGGA,15127.7,4327.758500999999,N,14148.31169,E,4,11,1.02,113.51799999999999,M,31.868000000000002,M,5.7,1010*6B,43.462641683333324,141.80519483333333,565135.6754241512,4812507.29734692
1307,[2021-01-29 10:51:29.358] $GNGGA,15127.8,4327.758500999999,N,14148.31169,E,4,11,1.02,113.51899999999999,M,31.868000000000002,M,5.8,1010*63,43.462641683333324,141.80519483333333,565135.6754241512,4812507.29734692
1308,[2021-01-29 10:51:29.468] $GNGGA,15127.9,4327.7584990000005,N,14148.31169,E,4,11,1.02,113.52,M,31.868000000000002,M,5.9,1010*69,43.462641650000016,141.80519483333333,565135.6754599402,4812507.293644992
1309,[2021-01-29 10:51:29.561] $GNGGA,15128.0,4327.7585,N,14148.31169,E,4,11,1.02,113.516,M,31.868000000000002,M,6.0,1010*64,43.46264166666667,141.80519483333333,565135.6754420457,4812507.295495955
1310,[2021-01-29 10:51:29.671] $GNGGA,15128.1,4327.7584990000005,N,14148.31169,E,4,11,1.02,113.516,M,31.868000000000002,M,6.1,1010*6A,43.462641650000016,141.80519483333333,565135.6754599402,4812507.293644992
1311,[2021-01-29 10:51:29.764] $GNGGA,15128.2,4327.7584990000005,N,14148.31169,E,4,11,1.02,113.51700000000001,M,31.868000000000002,M,6.2,1010*6E,43.462641650000016,141.80519483333333,565135.6754599402,4812507.293644992
1312,[2021-01-29 10:51:29.858] $GNGGA,15128.3,4327.7585,N,14148.31169,E,4,11,1.02,113.51899999999999,M,31.868000000000002,M,6.3,1010*68,43.46264166666667,141.80519483333333,565135.6754420457,4812507.295495955
1313,[2021-01-29 10:51:29.967] $GNGGA,15128.4,4327.7585,N,14148.31169,E,4,11,1.02,113.51899999999999,M,31.868000000000002,M,6.4,1010*62,43.46264166666667,141.80519483333333,565135.6754420457,4812507.295495955
1314,[2021-01-29 10:51:30.061] $GNGGA,15128.5,4327.7585,N,14148.31169,E,4,11,1.02,113.516,M,31.868000000000002,M,6.5,1010*60,43.46264166666667,141.80519483333333,565135.6754420457,4812507.295495955
1315,[2021-01-29 10:51:30.171] $GNGGA,15128.6,4327.7585,N,14148.31169,E,4,11,1.02,113.516,M,31.868000000000002,M,6.6,1010*67,43.46264166666667,141.80519483333333,565135.6754420457,4812507.295495955
1316,[2021-01-29 10:51:30.266] $GNGGA,15128.7,4327.7585,N,14148.31169,E,4,11,1.02,113.515,M,31.868000000000002,M,6.7,1010*6B,43.46264166666667,141.80519483333333,565135.6754420457,4812507.295495955
1317,[2021-01-29 10:51:30.360] $GNGGA,15128.8,4327.7585,N,14148.31169,E,4,11,1.02,113.51899999999999,M,31.868000000000002,M,6.8,1010*6D,43.46264166666667,141.80519483333333,565135.6754420457,4812507.295495955
1318,[2021-01-29 10:51:30.469] $GNGGA,15128.9,4327.7585,N,14148.31169,E,4,11,1.02,113.52,M,31.868000000000002,M,6.9,1010*6C,43.46264166666667,141.80519483333333,565135.6754420457,4812507.295495955
1319,[2021-01-29 10:51:30.563] $GNGGA,15129.0,4327.7585,N,14148.31169,E,4,11,1.02,113.52,M,31.868000000000002,M,7.0,1010*66,43.46264166666667,141.80519483333333,565135.6754420457,4812507.295495955
1320,[2021-01-29 10:51:30.657] $GNGGA,15129.1,4327.7584990000005,N,14148.31169,E,4,11,1.02,113.527,M,31.868000000000002,M,2.1,1010*6F,43.462641650000016,141.80519483333333,565135.6754599402,4812507.293644992
1321,[2021-01-29 10:51:30.766] $GNGGA,15129.2,4327.758497999999,N,14148.31169,E,4,11,1.02,113.53299999999999,M,31.868000000000002,M,2.2,1010*63,43.46264163333332,141.80519483333333,565135.6754778347,4812507.291794023
1322,[2021-01-29 10:51:30.860] $GNGGA,15129.3,4327.758497,N,14148.31168,E,4,11,1.02,113.52600000000001,M,31.868000000000002,M,2.3,1010*6A,43.462641616666666,141.80519466666667,565135.6620132963,4812507.289812715
1323,[2021-01-29 10:51:30.969] $GNGGA,15129.4,4327.758497,N,14148.31168,E,4,11,1.02,113.529,M,31.868000000000002,M,2.4,1010*6C,43.462641616666666,141.80519466666667,565135.6620132963,4812507.289812715
1324,[2021-01-29 10:51:31.063] $GNGGA,15129.5,4327.758497,N,14148.31168,E,4,11,1.02,113.527,M,31.868000000000002,M,2.5,1010*63,43.462641616666666,141.80519466666667,565135.6620132963,4812507.289812715
1325,[2021-01-29 10:51:31.157] $GNGGA,15129.6,4327.758497999999,N,14148.31168,E,4,11,1.02,113.537,M,31.868000000000002,M,2.6,1010*60,43.46264163333332,141.80519466666667,565135.6619954017,4812507.291663679
1326,[2021-01-29 10:51:31.268] $GNGGA,15129.7,4327.758497,N,14148.31168,E,4,11,1.02,113.536,M,31.868000000000002,M,2.7,1010*63,43.462641616666666,141.80519466666667,565135.6620132963,4812507.289812715
1327,[2021-01-29 10:51:31.361] $GNGGA,15129.8,4327.758496,N,14148.31168,E,4,11,1.02,113.542,M,31.868000000000002,M,2.8,1010*6E,43.46264160000001,141.80519466666667,565135.6620311907,4812507.287961751
1328,[2021-01-29 10:51:31.471] $GNGGA,15129.9,4327.758496,N,14148.31168,E,4,11,1.02,113.545,M,31.868000000000002,M,2.9,1010*67,43.46264160000001,141.80519466666667,565135.6620311907,4812507.287961751
1329,[2021-01-29 10:51:31.565] $GNGGA,15130.0,4327.758497,N,14148.31168,E,4,11,1.02,113.541,M,31.868000000000002,M,3.0,1010*68,43.462641616666666,141.80519466666667,565135.6620132963,4812507.289812715
1330,[2021-01-29 10:51:31.658] $GNGGA,15130.1,4327.758497,N,14148.31168,E,4,11,1.02,113.54,M,31.868000000000002,M,3.1,1010*6C,43.462641616666666,141.80519466666667,565135.6620132963,4812507.289812715
1331,[2021-01-29 10:51:31.768] $GNGGA,15130.2,4327.758497,N,14148.31168,E,4,11,1.02,113.535,M,31.868000000000002,M,3.2,1010*68,43.462641616666666,141.80519466666667,565135.6620132963,4812507.289812715
1332,[2021-01-29 10:51:31.861] $GNGGA,15130.3,4327.758496,N,14148.31168,E,4,11,1.02,113.535,M,31.868000000000002,M,3.3,1010*63,43.46264160000001,141.80519466666667,565135.6620311907,4812507.287961751
1333,[2021-01-29 10:51:31.971] $GNGGA,15130.4,4327.758497,N,14148.31168,E,4,11,1.02,113.536,M,31.868000000000002,M,3.4,1010*6D,43.462641616666666,141.80519466666667,565135.6620132963,4812507.289812715
1334,[2021-01-29 10:51:32.064] $GNGGA,15130.5,4327.758497999999,N,14148.31168,E,4,11,1.02,113.535,M,31.868000000000002,M,3.5,1010*67,43.46264163333332,141.80519466666667,565135.6619954017,4812507.291663679
1335,[2021-01-29 10:51:32.158] $GNGGA,15130.6,4327.758497999999,N,14148.31168,E,4,11,1.02,113.53299999999999,M,31.868000000000002,M,3.6,1010*60,43.46264163333332,141.80519466666667,565135.6619954017,4812507.291663679
1336,[2021-01-29 10:51:32.270] $GNGGA,15130.7,4327.758497999999,N,14148.31168,E,4,11,1.02,113.539,M,31.868000000000002,M,3.7,1010*67,43.46264163333332,141.80519466666667,565135.6619954017,4812507.291663679
1337,[2021-01-29 10:51:32.364] $GNGGA,15130.8,4327.758497999999,N,14148.31168,E,4,11,1.02,113.53399999999999,M,31.868000000000002,M,3.8,1010*60,43.46264163333332,141.80519466666667,565135.6619954017,4812507.291663679
1338,[2021-01-29 10:51:32.458] $GNGGA,15130.9,4327.758497999999,N,14148.31168,E,4,11,1.02,113.537,M,31.868000000000002,M,3.9,1010*69,43.46264163333332,141.80519466666667,565135.6619954017,4812507.291663679
1339,[2021-01-29 10:51:32.567] $GNGGA,15131.0,4327.758497,N,14148.31168,E,4,11,1.02,113.541,M,31.868000000000002,M,4.0,1010*64,43.462641616666666,141.80519466666667,565135.6620132963,4812507.289812715
1340,[2021-01-29 10:51:32.661] $GNGGA,15131.1,4327.758497999999,N,14148.31168,E,4,11,1.02,113.535,M,31.868000000000002,M,4.1,1010*6A,43.46264163333332,141.80519466666667,565135.6619954017,4812507.291663679
1341,[2021-01-29 10:51:32.770] $GNGGA,15131.2,4327.7584990000005,N,14148.31168,E,4,11,1.02,113.536,M,31.868000000000002,M,4.2,1010*6F,43.462641650000016,141.80519466666667,565135.6619775073,4812507.2935146475
1342,[2021-01-29 10:51:32.864] $GNGGA,15131.3,4327.758496,N,14148.31168,E,4,11,1.02,113.538,M,31.868000000000002,M,4.3,1010*6D,43.46264160000001,141.80519466666667,565135.6620311907,4812507.287961751
1343,[2021-01-29 10:51:32.958] $GNGGA,15131.4,4327.758497,N,14148.31168,E,4,11,1.02,113.539,M,31.868000000000002,M,4.4,1010*66,43.462641616666666,141.80519466666667,565135.6620132963,4812507.289812715
1344,[2021-01-29 10:51:33.067] $GNGGA,15131.5,4327.758497999999,N,14148.31169,E,4,11,1.02,113.537,M,31.868000000000002,M,4.5,1010*6A,43.46264163333332,141.80519483333333,565135.6754778347,4812507.291794023
1345,[2021-01-29 10:51:33.161] $GNGGA,15131.6,4327.758497,N,14148.31169,E,4,11,1.02,113.54,M,31.868000000000002,M,4.6,1010*6C,43.462641616666666,141.80519483333333,565135.6754957291,4812507.289943059
1346,[2021-01-29 10:51:33.271] $GNGGA,15131.7,4327.758497,N,14148.31169,E,4,11,1.02,113.541,M,31.868000000000002,M,4.7,1010*60,43.462641616666666,141.80519483333333,565135.6754957291,4812507.289943059
1347,[2021-01-29 10:51:33.365] $GNGGA,15131.8,4327.758497,N,14148.31169,E,4,11,1.02,113.542,M,31.868000000000002,M,4.8,1010*6F,43.462641616666666,141.80519483333333,565135.6754957291,4812507.289943059
1348,[2021-01-29 10:51:33.459] $GNGGA,15131.9,4327.758496,N,14148.31169,E,4,11,1.02,113.54,M,31.868000000000002,M,4.9,1010*6D,43.46264160000001,141.80519483333333,565135.6755136236,4812507.288092095
1349,[2021-01-29 10:51:33.568] $GNGGA,15132.0,4327.758497999999,N,14148.31169,E,4,11,1.02,113.541,M,31.868000000000002,M,5.0,1010*64,43.46264163333332,141.80519483333333,565135.6754778347,4812507.291794023
1350,[2021-01-29 10:51:33.662] $GNGGA,15132.1,4327.758497999999,N,14148.31169,E,4,11,1.02,113.54299999999999,M,31.868000000000002,M,5.1,1010*65,43.46264163333332,141.80519483333333,565135.6754778347,4812507.291794023
1351,[2021-01-29 10:51:33.771] $GNGGA,15132.2,4327.758497999999,N,14148.31168,E,4,11,1.02,113.546,M,31.868000000000002,M,5.2,1010*6A,43.46264163333332,141.80519466666667,565135.6619954017,4812507.291663679
1352,[2021-01-29 10:51:33.865] $GNGGA,15132.3,4327.758497999999,N,14148.31168,E,4,11,1.02,113.545,M,31.868000000000002,M,5.3,1010*62,43.46264163333332,141.80519466666667,565135.6619954017,4812507.291663679
1353,[2021-01-29 10:51:33.959] $GNGGA,15132.4,4327.758497,N,14148.31168,E,4,11,1.02,113.551,M,31.868000000000002,M,5.4,1010*65,43.462641616666666,141.80519466666667,565135.6620132963,4812507.289812715
1354,[2021-01-29 10:51:34.068] $GNGGA,15132.5,4327.758497,N,14148.31168,E,4,11,1.02,113.555,M,31.868000000000002,M,5.5,1010*6B,43.462641616666666,141.80519466666667,565135.6620132963,4812507.289812715
1355,[2021-01-29 10:51:34.162] $GNGGA,15132.6,4327.758496,N,14148.31168,E,4,11,1.02,113.554,M,31.868000000000002,M,5.6,1010*64,43.46264160000001,141.80519466666667,565135.6620311907,4812507.287961751
1356,[2021-01-29 10:51:34.264] $GNGGA,15132.7,4327.758497,N,14148.31168,E,4,11,1.02,113.554,M,31.868000000000002,M,5.7,1010*6A,43.462641616666666,141.80519466666667,565135.6620132963,4812507.289812715
1357,[2021-01-29 10:51:34.366] $GNGGA,15132.8,4327.758497,N,14148.31168,E,4,11,1.02,113.554,M,31.868000000000002,M,5.8,1010*69,43.462641616666666,141.80519466666667,565135.6620132963,4812507.289812715
1358,[2021-01-29 10:51:34.460] $GNGGA,15132.9,4327.758497,N,14148.31168,E,4,11,1.02,113.55799999999999,M,31.868000000000002,M,5.9,1010*65,43.462641616666666,141.80519466666667,565135.6620132963,4812507.289812715
1359,[2021-01-29 10:51:34.570] $GNGGA,15133.0,4327.758497,N,14148.31168,E,4,11,1.02,113.557,M,31.868000000000002,M,6.0,1010*65,43.462641616666666,141.80519466666667,565135.6620132963,4812507.289812715
1360,[2021-01-29 10:51:34.663] $GNGGA,15133.1,4327.758496,N,14148.31168,E,4,11,1.02,113.55799999999999,M,31.868000000000002,M,1.1,1010*62,43.46264160000001,141.80519466666667,565135.6620311907,4812507.287961751
1361,[2021-01-29 10:51:34.757] $GNGGA,15133.2,4327.758494,N,14148.31168,E,4,11,1.02,113.559,M,31.868000000000002,M,1.2,1010*6E,43.46264156666666,141.80519466666667,565135.6620669797,4812507.284259819
1362,[2021-01-29 10:51:34.866] $GNGGA,15133.3,4327.758495,N,14148.31168,E,4,11,1.02,113.557,M,31.868000000000002,M,1.3,1010*6B,43.46264158333333,141.80519466666667,565135.6620490851,4812507.286110785
1363,[2021-01-29 10:51:34.960] $GNGGA,15133.4,4327.758495,N,14148.31168,E,4,11,1.02,113.557,M,31.868000000000002,M,1.4,1010*68,43.46264158333333,141.80519466666667,565135.6620490851,4812507.286110785
1364,[2021-01-29 10:51:35.069] $GNGGA,15133.5,4327.758494,N,14148.31168,E,4,11,1.02,113.557,M,31.868000000000002,M,1.5,1010*63,43.46264156666666,141.80519466666667,565135.6620669797,4812507.284259819
1365,[2021-01-29 10:51:35.163] $GNGGA,15133.6,4327.758494,N,14148.31168,E,4,11,1.02,113.557,M,31.868000000000002,M,1.6,1010*68,43.46264156666666,141.80519466666667,565135.6620669797,4812507.284259819
1366,[2021-01-29 10:51:35.267] $GNGGA,15133.7,4327.758494,N,14148.31168,E,4,11,1.02,113.554,M,31.868000000000002,M,1.7,1010*65,43.46264156666666,141.80519466666667,565135.6620669797,4812507.284259819
1367,[2021-01-29 10:51:35.368] $GNGGA,15133.8,4327.758494,N,14148.31168,E,4,11,1.02,113.55,M,31.868000000000002,M,1.8,1010*63,43.46264156666666,141.80519466666667,565135.6620669797,4812507.284259819
1368,[2021-01-29 10:51:35.462] $GNGGA,15133.9,4327.758492,N,14148.31168,E,4,11,1.02,113.552,M,31.868000000000002,M,1.9,1010*69,43.46264153333334,141.80519466666667,565135.6621027685,4812507.2805578895
1369,[2021-01-29 10:51:35.556] $GNGGA,15134.0,4327.758493,N,14148.31168,E,4,11,1.02,113.556,M,31.868000000000002,M,2.0,1010*6C,43.46264155000001,141.80519466666667,565135.6620848741,4812507.282408855
1370,[2021-01-29 10:51:35.665] $GNGGA,15134.1,4327.758494,N,14148.31168,E,4,11,1.02,113.553,M,31.868000000000002,M,2.1,1010*6F,43.46264156666666,141.80519466666667,565135.6620669797,4812507.284259819
1371,[2021-01-29 10:51:35.759] $GNGGA,15134.2,4327.758493,N,14148.31168,E,4,11,1.02,113.555,M,31.868000000000002,M,2.2,1010*68,43.46264155000001,141.80519466666667,565135.6620848741,4812507.282408855
1372,[2021-01-29 10:51:35.868] $GNGGA,15134.3,4327.758493,N,14148.31168,E,4,11,1.02,113.557,M,31.868000000000002,M,2.3,1010*66,43.46264155000001,141.80519466666667,565135.6620848741,4812507.282408855
1373,[2021-01-29 10:51:35.962] $GNGGA,15134.4,4327.758492,N,14148.31168,E,4,11,1.02,113.56299999999999,M,31.868000000000002,M,2.4,1010*6B,43.46264153333334,141.80519466666667,565135.6621027685,4812507.2805578895
1374,[2021-01-29 10:51:36.056] $GNGGA,15134.5,4327.758492,N,14148.31168,E,4,11,1.02,113.56200000000001,M,31.868000000000002,M,2.5,1010*6A,43.46264153333334,141.80519466666667,565135.6621027685,4812507.2805578895
1375,[2021-01-29 10:51:36.165] $GNGGA,15134.6,4327.758494,N,14148.31168,E,4,11,1.02,113.56,M,31.868000000000002,M,2.6,1010*68,43.46264156666666,141.80519466666667,565135.6620669797,4812507.284259819
1376,[2021-01-29 10:51:36.269] $GNGGA,15134.7,4327.758493,N,14148.31168,E,4,11,1.02,113.557,M,31.868000000000002,M,2.7,1010*63,43.46264155000001,141.80519466666667,565135.6620848741,4812507.282408855
1377,[2021-01-29 10:51:36.370] $GNGGA,15134.8,4327.758492,N,14148.31168,E,4,11,1.02,113.56200000000001,M,31.868000000000002,M,2.8,1010*63,43.46264153333334,141.80519466666667,565135.6621027685,4812507.2805578895
1378,[2021-01-29 10:51:36.463] $GNGGA,15134.9,4327.758493,N,14148.31168,E,4,11,1.02,113.561,M,31.868000000000002,M,2.9,1010*64,43.46264155000001,141.80519466666667,565135.6620848741,4812507.282408855
1379,[2021-01-29 10:51:36.557] $GNGGA,15135.0,4327.758493,N,14148.31168,E,4,11,1.02,113.564,M,31.868000000000002,M,3.0,1010*6B,43.46264155000001,141.80519466666667,565135.6620848741,4812507.282408855
1380,[2021-01-29 10:51:36.666] $GNGGA,15135.1,4327.758494,N,14148.31168,E,4,11,1.02,113.57600000000001,M,31.868000000000002,M,3.1,1010*6D,43.46264156666666,141.80519466666667,565135.6620669797,4812507.284259819
1381,[2021-01-29 10:51:36.760] $GNGGA,15135.2,4327.758495,N,14148.31168,E,4,11,1.02,113.57799999999999,M,31.868000000000002,M,3.2,1010*6A,43.46264158333333,141.80519466666667,565135.6620490851,4812507.286110785
1382,[2021-01-29 10:51:36.870] $GNGGA,15135.3,4327.758494,N,14148.31168,E,4,11,1.02,113.595,M,31.868000000000002,M,3.3,1010*67,43.46264156666666,141.80519466666667,565135.6620669797,4812507.284259819
1383,[2021-01-29 10:51:36.963] $GNGGA,15135.4,4327.758495,N,14148.31168,E,4,11,1.02,113.595,M,31.868000000000002,M,3.4,1010*6D,43.46264158333333,141.80519466666667,565135.6620490851,4812507.286110785
1384,[2021-01-29 10:51:37.057] $GNGGA,15135.5,4327.758495,N,14148.31168,E,4,11,1.02,113.60799999999999,M,31.868000000000002,M,3.5,1010*60,43.46264158333333,141.80519466666667,565135.6620490851,4812507.286110785
1385,[2021-01-29 10:51:37.166] $GNGGA,15135.6,4327.758494,N,14148.31168,E,4,11,1.02,113.60600000000001,M,31.868000000000002,M,3.6,1010*68,43.46264156666666,141.80519466666667,565135.6620669797,4812507.284259819
1386,[2021-01-29 10:51:37.269] $GNGGA,15135.7,4327.758495,N,14148.31168,E,4,11,1.02,113.60799999999999,M,31.868000000000002,M,3.7,1010*6E,43.46264158333333,141.80519466666667,565135.6620490851,4812507.286110785
1387,[2021-01-29 10:51:37.371] $GNGGA,15135.8,4327.758495,N,14148.31168,E,4,11,1.02,113.604,M,31.868000000000002,M,3.8,1010*60,43.46264158333333,141.80519466666667,565135.6620490851,4812507.286110785
1388,[2021-01-29 10:51:37.465] $GNGGA,15135.9,4327.758495,N,14148.31168,E,4,11,1.02,113.60600000000001,M,31.868000000000002,M,3.9,1010*64,43.46264158333333,141.80519466666667,565135.6620490851,4812507.286110785
1389,[2021-01-29 10:51:37.559] $GNGGA,15136.0,4327.758496,N,14148.31168,E,4,11,1.02,113.605,M,31.868000000000002,M,4.0,1010*6E,43.46264160000001,141.80519466666667,565135.6620311907,4812507.287961751
1390,[2021-01-29 10:51:37.668] $GNGGA,15136.1,4327.758496,N,14148.31168,E,4,11,1.02,113.601,M,31.868000000000002,M,4.1,1010*6C,43.46264160000001,141.80519466666667,565135.6620311907,4812507.287961751
1391,[2021-01-29 10:51:37.762] $GNGGA,15136.2,4327.758496,N,14148.31168,E,4,11,1.02,113.604,M,31.868000000000002,M,4.2,1010*67,43.46264160000001,141.80519466666667,565135.6620311907,4812507.287961751
1392,[2021-01-29 10:51:37.871] $GNGGA,15136.3,4327.758495,N,14148.31168,E,4,11,1.02,113.605,M,31.868000000000002,M,4.3,1010*62,43.46264158333333,141.80519466666667,565135.6620490851,4812507.286110785
1393,[2021-01-29 10:51:37.965] $GNGGA,15136.4,4327.758497,N,14148.31168,E,4,11,1.02,113.604,M,31.868000000000002,M,4.4,1010*66,43.462641616666666,141.80519466666667,565135.6620132963,4812507.289812715
1394,[2021-01-29 10:51:38.059] $GNGGA,15136.5,4327.758497,N,14148.31168,E,4,11,1.02,113.6,M,31.868000000000002,M,4.5,1010*62,43.462641616666666,141.80519466666667,565135.6620132963,4812507.289812715
1395,[2021-01-29 10:51:38.168] $GNGGA,15136.6,4327.758496,N,14148.31168,E,4,11,1.02,113.598,M,31.868000000000002,M,4.6,1010*67,43.46264160000001,141.80519466666667,565135.6620311907,4812507.287961751
1396,[2021-01-29 10:51:38.270] $GNGGA,15136.7,4327.758495,N,14148.31168,E,4,11,1.02,113.598,M,31.868000000000002,M,4.7,1010*64,43.46264158333333,141.80519466666667,565135.6620490851,4812507.286110785
1397,[2021-01-29 10:51:38.357] $GNGGA,15136.8,4327.758495,N,14148.31168,E,4,11,1.02,113.603,M,31.868000000000002,M,4.8,1010*60,43.46264158333333,141.80519466666667,565135.6620490851,4812507.286110785
1398,[2021-01-29 10:51:38.467] $GNGGA,15136.9,4327.758495,N,14148.31168,E,4,11,1.02,113.59899999999999,M,31.868000000000002,M,4.9,1010*69,43.46264158333333,141.80519466666667,565135.6620490851,4812507.286110785
1399,[2021-01-29 10:51:38.560] $GNGGA,15137.0,4327.758495,N,14148.31168,E,4,11,1.02,113.59899999999999,M,31.868000000000002,M,5.0,1010*61,43.46264158333333,141.80519466666667,565135.6620490851,4812507.286110785
1400,[2021-01-29 10:51:38.670] $GNGGA,15137.1,4327.758495,N,14148.31168,E,4,11,1.02,113.596,M,31.868000000000002,M,5.1,1010*6F,43.46264158333333,141.80519466666667,565135.6620490851,4812507.286110785
1401,[2021-01-29 10:51:38.763] $GNGGA,15137.2,4327.758495,N,14148.31168,E,4,11,1.02,113.596,M,31.868000000000002,M,5.2,1010*62,43.46264158333333,141.80519466666667,565135.6620490851,4812507.286110785
1402,[2021-01-29 10:51:38.857] $GNGGA,15137.3,4327.758495,N,14148.31168,E,4,11,1.02,113.595,M,31.868000000000002,M,5.3,1010*63,43.46264158333333,141.80519466666667,565135.6620490851,4812507.286110785
1403,[2021-01-29 10:51:38.967] $GNGGA,15137.4,4327.758497,N,14148.31168,E,4,11,1.02,113.59299999999999,M,31.868000000000002,M,5.4,1010*60,43.462641616666666,141.80519466666667,565135.6620132963,4812507.289812715
1404,[2021-01-29 10:51:39.060] $GNGGA,15137.5,4327.758497,N,14148.31168,E,4,11,1.02,113.59200000000001,M,31.868000000000002,M,5.5,1010*6B,43.462641616666666,141.80519466666667,565135.6620132963,4812507.289812715
1405,[2021-01-29 10:51:39.170] $GNGGA,15137.6,4327.758497999999,N,14148.31168,E,4,11,1.02,113.589,M,31.868000000000002,M,5.6,1010*62,43.46264163333332,141.80519466666667,565135.6619954017,4812507.291663679
1406,[2021-01-29 10:51:39.263] $GNGGA,15137.7,4327.758497,N,14148.31168,E,4,11,1.02,113.59,M,31.868000000000002,M,5.7,1010*63,43.462641616666666,141.80519466666667,565135.6620132963,4812507.289812715
1407,[2021-01-29 10:51:39.357] $GNGGA,15137.8,4327.758497999999,N,14148.31168,E,4,11,1.02,113.59299999999999,M,31.868000000000002,M,5.8,1010*68,43.46264163333332,141.80519466666667,565135.6619954017,4812507.291663679
1408,[2021-01-29 10:51:39.466] $GNGGA,15137.9,4327.758497999999,N,14148.31168,E,4,11,1.02,113.589,M,31.868000000000002,M,5.9,1010*60,43.46264163333332,141.80519466666667,565135.6619954017,4812507.291663679
1409,[2021-01-29 10:51:39.560] $GNGGA,15138.0,4327.758497,N,14148.31168,E,4,11,1.02,113.596,M,31.868000000000002,M,6.0,1010*6E,43.462641616666666,141.80519466666667,565135.6620132963,4812507.289812715
1410,[2021-01-29 10:51:39.670] $GNGGA,15138.1,4327.758497,N,14148.31168,E,4,11,1.02,113.594,M,31.868000000000002,M,1.1,1010*6C,43.462641616666666,141.80519466666667,565135.6620132963,4812507.289812715
1411,[2021-01-29 10:51:39.763] $GNGGA,15138.2,4327.758497,N,14148.31168,E,4,11,1.02,113.59100000000001,M,31.868000000000002,M,1.2,1010*6B,43.462641616666666,141.80519466666667,565135.6620132963,4812507.289812715
