[2021-02-22 16:49:05.710] $GNGGA,74854.7,,,,,0,0,99.99,,,,,57.7,*6E
[2021-02-22 16:49:05.742] $GNGGA,74854.8,,,,,0,0,99.99,,,,,57.8,*6E
[2021-02-22 16:49:05.742] $GNGGA,74854.9,,,,,0,0,99.99,,,,,57.9,*6E
[2021-02-22 16:49:05.742] $GNGGA,74855,,,,,0,0,99.99,,,,,58,*60
[2021-02-22 16:49:05.742] $GNGGA,74855.1,,,,,0,0,99.99,,,,,58.1,*60
[2021-02-22 16:49:05.742] $GNGGA,74855.2,,,,,0,0,99.99,,,,,58.2,*60
[2021-02-22 16:49:05.742] $GNGGA,74855.3,,,,,0,0,99.99,,,,,58.3,*60
[2021-02-22 16:49:05.742] $GNGGA,74855.4,,,,,0,0,99.99,,,,,58.4,*60
[2021-02-22 16:49:05.742] $GNGGA,74855.5,,,,,0,0,99.99,,,,,58.5,*60
[2021-02-22 16:49:05.742] $GNGGA,74855.6,,,,,0,0,99.99,,,,,58.6,*60
[2021-02-22 16:49:05.742] $GNGGA,74855.7,,,,,0,0,99.99,,,,,58.7,*60
[2021-02-22 16:49:05.742] $GNGGA,74855.8,,,,,0,0,99.99,,,,,58.8,*60
[2021-02-22 16:49:05.742] $GNGGA,74855.9,,,,,0,0,99.99,,,,,58.9,*60
[2021-02-22 16:49:05.742] $GNGGA,74856,,,,,0,0,99.99,,,,,59,*62
[2021-02-22 16:49:05.742] $GNGGA,74856.1,,,,,0,0,99.99,,,,,59.1,*62
[2021-02-22 16:49:05.742] $GNGGA,74856.2,,,,,0,0,99.99,,,,,59.2,*62
[2021-02-22 16:49:05.742] $GNGGA,74856.3,,,,,0,0,99.99,,,,,59.3,*62
[2021-02-22 16:49:05.742] $GNGGA,74856.4,,,,,0,0,99.99,,,,,59.4,*62
[2021-02-22 16:49:05.742] $GNGGA,74856.5,,,,,0,0,99.99,,,,,59.5,*62
[2021-02-22 16:49:05.742] $GNGGA,74856.6,,,,,0,0,99.99,,,,,59.6,*62
[2021-02-22 16:49:05.742] $GNGGA,74856.7,,,,,0,0,99.99,,,,,59.7,*62
[2021-02-22 16:49:05.742] $GNGGA,74856.8,,,,,0,0,99.99,,,,,59.8,*62
[2021-02-22 16:49:05.742] $GNGGA,74856.9,,,,,0,0,99.99,,,,,59.9,*62
[2021-02-22 16:49:05.742] $GNGGA,74857,,,,,0,0,99.99,,,,,60,*69
[2021-02-22 16:49:05.757] $GNGGA,74857.1,,,,,0,0,99.99,,,,,60.1,*69
[2021-02-22 16:49:05.757] $GNGGA,74857.2,,,,,0,0,99.99,,,,,60.2,*69
[2021-02-22 16:49:05.757] $GNGGA,74857.3,,,,,0,0,99.99,,,,,60.3,*69
[2021-02-22 16:49:05.757] $GNGGA,74857.4,,,,,0,0,99.99,,,,,60.4,*69
[2021-02-22 16:49:05.757] $GNGGA,74857.5,,,,,0,0,99.99,,,,,60.5,*69
[2021-02-22 16:49:05.757] $GNGGA,74857.6,,,,,0,0,99.99,,,,,60.6,*69
[2021-02-22 16:49:05.757] $GNGGA,74857.7,,,,,0,0,99.99,,,,,60.7,*69
[2021-02-22 16:49:05.757] $GNGGA,74857.8,,,,,0,0,99.99,,,,,60.8,*69
[2021-02-22 16:49:05.757] $GNGGA,74857.9,,,,,0,0,99.99,,,,,60.9,*69
[2021-02-22 16:49:05.757] $GNGGA,74858,,,,,0,0,99.99,,,,,61,*67
[2021-02-22 16:49:05.757] $GNGGA,74858.1,,,,,0,0,99.99,,,,,61.1,*67
[2021-02-22 16:49:05.757] $GNGGA,74858.2,,,,,0,0,99.99,,,,,61.2,*67
[2021-02-22 16:49:05.757] $GNGGA,74858.3,,,,,0,0,99.99,,,,,61.3,*67
[2021-02-22 16:49:05.757] $GNGGA,74858.4,,,,,0,0,99.99,,,,,61.4,*67
[2021-02-22 16:49:05.757] $GNGGA,74858.5,,,,,0,0,99.99,,,,,61.5,*67
[2021-02-22 16:49:05.757] $GNGGA,74858.6,,,,,0,0,99.99,,,,,61.6,*67
[2021-02-22 16:49:05.757] $GNGGA,74858.7,,,,,0,0,99.99,,,,,61.7,*67
[2021-02-22 16:49:05.757] $GNGGA,74858.8,,,,,0,0,99.99,,,,,61.8,*67
[2021-02-22 16:49:05.757] $GNGGA,74858.9,,,,,0,0,99.99,,,,,61.9,*67
[2021-02-22 16:49:05.757] $GNGGA,74859,,,,,0,0,99.99,,,,,62,*65
[2021-02-22 16:49:05.757] $GNGGA,74859.1,,,,,0,0,99.99,,,,,62.1,*65
[2021-02-22 16:49:05.757] $GNGGA,74859.2,,,,,0,0,99.99,,,,,62.2,*65
[2021-02-22 16:49:05.773] $GNGGA,74859.3,,,,,0,0,99.99,,,,,62.3,*65
[2021-02-22 16:49:05.773] $GNGGA,74859.4,,,,,0,0,99.99,,,,,62.4,*65
[2021-02-22 16:49:05.773] $GNGGA,74859.5,,,,,0,0,99.99,,,,,62.5,*65
[2021-02-22 16:49:05.773] $GNGGA,74859.6,,,,,0,0,99.99,,,,,62.6,*65
[2021-02-22 16:49:05.773] $GNGGA,74859.7,,,,,0,0,99.99,,,,,62.7,*65
[2021-02-22 16:49:05.773] $GNGGA,74859.8,,,,,0,0,99.99,,,,,62.8,*65
[2021-02-22 16:49:05.773] $GNGGA,74859.9,,,,,0,0,99.99,,,,,62.9,*65
[2021-02-22 16:49:05.773] $GNGGA,74900,,,,,0,0,99.99,,,,,63,*69
[2021-02-22 16:49:05.773] $GNGGA,74900.1,,,,,0,0,99.99,,,,,63.1,*69
[2021-02-22 16:49:05.773] $GNGGA,74900.2,,,,,0,0,99.99,,,,,63.2,*69
[2021-02-22 16:49:05.773] $GNGGA,74900.3,,,,,0,0,99.99,,,,,63.3,*69
[2021-02-22 16:49:05.773] $GNGGA,74900.4,,,,,0,0,99.99,,,,,63.4,*69
[2021-02-22 16:49:05.773] $GNGGA,74900.5,,,,,0,0,99.99,,,,,63.5,*69
[2021-02-22 16:49:05.773] $GNGGA,74900.6,,,,,0,0,99.99,,,,,63.6,*69
[2021-02-22 16:49:05.773] $GNGGA,74900.7,,,,,0,0,99.99,,,,,63.7,*69
[2021-02-22 16:49:05.773] $GNGGA,74900.8,,,,,0,0,99.99,,,,,63.8,*69
[2021-02-22 16:49:05.773] $GNGGA,74900.9,,,,,0,0,99.99,,,,,63.9,*69
[2021-02-22 16:49:05.773] $GNGGA,74901,,,,,0,0,99.99,,,,,64,*6F
[2021-02-22 16:49:05.773] $GNGGA,74901.1,,,,,0,0,99.99,,,,,64.1,*6F
[2021-02-22 16:49:05.773] $GNGGA,74901.2,,,,,0,0,99.99,,,,,64.2,*6F
[2021-02-22 16:49:05.773] $GNGGA,74901.3,,,,,0,0,99.99,,,,,64.3,*6F
[2021-02-22 16:49:05.773] $GNGGA,74901.4,,,,,0,0,99.99,,,,,64.4,*6F
[2021-02-22 16:49:05.789] $GNGGA,74901.5,,,,,0,0,99.99,,,,,64.5,*6F
[2021-02-22 16:49:05.789] $GNGGA,74901.6,,,,,0,0,99.99,,,,,64.6,*6F
[2021-02-22 16:49:05.789] $GNGGA,74901.7,,,,,0,0,99.99,,,,,64.7,*6F
[2021-02-22 16:49:05.789] $GNGGA,74901.8,,,,,0,0,99.99,,,,,64.8,*6F
[2021-02-22 16:49:05.789] $GNGGA,74901.9,,,,,0,0,99.99,,,,,64.9,*6F
[2021-02-22 16:49:05.789] $GNGGA,74902,,,,,0,0,99.99,,,,,65,*6D
[2021-02-22 16:49:05.789] $GNGGA,74902.1,,,,,0,0,99.99,,,,,65.1,*6D
[2021-02-22 16:49:05.789] $GNGGA,74902.2,,,,,0,0,99.99,,,,,65.2,*6D
[2021-02-22 16:49:05.789] $GNGGA,74902.3,,,,,0,0,99.99,,,,,65.3,*6D
[2021-02-22 16:49:05.789] $GNGGA,74902.4,,,,,0,0,99.99,,,,,65.4,*6D
[2021-02-22 16:49:05.789] $GNGGA,74902.5,,,,,0,0,99.99,,,,,65.5,*6D
[2021-02-22 16:49:05.789] $GNGGA,74902.6,,,,,0,0,99.99,,,,,65.6,*6D
[2021-02-22 16:49:05.789] $GNGGA,74902.7,,,,,0,0,99.99,,,,,65.7,*6D
[2021-02-22 16:49:05.789] $GNGGA,74902.8,,,,,0,0,99.99,,,,,65.8,*6D
[2021-02-22 16:49:05.789] $GNGGA,74902.9,,,,,0,0,99.99,,,,,65.9,*6D
[2021-02-22 16:49:05.789] $GNGGA,74903,,,,,0,0,99.99,,,,,66,*6F
[2021-02-22 16:49:05.789] $GNGGA,74903.1,,,,,0,0,99.99,,,,,66.1,*6F
[2021-02-22 16:49:05.789] $GNGGA,74903.2,,,,,0,0,99.99,,,,,66.2,*6F
[2021-02-22 16:49:05.789] $GNGGA,74903.3,,,,,0,0,99.99,,,,,66.3,*6F
[2021-02-22 16:49:05.789] $GNGGA,74903.4,,,,,0,0,99.99,,,,,66.4,*6F
[2021-02-22 16:49:05.789] $GNGGA,74903.5,,,,,0,0,99.99,,,,,66.5,*6F
[2021-02-22 16:49:05.789] $GNGGA,74903.6,,,,,0,0,99.99,,,,,66.6,*6F
[2021-02-22 16:49:05.789] $GNGGA,74903.7,,,,,0,0,99.99,,,,,66.7,*6F
[2021-02-22 16:49:05.789] $GNGGA,74903.8,,,,,0,0,99.99,,,,,66.8,*6F
[2021-02-22 16:49:05.789] $GNGGA,74903.9,,,,,0,0,99.99,,,,,66.9,*6F
[2021-02-22 16:49:05.789] $GNGGA,74904,,,,,0,0,99.99,,,,,67,*69
[2021-02-22 16:49:05.789] $GNGGA,74904.1,,,,,0,0,99.99,,,,,67.1,*69
[2021-02-22 16:49:05.789] $GNGGA,74904.2,,,,,0,0,99.99,,,,,67.2,*69
[2021-02-22 16:49:05.789] $GNGGA,74904.3,,,,,0,0,99.99,,,,,67.3,*69
[2021-02-22 16:49:05.789] $GNGGA,74904.4,,,,,0,0,99.99,,,,,67.4,*69
[2021-02-22 16:49:05.789] $GNGGA,74904.5,,,,,0,0,99.99,,,,,67.5,*69
[2021-02-22 16:49:05.789] $GNGGA,74904.6,,,,,0,0,99.99,,,,,67.6,*69
[2021-02-22 16:49:05.789] $GNGGA,74904.7,,,,,0,0,99.99,,,,,67.7,*69
[2021-02-22 16:49:05.789] $GNGGA,74904.8,,,,,0,0,99.99,,,,,67.8,*69
[2021-02-22 16:49:05.789] $GNGGA,74904.9,,,,,0,0,99.99,,,,,67.9,*69
[2021-02-22 16:49:05.789] $GNGGA,74905,,,,,0,0,99.99,,,,,68,*67
[2021-02-22 16:49:05.789] $GNGGA,74905.1,,,,,0,0,99.99,,,,,68.1,*67
[2021-02-22 16:49:05.789] $GNGGA,74905.2,,,,,0,0,99.99,,,,,68.2,*67
[2021-02-22 16:49:05.882] $GNGGA,74905.3,,,,,0,0,99.99,,,,,68.3,*67
[2021-02-22 16:49:05.976] $GNGGA,74905.4,,,,,0,0,99.99,,,,,68.4,*67
[2021-02-22 16:49:06.070] $GNGGA,74905.5,,,,,0,0,99.99,,,,,68.5,*67
[2021-02-22 16:49:06.164] $GNGGA,74905.6,,,,,0,0,99.99,,,,,68.6,*67
[2021-02-22 16:49:06.288] $GNGGA,74905.7,,,,,0,0,99.99,,,,,68.7,*67
[2021-02-22 16:49:06.382] $GNGGA,74905.8,,,,,0,0,99.99,,,,,68.8,*67
[2021-02-22 16:49:06.476] $GNGGA,74905.9,,,,,0,0,99.99,,,,,68.9,*67
[2021-02-22 16:49:06.585] $GNGGA,74906,,,,,0,0,99.99,,,,,69,*65
[2021-02-22 16:49:06.679] $GNGGA,74906.1,,,,,0,0,99.99,,,,,69.1,*65
[2021-02-22 16:49:06.773] $GNGGA,74906.2,,,,,0,0,99.99,,,,,69.2,*65
[2021-02-22 16:49:06.867] $GNGGA,74906.3,,,,,0,0,99.99,,,,,69.3,*65
[2021-02-22 16:49:06.992] $GNGGA,74906.4,,,,,0,0,99.99,,,,,69.4,*65
[2021-02-22 16:49:07.085] $GNGGA,74906.5,,,,,0,0,99.99,,,,,69.5,*65
[2021-02-22 16:49:07.179] $GNGGA,74906.6,,,,,0,0,99.99,,,,,69.6,*65
[2021-02-22 16:49:07.273] $GNGGA,74906.7,,,,,0,0,99.99,,,,,69.7,*65
[2021-02-22 16:49:07.382] $GNGGA,74906.8,,,,,0,0,99.99,,,,,69.8,*65
[2021-02-22 16:49:07.476] $GNGGA,74906.9,,,,,0,0,99.99,,,,,69.9,*65
[2021-02-22 16:49:07.585] $GNGGA,74907,,,,,0,0,99.99,,,,,70,*6C
[2021-02-22 16:49:07.679] $GNGGA,74907.1,,,,,0,0,99.99,,,,,70.1,*6C
[2021-02-22 16:49:07.788] $GNGGA,74907.2,,,,,0,0,99.99,,,,,70.2,*6C
[2021-02-22 16:49:07.882] $GNGGA,74907.3,,,,,0,0,99.99,,,,,70.3,*6C
[2021-02-22 16:49:07.976] $GNGGA,74907.4,,,,,0,0,99.99,,,,,70.4,*6C
[2021-02-22 16:49:08.070] $GNGGA,74907.5,,,,,0,0,99.99,,,,,70.5,*6C
[2021-02-22 16:49:08.179] $GNGGA,74907.6,,,,,0,0,99.99,,,,,70.6,*6C
[2021-02-22 16:49:08.288] $GNGGA,74907.7,,,,,0,0,99.99,,,,,70.7,*6C
[2021-02-22 16:49:08.382] $GNGGA,74907.8,,,,,0,0,99.99,,,,,70.8,*6C
[2021-02-22 16:49:08.476] $GNGGA,74907.9,,,,,0,0,99.99,,,,,70.9,*6C
[2021-02-22 16:49:08.585] $GNGGA,74908,,,,,0,0,99.99,,,,,71,*62
[2021-02-22 16:49:08.679] $GNGGA,74908.1,,,,,0,0,99.99,,,,,71.1,*62
[2021-02-22 16:49:08.773] $GNGGA,74908.2,,,,,0,0,99.99,,,,,71.2,*62
[2021-02-22 16:49:08.866] $GNGGA,74908.3,,,,,0,0,99.99,,,,,71.3,*62
[2021-02-22 16:49:08.991] $GNGGA,74908.4,,,,,0,0,99.99,,,,,71.4,*62
[2021-02-22 16:49:09.085] $GNGGA,74908.5,,,,,0,0,99.99,,,,,71.5,*62
[2021-02-22 16:49:09.179] $GNGGA,74908.6,,,,,0,0,99.99,,,,,71.6,*62
[2021-02-22 16:49:09.273] $GNGGA,74908.7,,,,,0,0,99.99,,,,,71.7,*62
[2021-02-22 16:49:09.382] $GNGGA,74908.8,,,,,0,0,99.99,,,,,71.8,*62
[2021-02-22 16:49:09.476] $GNGGA,74908.9,,,,,0,0,99.99,,,,,71.9,*62
[2021-02-22 16:49:09.585] $GNGGA,74909,,,,,0,0,99.99,,,,,72,*60
[2021-02-22 16:49:09.679] $GNGGA,74909.1,,,,,0,0,99.99,,,,,72.1,*60
[2021-02-22 16:49:09.788] $GNGGA,74909.2,,,,,0,0,99.99,,,,,72.2,*60
[2021-02-22 16:49:09.882] $GNGGA,74909.3,,,,,0,0,99.99,,,,,72.3,*60
[2021-02-22 16:49:09.976] $GNGGA,74909.4,,,,,0,0,99.99,,,,,72.4,*60
[2021-02-22 16:49:10.070] $GNGGA,74909.5,,,,,0,0,99.99,,,,,72.5,*60
[2021-02-22 16:49:10.179] $GNGGA,74909.6,,,,,0,0,99.99,,,,,72.6,*60
[2021-02-22 16:49:10.288] $GNGGA,74909.7,,,,,0,0,99.99,,,,,72.7,*60
[2021-02-22 16:49:10.382] $GNGGA,74909.8,,,,,0,0,99.99,,,,,72.8,*60
[2021-02-22 16:49:10.476] $GNGGA,74909.9,,,,,0,0,99.99,,,,,72.9,*60
[2021-02-22 16:49:10.585] $GNGGA,74910,,,,,0,0,99.99,,,,,73,*69
[2021-02-22 16:49:10.679] $GNGGA,74910.1,,,,,0,0,99.99,,,,,73.1,*69
[2021-02-22 16:49:10.773] $GNGGA,74910.2,,,,,0,0,99.99,,,,,73.2,*69
[2021-02-22 16:49:10.866] $GNGGA,74910.3,,,,,0,0,99.99,,,,,73.3,*69
[2021-02-22 16:49:10.991] $GNGGA,74910.4,,,,,0,0,99.99,,,,,73.4,*69
[2021-02-22 16:49:11.085] $GNGGA,74910.5,,,,,0,0,99.99,,,,,73.5,*69
[2021-02-22 16:49:11.179] $GNGGA,74910.6,,,,,0,0,99.99,,,,,73.6,*69
[2021-02-22 16:49:11.273] $GNGGA,74910.7,,,,,0,0,99.99,,,,,73.7,*69
[2021-02-22 16:49:11.382] $GNGGA,74910.8,,,,,0,0,99.99,,,,,73.8,*69
[2021-02-22 16:49:11.476] $GNGGA,74910.9,,,,,0,0,99.99,,,,,73.9,*69
[2021-02-22 16:49:11.569] $GNGGA,74911,,,,,0,0,99.99,,,,,74,*6F
[2021-02-22 16:49:11.679] $GNGGA,74911.1,,,,,0,0,99.99,,,,,74.1,*6F
[2021-02-22 16:49:11.788] $GNGGA,74911.2,,,,,0,0,99.99,,,,,74.2,*6F
[2021-02-22 16:49:11.882] $GNGGA,74911.3,,,,,0,0,99.99,,,,,74.3,*6F
[2021-02-22 16:49:11.976] $GNGGA,74911.4,,,,,0,0,99.99,,,,,74.4,*6F
[2021-02-22 16:49:12.069] $GNGGA,74911.5,,,,,0,0,99.99,,,,,74.5,*6F
[2021-02-22 16:49:12.179] $GNGGA,74911.6,,,,,0,0,99.99,,,,,74.6,*6F
[2021-02-22 16:49:12.288] $GNGGA,74911.7,,,,,0,0,99.99,,,,,74.7,*6F
[2021-02-22 16:49:12.382] $GNGGA,74911.8,,,,,0,0,99.99,,,,,74.8,*6F
[2021-02-22 16:49:12.476] $GNGGA,74911.9,,,,,0,0,99.99,,,,,74.9,*6F
[2021-02-22 16:49:12.585] $GNGGA,74912,,,,,0,0,99.99,,,,,75,*6D
[2021-02-22 16:49:12.679] $GNGGA,74912.1,,,,,0,0,99.99,,,,,75.1,*6D
[2021-02-22 16:49:12.772] $GNGGA,74912.2,,,,,0,0,99.99,,,,,75.2,*6D
[2021-02-22 16:49:12.866] $GNGGA,74912.3,,,,,0,0,99.99,,,,,75.3,*6D
[2021-02-22 16:49:12.991] $GNGGA,74912.4,,,,,0,0,99.99,,,,,75.4,*6D
[2021-02-22 16:49:13.085] $GNGGA,74912.5,,,,,0,0,99.99,,,,,75.5,*6D
[2021-02-22 16:49:13.179] $GNGGA,74912.6,,,,,0,0,99.99,,,,,75.6,*6D
[2021-02-22 16:49:13.272] $GNGGA,74912.7,,,,,0,0,99.99,,,,,75.7,*6D
[2021-02-22 16:49:13.382] $GNGGA,74912.8,,,,,0,0,99.99,,,,,75.8,*6D
[2021-02-22 16:49:13.476] $GNGGA,74912.9,,,,,0,0,99.99,,,,,75.9,*6D
[2021-02-22 16:49:13.569] $GNGGA,74913,,,,,0,0,99.99,,,,,76,*6F
[2021-02-22 16:49:13.679] $GNGGA,74913.1,,,,,0,0,99.99,,,,,76.1,*6F
[2021-02-22 16:49:13.788] $GNGGA,74913.2,,,,,0,0,99.99,,,,,76.2,*6F
[2021-02-22 16:49:13.882] $GNGGA,74913.3,,,,,0,0,99.99,,,,,76.3,*6F
[2021-02-22 16:49:13.976] $GNGGA,74913.4,,,,,0,0,99.99,,,,,76.4,*6F
[2021-02-22 16:49:14.069] $GNGGA,74913.5,,,,,0,0,99.99,,,,,76.5,*6F
[2021-02-22 16:49:14.179] $GNGGA,74913.6,,,,,0,0,99.99,,,,,76.6,*6F
[2021-02-22 16:49:14.288] $GNGGA,74913.7,,,,,0,0,99.99,,,,,76.7,*6F
[2021-02-22 16:49:14.382] $GNGGA,74913.8,,,,,0,0,99.99,,,,,76.8,*6F
[2021-02-22 16:49:14.475] $GNGGA,74913.9,,,,,0,0,99.99,,,,,76.9,*6F
[2021-02-22 16:49:14.585] $GNGGA,74914,,,,,0,0,99.99,,,,,77,*69
[2021-02-22 16:49:14.679] $GNGGA,74914.1,,,,,0,0,99.99,,,,,77.1,*69
[2021-02-22 16:49:14.772] $GNGGA,74914.2,,,,,0,0,99.99,,,,,77.2,*69
[2021-02-22 16:49:14.866] $GNGGA,74914.3,,,,,0,0,99.99,,,,,77.3,*69
[2021-02-22 16:49:14.991] $GNGGA,74914.4,,,,,0,0,99.99,,,,,77.4,*69
[2021-02-22 16:49:15.085] $GNGGA,74914.5,,,,,0,0,99.99,,,,,77.5,*69
[2021-02-22 16:49:15.179] $GNGGA,74914.6,,,,,0,0,99.99,,,,,77.6,*69
[2021-02-22 16:49:15.272] $GNGGA,74914.7,,,,,0,0,99.99,,,,,77.7,*69
[2021-02-22 16:49:15.382] $GNGGA,74914.8,,,,,0,0,99.99,,,,,77.8,*69
[2021-02-22 16:49:15.475] $GNGGA,74914.9,,,,,0,0,99.99,,,,,77.9,*69
[2021-02-22 16:49:15.569] $GNGGA,74915,,,,,0,0,99.99,,,,,78,*67
[2021-02-22 16:49:15.679] $GNGGA,74915.1,,,,,0,0,99.99,,,,,78.1,*67
[2021-02-22 16:49:15.788] $GNGGA,74915.2,,,,,0,0,99.99,,,,,78.2,*67
[2021-02-22 16:49:15.882] $GNGGA,74915.3,,,,,0,0,99.99,,,,,78.3,*67
[2021-02-22 16:49:15.975] $GNGGA,74915.4,,,,,0,0,99.99,,,,,78.4,*67
[2021-02-22 16:49:16.069] $GNGGA,74915.5,,,,,0,0,99.99,,,,,78.5,*67
[2021-02-22 16:49:16.178] $GNGGA,74915.6,,,,,0,0,99.99,,,,,78.6,*67
[2021-02-22 16:49:16.272] $GNGGA,74915.7,,,,,0,0,99.99,,,,,78.7,*67
[2021-02-22 16:49:16.382] $GNGGA,74915.8,,,,,0,0,99.99,,,,,78.8,*67
[2021-02-22 16:49:16.475] $GNGGA,74915.9,,,,,0,0,99.99,,,,,78.9,*67
[2021-02-22 16:49:16.585] $GNGGA,74916,,,,,0,0,99.99,,,,,79,*65
[2021-02-22 16:49:16.678] $GNGGA,74916.1,,,,,0,0,99.99,,,,,79.1,*65
[2021-02-22 16:49:16.772] $GNGGA,74916.2,,,,,0,0,99.99,,,,,79.2,*65
[2021-02-22 16:49:16.866] $GNGGA,74916.3,,,,,0,0,99.99,,,,,79.3,*65
[2021-02-22 16:49:16.991] $GNGGA,74916.4,,,,,0,0,99.99,,,,,79.4,*65
[2021-02-22 16:49:17.085] $GNGGA,74916.5,,,,,0,0,99.99,,,,,79.5,*65
[2021-02-22 16:49:17.178] $GNGGA,74916.6,,,,,0,0,99.99,,,,,79.6,*65
[2021-02-22 16:49:17.272] $GNGGA,74916.7,,,,,0,0,99.99,,,,,79.7,*65
[2021-02-22 16:49:17.381] $GNGGA,74916.8,,,,,0,0,99.99,,,,,79.8,*65
[2021-02-22 16:49:17.475] $GNGGA,74916.9,,,,,0,0,99.99,,,,,79.9,*65
[2021-02-22 16:49:17.569] $GNGGA,74917,,,,,0,0,99.99,,,,,80,*62
[2021-02-22 16:49:17.678] $GNGGA,74917.1,,,,,0,0,99.99,,,,,80.1,*62
[2021-02-22 16:49:17.788] $GNGGA,74917.2,,,,,0,0,99.99,,,,,80.2,*62
[2021-02-22 16:49:17.881] $GNGGA,74917.3,,,,,0,0,99.99,,,,,80.3,*62
[2021-02-22 16:49:17.975] $GNGGA,74917.4,,,,,0,0,99.99,,,,,80.4,*62
[2021-02-22 16:49:18.069] $GNGGA,74917.5,,,,,0,0,99.99,,,,,80.5,*62
[2021-02-22 16:49:18.178] $GNGGA,74917.6,,,,,0,0,99.99,,,,,80.6,*62
[2021-02-22 16:49:18.272] $GNGGA,74917.7,,,,,0,0,99.99,,,,,80.7,*62
[2021-02-22 16:49:18.381] $GNGGA,74917.8,,,,,0,0,99.99,,,,,80.8,*62
[2021-02-22 16:49:18.475] $GNGGA,74917.9,,,,,0,0,99.99,,,,,80.9,*62
[2021-02-22 16:49:18.585] $GNGGA,74918,,,,,0,0,99.99,,,,,81,*6C
[2021-02-22 16:49:18.678] $GNGGA,74918.1,,,,,0,0,99.99,,,,,81.1,*6C
[2021-02-22 16:49:18.772] $GNGGA,74918.2,,,,,0,0,99.99,,,,,81.2,*6C
[2021-02-22 16:49:18.866] $GNGGA,74918.3,,,,,0,0,99.99,,,,,81.3,*6C
[2021-02-22 16:49:18.991] $GNGGA,74918.4,,,,,0,0,99.99,,,,,81.4,*6C
[2021-02-22 16:49:19.085] $GNGGA,74918.5,,,,,0,0,99.99,,,,,81.5,*6C
[2021-02-22 16:49:19.178] $GNGGA,74918.6,,,,,0,0,99.99,,,,,81.6,*6C
[2021-02-22 16:49:19.272] $GNGGA,74918.7,,,,,0,0,99.99,,,,,81.7,*6C
[2021-02-22 16:49:19.381] $GNGGA,74918.8,,,,,0,0,99.99,,,,,81.8,*6C
[2021-02-22 16:49:19.475] $GNGGA,74918.9,,,,,0,0,99.99,,,,,81.9,*6C
[2021-02-22 16:49:19.569] $GNGGA,74919,,,,,0,0,99.99,,,,,82,*6E
[2021-02-22 16:49:19.678] $GNGGA,74919.1,,,,,0,0,99.99,,,,,82.1,*6E
[2021-02-22 16:49:19.788] $GNGGA,74919.2,,,,,0,0,99.99,,,,,82.2,*6E
[2021-02-22 16:49:19.881] $GNGGA,74919.3,,,,,0,0,99.99,,,,,82.3,*6E
[2021-02-22 16:49:19.975] $GNGGA,74919.4,,,,,0,0,99.99,,,,,82.4,*6E
[2021-02-22 16:49:20.069] $GNGGA,74919.5,,,,,0,0,99.99,,,,,82.5,*6E
[2021-02-22 16:49:20.178] $GNGGA,74919.6,,,,,0,0,99.99,,,,,82.6,*6E
[2021-02-22 16:49:20.272] $GNGGA,74919.7,,,,,0,0,99.99,,,,,82.7,*6E
[2021-02-22 16:49:20.381] $GNGGA,74919.8,,,,,0,0,99.99,,,,,82.8,*6E
[2021-02-22 16:49:20.475] $GNGGA,74919.9,,,,,0,0,99.99,,,,,82.9,*6E
[2021-02-22 16:49:20.584] $GNGGA,74920,,,,,0,0,99.99,,,,,83,*65
[2021-02-22 16:49:20.678] $GNGGA,74920.1,,,,,0,0,99.99,,,,,83.1,*65
[2021-02-22 16:49:20.772] $GNGGA,74920.2,,,,,0,0,99.99,,,,,83.2,*65
[2021-02-22 16:49:20.866] $GNGGA,74920.3,,,,,0,0,99.99,,,,,83.3,*65
[2021-02-22 16:49:20.975] $GNGGA,74920.4,,,,,0,0,99.99,,,,,83.4,*65
[2021-02-22 16:49:21.084] $GNGGA,74920.5,,,,,0,0,99.99,,,,,83.5,*65
[2021-02-22 16:49:21.178] $GNGGA,74920.6,,,,,0,0,99.99,,,,,83.6,*65
[2021-02-22 16:49:21.272] $GNGGA,74920.7,,,,,0,0,99.99,,,,,83.7,*65
[2021-02-22 16:49:21.381] $GNGGA,74920.8,,,,,0,0,99.99,,,,,83.8,*65
[2021-02-22 16:49:21.475] $GNGGA,74920.9,,,,,0,0,99.99,,,,,83.9,*65
[2021-02-22 16:49:21.569] $GNGGA,74921,,,,,0,0,99.99,,,,,84,*63
[2021-02-22 16:49:21.678] $GNGGA,74921.1,,,,,0,0,99.99,,,,,84.1,*63
[2021-02-22 16:49:21.787] $GNGGA,74921.2,,,,,0,0,99.99,,,,,84.2,*63
[2021-02-22 16:49:21.881] $GNGGA,74921.3,,,,,0,0,99.99,,,,,84.3,*63
[2021-02-22 16:49:21.975] $GNGGA,74921.4,,,,,0,0,99.99,,,,,84.4,*63
[2021-02-22 16:49:22.069] $GNGGA,74921.5,,,,,0,0,99.99,,,,,84.5,*63
[2021-02-22 16:49:22.178] $GNGGA,74921.6,,,,,0,0,99.99,,,,,84.6,*63
[2021-02-22 16:49:22.272] $GNGGA,74921.7,,,,,0,0,99.99,,,,,84.7,*63
[2021-02-22 16:49:22.381] $GNGGA,74921.8,,,,,0,0,99.99,,,,,84.8,*63
[2021-02-22 16:49:22.475] $GNGGA,74921.9,,,,,0,0,99.99,,,,,84.9,*63
[2021-02-22 16:49:22.584] $GNGGA,74922,,,,,0,0,99.99,,,,,85,*61
[2021-02-22 16:49:22.678] $GNGGA,74922.1,,,,,0,0,99.99,,,,,85.1,*61
[2021-02-22 16:49:22.772] $GNGGA,74922.2,,,,,0,0,99.99,,,,,85.2,*61
[2021-02-22 16:49:22.866] $GNGGA,74922.3,,,,,0,0,99.99,,,,,85.3,*61
[2021-02-22 16:49:22.975] $GNGGA,74922.4,,,,,0,0,99.99,,,,,85.4,*61
[2021-02-22 16:49:23.084] $GNGGA,74922.5,,,,,0,0,99.99,,,,,85.5,*61
[2021-02-22 16:49:23.178] $GNGGA,74922.6,,,,,0,0,99.99,,,,,85.6,*61
[2021-02-22 16:49:23.272] $GNGGA,74922.7,,,,,0,0,99.99,,,,,85.7,*61
[2021-02-22 16:49:23.381] $GNGGA,74922.8,,,,,0,0,99.99,,,,,85.8,*61
[2021-02-22 16:49:23.475] $GNGGA,74922.9,,,,,0,0,99.99,,,,,85.9,*61
[2021-02-22 16:49:23.569] $GNGGA,74923,,,,,0,0,99.99,,,,,86,*63
[2021-02-22 16:49:23.678] $GNGGA,74923.1,,,,,0,0,99.99,,,,,86.1,*63
[2021-02-22 16:49:23.787] $GNGGA,74923.2,,,,,0,0,99.99,,,,,86.2,*63
[2021-02-22 16:49:23.881] $GNGGA,74923.3,,,,,0,0,99.99,,,,,86.3,*63
[2021-02-22 16:49:23.975] $GNGGA,74923.4,,,,,0,0,99.99,,,,,86.4,*63
[2021-02-22 16:49:24.084] $GNGGA,74923.5,,,,,0,0,99.99,,,,,86.5,*63
[2021-02-22 16:49:24.178] $GNGGA,74923.6,,,,,0,0,99.99,,,,,86.6,*63
[2021-02-22 16:49:24.272] $GNGGA,74923.7,,,,,0,0,99.99,,,,,86.7,*63
[2021-02-22 16:49:24.381] $GNGGA,74923.8,,,,,0,0,99.99,,,,,86.8,*63
[2021-02-22 16:49:24.490] $GNGGA,74923.9,,,,,0,0,99.99,,,,,86.9,*63
[2021-02-22 16:49:24.584] $GNGGA,74924,,,,,0,0,99.99,,,,,87,*65
[2021-02-22 16:49:24.678] $GNGGA,74924.1,,,,,0,0,99.99,,,,,87.1,*65
[2021-02-22 16:49:24.772] $GNGGA,74924.2,,,,,0,0,99.99,,,,,87.2,*65
[2021-02-22 16:49:24.881] $GNGGA,74924.3,,,,,0,0,99.99,,,,,87.3,*65
[2021-02-22 16:49:24.975] $GNGGA,74924.4,,,,,0,0,99.99,,,,,87.4,*65
[2021-02-22 16:49:25.084] $GNGGA,74924.5,,,,,0,0,99.99,,,,,87.5,*65
[2021-02-22 16:49:25.178] $GNGGA,74924.6,,,,,0,0,99.99,,,,,87.6,*65
[2021-02-22 16:49:25.287] $GNGGA,74924.7,,,,,0,0,99.99,,,,,87.7,*65
[2021-02-22 16:49:25.381] $GNGGA,74924.8,,,,,0,0,99.99,,,,,87.8,*65
[2021-02-22 16:49:25.475] $GNGGA,74924.9,,,,,0,0,99.99,,,,,87.9,*65
[2021-02-22 16:49:25.568] $GNGGA,74925,,,,,0,0,99.99,,,,,88,*6B
[2021-02-22 16:49:25.693] $GNGGA,74925.1,,,,,0,0,99.99,,,,,88.1,*6B
[2021-02-22 16:49:25.787] $GNGGA,74925.2,,,,,0,0,99.99,,,,,88.2,*6B
[2021-02-22 16:49:25.881] $GNGGA,74925.3,,,,,0,0,99.99,,,,,88.3,*6B
[2021-02-22 16:49:25.975] $GNGGA,74925.4,,,,,0,0,99.99,,,,,88.4,*6B
[2021-02-22 16:49:26.084] $GNGGA,74925.5,,,,,0,0,99.99,,,,,88.5,*6B
[2021-02-22 16:49:26.178] $GNGGA,74925.6,,,,,0,0,99.99,,,,,88.6,*6B
[2021-02-22 16:49:26.272] $GNGGA,74925.7,,,,,0,0,99.99,,,,,88.7,*6B
[2021-02-22 16:49:26.381] $GNGGA,74925.8,,,,,0,0,99.99,,,,,88.8,*6B
[2021-02-22 16:49:26.490] $GNGGA,74925.9,,,,,0,0,99.99,,,,,88.9,*6B
[2021-02-22 16:49:26.584] $GNGGA,74926,,,,,0,0,99.99,,,,,89,*69
[2021-02-22 16:49:26.678] $GNGGA,74926.1,,,,,0,0,99.99,,,,,89.1,*69
[2021-02-22 16:49:26.771] $GNGGA,74926.2,,,,,0,0,99.99,,,,,89.2,*69
[2021-02-22 16:49:26.881] $GNGGA,74926.3,,,,,0,0,99.99,,,,,89.3,*69
[2021-02-22 16:49:26.975] $GNGGA,74926.4,,,,,0,0,99.99,,,,,89.4,*69
[2021-02-22 16:49:27.084] $GNGGA,74926.5,,,,,0,0,99.99,,,,,89.5,*69
[2021-02-22 16:49:27.178] $GNGGA,74926.6,,,,,0,0,99.99,,,,,89.6,*69
[2021-02-22 16:49:27.287] $GNGGA,74926.7,,,,,0,0,99.99,,,,,89.7,*69
[2021-02-22 16:49:27.381] $GNGGA,74926.8,,,,,0,0,99.99,,,,,89.8,*69
[2021-02-22 16:49:27.475] $GNGGA,74926.9,,,,,0,0,99.99,,,,,89.9,*69
[2021-02-22 16:49:27.568] $GNGGA,74927,,,,,0,0,99.99,,,,,90,*60
[2021-02-22 16:49:27.693] $GNGGA,74927.1,,,,,0,0,99.99,,,,,90.1,*60
[2021-02-22 16:49:27.787] $GNGGA,74927.2,,,,,0,0,99.99,,,,,90.2,*60
[2021-02-22 16:49:27.881] $GNGGA,74927.3,,,,,0,0,99.99,,,,,90.3,*60
[2021-02-22 16:49:27.975] $GNGGA,74927.4,,,,,0,0,99.99,,,,,90.4,*60
[2021-02-22 16:49:28.084] $GNGGA,74927.5,,,,,0,0,99.99,,,,,90.5,*60
[2021-02-22 16:49:28.178] $GNGGA,74927.6,,,,,0,0,99.99,,,,,90.6,*60
[2021-02-22 16:49:28.271] $GNGGA,74927.7,,,,,0,0,99.99,,,,,90.7,*60
[2021-02-22 16:49:28.381] $GNGGA,74927.8,,,,,0,0,99.99,,,,,90.8,*60
[2021-02-22 16:49:28.490] $GNGGA,74927.9,,,,,0,0,99.99,,,,,90.9,*60
[2021-02-22 16:49:28.584] $GNGGA,74928,,,,,0,0,99.99,,,,,91,*6E
[2021-02-22 16:49:28.678] $GNGGA,74928.1,,,,,0,0,99.99,,,,,91.1,*6E
[2021-02-22 16:49:28.771] $GNGGA,74928.2,,,,,0,0,99.99,,,,,91.2,*6E
[2021-02-22 16:49:28.881] $GNGGA,74928.3,,,,,0,0,99.99,,,,,91.3,*6E
[2021-02-22 16:49:28.974] $GNGGA,74928.4,,,,,0,0,99.99,,,,,91.4,*6E
[2021-02-22 16:49:29.084] $GNGGA,74928.5,,,,,0,0,99.99,,,,,91.5,*6E
[2021-02-22 16:49:29.178] $GNGGA,74928.6,,,,,0,0,99.99,,,,,91.6,*6E
[2021-02-22 16:49:29.287] $GNGGA,74928.7,,,,,0,0,99.99,,,,,91.7,*6E
[2021-02-22 16:49:29.381] $GNGGA,74928.8,,,,,0,0,99.99,,,,,91.8,*6E
[2021-02-22 16:49:29.474] $GNGGA,74928.9,,,,,0,0,99.99,,,,,91.9,*6E
[2021-02-22 16:49:29.568] $GNGGA,74929,,,,,0,0,99.99,,,,,92,*6C
[2021-02-22 16:49:29.678] $GNGGA,74929.1,,,,,0,0,99.99,,,,,92.1,*6C
[2021-02-22 16:49:29.787] $GNGGA,74929.2,,,,,0,0,99.99,,,,,92.2,*6C
[2021-02-22 16:49:29.881] $GNGGA,74929.3,,,,,0,0,99.99,,,,,92.3,*6C
[2021-02-22 16:49:29.974] $GNGGA,74929.4,,,,,0,0,99.99,,,,,92.4,*6C
[2021-02-22 16:49:30.084] $GNGGA,74929.5,,,,,0,0,99.99,,,,,92.5,*6C
[2021-02-22 16:49:30.178] $GNGGA,74929.6,,,,,0,0,99.99,,,,,92.6,*6C
[2021-02-22 16:49:30.271] $GNGGA,74929.7,,,,,0,0,99.99,,,,,92.7,*6C
[2021-02-22 16:49:30.381] $GNGGA,74929.8,,,,,0,0,99.99,,,,,92.8,*6C
[2021-02-22 16:49:30.490] $GNGGA,74929.9,,,,,0,0,99.99,,,,,92.9,*6C
[2021-02-22 16:49:30.584] $GNGGA,74930,,,,,0,0,99.99,,,,,93,*65
[2021-02-22 16:49:30.677] $GNGGA,74930.1,,,,,0,0,99.99,,,,,93.1,*65
[2021-02-22 16:49:30.771] $GNGGA,74930.2,,,,,0,0,99.99,,,,,93.2,*65
[2021-02-22 16:49:30.881] $GNGGA,74930.3,,,,,0,0,99.99,,,,,93.3,*65
[2021-02-22 16:49:30.974] $GNGGA,74930.4,,,,,0,0,99.99,,,,,93.4,*65
[2021-02-22 16:49:31.084] $GNGGA,74930.5,,,,,0,0,99.99,,,,,93.5,*65
[2021-02-22 16:49:31.177] $GNGGA,74930.6,,,,,0,0,99.99,,,,,93.6,*65
[2021-02-22 16:49:31.287] $GNGGA,74930.7,,,,,0,0,99.99,,,,,93.7,*65
[2021-02-22 16:49:31.381] $GNGGA,74930.8,,,,,0,0,99.99,,,,,93.8,*65
[2021-02-22 16:49:31.474] $GNGGA,74930.9,,,,,0,0,99.99,,,,,93.9,*65
[2021-02-22 16:49:31.568] $GNGGA,74931,,,,,0,0,99.99,,,,,94,*63
[2021-02-22 16:49:31.677] $GNGGA,74931.1,,,,,0,0,99.99,,,,,94.1,*63
[2021-02-22 16:49:31.787] $GNGGA,74931.2,,,,,0,0,99.99,,,,,94.2,*63
[2021-02-22 16:49:31.881] $GNGGA,74931.3,,,,,0,0,99.99,,,,,94.3,*63
[2021-02-22 16:49:31.974] $GNGGA,74931.4,,,,,0,0,99.99,,,,,94.4,*63
[2021-02-22 16:49:32.084] $GNGGA,74931.5,,,,,0,0,99.99,,,,,94.5,*63
[2021-02-22 16:49:32.177] $GNGGA,74931.6,,,,,0,0,99.99,,,,,94.6,*63
[2021-02-22 16:49:32.271] $GNGGA,74931.7,,,,,0,0,99.99,,,,,94.7,*63
[2021-02-22 16:49:32.365] $GNGGA,74931.8,,,,,0,0,99.99,,,,,94.8,*63
[2021-02-22 16:49:32.490] $GNGGA,74931.9,,,,,0,0,99.99,,,,,94.9,*63
[2021-02-22 16:49:32.584] $GNGGA,74932,,,,,0,0,99.99,,,,,95,*61
[2021-02-22 16:49:32.677] $GNGGA,74932.1,,,,,0,0,99.99,,,,,95.1,*61
[2021-02-22 16:49:32.771] $GNGGA,74932.2,,,,,0,0,99.99,,,,,95.2,*61
[2021-02-22 16:49:32.880] $GNGGA,74932.3,,,,,0,0,99.99,,,,,95.3,*61
[2021-02-22 16:49:32.974] $GNGGA,74932.4,,,,,0,0,99.99,,,,,95.4,*61
[2021-02-22 16:49:33.084] $GNGGA,74932.5,3713.961496,N,13701.56717,E,5,5,1.75,98.162,M,37.564,M,95.5,3006*69
[2021-02-22 16:49:33.177] $GNGGA,74932.6,3713.961492,N,13701.56717,E,5,2,99.9,98.188,M,37.564,M,95.6,3006*5C
[2021-02-22 16:49:33.271] $GNGGA,74932.7,3713.9615,N,13701.56716,E,5,0,99.9,98.189,M,37.564,M,95.7,3006*53
[2021-02-22 16:49:33.380] $GNGGA,74932.8,3713.961501,N,13701.56716,E,5,0,99.9,98.187,M,37.564,M,95.8,3006*54
[2021-02-22 16:49:33.474] $GNGGA,74932.9,3713.961501,N,13701.56716,E,5,0,99.9,98.184,M,37.564,M,95.9,3006*53
[2021-02-22 16:49:33.583] $GNGGA,74933,3713.961502,N,13701.56716,E,5,0,99.9,98.181,M,37.564,M,96,3006*52
[2021-02-22 16:49:33.677] $GNGGA,74933.1,3713.961503,N,13701.56716,E,5,0,99.9,98.178,M,37.564,M,96.1,3006*59
[2021-02-22 16:49:33.771] $GNGGA,74933.2,3713.961503,N,13701.56716,E,5,0,99.9,98.176,M,37.564,M,96.2,3006*50
[2021-02-22 16:49:33.880] $GNGGA,74933.3,3713.961504,N,13701.56716,E,5,0,99.9,98.174,M,37.564,M,96.3,3006*5E
[2021-02-22 16:49:33.974] $GNGGA,74933.4,3713.961504,N,13701.56716,E,5,0,99.9,98.173,M,37.564,M,96.4,3006*52
[2021-02-22 16:49:34.083] $GNGGA,74933.5,3713.961504,N,13701.56716,E,5,0,99.9,98.174,M,37.564,M,96.5,3006*5A
[2021-02-22 16:49:34.177] $GNGGA,74933.6,3713.961504,N,13701.56716,E,5,0,99.9,98.176,M,37.564,M,96.6,3006*58
[2021-02-22 16:49:34.271] $GNGGA,74933.7,3713.961504,N,13701.56716,E,5,0,99.9,98.175,M,37.564,M,96.7,3006*57
[2021-02-22 16:49:34.380] $GNGGA,74933.8,3713.961504,N,13701.56716,E,5,0,99.9,98.174,M,37.564,M,96.8,3006*52
[2021-02-22 16:49:34.474] $GNGGA,74933.9,3713.961504,N,13701.56716,E,5,0,99.9,98.173,M,37.564,M,96.9,3006*50
[2021-02-22 16:49:34.583] $GNGGA,74934,3713.961504,N,13701.56716,E,5,0,99.9,98.174,M,37.564,M,97,3006*5B
[2021-02-22 16:49:34.677] $GNGGA,74934.1,3713.961504,N,13701.56716,E,5,0,99.9,98.175,M,37.564,M,97.1,3006*50
[2021-02-22 16:49:34.771] $GNGGA,74934.2,3713.961545,N,13701.5673,E,5,3,99.9,97.994,M,37.564,M,97.2,3006*51
[2021-02-22 16:49:34.865] $GNGGA,74934.3,3713.961387,N,13701.56741,E,5,4,2.64,97.969,M,37.564,M,97.3,3006*63
[2021-02-22 16:49:34.974] $GNGGA,74934.4,3713.961528,N,13701.5676,E,5,5,1.75,96.81,M,37.564,M,97.4,3006*6A
[2021-02-22 16:49:35.083] $GNGGA,74934.5,3713.961611,N,13701.56765,E,5,5,1.75,96.307,M,37.564,M,97.5,3006*6E
[2021-02-22 16:49:35.177] $GNGGA,74934.6,3713.961633,N,13701.5677,E,5,5,1.75,96.265,M,37.564,M,97.6,3006*64
[2021-02-22 16:49:35.271] $GNGGA,74934.7,3713.961544,N,13701.5675,E,5,5,1.75,95.022,M,37.564,M,97.7,3006*6A
[2021-02-22 16:49:35.365] $GNGGA,74934.8,3713.961485,N,13701.56744,E,5,5,1.75,94.782,M,37.564,M,97.8,3006*61
[2021-02-22 16:49:35.474] $GNGGA,74934.9,3713.961514,N,13701.56747,E,5,5,1.75,94.488,M,37.564,M,97.9,3006*6B
[2021-02-22 16:49:35.599] $GNGGA,74935,3713.961492,N,13701.56742,E,5,5,1.75,94.337,M,37.564,M,98,3006*68
[2021-02-22 16:49:35.677] $GNGGA,74935.1,3713.961481,N,13701.5674,E,5,5,1.75,94.267,M,37.564,M,98.1,3006*6F
[2021-02-22 16:49:35.771] $GNGGA,74935.2,3713.961469,N,13701.56741,E,5,5,1.75,94.283,M,37.564,M,98.2,3006*6E
[2021-02-22 16:49:35.880] $GNGGA,74935.3,3713.961469,N,13701.56746,E,5,5,1.75,94.312,M,37.564,M,98.3,3006*6C
[2021-02-22 16:49:35.990] $GNGGA,74935.4,3713.961441,N,13701.56741,E,5,5,1.75,94.225,M,37.564,M,98.4,3006*61
[2021-02-22 16:49:36.068] $GNGGA,74935.5,3713.961415,N,13701.56735,E,5,5,1.75,94.079,M,37.564,M,98.5,3006*6E
[2021-02-22 16:49:36.177] $GNGGA,74935.6,3713.961389,N,13701.56733,E,5,5,1.75,94.024,M,37.564,M,98.6,3006*63
[2021-02-22 16:49:36.271] $GNGGA,74935.7,3713.96135,N,13701.56725,E,5,5,1.75,93.902,M,37.564,M,98.7,3006*6E
[2021-02-22 16:49:36.396] $GNGGA,74935.8,3713.961317,N,13701.56716,E,5,5,1.75,93.741,M,37.564,M,98.8,3006*6C
[2021-02-22 16:49:36.474] $GNGGA,74935.9,3713.961293,N,13701.56712,E,5,5,1.75,93.593,M,37.564,M,98.9,3006*61
[2021-02-22 16:49:36.568] $GNGGA,74936,3713.961276,N,13701.56711,E,5,5,1.75,93.573,M,37.564,M,99,3006*6F
[2021-02-22 16:49:36.677] $GNGGA,74936.1,3713.96127,N,13701.56711,E,5,5,1.75,93.54,M,37.564,M,99.1,3006*6F
[2021-02-22 16:49:36.786] $GNGGA,74936.2,3713.961271,N,13701.56714,E,5,5,1.75,93.481,M,37.564,M,99.2,3006*62
[2021-02-22 16:49:36.865] $GNGGA,74936.3,3713.961265,N,13701.56715,E,5,5,1.75,93.502,M,37.564,M,99.3,3006*62
[2021-02-22 16:49:36.974] $GNGGA,74936.4,3713.961254,N,13701.56715,E,5,5,1.75,93.517,M,37.564,M,99.4,3006*65
[2021-02-22 16:49:37.068] $GNGGA,74936.5,3713.961266,N,13701.56716,E,5,5,1.75,93.498,M,37.564,M,99.5,3006*64
[2021-02-22 16:49:37.193] $GNGGA,74936.6,3713.961265,N,13701.56718,E,5,5,1.75,93.529,M,37.564,M,99.6,3006*63
[2021-02-22 16:49:37.271] $GNGGA,74936.7,3713.961226,N,13701.56719,E,5,5,1.75,93.615,M,37.564,M,99.7,3006*6C
[2021-02-22 16:49:37.365] $GNGGA,74936.8,3713.961197,N,13701.56721,E,5,5,1.75,93.596,M,37.564,M,99.8,3006*6B
[2021-02-22 16:49:37.474] $GNGGA,74936.9,3713.961148,N,13701.56715,E,5,5,1.75,93.271,M,37.564,M,99.9,3006*65
[2021-02-22 16:49:37.599] $GNGGA,74937,3713.961145,N,13701.56716,E,5,5,1.75,93.297,M,37.564,M,100,3006*53
[2021-02-22 16:49:37.677] $GNGGA,74937.1,3713.96113,N,13701.56716,E,5,5,1.75,93.265,M,37.564,M,100.1,3006*5F
[2021-02-22 16:49:37.771] $GNGGA,74937.2,3713.961112,N,13701.56714,E,5,5,1.75,93.153,M,37.564,M,100.2,3006*5E
[2021-02-22 16:49:37.880] $GNGGA,74937.3,3713.961093,N,13701.56711,E,5,5,1.75,93.05,M,37.564,M,100.3,3006*57
[2021-02-22 16:49:37.974] $GNGGA,74937.4,3713.961091,N,13701.56711,E,5,5,1.75,93.053,M,37.564,M,100.4,3006*50
[2021-02-22 16:49:38.099] $GNGGA,74937.5,3713.961086,N,13701.56712,E,5,5,1.75,93.09,M,37.564,M,100.5,3006*54
[2021-02-22 16:49:38.177] $GNGGA,74937.6,3713.961075,N,13701.56712,E,5,5,1.75,93.117,M,37.564,M,100.6,3006*54
[2021-02-22 16:49:38.271] $GNGGA,74937.7,3713.961073,N,13701.56712,E,5,5,1.75,93.138,M,37.564,M,100.7,3006*5C
[2021-02-22 16:49:38.380] $GNGGA,74937.8,3713.961064,N,13701.56712,E,5,5,1.75,93.171,M,37.564,M,100.8,3006*57
[2021-02-22 16:49:38.474] $GNGGA,74937.9,3713.961065,N,13701.56713,E,5,5,1.75,93.193,M,37.564,M,100.9,3006*58
[2021-02-22 16:49:38.599] $GNGGA,74938,3713.961066,N,13701.56713,E,5,5,1.75,93.215,M,37.564,M,101,3006*52
[2021-02-22 16:49:38.677] $GNGGA,74938.1,3713.961074,N,13701.56715,E,5,5,1.75,93.305,M,37.564,M,101.1,3006*51
[2021-02-22 16:49:38.771] $GNGGA,74938.2,3713.961074,N,13701.56716,E,5,5,1.75,93.324,M,37.564,M,101.2,3006*5F
[2021-02-22 16:49:38.880] $GNGGA,74938.3,3713.96108,N,13701.56717,E,5,5,1.75,93.386,M,37.564,M,101.3,3006*51
[2021-02-22 16:49:38.974] $GNGGA,74938.4,3713.961078,N,13701.56739,E,4,5,1.75,93.609,M,37.564,M,101.4,3006*5D
[2021-02-22 16:49:39.083] $GNGGA,74938.5,3713.961025,N,13701.56744,E,4,5,1.75,93.785,M,37.564,M,101.5,3006*5B
[2021-02-22 16:49:39.177] $GNGGA,74938.6,3713.961024,N,13701.56744,E,4,5,1.75,93.789,M,37.564,M,101.6,3006*59
[2021-02-22 16:49:39.271] $GNGGA,74938.7,3713.961023,N,13701.56744,E,4,5,1.75,93.79,M,37.564,M,101.7,3006*51
[2021-02-22 16:49:39.380] $GNGGA,74938.8,3713.961021,N,13701.56744,E,4,9,1.12,93.798,M,37.564,M,101.8,3006*51
[2021-02-22 16:49:39.474] $GNGGA,74938.9,3713.960983,N,13701.56737,E,4,11,0.99,93.439,M,37.564,M,101.9,3006*50
[2021-02-22 16:49:39.599] $GNGGA,74939,3713.960973,N,13701.56729,E,4,13,0.95,92.992,M,37.564,M,102,3006*58
[2021-02-22 16:49:39.677] $GNGGA,74939.1,3713.960979,N,13701.56728,E,4,13,0.95,92.964,M,37.564,M,102.1,3006*55
[2021-02-22 16:49:39.771] $GNGGA,74939.2,3713.960986,N,13701.56727,E,4,13,0.95,92.945,M,37.564,M,102.2,3006*59
[2021-02-22 16:49:39.880] $GNGGA,74939.3,3713.960992,N,13701.56727,E,4,13,0.95,92.929,M,37.564,M,102.3,3006*5A
[2021-02-22 16:49:39.974] $GNGGA,74939.4,3713.960997,N,13701.56726,E,4,13,0.95,92.908,M,37.564,M,102.4,3006*57
[2021-02-22 16:49:40.099] $GNGGA,74939.5,3713.961,N,13701.56726,E,4,13,0.95,92.896,M,37.564,M,102.5,3006*5E
[2021-02-22 16:49:40.177] $GNGGA,74939.6,3713.961004,N,13701.56725,E,4,13,0.95,92.881,M,37.564,M,102.6,3006*50
[2021-02-22 16:49:40.271] $GNGGA,74939.7,3713.961007,N,13701.56725,E,4,13,0.95,92.87,M,37.564,M,102.7,3006*56
[2021-02-22 16:49:40.380] $GNGGA,74939.8,3713.961012,N,13701.56725,E,4,13,0.95,92.855,M,37.564,M,102.8,3006*5D
[2021-02-22 16:49:40.489] $GNGGA,74939.9,3713.961014,N,13701.56724,E,4,13,0.95,92.842,M,37.564,M,102.9,3006*57
[2021-02-22 16:49:40.567] $GNGGA,74940,3713.961016,N,13701.56724,E,4,13,0.95,92.831,M,37.564,M,103,3006*51
[2021-02-22 16:49:40.677] $GNGGA,74940.1,3713.961018,N,13701.56723,E,4,13,0.95,92.822,M,37.564,M,103.1,3006*52
[2021-02-22 16:49:40.771] $GNGGA,74940.2,3713.961021,N,13701.56723,E,4,13,0.95,92.818,M,37.564,M,103.2,3006*52
[2021-02-22 16:49:40.895] $GNGGA,74940.3,3713.961024,N,13701.56723,E,4,13,0.95,92.807,M,37.564,M,103.3,3006*5D
[2021-02-22 16:49:40.974] $GNGGA,74940.4,3713.961027,N,13701.56722,E,4,13,0.95,92.791,M,37.564,M,103.4,3006*52
[2021-02-22 16:49:41.067] $GNGGA,74940.5,3713.961029,N,13701.56722,E,4,13,0.95,92.782,M,37.564,M,103.5,3006*50
[2021-02-22 16:49:41.177] $GNGGA,74940.6,3713.96103,N,13701.56722,E,4,13,0.95,92.776,M,37.564,M,103.6,3006*5F
[2021-02-22 16:49:41.286] $GNGGA,74940.7,3713.961146,N,13701.56709,E,4,13,0.95,92.382,M,37.564,M,103.7,3006*52
[2021-02-22 16:49:41.364] $GNGGA,74940.8,3713.961145,N,13701.56709,E,4,13,0.95,92.383,M,37.564,M,103.8,3006*59
[2021-02-22 16:49:41.474] $GNGGA,74940.9,3713.961146,N,13701.56709,E,4,13,0.95,92.384,M,37.564,M,103.9,3006*5E
[2021-02-22 16:49:41.567] $GNGGA,74941,3713.961146,N,13701.56709,E,4,13,0.95,92.385,M,37.564,M,104,3006*55
[2021-02-22 16:49:41.692] $GNGGA,74941.1,3713.961146,N,13701.56709,E,4,13,0.95,92.387,M,37.564,M,104.1,3006*59
[2021-02-22 16:49:41.770] $GNGGA,74941.2,3713.961146,N,13701.56709,E,4,13,0.95,92.389,M,37.564,M,104.2,3006*5E
[2021-02-22 16:49:41.864] $GNGGA,74941.3,3713.961146,N,13701.56709,E,4,13,0.95,92.39,M,37.564,M,104.3,3006*58
[2021-02-22 16:49:41.974] $GNGGA,74941.4,3713.961146,N,13701.56709,E,4,13,0.95,92.387,M,37.564,M,104.4,3006*58
[2021-02-22 16:49:42.067] $GNGGA,74941.5,3713.961146,N,13701.56709,E,4,12,1.06,92.391,M,37.564,M,104.5,3006*57
[2021-02-22 16:49:42.192] $GNGGA,74941.6,3713.961146,N,13701.56709,E,4,12,1.06,92.39,M,37.564,M,104.6,3006*58
[2021-02-22 16:49:42.269] $GNGGA,74941.7,3713.961146,N,13701.56709,E,4,12,1.06,92.392,M,37.564,M,104.7,3006*54
[2021-02-22 16:49:42.378] $GNGGA,74941.8,3713.961148,N,13701.56709,E,4,12,1.06,92.394,M,37.564,M,104.8,3006*5B
[2021-02-22 16:49:42.472] $GNGGA,74941.9,3713.961148,N,13701.56709,E,4,12,1.06,92.39,M,37.564,M,104.9,3006*59
[2021-02-22 16:49:42.581] $GNGGA,74942,3713.961147,N,13701.56709,E,4,12,1.06,92.389,M,37.564,M,105,3006*59
[2021-02-22 16:49:42.690] $GNGGA,74942.1,3713.961147,N,13701.56709,E,4,12,1.06,92.39,M,37.564,M,105.1,3006*57
[2021-02-22 16:49:42.769] $GNGGA,74942.2,3713.961148,N,13701.56709,E,4,12,1.06,92.39,M,37.564,M,105.2,3006*52
[2021-02-22 16:49:42.878] $GNGGA,74942.3,3713.961148,N,13701.56709,E,4,12,1.06,92.388,M,37.564,M,105.3,3006*5F
[2021-02-22 16:49:42.972] $GNGGA,74942.4,3713.961148,N,13701.56709,E,4,12,1.06,92.388,M,37.564,M,105.4,3006*5F
[2021-02-22 16:49:43.081] $GNGGA,74942.5,3713.961147,N,13701.56709,E,4,12,1.06,92.388,M,37.564,M,105.5,3006*5E
[2021-02-22 16:49:43.190] $GNGGA,74942.6,3713.961146,N,13701.56709,E,4,12,1.06,92.388,M,37.564,M,105.6,3006*5A
[2021-02-22 16:49:43.269] $GNGGA,74942.7,3713.961146,N,13701.56709,E,4,12,1.06,92.391,M,37.564,M,105.7,3006*5F
[2021-02-22 16:49:43.378] $GNGGA,74942.8,3713.961145,N,13701.56709,E,4,12,1.06,92.39,M,37.564,M,105.8,3006*5A
[2021-02-22 16:49:43.472] $GNGGA,74942.9,3713.961145,N,13701.56708,E,4,12,1.06,92.39,M,37.564,M,105.9,3006*59
[2021-02-22 16:49:43.581] $GNGGA,74943,3713.961145,N,13701.56709,E,4,12,1.06,92.389,M,37.564,M,106,3006*5F
[2021-02-22 16:49:43.690] $GNGGA,74943.1,3713.961145,N,13701.56709,E,4,13,0.95,92.39,M,37.564,M,106.1,3006*56
[2021-02-22 16:49:43.769] $GNGGA,74943.2,3713.961145,N,13701.56709,E,4,13,0.95,92.387,M,37.564,M,106.2,3006*56
[2021-02-22 16:49:43.878] $GNGGA,74943.3,3713.961145,N,13701.56709,E,4,13,0.95,92.388,M,37.564,M,106.3,3006*52
[2021-02-22 16:49:43.972] $GNGGA,74943.4,3713.961145,N,13701.56709,E,4,13,0.95,92.389,M,37.564,M,106.4,3006*52
[2021-02-22 16:49:44.081] $GNGGA,74943.5,3713.961146,N,13701.56709,E,4,13,0.95,92.386,M,37.564,M,106.5,3006*59
[2021-02-22 16:49:44.190] $GNGGA,74943.6,3713.961145,N,13701.56709,E,4,13,0.95,92.39,M,37.564,M,106.6,3006*51
[2021-02-22 16:49:44.268] $GNGGA,74943.7,3713.961145,N,13701.56709,E,4,13,0.95,92.391,M,37.564,M,106.7,3006*50
[2021-02-22 16:49:44.378] $GNGGA,74943.8,3713.961146,N,13701.56709,E,4,13,0.95,92.389,M,37.564,M,106.8,3006*52
[2021-02-22 16:49:44.472] $GNGGA,74943.9,3713.961146,N,13701.56709,E,4,13,0.95,92.388,M,37.564,M,106.9,3006*57
[2021-02-22 16:49:44.597] $GNGGA,74944,3713.961146,N,13701.56709,E,4,13,0.95,92.388,M,37.564,M,107,3006*56
[2021-02-22 16:49:44.675] $GNGGA,74944.1,3713.961146,N,13701.56709,E,4,13,0.95,92.385,M,37.564,M,107.1,3006*55
[2021-02-22 16:49:44.768] $GNGGA,74944.2,3713.961146,N,13701.56709,E,4,13,0.95,92.387,M,37.564,M,107.2,3006*52
[2021-02-22 16:49:44.878] $GNGGA,74944.3,3713.961146,N,13701.56709,E,4,13,0.95,92.383,M,37.564,M,107.3,3006*5F
[2021-02-22 16:49:44.987] $GNGGA,74944.4,3713.961146,N,13701.56709,E,4,13,0.95,92.383,M,37.564,M,107.4,3006*57
[2021-02-22 16:49:45.065] $GNGGA,74944.5,3713.961146,N,13701.56709,E,4,13,0.95,92.386,M,37.564,M,107.5,3006*5E
[2021-02-22 16:49:45.175] $GNGGA,74944.6,3713.961146,N,13701.56709,E,4,13,0.95,92.386,M,37.564,M,107.6,3006*53
[2021-02-22 16:49:45.268] $GNGGA,74944.7,3713.961147,N,13701.56709,E,4,13,0.95,92.389,M,37.564,M,107.7,3006*5A
[2021-02-22 16:49:45.393] $GNGGA,74944.8,3713.961147,N,13701.56709,E,4,13,0.95,92.39,M,37.564,M,107.8,3006*5E
[2021-02-22 16:49:45.472] $GNGGA,74944.9,3713.961147,N,13701.56709,E,4,13,0.95,92.392,M,37.564,M,107.9,3006*5D
[2021-02-22 16:49:45.565] $GNGGA,74945,3713.961147,N,13701.56709,E,4,13,0.95,92.392,M,37.564,M,108,3006*55
[2021-02-22 16:49:45.675] $GNGGA,74945.1,3713.961147,N,13701.56709,E,4,13,0.95,92.395,M,37.564,M,108.1,3006*50
[2021-02-22 16:49:45.784] $GNGGA,74945.2,3713.961147,N,13701.5671,E,4,13,0.95,92.395,M,37.564,M,108.2,3006*51
[2021-02-22 16:49:45.878] $GNGGA,74945.3,3713.961147,N,13701.5671,E,4,13,0.95,92.396,M,37.564,M,108.3,3006*5A
[2021-02-22 16:49:45.972] $GNGGA,74945.4,3713.961147,N,13701.5671,E,4,13,0.95,92.399,M,37.564,M,108.4,3006*5B
[2021-02-22 16:49:46.065] $GNGGA,74945.5,3713.961146,N,13701.5671,E,4,13,0.95,92.398,M,37.564,M,108.5,3006*5A
[2021-02-22 16:49:46.175] $GNGGA,74945.6,3713.961147,N,13701.5671,E,4,13,0.95,92.397,M,37.564,M,108.6,3006*51
[2021-02-22 16:49:46.284] $GNGGA,74945.7,3713.961147,N,13701.5671,E,4,13,0.95,92.394,M,37.564,M,108.7,3006*57
[2021-02-22 16:49:46.378] $GNGGA,74945.8,3713.961147,N,13701.5671,E,4,13,0.95,92.398,M,37.564,M,108.8,3006*50
[2021-02-22 16:49:46.471] $GNGGA,74945.9,3713.961147,N,13701.5671,E,4,13,0.95,92.397,M,37.564,M,108.9,3006*55
[2021-02-22 16:49:46.565] $GNGGA,74946,3713.961146,N,13701.5671,E,4,13,0.95,92.396,M,37.564,M,109,3006*5C
[2021-02-22 16:49:46.675] $GNGGA,74946.1,3713.961144,N,13701.56709,E,4,13,0.95,92.395,M,37.564,M,109.1,3006*56
[2021-02-22 16:49:46.784] $GNGGA,74946.2,3713.961144,N,13701.56709,E,4,13,0.95,92.395,M,37.564,M,109.2,3006*59
[2021-02-22 16:49:46.878] $GNGGA,74946.3,3713.961144,N,13701.56709,E,4,13,0.95,92.393,M,37.564,M,109.3,3006*5A
[2021-02-22 16:49:46.971] $GNGGA,74946.4,3713.961143,N,13701.56709,E,4,13,0.95,92.395,M,37.564,M,109.4,3006*5C
[2021-02-22 16:49:47.065] $GNGGA,74946.5,3713.961144,N,13701.56709,E,4,13,0.95,92.393,M,37.564,M,109.5,3006*5A
[2021-02-22 16:49:47.175] $GNGGA,74946.6,3713.961144,N,13701.56709,E,4,13,0.95,92.396,M,37.564,M,109.6,3006*53
[2021-02-22 16:49:47.284] $GNGGA,74946.7,3713.961145,N,13701.56709,E,4,13,0.95,92.397,M,37.564,M,109.7,3006*54
[2021-02-22 16:49:47.378] $GNGGA,74946.8,3713.961145,N,13701.56709,E,4,13,0.95,92.397,M,37.564,M,109.8,3006*54
[2021-02-22 16:49:47.471] $GNGGA,74946.9,3713.961145,N,13701.56709,E,4,13,0.95,92.397,M,37.564,M,109.9,3006*5E
[2021-02-22 16:49:47.565] $GNGGA,74947,3713.961145,N,13701.56709,E,4,13,0.95,92.397,M,37.564,M,110,3006*56
[2021-02-22 16:49:47.675] $GNGGA,74947.1,3713.961145,N,13701.56709,E,4,13,0.95,92.394,M,37.564,M,110.1,3006*5D
[2021-02-22 16:49:47.784] $GNGGA,74947.2,3713.961146,N,13701.56709,E,4,13,0.95,92.396,M,37.564,M,110.2,3006*50
[2021-02-22 16:49:47.878] $GNGGA,74947.3,3713.961145,N,13701.56709,E,4,13,0.95,92.395,M,37.564,M,110.3,3006*59
[2021-02-22 16:49:47.971] $GNGGA,74947.4,3713.961146,N,13701.56709,E,4,13,0.95,92.395,M,37.564,M,110.4,3006*54
[2021-02-22 16:49:48.065] $GNGGA,74947.5,3713.961145,N,13701.56709,E,4,13,0.95,92.394,M,37.564,M,110.5,3006*5D
[2021-02-22 16:49:48.174] $GNGGA,74947.6,3713.961145,N,13701.56709,E,4,13,0.95,92.395,M,37.564,M,110.6,3006*5A
[2021-02-22 16:49:48.299] $GNGGA,74947.7,3713.961146,N,13701.56709,E,4,13,0.95,92.397,M,37.564,M,110.7,3006*52
[2021-02-22 16:49:48.378] $GNGGA,74947.8,3713.961147,N,13701.56709,E,4,13,0.95,92.394,M,37.564,M,110.8,3006*53
[2021-02-22 16:49:48.471] $GNGGA,74947.9,3713.961147,N,13701.56709,E,4,13,0.95,92.394,M,37.564,M,110.9,3006*54
[2021-02-22 16:49:48.565] $GNGGA,74948,3713.961146,N,13701.56709,E,4,13,0.95,92.395,M,37.564,M,111,3006*55
[2021-02-22 16:49:48.674] $GNGGA,74948.1,3713.961147,N,13701.56709,E,4,13,0.95,92.395,M,37.564,M,111.1,3006*58
[2021-02-22 16:49:48.784] $GNGGA,74948.2,3713.961145,N,13701.56709,E,4,13,0.95,92.397,M,37.564,M,111.2,3006*53
[2021-02-22 16:49:48.878] $GNGGA,74948.3,3713.961145,N,13701.56709,E,4,13,0.95,92.398,M,37.564,M,111.3,3006*54
[2021-02-22 16:49:48.971] $GNGGA,74948.4,3713.961145,N,13701.56709,E,4,13,0.95,92.398,M,37.564,M,111.4,3006*55
[2021-02-22 16:49:49.081] $GNGGA,74948.5,3713.961145,N,13701.56709,E,4,13,0.95,92.395,M,37.564,M,111.5,3006*53
[2021-02-22 16:49:49.190] $GNGGA,74948.6,3713.961146,N,13701.56709,E,4,13,0.95,92.397,M,37.564,M,111.6,3006*52
[2021-02-22 16:49:49.268] $GNGGA,74948.7,3713.961146,N,13701.56709,E,4,13,0.95,92.399,M,37.564,M,111.7,3006*59
[2021-02-22 16:49:49.378] $GNGGA,74948.8,3713.961146,N,13701.56709,E,4,13,0.95,92.394,M,37.564,M,111.8,3006*5B
[2021-02-22 16:49:49.471] $GNGGA,74948.9,3713.961147,N,13701.56709,E,4,13,0.95,92.394,M,37.564,M,111.9,3006*5D
[2021-02-22 16:49:49.596] $GNGGA,74949,3713.961147,N,13701.56709,E,4,13,0.95,92.393,M,37.564,M,112,3006*57
[2021-02-22 16:49:49.674] $GNGGA,74949.1,3713.961147,N,13701.56708,E,4,13,0.95,92.394,M,37.564,M,112.1,3006*5F
[2021-02-22 16:49:49.768] $GNGGA,74949.2,3713.961147,N,13701.56708,E,4,13,0.95,92.39,M,37.564,M,112.2,3006*58
[2021-02-22 16:49:49.877] $GNGGA,74949.3,3713.961147,N,13701.56708,E,4,13,0.95,92.389,M,37.564,M,112.3,3006*5B
[2021-02-22 16:49:49.987] $GNGGA,74949.4,3713.961148,N,13701.56709,E,4,13,0.95,92.389,M,37.564,M,112.4,3006*53
[2021-02-22 16:49:50.065] $GNGGA,74949.5,3713.961149,N,13701.56708,E,4,13,0.95,92.387,M,37.564,M,112.5,3006*57
[2021-02-22 16:49:50.174] $GNGGA,74949.6,3713.961148,N,13701.56708,E,4,13,0.95,92.388,M,37.564,M,112.6,3006*5C
[2021-02-22 16:49:50.268] $GNGGA,74949.7,3713.961149,N,13701.56708,E,4,13,0.95,92.388,M,37.564,M,112.7,3006*53
[2021-02-22 16:49:50.393] $GNGGA,74949.8,3713.961148,N,13701.56709,E,4,13,0.95,92.387,M,37.564,M,112.8,3006*55
[2021-02-22 16:49:50.471] $GNGGA,74949.9,3713.961149,N,13701.56709,E,4,13,0.95,92.389,M,37.564,M,112.9,3006*57
[2021-02-22 16:49:50.565] $GNGGA,74950,3713.961148,N,13701.56709,E,4,13,0.95,92.388,M,37.564,M,113,3006*5A
[2021-02-22 16:49:50.674] $GNGGA,74950.1,3713.961148,N,13701.56709,E,4,13,0.95,92.389,M,37.564,M,113.1,3006*56
[2021-02-22 16:49:50.768] $GNGGA,74950.2,3713.961148,N,13701.56709,E,4,13,0.95,92.388,M,37.564,M,113.2,3006*5A
[2021-02-22 16:49:50.893] $GNGGA,74950.3,3713.961148,N,13701.56709,E,4,13,0.95,92.389,M,37.564,M,113.3,3006*5B
[2021-02-22 16:49:50.971] $GNGGA,74950.4,3713.961149,N,13701.56709,E,4,13,0.95,92.389,M,37.564,M,113.4,3006*57
[2021-02-22 16:49:51.065] $GNGGA,74950.5,3713.961149,N,13701.56709,E,4,13,0.95,92.391,M,37.564,M,113.5,3006*53
[2021-02-22 16:49:51.174] $GNGGA,74950.6,3713.961149,N,13701.56709,E,4,13,0.95,92.389,M,37.564,M,113.6,3006*5F
[2021-02-22 16:49:51.268] $GNGGA,74950.7,3713.961149,N,13701.56709,E,4,13,0.95,92.39,M,37.564,M,113.7,3006*56
[2021-02-22 16:49:51.393] $GNGGA,74950.8,3713.961149,N,13701.56709,E,4,13,0.95,92.39,M,37.564,M,113.8,3006*54
[2021-02-22 16:49:51.471] $GNGGA,74950.9,3713.961149,N,13701.56709,E,4,13,0.95,92.391,M,37.564,M,113.9,3006*5B
[2021-02-22 16:49:51.565] $GNGGA,74951,3713.961149,N,13701.56709,E,4,13,0.95,92.39,M,37.564,M,114,3006*5C
[2021-02-22 16:49:51.674] $GNGGA,74951.1,3713.961149,N,13701.56709,E,4,13,0.95,92.39,M,37.564,M,114.1,3006*52
[2021-02-22 16:49:51.768] $GNGGA,74951.2,3713.96115,N,13701.56709,E,4,13,0.95,92.389,M,37.564,M,114.2,3006*53
[2021-02-22 16:49:51.893] $GNGGA,74951.3,3713.961149,N,13701.56709,E,4,13,0.95,92.391,M,37.564,M,114.3,3006*53
[2021-02-22 16:49:51.971] $GNGGA,74951.4,3713.961149,N,13701.56709,E,4,13,0.95,92.391,M,37.564,M,114.4,3006*5A
[2021-02-22 16:49:52.065] $GNGGA,74951.5,3713.961149,N,13701.56709,E,4,13,0.95,92.39,M,37.564,M,114.5,3006*5E
[2021-02-22 16:49:52.174] $GNGGA,74951.6,3713.961149,N,13701.56709,E,4,13,0.95,92.391,M,37.564,M,114.6,3006*52
[2021-02-22 16:49:52.268] $GNGGA,74951.7,3713.961148,N,13701.56709,E,4,13,0.95,92.389,M,37.564,M,114.7,3006*5B
[2021-02-22 16:49:52.393] $GNGGA,74951.8,3713.961148,N,13701.56709,E,4,13,0.95,92.387,M,37.564,M,114.8,3006*53
[2021-02-22 16:49:52.471] $GNGGA,74951.9,3713.961147,N,13701.56709,E,4,13,0.95,92.386,M,37.564,M,114.9,3006*5F
[2021-02-22 16:49:52.565] $GNGGA,74952,3713.961147,N,13701.56708,E,4,13,0.95,92.386,M,37.564,M,115,3006*5B
[2021-02-22 16:49:52.674] $GNGGA,74952.1,3713.961148,N,13701.56708,E,4,13,0.95,92.385,M,37.564,M,115.1,3006*5F
[2021-02-22 16:49:52.768] $GNGGA,74952.2,3713.961148,N,13701.56708,E,4,13,0.95,92.387,M,37.564,M,115.2,3006*54
[2021-02-22 16:49:52.893] $GNGGA,74952.3,3713.961148,N,13701.56708,E,4,13,0.95,92.385,M,37.564,M,115.3,3006*5D
[2021-02-22 16:49:52.971] $GNGGA,74952.4,3713.961147,N,13701.56708,E,4,13,0.95,92.384,M,37.564,M,115.4,3006*5A
[2021-02-22 16:49:53.065] $GNGGA,74952.5,3713.961148,N,13701.56708,E,4,13,0.95,92.388,M,37.564,M,115.5,3006*5D
[2021-02-22 16:49:53.174] $GNGGA,74952.6,3713.961149,N,13701.56708,E,4,13,0.95,92.387,M,37.564,M,115.6,3006*50
[2021-02-22 16:49:53.299] $GNGGA,74952.7,3713.96115,N,13701.56708,E,4,13,0.95,92.387,M,37.564,M,115.7,3006*5D
[2021-02-22 16:49:53.377] $GNGGA,74952.8,3713.96115,N,13701.56708,E,4,13,0.95,92.388,M,37.564,M,115.8,3006*50
[2021-02-22 16:49:53.471] $GNGGA,74952.9,3713.96115,N,13701.56708,E,4,13,0.95,92.387,M,37.564,M,115.9,3006*5B
[2021-02-22 16:49:53.580] $GNGGA,74953,3713.96115,N,13701.56708,E,4,13,0.95,92.392,M,37.564,M,116,3006*53
[2021-02-22 16:49:53.690] $GNGGA,74953.1,3713.961149,N,13701.56708,E,4,13,0.95,92.389,M,37.564,M,116.1,3006*5D
[2021-02-22 16:49:53.768] $GNGGA,74953.2,3713.961149,N,13701.56708,E,4,13,0.95,92.389,M,37.564,M,116.2,3006*5B
[2021-02-22 16:49:53.877] $GNGGA,74953.3,3713.961149,N,13701.56708,E,4,13,0.95,92.391,M,37.564,M,116.3,3006*56
[2021-02-22 16:49:53.971] $GNGGA,74953.4,3713.961148,N,13701.56708,E,4,13,0.95,92.39,M,37.564,M,116.4,3006*54
[2021-02-22 16:49:54.096] $GNGGA,74953.5,3713.961148,N,13701.56708,E,4,13,0.95,92.39,M,37.564,M,116.5,3006*58
[2021-02-22 16:49:54.174] $GNGGA,74953.6,3713.961148,N,13701.56709,E,4,13,0.95,92.394,M,37.564,M,116.6,3006*55
[2021-02-22 16:49:54.268] $GNGGA,74953.7,3713.961148,N,13701.56709,E,4,13,0.95,92.391,M,37.564,M,116.7,3006*52
[2021-02-22 16:49:54.377] $GNGGA,74953.8,3713.961148,N,13701.56709,E,4,13,0.95,92.393,M,37.564,M,116.8,3006*5F
[2021-02-22 16:49:54.486] $GNGGA,74953.9,3713.961148,N,13701.56709,E,4,13,0.95,92.391,M,37.564,M,116.9,3006*56
[2021-02-22 16:49:54.565] $GNGGA,74954,3713.961148,N,13701.56709,E,4,13,0.95,92.391,M,37.564,M,117,3006*54
[2021-02-22 16:49:54.674] $GNGGA,74954.1,3713.961149,N,13701.56709,E,4,13,0.95,92.391,M,37.564,M,117.1,3006*5B
[2021-02-22 16:49:54.768] $GNGGA,74954.2,3713.961149,N,13701.56709,E,4,13,0.95,92.386,M,37.564,M,117.2,3006*5E
[2021-02-22 16:49:54.877] $GNGGA,74954.3,3713.961149,N,13701.56709,E,4,13,0.95,92.39,M,37.564,M,117.3,3006*50
[2021-02-22 16:49:54.987] $GNGGA,74954.4,3713.96115,N,13701.56709,E,4,13,0.95,92.387,M,37.564,M,117.4,3006*5D
[2021-02-22 16:49:55.065] $GNGGA,74954.5,3713.96115,N,13701.56709,E,4,13,0.95,92.388,M,37.564,M,117.5,3006*55
[2021-02-22 16:49:55.174] $GNGGA,74954.6,3713.961149,N,13701.56709,E,4,13,0.95,92.386,M,37.564,M,117.6,3006*55
[2021-02-22 16:49:55.268] $GNGGA,74954.7,3713.961149,N,13701.56709,E,4,13,0.95,92.385,M,37.564,M,117.7,3006*56
[2021-02-22 16:49:55.377] $GNGGA,74954.8,3713.961149,N,13701.56709,E,4,13,0.95,92.39,M,37.564,M,117.8,3006*5A
[2021-02-22 16:49:55.486] $GNGGA,74954.9,3713.961149,N,13701.56709,E,4,13,0.95,92.386,M,37.564,M,117.9,3006*5C
[2021-02-22 16:49:55.565] $GNGGA,74955,3713.961149,N,13701.56709,E,4,13,0.95,92.387,M,37.564,M,118,3006*57
[2021-02-22 16:49:55.674] $GNGGA,74955.1,3713.961148,N,13701.56709,E,4,13,0.95,92.39,M,37.564,M,118.1,3006*5F
[2021-02-22 16:49:55.768] $GNGGA,74955.2,3713.961148,N,13701.56709,E,4,13,0.95,92.389,M,37.564,M,118.2,3006*5D
[2021-02-22 16:49:55.877] $GNGGA,74955.3,3713.961147,N,13701.56709,E,4,13,0.95,92.39,M,37.564,M,118.3,3006*58
[2021-02-22 16:49:55.986] $GNGGA,74955.4,3713.961147,N,13701.56709,E,4,13,0.95,92.388,M,37.564,M,118.4,3006*5F
[2021-02-22 16:49:56.065] $GNGGA,74955.5,3713.961147,N,13701.56708,E,4,13,0.95,92.387,M,37.564,M,118.5,3006*53
[2021-02-22 16:49:56.174] $GNGGA,74955.6,3713.961147,N,13701.56708,E,4,13,0.95,92.387,M,37.564,M,118.6,3006*55
[2021-02-22 16:49:56.268] $GNGGA,74955.7,3713.961148,N,13701.56708,E,4,13,0.95,92.387,M,37.564,M,118.7,3006*5E
[2021-02-22 16:49:56.377] $GNGGA,74955.8,3713.961148,N,13701.56708,E,4,13,0.95,92.385,M,37.564,M,118.8,3006*55
[2021-02-22 16:49:56.486] $GNGGA,74955.9,3713.961149,N,13701.56708,E,4,13,0.95,92.384,M,37.564,M,118.9,3006*59
[2021-02-22 16:49:56.565] $GNGGA,74956,3713.961149,N,13701.56708,E,4,13,0.95,92.388,M,37.564,M,119,3006*5A
[2021-02-22 16:49:56.674] $GNGGA,74956.1,3713.961149,N,13701.56708,E,4,13,0.95,92.384,M,37.564,M,119.1,3006*5D
[2021-02-22 16:49:56.768] $GNGGA,74956.2,3713.961148,N,13701.56708,E,4,13,0.95,92.384,M,37.564,M,119.2,3006*5A
[2021-02-22 16:49:56.877] $GNGGA,74956.3,3713.961147,N,13701.56708,E,4,13,0.95,92.385,M,37.564,M,119.3,3006*53
[2021-02-22 16:49:56.986] $GNGGA,74956.4,3713.961147,N,13701.56708,E,4,13,0.95,92.385,M,37.564,M,119.4,3006*5A
[2021-02-22 16:49:57.064] $GNGGA,74956.5,3713.961147,N,13701.56708,E,4,13,0.95,92.386,M,37.564,M,119.5,3006*51
[2021-02-22 16:49:57.174] $GNGGA,74956.6,3713.961148,N,13701.56708,E,4,13,0.95,92.385,M,37.564,M,119.6,3006*5F
[2021-02-22 16:49:57.268] $GNGGA,74956.7,3713.961147,N,13701.56708,E,4,13,0.95,92.384,M,37.564,M,119.7,3006*54
[2021-02-22 16:49:57.377] $GNGGA,74956.8,3713.961147,N,13701.56708,E,4,13,0.95,92.387,M,37.564,M,119.8,3006*5B
[2021-02-22 16:49:57.486] $GNGGA,74956.9,3713.961147,N,13701.56708,E,4,13,0.95,92.389,M,37.564,M,119.9,3006*53
[2021-02-22 16:49:57.564] $GNGGA,74957,3713.961147,N,13701.56708,E,4,13,0.95,92.386,M,37.564,M,120,3006*5B
[2021-02-22 16:49:57.674] $GNGGA,74957.1,3713.961147,N,13701.56708,E,4,13,0.95,92.387,M,37.564,M,120.1,3006*51
[2021-02-22 16:49:57.768] $GNGGA,74957.2,3713.961147,N,13701.56709,E,4,13,0.95,92.39,M,37.564,M,120.2,3006*5B
[2021-02-22 16:49:57.893] $GNGGA,74957.3,3713.961147,N,13701.56709,E,4,13,0.95,92.391,M,37.564,M,120.3,3006*50
[2021-02-22 16:49:57.971] $GNGGA,74957.4,3713.961148,N,13701.56709,E,4,13,0.95,92.39,M,37.564,M,120.4,3006*53
[2021-02-22 16:49:58.064] $GNGGA,74957.5,3713.961147,N,13701.56709,E,4,13,0.95,92.389,M,37.564,M,120.5,3006*56
[2021-02-22 16:49:58.174] $GNGGA,74957.6,3713.961147,N,13701.56709,E,4,13,0.95,92.388,M,37.564,M,120.6,3006*5A
[2021-02-22 16:49:58.299] $GNGGA,74957.7,3713.961147,N,13701.56709,E,4,13,0.95,92.391,M,37.564,M,120.7,3006*5F
[2021-02-22 16:49:58.377] $GNGGA,74957.8,3713.961147,N,13701.56709,E,4,13,0.95,92.388,M,37.564,M,120.8,3006*53
[2021-02-22 16:49:58.471] $GNGGA,74957.9,3713.961147,N,13701.56709,E,4,13,0.95,92.39,M,37.564,M,120.9,3006*55
[2021-02-22 16:49:58.580] $GNGGA,74958,3713.961147,N,13701.56709,E,4,13,0.95,92.39,M,37.564,M,121,3006*55
[2021-02-22 16:49:58.689] $GNGGA,74958.1,3713.961147,N,13701.56709,E,4,13,0.95,92.387,M,37.564,M,121.1,3006*5E
[2021-02-22 16:49:58.767] $GNGGA,74958.2,3713.961147,N,13701.56709,E,4,13,0.95,92.384,M,37.564,M,121.2,3006*51
[2021-02-22 16:49:58.877] $GNGGA,74958.3,3713.961147,N,13701.56709,E,4,13,0.95,92.384,M,37.564,M,121.3,3006*52
[2021-02-22 16:49:58.971] $GNGGA,74958.4,3713.961148,N,13701.56709,E,4,13,0.95,92.383,M,37.564,M,121.4,3006*5B
[2021-02-22 16:49:59.096] $GNGGA,74958.5,3713.961148,N,13701.56709,E,4,13,0.95,92.382,M,37.564,M,121.5,3006*5A
[2021-02-22 16:49:59.174] $GNGGA,74958.6,3713.961148,N,13701.56709,E,4,13,0.95,92.382,M,37.564,M,121.6,3006*59
[2021-02-22 16:49:59.267] $GNGGA,74958.7,3713.961147,N,13701.56709,E,4,13,0.95,92.383,M,37.564,M,121.7,3006*57
[2021-02-22 16:49:59.377] $GNGGA,74958.8,3713.961147,N,13701.56709,E,4,13,0.95,92.384,M,37.564,M,121.8,3006*5B
[2021-02-22 16:49:59.471] $GNGGA,74958.9,3713.961146,N,13701.56709,E,4,13,0.95,92.383,M,37.564,M,121.9,3006*5B
[2021-02-22 16:49:59.596] $GNGGA,74959,3713.961147,N,13701.56709,E,4,13,0.95,92.383,M,37.564,M,122,3006*54
[2021-02-22 16:49:59.674] $GNGGA,74959.1,3713.961147,N,13701.56709,E,4,13,0.95,92.383,M,37.564,M,122.1,3006*5A
[2021-02-22 16:49:59.767] $GNGGA,74959.2,3713.961147,N,13701.56709,E,4,13,0.95,92.382,M,37.564,M,122.2,3006*5C
[2021-02-22 16:49:59.877] $GNGGA,74959.3,3713.961148,N,13701.56709,E,4,13,0.95,92.385,M,37.564,M,122.3,3006*5F
[2021-02-22 16:49:59.971] $GNGGA,74959.4,3713.961148,N,13701.56709,E,4,13,0.95,92.383,M,37.564,M,122.4,3006*51
[2021-02-22 16:50:00.095] $GNGGA,74959.5,3713.961147,N,13701.56709,E,4,13,0.95,92.384,M,37.564,M,122.5,3006*50
[2021-02-22 16:50:00.174] $GNGGA,74959.6,3713.961147,N,13701.56709,E,4,13,0.95,92.385,M,37.564,M,122.6,3006*5C
[2021-02-22 16:50:00.267] $GNGGA,74959.7,3713.961147,N,13701.56709,E,4,13,0.95,92.388,M,37.564,M,122.7,3006*54
[2021-02-22 16:50:00.377] $GNGGA,74959.8,3713.961147,N,13701.56709,E,4,13,0.95,92.388,M,37.564,M,122.8,3006*57
[2021-02-22 16:50:00.470] $GNGGA,74959.9,3713.961147,N,13701.56709,E,4,13,0.95,92.387,M,37.564,M,122.9,3006*52
[2021-02-22 16:50:00.595] $GNGGA,75000,3713.961148,N,13701.56709,E,4,13,0.95,92.39,M,37.564,M,123,3006*5D
[2021-02-22 16:50:00.674] $GNGGA,75000.1,3713.961147,N,13701.56709,E,4,13,0.95,92.389,M,37.564,M,123.1,3006*55
[2021-02-22 16:50:00.767] $GNGGA,75000.2,3713.961147,N,13701.56709,E,4,13,0.95,92.389,M,37.564,M,123.2,3006*57
[2021-02-22 16:50:00.877] $GNGGA,75000.3,3713.961147,N,13701.56709,E,4,13,0.95,92.39,M,37.564,M,123.3,3006*51
[2021-02-22 16:50:00.970] $GNGGA,75000.4,3713.961146,N,13701.56709,E,4,13,0.95,92.39,M,37.564,M,123.4,3006*5C
[2021-02-22 16:50:01.095] $GNGGA,75000.5,3713.961146,N,13701.56709,E,4,13,0.95,92.392,M,37.564,M,123.5,3006*50
[2021-02-22 16:50:01.174] $GNGGA,75000.6,3713.961146,N,13701.56709,E,4,13,0.95,92.391,M,37.564,M,123.6,3006*56
[2021-02-22 16:50:01.267] $GNGGA,75000.7,3713.961146,N,13701.56709,E,4,13,0.95,92.393,M,37.564,M,123.7,3006*50
[2021-02-22 16:50:01.377] $GNGGA,75000.8,3713.961146,N,13701.56709,E,4,13,0.95,92.388,M,37.564,M,123.8,3006*52
[2021-02-22 16:50:01.470] $GNGGA,75000.9,3713.961146,N,13701.56709,E,4,13,0.95,92.388,M,37.564,M,123.9,3006*56
[2021-02-22 16:50:01.595] $GNGGA,75001,3713.961146,N,13701.56709,E,4,13,0.95,92.388,M,37.564,M,124,3006*51
[2021-02-22 16:50:01.674] $GNGGA,75001.1,3713.961146,N,13701.56709,E,4,13,0.95,92.39,M,37.564,M,124.1,3006*54
[2021-02-22 16:50:01.767] $GNGGA,75001.2,3713.961146,N,13701.56708,E,4,13,0.95,92.387,M,37.564,M,124.2,3006*59
[2021-02-22 16:50:01.877] $GNGGA,75001.3,3713.961147,N,13701.56708,E,4,13,0.95,92.393,M,37.564,M,124.3,3006*55
[2021-02-22 16:50:01.986] $GNGGA,75001.4,3713.961146,N,13701.56708,E,4,13,0.95,92.391,M,37.564,M,124.4,3006*5F
[2021-02-22 16:50:02.064] $GNGGA,75001.5,3713.961146,N,13701.56708,E,4,13,0.95,92.391,M,37.564,M,124.5,3006*52
[2021-02-22 16:50:02.174] $GNGGA,75001.6,3713.961146,N,13701.56708,E,4,13,0.95,92.395,M,37.564,M,124.6,3006*5A
[2021-02-22 16:50:02.267] $GNGGA,75001.7,3713.961146,N,13701.56709,E,4,13,0.95,92.397,M,37.564,M,124.7,3006*59
[2021-02-22 16:50:02.392] $GNGGA,75001.8,3713.961147,N,13701.56708,E,4,13,0.95,92.394,M,37.564,M,124.8,3006*58
[2021-02-22 16:50:02.470] $GNGGA,75001.9,3713.961146,N,13701.56708,E,4,13,0.95,92.395,M,37.564,M,124.9,3006*55
[2021-02-22 16:50:02.580] $GNGGA,75002,3713.961146,N,13701.56708,E,4,13,0.95,92.398,M,37.564,M,125,3006*55
[2021-02-22 16:50:02.673] $GNGGA,75002.1,3713.961146,N,13701.56708,E,4,13,0.95,92.397,M,37.564,M,125.1,3006*50
[2021-02-22 16:50:02.798] $GNGGA,75002.2,3713.961145,N,13701.56708,E,4,13,0.95,92.4,M,37.564,M,125.2,3006*5D
[2021-02-22 16:50:02.877] $GNGGA,75002.3,3713.961144,N,13701.56708,E,4,13,0.95,92.399,M,37.564,M,125.3,3006*59
[2021-02-22 16:50:02.970] $GNGGA,75002.4,3713.961145,N,13701.56708,E,4,13,0.95,92.401,M,37.564,M,125.4,3006*5C
[2021-02-22 16:50:03.080] $GNGGA,75002.5,3713.961145,N,13701.56708,E,4,13,0.95,92.403,M,37.564,M,125.5,3006*57
[2021-02-22 16:50:03.189] $GNGGA,75002.6,3713.961145,N,13701.56708,E,4,13,0.95,92.403,M,37.564,M,125.6,3006*5F
[2021-02-22 16:50:03.267] $GNGGA,75002.7,3713.961145,N,13701.56709,E,4,13,0.95,92.404,M,37.564,M,125.7,3006*5A
[2021-02-22 16:50:03.377] $GNGGA,75002.8,3713.961146,N,13701.56709,E,4,13,0.95,92.404,M,37.564,M,125.8,3006*54
[2021-02-22 16:50:03.470] $GNGGA,75002.9,3713.961145,N,13701.56709,E,4,13,0.95,92.404,M,37.564,M,125.9,3006*5F
[2021-02-22 16:50:03.580] $GNGGA,75003,3713.961145,N,13701.56709,E,4,13,0.95,92.404,M,37.564,M,126,3006*5B
[2021-02-22 16:50:03.689] $GNGGA,75003.1,3713.961146,N,13701.56709,E,4,13,0.95,92.406,M,37.564,M,126.1,3006*53
[2021-02-22 16:50:03.767] $GNGGA,75003.2,3713.961147,N,13701.56709,E,4,13,0.95,92.405,M,37.564,M,126.2,3006*57
[2021-02-22 16:50:03.876] $GNGGA,75003.3,3713.961146,N,13701.56709,E,4,13,0.95,92.405,M,37.564,M,126.3,3006*58
[2021-02-22 16:50:03.970] $GNGGA,75003.4,3713.961146,N,13701.56709,E,4,13,0.95,92.403,M,37.564,M,126.4,3006*52
[2021-02-22 16:50:04.080] $GNGGA,75003.5,3713.961146,N,13701.56709,E,4,13,0.95,92.402,M,37.564,M,126.5,3006*56
[2021-02-22 16:50:04.189] $GNGGA,75003.6,3713.961146,N,13701.56709,E,4,13,0.95,92.405,M,37.564,M,126.6,3006*5E
[2021-02-22 16:50:04.267] $GNGGA,75003.7,3713.961147,N,13701.56709,E,4,13,0.95,92.403,M,37.564,M,126.7,3006*53
