
[2021-02-22 16:45:16.255] $GNGGA,074504.40,,,,,0,00,99.99,,,,,22.4,*64
[2021-02-22 16:45:16.270] $GNGGA,074504.50,,,,,0,00,99.99,,,,,22.5,*64
[2021-02-22 16:45:16.270] $GNGGA,074504.60,,,,,0,00,99.99,,,,,22.6,*64
[2021-02-22 16:45:16.270] $GNGGA,074504.70,,,,,0,00,99.99,,,,,22.7,*64
[2021-02-22 16:45:16.270] $GNGGA,074504.80,,,,,0,00,99.99,,,,,22.8,*64
[2021-02-22 16:45:16.270] $GNGGA,074504.90,,,,,0,00,99.99,,,,,22.9,*64
[2021-02-22 16:45:16.270] $GNGGA,074505.00,,,,,0,00,99.99,,,,,23.0,*64
[2021-02-22 16:45:16.270] $GNGGA,074505.10,,,,,0,00,99.99,,,,,23.1,*64
[2021-02-22 16:45:16.270] $GNGGA,074505.20,,,,,0,00,99.99,,,,,23.2,*64
[2021-02-22 16:45:16.270] $GNGGA,074505.30,,,,,0,00,99.99,,,,,23.3,*64
[2021-02-22 16:45:16.270] $GNGGA,074505.40,,,,,0,00,99.99,,,,,23.4,*64
[2021-02-22 16:45:16.270] $GNGGA,074505.50,,,,,0,00,99.99,,,,,23.5,*64
[2021-02-22 16:45:16.270] $GNGGA,074505.60,,,,,0,00,99.99,,,,,23.6,*64
[2021-02-22 16:45:16.270] $GNGGA,074505.70,,,,,0,00,99.99,,,,,23.7,*64
[2021-02-22 16:45:16.270] $GNGGA,074505.80,,,,,0,00,99.99,,,,,23.8,*64
[2021-02-22 16:45:16.270] $GNGGA,074505.90,,,,,0,00,99.99,,,,,23.9,*64
[2021-02-22 16:45:16.270] $GNGGA,074506.00,,,,,0,00,99.99,,,,,24.0,*60
[2021-02-22 16:45:16.270] $GNGGA,074506.10,,,,,0,00,99.99,,,,,24.1,*60
[2021-02-22 16:45:16.270] $GNGGA,074506.20,,,,,0,00,99.99,,,,,24.2,*60
[2021-02-22 16:45:16.270] $GNGGA,074506.30,,,,,0,00,99.99,,,,,24.3,*60
[2021-02-22 16:45:16.270] $GNGGA,074506.40,,,,,0,00,99.99,,,,,24.4,*60
[2021-02-22 16:45:16.270] $GNGGA,074506.50,,,,,0,00,99.99,,,,,24.5,*60
[2021-02-22 16:45:16.270] $GNGGA,074506.60,,,,,0,00,99.99,,,,,24.6,*60
[2021-02-22 16:45:16.270] $GNGGA,074506.70,,,,,0,00,99.99,,,,,24.7,*60
[2021-02-22 16:45:16.286] $GNGGA,074506.80,,,,,0,00,99.99,,,,,24.8,*60
[2021-02-22 16:45:16.286] $GNGGA,074506.90,,,,,0,00,99.99,,,,,24.9,*60
[2021-02-22 16:45:16.286] $GNGGA,074507.00,,,,,0,00,99.99,,,,,25.0,*60
[2021-02-22 16:45:16.286] $GNGGA,074507.10,,,,,0,00,99.99,,,,,25.1,*60
[2021-02-22 16:45:16.286] $GNGGA,074507.20,,,,,0,00,99.99,,,,,25.2,*60
[2021-02-22 16:45:16.286] $GNGGA,074507.30,,,,,0,00,99.99,,,,,25.3,*60
[2021-02-22 16:45:16.286] $GNGGA,074507.40,,,,,0,00,99.99,,,,,25.4,*60
[2021-02-22 16:45:16.286] $GNGGA,074507.50,,,,,0,00,99.99,,,,,25.5,*60
[2021-02-22 16:45:16.286] $GNGGA,074507.60,,,,,0,00,99.99,,,,,25.6,*60
[2021-02-22 16:45:16.286] $GNGGA,074507.70,,,,,0,00,99.99,,,,,25.7,*60
[2021-02-22 16:45:16.286] $GNGGA,074507.80,,,,,0,00,99.99,,,,,25.8,*60
[2021-02-22 16:45:16.286] $GNGGA,074507.90,,,,,0,00,99.99,,,,,25.9,*60
[2021-02-22 16:45:16.286] $GNGGA,074508.00,,,,,0,00,99.99,,,,,26.0,*6C
[2021-02-22 16:45:16.286] $GNGGA,074508.10,,,,,0,00,99.99,,,,,26.1,*6C
[2021-02-22 16:45:16.286] $GNGGA,074508.20,,,,,0,00,99.99,,,,,26.2,*6C
[2021-02-22 16:45:16.286] $GNGGA,074508.30,,,,,0,00,99.99,,,,,26.3,*6C
[2021-02-22 16:45:16.286] $GNGGA,074508.40,,,,,0,00,99.99,,,,,26.4,*6C
[2021-02-22 16:45:16.286] $GNGGA,074508.50,,,,,0,00,99.99,,,,,26.5,*6C
[2021-02-22 16:45:16.286] $GNGGA,074508.60,,,,,0,00,99.99,,,,,26.6,*6C
[2021-02-22 16:45:16.286] $GNGGA,074508.70,,,,,0,00,99.99,,,,,26.7,*6C
[2021-02-22 16:45:16.286] $GNGGA,074508.80,,,,,0,00,99.99,,,,,26.8,*6C
[2021-02-22 16:45:16.286] $GNGGA,074508.90,,,,,0,00,99.99,,,,,26.9,*6C
[2021-02-22 16:45:16.302] $GNGGA,074509.00,,,,,0,00,99.99,,,,,27.0,*6C
[2021-02-22 16:45:16.302] $GNGGA,074509.10,,,,,0,00,99.99,,,,,27.1,*6C
[2021-02-22 16:45:16.302] $GNGGA,074509.20,,,,,0,00,99.99,,,,,27.2,*6C
[2021-02-22 16:45:16.302] $GNGGA,074509.30,,,,,0,00,99.99,,,,,27.3,*6C
[2021-02-22 16:45:16.302] $GNGGA,074509.40,,,,,0,00,99.99,,,,,27.4,*6C
[2021-02-22 16:45:16.302] $GNGGA,074509.50,,,,,0,00,99.99,,,,,27.5,*6C
[2021-02-22 16:45:16.302] $GNGGA,074509.60,,,,,0,00,99.99,,,,,27.6,*6C
[2021-02-22 16:45:16.302] $GNGGA,074509.70,,,,,0,00,99.99,,,,,27.7,*6C
[2021-02-22 16:45:16.302] $GNGGA,074509.80,,,,,0,00,99.99,,,,,27.8,*6C
[2021-02-22 16:45:16.302] $GNGGA,074509.90,,,,,0,00,99.99,,,,,27.9,*6C
[2021-02-22 16:45:16.302] $GNGGA,074510.00,,,,,0,00,99.99,,,,,28.0,*6B
[2021-02-22 16:45:16.302] $GNGGA,074510.10,,,,,0,00,99.99,,,,,28.1,*6B
[2021-02-22 16:45:16.302] $GNGGA,074510.20,,,,,0,00,99.99,,,,,28.2,*6B
[2021-02-22 16:45:16.302] $GNGGA,074510.30,,,,,0,00,99.99,,,,,28.3,*6B
[2021-02-22 16:45:16.302] $GNGGA,074510.40,,,,,0,00,99.99,,,,,28.4,*6B
[2021-02-22 16:45:16.302] $GNGGA,074510.50,,,,,0,00,99.99,,,,,28.5,*6B
[2021-02-22 16:45:16.302] $GNGGA,074510.60,,,,,0,00,99.99,,,,,28.6,*6B
[2021-02-22 16:45:16.302] $GNGGA,074510.70,,,,,0,00,99.99,,,,,28.7,*6B
[2021-02-22 16:45:16.302] $GNGGA,074510.80,,,,,0,00,99.99,,,,,28.8,*6B
[2021-02-22 16:45:16.302] $GNGGA,074510.90,,,,,0,00,99.99,,,,,28.9,*6B
[2021-02-22 16:45:16.302] $GNGGA,074511.00,,,,,0,00,99.99,,,,,29.0,*6B
[2021-02-22 16:45:16.302] $GNGGA,074511.10,,,,,0,00,99.99,,,,,29.1,*6B
[2021-02-22 16:45:16.317] $GNGGA,074511.20,,,,,0,00,99.99,,,,,29.2,*6B
[2021-02-22 16:45:16.317] $GNGGA,074511.30,,,,,0,00,99.99,,,,,29.3,*6B
[2021-02-22 16:45:16.317] $GNGGA,074511.40,,,,,0,00,99.99,,,,,29.4,*6B
[2021-02-22 16:45:16.317] $GNGGA,074511.50,,,,,0,00,99.99,,,,,29.5,*6B
[2021-02-22 16:45:16.317] $GNGGA,074511.60,,,,,0,00,99.99,,,,,29.6,*6B
[2021-02-22 16:45:16.317] $GNGGA,074511.70,,,,,0,00,99.99,,,,,29.7,*6B
[2021-02-22 16:45:16.317] $GNGGA,074511.80,,,,,0,00,99.99,,,,,29.8,*6B
[2021-02-22 16:45:16.317] $GNGGA,074511.90,,,,,0,00,99.99,,,,,29.9,*6B
[2021-02-22 16:45:16.317] $GNGGA,074512.00,,,,,0,00,99.99,,,,,30.0,*60
[2021-02-22 16:45:16.317] $GNGGA,074512.10,,,,,0,00,99.99,,,,,30.1,*60
[2021-02-22 16:45:16.317] $GNGGA,074512.20,,,,,0,00,99.99,,,,,30.2,*60
[2021-02-22 16:45:16.317] $GNGGA,074512.30,,,,,0,00,99.99,,,,,30.3,*60
[2021-02-22 16:45:16.317] $GNGGA,074512.40,,,,,0,00,99.99,,,,,30.4,*60
[2021-02-22 16:45:16.317] $GNGGA,074512.50,,,,,0,00,99.99,,,,,30.5,*60
[2021-02-22 16:45:16.317] $GNGGA,074512.60,,,,,0,00,99.99,,,,,30.6,*60
[2021-02-22 16:45:16.317] $GNGGA,074512.70,,,,,0,00,99.99,,,,,30.7,*60
[2021-02-22 16:45:16.317] $GNGGA,074512.80,,,,,0,00,99.99,,,,,30.8,*60
[2021-02-22 16:45:16.317] $GNGGA,074512.90,,,,,0,00,99.99,,,,,30.9,*60
[2021-02-22 16:45:16.317] $GNGGA,074513.00,,,,,0,00,99.99,,,,,31.0,*60
[2021-02-22 16:45:16.317] $GNGGA,074513.10,,,,,0,00,99.99,,,,,31.1,*60
[2021-02-22 16:45:16.317] $GNGGA,074513.20,,,,,0,00,99.99,,,,,31.2,*60
[2021-02-22 16:45:16.317] $GNGGA,074513.30,,,,,0,00,99.99,,,,,31.3,*60
[2021-02-22 16:45:16.333] $GNGGA,074513.40,,,,,0,00,99.99,,,,,31.4,*60
[2021-02-22 16:45:16.333] $GNGGA,074513.50,,,,,0,00,99.99,,,,,31.5,*60
[2021-02-22 16:45:16.333] $GNGGA,074513.60,,,,,0,00,99.99,,,,,31.6,*60
[2021-02-22 16:45:16.333] $GNGGA,074513.70,,,,,0,00,99.99,,,,,31.7,*60
[2021-02-22 16:45:16.333] $GNGGA,074513.80,,,,,0,00,99.99,,,,,31.8,*60
[2021-02-22 16:45:16.333] $GNGGA,074513.90,,,,,0,00,99.99,,,,,31.9,*60
[2021-02-22 16:45:16.333] $GNGGA,074514.00,,,,,0,00,99.99,,,,,32.0,*64
[2021-02-22 16:45:16.333] $GNGGA,074514.10,,,,,0,00,99.99,,,,,32.1,*64
[2021-02-22 16:45:16.333] $GNGGA,074514.20,,,,,0,00,99.99,,,,,32.2,*64
[2021-02-22 16:45:16.333] $GNGGA,074514.30,,,,,0,00,99.99,,,,,32.3,*64
[2021-02-22 16:45:16.333] $GNGGA,074514.40,,,,,0,00,99.99,,,,,32.4,*64
[2021-02-22 16:45:16.333] $GNGGA,074514.50,,,,,0,00,99.99,,,,,32.5,*64
[2021-02-22 16:45:16.333] $GNGGA,074514.60,,,,,0,00,99.99,,,,,32.6,*64
[2021-02-22 16:45:16.333] $GNGGA,074514.70,,,,,0,00,99.99,,,,,32.7,*64
[2021-02-22 16:45:16.333] $GNGGA,074514.80,,,,,0,00,99.99,,,,,32.8,*64
[2021-02-22 16:45:16.333] $GNGGA,074514.90,,,,,0,00,99.99,,,,,32.9,*64
[2021-02-22 16:45:16.333] $GNGGA,074515.00,,,,,0,00,99.99,,,,,33.0,*64
[2021-02-22 16:45:16.333] $GNGGA,074515.10,,,,,0,00,99.99,,,,,33.1,*64
[2021-02-22 16:45:16.333] $GNGGA,074515.20,,,,,0,00,99.99,,,,,33.2,*64
[2021-02-22 16:45:16.333] $GNGGA,074515.30,,,,,0,00,99.99,,,,,33.3,*64
[2021-02-22 16:45:16.333] $GNGGA,074515.40,,,,,0,00,99.99,,,,,33.4,*64
[2021-02-22 16:45:16.333] $GNGGA,074515.50,,,,,0,00,99.99,,,,,33.5,*64
[2021-02-22 16:45:16.333] $GNGGA,074515.60,,,,,0,00,99.99,,,,,33.6,*64
[2021-02-22 16:45:16.333] $GNGGA,074515.70,,,,,0,00,99.99,,,,,33.7,*64
[2021-02-22 16:45:16.380] $GNGGA,074515.80,,,,,0,00,99.99,,,,,33.8,*64
[2021-02-22 16:45:16.489] $GNGGA,074515.90,,,,,0,00,99.99,,,,,33.9,*64
[2021-02-22 16:45:16.583] $GNGGA,074516.00,,,,,0,00,99.99,,,,,34.0,*60
[2021-02-22 16:45:16.677] $GNGGA,074516.10,,,,,0,00,99.99,,,,,34.1,*60
[2021-02-22 16:45:16.786] $GNGGA,074516.20,,,,,0,00,99.99,,,,,34.2,*60
[2021-02-22 16:45:16.880] $GNGGA,074516.30,,,,,0,00,99.99,,,,,34.3,*60
[2021-02-22 16:45:16.973] $GNGGA,074516.40,,,,,0,00,99.99,,,,,34.4,*60
[2021-02-22 16:45:17.067] $GNGGA,074516.50,,,,,0,00,99.99,,,,,34.5,*60
[2021-02-22 16:45:17.192] $GNGGA,074516.60,,,,,0,00,99.99,,,,,34.6,*60
[2021-02-22 16:45:17.286] $GNGGA,074516.70,,,,,0,00,99.99,,,,,34.7,*60
[2021-02-22 16:45:17.380] $GNGGA,074516.80,,,,,0,00,99.99,,,,,34.8,*60
[2021-02-22 16:45:17.474] $GNGGA,074516.90,,,,,0,00,99.99,,,,,34.9,*60
[2021-02-22 16:45:17.583] $GNGGA,074517.00,,,,,0,00,99.99,,,,,35.0,*60
[2021-02-22 16:45:17.677] $GNGGA,074517.10,,,,,0,00,99.99,,,,,35.1,*60
[2021-02-22 16:45:17.786] $GNGGA,074517.20,,,,,0,00,99.99,,,,,35.2,*60
[2021-02-22 16:45:17.880] $GNGGA,074517.30,,,,,0,00,99.99,,,,,35.3,*60
[2021-02-22 16:45:17.989] $GNGGA,074517.40,,,,,0,00,99.99,,,,,35.4,*60
[2021-02-22 16:45:18.083] $GNGGA,074517.50,,,,,0,00,99.99,,,,,35.5,*60
[2021-02-22 16:45:18.177] $GNGGA,074517.60,,,,,0,00,99.99,,,,,35.6,*60
[2021-02-22 16:45:18.270] $GNGGA,074517.70,,,,,0,00,99.99,,,,,35.7,*60
[2021-02-22 16:45:18.380] $GNGGA,074517.80,,,,,0,00,99.99,,,,,35.8,*60
[2021-02-22 16:45:18.489] $GNGGA,074517.90,,,,,0,00,99.99,,,,,35.9,*60
[2021-02-22 16:45:18.583] $GNGGA,074518.00,,,,,0,00,99.99,,,,,36.0,*6C
[2021-02-22 16:45:18.676] $GNGGA,074518.10,,,,,0,00,99.99,,,,,36.1,*6C
[2021-02-22 16:45:18.786] $GNGGA,074518.20,,,,,0,00,99.99,,,,,36.2,*6C
[2021-02-22 16:45:18.880] $GNGGA,074518.30,,,,,0,00,99.99,,,,,36.3,*6C
[2021-02-22 16:45:18.973] $GNGGA,074518.40,,,,,0,00,99.99,,,,,36.4,*6C
[2021-02-22 16:45:19.067] $GNGGA,074518.50,,,,,0,00,99.99,,,,,36.5,*6C
[2021-02-22 16:45:19.192] $GNGGA,074518.60,,,,,0,00,99.99,,,,,36.6,*6C
[2021-02-22 16:45:19.286] $GNGGA,074518.70,,,,,0,00,99.99,,,,,36.7,*6C
[2021-02-22 16:45:19.380] $GNGGA,074518.80,,,,,0,00,99.99,,,,,36.8,*6C
[2021-02-22 16:45:19.473] $GNGGA,074518.90,,,,,0,00,99.99,,,,,36.9,*6C
[2021-02-22 16:45:19.583] $GNGGA,074519.00,,,,,0,00,99.99,,,,,37.0,*6C
[2021-02-22 16:45:19.676] $GNGGA,074519.10,,,,,0,00,99.99,,,,,37.1,*6C
[2021-02-22 16:45:19.786] $GNGGA,074519.20,,,,,0,00,99.99,,,,,37.2,*6C
[2021-02-22 16:45:19.880] $GNGGA,074519.30,,,,,0,00,99.99,,,,,37.3,*6C
[2021-02-22 16:45:19.989] $GNGGA,074519.40,,,,,0,00,99.99,,,,,37.4,*6C
[2021-02-22 16:45:20.083] $GNGGA,074519.50,,,,,0,00,99.99,,,,,37.5,*6C
[2021-02-22 16:45:20.176] $GNGGA,074519.60,,,,,0,00,99.99,,,,,37.6,*6C
[2021-02-22 16:45:20.270] $GNGGA,074519.70,,,,,0,00,99.99,,,,,37.7,*6C
[2021-02-22 16:45:20.380] $GNGGA,074519.80,,,,,0,00,99.99,,,,,37.8,*6C
[2021-02-22 16:45:20.489] $GNGGA,074519.90,,,,,0,00,99.99,,,,,37.9,*6C
[2021-02-22 16:45:20.583] $GNGGA,074520.00,,,,,0,00,99.99,,,,,38.0,*69
[2021-02-22 16:45:20.676] $GNGGA,074520.10,,,,,0,00,99.99,,,,,38.1,*69
[2021-02-22 16:45:20.786] $GNGGA,074520.20,,,,,0,00,99.99,,,,,38.2,*69
[2021-02-22 16:45:20.880] $GNGGA,074520.30,,,,,0,00,99.99,,,,,38.3,*69
[2021-02-22 16:45:20.973] $GNGGA,074520.40,,,,,0,00,99.99,,,,,38.4,*69
[2021-02-22 16:45:21.067] $GNGGA,074520.50,,,,,0,00,99.99,,,,,38.5,*69
[2021-02-22 16:45:21.192] $GNGGA,074520.60,,,,,0,00,99.99,,,,,38.6,*69
[2021-02-22 16:45:21.286] $GNGGA,074520.70,,,,,0,00,99.99,,,,,38.7,*69
[2021-02-22 16:45:21.379] $GNGGA,074520.80,,,,,0,00,99.99,,,,,38.8,*69
[2021-02-22 16:45:21.473] $GNGGA,074520.90,,,,,0,00,99.99,,,,,38.9,*69
[2021-02-22 16:45:21.583] $GNGGA,074521.00,,,,,0,00,99.99,,,,,39.0,*69
[2021-02-22 16:45:21.676] $GNGGA,074521.10,,,,,0,00,99.99,,,,,39.1,*69
[2021-02-22 16:45:21.770] $GNGGA,074521.20,,,,,0,00,99.99,,,,,39.2,*69
[2021-02-22 16:45:21.879] $GNGGA,074521.30,,,,,0,00,99.99,,,,,39.3,*69
[2021-02-22 16:45:21.989] $GNGGA,074521.40,,,,,0,00,99.99,,,,,39.4,*69
[2021-02-22 16:45:22.083] $GNGGA,074521.50,,,,,0,00,99.99,,,,,39.5,*69
[2021-02-22 16:45:22.176] $GNGGA,074521.60,,,,,0,00,99.99,,,,,39.6,*69
[2021-02-22 16:45:22.270] $GNGGA,074521.70,,,,,0,00,99.99,,,,,39.7,*69
[2021-02-22 16:45:22.379] $GNGGA,074521.80,,,,,0,00,99.99,,,,,39.8,*69
[2021-02-22 16:45:22.489] $GNGGA,074521.90,,,,,0,00,99.99,,,,,39.9,*69
[2021-02-22 16:45:22.582] $GNGGA,074522.00,,,,,0,00,99.99,,,,,40.0,*64
[2021-02-22 16:45:22.676] $GNGGA,074522.10,,,,,0,00,99.99,,,,,40.1,*64
[2021-02-22 16:45:22.786] $GNGGA,074522.20,,,,,0,00,99.99,,,,,40.2,*64
[2021-02-22 16:45:22.879] $GNGGA,074522.30,,,,,0,00,99.99,,,,,40.3,*64
[2021-02-22 16:45:22.973] $GNGGA,074522.40,,,,,0,00,99.99,,,,,40.4,*64
[2021-02-22 16:45:23.067] $GNGGA,074522.50,,,,,0,00,99.99,,,,,40.5,*64
[2021-02-22 16:45:23.192] $GNGGA,074522.60,,,,,0,00,99.99,,,,,40.6,*64
[2021-02-22 16:45:23.286] $GNGGA,074522.70,,,,,0,00,99.99,,,,,40.7,*64
[2021-02-22 16:45:23.379] $GNGGA,074522.80,,,,,0,00,99.99,,,,,40.8,*64
[2021-02-22 16:45:23.473] $GNGGA,074522.90,,,,,0,00,99.99,,,,,40.9,*64
[2021-02-22 16:45:23.582] $GNGGA,074523.00,,,,,0,00,99.99,,,,,41.0,*64
[2021-02-22 16:45:23.676] $GNGGA,074523.10,,,,,0,00,99.99,,,,,41.1,*64
[2021-02-22 16:45:23.770] $GNGGA,074523.20,,,,,0,00,99.99,,,,,41.2,*64
[2021-02-22 16:45:23.879] $GNGGA,074523.30,,,,,0,00,99.99,,,,,41.3,*64
[2021-02-22 16:45:23.989] $GNGGA,074523.40,,,,,0,00,99.99,,,,,41.4,*64
[2021-02-22 16:45:24.082] $GNGGA,074523.50,,,,,0,00,99.99,,,,,41.5,*64
[2021-02-22 16:45:24.176] $GNGGA,074523.60,,,,,0,00,99.99,,,,,41.6,*64
[2021-02-22 16:45:24.270] $GNGGA,074523.70,,,,,0,00,99.99,,,,,41.7,*64
[2021-02-22 16:45:24.379] $GNGGA,074523.80,,,,,0,00,99.99,,,,,41.8,*64
[2021-02-22 16:45:24.489] $GNGGA,074523.90,,,,,0,00,99.99,,,,,41.9,*64
[2021-02-22 16:45:24.582] $GNGGA,074524.00,,,,,0,00,99.99,,,,,42.0,*60
[2021-02-22 16:45:24.676] $GNGGA,074524.10,,,,,0,00,99.99,,,,,42.1,*60
[2021-02-22 16:45:24.785] $GNGGA,074524.20,,,,,0,00,99.99,,,,,42.2,*60
[2021-02-22 16:45:24.879] $GNGGA,074524.30,,,,,0,00,99.99,,,,,42.3,*60
[2021-02-22 16:45:24.973] $GNGGA,074524.40,,,,,0,00,99.99,,,,,42.4,*60
[2021-02-22 16:45:25.067] $GNGGA,074524.50,,,,,0,00,99.99,,,,,42.5,*60
[2021-02-22 16:45:25.192] $GNGGA,074524.60,,,,,0,00,99.99,,,,,42.6,*60
[2021-02-22 16:45:25.285] $GNGGA,074524.70,,,,,0,00,99.99,,,,,42.7,*60
[2021-02-22 16:45:25.379] $GNGGA,074524.80,,,,,0,00,99.99,,,,,42.8,*60
[2021-02-22 16:45:25.473] $GNGGA,074524.90,,,,,0,00,99.99,,,,,42.9,*60
[2021-02-22 16:45:25.582] $GNGGA,074525.00,,,,,0,00,99.99,,,,,43.0,*60
[2021-02-22 16:45:25.676] $GNGGA,074525.10,,,,,0,00,99.99,,,,,43.1,*60
[2021-02-22 16:45:25.770] $GNGGA,074525.20,,,,,0,00,99.99,,,,,43.2,*60
[2021-02-22 16:45:25.879] $GNGGA,074525.30,,,,,0,00,99.99,,,,,43.3,*60
[2021-02-22 16:45:25.989] $GNGGA,074525.40,,,,,0,00,99.99,,,,,43.4,*60
[2021-02-22 16:45:26.082] $GNGGA,074525.50,,,,,0,00,99.99,,,,,43.5,*60
[2021-02-22 16:45:26.176] $GNGGA,074525.60,,,,,0,00,99.99,,,,,43.6,*60
[2021-02-22 16:45:26.270] $GNGGA,074525.70,,,,,0,00,99.99,,,,,43.7,*60
[2021-02-22 16:45:26.379] $GNGGA,074525.80,,,,,0,00,99.99,,,,,43.8,*60
[2021-02-22 16:45:26.473] $GNGGA,074525.90,,,,,0,00,99.99,,,,,43.9,*60
[2021-02-22 16:45:26.582] $GNGGA,074526.00,,,,,0,00,99.99,,,,,44.0,*64
[2021-02-22 16:45:26.676] $GNGGA,074526.10,,,,,0,00,99.99,,,,,44.1,*64
[2021-02-22 16:45:26.785] $GNGGA,074526.20,,,,,0,00,99.99,,,,,44.2,*64
[2021-02-22 16:45:26.879] $GNGGA,074526.30,,,,,0,00,99.99,,,,,44.3,*64
[2021-02-22 16:45:26.973] $GNGGA,074526.40,,,,,0,00,99.99,,,,,44.4,*64
[2021-02-22 16:45:27.067] $GNGGA,074526.50,,,,,0,00,99.99,,,,,44.5,*64
[2021-02-22 16:45:27.192] $GNGGA,074526.60,,,,,0,00,99.99,,,,,44.6,*64
[2021-02-22 16:45:27.285] $GNGGA,074526.70,,,,,0,00,99.99,,,,,44.7,*64
[2021-02-22 16:45:27.379] $GNGGA,074526.80,,,,,0,00,99.99,,,,,44.8,*64
[2021-02-22 16:45:27.473] $GNGGA,074526.90,,,,,0,00,99.99,,,,,44.9,*64
[2021-02-22 16:45:27.582] $GNGGA,074527.00,,,,,0,00,99.99,,,,,45.0,*64
[2021-02-22 16:45:27.676] $GNGGA,074527.10,,,,,0,00,99.99,,,,,45.1,*64
[2021-02-22 16:45:27.770] $GNGGA,074527.20,,,,,0,00,99.99,,,,,45.2,*64
[2021-02-22 16:45:27.879] $GNGGA,074527.30,,,,,0,00,99.99,,,,,45.3,*64
[2021-02-22 16:45:27.988] $GNGGA,074527.40,,,,,0,00,99.99,,,,,45.4,*64
[2021-02-22 16:45:28.082] $GNGGA,074527.50,,,,,0,00,99.99,,,,,45.5,*64
[2021-02-22 16:45:28.176] $GNGGA,074527.60,,,,,0,00,99.99,,,,,45.6,*64
[2021-02-22 16:45:28.270] $GNGGA,074527.70,,,,,0,00,99.99,,,,,45.7,*64
[2021-02-22 16:45:28.379] $GNGGA,074527.80,,,,,0,00,99.99,,,,,45.8,*64
[2021-02-22 16:45:28.473] $GNGGA,074527.90,,,,,0,00,99.99,,,,,45.9,*64
[2021-02-22 16:45:28.582] $GNGGA,074528.00,,,,,0,00,99.99,,,,,46.0,*68
[2021-02-22 16:45:28.676] $GNGGA,074528.10,,,,,0,00,99.99,,,,,46.1,*68
[2021-02-22 16:45:28.785] $GNGGA,074528.20,,,,,0,00,99.99,,,,,46.2,*68
[2021-02-22 16:45:28.879] $GNGGA,074528.30,,,,,0,00,99.99,,,,,46.3,*68
[2021-02-22 16:45:28.973] $GNGGA,074528.40,,,,,0,00,99.99,,,,,46.4,*68
[2021-02-22 16:45:29.066] $GNGGA,074528.50,,,,,0,00,99.99,,,,,46.5,*68
[2021-02-22 16:45:29.191] $GNGGA,074528.60,,,,,0,00,99.99,,,,,46.6,*68
[2021-02-22 16:45:29.285] $GNGGA,074528.70,,,,,0,00,99.99,,,,,46.7,*68
[2021-02-22 16:45:29.379] $GNGGA,074528.80,,,,,0,00,99.99,,,,,46.8,*68
[2021-02-22 16:45:29.473] $GNGGA,074528.90,,,,,0,00,99.99,,,,,46.9,*68
[2021-02-22 16:45:29.582] $GNGGA,074529.00,,,,,0,00,99.99,,,,,47.0,*68
[2021-02-22 16:45:29.676] $GNGGA,074529.10,,,,,0,00,99.99,,,,,47.1,*68
[2021-02-22 16:45:29.770] $GNGGA,074529.20,,,,,0,00,99.99,,,,,47.2,*68
[2021-02-22 16:45:29.879] $GNGGA,074529.30,,,,,0,00,99.99,,,,,47.3,*68
[2021-02-22 16:45:29.988] $GNGGA,074529.40,,,,,0,00,99.99,,,,,47.4,*68
[2021-02-22 16:45:30.082] $GNGGA,074529.50,,,,,0,00,99.99,,,,,47.5,*68
[2021-02-22 16:45:30.176] $GNGGA,074529.60,,,,,0,00,99.99,,,,,47.6,*68
[2021-02-22 16:45:30.269] $GNGGA,074529.70,,,,,0,00,99.99,,,,,47.7,*68
[2021-02-22 16:45:30.379] $GNGGA,074529.80,,,,,0,00,99.99,,,,,47.8,*68
[2021-02-22 16:45:30.473] $GNGGA,074529.90,,,,,0,00,99.99,,,,,47.9,*68
[2021-02-22 16:45:30.582] $GNGGA,074530.00,,,,,0,00,99.99,,,,,48.0,*6F
[2021-02-22 16:45:30.676] $GNGGA,074530.10,,,,,0,00,99.99,,,,,48.1,*6F
[2021-02-22 16:45:30.785] $GNGGA,074530.20,,,,,0,00,99.99,,,,,48.2,*6F
[2021-02-22 16:45:30.879] $GNGGA,074530.30,,,,,0,00,99.99,,,,,48.3,*6F
[2021-02-22 16:45:30.973] $GNGGA,074530.40,,,,,0,00,99.99,,,,,48.4,*6F
[2021-02-22 16:45:31.066] $GNGGA,074530.50,,,,,0,00,99.99,,,,,48.5,*6F
[2021-02-22 16:45:31.191] $GNGGA,074530.60,,,,,0,00,99.99,,,,,48.6,*6F
[2021-02-22 16:45:31.285] $GNGGA,074530.70,,,,,0,00,99.99,,,,,48.7,*6F
[2021-02-22 16:45:31.379] $GNGGA,074530.80,,,,,0,00,99.99,,,,,48.8,*6F
[2021-02-22 16:45:31.473] $GNGGA,074530.90,,,,,0,00,99.99,,,,,48.9,*6F
[2021-02-22 16:45:31.582] $GNGGA,074531.00,,,,,0,00,99.99,,,,,49.0,*6F
[2021-02-22 16:45:31.676] $GNGGA,074531.10,,,,,0,00,99.99,,,,,49.1,*6F
[2021-02-22 16:45:31.769] $GNGGA,074531.20,,,,,0,00,99.99,,,,,49.2,*6F
[2021-02-22 16:45:31.879] $GNGGA,074531.30,,,,,0,00,99.99,,,,,49.3,*6F
[2021-02-22 16:45:31.988] $GNGGA,074531.40,,,,,0,00,99.99,,,,,49.4,*6F
[2021-02-22 16:45:32.082] $GNGGA,074531.50,,,,,0,00,99.99,,,,,49.5,*6F
[2021-02-22 16:45:32.176] $GNGGA,074531.60,,,,,0,00,99.99,,,,,49.6,*6F
[2021-02-22 16:45:32.269] $GNGGA,074531.70,,,,,0,00,99.99,,,,,49.7,*6F
[2021-02-22 16:45:32.379] $GNGGA,074531.80,,,,,0,00,99.99,,,,,49.8,*6F
[2021-02-22 16:45:32.472] $GNGGA,074531.90,,,,,0,00,99.99,,,,,49.9,*6F
[2021-02-22 16:45:32.582] $GNGGA,074532.00,,,,,0,00,99.99,,,,,50.0,*64
[2021-02-22 16:45:32.676] $GNGGA,074532.10,,,,,0,00,99.99,,,,,50.1,*64
[2021-02-22 16:45:32.785] $GNGGA,074532.20,,,,,0,00,99.99,,,,,50.2,*64
[2021-02-22 16:45:32.879] $GNGGA,074532.30,,,,,0,00,99.99,,,,,50.3,*64
[2021-02-22 16:45:32.972] $GNGGA,074532.40,,,,,0,00,99.99,,,,,50.4,*64
[2021-02-22 16:45:33.066] $GNGGA,074532.50,,,,,0,00,99.99,,,,,50.5,*64
[2021-02-22 16:45:33.176] $GNGGA,074532.60,,,,,0,00,99.99,,,,,50.6,*64
[2021-02-22 16:45:33.285] $GNGGA,074532.70,,,,,0,00,99.99,,,,,50.7,*64
[2021-02-22 16:45:33.379] $GNGGA,074532.80,,,,,0,00,99.99,,,,,50.8,*64
[2021-02-22 16:45:33.488] $GNGGA,074532.90,,,,,0,00,99.99,,,,,50.9,*64
[2021-02-22 16:45:33.582] $GNGGA,074533.00,,,,,0,00,99.99,,,,,51.0,*64
[2021-02-22 16:45:33.676] $GNGGA,074533.10,,,,,0,00,99.99,,,,,51.1,*64
[2021-02-22 16:45:33.769] $GNGGA,074533.20,,,,,0,00,99.99,,,,,51.2,*64
[2021-02-22 16:45:33.894] $GNGGA,074533.30,,,,,0,00,99.99,,,,,51.3,*64
[2021-02-22 16:45:33.988] $GNGGA,074533.40,,,,,0,00,99.99,,,,,51.4,*64
[2021-02-22 16:45:34.082] $GNGGA,074533.50,,,,,0,00,99.99,,,,,51.5,*64
[2021-02-22 16:45:34.175] $GNGGA,074533.60,,,,,0,00,99.99,,,,,51.6,*64
[2021-02-22 16:45:34.285] $GNGGA,074533.70,,,,,0,00,99.99,,,,,51.7,*64
[2021-02-22 16:45:34.379] $GNGGA,074533.80,,,,,0,00,99.99,,,,,51.8,*64
[2021-02-22 16:45:34.472] $GNGGA,074533.90,,,,,0,00,99.99,,,,,51.9,*64
[2021-02-22 16:45:34.582] $GNGGA,074534.00,,,,,0,00,99.99,,,,,52.0,*60
[2021-02-22 16:45:34.691] $GNGGA,074534.10,,,,,0,00,99.99,,,,,52.1,*60
[2021-02-22 16:45:34.785] $GNGGA,074534.20,,,,,0,00,99.99,,,,,52.2,*60
[2021-02-22 16:45:34.879] $GNGGA,074534.30,,,,,0,00,99.99,,,,,52.3,*60
[2021-02-22 16:45:34.972] $GNGGA,074534.40,,,,,0,00,99.99,,,,,52.4,*60
[2021-02-22 16:45:35.082] $GNGGA,074534.50,,,,,0,00,99.99,,,,,52.5,*60
[2021-02-22 16:45:35.175] $GNGGA,074534.60,,,,,0,00,99.99,,,,,52.6,*60
[2021-02-22 16:45:35.285] $GNGGA,074534.70,,,,,0,00,99.99,,,,,52.7,*60
[2021-02-22 16:45:35.379] $GNGGA,074534.80,,,,,0,00,99.99,,,,,52.8,*60
[2021-02-22 16:45:35.488] $GNGGA,074534.90,,,,,0,00,99.99,,,,,52.9,*60
[2021-02-22 16:45:35.582] $GNGGA,074535.00,,,,,0,00,99.99,,,,,53.0,*60
[2021-02-22 16:45:35.675] $GNGGA,074535.10,,,,,0,00,99.99,,,,,53.1,*60
[2021-02-22 16:45:35.769] $GNGGA,074535.20,,,,,0,00,99.99,,,,,53.2,*60
[2021-02-22 16:45:35.894] $GNGGA,074535.30,,,,,0,00,99.99,,,,,53.3,*60
[2021-02-22 16:45:35.988] $GNGGA,074535.40,,,,,0,00,99.99,,,,,53.4,*60
[2021-02-22 16:45:36.082] $GNGGA,074535.50,,,,,0,00,99.99,,,,,53.5,*60
[2021-02-22 16:45:36.175] $GNGGA,074535.60,,,,,0,00,99.99,,,,,53.6,*60
[2021-02-22 16:45:36.285] $GNGGA,074535.70,,,,,0,00,99.99,,,,,53.7,*60
[2021-02-22 16:45:36.378] $GNGGA,074535.80,,,,,0,00,99.99,,,,,53.8,*60
[2021-02-22 16:45:36.472] $GNGGA,074535.90,,,,,0,00,99.99,,,,,53.9,*60
[2021-02-22 16:45:36.582] $GNGGA,074536.00,,,,,0,00,99.99,,,,,54.0,*64
[2021-02-22 16:45:36.691] $GNGGA,074536.10,,,,,0,00,99.99,,,,,54.1,*64
[2021-02-22 16:45:36.785] $GNGGA,074536.20,,,,,0,00,99.99,,,,,54.2,*64
[2021-02-22 16:45:36.878] $GNGGA,074536.30,,,,,0,00,99.99,,,,,54.3,*64
[2021-02-22 16:45:36.972] $GNGGA,074536.40,,,,,0,00,99.99,,,,,54.4,*64
[2021-02-22 16:45:37.097] $GNGGA,074536.50,3713.962038906,N,13701.567179700,E,5,02,99.90,95.992,M,37.564,M,54.5,3006*5E
[2021-02-22 16:45:37.175] $GNGGA,074536.60,3713.962140454,N,13701.567230694,E,5,03,99.90,95.816,M,37.564,M,54.6,3006*54
[2021-02-22 16:45:37.269] $GNGGA,074536.70,3713.961808308,N,13701.567069051,E,5,03,99.90,96.495,M,37.564,M,54.7,3006*59
[2021-02-22 16:45:37.378] $GNGGA,074536.80,3713.961809647,N,13701.567066805,E,5,00,99.90,96.503,M,37.564,M,54.8,3006*5D
[2021-02-22 16:45:37.488] $GNGGA,074536.90,3713.961809297,N,13701.567066020,E,5,00,99.90,96.517,M,37.564,M,54.9,3006*5E
[2021-02-22 16:45:37.566] $GNGGA,074537.00,3713.961808876,N,13701.567065243,E,5,00,99.90,96.517,M,37.564,M,55.0,3006*5E
[2021-02-22 16:45:37.675] $GNGGA,074537.10,3713.961808820,N,13701.567065070,E,5,00,99.90,96.515,M,37.564,M,55.1,3006*5D
[2021-02-22 16:45:37.769] $GNGGA,074537.20,3713.961807421,N,13701.567065719,E,5,00,99.90,96.522,M,37.564,M,55.2,3006*53
[2021-02-22 16:45:37.894] $GNGGA,074537.30,3713.961806930,N,13701.567065474,E,5,00,99.90,96.526,M,37.564,M,55.3,3006*53
[2021-02-22 16:45:37.972] $GNGGA,074537.40,3713.961808225,N,13701.567065408,E,5,00,99.90,96.515,M,37.564,M,55.4,3006*59
[2021-02-22 16:45:38.066] $GNGGA,074537.50,3713.961807065,N,13701.567066292,E,5,00,99.90,96.521,M,37.564,M,55.5,3006*51
[2021-02-22 16:45:38.175] $GNGGA,074537.60,3713.961806303,N,13701.567066187,E,5,00,99.90,96.529,M,37.564,M,55.6,3006*5C
[2021-02-22 16:45:38.285] $GNGGA,074537.70,3713.961805535,N,13701.567065663,E,5,00,99.90,96.528,M,37.564,M,55.7,3006*53
[2021-02-22 16:45:38.378] $GNGGA,074537.80,3713.961806157,N,13701.567065472,E,5,00,99.90,96.524,M,37.564,M,55.8,3006*5E
[2021-02-22 16:45:38.472] $GNGGA,074537.90,3713.961806106,N,13701.567066251,E,5,00,99.90,96.529,M,37.564,M,55.9,3006*53
[2021-02-22 16:45:38.581] $GNGGA,074538.00,3713.961806459,N,13701.567065802,E,5,00,99.90,96.533,M,37.564,M,56.0,3006*54
[2021-02-22 16:45:38.675] $GNGGA,074538.10,3713.961805615,N,13701.567066350,E,5,00,99.90,96.535,M,37.564,M,56.1,3006*54
[2021-02-22 16:45:38.785] $GNGGA,074538.20,3713.961806640,N,13701.567066689,E,5,00,99.90,96.532,M,37.564,M,56.2,3006*51
[2021-02-22 16:45:38.878] $GNGGA,074538.30,3713.961806137,N,13701.567067220,E,5,00,99.90,96.533,M,37.564,M,56.3,3006*51
[2021-02-22 16:45:38.972] $GNGGA,074538.40,3713.961816893,N,13701.567081621,E,5,02,99.90,96.562,M,37.564,M,56.4,3006*5C
[2021-02-22 16:45:39.066] $GNGGA,074538.50,3713.961827096,N,13701.567094369,E,5,02,99.90,96.587,M,37.564,M,56.5,3006*55
[2021-02-22 16:45:39.175] $GNGGA,074538.60,3713.961827034,N,13701.567094879,E,5,02,99.90,96.583,M,37.564,M,56.6,3006*53
[2021-02-22 16:45:39.284] $GNGGA,074538.70,3713.961692606,N,13701.567349554,E,5,03,99.90,96.473,M,37.564,M,56.7,3006*5A
[2021-02-22 16:45:39.378] $GNGGA,074538.80,3713.961638618,N,13701.567490985,E,5,03,99.90,96.444,M,37.564,M,56.8,3006*52
[2021-02-22 16:45:39.472] $GNGGA,074538.90,3713.961750628,N,13701.567334247,E,5,03,99.90,96.566,M,37.564,M,56.9,3006*53
[2021-02-22 16:45:39.566] $GNGGA,074539.00,3713.961778271,N,13701.567341719,E,5,03,99.90,96.627,M,37.564,M,57.0,3006*5B
[2021-02-22 16:45:39.675] $GNGGA,074539.10,3713.961796878,N,13701.567285181,E,5,03,99.90,96.631,M,37.564,M,57.1,3006*51
[2021-02-22 16:45:39.784] $GNGGA,074539.20,3713.961714838,N,13701.567399204,E,5,03,99.90,96.987,M,37.564,M,57.2,3006*5F
[2021-02-22 16:45:39.878] $GNGGA,074539.30,3713.961646591,N,13701.567477653,E,5,05,1.75,97.105,M,37.564,M,57.3,3006*69
[2021-02-22 16:45:39.972] $GNGGA,074539.40,3713.961656907,N,13701.567419017,E,5,05,1.75,97.109,M,37.564,M,57.4,3006*69
[2021-02-22 16:45:40.066] $GNGGA,074539.50,3713.961669903,N,13701.567381306,E,5,05,1.75,97.034,M,37.564,M,57.5,3006*6B
[2021-02-22 16:45:40.175] $GNGGA,074539.60,3713.961601919,N,13701.567413397,E,5,05,1.75,97.054,M,37.564,M,57.6,3006*6C
[2021-02-22 16:45:40.284] $GNGGA,074539.70,3713.961582199,N,13701.567363377,E,5,05,1.75,97.056,M,37.564,M,57.7,3006*68
[2021-02-22 16:45:40.378] $GNGGA,074539.80,3713.961543140,N,13701.567366961,E,5,05,1.75,97.032,M,37.564,M,57.8,3006*6B
[2021-02-22 16:45:40.472] $GNGGA,074539.90,3713.961535930,N,13701.567340927,E,5,05,1.75,96.995,M,37.564,M,57.9,3006*66
[2021-02-22 16:45:40.566] $GNGGA,074540.00,3713.961528283,N,13701.567324482,E,5,05,1.75,96.980,M,37.564,M,58.0,3006*6C
[2021-02-22 16:45:40.675] $GNGGA,074540.10,3713.961506742,N,13701.567312501,E,5,05,1.75,96.867,M,37.564,M,58.1,3006*6F
[2021-02-22 16:45:40.800] $GNGGA,074540.20,3713.961483182,N,13701.567316341,E,5,05,1.75,96.773,M,37.564,M,58.2,3006*65
[2021-02-22 16:45:40.878] $GNGGA,074540.30,3713.961467349,N,13701.567328661,E,5,05,1.75,96.771,M,37.564,M,58.3,3006*62
[2021-02-22 16:45:40.972] $GNGGA,074540.40,3713.961468282,N,13701.567324554,E,5,05,1.75,96.784,M,37.564,M,58.4,3006*68
[2021-02-22 16:45:41.081] $GNGGA,074540.50,3713.961452034,N,13701.567320079,E,5,05,1.75,96.707,M,37.564,M,58.5,3006*6B
[2021-02-22 16:45:41.191] $GNGGA,074540.60,3713.961424650,N,13701.567342582,E,5,05,1.75,96.606,M,37.564,M,58.6,3006*6B
[2021-02-22 16:45:41.269] $GNGGA,074540.70,3713.961404880,N,13701.567346178,E,5,05,1.75,96.533,M,37.564,M,58.7,3006*6A
[2021-02-22 16:45:41.378] $GNGGA,074540.80,3713.961394589,N,13701.567335957,E,5,05,1.75,96.457,M,37.564,M,58.8,3006*62
[2021-02-22 16:45:41.472] $GNGGA,074540.90,3713.961393134,N,13701.567315580,E,5,05,1.75,96.402,M,37.564,M,58.9,3006*63
[2021-02-22 16:45:41.597] $GNGGA,074541.00,3713.961404979,N,13701.567302515,E,5,05,1.75,96.362,M,37.564,M,59.0,3006*60
[2021-02-22 16:45:41.675] $GNGGA,074541.10,3713.961400977,N,13701.567275888,E,5,05,1.75,96.168,M,37.564,M,59.1,3006*6A
[2021-02-22 16:45:41.769] $GNGGA,074541.20,3713.961392723,N,13701.567260187,E,5,05,1.75,95.999,M,37.564,M,59.2,3006*6E
[2021-02-22 16:45:41.878] $GNGGA,074541.30,3713.961382967,N,13701.567250883,E,5,05,1.75,95.860,M,37.564,M,59.3,3006*68
[2021-02-22 16:45:41.987] $GNGGA,074541.40,3713.961374724,N,13701.567252623,E,5,05,1.75,95.795,M,37.564,M,59.4,3006*6B
[2021-02-22 16:45:42.066] $GNGGA,074541.50,3713.961363822,N,13701.567247722,E,5,05,1.75,95.669,M,37.564,M,59.5,3006*62
[2021-02-22 16:45:42.175] $GNGGA,074541.60,3713.961347217,N,13701.567257448,E,5,05,1.75,95.598,M,37.564,M,59.6,3006*6B
[2021-02-22 16:45:42.269] $GNGGA,074541.70,3713.961289349,N,13701.567253402,E,5,05,1.75,95.324,M,37.564,M,59.7,3006*69
[2021-02-22 16:45:42.394] $GNGGA,074541.80,3713.961275705,N,13701.567238730,E,5,05,1.75,95.219,M,37.564,M,59.8,3006*66
[2021-02-22 16:45:42.472] $GNGGA,074541.90,3713.961245908,N,13701.567236712,E,5,05,1.75,95.082,M,37.564,M,59.9,3006*68
[2021-02-22 16:45:42.566] $GNGGA,074542.00,3713.961226652,N,13701.567240136,E,5,05,1.75,95.005,M,37.564,M,60.0,3006*6A
[2021-02-22 16:45:42.675] $GNGGA,074542.10,3713.961199200,N,13701.567250964,E,5,05,1.75,94.900,M,37.564,M,60.1,3006*6D
[2021-02-22 16:45:42.800] $GNGGA,074542.20,3713.961170983,N,13701.567264403,E,5,05,1.75,94.795,M,37.564,M,60.2,3006*63
[2021-02-22 16:45:42.878] $GNGGA,074542.30,3713.961156827,N,13701.567279319,E,5,05,1.75,94.698,M,37.564,M,60.3,3006*64
[2021-02-22 16:45:42.972] $GNGGA,074542.40,3713.961140745,N,13701.567285191,E,5,05,1.75,94.651,M,37.564,M,60.4,3006*6C
[2021-02-22 16:45:43.081] $GNGGA,074542.50,3713.961127233,N,13701.567289333,E,5,05,1.75,94.601,M,37.564,M,60.5,3006*6A
[2021-02-22 16:45:43.175] $GNGGA,074542.60,3713.961117985,N,13701.567284085,E,5,05,1.75,94.588,M,37.564,M,60.6,3006*6E
[2021-02-22 16:45:43.284] $GNGGA,074542.70,3713.961104421,N,13701.567279206,E,5,05,1.75,94.556,M,37.564,M,60.7,3006*67
[2021-02-22 16:45:43.378] $GNGGA,074542.80,3713.961098373,N,13701.567273861,E,5,05,1.75,94.547,M,37.564,M,60.8,3006*62
[2021-02-22 16:45:43.472] $GNGGA,074542.90,3713.961079895,N,13701.567265740,E,5,05,1.75,94.510,M,37.564,M,60.9,3006*67
[2021-02-22 16:45:43.581] $GNGGA,074543.00,3713.961077505,N,13701.567262155,E,5,05,1.75,94.506,M,37.564,M,61.0,3006*6F
[2021-02-22 16:45:43.675] $GNGGA,074543.10,3713.961066576,N,13701.567258493,E,5,05,1.75,94.494,M,37.564,M,61.1,3006*67
[2021-02-22 16:45:43.784] $GNGGA,074543.20,3713.961064792,N,13701.567254830,E,5,05,1.75,94.494,M,37.564,M,61.2,3006*64
[2021-02-22 16:45:43.878] $GNGGA,074543.30,3713.961142988,N,13701.567170259,E,4,05,1.75,93.560,M,37.564,M,61.3,3006*68
[2021-02-22 16:45:43.972] $GNGGA,074543.40,3713.961151303,N,13701.567178939,E,4,05,1.75,93.597,M,37.564,M,61.4,3006*6E
[2021-02-22 16:45:44.081] $GNGGA,074543.50,3713.961152134,N,13701.567179770,E,4,05,1.75,93.604,M,37.564,M,61.5,3006*60
[2021-02-22 16:45:44.175] $GNGGA,074543.60,3713.961151783,N,13701.567177896,E,4,05,1.75,93.583,M,37.564,M,61.6,3006*6C
[2021-02-22 16:45:44.284] $GNGGA,074543.70,3713.961151067,N,13701.567178581,E,4,05,1.75,93.593,M,37.564,M,61.7,3006*64
[2021-02-22 16:45:44.378] $GNGGA,074543.80,3713.961149876,N,13701.567176082,E,4,05,1.75,93.575,M,37.564,M,61.8,3006*65
[2021-02-22 16:45:44.472] $GNGGA,074543.90,3713.961148500,N,13701.567174805,E,4,05,1.75,93.574,M,37.564,M,61.9,3006*6C
[2021-02-22 16:45:44.581] $GNGGA,074544.00,3713.961146774,N,13701.567173872,E,4,05,1.75,93.563,M,37.564,M,62.0,3006*66
[2021-02-22 16:45:44.675] $GNGGA,074544.10,3713.961148157,N,13701.567174785,E,4,05,1.75,93.565,M,37.564,M,62.1,3006*69
[2021-02-22 16:45:44.784] $GNGGA,074544.20,3713.961147615,N,13701.567173971,E,4,05,1.75,93.546,M,37.564,M,62.2,3006*64
[2021-02-22 16:45:44.878] $GNGGA,074544.30,3713.961148715,N,13701.567174649,E,4,05,1.75,93.543,M,37.564,M,62.3,3006*6C
[2021-02-22 16:45:44.972] $GNGGA,074544.40,3713.961150143,N,13701.567173704,E,4,05,1.75,93.520,M,37.564,M,62.4,3006*6A
[2021-02-22 16:45:45.065] $GNGGA,074544.50,3713.961150956,N,13701.567174167,E,4,05,1.75,93.514,M,37.564,M,62.5,3006*65
[2021-02-22 16:45:45.175] $GNGGA,074544.60,3713.961151415,N,13701.567173366,E,4,05,1.75,93.495,M,37.564,M,62.6,3006*62
[2021-02-22 16:45:45.300] $GNGGA,074544.70,3713.961151194,N,13701.567171439,E,4,05,1.75,93.461,M,37.564,M,62.7,3006*6A
[2021-02-22 16:45:45.378] $GNGGA,074544.80,3713.961152218,N,13701.567170112,E,4,07,1.34,93.429,M,37.564,M,62.8,3006*68
[2021-02-22 16:45:45.472] $GNGGA,074544.90,3713.961198191,N,13701.567166925,E,4,11,0.99,92.975,M,37.564,M,62.9,3006*63
[2021-02-22 16:45:45.581] $GNGGA,074545.00,3713.961135661,N,13701.567089623,E,4,13,0.95,92.419,M,37.564,M,63.0,3006*6C
[2021-02-22 16:45:45.690] $GNGGA,074545.10,3713.961136570,N,13701.567089986,E,4,13,0.95,92.419,M,37.564,M,63.1,3006*6C
[2021-02-22 16:45:45.768] $GNGGA,074545.20,3713.961136742,N,13701.567090564,E,4,13,0.95,92.420,M,37.564,M,63.2,3006*6D
[2021-02-22 16:45:45.878] $GNGGA,074545.30,3713.961137108,N,13701.567089778,E,4,13,0.95,92.421,M,37.564,M,63.3,3006*62
[2021-02-22 16:45:45.971] $GNGGA,074545.40,3713.961136842,N,13701.567090806,E,4,13,0.95,92.419,M,37.564,M,63.4,3006*61
[2021-02-22 16:45:46.097] $GNGGA,074545.50,3713.961137063,N,13701.567090047,E,4,13,0.95,92.419,M,37.564,M,63.5,3006*66
[2021-02-22 16:45:46.175] $GNGGA,074545.60,3713.961137765,N,13701.567090193,E,4,13,0.95,92.417,M,37.564,M,63.6,3006*61
[2021-02-22 16:45:46.268] $GNGGA,074545.70,3713.961136925,N,13701.567091608,E,4,13,0.95,92.417,M,37.564,M,63.7,3006*6E
[2021-02-22 16:45:46.378] $GNGGA,074545.80,3713.961137355,N,13701.567091579,E,4,13,0.95,92.415,M,37.564,M,63.8,3006*65
[2021-02-22 16:45:46.487] $GNGGA,074545.90,3713.961137573,N,13701.567091094,E,4,13,0.95,92.417,M,37.564,M,63.9,3006*63
[2021-02-22 16:45:46.565] $GNGGA,074546.00,3713.961138532,N,13701.567090626,E,4,13,0.95,92.418,M,37.564,M,64.0,3006*6C
[2021-02-22 16:45:46.675] $GNGGA,074546.10,3713.961138831,N,13701.567091041,E,4,13,0.95,92.418,M,37.564,M,64.1,3006*64
[2021-02-22 16:45:46.768] $GNGGA,074546.20,3713.961137941,N,13701.567090410,E,4,13,0.95,92.421,M,37.564,M,64.2,3006*66
[2021-02-22 16:45:46.893] $GNGGA,074546.30,3713.961136389,N,13701.567091435,E,4,13,0.95,92.421,M,37.564,M,64.3,3006*6F
[2021-02-22 16:45:46.971] $GNGGA,074546.40,3713.961136035,N,13701.567091323,E,4,13,0.95,92.421,M,37.564,M,64.4,3006*6B
[2021-02-22 16:45:47.065] $GNGGA,074546.50,3713.961136582,N,13701.567090885,E,4,13,0.95,92.415,M,37.564,M,64.5,3006*63
[2021-02-22 16:45:47.175] $GNGGA,074546.60,3713.961135622,N,13701.567091001,E,4,13,0.95,92.419,M,37.564,M,64.6,3006*60
[2021-02-22 16:45:47.268] $GNGGA,074546.70,3713.961135738,N,13701.567092427,E,4,13,0.95,92.417,M,37.564,M,64.7,3006*67
[2021-02-22 16:45:47.393] $GNGGA,074546.80,3713.961136544,N,13701.567092400,E,4,13,0.95,92.419,M,37.564,M,64.8,3006*66
[2021-02-22 16:45:47.471] $GNGGA,074546.90,3713.961136957,N,13701.567093413,E,4,13,0.95,92.418,M,37.564,M,64.9,3006*6A
[2021-02-22 16:45:47.565] $GNGGA,074547.00,3713.961136620,N,13701.567093919,E,4,13,0.95,92.418,M,37.564,M,65.0,3006*62
[2021-02-22 16:45:47.675] $GNGGA,074547.10,3713.961137485,N,13701.567093459,E,4,13,0.95,92.419,M,37.564,M,65.1,3006*66
[2021-02-22 16:45:47.768] $GNGGA,074547.20,3713.961137445,N,13701.567094382,E,4,13,0.95,92.420,M,37.564,M,65.2,3006*66
[2021-02-22 16:45:47.893] $GNGGA,074547.30,3713.961137573,N,13701.567093953,E,4,13,0.95,92.416,M,37.564,M,65.3,3006*66
[2021-02-22 16:45:47.971] $GNGGA,074547.40,3713.961136752,N,13701.567093785,E,4,13,0.95,92.415,M,37.564,M,65.4,3006*60
[2021-02-22 16:45:48.065] $GNGGA,074547.50,3713.961135788,N,13701.567093799,E,4,13,0.95,92.418,M,37.564,M,65.5,3006*64
[2021-02-22 16:45:48.175] $GNGGA,074547.60,3713.961136230,N,13701.567093365,E,4,13,0.95,92.417,M,37.564,M,65.6,3006*69
[2021-02-22 16:45:48.268] $GNGGA,074547.70,3713.961137035,N,13701.567092541,E,4,13,0.95,92.416,M,37.564,M,65.7,3006*6F
[2021-02-22 16:45:48.393] $GNGGA,074547.80,3713.961137311,N,13701.567092182,E,4,13,0.95,92.417,M,37.564,M,65.8,3006*60
[2021-02-22 16:45:48.471] $GNGGA,074547.90,3713.961138226,N,13701.567093419,E,4,13,0.95,92.418,M,37.564,M,65.9,3006*63
[2021-02-22 16:45:48.565] $GNGGA,074548.00,3713.961138708,N,13701.567092641,E,4,13,0.95,92.412,M,37.564,M,66.0,3006*62
[2021-02-22 16:45:48.674] $GNGGA,074548.10,3713.961138106,N,13701.567093311,E,4,13,0.95,92.410,M,37.564,M,66.1,3006*69
[2021-02-22 16:45:48.768] $GNGGA,074548.20,3713.961137883,N,13701.567093736,E,4,13,0.95,92.410,M,37.564,M,66.2,3006*63
[2021-02-22 16:45:48.893] $GNGGA,074548.30,3713.961137442,N,13701.567093535,E,4,13,0.95,92.406,M,37.564,M,66.3,3006*64
[2021-02-22 16:45:48.971] $GNGGA,074548.40,3713.961138886,N,13701.567094596,E,4,13,0.95,92.408,M,37.564,M,66.4,3006*6F
[2021-02-22 16:45:49.065] $GNGGA,074548.50,3713.961138723,N,13701.567095455,E,4,13,0.95,92.406,M,37.564,M,66.5,3006*6E
[2021-02-22 16:45:49.174] $GNGGA,074548.60,3713.961139215,N,13701.567095099,E,4,13,0.95,92.406,M,37.564,M,66.6,3006*6B
[2021-02-22 16:45:49.268] $GNGGA,074548.70,3713.961139773,N,13701.567093581,E,4,13,0.95,92.407,M,37.564,M,66.7,3006*65
[2021-02-22 16:45:49.393] $GNGGA,074548.80,3713.961138972,N,13701.567091509,E,4,13,0.95,92.407,M,37.564,M,66.8,3006*69
[2021-02-22 16:45:49.471] $GNGGA,074548.90,3713.961138101,N,13701.567090646,E,4,13,0.95,92.408,M,37.564,M,66.9,3006*63
[2021-02-22 16:45:49.581] $GNGGA,074549.00,3713.961137008,N,13701.567091449,E,4,13,0.95,92.406,M,37.564,M,67.0,3006*66
[2021-02-22 16:45:49.674] $GNGGA,074549.10,3713.961137998,N,13701.567093362,E,4,13,0.95,92.404,M,37.564,M,67.1,3006*68
[2021-02-22 16:45:49.799] $GNGGA,074549.20,3713.961138609,N,13701.567095700,E,4,13,0.95,92.404,M,37.564,M,67.2,3006*66
[2021-02-22 16:45:49.878] $GNGGA,074549.30,3713.961139391,N,13701.567098911,E,4,13,0.95,92.403,M,37.564,M,67.3,3006*67
[2021-02-22 16:45:49.971] $GNGGA,074549.40,3713.961140220,N,13701.567098607,E,4,13,0.95,92.405,M,37.564,M,67.4,3006*6C
[2021-02-22 16:45:50.081] $GNGGA,074549.50,3713.961139260,N,13701.567097830,E,4,13,0.95,92.406,M,37.564,M,67.5,3006*60
[2021-02-22 16:45:50.190] $GNGGA,074549.60,3713.961137943,N,13701.567097418,E,4,13,0.95,92.404,M,37.564,M,67.6,3006*60
[2021-02-22 16:45:50.268] $GNGGA,074549.70,3713.961138301,N,13701.567097512,E,4,13,0.95,92.406,M,37.564,M,67.7,3006*6A
[2021-02-22 16:45:50.377] $GNGGA,074549.80,3713.961138789,N,13701.567098805,E,4,13,0.95,92.400,M,37.564,M,67.8,3006*6C
[2021-02-22 16:45:50.471] $GNGGA,074549.90,3713.961139556,N,13701.567099550,E,4,13,0.95,92.398,M,37.564,M,67.9,3006*67
[2021-02-22 16:45:50.596] $GNGGA,074550.00,3713.961140775,N,13701.567099449,E,4,13,0.95,92.397,M,37.564,M,68.0,3006*6B
[2021-02-22 16:45:50.674] $GNGGA,074550.10,3713.961140715,N,13701.567099170,E,4,13,0.95,92.395,M,37.564,M,68.1,3006*60
[2021-02-22 16:45:50.768] $GNGGA,074550.20,3713.961140143,N,13701.567098470,E,4,13,0.95,92.393,M,37.564,M,68.2,3006*67
[2021-02-22 16:45:50.877] $GNGGA,074550.30,3713.961139015,N,13701.567098777,E,4,13,0.95,92.396,M,37.564,M,68.3,3006*6A
[2021-02-22 16:45:50.987] $GNGGA,074550.40,3713.961139012,N,13701.567099129,E,4,13,0.95,92.400,M,37.564,M,68.4,3006*69
[2021-02-22 16:45:51.065] $GNGGA,074550.50,3713.961139555,N,13701.567099479,E,4,13,0.95,92.399,M,37.564,M,68.5,3006*68
[2021-02-22 16:45:51.174] $GNGGA,074550.60,3713.961139852,N,13701.567099403,E,4,13,0.95,92.396,M,37.564,M,68.6,3006*60
[2021-02-22 16:45:51.268] $GNGGA,074550.70,3713.961140773,N,13701.567100424,E,4,13,0.95,92.397,M,37.564,M,68.7,3006*67
[2021-02-22 16:45:51.393] $GNGGA,074550.80,3713.961139580,N,13701.567099367,E,4,13,0.95,92.399,M,37.564,M,68.8,3006*68
[2021-02-22 16:45:51.471] $GNGGA,074550.90,3713.961138966,N,13701.567097668,E,4,13,0.95,92.397,M,37.564,M,68.9,3006*67
[2021-02-22 16:45:51.565] $GNGGA,074551.00,3713.961138485,N,13701.567097728,E,4,13,0.95,92.397,M,37.564,M,69.0,3006*62
[2021-02-22 16:45:51.674] $GNGGA,074551.10,3713.961139322,N,13701.567098151,E,4,13,0.95,92.396,M,37.564,M,69.1,3006*6F
[2021-02-22 16:45:51.768] $GNGGA,074551.20,3713.961139707,N,13701.567098779,E,4,13,0.95,92.399,M,37.564,M,69.2,3006*6F
[2021-02-22 16:45:51.893] $GNGGA,074551.30,3713.961139697,N,13701.567098300,E,4,13,0.95,92.397,M,37.564,M,69.3,3006*63
[2021-02-22 16:45:51.971] $GNGGA,074551.40,3713.961140675,N,13701.567099093,E,4,13,0.95,92.397,M,37.564,M,69.4,3006*69
[2021-02-22 16:45:52.065] $GNGGA,074551.50,3713.961140123,N,13701.567099897,E,4,13,0.95,92.396,M,37.564,M,69.5,3006*60
[2021-02-22 16:45:52.174] $GNGGA,074551.60,3713.961139249,N,13701.567099046,E,4,13,0.95,92.395,M,37.564,M,69.6,3006*66
[2021-02-22 16:45:52.268] $GNGGA,074551.70,3713.961139565,N,13701.567100030,E,4,13,0.95,92.396,M,37.564,M,69.7,3006*6C
[2021-02-22 16:45:52.393] $GNGGA,074551.80,3713.961139298,N,13701.567099964,E,4,13,0.95,92.392,M,37.564,M,69.8,3006*64
[2021-02-22 16:45:52.471] $GNGGA,074551.90,3713.961140122,N,13701.567099534,E,4,13,0.95,92.394,M,37.564,M,69.9,3006*67
[2021-02-22 16:45:52.565] $GNGGA,074552.00,3713.961140377,N,13701.567098929,E,4,13,0.95,92.396,M,37.564,M,70.0,3006*6D
[2021-02-22 16:45:52.674] $GNGGA,074552.10,3713.961140770,N,13701.567099390,E,4,13,0.95,92.395,M,37.564,M,70.1,3006*64
[2021-02-22 16:45:52.768] $GNGGA,074552.20,3713.961140514,N,13701.567098988,E,4,13,0.95,92.394,M,37.564,M,70.2,3006*67
[2021-02-22 16:45:52.893] $GNGGA,074552.30,3713.961139835,N,13701.567100220,E,4,13,0.95,92.391,M,37.564,M,70.3,3006*6B
[2021-02-22 16:45:52.971] $GNGGA,074552.40,3713.961139301,N,13701.567101728,E,4,13,0.95,92.395,M,37.564,M,70.4,3006*6F
[2021-02-22 16:45:53.065] $GNGGA,074552.50,3713.961140752,N,13701.567101563,E,4,13,0.95,92.391,M,37.564,M,70.5,3006*6A
[2021-02-22 16:45:53.174] $GNGGA,074552.60,3713.961140445,N,13701.567101561,E,4,13,0.95,92.393,M,37.564,M,70.6,3006*6F
[2021-02-22 16:45:53.268] $GNGGA,074552.70,3713.961139566,N,13701.567101453,E,4,13,0.95,92.396,M,37.564,M,70.7,3006*64
[2021-02-22 16:45:53.393] $GNGGA,074552.80,3713.961140092,N,13701.567102333,E,4,13,0.95,92.396,M,37.564,M,70.8,3006*66
[2021-02-22 16:45:53.471] $GNGGA,074552.90,3713.961140294,N,13701.567101774,E,4,13,0.95,92.396,M,37.564,M,70.9,3006*66
[2021-02-22 16:45:53.565] $GNGGA,074553.00,3713.961139926,N,13701.567101706,E,4,13,0.95,92.395,M,37.564,M,71.0,3006*6C
[2021-02-22 16:45:53.674] $GNGGA,074553.10,3713.961139006,N,13701.567102151,E,4,13,0.95,92.397,M,37.564,M,71.1,3006*62
[2021-02-22 16:45:53.768] $GNGGA,074553.20,3713.961139613,N,13701.567102330,E,4,13,0.95,92.396,M,37.564,M,71.2,3006*64
[2021-02-22 16:45:53.893] $GNGGA,074553.30,3713.961139301,N,13701.567101839,E,4,13,0.95,92.396,M,37.564,M,71.3,3006*63
[2021-02-22 16:45:53.971] $GNGGA,074553.40,3713.961138802,N,13701.567102265,E,4,13,0.95,92.395,M,37.564,M,71.4,3006*69
[2021-02-22 16:45:54.080] $GNGGA,074553.50,3713.961139318,N,13701.567102647,E,4,13,0.95,92.392,M,37.564,M,71.5,3006*6B
[2021-02-22 16:45:54.174] $GNGGA,074553.60,3713.961139935,N,13701.567102109,E,4,13,0.95,92.394,M,37.564,M,71.6,3006*65
[2021-02-22 16:45:54.299] $GNGGA,074553.70,3713.961140381,N,13701.567102027,E,4,13,0.95,92.393,M,37.564,M,71.7,3006*64
[2021-02-22 16:45:54.377] $GNGGA,074553.80,3713.961140741,N,13701.567101865,E,4,13,0.95,92.389,M,37.564,M,71.8,3006*6A
[2021-02-22 16:45:54.471] $GNGGA,074553.90,3713.961141086,N,13701.567102078,E,4,13,0.95,92.391,M,37.564,M,71.9,3006*69
[2021-02-22 16:45:54.580] $GNGGA,074554.00,3713.961141940,N,13701.567102127,E,4,13,0.95,92.389,M,37.564,M,72.0,3006*6C
[2021-02-22 16:45:54.690] $GNGGA,074554.10,3713.961141946,N,13701.567102487,E,4,13,0.95,92.389,M,37.564,M,72.1,3006*65
[2021-02-22 16:45:54.768] $GNGGA,074554.20,3713.961140810,N,13701.567102960,E,4,13,0.95,92.399,M,37.564,M,72.2,3006*63
[2021-02-22 16:45:54.877] $GNGGA,074554.30,3713.961141373,N,13701.567103435,E,4,13,0.95,92.396,M,37.564,M,72.3,3006*6F
[2021-02-22 16:45:54.971] $GNGGA,074554.40,3713.961140860,N,13701.567103229,E,4,13,0.95,92.397,M,37.564,M,72.4,3006*6D
[2021-02-22 16:45:55.096] $GNGGA,074554.50,3713.961140850,N,13701.567104201,E,4,13,0.95,92.398,M,37.564,M,72.5,3006*6C
[2021-02-22 16:45:55.174] $GNGGA,074554.60,3713.961141111,N,13701.567104469,E,4,13,0.95,92.399,M,37.564,M,72.6,3006*68
[2021-02-22 16:45:55.268] $GNGGA,074554.70,3713.961140976,N,13701.567104681,E,4,13,0.95,92.399,M,37.564,M,72.7,3006*64
[2021-02-22 16:45:55.377] $GNGGA,074554.80,3713.961140848,N,13701.567104968,E,4,13,0.95,92.400,M,37.564,M,72.8,3006*67
[2021-02-22 16:45:55.486] $GNGGA,074554.90,3713.961140729,N,13701.567105246,E,4,13,0.95,92.402,M,37.564,M,72.9,3006*6B
[2021-02-22 16:45:55.565] $GNGGA,074555.00,3713.961140720,N,13701.567104740,E,4,13,0.95,92.397,M,37.564,M,73.0,3006*6B
[2021-02-22 16:45:55.674] $GNGGA,074555.10,3713.961141435,N,13701.567105286,E,4,13,0.95,92.397,M,37.564,M,73.1,3006*63
[2021-02-22 16:45:55.768] $GNGGA,074555.20,3713.961141550,N,13701.567106009,E,4,13,0.95,92.398,M,37.564,M,73.2,3006*68
[2021-02-22 16:45:55.893] $GNGGA,074555.30,3713.961142029,N,13701.567105469,E,4,13,0.95,92.397,M,37.564,M,73.3,3006*6E
[2021-02-22 16:45:55.971] $GNGGA,074555.40,3713.961141682,N,13701.567106336,E,4,13,0.95,92.400,M,37.564,M,73.4,3006*6D
[2021-02-22 16:45:56.080] $GNGGA,074555.50,3713.961141661,N,13701.567106190,E,4,13,0.95,92.402,M,37.564,M,73.5,3006*6C
[2021-02-22 16:45:56.174] $GNGGA,074555.60,3713.961140629,N,13701.567106090,E,4,13,0.95,92.404,M,37.564,M,73.6,3006*66
[2021-02-22 16:45:56.268] $GNGGA,074555.70,3713.961140092,N,13701.567106828,E,4,13,0.95,92.401,M,37.564,M,73.7,3006*6E
[2021-02-22 16:45:56.393] $GNGGA,074555.80,3713.961139921,N,13701.567106797,E,4,13,0.95,92.401,M,37.564,M,73.8,3006*6A
[2021-02-22 16:45:56.471] $GNGGA,074555.90,3713.961139849,N,13701.567106912,E,4,13,0.95,92.398,M,37.564,M,73.9,3006*61
[2021-02-22 16:45:56.565] $GNGGA,074556.00,3713.961140696,N,13701.567106461,E,4,13,0.95,92.395,M,37.564,M,74.0,3006*63
[2021-02-22 16:45:56.674] $GNGGA,074556.10,3713.961140921,N,13701.567106166,E,4,13,0.95,92.394,M,37.564,M,74.1,3006*63
[2021-02-22 16:45:56.768] $GNGGA,074556.20,3713.961141346,N,13701.567106095,E,4,13,0.95,92.394,M,37.564,M,74.2,3006*64
[2021-02-22 16:45:56.893] $GNGGA,074556.30,3713.961141072,N,13701.567105635,E,4,13,0.95,92.394,M,37.564,M,74.3,3006*6F
[2021-02-22 16:45:56.971] $GNGGA,074556.40,3713.961141568,N,13701.567106806,E,4,13,0.95,92.393,M,37.564,M,74.4,3006*6B
[2021-02-22 16:45:57.065] $GNGGA,074556.50,3713.961141725,N,13701.567106246,E,4,13,0.95,92.397,M,37.564,M,74.5,3006*6A
[2021-02-22 16:45:57.174] $GNGGA,074556.60,3713.961140961,N,13701.567105997,E,4,13,0.95,92.396,M,37.564,M,74.6,3006*60
[2021-02-22 16:45:57.268] $GNGGA,074556.70,3713.961141538,N,13701.567105759,E,4,13,0.95,92.396,M,37.564,M,74.7,3006*6D
[2021-02-22 16:45:57.393] $GNGGA,074556.80,3713.961141823,N,13701.567106950,E,4,13,0.95,92.399,M,37.564,M,74.8,3006*61
[2021-02-22 16:45:57.471] $GNGGA,074556.90,3713.961141291,N,13701.567107780,E,4,13,0.95,92.402,M,37.564,M,74.9,3006*65
[2021-02-22 16:45:57.564] $GNGGA,074557.00,3713.961141751,N,13701.567107050,E,4,13,0.95,92.402,M,37.564,M,75.0,3006*66
[2021-02-22 16:45:57.674] $GNGGA,074557.10,3713.961141173,N,13701.567107672,E,4,13,0.95,92.400,M,37.564,M,75.1,3006*64
[2021-02-22 16:45:57.768] $GNGGA,074557.20,3713.961140928,N,13701.567107015,E,4,13,0.95,92.403,M,37.564,M,75.2,3006*67
[2021-02-22 16:45:57.893] $GNGGA,074557.30,3713.961141129,N,13701.567107440,E,4,13,0.95,92.402,M,37.564,M,75.3,3006*6A
[2021-02-22 16:45:57.971] $GNGGA,074557.40,3713.961141349,N,13701.567108149,E,4,13,0.95,92.399,M,37.564,M,75.4,3006*68
[2021-02-22 16:45:58.064] $GNGGA,074557.50,3713.961141932,N,13701.567107431,E,4,13,0.95,92.400,M,37.564,M,75.5,3006*6C
[2021-02-22 16:45:58.174] $GNGGA,074557.60,3713.961141527,N,13701.567108492,E,4,13,0.95,92.401,M,37.564,M,75.6,3006*63
[2021-02-22 16:45:58.268] $GNGGA,074557.70,3713.961141263,N,13701.567108255,E,4,13,0.95,92.403,M,37.564,M,75.7,3006*6B
[2021-02-22 16:45:58.393] $GNGGA,074557.80,3713.961141471,N,13701.567108841,E,4,13,0.95,92.404,M,37.564,M,75.8,3006*66
[2021-02-22 16:45:58.471] $GNGGA,074557.90,3713.961141773,N,13701.567108564,E,4,13,0.95,92.403,M,37.564,M,75.9,3006*6A
[2021-02-22 16:45:58.580] $GNGGA,074558.00,3713.961141338,N,13701.567108421,E,4,13,0.95,92.404,M,37.564,M,76.0,3006*6A
[2021-02-22 16:45:58.674] $GNGGA,074558.10,3713.961140452,N,13701.567108775,E,4,13,0.95,92.402,M,37.564,M,76.1,3006*64
[2021-02-22 16:45:58.799] $GNGGA,074558.20,3713.961141444,N,13701.567108644,E,4,13,0.95,92.402,M,37.564,M,76.2,3006*61
[2021-02-22 16:45:58.877] $GNGGA,074558.30,3713.961141374,N,13701.567108533,E,4,13,0.95,92.404,M,37.564,M,76.3,3006*60
[2021-02-22 16:45:58.971] $GNGGA,074558.40,3713.961141298,N,13701.567109632,E,4,13,0.95,92.406,M,37.564,M,76.4,3006*62
[2021-02-22 16:45:59.080] $GNGGA,074558.50,3713.961141362,N,13701.567109755,E,4,13,0.95,92.407,M,37.564,M,76.5,3006*67
[2021-02-22 16:45:59.189] $GNGGA,074558.60,3713.961141588,N,13701.567110057,E,4,13,0.95,92.401,M,37.564,M,76.6,3006*6E
[2021-02-22 16:45:59.267] $GNGGA,074558.70,3713.961141955,N,13701.567109869,E,4,13,0.95,92.408,M,37.564,M,76.7,3006*66
[2021-02-22 16:45:59.377] $GNGGA,074558.80,3713.961141860,N,13701.567110364,E,4,13,0.95,92.407,M,37.564,M,76.8,3006*60
[2021-02-22 16:45:59.471] $GNGGA,074558.90,3713.961142345,N,13701.567110498,E,4,13,0.95,92.405,M,37.564,M,76.9,3006*69
[2021-02-22 16:45:59.596] $GNGGA,074559.00,3713.961142310,N,13701.567110318,E,4,13,0.95,92.404,M,37.564,M,77.0,3006*67
[2021-02-22 16:45:59.674] $GNGGA,074559.10,3713.961141825,N,13701.567110138,E,4,13,0.95,92.403,M,37.564,M,77.1,3006*6E
[2021-02-22 16:45:59.767] $GNGGA,074559.20,3713.961141737,N,13701.567109220,E,4,13,0.95,92.403,M,37.564,M,77.2,3006*60
[2021-02-22 16:45:59.877] $GNGGA,074559.30,3713.961141219,N,13701.567109655,E,4,13,0.95,92.405,M,37.564,M,77.3,3006*69
[2021-02-22 16:45:59.986] $GNGGA,074559.40,3713.961141857,N,13701.567109013,E,4,13,0.95,92.403,M,37.564,M,77.4,3006*6B
[2021-02-22 16:46:00.064] $GNGGA,074559.50,3713.961141134,N,13701.567109874,E,4,13,0.95,92.404,M,37.564,M,77.5,3006*69
[2021-02-22 16:46:00.174] $GNGGA,074559.60,3713.961140581,N,13701.567109981,E,4,13,0.95,92.406,M,37.564,M,77.6,3006*6B
[2021-02-22 16:46:00.267] $GNGGA,074559.70,3713.961141028,N,13701.567110310,E,4,13,0.95,92.407,M,37.564,M,77.7,3006*67
[2021-02-22 16:46:00.377] $GNGGA,074559.80,3713.961140875,N,13701.567109786,E,4,13,0.95,92.407,M,37.564,M,77.8,3006*65
[2021-02-22 16:46:00.486] $GNGGA,074559.90,3713.961140816,N,13701.567109992,E,4,13,0.95,92.407,M,37.564,M,77.9,3006*6B
[2021-02-22 16:46:00.564] $GNGGA,074600.00,3713.961141659,N,13701.567111032,E,4,13,0.95,92.405,M,37.564,M,78.0,3006*67
[2021-02-22 16:46:00.674] $GNGGA,074600.10,3713.961141880,N,13701.567111816,E,4,13,0.95,92.404,M,37.564,M,78.1,3006*62
[2021-02-22 16:46:00.767] $GNGGA,074600.20,3713.961142078,N,13701.567113069,E,4,13,0.95,92.405,M,37.564,M,78.2,3006*6D
[2021-02-22 16:46:00.877] $GNGGA,074600.30,3713.961141728,N,13701.567111382,E,4,13,0.95,92.410,M,37.564,M,78.3,3006*6C
[2021-02-22 16:46:00.986] $GNGGA,074600.40,3713.961141615,N,13701.567111316,E,4,13,0.95,92.410,M,37.564,M,78.4,3006*6E
[2021-02-22 16:46:01.064] $GNGGA,074600.50,3713.961141882,N,13701.567112088,E,4,13,0.95,92.412,M,37.564,M,78.5,3006*6B
[2021-02-22 16:46:01.174] $GNGGA,074600.60,3713.961142780,N,13701.567112419,E,4,13,0.95,92.410,M,37.564,M,78.6,3006*6B
[2021-02-22 16:46:01.267] $GNGGA,074600.70,3713.961143856,N,13701.567112975,E,4,13,0.95,92.407,M,37.564,M,78.7,3006*6F
[2021-02-22 16:46:01.377] $GNGGA,074600.80,3713.961143846,N,13701.567113313,E,4,13,0.95,92.410,M,37.564,M,78.8,3006*63
[2021-02-22 16:46:01.486] $GNGGA,074600.90,3713.961143506,N,13701.567113529,E,4,13,0.95,92.409,M,37.564,M,78.9,3006*6D
[2021-02-22 16:46:01.564] $GNGGA,074601.00,3713.961143259,N,13701.567113231,E,4,13,0.95,92.407,M,37.564,M,79.0,3006*60
[2021-02-22 16:46:01.674] $GNGGA,074601.10,3713.961142532,N,13701.567112748,E,4,13,0.95,92.409,M,37.564,M,79.1,3006*6F
[2021-02-22 16:46:01.767] $GNGGA,074601.20,3713.961143043,N,13701.567113850,E,4,13,0.95,92.408,M,37.564,M,79.2,3006*6B
[2021-02-22 16:46:01.877] $GNGGA,074601.30,3713.961143357,N,13701.567113446,E,4,13,0.95,92.410,M,37.564,M,79.3,3006*6F
[2021-02-22 16:46:01.986] $GNGGA,074601.40,3713.961142982,N,13701.567113931,E,4,13,0.95,92.413,M,37.564,M,79.4,3006*62
[2021-02-22 16:46:02.064] $GNGGA,074601.50,3713.961143075,N,13701.567114948,E,4,13,0.95,92.411,M,37.564,M,79.5,3006*69
[2021-02-22 16:46:02.174] $GNGGA,074601.60,3713.961142755,N,13701.567114544,E,4,13,0.95,92.412,M,37.564,M,79.6,3006*6E
[2021-02-22 16:46:02.267] $GNGGA,074601.70,3713.961142703,N,13701.567115318,E,4,13,0.95,92.413,M,37.564,M,79.7,3006*62
[2021-02-22 16:46:02.377] $GNGGA,074601.80,3713.961142949,N,13701.567116120,E,4,13,0.95,92.414,M,37.564,M,79.8,3006*6F
[2021-02-22 16:46:02.486] $GNGGA,074601.90,3713.961143161,N,13701.567115817,E,4,13,0.95,92.411,M,37.564,M,79.9,3006*67
[2021-02-22 16:46:02.564] $GNGGA,074602.00,3713.961143069,N,13701.567116871,E,4,13,0.95,92.412,M,37.564,M,80.0,3006*6B
[2021-02-22 16:46:02.673] $GNGGA,074602.10,3713.961142937,N,13701.567116432,E,4,13,0.95,92.414,M,37.564,M,80.1,3006*65
[2021-02-22 16:46:02.767] $GNGGA,074602.20,3713.961142615,N,13701.567115447,E,4,13,0.95,92.414,M,37.564,M,80.2,3006*6B
[2021-02-22 16:46:02.892] $GNGGA,074602.30,3713.961142592,N,13701.567116462,E,4,13,0.95,92.414,M,37.564,M,80.3,3006*63
[2021-02-22 16:46:02.970] $GNGGA,074602.40,3713.961142112,N,13701.567116021,E,4,13,0.95,92.417,M,37.564,M,80.4,3006*6F
[2021-02-22 16:46:03.080] $GNGGA,074602.50,3713.961143022,N,13701.567115241,E,4,13,0.95,92.412,M,37.564,M,80.5,3006*6E
[2021-02-22 16:46:03.173] $GNGGA,074602.60,3713.961143125,N,13701.567115692,E,4,13,0.95,92.410,M,37.564,M,80.6,3006*60
[2021-02-22 16:46:03.298] $GNGGA,074602.70,3713.961143380,N,13701.567116296,E,4,13,0.95,92.411,M,37.564,M,80.7,3006*6F
[2021-02-22 16:46:03.377] $GNGGA,074602.80,3713.961143537,N,13701.567116111,E,4,13,0.95,92.409,M,37.564,M,80.8,3006*60
[2021-02-22 16:46:03.470] $GNGGA,074602.90,3713.961143380,N,13701.567116556,E,4,13,0.95,92.409,M,37.564,M,80.9,3006*6D
[2021-02-22 16:46:03.580] $GNGGA,074603.00,3713.961142648,N,13701.567116898,E,4,13,0.95,92.410,M,37.564,M,81.0,3006*6A
[2021-02-22 16:46:03.689] $GNGGA,074603.10,3713.961142637,N,13701.567116041,E,4,13,0.95,92.410,M,37.564,M,81.1,3006*6E
[2021-02-22 16:46:03.767] $GNGGA,074603.20,3713.961142356,N,13701.567116561,E,4,13,0.95,92.407,M,37.564,M,81.2,3006*6D
[2021-02-22 16:46:03.877] $GNGGA,074603.30,3713.961142201,N,13701.567117220,E,4,13,0.95,92.410,M,37.564,M,81.3,3006*6B
[2021-02-22 16:46:03.970] $GNGGA,074603.40,3713.961142220,N,13701.567116885,E,4,13,0.95,92.410,M,37.564,M,81.4,3006*6C
[2021-02-22 16:46:04.095] $GNGGA,074603.50,3713.961142510,N,13701.567117723,E,4,13,0.95,92.407,M,37.564,M,81.5,3006*6C
[2021-02-22 16:46:04.173] $GNGGA,074603.60,3713.961142256,N,13701.567117439,E,4,13,0.95,92.412,M,37.564,M,81.6,3006*65
[2021-02-22 16:46:04.267] $GNGGA,074603.70,3713.961142312,N,13701.567117241,E,4,13,0.95,92.416,M,37.564,M,81.7,3006*69
[2021-02-22 16:46:04.377] $GNGGA,074603.80,3713.961142741,N,13701.567117363,E,4,13,0.95,92.413,M,37.564,M,81.8,3006*6F
[2021-02-22 16:46:04.486] $GNGGA,074603.90,3713.961142278,N,13701.567117160,E,4,13,0.95,92.414,M,37.564,M,81.9,3006*66
[2021-02-22 16:46:04.564] $GNGGA,074604.00,3713.961142667,N,13701.567117661,E,4,13,0.95,92.415,M,37.564,M,82.0,3006*6F
[2021-02-22 16:46:04.673] $GNGGA,074604.10,3713.961141990,N,13701.567118068,E,4,13,0.95,92.412,M,37.564,M,82.1,3006*6C
[2021-02-22 16:46:04.767] $GNGGA,074604.20,3713.961141452,N,13701.567117847,E,4,13,0.95,92.413,M,37.564,M,82.2,3006*64
[2021-02-22 16:46:04.876] $GNGGA,074604.30,3713.961141439,N,13701.567117541,E,4,13,0.95,92.413,M,37.564,M,82.3,3006*62
[2021-02-22 16:46:04.986] $GNGGA,074604.40,3713.961141110,N,13701.567117100,E,4,13,0.95,92.415,M,37.564,M,82.4,3006*6B
[2021-02-22 16:46:05.064] $GNGGA,074604.50,3713.961141368,N,13701.567117609,E,4,13,0.95,92.412,M,37.564,M,82.5,3006*6F
[2021-02-22 16:46:05.173] $GNGGA,074604.60,3713.961142260,N,13701.567117265,E,4,13,0.95,92.409,M,37.564,M,82.6,3006*61
[2021-02-22 16:46:05.267] $GNGGA,074604.70,3713.961141770,N,13701.567118285,E,4,13,0.95,92.412,M,37.564,M,82.7,3006*6D
[2021-02-22 16:46:05.376] $GNGGA,074604.80,3713.961142900,N,13701.567117515,E,4,13,0.95,92.413,M,37.564,M,82.8,3006*67
[2021-02-22 16:46:05.486] $GNGGA,074604.90,3713.961142364,N,13701.567118958,E,4,13,0.95,92.415,M,37.564,M,82.9,3006*63
[2021-02-22 16:46:05.564] $GNGGA,074605.00,3713.961141560,N,13701.567118723,E,4,13,0.95,92.417,M,37.564,M,83.0,3006*62
[2021-02-22 16:46:05.673] $GNGGA,074605.10,3713.961141783,N,13701.567119571,E,4,13,0.95,92.419,M,37.564,M,83.1,3006*67
[2021-02-22 16:46:05.767] $GNGGA,074605.20,3713.961142293,N,13701.567120176,E,4,13,0.95,92.419,M,37.564,M,83.2,3006*69
[2021-02-22 16:46:05.876] $GNGGA,074605.30,3713.961142500,N,13701.567119188,E,4,13,0.95,92.416,M,37.564,M,83.3,3006*60
[2021-02-22 16:46:05.986] $GNGGA,074605.40,3713.961143066,N,13701.567118678,E,4,13,0.95,92.412,M,37.564,M,83.4,3006*69
[2021-02-22 16:46:06.064] $GNGGA,074605.50,3713.961142802,N,13701.567118615,E,4,13,0.95,92.414,M,37.564,M,83.5,3006*6F
[2021-02-22 16:46:06.173] $GNGGA,074605.60,3713.961143225,N,13701.567118496,E,4,13,0.95,92.411,M,37.564,M,83.6,3006*6D
[2021-02-22 16:46:06.267] $GNGGA,074605.70,3713.961143057,N,13701.567118581,E,4,13,0.95,92.413,M,37.564,M,83.7,3006*6F
[2021-02-22 16:46:06.376] $GNGGA,074605.80,3713.961142821,N,13701.567119887,E,4,13,0.95,92.411,M,37.564,M,83.8,3006*6F
[2021-02-22 16:46:06.486] $GNGGA,074605.90,3713.961142946,N,13701.567120491,E,4,13,0.95,92.411,M,37.564,M,83.9,3006*6E
[2021-02-22 16:46:06.564] $GNGGA,074606.00,3713.961142290,N,13701.567120638,E,4,13,0.95,92.414,M,37.564,M,84.0,3006*6E
[2021-02-22 16:46:06.673] $GNGGA,074606.10,3713.961142332,N,13701.567120479,E,4,13,0.95,92.412,M,37.564,M,84.1,3006*66
[2021-02-22 16:46:06.767] $GNGGA,074606.20,3713.961142524,N,13701.567121030,E,4,13,0.95,92.412,M,37.564,M,84.2,3006*6F
[2021-02-22 16:46:06.876] $GNGGA,074606.30,3713.961142718,N,13701.567120645,E,4,13,0.95,92.411,M,37.564,M,84.3,3006*64
[2021-02-22 16:46:06.986] $GNGGA,074606.40,3713.961142549,N,13701.567120625,E,4,13,0.95,92.412,M,37.564,M,84.4,3006*67
[2021-02-22 16:46:07.079] $GNGGA,074606.50,3713.961142554,N,13701.567120555,E,4,13,0.95,92.414,M,37.564,M,84.5,3006*69
[2021-02-22 16:46:07.173] $GNGGA,074606.60,3713.961142083,N,13701.567120701,E,4,13,0.95,92.414,M,37.564,M,84.6,3006*65
[2021-02-22 16:46:07.267] $GNGGA,074606.70,3713.961142197,N,13701.567120526,E,4,13,0.95,92.415,M,37.564,M,84.7,3006*67
[2021-02-22 16:46:07.392] $GNGGA,074606.80,3713.961141711,N,13701.567120381,E,4,13,0.95,92.418,M,37.564,M,84.8,3006*6A
[2021-02-22 16:46:07.470] $GNGGA,074606.90,3713.961141563,N,13701.567120602,E,4,13,0.95,92.416,M,37.564,M,84.9,3006*6D
[2021-02-22 16:46:07.579] $GNGGA,074607.00,3713.961142249,N,13701.567120003,E,4,13,0.95,92.414,M,37.564,M,85.0,3006*64
[2021-02-22 16:46:07.673] $GNGGA,074607.10,3713.961143128,N,13701.567120185,E,4,13,0.95,92.416,M,37.564,M,85.1,3006*6C
[2021-02-22 16:46:07.798] $GNGGA,074607.20,3713.961142655,N,13701.567121608,E,4,13,0.95,92.418,M,37.564,M,85.2,3006*6D
[2021-02-22 16:46:07.876] $GNGGA,074607.30,3713.961142978,N,13701.567121037,E,4,13,0.95,92.414,M,37.564,M,85.3,3006*6B
[2021-02-22 16:46:07.970] $GNGGA,074607.40,3713.961142215,N,13701.567121149,E,4,13,0.95,92.414,M,37.564,M,85.4,3006*63
[2021-02-22 16:46:08.079] $GNGGA,074607.50,3713.961142784,N,13701.567121251,E,4,13,0.95,92.412,M,37.564,M,85.5,3006*62
[2021-02-22 16:46:08.189] $GNGGA,074607.60,3713.961142906,N,13701.567121535,E,4,13,0.95,92.411,M,37.564,M,85.6,3006*60
