
[2021-02-22 16:49:05.710] $GNGGA,074854.70,,,,,0,00,99.99,,,,,57.7,*6E
[2021-02-22 16:49:05.742] $GNGGA,074854.80,,,,,0,00,99.99,,,,,57.8,*6E
[2021-02-22 16:49:05.742] $GNGGA,074854.90,,,,,0,00,99.99,,,,,57.9,*6E
[2021-02-22 16:49:05.742] $GNGGA,074855.00,,,,,0,00,99.99,,,,,58.0,*60
[2021-02-22 16:49:05.742] $GNGGA,074855.10,,,,,0,00,99.99,,,,,58.1,*60
[2021-02-22 16:49:05.742] $GNGGA,074855.20,,,,,0,00,99.99,,,,,58.2,*60
[2021-02-22 16:49:05.742] $GNGGA,074855.30,,,,,0,00,99.99,,,,,58.3,*60
[2021-02-22 16:49:05.742] $GNGGA,074855.40,,,,,0,00,99.99,,,,,58.4,*60
[2021-02-22 16:49:05.742] $GNGGA,074855.50,,,,,0,00,99.99,,,,,58.5,*60
[2021-02-22 16:49:05.742] $GNGGA,074855.60,,,,,0,00,99.99,,,,,58.6,*60
[2021-02-22 16:49:05.742] $GNGGA,074855.70,,,,,0,00,99.99,,,,,58.7,*60
[2021-02-22 16:49:05.742] $GNGGA,074855.80,,,,,0,00,99.99,,,,,58.8,*60
[2021-02-22 16:49:05.742] $GNGGA,074855.90,,,,,0,00,99.99,,,,,58.9,*60
[2021-02-22 16:49:05.742] $GNGGA,074856.00,,,,,0,00,99.99,,,,,59.0,*62
[2021-02-22 16:49:05.742] $GNGGA,074856.10,,,,,0,00,99.99,,,,,59.1,*62
[2021-02-22 16:49:05.742] $GNGGA,074856.20,,,,,0,00,99.99,,,,,59.2,*62
[2021-02-22 16:49:05.742] $GNGGA,074856.30,,,,,0,00,99.99,,,,,59.3,*62
[2021-02-22 16:49:05.742] $GNGGA,074856.40,,,,,0,00,99.99,,,,,59.4,*62
[2021-02-22 16:49:05.742] $GNGGA,074856.50,,,,,0,00,99.99,,,,,59.5,*62
[2021-02-22 16:49:05.742] $GNGGA,074856.60,,,,,0,00,99.99,,,,,59.6,*62
[2021-02-22 16:49:05.742] $GNGGA,074856.70,,,,,0,00,99.99,,,,,59.7,*62
[2021-02-22 16:49:05.742] $GNGGA,074856.80,,,,,0,00,99.99,,,,,59.8,*62
[2021-02-22 16:49:05.742] $GNGGA,074856.90,,,,,0,00,99.99,,,,,59.9,*62
[2021-02-22 16:49:05.742] $GNGGA,074857.00,,,,,0,00,99.99,,,,,60.0,*69
[2021-02-22 16:49:05.757] $GNGGA,074857.10,,,,,0,00,99.99,,,,,60.1,*69
[2021-02-22 16:49:05.757] $GNGGA,074857.20,,,,,0,00,99.99,,,,,60.2,*69
[2021-02-22 16:49:05.757] $GNGGA,074857.30,,,,,0,00,99.99,,,,,60.3,*69
[2021-02-22 16:49:05.757] $GNGGA,074857.40,,,,,0,00,99.99,,,,,60.4,*69
[2021-02-22 16:49:05.757] $GNGGA,074857.50,,,,,0,00,99.99,,,,,60.5,*69
[2021-02-22 16:49:05.757] $GNGGA,074857.60,,,,,0,00,99.99,,,,,60.6,*69
[2021-02-22 16:49:05.757] $GNGGA,074857.70,,,,,0,00,99.99,,,,,60.7,*69
[2021-02-22 16:49:05.757] $GNGGA,074857.80,,,,,0,00,99.99,,,,,60.8,*69
[2021-02-22 16:49:05.757] $GNGGA,074857.90,,,,,0,00,99.99,,,,,60.9,*69
[2021-02-22 16:49:05.757] $GNGGA,074858.00,,,,,0,00,99.99,,,,,61.0,*67
[2021-02-22 16:49:05.757] $GNGGA,074858.10,,,,,0,00,99.99,,,,,61.1,*67
[2021-02-22 16:49:05.757] $GNGGA,074858.20,,,,,0,00,99.99,,,,,61.2,*67
[2021-02-22 16:49:05.757] $GNGGA,074858.30,,,,,0,00,99.99,,,,,61.3,*67
[2021-02-22 16:49:05.757] $GNGGA,074858.40,,,,,0,00,99.99,,,,,61.4,*67
[2021-02-22 16:49:05.757] $GNGGA,074858.50,,,,,0,00,99.99,,,,,61.5,*67
[2021-02-22 16:49:05.757] $GNGGA,074858.60,,,,,0,00,99.99,,,,,61.6,*67
[2021-02-22 16:49:05.757] $GNGGA,074858.70,,,,,0,00,99.99,,,,,61.7,*67
[2021-02-22 16:49:05.757] $GNGGA,074858.80,,,,,0,00,99.99,,,,,61.8,*67
[2021-02-22 16:49:05.757] $GNGGA,074858.90,,,,,0,00,99.99,,,,,61.9,*67
[2021-02-22 16:49:05.757] $GNGGA,074859.00,,,,,0,00,99.99,,,,,62.0,*65
[2021-02-22 16:49:05.757] $GNGGA,074859.10,,,,,0,00,99.99,,,,,62.1,*65
[2021-02-22 16:49:05.757] $GNGGA,074859.20,,,,,0,00,99.99,,,,,62.2,*65
[2021-02-22 16:49:05.773] $GNGGA,074859.30,,,,,0,00,99.99,,,,,62.3,*65
[2021-02-22 16:49:05.773] $GNGGA,074859.40,,,,,0,00,99.99,,,,,62.4,*65
[2021-02-22 16:49:05.773] $GNGGA,074859.50,,,,,0,00,99.99,,,,,62.5,*65
[2021-02-22 16:49:05.773] $GNGGA,074859.60,,,,,0,00,99.99,,,,,62.6,*65
[2021-02-22 16:49:05.773] $GNGGA,074859.70,,,,,0,00,99.99,,,,,62.7,*65
[2021-02-22 16:49:05.773] $GNGGA,074859.80,,,,,0,00,99.99,,,,,62.8,*65
[2021-02-22 16:49:05.773] $GNGGA,074859.90,,,,,0,00,99.99,,,,,62.9,*65
[2021-02-22 16:49:05.773] $GNGGA,074900.00,,,,,0,00,99.99,,,,,63.0,*69
[2021-02-22 16:49:05.773] $GNGGA,074900.10,,,,,0,00,99.99,,,,,63.1,*69
[2021-02-22 16:49:05.773] $GNGGA,074900.20,,,,,0,00,99.99,,,,,63.2,*69
[2021-02-22 16:49:05.773] $GNGGA,074900.30,,,,,0,00,99.99,,,,,63.3,*69
[2021-02-22 16:49:05.773] $GNGGA,074900.40,,,,,0,00,99.99,,,,,63.4,*69
[2021-02-22 16:49:05.773] $GNGGA,074900.50,,,,,0,00,99.99,,,,,63.5,*69
[2021-02-22 16:49:05.773] $GNGGA,074900.60,,,,,0,00,99.99,,,,,63.6,*69
[2021-02-22 16:49:05.773] $GNGGA,074900.70,,,,,0,00,99.99,,,,,63.7,*69
[2021-02-22 16:49:05.773] $GNGGA,074900.80,,,,,0,00,99.99,,,,,63.8,*69
[2021-02-22 16:49:05.773] $GNGGA,074900.90,,,,,0,00,99.99,,,,,63.9,*69
[2021-02-22 16:49:05.773] $GNGGA,074901.00,,,,,0,00,99.99,,,,,64.0,*6F
[2021-02-22 16:49:05.773] $GNGGA,074901.10,,,,,0,00,99.99,,,,,64.1,*6F
[2021-02-22 16:49:05.773] $GNGGA,074901.20,,,,,0,00,99.99,,,,,64.2,*6F
[2021-02-22 16:49:05.773] $GNGGA,074901.30,,,,,0,00,99.99,,,,,64.3,*6F
[2021-02-22 16:49:05.773] $GNGGA,074901.40,,,,,0,00,99.99,,,,,64.4,*6F
[2021-02-22 16:49:05.789] $GNGGA,074901.50,,,,,0,00,99.99,,,,,64.5,*6F
[2021-02-22 16:49:05.789] $GNGGA,074901.60,,,,,0,00,99.99,,,,,64.6,*6F
[2021-02-22 16:49:05.789] $GNGGA,074901.70,,,,,0,00,99.99,,,,,64.7,*6F
[2021-02-22 16:49:05.789] $GNGGA,074901.80,,,,,0,00,99.99,,,,,64.8,*6F
[2021-02-22 16:49:05.789] $GNGGA,074901.90,,,,,0,00,99.99,,,,,64.9,*6F
[2021-02-22 16:49:05.789] $GNGGA,074902.00,,,,,0,00,99.99,,,,,65.0,*6D
[2021-02-22 16:49:05.789] $GNGGA,074902.10,,,,,0,00,99.99,,,,,65.1,*6D
[2021-02-22 16:49:05.789] $GNGGA,074902.20,,,,,0,00,99.99,,,,,65.2,*6D
[2021-02-22 16:49:05.789] $GNGGA,074902.30,,,,,0,00,99.99,,,,,65.3,*6D
[2021-02-22 16:49:05.789] $GNGGA,074902.40,,,,,0,00,99.99,,,,,65.4,*6D
[2021-02-22 16:49:05.789] $GNGGA,074902.50,,,,,0,00,99.99,,,,,65.5,*6D
[2021-02-22 16:49:05.789] $GNGGA,074902.60,,,,,0,00,99.99,,,,,65.6,*6D
[2021-02-22 16:49:05.789] $GNGGA,074902.70,,,,,0,00,99.99,,,,,65.7,*6D
[2021-02-22 16:49:05.789] $GNGGA,074902.80,,,,,0,00,99.99,,,,,65.8,*6D
[2021-02-22 16:49:05.789] $GNGGA,074902.90,,,,,0,00,99.99,,,,,65.9,*6D
[2021-02-22 16:49:05.789] $GNGGA,074903.00,,,,,0,00,99.99,,,,,66.0,*6F
[2021-02-22 16:49:05.789] $GNGGA,074903.10,,,,,0,00,99.99,,,,,66.1,*6F
[2021-02-22 16:49:05.789] $GNGGA,074903.20,,,,,0,00,99.99,,,,,66.2,*6F
[2021-02-22 16:49:05.789] $GNGGA,074903.30,,,,,0,00,99.99,,,,,66.3,*6F
[2021-02-22 16:49:05.789] $GNGGA,074903.40,,,,,0,00,99.99,,,,,66.4,*6F
[2021-02-22 16:49:05.789] $GNGGA,074903.50,,,,,0,00,99.99,,,,,66.5,*6F
[2021-02-22 16:49:05.789] $GNGGA,074903.60,,,,,0,00,99.99,,,,,66.6,*6F
[2021-02-22 16:49:05.789] $GNGGA,074903.70,,,,,0,00,99.99,,,,,66.7,*6F
[2021-02-22 16:49:05.789] $GNGGA,074903.80,,,,,0,00,99.99,,,,,66.8,*6F
[2021-02-22 16:49:05.789] $GNGGA,074903.90,,,,,0,00,99.99,,,,,66.9,*6F
[2021-02-22 16:49:05.789] $GNGGA,074904.00,,,,,0,00,99.99,,,,,67.0,*69
[2021-02-22 16:49:05.789] $GNGGA,074904.10,,,,,0,00,99.99,,,,,67.1,*69
[2021-02-22 16:49:05.789] $GNGGA,074904.20,,,,,0,00,99.99,,,,,67.2,*69
[2021-02-22 16:49:05.789] $GNGGA,074904.30,,,,,0,00,99.99,,,,,67.3,*69
[2021-02-22 16:49:05.789] $GNGGA,074904.40,,,,,0,00,99.99,,,,,67.4,*69
[2021-02-22 16:49:05.789] $GNGGA,074904.50,,,,,0,00,99.99,,,,,67.5,*69
[2021-02-22 16:49:05.789] $GNGGA,074904.60,,,,,0,00,99.99,,,,,67.6,*69
[2021-02-22 16:49:05.789] $GNGGA,074904.70,,,,,0,00,99.99,,,,,67.7,*69
[2021-02-22 16:49:05.789] $GNGGA,074904.80,,,,,0,00,99.99,,,,,67.8,*69
[2021-02-22 16:49:05.789] $GNGGA,074904.90,,,,,0,00,99.99,,,,,67.9,*69
[2021-02-22 16:49:05.789] $GNGGA,074905.00,,,,,0,00,99.99,,,,,68.0,*67
[2021-02-22 16:49:05.789] $GNGGA,074905.10,,,,,0,00,99.99,,,,,68.1,*67
[2021-02-22 16:49:05.789] $GNGGA,074905.20,,,,,0,00,99.99,,,,,68.2,*67
[2021-02-22 16:49:05.882] $GNGGA,074905.30,,,,,0,00,99.99,,,,,68.3,*67
[2021-02-22 16:49:05.976] $GNGGA,074905.40,,,,,0,00,99.99,,,,,68.4,*67
[2021-02-22 16:49:06.070] $GNGGA,074905.50,,,,,0,00,99.99,,,,,68.5,*67
[2021-02-22 16:49:06.164] $GNGGA,074905.60,,,,,0,00,99.99,,,,,68.6,*67
[2021-02-22 16:49:06.288] $GNGGA,074905.70,,,,,0,00,99.99,,,,,68.7,*67
[2021-02-22 16:49:06.382] $GNGGA,074905.80,,,,,0,00,99.99,,,,,68.8,*67
[2021-02-22 16:49:06.476] $GNGGA,074905.90,,,,,0,00,99.99,,,,,68.9,*67
[2021-02-22 16:49:06.585] $GNGGA,074906.00,,,,,0,00,99.99,,,,,69.0,*65
[2021-02-22 16:49:06.679] $GNGGA,074906.10,,,,,0,00,99.99,,,,,69.1,*65
[2021-02-22 16:49:06.773] $GNGGA,074906.20,,,,,0,00,99.99,,,,,69.2,*65
[2021-02-22 16:49:06.867] $GNGGA,074906.30,,,,,0,00,99.99,,,,,69.3,*65
[2021-02-22 16:49:06.992] $GNGGA,074906.40,,,,,0,00,99.99,,,,,69.4,*65
[2021-02-22 16:49:07.085] $GNGGA,074906.50,,,,,0,00,99.99,,,,,69.5,*65
[2021-02-22 16:49:07.179] $GNGGA,074906.60,,,,,0,00,99.99,,,,,69.6,*65
[2021-02-22 16:49:07.273] $GNGGA,074906.70,,,,,0,00,99.99,,,,,69.7,*65
[2021-02-22 16:49:07.382] $GNGGA,074906.80,,,,,0,00,99.99,,,,,69.8,*65
[2021-02-22 16:49:07.476] $GNGGA,074906.90,,,,,0,00,99.99,,,,,69.9,*65
[2021-02-22 16:49:07.585] $GNGGA,074907.00,,,,,0,00,99.99,,,,,70.0,*6C
[2021-02-22 16:49:07.679] $GNGGA,074907.10,,,,,0,00,99.99,,,,,70.1,*6C
[2021-02-22 16:49:07.788] $GNGGA,074907.20,,,,,0,00,99.99,,,,,70.2,*6C
[2021-02-22 16:49:07.882] $GNGGA,074907.30,,,,,0,00,99.99,,,,,70.3,*6C
[2021-02-22 16:49:07.976] $GNGGA,074907.40,,,,,0,00,99.99,,,,,70.4,*6C
[2021-02-22 16:49:08.070] $GNGGA,074907.50,,,,,0,00,99.99,,,,,70.5,*6C
[2021-02-22 16:49:08.179] $GNGGA,074907.60,,,,,0,00,99.99,,,,,70.6,*6C
[2021-02-22 16:49:08.288] $GNGGA,074907.70,,,,,0,00,99.99,,,,,70.7,*6C
[2021-02-22 16:49:08.382] $GNGGA,074907.80,,,,,0,00,99.99,,,,,70.8,*6C
[2021-02-22 16:49:08.476] $GNGGA,074907.90,,,,,0,00,99.99,,,,,70.9,*6C
[2021-02-22 16:49:08.585] $GNGGA,074908.00,,,,,0,00,99.99,,,,,71.0,*62
[2021-02-22 16:49:08.679] $GNGGA,074908.10,,,,,0,00,99.99,,,,,71.1,*62
[2021-02-22 16:49:08.773] $GNGGA,074908.20,,,,,0,00,99.99,,,,,71.2,*62
[2021-02-22 16:49:08.866] $GNGGA,074908.30,,,,,0,00,99.99,,,,,71.3,*62
[2021-02-22 16:49:08.991] $GNGGA,074908.40,,,,,0,00,99.99,,,,,71.4,*62
[2021-02-22 16:49:09.085] $GNGGA,074908.50,,,,,0,00,99.99,,,,,71.5,*62
[2021-02-22 16:49:09.179] $GNGGA,074908.60,,,,,0,00,99.99,,,,,71.6,*62
[2021-02-22 16:49:09.273] $GNGGA,074908.70,,,,,0,00,99.99,,,,,71.7,*62
[2021-02-22 16:49:09.382] $GNGGA,074908.80,,,,,0,00,99.99,,,,,71.8,*62
[2021-02-22 16:49:09.476] $GNGGA,074908.90,,,,,0,00,99.99,,,,,71.9,*62
[2021-02-22 16:49:09.585] $GNGGA,074909.00,,,,,0,00,99.99,,,,,72.0,*60
[2021-02-22 16:49:09.679] $GNGGA,074909.10,,,,,0,00,99.99,,,,,72.1,*60
[2021-02-22 16:49:09.788] $GNGGA,074909.20,,,,,0,00,99.99,,,,,72.2,*60
[2021-02-22 16:49:09.882] $GNGGA,074909.30,,,,,0,00,99.99,,,,,72.3,*60
[2021-02-22 16:49:09.976] $GNGGA,074909.40,,,,,0,00,99.99,,,,,72.4,*60
[2021-02-22 16:49:10.070] $GNGGA,074909.50,,,,,0,00,99.99,,,,,72.5,*60
[2021-02-22 16:49:10.179] $GNGGA,074909.60,,,,,0,00,99.99,,,,,72.6,*60
[2021-02-22 16:49:10.288] $GNGGA,074909.70,,,,,0,00,99.99,,,,,72.7,*60
[2021-02-22 16:49:10.382] $GNGGA,074909.80,,,,,0,00,99.99,,,,,72.8,*60
[2021-02-22 16:49:10.476] $GNGGA,074909.90,,,,,0,00,99.99,,,,,72.9,*60
[2021-02-22 16:49:10.585] $GNGGA,074910.00,,,,,0,00,99.99,,,,,73.0,*69
[2021-02-22 16:49:10.679] $GNGGA,074910.10,,,,,0,00,99.99,,,,,73.1,*69
[2021-02-22 16:49:10.773] $GNGGA,074910.20,,,,,0,00,99.99,,,,,73.2,*69
[2021-02-22 16:49:10.866] $GNGGA,074910.30,,,,,0,00,99.99,,,,,73.3,*69
[2021-02-22 16:49:10.991] $GNGGA,074910.40,,,,,0,00,99.99,,,,,73.4,*69
[2021-02-22 16:49:11.085] $GNGGA,074910.50,,,,,0,00,99.99,,,,,73.5,*69
[2021-02-22 16:49:11.179] $GNGGA,074910.60,,,,,0,00,99.99,,,,,73.6,*69
[2021-02-22 16:49:11.273] $GNGGA,074910.70,,,,,0,00,99.99,,,,,73.7,*69
[2021-02-22 16:49:11.382] $GNGGA,074910.80,,,,,0,00,99.99,,,,,73.8,*69
[2021-02-22 16:49:11.476] $GNGGA,074910.90,,,,,0,00,99.99,,,,,73.9,*69
[2021-02-22 16:49:11.569] $GNGGA,074911.00,,,,,0,00,99.99,,,,,74.0,*6F
[2021-02-22 16:49:11.679] $GNGGA,074911.10,,,,,0,00,99.99,,,,,74.1,*6F
[2021-02-22 16:49:11.788] $GNGGA,074911.20,,,,,0,00,99.99,,,,,74.2,*6F
[2021-02-22 16:49:11.882] $GNGGA,074911.30,,,,,0,00,99.99,,,,,74.3,*6F
[2021-02-22 16:49:11.976] $GNGGA,074911.40,,,,,0,00,99.99,,,,,74.4,*6F
[2021-02-22 16:49:12.069] $GNGGA,074911.50,,,,,0,00,99.99,,,,,74.5,*6F
[2021-02-22 16:49:12.179] $GNGGA,074911.60,,,,,0,00,99.99,,,,,74.6,*6F
[2021-02-22 16:49:12.288] $GNGGA,074911.70,,,,,0,00,99.99,,,,,74.7,*6F
[2021-02-22 16:49:12.382] $GNGGA,074911.80,,,,,0,00,99.99,,,,,74.8,*6F
[2021-02-22 16:49:12.476] $GNGGA,074911.90,,,,,0,00,99.99,,,,,74.9,*6F
[2021-02-22 16:49:12.585] $GNGGA,074912.00,,,,,0,00,99.99,,,,,75.0,*6D
[2021-02-22 16:49:12.679] $GNGGA,074912.10,,,,,0,00,99.99,,,,,75.1,*6D
[2021-02-22 16:49:12.772] $GNGGA,074912.20,,,,,0,00,99.99,,,,,75.2,*6D
[2021-02-22 16:49:12.866] $GNGGA,074912.30,,,,,0,00,99.99,,,,,75.3,*6D
[2021-02-22 16:49:12.991] $GNGGA,074912.40,,,,,0,00,99.99,,,,,75.4,*6D
[2021-02-22 16:49:13.085] $GNGGA,074912.50,,,,,0,00,99.99,,,,,75.5,*6D
[2021-02-22 16:49:13.179] $GNGGA,074912.60,,,,,0,00,99.99,,,,,75.6,*6D
[2021-02-22 16:49:13.272] $GNGGA,074912.70,,,,,0,00,99.99,,,,,75.7,*6D
[2021-02-22 16:49:13.382] $GNGGA,074912.80,,,,,0,00,99.99,,,,,75.8,*6D
[2021-02-22 16:49:13.476] $GNGGA,074912.90,,,,,0,00,99.99,,,,,75.9,*6D
[2021-02-22 16:49:13.569] $GNGGA,074913.00,,,,,0,00,99.99,,,,,76.0,*6F
[2021-02-22 16:49:13.679] $GNGGA,074913.10,,,,,0,00,99.99,,,,,76.1,*6F
[2021-02-22 16:49:13.788] $GNGGA,074913.20,,,,,0,00,99.99,,,,,76.2,*6F
[2021-02-22 16:49:13.882] $GNGGA,074913.30,,,,,0,00,99.99,,,,,76.3,*6F
[2021-02-22 16:49:13.976] $GNGGA,074913.40,,,,,0,00,99.99,,,,,76.4,*6F
[2021-02-22 16:49:14.069] $GNGGA,074913.50,,,,,0,00,99.99,,,,,76.5,*6F
[2021-02-22 16:49:14.179] $GNGGA,074913.60,,,,,0,00,99.99,,,,,76.6,*6F
[2021-02-22 16:49:14.288] $GNGGA,074913.70,,,,,0,00,99.99,,,,,76.7,*6F
[2021-02-22 16:49:14.382] $GNGGA,074913.80,,,,,0,00,99.99,,,,,76.8,*6F
[2021-02-22 16:49:14.475] $GNGGA,074913.90,,,,,0,00,99.99,,,,,76.9,*6F
[2021-02-22 16:49:14.585] $GNGGA,074914.00,,,,,0,00,99.99,,,,,77.0,*69
[2021-02-22 16:49:14.679] $GNGGA,074914.10,,,,,0,00,99.99,,,,,77.1,*69
[2021-02-22 16:49:14.772] $GNGGA,074914.20,,,,,0,00,99.99,,,,,77.2,*69
[2021-02-22 16:49:14.866] $GNGGA,074914.30,,,,,0,00,99.99,,,,,77.3,*69
[2021-02-22 16:49:14.991] $GNGGA,074914.40,,,,,0,00,99.99,,,,,77.4,*69
[2021-02-22 16:49:15.085] $GNGGA,074914.50,,,,,0,00,99.99,,,,,77.5,*69
[2021-02-22 16:49:15.179] $GNGGA,074914.60,,,,,0,00,99.99,,,,,77.6,*69
[2021-02-22 16:49:15.272] $GNGGA,074914.70,,,,,0,00,99.99,,,,,77.7,*69
[2021-02-22 16:49:15.382] $GNGGA,074914.80,,,,,0,00,99.99,,,,,77.8,*69
[2021-02-22 16:49:15.475] $GNGGA,074914.90,,,,,0,00,99.99,,,,,77.9,*69
[2021-02-22 16:49:15.569] $GNGGA,074915.00,,,,,0,00,99.99,,,,,78.0,*67
[2021-02-22 16:49:15.679] $GNGGA,074915.10,,,,,0,00,99.99,,,,,78.1,*67
[2021-02-22 16:49:15.788] $GNGGA,074915.20,,,,,0,00,99.99,,,,,78.2,*67
[2021-02-22 16:49:15.882] $GNGGA,074915.30,,,,,0,00,99.99,,,,,78.3,*67
[2021-02-22 16:49:15.975] $GNGGA,074915.40,,,,,0,00,99.99,,,,,78.4,*67
[2021-02-22 16:49:16.069] $GNGGA,074915.50,,,,,0,00,99.99,,,,,78.5,*67
[2021-02-22 16:49:16.178] $GNGGA,074915.60,,,,,0,00,99.99,,,,,78.6,*67
[2021-02-22 16:49:16.272] $GNGGA,074915.70,,,,,0,00,99.99,,,,,78.7,*67
[2021-02-22 16:49:16.382] $GNGGA,074915.80,,,,,0,00,99.99,,,,,78.8,*67
[2021-02-22 16:49:16.475] $GNGGA,074915.90,,,,,0,00,99.99,,,,,78.9,*67
[2021-02-22 16:49:16.585] $GNGGA,074916.00,,,,,0,00,99.99,,,,,79.0,*65
[2021-02-22 16:49:16.678] $GNGGA,074916.10,,,,,0,00,99.99,,,,,79.1,*65
[2021-02-22 16:49:16.772] $GNGGA,074916.20,,,,,0,00,99.99,,,,,79.2,*65
[2021-02-22 16:49:16.866] $GNGGA,074916.30,,,,,0,00,99.99,,,,,79.3,*65
[2021-02-22 16:49:16.991] $GNGGA,074916.40,,,,,0,00,99.99,,,,,79.4,*65
[2021-02-22 16:49:17.085] $GNGGA,074916.50,,,,,0,00,99.99,,,,,79.5,*65
[2021-02-22 16:49:17.178] $GNGGA,074916.60,,,,,0,00,99.99,,,,,79.6,*65
[2021-02-22 16:49:17.272] $GNGGA,074916.70,,,,,0,00,99.99,,,,,79.7,*65
[2021-02-22 16:49:17.381] $GNGGA,074916.80,,,,,0,00,99.99,,,,,79.8,*65
[2021-02-22 16:49:17.475] $GNGGA,074916.90,,,,,0,00,99.99,,,,,79.9,*65
[2021-02-22 16:49:17.569] $GNGGA,074917.00,,,,,0,00,99.99,,,,,80.0,*62
[2021-02-22 16:49:17.678] $GNGGA,074917.10,,,,,0,00,99.99,,,,,80.1,*62
[2021-02-22 16:49:17.788] $GNGGA,074917.20,,,,,0,00,99.99,,,,,80.2,*62
[2021-02-22 16:49:17.881] $GNGGA,074917.30,,,,,0,00,99.99,,,,,80.3,*62
[2021-02-22 16:49:17.975] $GNGGA,074917.40,,,,,0,00,99.99,,,,,80.4,*62
[2021-02-22 16:49:18.069] $GNGGA,074917.50,,,,,0,00,99.99,,,,,80.5,*62
[2021-02-22 16:49:18.178] $GNGGA,074917.60,,,,,0,00,99.99,,,,,80.6,*62
[2021-02-22 16:49:18.272] $GNGGA,074917.70,,,,,0,00,99.99,,,,,80.7,*62
[2021-02-22 16:49:18.381] $GNGGA,074917.80,,,,,0,00,99.99,,,,,80.8,*62
[2021-02-22 16:49:18.475] $GNGGA,074917.90,,,,,0,00,99.99,,,,,80.9,*62
[2021-02-22 16:49:18.585] $GNGGA,074918.00,,,,,0,00,99.99,,,,,81.0,*6C
[2021-02-22 16:49:18.678] $GNGGA,074918.10,,,,,0,00,99.99,,,,,81.1,*6C
[2021-02-22 16:49:18.772] $GNGGA,074918.20,,,,,0,00,99.99,,,,,81.2,*6C
[2021-02-22 16:49:18.866] $GNGGA,074918.30,,,,,0,00,99.99,,,,,81.3,*6C
[2021-02-22 16:49:18.991] $GNGGA,074918.40,,,,,0,00,99.99,,,,,81.4,*6C
[2021-02-22 16:49:19.085] $GNGGA,074918.50,,,,,0,00,99.99,,,,,81.5,*6C
[2021-02-22 16:49:19.178] $GNGGA,074918.60,,,,,0,00,99.99,,,,,81.6,*6C
[2021-02-22 16:49:19.272] $GNGGA,074918.70,,,,,0,00,99.99,,,,,81.7,*6C
[2021-02-22 16:49:19.381] $GNGGA,074918.80,,,,,0,00,99.99,,,,,81.8,*6C
[2021-02-22 16:49:19.475] $GNGGA,074918.90,,,,,0,00,99.99,,,,,81.9,*6C
[2021-02-22 16:49:19.569] $GNGGA,074919.00,,,,,0,00,99.99,,,,,82.0,*6E
[2021-02-22 16:49:19.678] $GNGGA,074919.10,,,,,0,00,99.99,,,,,82.1,*6E
[2021-02-22 16:49:19.788] $GNGGA,074919.20,,,,,0,00,99.99,,,,,82.2,*6E
[2021-02-22 16:49:19.881] $GNGGA,074919.30,,,,,0,00,99.99,,,,,82.3,*6E
[2021-02-22 16:49:19.975] $GNGGA,074919.40,,,,,0,00,99.99,,,,,82.4,*6E
[2021-02-22 16:49:20.069] $GNGGA,074919.50,,,,,0,00,99.99,,,,,82.5,*6E
[2021-02-22 16:49:20.178] $GNGGA,074919.60,,,,,0,00,99.99,,,,,82.6,*6E
[2021-02-22 16:49:20.272] $GNGGA,074919.70,,,,,0,00,99.99,,,,,82.7,*6E
[2021-02-22 16:49:20.381] $GNGGA,074919.80,,,,,0,00,99.99,,,,,82.8,*6E
[2021-02-22 16:49:20.475] $GNGGA,074919.90,,,,,0,00,99.99,,,,,82.9,*6E
[2021-02-22 16:49:20.584] $GNGGA,074920.00,,,,,0,00,99.99,,,,,83.0,*65
[2021-02-22 16:49:20.678] $GNGGA,074920.10,,,,,0,00,99.99,,,,,83.1,*65
[2021-02-22 16:49:20.772] $GNGGA,074920.20,,,,,0,00,99.99,,,,,83.2,*65
[2021-02-22 16:49:20.866] $GNGGA,074920.30,,,,,0,00,99.99,,,,,83.3,*65
[2021-02-22 16:49:20.975] $GNGGA,074920.40,,,,,0,00,99.99,,,,,83.4,*65
[2021-02-22 16:49:21.084] $GNGGA,074920.50,,,,,0,00,99.99,,,,,83.5,*65
[2021-02-22 16:49:21.178] $GNGGA,074920.60,,,,,0,00,99.99,,,,,83.6,*65
[2021-02-22 16:49:21.272] $GNGGA,074920.70,,,,,0,00,99.99,,,,,83.7,*65
[2021-02-22 16:49:21.381] $GNGGA,074920.80,,,,,0,00,99.99,,,,,83.8,*65
[2021-02-22 16:49:21.475] $GNGGA,074920.90,,,,,0,00,99.99,,,,,83.9,*65
[2021-02-22 16:49:21.569] $GNGGA,074921.00,,,,,0,00,99.99,,,,,84.0,*63
[2021-02-22 16:49:21.678] $GNGGA,074921.10,,,,,0,00,99.99,,,,,84.1,*63
[2021-02-22 16:49:21.787] $GNGGA,074921.20,,,,,0,00,99.99,,,,,84.2,*63
[2021-02-22 16:49:21.881] $GNGGA,074921.30,,,,,0,00,99.99,,,,,84.3,*63
[2021-02-22 16:49:21.975] $GNGGA,074921.40,,,,,0,00,99.99,,,,,84.4,*63
[2021-02-22 16:49:22.069] $GNGGA,074921.50,,,,,0,00,99.99,,,,,84.5,*63
[2021-02-22 16:49:22.178] $GNGGA,074921.60,,,,,0,00,99.99,,,,,84.6,*63
[2021-02-22 16:49:22.272] $GNGGA,074921.70,,,,,0,00,99.99,,,,,84.7,*63
[2021-02-22 16:49:22.381] $GNGGA,074921.80,,,,,0,00,99.99,,,,,84.8,*63
[2021-02-22 16:49:22.475] $GNGGA,074921.90,,,,,0,00,99.99,,,,,84.9,*63
[2021-02-22 16:49:22.584] $GNGGA,074922.00,,,,,0,00,99.99,,,,,85.0,*61
[2021-02-22 16:49:22.678] $GNGGA,074922.10,,,,,0,00,99.99,,,,,85.1,*61
[2021-02-22 16:49:22.772] $GNGGA,074922.20,,,,,0,00,99.99,,,,,85.2,*61
[2021-02-22 16:49:22.866] $GNGGA,074922.30,,,,,0,00,99.99,,,,,85.3,*61
[2021-02-22 16:49:22.975] $GNGGA,074922.40,,,,,0,00,99.99,,,,,85.4,*61
[2021-02-22 16:49:23.084] $GNGGA,074922.50,,,,,0,00,99.99,,,,,85.5,*61
[2021-02-22 16:49:23.178] $GNGGA,074922.60,,,,,0,00,99.99,,,,,85.6,*61
[2021-02-22 16:49:23.272] $GNGGA,074922.70,,,,,0,00,99.99,,,,,85.7,*61
[2021-02-22 16:49:23.381] $GNGGA,074922.80,,,,,0,00,99.99,,,,,85.8,*61
[2021-02-22 16:49:23.475] $GNGGA,074922.90,,,,,0,00,99.99,,,,,85.9,*61
[2021-02-22 16:49:23.569] $GNGGA,074923.00,,,,,0,00,99.99,,,,,86.0,*63
[2021-02-22 16:49:23.678] $GNGGA,074923.10,,,,,0,00,99.99,,,,,86.1,*63
[2021-02-22 16:49:23.787] $GNGGA,074923.20,,,,,0,00,99.99,,,,,86.2,*63
[2021-02-22 16:49:23.881] $GNGGA,074923.30,,,,,0,00,99.99,,,,,86.3,*63
[2021-02-22 16:49:23.975] $GNGGA,074923.40,,,,,0,00,99.99,,,,,86.4,*63
[2021-02-22 16:49:24.084] $GNGGA,074923.50,,,,,0,00,99.99,,,,,86.5,*63
[2021-02-22 16:49:24.178] $GNGGA,074923.60,,,,,0,00,99.99,,,,,86.6,*63
[2021-02-22 16:49:24.272] $GNGGA,074923.70,,,,,0,00,99.99,,,,,86.7,*63
[2021-02-22 16:49:24.381] $GNGGA,074923.80,,,,,0,00,99.99,,,,,86.8,*63
[2021-02-22 16:49:24.490] $GNGGA,074923.90,,,,,0,00,99.99,,,,,86.9,*63
[2021-02-22 16:49:24.584] $GNGGA,074924.00,,,,,0,00,99.99,,,,,87.0,*65
[2021-02-22 16:49:24.678] $GNGGA,074924.10,,,,,0,00,99.99,,,,,87.1,*65
[2021-02-22 16:49:24.772] $GNGGA,074924.20,,,,,0,00,99.99,,,,,87.2,*65
[2021-02-22 16:49:24.881] $GNGGA,074924.30,,,,,0,00,99.99,,,,,87.3,*65
[2021-02-22 16:49:24.975] $GNGGA,074924.40,,,,,0,00,99.99,,,,,87.4,*65
[2021-02-22 16:49:25.084] $GNGGA,074924.50,,,,,0,00,99.99,,,,,87.5,*65
[2021-02-22 16:49:25.178] $GNGGA,074924.60,,,,,0,00,99.99,,,,,87.6,*65
[2021-02-22 16:49:25.287] $GNGGA,074924.70,,,,,0,00,99.99,,,,,87.7,*65
[2021-02-22 16:49:25.381] $GNGGA,074924.80,,,,,0,00,99.99,,,,,87.8,*65
[2021-02-22 16:49:25.475] $GNGGA,074924.90,,,,,0,00,99.99,,,,,87.9,*65
[2021-02-22 16:49:25.568] $GNGGA,074925.00,,,,,0,00,99.99,,,,,88.0,*6B
[2021-02-22 16:49:25.693] $GNGGA,074925.10,,,,,0,00,99.99,,,,,88.1,*6B
[2021-02-22 16:49:25.787] $GNGGA,074925.20,,,,,0,00,99.99,,,,,88.2,*6B
[2021-02-22 16:49:25.881] $GNGGA,074925.30,,,,,0,00,99.99,,,,,88.3,*6B
[2021-02-22 16:49:25.975] $GNGGA,074925.40,,,,,0,00,99.99,,,,,88.4,*6B
[2021-02-22 16:49:26.084] $GNGGA,074925.50,,,,,0,00,99.99,,,,,88.5,*6B
[2021-02-22 16:49:26.178] $GNGGA,074925.60,,,,,0,00,99.99,,,,,88.6,*6B
[2021-02-22 16:49:26.272] $GNGGA,074925.70,,,,,0,00,99.99,,,,,88.7,*6B
[2021-02-22 16:49:26.381] $GNGGA,074925.80,,,,,0,00,99.99,,,,,88.8,*6B
[2021-02-22 16:49:26.490] $GNGGA,074925.90,,,,,0,00,99.99,,,,,88.9,*6B
[2021-02-22 16:49:26.584] $GNGGA,074926.00,,,,,0,00,99.99,,,,,89.0,*69
[2021-02-22 16:49:26.678] $GNGGA,074926.10,,,,,0,00,99.99,,,,,89.1,*69
[2021-02-22 16:49:26.771] $GNGGA,074926.20,,,,,0,00,99.99,,,,,89.2,*69
[2021-02-22 16:49:26.881] $GNGGA,074926.30,,,,,0,00,99.99,,,,,89.3,*69
[2021-02-22 16:49:26.975] $GNGGA,074926.40,,,,,0,00,99.99,,,,,89.4,*69
[2021-02-22 16:49:27.084] $GNGGA,074926.50,,,,,0,00,99.99,,,,,89.5,*69
[2021-02-22 16:49:27.178] $GNGGA,074926.60,,,,,0,00,99.99,,,,,89.6,*69
[2021-02-22 16:49:27.287] $GNGGA,074926.70,,,,,0,00,99.99,,,,,89.7,*69
[2021-02-22 16:49:27.381] $GNGGA,074926.80,,,,,0,00,99.99,,,,,89.8,*69
[2021-02-22 16:49:27.475] $GNGGA,074926.90,,,,,0,00,99.99,,,,,89.9,*69
[2021-02-22 16:49:27.568] $GNGGA,074927.00,,,,,0,00,99.99,,,,,90.0,*60
[2021-02-22 16:49:27.693] $GNGGA,074927.10,,,,,0,00,99.99,,,,,90.1,*60
[2021-02-22 16:49:27.787] $GNGGA,074927.20,,,,,0,00,99.99,,,,,90.2,*60
[2021-02-22 16:49:27.881] $GNGGA,074927.30,,,,,0,00,99.99,,,,,90.3,*60
[2021-02-22 16:49:27.975] $GNGGA,074927.40,,,,,0,00,99.99,,,,,90.4,*60
[2021-02-22 16:49:28.084] $GNGGA,074927.50,,,,,0,00,99.99,,,,,90.5,*60
[2021-02-22 16:49:28.178] $GNGGA,074927.60,,,,,0,00,99.99,,,,,90.6,*60
[2021-02-22 16:49:28.271] $GNGGA,074927.70,,,,,0,00,99.99,,,,,90.7,*60
[2021-02-22 16:49:28.381] $GNGGA,074927.80,,,,,0,00,99.99,,,,,90.8,*60
[2021-02-22 16:49:28.490] $GNGGA,074927.90,,,,,0,00,99.99,,,,,90.9,*60
[2021-02-22 16:49:28.584] $GNGGA,074928.00,,,,,0,00,99.99,,,,,91.0,*6E
[2021-02-22 16:49:28.678] $GNGGA,074928.10,,,,,0,00,99.99,,,,,91.1,*6E
[2021-02-22 16:49:28.771] $GNGGA,074928.20,,,,,0,00,99.99,,,,,91.2,*6E
[2021-02-22 16:49:28.881] $GNGGA,074928.30,,,,,0,00,99.99,,,,,91.3,*6E
[2021-02-22 16:49:28.974] $GNGGA,074928.40,,,,,0,00,99.99,,,,,91.4,*6E
[2021-02-22 16:49:29.084] $GNGGA,074928.50,,,,,0,00,99.99,,,,,91.5,*6E
[2021-02-22 16:49:29.178] $GNGGA,074928.60,,,,,0,00,99.99,,,,,91.6,*6E
[2021-02-22 16:49:29.287] $GNGGA,074928.70,,,,,0,00,99.99,,,,,91.7,*6E
[2021-02-22 16:49:29.381] $GNGGA,074928.80,,,,,0,00,99.99,,,,,91.8,*6E
[2021-02-22 16:49:29.474] $GNGGA,074928.90,,,,,0,00,99.99,,,,,91.9,*6E
[2021-02-22 16:49:29.568] $GNGGA,074929.00,,,,,0,00,99.99,,,,,92.0,*6C
[2021-02-22 16:49:29.678] $GNGGA,074929.10,,,,,0,00,99.99,,,,,92.1,*6C
[2021-02-22 16:49:29.787] $GNGGA,074929.20,,,,,0,00,99.99,,,,,92.2,*6C
[2021-02-22 16:49:29.881] $GNGGA,074929.30,,,,,0,00,99.99,,,,,92.3,*6C
[2021-02-22 16:49:29.974] $GNGGA,074929.40,,,,,0,00,99.99,,,,,92.4,*6C
[2021-02-22 16:49:30.084] $GNGGA,074929.50,,,,,0,00,99.99,,,,,92.5,*6C
[2021-02-22 16:49:30.178] $GNGGA,074929.60,,,,,0,00,99.99,,,,,92.6,*6C
[2021-02-22 16:49:30.271] $GNGGA,074929.70,,,,,0,00,99.99,,,,,92.7,*6C
[2021-02-22 16:49:30.381] $GNGGA,074929.80,,,,,0,00,99.99,,,,,92.8,*6C
[2021-02-22 16:49:30.490] $GNGGA,074929.90,,,,,0,00,99.99,,,,,92.9,*6C
[2021-02-22 16:49:30.584] $GNGGA,074930.00,,,,,0,00,99.99,,,,,93.0,*65
[2021-02-22 16:49:30.677] $GNGGA,074930.10,,,,,0,00,99.99,,,,,93.1,*65
[2021-02-22 16:49:30.771] $GNGGA,074930.20,,,,,0,00,99.99,,,,,93.2,*65
[2021-02-22 16:49:30.881] $GNGGA,074930.30,,,,,0,00,99.99,,,,,93.3,*65
[2021-02-22 16:49:30.974] $GNGGA,074930.40,,,,,0,00,99.99,,,,,93.4,*65
[2021-02-22 16:49:31.084] $GNGGA,074930.50,,,,,0,00,99.99,,,,,93.5,*65
[2021-02-22 16:49:31.177] $GNGGA,074930.60,,,,,0,00,99.99,,,,,93.6,*65
[2021-02-22 16:49:31.287] $GNGGA,074930.70,,,,,0,00,99.99,,,,,93.7,*65
[2021-02-22 16:49:31.381] $GNGGA,074930.80,,,,,0,00,99.99,,,,,93.8,*65
[2021-02-22 16:49:31.474] $GNGGA,074930.90,,,,,0,00,99.99,,,,,93.9,*65
[2021-02-22 16:49:31.568] $GNGGA,074931.00,,,,,0,00,99.99,,,,,94.0,*63
[2021-02-22 16:49:31.677] $GNGGA,074931.10,,,,,0,00,99.99,,,,,94.1,*63
[2021-02-22 16:49:31.787] $GNGGA,074931.20,,,,,0,00,99.99,,,,,94.2,*63
[2021-02-22 16:49:31.881] $GNGGA,074931.30,,,,,0,00,99.99,,,,,94.3,*63
[2021-02-22 16:49:31.974] $GNGGA,074931.40,,,,,0,00,99.99,,,,,94.4,*63
[2021-02-22 16:49:32.084] $GNGGA,074931.50,,,,,0,00,99.99,,,,,94.5,*63
[2021-02-22 16:49:32.177] $GNGGA,074931.60,,,,,0,00,99.99,,,,,94.6,*63
[2021-02-22 16:49:32.271] $GNGGA,074931.70,,,,,0,00,99.99,,,,,94.7,*63
[2021-02-22 16:49:32.365] $GNGGA,074931.80,,,,,0,00,99.99,,,,,94.8,*63
[2021-02-22 16:49:32.490] $GNGGA,074931.90,,,,,0,00,99.99,,,,,94.9,*63
[2021-02-22 16:49:32.584] $GNGGA,074932.00,,,,,0,00,99.99,,,,,95.0,*61
[2021-02-22 16:49:32.677] $GNGGA,074932.10,,,,,0,00,99.99,,,,,95.1,*61
[2021-02-22 16:49:32.771] $GNGGA,074932.20,,,,,0,00,99.99,,,,,95.2,*61
[2021-02-22 16:49:32.880] $GNGGA,074932.30,,,,,0,00,99.99,,,,,95.3,*61
[2021-02-22 16:49:32.974] $GNGGA,074932.40,,,,,0,00,99.99,,,,,95.4,*61
[2021-02-22 16:49:33.084] $GNGGA,074932.50,3713.961495844,N,13701.567168665,E,5,05,1.75,98.162,M,37.564,M,95.5,3006*69
[2021-02-22 16:49:33.177] $GNGGA,074932.60,3713.961492022,N,13701.567166910,E,5,02,99.90,98.188,M,37.564,M,95.6,3006*5C
[2021-02-22 16:49:33.271] $GNGGA,074932.70,3713.961500119,N,13701.567161426,E,5,00,99.90,98.189,M,37.564,M,95.7,3006*53
[2021-02-22 16:49:33.380] $GNGGA,074932.80,3713.961501261,N,13701.567157010,E,5,00,99.90,98.187,M,37.564,M,95.8,3006*54
[2021-02-22 16:49:33.474] $GNGGA,074932.90,3713.961501113,N,13701.567157254,E,5,00,99.90,98.184,M,37.564,M,95.9,3006*53
[2021-02-22 16:49:33.583] $GNGGA,074933.00,3713.961501941,N,13701.567157785,E,5,00,99.90,98.181,M,37.564,M,96.0,3006*52
[2021-02-22 16:49:33.677] $GNGGA,074933.10,3713.961502751,N,13701.567158958,E,5,00,99.90,98.178,M,37.564,M,96.1,3006*59
[2021-02-22 16:49:33.771] $GNGGA,074933.20,3713.961502943,N,13701.567159179,E,5,00,99.90,98.176,M,37.564,M,96.2,3006*50
[2021-02-22 16:49:33.880] $GNGGA,074933.30,3713.961503964,N,13701.567158897,E,5,00,99.90,98.174,M,37.564,M,96.3,3006*5E
[2021-02-22 16:49:33.974] $GNGGA,074933.40,3713.961504027,N,13701.567158235,E,5,00,99.90,98.173,M,37.564,M,96.4,3006*52
[2021-02-22 16:49:34.083] $GNGGA,074933.50,3713.961503833,N,13701.567158607,E,5,00,99.90,98.174,M,37.564,M,96.5,3006*5A
[2021-02-22 16:49:34.177] $GNGGA,074933.60,3713.961504452,N,13701.567158195,E,5,00,99.90,98.176,M,37.564,M,96.6,3006*58
[2021-02-22 16:49:34.271] $GNGGA,074933.70,3713.961504129,N,13701.567158181,E,5,00,99.90,98.175,M,37.564,M,96.7,3006*57
[2021-02-22 16:49:34.380] $GNGGA,074933.80,3713.961504029,N,13701.567157288,E,5,00,99.90,98.174,M,37.564,M,96.8,3006*52
[2021-02-22 16:49:34.474] $GNGGA,074933.90,3713.961504214,N,13701.567157579,E,5,00,99.90,98.173,M,37.564,M,96.9,3006*50
[2021-02-22 16:49:34.583] $GNGGA,074934.00,3713.961504291,N,13701.567157905,E,5,00,99.90,98.174,M,37.564,M,97.0,3006*5B
[2021-02-22 16:49:34.677] $GNGGA,074934.10,3713.961503601,N,13701.567157941,E,5,00,99.90,98.175,M,37.564,M,97.1,3006*50
[2021-02-22 16:49:34.771] $GNGGA,074934.20,3713.961544795,N,13701.567300018,E,5,03,99.90,97.994,M,37.564,M,97.2,3006*51
[2021-02-22 16:49:34.865] $GNGGA,074934.30,3713.961387102,N,13701.567407723,E,5,04,2.64,97.969,M,37.564,M,97.3,3006*63
[2021-02-22 16:49:34.974] $GNGGA,074934.40,3713.961527970,N,13701.567599260,E,5,05,1.75,96.810,M,37.564,M,97.4,3006*6A
[2021-02-22 16:49:35.083] $GNGGA,074934.50,3713.961611426,N,13701.567646712,E,5,05,1.75,96.307,M,37.564,M,97.5,3006*6E
[2021-02-22 16:49:35.177] $GNGGA,074934.60,3713.961633246,N,13701.567701898,E,5,05,1.75,96.265,M,37.564,M,97.6,3006*64
[2021-02-22 16:49:35.271] $GNGGA,074934.70,3713.961543938,N,13701.567499357,E,5,05,1.75,95.022,M,37.564,M,97.7,3006*6A
[2021-02-22 16:49:35.365] $GNGGA,074934.80,3713.961485453,N,13701.567436392,E,5,05,1.75,94.782,M,37.564,M,97.8,3006*61
[2021-02-22 16:49:35.474] $GNGGA,074934.90,3713.961514312,N,13701.567465565,E,5,05,1.75,94.488,M,37.564,M,97.9,3006*6B
[2021-02-22 16:49:35.599] $GNGGA,074935.00,3713.961491503,N,13701.567418899,E,5,05,1.75,94.337,M,37.564,M,98.0,3006*68
[2021-02-22 16:49:35.677] $GNGGA,074935.10,3713.961481436,N,13701.567403430,E,5,05,1.75,94.267,M,37.564,M,98.1,3006*6F
[2021-02-22 16:49:35.771] $GNGGA,074935.20,3713.961468595,N,13701.567409669,E,5,05,1.75,94.283,M,37.564,M,98.2,3006*6E
[2021-02-22 16:49:35.880] $GNGGA,074935.30,3713.961468906,N,13701.567464618,E,5,05,1.75,94.312,M,37.564,M,98.3,3006*6C
[2021-02-22 16:49:35.990] $GNGGA,074935.40,3713.961441404,N,13701.567412211,E,5,05,1.75,94.225,M,37.564,M,98.4,3006*61
[2021-02-22 16:49:36.068] $GNGGA,074935.50,3713.961415025,N,13701.567352201,E,5,05,1.75,94.079,M,37.564,M,98.5,3006*6E
[2021-02-22 16:49:36.177] $GNGGA,074935.60,3713.961388709,N,13701.567327608,E,5,05,1.75,94.024,M,37.564,M,98.6,3006*63
[2021-02-22 16:49:36.271] $GNGGA,074935.70,3713.961350067,N,13701.567246656,E,5,05,1.75,93.902,M,37.564,M,98.7,3006*6E
[2021-02-22 16:49:36.396] $GNGGA,074935.80,3713.961316512,N,13701.567163438,E,5,05,1.75,93.741,M,37.564,M,98.8,3006*6C
[2021-02-22 16:49:36.474] $GNGGA,074935.90,3713.961292653,N,13701.567124564,E,5,05,1.75,93.593,M,37.564,M,98.9,3006*61
[2021-02-22 16:49:36.568] $GNGGA,074936.00,3713.961275733,N,13701.567113348,E,5,05,1.75,93.573,M,37.564,M,99.0,3006*6F
[2021-02-22 16:49:36.677] $GNGGA,074936.10,3713.961270372,N,13701.567113487,E,5,05,1.75,93.540,M,37.564,M,99.1,3006*6F
[2021-02-22 16:49:36.786] $GNGGA,074936.20,3713.961270785,N,13701.567135615,E,5,05,1.75,93.481,M,37.564,M,99.2,3006*62
[2021-02-22 16:49:36.865] $GNGGA,074936.30,3713.961264913,N,13701.567146585,E,5,05,1.75,93.502,M,37.564,M,99.3,3006*62
[2021-02-22 16:49:36.974] $GNGGA,074936.40,3713.961253606,N,13701.567147207,E,5,05,1.75,93.517,M,37.564,M,99.4,3006*65
[2021-02-22 16:49:37.068] $GNGGA,074936.50,3713.961266036,N,13701.567164220,E,5,05,1.75,93.498,M,37.564,M,99.5,3006*64
[2021-02-22 16:49:37.193] $GNGGA,074936.60,3713.961264598,N,13701.567180353,E,5,05,1.75,93.529,M,37.564,M,99.6,3006*63
[2021-02-22 16:49:37.271] $GNGGA,074936.70,3713.961225843,N,13701.567189375,E,5,05,1.75,93.615,M,37.564,M,99.7,3006*6C
[2021-02-22 16:49:37.365] $GNGGA,074936.80,3713.961196696,N,13701.567214567,E,5,05,1.75,93.596,M,37.564,M,99.8,3006*6B
[2021-02-22 16:49:37.474] $GNGGA,074936.90,3713.961148494,N,13701.567145725,E,5,05,1.75,93.271,M,37.564,M,99.9,3006*65
[2021-02-22 16:49:37.599] $GNGGA,074937.00,3713.961145234,N,13701.567164297,E,5,05,1.75,93.297,M,37.564,M,100.0,3006*53
[2021-02-22 16:49:37.677] $GNGGA,074937.10,3713.961129907,N,13701.567164693,E,5,05,1.75,93.265,M,37.564,M,100.1,3006*5F
[2021-02-22 16:49:37.771] $GNGGA,074937.20,3713.961112386,N,13701.567139796,E,5,05,1.75,93.153,M,37.564,M,100.2,3006*5E
[2021-02-22 16:49:37.880] $GNGGA,074937.30,3713.961093481,N,13701.567113883,E,5,05,1.75,93.050,M,37.564,M,100.3,3006*57
[2021-02-22 16:49:37.974] $GNGGA,074937.40,3713.961091351,N,13701.567111951,E,5,05,1.75,93.053,M,37.564,M,100.4,3006*50
[2021-02-22 16:49:38.099] $GNGGA,074937.50,3713.961085905,N,13701.567123911,E,5,05,1.75,93.090,M,37.564,M,100.5,3006*54
[2021-02-22 16:49:38.177] $GNGGA,074937.60,3713.961074918,N,13701.567120745,E,5,05,1.75,93.117,M,37.564,M,100.6,3006*54
[2021-02-22 16:49:38.271] $GNGGA,074937.70,3713.961072727,N,13701.567123646,E,5,05,1.75,93.138,M,37.564,M,100.7,3006*5C
[2021-02-22 16:49:38.380] $GNGGA,074937.80,3713.961063504,N,13701.567121762,E,5,05,1.75,93.171,M,37.564,M,100.8,3006*57
[2021-02-22 16:49:38.474] $GNGGA,074937.90,3713.961064635,N,13701.567126331,E,5,05,1.75,93.193,M,37.564,M,100.9,3006*58
[2021-02-22 16:49:38.599] $GNGGA,074938.00,3713.961065798,N,13701.567132831,E,5,05,1.75,93.215,M,37.564,M,101.0,3006*52
[2021-02-22 16:49:38.677] $GNGGA,074938.10,3713.961073873,N,13701.567153704,E,5,05,1.75,93.305,M,37.564,M,101.1,3006*51
[2021-02-22 16:49:38.771] $GNGGA,074938.20,3713.961074382,N,13701.567158502,E,5,05,1.75,93.324,M,37.564,M,101.2,3006*5F
[2021-02-22 16:49:38.880] $GNGGA,074938.30,3713.961080017,N,13701.567173297,E,5,05,1.75,93.386,M,37.564,M,101.3,3006*51
[2021-02-22 16:49:38.974] $GNGGA,074938.40,3713.961077963,N,13701.567394903,E,4,05,1.75,93.609,M,37.564,M,101.4,3006*5D
[2021-02-22 16:49:39.083] $GNGGA,074938.50,3713.961024697,N,13701.567435160,E,4,05,1.75,93.785,M,37.564,M,101.5,3006*5B
[2021-02-22 16:49:39.177] $GNGGA,074938.60,3713.961023684,N,13701.567436348,E,4,05,1.75,93.789,M,37.564,M,101.6,3006*59
[2021-02-22 16:49:39.271] $GNGGA,074938.70,3713.961022726,N,13701.567437688,E,4,05,1.75,93.790,M,37.564,M,101.7,3006*51
[2021-02-22 16:49:39.380] $GNGGA,074938.80,3713.961020635,N,13701.567440002,E,4,09,1.12,93.798,M,37.564,M,101.8,3006*51
[2021-02-22 16:49:39.474] $GNGGA,074938.90,3713.960983433,N,13701.567374005,E,4,11,0.99,93.439,M,37.564,M,101.9,3006*50
[2021-02-22 16:49:39.599] $GNGGA,074939.00,3713.960972740,N,13701.567286845,E,4,13,0.95,92.992,M,37.564,M,102.0,3006*58
[2021-02-22 16:49:39.677] $GNGGA,074939.10,3713.960979277,N,13701.567279430,E,4,13,0.95,92.964,M,37.564,M,102.1,3006*55
[2021-02-22 16:49:39.771] $GNGGA,074939.20,3713.960985694,N,13701.567273484,E,4,13,0.95,92.945,M,37.564,M,102.2,3006*59
[2021-02-22 16:49:39.880] $GNGGA,074939.30,3713.960991728,N,13701.567268109,E,4,13,0.95,92.929,M,37.564,M,102.3,3006*5A
[2021-02-22 16:49:39.974] $GNGGA,074939.40,3713.960996914,N,13701.567262291,E,4,13,0.95,92.908,M,37.564,M,102.4,3006*57
[2021-02-22 16:49:40.099] $GNGGA,074939.50,3713.961000336,N,13701.567258625,E,4,13,0.95,92.896,M,37.564,M,102.5,3006*5E
[2021-02-22 16:49:40.177] $GNGGA,074939.60,3713.961003587,N,13701.567254596,E,4,13,0.95,92.881,M,37.564,M,102.6,3006*50
[2021-02-22 16:49:40.271] $GNGGA,074939.70,3713.961007380,N,13701.567250704,E,4,13,0.95,92.870,M,37.564,M,102.7,3006*56
[2021-02-22 16:49:40.380] $GNGGA,074939.80,3713.961011548,N,13701.567245196,E,4,13,0.95,92.855,M,37.564,M,102.8,3006*5D
[2021-02-22 16:49:40.489] $GNGGA,074939.90,3713.961014164,N,13701.567239547,E,4,13,0.95,92.842,M,37.564,M,102.9,3006*57
[2021-02-22 16:49:40.567] $GNGGA,074940.00,3713.961016380,N,13701.567235841,E,4,13,0.95,92.831,M,37.564,M,103.0,3006*51
[2021-02-22 16:49:40.677] $GNGGA,074940.10,3713.961018333,N,13701.567231925,E,4,13,0.95,92.822,M,37.564,M,103.1,3006*52
[2021-02-22 16:49:40.771] $GNGGA,074940.20,3713.961020864,N,13701.567229480,E,4,13,0.95,92.818,M,37.564,M,103.2,3006*52
[2021-02-22 16:49:40.895] $GNGGA,074940.30,3713.961024132,N,13701.567225285,E,4,13,0.95,92.807,M,37.564,M,103.3,3006*5D
[2021-02-22 16:49:40.974] $GNGGA,074940.40,3713.961026805,N,13701.567223339,E,4,13,0.95,92.791,M,37.564,M,103.4,3006*52
[2021-02-22 16:49:41.067] $GNGGA,074940.50,3713.961028515,N,13701.567219561,E,4,13,0.95,92.782,M,37.564,M,103.5,3006*50
[2021-02-22 16:49:41.177] $GNGGA,074940.60,3713.961030465,N,13701.567216644,E,4,13,0.95,92.776,M,37.564,M,103.6,3006*5F
[2021-02-22 16:49:41.286] $GNGGA,074940.70,3713.961146080,N,13701.567094120,E,4,13,0.95,92.382,M,37.564,M,103.7,3006*52
[2021-02-22 16:49:41.364] $GNGGA,074940.80,3713.961144945,N,13701.567093095,E,4,13,0.95,92.383,M,37.564,M,103.8,3006*59
[2021-02-22 16:49:41.474] $GNGGA,074940.90,3713.961145621,N,13701.567090773,E,4,13,0.95,92.384,M,37.564,M,103.9,3006*5E
[2021-02-22 16:49:41.567] $GNGGA,074941.00,3713.961145545,N,13701.567090439,E,4,13,0.95,92.385,M,37.564,M,104.0,3006*55
[2021-02-22 16:49:41.692] $GNGGA,074941.10,3713.961145829,N,13701.567089249,E,4,13,0.95,92.387,M,37.564,M,104.1,3006*59
[2021-02-22 16:49:41.770] $GNGGA,074941.20,3713.961145784,N,13701.567088960,E,4,13,0.95,92.389,M,37.564,M,104.2,3006*5E
[2021-02-22 16:49:41.864] $GNGGA,074941.30,3713.961145576,N,13701.567087010,E,4,13,0.95,92.390,M,37.564,M,104.3,3006*58
[2021-02-22 16:49:41.974] $GNGGA,074941.40,3713.961146011,N,13701.567087011,E,4,13,0.95,92.387,M,37.564,M,104.4,3006*58
[2021-02-22 16:49:42.067] $GNGGA,074941.50,3713.961146247,N,13701.567087210,E,4,12,1.06,92.391,M,37.564,M,104.5,3006*57
[2021-02-22 16:49:42.192] $GNGGA,074941.60,3713.961146147,N,13701.567086528,E,4,12,1.06,92.390,M,37.564,M,104.6,3006*58
[2021-02-22 16:49:42.269] $GNGGA,074941.70,3713.961146256,N,13701.567086424,E,4,12,1.06,92.392,M,37.564,M,104.7,3006*54
[2021-02-22 16:49:42.378] $GNGGA,074941.80,3713.961147734,N,13701.567086975,E,4,12,1.06,92.394,M,37.564,M,104.8,3006*5B
[2021-02-22 16:49:42.472] $GNGGA,074941.90,3713.961148286,N,13701.567087186,E,4,12,1.06,92.390,M,37.564,M,104.9,3006*59
[2021-02-22 16:49:42.581] $GNGGA,074942.00,3713.961146860,N,13701.567087696,E,4,12,1.06,92.389,M,37.564,M,105.0,3006*59
[2021-02-22 16:49:42.690] $GNGGA,074942.10,3713.961146779,N,13701.567087668,E,4,12,1.06,92.390,M,37.564,M,105.1,3006*57
[2021-02-22 16:49:42.769] $GNGGA,074942.20,3713.961147770,N,13701.567087630,E,4,12,1.06,92.390,M,37.564,M,105.2,3006*52
[2021-02-22 16:49:42.878] $GNGGA,074942.30,3713.961147635,N,13701.567087364,E,4,12,1.06,92.388,M,37.564,M,105.3,3006*5F
[2021-02-22 16:49:42.972] $GNGGA,074942.40,3713.961147847,N,13701.567087921,E,4,12,1.06,92.388,M,37.564,M,105.4,3006*5F
[2021-02-22 16:49:43.081] $GNGGA,074942.50,3713.961146644,N,13701.567086798,E,4,12,1.06,92.388,M,37.564,M,105.5,3006*5E
[2021-02-22 16:49:43.190] $GNGGA,074942.60,3713.961146346,N,13701.567086401,E,4,12,1.06,92.388,M,37.564,M,105.6,3006*5A
[2021-02-22 16:49:43.269] $GNGGA,074942.70,3713.961145692,N,13701.567085848,E,4,12,1.06,92.391,M,37.564,M,105.7,3006*5F
[2021-02-22 16:49:43.378] $GNGGA,074942.80,3713.961144586,N,13701.567085513,E,4,12,1.06,92.390,M,37.564,M,105.8,3006*5A
[2021-02-22 16:49:43.472] $GNGGA,074942.90,3713.961144932,N,13701.567084754,E,4,12,1.06,92.390,M,37.564,M,105.9,3006*59
[2021-02-22 16:49:43.581] $GNGGA,074943.00,3713.961144818,N,13701.567085516,E,4,12,1.06,92.389,M,37.564,M,106.0,3006*5F
[2021-02-22 16:49:43.690] $GNGGA,074943.10,3713.961144856,N,13701.567085506,E,4,13,0.95,92.390,M,37.564,M,106.1,3006*56
[2021-02-22 16:49:43.769] $GNGGA,074943.20,3713.961145179,N,13701.567085761,E,4,13,0.95,92.387,M,37.564,M,106.2,3006*56
[2021-02-22 16:49:43.878] $GNGGA,074943.30,3713.961144995,N,13701.567086232,E,4,13,0.95,92.388,M,37.564,M,106.3,3006*52
[2021-02-22 16:49:43.972] $GNGGA,074943.40,3713.961145302,N,13701.567085501,E,4,13,0.95,92.389,M,37.564,M,106.4,3006*52
[2021-02-22 16:49:44.081] $GNGGA,074943.50,3713.961145538,N,13701.567086286,E,4,13,0.95,92.386,M,37.564,M,106.5,3006*59
[2021-02-22 16:49:44.190] $GNGGA,074943.60,3713.961145191,N,13701.567085722,E,4,13,0.95,92.390,M,37.564,M,106.6,3006*51
[2021-02-22 16:49:44.268] $GNGGA,074943.70,3713.961145179,N,13701.567086736,E,4,13,0.95,92.391,M,37.564,M,106.7,3006*50
[2021-02-22 16:49:44.378] $GNGGA,074943.80,3713.961145671,N,13701.567086152,E,4,13,0.95,92.389,M,37.564,M,106.8,3006*52
[2021-02-22 16:49:44.472] $GNGGA,074943.90,3713.961146174,N,13701.567086298,E,4,13,0.95,92.388,M,37.564,M,106.9,3006*57
[2021-02-22 16:49:44.597] $GNGGA,074944.00,3713.961146341,N,13701.567086635,E,4,13,0.95,92.388,M,37.564,M,107.0,3006*56
[2021-02-22 16:49:44.675] $GNGGA,074944.10,3713.961146119,N,13701.567087198,E,4,13,0.95,92.385,M,37.564,M,107.1,3006*55
[2021-02-22 16:49:44.768] $GNGGA,074944.20,3713.961146071,N,13701.567088252,E,4,13,0.95,92.387,M,37.564,M,107.2,3006*52
[2021-02-22 16:49:44.878] $GNGGA,074944.30,3713.961145914,N,13701.567087864,E,4,13,0.95,92.383,M,37.564,M,107.3,3006*5F
[2021-02-22 16:49:44.987] $GNGGA,074944.40,3713.961145890,N,13701.567088527,E,4,13,0.95,92.383,M,37.564,M,107.4,3006*57
[2021-02-22 16:49:45.065] $GNGGA,074944.50,3713.961145823,N,13701.567089140,E,4,13,0.95,92.386,M,37.564,M,107.5,3006*5E
[2021-02-22 16:49:45.175] $GNGGA,074944.60,3713.961146204,N,13701.567089545,E,4,13,0.95,92.386,M,37.564,M,107.6,3006*53
[2021-02-22 16:49:45.268] $GNGGA,074944.70,3713.961147103,N,13701.567091284,E,4,13,0.95,92.389,M,37.564,M,107.7,3006*5A
[2021-02-22 16:49:45.393] $GNGGA,074944.80,3713.961147109,N,13701.567092685,E,4,13,0.95,92.390,M,37.564,M,107.8,3006*5E
[2021-02-22 16:49:45.472] $GNGGA,074944.90,3713.961147266,N,13701.567092563,E,4,13,0.95,92.392,M,37.564,M,107.9,3006*5D
[2021-02-22 16:49:45.565] $GNGGA,074945.00,3713.961147048,N,13701.567094385,E,4,13,0.95,92.392,M,37.564,M,108.0,3006*55
[2021-02-22 16:49:45.675] $GNGGA,074945.10,3713.961147133,N,13701.567094724,E,4,13,0.95,92.395,M,37.564,M,108.1,3006*50
[2021-02-22 16:49:45.784] $GNGGA,074945.20,3713.961146781,N,13701.567096628,E,4,13,0.95,92.395,M,37.564,M,108.2,3006*51
[2021-02-22 16:49:45.878] $GNGGA,074945.30,3713.961146623,N,13701.567096814,E,4,13,0.95,92.396,M,37.564,M,108.3,3006*5A
[2021-02-22 16:49:45.972] $GNGGA,074945.40,3713.961146653,N,13701.567097036,E,4,13,0.95,92.399,M,37.564,M,108.4,3006*5B
[2021-02-22 16:49:46.065] $GNGGA,074945.50,3713.961146197,N,13701.567097749,E,4,13,0.95,92.398,M,37.564,M,108.5,3006*5A
[2021-02-22 16:49:46.175] $GNGGA,074945.60,3713.961146975,N,13701.567096597,E,4,13,0.95,92.397,M,37.564,M,108.6,3006*51
[2021-02-22 16:49:46.284] $GNGGA,074945.70,3713.961147174,N,13701.567096565,E,4,13,0.95,92.394,M,37.564,M,108.7,3006*57
[2021-02-22 16:49:46.378] $GNGGA,074945.80,3713.961147352,N,13701.567096391,E,4,13,0.95,92.398,M,37.564,M,108.8,3006*50
[2021-02-22 16:49:46.471] $GNGGA,074945.90,3713.961146603,N,13701.567095543,E,4,13,0.95,92.397,M,37.564,M,108.9,3006*55
[2021-02-22 16:49:46.565] $GNGGA,074946.00,3713.961145988,N,13701.567095241,E,4,13,0.95,92.396,M,37.564,M,109.0,3006*5C
[2021-02-22 16:49:46.675] $GNGGA,074946.10,3713.961144375,N,13701.567094446,E,4,13,0.95,92.395,M,37.564,M,109.1,3006*56
[2021-02-22 16:49:46.784] $GNGGA,074946.20,3713.961143974,N,13701.567093471,E,4,13,0.95,92.395,M,37.564,M,109.2,3006*59
[2021-02-22 16:49:46.878] $GNGGA,074946.30,3713.961143555,N,13701.567092999,E,4,13,0.95,92.393,M,37.564,M,109.3,3006*5A
[2021-02-22 16:49:46.971] $GNGGA,074946.40,3713.961143129,N,13701.567092143,E,4,13,0.95,92.395,M,37.564,M,109.4,3006*5C
[2021-02-22 16:49:47.065] $GNGGA,074946.50,3713.961143663,N,13701.567090841,E,4,13,0.95,92.393,M,37.564,M,109.5,3006*5A
[2021-02-22 16:49:47.175] $GNGGA,074946.60,3713.961144355,N,13701.567090776,E,4,13,0.95,92.396,M,37.564,M,109.6,3006*53
[2021-02-22 16:49:47.284] $GNGGA,074946.70,3713.961144848,N,13701.567090421,E,4,13,0.95,92.397,M,37.564,M,109.7,3006*54
[2021-02-22 16:49:47.378] $GNGGA,074946.80,3713.961144776,N,13701.567089962,E,4,13,0.95,92.397,M,37.564,M,109.8,3006*54
[2021-02-22 16:49:47.471] $GNGGA,074946.90,3713.961144828,N,13701.567089663,E,4,13,0.95,92.397,M,37.564,M,109.9,3006*5E
[2021-02-22 16:49:47.565] $GNGGA,074947.00,3713.961145174,N,13701.567089524,E,4,13,0.95,92.397,M,37.564,M,110.0,3006*56
[2021-02-22 16:49:47.675] $GNGGA,074947.10,3713.961145286,N,13701.567089432,E,4,13,0.95,92.394,M,37.564,M,110.1,3006*5D
[2021-02-22 16:49:47.784] $GNGGA,074947.20,3713.961145658,N,13701.567088815,E,4,13,0.95,92.396,M,37.564,M,110.2,3006*50
[2021-02-22 16:49:47.878] $GNGGA,074947.30,3713.961145068,N,13701.567088553,E,4,13,0.95,92.395,M,37.564,M,110.3,3006*59
[2021-02-22 16:49:47.971] $GNGGA,074947.40,3713.961145634,N,13701.567089550,E,4,13,0.95,92.395,M,37.564,M,110.4,3006*54
[2021-02-22 16:49:48.065] $GNGGA,074947.50,3713.961145349,N,13701.567089766,E,4,13,0.95,92.394,M,37.564,M,110.5,3006*5D
[2021-02-22 16:49:48.174] $GNGGA,074947.60,3713.961145486,N,13701.567089849,E,4,13,0.95,92.395,M,37.564,M,110.6,3006*5A
[2021-02-22 16:49:48.299] $GNGGA,074947.70,3713.961146324,N,13701.567090649,E,4,13,0.95,92.397,M,37.564,M,110.7,3006*52
[2021-02-22 16:49:48.378] $GNGGA,074947.80,3713.961147121,N,13701.567089711,E,4,13,0.95,92.394,M,37.564,M,110.8,3006*53
[2021-02-22 16:49:48.471] $GNGGA,074947.90,3713.961146791,N,13701.567089419,E,4,13,0.95,92.394,M,37.564,M,110.9,3006*54
[2021-02-22 16:49:48.565] $GNGGA,074948.00,3713.961146262,N,13701.567088813,E,4,13,0.95,92.395,M,37.564,M,111.0,3006*55
[2021-02-22 16:49:48.674] $GNGGA,074948.10,3713.961146790,N,13701.567087990,E,4,13,0.95,92.395,M,37.564,M,111.1,3006*58
[2021-02-22 16:49:48.784] $GNGGA,074948.20,3713.961145115,N,13701.567088187,E,4,13,0.95,92.397,M,37.564,M,111.2,3006*53
[2021-02-22 16:49:48.878] $GNGGA,074948.30,3713.961144996,N,13701.567088073,E,4,13,0.95,92.398,M,37.564,M,111.3,3006*54
[2021-02-22 16:49:48.971] $GNGGA,074948.40,3713.961145258,N,13701.567087424,E,4,13,0.95,92.398,M,37.564,M,111.4,3006*55
[2021-02-22 16:49:49.081] $GNGGA,074948.50,3713.961145323,N,13701.567087114,E,4,13,0.95,92.395,M,37.564,M,111.5,3006*53
[2021-02-22 16:49:49.190] $GNGGA,074948.60,3713.961146235,N,13701.567086928,E,4,13,0.95,92.397,M,37.564,M,111.6,3006*52
[2021-02-22 16:49:49.268] $GNGGA,074948.70,3713.961145937,N,13701.567086729,E,4,13,0.95,92.399,M,37.564,M,111.7,3006*59
[2021-02-22 16:49:49.378] $GNGGA,074948.80,3713.961146194,N,13701.567087066,E,4,13,0.95,92.394,M,37.564,M,111.8,3006*5B
[2021-02-22 16:49:49.471] $GNGGA,074948.90,3713.961146942,N,13701.567086466,E,4,13,0.95,92.394,M,37.564,M,111.9,3006*5D
[2021-02-22 16:49:49.596] $GNGGA,074949.00,3713.961146634,N,13701.567085987,E,4,13,0.95,92.393,M,37.564,M,112.0,3006*57
[2021-02-22 16:49:49.674] $GNGGA,074949.10,3713.961146879,N,13701.567084429,E,4,13,0.95,92.394,M,37.564,M,112.1,3006*5F
[2021-02-22 16:49:49.768] $GNGGA,074949.20,3713.961147294,N,13701.567084224,E,4,13,0.95,92.390,M,37.564,M,112.2,3006*58
[2021-02-22 16:49:49.877] $GNGGA,074949.30,3713.961147017,N,13701.567084677,E,4,13,0.95,92.389,M,37.564,M,112.3,3006*5B
[2021-02-22 16:49:49.987] $GNGGA,074949.40,3713.961148066,N,13701.567085125,E,4,13,0.95,92.389,M,37.564,M,112.4,3006*53
[2021-02-22 16:49:50.065] $GNGGA,074949.50,3713.961148527,N,13701.567083875,E,4,13,0.95,92.387,M,37.564,M,112.5,3006*57
[2021-02-22 16:49:50.174] $GNGGA,074949.60,3713.961148283,N,13701.567084132,E,4,13,0.95,92.388,M,37.564,M,112.6,3006*5C
[2021-02-22 16:49:50.268] $GNGGA,074949.70,3713.961148628,N,13701.567083827,E,4,13,0.95,92.388,M,37.564,M,112.7,3006*53
[2021-02-22 16:49:50.393] $GNGGA,074949.80,3713.961148357,N,13701.567085186,E,4,13,0.95,92.387,M,37.564,M,112.8,3006*55
[2021-02-22 16:49:50.471] $GNGGA,074949.90,3713.961148519,N,13701.567085953,E,4,13,0.95,92.389,M,37.564,M,112.9,3006*57
[2021-02-22 16:49:50.565] $GNGGA,074950.00,3713.961147623,N,13701.567085609,E,4,13,0.95,92.388,M,37.564,M,113.0,3006*5A
[2021-02-22 16:49:50.674] $GNGGA,074950.10,3713.961148476,N,13701.567086851,E,4,13,0.95,92.389,M,37.564,M,113.1,3006*56
[2021-02-22 16:49:50.768] $GNGGA,074950.20,3713.961148286,N,13701.567087678,E,4,13,0.95,92.388,M,37.564,M,113.2,3006*5A
[2021-02-22 16:49:50.893] $GNGGA,074950.30,3713.961148399,N,13701.567087655,E,4,13,0.95,92.389,M,37.564,M,113.3,3006*5B
[2021-02-22 16:49:50.971] $GNGGA,074950.40,3713.961148670,N,13701.567088061,E,4,13,0.95,92.389,M,37.564,M,113.4,3006*57
[2021-02-22 16:49:51.065] $GNGGA,074950.50,3713.961148922,N,13701.567088211,E,4,13,0.95,92.391,M,37.564,M,113.5,3006*53
[2021-02-22 16:49:51.174] $GNGGA,074950.60,3713.961149419,N,13701.567087590,E,4,13,0.95,92.389,M,37.564,M,113.6,3006*5F
[2021-02-22 16:49:51.268] $GNGGA,074950.70,3713.961149314,N,13701.567087887,E,4,13,0.95,92.390,M,37.564,M,113.7,3006*56
[2021-02-22 16:49:51.393] $GNGGA,074950.80,3713.961149420,N,13701.567088974,E,4,13,0.95,92.390,M,37.564,M,113.8,3006*54
[2021-02-22 16:49:51.471] $GNGGA,074950.90,3713.961149267,N,13701.567088405,E,4,13,0.95,92.391,M,37.564,M,113.9,3006*5B
[2021-02-22 16:49:51.565] $GNGGA,074951.00,3713.961149381,N,13701.567088787,E,4,13,0.95,92.390,M,37.564,M,114.0,3006*5C
[2021-02-22 16:49:51.674] $GNGGA,074951.10,3713.961149492,N,13701.567088355,E,4,13,0.95,92.390,M,37.564,M,114.1,3006*52
[2021-02-22 16:49:51.768] $GNGGA,074951.20,3713.961150196,N,13701.567089075,E,4,13,0.95,92.389,M,37.564,M,114.2,3006*53
[2021-02-22 16:49:51.893] $GNGGA,074951.30,3713.961148852,N,13701.567088112,E,4,13,0.95,92.391,M,37.564,M,114.3,3006*53
[2021-02-22 16:49:51.971] $GNGGA,074951.40,3713.961149010,N,13701.567087597,E,4,13,0.95,92.391,M,37.564,M,114.4,3006*5A
[2021-02-22 16:49:52.065] $GNGGA,074951.50,3713.961148680,N,13701.567086320,E,4,13,0.95,92.390,M,37.564,M,114.5,3006*5E
[2021-02-22 16:49:52.174] $GNGGA,074951.60,3713.961148553,N,13701.567086616,E,4,13,0.95,92.391,M,37.564,M,114.6,3006*52
[2021-02-22 16:49:52.268] $GNGGA,074951.70,3713.961147752,N,13701.567088407,E,4,13,0.95,92.389,M,37.564,M,114.7,3006*5B
[2021-02-22 16:49:52.393] $GNGGA,074951.80,3713.961147551,N,13701.567087865,E,4,13,0.95,92.387,M,37.564,M,114.8,3006*53
[2021-02-22 16:49:52.471] $GNGGA,074951.90,3713.961147050,N,13701.567086102,E,4,13,0.95,92.386,M,37.564,M,114.9,3006*5F
[2021-02-22 16:49:52.565] $GNGGA,074952.00,3713.961147022,N,13701.567084882,E,4,13,0.95,92.386,M,37.564,M,115.0,3006*5B
[2021-02-22 16:49:52.674] $GNGGA,074952.10,3713.961147931,N,13701.567082877,E,4,13,0.95,92.385,M,37.564,M,115.1,3006*5F
[2021-02-22 16:49:52.768] $GNGGA,074952.20,3713.961147784,N,13701.567081637,E,4,13,0.95,92.387,M,37.564,M,115.2,3006*54
[2021-02-22 16:49:52.893] $GNGGA,074952.30,3713.961147732,N,13701.567082061,E,4,13,0.95,92.385,M,37.564,M,115.3,3006*5D
[2021-02-22 16:49:52.971] $GNGGA,074952.40,3713.961147479,N,13701.567081718,E,4,13,0.95,92.384,M,37.564,M,115.4,3006*5A
[2021-02-22 16:49:53.065] $GNGGA,074952.50,3713.961148030,N,13701.567081254,E,4,13,0.95,92.388,M,37.564,M,115.5,3006*5D
[2021-02-22 16:49:53.174] $GNGGA,074952.60,3713.961148620,N,13701.567080689,E,4,13,0.95,92.387,M,37.564,M,115.6,3006*50
[2021-02-22 16:49:53.299] $GNGGA,074952.70,3713.961149791,N,13701.567081634,E,4,13,0.95,92.387,M,37.564,M,115.7,3006*5D
[2021-02-22 16:49:53.377] $GNGGA,074952.80,3713.961149902,N,13701.567081171,E,4,13,0.95,92.388,M,37.564,M,115.8,3006*50
[2021-02-22 16:49:53.471] $GNGGA,074952.90,3713.961149661,N,13701.567082129,E,4,13,0.95,92.387,M,37.564,M,115.9,3006*5B
[2021-02-22 16:49:53.580] $GNGGA,074953.00,3713.961149754,N,13701.567083075,E,4,13,0.95,92.392,M,37.564,M,116.0,3006*53
[2021-02-22 16:49:53.690] $GNGGA,074953.10,3713.961149122,N,13701.567083010,E,4,13,0.95,92.389,M,37.564,M,116.1,3006*5D
[2021-02-22 16:49:53.768] $GNGGA,074953.20,3713.961149024,N,13701.567083437,E,4,13,0.95,92.389,M,37.564,M,116.2,3006*5B
[2021-02-22 16:49:53.877] $GNGGA,074953.30,3713.961148845,N,13701.567083648,E,4,13,0.95,92.391,M,37.564,M,116.3,3006*56
[2021-02-22 16:49:53.971] $GNGGA,074953.40,3713.961148449,N,13701.567084824,E,4,13,0.95,92.390,M,37.564,M,116.4,3006*54
[2021-02-22 16:49:54.096] $GNGGA,074953.50,3713.961148157,N,13701.567084901,E,4,13,0.95,92.390,M,37.564,M,116.5,3006*58
[2021-02-22 16:49:54.174] $GNGGA,074953.60,3713.961147728,N,13701.567085212,E,4,13,0.95,92.394,M,37.564,M,116.6,3006*55
[2021-02-22 16:49:54.268] $GNGGA,074953.70,3713.961147771,N,13701.567086268,E,4,13,0.95,92.391,M,37.564,M,116.7,3006*52
[2021-02-22 16:49:54.377] $GNGGA,074953.80,3713.961148424,N,13701.567087079,E,4,13,0.95,92.393,M,37.564,M,116.8,3006*5F
[2021-02-22 16:49:54.486] $GNGGA,074953.90,3713.961147930,N,13701.567087442,E,4,13,0.95,92.391,M,37.564,M,116.9,3006*56
[2021-02-22 16:49:54.565] $GNGGA,074954.00,3713.961148283,N,13701.567087758,E,4,13,0.95,92.391,M,37.564,M,117.0,3006*54
[2021-02-22 16:49:54.674] $GNGGA,074954.10,3713.961148707,N,13701.567088120,E,4,13,0.95,92.391,M,37.564,M,117.1,3006*5B
[2021-02-22 16:49:54.768] $GNGGA,074954.20,3713.961149151,N,13701.567089243,E,4,13,0.95,92.386,M,37.564,M,117.2,3006*5E
[2021-02-22 16:49:54.877] $GNGGA,074954.30,3713.961148917,N,13701.567088530,E,4,13,0.95,92.390,M,37.564,M,117.3,3006*50
[2021-02-22 16:49:54.987] $GNGGA,074954.40,3713.961149878,N,13701.567088774,E,4,13,0.95,92.387,M,37.564,M,117.4,3006*5D
[2021-02-22 16:49:55.065] $GNGGA,074954.50,3713.961149583,N,13701.567088831,E,4,13,0.95,92.388,M,37.564,M,117.5,3006*55
[2021-02-22 16:49:55.174] $GNGGA,074954.60,3713.961149146,N,13701.567089989,E,4,13,0.95,92.386,M,37.564,M,117.6,3006*55
[2021-02-22 16:49:55.268] $GNGGA,074954.70,3713.961148618,N,13701.567089577,E,4,13,0.95,92.385,M,37.564,M,117.7,3006*56
[2021-02-22 16:49:55.377] $GNGGA,074954.80,3713.961148888,N,13701.567088568,E,4,13,0.95,92.390,M,37.564,M,117.8,3006*5A
[2021-02-22 16:49:55.486] $GNGGA,074954.90,3713.961149205,N,13701.567089432,E,4,13,0.95,92.386,M,37.564,M,117.9,3006*5C
[2021-02-22 16:49:55.565] $GNGGA,074955.00,3713.961148574,N,13701.567088541,E,4,13,0.95,92.387,M,37.564,M,118.0,3006*57
[2021-02-22 16:49:55.674] $GNGGA,074955.10,3713.961148450,N,13701.567087305,E,4,13,0.95,92.390,M,37.564,M,118.1,3006*5F
[2021-02-22 16:49:55.768] $GNGGA,074955.20,3713.961148190,N,13701.567086859,E,4,13,0.95,92.389,M,37.564,M,118.2,3006*5D
[2021-02-22 16:49:55.877] $GNGGA,074955.30,3713.961147161,N,13701.567086282,E,4,13,0.95,92.390,M,37.564,M,118.3,3006*58
[2021-02-22 16:49:55.986] $GNGGA,074955.40,3713.961147497,N,13701.567085669,E,4,13,0.95,92.388,M,37.564,M,118.4,3006*5F
[2021-02-22 16:49:56.065] $GNGGA,074955.50,3713.961146698,N,13701.567084645,E,4,13,0.95,92.387,M,37.564,M,118.5,3006*53
[2021-02-22 16:49:56.174] $GNGGA,074955.60,3713.961147098,N,13701.567084754,E,4,13,0.95,92.387,M,37.564,M,118.6,3006*55
[2021-02-22 16:49:56.268] $GNGGA,074955.70,3713.961147580,N,13701.567084010,E,4,13,0.95,92.387,M,37.564,M,118.7,3006*5E
[2021-02-22 16:49:56.377] $GNGGA,074955.80,3713.961148328,N,13701.567084003,E,4,13,0.95,92.385,M,37.564,M,118.8,3006*55
[2021-02-22 16:49:56.486] $GNGGA,074955.90,3713.961148729,N,13701.567083059,E,4,13,0.95,92.384,M,37.564,M,118.9,3006*59
[2021-02-22 16:49:56.565] $GNGGA,074956.00,3713.961148734,N,13701.567082972,E,4,13,0.95,92.388,M,37.564,M,119.0,3006*5A
[2021-02-22 16:49:56.674] $GNGGA,074956.10,3713.961149291,N,13701.567082590,E,4,13,0.95,92.384,M,37.564,M,119.1,3006*5D
[2021-02-22 16:49:56.768] $GNGGA,074956.20,3713.961147949,N,13701.567081800,E,4,13,0.95,92.384,M,37.564,M,119.2,3006*5A
[2021-02-22 16:49:56.877] $GNGGA,074956.30,3713.961146925,N,13701.567081469,E,4,13,0.95,92.385,M,37.564,M,119.3,3006*53
[2021-02-22 16:49:56.986] $GNGGA,074956.40,3713.961146792,N,13701.567081462,E,4,13,0.95,92.385,M,37.564,M,119.4,3006*5A
[2021-02-22 16:49:57.064] $GNGGA,074956.50,3713.961146644,N,13701.567080254,E,4,13,0.95,92.386,M,37.564,M,119.5,3006*51
[2021-02-22 16:49:57.174] $GNGGA,074956.60,3713.961147598,N,13701.567080269,E,4,13,0.95,92.385,M,37.564,M,119.6,3006*5F
[2021-02-22 16:49:57.268] $GNGGA,074956.70,3713.961147341,N,13701.567081114,E,4,13,0.95,92.384,M,37.564,M,119.7,3006*54
[2021-02-22 16:49:57.377] $GNGGA,074956.80,3713.961146706,N,13701.567081790,E,4,13,0.95,92.387,M,37.564,M,119.8,3006*5B
[2021-02-22 16:49:57.486] $GNGGA,074956.90,3713.961146636,N,13701.567082687,E,4,13,0.95,92.389,M,37.564,M,119.9,3006*53
[2021-02-22 16:49:57.564] $GNGGA,074957.00,3713.961147280,N,13701.567082519,E,4,13,0.95,92.386,M,37.564,M,120.0,3006*5B
[2021-02-22 16:49:57.674] $GNGGA,074957.10,3713.961147241,N,13701.567084508,E,4,13,0.95,92.387,M,37.564,M,120.1,3006*51
[2021-02-22 16:49:57.768] $GNGGA,074957.20,3713.961146675,N,13701.567085376,E,4,13,0.95,92.390,M,37.564,M,120.2,3006*5B
[2021-02-22 16:49:57.893] $GNGGA,074957.30,3713.961147445,N,13701.567085549,E,4,13,0.95,92.391,M,37.564,M,120.3,3006*50
[2021-02-22 16:49:57.971] $GNGGA,074957.40,3713.961147654,N,13701.567086795,E,4,13,0.95,92.390,M,37.564,M,120.4,3006*53
[2021-02-22 16:49:58.064] $GNGGA,074957.50,3713.961146948,N,13701.567086948,E,4,13,0.95,92.389,M,37.564,M,120.5,3006*56
[2021-02-22 16:49:58.174] $GNGGA,074957.60,3713.961147193,N,13701.567087897,E,4,13,0.95,92.388,M,37.564,M,120.6,3006*5A
[2021-02-22 16:49:58.299] $GNGGA,074957.70,3713.961146908,N,13701.567087743,E,4,13,0.95,92.391,M,37.564,M,120.7,3006*5F
[2021-02-22 16:49:58.377] $GNGGA,074957.80,3713.961147270,N,13701.567087045,E,4,13,0.95,92.388,M,37.564,M,120.8,3006*53
[2021-02-22 16:49:58.471] $GNGGA,074957.90,3713.961147104,N,13701.567086285,E,4,13,0.95,92.390,M,37.564,M,120.9,3006*55
[2021-02-22 16:49:58.580] $GNGGA,074958.00,3713.961146628,N,13701.567086191,E,4,13,0.95,92.390,M,37.564,M,121.0,3006*55
[2021-02-22 16:49:58.689] $GNGGA,074958.10,3713.961146665,N,13701.567085835,E,4,13,0.95,92.387,M,37.564,M,121.1,3006*5E
[2021-02-22 16:49:58.767] $GNGGA,074958.20,3713.961146925,N,13701.567085845,E,4,13,0.95,92.384,M,37.564,M,121.2,3006*51
[2021-02-22 16:49:58.877] $GNGGA,074958.30,3713.961147257,N,13701.567085500,E,4,13,0.95,92.384,M,37.564,M,121.3,3006*52
[2021-02-22 16:49:58.971] $GNGGA,074958.40,3713.961147952,N,13701.567086879,E,4,13,0.95,92.383,M,37.564,M,121.4,3006*5B
[2021-02-22 16:49:59.096] $GNGGA,074958.50,3713.961147689,N,13701.567087943,E,4,13,0.95,92.382,M,37.564,M,121.5,3006*5A
[2021-02-22 16:49:59.174] $GNGGA,074958.60,3713.961147721,N,13701.567088472,E,4,13,0.95,92.382,M,37.564,M,121.6,3006*59
[2021-02-22 16:49:59.267] $GNGGA,074958.70,3713.961147439,N,13701.567088576,E,4,13,0.95,92.383,M,37.564,M,121.7,3006*57
[2021-02-22 16:49:59.377] $GNGGA,074958.80,3713.961147078,N,13701.567088961,E,4,13,0.95,92.384,M,37.564,M,121.8,3006*5B
[2021-02-22 16:49:59.471] $GNGGA,074958.90,3713.961146343,N,13701.567088416,E,4,13,0.95,92.383,M,37.564,M,121.9,3006*5B
[2021-02-22 16:49:59.596] $GNGGA,074959.00,3713.961146684,N,13701.567088541,E,4,13,0.95,92.383,M,37.564,M,122.0,3006*54
[2021-02-22 16:49:59.674] $GNGGA,074959.10,3713.961147265,N,13701.567088756,E,4,13,0.95,92.383,M,37.564,M,122.1,3006*5A
[2021-02-22 16:49:59.767] $GNGGA,074959.20,3713.961147106,N,13701.567087974,E,4,13,0.95,92.382,M,37.564,M,122.2,3006*5C
[2021-02-22 16:49:59.877] $GNGGA,074959.30,3713.961147578,N,13701.567087726,E,4,13,0.95,92.385,M,37.564,M,122.3,3006*5F
[2021-02-22 16:49:59.971] $GNGGA,074959.40,3713.961147577,N,13701.567087433,E,4,13,0.95,92.383,M,37.564,M,122.4,3006*51
[2021-02-22 16:50:00.095] $GNGGA,074959.50,3713.961147184,N,13701.567087497,E,4,13,0.95,92.384,M,37.564,M,122.5,3006*50
[2021-02-22 16:50:00.174] $GNGGA,074959.60,3713.961147085,N,13701.567087700,E,4,13,0.95,92.385,M,37.564,M,122.6,3006*5C
[2021-02-22 16:50:00.267] $GNGGA,074959.70,3713.961147319,N,13701.567087576,E,4,13,0.95,92.388,M,37.564,M,122.7,3006*54
[2021-02-22 16:50:00.377] $GNGGA,074959.80,3713.961146940,N,13701.567087617,E,4,13,0.95,92.388,M,37.564,M,122.8,3006*57
[2021-02-22 16:50:00.470] $GNGGA,074959.90,3713.961147119,N,13701.567087924,E,4,13,0.95,92.387,M,37.564,M,122.9,3006*52
[2021-02-22 16:50:00.595] $GNGGA,075000.00,3713.961147621,N,13701.567087285,E,4,13,0.95,92.390,M,37.564,M,123.0,3006*5D
