
[2021-02-22 16:45:30.441] $GPGGA,074517.60,,,,,0,00,0.0,,M,,M,0,0000*50
[2021-02-22 16:45:30.473] $GPGGA,074517.70,,,,,0,00,0.0,,M,,M,0,0000*51
[2021-02-22 16:45:30.473] $GPGGA,074517.80,,,,,0,00,0.0,,M,,M,0,0000*5E
[2021-02-22 16:45:30.473] $GPGGA,074517.90,,,,,0,00,0.0,,M,,M,0,0000*5F
[2021-02-22 16:45:30.473] $GPGGA,074518.00,,,,,0,00,0.0,,M,,M,0,0000*59
[2021-02-22 16:45:30.473] $GPGGA,074518.10,,,,,0,00,0.0,,M,,M,0,0000*58
[2021-02-22 16:45:30.473] $GPGGA,074518.20,,,,,0,00,0.0,,M,,M,0,0000*5B
[2021-02-22 16:45:30.473] $GPGGA,074518.30,,,,,0,00,0.0,,M,,M,0,0000*5A
[2021-02-22 16:45:30.473] $GPGGA,074518.40,,,,,0,00,0.0,,M,,M,0,0000*5D
[2021-02-22 16:45:30.473] $GPGGA,074518.50,,,,,0,00,0.0,,M,,M,0,0000*5C
[2021-02-22 16:45:30.473] $GPGGA,074518.60,,,,,0,00,0.0,,M,,M,0,0000*5F
[2021-02-22 16:45:30.473] $GPGGA,074518.70,,,,,0,00,0.0,,M,,M,0,0000*5E
[2021-02-22 16:45:30.473] $GPGGA,074518.80,,,,,0,00,0.0,,M,,M,0,0000*51
[2021-02-22 16:45:30.473] $GPGGA,074518.90,,,,,0,00,0.0,,M,,M,0,0000*50
[2021-02-22 16:45:30.473] $GPGGA,074519.00,,,,,0,00,0.0,,M,,M,0,0000*58
[2021-02-22 16:45:30.473] $GPGGA,074519.10,,,,,0,00,0.0,,M,,M,0,0000*59
[2021-02-22 16:45:30.473] $GPGGA,074519.20,,,,,0,00,0.0,,M,,M,0,0000*5A
[2021-02-22 16:45:30.473] $GPGGA,074519.30,,,,,0,00,0.0,,M,,M,0,0000*5B
[2021-02-22 16:45:30.473] $GPGGA,074519.40,,,,,0,00,0.0,,M,,M,0,0000*5C
[2021-02-22 16:45:30.473] $GPGGA,074519.50,,,,,0,00,0.0,,M,,M,0,0000*5D
[2021-02-22 16:45:30.473] $GPGGA,074519.60,,,,,0,00,0.0,,M,,M,0,0000*5E
[2021-02-22 16:45:30.473] $GPGGA,074519.70,,,,,0,00,0.0,,M,,M,0,0000*5F
[2021-02-22 16:45:30.488] $GPGGA,074519.80,,,,,0,00,0.0,,M,,M,0,0000*50
[2021-02-22 16:45:30.488] $GPGGA,074519.90,,,,,0,00,0.0,,M,,M,0,0000*51
[2021-02-22 16:45:30.488] $GPGGA,074520.00,,,,,0,00,0.0,,M,,M,0,0000*52
[2021-02-22 16:45:30.488] $GPGGA,074520.10,,,,,0,00,0.0,,M,,M,0,0000*53
[2021-02-22 16:45:30.488] $GPGGA,074520.20,,,,,0,00,0.0,,M,,M,0,0000*50
[2021-02-22 16:45:30.488] $GPGGA,074520.30,,,,,0,00,0.0,,M,,M,0,0000*51
[2021-02-22 16:45:30.488] $GPGGA,074520.40,,,,,0,00,0.0,,M,,M,0,0000*56
[2021-02-22 16:45:30.488] $GPGGA,074520.50,,,,,0,00,0.0,,M,,M,0,0000*57
[2021-02-22 16:45:30.488] $GPGGA,074520.60,,,,,0,00,0.0,,M,,M,0,0000*54
[2021-02-22 16:45:30.488] $GPGGA,074520.70,,,,,0,00,0.0,,M,,M,0,0000*55
[2021-02-22 16:45:30.488] $GPGGA,074520.80,,,,,0,00,0.0,,M,,M,0,0000*5A
[2021-02-22 16:45:30.488] $GPGGA,074520.90,,,,,0,00,0.0,,M,,M,0,0000*5B
[2021-02-22 16:45:30.488] $GPGGA,074521.00,,,,,0,00,0.0,,M,,M,0,0000*53
[2021-02-22 16:45:30.488] $GPGGA,074521.10,,,,,0,00,0.0,,M,,M,0,0000*52
[2021-02-22 16:45:30.488] $GPGGA,074521.20,,,,,0,00,0.0,,M,,M,0,0000*51
[2021-02-22 16:45:30.488] $GPGGA,074521.30,,,,,0,00,0.0,,M,,M,0,0000*50
[2021-02-22 16:45:30.488] $GPGGA,074521.40,,,,,0,00,0.0,,M,,M,0,0000*57
[2021-02-22 16:45:30.488] $GPGGA,074521.50,,,,,0,00,0.0,,M,,M,0,0000*56
[2021-02-22 16:45:30.488] $GPGGA,074521.60,,,,,0,00,0.0,,M,,M,0,0000*55
[2021-02-22 16:45:30.488] $GPGGA,074521.70,,,,,0,00,0.0,,M,,M,0,0000*54
[2021-02-22 16:45:30.488] $GPGGA,074521.80,,,,,0,00,0.0,,M,,M,0,0000*5B
[2021-02-22 16:45:30.488] $GPGGA,074521.90,,,,,0,00,0.0,,M,,M,0,0000*5A
[2021-02-22 16:45:30.504] $GPGGA,074522.00,,,,,0,00,0.0,,M,,M,0,0000*50
[2021-02-22 16:45:30.504] $GPGGA,074522.10,,,,,0,00,0.0,,M,,M,0,0000*51
[2021-02-22 16:45:30.504] $GPGGA,074522.20,,,,,0,00,0.0,,M,,M,0,0000*52
[2021-02-22 16:45:30.504] $GPGGA,074522.30,,,,,0,00,0.0,,M,,M,0,0000*53
[2021-02-22 16:45:30.504] $GPGGA,074522.40,,,,,0,00,0.0,,M,,M,0,0000*54
[2021-02-22 16:45:30.504] $GPGGA,074522.50,,,,,0,00,0.0,,M,,M,0,0000*55
[2021-02-22 16:45:30.504] $GPGGA,074522.60,,,,,0,00,0.0,,M,,M,0,0000*56
[2021-02-22 16:45:30.504] $GPGGA,074522.70,,,,,0,00,0.0,,M,,M,0,0000*57
[2021-02-22 16:45:30.504] $GPGGA,074522.80,,,,,0,00,0.0,,M,,M,0,0000*58
[2021-02-22 16:45:30.504] $GPGGA,074522.90,,,,,0,00,0.0,,M,,M,0,0000*59
[2021-02-22 16:45:30.504] $GPGGA,074523.00,,,,,0,00,0.0,,M,,M,0,0000*51
[2021-02-22 16:45:30.504] $GPGGA,074523.10,,,,,0,00,0.0,,M,,M,0,0000*50
[2021-02-22 16:45:30.504] $GPGGA,074523.20,,,,,0,00,0.0,,M,,M,0,0000*53
[2021-02-22 16:45:30.504] $GPGGA,074523.30,,,,,0,00,0.0,,M,,M,0,0000*52
[2021-02-22 16:45:30.504] $GPGGA,074523.40,,,,,0,00,0.0,,M,,M,0,0000*55
[2021-02-22 16:45:30.504] $GPGGA,074523.50,,,,,0,00,0.0,,M,,M,0,0000*54
[2021-02-22 16:45:30.504] $GPGGA,074523.60,,,,,0,00,0.0,,M,,M,0,0000*57
[2021-02-22 16:45:30.504] $GPGGA,074523.70,,,,,0,00,0.0,,M,,M,0,0000*56
[2021-02-22 16:45:30.504] $GPGGA,074523.80,,,,,0,00,0.0,,M,,M,0,0000*59
[2021-02-22 16:45:30.504] $GPGGA,074523.90,,,,,0,00,0.0,,M,,M,0,0000*58
[2021-02-22 16:45:30.504] $GPGGA,074524.00,,,,,0,00,0.0,,M,,M,0,0000*56
[2021-02-22 16:45:30.519] $GPGGA,074524.10,,,,,0,00,0.0,,M,,M,0,0000*57
[2021-02-22 16:45:30.519] $GPGGA,074524.20,,,,,0,00,0.0,,M,,M,0,0000*54
[2021-02-22 16:45:30.519] $GPGGA,074524.30,,,,,0,00,0.0,,M,,M,0,0000*55
[2021-02-22 16:45:30.519] $GPGGA,074524.40,,,,,0,00,0.0,,M,,M,0,0000*52
[2021-02-22 16:45:30.519] $GPGGA,074524.50,,,,,0,00,0.0,,M,,M,0,0000*53
[2021-02-22 16:45:30.519] $GPGGA,074524.60,,,,,0,00,0.0,,M,,M,0,0000*50
[2021-02-22 16:45:30.519] $GPGGA,074524.70,,,,,0,00,0.0,,M,,M,0,0000*51
[2021-02-22 16:45:30.519] $GPGGA,074524.80,,,,,0,00,0.0,,M,,M,0,0000*5E
[2021-02-22 16:45:30.519] $GPGGA,074524.90,,,,,0,00,0.0,,M,,M,0,0000*5F
[2021-02-22 16:45:30.519] $GPGGA,074525.00,,,,,0,00,0.0,,M,,M,0,0000*57
[2021-02-22 16:45:30.519] $GPGGA,074525.10,,,,,0,00,0.0,,M,,M,0,0000*56
[2021-02-22 16:45:30.519] $GPGGA,074525.20,,,,,0,00,0.0,,M,,M,0,0000*55
[2021-02-22 16:45:30.519] $GPGGA,074525.30,,,,,0,00,0.0,,M,,M,0,0000*54
[2021-02-22 16:45:30.519] $GPGGA,074525.40,,,,,0,00,0.0,,M,,M,0,0000*53
[2021-02-22 16:45:30.519] $GPGGA,074525.50,,,,,0,00,0.0,,M,,M,0,0000*52
[2021-02-22 16:45:30.519] $GPGGA,074525.60,,,,,0,00,0.0,,M,,M,0,0000*51
[2021-02-22 16:45:30.519] $GPGGA,074525.70,,,,,0,00,0.0,,M,,M,0,0000*50
[2021-02-22 16:45:30.519] $GPGGA,074525.80,,,,,0,00,0.0,,M,,M,0,0000*5F
[2021-02-22 16:45:30.519] $GPGGA,074525.90,,,,,0,00,0.0,,M,,M,0,0000*5E
[2021-02-22 16:45:30.519] $GPGGA,074526.00,,,,,0,00,0.0,,M,,M,0,0000*54
[2021-02-22 16:45:30.519] $GPGGA,074526.10,,,,,0,00,0.0,,M,,M,0,0000*55
[2021-02-22 16:45:30.519] $GPGGA,074526.20,,,,,0,00,0.0,,M,,M,0,0000*56
[2021-02-22 16:45:30.535] $GPGGA,074526.30,,,,,0,00,0.0,,M,,M,0,0000*57
[2021-02-22 16:45:30.535] $GPGGA,074526.40,,,,,0,00,0.0,,M,,M,0,0000*50
[2021-02-22 16:45:30.535] $GPGGA,074526.50,,,,,0,00,0.0,,M,,M,0,0000*51
[2021-02-22 16:45:30.535] $GPGGA,074526.60,,,,,0,00,0.0,,M,,M,0,0000*52
[2021-02-22 16:45:30.535] $GPGGA,074526.70,,,,,0,00,0.0,,M,,M,0,0000*53
[2021-02-22 16:45:30.535] $GPGGA,074526.80,,,,,0,00,0.0,,M,,M,0,0000*5C
[2021-02-22 16:45:30.535] $GPGGA,074526.90,,,,,0,00,0.0,,M,,M,0,0000*5D
[2021-02-22 16:45:30.535] $GPGGA,074527.00,,,,,0,00,0.0,,M,,M,0,0000*55
[2021-02-22 16:45:30.535] $GPGGA,074527.10,,,,,0,00,0.0,,M,,M,0,0000*54
[2021-02-22 16:45:30.535] $GPGGA,074527.20,,,,,0,00,0.0,,M,,M,0,0000*57
[2021-02-22 16:45:30.535] $GPGGA,074527.30,,,,,0,00,0.0,,M,,M,0,0000*56
[2021-02-22 16:45:30.535] $GPGGA,074527.40,,,,,0,00,0.0,,M,,M,0,0000*51
[2021-02-22 16:45:30.535] $GPGGA,074527.50,,,,,0,00,0.0,,M,,M,0,0000*50
[2021-02-22 16:45:30.535] $GPGGA,074527.60,,,,,0,00,0.0,,M,,M,0,0000*53
[2021-02-22 16:45:30.535] $GPGGA,074527.70,,,,,0,00,0.0,,M,,M,0,0000*52
[2021-02-22 16:45:30.535] $GPGGA,074527.80,,,,,0,00,0.0,,M,,M,0,0000*5D
[2021-02-22 16:45:30.535] $GPGGA,074527.90,,,,,0,00,0.0,,M,,M,0,0000*5C
[2021-02-22 16:45:30.535] $GPGGA,074528.00,,,,,0,00,0.0,,M,,M,0,0000*5A
[2021-02-22 16:45:30.535] $GPGGA,074528.10,,,,,0,00,0.0,,M,,M,0,0000*5B
[2021-02-22 16:45:30.535] $GPGGA,074528.20,,,,,0,00,0.0,,M,,M,0,0000*58
[2021-02-22 16:45:30.535] $GPGGA,074528.30,,,,,0,00,0.0,,M,,M,0,0000*59
[2021-02-22 16:45:30.535] $GPGGA,074528.40,,,,,0,00,0.0,,M,,M,0,0000*5E
[2021-02-22 16:45:30.535] $GPGGA,074528.50,,,,,0,00,0.0,,M,,M,0,0000*5F
[2021-02-22 16:45:30.535] $GPGGA,074528.60,,,,,0,00,0.0,,M,,M,0,0000*5C
[2021-02-22 16:45:30.535] $GPGGA,074528.70,,,,,0,00,0.0,,M,,M,0,0000*5D
[2021-02-22 16:45:30.535] $GPGGA,074528.80,,,,,0,00,0.0,,M,,M,0,0000*52
[2021-02-22 16:45:30.535] $GPGGA,074528.90,,,,,0,00,0.0,,M,,M,0,0000*53
[2021-02-22 16:45:30.535] $GPGGA,074529.00,,,,,0,00,0.0,,M,,M,0,0000*5B
[2021-02-22 16:45:30.535] $GPGGA,074529.10,,,,,0,00,0.0,,M,,M,0,0000*5A
[2021-02-22 16:45:30.535] $GPGGA,074529.20,,,,,0,00,0.0,,M,,M,0,0000*59
[2021-02-22 16:45:30.535] $GPGGA,074529.30,,,,,0,00,0.0,,M,,M,0,0000*58
[2021-02-22 16:45:30.535] $GPGGA,074529.40,,,,,0,00,0.0,,M,,M,0,0000*5F
[2021-02-22 16:45:30.535] $GPGGA,074529.50,,,,,0,00,0.0,,M,,M,0,0000*5E
[2021-02-22 16:45:30.535] $GPGGA,074529.60,,,,,0,00,0.0,,M,,M,0,0000*5D
[2021-02-22 16:45:30.535] $GPGGA,074529.70,,,,,0,00,0.0,,M,,M,0,0000*5C
[2021-02-22 16:45:30.535] $GPGGA,074529.80,,,,,0,00,0.0,,M,,M,0,0000*53
[2021-02-22 16:45:30.535] $GPGGA,074529.90,,,,,0,00,0.0,,M,,M,0,0000*52
[2021-02-22 16:45:30.535] $GPGGA,074530.00,,,,,0,00,0.0,,M,,M,0,0000*53
[2021-02-22 16:45:30.535] $GPGGA,074530.10,,,,,0,00,0.0,,M,,M,0,0000*52
[2021-02-22 16:45:30.582] $GPGGA,074530.20,,,,,0,00,0.0,,M,,M,0,0000*51
[2021-02-22 16:45:30.676] $GPGGA,074530.30,,,,,0,00,0.0,,M,,M,0,0000*50
[2021-02-22 16:45:30.769] $GPGGA,074530.40,,,,,0,00,0.0,,M,,M,0,0000*57
[2021-02-22 16:45:30.879] $GPGGA,074530.50,,,,,0,00,0.0,,M,,M,0,0000*56
[2021-02-22 16:45:30.973] $GPGGA,074530.60,,,,,0,00,0.0,,M,,M,0,0000*55
[2021-02-22 16:45:31.066] $GPGGA,074530.70,,,,,0,00,0.0,,M,,M,0,0000*54
[2021-02-22 16:45:31.176] $GPGGA,074530.80,,,,,0,00,0.0,,M,,M,0,0000*5B
[2021-02-22 16:45:31.285] $GPGGA,074530.90,,,,,0,00,0.0,,M,,M,0,0000*5A
[2021-02-22 16:45:31.379] $GPGGA,074531.00,,,,,0,00,0.0,,M,,M,0,0000*52
[2021-02-22 16:45:31.473] $GPGGA,074531.10,,,,,0,00,0.0,,M,,M,0,0000*53
[2021-02-22 16:45:31.566] $GPGGA,074531.20,,,,,0,00,0.0,,M,,M,0,0000*50
[2021-02-22 16:45:31.676] $GPGGA,074531.30,,,,,0,00,0.0,,M,,M,0,0000*51
[2021-02-22 16:45:31.769] $GPGGA,074531.40,,,,,0,00,0.0,,M,,M,0,0000*56
[2021-02-22 16:45:31.879] $GPGGA,074531.50,,,,,0,00,0.0,,M,,M,0,0000*57
[2021-02-22 16:45:31.973] $GPGGA,074531.60,,,,,0,00,0.0,,M,,M,0,0000*54
[2021-02-22 16:45:32.082] $GPGGA,074531.70,,,,,0,00,0.0,,M,,M,0,0000*55
[2021-02-22 16:45:32.176] $GPGGA,074531.80,,,,,0,00,0.0,,M,,M,0,0000*5A
[2021-02-22 16:45:32.269] $GPGGA,074531.90,,,,,0,00,0.0,,M,,M,0,0000*5B
[2021-02-22 16:45:32.379] $GPGGA,074532.00,,,,,0,00,0.0,,M,,M,0,0000*51
[2021-02-22 16:45:32.488] $GPGGA,074532.10,,,,,0,00,0.0,,M,,M,0,0000*50
[2021-02-22 16:45:32.582] $GPGGA,074532.20,,,,,0,00,0.0,,M,,M,0,0000*53
[2021-02-22 16:45:32.676] $GPGGA,074532.30,,,,,0,00,0.0,,M,,M,0,0000*52
[2021-02-22 16:45:32.785] $GPGGA,074532.40,,,,,0,00,0.0,,M,,M,0,0000*55
[2021-02-22 16:45:32.879] $GPGGA,074532.50,,,,,0,00,0.0,,M,,M,0,0000*54
[2021-02-22 16:45:32.972] $GPGGA,074532.60,,,,,0,00,0.0,,M,,M,0,0000*57
[2021-02-22 16:45:33.066] $GPGGA,074532.70,,,,,0,00,0.0,,M,,M,0,0000*56
[2021-02-22 16:45:33.191] $GPGGA,074532.80,,,,,0,00,0.0,,M,,M,0,0000*59
[2021-02-22 16:45:33.285] $GPGGA,074532.90,,,,,0,00,0.0,,M,,M,0,0000*58
[2021-02-22 16:45:33.379] $GPGGA,074533.00,,,,,0,00,0.0,,M,,M,0,0000*50
[2021-02-22 16:45:33.472] $GPGGA,074533.10,,,,,0,00,0.0,,M,,M,0,0000*51
[2021-02-22 16:45:33.582] $GPGGA,074533.20,,,,,0,00,0.0,,M,,M,0,0000*52
[2021-02-22 16:45:33.676] $GPGGA,074533.30,,,,,0,00,0.0,,M,,M,0,0000*53
[2021-02-22 16:45:33.769] $GPGGA,074533.40,,,,,0,00,0.0,,M,,M,0,0000*54
[2021-02-22 16:45:33.879] $GPGGA,074533.50,,,,,0,00,0.0,,M,,M,0,0000*55
[2021-02-22 16:45:33.988] $GPGGA,074533.60,,,,,0,00,0.0,,M,,M,0,0000*56
[2021-02-22 16:45:34.082] $GPGGA,074533.70,,,,,0,00,0.0,,M,,M,0,0000*57
[2021-02-22 16:45:34.175] $GPGGA,074533.80,,,,,0,00,0.0,,M,,M,0,0000*58
[2021-02-22 16:45:34.269] $GPGGA,074533.90,,,,,0,00,0.0,,M,,M,0,0000*59
[2021-02-22 16:45:34.363] $GPGGA,074534.00,,,,,0,00,0.0,,M,,M,0,0000*57
[2021-02-22 16:45:34.488] $GPGGA,074534.10,,,,,0,00,0.0,,M,,M,0,0000*56
[2021-02-22 16:45:34.582] $GPGGA,074534.20,,,,,0,00,0.0,,M,,M,0,0000*55
[2021-02-22 16:45:34.675] $GPGGA,074534.30,,,,,0,00,0.0,,M,,M,0,0000*54
[2021-02-22 16:45:34.769] $GPGGA,074534.40,,,,,0,00,0.0,,M,,M,0,0000*53
[2021-02-22 16:45:34.879] $GPGGA,074534.50,,,,,0,00,0.0,,M,,M,0,0000*52
[2021-02-22 16:45:34.972] $GPGGA,074534.60,,,,,0,00,0.0,,M,,M,0,0000*51
[2021-02-22 16:45:35.066] $GPGGA,074534.70,,,,,0,00,0.0,,M,,M,0,0000*50
[2021-02-22 16:45:35.160] $GPGGA,074534.80,,,,,0,00,0.0,,M,,M,0,0000*5F
[2021-02-22 16:45:35.285] $GPGGA,074534.90,,,,,0,00,0.0,,M,,M,0,0000*5E
[2021-02-22 16:45:35.379] $GPGGA,074535.00,,,,,0,00,0.0,,M,,M,0,0000*56
[2021-02-22 16:45:35.472] $GPGGA,074535.10,,,,,0,00,0.0,,M,,M,0,0000*57
[2021-02-22 16:45:35.566] $GPGGA,074535.20,,,,,0,00,0.0,,M,,M,0,0000*54
[2021-02-22 16:45:35.675] $GPGGA,074535.30,,,,,0,00,0.0,,M,,M,0,0000*55
[2021-02-22 16:45:35.769] $GPGGA,074535.40,,,,,0,00,0.0,,M,,M,0,0000*52
[2021-02-22 16:45:35.878] $GPGGA,074535.50,,,,,0,00,0.0,,M,,M,0,0000*53
[2021-02-22 16:45:35.988] $GPGGA,074535.60,,,,,0,00,0.0,,M,,M,0,0000*50
[2021-02-22 16:45:36.082] $GPGGA,074535.70,,,,,0,00,0.0,,M,,M,0,0000*51
[2021-02-22 16:45:36.175] $GPGGA,074535.80,,,,,0,00,0.0,,M,,M,0,0000*5E
[2021-02-22 16:45:36.269] $GPGGA,074535.90,,,,,0,00,0.0,,M,,M,0,0000*5F
[2021-02-22 16:45:36.378] $GPGGA,074536.00,,,,,0,00,0.0,,M,,M,0,0000*55
[2021-02-22 16:45:36.472] $GPGGA,074536.10,,,,,0,00,0.0,,M,,M,0,0000*54
[2021-02-22 16:45:36.582] $GPGGA,074536.20,,,,,0,00,0.0,,M,,M,0,0000*57
[2021-02-22 16:45:36.675] $GPGGA,074536.30,,,,,0,00,0.0,,M,,M,0,0000*56
[2021-02-22 16:45:36.785] $GPGGA,074536.40,,,,,0,00,0.0,,M,,M,0,0000*51
[2021-02-22 16:45:36.878] $GPGGA,074536.50,,,,,0,00,0.0,,M,,M,0,0000*50
[2021-02-22 16:45:36.972] $GPGGA,074536.60,,,,,0,00,0.0,,M,,M,0,0000*53
[2021-02-22 16:45:37.066] $GPGGA,074536.70,,,,,0,00,0.0,,M,,M,0,0000*52
[2021-02-22 16:45:37.175] $GPGGA,074536.80,,,,,0,00,0.0,,M,,M,0,0000*5D
[2021-02-22 16:45:37.285] $GPGGA,074536.90,,,,,0,00,0.0,,M,,M,0,0000*5C
[2021-02-22 16:45:37.378] $GPGGA,074537.00,,,,,0,00,0.0,,M,,M,0,0000*54
[2021-02-22 16:45:37.488] $GPGGA,074537.10,,,,,0,00,0.0,,M,,M,0,0000*55
[2021-02-22 16:45:37.581] $GPGGA,074537.20,,,,,0,00,0.0,,M,,M,0,0000*56
[2021-02-22 16:45:37.675] $GPGGA,074537.30,,,,,0,00,0.0,,M,,M,0,0000*57
[2021-02-22 16:45:37.769] $GPGGA,074537.40,,,,,0,00,0.0,,M,,M,0,0000*50
[2021-02-22 16:45:37.894] $GPGGA,074537.50,,,,,0,00,0.0,,M,,M,0,0000*51
[2021-02-22 16:45:37.988] $GPGGA,074537.60,,,,,0,00,0.0,,M,,M,0,0000*52
[2021-02-22 16:45:38.081] $GPGGA,074537.70,,,,,0,00,0.0,,M,,M,0,0000*53
[2021-02-22 16:45:38.175] $GPGGA,074537.80,,,,,0,00,0.0,,M,,M,0,0000*5C
[2021-02-22 16:45:38.269] $GPGGA,074537.90,,,,,0,00,0.0,,M,,M,0,0000*5D
[2021-02-22 16:45:38.378] $GPGGA,074538.00,,,,,0,00,0.0,,M,,M,0,0000*5B
[2021-02-22 16:45:38.472] $GPGGA,074538.10,,,,,0,00,0.0,,M,,M,0,0000*5A
[2021-02-22 16:45:38.581] $GPGGA,074538.20,,,,,0,00,0.0,,M,,M,0,0000*59
[2021-02-22 16:45:38.675] $GPGGA,074538.30,,,,,0,00,0.0,,M,,M,0,0000*58
[2021-02-22 16:45:38.769] $GPGGA,074538.40,,,,,0,00,0.0,,M,,M,0,0000*5F
[2021-02-22 16:45:38.878] $GPGGA,074538.50,,,,,0,00,0.0,,M,,M,0,0000*5E
[2021-02-22 16:45:38.972] $GPGGA,074538.60,,,,,0,00,0.0,,M,,M,0,0000*5D
[2021-02-22 16:45:39.066] $GPGGA,074538.70,,,,,0,00,0.0,,M,,M,0,0000*5C
[2021-02-22 16:45:39.159] $GPGGA,074538.80,,,,,0,00,0.0,,M,,M,0,0000*53
[2021-02-22 16:45:39.284] $GPGGA,074538.90,,,,,0,00,0.0,,M,,M,0,0000*52
[2021-02-22 16:45:39.378] $GPGGA,074539.00,,,,,0,00,0.0,,M,,M,0,0000*5A
[2021-02-22 16:45:39.472] $GPGGA,074539.10,,,,,0,00,0.0,,M,,M,0,0000*5B
[2021-02-22 16:45:39.581] $GPGGA,074539.20,,,,,0,00,0.0,,M,,M,0,0000*58
[2021-02-22 16:45:39.675] $GPGGA,074539.30,,,,,0,00,0.0,,M,,M,0,0000*59
[2021-02-22 16:45:39.769] $GPGGA,074539.40,,,,,0,00,0.0,,M,,M,0,0000*5E
[2021-02-22 16:45:39.878] $GPGGA,074539.50,,,,,0,00,0.0,,M,,M,0,0000*5F
[2021-02-22 16:45:39.988] $GPGGA,074539.60,,,,,0,00,0.0,,M,,M,0,0000*5C
[2021-02-22 16:45:40.081] $GPGGA,074539.70,,,,,0,00,0.0,,M,,M,0,0000*5D
[2021-02-22 16:45:40.175] $GPGGA,074539.80,,,,,0,00,0.0,,M,,M,0,0000*52
[2021-02-22 16:45:40.269] $GPGGA,074539.90,,,,,0,00,0.0,,M,,M,0,0000*53
[2021-02-22 16:45:40.378] $GPGGA,074540.00,,,,,0,00,0.0,,M,,M,0,0000*54
[2021-02-22 16:45:40.472] $GPGGA,074540.10,,,,,0,00,0.0,,M,,M,0,0000*55
[2021-02-22 16:45:40.581] $GPGGA,074540.20,,,,,0,00,0.0,,M,,M,0,0000*56
[2021-02-22 16:45:40.675] $GPGGA,074540.30,,,,,0,00,0.0,,M,,M,0,0000*57
[2021-02-22 16:45:40.784] $GPGGA,074540.40,,,,,0,00,0.0,,M,,M,0,0000*50
[2021-02-22 16:45:40.878] $GPGGA,074540.50,,,,,0,00,0.0,,M,,M,0,0000*51
[2021-02-22 16:45:40.972] $GPGGA,074540.60,,,,,0,00,0.0,,M,,M,0,0000*52
[2021-02-22 16:45:41.081] $GPGGA,074540.70,,,,,0,00,0.0,,M,,M,0,0000*53
[2021-02-22 16:45:41.175] $GPGGA,074540.80,,,,,0,00,0.0,,M,,M,0,0000*5C
[2021-02-22 16:45:41.284] $GPGGA,074540.90,,,,,0,00,0.0,,M,,M,0,0000*5D
[2021-02-22 16:45:41.378] $GPGGA,074541.00,,,,,0,00,0.0,,M,,M,0,0000*55
[2021-02-22 16:45:41.487] $GPGGA,074541.10,,,,,0,00,0.0,,M,,M,0,0000*54
[2021-02-22 16:45:41.581] $GPGGA,074541.20,,,,,0,00,0.0,,M,,M,0,0000*57
[2021-02-22 16:45:41.675] $GPGGA,074541.30,,,,,0,00,0.0,,M,,M,0,0000*56
[2021-02-22 16:45:41.769] $GPGGA,074541.40,,,,,0,00,0.0,,M,,M,0,0000*51
[2021-02-22 16:45:41.894] $GPGGA,074541.50,,,,,0,00,0.0,,M,,M,0,0000*50
[2021-02-22 16:45:41.987] $GPGGA,074541.60,,,,,0,00,0.0,,M,,M,0,0000*53
[2021-02-22 16:45:42.081] $GPGGA,074541.70,,,,,0,00,0.0,,M,,M,0,0000*52
[2021-02-22 16:45:42.175] $GPGGA,074541.80,,,,,0,00,0.0,,M,,M,0,0000*5D
[2021-02-22 16:45:42.269] $GPGGA,074541.90,,,,,0,00,0.0,,M,,M,0,0000*5C
[2021-02-22 16:45:42.378] $GPGGA,074542.00,,,,,0,00,0.0,,M,,M,0,0000*56
[2021-02-22 16:45:42.472] $GPGGA,074542.10,,,,,0,00,0.0,,M,,M,0,0000*57
[2021-02-22 16:45:42.581] $GPGGA,074542.20,,,,,0,00,0.0,,M,,M,0,0000*54
[2021-02-22 16:45:42.675] $GPGGA,074542.30,,,,,0,00,0.0,,M,,M,0,0000*55
[2021-02-22 16:45:42.784] $GPGGA,074542.40,,,,,0,00,0.0,,M,,M,0,0000*52
[2021-02-22 16:45:42.878] $GPGGA,074542.50,,,,,0,00,0.0,,M,,M,0,0000*53
[2021-02-22 16:45:42.972] $GPGGA,074542.60,,,,,0,00,0.0,,M,,M,0,0000*50
[2021-02-22 16:45:43.065] $GPGGA,074542.70,,,,,0,00,0.0,,M,,M,0,0000*51
[2021-02-22 16:45:43.175] $GPGGA,074542.80,,,,,0,00,0.0,,M,,M,0,0000*5E
[2021-02-22 16:45:43.284] $GPGGA,074542.90,,,,,0,00,0.0,,M,,M,0,0000*5F
[2021-02-22 16:45:43.378] $GPGGA,074543.00,,,,,0,00,0.0,,M,,M,0,0000*57
[2021-02-22 16:45:43.472] $GPGGA,074543.10,,,,,0,00,0.0,,M,,M,0,0000*56
[2021-02-22 16:45:43.581] $GPGGA,074543.20,,,,,0,00,0.0,,M,,M,0,0000*55
[2021-02-22 16:45:43.675] $GPGGA,074543.30,,,,,0,00,0.0,,M,,M,0,0000*54
[2021-02-22 16:45:43.769] $GPGGA,074543.40,,,,,0,00,0.0,,M,,M,0,0000*53
[2021-02-22 16:45:43.862] $GPGGA,074543.50,,,,,0,00,0.0,,M,,M,0,0000*52
[2021-02-22 16:45:43.987] $GPGGA,074543.60,,,,,0,00,0.0,,M,,M,0,0000*51
[2021-02-22 16:45:44.081] $GPGGA,074543.70,,,,,0,00,0.0,,M,,M,0,0000*50
[2021-02-22 16:45:44.175] $GPGGA,074543.80,,,,,0,00,0.0,,M,,M,0,0000*5F
[2021-02-22 16:45:44.269] $GPGGA,074543.90,,,,,0,00,0.0,,M,,M,0,0000*5E
[2021-02-22 16:45:44.378] $GPGGA,074544.00,,,,,0,00,0.0,,M,,M,0,0000*50
[2021-02-22 16:45:44.472] $GPGGA,074544.10,,,,,0,00,0.0,,M,,M,0,0000*51
[2021-02-22 16:45:44.581] $GPGGA,074544.20,,,,,0,00,0.0,,M,,M,0,0000*52
[2021-02-22 16:45:44.690] $GPGGA,074544.30,,,,,0,00,0.0,,M,,M,0,0000*53
[2021-02-22 16:45:44.784] $GPGGA,074544.40,,,,,0,00,0.0,,M,,M,0,0000*54
[2021-02-22 16:45:44.878] $GPGGA,074544.50,,,,,0,00,0.0,,M,,M,0,0000*55
[2021-02-22 16:45:44.972] $GPGGA,074544.60,,,,,0,00,0.0,,M,,M,0,0000*56
[2021-02-22 16:45:45.081] $GPGGA,074544.70,,,,,0,00,0.0,,M,,M,0,0000*57
[2021-02-22 16:45:45.175] $GPGGA,074544.80,,,,,0,00,0.0,,M,,M,0,0000*58
[2021-02-22 16:45:45.284] $GPGGA,074544.90,,,,,0,00,0.0,,M,,M,0,0000*59
[2021-02-22 16:45:45.378] $GPGGA,074545.00,,,,,0,00,0.0,,M,,M,0,0000*51
[2021-02-22 16:45:45.487] $GPGGA,074545.10,,,,,0,00,0.0,,M,,M,0,0000*50
[2021-02-22 16:45:45.581] $GPGGA,074545.20,,,,,0,00,0.0,,M,,M,0,0000*53
[2021-02-22 16:45:45.675] $GPGGA,074545.30,,,,,0,00,0.0,,M,,M,0,0000*52
[2021-02-22 16:45:45.768] $GPGGA,074545.40,,,,,0,00,0.0,,M,,M,0,0000*55
[2021-02-22 16:45:45.878] $GPGGA,074545.50,,,,,0,00,0.0,,M,,M,0,0000*54
[2021-02-22 16:45:45.987] $GPGGA,074545.60,,,,,0,00,0.0,,M,,M,0,0000*57
[2021-02-22 16:45:46.081] $GPGGA,074545.70,,,,,0,00,0.0,,M,,M,0,0000*56
[2021-02-22 16:45:46.175] $GPGGA,074545.80,,,,,0,00,0.0,,M,,M,0,0000*59
[2021-02-22 16:45:46.268] $GPGGA,074545.90,,,,,0,00,0.0,,M,,M,0,0000*58
[2021-02-22 16:45:46.378] $GPGGA,074546.00,,,,,0,00,0.0,,M,,M,0,0000*52
[2021-02-22 16:45:46.471] $GPGGA,074546.10,,,,,0,00,0.0,,M,,M,0,0000*53
[2021-02-22 16:45:46.565] $GPGGA,074546.20,,,,,0,00,0.0,,M,,M,0,0000*50
[2021-02-22 16:45:46.675] $GPGGA,074546.30,,,,,0,00,0.0,,M,,M,0,0000*51
[2021-02-22 16:45:46.784] $GPGGA,074546.40,,,,,0,00,0.0,,M,,M,0,0000*56
[2021-02-22 16:45:46.878] $GPGGA,074546.50,,,,,0,00,0.0,,M,,M,0,0000*57
[2021-02-22 16:45:46.971] $GPGGA,074546.60,,,,,0,00,0.0,,M,,M,0,0000*54
[2021-02-22 16:45:47.065] $GPGGA,074546.70,,,,,0,00,0.0,,M,,M,0,0000*55
[2021-02-22 16:45:47.190] $GPGGA,074546.80,3713.9609477,N,13701.5659427,E,1,06,1.3,89.6032,M,37.55,M,,*58
[2021-02-22 16:45:47.268] $GPGGA,074546.90,3713.9607928,N,13701.5666470,E,1,07,1.3,89.7271,M,37.55,M,,*5B
[2021-02-22 16:45:47.393] $GPGGA,074547.00,3713.9603109,N,13701.5668102,E,1,08,1.3,88.2369,M,37.55,M,,*51
[2021-02-22 16:45:47.471] $GPGGA,074547.10,3713.9601261,N,13701.5667576,E,1,08,1.3,89.9186,M,37.55,M,,*5E
[2021-02-22 16:45:47.596] $GPGGA,074547.20,3713.9601217,N,13701.5663850,E,1,08,1.3,90.2036,M,37.55,M,,*58
[2021-02-22 16:45:47.675] $GPGGA,074547.30,3713.9604114,N,13701.5668068,E,1,08,1.3,90.7041,M,37.55,M,,*51
[2021-02-22 16:45:47.800] $GPGGA,074547.40,3713.9606816,N,13701.5666255,E,1,08,1.3,89.5313,M,37.55,M,,*53
[2021-02-22 16:45:47.878] $GPGGA,074547.50,3713.9608509,N,13701.5666161,E,1,08,1.3,88.5513,M,37.55,M,,*5C
[2021-02-22 16:45:47.987] $GPGGA,074547.60,3713.9605661,N,13701.5666510,E,1,08,1.3,89.2004,M,37.55,M,,*58
[2021-02-22 16:45:48.081] $GPGGA,074547.70,3713.9606399,N,13701.5667608,E,1,08,1.3,89.6348,M,37.55,M,,*5C
[2021-02-22 16:45:48.190] $GPGGA,074547.80,3713.9605494,N,13701.5666209,E,1,08,1.3,90.0107,M,37.55,M,,*59
[2021-02-22 16:45:48.299] $GPGGA,074547.90,3713.9605977,N,13701.5665208,E,1,08,1.3,89.1347,M,37.55,M,,*55
[2021-02-22 16:45:48.378] $GPGGA,074548.00,3713.9606324,N,13701.5666198,E,1,08,1.3,89.3694,M,37.55,M,,*5C
[2021-02-22 16:45:48.503] $GPGGA,074548.10,3713.9605694,N,13701.5667110,E,1,08,1.3,91.0752,M,37.55,M,,*50
[2021-02-22 16:45:48.581] $GPGGA,074548.20,3713.9605878,N,13701.5666291,E,1,08,1.3,89.8479,M,37.55,M,,*5F
[2021-02-22 16:45:48.690] $GPGGA,074548.30,3713.9606253,N,13701.5667239,E,1,08,1.3,89.4437,M,37.55,M,,*5B
[2021-02-22 16:45:48.768] $GPGGA,074548.40,3713.9606135,N,13701.5666894,E,1,08,1.3,89.2872,M,37.55,M,,*58
[2021-02-22 16:45:48.893] $GPGGA,074548.50,3713.9606517,N,13701.5666523,E,1,08,1.3,88.7913,M,37.55,M,,*5E
[2021-02-22 16:45:48.971] $GPGGA,074548.60,3713.9606753,N,13701.5669808,E,1,08,1.3,89.9487,M,37.55,M,,*5B
[2021-02-22 16:45:49.096] $GPGGA,074548.70,3713.9607274,N,13701.5669761,E,1,08,1.3,89.2892,M,37.55,M,,*58
[2021-02-22 16:45:49.174] $GPGGA,074548.80,3713.9607190,N,13701.5668245,E,1,08,1.3,89.3298,M,37.55,M,,*5D
[2021-02-22 16:45:49.299] $GPGGA,074548.90,3713.9607631,N,13701.5669543,E,1,08,1.3,89.3304,M,37.55,M,,*54
[2021-02-22 16:45:49.378] $GPGGA,074549.00,3713.9607309,N,13701.5670163,E,1,08,1.3,89.9888,M,37.55,M,,*59
[2021-02-22 16:45:49.502] $GPGGA,074549.10,3713.9607160,N,13701.5669357,E,1,08,1.3,90.3463,M,37.55,M,,*53
[2021-02-22 16:45:49.581] $GPGGA,074549.20,3713.9607464,N,13701.5669267,E,1,08,1.3,89.8766,M,37.55,M,,*56
[2021-02-22 16:45:49.690] $GPGGA,074549.30,3713.9607850,N,13701.5669387,E,1,08,1.3,89.1313,M,37.55,M,,*5C
[2021-02-22 16:45:49.768] $GPGGA,074549.40,3713.9607708,N,13701.5668681,E,1,08,1.3,88.9679,M,37.55,M,,*5B
[2021-02-22 16:45:49.893] $GPGGA,074549.50,3713.9607075,N,13701.5670641,E,1,08,1.3,90.0410,M,37.55,M,,*5F
[2021-02-22 16:45:50.002] $GPGGA,074549.60,3713.9607449,N,13701.5670059,E,1,08,1.3,88.8802,M,37.55,M,,*56
[2021-02-22 16:45:50.081] $GPGGA,074549.70,3713.9606564,N,13701.5669599,E,1,08,1.3,88.6338,M,37.55,M,,*55
[2021-02-22 16:45:50.190] $GPGGA,074549.80,3713.9605933,N,13701.5669691,E,1,08,1.3,88.9285,M,37.55,M,,*54
[2021-02-22 16:45:50.268] $GPGGA,074549.90,3713.9605638,N,13701.5669378,E,1,08,1.3,89.3722,M,37.55,M,,*50
[2021-02-22 16:45:50.393] $GPGGA,074550.00,3713.9604752,N,13701.5669315,E,1,08,1.3,89.7510,M,37.55,M,,*51
[2021-02-22 16:45:50.471] $GPGGA,074550.10,3713.9604571,N,13701.5669701,E,1,08,1.3,89.8437,M,37.55,M,,*59
[2021-02-22 16:45:50.596] $GPGGA,074550.20,3713.9603921,N,13701.5669406,E,1,09,1.3,89.8784,M,37.55,M,,*5A
[2021-02-22 16:45:50.674] $GPGGA,074550.30,3713.9604124,N,13701.5669140,E,1,09,1.3,89.9455,M,37.55,M,,*58
[2021-02-22 16:45:50.799] $GPGGA,074550.40,3713.9604429,N,13701.5670379,E,1,09,1.3,89.5643,M,37.55,M,,*5E
[2021-02-22 16:45:50.877] $GPGGA,074550.50,3713.9604211,N,13701.5670648,E,1,09,1.3,89.8077,M,37.55,M,,*59
[2021-02-22 16:45:51.002] $GPGGA,074550.60,3713.9604039,N,13701.5670443,E,1,09,1.3,89.8606,M,37.55,M,,*5B
[2021-02-22 16:45:51.081] $GPGGA,074550.70,3713.9603774,N,13701.5670076,E,1,09,1.3,90.1344,M,37.55,M,,*53
[2021-02-22 16:45:51.190] $GPGGA,074550.80,3713.9603562,N,13701.5670115,E,1,09,1.3,89.9135,M,37.55,M,,*59
[2021-02-22 16:45:51.268] $GPGGA,074550.90,3713.9604093,N,13701.5670262,E,1,09,1.3,89.5803,M,37.55,M,,*57
[2021-02-22 16:45:51.393] $GPGGA,074551.00,3713.9604725,N,13701.5670969,E,1,09,1.3,89.5918,M,37.55,M,,*5E
[2021-02-22 16:45:51.471] $GPGGA,074551.10,3713.9605097,N,13701.5671308,E,1,09,1.3,89.4423,M,37.55,M,,*58
[2021-02-22 16:45:51.596] $GPGGA,074551.20,3713.9604578,N,13701.5670781,E,1,09,1.3,89.8199,M,37.55,M,,*52
[2021-02-22 16:45:51.674] $GPGGA,074551.30,3713.9605332,N,13701.5671383,E,1,09,1.3,89.8941,M,37.55,M,,*50
[2021-02-22 16:45:51.799] $GPGGA,074551.40,3713.9605826,N,13701.5670645,E,1,09,1.3,89.9734,M,37.55,M,,*5A
[2021-02-22 16:45:51.893] $GPGGA,074551.50,3713.9606402,N,13701.5671655,E,1,09,1.3,90.0150,M,37.55,M,,*57
[2021-02-22 16:45:51.971] $GPGGA,074551.60,3713.9606742,N,13701.5671143,E,1,09,1.3,90.0908,M,37.55,M,,*56
[2021-02-22 16:45:52.096] $GPGGA,074551.70,3713.9606919,N,13701.5670818,E,1,09,1.3,89.9142,M,37.55,M,,*56
[2021-02-22 16:45:52.174] $GPGGA,074551.80,3713.9607833,N,13701.5671549,E,1,09,1.3,89.7369,M,37.55,M,,*5C
[2021-02-22 16:45:52.299] $GPGGA,074551.90,3713.9608001,N,13701.5671099,E,1,09,1.3,89.3000,M,37.55,M,,*5B
[2021-02-22 16:45:52.377] $GPGGA,074552.00,3713.9608218,N,13701.5671181,E,1,09,1.3,89.1636,M,37.55,M,,*52
[2021-02-22 16:45:52.502] $GPGGA,074552.10,3713.9607767,N,13701.5670996,E,1,09,1.3,89.5893,M,37.55,M,,*5B
[2021-02-22 16:45:52.580] $GPGGA,074552.20,3713.9607763,N,13701.5671031,E,1,09,1.3,89.7572,M,37.55,M,,*59
[2021-02-22 16:45:52.690] $GPGGA,074552.30,3713.9608962,N,13701.5671589,E,1,09,1.3,89.5641,M,37.55,M,,*5F
[2021-02-22 16:45:52.768] $GPGGA,074552.40,3713.9608328,N,13701.5671570,E,1,09,1.3,89.4856,M,37.55,M,,*53
[2021-02-22 16:45:52.893] $GPGGA,074552.50,3713.9608034,N,13701.5671355,E,1,09,1.3,89.5092,M,37.55,M,,*5C
[2021-02-22 16:45:52.971] $GPGGA,074552.60,3713.9607329,N,13701.5672027,E,1,09,1.3,89.6440,M,37.55,M,,*52
[2021-02-22 16:45:53.096] $GPGGA,074552.70,3713.9607445,N,13701.5672137,E,1,09,1.3,89.5005,M,37.55,M,,*58
[2021-02-22 16:45:53.174] $GPGGA,074552.80,3713.9608334,N,13701.5671685,E,1,09,1.3,89.3262,M,37.55,M,,*51
[2021-02-22 16:45:53.299] $GPGGA,074552.90,3713.9607526,N,13701.5671523,E,1,09,1.3,89.6071,M,37.55,M,,*50
[2021-02-22 16:45:53.377] $GPGGA,074553.00,3713.9607189,N,13701.5671648,E,1,09,1.3,89.6118,M,37.55,M,,*59
[2021-02-22 16:45:53.502] $GPGGA,074553.10,3713.9606754,N,13701.5671272,E,1,09,1.3,89.9566,M,37.55,M,,*50
[2021-02-22 16:45:53.596] $GPGGA,074553.20,3713.9607160,N,13701.5671377,E,1,09,1.3,89.8170,M,37.55,M,,*55
[2021-02-22 16:45:53.674] $GPGGA,074553.30,3713.9607351,N,13701.5671162,E,1,09,1.3,89.7512,M,37.55,M,,*5D
[2021-02-22 16:45:53.799] $GPGGA,074553.40,3713.9608418,N,13701.5671476,E,1,09,1.3,89.6583,M,37.55,M,,*56
[2021-02-22 16:45:53.877] $GPGGA,074553.50,3713.9608236,N,13701.5671384,E,1,09,1.3,89.7341,M,37.55,M,,*5E
[2021-02-22 16:45:54.002] $GPGGA,074553.60,3713.9608029,N,13701.5671415,E,1,09,1.3,89.6444,M,37.55,M,,*5D
[2021-02-22 16:45:54.080] $GPGGA,074553.70,3713.9606902,N,13701.5671816,E,1,09,1.3,89.9107,M,37.55,M,,*50
[2021-02-22 16:45:54.190] $GPGGA,074553.80,3713.9606644,N,13701.5672322,E,1,09,1.3,89.6494,M,37.55,M,,*5D
[2021-02-22 16:45:54.283] $GPGGA,074553.90,3713.9606598,N,13701.5672359,E,1,09,1.3,89.6499,M,37.55,M,,*5F
[2021-02-22 16:45:54.393] $GPGGA,074554.00,3713.9606997,N,13701.5672095,E,1,09,1.3,89.6687,M,37.55,M,,*5C
[2021-02-22 16:45:54.471] $GPGGA,074554.10,3713.9607161,N,13701.5671466,E,1,09,1.3,89.6432,M,37.55,M,,*5A
[2021-02-22 16:45:54.596] $GPGGA,074554.20,3713.9606908,N,13701.5671133,E,1,09,1.3,89.5028,M,37.55,M,,*56
[2021-02-22 16:45:54.674] $GPGGA,074554.30,3713.9607308,N,13701.5670879,E,1,09,1.3,89.5908,M,37.55,M,,*51
[2021-02-22 16:45:54.799] $GPGGA,074554.40,3713.9606896,N,13701.5670780,E,1,09,1.3,89.5026,M,37.55,M,,*57
[2021-02-22 16:45:54.877] $GPGGA,074554.50,3713.9607904,N,13701.5671864,E,1,09,1.3,89.1384,M,37.55,M,,*56
[2021-02-22 16:45:54.987] $GPGGA,074554.60,3713.9607753,N,13701.5672587,E,1,09,1.3,88.6613,M,37.55,M,,*57
[2021-02-22 16:45:55.080] $GPGGA,074554.70,3713.9608476,N,13701.5672418,E,1,09,1.3,88.5872,M,37.55,M,,*50
[2021-02-22 16:45:55.190] $GPGGA,074554.80,3713.9608354,N,13701.5672048,E,1,09,1.3,88.6069,M,37.55,M,,*58
[2021-02-22 16:45:55.268] $GPGGA,074554.90,3713.9609046,N,13701.5672822,E,1,09,1.3,88.2622,M,37.55,M,,*51
[2021-02-22 16:45:55.393] $GPGGA,074555.00,3713.9609312,N,13701.5672827,E,1,09,1.3,88.6925,M,37.55,M,,*52
[2021-02-22 16:45:55.502] $GPGGA,074555.10,3713.9609197,N,13701.5672544,E,1,09,1.3,88.6402,M,37.55,M,,*5C
[2021-02-22 16:45:55.580] $GPGGA,074555.20,3713.9608909,N,13701.5672148,E,1,09,1.3,88.7924,M,37.55,M,,*51
[2021-02-22 16:45:55.690] $GPGGA,074555.30,3713.9608507,N,13701.5672155,E,1,09,1.3,88.8796,M,37.55,M,,*56
[2021-02-22 16:45:55.783] $GPGGA,074555.40,3713.9607892,N,13701.5671676,E,1,10,1.3,88.7928,M,37.55,M,,*56
[2021-02-22 16:45:55.893] $GPGGA,074555.50,3713.9607873,N,13701.5671307,E,1,10,1.3,88.8928,M,37.55,M,,*54
[2021-02-22 16:45:55.971] $GPGGA,074555.60,3713.9608029,N,13701.5672631,E,1,10,1.3,88.7613,M,37.55,M,,*54
[2021-02-22 16:45:56.096] $GPGGA,074555.70,3713.9607545,N,13701.5672444,E,1,10,1.3,88.7935,M,37.55,M,,*5E
[2021-02-22 16:45:56.174] $GPGGA,074555.80,3713.9607226,N,13701.5672287,E,1,10,1.3,88.7924,M,37.55,M,,*5A
[2021-02-22 16:45:56.299] $GPGGA,074555.90,3713.9606973,N,13701.5672144,E,1,10,1.3,88.8765,M,37.55,M,,*59
[2021-02-22 16:45:56.377] $GPGGA,074556.00,3713.9605734,N,13701.5672640,E,1,10,1.3,89.1636,M,37.55,M,,*51
[2021-02-22 16:45:56.502] $GPGGA,074556.10,3713.9606357,N,13701.5671986,E,1,10,1.3,89.2459,M,37.55,M,,*5C
[2021-02-22 16:45:56.580] $GPGGA,074556.20,3713.9605486,N,13701.5671439,E,1,11,1.1,89.5240,M,37.55,M,,*54
[2021-02-22 16:45:56.690] $GPGGA,074556.30,3713.9605505,N,13701.5671199,E,1,11,1.1,89.4295,M,37.55,M,,*59
[2021-02-22 16:45:56.783] $GPGGA,074556.40,3713.9604721,N,13701.5670984,E,1,11,1.1,89.5470,M,37.55,M,,*52
[2021-02-22 16:45:56.893] $GPGGA,074556.50,3713.9604471,N,13701.5671058,E,1,11,1.1,89.4477,M,37.55,M,,*5A
[2021-02-22 16:45:56.971] $GPGGA,074556.60,3713.9604446,N,13701.5671122,E,1,11,1.1,89.1497,M,37.55,M,,*5A
[2021-02-22 16:45:57.096] $GPGGA,074556.70,3713.9604233,N,13701.5670362,E,1,11,1.1,89.1912,M,37.55,M,,*58
[2021-02-22 16:45:57.205] $GPGGA,074556.80,3713.9604594,N,13701.5670465,E,1,11,1.1,89.4136,M,37.55,M,,*56
[2021-02-22 16:45:57.283] $GPGGA,074556.90,3713.9604756,N,13701.5670481,E,1,11,1.1,89.1424,M,37.55,M,,*52
[2021-02-22 16:45:57.393] $GPGGA,074557.00,3713.9604904,N,13701.5670207,E,1,11,1.1,89.2453,M,37.55,M,,*58
[2021-02-22 16:45:57.471] $GPGGA,074557.10,3713.9605439,N,13701.5670118,E,1,11,1.1,88.9067,M,37.55,M,,*5F
[2021-02-22 16:45:57.596] $GPGGA,074557.20,3713.9605991,N,13701.5670351,E,1,11,1.1,89.0143,M,37.55,M,,*53
[2021-02-22 16:45:57.674] $GPGGA,074557.30,3713.9606258,N,13701.5671119,E,1,11,1.1,88.9835,M,37.55,M,,*50
[2021-02-22 16:45:57.799] $GPGGA,074557.40,3713.9606732,N,13701.5670644,E,1,11,1.1,89.0628,M,37.55,M,,*5A
[2021-02-22 16:45:57.877] $GPGGA,074557.50,3713.9606863,N,13701.5670584,E,1,11,1.1,89.3993,M,37.55,M,,*53
[2021-02-22 16:45:58.002] $GPGGA,074557.60,3713.9607217,N,13701.5669898,E,1,11,1.1,89.2992,M,37.55,M,,*50
[2021-02-22 16:45:58.080] $GPGGA,074557.70,3713.9606665,N,13701.5669023,E,1,11,1.1,89.7181,M,37.55,M,,*56
[2021-02-22 16:45:58.189] $GPGGA,074557.80,3713.9606747,N,13701.5669500,E,1,11,1.1,89.5871,M,37.55,M,,*58
[2021-02-22 16:45:58.283] $GPGGA,074557.90,3713.9605980,N,13701.5669093,E,1,11,1.1,89.5965,M,37.55,M,,*54
[2021-02-22 16:45:58.393] $GPGGA,074558.00,3713.9606356,N,13701.5669586,E,1,11,1.1,89.5194,M,37.55,M,,*57
[2021-02-22 16:45:58.471] $GPGGA,074558.10,3713.9605452,N,13701.5670000,E,1,11,1.1,89.5292,M,37.55,M,,*50
[2021-02-22 16:45:58.596] $GPGGA,074558.20,3713.9604567,N,13701.5669905,E,1,11,1.1,89.6725,M,37.55,M,,*5B
[2021-02-22 16:45:58.674] $GPGGA,074558.30,3713.9604387,N,13701.5670894,E,1,12,1.1,89.4982,M,37.55,M,,*51
[2021-02-22 16:45:58.799] $GPGGA,074558.40,3713.9605264,N,13701.5670757,E,1,12,1.1,89.2888,M,37.55,M,,*56
[2021-02-22 16:45:58.893] $GPGGA,074558.50,3713.9605092,N,13701.5670762,E,1,12,1.1,89.4143,M,37.55,M,,*52
[2021-02-22 16:45:58.971] $GPGGA,074558.60,3713.9602197,N,13701.5669647,E,1,13,1.0,90.4548,M,37.55,M,,*5B
[2021-02-22 16:45:59.096] $GPGGA,074558.70,3713.9602419,N,13701.5669355,E,1,13,1.0,90.6316,M,37.55,M,,*50
[2021-02-22 16:45:59.174] $GPGGA,074558.80,3713.9601789,N,13701.5669286,E,1,13,1.0,90.7667,M,37.55,M,,*5B
[2021-02-22 16:45:59.299] $GPGGA,074558.90,3713.9602333,N,13701.5669870,E,1,13,1.0,90.4448,M,37.55,M,,*53
[2021-02-22 16:45:59.377] $GPGGA,074559.00,3713.9602999,N,13701.5669291,E,1,13,1.0,90.5061,M,37.55,M,,*5A
[2021-02-22 16:45:59.502] $GPGGA,074559.10,3713.9603409,N,13701.5669051,E,1,13,1.0,90.5766,M,37.55,M,,*50
[2021-02-22 16:45:59.580] $GPGGA,074559.20,3713.9603427,N,13701.5669132,E,1,13,1.0,90.3298,M,37.55,M,,*59
[2021-02-22 16:45:59.689] $GPGGA,074559.30,3713.9603115,N,13701.5668911,E,1,13,1.0,90.4358,M,37.55,M,,*5E
[2021-02-22 16:45:59.783] $GPGGA,074559.40,3713.9602136,N,13701.5668768,E,1,13,1.0,90.3500,M,37.55,M,,*55
[2021-02-22 16:45:59.892] $GPGGA,074559.50,3713.9602564,N,13701.5668647,E,1,13,1.0,90.2858,M,37.55,M,,*5A
[2021-02-22 16:45:59.971] $GPGGA,074559.60,3713.9603218,N,13701.5668286,E,1,13,1.0,90.3733,M,37.55,M,,*5E
[2021-02-22 16:46:00.096] $GPGGA,074559.70,3713.9603650,N,13701.5668457,E,1,13,1.0,90.2871,M,37.55,M,,*55
[2021-02-22 16:46:00.174] $GPGGA,074559.80,3713.9603333,N,13701.5668933,E,1,13,1.0,90.2624,M,37.55,M,,*5B
[2021-02-22 16:46:00.299] $GPGGA,074559.90,3713.9603146,N,13701.5669410,E,1,13,1.0,90.5948,M,37.55,M,,*55
[2021-02-22 16:46:00.377] $GPGGA,074600.00,3713.9608702,N,13701.5666947,E,1,14,1.0,87.3786,M,37.55,M,,*55
[2021-02-22 16:46:00.502] $GPGGA,074600.10,3713.9608723,N,13701.5667086,E,1,14,1.0,87.4397,M,37.55,M,,*51
[2021-02-22 16:46:00.580] $GPGGA,074600.20,3713.9609126,N,13701.5667507,E,1,14,1.0,87.2804,M,37.55,M,,*5B
[2021-02-22 16:46:00.689] $GPGGA,074600.30,3713.9609606,N,13701.5668119,E,1,14,1.0,87.1952,M,37.55,M,,*5A
[2021-02-22 16:46:00.799] $GPGGA,074600.40,3713.9609717,N,13701.5668114,E,1,14,1.0,87.0085,M,37.55,M,,*53
[2021-02-22 16:46:00.877] $GPGGA,074600.50,3713.9609872,N,13701.5668218,E,1,14,1.0,86.9945,M,37.55,M,,*5C
[2021-02-22 16:46:01.002] $GPGGA,074600.60,3713.9608903,N,13701.5667557,E,1,14,1.0,86.9429,M,37.55,M,,*5D
[2021-02-22 16:46:01.080] $GPGGA,074600.70,3713.9609161,N,13701.5667270,E,1,14,1.0,86.7101,M,37.55,M,,*52
[2021-02-22 16:46:01.205] $GPGGA,074600.80,3713.9609171,N,13701.5667383,E,1,14,1.0,86.5722,M,37.55,M,,*54
[2021-02-22 16:46:01.283] $GPGGA,074600.90,3713.9608921,N,13701.5667408,E,1,14,1.0,86.6236,M,37.55,M,,*5E
[2021-02-22 16:46:01.392] $GPGGA,074601.00,3713.9609095,N,13701.5667583,E,1,14,1.0,86.7198,M,37.55,M,,*55
[2021-02-22 16:46:01.470] $GPGGA,074601.10,3713.9609619,N,13701.5667550,E,1,14,1.0,86.6631,M,37.55,M,,*5D
[2021-02-22 16:46:01.595] $GPGGA,074601.20,3713.9609321,N,13701.5667307,E,1,14,1.0,86.7841,M,37.55,M,,*5C
[2021-02-22 16:46:01.674] $GPGGA,074601.30,3713.9609785,N,13701.5667393,E,1,14,1.0,86.7114,M,37.55,M,,*53
[2021-02-22 16:46:01.799] $GPGGA,074601.40,3713.9609610,N,13701.5667167,E,1,14,1.0,86.9294,M,37.55,M,,*55
[2021-02-22 16:46:01.877] $GPGGA,074601.50,3713.9609589,N,13701.5668024,E,1,14,1.0,86.9942,M,37.55,M,,*5E
[2021-02-22 16:46:02.002] $GPGGA,074601.60,3713.9609810,N,13701.5667678,E,1,14,1.0,87.1123,M,37.55,M,,*56
[2021-02-22 16:46:02.080] $GPGGA,074601.70,3713.9609857,N,13701.5667575,E,1,14,1.0,87.0717,M,37.55,M,,*5A
[2021-02-22 16:46:02.189] $GPGGA,074601.80,3713.9609638,N,13701.5667133,E,1,14,1.0,87.1054,M,37.55,M,,*55
[2021-02-22 16:46:02.283] $GPGGA,074601.90,3713.9609401,N,13701.5667829,E,1,14,1.0,87.1031,M,37.55,M,,*5D
[2021-02-22 16:46:02.392] $GPGGA,074602.00,3713.9609878,N,13701.5667669,E,1,14,1.0,87.1380,M,37.55,M,,*56
[2021-02-22 16:46:02.502] $GPGGA,074602.10,3713.9610220,N,13701.5667266,E,1,14,1.0,87.1432,M,37.55,M,,*5D
[2021-02-22 16:46:02.580] $GPGGA,074602.20,3713.9610767,N,13701.5666623,E,1,14,1.0,86.9684,M,37.55,M,,*5A
[2021-02-22 16:46:02.705] $GPGGA,074602.30,3713.9610230,N,13701.5666855,E,1,14,1.0,86.8273,M,37.55,M,,*5E
[2021-02-22 16:46:02.783] $GPGGA,074602.40,3713.9610193,N,13701.5666913,E,1,14,1.0,86.8870,M,37.55,M,,*59
[2021-02-22 16:46:02.892] $GPGGA,074602.50,3713.9610357,N,13701.5666327,E,1,14,1.0,87.0027,M,37.55,M,,*5C
[2021-02-22 16:46:02.970] $GPGGA,074602.60,3713.9609827,N,13701.5666482,E,1,14,1.0,86.9228,M,37.55,M,,*56
[2021-02-22 16:46:03.095] $GPGGA,074602.70,3713.9609293,N,13701.5666886,E,1,14,1.0,86.9045,M,37.55,M,,*53
[2021-02-22 16:46:03.173] $GPGGA,074602.80,3713.9609613,N,13701.5667273,E,1,14,1.0,87.0379,M,37.55,M,,*55
[2021-02-22 16:46:03.298] $GPGGA,074602.90,3713.9609919,N,13701.5667254,E,1,14,1.0,86.9620,M,37.55,M,,*55
[2021-02-22 16:46:03.377] $GPGGA,074603.00,3713.9609851,N,13701.5667348,E,1,14,1.0,86.9030,M,37.55,M,,*5B
[2021-02-22 16:46:03.502] $GPGGA,074603.10,3713.9609839,N,13701.5666325,E,1,14,1.0,86.7966,M,37.55,M,,*5A
[2021-02-22 16:46:03.580] $GPGGA,074603.20,3713.9609410,N,13701.5666583,E,1,14,1.0,86.7737,M,37.55,M,,*5E
[2021-02-22 16:46:03.705] $GPGGA,074603.30,3713.9610127,N,13701.5666269,E,1,14,1.0,86.9030,M,37.55,M,,*5B
[2021-02-22 16:46:03.783] $GPGGA,074603.40,3713.9609921,N,13701.5667002,E,1,14,1.0,86.9245,M,37.55,M,,*54
[2021-02-22 16:46:03.892] $GPGGA,074603.50,3713.9609220,N,13701.5666812,E,1,14,1.0,87.2442,M,37.55,M,,*5C
[2021-02-22 16:46:03.970] $GPGGA,074603.60,3713.9609135,N,13701.5666905,E,1,14,1.0,87.2289,M,37.55,M,,*5E
[2021-02-22 16:46:04.095] $GPGGA,074603.70,3713.9609254,N,13701.5668277,E,1,14,1.0,87.3759,M,37.55,M,,*52
[2021-02-22 16:46:04.173] $GPGGA,074603.80,3713.9609114,N,13701.5668741,E,1,14,1.0,87.2736,M,37.55,M,,*52
[2021-02-22 16:46:04.298] $GPGGA,074603.90,3713.9609490,N,13701.5668692,E,1,14,1.0,87.4047,M,37.55,M,,*52
[2021-02-22 16:46:04.392] $GPGGA,074604.00,3713.9609710,N,13701.5667971,E,1,14,1.0,87.2246,M,37.55,M,,*5F
[2021-02-22 16:46:04.486] $GPGGA,074604.10,3713.9609468,N,13701.5667691,E,1,14,1.0,87.1452,M,37.55,M,,*53
[2021-02-22 16:46:04.595] $GPGGA,074604.20,3713.9609545,N,13701.5667539,E,1,14,1.0,87.3092,M,37.55,M,,*55
[2021-02-22 16:46:04.673] $GPGGA,074604.30,3713.9609828,N,13701.5667723,E,1,14,1.0,87.3074,M,37.55,M,,*53
[2021-02-22 16:46:04.798] $GPGGA,074604.40,3713.9610244,N,13701.5667444,E,1,14,1.0,87.4097,M,37.55,M,,*54
[2021-02-22 16:46:04.876] $GPGGA,074604.50,3713.9610249,N,13701.5667097,E,1,14,1.0,87.4791,M,37.55,M,,*53
[2021-02-22 16:46:05.001] $GPGGA,074604.60,3713.9610596,N,13701.5666847,E,1,14,1.0,87.6082,M,37.55,M,,*56
[2021-02-22 16:46:05.080] $GPGGA,074604.70,3713.9610559,N,13701.5667162,E,1,14,1.0,87.6744,M,37.55,M,,*56
[2021-02-22 16:46:05.205] $GPGGA,074604.80,3713.9610855,N,13701.5666924,E,1,14,1.0,87.7003,M,37.55,M,,*56
[2021-02-22 16:46:05.283] $GPGGA,074604.90,3713.9610996,N,13701.5666254,E,1,14,1.0,87.7660,M,37.55,M,,*56
[2021-02-22 16:46:05.392] $GPGGA,074605.00,3713.9611731,N,13701.5665999,E,1,14,1.0,87.9465,M,37.55,M,,*5C
[2021-02-22 16:46:05.470] $GPGGA,074605.10,3713.9612030,N,13701.5666278,E,1,14,1.0,87.8646,M,37.55,M,,*5D
[2021-02-22 16:46:05.595] $GPGGA,074605.20,3713.9612679,N,13701.5666250,E,1,14,1.0,87.8286,M,37.55,M,,*57
[2021-02-22 16:46:05.673] $GPGGA,074605.30,3713.9613123,N,13701.5666119,E,1,14,1.0,87.5339,M,37.55,M,,*59
[2021-02-22 16:46:05.798] $GPGGA,074605.40,3713.9612874,N,13701.5665573,E,1,14,1.0,87.4962,M,37.55,M,,*5A
[2021-02-22 16:46:05.876] $GPGGA,074605.50,3713.9611927,N,13701.5665856,E,1,14,1.0,87.4120,M,37.55,M,,*5B
[2021-02-22 16:46:06.001] $GPGGA,074605.60,3713.9611572,N,13701.5666077,E,1,14,1.0,87.5639,M,37.55,M,,*52
[2021-02-22 16:46:06.095] $GPGGA,074605.70,3713.9612045,N,13701.5666613,E,1,14,1.0,87.2259,M,37.55,M,,*50
[2021-02-22 16:46:06.173] $GPGGA,074605.80,3713.9612080,N,13701.5666746,E,1,14,1.0,86.9244,M,37.55,M,,*51
[2021-02-22 16:46:06.298] $GPGGA,074605.90,3713.9611925,N,13701.5667266,E,1,14,1.0,86.9201,M,37.55,M,,*52
[2021-02-22 16:46:06.376] $GPGGA,074606.00,3713.9611892,N,13701.5668192,E,1,14,1.0,87.0614,M,37.55,M,,*5A
[2021-02-22 16:46:06.501] $GPGGA,074606.10,3713.9611809,N,13701.5668285,E,1,14,1.0,87.0143,M,37.55,M,,*59
[2021-02-22 16:46:06.579] $GPGGA,074606.20,3713.9611564,N,13701.5668982,E,1,14,1.0,87.0237,M,37.55,M,,*50
[2021-02-22 16:46:06.704] $GPGGA,074606.30,3713.9611147,N,13701.5669123,E,1,14,1.0,86.9801,M,37.55,M,,*51
[2021-02-22 16:46:06.783] $GPGGA,074606.40,3713.9611141,N,13701.5669740,E,1,14,1.0,86.7278,M,37.55,M,,*59
[2021-02-22 16:46:06.892] $GPGGA,074606.50,3713.9610908,N,13701.5668817,E,1,14,1.0,87.0355,M,37.55,M,,*58
[2021-02-22 16:46:06.970] $GPGGA,074606.60,3713.9611310,N,13701.5668923,E,1,14,1.0,86.8284,M,37.55,M,,*5B
[2021-02-22 16:46:07.095] $GPGGA,074606.70,3713.9611223,N,13701.5668667,E,1,14,1.0,86.7345,M,37.55,M,,*57
[2021-02-22 16:46:07.173] $GPGGA,074606.80,3713.9610930,N,13701.5668365,E,1,14,1.0,86.6112,M,37.55,M,,*56
[2021-02-22 16:46:07.298] $GPGGA,074606.90,3713.9610852,N,13701.5668032,E,1,14,1.0,86.7519,M,37.55,M,,*5D
[2021-02-22 16:46:07.376] $GPGGA,074607.00,3713.9610988,N,13701.5668042,E,1,14,1.0,86.7446,M,37.55,M,,*5F
[2021-02-22 16:46:07.501] $GPGGA,074607.10,3713.9611079,N,13701.5668100,E,1,14,1.0,86.7493,M,37.55,M,,*57
[2021-02-22 16:46:07.579] $GPGGA,074607.20,3713.9611247,N,13701.5668297,E,1,14,1.0,86.8674,M,37.55,M,,*52
[2021-02-22 16:46:07.689] $GPGGA,074607.30,3713.9610937,N,13701.5667789,E,1,14,1.0,86.8263,M,37.55,M,,*59
[2021-02-22 16:46:07.782] $GPGGA,074607.40,3713.9610815,N,13701.5667429,E,1,14,1.0,86.9549,M,37.55,M,,*58
[2021-02-22 16:46:07.892] $GPGGA,074607.50,3713.9611134,N,13701.5667300,E,1,14,1.0,86.8929,M,37.55,M,,*55
[2021-02-22 16:46:08.001] $GPGGA,074607.60,3713.9610826,N,13701.5667244,E,1,14,1.0,86.8795,M,37.55,M,,*55
[2021-02-22 16:46:08.079] $GPGGA,074607.70,3713.9611073,N,13701.5667116,E,1,14,1.0,86.8750,M,37.55,M,,*50
[2021-02-22 16:46:08.204] $GPGGA,074607.80,3713.9610853,N,13701.5667101,E,1,14,1.0,87.0149,M,37.55,M,,*55
[2021-02-22 16:46:08.282] $GPGGA,074607.90,3713.9610446,N,13701.5667100,E,1,14,1.0,86.9530,M,37.55,M,,*5F
[2021-02-22 16:46:08.392] $GPGGA,074608.00,3713.9610850,N,13701.5666915,E,1,14,1.0,87.0383,M,37.55,M,,*59
[2021-02-22 16:46:08.470] $GPGGA,074608.10,3713.9610132,N,13701.5666608,E,1,14,1.0,87.1732,M,37.55,M,,*59
[2021-02-22 16:46:08.595] $GPGGA,074608.20,3713.9609391,N,13701.5665440,E,1,14,1.0,87.4025,M,37.55,M,,*50
[2021-02-22 16:46:08.673] $GPGGA,074608.30,3713.9609859,N,13701.5665050,E,1,14,1.0,87.6077,M,37.55,M,,*5E
[2021-02-22 16:46:08.798] $GPGGA,074608.40,3713.9609840,N,13701.5665135,E,1,14,1.0,87.5605,M,37.55,M,,*53
[2021-02-22 16:46:08.876] $GPGGA,074608.50,3713.9609881,N,13701.5665187,E,1,14,1.0,87.5116,M,37.55,M,,*53
[2021-02-22 16:46:09.001] $GPGGA,074608.60,3713.9610519,N,13701.5665092,E,1,14,1.0,87.3707,M,37.55,M,,*51
[2021-02-22 16:46:09.079] $GPGGA,074608.70,3713.9610730,N,13701.5666038,E,1,14,1.0,87.1678,M,37.55,M,,*51
[2021-02-22 16:46:09.204] $GPGGA,074608.80,3713.9609923,N,13701.5665426,E,1,14,1.0,86.8738,M,37.55,M,,*5F
[2021-02-22 16:46:09.282] $GPGGA,074608.90,3713.9608639,N,13701.5665246,E,1,14,1.0,86.6754,M,37.55,M,,*5F
[2021-02-22 16:46:09.392] $GPGGA,074609.00,3713.9608234,N,13701.5664974,E,1,14,1.0,86.6791,M,37.55,M,,*5C
[2021-02-22 16:46:09.470] $GPGGA,074609.10,3713.9608064,N,13701.5665166,E,1,14,1.0,86.9799,M,37.55,M,,*57
[2021-02-22 16:46:09.595] $GPGGA,074609.20,3713.9608022,N,13701.5665167,E,1,14,1.0,86.9409,M,37.55,M,,*5D
[2021-02-22 16:46:09.704] $GPGGA,074609.30,3713.9607440,N,13701.5665202,E,1,14,1.0,86.7818,M,37.55,M,,*51
[2021-02-22 16:46:09.782] $GPGGA,074609.40,3713.9607911,N,13701.5665730,E,1,14,1.0,86.8814,M,37.55,M,,*58
[2021-02-22 16:46:09.892] $GPGGA,074609.50,3713.9607611,N,13701.5666360,E,1,14,1.0,86.6542,M,37.55,M,,*54
[2021-02-22 16:46:09.985] $GPGGA,074609.60,3713.9607770,N,13701.5666474,E,1,14,1.0,86.8176,M,37.55,M,,*5E
[2021-02-22 16:46:10.095] $GPGGA,074609.70,3713.9608033,N,13701.5666254,E,1,14,1.0,86.7112,M,37.55,M,,*59
[2021-02-22 16:46:10.173] $GPGGA,074609.80,3713.9608337,N,13701.5665742,E,1,14,1.0,86.7172,M,37.55,M,,*56
[2021-02-22 16:46:10.298] $GPGGA,074609.90,3713.9609003,N,13701.5666112,E,1,14,1.0,86.6184,M,37.55,M,,*5A
[2021-02-22 16:46:10.376] $GPGGA,074610.00,3713.9608650,N,13701.5666543,E,1,14,1.0,86.3877,M,37.55,M,,*5A
[2021-02-22 16:46:10.501] $GPGGA,074610.10,3713.9608136,N,13701.5666321,E,1,14,1.0,86.3134,M,37.55,M,,*50
[2021-02-22 16:46:10.579] $GPGGA,074610.20,3713.9607674,N,13701.5666012,E,1,14,1.0,86.2624,M,37.55,M,,*59
[2021-02-22 16:46:10.704] $GPGGA,074610.30,3713.9607553,N,13701.5666098,E,1,14,1.0,86.5452,M,37.55,M,,*58
[2021-02-22 16:46:10.782] $GPGGA,074610.40,3713.9606679,N,13701.5665516,E,1,14,1.0,86.7275,M,37.55,M,,*54
[2021-02-22 16:46:10.892] $GPGGA,074610.50,3713.9606790,N,13701.5665468,E,1,14,1.0,86.6266,M,37.55,M,,*58
[2021-02-22 16:46:10.970] $GPGGA,074610.60,3713.9607069,N,13701.5666029,E,1,14,1.0,86.7242,M,37.55,M,,*5E
[2021-02-22 16:46:11.095] $GPGGA,074610.70,3713.9607613,N,13701.5666216,E,1,14,1.0,86.7874,M,37.55,M,,*55
[2021-02-22 16:46:11.173] $GPGGA,074610.80,3713.9608054,N,13701.5666704,E,1,14,1.0,86.5930,M,37.55,M,,*55
[2021-02-22 16:46:11.298] $GPGGA,074610.90,3713.9608231,N,13701.5666625,E,1,14,1.0,86.4184,M,37.55,M,,*51
[2021-02-22 16:46:11.376] $GPGGA,074611.00,3713.9607991,N,13701.5665544,E,1,14,1.0,86.8026,M,37.55,M,,*55
[2021-02-22 16:46:11.501] $GPGGA,074611.10,3713.9607828,N,13701.5665171,E,1,14,1.0,86.9856,M,37.55,M,,*5B
[2021-02-22 16:46:11.595] $GPGGA,074611.20,3713.9607603,N,13701.5664915,E,1,14,1.0,87.0423,M,37.55,M,,*52
[2021-02-22 16:46:11.673] $GPGGA,074611.30,3713.9607693,N,13701.5665563,E,1,14,1.0,87.0528,M,37.55,M,,*5C
[2021-02-22 16:46:11.798] $GPGGA,074611.40,3713.9607842,N,13701.5664991,E,1,14,1.0,87.0547,M,37.55,M,,*50
[2021-02-22 16:46:11.876] $GPGGA,074611.50,3713.9607903,N,13701.5665055,E,1,14,1.0,87.1725,M,37.55,M,,*52
[2021-02-22 16:46:12.001] $GPGGA,074611.60,3713.9607881,N,13701.5665711,E,1,14,1.0,87.1823,M,37.55,M,,*54
[2021-02-22 16:46:12.079] $GPGGA,074611.70,3713.9608531,N,13701.5666701,E,1,14,1.0,87.2014,M,37.55,M,,*51
[2021-02-22 16:46:12.204] $GPGGA,074611.80,3713.9608460,N,13701.5666272,E,1,14,1.0,87.1524,M,37.55,M,,*5F
[2021-02-22 16:46:12.282] $GPGGA,074611.90,3713.9608366,N,13701.5665489,E,1,14,1.0,87.2034,M,37.55,M,,*59
[2021-02-22 16:46:12.392] $GPGGA,074612.00,3713.9608391,N,13701.5665520,E,1,14,1.0,86.9279,M,37.55,M,,*58
[2021-02-22 16:46:12.470] $GPGGA,074612.10,3713.9607661,N,13701.5666312,E,1,14,1.0,86.4662,M,37.55,M,,*5B
[2021-02-22 16:46:12.595] $GPGGA,074612.20,3713.9607211,N,13701.5665927,E,1,14,1.0,86.4103,M,37.55,M,,*54
[2021-02-22 16:46:12.673] $GPGGA,074612.30,3713.9607107,N,13701.5666495,E,1,14,1.0,86.1384,M,37.55,M,,*5E
[2021-02-22 16:46:12.798] $GPGGA,074612.40,3713.9607443,N,13701.5666631,E,1,14,1.0,86.1387,M,37.55,M,,*53
[2021-02-22 16:46:12.876] $GPGGA,074612.50,3713.9607500,N,13701.5666663,E,1,14,1.0,85.9626,M,37.55,M,,*56
[2021-02-22 16:46:13.001] $GPGGA,074612.60,3713.9607371,N,13701.5666757,E,1,14,1.0,85.8751,M,37.55,M,,*53
[2021-02-22 16:46:13.079] $GPGGA,074612.70,3713.9607878,N,13701.5666190,E,1,14,1.0,86.0942,M,37.55,M,,*5A
[2021-02-22 16:46:13.188] $GPGGA,074612.80,3713.9607282,N,13701.5665593,E,1,14,1.0,85.9922,M,37.55,M,,*52
[2021-02-22 16:46:13.298] $GPGGA,074612.90,3713.9607799,N,13701.5666263,E,1,14,1.0,86.1049,M,37.55,M,,*58
[2021-02-22 16:46:13.376] $GPGGA,074613.00,3713.9607938,N,13701.5666227,E,1,14,1.0,86.2209,M,37.55,M,,*50
[2021-02-22 16:46:13.501] $GPGGA,074613.10,3713.9607527,N,13701.5666068,E,1,14,1.0,85.9290,M,37.55,M,,*52
[2021-02-22 16:46:13.579] $GPGGA,074613.20,3713.9607728,N,13701.5666529,E,1,14,1.0,85.6301,M,37.55,M,,*5A
[2021-02-22 16:46:13.704] $GPGGA,074613.30,3713.9606874,N,13701.5665899,E,1,14,1.0,85.7106,M,37.55,M,,*5D
[2021-02-22 16:46:13.782] $GPGGA,074613.40,3713.9606654,N,13701.5665849,E,1,14,1.0,85.7645,M,37.55,M,,*5B
[2021-02-22 16:46:13.891] $GPGGA,074613.50,3713.9606591,N,13701.5665435,E,1,14,1.0,85.5527,M,37.55,M,,*52
[2021-02-22 16:46:13.970] $GPGGA,074613.60,3713.9606185,N,13701.5665464,E,1,14,1.0,85.5040,M,37.55,M,,*50
[2021-02-22 16:46:14.095] $GPGGA,074613.70,3713.9606073,N,13701.5665650,E,1,14,1.0,85.4418,M,37.55,M,,*54
[2021-02-22 16:46:14.173] $GPGGA,074613.80,3713.9606386,N,13701.5664800,E,1,14,1.0,85.5960,M,37.55,M,,*5B
[2021-02-22 16:46:14.298] $GPGGA,074613.90,3713.9606162,N,13701.5665054,E,1,14,1.0,85.7459,M,37.55,M,,*5F
[2021-02-22 16:46:14.376] $GPGGA,074614.00,3713.9606223,N,13701.5664709,E,1,14,1.0,85.5928,M,37.55,M,,*50
[2021-02-22 16:46:14.501] $GPGGA,074614.10,3713.9605937,N,13701.5665306,E,1,14,1.0,85.6638,M,37.55,M,,*5B
[2021-02-22 16:46:14.579] $GPGGA,074614.20,3713.9605795,N,13701.5665513,E,1,14,1.0,85.5085,M,37.55,M,,*5F
[2021-02-22 16:46:14.688] $GPGGA,074614.30,3713.9605852,N,13701.5666176,E,1,14,1.0,85.7239,M,37.55,M,,*59
[2021-02-22 16:46:14.782] $GPGGA,074614.40,3713.9605886,N,13701.5666916,E,1,14,1.0,85.8007,M,37.55,M,,*59
[2021-02-22 16:46:14.891] $GPGGA,074614.50,3713.9606043,N,13701.5666988,E,1,14,1.0,85.8096,M,37.55,M,,*55
[2021-02-22 16:46:15.001] $GPGGA,074614.60,3713.9605161,N,13701.5666338,E,1,14,1.0,85.9541,M,37.55,M,,*5B
[2021-02-22 16:46:15.079] $GPGGA,074614.70,3713.9604885,N,13701.5666187,E,1,14,1.0,86.1587,M,37.55,M,,*5F
[2021-02-22 16:46:15.204] $GPGGA,074614.80,3713.9605673,N,13701.5666371,E,1,14,1.0,86.2787,M,37.55,M,,*5C
[2021-02-22 16:46:15.282] $GPGGA,074614.90,3713.9605764,N,13701.5666325,E,1,14,1.0,86.2936,M,37.55,M,,*5F
[2021-02-22 16:46:15.391] $GPGGA,074615.00,3713.9606165,N,13701.5666317,E,1,14,1.0,86.4048,M,37.55,M,,*54
[2021-02-22 16:46:15.485] $GPGGA,074615.10,3713.9606524,N,13701.5666500,E,1,14,1.0,86.5055,M,37.55,M,,*59
[2021-02-22 16:46:15.594] $GPGGA,074615.20,3713.9606850,N,13701.5666383,E,1,14,1.0,86.7024,M,37.55,M,,*5D
[2021-02-22 16:46:15.673] $GPGGA,074615.30,3713.9606000,N,13701.5667288,E,1,14,1.0,86.4996,M,37.55,M,,*59
[2021-02-22 16:46:15.798] $GPGGA,074615.40,3713.9606518,N,13701.5667817,E,1,14,1.0,86.4146,M,37.55,M,,*5B
[2021-02-22 16:46:15.876] $GPGGA,074615.50,3713.9606873,N,13701.5668313,E,1,14,1.0,86.3098,M,37.55,M,,*5F
[2021-02-22 16:46:16.001] $GPGGA,074615.60,3713.9606849,N,13701.5668155,E,1,14,1.0,86.4288,M,37.55,M,,*51
[2021-02-22 16:46:16.079] $GPGGA,074615.70,3713.9607111,N,13701.5668881,E,1,14,1.0,86.0923,M,37.55,M,,*5B
[2021-02-22 16:46:16.204] $GPGGA,074615.80,3713.9607171,N,13701.5668734,E,1,14,1.0,86.1783,M,37.55,M,,*56
[2021-02-22 16:46:16.282] $GPGGA,074615.90,3713.9607335,N,13701.5667683,E,1,14,1.0,86.1623,M,37.55,M,,*5C
[2021-02-22 16:46:16.391] $GPGGA,074616.00,3713.9607957,N,13701.5667877,E,1,14,1.0,86.2264,M,37.55,M,,*59
[2021-02-22 16:46:16.469] $GPGGA,074616.10,3713.9608210,N,13701.5667833,E,1,14,1.0,86.4925,M,37.55,M,,*57
[2021-02-22 16:46:16.594] $GPGGA,074616.20,3713.9608531,N,13701.5668042,E,1,14,1.0,86.6466,M,37.55,M,,*59
[2021-02-22 16:46:16.673] $GPGGA,074616.30,3713.9608961,N,13701.5667609,E,1,14,1.0,86.6939,M,37.55,M,,*50
[2021-02-22 16:46:16.798] $GPGGA,074616.40,3713.9608523,N,13701.5666877,E,1,14,1.0,86.7919,M,37.55,M,,*58
[2021-02-22 16:46:16.891] $GPGGA,074616.50,3713.9608561,N,13701.5665950,E,1,14,1.0,86.9048,M,37.55,M,,*5B
[2021-02-22 16:46:16.985] $GPGGA,074616.60,3713.9608235,N,13701.5665355,E,1,14,1.0,86.9429,M,37.55,M,,*52
[2021-02-22 16:46:17.094] $GPGGA,074616.70,3713.9609045,N,13701.5666088,E,1,14,1.0,87.0768,M,37.55,M,,*59
[2021-02-22 16:46:17.172] $GPGGA,074616.80,3713.9609123,N,13701.5665748,E,1,14,1.0,86.9198,M,37.55,M,,*5E
[2021-02-22 16:46:17.297] $GPGGA,074616.90,3713.9609402,N,13701.5665431,E,1,14,1.0,86.7884,M,37.55,M,,*5E
[2021-02-22 16:46:17.376] $GPGGA,074617.00,3713.9609421,N,13701.5665529,E,1,14,1.0,86.7172,M,37.55,M,,*5F
[2021-02-22 16:46:17.501] $GPGGA,074617.10,3713.9609233,N,13701.5665166,E,1,14,1.0,86.7282,M,37.55,M,,*58
[2021-02-22 16:46:17.626] $GPGGA,074617.20,3713.9609326,N,13701.5667062,E,5,12,1.0,91.2171,M,37.55,M,5,0000*62
[2021-02-22 16:46:17.719] $GPGGA,074617.30,3713.9610273,N,13701.5668019,E,5,12,1.0,91.4542,M,37.55,M,5,0000*6B
[2021-02-22 16:46:17.813] $GPGGA,074617.40,3713.9610134,N,13701.5668155,E,5,12,1.0,91.2362,M,37.55,M,5,0000*67
[2021-02-22 16:46:17.922] $GPGGA,074617.50,3713.9609943,N,13701.5668019,E,5,12,1.0,91.0577,M,37.55,M,5,0000*6F
[2021-02-22 16:46:18.001] $GPGGA,074617.60,3713.9610094,N,13701.5667852,E,5,12,1.0,91.1715,M,37.55,M,5,0000*68
[2021-02-22 16:46:18.126] $GPGGA,074617.70,3713.9610289,N,13701.5667895,E,5,12,1.0,91.1147,M,37.55,M,5,0000*6D
[2021-02-22 16:46:18.204] $GPGGA,074617.80,3713.9610317,N,13701.5668085,E,5,12,1.0,91.0945,M,37.55,M,5,0000*69
[2021-02-22 16:46:18.329] $GPGGA,074617.90,3713.9610238,N,13701.5668207,E,5,12,1.0,91.0153,M,37.55,M,5,0000*63
[2021-02-22 16:46:18.407] $GPGGA,074618.00,3713.9610267,N,13701.5668396,E,5,12,1.0,90.9311,M,37.55,M,6,0000*69
[2021-02-22 16:46:18.501] $GPGGA,074618.10,3713.9610316,N,13701.5668414,E,5,12,1.0,90.9730,M,37.55,M,6,0000*65
[2021-02-22 16:46:18.625] $GPGGA,074618.20,3713.9610280,N,13701.5668497,E,5,12,1.0,90.9336,M,37.55,M,1,0000*66
[2021-02-22 16:46:18.704] $GPGGA,074618.30,3713.9610243,N,13701.5668407,E,5,12,1.0,90.9427,M,37.55,M,1,0000*66
[2021-02-22 16:46:18.829] $GPGGA,074618.40,3713.9610273,N,13701.5668477,E,5,12,1.0,90.9623,M,37.55,M,1,0000*63
[2021-02-22 16:46:18.907] $GPGGA,074618.50,3713.9610336,N,13701.5668528,E,5,12,1.0,91.0250,M,37.55,M,1,0000*61
[2021-02-22 16:46:19.032] $GPGGA,074618.60,3713.9610358,N,13701.5668534,E,5,12,1.0,91.0587,M,37.55,M,1,0000*6A
[2021-02-22 16:46:19.110] $GPGGA,074618.70,3713.9610378,N,13701.5668535,E,5,12,1.0,91.0781,M,37.55,M,1,0000*6C
[2021-02-22 16:46:19.219] $GPGGA,074618.80,3713.9610384,N,13701.5668579,E,5,12,1.0,91.0514,M,37.55,M,1,0000*66
[2021-02-22 16:46:19.313] $GPGGA,074618.90,3713.9610404,N,13701.5668646,E,5,12,1.0,91.0385,M,37.55,M,1,0000*69
[2021-02-22 16:46:19.438] $GPGGA,074619.00,3713.9610325,N,13701.5668571,E,5,12,1.0,91.0213,M,37.55,M,2,0000*6F
[2021-02-22 16:46:19.516] $GPGGA,074619.10,3713.9610307,N,13701.5668572,E,5,12,1.0,91.0275,M,37.55,M,2,0000*6D
[2021-02-22 16:46:19.625] $GPGGA,074619.20,3713.9610349,N,13701.5668605,E,5,12,1.0,91.0346,M,37.55,M,2,0000*66
[2021-02-22 16:46:19.704] $GPGGA,074619.30,3713.9610352,N,13701.5668626,E,5,12,1.0,91.0323,M,37.55,M,2,0000*6F
[2021-02-22 16:46:19.829] $GPGGA,074619.40,3713.9610359,N,13701.5668663,E,5,12,1.0,91.0186,M,37.55,M,2,0000*6F
[2021-02-22 16:46:19.907] $GPGGA,074619.50,3713.9610393,N,13701.5668746,E,5,12,1.0,91.0191,M,37.55,M,2,0000*68
[2021-02-22 16:46:20.032] $GPGGA,074619.60,3713.9610416,N,13701.5668778,E,5,12,1.0,91.0157,M,37.55,M,2,0000*66
[2021-02-22 16:46:20.110] $GPGGA,074619.70,3713.9610445,N,13701.5668803,E,5,12,1.0,91.0024,M,37.55,M,2,0000*67
[2021-02-22 16:46:20.219] $GPGGA,074619.80,3713.9610411,N,13701.5668783,E,5,12,1.0,90.9833,M,37.55,M,2,0000*68
[2021-02-22 16:46:20.313] $GPGGA,074619.90,3713.9610408,N,13701.5668734,E,5,12,1.0,90.9759,M,37.55,M,2,0000*6E
[2021-02-22 16:46:20.422] $GPGGA,074620.00,3713.9610431,N,13701.5668733,E,5,12,1.0,90.9661,M,37.55,M,3,0000*6B
[2021-02-22 16:46:20.500] $GPGGA,074620.10,3713.9610469,N,13701.5668750,E,5,12,1.0,90.9778,M,37.55,M,3,0000*6B
[2021-02-22 16:46:20.610] $GPGGA,074620.20,3713.9610484,N,13701.5668737,E,5,12,1.0,90.9902,M,37.55,M,3,0000*69
[2021-02-22 16:46:20.735] $GPGGA,074620.30,3713.9610499,N,13701.5668719,E,5,12,1.0,91.0096,M,37.55,M,3,0000*64
[2021-02-22 16:46:20.813] $GPGGA,074620.40,3713.9610527,N,13701.5668715,E,5,12,1.0,91.0176,M,37.55,M,3,0000*64
[2021-02-22 16:46:20.922] $GPGGA,074620.50,3713.9610518,N,13701.5668674,E,5,12,1.0,91.0249,M,37.55,M,3,0000*60
[2021-02-22 16:46:21.000] $GPGGA,074620.60,3713.9610525,N,13701.5668691,E,5,12,1.0,91.0349,M,37.55,M,3,0000*67
[2021-02-22 16:46:21.125] $GPGGA,074620.70,3713.9610537,N,13701.5668681,E,5,12,1.0,91.0523,M,37.55,M,3,0000*6E
[2021-02-22 16:46:21.203] $GPGGA,074620.80,3713.9610543,N,13701.5668690,E,5,12,1.0,91.0625,M,37.55,M,3,0000*67
[2021-02-22 16:46:21.328] $GPGGA,074620.90,3713.9610571,N,13701.5668694,E,5,12,1.0,91.0729,M,37.55,M,3,0000*6E
[2021-02-22 16:46:21.407] $GPGGA,074621.00,3713.9610586,N,13701.5668708,E,5,12,1.0,91.0788,M,37.55,M,4,0000*66
[2021-02-22 16:46:21.500] $GPGGA,074621.10,3713.9610564,N,13701.5668724,E,5,12,1.0,91.0813,M,37.55,M,4,0000*68
[2021-02-22 16:46:21.625] $GPGGA,074621.20,3713.9610562,N,13701.5668728,E,5,12,1.0,91.0829,M,37.55,M,4,0000*68
[2021-02-22 16:46:21.719] $GPGGA,074621.30,3713.9610562,N,13701.5668723,E,5,12,1.0,91.1005,M,37.55,M,4,0000*65
[2021-02-22 16:46:21.797] $GPGGA,074621.40,3713.9610566,N,13701.5668726,E,5,12,1.0,91.0963,M,37.55,M,4,0000*6B
[2021-02-22 16:46:21.922] $GPGGA,074621.50,3713.9610588,N,13701.5668715,E,5,12,1.0,91.0957,M,37.55,M,4,0000*6D
[2021-02-22 16:46:22.000] $GPGGA,074621.60,3713.9610610,N,13701.5668692,E,5,12,1.0,91.0989,M,37.55,M,4,0000*61
[2021-02-22 16:46:22.125] $GPGGA,074621.70,3713.9610613,N,13701.5668653,E,5,12,1.0,91.1024,M,37.55,M,4,0000*61
[2021-02-22 16:46:22.235] $GPGGA,074621.80,3713.9610616,N,13701.5668623,E,5,12,1.0,91.1085,M,37.55,M,4,0000*67
[2021-02-22 16:46:22.313] $GPGGA,074621.90,3713.9610622,N,13701.5668584,E,5,12,1.0,91.1087,M,37.55,M,4,0000*6D
[2021-02-22 16:46:22.422] $GPGGA,074622.00,3713.9610627,N,13701.5668568,E,5,12,1.0,91.1037,M,37.55,M,5,0000*6A
[2021-02-22 16:46:22.531] $GPGGA,074622.10,3713.9610636,N,13701.5668565,E,5,12,1.0,91.1009,M,37.55,M,5,0000*6B
[2021-02-22 16:46:22.625] $GPGGA,074622.20,3713.9610636,N,13701.5668566,E,5,12,1.0,91.0955,M,37.55,M,5,0000*6A
[2021-02-22 16:46:22.719] $GPGGA,074622.30,3713.9610607,N,13701.5668548,E,5,12,1.0,91.0890,M,37.55,M,5,0000*6D
[2021-02-22 16:46:22.828] $GPGGA,074622.40,3713.9610622,N,13701.5668537,E,5,12,1.0,91.1072,M,37.55,M,5,0000*60
[2021-02-22 16:46:22.906] $GPGGA,074622.50,3713.9610639,N,13701.5668536,E,5,12,1.0,91.1310,M,37.55,M,5,0000*6D
[2021-02-22 16:46:23.031] $GPGGA,074622.60,3713.9610676,N,13701.5668551,E,5,12,1.0,91.1596,M,37.55,M,5,0000*6C
[2021-02-22 16:46:23.110] $GPGGA,074622.70,3713.9610682,N,13701.5668547,E,5,12,1.0,91.1907,M,37.55,M,5,0000*65
[2021-02-22 16:46:23.219] $GPGGA,074622.80,3713.9610681,N,13701.5668550,E,5,12,1.0,91.2185,M,37.55,M,5,0000*6E
[2021-02-22 16:46:23.313] $GPGGA,074622.90,3713.9610710,N,13701.5668556,E,5,12,1.0,91.2464,M,37.55,M,5,0000*6A
[2021-02-22 16:46:23.422] $GPGGA,074623.00,3713.9610735,N,13701.5668553,E,5,12,1.0,91.2670,M,37.55,M,6,0000*64
[2021-02-22 16:46:23.516] $GPGGA,074623.10,3713.9610725,N,13701.5668529,E,5,12,1.0,91.2795,M,37.55,M,6,0000*63
