
[2021-02-22 16:49:21.381] $GPGGA,074907.10,,,,,0,00,0.0,,M,,M,0,0000*5A
[2021-02-22 16:49:21.412] $GPGGA,074907.20,,,,,0,00,0.0,,M,,M,0,0000*59
[2021-02-22 16:49:21.412] $GPGGA,074907.30,,,,,0,00,0.0,,M,,M,0,0000*58
[2021-02-22 16:49:21.412] $GPGGA,074907.40,,,,,0,00,0.0,,M,,M,0,0000*5F
[2021-02-22 16:49:21.412] $GPGGA,074907.50,,,,,0,00,0.0,,M,,M,0,0000*5E
[2021-02-22 16:49:21.412] $GPGGA,074907.60,,,,,0,00,0.0,,M,,M,0,0000*5D
[2021-02-22 16:49:21.412] $GPGGA,074907.70,,,,,0,00,0.0,,M,,M,0,0000*5C
[2021-02-22 16:49:21.412] $GPGGA,074907.80,,,,,0,00,0.0,,M,,M,0,0000*53
[2021-02-22 16:49:21.412] $GPGGA,074907.90,,,,,0,00,0.0,,M,,M,0,0000*52
[2021-02-22 16:49:21.412] $GPGGA,074908.00,,,,,0,00,0.0,,M,,M,0,0000*54
[2021-02-22 16:49:21.412] $GPGGA,074908.10,,,,,0,00,0.0,,M,,M,0,0000*55
[2021-02-22 16:49:21.412] $GPGGA,074908.20,,,,,0,00,0.0,,M,,M,0,0000*56
[2021-02-22 16:49:21.412] $GPGGA,074908.30,,,,,0,00,0.0,,M,,M,0,0000*57
[2021-02-22 16:49:21.412] $GPGGA,074908.40,,,,,0,00,0.0,,M,,M,0,0000*50
[2021-02-22 16:49:21.412] $GPGGA,074908.50,,,,,0,00,0.0,,M,,M,0,0000*51
[2021-02-22 16:49:21.412] $GPGGA,074908.60,,,,,0,00,0.0,,M,,M,0,0000*52
[2021-02-22 16:49:21.412] $GPGGA,074908.70,,,,,0,00,0.0,,M,,M,0,0000*53
[2021-02-22 16:49:21.412] $GPGGA,074908.80,,,,,0,00,0.0,,M,,M,0,0000*5C
[2021-02-22 16:49:21.412] $GPGGA,074908.90,,,,,0,00,0.0,,M,,M,0,0000*5D
[2021-02-22 16:49:21.412] $GPGGA,074909.00,,,,,0,00,0.0,,M,,M,0,0000*55
[2021-02-22 16:49:21.412] $GPGGA,074909.10,,,,,0,00,0.0,,M,,M,0,0000*54
[2021-02-22 16:49:21.412] $GPGGA,074909.20,,,,,0,00,0.0,,M,,M,0,0000*57
[2021-02-22 16:49:21.412] $GPGGA,074909.30,,,,,0,00,0.0,,M,,M,0,0000*56
[2021-02-22 16:49:21.428] $GPGGA,074909.40,,,,,0,00,0.0,,M,,M,0,0000*51
[2021-02-22 16:49:21.428] $GPGGA,074909.50,,,,,0,00,0.0,,M,,M,0,0000*50
[2021-02-22 16:49:21.428] $GPGGA,074909.60,,,,,0,00,0.0,,M,,M,0,0000*53
[2021-02-22 16:49:21.428] $GPGGA,074909.70,,,,,0,00,0.0,,M,,M,0,0000*52
[2021-02-22 16:49:21.428] $GPGGA,074909.80,,,,,0,00,0.0,,M,,M,0,0000*5D
[2021-02-22 16:49:21.428] $GPGGA,074909.90,,,,,0,00,0.0,,M,,M,0,0000*5C
[2021-02-22 16:49:21.428] $GPGGA,074910.00,,,,,0,00,0.0,,M,,M,0,0000*5D
[2021-02-22 16:49:21.428] $GPGGA,074910.10,,,,,0,00,0.0,,M,,M,0,0000*5C
[2021-02-22 16:49:21.428] $GPGGA,074910.20,,,,,0,00,0.0,,M,,M,0,0000*5F
[2021-02-22 16:49:21.428] $GPGGA,074910.30,,,,,0,00,0.0,,M,,M,0,0000*5E
[2021-02-22 16:49:21.428] $GPGGA,074910.40,,,,,0,00,0.0,,M,,M,0,0000*59
[2021-02-22 16:49:21.428] $GPGGA,074910.50,,,,,0,00,0.0,,M,,M,0,0000*58
[2021-02-22 16:49:21.428] $GPGGA,074910.60,,,,,0,00,0.0,,M,,M,0,0000*5B
[2021-02-22 16:49:21.428] $GPGGA,074910.70,,,,,0,00,0.0,,M,,M,0,0000*5A
[2021-02-22 16:49:21.428] $GPGGA,074910.80,,,,,0,00,0.0,,M,,M,0,0000*55
[2021-02-22 16:49:21.428] $GPGGA,074910.90,,,,,0,00,0.0,,M,,M,0,0000*54
[2021-02-22 16:49:21.428] $GPGGA,074911.00,,,,,0,00,0.0,,M,,M,0,0000*5C
[2021-02-22 16:49:21.428] $GPGGA,074911.10,,,,,0,00,0.0,,M,,M,0,0000*5D
[2021-02-22 16:49:21.428] $GPGGA,074911.20,,,,,0,00,0.0,,M,,M,0,0000*5E
[2021-02-22 16:49:21.428] $GPGGA,074911.30,,,,,0,00,0.0,,M,,M,0,0000*5F
[2021-02-22 16:49:21.428] $GPGGA,074911.40,,,,,0,00,0.0,,M,,M,0,0000*58
[2021-02-22 16:49:21.428] $GPGGA,074911.50,,,,,0,00,0.0,,M,,M,0,0000*59
[2021-02-22 16:49:21.444] $GPGGA,074911.60,,,,,0,00,0.0,,M,,M,0,0000*5A
[2021-02-22 16:49:21.444] $GPGGA,074911.70,,,,,0,00,0.0,,M,,M,0,0000*5B
[2021-02-22 16:49:21.444] $GPGGA,074911.80,,,,,0,00,0.0,,M,,M,0,0000*54
[2021-02-22 16:49:21.444] $GPGGA,074911.90,,,,,0,00,0.0,,M,,M,0,0000*55
[2021-02-22 16:49:21.444] $GPGGA,074912.00,,,,,0,00,0.0,,M,,M,0,0000*5F
[2021-02-22 16:49:21.444] $GPGGA,074912.10,,,,,0,00,0.0,,M,,M,0,0000*5E
[2021-02-22 16:49:21.444] $GPGGA,074912.20,,,,,0,00,0.0,,M,,M,0,0000*5D
[2021-02-22 16:49:21.444] $GPGGA,074912.30,,,,,0,00,0.0,,M,,M,0,0000*5C
[2021-02-22 16:49:21.444] $GPGGA,074912.40,,,,,0,00,0.0,,M,,M,0,0000*5B
[2021-02-22 16:49:21.444] $GPGGA,074912.50,,,,,0,00,0.0,,M,,M,0,0000*5A
[2021-02-22 16:49:21.444] $GPGGA,074912.60,,,,,0,00,0.0,,M,,M,0,0000*59
[2021-02-22 16:49:21.444] $GPGGA,074912.70,,,,,0,00,0.0,,M,,M,0,0000*58
[2021-02-22 16:49:21.444] $GPGGA,074912.80,,,,,0,00,0.0,,M,,M,0,0000*57
[2021-02-22 16:49:21.444] $GPGGA,074912.90,,,,,0,00,0.0,,M,,M,0,0000*56
[2021-02-22 16:49:21.444] $GPGGA,074913.00,,,,,0,00,0.0,,M,,M,0,0000*5E
[2021-02-22 16:49:21.444] $GPGGA,074913.10,,,,,0,00,0.0,,M,,M,0,0000*5F
[2021-02-22 16:49:21.444] $GPGGA,074913.20,,,,,0,00,0.0,,M,,M,0,0000*5C
[2021-02-22 16:49:21.444] $GPGGA,074913.30,,,,,0,00,0.0,,M,,M,0,0000*5D
[2021-02-22 16:49:21.444] $GPGGA,074913.40,,,,,0,00,0.0,,M,,M,0,0000*5A
[2021-02-22 16:49:21.444] $GPGGA,074913.50,,,,,0,00,0.0,,M,,M,0,0000*5B
[2021-02-22 16:49:21.444] $GPGGA,074913.60,,,,,0,00,0.0,,M,,M,0,0000*58
[2021-02-22 16:49:21.459] $GPGGA,074913.70,,,,,0,00,0.0,,M,,M,0,0000*59
[2021-02-22 16:49:21.459] $GPGGA,074913.80,,,,,0,00,0.0,,M,,M,0,0000*56
[2021-02-22 16:49:21.459] $GPGGA,074913.90,,,,,0,00,0.0,,M,,M,0,0000*57
[2021-02-22 16:49:21.459] $GPGGA,074914.00,,,,,0,00,0.0,,M,,M,0,0000*59
[2021-02-22 16:49:21.459] $GPGGA,074914.10,,,,,0,00,0.0,,M,,M,0,0000*58
[2021-02-22 16:49:21.459] $GPGGA,074914.20,,,,,0,00,0.0,,M,,M,0,0000*5B
[2021-02-22 16:49:21.459] $GPGGA,074914.30,,,,,0,00,0.0,,M,,M,0,0000*5A
[2021-02-22 16:49:21.459] $GPGGA,074914.40,,,,,0,00,0.0,,M,,M,0,0000*5D
[2021-02-22 16:49:21.459] $GPGGA,074914.50,,,,,0,00,0.0,,M,,M,0,0000*5C
[2021-02-22 16:49:21.459] $GPGGA,074914.60,,,,,0,00,0.0,,M,,M,0,0000*5F
[2021-02-22 16:49:21.459] $GPGGA,074914.70,,,,,0,00,0.0,,M,,M,0,0000*5E
[2021-02-22 16:49:21.459] $GPGGA,074914.80,,,,,0,00,0.0,,M,,M,0,0000*51
[2021-02-22 16:49:21.459] $GPGGA,074914.90,,,,,0,00,0.0,,M,,M,0,0000*50
[2021-02-22 16:49:21.459] $GPGGA,074915.00,,,,,0,00,0.0,,M,,M,0,0000*58
[2021-02-22 16:49:21.459] $GPGGA,074915.10,,,,,0,00,0.0,,M,,M,0,0000*59
[2021-02-22 16:49:21.459] $GPGGA,074915.20,,,,,0,00,0.0,,M,,M,0,0000*5A
[2021-02-22 16:49:21.459] $GPGGA,074915.30,,,,,0,00,0.0,,M,,M,0,0000*5B
[2021-02-22 16:49:21.459] $GPGGA,074915.40,,,,,0,00,0.0,,M,,M,0,0000*5C
[2021-02-22 16:49:21.459] $GPGGA,074915.50,,,,,0,00,0.0,,M,,M,0,0000*5D
[2021-02-22 16:49:21.459] $GPGGA,074915.60,,,,,0,00,0.0,,M,,M,0,0000*5E
[2021-02-22 16:49:21.459] $GPGGA,074915.70,,,,,0,00,0.0,,M,,M,0,0000*5F
[2021-02-22 16:49:21.459] $GPGGA,074915.80,,,,,0,00,0.0,,M,,M,0,0000*50
[2021-02-22 16:49:21.475] $GPGGA,074915.90,,,,,0,00,0.0,,M,,M,0,0000*51
[2021-02-22 16:49:21.475] $GPGGA,074916.00,,,,,0,00,0.0,,M,,M,0,0000*5B
[2021-02-22 16:49:21.475] $GPGGA,074916.10,,,,,0,00,0.0,,M,,M,0,0000*5A
[2021-02-22 16:49:21.475] $GPGGA,074916.20,,,,,0,00,0.0,,M,,M,0,0000*59
[2021-02-22 16:49:21.475] $GPGGA,074916.30,,,,,0,00,0.0,,M,,M,0,0000*58
[2021-02-22 16:49:21.475] $GPGGA,074916.40,,,,,0,00,0.0,,M,,M,0,0000*5F
[2021-02-22 16:49:21.475] $GPGGA,074916.50,,,,,0,00,0.0,,M,,M,0,0000*5E
[2021-02-22 16:49:21.475] $GPGGA,074916.60,,,,,0,00,0.0,,M,,M,0,0000*5D
[2021-02-22 16:49:21.475] $GPGGA,074916.70,,,,,0,00,0.0,,M,,M,0,0000*5C
[2021-02-22 16:49:21.475] $GPGGA,074916.80,,,,,0,00,0.0,,M,,M,0,0000*53
[2021-02-22 16:49:21.475] $GPGGA,074916.90,,,,,0,00,0.0,,M,,M,0,0000*52
[2021-02-22 16:49:21.475] $GPGGA,074917.00,,,,,0,00,0.0,,M,,M,0,0000*5A
[2021-02-22 16:49:21.475] $GPGGA,074917.10,,,,,0,00,0.0,,M,,M,0,0000*5B
[2021-02-22 16:49:21.475] $GPGGA,074917.20,,,,,0,00,0.0,,M,,M,0,0000*58
[2021-02-22 16:49:21.475] $GPGGA,074917.30,,,,,0,00,0.0,,M,,M,0,0000*59
[2021-02-22 16:49:21.475] $GPGGA,074917.40,,,,,0,00,0.0,,M,,M,0,0000*5E
[2021-02-22 16:49:21.475] $GPGGA,074917.50,,,,,0,00,0.0,,M,,M,0,0000*5F
[2021-02-22 16:49:21.475] $GPGGA,074917.60,,,,,0,00,0.0,,M,,M,0,0000*5C
[2021-02-22 16:49:21.475] $GPGGA,074917.70,,,,,0,00,0.0,,M,,M,0,0000*5D
[2021-02-22 16:49:21.475] $GPGGA,074917.80,,,,,0,00,0.0,,M,,M,0,0000*52
[2021-02-22 16:49:21.475] $GPGGA,074917.90,,,,,0,00,0.0,,M,,M,0,0000*53
[2021-02-22 16:49:21.491] $GPGGA,074918.00,,,,,0,00,0.0,,M,,M,0,0000*55
[2021-02-22 16:49:21.491] $GPGGA,074918.10,,,,,0,00,0.0,,M,,M,0,0000*54
[2021-02-22 16:49:21.491] $GPGGA,074918.20,,,,,0,00,0.0,,M,,M,0,0000*57
[2021-02-22 16:49:21.491] $GPGGA,074918.30,,,,,0,00,0.0,,M,,M,0,0000*56
[2021-02-22 16:49:21.491] $GPGGA,074918.40,,,,,0,00,0.0,,M,,M,0,0000*51
[2021-02-22 16:49:21.491] $GPGGA,074918.50,,,,,0,00,0.0,,M,,M,0,0000*50
[2021-02-22 16:49:21.491] $GPGGA,074918.60,,,,,0,00,0.0,,M,,M,0,0000*53
[2021-02-22 16:49:21.491] $GPGGA,074918.70,,,,,0,00,0.0,,M,,M,0,0000*52
[2021-02-22 16:49:21.491] $GPGGA,074918.80,,,,,0,00,0.0,,M,,M,0,0000*5D
[2021-02-22 16:49:21.491] $GPGGA,074918.90,,,,,0,00,0.0,,M,,M,0,0000*5C
[2021-02-22 16:49:21.491] $GPGGA,074919.00,,,,,0,00,0.0,,M,,M,0,0000*54
[2021-02-22 16:49:21.491] $GPGGA,074919.10,,,,,0,00,0.0,,M,,M,0,0000*55
[2021-02-22 16:49:21.491] $GPGGA,074919.20,,,,,0,00,0.0,,M,,M,0,0000*56
[2021-02-22 16:49:21.491] $GPGGA,074919.30,,,,,0,00,0.0,,M,,M,0,0000*57
[2021-02-22 16:49:21.491] $GPGGA,074919.40,,,,,0,00,0.0,,M,,M,0,0000*50
[2021-02-22 16:49:21.491] $GPGGA,074919.50,,,,,0,00,0.0,,M,,M,0,0000*51
[2021-02-22 16:49:21.491] $GPGGA,074919.60,,,,,0,00,0.0,,M,,M,0,0000*52
[2021-02-22 16:49:21.491] $GPGGA,074919.70,,,,,0,00,0.0,,M,,M,0,0000*53
[2021-02-22 16:49:21.491] $GPGGA,074919.80,,,,,0,00,0.0,,M,,M,0,0000*5C
[2021-02-22 16:49:21.491] $GPGGA,074919.90,,,,,0,00,0.0,,M,,M,0,0000*5D
[2021-02-22 16:49:21.491] $GPGGA,074920.00,,,,,0,00,0.0,,M,,M,0,0000*5E
[2021-02-22 16:49:21.491] $GPGGA,074920.10,,,,,0,00,0.0,,M,,M,0,0000*5F
[2021-02-22 16:49:21.491] $GPGGA,074920.20,,,,,0,00,0.0,,M,,M,0,0000*5C
[2021-02-22 16:49:21.491] $GPGGA,074920.30,,,,,0,00,0.0,,M,,M,0,0000*5D
[2021-02-22 16:49:21.491] $GPGGA,074920.40,,,,,0,00,0.0,,M,,M,0,0000*5A
[2021-02-22 16:49:21.491] $GPGGA,074920.50,,,,,0,00,0.0,,M,,M,0,0000*5B
[2021-02-22 16:49:21.491] $GPGGA,074920.60,,,,,0,00,0.0,,M,,M,0,0000*58
[2021-02-22 16:49:21.491] $GPGGA,074920.70,,,,,0,00,0.0,,M,,M,0,0000*59
[2021-02-22 16:49:21.491] $GPGGA,074920.80,,,,,0,00,0.0,,M,,M,0,0000*56
[2021-02-22 16:49:21.491] $GPGGA,074920.90,,,,,0,00,0.0,,M,,M,0,0000*57
[2021-02-22 16:49:21.491] $GPGGA,074921.00,,,,,0,00,0.0,,M,,M,0,0000*5F
[2021-02-22 16:49:21.491] $GPGGA,074921.10,,,,,0,00,0.0,,M,,M,0,0000*5E
[2021-02-22 16:49:21.569] $GPGGA,074921.20,,,,,0,00,0.0,,M,,M,0,0000*5D
[2021-02-22 16:49:21.678] $GPGGA,074921.30,,,,,0,00,0.0,,M,,M,0,0000*5C
[2021-02-22 16:49:21.787] $GPGGA,074921.40,,,,,0,00,0.0,,M,,M,0,0000*5B
[2021-02-22 16:49:21.881] $GPGGA,074921.50,,,,,0,00,0.0,,M,,M,0,0000*5A
[2021-02-22 16:49:21.975] $GPGGA,074921.60,,,,,0,00,0.0,,M,,M,0,0000*59
[2021-02-22 16:49:22.069] $GPGGA,074921.70,,,,,0,00,0.0,,M,,M,0,0000*58
[2021-02-22 16:49:22.178] $GPGGA,074921.80,,,,,0,00,0.0,,M,,M,0,0000*57
[2021-02-22 16:49:22.272] $GPGGA,074921.90,,,,,0,00,0.0,,M,,M,0,0000*56
[2021-02-22 16:49:22.381] $GPGGA,074922.00,,,,,0,00,0.0,,M,,M,0,0000*5C
[2021-02-22 16:49:22.475] $GPGGA,074922.10,,,,,0,00,0.0,,M,,M,0,0000*5D
[2021-02-22 16:49:22.584] $GPGGA,074922.20,,,,,0,00,0.0,,M,,M,0,0000*5E
[2021-02-22 16:49:22.678] $GPGGA,074922.30,,,,,0,00,0.0,,M,,M,0,0000*5F
[2021-02-22 16:49:22.772] $GPGGA,074922.40,,,,,0,00,0.0,,M,,M,0,0000*58
[2021-02-22 16:49:22.881] $GPGGA,074922.50,,,,,0,00,0.0,,M,,M,0,0000*59
[2021-02-22 16:49:22.975] $GPGGA,074922.60,,,,,0,00,0.0,,M,,M,0,0000*5A
[2021-02-22 16:49:23.084] $GPGGA,074922.70,,,,,0,00,0.0,,M,,M,0,0000*5B
[2021-02-22 16:49:23.178] $GPGGA,074922.80,,,,,0,00,0.0,,M,,M,0,0000*54
[2021-02-22 16:49:23.272] $GPGGA,074922.90,,,,,0,00,0.0,,M,,M,0,0000*55
[2021-02-22 16:49:23.381] $GPGGA,074923.00,,,,,0,00,0.0,,M,,M,0,0000*5D
[2021-02-22 16:49:23.475] $GPGGA,074923.10,,,,,0,00,0.0,,M,,M,0,0000*5C
[2021-02-22 16:49:23.569] $GPGGA,074923.20,,,,,0,00,0.0,,M,,M,0,0000*5F
[2021-02-22 16:49:23.678] $GPGGA,074923.30,,,,,0,00,0.0,,M,,M,0,0000*5E
[2021-02-22 16:49:23.772] $GPGGA,074923.40,,,,,0,00,0.0,,M,,M,0,0000*59
[2021-02-22 16:49:23.881] $GPGGA,074923.50,,,,,0,00,0.0,,M,,M,0,0000*58
[2021-02-22 16:49:23.975] $GPGGA,074923.60,,,,,0,00,0.0,,M,,M,0,0000*5B
[2021-02-22 16:49:24.069] $GPGGA,074923.70,,,,,0,00,0.0,,M,,M,0,0000*5A
[2021-02-22 16:49:24.162] $GPGGA,074923.80,,,,,0,00,0.0,,M,,M,0,0000*55
[2021-02-22 16:49:24.272] $GPGGA,074923.90,,,,,0,00,0.0,,M,,M,0,0000*54
[2021-02-22 16:49:24.381] $GPGGA,074924.00,,,,,0,00,0.0,,M,,M,0,0000*5A
[2021-02-22 16:49:24.475] $GPGGA,074924.10,,,,,0,00,0.0,,M,,M,0,0000*5B
[2021-02-22 16:49:24.569] $GPGGA,074924.20,,,,,0,00,0.0,,M,,M,0,0000*58
[2021-02-22 16:49:24.678] $GPGGA,074924.30,,,,,0,00,0.0,,M,,M,0,0000*59
[2021-02-22 16:49:24.772] $GPGGA,074924.40,,,,,0,00,0.0,,M,,M,0,0000*5E
[2021-02-22 16:49:24.865] $GPGGA,074924.50,,,,,0,00,0.0,,M,,M,0,0000*5F
[2021-02-22 16:49:24.975] $GPGGA,074924.60,,,,,0,00,0.0,,M,,M,0,0000*5C
[2021-02-22 16:49:25.084] $GPGGA,074924.70,,,,,0,00,0.0,,M,,M,0,0000*5D
[2021-02-22 16:49:25.178] $GPGGA,074924.80,,,,,0,00,0.0,,M,,M,0,0000*52
[2021-02-22 16:49:25.272] $GPGGA,074924.90,,,,,0,00,0.0,,M,,M,0,0000*53
[2021-02-22 16:49:25.381] $GPGGA,074925.00,,,,,0,00,0.0,,M,,M,0,0000*5B
[2021-02-22 16:49:25.475] $GPGGA,074925.10,,,,,0,00,0.0,,M,,M,0,0000*5A
[2021-02-22 16:49:25.568] $GPGGA,074925.20,,,,,0,00,0.0,,M,,M,0,0000*59
[2021-02-22 16:49:25.662] $GPGGA,074925.30,,,,,0,00,0.0,,M,,M,0,0000*58
[2021-02-22 16:49:25.787] $GPGGA,074925.40,,,,,0,00,0.0,,M,,M,0,0000*5F
[2021-02-22 16:49:25.881] $GPGGA,074925.50,,,,,0,00,0.0,,M,,M,0,0000*5E
[2021-02-22 16:49:25.975] $GPGGA,074925.60,,,,,0,00,0.0,,M,,M,0,0000*5D
[2021-02-22 16:49:26.068] $GPGGA,074925.70,,,,,0,00,0.0,,M,,M,0,0000*5C
[2021-02-22 16:49:26.178] $GPGGA,074925.80,,,,,0,00,0.0,,M,,M,0,0000*53
[2021-02-22 16:49:26.272] $GPGGA,074925.90,,,,,0,00,0.0,,M,,M,0,0000*52
[2021-02-22 16:49:26.381] $GPGGA,074926.00,,,,,0,00,0.0,,M,,M,0,0000*58
[2021-02-22 16:49:26.490] $GPGGA,074926.10,,,,,0,00,0.0,,M,,M,0,0000*59
[2021-02-22 16:49:26.584] $GPGGA,074926.20,,,,,0,00,0.0,,M,,M,0,0000*5A
[2021-02-22 16:49:26.678] $GPGGA,074926.30,,,,,0,00,0.0,,M,,M,0,0000*5B
[2021-02-22 16:49:26.771] $GPGGA,074926.40,,,,,0,00,0.0,,M,,M,0,0000*5C
[2021-02-22 16:49:26.881] $GPGGA,074926.50,,,,,0,00,0.0,,M,,M,0,0000*5D
[2021-02-22 16:49:26.975] $GPGGA,074926.60,,,,,0,00,0.0,,M,,M,0,0000*5E
[2021-02-22 16:49:27.084] $GPGGA,074926.70,,,,,0,00,0.0,,M,,M,0,0000*5F
[2021-02-22 16:49:27.178] $GPGGA,074926.80,,,,,0,00,0.0,,M,,M,0,0000*50
[2021-02-22 16:49:27.271] $GPGGA,074926.90,,,,,0,00,0.0,,M,,M,0,0000*51
[2021-02-22 16:49:27.381] $GPGGA,074927.00,,,,,0,00,0.0,,M,,M,0,0000*59
[2021-02-22 16:49:27.475] $GPGGA,074927.10,,,,,0,00,0.0,,M,,M,0,0000*58
[2021-02-22 16:49:27.568] $GPGGA,074927.20,,,,,0,00,0.0,,M,,M,0,0000*5B
[2021-02-22 16:49:27.662] $GPGGA,074927.30,,,,,0,00,0.0,,M,,M,0,0000*5A
[2021-02-22 16:49:27.771] $GPGGA,074927.40,,,,,0,00,0.0,,M,,M,0,0000*5D
[2021-02-22 16:49:27.881] $GPGGA,074927.50,,,,,0,00,0.0,,M,,M,0,0000*5C
[2021-02-22 16:49:27.975] $GPGGA,074927.60,,,,,0,00,0.0,,M,,M,0,0000*5F
[2021-02-22 16:49:28.068] $GPGGA,074927.70,,,,,0,00,0.0,,M,,M,0,0000*5E
[2021-02-22 16:49:28.178] $GPGGA,074927.80,,,,,0,00,0.0,,M,,M,0,0000*51
[2021-02-22 16:49:28.271] $GPGGA,074927.90,,,,,0,00,0.0,,M,,M,0,0000*50
[2021-02-22 16:49:28.381] $GPGGA,074928.00,,,,,0,00,0.0,,M,,M,0,0000*56
[2021-02-22 16:49:28.475] $GPGGA,074928.10,,,,,0,00,0.0,,M,,M,0,0000*57
[2021-02-22 16:49:28.584] $GPGGA,074928.20,,,,,0,00,0.0,,M,,M,0,0000*54
[2021-02-22 16:49:28.678] $GPGGA,074928.30,,,,,0,00,0.0,,M,,M,0,0000*55
[2021-02-22 16:49:28.771] $GPGGA,074928.40,,,,,0,00,0.0,,M,,M,0,0000*52
[2021-02-22 16:49:28.865] $GPGGA,074928.50,,,,,0,00,0.0,,M,,M,0,0000*53
[2021-02-22 16:49:28.974] $GPGGA,074928.60,,,,,0,00,0.0,,M,,M,0,0000*50
[2021-02-22 16:49:29.084] $GPGGA,074928.70,,,,,0,00,0.0,,M,,M,0,0000*51
[2021-02-22 16:49:29.178] $GPGGA,074928.80,,,,,0,00,0.0,,M,,M,0,0000*5E
[2021-02-22 16:49:29.271] $GPGGA,074928.90,,,,,0,00,0.0,,M,,M,0,0000*5F
[2021-02-22 16:49:29.381] $GPGGA,074929.00,,,,,0,00,0.0,,M,,M,0,0000*57
[2021-02-22 16:49:29.474] $GPGGA,074929.10,,,,,0,00,0.0,,M,,M,0,0000*56
[2021-02-22 16:49:29.568] $GPGGA,074929.20,,,,,0,00,0.0,,M,,M,0,0000*55
[2021-02-22 16:49:29.662] $GPGGA,074929.30,,,,,0,00,0.0,,M,,M,0,0000*54
[2021-02-22 16:49:29.787] $GPGGA,074929.40,,,,,0,00,0.0,,M,,M,0,0000*53
[2021-02-22 16:49:29.881] $GPGGA,074929.50,,,,,0,00,0.0,,M,,M,0,0000*52
[2021-02-22 16:49:29.974] $GPGGA,074929.60,,,,,0,00,0.0,,M,,M,0,0000*51
[2021-02-22 16:49:30.084] $GPGGA,074929.70,,,,,0,00,0.0,,M,,M,0,0000*50
[2021-02-22 16:49:30.178] $GPGGA,074929.80,,,,,0,00,0.0,,M,,M,0,0000*5F
[2021-02-22 16:49:30.271] $GPGGA,074929.90,,,,,0,00,0.0,,M,,M,0,0000*5E
[2021-02-22 16:49:30.381] $GPGGA,074930.00,,,,,0,00,0.0,,M,,M,0,0000*5F
[2021-02-22 16:49:30.490] $GPGGA,074930.10,,,,,0,00,0.0,,M,,M,0,0000*5E
[2021-02-22 16:49:30.584] $GPGGA,074930.20,,,,,0,00,0.0,,M,,M,0,0000*5D
[2021-02-22 16:49:30.677] $GPGGA,074930.30,,,,,0,00,0.0,,M,,M,0,0000*5C
[2021-02-22 16:49:30.771] $GPGGA,074930.40,,,,,0,00,0.0,,M,,M,0,0000*5B
[2021-02-22 16:49:30.881] $GPGGA,074930.50,,,,,0,00,0.0,,M,,M,0,0000*5A
[2021-02-22 16:49:30.974] $GPGGA,074930.60,,,,,0,00,0.0,,M,,M,0,0000*59
[2021-02-22 16:49:31.084] $GPGGA,074930.70,,,,,0,00,0.0,,M,,M,0,0000*58
[2021-02-22 16:49:31.177] $GPGGA,074930.80,,,,,0,00,0.0,,M,,M,0,0000*57
[2021-02-22 16:49:31.287] $GPGGA,074930.90,,,,,0,00,0.0,,M,,M,0,0000*56
[2021-02-22 16:49:31.381] $GPGGA,074931.00,,,,,0,00,0.0,,M,,M,0,0000*5E
[2021-02-22 16:49:31.474] $GPGGA,074931.10,,,,,0,00,0.0,,M,,M,0,0000*5F
[2021-02-22 16:49:31.568] $GPGGA,074931.20,,,,,0,00,0.0,,M,,M,0,0000*5C
[2021-02-22 16:49:31.662] $GPGGA,074931.30,,,,,0,00,0.0,,M,,M,0,0000*5D
[2021-02-22 16:49:31.787] $GPGGA,074931.40,,,,,0,00,0.0,,M,,M,0,0000*5A
[2021-02-22 16:49:31.881] $GPGGA,074931.50,,,,,0,00,0.0,,M,,M,0,0000*5B
[2021-02-22 16:49:31.974] $GPGGA,074931.60,,,,,0,00,0.0,,M,,M,0,0000*58
[2021-02-22 16:49:32.068] $GPGGA,074931.70,,,,,0,00,0.0,,M,,M,0,0000*59
[2021-02-22 16:49:32.177] $GPGGA,074931.80,,,,,0,00,0.0,,M,,M,0,0000*56
[2021-02-22 16:49:32.271] $GPGGA,074931.90,,,,,0,00,0.0,,M,,M,0,0000*57
[2021-02-22 16:49:32.365] $GPGGA,074932.00,,,,,0,00,0.0,,M,,M,0,0000*5D
[2021-02-22 16:49:32.474] $GPGGA,074932.10,,,,,0,00,0.0,,M,,M,0,0000*5C
[2021-02-22 16:49:32.584] $GPGGA,074932.20,,,,,0,00,0.0,,M,,M,0,0000*5F
[2021-02-22 16:49:32.677] $GPGGA,074932.30,,,,,0,00,0.0,,M,,M,0,0000*5E
[2021-02-22 16:49:32.771] $GPGGA,074932.40,,,,,0,00,0.0,,M,,M,0,0000*59
[2021-02-22 16:49:32.865] $GPGGA,074932.50,,,,,0,00,0.0,,M,,M,0,0000*58
[2021-02-22 16:49:32.974] $GPGGA,074932.60,,,,,0,00,0.0,,M,,M,0,0000*5B
[2021-02-22 16:49:33.084] $GPGGA,074932.70,,,,,0,00,0.0,,M,,M,0,0000*5A
[2021-02-22 16:49:33.177] $GPGGA,074932.80,,,,,0,00,0.0,,M,,M,0,0000*55
[2021-02-22 16:49:33.271] $GPGGA,074932.90,,,,,0,00,0.0,,M,,M,0,0000*54
[2021-02-22 16:49:33.380] $GPGGA,074933.00,,,,,0,00,0.0,,M,,M,0,0000*5C
[2021-02-22 16:49:33.474] $GPGGA,074933.10,,,,,0,00,0.0,,M,,M,0,0000*5D
[2021-02-22 16:49:33.568] $GPGGA,074933.20,,,,,0,00,0.0,,M,,M,0,0000*5E
[2021-02-22 16:49:33.677] $GPGGA,074933.30,,,,,0,00,0.0,,M,,M,0,0000*5F
[2021-02-22 16:49:33.787] $GPGGA,074933.40,,,,,0,00,0.0,,M,,M,0,0000*58
[2021-02-22 16:49:33.880] $GPGGA,074933.50,,,,,0,00,0.0,,M,,M,0,0000*59
[2021-02-22 16:49:33.974] $GPGGA,074933.60,,,,,0,00,0.0,,M,,M,0,0000*5A
[2021-02-22 16:49:34.083] $GPGGA,074933.70,,,,,0,00,0.0,,M,,M,0,0000*5B
[2021-02-22 16:49:34.177] $GPGGA,074933.80,,,,,0,00,0.0,,M,,M,0,0000*54
[2021-02-22 16:49:34.271] $GPGGA,074933.90,,,,,0,00,0.0,,M,,M,0,0000*55
[2021-02-22 16:49:34.365] $GPGGA,074934.00,,,,,0,00,0.0,,M,,M,0,0000*5B
[2021-02-22 16:49:34.490] $GPGGA,074934.10,,,,,0,00,0.0,,M,,M,0,0000*5A
[2021-02-22 16:49:34.583] $GPGGA,074934.20,,,,,0,00,0.0,,M,,M,0,0000*59
[2021-02-22 16:49:34.677] $GPGGA,074934.30,,,,,0,00,0.0,,M,,M,0,0000*58
[2021-02-22 16:49:34.771] $GPGGA,074934.40,,,,,0,00,0.0,,M,,M,0,0000*5F
[2021-02-22 16:49:34.880] $GPGGA,074934.50,,,,,0,00,0.0,,M,,M,0,0000*5E
[2021-02-22 16:49:34.974] $GPGGA,074934.60,,,,,0,00,0.0,,M,,M,0,0000*5D
[2021-02-22 16:49:35.083] $GPGGA,074934.70,,,,,0,00,0.0,,M,,M,0,0000*5C
[2021-02-22 16:49:35.177] $GPGGA,074934.80,,,,,0,00,0.0,,M,,M,0,0000*53
[2021-02-22 16:49:35.286] $GPGGA,074934.90,,,,,0,00,0.0,,M,,M,0,0000*52
[2021-02-22 16:49:35.380] $GPGGA,074935.00,,,,,0,00,0.0,,M,,M,0,0000*5A
[2021-02-22 16:49:35.474] $GPGGA,074935.10,,,,,0,00,0.0,,M,,M,0,0000*5B
[2021-02-22 16:49:35.568] $GPGGA,074935.20,,,,,0,00,0.0,,M,,M,0,0000*58
[2021-02-22 16:49:35.662] $GPGGA,074935.30,,,,,0,00,0.0,,M,,M,0,0000*59
[2021-02-22 16:49:35.786] $GPGGA,074935.40,,,,,0,00,0.0,,M,,M,0,0000*5E
[2021-02-22 16:49:35.880] $GPGGA,074935.50,,,,,0,00,0.0,,M,,M,0,0000*5F
[2021-02-22 16:49:35.974] $GPGGA,074935.60,,,,,0,00,0.0,,M,,M,0,0000*5C
[2021-02-22 16:49:36.068] $GPGGA,074935.70,,,,,0,00,0.0,,M,,M,0,0000*5D
[2021-02-22 16:49:36.177] $GPGGA,074935.80,,,,,0,00,0.0,,M,,M,0,0000*52
[2021-02-22 16:49:36.271] $GPGGA,074935.90,,,,,0,00,0.0,,M,,M,0,0000*53
[2021-02-22 16:49:36.365] $GPGGA,074936.00,,,,,0,00,0.0,,M,,M,0,0000*59
[2021-02-22 16:49:36.474] $GPGGA,074936.10,,,,,0,00,0.0,,M,,M,0,0000*58
[2021-02-22 16:49:36.583] $GPGGA,074936.20,,,,,0,00,0.0,,M,,M,0,0000*5B
[2021-02-22 16:49:36.677] $GPGGA,074936.30,,,,,0,00,0.0,,M,,M,0,0000*5A
[2021-02-22 16:49:36.771] $GPGGA,074936.40,,,,,0,00,0.0,,M,,M,0,0000*5D
[2021-02-22 16:49:36.865] $GPGGA,074936.50,,,,,0,00,0.0,,M,,M,0,0000*5C
[2021-02-22 16:49:36.974] $GPGGA,074936.60,,,,,0,00,0.0,,M,,M,0,0000*5F
[2021-02-22 16:49:37.068] $GPGGA,074936.70,,,,,0,00,0.0,,M,,M,0,0000*5E
[2021-02-22 16:49:37.177] $GPGGA,074936.80,,,,,0,00,0.0,,M,,M,0,0000*51
[2021-02-22 16:49:37.286] $GPGGA,074936.90,,,,,0,00,0.0,,M,,M,0,0000*50
[2021-02-22 16:49:37.380] $GPGGA,074937.00,,,,,0,00,0.0,,M,,M,0,0000*58
[2021-02-22 16:49:37.474] $GPGGA,074937.10,,,,,0,00,0.0,,M,,M,0,0000*59
[2021-02-22 16:49:37.568] $GPGGA,074937.20,,,,,0,00,0.0,,M,,M,0,0000*5A
[2021-02-22 16:49:37.677] $GPGGA,074937.30,,,,,0,00,0.0,,M,,M,0,0000*5B
[2021-02-22 16:49:37.786] $GPGGA,074937.40,,,,,0,00,0.0,,M,,M,0,0000*5C
[2021-02-22 16:49:37.880] $GPGGA,074937.50,,,,,0,00,0.0,,M,,M,0,0000*5D
[2021-02-22 16:49:37.974] $GPGGA,074937.60,,,,,0,00,0.0,,M,,M,0,0000*5E
[2021-02-22 16:49:38.083] $GPGGA,074937.70,,,,,0,00,0.0,,M,,M,0,0000*5F
[2021-02-22 16:49:38.177] $GPGGA,074937.80,,,,,0,00,0.0,,M,,M,0,0000*50
[2021-02-22 16:49:38.271] $GPGGA,074937.90,,,,,0,00,0.0,,M,,M,0,0000*51
[2021-02-22 16:49:38.364] $GPGGA,074938.00,,,,,0,00,0.0,,M,,M,0,0000*57
[2021-02-22 16:49:38.489] $GPGGA,074938.10,,,,,0,00,0.0,,M,,M,0,0000*56
[2021-02-22 16:49:38.583] $GPGGA,074938.20,,,,,0,00,0.0,,M,,M,0,0000*55
[2021-02-22 16:49:38.677] $GPGGA,074938.30,,,,,0,00,0.0,,M,,M,0,0000*54
[2021-02-22 16:49:38.771] $GPGGA,074938.40,,,,,0,00,0.0,,M,,M,0,0000*53
[2021-02-22 16:49:38.880] $GPGGA,074938.50,,,,,0,00,0.0,,M,,M,0,0000*52
[2021-02-22 16:49:38.974] $GPGGA,074938.60,,,,,0,00,0.0,,M,,M,0,0000*51
[2021-02-22 16:49:39.068] $GPGGA,074938.70,,,,,0,00,0.0,,M,,M,0,0000*50
[2021-02-22 16:49:39.192] $GPGGA,074938.80,,,,,0,00,0.0,,M,,M,0,0000*5F
[2021-02-22 16:49:39.286] $GPGGA,074938.90,,,,,0,00,0.0,,M,,M,0,0000*5E
[2021-02-22 16:49:39.380] $GPGGA,074939.00,,,,,0,00,0.0,,M,,M,0,0000*56
[2021-02-22 16:49:39.474] $GPGGA,074939.10,,,,,0,00,0.0,,M,,M,0,0000*57
[2021-02-22 16:49:39.567] $GPGGA,074939.20,,,,,0,00,0.0,,M,,M,0,0000*54
[2021-02-22 16:49:39.677] $GPGGA,074939.30,,,,,0,00,0.0,,M,,M,0,0000*55
[2021-02-22 16:49:39.786] $GPGGA,074939.40,,,,,0,00,0.0,,M,,M,0,0000*52
[2021-02-22 16:49:39.880] $GPGGA,074939.50,,,,,0,00,0.0,,M,,M,0,0000*53
[2021-02-22 16:49:39.974] $GPGGA,074939.60,,,,,0,00,0.0,,M,,M,0,0000*50
[2021-02-22 16:49:40.067] $GPGGA,074939.70,,,,,0,00,0.0,,M,,M,0,0000*51
[2021-02-22 16:49:40.177] $GPGGA,074939.80,,,,,0,00,0.0,,M,,M,0,0000*5E
[2021-02-22 16:49:40.271] $GPGGA,074939.90,,,,,0,00,0.0,,M,,M,0,0000*5F
[2021-02-22 16:49:40.364] $GPGGA,074940.00,,,,,0,00,0.0,,M,,M,0,0000*58
[2021-02-22 16:49:40.474] $GPGGA,074940.10,,,,,0,00,0.0,,M,,M,0,0000*59
[2021-02-22 16:49:40.583] $GPGGA,074940.20,,,,,0,00,0.0,,M,,M,0,0000*5A
[2021-02-22 16:49:40.677] $GPGGA,074940.30,,,,,0,00,0.0,,M,,M,0,0000*5B
[2021-02-22 16:49:40.771] $GPGGA,074940.40,,,,,0,00,0.0,,M,,M,0,0000*5C
[2021-02-22 16:49:40.880] $GPGGA,074940.50,,,,,0,00,0.0,,M,,M,0,0000*5D
[2021-02-22 16:49:40.974] $GPGGA,074940.60,,,,,0,00,0.0,,M,,M,0,0000*5E
[2021-02-22 16:49:41.067] $GPGGA,074940.70,,,,,0,00,0.0,,M,,M,0,0000*5F
[2021-02-22 16:49:41.177] $GPGGA,074940.80,,,,,0,00,0.0,,M,,M,0,0000*50
[2021-02-22 16:49:41.286] $GPGGA,074940.90,,,,,0,00,0.0,,M,,M,0,0000*51
[2021-02-22 16:49:41.380] $GPGGA,074941.00,,,,,0,00,0.0,,M,,M,0,0000*59
[2021-02-22 16:49:41.474] $GPGGA,074941.10,,,,,0,00,0.0,,M,,M,0,0000*58
[2021-02-22 16:49:41.567] $GPGGA,074941.20,,,,,0,00,0.0,,M,,M,0,0000*5B
[2021-02-22 16:49:41.677] $GPGGA,074941.30,,,,,0,00,0.0,,M,,M,0,0000*5A
[2021-02-22 16:49:41.786] $GPGGA,074941.40,,,,,0,00,0.0,,M,,M,0,0000*5D
[2021-02-22 16:49:41.880] $GPGGA,074941.50,,,,,0,00,0.0,,M,,M,0,0000*5C
[2021-02-22 16:49:41.974] $GPGGA,074941.60,,,,,0,00,0.0,,M,,M,0,0000*5F
[2021-02-22 16:49:42.083] $GPGGA,074941.70,,,,,0,00,0.0,,M,,M,0,0000*5E
[2021-02-22 16:49:42.177] $GPGGA,074941.80,,,,,0,00,0.0,,M,,M,0,0000*51
[2021-02-22 16:49:42.269] $GPGGA,074941.90,,,,,0,00,0.0,,M,,M,0,0000*50
[2021-02-22 16:49:42.362] $GPGGA,074942.00,,,,,0,00,0.0,,M,,M,0,0000*5A
[2021-02-22 16:49:42.487] $GPGGA,074942.10,,,,,0,00,0.0,,M,,M,0,0000*5B
[2021-02-22 16:49:42.581] $GPGGA,074942.20,,,,,0,00,0.0,,M,,M,0,0000*58
[2021-02-22 16:49:42.675] $GPGGA,074942.30,,,,,0,00,0.0,,M,,M,0,0000*59
[2021-02-22 16:49:42.784] $GPGGA,074942.40,,,,,0,00,0.0,,M,,M,0,0000*5E
[2021-02-22 16:49:42.878] $GPGGA,074942.50,,,,,0,00,0.0,,M,,M,0,0000*5F
[2021-02-22 16:49:42.972] $GPGGA,074942.60,,,,,0,00,0.0,,M,,M,0,0000*5C
[2021-02-22 16:49:43.081] $GPGGA,074942.70,,,,,0,00,0.0,,M,,M,0,0000*5D
[2021-02-22 16:49:43.190] $GPGGA,074942.80,,,,,0,00,0.0,,M,,M,0,0000*52
[2021-02-22 16:49:43.284] $GPGGA,074942.90,,,,,0,00,0.0,,M,,M,0,0000*53
[2021-02-22 16:49:43.378] $GPGGA,074943.00,,,,,0,00,0.0,,M,,M,0,0000*5B
[2021-02-22 16:49:43.472] $GPGGA,074943.10,,,,,0,00,0.0,,M,,M,0,0000*5A
[2021-02-22 16:49:43.565] $GPGGA,074943.20,,,,,0,00,0.0,,M,,M,0,0000*59
[2021-02-22 16:49:43.675] $GPGGA,074943.30,,,,,0,00,0.0,,M,,M,0,0000*58
[2021-02-22 16:49:43.784] $GPGGA,074943.40,,,,,0,00,0.0,,M,,M,0,0000*5F
[2021-02-22 16:49:43.878] $GPGGA,074943.50,,,,,0,00,0.0,,M,,M,0,0000*5E
[2021-02-22 16:49:43.972] $GPGGA,074943.60,,,,,0,00,0.0,,M,,M,0,0000*5D
[2021-02-22 16:49:44.081] $GPGGA,074943.70,,,,,0,00,0.0,,M,,M,0,0000*5C
[2021-02-22 16:49:44.175] $GPGGA,074943.80,,,,,0,00,0.0,,M,,M,0,0000*53
[2021-02-22 16:49:44.268] $GPGGA,074943.90,,,,,0,00,0.0,,M,,M,0,0000*52
[2021-02-22 16:49:44.362] $GPGGA,074944.00,,,,,0,00,0.0,,M,,M,0,0000*5C
[2021-02-22 16:49:44.487] $GPGGA,074944.10,,,,,0,00,0.0,,M,,M,0,0000*5D
[2021-02-22 16:49:44.581] $GPGGA,074944.20,,,,,0,00,0.0,,M,,M,0,0000*5E
[2021-02-22 16:49:44.675] $GPGGA,074944.30,,,,,0,00,0.0,,M,,M,0,0000*5F
[2021-02-22 16:49:44.768] $GPGGA,074944.40,,,,,0,00,0.0,,M,,M,0,0000*58
[2021-02-22 16:49:44.878] $GPGGA,074944.50,,,,,0,00,0.0,,M,,M,0,0000*59
[2021-02-22 16:49:44.972] $GPGGA,074944.60,,,,,0,00,0.0,,M,,M,0,0000*5A
[2021-02-22 16:49:45.065] $GPGGA,074944.70,,,,,0,00,0.0,,M,,M,0,0000*5B
[2021-02-22 16:49:45.175] $GPGGA,074944.80,,,,,0,00,0.0,,M,,M,0,0000*54
[2021-02-22 16:49:45.284] $GPGGA,074944.90,,,,,0,00,0.0,,M,,M,0,0000*55
[2021-02-22 16:49:45.378] $GPGGA,074945.00,,,,,0,00,0.0,,M,,M,0,0000*5D
[2021-02-22 16:49:45.472] $GPGGA,074945.10,,,,,0,00,0.0,,M,,M,0,0000*5C
[2021-02-22 16:49:45.565] $GPGGA,074945.20,,,,,0,00,0.0,,M,,M,0,0000*5F
[2021-02-22 16:49:45.675] $GPGGA,074945.30,,,,,0,00,0.0,,M,,M,0,0000*5E
[2021-02-22 16:49:45.784] $GPGGA,074945.40,,,,,0,00,0.0,,M,,M,0,0000*59
[2021-02-22 16:49:45.878] $GPGGA,074945.50,,,,,0,00,0.0,,M,,M,0,0000*58
[2021-02-22 16:49:45.972] $GPGGA,074945.60,,,,,0,00,0.0,,M,,M,0,0000*5B
[2021-02-22 16:49:46.081] $GPGGA,074945.70,,,,,0,00,0.0,,M,,M,0,0000*5A
[2021-02-22 16:49:46.175] $GPGGA,074945.80,,,,,0,00,0.0,,M,,M,0,0000*55
[2021-02-22 16:49:46.268] $GPGGA,074945.90,,,,,0,00,0.0,,M,,M,0,0000*54
[2021-02-22 16:49:46.378] $GPGGA,074946.00,,,,,0,00,0.0,,M,,M,0,0000*5E
[2021-02-22 16:49:46.487] $GPGGA,074946.10,,,,,0,00,0.0,,M,,M,0,0000*5F
[2021-02-22 16:49:46.581] $GPGGA,074946.20,,,,,0,00,0.0,,M,,M,0,0000*5C
[2021-02-22 16:49:46.675] $GPGGA,074946.30,,,,,0,00,0.0,,M,,M,0,0000*5D
[2021-02-22 16:49:46.784] $GPGGA,074946.40,,,,,0,00,0.0,,M,,M,0,0000*5A
[2021-02-22 16:49:46.878] $GPGGA,074946.50,,,,,0,00,0.0,,M,,M,0,0000*5B
[2021-02-22 16:49:46.971] $GPGGA,074946.60,,,,,0,00,0.0,,M,,M,0,0000*58
[2021-02-22 16:49:47.081] $GPGGA,074946.70,,,,,0,00,0.0,,M,,M,0,0000*59
[2021-02-22 16:49:47.190] $GPGGA,074946.80,,,,,0,00,0.0,,M,,M,0,0000*56
[2021-02-22 16:49:47.284] $GPGGA,074946.90,,,,,0,00,0.0,,M,,M,0,0000*57
[2021-02-22 16:49:47.378] $GPGGA,074947.00,,,,,0,00,0.0,,M,,M,0,0000*5F
[2021-02-22 16:49:47.471] $GPGGA,074947.10,,,,,0,00,0.0,,M,,M,0,0000*5E
[2021-02-22 16:49:47.581] $GPGGA,074947.20,,,,,0,00,0.0,,M,,M,0,0000*5D
[2021-02-22 16:49:47.675] $GPGGA,074947.30,,,,,0,00,0.0,,M,,M,0,0000*5C
[2021-02-22 16:49:47.784] $GPGGA,074947.40,,,,,0,00,0.0,,M,,M,0,0000*5B
[2021-02-22 16:49:47.878] $GPGGA,074947.50,,,,,0,00,0.0,,M,,M,0,0000*5A
[2021-02-22 16:49:47.971] $GPGGA,074947.60,,,,,0,00,0.0,,M,,M,0,0000*59
[2021-02-22 16:49:48.081] $GPGGA,074947.70,,,,,0,00,0.0,,M,,M,0,0000*58
[2021-02-22 16:49:48.174] $GPGGA,074947.80,,,,,0,00,0.0,,M,,M,0,0000*57
[2021-02-22 16:49:48.268] $GPGGA,074947.90,,,,,0,00,0.0,,M,,M,0,0000*56
[2021-02-22 16:49:48.362] $GPGGA,074948.00,,,,,0,00,0.0,,M,,M,0,0000*50
[2021-02-22 16:49:48.487] $GPGGA,074948.10,,,,,0,00,0.0,,M,,M,0,0000*51
[2021-02-22 16:49:48.581] $GPGGA,074948.20,,,,,0,00,0.0,,M,,M,0,0000*52
[2021-02-22 16:49:48.674] $GPGGA,074948.30,,,,,0,00,0.0,,M,,M,0,0000*53
[2021-02-22 16:49:48.768] $GPGGA,074948.40,,,,,0,00,0.0,,M,,M,0,0000*54
[2021-02-22 16:49:48.878] $GPGGA,074948.50,,,,,0,00,0.0,,M,,M,0,0000*55
[2021-02-22 16:49:48.971] $GPGGA,074948.60,,,,,0,00,0.0,,M,,M,0,0000*56
[2021-02-22 16:49:49.065] $GPGGA,074948.70,3713.9617700,N,13701.5688040,E,1,05,1.5,73.5872,M,37.55,M,,*5F
[2021-02-22 16:49:49.174] $GPGGA,074948.80,3713.9616781,N,13701.5687411,E,1,07,1.5,74.3612,M,37.55,M,,*5C
[2021-02-22 16:49:49.299] $GPGGA,074948.90,3713.9615900,N,13701.5686928,E,1,07,1.5,74.3885,M,37.55,M,,*5F
[2021-02-22 16:49:49.378] $GPGGA,074949.00,3713.9615633,N,13701.5686734,E,1,07,1.5,74.4875,M,37.55,M,,*53
[2021-02-22 16:49:49.502] $GPGGA,074949.10,3713.9615619,N,13701.5687307,E,1,07,1.5,74.8969,M,37.55,M,,*5F
[2021-02-22 16:49:49.565] $GPGGA,074949.20,3713.9616360,N,13701.5687236,E,1,07,1.5,74.3868,M,37.55,M,,*5C
[2021-02-22 16:49:49.706] $GPGGA,074949.30,3713.9615475,N,13701.5687406,E,1,07,1.5,74.2297,M,37.55,M,,*53
[2021-02-22 16:49:49.799] $GPGGA,074949.40,3713.9615858,N,13701.5687527,E,1,07,1.5,73.9483,M,37.55,M,,*5A
[2021-02-22 16:49:49.877] $GPGGA,074949.50,3713.9616007,N,13701.5688569,E,1,07,1.5,73.6504,M,37.55,M,,*5E
[2021-02-22 16:49:50.002] $GPGGA,074949.60,3713.9615863,N,13701.5689396,E,1,07,1.5,73.6776,M,37.55,M,,*54
[2021-02-22 16:49:50.081] $GPGGA,074949.70,3713.9615507,N,13701.5689141,E,1,07,1.5,74.0919,M,37.55,M,,*54
[2021-02-22 16:49:50.190] $GPGGA,074949.80,3713.9616181,N,13701.5689659,E,1,07,1.5,73.7064,M,37.55,M,,*5F
[2021-02-22 16:49:50.268] $GPGGA,074949.90,3713.9615958,N,13701.5690170,E,1,07,1.5,73.4283,M,37.55,M,,*5D
[2021-02-22 16:49:50.393] $GPGGA,074950.00,3713.9615281,N,13701.5689862,E,1,08,1.5,73.6887,M,37.55,M,,*52
[2021-02-22 16:49:50.471] $GPGGA,074950.10,3713.9614029,N,13701.5690038,E,1,08,1.5,73.5812,M,37.55,M,,*52
[2021-02-22 16:49:50.596] $GPGGA,074950.20,3713.9614269,N,13701.5689880,E,1,08,1.5,73.2403,M,37.55,M,,*5F
[2021-02-22 16:49:50.674] $GPGGA,074950.30,3713.9613995,N,13701.5689141,E,1,08,1.5,73.7126,M,37.55,M,,*52
[2021-02-22 16:49:50.799] $GPGGA,074950.40,3713.9614077,N,13701.5688786,E,1,08,1.5,73.7056,M,37.55,M,,*5D
[2021-02-22 16:49:50.877] $GPGGA,074950.50,3713.9613553,N,13701.5688404,E,1,08,1.5,73.9044,M,37.55,M,,*5C
[2021-02-22 16:49:50.987] $GPGGA,074950.60,3713.9614140,N,13701.5688532,E,1,08,1.5,73.7922,M,37.55,M,,*5D
[2021-02-22 16:49:51.080] $GPGGA,074950.70,3713.9614711,N,13701.5687947,E,1,08,1.5,74.1908,M,37.55,M,,*56
[2021-02-22 16:49:51.190] $GPGGA,074950.80,3713.9615739,N,13701.5687735,E,1,08,1.5,74.2026,M,37.55,M,,*5F
[2021-02-22 16:49:51.268] $GPGGA,074950.90,3713.9616394,N,13701.5687767,E,1,08,1.5,73.3010,M,37.55,M,,*5A
[2021-02-22 16:49:51.393] $GPGGA,074951.00,3713.9616361,N,13701.5687785,E,1,08,1.5,73.3955,M,37.55,M,,*5C
[2021-02-22 16:49:51.502] $GPGGA,074951.10,3713.9615908,N,13701.5687515,E,1,08,1.5,73.3005,M,37.55,M,,*5C
[2021-02-22 16:49:51.580] $GPGGA,074951.20,3713.9616222,N,13701.5687180,E,1,08,1.5,73.1309,M,37.55,M,,*5A
[2021-02-22 16:49:51.690] $GPGGA,074951.30,3713.9615761,N,13701.5686884,E,1,08,1.5,73.4635,M,37.55,M,,*59
[2021-02-22 16:49:51.768] $GPGGA,074951.40,3713.9614539,N,13701.5687352,E,1,08,1.5,73.8157,M,37.55,M,,*5E
[2021-02-22 16:49:51.893] $GPGGA,074951.50,3713.9614437,N,13701.5687633,E,1,08,1.5,73.7620,M,37.55,M,,*5A
[2021-02-22 16:49:51.971] $GPGGA,074951.60,3713.9613924,N,13701.5687914,E,1,08,1.5,73.8948,M,37.55,M,,*55
[2021-02-22 16:49:52.096] $GPGGA,074951.70,3713.9613630,N,13701.5688405,E,1,08,1.5,73.7327,M,37.55,M,,*50
[2021-02-22 16:49:52.174] $GPGGA,074951.80,3713.9613333,N,13701.5688218,E,1,08,1.5,73.8800,M,37.55,M,,*52
[2021-02-22 16:49:52.299] $GPGGA,074951.90,3713.9613706,N,13701.5688294,E,1,08,1.5,74.3012,M,37.55,M,,*52
[2021-02-22 16:49:52.377] $GPGGA,074952.00,3713.9613932,N,13701.5688284,E,1,08,1.5,74.0487,M,37.55,M,,*5B
[2021-02-22 16:49:52.502] $GPGGA,074952.10,3713.9613445,N,13701.5688749,E,1,08,1.5,74.3421,M,37.55,M,,*5C
[2021-02-22 16:49:52.580] $GPGGA,074952.20,3713.9613304,N,13701.5687596,E,1,08,1.5,74.5833,M,37.55,M,,*5B
[2021-02-22 16:49:52.690] $GPGGA,074952.30,3713.9613493,N,13701.5688037,E,1,08,1.5,74.6628,M,37.55,M,,*55
[2021-02-22 16:49:52.768] $GPGGA,074952.40,3713.9613950,N,13701.5688124,E,1,08,1.5,74.7981,M,37.55,M,,*5E
[2021-02-22 16:49:52.893] $GPGGA,074952.50,3713.9615389,N,13701.5688856,E,1,08,1.5,74.3294,M,37.55,M,,*50
[2021-02-22 16:49:52.971] $GPGGA,074952.60,3713.9615602,N,13701.5688904,E,1,08,1.5,74.0264,M,37.55,M,,*5F
[2021-02-22 16:49:53.096] $GPGGA,074952.70,3713.9615417,N,13701.5688343,E,1,08,1.5,74.2138,M,37.55,M,,*59
[2021-02-22 16:49:53.174] $GPGGA,074952.80,3713.9616137,N,13701.5688259,E,1,08,1.5,73.7035,M,37.55,M,,*56
[2021-02-22 16:49:53.299] $GPGGA,074952.90,3713.9616356,N,13701.5688832,E,1,08,1.5,73.7446,M,37.55,M,,*55
[2021-02-22 16:49:53.393] $GPGGA,074953.00,3713.9616359,N,13701.5689066,E,1,08,1.5,74.1178,M,37.55,M,,*53
[2021-02-22 16:49:53.471] $GPGGA,074953.10,3713.9617319,N,13701.5688415,E,1,08,1.5,73.7450,M,37.55,M,,*58
[2021-02-22 16:49:53.596] $GPGGA,074953.20,3713.9618336,N,13701.5688534,E,1,08,1.5,72.9900,M,37.55,M,,*5C
[2021-02-22 16:49:53.674] $GPGGA,074953.30,3713.9618083,N,13701.5688385,E,1,08,1.5,73.0372,M,37.55,M,,*5B
[2021-02-22 16:49:53.799] $GPGGA,074953.40,3713.9618134,N,13701.5687863,E,1,08,1.5,72.5602,M,37.55,M,,*5B
[2021-02-22 16:49:53.877] $GPGGA,074953.50,3713.9619118,N,13701.5688773,E,1,08,1.5,72.0464,M,37.55,M,,*53
[2021-02-22 16:49:54.002] $GPGGA,074953.60,3713.9618131,N,13701.5690092,E,1,08,1.5,71.7801,M,37.55,M,,*50
[2021-02-22 16:49:54.080] $GPGGA,074953.70,3713.9617858,N,13701.5690079,E,1,08,1.5,71.6479,M,37.55,M,,*5F
[2021-02-22 16:49:54.190] $GPGGA,074953.80,3713.9617023,N,13701.5689428,E,1,08,1.5,71.9666,M,37.55,M,,*5F
[2021-02-22 16:49:54.268] $GPGGA,074953.90,3713.9616205,N,13701.5689294,E,1,08,1.5,72.3880,M,37.55,M,,*57
[2021-02-22 16:49:54.393] $GPGGA,074954.00,3713.9616026,N,13701.5689570,E,1,08,1.5,71.8097,M,37.55,M,,*51
[2021-02-22 16:49:54.471] $GPGGA,074954.10,3713.9615600,N,13701.5689045,E,1,08,1.5,72.2337,M,37.55,M,,*52
[2021-02-22 16:49:54.596] $GPGGA,074954.20,3713.9614583,N,13701.5689501,E,1,08,1.5,72.1841,M,37.55,M,,*54
[2021-02-22 16:49:54.674] $GPGGA,074954.30,3713.9614034,N,13701.5688494,E,1,08,1.5,72.6393,M,37.55,M,,*53
[2021-02-22 16:49:54.799] $GPGGA,074954.40,3713.9614606,N,13701.5688554,E,1,08,1.5,72.5428,M,37.55,M,,*5A
[2021-02-22 16:49:54.877] $GPGGA,074954.50,3713.9613907,N,13701.5687260,E,1,08,1.5,72.3882,M,37.55,M,,*57
[2021-02-22 16:49:54.987] $GPGGA,074954.60,3713.9614755,N,13701.5687279,E,1,08,1.5,72.0230,M,37.55,M,,*52
[2021-02-22 16:49:55.096] $GPGGA,074954.70,3713.9615451,N,13701.5687936,E,1,08,1.5,71.9507,M,37.55,M,,*5C
[2021-02-22 16:49:55.174] $GPGGA,074954.80,3713.9615221,N,13701.5687946,E,1,08,1.5,71.4292,M,37.55,M,,*53
[2021-02-22 16:49:55.299] $GPGGA,074954.90,3713.9614986,N,13701.5688623,E,1,08,1.5,71.0145,M,37.55,M,,*5B
[2021-02-22 16:49:55.377] $GPGGA,074955.00,3713.9615345,N,13701.5688857,E,1,08,1.5,70.6096,M,37.55,M,,*52
[2021-02-22 16:49:55.502] $GPGGA,074955.10,3713.9616044,N,13701.5688437,E,1,08,1.5,70.1838,M,37.55,M,,*53
[2021-02-22 16:49:55.580] $GPGGA,074955.20,3713.9616667,N,13701.5688971,E,1,08,1.5,69.6411,M,37.55,M,,*50
[2021-02-22 16:49:55.690] $GPGGA,074955.30,3713.9607681,N,13701.5664666,E,1,09,1.4,88.7376,M,37.55,M,,*5A
[2021-02-22 16:49:55.768] $GPGGA,074955.40,3713.9607372,N,13701.5665485,E,1,09,1.4,88.8864,M,37.55,M,,*5D
[2021-02-22 16:49:55.893] $GPGGA,074955.50,3713.9607389,N,13701.5665469,E,1,09,1.4,88.6073,M,37.55,M,,*5A
[2021-02-22 16:49:55.971] $GPGGA,074955.60,3713.9606804,N,13701.5664038,E,1,09,1.4,89.5433,M,37.55,M,,*55
[2021-02-22 16:49:56.096] $GPGGA,074955.70,3713.9608063,N,13701.5668523,E,1,09,1.4,86.8561,M,37.55,M,,*54
[2021-02-22 16:49:56.174] $GPGGA,074955.80,3713.9609264,N,13701.5670401,E,1,09,1.4,85.8363,M,37.55,M,,*50
[2021-02-22 16:49:56.299] $GPGGA,074955.90,3713.9608267,N,13701.5669580,E,1,09,1.4,87.5315,M,37.55,M,,*5D
[2021-02-22 16:49:56.377] $GPGGA,074956.00,3713.9607905,N,13701.5668803,E,1,09,1.4,88.3520,M,37.55,M,,*59
[2021-02-22 16:49:56.502] $GPGGA,074956.10,3713.9607693,N,13701.5669423,E,1,09,1.4,88.0299,M,37.55,M,,*51
[2021-02-22 16:49:56.580] $GPGGA,074956.20,3713.9608277,N,13701.5669478,E,1,09,1.4,88.5732,M,37.55,M,,*5C
[2021-02-22 16:49:56.689] $GPGGA,074956.30,3713.9609342,N,13701.5670889,E,1,09,1.4,87.4722,M,37.55,M,,*5E
[2021-02-22 16:49:56.768] $GPGGA,074956.40,3713.9609207,N,13701.5668732,E,1,09,1.4,88.2239,M,37.55,M,,*59
[2021-02-22 16:49:56.893] $GPGGA,074956.50,3713.9609833,N,13701.5671349,E,1,09,1.4,86.2189,M,37.55,M,,*53
[2021-02-22 16:49:57.002] $GPGGA,074956.60,3713.9608506,N,13701.5669496,E,1,09,1.4,87.9595,M,37.55,M,,*55
[2021-02-22 16:49:57.080] $GPGGA,074956.70,3713.9607812,N,13701.5668909,E,1,09,1.4,88.3195,M,37.55,M,,*58
[2021-02-22 16:49:57.189] $GPGGA,074956.80,3713.9607612,N,13701.5668885,E,1,09,1.4,87.8736,M,37.55,M,,*57
[2021-02-22 16:49:57.268] $GPGGA,074956.90,3713.9607289,N,13701.5668195,E,1,09,1.4,88.4071,M,37.55,M,,*5F
[2021-02-22 16:49:57.393] $GPGGA,074957.00,3713.9606575,N,13701.5667100,E,1,09,1.4,88.6112,M,37.55,M,,*57
[2021-02-22 16:49:57.471] $GPGGA,074957.10,3713.9605909,N,13701.5665551,E,1,09,1.4,89.7464,M,37.55,M,,*54
[2021-02-22 16:49:57.596] $GPGGA,074957.20,3713.9606029,N,13701.5666681,E,1,09,1.4,89.0582,M,37.55,M,,*5C
[2021-02-22 16:49:57.674] $GPGGA,074957.30,3713.9605247,N,13701.5667121,E,1,09,1.4,89.3856,M,37.55,M,,*5F
[2021-02-22 16:49:57.799] $GPGGA,074957.40,3713.9603823,N,13701.5666392,E,1,09,1.4,90.0850,M,37.55,M,,*50
[2021-02-22 16:49:57.877] $GPGGA,074957.50,3713.9605046,N,13701.5666649,E,1,09,1.4,89.9384,M,37.55,M,,*5C
[2021-02-22 16:49:58.002] $GPGGA,074957.60,3713.9606206,N,13701.5667561,E,1,09,1.4,88.9435,M,37.55,M,,*5E
[2021-02-22 16:49:58.080] $GPGGA,074957.70,3713.9605953,N,13701.5666757,E,1,09,1.4,88.8365,M,37.55,M,,*52
[2021-02-22 16:49:58.189] $GPGGA,074957.80,3713.9605645,N,13701.5665608,E,1,09,1.4,89.5335,M,37.55,M,,*54
[2021-02-22 16:49:58.268] $GPGGA,074957.90,3713.9606123,N,13701.5665854,E,1,09,1.4,89.6430,M,37.55,M,,*57
[2021-02-22 16:49:58.393] $GPGGA,074958.00,3713.9605841,N,13701.5665875,E,1,09,1.4,89.6937,M,37.55,M,,*56
[2021-02-22 16:49:58.471] $GPGGA,074958.10,3713.9605664,N,13701.5666466,E,1,09,1.4,89.3766,M,37.55,M,,*5C
[2021-02-22 16:49:58.596] $GPGGA,074958.20,3713.9606667,N,13701.5666159,E,1,09,1.4,89.0882,M,37.55,M,,*50
[2021-02-22 16:49:58.689] $GPGGA,074958.30,3713.9606686,N,13701.5665880,E,1,09,1.4,89.4301,M,37.55,M,,*54
[2021-02-22 16:49:58.783] $GPGGA,074958.40,3713.9607074,N,13701.5666564,E,1,09,1.4,88.9582,M,37.55,M,,*5C
[2021-02-22 16:49:58.892] $GPGGA,074958.50,3713.9608008,N,13701.5667402,E,1,09,1.4,88.1678,M,37.55,M,,*57
[2021-02-22 16:49:58.971] $GPGGA,074958.60,3713.9608619,N,13701.5667774,E,1,09,1.4,87.7748,M,37.55,M,,*5B
[2021-02-22 16:49:59.096] $GPGGA,074958.70,3713.9608620,N,13701.5667529,E,1,09,1.4,87.7849,M,37.55,M,,*54
[2021-02-22 16:49:59.174] $GPGGA,074958.80,3713.9608503,N,13701.5667798,E,1,09,1.4,88.4891,M,37.55,M,,*58
[2021-02-22 16:49:59.299] $GPGGA,074958.90,3713.9609774,N,13701.5668025,E,1,09,1.4,87.9235,M,37.55,M,,*52
[2021-02-22 16:49:59.377] $GPGGA,074959.00,3713.9610261,N,13701.5667668,E,1,09,1.4,88.6711,M,37.55,M,,*50
[2021-02-22 16:49:59.502] $GPGGA,074959.10,3713.9611355,N,13701.5668826,E,1,09,1.4,88.4032,M,37.55,M,,*59
[2021-02-22 16:49:59.580] $GPGGA,074959.20,3713.9611165,N,13701.5668320,E,1,09,1.4,89.1502,M,37.55,M,,*54
[2021-02-22 16:49:59.705] $GPGGA,074959.30,3713.9611730,N,13701.5668777,E,1,09,1.4,89.1330,M,37.55,M,,*52
[2021-02-22 16:49:59.767] $GPGGA,074959.40,3713.9612298,N,13701.5668585,E,1,09,1.4,89.4850,M,37.55,M,,*56
[2021-02-22 16:49:59.892] $GPGGA,074959.50,3713.9611913,N,13701.5669260,E,1,09,1.4,89.3111,M,37.55,M,,*5A
[2021-02-22 16:49:59.971] $GPGGA,074959.60,3713.9611659,N,13701.5669181,E,1,09,1.4,90.1888,M,37.55,M,,*57
[2021-02-22 16:50:00.095] $GPGGA,074959.70,3713.9612587,N,13701.5670258,E,1,09,1.4,89.5865,M,37.55,M,,*55
[2021-02-22 16:50:00.174] $GPGGA,074959.80,3713.9613435,N,13701.5670478,E,1,09,1.4,89.1613,M,37.55,M,,*5C
[2021-02-22 16:50:00.299] $GPGGA,074959.90,3713.9612740,N,13701.5668949,E,1,09,1.4,88.8651,M,37.55,M,,*55
[2021-02-22 16:50:00.392] $GPGGA,075000.00,3713.9608542,N,13701.5669858,E,1,10,1.2,90.6998,M,37.55,M,,*50
[2021-02-22 16:50:00.470] $GPGGA,075000.10,3713.9608425,N,13701.5670363,E,1,10,1.2,90.7353,M,37.55,M,,*56
[2021-02-22 16:50:00.595] $GPGGA,075000.20,3713.9608374,N,13701.5669936,E,1,10,1.2,90.6721,M,37.55,M,,*54
[2021-02-22 16:50:00.674] $GPGGA,075000.30,3713.9607530,N,13701.5669964,E,1,10,1.2,91.2713,M,37.55,M,,*5F
[2021-02-22 16:50:00.799] $GPGGA,075000.40,3713.9605139,N,13701.5670243,E,1,11,1.2,92.3855,M,37.55,M,,*5F
[2021-02-22 16:50:00.877] $GPGGA,075000.50,3713.9605225,N,13701.5669874,E,1,11,1.2,92.3908,M,37.55,M,,*5F
[2021-02-22 16:50:01.002] $GPGGA,075000.60,3713.9604587,N,13701.5669684,E,1,11,1.2,92.4218,M,37.55,M,,*5E
[2021-02-22 16:50:01.080] $GPGGA,075000.70,3713.9604243,N,13701.5669774,E,1,11,1.2,92.3303,M,37.55,M,,*52
[2021-02-22 16:50:01.189] $GPGGA,075000.80,3713.9603701,N,13701.5669720,E,1,11,1.2,92.2354,M,37.55,M,,*5B
[2021-02-22 16:50:01.283] $GPGGA,075000.90,3713.9603609,N,13701.5669569,E,1,11,1.2,92.3076,M,37.55,M,,*5E
[2021-02-22 16:50:01.392] $GPGGA,075001.00,3713.9603991,N,13701.5670350,E,1,11,1.2,91.8837,M,37.55,M,,*59
[2021-02-22 16:50:01.470] $GPGGA,075001.10,3713.9603990,N,13701.5670440,E,1,11,1.2,91.6317,M,37.55,M,,*58
[2021-02-22 16:50:01.595] $GPGGA,075001.20,3713.9603855,N,13701.5669968,E,1,11,1.2,91.6533,M,37.55,M,,*5C
[2021-02-22 16:50:01.674] $GPGGA,075001.30,3713.9603556,N,13701.5669022,E,1,11,1.2,91.6843,M,37.55,M,,*5E
[2021-02-22 16:50:01.798] $GPGGA,075001.40,3713.9603197,N,13701.5669906,E,1,11,1.2,92.1336,M,37.55,M,,*52
[2021-02-22 16:50:01.877] $GPGGA,075001.50,3713.9602635,N,13701.5669844,E,1,11,1.2,92.2416,M,37.55,M,,*5C
[2021-02-22 16:50:02.002] $GPGGA,075001.60,3713.9602542,N,13701.5669640,E,1,11,1.2,92.5077,M,37.55,M,,*52
[2021-02-22 16:50:02.080] $GPGGA,075001.70,3713.9601737,N,13701.5668444,E,1,11,1.2,92.8333,M,37.55,M,,*59
[2021-02-22 16:50:02.189] $GPGGA,075001.80,3713.9601536,N,13701.5668761,E,1,11,1.2,92.6773,M,37.55,M,,*5F
[2021-02-22 16:50:02.298] $GPGGA,075001.90,3713.9601878,N,13701.5668642,E,1,11,1.2,92.7107,M,37.55,M,,*5D
[2021-02-22 16:50:02.377] $GPGGA,075002.00,3713.9601942,N,13701.5667699,E,1,11,1.2,92.8750,M,37.55,M,,*5D
[2021-02-22 16:50:02.502] $GPGGA,075002.10,3713.9601777,N,13701.5667577,E,1,11,1.2,92.6308,M,37.55,M,,*50
[2021-02-22 16:50:02.580] $GPGGA,075002.20,3713.9601303,N,13701.5667476,E,1,11,1.2,92.2003,M,37.55,M,,*58
[2021-02-22 16:50:02.689] $GPGGA,075002.30,3713.9602187,N,13701.5667684,E,1,11,1.2,92.3529,M,37.55,M,,*57
[2021-02-22 16:50:02.783] $GPGGA,075002.40,3713.9601661,N,13701.5667945,E,1,11,1.2,92.7528,M,37.55,M,,*5B
[2021-02-22 16:50:02.892] $GPGGA,075002.50,3713.9601898,N,13701.5668311,E,1,11,1.2,92.7120,M,37.55,M,,*5A
[2021-02-22 16:50:02.970] $GPGGA,075002.60,3713.9601800,N,13701.5668132,E,1,11,1.2,92.6151,M,37.55,M,,*5C
[2021-02-22 16:50:03.095] $GPGGA,075002.70,3713.9602545,N,13701.5667823,E,1,11,1.2,92.3490,M,37.55,M,,*59
[2021-02-22 16:50:03.173] $GPGGA,075002.80,3713.9602326,N,13701.5667489,E,1,11,1.2,92.3161,M,37.55,M,,*52
[2021-02-22 16:50:03.298] $GPGGA,075002.90,3713.9601954,N,13701.5668186,E,1,11,1.2,92.1943,M,37.55,M,,*50
[2021-02-22 16:50:03.377] $GPGGA,075003.00,3713.9601550,N,13701.5667910,E,1,11,1.2,92.2395,M,37.55,M,,*5A
[2021-02-22 16:50:03.501] $GPGGA,075003.10,3713.9601667,N,13701.5668267,E,1,11,1.2,92.3658,M,37.55,M,,*5D
[2021-02-22 16:50:03.580] $GPGGA,075003.20,3713.9601584,N,13701.5668213,E,1,11,1.2,92.8510,M,37.55,M,,*57
[2021-02-22 16:50:03.689] $GPGGA,075003.30,3713.9601507,N,13701.5668432,E,1,11,1.2,92.7549,M,37.55,M,,*5B
[2021-02-22 16:50:03.767] $GPGGA,075003.40,3713.9601489,N,13701.5666983,E,1,11,1.2,92.8298,M,37.55,M,,*56
[2021-02-22 16:50:03.892] $GPGGA,075003.50,3713.9602084,N,13701.5666885,E,1,11,1.2,92.9464,M,37.55,M,,*5E
[2021-02-22 16:50:04.001] $GPGGA,075003.60,3713.9602101,N,13701.5666801,E,1,11,1.2,92.8266,M,37.55,M,,*58
[2021-02-22 16:50:04.080] $GPGGA,075003.70,3713.9602354,N,13701.5666495,E,1,11,1.2,93.1058,M,37.55,M,,*5D
[2021-02-22 16:50:04.205] $GPGGA,075003.80,3713.9602906,N,13701.5666776,E,1,11,1.2,93.2982,M,37.55,M,,*5C
[2021-02-22 16:50:04.283] $GPGGA,075003.90,3713.9602898,N,13701.5667321,E,1,11,1.2,93.1975,M,37.55,M,,*57
[2021-02-22 16:50:04.392] $GPGGA,075004.00,3713.9602452,N,13701.5667995,E,1,11,1.2,93.1325,M,37.55,M,,*59
[2021-02-22 16:50:04.470] $GPGGA,075004.10,3713.9601942,N,13701.5667753,E,1,11,1.2,93.2426,M,37.55,M,,*54
[2021-02-22 16:50:04.595] $GPGGA,075004.20,3713.9602614,N,13701.5667524,E,1,11,1.2,93.1114,M,37.55,M,,*5D
[2021-02-22 16:50:04.673] $GPGGA,075004.30,3713.9602533,N,13701.5667699,E,1,11,1.2,92.9095,M,37.55,M,,*5E
[2021-02-22 16:50:04.798] $GPGGA,075004.40,3713.9602140,N,13701.5667702,E,1,11,1.2,93.2884,M,37.55,M,,*58
[2021-02-22 16:50:04.876] $GPGGA,075004.50,3713.9601517,N,13701.5667497,E,1,11,1.2,93.3433,M,37.55,M,,*52
[2021-02-22 16:50:05.001] $GPGGA,075004.60,3713.9601253,N,13701.5667687,E,1,11,1.2,93.1930,M,37.55,M,,*59
[2021-02-22 16:50:05.080] $GPGGA,075004.70,3713.9601628,N,13701.5667993,E,1,11,1.2,93.1499,M,37.55,M,,*54
[2021-02-22 16:50:05.189] $GPGGA,075004.80,3713.9601714,N,13701.5667782,E,1,11,1.2,93.1666,M,37.55,M,,*59
[2021-02-22 16:50:05.267] $GPGGA,075004.90,3713.9602076,N,13701.5668010,E,1,11,1.2,92.8640,M,37.55,M,,*57
[2021-02-22 16:50:05.392] $GPGGA,075005.00,3713.9601748,N,13701.5667073,E,1,11,1.2,93.5413,M,37.55,M,,*54
[2021-02-22 16:50:05.470] $GPGGA,075005.10,3713.9601244,N,13701.5667022,E,1,11,1.2,93.4434,M,37.55,M,,*5C
[2021-02-22 16:50:05.595] $GPGGA,075005.20,3713.9602048,N,13701.5666868,E,1,11,1.2,93.5929,M,37.55,M,,*55
[2021-02-22 16:50:05.673] $GPGGA,075005.30,3713.9602325,N,13701.5667251,E,1,11,1.2,93.4075,M,37.55,M,,*5C
[2021-02-22 16:50:05.798] $GPGGA,075005.40,3713.9601520,N,13701.5667015,E,1,11,1.2,93.5268,M,37.55,M,,*56
[2021-02-22 16:50:05.892] $GPGGA,075005.50,3713.9601661,N,13701.5666940,E,1,11,1.2,93.4367,M,37.55,M,,*56
[2021-02-22 16:50:05.970] $GPGGA,075005.60,3713.9602149,N,13701.5666884,E,1,11,1.2,93.2134,M,37.55,M,,*50
[2021-02-22 16:50:06.095] $GPGGA,075005.70,3713.9602534,N,13701.5667070,E,1,11,1.2,92.7842,M,37.55,M,,*51
[2021-02-22 16:50:06.173] $GPGGA,075005.80,3713.9602122,N,13701.5666796,E,1,11,1.2,92.9923,M,37.55,M,,*5B
[2021-02-22 16:50:06.298] $GPGGA,075005.90,3713.9602708,N,13701.5666379,E,1,11,1.2,93.0683,M,37.55,M,,*5C
[2021-02-22 16:50:06.376] $GPGGA,075006.00,3713.9602566,N,13701.5666423,E,1,11,1.2,92.8980,M,37.55,M,,*51
[2021-02-22 16:50:06.501] $GPGGA,075006.10,3713.9602625,N,13701.5666986,E,1,11,1.2,92.8357,M,37.55,M,,*56
[2021-02-22 16:50:06.579] $GPGGA,075006.20,3713.9602930,N,13701.5666713,E,1,11,1.2,93.2998,M,37.55,M,,*5E
[2021-02-22 16:50:06.689] $GPGGA,075006.30,3713.9602842,N,13701.5667730,E,1,11,1.2,93.4219,M,37.55,M,,*5F
[2021-02-22 16:50:06.783] $GPGGA,075006.40,3713.9603104,N,13701.5667924,E,1,11,1.2,93.3247,M,37.55,M,,*55
[2021-02-22 16:50:06.892] $GPGGA,075006.50,3713.9603096,N,13701.5667979,E,1,11,1.2,93.3608,M,37.55,M,,*59
[2021-02-22 16:50:06.970] $GPGGA,075006.60,3713.9602853,N,13701.5668439,E,1,11,1.2,93.2178,M,37.55,M,,*5D
[2021-02-22 16:50:07.095] $GPGGA,075006.70,3713.9602777,N,13701.5668384,E,1,11,1.2,93.2174,M,37.55,M,,*58
[2021-02-22 16:50:07.173] $GPGGA,075006.80,3713.9602293,N,13701.5667829,E,1,11,1.2,93.2829,M,37.55,M,,*5A
[2021-02-22 16:50:07.298] $GPGGA,075006.90,3713.9602712,N,13701.5668088,E,1,11,1.2,92.9110,M,37.55,M,,*52
[2021-02-22 16:50:07.376] $GPGGA,075007.00,3713.9602331,N,13701.5668882,E,1,11,1.2,93.1607,M,37.55,M,,*55
[2021-02-22 16:50:07.501] $GPGGA,075007.10,3713.9601513,N,13701.5668975,E,1,11,1.2,93.1498,M,37.55,M,,*5C
[2021-02-22 16:50:07.595] $GPGGA,075007.20,3713.9601872,N,13701.5668870,E,1,11,1.2,92.7849,M,37.55,M,,*56
[2021-02-22 16:50:07.673] $GPGGA,075007.30,3713.9602168,N,13701.5668835,E,1,11,1.2,92.7562,M,37.55,M,,*53
[2021-02-22 16:50:07.798] $GPGGA,075007.40,3713.9601731,N,13701.5668755,E,1,11,1.2,92.8273,M,37.55,M,,*5C
[2021-02-22 16:50:07.876] $GPGGA,075007.50,3713.9603103,N,13701.5668208,E,1,11,1.2,92.5220,M,37.55,M,,*5E
[2021-02-22 16:50:08.001] $GPGGA,075007.60,3713.9603594,N,13701.5666852,E,1,11,1.2,92.2227,M,37.55,M,,*5C
[2021-02-22 16:50:08.079] $GPGGA,075007.70,3713.9603360,N,13701.5667337,E,1,11,1.2,91.7696,M,37.55,M,,*51
[2021-02-22 16:50:08.189] $GPGGA,075007.80,3713.9603327,N,13701.5667319,E,1,11,1.2,91.7049,M,37.55,M,,*55
[2021-02-22 16:50:08.282] $GPGGA,075007.90,3713.9602716,N,13701.5666667,E,1,11,1.2,92.1903,M,37.55,M,,*5C
[2021-02-22 16:50:08.392] $GPGGA,075008.00,3713.9602354,N,13701.5667401,E,1,11,1.2,91.9612,M,37.55,M,,*5F
[2021-02-22 16:50:08.470] $GPGGA,075008.10,3713.9602337,N,13701.5667470,E,1,11,1.2,92.1515,M,37.55,M,,*52
[2021-02-22 16:50:08.595] $GPGGA,075008.20,3713.9603049,N,13701.5667506,E,1,11,1.2,92.1683,M,37.55,M,,*56
[2021-02-22 16:50:08.673] $GPGGA,075008.30,3713.9602927,N,13701.5667983,E,1,11,1.2,92.2024,M,37.55,M,,*5E
[2021-02-22 16:50:08.798] $GPGGA,075008.40,3713.9603417,N,13701.5667529,E,1,11,1.2,92.0028,M,37.55,M,,*54
[2021-02-22 16:50:08.876] $GPGGA,075008.50,3713.9603183,N,13701.5666970,E,1,11,1.2,92.0366,M,37.55,M,,*55
[2021-02-22 16:50:09.001] $GPGGA,075008.60,3713.9603195,N,13701.5666390,E,1,11,1.2,91.5978,M,37.55,M,,*56
[2021-02-22 16:50:09.079] $GPGGA,075008.70,3713.9603908,N,13701.5666208,E,1,11,1.2,91.7268,M,37.55,M,,*53
[2021-02-22 16:50:09.189] $GPGGA,075008.80,3713.9604149,N,13701.5666457,E,1,11,1.2,91.5425,M,37.55,M,,*57
[2021-02-22 16:50:09.267] $GPGGA,075008.90,3713.9604504,N,13701.5666797,E,1,11,1.2,91.1597,M,37.55,M,,*58
[2021-02-22 16:50:09.392] $GPGGA,075009.00,3713.9604285,N,13701.5666280,E,1,11,1.2,91.1245,M,37.55,M,,*55
[2021-02-22 16:50:09.501] $GPGGA,075009.10,3713.9603740,N,13701.5667083,E,1,11,1.2,91.4299,M,37.55,M,,*5B
[2021-02-22 16:50:09.579] $GPGGA,075009.20,3713.9603814,N,13701.5666465,E,1,11,1.2,91.6083,M,37.55,M,,*50
[2021-02-22 16:50:09.704] $GPGGA,075009.30,3713.9602937,N,13701.5665675,E,1,11,1.2,91.9627,M,37.55,M,,*57
[2021-02-22 16:50:09.782] $GPGGA,075009.40,3713.9602629,N,13701.5665711,E,1,11,1.2,91.9771,M,37.55,M,,*51
[2021-02-22 16:50:09.892] $GPGGA,075009.50,3713.9602075,N,13701.5664840,E,1,11,1.2,91.9957,M,37.55,M,,*5F
[2021-02-22 16:50:09.970] $GPGGA,075009.60,3713.9601944,N,13701.5663981,E,1,11,1.2,91.8057,M,37.55,M,,*57
[2021-02-22 16:50:10.095] $GPGGA,075009.70,3713.9601661,N,13701.5664502,E,1,11,1.2,92.0585,M,37.55,M,,*5F
[2021-02-22 16:50:10.173] $GPGGA,075009.80,3713.9601128,N,13701.5666157,E,1,12,1.1,92.4381,M,37.55,M,,*5A
[2021-02-22 16:50:10.298] $GPGGA,075009.90,3713.9601466,N,13701.5666636,E,1,12,1.1,91.9587,M,37.55,M,,*5A
[2021-02-22 16:50:10.376] $GPGGA,075010.00,3713.9601873,N,13701.5667270,E,1,12,1.1,91.5331,M,37.55,M,,*53
[2021-02-22 16:50:10.501] $GPGGA,075010.10,3713.9602044,N,13701.5667024,E,1,12,1.1,91.6818,M,37.55,M,,*5D
[2021-02-22 16:50:10.579] $GPGGA,075010.20,3713.9601829,N,13701.5667459,E,1,12,1.1,91.8364,M,37.55,M,,*5E
[2021-02-22 16:50:10.688] $GPGGA,075010.30,3713.9602052,N,13701.5667861,E,1,12,1.1,91.8456,M,37.55,M,,*59
[2021-02-22 16:50:10.767] $GPGGA,075010.40,3713.9601889,N,13701.5667434,E,1,12,1.1,92.0124,M,37.55,M,,*54
[2021-02-22 16:50:10.892] $GPGGA,075010.50,3713.9601912,N,13701.5667391,E,1,12,1.1,92.3727,M,37.55,M,,*58
[2021-02-22 16:50:10.970] $GPGGA,075010.60,3713.9602097,N,13701.5666874,E,1,12,1.1,92.2380,M,37.55,M,,*55
[2021-02-22 16:50:11.095] $GPGGA,075010.70,3713.9601382,N,13701.5666995,E,1,12,1.1,92.3425,M,37.55,M,,*57
[2021-02-22 16:50:11.204] $GPGGA,075010.80,3713.9601597,N,13701.5666974,E,1,12,1.1,92.2814,M,37.55,M,,*5A
[2021-02-22 16:50:11.282] $GPGGA,075010.90,3713.9601930,N,13701.5666876,E,1,12,1.1,92.4390,M,37.55,M,,*58
[2021-02-22 16:50:11.392] $GPGGA,075011.00,3713.9601600,N,13701.5665868,E,1,12,1.1,92.2994,M,37.55,M,,*58
[2021-02-22 16:50:11.470] $GPGGA,075011.10,3713.9601633,N,13701.5665560,E,1,12,1.1,92.4429,M,37.55,M,,*51
[2021-02-22 16:50:11.595] $GPGGA,075011.20,3713.9601484,N,13701.5665274,E,1,12,1.1,92.4702,M,37.55,M,,*54
[2021-02-22 16:50:11.673] $GPGGA,075011.30,3713.9601483,N,13701.5665367,E,1,12,1.1,92.3615,M,37.55,M,,*51
[2021-02-22 16:50:11.798] $GPGGA,075011.40,3713.9601829,N,13701.5665149,E,1,12,1.1,92.2927,M,37.55,M,,*5B
[2021-02-22 16:50:11.876] $GPGGA,075011.50,3713.9601964,N,13701.5665037,E,1,12,1.1,92.5000,M,37.55,M,,*51
[2021-02-22 16:50:12.001] $GPGGA,075011.60,3713.9602321,N,13701.5665325,E,1,12,1.1,92.4183,M,37.55,M,,*51
[2021-02-22 16:50:12.079] $GPGGA,075011.70,3713.9602058,N,13701.5665084,E,1,12,1.1,92.2632,M,37.55,M,,*5E
[2021-02-22 16:50:12.204] $GPGGA,075011.80,3713.9602449,N,13701.5665240,E,1,12,1.1,91.9309,M,37.55,M,,*5A
[2021-02-22 16:50:12.282] $GPGGA,075011.90,3713.9603397,N,13701.5666126,E,1,12,1.1,91.8079,M,37.55,M,,*5B
[2021-02-22 16:50:12.392] $GPGGA,075012.00,3713.9603789,N,13701.5665977,E,1,12,1.1,91.9185,M,37.55,M,,*56
[2021-02-22 16:50:12.470] $GPGGA,075012.10,3713.9603786,N,13701.5666073,E,1,12,1.1,92.1437,M,37.55,M,,*51
[2021-02-22 16:50:12.595] $GPGGA,075012.20,3713.9604208,N,13701.5666350,E,1,12,1.1,92.0827,M,37.55,M,,*58
[2021-02-22 16:50:12.673] $GPGGA,075012.30,3713.9604145,N,13701.5667249,E,1,12,1.1,91.5686,M,37.55,M,,*58
[2021-02-22 16:50:12.798] $GPGGA,075012.40,3713.9604248,N,13701.5667011,E,1,12,1.1,91.6918,M,37.55,M,,*55
[2021-02-22 16:50:12.876] $GPGGA,075012.50,3713.9604620,N,13701.5667111,E,1,12,1.1,91.5826,M,37.55,M,,*50
[2021-02-22 16:50:13.001] $GPGGA,075012.60,3713.9603774,N,13701.5667030,E,1,12,1.1,91.9824,M,37.55,M,,*58
[2021-02-22 16:50:13.095] $GPGGA,075012.70,3713.9604105,N,13701.5666361,E,1,12,1.1,92.1105,M,37.55,M,,*59
[2021-02-22 16:50:13.173] $GPGGA,075012.80,3713.9604081,N,13701.5666263,E,1,12,1.1,91.9429,M,37.55,M,,*58
[2021-02-22 16:50:13.298] $GPGGA,075012.90,3713.9604549,N,13701.5665934,E,1,12,1.1,92.1091,M,37.55,M,,*5E
[2021-02-22 16:50:13.376] $GPGGA,075013.00,3713.9604425,N,13701.5666452,E,1,12,1.1,92.1547,M,37.55,M,,*5D
[2021-02-22 16:50:13.501] $GPGGA,075013.10,3713.9604818,N,13701.5667267,E,1,12,1.1,92.0382,M,37.55,M,,*51
[2021-02-22 16:50:13.579] $GPGGA,075013.20,3713.9604437,N,13701.5667191,E,1,12,1.1,91.9378,M,37.55,M,,*56
[2021-02-22 16:50:13.688] $GPGGA,075013.30,3713.9604284,N,13701.5667979,E,1,12,1.1,91.8362,M,37.55,M,,*5D
[2021-02-22 16:50:13.782] $GPGGA,075013.40,3713.9604898,N,13701.5668178,E,1,12,1.1,91.9254,M,37.55,M,,*5E
[2021-02-22 16:50:13.907] $GPGGA,075013.50,3713.9605159,N,13701.5668557,E,1,12,1.1,91.8175,M,37.55,M,,*52
[2021-02-22 16:50:13.970] $GPGGA,075013.60,3713.9604966,N,13701.5668231,E,1,12,1.1,91.7238,M,37.55,M,,*56
[2021-02-22 16:50:14.095] $GPGGA,075013.70,3713.9604752,N,13701.5668896,E,1,12,1.1,91.7483,M,37.55,M,,*5F
[2021-02-22 16:50:14.173] $GPGGA,075013.80,3713.9604481,N,13701.5669232,E,1,12,1.1,91.8002,M,37.55,M,,*5A
[2021-02-22 16:50:14.298] $GPGGA,075013.90,3713.9604090,N,13701.5668693,E,1,12,1.1,91.5517,M,37.55,M,,*5D
[2021-02-22 16:50:14.376] $GPGGA,075014.00,3713.9604368,N,13701.5668689,E,1,12,1.1,91.2889,M,37.55,M,,*51
[2021-02-22 16:50:14.501] $GPGGA,075014.10,3713.9604084,N,13701.5669328,E,1,12,1.1,91.6191,M,37.55,M,,*5A
[2021-02-22 16:50:14.579] $GPGGA,075014.20,3713.9603702,N,13701.5668617,E,1,12,1.1,91.6626,M,37.55,M,,*54
[2021-02-22 16:50:14.688] $GPGGA,075014.30,3713.9602941,N,13701.5668579,E,1,12,1.1,91.6489,M,37.55,M,,*51
[2021-02-22 16:50:14.798] $GPGGA,075014.40,3713.9602639,N,13701.5668874,E,1,12,1.1,91.8713,M,37.55,M,,*58
[2021-02-22 16:50:14.876] $GPGGA,075014.50,3713.9602906,N,13701.5668667,E,1,12,1.1,91.9653,M,37.55,M,,*52
[2021-02-22 16:50:15.001] $GPGGA,075014.60,3713.9602399,N,13701.5668858,E,1,12,1.1,92.1357,M,37.55,M,,*55
[2021-02-22 16:50:15.079] $GPGGA,075014.70,3713.9602319,N,13701.5668389,E,1,12,1.1,92.0433,M,37.55,M,,*5F
[2021-02-22 16:50:15.204] $GPGGA,075014.80,3713.9602372,N,13701.5669065,E,1,12,1.1,92.5027,M,37.55,M,,*59
[2021-02-22 16:50:15.282] $GPGGA,075014.90,3713.9603089,N,13701.5668875,E,1,12,1.1,92.3128,M,37.55,M,,*5E
[2021-02-22 16:50:15.391] $GPGGA,075015.00,3713.9602762,N,13701.5669040,E,1,12,1.1,92.3447,M,37.55,M,,*56
[2021-02-22 16:50:15.469] $GPGGA,075015.10,3713.9602412,N,13701.5668535,E,1,12,1.1,92.4563,M,37.55,M,,*55
[2021-02-22 16:50:15.594] $GPGGA,075015.20,3713.9602275,N,13701.5667987,E,1,12,1.1,92.4875,M,37.55,M,,*51
[2021-02-22 16:50:15.673] $GPGGA,075015.30,3713.9602606,N,13701.5667454,E,1,12,1.1,92.1882,M,37.55,M,,*5E
[2021-02-22 16:50:15.798] $GPGGA,075015.40,3713.9602952,N,13701.5667093,E,1,12,1.1,91.7584,M,37.55,M,,*56
[2021-02-22 16:50:15.876] $GPGGA,075015.50,3713.9602447,N,13701.5667322,E,1,12,1.1,91.8313,M,37.55,M,,*50
[2021-02-22 16:50:16.001] $GPGGA,075015.60,3713.9603302,N,13701.5667522,E,1,12,1.1,91.6515,M,37.55,M,,*5C
[2021-02-22 16:50:16.079] $GPGGA,075015.70,3713.9604033,N,13701.5667350,E,1,12,1.1,91.3481,M,37.55,M,,*51
[2021-02-22 16:50:16.188] $GPGGA,075015.80,3713.9604261,N,13701.5667287,E,1,12,1.1,91.1712,M,37.55,M,,*5B
[2021-02-22 16:50:16.266] $GPGGA,075015.90,3713.9604843,N,13701.5667499,E,1,12,1.1,91.1452,M,37.55,M,,*5E
[2021-02-22 16:50:16.391] $GPGGA,075016.00,3713.9604619,N,13701.5667568,E,1,12,1.1,91.2334,M,37.55,M,,*5E
[2021-02-22 16:50:16.501] $GPGGA,075016.10,3713.9604161,N,13701.5667848,E,1,12,1.1,91.2095,M,37.55,M,,*50
[2021-02-22 16:50:16.579] $GPGGA,075016.20,3713.9603718,N,13701.5667942,E,1,12,1.1,90.9319,M,37.55,M,,*5A
[2021-02-22 16:50:16.704] $GPGGA,075016.30,3713.9603933,N,13701.5667401,E,1,12,1.1,90.8782,M,37.55,M,,*51
[2021-02-22 16:50:16.782] $GPGGA,075016.40,3713.9603919,N,13701.5666995,E,1,12,1.1,90.8865,M,37.55,M,,*59
[2021-02-22 16:50:16.891] $GPGGA,075016.50,3713.9604196,N,13701.5667232,E,1,12,1.1,90.7303,M,37.55,M,,*53
[2021-02-22 16:50:16.969] $GPGGA,075016.60,3713.9604465,N,13701.5666606,E,1,12,1.1,90.6613,M,37.55,M,,*5E
[2021-02-22 16:50:17.094] $GPGGA,075016.70,3713.9604334,N,13701.5666291,E,1,12,1.1,90.3836,M,37.55,M,,*5A
[2021-02-22 16:50:17.172] $GPGGA,075016.80,3713.9603859,N,13701.5666314,E,1,12,1.1,90.8836,M,37.55,M,,*55
[2021-02-22 16:50:17.297] $GPGGA,075016.90,3713.9603679,N,13701.5666145,E,1,12,1.1,91.3182,M,37.55,M,,*52
