[2021-02-22 16:49:21.381] $GPGGA,74907.1,,,,,0,0,0,,M,,M,0,0000*5A
[2021-02-22 16:49:21.412] $GPGGA,74907.2,,,,,0,0,0,,M,,M,0,0000*59
[2021-02-22 16:49:21.412] $GPGGA,74907.3,,,,,0,0,0,,M,,M,0,0000*58
[2021-02-22 16:49:21.412] $GPGGA,74907.4,,,,,0,0,0,,M,,M,0,0000*5F
[2021-02-22 16:49:21.412] $GPGGA,74907.5,,,,,0,0,0,,M,,M,0,0000*5E
[2021-02-22 16:49:21.412] $GPGGA,74907.6,,,,,0,0,0,,M,,M,0,0000*5D
[2021-02-22 16:49:21.412] $GPGGA,74907.7,,,,,0,0,0,,M,,M,0,0000*5C
[2021-02-22 16:49:21.412] $GPGGA,74907.8,,,,,0,0,0,,M,,M,0,0000*53
[2021-02-22 16:49:21.412] $GPGGA,74907.9,,,,,0,0,0,,M,,M,0,0000*52
[2021-02-22 16:49:21.412] $GPGGA,74908,,,,,0,0,0,,M,,M,0,0000*54
[2021-02-22 16:49:21.412] $GPGGA,74908.1,,,,,0,0,0,,M,,M,0,0000*55
[2021-02-22 16:49:21.412] $GPGGA,74908.2,,,,,0,0,0,,M,,M,0,0000*56
[2021-02-22 16:49:21.412] $GPGGA,74908.3,,,,,0,0,0,,M,,M,0,0000*57
[2021-02-22 16:49:21.412] $GPGGA,74908.4,,,,,0,0,0,,M,,M,0,0000*50
[2021-02-22 16:49:21.412] $GPGGA,74908.5,,,,,0,0,0,,M,,M,0,0000*51
[2021-02-22 16:49:21.412] $GPGGA,74908.6,,,,,0,0,0,,M,,M,0,0000*52
[2021-02-22 16:49:21.412] $GPGGA,74908.7,,,,,0,0,0,,M,,M,0,0000*53
[2021-02-22 16:49:21.412] $GPGGA,74908.8,,,,,0,0,0,,M,,M,0,0000*5C
[2021-02-22 16:49:21.412] $GPGGA,74908.9,,,,,0,0,0,,M,,M,0,0000*5D
[2021-02-22 16:49:21.412] $GPGGA,74909,,,,,0,0,0,,M,,M,0,0000*55
[2021-02-22 16:49:21.412] $GPGGA,74909.1,,,,,0,0,0,,M,,M,0,0000*54
[2021-02-22 16:49:21.412] $GPGGA,74909.2,,,,,0,0,0,,M,,M,0,0000*57
[2021-02-22 16:49:21.412] $GPGGA,74909.3,,,,,0,0,0,,M,,M,0,0000*56
[2021-02-22 16:49:21.428] $GPGGA,74909.4,,,,,0,0,0,,M,,M,0,0000*51
[2021-02-22 16:49:21.428] $GPGGA,74909.5,,,,,0,0,0,,M,,M,0,0000*50
[2021-02-22 16:49:21.428] $GPGGA,74909.6,,,,,0,0,0,,M,,M,0,0000*53
[2021-02-22 16:49:21.428] $GPGGA,74909.7,,,,,0,0,0,,M,,M,0,0000*52
[2021-02-22 16:49:21.428] $GPGGA,74909.8,,,,,0,0,0,,M,,M,0,0000*5D
[2021-02-22 16:49:21.428] $GPGGA,74909.9,,,,,0,0,0,,M,,M,0,0000*5C
[2021-02-22 16:49:21.428] $GPGGA,74910,,,,,0,0,0,,M,,M,0,0000*5D
[2021-02-22 16:49:21.428] $GPGGA,74910.1,,,,,0,0,0,,M,,M,0,0000*5C
[2021-02-22 16:49:21.428] $GPGGA,74910.2,,,,,0,0,0,,M,,M,0,0000*5F
[2021-02-22 16:49:21.428] $GPGGA,74910.3,,,,,0,0,0,,M,,M,0,0000*5E
[2021-02-22 16:49:21.428] $GPGGA,74910.4,,,,,0,0,0,,M,,M,0,0000*59
[2021-02-22 16:49:21.428] $GPGGA,74910.5,,,,,0,0,0,,M,,M,0,0000*58
[2021-02-22 16:49:21.428] $GPGGA,74910.6,,,,,0,0,0,,M,,M,0,0000*5B
[2021-02-22 16:49:21.428] $GPGGA,74910.7,,,,,0,0,0,,M,,M,0,0000*5A
[2021-02-22 16:49:21.428] $GPGGA,74910.8,,,,,0,0,0,,M,,M,0,0000*55
[2021-02-22 16:49:21.428] $GPGGA,74910.9,,,,,0,0,0,,M,,M,0,0000*54
[2021-02-22 16:49:21.428] $GPGGA,74911,,,,,0,0,0,,M,,M,0,0000*5C
[2021-02-22 16:49:21.428] $GPGGA,74911.1,,,,,0,0,0,,M,,M,0,0000*5D
[2021-02-22 16:49:21.428] $GPGGA,74911.2,,,,,0,0,0,,M,,M,0,0000*5E
[2021-02-22 16:49:21.428] $GPGGA,74911.3,,,,,0,0,0,,M,,M,0,0000*5F
[2021-02-22 16:49:21.428] $GPGGA,74911.4,,,,,0,0,0,,M,,M,0,0000*58
[2021-02-22 16:49:21.428] $GPGGA,74911.5,,,,,0,0,0,,M,,M,0,0000*59
[2021-02-22 16:49:21.444] $GPGGA,74911.6,,,,,0,0,0,,M,,M,0,0000*5A
[2021-02-22 16:49:21.444] $GPGGA,74911.7,,,,,0,0,0,,M,,M,0,0000*5B
[2021-02-22 16:49:21.444] $GPGGA,74911.8,,,,,0,0,0,,M,,M,0,0000*54
[2021-02-22 16:49:21.444] $GPGGA,74911.9,,,,,0,0,0,,M,,M,0,0000*55
[2021-02-22 16:49:21.444] $GPGGA,74912,,,,,0,0,0,,M,,M,0,0000*5F
[2021-02-22 16:49:21.444] $GPGGA,74912.1,,,,,0,0,0,,M,,M,0,0000*5E
[2021-02-22 16:49:21.444] $GPGGA,74912.2,,,,,0,0,0,,M,,M,0,0000*5D
[2021-02-22 16:49:21.444] $GPGGA,74912.3,,,,,0,0,0,,M,,M,0,0000*5C
[2021-02-22 16:49:21.444] $GPGGA,74912.4,,,,,0,0,0,,M,,M,0,0000*5B
[2021-02-22 16:49:21.444] $GPGGA,74912.5,,,,,0,0,0,,M,,M,0,0000*5A
[2021-02-22 16:49:21.444] $GPGGA,74912.6,,,,,0,0,0,,M,,M,0,0000*59
[2021-02-22 16:49:21.444] $GPGGA,74912.7,,,,,0,0,0,,M,,M,0,0000*58
[2021-02-22 16:49:21.444] $GPGGA,74912.8,,,,,0,0,0,,M,,M,0,0000*57
[2021-02-22 16:49:21.444] $GPGGA,74912.9,,,,,0,0,0,,M,,M,0,0000*56
[2021-02-22 16:49:21.444] $GPGGA,74913,,,,,0,0,0,,M,,M,0,0000*5E
[2021-02-22 16:49:21.444] $GPGGA,74913.1,,,,,0,0,0,,M,,M,0,0000*5F
[2021-02-22 16:49:21.444] $GPGGA,74913.2,,,,,0,0,0,,M,,M,0,0000*5C
[2021-02-22 16:49:21.444] $GPGGA,74913.3,,,,,0,0,0,,M,,M,0,0000*5D
[2021-02-22 16:49:21.444] $GPGGA,74913.4,,,,,0,0,0,,M,,M,0,0000*5A
[2021-02-22 16:49:21.444] $GPGGA,74913.5,,,,,0,0,0,,M,,M,0,0000*5B
[2021-02-22 16:49:21.444] $GPGGA,74913.6,,,,,0,0,0,,M,,M,0,0000*58
[2021-02-22 16:49:21.459] $GPGGA,74913.7,,,,,0,0,0,,M,,M,0,0000*59
[2021-02-22 16:49:21.459] $GPGGA,74913.8,,,,,0,0,0,,M,,M,0,0000*56
[2021-02-22 16:49:21.459] $GPGGA,74913.9,,,,,0,0,0,,M,,M,0,0000*57
[2021-02-22 16:49:21.459] $GPGGA,74914,,,,,0,0,0,,M,,M,0,0000*59
[2021-02-22 16:49:21.459] $GPGGA,74914.1,,,,,0,0,0,,M,,M,0,0000*58
[2021-02-22 16:49:21.459] $GPGGA,74914.2,,,,,0,0,0,,M,,M,0,0000*5B
[2021-02-22 16:49:21.459] $GPGGA,74914.3,,,,,0,0,0,,M,,M,0,0000*5A
[2021-02-22 16:49:21.459] $GPGGA,74914.4,,,,,0,0,0,,M,,M,0,0000*5D
[2021-02-22 16:49:21.459] $GPGGA,74914.5,,,,,0,0,0,,M,,M,0,0000*5C
[2021-02-22 16:49:21.459] $GPGGA,74914.6,,,,,0,0,0,,M,,M,0,0000*5F
[2021-02-22 16:49:21.459] $GPGGA,74914.7,,,,,0,0,0,,M,,M,0,0000*5E
[2021-02-22 16:49:21.459] $GPGGA,74914.8,,,,,0,0,0,,M,,M,0,0000*51
[2021-02-22 16:49:21.459] $GPGGA,74914.9,,,,,0,0,0,,M,,M,0,0000*50
[2021-02-22 16:49:21.459] $GPGGA,74915,,,,,0,0,0,,M,,M,0,0000*58
[2021-02-22 16:49:21.459] $GPGGA,74915.1,,,,,0,0,0,,M,,M,0,0000*59
[2021-02-22 16:49:21.459] $GPGGA,74915.2,,,,,0,0,0,,M,,M,0,0000*5A
[2021-02-22 16:49:21.459] $GPGGA,74915.3,,,,,0,0,0,,M,,M,0,0000*5B
[2021-02-22 16:49:21.459] $GPGGA,74915.4,,,,,0,0,0,,M,,M,0,0000*5C
[2021-02-22 16:49:21.459] $GPGGA,74915.5,,,,,0,0,0,,M,,M,0,0000*5D
[2021-02-22 16:49:21.459] $GPGGA,74915.6,,,,,0,0,0,,M,,M,0,0000*5E
[2021-02-22 16:49:21.459] $GPGGA,74915.7,,,,,0,0,0,,M,,M,0,0000*5F
[2021-02-22 16:49:21.459] $GPGGA,74915.8,,,,,0,0,0,,M,,M,0,0000*50
[2021-02-22 16:49:21.475] $GPGGA,74915.9,,,,,0,0,0,,M,,M,0,0000*51
[2021-02-22 16:49:21.475] $GPGGA,74916,,,,,0,0,0,,M,,M,0,0000*5B
[2021-02-22 16:49:21.475] $GPGGA,74916.1,,,,,0,0,0,,M,,M,0,0000*5A
[2021-02-22 16:49:21.475] $GPGGA,74916.2,,,,,0,0,0,,M,,M,0,0000*59
[2021-02-22 16:49:21.475] $GPGGA,74916.3,,,,,0,0,0,,M,,M,0,0000*58
[2021-02-22 16:49:21.475] $GPGGA,74916.4,,,,,0,0,0,,M,,M,0,0000*5F
[2021-02-22 16:49:21.475] $GPGGA,74916.5,,,,,0,0,0,,M,,M,0,0000*5E
[2021-02-22 16:49:21.475] $GPGGA,74916.6,,,,,0,0,0,,M,,M,0,0000*5D
[2021-02-22 16:49:21.475] $GPGGA,74916.7,,,,,0,0,0,,M,,M,0,0000*5C
[2021-02-22 16:49:21.475] $GPGGA,74916.8,,,,,0,0,0,,M,,M,0,0000*53
[2021-02-22 16:49:21.475] $GPGGA,74916.9,,,,,0,0,0,,M,,M,0,0000*52
[2021-02-22 16:49:21.475] $GPGGA,74917,,,,,0,0,0,,M,,M,0,0000*5A
[2021-02-22 16:49:21.475] $GPGGA,74917.1,,,,,0,0,0,,M,,M,0,0000*5B
[2021-02-22 16:49:21.475] $GPGGA,74917.2,,,,,0,0,0,,M,,M,0,0000*58
[2021-02-22 16:49:21.475] $GPGGA,74917.3,,,,,0,0,0,,M,,M,0,0000*59
[2021-02-22 16:49:21.475] $GPGGA,74917.4,,,,,0,0,0,,M,,M,0,0000*5E
[2021-02-22 16:49:21.475] $GPGGA,74917.5,,,,,0,0,0,,M,,M,0,0000*5F
[2021-02-22 16:49:21.475] $GPGGA,74917.6,,,,,0,0,0,,M,,M,0,0000*5C
[2021-02-22 16:49:21.475] $GPGGA,74917.7,,,,,0,0,0,,M,,M,0,0000*5D
[2021-02-22 16:49:21.475] $GPGGA,74917.8,,,,,0,0,0,,M,,M,0,0000*52
[2021-02-22 16:49:21.475] $GPGGA,74917.9,,,,,0,0,0,,M,,M,0,0000*53
[2021-02-22 16:49:21.491] $GPGGA,74918,,,,,0,0,0,,M,,M,0,0000*55
[2021-02-22 16:49:21.491] $GPGGA,74918.1,,,,,0,0,0,,M,,M,0,0000*54
[2021-02-22 16:49:21.491] $GPGGA,74918.2,,,,,0,0,0,,M,,M,0,0000*57
[2021-02-22 16:49:21.491] $GPGGA,74918.3,,,,,0,0,0,,M,,M,0,0000*56
[2021-02-22 16:49:21.491] $GPGGA,74918.4,,,,,0,0,0,,M,,M,0,0000*51
[2021-02-22 16:49:21.491] $GPGGA,74918.5,,,,,0,0,0,,M,,M,0,0000*50
[2021-02-22 16:49:21.491] $GPGGA,74918.6,,,,,0,0,0,,M,,M,0,0000*53
[2021-02-22 16:49:21.491] $GPGGA,74918.7,,,,,0,0,0,,M,,M,0,0000*52
[2021-02-22 16:49:21.491] $GPGGA,74918.8,,,,,0,0,0,,M,,M,0,0000*5D
[2021-02-22 16:49:21.491] $GPGGA,74918.9,,,,,0,0,0,,M,,M,0,0000*5C
[2021-02-22 16:49:21.491] $GPGGA,74919,,,,,0,0,0,,M,,M,0,0000*54
[2021-02-22 16:49:21.491] $GPGGA,74919.1,,,,,0,0,0,,M,,M,0,0000*55
[2021-02-22 16:49:21.491] $GPGGA,74919.2,,,,,0,0,0,,M,,M,0,0000*56
[2021-02-22 16:49:21.491] $GPGGA,74919.3,,,,,0,0,0,,M,,M,0,0000*57
[2021-02-22 16:49:21.491] $GPGGA,74919.4,,,,,0,0,0,,M,,M,0,0000*50
[2021-02-22 16:49:21.491] $GPGGA,74919.5,,,,,0,0,0,,M,,M,0,0000*51
[2021-02-22 16:49:21.491] $GPGGA,74919.6,,,,,0,0,0,,M,,M,0,0000*52
[2021-02-22 16:49:21.491] $GPGGA,74919.7,,,,,0,0,0,,M,,M,0,0000*53
[2021-02-22 16:49:21.491] $GPGGA,74919.8,,,,,0,0,0,,M,,M,0,0000*5C
[2021-02-22 16:49:21.491] $GPGGA,74919.9,,,,,0,0,0,,M,,M,0,0000*5D
[2021-02-22 16:49:21.491] $GPGGA,74920,,,,,0,0,0,,M,,M,0,0000*5E
[2021-02-22 16:49:21.491] $GPGGA,74920.1,,,,,0,0,0,,M,,M,0,0000*5F
[2021-02-22 16:49:21.491] $GPGGA,74920.2,,,,,0,0,0,,M,,M,0,0000*5C
[2021-02-22 16:49:21.491] $GPGGA,74920.3,,,,,0,0,0,,M,,M,0,0000*5D
[2021-02-22 16:49:21.491] $GPGGA,74920.4,,,,,0,0,0,,M,,M,0,0000*5A
[2021-02-22 16:49:21.491] $GPGGA,74920.5,,,,,0,0,0,,M,,M,0,0000*5B
[2021-02-22 16:49:21.491] $GPGGA,74920.6,,,,,0,0,0,,M,,M,0,0000*58
[2021-02-22 16:49:21.491] $GPGGA,74920.7,,,,,0,0,0,,M,,M,0,0000*59
[2021-02-22 16:49:21.491] $GPGGA,74920.8,,,,,0,0,0,,M,,M,0,0000*56
[2021-02-22 16:49:21.491] $GPGGA,74920.9,,,,,0,0,0,,M,,M,0,0000*57
[2021-02-22 16:49:21.491] $GPGGA,74921,,,,,0,0,0,,M,,M,0,0000*5F
[2021-02-22 16:49:21.491] $GPGGA,74921.1,,,,,0,0,0,,M,,M,0,0000*5E
[2021-02-22 16:49:21.569] $GPGGA,74921.2,,,,,0,0,0,,M,,M,0,0000*5D
[2021-02-22 16:49:21.678] $GPGGA,74921.3,,,,,0,0,0,,M,,M,0,0000*5C
[2021-02-22 16:49:21.787] $GPGGA,74921.4,,,,,0,0,0,,M,,M,0,0000*5B
[2021-02-22 16:49:21.881] $GPGGA,74921.5,,,,,0,0,0,,M,,M,0,0000*5A
[2021-02-22 16:49:21.975] $GPGGA,74921.6,,,,,0,0,0,,M,,M,0,0000*59
[2021-02-22 16:49:22.069] $GPGGA,74921.7,,,,,0,0,0,,M,,M,0,0000*58
[2021-02-22 16:49:22.178] $GPGGA,74921.8,,,,,0,0,0,,M,,M,0,0000*57
[2021-02-22 16:49:22.272] $GPGGA,74921.9,,,,,0,0,0,,M,,M,0,0000*56
[2021-02-22 16:49:22.381] $GPGGA,74922,,,,,0,0,0,,M,,M,0,0000*5C
[2021-02-22 16:49:22.475] $GPGGA,74922.1,,,,,0,0,0,,M,,M,0,0000*5D
[2021-02-22 16:49:22.584] $GPGGA,74922.2,,,,,0,0,0,,M,,M,0,0000*5E
[2021-02-22 16:49:22.678] $GPGGA,74922.3,,,,,0,0,0,,M,,M,0,0000*5F
[2021-02-22 16:49:22.772] $GPGGA,74922.4,,,,,0,0,0,,M,,M,0,0000*58
[2021-02-22 16:49:22.881] $GPGGA,74922.5,,,,,0,0,0,,M,,M,0,0000*59
[2021-02-22 16:49:22.975] $GPGGA,74922.6,,,,,0,0,0,,M,,M,0,0000*5A
[2021-02-22 16:49:23.084] $GPGGA,74922.7,,,,,0,0,0,,M,,M,0,0000*5B
[2021-02-22 16:49:23.178] $GPGGA,74922.8,,,,,0,0,0,,M,,M,0,0000*54
[2021-02-22 16:49:23.272] $GPGGA,74922.9,,,,,0,0,0,,M,,M,0,0000*55
[2021-02-22 16:49:23.381] $GPGGA,74923,,,,,0,0,0,,M,,M,0,0000*5D
[2021-02-22 16:49:23.475] $GPGGA,74923.1,,,,,0,0,0,,M,,M,0,0000*5C
[2021-02-22 16:49:23.569] $GPGGA,74923.2,,,,,0,0,0,,M,,M,0,0000*5F
[2021-02-22 16:49:23.678] $GPGGA,74923.3,,,,,0,0,0,,M,,M,0,0000*5E
[2021-02-22 16:49:23.772] $GPGGA,74923.4,,,,,0,0,0,,M,,M,0,0000*59
[2021-02-22 16:49:23.881] $GPGGA,74923.5,,,,,0,0,0,,M,,M,0,0000*58
[2021-02-22 16:49:23.975] $GPGGA,74923.6,,,,,0,0,0,,M,,M,0,0000*5B
[2021-02-22 16:49:24.069] $GPGGA,74923.7,,,,,0,0,0,,M,,M,0,0000*5A
[2021-02-22 16:49:24.162] $GPGGA,74923.8,,,,,0,0,0,,M,,M,0,0000*55
[2021-02-22 16:49:24.272] $GPGGA,74923.9,,,,,0,0,0,,M,,M,0,0000*54
[2021-02-22 16:49:24.381] $GPGGA,74924,,,,,0,0,0,,M,,M,0,0000*5A
[2021-02-22 16:49:24.475] $GPGGA,74924.1,,,,,0,0,0,,M,,M,0,0000*5B
[2021-02-22 16:49:24.569] $GPGGA,74924.2,,,,,0,0,0,,M,,M,0,0000*58
[2021-02-22 16:49:24.678] $GPGGA,74924.3,,,,,0,0,0,,M,,M,0,0000*59
[2021-02-22 16:49:24.772] $GPGGA,74924.4,,,,,0,0,0,,M,,M,0,0000*5E
[2021-02-22 16:49:24.865] $GPGGA,74924.5,,,,,0,0,0,,M,,M,0,0000*5F
[2021-02-22 16:49:24.975] $GPGGA,74924.6,,,,,0,0,0,,M,,M,0,0000*5C
[2021-02-22 16:49:25.084] $GPGGA,74924.7,,,,,0,0,0,,M,,M,0,0000*5D
[2021-02-22 16:49:25.178] $GPGGA,74924.8,,,,,0,0,0,,M,,M,0,0000*52
[2021-02-22 16:49:25.272] $GPGGA,74924.9,,,,,0,0,0,,M,,M,0,0000*53
[2021-02-22 16:49:25.381] $GPGGA,74925,,,,,0,0,0,,M,,M,0,0000*5B
[2021-02-22 16:49:25.475] $GPGGA,74925.1,,,,,0,0,0,,M,,M,0,0000*5A
[2021-02-22 16:49:25.568] $GPGGA,74925.2,,,,,0,0,0,,M,,M,0,0000*59
[2021-02-22 16:49:25.662] $GPGGA,74925.3,,,,,0,0,0,,M,,M,0,0000*58
[2021-02-22 16:49:25.787] $GPGGA,74925.4,,,,,0,0,0,,M,,M,0,0000*5F
[2021-02-22 16:49:25.881] $GPGGA,74925.5,,,,,0,0,0,,M,,M,0,0000*5E
[2021-02-22 16:49:25.975] $GPGGA,74925.6,,,,,0,0,0,,M,,M,0,0000*5D
[2021-02-22 16:49:26.068] $GPGGA,74925.7,,,,,0,0,0,,M,,M,0,0000*5C
[2021-02-22 16:49:26.178] $GPGGA,74925.8,,,,,0,0,0,,M,,M,0,0000*53
[2021-02-22 16:49:26.272] $GPGGA,74925.9,,,,,0,0,0,,M,,M,0,0000*52
[2021-02-22 16:49:26.381] $GPGGA,74926,,,,,0,0,0,,M,,M,0,0000*58
[2021-02-22 16:49:26.490] $GPGGA,74926.1,,,,,0,0,0,,M,,M,0,0000*59
[2021-02-22 16:49:26.584] $GPGGA,74926.2,,,,,0,0,0,,M,,M,0,0000*5A
[2021-02-22 16:49:26.678] $GPGGA,74926.3,,,,,0,0,0,,M,,M,0,0000*5B
[2021-02-22 16:49:26.771] $GPGGA,74926.4,,,,,0,0,0,,M,,M,0,0000*5C
[2021-02-22 16:49:26.881] $GPGGA,74926.5,,,,,0,0,0,,M,,M,0,0000*5D
[2021-02-22 16:49:26.975] $GPGGA,74926.6,,,,,0,0,0,,M,,M,0,0000*5E
[2021-02-22 16:49:27.084] $GPGGA,74926.7,,,,,0,0,0,,M,,M,0,0000*5F
[2021-02-22 16:49:27.178] $GPGGA,74926.8,,,,,0,0,0,,M,,M,0,0000*50
[2021-02-22 16:49:27.271] $GPGGA,74926.9,,,,,0,0,0,,M,,M,0,0000*51
[2021-02-22 16:49:27.381] $GPGGA,74927,,,,,0,0,0,,M,,M,0,0000*59
[2021-02-22 16:49:27.475] $GPGGA,74927.1,,,,,0,0,0,,M,,M,0,0000*58
[2021-02-22 16:49:27.568] $GPGGA,74927.2,,,,,0,0,0,,M,,M,0,0000*5B
[2021-02-22 16:49:27.662] $GPGGA,74927.3,,,,,0,0,0,,M,,M,0,0000*5A
[2021-02-22 16:49:27.771] $GPGGA,74927.4,,,,,0,0,0,,M,,M,0,0000*5D
[2021-02-22 16:49:27.881] $GPGGA,74927.5,,,,,0,0,0,,M,,M,0,0000*5C
[2021-02-22 16:49:27.975] $GPGGA,74927.6,,,,,0,0,0,,M,,M,0,0000*5F
[2021-02-22 16:49:28.068] $GPGGA,74927.7,,,,,0,0,0,,M,,M,0,0000*5E
[2021-02-22 16:49:28.178] $GPGGA,74927.8,,,,,0,0,0,,M,,M,0,0000*51
[2021-02-22 16:49:28.271] $GPGGA,74927.9,,,,,0,0,0,,M,,M,0,0000*50
[2021-02-22 16:49:28.381] $GPGGA,74928,,,,,0,0,0,,M,,M,0,0000*56
[2021-02-22 16:49:28.475] $GPGGA,74928.1,,,,,0,0,0,,M,,M,0,0000*57
[2021-02-22 16:49:28.584] $GPGGA,74928.2,,,,,0,0,0,,M,,M,0,0000*54
[2021-02-22 16:49:28.678] $GPGGA,74928.3,,,,,0,0,0,,M,,M,0,0000*55
[2021-02-22 16:49:28.771] $GPGGA,74928.4,,,,,0,0,0,,M,,M,0,0000*52
[2021-02-22 16:49:28.865] $GPGGA,74928.5,,,,,0,0,0,,M,,M,0,0000*53
[2021-02-22 16:49:28.974] $GPGGA,74928.6,,,,,0,0,0,,M,,M,0,0000*50
[2021-02-22 16:49:29.084] $GPGGA,74928.7,,,,,0,0,0,,M,,M,0,0000*51
[2021-02-22 16:49:29.178] $GPGGA,74928.8,,,,,0,0,0,,M,,M,0,0000*5E
[2021-02-22 16:49:29.271] $GPGGA,74928.9,,,,,0,0,0,,M,,M,0,0000*5F
[2021-02-22 16:49:29.381] $GPGGA,74929,,,,,0,0,0,,M,,M,0,0000*57
[2021-02-22 16:49:29.474] $GPGGA,74929.1,,,,,0,0,0,,M,,M,0,0000*56
[2021-02-22 16:49:29.568] $GPGGA,74929.2,,,,,0,0,0,,M,,M,0,0000*55
[2021-02-22 16:49:29.662] $GPGGA,74929.3,,,,,0,0,0,,M,,M,0,0000*54
[2021-02-22 16:49:29.787] $GPGGA,74929.4,,,,,0,0,0,,M,,M,0,0000*53
[2021-02-22 16:49:29.881] $GPGGA,74929.5,,,,,0,0,0,,M,,M,0,0000*52
[2021-02-22 16:49:29.974] $GPGGA,74929.6,,,,,0,0,0,,M,,M,0,0000*51
[2021-02-22 16:49:30.084] $GPGGA,74929.7,,,,,0,0,0,,M,,M,0,0000*50
[2021-02-22 16:49:30.178] $GPGGA,74929.8,,,,,0,0,0,,M,,M,0,0000*5F
[2021-02-22 16:49:30.271] $GPGGA,74929.9,,,,,0,0,0,,M,,M,0,0000*5E
[2021-02-22 16:49:30.381] $GPGGA,74930,,,,,0,0,0,,M,,M,0,0000*5F
[2021-02-22 16:49:30.490] $GPGGA,74930.1,,,,,0,0,0,,M,,M,0,0000*5E
[2021-02-22 16:49:30.584] $GPGGA,74930.2,,,,,0,0,0,,M,,M,0,0000*5D
[2021-02-22 16:49:30.677] $GPGGA,74930.3,,,,,0,0,0,,M,,M,0,0000*5C
[2021-02-22 16:49:30.771] $GPGGA,74930.4,,,,,0,0,0,,M,,M,0,0000*5B
[2021-02-22 16:49:30.881] $GPGGA,74930.5,,,,,0,0,0,,M,,M,0,0000*5A
[2021-02-22 16:49:30.974] $GPGGA,74930.6,,,,,0,0,0,,M,,M,0,0000*59
[2021-02-22 16:49:31.084] $GPGGA,74930.7,,,,,0,0,0,,M,,M,0,0000*58
[2021-02-22 16:49:31.177] $GPGGA,74930.8,,,,,0,0,0,,M,,M,0,0000*57
[2021-02-22 16:49:31.287] $GPGGA,74930.9,,,,,0,0,0,,M,,M,0,0000*56
[2021-02-22 16:49:31.381] $GPGGA,74931,,,,,0,0,0,,M,,M,0,0000*5E
[2021-02-22 16:49:31.474] $GPGGA,74931.1,,,,,0,0,0,,M,,M,0,0000*5F
[2021-02-22 16:49:31.568] $GPGGA,74931.2,,,,,0,0,0,,M,,M,0,0000*5C
[2021-02-22 16:49:31.662] $GPGGA,74931.3,,,,,0,0,0,,M,,M,0,0000*5D
[2021-02-22 16:49:31.787] $GPGGA,74931.4,,,,,0,0,0,,M,,M,0,0000*5A
[2021-02-22 16:49:31.881] $GPGGA,74931.5,,,,,0,0,0,,M,,M,0,0000*5B
[2021-02-22 16:49:31.974] $GPGGA,74931.6,,,,,0,0,0,,M,,M,0,0000*58
[2021-02-22 16:49:32.068] $GPGGA,74931.7,,,,,0,0,0,,M,,M,0,0000*59
[2021-02-22 16:49:32.177] $GPGGA,74931.8,,,,,0,0,0,,M,,M,0,0000*56
[2021-02-22 16:49:32.271] $GPGGA,74931.9,,,,,0,0,0,,M,,M,0,0000*57
[2021-02-22 16:49:32.365] $GPGGA,74932,,,,,0,0,0,,M,,M,0,0000*5D
[2021-02-22 16:49:32.474] $GPGGA,74932.1,,,,,0,0,0,,M,,M,0,0000*5C
[2021-02-22 16:49:32.584] $GPGGA,74932.2,,,,,0,0,0,,M,,M,0,0000*5F
[2021-02-22 16:49:32.677] $GPGGA,74932.3,,,,,0,0,0,,M,,M,0,0000*5E
[2021-02-22 16:49:32.771] $GPGGA,74932.4,,,,,0,0,0,,M,,M,0,0000*59
[2021-02-22 16:49:32.865] $GPGGA,74932.5,,,,,0,0,0,,M,,M,0,0000*58
[2021-02-22 16:49:32.974] $GPGGA,74932.6,,,,,0,0,0,,M,,M,0,0000*5B
[2021-02-22 16:49:33.084] $GPGGA,74932.7,,,,,0,0,0,,M,,M,0,0000*5A
[2021-02-22 16:49:33.177] $GPGGA,74932.8,,,,,0,0,0,,M,,M,0,0000*55
[2021-02-22 16:49:33.271] $GPGGA,74932.9,,,,,0,0,0,,M,,M,0,0000*54
[2021-02-22 16:49:33.380] $GPGGA,74933,,,,,0,0,0,,M,,M,0,0000*5C
[2021-02-22 16:49:33.474] $GPGGA,74933.1,,,,,0,0,0,,M,,M,0,0000*5D
[2021-02-22 16:49:33.568] $GPGGA,74933.2,,,,,0,0,0,,M,,M,0,0000*5E
[2021-02-22 16:49:33.677] $GPGGA,74933.3,,,,,0,0,0,,M,,M,0,0000*5F
[2021-02-22 16:49:33.787] $GPGGA,74933.4,,,,,0,0,0,,M,,M,0,0000*58
[2021-02-22 16:49:33.880] $GPGGA,74933.5,,,,,0,0,0,,M,,M,0,0000*59
[2021-02-22 16:49:33.974] $GPGGA,74933.6,,,,,0,0,0,,M,,M,0,0000*5A
[2021-02-22 16:49:34.083] $GPGGA,74933.7,,,,,0,0,0,,M,,M,0,0000*5B
[2021-02-22 16:49:34.177] $GPGGA,74933.8,,,,,0,0,0,,M,,M,0,0000*54
[2021-02-22 16:49:34.271] $GPGGA,74933.9,,,,,0,0,0,,M,,M,0,0000*55
[2021-02-22 16:49:34.365] $GPGGA,74934,,,,,0,0,0,,M,,M,0,0000*5B
[2021-02-22 16:49:34.490] $GPGGA,74934.1,,,,,0,0,0,,M,,M,0,0000*5A
[2021-02-22 16:49:34.583] $GPGGA,74934.2,,,,,0,0,0,,M,,M,0,0000*59
[2021-02-22 16:49:34.677] $GPGGA,74934.3,,,,,0,0,0,,M,,M,0,0000*58
[2021-02-22 16:49:34.771] $GPGGA,74934.4,,,,,0,0,0,,M,,M,0,0000*5F
[2021-02-22 16:49:34.880] $GPGGA,74934.5,,,,,0,0,0,,M,,M,0,0000*5E
[2021-02-22 16:49:34.974] $GPGGA,74934.6,,,,,0,0,0,,M,,M,0,0000*5D
[2021-02-22 16:49:35.083] $GPGGA,74934.7,,,,,0,0,0,,M,,M,0,0000*5C
[2021-02-22 16:49:35.177] $GPGGA,74934.8,,,,,0,0,0,,M,,M,0,0000*53
[2021-02-22 16:49:35.286] $GPGGA,74934.9,,,,,0,0,0,,M,,M,0,0000*52
[2021-02-22 16:49:35.380] $GPGGA,74935,,,,,0,0,0,,M,,M,0,0000*5A
[2021-02-22 16:49:35.474] $GPGGA,74935.1,,,,,0,0,0,,M,,M,0,0000*5B
[2021-02-22 16:49:35.568] $GPGGA,74935.2,,,,,0,0,0,,M,,M,0,0000*58
[2021-02-22 16:49:35.662] $GPGGA,74935.3,,,,,0,0,0,,M,,M,0,0000*59
[2021-02-22 16:49:35.786] $GPGGA,74935.4,,,,,0,0,0,,M,,M,0,0000*5E
[2021-02-22 16:49:35.880] $GPGGA,74935.5,,,,,0,0,0,,M,,M,0,0000*5F
[2021-02-22 16:49:35.974] $GPGGA,74935.6,,,,,0,0,0,,M,,M,0,0000*5C
[2021-02-22 16:49:36.068] $GPGGA,74935.7,,,,,0,0,0,,M,,M,0,0000*5D
[2021-02-22 16:49:36.177] $GPGGA,74935.8,,,,,0,0,0,,M,,M,0,0000*52
[2021-02-22 16:49:36.271] $GPGGA,74935.9,,,,,0,0,0,,M,,M,0,0000*53
[2021-02-22 16:49:36.365] $GPGGA,74936,,,,,0,0,0,,M,,M,0,0000*59
[2021-02-22 16:49:36.474] $GPGGA,74936.1,,,,,0,0,0,,M,,M,0,0000*58
[2021-02-22 16:49:36.583] $GPGGA,74936.2,,,,,0,0,0,,M,,M,0,0000*5B
[2021-02-22 16:49:36.677] $GPGGA,74936.3,,,,,0,0,0,,M,,M,0,0000*5A
[2021-02-22 16:49:36.771] $GPGGA,74936.4,,,,,0,0,0,,M,,M,0,0000*5D
[2021-02-22 16:49:36.865] $GPGGA,74936.5,,,,,0,0,0,,M,,M,0,0000*5C
[2021-02-22 16:49:36.974] $GPGGA,74936.6,,,,,0,0,0,,M,,M,0,0000*5F
[2021-02-22 16:49:37.068] $GPGGA,74936.7,,,,,0,0,0,,M,,M,0,0000*5E
[2021-02-22 16:49:37.177] $GPGGA,74936.8,,,,,0,0,0,,M,,M,0,0000*51
[2021-02-22 16:49:37.286] $GPGGA,74936.9,,,,,0,0,0,,M,,M,0,0000*50
[2021-02-22 16:49:37.380] $GPGGA,74937,,,,,0,0,0,,M,,M,0,0000*58
[2021-02-22 16:49:37.474] $GPGGA,74937.1,,,,,0,0,0,,M,,M,0,0000*59
[2021-02-22 16:49:37.568] $GPGGA,74937.2,,,,,0,0,0,,M,,M,0,0000*5A
[2021-02-22 16:49:37.677] $GPGGA,74937.3,,,,,0,0,0,,M,,M,0,0000*5B
[2021-02-22 16:49:37.786] $GPGGA,74937.4,,,,,0,0,0,,M,,M,0,0000*5C
[2021-02-22 16:49:37.880] $GPGGA,74937.5,,,,,0,0,0,,M,,M,0,0000*5D
[2021-02-22 16:49:37.974] $GPGGA,74937.6,,,,,0,0,0,,M,,M,0,0000*5E
[2021-02-22 16:49:38.083] $GPGGA,74937.7,,,,,0,0,0,,M,,M,0,0000*5F
[2021-02-22 16:49:38.177] $GPGGA,74937.8,,,,,0,0,0,,M,,M,0,0000*50
[2021-02-22 16:49:38.271] $GPGGA,74937.9,,,,,0,0,0,,M,,M,0,0000*51
[2021-02-22 16:49:38.364] $GPGGA,74938,,,,,0,0,0,,M,,M,0,0000*57
[2021-02-22 16:49:38.489] $GPGGA,74938.1,,,,,0,0,0,,M,,M,0,0000*56
[2021-02-22 16:49:38.583] $GPGGA,74938.2,,,,,0,0,0,,M,,M,0,0000*55
[2021-02-22 16:49:38.677] $GPGGA,74938.3,,,,,0,0,0,,M,,M,0,0000*54
[2021-02-22 16:49:38.771] $GPGGA,74938.4,,,,,0,0,0,,M,,M,0,0000*53
[2021-02-22 16:49:38.880] $GPGGA,74938.5,,,,,0,0,0,,M,,M,0,0000*52
[2021-02-22 16:49:38.974] $GPGGA,74938.6,,,,,0,0,0,,M,,M,0,0000*51
[2021-02-22 16:49:39.068] $GPGGA,74938.7,,,,,0,0,0,,M,,M,0,0000*50
[2021-02-22 16:49:39.192] $GPGGA,74938.8,,,,,0,0,0,,M,,M,0,0000*5F
[2021-02-22 16:49:39.286] $GPGGA,74938.9,,,,,0,0,0,,M,,M,0,0000*5E
[2021-02-22 16:49:39.380] $GPGGA,74939,,,,,0,0,0,,M,,M,0,0000*56
[2021-02-22 16:49:39.474] $GPGGA,74939.1,,,,,0,0,0,,M,,M,0,0000*57
[2021-02-22 16:49:39.567] $GPGGA,74939.2,,,,,0,0,0,,M,,M,0,0000*54
[2021-02-22 16:49:39.677] $GPGGA,74939.3,,,,,0,0,0,,M,,M,0,0000*55
[2021-02-22 16:49:39.786] $GPGGA,74939.4,,,,,0,0,0,,M,,M,0,0000*52
[2021-02-22 16:49:39.880] $GPGGA,74939.5,,,,,0,0,0,,M,,M,0,0000*53
[2021-02-22 16:49:39.974] $GPGGA,74939.6,,,,,0,0,0,,M,,M,0,0000*50
[2021-02-22 16:49:40.067] $GPGGA,74939.7,,,,,0,0,0,,M,,M,0,0000*51
[2021-02-22 16:49:40.177] $GPGGA,74939.8,,,,,0,0,0,,M,,M,0,0000*5E
[2021-02-22 16:49:40.271] $GPGGA,74939.9,,,,,0,0,0,,M,,M,0,0000*5F
[2021-02-22 16:49:40.364] $GPGGA,74940,,,,,0,0,0,,M,,M,0,0000*58
[2021-02-22 16:49:40.474] $GPGGA,74940.1,,,,,0,0,0,,M,,M,0,0000*59
[2021-02-22 16:49:40.583] $GPGGA,74940.2,,,,,0,0,0,,M,,M,0,0000*5A
[2021-02-22 16:49:40.677] $GPGGA,74940.3,,,,,0,0,0,,M,,M,0,0000*5B
[2021-02-22 16:49:40.771] $GPGGA,74940.4,,,,,0,0,0,,M,,M,0,0000*5C
[2021-02-22 16:49:40.880] $GPGGA,74940.5,,,,,0,0,0,,M,,M,0,0000*5D
[2021-02-22 16:49:40.974] $GPGGA,74940.6,,,,,0,0,0,,M,,M,0,0000*5E
[2021-02-22 16:49:41.067] $GPGGA,74940.7,,,,,0,0,0,,M,,M,0,0000*5F
[2021-02-22 16:49:41.177] $GPGGA,74940.8,,,,,0,0,0,,M,,M,0,0000*50
[2021-02-22 16:49:41.286] $GPGGA,74940.9,,,,,0,0,0,,M,,M,0,0000*51
[2021-02-22 16:49:41.380] $GPGGA,74941,,,,,0,0,0,,M,,M,0,0000*59
[2021-02-22 16:49:41.474] $GPGGA,74941.1,,,,,0,0,0,,M,,M,0,0000*58
[2021-02-22 16:49:41.567] $GPGGA,74941.2,,,,,0,0,0,,M,,M,0,0000*5B
[2021-02-22 16:49:41.677] $GPGGA,74941.3,,,,,0,0,0,,M,,M,0,0000*5A
[2021-02-22 16:49:41.786] $GPGGA,74941.4,,,,,0,0,0,,M,,M,0,0000*5D
[2021-02-22 16:49:41.880] $GPGGA,74941.5,,,,,0,0,0,,M,,M,0,0000*5C
[2021-02-22 16:49:41.974] $GPGGA,74941.6,,,,,0,0,0,,M,,M,0,0000*5F
[2021-02-22 16:49:42.083] $GPGGA,74941.7,,,,,0,0,0,,M,,M,0,0000*5E
[2021-02-22 16:49:42.177] $GPGGA,74941.8,,,,,0,0,0,,M,,M,0,0000*51
[2021-02-22 16:49:42.269] $GPGGA,74941.9,,,,,0,0,0,,M,,M,0,0000*50
[2021-02-22 16:49:42.362] $GPGGA,74942,,,,,0,0,0,,M,,M,0,0000*5A
[2021-02-22 16:49:42.487] $GPGGA,74942.1,,,,,0,0,0,,M,,M,0,0000*5B
[2021-02-22 16:49:42.581] $GPGGA,74942.2,,,,,0,0,0,,M,,M,0,0000*58
[2021-02-22 16:49:42.675] $GPGGA,74942.3,,,,,0,0,0,,M,,M,0,0000*59
[2021-02-22 16:49:42.784] $GPGGA,74942.4,,,,,0,0,0,,M,,M,0,0000*5E
[2021-02-22 16:49:42.878] $GPGGA,74942.5,,,,,0,0,0,,M,,M,0,0000*5F
[2021-02-22 16:49:42.972] $GPGGA,74942.6,,,,,0,0,0,,M,,M,0,0000*5C
[2021-02-22 16:49:43.081] $GPGGA,74942.7,,,,,0,0,0,,M,,M,0,0000*5D
[2021-02-22 16:49:43.190] $GPGGA,74942.8,,,,,0,0,0,,M,,M,0,0000*52
[2021-02-22 16:49:43.284] $GPGGA,74942.9,,,,,0,0,0,,M,,M,0,0000*53
[2021-02-22 16:49:43.378] $GPGGA,74943,,,,,0,0,0,,M,,M,0,0000*5B
[2021-02-22 16:49:43.472] $GPGGA,74943.1,,,,,0,0,0,,M,,M,0,0000*5A
[2021-02-22 16:49:43.565] $GPGGA,74943.2,,,,,0,0,0,,M,,M,0,0000*59
[2021-02-22 16:49:43.675] $GPGGA,74943.3,,,,,0,0,0,,M,,M,0,0000*58
[2021-02-22 16:49:43.784] $GPGGA,74943.4,,,,,0,0,0,,M,,M,0,0000*5F
[2021-02-22 16:49:43.878] $GPGGA,74943.5,,,,,0,0,0,,M,,M,0,0000*5E
[2021-02-22 16:49:43.972] $GPGGA,74943.6,,,,,0,0,0,,M,,M,0,0000*5D
[2021-02-22 16:49:44.081] $GPGGA,74943.7,,,,,0,0,0,,M,,M,0,0000*5C
[2021-02-22 16:49:44.175] $GPGGA,74943.8,,,,,0,0,0,,M,,M,0,0000*53
[2021-02-22 16:49:44.268] $GPGGA,74943.9,,,,,0,0,0,,M,,M,0,0000*52
[2021-02-22 16:49:44.362] $GPGGA,74944,,,,,0,0,0,,M,,M,0,0000*5C
[2021-02-22 16:49:44.487] $GPGGA,74944.1,,,,,0,0,0,,M,,M,0,0000*5D
[2021-02-22 16:49:44.581] $GPGGA,74944.2,,,,,0,0,0,,M,,M,0,0000*5E
[2021-02-22 16:49:44.675] $GPGGA,74944.3,,,,,0,0,0,,M,,M,0,0000*5F
[2021-02-22 16:49:44.768] $GPGGA,74944.4,,,,,0,0,0,,M,,M,0,0000*58
[2021-02-22 16:49:44.878] $GPGGA,74944.5,,,,,0,0,0,,M,,M,0,0000*59
[2021-02-22 16:49:44.972] $GPGGA,74944.6,,,,,0,0,0,,M,,M,0,0000*5A
[2021-02-22 16:49:45.065] $GPGGA,74944.7,,,,,0,0,0,,M,,M,0,0000*5B
[2021-02-22 16:49:45.175] $GPGGA,74944.8,,,,,0,0,0,,M,,M,0,0000*54
[2021-02-22 16:49:45.284] $GPGGA,74944.9,,,,,0,0,0,,M,,M,0,0000*55
[2021-02-22 16:49:45.378] $GPGGA,74945,,,,,0,0,0,,M,,M,0,0000*5D
[2021-02-22 16:49:45.472] $GPGGA,74945.1,,,,,0,0,0,,M,,M,0,0000*5C
[2021-02-22 16:49:45.565] $GPGGA,74945.2,,,,,0,0,0,,M,,M,0,0000*5F
[2021-02-22 16:49:45.675] $GPGGA,74945.3,,,,,0,0,0,,M,,M,0,0000*5E
[2021-02-22 16:49:45.784] $GPGGA,74945.4,,,,,0,0,0,,M,,M,0,0000*59
[2021-02-22 16:49:45.878] $GPGGA,74945.5,,,,,0,0,0,,M,,M,0,0000*58
[2021-02-22 16:49:45.972] $GPGGA,74945.6,,,,,0,0,0,,M,,M,0,0000*5B
[2021-02-22 16:49:46.081] $GPGGA,74945.7,,,,,0,0,0,,M,,M,0,0000*5A
[2021-02-22 16:49:46.175] $GPGGA,74945.8,,,,,0,0,0,,M,,M,0,0000*55
[2021-02-22 16:49:46.268] $GPGGA,74945.9,,,,,0,0,0,,M,,M,0,0000*54
[2021-02-22 16:49:46.378] $GPGGA,74946,,,,,0,0,0,,M,,M,0,0000*5E
[2021-02-22 16:49:46.487] $GPGGA,74946.1,,,,,0,0,0,,M,,M,0,0000*5F
[2021-02-22 16:49:46.581] $GPGGA,74946.2,,,,,0,0,0,,M,,M,0,0000*5C
[2021-02-22 16:49:46.675] $GPGGA,74946.3,,,,,0,0,0,,M,,M,0,0000*5D
[2021-02-22 16:49:46.784] $GPGGA,74946.4,,,,,0,0,0,,M,,M,0,0000*5A
[2021-02-22 16:49:46.878] $GPGGA,74946.5,,,,,0,0,0,,M,,M,0,0000*5B
[2021-02-22 16:49:46.971] $GPGGA,74946.6,,,,,0,0,0,,M,,M,0,0000*58
[2021-02-22 16:49:47.081] $GPGGA,74946.7,,,,,0,0,0,,M,,M,0,0000*59
[2021-02-22 16:49:47.190] $GPGGA,74946.8,,,,,0,0,0,,M,,M,0,0000*56
[2021-02-22 16:49:47.284] $GPGGA,74946.9,,,,,0,0,0,,M,,M,0,0000*57
[2021-02-22 16:49:47.378] $GPGGA,74947,,,,,0,0,0,,M,,M,0,0000*5F
[2021-02-22 16:49:47.471] $GPGGA,74947.1,,,,,0,0,0,,M,,M,0,0000*5E
[2021-02-22 16:49:47.581] $GPGGA,74947.2,,,,,0,0,0,,M,,M,0,0000*5D
[2021-02-22 16:49:47.675] $GPGGA,74947.3,,,,,0,0,0,,M,,M,0,0000*5C
[2021-02-22 16:49:47.784] $GPGGA,74947.4,,,,,0,0,0,,M,,M,0,0000*5B
[2021-02-22 16:49:47.878] $GPGGA,74947.5,,,,,0,0,0,,M,,M,0,0000*5A
[2021-02-22 16:49:47.971] $GPGGA,74947.6,,,,,0,0,0,,M,,M,0,0000*59
[2021-02-22 16:49:48.081] $GPGGA,74947.7,,,,,0,0,0,,M,,M,0,0000*58
[2021-02-22 16:49:48.174] $GPGGA,74947.8,,,,,0,0,0,,M,,M,0,0000*57
[2021-02-22 16:49:48.268] $GPGGA,74947.9,,,,,0,0,0,,M,,M,0,0000*56
[2021-02-22 16:49:48.362] $GPGGA,74948,,,,,0,0,0,,M,,M,0,0000*50
[2021-02-22 16:49:48.487] $GPGGA,74948.1,,,,,0,0,0,,M,,M,0,0000*51
[2021-02-22 16:49:48.581] $GPGGA,74948.2,,,,,0,0,0,,M,,M,0,0000*52
[2021-02-22 16:49:48.674] $GPGGA,74948.3,,,,,0,0,0,,M,,M,0,0000*53
[2021-02-22 16:49:48.768] $GPGGA,74948.4,,,,,0,0,0,,M,,M,0,0000*54
[2021-02-22 16:49:48.878] $GPGGA,74948.5,,,,,0,0,0,,M,,M,0,0000*55
[2021-02-22 16:49:48.971] $GPGGA,74948.6,,,,,0,0,0,,M,,M,0,0000*56
[2021-02-22 16:49:49.065] $GPGGA,74948.7,3713.96177,N,13701.5688,E,1,5,1.5,73.5872,M,37.55,M,,*5F
[2021-02-22 16:49:49.174] $GPGGA,74948.8,3713.961678,N,13701.56874,E,1,7,1.5,74.3612,M,37.55,M,,*5C
[2021-02-22 16:49:49.299] $GPGGA,74948.9,3713.96159,N,13701.56869,E,1,7,1.5,74.3885,M,37.55,M,,*5F
[2021-02-22 16:49:49.378] $GPGGA,74949,3713.961563,N,13701.56867,E,1,7,1.5,74.4875,M,37.55,M,,*53
[2021-02-22 16:49:49.502] $GPGGA,74949.1,3713.961562,N,13701.56873,E,1,7,1.5,74.8969,M,37.55,M,,*5F
[2021-02-22 16:49:49.565] $GPGGA,74949.2,3713.961636,N,13701.56872,E,1,7,1.5,74.3868,M,37.55,M,,*5C
[2021-02-22 16:49:49.706] $GPGGA,74949.3,3713.961548,N,13701.56874,E,1,7,1.5,74.2297,M,37.55,M,,*53
[2021-02-22 16:49:49.799] $GPGGA,74949.4,3713.961586,N,13701.56875,E,1,7,1.5,73.9483,M,37.55,M,,*5A
[2021-02-22 16:49:49.877] $GPGGA,74949.5,3713.961601,N,13701.56886,E,1,7,1.5,73.6504,M,37.55,M,,*5E
[2021-02-22 16:49:50.002] $GPGGA,74949.6,3713.961586,N,13701.56894,E,1,7,1.5,73.6776,M,37.55,M,,*54
[2021-02-22 16:49:50.081] $GPGGA,74949.7,3713.961551,N,13701.56891,E,1,7,1.5,74.0919,M,37.55,M,,*54
[2021-02-22 16:49:50.190] $GPGGA,74949.8,3713.961618,N,13701.56897,E,1,7,1.5,73.7064,M,37.55,M,,*5F
[2021-02-22 16:49:50.268] $GPGGA,74949.9,3713.961596,N,13701.56902,E,1,7,1.5,73.4283,M,37.55,M,,*5D
[2021-02-22 16:49:50.393] $GPGGA,74950,3713.961528,N,13701.56899,E,1,8,1.5,73.6887,M,37.55,M,,*52
[2021-02-22 16:49:50.471] $GPGGA,74950.1,3713.961403,N,13701.569,E,1,8,1.5,73.5812,M,37.55,M,,*52
[2021-02-22 16:49:50.596] $GPGGA,74950.2,3713.961427,N,13701.56899,E,1,8,1.5,73.2403,M,37.55,M,,*5F
[2021-02-22 16:49:50.674] $GPGGA,74950.3,3713.9614,N,13701.56891,E,1,8,1.5,73.7126,M,37.55,M,,*52
[2021-02-22 16:49:50.799] $GPGGA,74950.4,3713.961408,N,13701.56888,E,1,8,1.5,73.7056,M,37.55,M,,*5D
[2021-02-22 16:49:50.877] $GPGGA,74950.5,3713.961355,N,13701.56884,E,1,8,1.5,73.9044,M,37.55,M,,*5C
[2021-02-22 16:49:50.987] $GPGGA,74950.6,3713.961414,N,13701.56885,E,1,8,1.5,73.7922,M,37.55,M,,*5D
[2021-02-22 16:49:51.080] $GPGGA,74950.7,3713.961471,N,13701.56879,E,1,8,1.5,74.1908,M,37.55,M,,*56
[2021-02-22 16:49:51.190] $GPGGA,74950.8,3713.961574,N,13701.56877,E,1,8,1.5,74.2026,M,37.55,M,,*5F
[2021-02-22 16:49:51.268] $GPGGA,74950.9,3713.961639,N,13701.56878,E,1,8,1.5,73.301,M,37.55,M,,*5A
[2021-02-22 16:49:51.393] $GPGGA,74951,3713.961636,N,13701.56878,E,1,8,1.5,73.3955,M,37.55,M,,*5C
[2021-02-22 16:49:51.502] $GPGGA,74951.1,3713.961591,N,13701.56875,E,1,8,1.5,73.3005,M,37.55,M,,*5C
[2021-02-22 16:49:51.580] $GPGGA,74951.2,3713.961622,N,13701.56872,E,1,8,1.5,73.1309,M,37.55,M,,*5A
[2021-02-22 16:49:51.690] $GPGGA,74951.3,3713.961576,N,13701.56869,E,1,8,1.5,73.4635,M,37.55,M,,*59
[2021-02-22 16:49:51.768] $GPGGA,74951.4,3713.961454,N,13701.56874,E,1,8,1.5,73.8157,M,37.55,M,,*5E
[2021-02-22 16:49:51.893] $GPGGA,74951.5,3713.961444,N,13701.56876,E,1,8,1.5,73.762,M,37.55,M,,*5A
[2021-02-22 16:49:51.971] $GPGGA,74951.6,3713.961392,N,13701.56879,E,1,8,1.5,73.8948,M,37.55,M,,*55
[2021-02-22 16:49:52.096] $GPGGA,74951.7,3713.961363,N,13701.56884,E,1,8,1.5,73.7327,M,37.55,M,,*50
[2021-02-22 16:49:52.174] $GPGGA,74951.8,3713.961333,N,13701.56882,E,1,8,1.5,73.88,M,37.55,M,,*52
[2021-02-22 16:49:52.299] $GPGGA,74951.9,3713.961371,N,13701.56883,E,1,8,1.5,74.3012,M,37.55,M,,*52
[2021-02-22 16:49:52.377] $GPGGA,74952,3713.961393,N,13701.56883,E,1,8,1.5,74.0487,M,37.55,M,,*5B
[2021-02-22 16:49:52.502] $GPGGA,74952.1,3713.961345,N,13701.56887,E,1,8,1.5,74.3421,M,37.55,M,,*5C
[2021-02-22 16:49:52.580] $GPGGA,74952.2,3713.96133,N,13701.56876,E,1,8,1.5,74.5833,M,37.55,M,,*5B
[2021-02-22 16:49:52.690] $GPGGA,74952.3,3713.961349,N,13701.5688,E,1,8,1.5,74.6628,M,37.55,M,,*55
[2021-02-22 16:49:52.768] $GPGGA,74952.4,3713.961395,N,13701.56881,E,1,8,1.5,74.7981,M,37.55,M,,*5E
[2021-02-22 16:49:52.893] $GPGGA,74952.5,3713.961539,N,13701.56889,E,1,8,1.5,74.3294,M,37.55,M,,*50
[2021-02-22 16:49:52.971] $GPGGA,74952.6,3713.96156,N,13701.56889,E,1,8,1.5,74.0264,M,37.55,M,,*5F
[2021-02-22 16:49:53.096] $GPGGA,74952.7,3713.961542,N,13701.56883,E,1,8,1.5,74.2138,M,37.55,M,,*59
[2021-02-22 16:49:53.174] $GPGGA,74952.8,3713.961614,N,13701.56883,E,1,8,1.5,73.7035,M,37.55,M,,*56
[2021-02-22 16:49:53.299] $GPGGA,74952.9,3713.961636,N,13701.56888,E,1,8,1.5,73.7446,M,37.55,M,,*55
[2021-02-22 16:49:53.393] $GPGGA,74953,3713.961636,N,13701.56891,E,1,8,1.5,74.1178,M,37.55,M,,*53
[2021-02-22 16:49:53.471] $GPGGA,74953.1,3713.961732,N,13701.56884,E,1,8,1.5,73.745,M,37.55,M,,*58
[2021-02-22 16:49:53.596] $GPGGA,74953.2,3713.961834,N,13701.56885,E,1,8,1.5,72.99,M,37.55,M,,*5C
[2021-02-22 16:49:53.674] $GPGGA,74953.3,3713.961808,N,13701.56884,E,1,8,1.5,73.0372,M,37.55,M,,*5B
[2021-02-22 16:49:53.799] $GPGGA,74953.4,3713.961813,N,13701.56879,E,1,8,1.5,72.5602,M,37.55,M,,*5B
[2021-02-22 16:49:53.877] $GPGGA,74953.5,3713.961912,N,13701.56888,E,1,8,1.5,72.0464,M,37.55,M,,*53
[2021-02-22 16:49:54.002] $GPGGA,74953.6,3713.961813,N,13701.56901,E,1,8,1.5,71.7801,M,37.55,M,,*50
[2021-02-22 16:49:54.080] $GPGGA,74953.7,3713.961786,N,13701.56901,E,1,8,1.5,71.6479,M,37.55,M,,*5F
[2021-02-22 16:49:54.190] $GPGGA,74953.8,3713.961702,N,13701.56894,E,1,8,1.5,71.9666,M,37.55,M,,*5F
[2021-02-22 16:49:54.268] $GPGGA,74953.9,3713.961621,N,13701.56893,E,1,8,1.5,72.388,M,37.55,M,,*57
[2021-02-22 16:49:54.393] $GPGGA,74954,3713.961603,N,13701.56896,E,1,8,1.5,71.8097,M,37.55,M,,*51
[2021-02-22 16:49:54.471] $GPGGA,74954.1,3713.96156,N,13701.5689,E,1,8,1.5,72.2337,M,37.55,M,,*52
[2021-02-22 16:49:54.596] $GPGGA,74954.2,3713.961458,N,13701.56895,E,1,8,1.5,72.1841,M,37.55,M,,*54
[2021-02-22 16:49:54.674] $GPGGA,74954.3,3713.961403,N,13701.56885,E,1,8,1.5,72.6393,M,37.55,M,,*53
[2021-02-22 16:49:54.799] $GPGGA,74954.4,3713.961461,N,13701.56886,E,1,8,1.5,72.5428,M,37.55,M,,*5A
[2021-02-22 16:49:54.877] $GPGGA,74954.5,3713.961391,N,13701.56873,E,1,8,1.5,72.3882,M,37.55,M,,*57
[2021-02-22 16:49:54.987] $GPGGA,74954.6,3713.961476,N,13701.56873,E,1,8,1.5,72.023,M,37.55,M,,*52
[2021-02-22 16:49:55.096] $GPGGA,74954.7,3713.961545,N,13701.56879,E,1,8,1.5,71.9507,M,37.55,M,,*5C
[2021-02-22 16:49:55.174] $GPGGA,74954.8,3713.961522,N,13701.56879,E,1,8,1.5,71.4292,M,37.55,M,,*53
[2021-02-22 16:49:55.299] $GPGGA,74954.9,3713.961499,N,13701.56886,E,1,8,1.5,71.0145,M,37.55,M,,*5B
[2021-02-22 16:49:55.377] $GPGGA,74955,3713.961535,N,13701.56889,E,1,8,1.5,70.6096,M,37.55,M,,*52
[2021-02-22 16:49:55.502] $GPGGA,74955.1,3713.961604,N,13701.56884,E,1,8,1.5,70.1838,M,37.55,M,,*53
[2021-02-22 16:49:55.580] $GPGGA,74955.2,3713.961667,N,13701.5689,E,1,8,1.5,69.6411,M,37.55,M,,*50
[2021-02-22 16:49:55.690] $GPGGA,74955.3,3713.960768,N,13701.56647,E,1,9,1.4,88.7376,M,37.55,M,,*5A
[2021-02-22 16:49:55.768] $GPGGA,74955.4,3713.960737,N,13701.56655,E,1,9,1.4,88.8864,M,37.55,M,,*5D
[2021-02-22 16:49:55.893] $GPGGA,74955.5,3713.960739,N,13701.56655,E,1,9,1.4,88.6073,M,37.55,M,,*5A
[2021-02-22 16:49:55.971] $GPGGA,74955.6,3713.96068,N,13701.5664,E,1,9,1.4,89.5433,M,37.55,M,,*55
[2021-02-22 16:49:56.096] $GPGGA,74955.7,3713.960806,N,13701.56685,E,1,9,1.4,86.8561,M,37.55,M,,*54
[2021-02-22 16:49:56.174] $GPGGA,74955.8,3713.960926,N,13701.56704,E,1,9,1.4,85.8363,M,37.55,M,,*50
[2021-02-22 16:49:56.299] $GPGGA,74955.9,3713.960827,N,13701.56696,E,1,9,1.4,87.5315,M,37.55,M,,*5D
[2021-02-22 16:49:56.377] $GPGGA,74956,3713.960791,N,13701.56688,E,1,9,1.4,88.352,M,37.55,M,,*59
[2021-02-22 16:49:56.502] $GPGGA,74956.1,3713.960769,N,13701.56694,E,1,9,1.4,88.0299,M,37.55,M,,*51
[2021-02-22 16:49:56.580] $GPGGA,74956.2,3713.960828,N,13701.56695,E,1,9,1.4,88.5732,M,37.55,M,,*5C
[2021-02-22 16:49:56.689] $GPGGA,74956.3,3713.960934,N,13701.56709,E,1,9,1.4,87.4722,M,37.55,M,,*5E
[2021-02-22 16:49:56.768] $GPGGA,74956.4,3713.960921,N,13701.56687,E,1,9,1.4,88.2239,M,37.55,M,,*59
[2021-02-22 16:49:56.893] $GPGGA,74956.5,3713.960983,N,13701.56713,E,1,9,1.4,86.2189,M,37.55,M,,*53
[2021-02-22 16:49:57.002] $GPGGA,74956.6,3713.960851,N,13701.56695,E,1,9,1.4,87.9595,M,37.55,M,,*55
[2021-02-22 16:49:57.080] $GPGGA,74956.7,3713.960781,N,13701.56689,E,1,9,1.4,88.3195,M,37.55,M,,*58
[2021-02-22 16:49:57.189] $GPGGA,74956.8,3713.960761,N,13701.56689,E,1,9,1.4,87.8736,M,37.55,M,,*57
[2021-02-22 16:49:57.268] $GPGGA,74956.9,3713.960729,N,13701.56682,E,1,9,1.4,88.4071,M,37.55,M,,*5F
[2021-02-22 16:49:57.393] $GPGGA,74957,3713.960658,N,13701.56671,E,1,9,1.4,88.6112,M,37.55,M,,*57
[2021-02-22 16:49:57.471] $GPGGA,74957.1,3713.960591,N,13701.56656,E,1,9,1.4,89.7464,M,37.55,M,,*54
[2021-02-22 16:49:57.596] $GPGGA,74957.2,3713.960603,N,13701.56667,E,1,9,1.4,89.0582,M,37.55,M,,*5C
[2021-02-22 16:49:57.674] $GPGGA,74957.3,3713.960525,N,13701.56671,E,1,9,1.4,89.3856,M,37.55,M,,*5F
[2021-02-22 16:49:57.799] $GPGGA,74957.4,3713.960382,N,13701.56664,E,1,9,1.4,90.085,M,37.55,M,,*50
[2021-02-22 16:49:57.877] $GPGGA,74957.5,3713.960505,N,13701.56666,E,1,9,1.4,89.9384,M,37.55,M,,*5C
[2021-02-22 16:49:58.002] $GPGGA,74957.6,3713.960621,N,13701.56676,E,1,9,1.4,88.9435,M,37.55,M,,*5E
[2021-02-22 16:49:58.080] $GPGGA,74957.7,3713.960595,N,13701.56668,E,1,9,1.4,88.8365,M,37.55,M,,*52
[2021-02-22 16:49:58.189] $GPGGA,74957.8,3713.960565,N,13701.56656,E,1,9,1.4,89.5335,M,37.55,M,,*54
[2021-02-22 16:49:58.268] $GPGGA,74957.9,3713.960612,N,13701.56659,E,1,9,1.4,89.643,M,37.55,M,,*57
[2021-02-22 16:49:58.393] $GPGGA,74958,3713.960584,N,13701.56659,E,1,9,1.4,89.6937,M,37.55,M,,*56
[2021-02-22 16:49:58.471] $GPGGA,74958.1,3713.960566,N,13701.56665,E,1,9,1.4,89.3766,M,37.55,M,,*5C
[2021-02-22 16:49:58.596] $GPGGA,74958.2,3713.960667,N,13701.56662,E,1,9,1.4,89.0882,M,37.55,M,,*50
[2021-02-22 16:49:58.689] $GPGGA,74958.3,3713.960669,N,13701.56659,E,1,9,1.4,89.4301,M,37.55,M,,*54
[2021-02-22 16:49:58.783] $GPGGA,74958.4,3713.960707,N,13701.56666,E,1,9,1.4,88.9582,M,37.55,M,,*5C
[2021-02-22 16:49:58.892] $GPGGA,74958.5,3713.960801,N,13701.56674,E,1,9,1.4,88.1678,M,37.55,M,,*57
[2021-02-22 16:49:58.971] $GPGGA,74958.6,3713.960862,N,13701.56678,E,1,9,1.4,87.7748,M,37.55,M,,*5B
[2021-02-22 16:49:59.096] $GPGGA,74958.7,3713.960862,N,13701.56675,E,1,9,1.4,87.7849,M,37.55,M,,*54
[2021-02-22 16:49:59.174] $GPGGA,74958.8,3713.96085,N,13701.56678,E,1,9,1.4,88.4891,M,37.55,M,,*58
[2021-02-22 16:49:59.299] $GPGGA,74958.9,3713.960977,N,13701.5668,E,1,9,1.4,87.9235,M,37.55,M,,*52
[2021-02-22 16:49:59.377] $GPGGA,74959,3713.961026,N,13701.56677,E,1,9,1.4,88.6711,M,37.55,M,,*50
[2021-02-22 16:49:59.502] $GPGGA,74959.1,3713.961136,N,13701.56688,E,1,9,1.4,88.4032,M,37.55,M,,*59
[2021-02-22 16:49:59.580] $GPGGA,74959.2,3713.961117,N,13701.56683,E,1,9,1.4,89.1502,M,37.55,M,,*54
[2021-02-22 16:49:59.705] $GPGGA,74959.3,3713.961173,N,13701.56688,E,1,9,1.4,89.133,M,37.55,M,,*52
[2021-02-22 16:49:59.767] $GPGGA,74959.4,3713.96123,N,13701.56686,E,1,9,1.4,89.485,M,37.55,M,,*56
[2021-02-22 16:49:59.892] $GPGGA,74959.5,3713.961191,N,13701.56693,E,1,9,1.4,89.3111,M,37.55,M,,*5A
[2021-02-22 16:49:59.971] $GPGGA,74959.6,3713.961166,N,13701.56692,E,1,9,1.4,90.1888,M,37.55,M,,*57
[2021-02-22 16:50:00.095] $GPGGA,74959.7,3713.961259,N,13701.56703,E,1,9,1.4,89.5865,M,37.55,M,,*55
[2021-02-22 16:50:00.174] $GPGGA,74959.8,3713.961344,N,13701.56705,E,1,9,1.4,89.1613,M,37.55,M,,*5C
[2021-02-22 16:50:00.299] $GPGGA,74959.9,3713.961274,N,13701.56689,E,1,9,1.4,88.8651,M,37.55,M,,*55
[2021-02-22 16:50:00.392] $GPGGA,75000,3713.960854,N,13701.56699,E,1,10,1.2,90.6998,M,37.55,M,,*50
[2021-02-22 16:50:00.470] $GPGGA,75000.1,3713.960843,N,13701.56704,E,1,10,1.2,90.7353,M,37.55,M,,*56
[2021-02-22 16:50:00.595] $GPGGA,75000.2,3713.960837,N,13701.56699,E,1,10,1.2,90.6721,M,37.55,M,,*54
[2021-02-22 16:50:00.674] $GPGGA,75000.3,3713.960753,N,13701.567,E,1,10,1.2,91.2713,M,37.55,M,,*5F
[2021-02-22 16:50:00.799] $GPGGA,75000.4,3713.960514,N,13701.56702,E,1,11,1.2,92.3855,M,37.55,M,,*5F
[2021-02-22 16:50:00.877] $GPGGA,75000.5,3713.960523,N,13701.56699,E,1,11,1.2,92.3908,M,37.55,M,,*5F
[2021-02-22 16:50:01.002] $GPGGA,75000.6,3713.960459,N,13701.56697,E,1,11,1.2,92.4218,M,37.55,M,,*5E
[2021-02-22 16:50:01.080] $GPGGA,75000.7,3713.960424,N,13701.56698,E,1,11,1.2,92.3303,M,37.55,M,,*52
[2021-02-22 16:50:01.189] $GPGGA,75000.8,3713.96037,N,13701.56697,E,1,11,1.2,92.2354,M,37.55,M,,*5B
[2021-02-22 16:50:01.283] $GPGGA,75000.9,3713.960361,N,13701.56696,E,1,11,1.2,92.3076,M,37.55,M,,*5E
[2021-02-22 16:50:01.392] $GPGGA,75001,3713.960399,N,13701.56704,E,1,11,1.2,91.8837,M,37.55,M,,*59
[2021-02-22 16:50:01.470] $GPGGA,75001.1,3713.960399,N,13701.56704,E,1,11,1.2,91.6317,M,37.55,M,,*58
[2021-02-22 16:50:01.595] $GPGGA,75001.2,3713.960386,N,13701.567,E,1,11,1.2,91.6533,M,37.55,M,,*5C
[2021-02-22 16:50:01.674] $GPGGA,75001.3,3713.960356,N,13701.5669,E,1,11,1.2,91.6843,M,37.55,M,,*5E
[2021-02-22 16:50:01.798] $GPGGA,75001.4,3713.96032,N,13701.56699,E,1,11,1.2,92.1336,M,37.55,M,,*52
[2021-02-22 16:50:01.877] $GPGGA,75001.5,3713.960264,N,13701.56698,E,1,11,1.2,92.2416,M,37.55,M,,*5C
[2021-02-22 16:50:02.002] $GPGGA,75001.6,3713.960254,N,13701.56696,E,1,11,1.2,92.5077,M,37.55,M,,*52
[2021-02-22 16:50:02.080] $GPGGA,75001.7,3713.960174,N,13701.56684,E,1,11,1.2,92.8333,M,37.55,M,,*59
[2021-02-22 16:50:02.189] $GPGGA,75001.8,3713.960154,N,13701.56688,E,1,11,1.2,92.6773,M,37.55,M,,*5F
[2021-02-22 16:50:02.298] $GPGGA,75001.9,3713.960188,N,13701.56686,E,1,11,1.2,92.7107,M,37.55,M,,*5D
[2021-02-22 16:50:02.377] $GPGGA,75002,3713.960194,N,13701.56677,E,1,11,1.2,92.875,M,37.55,M,,*5D
[2021-02-22 16:50:02.502] $GPGGA,75002.1,3713.960178,N,13701.56676,E,1,11,1.2,92.6308,M,37.55,M,,*50
[2021-02-22 16:50:02.580] $GPGGA,75002.2,3713.96013,N,13701.56675,E,1,11,1.2,92.2003,M,37.55,M,,*58
[2021-02-22 16:50:02.689] $GPGGA,75002.3,3713.960219,N,13701.56677,E,1,11,1.2,92.3529,M,37.55,M,,*57
[2021-02-22 16:50:02.783] $GPGGA,75002.4,3713.960166,N,13701.56679,E,1,11,1.2,92.7528,M,37.55,M,,*5B
[2021-02-22 16:50:02.892] $GPGGA,75002.5,3713.96019,N,13701.56683,E,1,11,1.2,92.712,M,37.55,M,,*5A
[2021-02-22 16:50:02.970] $GPGGA,75002.6,3713.96018,N,13701.56681,E,1,11,1.2,92.6151,M,37.55,M,,*5C
[2021-02-22 16:50:03.095] $GPGGA,75002.7,3713.960255,N,13701.56678,E,1,11,1.2,92.349,M,37.55,M,,*59
[2021-02-22 16:50:03.173] $GPGGA,75002.8,3713.960233,N,13701.56675,E,1,11,1.2,92.3161,M,37.55,M,,*52
[2021-02-22 16:50:03.298] $GPGGA,75002.9,3713.960195,N,13701.56682,E,1,11,1.2,92.1943,M,37.55,M,,*50
[2021-02-22 16:50:03.377] $GPGGA,75003,3713.960155,N,13701.56679,E,1,11,1.2,92.2395,M,37.55,M,,*5A
[2021-02-22 16:50:03.501] $GPGGA,75003.1,3713.960167,N,13701.56683,E,1,11,1.2,92.3658,M,37.55,M,,*5D
[2021-02-22 16:50:03.580] $GPGGA,75003.2,3713.960158,N,13701.56682,E,1,11,1.2,92.851,M,37.55,M,,*57
[2021-02-22 16:50:03.689] $GPGGA,75003.3,3713.960151,N,13701.56684,E,1,11,1.2,92.7549,M,37.55,M,,*5B
[2021-02-22 16:50:03.767] $GPGGA,75003.4,3713.960149,N,13701.5667,E,1,11,1.2,92.8298,M,37.55,M,,*56
[2021-02-22 16:50:03.892] $GPGGA,75003.5,3713.960208,N,13701.56669,E,1,11,1.2,92.9464,M,37.55,M,,*5E
[2021-02-22 16:50:04.001] $GPGGA,75003.6,3713.96021,N,13701.56668,E,1,11,1.2,92.8266,M,37.55,M,,*58
[2021-02-22 16:50:04.080] $GPGGA,75003.7,3713.960235,N,13701.56665,E,1,11,1.2,93.1058,M,37.55,M,,*5D
[2021-02-22 16:50:04.205] $GPGGA,75003.8,3713.960291,N,13701.56668,E,1,11,1.2,93.2982,M,37.55,M,,*5C
[2021-02-22 16:50:04.283] $GPGGA,75003.9,3713.96029,N,13701.56673,E,1,11,1.2,93.1975,M,37.55,M,,*57
[2021-02-22 16:50:04.392] $GPGGA,75004,3713.960245,N,13701.5668,E,1,11,1.2,93.1325,M,37.55,M,,*59
[2021-02-22 16:50:04.470] $GPGGA,75004.1,3713.960194,N,13701.56678,E,1,11,1.2,93.2426,M,37.55,M,,*54
[2021-02-22 16:50:04.595] $GPGGA,75004.2,3713.960261,N,13701.56675,E,1,11,1.2,93.1114,M,37.55,M,,*5D
[2021-02-22 16:50:04.673] $GPGGA,75004.3,3713.960253,N,13701.56677,E,1,11,1.2,92.9095,M,37.55,M,,*5E
[2021-02-22 16:50:04.798] $GPGGA,75004.4,3713.960214,N,13701.56677,E,1,11,1.2,93.2884,M,37.55,M,,*58
[2021-02-22 16:50:04.876] $GPGGA,75004.5,3713.960152,N,13701.56675,E,1,11,1.2,93.3433,M,37.55,M,,*52
[2021-02-22 16:50:05.001] $GPGGA,75004.6,3713.960125,N,13701.56677,E,1,11,1.2,93.193,M,37.55,M,,*59
[2021-02-22 16:50:05.080] $GPGGA,75004.7,3713.960163,N,13701.5668,E,1,11,1.2,93.1499,M,37.55,M,,*54
[2021-02-22 16:50:05.189] $GPGGA,75004.8,3713.960171,N,13701.56678,E,1,11,1.2,93.1666,M,37.55,M,,*59
[2021-02-22 16:50:05.267] $GPGGA,75004.9,3713.960208,N,13701.5668,E,1,11,1.2,92.864,M,37.55,M,,*57
[2021-02-22 16:50:05.392] $GPGGA,75005,3713.960175,N,13701.56671,E,1,11,1.2,93.5413,M,37.55,M,,*54
[2021-02-22 16:50:05.470] $GPGGA,75005.1,3713.960124,N,13701.5667,E,1,11,1.2,93.4434,M,37.55,M,,*5C
[2021-02-22 16:50:05.595] $GPGGA,75005.2,3713.960205,N,13701.56669,E,1,11,1.2,93.5929,M,37.55,M,,*55
[2021-02-22 16:50:05.673] $GPGGA,75005.3,3713.960233,N,13701.56673,E,1,11,1.2,93.4075,M,37.55,M,,*5C
[2021-02-22 16:50:05.798] $GPGGA,75005.4,3713.960152,N,13701.5667,E,1,11,1.2,93.5268,M,37.55,M,,*56
[2021-02-22 16:50:05.892] $GPGGA,75005.5,3713.960166,N,13701.56669,E,1,11,1.2,93.4367,M,37.55,M,,*56
[2021-02-22 16:50:05.970] $GPGGA,75005.6,3713.960215,N,13701.56669,E,1,11,1.2,93.2134,M,37.55,M,,*50
[2021-02-22 16:50:06.095] $GPGGA,75005.7,3713.960253,N,13701.56671,E,1,11,1.2,92.7842,M,37.55,M,,*51
[2021-02-22 16:50:06.173] $GPGGA,75005.8,3713.960212,N,13701.56668,E,1,11,1.2,92.9923,M,37.55,M,,*5B
[2021-02-22 16:50:06.298] $GPGGA,75005.9,3713.960271,N,13701.56664,E,1,11,1.2,93.0683,M,37.55,M,,*5C
[2021-02-22 16:50:06.376] $GPGGA,75006,3713.960257,N,13701.56664,E,1,11,1.2,92.898,M,37.55,M,,*51
[2021-02-22 16:50:06.501] $GPGGA,75006.1,3713.960263,N,13701.5667,E,1,11,1.2,92.8357,M,37.55,M,,*56
[2021-02-22 16:50:06.579] $GPGGA,75006.2,3713.960293,N,13701.56667,E,1,11,1.2,93.2998,M,37.55,M,,*5E
[2021-02-22 16:50:06.689] $GPGGA,75006.3,3713.960284,N,13701.56677,E,1,11,1.2,93.4219,M,37.55,M,,*5F
[2021-02-22 16:50:06.783] $GPGGA,75006.4,3713.96031,N,13701.56679,E,1,11,1.2,93.3247,M,37.55,M,,*55
[2021-02-22 16:50:06.892] $GPGGA,75006.5,3713.96031,N,13701.5668,E,1,11,1.2,93.3608,M,37.55,M,,*59
[2021-02-22 16:50:06.970] $GPGGA,75006.6,3713.960285,N,13701.56684,E,1,11,1.2,93.2178,M,37.55,M,,*5D
[2021-02-22 16:50:07.095] $GPGGA,75006.7,3713.960278,N,13701.56684,E,1,11,1.2,93.2174,M,37.55,M,,*58
[2021-02-22 16:50:07.173] $GPGGA,75006.8,3713.960229,N,13701.56678,E,1,11,1.2,93.2829,M,37.55,M,,*5A
[2021-02-22 16:50:07.298] $GPGGA,75006.9,3713.960271,N,13701.56681,E,1,11,1.2,92.911,M,37.55,M,,*52
[2021-02-22 16:50:07.376] $GPGGA,75007,3713.960233,N,13701.56689,E,1,11,1.2,93.1607,M,37.55,M,,*55
[2021-02-22 16:50:07.501] $GPGGA,75007.1,3713.960151,N,13701.5669,E,1,11,1.2,93.1498,M,37.55,M,,*5C
[2021-02-22 16:50:07.595] $GPGGA,75007.2,3713.960187,N,13701.56689,E,1,11,1.2,92.7849,M,37.55,M,,*56
[2021-02-22 16:50:07.673] $GPGGA,75007.3,3713.960217,N,13701.56688,E,1,11,1.2,92.7562,M,37.55,M,,*53
[2021-02-22 16:50:07.798] $GPGGA,75007.4,3713.960173,N,13701.56688,E,1,11,1.2,92.8273,M,37.55,M,,*5C
[2021-02-22 16:50:07.876] $GPGGA,75007.5,3713.96031,N,13701.56682,E,1,11,1.2,92.522,M,37.55,M,,*5E
[2021-02-22 16:50:08.001] $GPGGA,75007.6,3713.960359,N,13701.56669,E,1,11,1.2,92.2227,M,37.55,M,,*5C
[2021-02-22 16:50:08.079] $GPGGA,75007.7,3713.960336,N,13701.56673,E,1,11,1.2,91.7696,M,37.55,M,,*51
[2021-02-22 16:50:08.189] $GPGGA,75007.8,3713.960333,N,13701.56673,E,1,11,1.2,91.7049,M,37.55,M,,*55
[2021-02-22 16:50:08.282] $GPGGA,75007.9,3713.960272,N,13701.56667,E,1,11,1.2,92.1903,M,37.55,M,,*5C
[2021-02-22 16:50:08.392] $GPGGA,75008,3713.960235,N,13701.56674,E,1,11,1.2,91.9612,M,37.55,M,,*5F
[2021-02-22 16:50:08.470] $GPGGA,75008.1,3713.960234,N,13701.56675,E,1,11,1.2,92.1515,M,37.55,M,,*52
[2021-02-22 16:50:08.595] $GPGGA,75008.2,3713.960305,N,13701.56675,E,1,11,1.2,92.1683,M,37.55,M,,*56
[2021-02-22 16:50:08.673] $GPGGA,75008.3,3713.960293,N,13701.5668,E,1,11,1.2,92.2024,M,37.55,M,,*5E
[2021-02-22 16:50:08.798] $GPGGA,75008.4,3713.960342,N,13701.56675,E,1,11,1.2,92.0028,M,37.55,M,,*54
[2021-02-22 16:50:08.876] $GPGGA,75008.5,3713.960318,N,13701.5667,E,1,11,1.2,92.0366,M,37.55,M,,*55
[2021-02-22 16:50:09.001] $GPGGA,75008.6,3713.96032,N,13701.56664,E,1,11,1.2,91.5978,M,37.55,M,,*56
[2021-02-22 16:50:09.079] $GPGGA,75008.7,3713.960391,N,13701.56662,E,1,11,1.2,91.7268,M,37.55,M,,*53
[2021-02-22 16:50:09.189] $GPGGA,75008.8,3713.960415,N,13701.56665,E,1,11,1.2,91.5425,M,37.55,M,,*57
[2021-02-22 16:50:09.267] $GPGGA,75008.9,3713.96045,N,13701.56668,E,1,11,1.2,91.1597,M,37.55,M,,*58
[2021-02-22 16:50:09.392] $GPGGA,75009,3713.960429,N,13701.56663,E,1,11,1.2,91.1245,M,37.55,M,,*55
[2021-02-22 16:50:09.501] $GPGGA,75009.1,3713.960374,N,13701.56671,E,1,11,1.2,91.4299,M,37.55,M,,*5B
[2021-02-22 16:50:09.579] $GPGGA,75009.2,3713.960381,N,13701.56665,E,1,11,1.2,91.6083,M,37.55,M,,*50
[2021-02-22 16:50:09.704] $GPGGA,75009.3,3713.960294,N,13701.56657,E,1,11,1.2,91.9627,M,37.55,M,,*57
[2021-02-22 16:50:09.782] $GPGGA,75009.4,3713.960263,N,13701.56657,E,1,11,1.2,91.9771,M,37.55,M,,*51
[2021-02-22 16:50:09.892] $GPGGA,75009.5,3713.960208,N,13701.56648,E,1,11,1.2,91.9957,M,37.55,M,,*5F
[2021-02-22 16:50:09.970] $GPGGA,75009.6,3713.960194,N,13701.5664,E,1,11,1.2,91.8057,M,37.55,M,,*57
[2021-02-22 16:50:10.095] $GPGGA,75009.7,3713.960166,N,13701.56645,E,1,11,1.2,92.0585,M,37.55,M,,*5F
[2021-02-22 16:50:10.173] $GPGGA,75009.8,3713.960113,N,13701.56662,E,1,12,1.1,92.4381,M,37.55,M,,*5A
[2021-02-22 16:50:10.298] $GPGGA,75009.9,3713.960147,N,13701.56666,E,1,12,1.1,91.9587,M,37.55,M,,*5A
[2021-02-22 16:50:10.376] $GPGGA,75010,3713.960187,N,13701.56673,E,1,12,1.1,91.5331,M,37.55,M,,*53
[2021-02-22 16:50:10.501] $GPGGA,75010.1,3713.960204,N,13701.5667,E,1,12,1.1,91.6818,M,37.55,M,,*5D
[2021-02-22 16:50:10.579] $GPGGA,75010.2,3713.960183,N,13701.56675,E,1,12,1.1,91.8364,M,37.55,M,,*5E
[2021-02-22 16:50:10.688] $GPGGA,75010.3,3713.960205,N,13701.56679,E,1,12,1.1,91.8456,M,37.55,M,,*59
[2021-02-22 16:50:10.767] $GPGGA,75010.4,3713.960189,N,13701.56674,E,1,12,1.1,92.0124,M,37.55,M,,*54
[2021-02-22 16:50:10.892] $GPGGA,75010.5,3713.960191,N,13701.56674,E,1,12,1.1,92.3727,M,37.55,M,,*58
[2021-02-22 16:50:10.970] $GPGGA,75010.6,3713.96021,N,13701.56669,E,1,12,1.1,92.238,M,37.55,M,,*55
[2021-02-22 16:50:11.095] $GPGGA,75010.7,3713.960138,N,13701.5667,E,1,12,1.1,92.3425,M,37.55,M,,*57
[2021-02-22 16:50:11.204] $GPGGA,75010.8,3713.96016,N,13701.5667,E,1,12,1.1,92.2814,M,37.55,M,,*5A
[2021-02-22 16:50:11.282] $GPGGA,75010.9,3713.960193,N,13701.56669,E,1,12,1.1,92.439,M,37.55,M,,*58
[2021-02-22 16:50:11.392] $GPGGA,75011,3713.96016,N,13701.56659,E,1,12,1.1,92.2994,M,37.55,M,,*58
[2021-02-22 16:50:11.470] $GPGGA,75011.1,3713.960163,N,13701.56656,E,1,12,1.1,92.4429,M,37.55,M,,*51
[2021-02-22 16:50:11.595] $GPGGA,75011.2,3713.960148,N,13701.56653,E,1,12,1.1,92.4702,M,37.55,M,,*54
[2021-02-22 16:50:11.673] $GPGGA,75011.3,3713.960148,N,13701.56654,E,1,12,1.1,92.3615,M,37.55,M,,*51
[2021-02-22 16:50:11.798] $GPGGA,75011.4,3713.960183,N,13701.56651,E,1,12,1.1,92.2927,M,37.55,M,,*5B
[2021-02-22 16:50:11.876] $GPGGA,75011.5,3713.960196,N,13701.5665,E,1,12,1.1,92.5,M,37.55,M,,*51
[2021-02-22 16:50:12.001] $GPGGA,75011.6,3713.960232,N,13701.56653,E,1,12,1.1,92.4183,M,37.55,M,,*51
[2021-02-22 16:50:12.079] $GPGGA,75011.7,3713.960206,N,13701.56651,E,1,12,1.1,92.2632,M,37.55,M,,*5E
[2021-02-22 16:50:12.204] $GPGGA,75011.8,3713.960245,N,13701.56652,E,1,12,1.1,91.9309,M,37.55,M,,*5A
[2021-02-22 16:50:12.282] $GPGGA,75011.9,3713.96034,N,13701.56661,E,1,12,1.1,91.8079,M,37.55,M,,*5B
[2021-02-22 16:50:12.392] $GPGGA,75012,3713.960379,N,13701.5666,E,1,12,1.1,91.9185,M,37.55,M,,*56
[2021-02-22 16:50:12.470] $GPGGA,75012.1,3713.960379,N,13701.56661,E,1,12,1.1,92.1437,M,37.55,M,,*51
[2021-02-22 16:50:12.595] $GPGGA,75012.2,3713.960421,N,13701.56664,E,1,12,1.1,92.0827,M,37.55,M,,*58
[2021-02-22 16:50:12.673] $GPGGA,75012.3,3713.960415,N,13701.56672,E,1,12,1.1,91.5686,M,37.55,M,,*58
[2021-02-22 16:50:12.798] $GPGGA,75012.4,3713.960425,N,13701.5667,E,1,12,1.1,91.6918,M,37.55,M,,*55
[2021-02-22 16:50:12.876] $GPGGA,75012.5,3713.960462,N,13701.56671,E,1,12,1.1,91.5826,M,37.55,M,,*50
[2021-02-22 16:50:13.001] $GPGGA,75012.6,3713.960377,N,13701.5667,E,1,12,1.1,91.9824,M,37.55,M,,*58
[2021-02-22 16:50:13.095] $GPGGA,75012.7,3713.960411,N,13701.56664,E,1,12,1.1,92.1105,M,37.55,M,,*59
[2021-02-22 16:50:13.173] $GPGGA,75012.8,3713.960408,N,13701.56663,E,1,12,1.1,91.9429,M,37.55,M,,*58
[2021-02-22 16:50:13.298] $GPGGA,75012.9,3713.960455,N,13701.56659,E,1,12,1.1,92.1091,M,37.55,M,,*5E
[2021-02-22 16:50:13.376] $GPGGA,75013,3713.960443,N,13701.56665,E,1,12,1.1,92.1547,M,37.55,M,,*5D
[2021-02-22 16:50:13.501] $GPGGA,75013.1,3713.960482,N,13701.56673,E,1,12,1.1,92.0382,M,37.55,M,,*51
[2021-02-22 16:50:13.579] $GPGGA,75013.2,3713.960444,N,13701.56672,E,1,12,1.1,91.9378,M,37.55,M,,*56
[2021-02-22 16:50:13.688] $GPGGA,75013.3,3713.960428,N,13701.5668,E,1,12,1.1,91.8362,M,37.55,M,,*5D
[2021-02-22 16:50:13.782] $GPGGA,75013.4,3713.96049,N,13701.56682,E,1,12,1.1,91.9254,M,37.55,M,,*5E
[2021-02-22 16:50:13.907] $GPGGA,75013.5,3713.960516,N,13701.56686,E,1,12,1.1,91.8175,M,37.55,M,,*52
[2021-02-22 16:50:13.970] $GPGGA,75013.6,3713.960497,N,13701.56682,E,1,12,1.1,91.7238,M,37.55,M,,*56
[2021-02-22 16:50:14.095] $GPGGA,75013.7,3713.960475,N,13701.56689,E,1,12,1.1,91.7483,M,37.55,M,,*5F
[2021-02-22 16:50:14.173] $GPGGA,75013.8,3713.960448,N,13701.56692,E,1,12,1.1,91.8002,M,37.55,M,,*5A
[2021-02-22 16:50:14.298] $GPGGA,75013.9,3713.960409,N,13701.56687,E,1,12,1.1,91.5517,M,37.55,M,,*5D
[2021-02-22 16:50:14.376] $GPGGA,75014,3713.960437,N,13701.56687,E,1,12,1.1,91.2889,M,37.55,M,,*51
[2021-02-22 16:50:14.501] $GPGGA,75014.1,3713.960408,N,13701.56693,E,1,12,1.1,91.6191,M,37.55,M,,*5A
[2021-02-22 16:50:14.579] $GPGGA,75014.2,3713.96037,N,13701.56686,E,1,12,1.1,91.6626,M,37.55,M,,*54
[2021-02-22 16:50:14.688] $GPGGA,75014.3,3713.960294,N,13701.56686,E,1,12,1.1,91.6489,M,37.55,M,,*51
[2021-02-22 16:50:14.798] $GPGGA,75014.4,3713.960264,N,13701.56689,E,1,12,1.1,91.8713,M,37.55,M,,*58
[2021-02-22 16:50:14.876] $GPGGA,75014.5,3713.960291,N,13701.56687,E,1,12,1.1,91.9653,M,37.55,M,,*52
[2021-02-22 16:50:15.001] $GPGGA,75014.6,3713.96024,N,13701.56689,E,1,12,1.1,92.1357,M,37.55,M,,*55
[2021-02-22 16:50:15.079] $GPGGA,75014.7,3713.960232,N,13701.56684,E,1,12,1.1,92.0433,M,37.55,M,,*5F
[2021-02-22 16:50:15.204] $GPGGA,75014.8,3713.960237,N,13701.56691,E,1,12,1.1,92.5027,M,37.55,M,,*59
[2021-02-22 16:50:15.282] $GPGGA,75014.9,3713.960309,N,13701.56689,E,1,12,1.1,92.3128,M,37.55,M,,*5E
[2021-02-22 16:50:15.391] $GPGGA,75015,3713.960276,N,13701.5669,E,1,12,1.1,92.3447,M,37.55,M,,*56
[2021-02-22 16:50:15.469] $GPGGA,75015.1,3713.960241,N,13701.56685,E,1,12,1.1,92.4563,M,37.55,M,,*55
[2021-02-22 16:50:15.594] $GPGGA,75015.2,3713.960228,N,13701.5668,E,1,12,1.1,92.4875,M,37.55,M,,*51
[2021-02-22 16:50:15.673] $GPGGA,75015.3,3713.960261,N,13701.56675,E,1,12,1.1,92.1882,M,37.55,M,,*5E
[2021-02-22 16:50:15.798] $GPGGA,75015.4,3713.960295,N,13701.56671,E,1,12,1.1,91.7584,M,37.55,M,,*56
[2021-02-22 16:50:15.876] $GPGGA,75015.5,3713.960245,N,13701.56673,E,1,12,1.1,91.8313,M,37.55,M,,*50
[2021-02-22 16:50:16.001] $GPGGA,75015.6,3713.96033,N,13701.56675,E,1,12,1.1,91.6515,M,37.55,M,,*5C
[2021-02-22 16:50:16.079] $GPGGA,75015.7,3713.960403,N,13701.56674,E,1,12,1.1,91.3481,M,37.55,M,,*51
[2021-02-22 16:50:16.188] $GPGGA,75015.8,3713.960426,N,13701.56673,E,1,12,1.1,91.1712,M,37.55,M,,*5B
[2021-02-22 16:50:16.266] $GPGGA,75015.9,3713.960484,N,13701.56675,E,1,12,1.1,91.1452,M,37.55,M,,*5E
[2021-02-22 16:50:16.391] $GPGGA,75016,3713.960462,N,13701.56676,E,1,12,1.1,91.2334,M,37.55,M,,*5E
[2021-02-22 16:50:16.501] $GPGGA,75016.1,3713.960416,N,13701.56678,E,1,12,1.1,91.2095,M,37.55,M,,*50
[2021-02-22 16:50:16.579] $GPGGA,75016.2,3713.960372,N,13701.56679,E,1,12,1.1,90.9319,M,37.55,M,,*5A
[2021-02-22 16:50:16.704] $GPGGA,75016.3,3713.960393,N,13701.56674,E,1,12,1.1,90.8782,M,37.55,M,,*51
[2021-02-22 16:50:16.782] $GPGGA,75016.4,3713.960392,N,13701.5667,E,1,12,1.1,90.8865,M,37.55,M,,*59
[2021-02-22 16:50:16.891] $GPGGA,75016.5,3713.96042,N,13701.56672,E,1,12,1.1,90.7303,M,37.55,M,,*53
[2021-02-22 16:50:16.969] $GPGGA,75016.6,3713.960447,N,13701.56666,E,1,12,1.1,90.6613,M,37.55,M,,*5E
[2021-02-22 16:50:17.094] $GPGGA,75016.7,3713.960433,N,13701.56663,E,1,12,1.1,90.3836,M,37.55,M,,*5A
[2021-02-22 16:50:17.172] $GPGGA,75016.8,3713.960386,N,13701.56663,E,1,12,1.1,90.8836,M,37.55,M,,*55
[2021-02-22 16:50:17.297] $GPGGA,75016.9,3713.960368,N,13701.56661,E,1,12,1.1,91.3182,M,37.55,M,,*52
[2021-02-22 16:50:17.376] $GPGGA,75017,3713.960473,N,13701.56667,E,1,12,1.1,91.3367,M,37.55,M,,*5B
[2021-02-22 16:50:17.501] $GPGGA,75017.1,3713.960505,N,13701.56672,E,1,12,1.1,91.2783,M,37.55,M,,*55
[2021-02-22 16:50:17.610] $GPGGA,75017.2,3713.960951,N,13701.56675,E,5,12,1.1,91.0607,M,37.55,M,5,0000*62
[2021-02-22 16:50:17.719] $GPGGA,75017.3,3713.960982,N,13701.56675,E,5,12,1.1,91.0409,M,37.55,M,5,0000*67
[2021-02-22 16:50:17.797] $GPGGA,75017.4,3713.961012,N,13701.56676,E,5,12,1.1,91.1213,M,37.55,M,5,0000*6B
[2021-02-22 16:50:17.922] $GPGGA,75017.5,3713.961002,N,13701.56676,E,5,12,1.1,91.1904,M,37.55,M,5,0000*65
[2021-02-22 16:50:18.000] $GPGGA,75017.6,3713.960998,N,13701.56674,E,5,12,1.1,91.2845,M,37.55,M,5,0000*6C
[2021-02-22 16:50:18.126] $GPGGA,75017.7,3713.960994,N,13701.56674,E,5,12,1.1,91.417,M,37.55,M,5,0000*6F
[2021-02-22 16:50:18.204] $GPGGA,75017.8,3713.960976,N,13701.56674,E,5,12,1.1,91.4803,M,37.55,M,5,0000*66
[2021-02-22 16:50:18.329] $GPGGA,75017.9,3713.960955,N,13701.56673,E,5,12,1.1,91.4927,M,37.55,M,5,0000*65
[2021-02-22 16:50:18.422] $GPGGA,75018,3713.960941,N,13701.56673,E,5,12,1.1,91.4583,M,37.55,M,6,0000*6F
[2021-02-22 16:50:18.516] $GPGGA,75018.1,3713.960929,N,13701.56673,E,5,12,1.1,91.4309,M,37.55,M,6,0000*6A
[2021-02-22 16:50:18.625] $GPGGA,75018.2,3713.960919,N,13701.56673,E,5,12,1.1,91.4189,M,37.55,M,1,0000*68
[2021-02-22 16:50:18.704] $GPGGA,75018.3,3713.960911,N,13701.56672,E,5,12,1.1,91.3794,M,37.55,M,1,0000*65
[2021-02-22 16:50:18.829] $GPGGA,75018.4,3713.960907,N,13701.56672,E,5,12,1.1,91.3999,M,37.55,M,1,0000*6E
[2021-02-22 16:50:18.907] $GPGGA,75018.5,3713.960904,N,13701.56672,E,5,12,1.1,91.4092,M,37.55,M,1,0000*69
[2021-02-22 16:50:19.032] $GPGGA,75018.6,3713.960901,N,13701.56673,E,5,12,1.1,91.4527,M,37.55,M,1,0000*6E
[2021-02-22 16:50:19.110] $GPGGA,75018.7,3713.960896,N,13701.56674,E,5,12,1.1,91.4836,M,37.55,M,1,0000*66
[2021-02-22 16:50:19.219] $GPGGA,75018.8,3713.960894,N,13701.56674,E,5,12,1.1,91.5473,M,37.55,M,1,0000*64
[2021-02-22 16:50:19.313] $GPGGA,75018.9,3713.960881,N,13701.56674,E,5,12,1.1,91.5563,M,37.55,M,1,0000*6E
[2021-02-22 16:50:19.422] $GPGGA,75019,3713.960872,N,13701.56674,E,5,12,1.1,91.5667,M,37.55,M,2,0000*6E
[2021-02-22 16:50:19.516] $GPGGA,75019.1,3713.960866,N,13701.56674,E,5,12,1.1,91.59,M,37.55,M,2,0000*6F
[2021-02-22 16:50:19.625] $GPGGA,75019.2,3713.960856,N,13701.56674,E,5,12,1.1,91.609,M,37.55,M,2,0000*69
[2021-02-22 16:50:19.703] $GPGGA,75019.3,3713.960846,N,13701.56675,E,5,12,1.1,91.6083,M,37.55,M,2,0000*6D
[2021-02-22 16:50:19.828] $GPGGA,75019.4,3713.96084,N,13701.56675,E,5,12,1.1,91.6094,M,37.55,M,2,0000*69
[2021-02-22 16:50:19.907] $GPGGA,75019.5,3713.960833,N,13701.56676,E,5,12,1.1,91.6317,M,37.55,M,2,0000*6E
[2021-02-22 16:50:20.032] $GPGGA,75019.6,3713.960826,N,13701.56676,E,5,12,1.1,91.6353,M,37.55,M,2,0000*60
[2021-02-22 16:50:20.125] $GPGGA,75019.7,3713.96082,N,13701.56676,E,5,12,1.1,91.6376,M,37.55,M,2,0000*65
[2021-02-22 16:50:20.203] $GPGGA,75019.8,3713.960814,N,13701.56677,E,5,12,1.1,91.6294,M,37.55,M,2,0000*65
[2021-02-22 16:50:20.328] $GPGGA,75019.9,3713.96081,N,13701.56677,E,5,12,1.1,91.6289,M,37.55,M,2,0000*64
[2021-02-22 16:50:20.407] $GPGGA,75020,3713.960809,N,13701.56677,E,5,12,1.1,91.6548,M,37.55,M,3,0000*67
[2021-02-22 16:50:20.516] $GPGGA,75020.1,3713.960808,N,13701.56677,E,5,12,1.1,91.6644,M,37.55,M,3,0000*60
[2021-02-22 16:50:20.625] $GPGGA,75020.2,3713.96081,N,13701.56678,E,5,12,1.1,91.6757,M,37.55,M,3,0000*68
[2021-02-22 16:50:20.719] $GPGGA,75020.3,3713.960812,N,13701.56679,E,5,12,1.1,91.689,M,37.55,M,3,0000*6A
[2021-02-22 16:50:20.797] $GPGGA,75020.4,3713.960811,N,13701.56679,E,5,12,1.1,91.684,M,37.55,M,3,0000*6D
[2021-02-22 16:50:20.922] $GPGGA,75020.5,3713.96081,N,13701.56679,E,5,12,1.1,91.6819,M,37.55,M,3,0000*6A
