
[2021-02-22 16:45:03.318] $GPGGA,,,,,,,,,,M,,M,,*56
[2021-02-22 16:45:03.334] $GPGGA,,,,,,,,,,M,,M,,*56
[2021-02-22 16:45:03.334] $GPGGA,,,,,,,,,,M,,M,,*56
[2021-02-22 16:45:03.334] $GPGGA,,,,,,,,,,M,,M,,*56
[2021-02-22 16:45:03.334] $GPGGA,,,,,,,,,,M,,M,,*56
[2021-02-22 16:45:03.334] $GPGGA,,,,,,,,,,M,,M,,*56
[2021-02-22 16:45:03.334] $GPGGA,,,,,,,,,,M,,M,,*56
[2021-02-22 16:45:03.334] $GPGGA,,,,,,,,,,M,,M,,*56
[2021-02-22 16:45:03.334] $GPGGA,,,,,,,,,,M,,M,,*56
[2021-02-22 16:45:03.334] $GPGGA,,,,,,,,,,M,,M,,*56
[2021-02-22 16:45:03.334] $GPGGA,,,,,,,,,,M,,M,,*56
[2021-02-22 16:45:03.334] $GPGGA,,,,,,,,,,M,,M,,*56
[2021-02-22 16:45:03.334] $GPGGA,,,,,,,,,,M,,M,,*56
[2021-02-22 16:45:03.334] $GPGGA,,,,,,,,,,M,,M,,*56
[2021-02-22 16:45:03.334] $GPGGA,,,,,,,,,,M,,M,,*56
[2021-02-22 16:45:03.334] $GPGGA,,,,,,,,,,M,,M,,*56
[2021-02-22 16:45:03.334] $GPGGA,,,,,,,,,,M,,M,,*56
[2021-02-22 16:45:03.334] $GPGGA,,,,,,,,,,M,,M,,*56
[2021-02-22 16:45:03.334] $GPGGA,,,,,,,,,,M,,M,,*56
[2021-02-22 16:45:03.334] $GPGGA,,,,,,,,,,M,,M,,*56
[2021-02-22 16:45:03.334] $GPGGA,,,,,,,,,,M,,M,,*56
[2021-02-22 16:45:03.334] $GPGGA,,,,,,,,,,M,,M,,*56
[2021-02-22 16:45:03.334] $GPGGA,,,,,,,,,,M,,M,,*56
[2021-02-22 16:45:03.334] $GPGGA,,,,,,,,,,M,,M,,*56
[2021-02-22 16:45:03.334] $GPGGA,,,,,,,,,,M,,M,,*56
[2021-02-22 16:45:03.334] $GPGGA,,,,,,,,,,M,,M,,*56
[2021-02-22 16:45:03.334] $GPGGA,,,,,,,,,,M,,M,,*56
[2021-02-22 16:45:03.334] $GPGGA,,,,,,,,,,M,,M,,*56
[2021-02-22 16:45:03.334] $GPGGA,,,,,,,,,,M,,M,,*56
[2021-02-22 16:45:03.334] $GPGGA,,,,,,,,,,M,,M,,*56
[2021-02-22 16:45:03.334] $GPGGA,,,,,,,,,,M,,M,,*56
[2021-02-22 16:45:03.334] $GPGGA,,,,,,,,,,M,,M,,*56
[2021-02-22 16:45:03.334] $GPGGA,,,,,,,,,,M,,M,,*56
[2021-02-22 16:45:03.334] $GPGGA,,,,,,,,,,M,,M,,*56
[2021-02-22 16:45:03.334] $GPGGA,,,,,,,,,,M,,M,,*56
[2021-02-22 16:45:03.334] $GPGGA,,,,,,,,,,M,,M,,*56
[2021-02-22 16:45:03.334] $GPGGA,,,,,,,,,,M,,M,,*56
[2021-02-22 16:45:03.334] $GPGGA,,,,,,,,,,M,,M,,*56
[2021-02-22 16:45:03.334] $GPGGA,,,,,,,,,,M,,M,,*56
[2021-02-22 16:45:03.334] $GPGGA,,,,,,,,,,M,,M,,*56
[2021-02-22 16:45:03.334] $GPGGA,,,,,,,,,,M,,M,,*56
[2021-02-22 16:45:03.334] $GPGGA,,,,,,,,,,M,,M,,*56
[2021-02-22 16:45:03.334] $GPGGA,,,,,,,,,,M,,M,,*56
[2021-02-22 16:45:03.334] $GPGGA,,,,,,,,,,M,,M,,*56
[2021-02-22 16:45:03.334] $GPGGA,,,,,,,,,,M,,M,,*56
[2021-02-22 16:45:03.334] $GPGGA,,,,,,,,,,M,,M,,*56
[2021-02-22 16:45:03.334] $GPGGA,,,,,,,,,,M,,M,,*56
[2021-02-22 16:45:03.334] $GPGGA,,,,,,,,,,M,,M,,*56
[2021-02-22 16:45:03.334] $GPGGA,,,,,,,,,,M,,M,,*56
[2021-02-22 16:45:03.334] $GPGGA,,,,,,,,,,M,,M,,*56
[2021-02-22 16:45:03.334] $GPGGA,,,,,,,,,,M,,M,,*56
[2021-02-22 16:45:03.334] $GPGGA,,,,,,,,,,M,,M,,*56
[2021-02-22 16:45:03.334] $GPGGA,,,,,,,,,,M,,M,,*56
[2021-02-22 16:45:03.334] $GPGGA,,,,,,,,,,M,,M,,*56
[2021-02-22 16:45:03.334] $GPGGA,,,,,,,,,,M,,M,,*56
[2021-02-22 16:45:03.334] $GPGGA,,,,,,,,,,M,,M,,*56
[2021-02-22 16:45:03.334] $GPGGA,,,,,,,,,,M,,M,,*56
[2021-02-22 16:45:03.334] $GPGGA,,,,,,,,,,M,,M,,*56
[2021-02-22 16:45:03.334] $GPGGA,,,,,,,,,,M,,M,,*56
[2021-02-22 16:45:03.334] $GPGGA,,,,,,,,,,M,,M,,*56
[2021-02-22 16:45:03.334] $GPGGA,,,,,,,,,,M,,M,,*56
[2021-02-22 16:45:03.334] $GPGGA,,,,,,,,,,M,,M,,*56
[2021-02-22 16:45:03.334] $GPGGA,,,,,,,,,,M,,M,,*56
[2021-02-22 16:45:03.334] $GPGGA,,,,,,,,,,M,,M,,*56
[2021-02-22 16:45:03.334] $GPGGA,,,,,,,,,,M,,M,,*56
[2021-02-22 16:45:03.334] $GPGGA,,,,,,,,,,M,,M,,*56
[2021-02-22 16:45:03.334] $GPGGA,,,,,,,,,,M,,M,,*56
[2021-02-22 16:45:03.381] $GPGGA,,,,,,,,,,M,,M,,*56
[2021-02-22 16:45:03.599] $GPGGA,,,,,,,,,,M,,M,,*56
[2021-02-22 16:45:03.787] $GPGGA,,,,,,,,,,M,,M,,*56
[2021-02-22 16:45:03.974] $GPGGA,,,,,,,,,,M,,M,,*56
[2021-02-22 16:45:04.193] $GPGGA,,,,,,,,,,M,,M,,*56
[2021-02-22 16:45:04.396] $GPGGA,,,,,,,,,,M,,M,,*56
[2021-02-22 16:45:04.584] $GPGGA,,,,,,,,,,M,,M,,*56
[2021-02-22 16:45:04.802] $GPGGA,,,,,,,,,,M,,M,,*56
[2021-02-22 16:45:04.990] $GPGGA,,,,,,,,,,M,,M,,*56
[2021-02-22 16:45:05.193] $GPGGA,,,,,,,,,,M,,M,,*56
[2021-02-22 16:45:05.381] $GPGGA,,,,,,,,,,M,,M,,*56
[2021-02-22 16:45:05.599] $GPGGA,,,,,,,,,,M,,M,,*56
[2021-02-22 16:45:05.787] $GPGGA,,,,,,,,,,M,,M,,*56
[2021-02-22 16:45:05.990] $GPGGA,,,,,,,,,,M,,M,,*56
[2021-02-22 16:45:06.193] $GPGGA,,,,,,,,,,M,,M,,*56
[2021-02-22 16:45:06.396] $GPGGA,,,,,,,,,,M,,M,,*56
[2021-02-22 16:45:06.584] $GPGGA,,,,,,,,,,M,,M,,*56
[2021-02-22 16:45:06.802] $GPGGA,,,,,,,,,,M,,M,,*56
[2021-02-22 16:45:06.990] $GPGGA,,,,,,,,,,M,,M,,*56
[2021-02-22 16:45:07.193] $GPGGA,,,,,,,,,,M,,M,,*56
[2021-02-22 16:45:07.380] $GPGGA,,,,,,,,,,M,,M,,*56
[2021-02-22 16:45:07.599] $GPGGA,,,,,,,,,,M,,M,,*56
[2021-02-22 16:45:07.787] $GPGGA,,,,,,,,,,M,,M,,*56
[2021-02-22 16:45:07.990] $GPGGA,,,,,,,,,,M,,M,,*56
[2021-02-22 16:45:08.193] $GPGGA,,,,,,,,,,M,,M,,*56
[2021-02-22 16:45:08.396] $GPGGA,,,,,,,,,,M,,M,,*56
[2021-02-22 16:45:08.583] $GPGGA,,,,,,,,,,M,,M,,*56
[2021-02-22 16:45:08.802] $GPGGA,,,,,,,,,,M,,M,,*56
[2021-02-22 16:45:08.990] $GPGGA,,,,,,,,,,M,,M,,*56
[2021-02-22 16:45:09.193] $GPGGA,,,,,,,,,,M,,M,,*56
[2021-02-22 16:45:09.396] $GPGGA,,,,,,,,,,M,,M,,*56
[2021-02-22 16:45:09.599] $GPGGA,,,,,,,,,,M,,M,,*56
[2021-02-22 16:45:09.787] $GPGGA,,,,,,,,,,M,,M,,*56
[2021-02-22 16:45:09.990] $GPGGA,,,,,,,,,,M,,M,,*56
[2021-02-22 16:45:10.193] $GPGGA,,,,,,,,,,M,,M,,*56
[2021-02-22 16:45:10.396] $GPGGA,,,,,,,,,,M,,M,,*56
[2021-02-22 16:45:10.583] $GPGGA,,,,,,,,,,M,,M,,*56
[2021-02-22 16:45:10.802] $GPGGA,,,,,,,,,,M,,M,,*56
[2021-02-22 16:45:10.990] $GPGGA,,,,,,,,,,M,,M,,*56
[2021-02-22 16:45:11.193] $GPGGA,,,,,,,,,,M,,M,,*56
[2021-02-22 16:45:11.380] $GPGGA,,,,,,,,,,M,,M,,*56
[2021-02-22 16:45:11.599] $GPGGA,,,,,,,,,,M,,M,,*56
[2021-02-22 16:45:11.786] $GPGGA,,,,,,,,,,M,,M,,*56
[2021-02-22 16:45:11.990] $GPGGA,,,,,,,,,,M,,M,,*56
[2021-02-22 16:45:12.193] $GPGGA,,,,,,,,,,M,,M,,*56
[2021-02-22 16:45:12.396] $GPGGA,,,,,,,,,,M,,M,,*56
[2021-02-22 16:45:12.583] $GPGGA,,,,,,,,,,M,,M,,*56
[2021-02-22 16:45:12.802] $GPGGA,,,,,,,,,,M,,M,,*56
[2021-02-22 16:45:12.989] $GPGGA,,,,,,,,,,M,,M,,*56
[2021-02-22 16:45:13.193] $GPGGA,,,,,,,,,,M,,M,,*56
[2021-02-22 16:45:13.380] $GPGGA,,,,,,,,,,M,,M,,*56
[2021-02-22 16:45:13.599] $GPGGA,,,,,,,,,,M,,M,,*56
[2021-02-22 16:45:13.786] $GPGGA,,,,,,,,,,M,,M,,*56
[2021-02-22 16:45:13.989] $GPGGA,,,,,,,,,,M,,M,,*56
[2021-02-22 16:45:14.192] $GPGGA,,,,,,,,,,M,,M,,*56
[2021-02-22 16:45:14.396] $GPGGA,,,,,,,,,,M,,M,,*56
[2021-02-22 16:45:14.583] $GPGGA,,,,,,,,,,M,,M,,*56
[2021-02-22 16:45:14.786] $GPGGA,,,,,,,,,,M,,M,,*56
[2021-02-22 16:45:14.989] $GPGGA,,,,,,,,,,M,,M,,*56
[2021-02-22 16:45:15.192] $GPGGA,,,,,,,,,,M,,M,,*56
[2021-02-22 16:45:15.380] $GPGGA,,,,,,,,,,M,,M,,*56
[2021-02-22 16:45:15.599] $GPGGA,,,,,,,,,,M,,M,,*56
[2021-02-22 16:45:15.786] $GPGGA,,,,,,,,,,M,,M,,*56
[2021-02-22 16:45:15.989] $GPGGA,,,,,,,,,,M,,M,,*56
[2021-02-22 16:45:16.192] $GPGGA,,,,,,,,,,M,,M,,*56
[2021-02-22 16:45:16.395] $GPGGA,,,,,,,,,,M,,M,,*56
[2021-02-22 16:45:16.583] $GPGGA,,,,,,,,,,M,,M,,*56
[2021-02-22 16:45:16.786] $GPGGA,,,,,,,,,,M,,M,,*56
[2021-02-22 16:45:16.989] $GPGGA,,,,,,,,,,M,,M,,*56
[2021-02-22 16:45:17.192] $GPGGA,,,,,,,,,,M,,M,,*56
[2021-02-22 16:45:17.380] $GPGGA,,,,,,,,,,M,,M,,*56
[2021-02-22 16:45:17.598] $GPGGA,,,,,,,,,,M,,M,,*56
[2021-02-22 16:45:17.786] $GPGGA,,,,,,,,,,M,,M,,*56
[2021-02-22 16:45:17.989] $GPGGA,,,,,,,,,,M,,M,,*56
[2021-02-22 16:45:18.192] $GPGGA,,,,,,,,,,M,,M,,*56
[2021-02-22 16:45:18.395] $GPGGA,,,,,,,,,,M,,M,,*56
[2021-02-22 16:45:18.583] $GPGGA,,,,,,,,,,M,,M,,*56
[2021-02-22 16:45:18.786] $GPGGA,,,,,,,,,,M,,M,,*56
[2021-02-22 16:45:18.989] $GPGGA,,,,,,,,,,M,,M,,*56
[2021-02-22 16:45:19.192] $GPGGA,,,,,,,,,,M,,M,,*56
[2021-02-22 16:45:19.380] $GPGGA,,,,,,,,,,M,,M,,*56
[2021-02-22 16:45:19.598] $GPGGA,,,,,,,,,,M,,M,,*56
[2021-02-22 16:45:19.786] $GPGGA,,,,,,,,,,M,,M,,*56
[2021-02-22 16:45:19.989] $GPGGA,,,,,,,,,,M,,M,,*56
[2021-02-22 16:45:20.192] $GPGGA,,,,,,,,,,M,,M,,*56
[2021-02-22 16:45:20.395] $GPGGA,,,,,,,,,,M,,M,,*56
[2021-02-22 16:45:20.583] $GPGGA,,,,,,,,,,M,,M,,*56
[2021-02-22 16:45:20.786] $GPGGA,,,,,,,,,,M,,M,,*56
[2021-02-22 16:45:20.989] $GPGGA,,,,,,,,,,M,,M,,*56
[2021-02-22 16:45:21.192] $GPGGA,,,,,,,,,,M,,M,,*56
[2021-02-22 16:45:21.379] $GPGGA,,,,,,,,,,M,,M,,*56
[2021-02-22 16:45:21.598] $GPGGA,,,,,,,,,,M,,M,,*56
[2021-02-22 16:45:21.786] $GPGGA,,,,,,,,,,M,,M,,*56
[2021-02-22 16:45:21.989] $GPGGA,,,,,,,,,,M,,M,,*56
[2021-02-22 16:45:22.192] $GPGGA,,,,,,,,,,M,,M,,*56
[2021-02-22 16:45:22.395] $GPGGA,,,,,,,,,,M,,M,,*56
[2021-02-22 16:45:22.582] $GPGGA,,,,,,,,,,M,,M,,*56
[2021-02-22 16:45:22.801] $GPGGA,,,,,,,,,,M,,M,,*56
[2021-02-22 16:45:22.989] $GPGGA,,,,,,,,,,M,,M,,*56
[2021-02-22 16:45:23.192] $GPGGA,,,,,,,,,,M,,M,,*56
[2021-02-22 16:45:23.379] $GPGGA,,,,,,,,,,M,,M,,*56
[2021-02-22 16:45:23.598] $GPGGA,,,,,,,,,,M,,M,,*56
[2021-02-22 16:45:23.786] $GPGGA,,,,,,,,,,M,,M,,*56
[2021-02-22 16:45:23.989] $GPGGA,,,,,,,,,,M,,M,,*56
[2021-02-22 16:45:24.176] $GPGGA,,,,,,,,,,M,,M,,*56
[2021-02-22 16:45:24.395] $GPGGA,,,,,,,,,,M,,M,,*56
[2021-02-22 16:45:24.582] $GPGGA,,,,,,,,,,M,,M,,*56
[2021-02-22 16:45:24.785] $GPGGA,,,,,,,,,,M,,M,,*56
[2021-02-22 16:45:24.989] $GPGGA,,,,,,,,,,M,,M,,*56
[2021-02-22 16:45:25.192] $GPGGA,,,,,,,,,,M,,M,,*56
[2021-02-22 16:45:25.379] $GPGGA,,,,,,,,,,M,,M,,*56
[2021-02-22 16:45:25.598] $GPGGA,,,,,,,,,,M,,M,,*56
[2021-02-22 16:45:25.785] $GPGGA,,,,,,,,,,M,,M,,*56
[2021-02-22 16:45:25.989] $GPGGA,,,,,,,,,,M,,M,,*56
[2021-02-22 16:45:26.176] $GPGGA,,,,,,,,,,M,,M,,*56
[2021-02-22 16:45:26.395] $GPGGA,,,,,,,,,,M,,M,,*56
[2021-02-22 16:45:26.582] $GPGGA,,,,,,,,,,M,,M,,*56
[2021-02-22 16:45:26.785] $GPGGA,,,,,,,,,,M,,M,,*56
[2021-02-22 16:45:26.988] $GPGGA,,,,,,,,,,M,,M,,*56
[2021-02-22 16:45:27.192] $GPGGA,,,,,,,,,,M,,M,,*56
[2021-02-22 16:45:27.379] $GPGGA,,,,,,,,,,M,,M,,*56
[2021-02-22 16:45:27.598] $GPGGA,,,,,,,,,,M,,M,,*56
[2021-02-22 16:45:27.785] $GPGGA,,,,,,,,,,M,,M,,*56
[2021-02-22 16:45:27.988] $GPGGA,,,,,,,,,,M,,M,,*56
[2021-02-22 16:45:28.176] $GPGGA,,,,,,,,,,M,,M,,*56
[2021-02-22 16:45:28.395] $GPGGA,,,,,,,,,,M,,M,,*56
[2021-02-22 16:45:28.582] $GPGGA,,,,,,,,,,M,,M,,*56
[2021-02-22 16:45:28.785] $GPGGA,,,,,,,,,,M,,M,,*56
[2021-02-22 16:45:28.988] $GPGGA,,,,,,,,,,M,,M,,*56
[2021-02-22 16:45:29.191] $GPGGA,,,,,,,,,,M,,M,,*56
[2021-02-22 16:45:29.379] $GPGGA,,,,,,,,,,M,,M,,*56
[2021-02-22 16:45:29.598] $GPGGA,,,,,,,,,,M,,M,,*56
[2021-02-22 16:45:29.785] $GPGGA,,,,,,,,,,M,,M,,*56
[2021-02-22 16:45:29.988] $GPGGA,,,,,,,,,,M,,M,,*56
[2021-02-22 16:45:30.176] $GPGGA,,,,,,,,,,M,,M,,*56
[2021-02-22 16:45:30.394] $GPGGA,,,,,,,,,,M,,M,,*56
[2021-02-22 16:45:30.582] $GPGGA,,,,,,,,,,M,,M,,*56
[2021-02-22 16:45:30.785] $GPGGA,,,,,,,,,,M,,M,,*56
[2021-02-22 16:45:30.988] $GPGGA,,,,,,,,,,M,,M,,*56
[2021-02-22 16:45:31.191] $GPGGA,,,,,,,,,,M,,M,,*56
[2021-02-22 16:45:31.379] $GPGGA,,,,,,,,,,M,,M,,*56
[2021-02-22 16:45:31.597] $GPGGA,,,,,,,,,,M,,M,,*56
[2021-02-22 16:45:31.785] $GPGGA,,,,,,,,,,M,,M,,*56
[2021-02-22 16:45:31.988] $GPGGA,,,,,,,,,,M,,M,,*56
[2021-02-22 16:45:32.176] $GPGGA,,,,,,,,,,M,,M,,*56
[2021-02-22 16:45:32.394] $GPGGA,,,,,,,,,,M,,M,,*56
[2021-02-22 16:45:32.582] $GPGGA,,,,,,,,,,M,,M,,*56
[2021-02-22 16:45:32.785] $GPGGA,,,,,,,,,,M,,M,,*56
[2021-02-22 16:45:32.988] $GPGGA,,,,,,,,,,M,,M,,*56
[2021-02-22 16:45:33.191] $GPGGA,,,,,,,,,,M,,M,,*56
[2021-02-22 16:45:33.379] $GPGGA,,,,,,,,,,M,,M,,*56
[2021-02-22 16:45:33.582] $GPGGA,,,,,,,,,,M,,M,,*56
[2021-02-22 16:45:33.800] $GPGGA,,,,,,,,,,M,,M,,*56
[2021-02-22 16:45:33.988] $GPGGA,,,,,,,,,,M,,M,,*56
[2021-02-22 16:45:34.175] $GPGGA,,,,,,,,,,M,,M,,*56
[2021-02-22 16:45:34.394] $GPGGA,,,,,,,,,,M,,M,,*56
[2021-02-22 16:45:34.582] $GPGGA,,,,,,,,,,M,,M,,*56
[2021-02-22 16:45:34.785] $GPGGA,,,,,,,,,,M,,M,,*56
[2021-02-22 16:45:35.003] $GPGGA,,,,,,,,,,M,,M,,*56
[2021-02-22 16:45:35.191] $GPGGA,,,,,,,,,,M,,M,,*56
[2021-02-22 16:45:35.394] $GPGGA,,,,,,,,,,M,,M,,*56
[2021-02-22 16:45:35.582] $GPGGA,,,,,,,,,,M,,M,,*56
[2021-02-22 16:45:35.800] $GPGGA,,,,,,,,,,M,,M,,*56
[2021-02-22 16:45:35.988] $GPGGA,,,,,,,,,,M,,M,,*56
[2021-02-22 16:45:36.175] $GPGGA,,,,,,,,,,M,,M,,*56
[2021-02-22 16:45:36.394] $GPGGA,,,,,,,,,,M,,M,,*56
[2021-02-22 16:45:36.597] $GPGGA,,,,,,,,,,M,,M,,*56
[2021-02-22 16:45:36.785] $GPGGA,,,,,,,,,,M,,M,,*56
[2021-02-22 16:45:37.003] $GPGGA,,,,,,,,,,M,,M,,*56
[2021-02-22 16:45:37.191] $GPGGA,,,,,,,,,,M,,M,,*56
[2021-02-22 16:45:37.394] $GPGGA,,,,,,,,,,M,,M,,*56
[2021-02-22 16:45:37.581] $GPGGA,,,,,,,,,,M,,M,,*56
[2021-02-22 16:45:37.800] $GPGGA,,,,,,,,,,M,,M,,*56
[2021-02-22 16:45:37.988] $GPGGA,,,,,,,,,,M,,M,,*56
[2021-02-22 16:45:38.191] $GPGGA,,,,,,,,,,M,,M,,*56
[2021-02-22 16:45:38.394] $GPGGA,,,,,,,,,,M,,M,,*56
[2021-02-22 16:45:38.581] $GPGGA,,,,,,,,,,M,,M,,*56
[2021-02-22 16:45:38.785] $GPGGA,,,,,,,,,,M,,M,,*56
[2021-02-22 16:45:38.972] $GNGGA,074538.60,3713.96100237,N,13701.56657711,E,2,05,2.3,95.094,M,36.771,M,1.6,0196*66
[2021-02-22 16:45:39.097] $GNGGA,074538.70,3713.96100523,N,13701.56657335,E,2,05,2.3,95.098,M,36.771,M,1.7,0196*6A
[2021-02-22 16:45:39.206] $GNGGA,074538.80,3713.96099205,N,13701.56754895,E,1,06,2.1,95.079,M,36.771,M,,*4F
[2021-02-22 16:45:39.300] $GNGGA,074538.90,3713.96099117,N,13701.56754921,E,1,06,2.1,95.078,M,36.771,M,,*41
[2021-02-22 16:45:39.409] $GNGGA,074539.00,3713.96106858,N,13701.56771034,E,1,06,2.1,94.560,M,36.771,M,,*4B
[2021-02-22 16:45:39.503] $GNGGA,074539.10,3713.96106964,N,13701.56770996,E,1,06,2.1,94.555,M,36.771,M,,*42
[2021-02-22 16:45:39.597] $GNGGA,074539.20,3713.96131902,N,13701.56682862,E,2,06,1.4,93.702,M,36.771,M,1.2,0196*62
[2021-02-22 16:45:39.691] $GNGGA,074539.30,3713.96131819,N,13701.56682712,E,2,06,1.4,93.708,M,36.771,M,1.3,0196*6B
[2021-02-22 16:45:39.800] $GNGGA,074539.40,3713.96133405,N,13701.56665308,E,2,07,1.4,93.618,M,36.771,M,1.4,0196*6F
[2021-02-22 16:45:39.894] $GNGGA,074539.50,3713.96133417,N,13701.56665176,E,2,07,1.4,93.623,M,36.771,M,1.5,0196*6F
[2021-02-22 16:45:40.003] $GNGGA,074539.60,3713.96131598,N,13701.56655436,E,2,07,1.4,93.613,M,36.771,M,1.6,0196*6A
[2021-02-22 16:45:40.097] $GNGGA,074539.70,3713.96131740,N,13701.56655335,E,2,07,1.4,93.611,M,36.771,M,1.7,0196*6B
[2021-02-22 16:45:40.206] $GNGGA,074539.80,3713.96129802,N,13701.56655646,E,2,08,1.3,93.708,M,36.771,M,1.8,0196*6B
[2021-02-22 16:45:40.300] $GNGGA,074539.90,3713.96129802,N,13701.56655659,E,2,08,1.3,93.709,M,36.771,M,1.9,0196*64
[2021-02-22 16:45:40.409] $GNGGA,074540.00,3713.96129135,N,13701.56655372,E,2,08,1.3,93.760,M,36.771,M,1.0,0196*64
[2021-02-22 16:45:40.503] $GNGGA,074540.10,3713.96129099,N,13701.56655222,E,2,08,1.3,93.761,M,36.771,M,1.1,0196*66
[2021-02-22 16:45:40.597] $GNGGA,074540.20,3713.96129435,N,13701.56654639,E,2,08,1.3,93.754,M,36.771,M,1.2,0196*6D
[2021-02-22 16:45:40.691] $GNGGA,074540.30,3713.96129424,N,13701.56654595,E,2,08,1.3,93.751,M,36.771,M,1.3,0196*6D
[2021-02-22 16:45:40.800] $GNGGA,074540.40,3713.96129581,N,13701.56654185,E,2,08,1.3,93.705,M,36.771,M,1.4,0196*67
[2021-02-22 16:45:40.894] $GNGGA,074540.50,3713.96129531,N,13701.56654169,E,2,08,1.3,93.706,M,36.771,M,1.5,0196*6D
[2021-02-22 16:45:41.003] $GNGGA,074540.60,3713.96130300,N,13701.56655370,E,2,08,1.3,93.714,M,36.771,M,1.6,0196*69
[2021-02-22 16:45:41.097] $GNGGA,074540.70,3713.96130279,N,13701.56655310,E,2,08,1.3,93.709,M,36.771,M,1.7,0196*6C
[2021-02-22 16:45:41.206] $GNGGA,074540.80,3713.96130804,N,13701.56657113,E,2,08,1.3,93.734,M,36.771,M,1.8,0196*61
[2021-02-22 16:45:41.300] $GNGGA,074540.90,3713.96130904,N,13701.56657087,E,2,08,1.3,93.733,M,36.771,M,1.9,0196*6B
[2021-02-22 16:45:41.409] $GNGGA,074541.00,3713.96129593,N,13701.56658283,E,2,08,1.3,93.755,M,36.771,M,1.0,0196*69
[2021-02-22 16:45:41.503] $GNGGA,074541.10,3713.96129519,N,13701.56658230,E,2,08,1.3,93.757,M,36.771,M,1.1,0196*61
[2021-02-22 16:45:41.612] $GNGGA,074541.20,3713.96130560,N,13701.56659723,E,2,08,1.3,93.712,M,36.771,M,1.2,0196*60
[2021-02-22 16:45:41.691] $GNGGA,074541.30,3713.96130532,N,13701.56659657,E,2,08,1.3,93.715,M,36.771,M,1.3,0196*62
[2021-02-22 16:45:41.800] $GNGGA,074541.40,3713.96131751,N,13701.56660191,E,2,08,1.3,93.678,M,36.771,M,1.4,0196*69
[2021-02-22 16:45:41.894] $GNGGA,074541.50,3713.96131607,N,13701.56660150,E,2,08,1.3,93.682,M,36.771,M,1.5,0196*63
[2021-02-22 16:45:42.003] $GNGGA,074541.60,3713.96133025,N,13701.56660183,E,2,08,1.3,93.649,M,36.771,M,1.6,0196*6E
[2021-02-22 16:45:42.097] $GNGGA,074541.70,3713.96133070,N,13701.56659946,E,2,08,1.3,93.656,M,36.771,M,1.7,0196*6B
[2021-02-22 16:45:42.206] $GNGGA,074541.80,3713.96134409,N,13701.56657144,E,2,08,1.3,93.673,M,36.771,M,1.8,0196*65
[2021-02-22 16:45:42.300] $GNGGA,074541.90,3713.96134389,N,13701.56657129,E,2,08,1.3,93.675,M,36.771,M,1.9,0196*67
[2021-02-22 16:45:42.394] $GNGGA,074542.00,3713.96135389,N,13701.56655223,E,2,09,1.1,93.683,M,36.771,M,2.0,0196*67
[2021-02-22 16:45:42.503] $GNGGA,074542.10,3713.96135425,N,13701.56655170,E,2,08,1.1,93.685,M,36.771,M,1.1,0196*67
[2021-02-22 16:45:42.612] $GNGGA,074542.20,3713.96135980,N,13701.56654528,E,2,09,1.1,93.693,M,36.771,M,1.2,0196*6B
[2021-02-22 16:45:42.706] $GNGGA,074542.30,3713.96136017,N,13701.56654486,E,2,09,1.1,93.693,M,36.771,M,1.3,0196*6A
[2021-02-22 16:45:42.800] $GNGGA,074542.40,3713.96136028,N,13701.56656552,E,2,09,1.1,93.707,M,36.771,M,1.4,0196*60
[2021-02-22 16:45:42.894] $GNGGA,074542.50,3713.96135973,N,13701.56656627,E,2,09,1.1,93.707,M,36.771,M,1.5,0196*65
[2021-02-22 16:45:43.003] $GNGGA,074542.60,3713.96135419,N,13701.56658025,E,2,09,1.1,93.722,M,36.771,M,1.6,0196*69
[2021-02-22 16:45:43.097] $GNGGA,074542.70,3713.96135436,N,13701.56658063,E,2,09,1.1,93.722,M,36.771,M,1.7,0196*66
[2021-02-22 16:45:43.206] $GNGGA,074542.80,3713.96134565,N,13701.56658810,E,2,09,1.1,93.743,M,36.771,M,1.8,0196*6B
[2021-02-22 16:45:43.300] $GNGGA,074542.90,3713.96134571,N,13701.56658894,E,2,09,1.1,93.745,M,36.771,M,1.9,0196*64
[2021-02-22 16:45:43.409] $GNGGA,074543.00,3713.96133726,N,13701.56659398,E,2,09,1.1,93.763,M,36.771,M,1.0,0196*60
[2021-02-22 16:45:43.503] $GNGGA,074543.10,3713.96133561,N,13701.56659452,E,2,09,1.1,93.770,M,36.771,M,1.1,0196*62
[2021-02-22 16:45:43.597] $GNGGA,074543.20,3713.96132781,N,13701.56659639,E,2,09,1.1,93.781,M,36.771,M,1.2,0196*6E
[2021-02-22 16:45:43.706] $GNGGA,074543.30,3713.96132673,N,13701.56659649,E,2,09,1.1,93.783,M,36.771,M,1.3,0196*67
[2021-02-22 16:45:43.800] $GNGGA,074543.40,3713.96132043,N,13701.56659790,E,2,09,1.1,93.787,M,36.771,M,1.4,0196*63
[2021-02-22 16:45:43.894] $GNGGA,074543.50,3713.96131970,N,13701.56659825,E,2,09,1.1,93.788,M,36.771,M,1.5,0196*67
[2021-02-22 16:45:44.003] $GNGGA,074543.60,3713.96131663,N,13701.56660149,E,2,09,1.1,93.785,M,36.771,M,1.6,0196*6E
[2021-02-22 16:45:44.097] $GNGGA,074543.70,3713.96131627,N,13701.56660041,E,2,09,1.1,93.788,M,36.771,M,1.7,0196*6A
[2021-02-22 16:45:44.206] $GNGGA,074543.80,3713.96131623,N,13701.56660363,E,2,09,1.1,93.788,M,36.771,M,1.8,0196*6D
[2021-02-22 16:45:44.300] $GNGGA,074543.90,3713.96131518,N,13701.56660310,E,2,09,1.1,93.787,M,36.771,M,1.9,0196*6D
[2021-02-22 16:45:44.409] $GNGGA,074544.00,3713.96131461,N,13701.56660508,E,2,10,1.0,93.792,M,36.771,M,1.0,0196*67
[2021-02-22 16:45:44.503] $GNGGA,074544.10,3713.96131546,N,13701.56660472,E,2,09,1.0,93.791,M,36.771,M,1.1,0196*64
[2021-02-22 16:45:44.612] $GNGGA,074544.20,3713.96131596,N,13701.56660656,E,2,10,1.0,93.789,M,36.771,M,1.2,0196*6C
[2021-02-22 16:45:44.706] $GNGGA,074544.30,3713.96131658,N,13701.56660637,E,2,10,1.0,93.788,M,36.771,M,1.3,0196*6B
[2021-02-22 16:45:44.800] $GNGGA,074544.40,3713.96131934,N,13701.56660786,E,2,10,1.0,93.782,M,36.771,M,1.4,0196*6F
[2021-02-22 16:45:44.893] $GNGGA,074544.50,3713.96131916,N,13701.56660780,E,2,10,1.0,93.786,M,36.771,M,1.5,0196*6D
[2021-02-22 16:45:45.003] $GNGGA,074544.60,3713.96131977,N,13701.56660911,E,2,10,1.0,93.777,M,36.771,M,1.6,0196*62
[2021-02-22 16:45:45.097] $GNGGA,074544.70,3713.96131970,N,13701.56660615,E,2,10,1.0,93.782,M,36.771,M,1.7,0196*64
[2021-02-22 16:45:45.206] $GNGGA,074544.80,3713.96132330,N,13701.56660204,E,2,10,1.0,93.768,M,36.771,M,1.8,0196*69
[2021-02-22 16:45:45.300] $GNGGA,074544.90,3713.96132302,N,13701.56660071,E,2,10,1.0,93.768,M,36.771,M,1.9,0196*68
[2021-02-22 16:45:45.409] $GNGGA,074545.00,3713.96131960,N,13701.56660136,E,2,10,1.0,93.763,M,36.771,M,2.0,0196*6E
[2021-02-22 16:45:45.503] $GNGGA,074545.10,3713.96132030,N,13701.56660018,E,2,10,1.0,93.764,M,36.771,M,2.1,0196*6B
[2021-02-22 16:45:45.612] $GNGGA,074545.20,3713.96131885,N,13701.56659721,E,2,10,1.0,93.758,M,36.771,M,2.2,0196*66
[2021-02-22 16:45:45.706] $GNGGA,074545.30,3713.96131994,N,13701.56659575,E,2,10,1.0,93.756,M,36.771,M,1.3,0196*69
[2021-02-22 16:45:45.800] $GNGGA,074545.40,3713.96132000,N,13701.56659342,E,2,10,1.0,93.751,M,36.771,M,1.4,0196*6B
[2021-02-22 16:45:45.893] $GNGGA,074545.50,3713.96131879,N,13701.56659190,E,2,10,1.0,93.756,M,36.771,M,1.5,0196*64
[2021-02-22 16:45:46.003] $GNGGA,074545.60,3713.96131762,N,13701.56658770,E,2,10,1.0,93.749,M,36.771,M,1.6,0196*66
[2021-02-22 16:45:46.097] $GNGGA,074545.70,3713.96131709,N,13701.56658777,E,2,10,1.0,93.749,M,36.771,M,1.7,0196*6C
[2021-02-22 16:45:46.206] $GNGGA,074545.80,3713.96131182,N,13701.56658566,E,2,10,1.0,93.739,M,36.771,M,1.8,0196*6C
[2021-02-22 16:45:46.300] $GNGGA,074545.90,3713.96131220,N,13701.56658448,E,2,10,1.0,93.739,M,36.771,M,1.9,0196*6A
[2021-02-22 16:45:46.409] $GNGGA,074546.00,3713.96130456,N,13701.56658596,E,2,10,1.0,93.733,M,36.771,M,1.0,0196*67
[2021-02-22 16:45:46.503] $GNGGA,074546.10,3713.96130458,N,13701.56658467,E,2,10,1.0,93.735,M,36.771,M,1.1,0196*60
[2021-02-22 16:45:46.612] $GNGGA,074546.20,3713.96129675,N,13701.56658587,E,2,10,1.0,93.732,M,36.771,M,1.2,0196*6D
[2021-02-22 16:45:46.706] $GNGGA,074546.30,3713.96129628,N,13701.56658529,E,2,10,1.0,93.733,M,36.771,M,1.3,0196*60
[2021-02-22 16:45:46.800] $GNGGA,074546.40,3713.96128552,N,13701.56658620,E,2,10,1.0,93.736,M,36.771,M,1.4,0196*60
[2021-02-22 16:45:46.893] $GNGGA,074546.50,3713.96128565,N,13701.56658510,E,2,10,1.0,93.735,M,36.771,M,1.5,0196*67
[2021-02-22 16:45:47.003] $GNGGA,074546.60,3713.96127355,N,13701.56658486,E,2,10,1.0,93.739,M,36.771,M,1.6,0196*6F
[2021-02-22 16:45:47.096] $GNGGA,074546.70,3713.96127455,N,13701.56658513,E,2,10,1.0,93.741,M,36.771,M,1.7,0196*6A
[2021-02-22 16:45:47.206] $GNGGA,074546.80,3713.96126442,N,13701.56658410,E,2,10,1.0,93.738,M,36.771,M,1.8,0196*61
[2021-02-22 16:45:47.300] $GNGGA,074546.90,3713.96126420,N,13701.56658394,E,2,10,1.0,93.738,M,36.771,M,1.9,0196*6E
[2021-02-22 16:45:47.409] $GNGGA,074547.00,3713.96125288,N,13701.56658241,E,2,10,1.0,93.743,M,36.771,M,2.0,0196*6E
[2021-02-22 16:45:47.503] $GNGGA,074547.10,3713.96125330,N,13701.56658307,E,2,10,1.0,93.746,M,36.771,M,2.1,0196*6A
[2021-02-22 16:45:47.612] $GNGGA,074547.20,3713.96124394,N,13701.56657898,E,2,10,1.0,93.749,M,36.771,M,1.2,0196*6B
[2021-02-22 16:45:47.706] $GNGGA,074547.30,3713.96124369,N,13701.56657908,E,2,10,1.0,93.754,M,36.771,M,1.3,0196*6D
[2021-02-22 16:45:47.800] $GNGGA,074547.40,3713.96123334,N,13701.56657547,E,2,10,1.0,93.757,M,36.771,M,1.4,0196*66
[2021-02-22 16:45:47.893] $GNGGA,074547.50,3713.96123410,N,13701.56657494,E,2,10,1.0,93.753,M,36.771,M,1.5,0196*6C
[2021-02-22 16:45:48.003] $GNGGA,074547.60,3713.96122574,N,13701.56657354,E,2,10,1.0,93.754,M,36.771,M,1.6,0196*62
[2021-02-22 16:45:48.096] $GNGGA,074547.70,3713.96122640,N,13701.56657334,E,2,10,1.0,93.755,M,36.771,M,1.7,0196*61
[2021-02-22 16:45:48.206] $GNGGA,074547.80,3713.96122192,N,13701.56657339,E,2,10,1.0,93.751,M,36.771,M,1.8,0196*60
[2021-02-22 16:45:48.299] $GNGGA,074547.90,3713.96122288,N,13701.56657324,E,2,10,1.0,93.749,M,36.771,M,1.9,0196*6D
[2021-02-22 16:45:48.409] $GNGGA,074548.00,3713.96121974,N,13701.56657528,E,2,10,1.0,93.747,M,36.771,M,2.0,0196*6E
[2021-02-22 16:45:48.503] $GNGGA,074548.10,3713.96121982,N,13701.56657435,E,2,10,1.0,93.746,M,36.771,M,2.1,0196*6B
[2021-02-22 16:45:48.612] $GNGGA,074548.20,3713.96121313,N,13701.56658339,E,2,10,1.0,93.741,M,36.771,M,1.2,0196*69
[2021-02-22 16:45:48.690] $GNGGA,074548.30,3713.96121276,N,13701.56658198,E,2,10,1.0,93.750,M,36.771,M,1.3,0196*62
[2021-02-22 16:45:48.799] $GNGGA,074548.40,3713.96120828,N,13701.56658957,E,2,10,1.0,93.742,M,36.771,M,1.4,0196*6A
[2021-02-22 16:45:48.893] $GNGGA,074548.50,3713.96120766,N,13701.56659114,E,2,10,1.0,93.742,M,36.771,M,1.5,0196*61
[2021-02-22 16:45:49.003] $GNGGA,074548.60,3713.96120528,N,13701.56659912,E,2,10,1.0,93.738,M,36.771,M,1.6,0196*6A
[2021-02-22 16:45:49.096] $GNGGA,074548.70,3713.96120578,N,13701.56659766,E,2,10,1.0,93.742,M,36.771,M,1.7,0196*6F
[2021-02-22 16:45:49.206] $GNGGA,074548.80,3713.96120367,N,13701.56660219,E,2,10,1.0,93.743,M,36.771,M,1.8,0196*61
[2021-02-22 16:45:49.299] $GNGGA,074548.90,3713.96120341,N,13701.56660087,E,2,10,1.0,93.742,M,36.771,M,1.9,0196*61
[2021-02-22 16:45:49.409] $GNGGA,074549.00,3713.96119869,N,13701.56660371,E,2,10,1.0,93.743,M,36.771,M,2.0,0196*63
[2021-02-22 16:45:49.502] $GNGGA,074549.10,3713.96119898,N,13701.56660340,E,2,10,1.0,93.738,M,36.771,M,1.1,0196*60
[2021-02-22 16:45:49.612] $GPGGA,074549.20,3713.96120431,N,13701.56669728,E,5,07,1.3,93.273,M,36.771,M,1.2,0196*70
[2021-02-22 16:45:49.706] $GPGGA,074549.30,3713.96120435,N,13701.56669768,E,5,07,1.3,93.264,M,36.771,M,1.3,0196*76
[2021-02-22 16:45:49.815] $GPGGA,074549.40,3713.96120592,N,13701.56669880,E,5,07,1.3,93.273,M,36.771,M,1.4,0196*75
[2021-02-22 16:45:49.893] $GPGGA,074549.50,3713.96120288,N,13701.56669715,E,5,07,1.3,93.270,M,36.771,M,1.5,0196*79
[2021-02-22 16:45:50.002] $GPGGA,074549.60,3713.96120337,N,13701.56669746,E,5,07,1.3,93.263,M,36.771,M,1.6,0196*78
[2021-02-22 16:45:50.096] $GPGGA,074549.70,3713.96120297,N,13701.56669590,E,5,07,1.3,93.278,M,36.771,M,1.7,0196*70
[2021-02-22 16:45:50.206] $GPGGA,074549.80,3713.96120535,N,13701.56669924,E,5,07,1.3,93.263,M,36.771,M,1.8,0196*76
[2021-02-22 16:45:50.299] $GPGGA,074549.90,3713.96120444,N,13701.56669890,E,5,07,1.3,93.270,M,36.771,M,1.9,0196*7D
[2021-02-22 16:45:50.409] $GPGGA,074550.00,3713.96120541,N,13701.56669965,E,5,07,1.3,93.263,M,36.771,M,2.0,0196*7B
[2021-02-22 16:45:50.502] $GPGGA,074550.10,3713.96120485,N,13701.56669862,E,5,06,1.3,93.272,M,36.771,M,1.1,0196*76
[2021-02-22 16:45:50.612] $GPGGA,074550.20,3713.96120193,N,13701.56669842,E,5,06,1.3,93.278,M,36.771,M,1.2,0196*7C
[2021-02-22 16:45:50.706] $GPGGA,074550.30,3713.96120214,N,13701.56669769,E,5,06,1.3,93.274,M,36.771,M,1.3,0196*7A
[2021-02-22 16:45:50.815] $GPGGA,074550.40,3713.96120199,N,13701.56669826,E,5,06,1.3,93.272,M,36.771,M,1.4,0196*7E
[2021-02-22 16:45:50.893] $GPGGA,074550.50,3713.96120381,N,13701.56669665,E,5,06,1.3,93.276,M,36.771,M,1.5,0196*78
[2021-02-22 16:45:51.002] $GPGGA,074550.60,3713.96120316,N,13701.56669879,E,5,06,1.3,93.278,M,36.771,M,1.6,0196*7B
[2021-02-22 16:45:51.096] $GPGGA,074550.70,3713.96120501,N,13701.56669940,E,5,06,1.3,93.266,M,36.771,M,1.7,0196*7F
[2021-02-22 16:45:51.206] $GPGGA,074550.80,3713.96120329,N,13701.56669762,E,5,06,1.3,93.271,M,36.771,M,1.8,0196*7B
[2021-02-22 16:45:51.299] $GPGGA,074550.90,3713.96120449,N,13701.56669483,E,5,06,1.3,93.270,M,36.771,M,1.9,0196*77
[2021-02-22 16:45:51.409] $GPGGA,074551.00,3713.96120280,N,13701.56669837,E,5,06,1.3,93.263,M,36.771,M,2.0,0196*77
[2021-02-22 16:45:51.502] $GPGGA,074551.10,3713.96119917,N,13701.56669889,E,5,06,1.4,93.272,M,36.771,M,1.1,0196*79
[2021-02-22 16:45:51.612] $GPGGA,074551.20,3713.96120029,N,13701.56669556,E,5,06,1.4,93.277,M,36.771,M,1.2,0196*7D
[2021-02-22 16:45:51.706] $GPGGA,074551.30,3713.96120098,N,13701.56669405,E,5,06,1.4,93.279,M,36.771,M,1.3,0196*7E
[2021-02-22 16:45:51.815] $GPGGA,074551.40,3713.96120147,N,13701.56669671,E,5,06,1.4,93.281,M,36.771,M,1.4,0196*7B
[2021-02-22 16:45:51.893] $GPGGA,074551.50,3713.96119976,N,13701.56669498,E,5,06,1.4,93.285,M,36.771,M,1.5,0196*7A
[2021-02-22 16:45:52.002] $GPGGA,074551.60,3713.96120069,N,13701.56669681,E,5,06,1.4,93.276,M,36.771,M,1.6,0196*71
[2021-02-22 16:45:52.096] $GPGGA,074551.70,3713.96120154,N,13701.56669901,E,5,06,1.4,93.269,M,36.771,M,1.7,0196*77
[2021-02-22 16:45:52.205] $GPGGA,074551.80,3713.96120066,N,13701.56669813,E,5,06,1.4,93.271,M,36.771,M,1.8,0196*7C
[2021-02-22 16:45:52.299] $GPGGA,074551.90,3713.96120024,N,13701.56669541,E,5,06,1.4,93.284,M,36.771,M,1.9,0196*7A
[2021-02-22 16:45:52.393] $GPGGA,074552.00,3713.96120122,N,13701.56669214,E,5,07,1.3,93.284,M,36.771,M,1.0,0196*7F
[2021-02-22 16:45:52.487] $GPGGA,074552.10,3713.96119959,N,13701.56669135,E,5,07,1.3,93.288,M,36.771,M,1.1,0196*7D
[2021-02-22 16:45:52.612] $GPGGA,074552.20,3713.96119696,N,13701.56669160,E,5,07,1.3,93.288,M,36.771,M,1.2,0196*71
[2021-02-22 16:45:52.705] $GPGGA,074552.30,3713.96119970,N,13701.56669322,E,5,07,1.3,93.279,M,36.771,M,1.3,0196*7C
[2021-02-22 16:45:52.815] $GPGGA,074552.40,3713.96119774,N,13701.56669332,E,5,07,1.3,93.282,M,36.771,M,1.4,0196*73
[2021-02-22 16:45:52.893] $GPGGA,074552.50,3713.96120082,N,13701.56669244,E,5,07,1.3,93.280,M,36.771,M,1.5,0196*75
[2021-02-22 16:45:53.002] $GPGGA,074552.60,3713.96119933,N,13701.56669388,E,5,07,1.3,93.285,M,36.771,M,1.6,0196*78
[2021-02-22 16:45:53.096] $GPGGA,074552.70,3713.96119854,N,13701.56669197,E,5,07,1.3,93.289,M,36.771,M,1.7,0196*78
[2021-02-22 16:45:53.205] $GPGGA,074552.80,3713.96119600,N,13701.56669402,E,5,07,1.3,93.287,M,36.771,M,1.8,0196*70
[2021-02-22 16:45:53.299] $GPGGA,074552.90,3713.96119880,N,13701.56669328,E,5,07,1.3,93.294,M,36.771,M,1.9,0196*7B
[2021-02-22 16:45:53.409] $GPGGA,074553.00,3713.96119924,N,13701.56669194,E,5,07,1.3,93.283,M,36.771,M,2.0,0196*75
[2021-02-22 16:45:53.502] $GPGGA,074553.10,3713.96119700,N,13701.56669389,E,5,07,1.3,93.284,M,36.771,M,2.1,0196*74
[2021-02-22 16:45:53.612] $GPGGA,074553.20,3713.96120092,N,13701.56669443,E,5,07,1.3,93.279,M,36.771,M,1.2,0196*72
[2021-02-22 16:45:53.705] $GPGGA,074553.30,3713.96120132,N,13701.56669553,E,5,07,1.3,93.276,M,36.771,M,1.3,0196*76
[2021-02-22 16:45:53.815] $GPGGA,074553.40,3713.96120151,N,13701.56669327,E,5,07,1.3,93.273,M,36.771,M,1.4,0196*73
[2021-02-22 16:45:53.908] $GPGGA,074553.50,3713.96119907,N,13701.56669476,E,5,07,1.3,93.280,M,36.771,M,1.5,0196*7D
[2021-02-22 16:45:54.002] $GPGGA,074553.60,3713.96119952,N,13701.56669459,E,5,07,1.3,93.285,M,36.771,M,1.6,0196*75
[2021-02-22 16:45:54.096] $GPGGA,074553.70,3713.96119762,N,13701.56669467,E,5,07,1.3,93.278,M,36.771,M,1.7,0196*77
[2021-02-22 16:45:54.205] $GPGGA,074553.80,3713.96120235,N,13701.56669539,E,5,07,1.3,93.267,M,36.771,M,1.8,0196*7E
[2021-02-22 16:45:54.299] $GPGGA,074553.90,3713.96119908,N,13701.56669521,E,5,07,1.3,93.281,M,36.771,M,1.9,0196*70
[2021-02-22 16:45:54.408] $GPGGA,074554.00,3713.96120051,N,13701.56669581,E,5,07,1.3,93.279,M,36.771,M,2.0,0196*76
[2021-02-22 16:45:54.502] $GPGGA,074554.10,3713.96119980,N,13701.56669360,E,5,07,1.3,93.282,M,36.771,M,2.1,0196*74
[2021-02-22 16:45:54.612] $GPGGA,074554.20,3713.96120225,N,13701.56669655,E,5,07,1.3,93.270,M,36.771,M,2.2,0196*74
[2021-02-22 16:45:54.705] $GPGGA,074554.30,3713.96120067,N,13701.56669396,E,4,06,1.4,93.298,M,36.771,M,1.3,0196*78
[2021-02-22 16:45:54.815] $GPGGA,074554.40,3713.96120093,N,13701.56669637,E,4,06,1.4,93.289,M,36.771,M,1.4,0196*7D
[2021-02-22 16:45:54.908] $GPGGA,074554.50,3713.96120260,N,13701.56669563,E,4,06,1.4,93.291,M,36.771,M,1.5,0196*78
[2021-02-22 16:45:55.002] $GPGGA,074554.60,3713.96120111,N,13701.56669444,E,4,06,1.4,93.297,M,36.771,M,1.6,0196*7F
[2021-02-22 16:45:55.096] $GPGGA,074554.70,3713.96119896,N,13701.56669467,E,4,06,1.4,93.304,M,36.771,M,1.7,0196*79
[2021-02-22 16:45:55.205] $GPGGA,074554.80,3713.96120110,N,13701.56669575,E,4,06,1.4,93.296,M,36.771,M,1.8,0196*7C
[2021-02-22 16:45:55.299] $GPGGA,074554.90,3713.96119827,N,13701.56669446,E,4,06,1.4,93.297,M,36.771,M,1.9,0196*7B
[2021-02-22 16:45:55.408] $GPGGA,074555.00,3713.96119988,N,13701.56669451,E,4,06,1.4,93.294,M,36.771,M,2.0,0196*78
[2021-02-22 16:45:55.502] $GPGGA,074555.10,3713.96119906,N,13701.56669426,E,4,06,1.4,93.294,M,36.771,M,2.1,0196*7E
[2021-02-22 16:45:55.611] $GPGGA,074555.20,3713.96120113,N,13701.56669624,E,4,06,1.4,93.278,M,36.771,M,1.2,0196*79
[2021-02-22 16:45:55.705] $GPGGA,074555.30,3713.96119985,N,13701.56669565,E,4,06,1.4,93.269,M,36.771,M,1.3,0196*72
[2021-02-22 16:45:55.815] $GPGGA,074555.40,3713.96120114,N,13701.56669580,E,4,06,1.4,93.280,M,36.771,M,1.4,0196*74
[2021-02-22 16:45:55.893] $GPGGA,074555.50,3713.96120072,N,13701.56669437,E,4,06,1.4,93.278,M,36.771,M,1.5,0196*7F
[2021-02-22 16:45:56.002] $GPGGA,074555.60,3713.96120036,N,13701.56669298,E,4,06,1.4,93.281,M,36.771,M,1.6,0196*7A
[2021-02-22 16:45:56.096] $GPGGA,074555.70,3713.96119913,N,13701.56669474,E,4,06,1.4,93.279,M,36.771,M,1.7,0196*7D
[2021-02-22 16:45:56.205] $GPGGA,074555.80,3713.96119745,N,13701.56669448,E,4,06,1.4,93.278,M,36.771,M,1.8,0196*7E
[2021-02-22 16:45:56.299] $GPGGA,074555.90,3713.96120083,N,13701.56669573,E,4,06,1.4,93.269,M,36.771,M,1.9,0196*70
[2021-02-22 16:45:56.408] $GPGGA,074556.00,3713.96120121,N,13701.56669461,E,4,06,1.4,93.275,M,36.771,M,2.0,0196*76
[2021-02-22 16:45:56.502] $GPGGA,074556.10,3713.96120007,N,13701.56669401,E,4,06,1.4,93.276,M,36.771,M,2.1,0196*76
[2021-02-22 16:45:56.611] $GPGGA,074556.20,3713.96119798,N,13701.56669660,E,4,06,1.4,93.285,M,36.771,M,1.2,0196*77
[2021-02-22 16:45:56.705] $GPGGA,074556.30,3713.96119703,N,13701.56669525,E,4,06,1.4,93.294,M,36.771,M,1.3,0196*77
[2021-02-22 16:45:56.814] $GPGGA,074556.40,3713.96119849,N,13701.56669789,E,4,06,1.4,93.286,M,36.771,M,1.4,0196*71
[2021-02-22 16:45:56.908] $GPGGA,074556.50,3713.96119834,N,13701.56669626,E,4,06,1.4,93.293,M,36.771,M,1.5,0196*7B
[2021-02-22 16:45:57.002] $GPGGA,074556.60,3713.96119609,N,13701.56669479,E,4,06,1.4,93.295,M,36.771,M,1.6,0196*75
[2021-02-22 16:45:57.096] $GPGGA,074556.70,3713.96119657,N,13701.56669688,E,4,06,1.4,93.293,M,36.771,M,1.7,0196*74
[2021-02-22 16:45:57.205] $GPGGA,074556.80,3713.96119639,N,13701.56669560,E,4,06,1.4,93.294,M,36.771,M,1.8,0196*7E
[2021-02-22 16:45:57.299] $GPGGA,074556.90,3713.96119755,N,13701.56669645,E,4,06,1.4,93.301,M,36.771,M,1.9,0196*7C
[2021-02-22 16:45:57.408] $GPGGA,074557.00,3713.96119857,N,13701.56669614,E,4,06,1.4,93.296,M,36.771,M,2.0,0196*78
[2021-02-22 16:45:57.502] $GPGGA,074557.10,3713.96119879,N,13701.56669794,E,4,06,1.4,93.289,M,36.771,M,2.1,0196*73
[2021-02-22 16:45:57.611] $GPGGA,074557.20,3713.96119848,N,13701.56669637,E,4,07,1.3,93.297,M,36.771,M,1.2,0196*73
[2021-02-22 16:45:57.705] $GPGGA,074557.30,3713.96120172,N,13701.56669714,E,4,07,1.3,93.285,M,36.771,M,1.3,0196*7A
[2021-02-22 16:45:57.814] $GPGGA,074557.40,3713.96119950,N,13701.56669589,E,4,07,1.3,93.295,M,36.771,M,1.4,0196*7F
[2021-02-22 16:45:57.893] $GPGGA,074557.50,3713.96119999,N,13701.56669691,E,4,07,1.3,93.295,M,36.771,M,1.5,0196*70
[2021-02-22 16:45:58.002] $GPGGA,074557.60,3713.96119908,N,13701.56669710,E,4,07,1.3,93.286,M,36.771,M,1.6,0196*72
[2021-02-22 16:45:58.096] $GPGGA,074557.70,3713.96119944,N,13701.56669533,E,4,07,1.3,93.294,M,36.771,M,1.7,0196*7A
[2021-02-22 16:45:58.205] $GPGGA,074557.80,3713.96119912,N,13701.56669561,E,4,07,1.3,93.293,M,36.771,M,1.8,0196*79
[2021-02-22 16:45:58.299] $GPGGA,074557.90,3713.96119787,N,13701.56669847,E,4,07,1.3,93.289,M,36.771,M,1.9,0196*79
[2021-02-22 16:45:58.408] $GPGGA,074558.00,3713.96119777,N,13701.56669601,E,4,07,1.3,93.300,M,36.771,M,2.0,0196*76
[2021-02-22 16:45:58.502] $GPGGA,074558.10,3713.96120059,N,13701.56669666,E,4,06,1.4,93.291,M,36.771,M,1.1,0196*7A
[2021-02-22 16:45:58.611] $GPGGA,074558.20,3713.96120041,N,13701.56669706,E,4,06,1.4,93.281,M,36.771,M,1.2,0196*75
[2021-02-22 16:45:58.705] $GPGGA,074558.30,3713.96120100,N,13701.56669703,E,4,06,1.4,93.290,M,36.771,M,1.3,0196*74
[2021-02-22 16:45:58.814] $GPGGA,074558.40,3713.96120105,N,13701.56669755,E,4,06,1.4,93.290,M,36.771,M,1.4,0196*72
[2021-02-22 16:45:58.893] $GPGGA,074558.50,3713.96119983,N,13701.56669470,E,4,06,1.4,93.288,M,36.771,M,1.5,0196*73
[2021-02-22 16:45:59.002] $GPGGA,074558.60,3713.96119895,N,13701.56669717,E,4,06,1.4,93.292,M,36.771,M,1.6,0196*7C
[2021-02-22 16:45:59.096] $GPGGA,074558.70,3713.96119687,N,13701.56669322,E,4,06,1.4,93.294,M,36.771,M,1.7,0196*75
[2021-02-22 16:45:59.205] $GPGGA,074558.80,3713.96119848,N,13701.56669732,E,4,06,1.4,93.287,M,36.771,M,1.8,0196*7F
[2021-02-22 16:45:59.299] $GPGGA,074558.90,3713.96120002,N,13701.56669811,E,4,06,1.4,93.287,M,36.771,M,1.9,0196*7D
[2021-02-22 16:45:59.408] $GPGGA,074559.00,3713.96118794,N,13701.56669226,E,4,06,1.4,93.305,M,36.771,M,2.0,0196*79
[2021-02-22 16:45:59.502] $GPGGA,074559.10,3713.96118892,N,13701.56669786,E,4,06,1.4,93.307,M,36.771,M,1.1,0196*7E
[2021-02-22 16:45:59.611] $GPGGA,074559.20,3713.96118863,N,13701.56669575,E,4,06,1.4,93.307,M,36.771,M,1.2,0196*7E
[2021-02-22 16:45:59.705] $GPGGA,074559.30,3713.96118926,N,13701.56669476,E,4,06,1.4,93.300,M,36.771,M,1.3,0196*7B
[2021-02-22 16:45:59.814] $GPGGA,074559.40,3713.96118859,N,13701.56669666,E,4,06,1.4,93.306,M,36.771,M,1.4,0196*77
[2021-02-22 16:45:59.908] $GPGGA,074559.50,3713.96118991,N,13701.56669690,E,4,06,1.4,93.300,M,36.771,M,1.5,0196*7D
[2021-02-22 16:46:00.002] $GPGGA,074559.60,3713.96118777,N,13701.56669597,E,4,06,1.4,93.305,M,36.771,M,1.6,0196*7A
[2021-02-22 16:46:00.096] $GPGGA,074559.70,3713.96119148,N,13701.56669645,E,4,06,1.4,93.305,M,36.771,M,1.7,0196*7D
[2021-02-22 16:46:00.205] $GPGGA,074559.80,3713.96118895,N,13701.56669692,E,4,06,1.4,93.301,M,36.771,M,1.8,0196*7B
[2021-02-22 16:46:00.299] $GPGGA,074559.90,3713.96118868,N,13701.56669418,E,4,06,1.4,93.304,M,36.771,M,1.9,0196*7C
[2021-02-22 16:46:00.408] $GPGGA,074600.00,3713.96119748,N,13701.56669484,E,4,07,1.3,93.288,M,36.771,M,1.0,0196*79
[2021-02-22 16:46:00.502] $GPGGA,074600.10,3713.96119723,N,13701.56669557,E,4,07,1.3,93.286,M,36.771,M,1.1,0196*75
[2021-02-22 16:46:00.611] $GPGGA,074600.20,3713.96119808,N,13701.56669817,E,4,07,1.3,93.282,M,36.771,M,1.2,0196*7E
[2021-02-22 16:46:00.705] $GPGGA,074600.30,3713.96119645,N,13701.56669585,E,4,07,1.3,93.295,M,36.771,M,1.3,0196*79
[2021-02-22 16:46:00.814] $GPGGA,074600.40,3713.96119689,N,13701.56669727,E,4,07,1.3,93.293,M,36.771,M,1.4,0196*75
[2021-02-22 16:46:00.908] $GPGGA,074600.50,3713.96119804,N,13701.56669901,E,4,07,1.3,93.292,M,36.771,M,1.5,0196*75
[2021-02-22 16:46:01.002] $GPGGA,074600.60,3713.96119625,N,13701.56669827,E,4,07,1.3,93.288,M,36.771,M,1.6,0196*76
[2021-02-22 16:46:01.095] $GPGGA,074600.70,3713.96119941,N,13701.56669933,E,4,07,1.3,93.290,M,36.771,M,1.7,0196*76
[2021-02-22 16:46:01.205] $GPGGA,074600.80,3713.96119779,N,13701.56669970,E,4,07,1.3,93.285,M,36.771,M,1.8,0196*70
[2021-02-22 16:46:01.299] $GPGGA,074600.90,3713.96119911,N,13701.56669665,E,4,07,1.3,93.286,M,36.771,M,1.9,0196*78
[2021-02-22 16:46:01.408] $GPGGA,074601.00,3713.96119815,N,13701.56669677,E,4,07,1.3,93.287,M,36.771,M,2.0,0196*7D
[2021-02-22 16:46:01.502] $GPGGA,074601.10,3713.96119787,N,13701.56669761,E,4,07,1.3,93.285,M,36.771,M,2.1,0196*7D
[2021-02-22 16:46:01.611] $GPGGA,074601.20,3713.96119655,N,13701.56669629,E,4,07,1.3,93.290,M,36.771,M,2.2,0196*7A
[2021-02-22 16:46:01.705] $GNGGA,074601.30,3713.96119998,N,13701.56670151,E,4,09,1.2,93.288,M,36.771,M,1.3,0196*6F
[2021-02-22 16:46:01.814] $GNGGA,074601.40,3713.96119654,N,13701.56670008,E,4,09,1.2,93.297,M,36.771,M,1.4,0196*63
[2021-02-22 16:46:01.908] $GNGGA,074601.50,3713.96120168,N,13701.56670220,E,4,09,1.2,93.289,M,36.771,M,1.5,0196*66
[2021-02-22 16:46:02.002] $GNGGA,074601.60,3713.96120057,N,13701.56670199,E,4,09,1.2,93.291,M,36.771,M,1.6,0196*63
[2021-02-22 16:46:02.095] $GNGGA,074601.70,3713.96120007,N,13701.56670180,E,4,09,1.2,93.288,M,36.771,M,1.7,0196*66
[2021-02-22 16:46:02.205] $GNGGA,074601.80,3713.96119924,N,13701.56670234,E,4,09,1.2,93.293,M,36.771,M,1.8,0196*62
[2021-02-22 16:46:02.299] $GNGGA,074601.90,3713.96119804,N,13701.56670293,E,4,09,1.2,93.292,M,36.771,M,1.9,0196*6D
[2021-02-22 16:46:02.392] $GNGGA,074602.00,3713.96119602,N,13701.56670194,E,4,09,1.2,93.299,M,36.771,M,1.0,0196*69
[2021-02-22 16:46:02.486] $GNGGA,074602.10,3713.96120011,N,13701.56669979,E,4,09,1.2,93.293,M,36.771,M,1.1,0196*6E
[2021-02-22 16:46:02.611] $GNGGA,074602.20,3713.96119708,N,13701.56670028,E,4,09,1.2,93.297,M,36.771,M,1.2,0196*6A
[2021-02-22 16:46:02.705] $GNGGA,074602.30,3713.96119694,N,13701.56670175,E,4,09,1.2,93.299,M,36.771,M,1.3,0196*69
[2021-02-22 16:46:02.814] $GNGGA,074602.40,3713.96119803,N,13701.56670461,E,4,09,1.2,93.295,M,36.771,M,1.4,0196*65
[2021-02-22 16:46:02.908] $GNGGA,074602.50,3713.96119694,N,13701.56670274,E,4,09,1.2,93.298,M,36.771,M,1.5,0196*6A
[2021-02-22 16:46:03.002] $GNGGA,074602.60,3713.96119713,N,13701.56670206,E,4,09,1.2,93.303,M,36.771,M,1.6,0196*62
[2021-02-22 16:46:03.095] $GNGGA,074602.70,3713.96119847,N,13701.56669878,E,4,09,1.2,93.304,M,36.771,M,1.7,0196*60
[2021-02-22 16:46:03.205] $GNGGA,074602.80,3713.96119854,N,13701.56670014,E,4,09,1.2,93.297,M,36.771,M,1.8,0196*63
[2021-02-22 16:46:03.298] $GNGGA,074602.90,3713.96119698,N,13701.56670158,E,4,09,1.2,93.290,M,36.771,M,0.9,0196*62
[2021-02-22 16:46:03.408] $GNGGA,074603.00,3713.96119929,N,13701.56670143,E,4,09,1.2,93.283,M,36.771,M,1.0,0196*6F
[2021-02-22 16:46:03.502] $GNGGA,074603.10,3713.96120145,N,13701.56670233,E,4,09,1.2,93.291,M,36.771,M,1.1,0196*60
[2021-02-22 16:46:03.611] $GNGGA,074603.20,3713.96120123,N,13701.56670351,E,4,09,1.2,93.289,M,36.771,M,1.2,0196*6C
[2021-02-22 16:46:03.705] $GNGGA,074603.30,3713.96119999,N,13701.56670248,E,4,09,1.2,93.286,M,36.771,M,1.3,0196*69
[2021-02-22 16:46:03.814] $GNGGA,074603.40,3713.96119813,N,13701.56670373,E,4,09,1.2,93.284,M,36.771,M,1.4,0196*61
[2021-02-22 16:46:03.908] $GNGGA,074603.50,3713.96119944,N,13701.56670330,E,4,09,1.2,93.289,M,36.771,M,1.5,0196*68
[2021-02-22 16:46:04.001] $GNGGA,074603.60,3713.96120009,N,13701.56670406,E,4,09,1.2,93.290,M,36.771,M,1.6,0196*68
[2021-02-22 16:46:04.095] $GNGGA,074603.70,3713.96120043,N,13701.56670399,E,4,09,1.2,93.290,M,36.771,M,1.7,0196*67
[2021-02-22 16:46:04.205] $GNGGA,074603.80,3713.96119854,N,13701.56670425,E,4,09,1.2,93.294,M,36.771,M,1.8,0196*67
[2021-02-22 16:46:04.298] $GNGGA,074603.90,3713.96120104,N,13701.56670307,E,4,09,1.2,93.293,M,36.771,M,1.9,0196*61
[2021-02-22 16:46:04.408] $GNGGA,074604.00,3713.96120169,N,13701.56670273,E,4,09,1.2,93.287,M,36.771,M,2.0,0196*69
[2021-02-22 16:46:04.501] $GNGGA,074604.10,3713.96119968,N,13701.56670599,E,4,09,1.2,93.285,M,36.771,M,2.1,0196*6B
[2021-02-22 16:46:04.611] $GNGGA,074604.20,3713.96119672,N,13701.56670307,E,4,09,1.2,93.303,M,36.771,M,1.2,0196*62
[2021-02-22 16:46:04.705] $GNGGA,074604.30,3713.96119759,N,13701.56670245,E,4,09,1.2,93.302,M,36.771,M,1.3,0196*6C
[2021-02-22 16:46:04.814] $GNGGA,074604.40,3713.96119621,N,13701.56670163,E,4,09,1.2,93.308,M,36.771,M,1.4,0196*6F
[2021-02-22 16:46:04.908] $GNGGA,074604.50,3713.96119976,N,13701.56669962,E,4,09,1.2,93.303,M,36.771,M,1.5,0196*68
[2021-02-22 16:46:05.001] $GNGGA,074604.60,3713.96119850,N,13701.56670169,E,4,09,1.2,93.302,M,36.771,M,1.6,0196*67
[2021-02-22 16:46:05.095] $GNGGA,074604.70,3713.96119818,N,13701.56670282,E,4,09,1.2,93.304,M,36.771,M,1.7,0196*6B
[2021-02-22 16:46:05.205] $GNGGA,074604.80,3713.96119766,N,13701.56670102,E,4,09,1.2,93.305,M,36.771,M,1.8,0196*67
[2021-02-22 16:46:05.298] $GNGGA,074604.90,3713.96119824,N,13701.56670271,E,4,09,1.2,93.304,M,36.771,M,1.9,0196*68
[2021-02-22 16:46:05.408] $GNGGA,074605.00,3713.96120174,N,13701.56670160,E,4,09,1.2,93.302,M,36.771,M,2.0,0196*69
[2021-02-22 16:46:05.501] $GNGGA,074605.10,3713.96120316,N,13701.56669892,E,4,10,1.1,93.274,M,36.771,M,1.1,0196*6B
[2021-02-22 16:46:05.611] $GNGGA,074605.20,3713.96120194,N,13701.56670216,E,4,10,1.1,93.276,M,36.771,M,1.2,0196*6F
[2021-02-22 16:46:05.705] $GNGGA,074605.30,3713.96120402,N,13701.56670021,E,4,10,1.1,93.270,M,36.771,M,1.3,0196*65
[2021-02-22 16:46:05.814] $GNGGA,074605.40,3713.96120481,N,13701.56669995,E,4,10,1.1,93.272,M,36.771,M,1.4,0196*62
[2021-02-22 16:46:05.908] $GNGGA,074605.50,3713.96120257,N,13701.56670011,E,4,10,1.1,93.272,M,36.771,M,1.5,0196*62
[2021-02-22 16:46:06.001] $GNGGA,074605.60,3713.96120443,N,13701.56669867,E,4,10,1.1,93.272,M,36.771,M,1.6,0196*60
[2021-02-22 16:46:06.095] $GNGGA,074605.70,3713.96120181,N,13701.56670026,E,4,10,1.1,93.277,M,36.771,M,1.7,0196*6B
[2021-02-22 16:46:06.204] $GNGGA,074605.80,3713.96120384,N,13701.56670078,E,4,10,1.1,93.274,M,36.771,M,1.8,0196*64
[2021-02-22 16:46:06.298] $GNGGA,074605.90,3713.96120246,N,13701.56670021,E,4,10,1.1,93.276,M,36.771,M,1.9,0196*65
[2021-02-22 16:46:06.408] $GNGGA,074606.00,3713.96120559,N,13701.56670092,E,4,10,1.1,93.276,M,36.771,M,2.0,0196*64
[2021-02-22 16:46:06.501] $GNGGA,074606.10,3713.96119810,N,13701.56670279,E,4,09,1.2,93.293,M,36.771,M,1.1,0196*6A
[2021-02-22 16:46:06.611] $GNGGA,074606.20,3713.96119819,N,13701.56670458,E,4,09,1.2,93.295,M,36.771,M,1.2,0196*60
[2021-02-22 16:46:06.704] $GNGGA,074606.30,3713.96119856,N,13701.56670264,E,4,09,1.2,93.298,M,36.771,M,1.3,0196*6F
[2021-02-22 16:46:06.814] $GNGGA,074606.40,3713.96119769,N,13701.56670383,E,4,09,1.2,93.287,M,36.771,M,1.4,0196*6A
[2021-02-22 16:46:06.908] $GNGGA,074606.50,3713.96119707,N,13701.56670122,E,4,09,1.2,93.296,M,36.771,M,1.5,0196*6B
[2021-02-22 16:46:07.001] $GNGGA,074606.60,3713.96119866,N,13701.56670028,E,4,09,1.2,93.288,M,36.771,M,1.6,0196*67
[2021-02-22 16:46:07.095] $GNGGA,074606.70,3713.96119631,N,13701.56670333,E,4,09,1.2,93.289,M,36.771,M,1.7,0196*63
[2021-02-22 16:46:07.204] $GNGGA,074606.80,3713.96119797,N,13701.56670126,E,4,09,1.2,93.295,M,36.771,M,1.8,0196*65
[2021-02-22 16:46:07.298] $GNGGA,074606.90,3713.96119853,N,13701.56670167,E,4,09,1.2,93.288,M,36.771,M,1.9,0196*6B
[2021-02-22 16:46:07.407] $GNGGA,074607.00,3713.96119865,N,13701.56670552,E,4,09,1.2,93.292,M,36.771,M,2.0,0196*65
[2021-02-22 16:46:07.501] $GNGGA,074607.10,3713.96120163,N,13701.56670301,E,4,10,1.1,93.287,M,36.771,M,1.1,0196*6C
[2021-02-22 16:46:07.611] $GNGGA,074607.20,3713.96119925,N,13701.56670210,E,4,10,1.1,93.293,M,36.771,M,1.2,0196*68
[2021-02-22 16:46:07.704] $GNGGA,074607.30,3713.96119960,N,13701.56670183,E,4,10,1.1,93.296,M,36.771,M,1.3,0196*65
[2021-02-22 16:46:07.814] $GNGGA,074607.40,3713.96120058,N,13701.56670195,E,4,10,1.1,93.289,M,36.771,M,1.4,0196*64
[2021-02-22 16:46:07.907] $GNGGA,074607.50,3713.96119812,N,13701.56670165,E,4,10,1.1,93.286,M,36.771,M,1.5,0196*68
[2021-02-22 16:46:08.001] $GNGGA,074607.60,3713.96119845,N,13701.56670074,E,4,10,1.1,93.284,M,36.771,M,1.6,0196*69
[2021-02-22 16:46:08.095] $GNGGA,074607.70,3713.96119767,N,13701.56670150,E,4,10,1.1,93.286,M,36.771,M,1.7,0196*63
[2021-02-22 16:46:08.204] $GNGGA,074607.80,3713.96120000,N,13701.56670234,E,4,10,1.1,93.278,M,36.771,M,1.8,0196*6F
[2021-02-22 16:46:08.298] $GNGGA,074607.90,3713.96120088,N,13701.56670506,E,4,10,1.1,93.286,M,36.771,M,1.9,0196*68
[2021-02-22 16:46:08.407] $GNGGA,074608.00,3713.96120155,N,13701.56670035,E,4,09,1.2,93.292,M,36.771,M,1.0,0196*6D
[2021-02-22 16:46:08.501] $GNGGA,074608.10,3713.96119943,N,13701.56669976,E,4,09,1.2,93.286,M,36.771,M,1.1,0196*6B
[2021-02-22 16:46:08.611] $GNGGA,074608.20,3713.96120137,N,13701.56670008,E,4,09,1.2,93.283,M,36.771,M,1.2,0196*67
[2021-02-22 16:46:08.704] $GNGGA,074608.30,3713.96119971,N,13701.56670094,E,4,09,1.2,93.289,M,36.771,M,1.3,0196*68
[2021-02-22 16:46:08.814] $GNGGA,074608.40,3713.96120208,N,13701.56670074,E,4,09,1.2,93.281,M,36.771,M,1.4,0196*61
[2021-02-22 16:46:08.907] $GNGGA,074608.50,3713.96119983,N,13701.56670007,E,4,09,1.2,93.284,M,36.771,M,1.5,0196*62
[2021-02-22 16:46:09.001] $GNGGA,074608.60,3713.96119998,N,13701.56670120,E,4,09,1.2,93.284,M,36.771,M,1.6,0196*6C
[2021-02-22 16:46:09.111] $GNGGA,074608.70,3713.96119857,N,13701.56670053,E,4,09,1.2,93.285,M,36.771,M,1.7,0196*6A
[2021-02-22 16:46:09.204] $GNGGA,074608.80,3713.96119852,N,13701.56669948,E,4,09,1.2,93.283,M,36.771,M,1.8,0196*62
[2021-02-22 16:46:09.298] $GNGGA,074608.90,3713.96119937,N,13701.56670313,E,4,09,1.2,93.278,M,36.771,M,1.9,0196*68
[2021-02-22 16:46:09.407] $GNGGA,074609.00,3713.96120088,N,13701.56670369,E,4,09,1.2,93.278,M,36.771,M,2.0,0196*60
[2021-02-22 16:46:09.501] $GNGGA,074609.10,3713.96120219,N,13701.56670238,E,4,09,1.2,93.281,M,36.771,M,2.1,0196*69
[2021-02-22 16:46:09.610] $GNGGA,074609.20,3713.96120120,N,13701.56670349,E,4,09,1.2,93.280,M,36.771,M,2.2,0196*66
[2021-02-22 16:46:09.704] $GNGGA,074609.30,3713.96119994,N,13701.56670667,E,4,10,1.1,93.298,M,36.771,M,1.3,0196*63
[2021-02-22 16:46:09.814] $GNGGA,074609.40,3713.96119857,N,13701.56670694,E,4,10,1.1,93.292,M,36.771,M,1.4,0196*6B
[2021-02-22 16:46:09.907] $GNGGA,074609.50,3713.96119926,N,13701.56670027,E,4,10,1.1,93.293,M,36.771,M,1.5,0196*63
[2021-02-22 16:46:10.001] $GNGGA,074609.60,3713.96119825,N,13701.56670256,E,4,10,1.1,93.302,M,36.771,M,1.6,0196*6C
[2021-02-22 16:46:10.095] $GNGGA,074609.70,3713.96119737,N,13701.56670612,E,4,10,1.1,93.291,M,36.771,M,1.7,0196*6F
[2021-02-22 16:46:10.204] $GNGGA,074609.80,3713.96119865,N,13701.56670434,E,4,10,1.1,93.299,M,36.771,M,1.8,0196*69
[2021-02-22 16:46:10.298] $GNGGA,074609.90,3713.96119856,N,13701.56670612,E,4,10,1.1,93.298,M,36.771,M,1.9,0196*6E
[2021-02-22 16:46:10.407] $GNGGA,074610.00,3713.96119827,N,13701.56670611,E,4,10,1.1,93.296,M,36.771,M,2.0,0196*6E
[2021-02-22 16:46:10.501] $GNGGA,074610.10,3713.96119876,N,13701.56670454,E,4,09,1.2,93.289,M,36.771,M,1.1,0196*6F
[2021-02-22 16:46:10.610] $GNGGA,074610.20,3713.96119994,N,13701.56670482,E,4,09,1.2,93.288,M,36.771,M,1.2,0196*68
[2021-02-22 16:46:10.704] $GNGGA,074610.30,3713.96119922,N,13701.56670242,E,4,09,1.2,93.293,M,36.771,M,1.3,0196*65
[2021-02-22 16:46:10.814] $GNGGA,074610.40,3713.96119959,N,13701.56670629,E,4,09,1.2,93.289,M,36.771,M,1.4,0196*6B
[2021-02-22 16:46:10.907] $GNGGA,074610.50,3713.96120070,N,13701.56670473,E,4,09,1.2,93.283,M,36.771,M,1.5,0196*64
[2021-02-22 16:46:11.001] $GNGGA,074610.60,3713.96120035,N,13701.56670493,E,4,09,1.2,93.290,M,36.771,M,1.6,0196*69
[2021-02-22 16:46:11.095] $GNGGA,074610.70,3713.96119945,N,13701.56670468,E,4,09,1.2,93.285,M,36.771,M,1.7,0196*6D
[2021-02-22 16:46:11.204] $GNGGA,074610.80,3713.96120128,N,13701.56670492,E,4,09,1.2,93.289,M,36.771,M,1.8,0196*6D
[2021-02-22 16:46:11.298] $GNGGA,074610.90,3713.96120031,N,13701.56670157,E,4,09,1.2,93.293,M,36.771,M,1.9,0196*63
[2021-02-22 16:46:11.407] $GNGGA,074611.00,3713.96120155,N,13701.56670464,E,4,09,1.2,93.277,M,36.771,M,2.0,0196*6D
[2021-02-22 16:46:11.501] $GNGGA,074611.10,3713.96120160,N,13701.56670407,E,4,09,1.2,93.280,M,36.771,M,2.1,0196*66
[2021-02-22 16:46:11.610] $GNGGA,074611.20,3713.96119885,N,13701.56670516,E,4,09,1.2,93.279,M,36.771,M,1.2,0196*6A
[2021-02-22 16:46:11.704] $GNGGA,074611.30,3713.96119699,N,13701.56670219,E,4,09,1.2,93.286,M,36.771,M,1.3,0196*61
[2021-02-22 16:46:11.813] $GNGGA,074611.40,3713.96119828,N,13701.56670300,E,4,09,1.2,93.287,M,36.771,M,1.4,0196*6D
[2021-02-22 16:46:11.907] $GNGGA,074611.50,3713.96119989,N,13701.56670375,E,4,09,1.2,93.279,M,36.771,M,1.5,0196*64
[2021-02-22 16:46:12.017] $GNGGA,074611.60,3713.96119996,N,13701.56670326,E,4,09,1.2,93.281,M,36.771,M,1.6,0196*6B
[2021-02-22 16:46:12.095] $GNGGA,074611.70,3713.96119973,N,13701.56670126,E,4,09,1.2,93.278,M,36.771,M,1.7,0196*64
[2021-02-22 16:46:12.204] $GNGGA,074611.80,3713.96119613,N,13701.56670206,E,4,09,1.2,93.288,M,36.771,M,1.8,0196*63
[2021-02-22 16:46:12.298] $GNGGA,074611.90,3713.96119866,N,13701.56669940,E,4,09,1.2,93.286,M,36.771,M,1.9,0196*60
[2021-02-22 16:46:12.392] $GNGGA,074612.00,3713.96119858,N,13701.56670235,E,4,09,1.2,93.285,M,36.771,M,2.0,0196*6F
[2021-02-22 16:46:12.485] $GNGGA,074612.10,3713.96119918,N,13701.56670213,E,4,09,1.2,93.286,M,36.771,M,2.1,0196*6D
[2021-02-22 16:46:12.610] $GNGGA,074612.20,3713.96119737,N,13701.56670111,E,4,09,1.2,93.296,M,36.771,M,1.2,0196*6D
[2021-02-22 16:46:12.704] $GNGGA,074612.30,3713.96119839,N,13701.56670211,E,4,09,1.2,93.288,M,36.771,M,1.3,0196*60
[2021-02-22 16:46:12.813] $GNGGA,074612.40,3713.96119758,N,13701.56670052,E,4,09,1.2,93.296,M,36.771,M,1.4,0196*62
[2021-02-22 16:46:12.907] $GNGGA,074612.50,3713.96119873,N,13701.56670047,E,4,09,1.2,93.290,M,36.771,M,1.5,0196*66
[2021-02-22 16:46:13.001] $GNGGA,074612.60,3713.96119905,N,13701.56670213,E,4,09,1.2,93.290,M,36.771,M,1.6,0196*65
[2021-02-22 16:46:13.095] $GNGGA,074612.70,3713.96119839,N,13701.56670062,E,4,09,1.2,93.288,M,36.771,M,1.7,0196*66
[2021-02-22 16:46:13.204] $GNGGA,074612.80,3713.96119877,N,13701.56670263,E,4,09,1.2,93.293,M,36.771,M,1.8,0196*65
[2021-02-22 16:46:13.298] $GNGGA,074612.90,3713.96119730,N,13701.56669858,E,4,09,1.2,93.293,M,36.771,M,1.9,0196*63
[2021-02-22 16:46:13.407] $GNGGA,074613.00,3713.96119906,N,13701.56670219,E,4,10,1.1,93.289,M,36.771,M,1.0,0196*6E
[2021-02-22 16:46:13.501] $GNGGA,074613.10,3713.96119862,N,13701.56670055,E,4,10,1.1,93.291,M,36.771,M,1.1,0196*6E
[2021-02-22 16:46:13.610] $GNGGA,074613.20,3713.96119981,N,13701.56670081,E,4,10,1.1,93.285,M,36.771,M,1.2,0196*6E
[2021-02-22 16:46:13.704] $GNGGA,074613.30,3713.96119918,N,13701.56669970,E,4,10,1.1,93.286,M,36.771,M,1.3,0196*62
[2021-02-22 16:46:13.813] $GNGGA,074613.40,3713.96119825,N,13701.56669907,E,4,10,1.1,93.287,M,36.771,M,1.4,0196*6C
[2021-02-22 16:46:13.907] $GNGGA,074613.50,3713.96119893,N,13701.56669945,E,4,10,1.1,93.279,M,36.771,M,1.5,0196*66
[2021-02-22 16:46:14.001] $GNGGA,074613.60,3713.96120142,N,13701.56669965,E,4,10,1.1,93.289,M,36.771,M,1.6,0196*64
[2021-02-22 16:46:14.095] $GNGGA,074613.70,3713.96119785,N,13701.56669783,E,4,10,1.1,93.292,M,36.771,M,1.7,0196*6F
[2021-02-22 16:46:14.204] $GNGGA,074613.80,3713.96119855,N,13701.56670216,E,4,10,1.1,93.288,M,36.771,M,1.8,0196*67
[2021-02-22 16:46:14.298] $GNGGA,074613.90,3713.96119915,N,13701.56670166,E,4,10,1.1,93.286,M,36.771,M,1.9,0196*68
[2021-02-22 16:46:14.407] $GNGGA,074614.00,3713.96119815,N,13701.56670119,E,4,10,1.1,93.293,M,36.771,M,2.0,0196*61
[2021-02-22 16:46:14.501] $GNGGA,074614.10,3713.96120070,N,13701.56669973,E,4,09,1.2,93.280,M,36.771,M,1.1,0196*66
[2021-02-22 16:46:14.610] $GNGGA,074614.20,3713.96120112,N,13701.56669947,E,4,09,1.2,93.281,M,36.771,M,1.2,0196*65
[2021-02-22 16:46:14.704] $GNGGA,074614.30,3713.96119773,N,13701.56669964,E,4,09,1.2,93.282,M,36.771,M,1.3,0196*6C
[2021-02-22 16:46:14.813] $GNGGA,074614.40,3713.96119839,N,13701.56669860,E,4,09,1.2,93.287,M,36.771,M,1.4,0196*6D
[2021-02-22 16:46:14.907] $GNGGA,074614.50,3713.96120065,N,13701.56669783,E,4,09,1.2,93.274,M,36.771,M,1.5,0196*68
[2021-02-22 16:46:15.001] $GNGGA,074614.60,3713.96120125,N,13701.56670071,E,4,09,1.2,93.281,M,36.771,M,1.6,0196*65
[2021-02-22 16:46:15.095] $GNGGA,074614.70,3713.96120262,N,13701.56670160,E,4,09,1.2,93.272,M,36.771,M,1.7,0196*68
[2021-02-22 16:46:15.204] $GNGGA,074614.80,3713.96119713,N,13701.56669785,E,4,09,1.2,93.285,M,36.771,M,1.8,0196*6C
[2021-02-22 16:46:15.298] $GNGGA,074614.90,3713.96120109,N,13701.56670099,E,4,09,1.2,93.276,M,36.771,M,1.9,0196*65
[2021-02-22 16:46:15.407] $GNGGA,074615.00,3713.96120013,N,13701.56669994,E,4,09,1.2,93.283,M,36.771,M,2.0,0196*6B
[2021-02-22 16:46:15.501] $GNGGA,074615.10,3713.96119912,N,13701.56670154,E,4,09,1.2,93.281,M,36.771,M,1.1,0196*64
[2021-02-22 16:46:15.610] $GNGGA,074615.20,3713.96119569,N,13701.56670017,E,4,09,1.2,93.293,M,36.771,M,1.2,0196*61
[2021-02-22 16:46:15.704] $GNGGA,074615.30,3713.96119765,N,13701.56669762,E,4,09,1.2,93.287,M,36.771,M,1.3,0196*67
[2021-02-22 16:46:15.813] $GNGGA,074615.40,3713.96119989,N,13701.56670293,E,4,09,1.2,93.276,M,36.771,M,1.4,0196*66
[2021-02-22 16:46:15.907] $GNGGA,074615.50,3713.96119808,N,13701.56670024,E,4,09,1.2,93.295,M,36.771,M,1.5,0196*6D
[2021-02-22 16:46:16.001] $GNGGA,074615.60,3713.96119932,N,13701.56669991,E,4,09,1.2,93.283,M,36.771,M,1.6,0196*6D
[2021-02-22 16:46:16.094] $GNGGA,074615.70,3713.96119767,N,13701.56670083,E,4,09,1.2,93.287,M,36.771,M,1.7,0196*65
[2021-02-22 16:46:16.204] $GNGGA,074615.80,3713.96119900,N,13701.56670129,E,4,09,1.2,93.289,M,36.771,M,1.8,0196*65
[2021-02-22 16:46:16.298] $GNGGA,074615.90,3713.96120139,N,13701.56670061,E,4,09,1.2,93.282,M,36.771,M,1.9,0196*6B
[2021-02-22 16:46:16.407] $GNGGA,074616.00,3713.96119762,N,13701.56669998,E,4,09,1.2,93.292,M,36.771,M,2.0,0196*6F
[2021-02-22 16:46:16.501] $GNGGA,074616.10,3713.96119923,N,13701.56670087,E,4,10,1.1,93.281,M,36.771,M,1.1,0196*61
[2021-02-22 16:46:16.610] $GNGGA,074616.20,3713.96120073,N,13701.56670310,E,4,10,1.1,93.277,M,36.771,M,1.2,0196*63
[2021-02-22 16:46:16.704] $GNGGA,074616.30,3713.96119978,N,13701.56670203,E,4,10,1.1,93.285,M,36.771,M,1.3,0196*65
[2021-02-22 16:46:16.813] $GNGGA,074616.40,3713.96119849,N,13701.56670108,E,4,10,1.1,93.284,M,36.771,M,1.4,0196*6F
[2021-02-22 16:46:16.907] $GNGGA,074616.50,3713.96120120,N,13701.56669997,E,4,10,1.1,93.281,M,36.771,M,1.5,0196*60
[2021-02-22 16:46:17.001] $GNGGA,074616.60,3713.96119948,N,13701.56670069,E,4,10,1.1,93.288,M,36.771,M,1.6,0196*65
[2021-02-22 16:46:17.094] $GNGGA,074616.70,3713.96120040,N,13701.56669952,E,4,10,1.1,93.283,M,36.771,M,1.7,0196*6C
[2021-02-22 16:46:17.204] $GNGGA,074616.80,3713.96119868,N,13701.56670200,E,4,10,1.1,93.278,M,36.771,M,1.8,0196*64
[2021-02-22 16:46:17.297] $GNGGA,074616.90,3713.96119893,N,13701.56669817,E,4,10,1.1,93.290,M,36.771,M,1.9,0196*62
[2021-02-22 16:46:17.407] $GNGGA,074617.00,3713.96119994,N,13701.56670168,E,4,10,1.1,93.290,M,36.771,M,2.0,0196*6F
[2021-02-22 16:46:17.501] $GNGGA,074617.10,3713.96119911,N,13701.56670045,E,4,10,1.1,93.295,M,36.771,M,2.1,0196*69
[2021-02-22 16:46:17.610] $GNGGA,074617.20,3713.96119969,N,13701.56669923,E,4,10,1.1,93.289,M,36.771,M,2.2,0196*6A
[2021-02-22 16:46:17.704] $GNGGA,074617.30,3713.96119771,N,13701.56670232,E,4,09,1.2,93.307,M,36.771,M,1.3,0196*61
[2021-02-22 16:46:17.813] $GNGGA,074617.40,3713.96119746,N,13701.56670166,E,4,09,1.2,93.308,M,36.771,M,1.4,0196*68
[2021-02-22 16:46:17.907] $GNGGA,074617.50,3713.96119765,N,13701.56670277,E,4,09,1.2,93.304,M,36.771,M,1.5,0196*66
[2021-02-22 16:46:18.001] $GNGGA,074617.60,3713.96119783,N,13701.56670242,E,4,09,1.2,93.305,M,36.771,M,1.6,0196*69
[2021-02-22 16:46:18.094] $GNGGA,074617.70,3713.96119850,N,13701.56670246,E,4,09,1.2,93.310,M,36.771,M,1.7,0196*68
[2021-02-22 16:46:18.204] $GNGGA,074617.80,3713.96119801,N,13701.56670160,E,4,09,1.2,93.302,M,36.771,M,1.8,0196*68
[2021-02-22 16:46:18.297] $GNGGA,074617.90,3713.96119945,N,13701.56670298,E,4,09,1.2,93.299,M,36.771,M,1.9,0196*6E
[2021-02-22 16:46:18.391] $GNGGA,074618.00,3713.96119715,N,13701.56670265,E,4,09,1.2,93.309,M,36.771,M,2.0,0196*63
[2021-02-22 16:46:18.501] $GNGGA,074618.10,3713.96120019,N,13701.56670055,E,4,09,1.2,93.296,M,36.771,M,1.1,0196*67
[2021-02-22 16:46:18.610] $GNGGA,074618.20,3713.96120036,N,13701.56670362,E,4,09,1.2,93.287,M,36.771,M,1.2,0196*6D
[2021-02-22 16:46:18.704] $GNGGA,074618.30,3713.96119893,N,13701.56670236,E,4,09,1.2,93.286,M,36.771,M,1.3,0196*61
[2021-02-22 16:46:18.813] $GNGGA,074618.40,3713.96120094,N,13701.56670291,E,4,09,1.2,93.287,M,36.771,M,1.4,0196*68
[2021-02-22 16:46:18.907] $GNGGA,074618.50,3713.96120141,N,13701.56670256,E,4,09,1.2,93.282,M,36.771,M,1.5,0196*6F
[2021-02-22 16:46:19.000] $GNGGA,074618.60,3713.96120191,N,13701.56670158,E,4,09,1.2,93.292,M,36.771,M,1.6,0196*6E
[2021-02-22 16:46:19.094] $GNGGA,074618.70,3713.96120242,N,13701.56670278,E,4,09,1.2,93.281,M,36.771,M,1.7,0196*60
[2021-02-22 16:46:19.204] $GNGGA,074618.80,3713.96120123,N,13701.56670246,E,4,09,1.2,93.288,M,36.771,M,1.8,0196*60
[2021-02-22 16:46:19.297] $GNGGA,074618.90,3713.96119994,N,13701.56670300,E,4,09,1.2,93.295,M,36.771,M,1.9,0196*61
[2021-02-22 16:46:19.407] $GNGGA,074619.00,3713.96119952,N,13701.56670075,E,4,09,1.2,93.283,M,36.771,M,2.0,0196*6F
[2021-02-22 16:46:19.500] $GNGGA,074619.10,3713.96119983,N,13701.56670106,E,4,09,1.2,93.276,M,36.771,M,2.1,0196*6C
[2021-02-22 16:46:19.610] $GNGGA,074619.20,3713.96119972,N,13701.56670214,E,4,09,1.2,93.285,M,36.771,M,1.2,0196*6D
[2021-02-22 16:46:19.704] $GNGGA,074619.30,3713.96119735,N,13701.56669811,E,4,09,1.2,93.296,M,36.771,M,1.3,0196*65
[2021-02-22 16:46:19.813] $GNGGA,074619.40,3713.96120179,N,13701.56670304,E,4,09,1.2,93.287,M,36.771,M,1.4,0196*66
[2021-02-22 16:46:19.907] $GNGGA,074619.50,3713.96119945,N,13701.56670129,E,4,09,1.2,93.291,M,36.771,M,1.5,0196*61
[2021-02-22 16:46:20.000] $GNGGA,074619.60,3713.96119673,N,13701.56670175,E,4,09,1.2,93.300,M,36.771,M,1.6,0196*6B
