
[2021-02-22 16:48:54.117] $GPGGA,,,,,,,,,,M,,M,,*56
[2021-02-22 16:48:54.149] $GPVTG,,T,,M,,N,,K,N*2C
[2021-02-22 16:48:54.149] $GPGGA,,,,,,,,,,M,,M,,*56
[2021-02-22 16:48:54.149] $GPVTG,,T,,M,,N,,K,N*2C
[2021-02-22 16:48:54.149] $GPGGA,,,,,,,,,,M,,M,,*56
[2021-02-22 16:48:54.149] $GPVTG,,T,,M,,N,,K,N*2C
[2021-02-22 16:48:54.149] $GPGGA,,,,,,,,,,M,,M,,*56
[2021-02-22 16:48:54.149] $GPVTG,,T,,M,,N,,K,N*2C
[2021-02-22 16:48:54.149] $GPGGA,,,,,,,,,,M,,M,,*56
[2021-02-22 16:48:54.149] $GPVTG,,T,,M,,N,,K,N*2C
[2021-02-22 16:48:54.149] $GPGGA,,,,,,,,,,M,,M,,*56
[2021-02-22 16:48:54.149] $GPVTG,,T,,M,,N,,K,N*2C
[2021-02-22 16:48:54.149] $GPGGA,,,,,,,,,,M,,M,,*56
[2021-02-22 16:48:54.149] $GPVTG,,T,,M,,N,,K,N*2C
[2021-02-22 16:48:54.149] $GPGGA,,,,,,,,,,M,,M,,*56
[2021-02-22 16:48:54.149] $GPVTG,,T,,M,,N,,K,N*2C
[2021-02-22 16:48:54.149] $GPGGA,,,,,,,,,,M,,M,,*56
[2021-02-22 16:48:54.149] $GPVTG,,T,,M,,N,,K,N*2C
[2021-02-22 16:48:54.149] $GPGGA,,,,,,,,,,M,,M,,*56
[2021-02-22 16:48:54.149] $GPVTG,,T,,M,,N,,K,N*2C
[2021-02-22 16:48:54.149] $GPGGA,,,,,,,,,,M,,M,,*56
[2021-02-22 16:48:54.149] $GPVTG,,T,,M,,N,,K,N*2C
[2021-02-22 16:48:54.149] $GPGGA,,,,,,,,,,M,,M,,*56
[2021-02-22 16:48:54.149] $GPVTG,,T,,M,,N,,K,N*2C
[2021-02-22 16:48:54.149] $GPGGA,,,,,,,,,,M,,M,,*56
[2021-02-22 16:48:54.149] $GPVTG,,T,,M,,N,,K,N*2C
[2021-02-22 16:48:54.149] $GPGGA,,,,,,,,,,M,,M,,*56
[2021-02-22 16:48:54.149] $GPVTG,,T,,M,,N,,K,N*2C
[2021-02-22 16:48:54.149] $GPGGA,,,,,,,,,,M,,M,,*56
[2021-02-22 16:48:54.149] $GPVTG,,T,,M,,N,,K,N*2C
[2021-02-22 16:48:54.149] $GPGGA,,,,,,,,,,M,,M,,*56
[2021-02-22 16:48:54.149] $GPVTG,,T,,M,,N,,K,N*2C
[2021-02-22 16:48:54.149] $GPGGA,,,,,,,,,,M,,M,,*56
[2021-02-22 16:48:54.149] $GPVTG,,T,,M,,N,,K,N*2C
[2021-02-22 16:48:54.149] $GPGGA,,,,,,,,,,M,,M,,*56
[2021-02-22 16:48:54.149] $GPVTG,,T,,M,,N,,K,N*2C
[2021-02-22 16:48:54.149] $GPGGA,,,,,,,,,,M,,M,,*56
[2021-02-22 16:48:54.149] $GPVTG,,T,,M,,N,,K,N*2C
[2021-02-22 16:48:54.149] $GPGGA,,,,,,,,,,M,,M,,*56
[2021-02-22 16:48:54.149] $GPVTG,,T,,M,,N,,K,N*2C
[2021-02-22 16:48:54.164] $GPGGA,,,,,,,,,,M,,M,,*56
[2021-02-22 16:48:54.164] $GPVTG,,T,,M,,N,,K,N*2C
[2021-02-22 16:48:54.164] $GPGGA,,,,,,,,,,M,,M,,*56
[2021-02-22 16:48:54.164] $GPVTG,,T,,M,,N,,K,N*2C
[2021-02-22 16:48:54.164] $GPGGA,,,,,,,,,,M,,M,,*56
[2021-02-22 16:48:54.164] $GPVTG,,T,,M,,N,,K,N*2C
[2021-02-22 16:48:54.164] $GPGGA,,,,,,,,,,M,,M,,*56
[2021-02-22 16:48:54.164] $GPVTG,,T,,M,,N,,K,N*2C
[2021-02-22 16:48:54.164] $GPGGA,,,,,,,,,,M,,M,,*56
[2021-02-22 16:48:54.164] $GPVTG,,T,,M,,N,,K,N*2C
[2021-02-22 16:48:54.164] $GPGGA,,,,,,,,,,M,,M,,*56
[2021-02-22 16:48:54.164] $GPVTG,,T,,M,,N,,K,N*2C
[2021-02-22 16:48:54.164] $GPGGA,,,,,,,,,,M,,M,,*56
[2021-02-22 16:48:54.164] $GPVTG,,T,,M,,N,,K,N*2C
[2021-02-22 16:48:54.164] $GPGGA,,,,,,,,,,M,,M,,*56
[2021-02-22 16:48:54.164] $GPVTG,,T,,M,,N,,K,N*2C
[2021-02-22 16:48:54.164] $GPGGA,,,,,,,,,,M,,M,,*56
[2021-02-22 16:48:54.164] $GPVTG,,T,,M,,N,,K,N*2C
[2021-02-22 16:48:54.164] $GPGGA,,,,,,,,,,M,,M,,*56
[2021-02-22 16:48:54.164] $GPVTG,,T,,M,,N,,K,N*2C
[2021-02-22 16:48:54.164] $GPGGA,,,,,,,,,,M,,M,,*56
[2021-02-22 16:48:54.164] $GPVTG,,T,,M,,N,,K,N*2C
[2021-02-22 16:48:54.164] $GPGGA,,,,,,,,,,M,,M,,*56
[2021-02-22 16:48:54.164] $GPVTG,,T,,M,,N,,K,N*2C
[2021-02-22 16:48:54.164] $GPGGA,,,,,,,,,,M,,M,,*56
[2021-02-22 16:48:54.164] $GPVTG,,T,,M,,N,,K,N*2C
[2021-02-22 16:48:54.164] $GPGGA,,,,,,,,,,M,,M,,*56
[2021-02-22 16:48:54.164] $GPVTG,,T,,M,,N,,K,N*2C
[2021-02-22 16:48:54.164] $GPGGA,,,,,,,,,,M,,M,,*56
[2021-02-22 16:48:54.164] $GPVTG,,T,,M,,N,,K,N*2C
[2021-02-22 16:48:54.164] $GPGGA,,,,,,,,,,M,,M,,*56
[2021-02-22 16:48:54.164] $GPVTG,,T,,M,,N,,K,N*2C
[2021-02-22 16:48:54.164] $GPGGA,,,,,,,,,,M,,M,,*56
[2021-02-22 16:48:54.164] $GPVTG,,T,,M,,N,,K,N*2C
[2021-02-22 16:48:54.164] $GPGGA,,,,,,,,,,M,,M,,*56
[2021-02-22 16:48:54.164] $GPVTG,,T,,M,,N,,K,N*2C
[2021-02-22 16:48:54.164] $GPGGA,,,,,,,,,,M,,M,,*56
[2021-02-22 16:48:54.164] $GPVTG,,T,,M,,N,,K,N*2C
[2021-02-22 16:48:54.164] $GPGGA,,,,,,,,,,M,,M,,*56
[2021-02-22 16:48:54.180] $GPVTG,,T,,M,,N,,K,N*2C
[2021-02-22 16:48:54.180] $GPGGA,,,,,,,,,,M,,M,,*56
[2021-02-22 16:48:54.180] $GPVTG,,T,,M,,N,,K,N*2C
[2021-02-22 16:48:54.180] $GPGGA,,,,,,,,,,M,,M,,*56
[2021-02-22 16:48:54.180] $GPVTG,,T,,M,,N,,K,N*2C
[2021-02-22 16:48:54.180] $GPGGA,,,,,,,,,,M,,M,,*56
[2021-02-22 16:48:54.180] $GPVTG,,T,,M,,N,,K,N*2C
[2021-02-22 16:48:54.180] $GPGGA,,,,,,,,,,M,,M,,*56
[2021-02-22 16:48:54.180] $GPVTG,,T,,M,,N,,K,N*2C
[2021-02-22 16:48:54.180] $GPGGA,,,,,,,,,,M,,M,,*56
[2021-02-22 16:48:54.180] $GPVTG,,T,,M,,N,,K,N*2C
[2021-02-22 16:48:54.180] $GPGGA,,,,,,,,,,M,,M,,*56
[2021-02-22 16:48:54.180] $GPVTG,,T,,M,,N,,K,N*2C
[2021-02-22 16:48:54.180] $GPGGA,,,,,,,,,,M,,M,,*56
[2021-02-22 16:48:54.180] $GPVTG,,T,,M,,N,,K,N*2C
[2021-02-22 16:48:54.180] $GPGGA,,,,,,,,,,M,,M,,*56
[2021-02-22 16:48:54.180] $GPVTG,,T,,M,,N,,K,N*2C
[2021-02-22 16:48:54.180] $GPGGA,,,,,,,,,,M,,M,,*56
[2021-02-22 16:48:54.180] $GPVTG,,T,,M,,N,,K,N*2C
[2021-02-22 16:48:54.180] $GPGGA,,,,,,,,,,M,,M,,*56
[2021-02-22 16:48:54.180] $GPVTG,,T,,M,,N,,K,N*2C
[2021-02-22 16:48:54.180] $GPGGA,,,,,,,,,,M,,M,,*56
[2021-02-22 16:48:54.180] $GPVTG,,T,,M,,N,,K,N*2C
[2021-02-22 16:48:54.180] $GPGGA,,,,,,,,,,M,,M,,*56
[2021-02-22 16:48:54.180] $GPVTG,,T,,M,,N,,K,N*2C
[2021-02-22 16:48:54.180] $GPGGA,,,,,,,,,,M,,M,,*56
[2021-02-22 16:48:54.180] $GPVTG,,T,,M,,N,,K,N*2C
[2021-02-22 16:48:54.180] $GPGGA,,,,,,,,,,M,,M,,*56
[2021-02-22 16:48:54.180] $GPVTG,,T,,M,,N,,K,N*2C
[2021-02-22 16:48:54.180] $GPGGA,,,,,,,,,,M,,M,,*56
[2021-02-22 16:48:54.180] $GPVTG,,T,,M,,N,,K,N*2C
[2021-02-22 16:48:54.180] $GPGGA,,,,,,,,,,M,,M,,*56
[2021-02-22 16:48:54.180] $GPVTG,,T,,M,,N,,K,N*2C
[2021-02-22 16:48:54.180] $GPGGA,,,,,,,,,,M,,M,,*56
[2021-02-22 16:48:54.180] $GPVTG,,T,,M,,N,,K,N*2C
[2021-02-22 16:48:54.180] $GPGGA,,,,,,,,,,M,,M,,*56
[2021-02-22 16:48:54.180] $GPVTG,,T,,M,,N,,K,N*2C
[2021-02-22 16:48:54.180] $GPGGA,,,,,,,,,,M,,M,,*56
[2021-02-22 16:48:54.180] $GPVTG,,T,,M,,N,,K,N*2C
[2021-02-22 16:48:54.180] $GPGGA,,,,,,,,,,M,,M,,*56
[2021-02-22 16:48:54.180] $GPVTG,,T,,M,,N,,K,N*2C
[2021-02-22 16:48:54.180] $GPGGA,,,,,,,,,,M,,M,,*56
[2021-02-22 16:48:54.180] $GPVTG,,T,,M,,N,,K,N*2C
[2021-02-22 16:48:54.180] $GPGGA,,,,,,,,,,M,,M,,*56
[2021-02-22 16:48:54.180] $GPVTG,,T,,M,,N,,K,N*2C
[2021-02-22 16:48:54.180] $GPGGA,,,,,,,,,,M,,M,,*56
[2021-02-22 16:48:54.180] $GPVTG,,T,,M,,N,,K,N*2C
[2021-02-22 16:48:54.180] $GPGGA,,,,,,,,,,M,,M,,*56
[2021-02-22 16:48:54.180] $GPVTG,,T,,M,,N,,K,N*2C
[2021-02-22 16:48:54.180] $GPGGA,,,,,,,,,,M,,M,,*56
[2021-02-22 16:48:54.180] $GPVTG,,T,,M,,N,,K,N*2C
[2021-02-22 16:48:54.180] $GPGGA,,,,,,,,,,M,,M,,*56
[2021-02-22 16:48:54.180] $GPVTG,,T,,M,,N,,K,N*2C
[2021-02-22 16:48:54.180] $GPGGA,,,,,,,,,,M,,M,,*56
[2021-02-22 16:48:54.180] $GPVTG,,T,,M,,N,,K,N*2C
[2021-02-22 16:48:54.180] $GPGGA,,,,,,,,,,M,,M,,*56
[2021-02-22 16:48:54.180] $GPVTG,,T,,M,,N,,K,N*2C
[2021-02-22 16:48:54.180] $GPGGA,,,,,,,,,,M,,M,,*56
[2021-02-22 16:48:54.180] $GPVTG,,T,,M,,N,,K,N*2C
[2021-02-22 16:48:54.180] $GPGGA,,,,,,,,,,M,,M,,*56
[2021-02-22 16:48:54.180] $GPVTG,,T,,M,,N,,K,N*2C
[2021-02-22 16:48:54.180] $GPGGA,,,,,,,,,,M,,M,,*56
[2021-02-22 16:48:54.180] $GPVTG,,T,,M,,N,,K,N*2C
[2021-02-22 16:48:54.180] $GPGGA,,,,,,,,,,M,,M,,*56
[2021-02-22 16:48:54.180] $GPVTG,,T,,M,,N,,K,N*2C
[2021-02-22 16:48:54.180] $GPGGA,,,,,,,,,,M,,M,,*56
[2021-02-22 16:48:54.180] $GPVTG,,T,,M,,N,,K,N*2C
[2021-02-22 16:48:54.180] $GPGGA,,,,,,,,,,M,,M,,*56
[2021-02-22 16:48:54.180] $GPVTG,,T,,M,,N,,K,N*2C
[2021-02-22 16:48:54.180] $GPGGA,,,,,,,,,,M,,M,,*56
[2021-02-22 16:48:54.180] $GPVTG,,T,,M,,N,,K,N*2C
[2021-02-22 16:48:54.180] $GPGGA,,,,,,,,,,M,,M,,*56
[2021-02-22 16:48:54.180] $GPVTG,,T,,M,,N,,K,N*2C
[2021-02-22 16:48:54.180] $GPGGA,,,,,,,,,,M,,M,,*56
[2021-02-22 16:48:54.180] $GPVTG,,T,,M,,N,,K,N*2C
[2021-02-22 16:48:54.383] $GPGGA,,,,,,,,,,M,,M,,*56
[2021-02-22 16:48:54.383] $GPVTG,,T,,M,,N,,K,N*2C
[2021-02-22 16:48:54.571] $GPGGA,,,,,,,,,,M,,M,,*56
[2021-02-22 16:48:54.571] $GPVTG,,T,,M,,N,,K,N*2C
[2021-02-22 16:48:54.774] $GPGGA,,,,,,,,,,M,,M,,*56
[2021-02-22 16:48:54.774] $GPVTG,,T,,M,,N,,K,N*2C
[2021-02-22 16:48:54.977] $GPGGA,,,,,,,,,,M,,M,,*56
[2021-02-22 16:48:54.977] $GPVTG,,T,,M,,N,,K,N*2C
[2021-02-22 16:48:55.180] $GPGGA,,,,,,,,,,M,,M,,*56
[2021-02-22 16:48:55.180] $GPVTG,,T,,M,,N,,K,N*2C
[2021-02-22 16:48:55.367] $GPGGA,,,,,,,,,,M,,M,,*56
[2021-02-22 16:48:55.383] $GPVTG,,T,,M,,N,,K,N*2C
[2021-02-22 16:48:55.571] $GPGGA,,,,,,,,,,M,,M,,*56
[2021-02-22 16:48:55.571] $GPVTG,,T,,M,,N,,K,N*2C
[2021-02-22 16:48:55.774] $GPGGA,,,,,,,,,,M,,M,,*56
[2021-02-22 16:48:55.774] $GPVTG,,T,,M,,N,,K,N*2C
[2021-02-22 16:48:55.977] $GPGGA,,,,,,,,,,M,,M,,*56
[2021-02-22 16:48:55.977] $GPVTG,,T,,M,,N,,K,N*2C
[2021-02-22 16:48:56.180] $GPGGA,,,,,,,,,,M,,M,,*56
[2021-02-22 16:48:56.180] $GPVTG,,T,,M,,N,,K,N*2C
[2021-02-22 16:48:56.367] $GPGGA,,,,,,,,,,M,,M,,*56
[2021-02-22 16:48:56.383] $GPVTG,,T,,M,,N,,K,N*2C
[2021-02-22 16:48:56.570] $GPGGA,,,,,,,,,,M,,M,,*56
[2021-02-22 16:48:56.570] $GPVTG,,T,,M,,N,,K,N*2C
[2021-02-22 16:48:56.774] $GPGGA,,,,,,,,,,M,,M,,*56
[2021-02-22 16:48:56.774] $GPVTG,,T,,M,,N,,K,N*2C
[2021-02-22 16:48:56.977] $GPGGA,,,,,,,,,,M,,M,,*56
[2021-02-22 16:48:56.977] $GPVTG,,T,,M,,N,,K,N*2C
[2021-02-22 16:48:57.180] $GPGGA,,,,,,,,,,M,,M,,*56
[2021-02-22 16:48:57.180] $GPVTG,,T,,M,,N,,K,N*2C
[2021-02-22 16:48:57.367] $GPGGA,,,,,,,,,,M,,M,,*56
[2021-02-22 16:48:57.383] $GPVTG,,T,,M,,N,,K,N*2C
[2021-02-22 16:48:57.570] $GPGGA,,,,,,,,,,M,,M,,*56
[2021-02-22 16:48:57.570] $GPVTG,,T,,M,,N,,K,N*2C
[2021-02-22 16:48:57.774] $GPGGA,,,,,,,,,,M,,M,,*56
[2021-02-22 16:48:57.774] $GPVTG,,T,,M,,N,,K,N*2C
[2021-02-22 16:48:57.977] $GPGGA,,,,,,,,,,M,,M,,*56
[2021-02-22 16:48:57.977] $GPVTG,,T,,M,,N,,K,N*2C
[2021-02-22 16:48:58.180] $GPGGA,,,,,,,,,,M,,M,,*56
[2021-02-22 16:48:58.180] $GPVTG,,T,,M,,N,,K,N*2C
[2021-02-22 16:48:58.367] $GPGGA,,,,,,,,,,M,,M,,*56
[2021-02-22 16:48:58.383] $GPVTG,,T,,M,,N,,K,N*2C
[2021-02-22 16:48:58.570] $GPGGA,,,,,,,,,,M,,M,,*56
[2021-02-22 16:48:58.570] $GPVTG,,T,,M,,N,,K,N*2C
[2021-02-22 16:48:58.773] $GPGGA,,,,,,,,,,M,,M,,*56
[2021-02-22 16:48:58.773] $GPVTG,,T,,M,,N,,K,N*2C
[2021-02-22 16:48:58.977] $GPGGA,,,,,,,,,,M,,M,,*56
[2021-02-22 16:48:58.977] $GPVTG,,T,,M,,N,,K,N*2C
[2021-02-22 16:48:59.180] $GPGGA,,,,,,,,,,M,,M,,*56
[2021-02-22 16:48:59.180] $GPVTG,,T,,M,,N,,K,N*2C
[2021-02-22 16:48:59.367] $GPGGA,,,,,,,,,,M,,M,,*56
[2021-02-22 16:48:59.383] $GPVTG,,T,,M,,N,,K,N*2C
[2021-02-22 16:48:59.570] $GPGGA,,,,,,,,,,M,,M,,*56
[2021-02-22 16:48:59.570] $GPVTG,,T,,M,,N,,K,N*2C
[2021-02-22 16:48:59.773] $GPGGA,,,,,,,,,,M,,M,,*56
[2021-02-22 16:48:59.773] $GPVTG,,T,,M,,N,,K,N*2C
[2021-02-22 16:48:59.976] $GPGGA,,,,,,,,,,M,,M,,*56
[2021-02-22 16:48:59.976] $GPVTG,,T,,M,,N,,K,N*2C
[2021-02-22 16:49:00.180] $GPGGA,,,,,,,,,,M,,M,,*56
[2021-02-22 16:49:00.180] $GPVTG,,T,,M,,N,,K,N*2C
[2021-02-22 16:49:00.367] $GPGGA,,,,,,,,,,M,,M,,*56
[2021-02-22 16:49:00.383] $GPVTG,,T,,M,,N,,K,N*2C
[2021-02-22 16:49:00.570] $GPGGA,,,,,,,,,,M,,M,,*56
[2021-02-22 16:49:00.570] $GPVTG,,T,,M,,N,,K,N*2C
[2021-02-22 16:49:00.773] $GPGGA,,,,,,,,,,M,,M,,*56
[2021-02-22 16:49:00.773] $GPVTG,,T,,M,,N,,K,N*2C
[2021-02-22 16:49:00.976] $GPGGA,,,,,,,,,,M,,M,,*56
[2021-02-22 16:49:00.976] $GPVTG,,T,,M,,N,,K,N*2C
[2021-02-22 16:49:01.180] $GPGGA,,,,,,,,,,M,,M,,*56
[2021-02-22 16:49:01.180] $GPVTG,,T,,M,,N,,K,N*2C
[2021-02-22 16:49:01.367] $GPGGA,,,,,,,,,,M,,M,,*56
[2021-02-22 16:49:01.383] $GPVTG,,T,,M,,N,,K,N*2C
[2021-02-22 16:49:01.570] $GPGGA,,,,,,,,,,M,,M,,*56
[2021-02-22 16:49:01.570] $GPVTG,,T,,M,,N,,K,N*2C
[2021-02-22 16:49:01.773] $GPGGA,,,,,,,,,,M,,M,,*56
[2021-02-22 16:49:01.773] $GPVTG,,T,,M,,N,,K,N*2C
[2021-02-22 16:49:01.976] $GPGGA,,,,,,,,,,M,,M,,*56
[2021-02-22 16:49:01.976] $GPVTG,,T,,M,,N,,K,N*2C
[2021-02-22 16:49:02.179] $GPGGA,,,,,,,,,,M,,M,,*56
[2021-02-22 16:49:02.179] $GPVTG,,T,,M,,N,,K,N*2C
[2021-02-22 16:49:02.367] $GPGGA,,,,,,,,,,M,,M,,*56
[2021-02-22 16:49:02.383] $GPVTG,,T,,M,,N,,K,N*2C
[2021-02-22 16:49:02.570] $GPGGA,,,,,,,,,,M,,M,,*56
[2021-02-22 16:49:02.570] $GPVTG,,T,,M,,N,,K,N*2C
[2021-02-22 16:49:02.773] $GPGGA,,,,,,,,,,M,,M,,*56
[2021-02-22 16:49:02.773] $GPVTG,,T,,M,,N,,K,N*2C
[2021-02-22 16:49:02.976] $GPGGA,,,,,,,,,,M,,M,,*56
[2021-02-22 16:49:02.976] $GPVTG,,T,,M,,N,,K,N*2C
[2021-02-22 16:49:03.179] $GPGGA,,,,,,,,,,M,,M,,*56
[2021-02-22 16:49:03.179] $GPVTG,,T,,M,,N,,K,N*2C
[2021-02-22 16:49:03.367] $GPGGA,,,,,,,,,,M,,M,,*56
[2021-02-22 16:49:03.382] $GPVTG,,T,,M,,N,,K,N*2C
[2021-02-22 16:49:03.570] $GPGGA,,,,,,,,,,M,,M,,*56
[2021-02-22 16:49:03.570] $GPVTG,,T,,M,,N,,K,N*2C
[2021-02-22 16:49:03.773] $GPGGA,,,,,,,,,,M,,M,,*56
[2021-02-22 16:49:03.773] $GPVTG,,T,,M,,N,,K,N*2C
[2021-02-22 16:49:03.976] $GPGGA,,,,,,,,,,M,,M,,*56
[2021-02-22 16:49:03.976] $GPVTG,,T,,M,,N,,K,N*2C
[2021-02-22 16:49:04.179] $GPGGA,,,,,,,,,,M,,M,,*56
[2021-02-22 16:49:04.179] $GPVTG,,T,,M,,N,,K,N*2C
[2021-02-22 16:49:04.367] $GPGGA,,,,,,,,,,M,,M,,*56
[2021-02-22 16:49:04.382] $GPVTG,,T,,M,,N,,K,N*2C
[2021-02-22 16:49:04.570] $GPGGA,,,,,,,,,,M,,M,,*56
[2021-02-22 16:49:04.570] $GPVTG,,T,,M,,N,,K,N*2C
[2021-02-22 16:49:04.773] $GPGGA,,,,,,,,,,M,,M,,*56
[2021-02-22 16:49:04.773] $GPVTG,,T,,M,,N,,K,N*2C
[2021-02-22 16:49:04.976] $GPGGA,,,,,,,,,,M,,M,,*56
[2021-02-22 16:49:04.976] $GPVTG,,T,,M,,N,,K,N*2C
[2021-02-22 16:49:05.179] $GPGGA,,,,,,,,,,M,,M,,*56
[2021-02-22 16:49:05.179] $GPVTG,,T,,M,,N,,K,N*2C
[2021-02-22 16:49:05.367] $GPGGA,,,,,,,,,,M,,M,,*56
[2021-02-22 16:49:05.382] $GPVTG,,T,,M,,N,,K,N*2C
[2021-02-22 16:49:05.570] $GPGGA,,,,,,,,,,M,,M,,*56
[2021-02-22 16:49:05.585] $GPVTG,,T,,M,,N,,K,N*2C
[2021-02-22 16:49:05.773] $GPGGA,,,,,,,,,,M,,M,,*56
[2021-02-22 16:49:05.773] $GPVTG,,T,,M,,N,,K,N*2C
[2021-02-22 16:49:05.976] $GPGGA,,,,,,,,,,M,,M,,*56
[2021-02-22 16:49:05.976] $GPVTG,,T,,M,,N,,K,N*2C
[2021-02-22 16:49:06.179] $GPGGA,,,,,,,,,,M,,M,,*56
[2021-02-22 16:49:06.179] $GPVTG,,T,,M,,N,,K,N*2C
[2021-02-22 16:49:06.382] $GPGGA,,,,,,,,,,M,,M,,*56
[2021-02-22 16:49:06.382] $GPVTG,,T,,M,,N,,K,N*2C
[2021-02-22 16:49:06.570] $GPGGA,,,,,,,,,,M,,M,,*56
[2021-02-22 16:49:06.570] $GPVTG,,T,,M,,N,,K,N*2C
[2021-02-22 16:49:06.773] $GPGGA,,,,,,,,,,M,,M,,*56
[2021-02-22 16:49:06.773] $GPVTG,,T,,M,,N,,K,N*2C
[2021-02-22 16:49:06.976] $GPGGA,,,,,,,,,,M,,M,,*56
[2021-02-22 16:49:06.976] $GPVTG,,T,,M,,N,,K,N*2C
[2021-02-22 16:49:07.179] $GPGGA,,,,,,,,,,M,,M,,*56
[2021-02-22 16:49:07.179] $GPVTG,,T,,M,,N,,K,N*2C
[2021-02-22 16:49:07.382] $GPGGA,,,,,,,,,,M,,M,,*56
[2021-02-22 16:49:07.382] $GPVTG,,T,,M,,N,,K,N*2C
[2021-02-22 16:49:07.570] $GPGGA,,,,,,,,,,M,,M,,*56
[2021-02-22 16:49:07.570] $GPVTG,,T,,M,,N,,K,N*2C
[2021-02-22 16:49:07.773] $GPGGA,,,,,,,,,,M,,M,,*56
[2021-02-22 16:49:07.773] $GPVTG,,T,,M,,N,,K,N*2C
[2021-02-22 16:49:07.976] $GPGGA,,,,,,,,,,M,,M,,*56
[2021-02-22 16:49:07.976] $GPVTG,,T,,M,,N,,K,N*2C
[2021-02-22 16:49:08.179] $GPGGA,,,,,,,,,,M,,M,,*56
[2021-02-22 16:49:08.179] $GPVTG,,T,,M,,N,,K,N*2C
[2021-02-22 16:49:08.382] $GPGGA,,,,,,,,,,M,,M,,*56
[2021-02-22 16:49:08.382] $GPVTG,,T,,M,,N,,K,N*2C
[2021-02-22 16:49:08.570] $GPGGA,,,,,,,,,,M,,M,,*56
[2021-02-22 16:49:08.570] $GPVTG,,T,,M,,N,,K,N*2C
[2021-02-22 16:49:08.773] $GPGGA,,,,,,,,,,M,,M,,*56
[2021-02-22 16:49:08.788] $GPVTG,,T,,M,,N,,K,N*2C
[2021-02-22 16:49:08.976] $GPGGA,,,,,,,,,,M,,M,,*56
[2021-02-22 16:49:08.976] $GPVTG,,T,,M,,N,,K,N*2C
[2021-02-22 16:49:09.179] $GPGGA,,,,,,,,,,M,,M,,*56
[2021-02-22 16:49:09.179] $GPVTG,,T,,M,,N,,K,N*2C
[2021-02-22 16:49:09.382] $GPGGA,,,,,,,,,,M,,M,,*56
[2021-02-22 16:49:09.382] $GPVTG,,T,,M,,N,,K,N*2C
[2021-02-22 16:49:09.570] $GPGGA,,,,,,,,,,M,,M,,*56
[2021-02-22 16:49:09.585] $GPVTG,,T,,M,,N,,K,N*2C
[2021-02-22 16:49:09.773] $GPGGA,,,,,,,,,,M,,M,,*56
[2021-02-22 16:49:09.773] $GPVTG,,T,,M,,N,,K,N*2C
[2021-02-22 16:49:09.976] $GPGGA,,,,,,,,,,M,,M,,*56
[2021-02-22 16:49:09.976] $GPVTG,,T,,M,,N,,K,N*2C
[2021-02-22 16:49:10.179] $GPGGA,,,,,,,,,,M,,M,,*56
[2021-02-22 16:49:10.179] $GPVTG,,T,,M,,N,,K,N*2C
[2021-02-22 16:49:10.382] $GPGGA,,,,,,,,,,M,,M,,*56
[2021-02-22 16:49:10.382] $GPVTG,,T,,M,,N,,K,N*2C
[2021-02-22 16:49:10.569] $GPGGA,,,,,,,,,,M,,M,,*56
[2021-02-22 16:49:10.585] $GPVTG,,T,,M,,N,,K,N*2C
[2021-02-22 16:49:10.773] $GPGGA,,,,,,,,,,M,,M,,*56
[2021-02-22 16:49:10.773] $GPVTG,,T,,M,,N,,K,N*2C
[2021-02-22 16:49:10.976] $GPGGA,,,,,,,,,,M,,M,,*56
[2021-02-22 16:49:10.976] $GPVTG,,T,,M,,N,,K,N*2C
[2021-02-22 16:49:11.179] $GPGGA,,,,,,,,,,M,,M,,*56
[2021-02-22 16:49:11.179] $GPVTG,,T,,M,,N,,K,N*2C
[2021-02-22 16:49:11.382] $GPGGA,,,,,,,,,,M,,M,,*56
[2021-02-22 16:49:11.382] $GPVTG,,T,,M,,N,,K,N*2C
[2021-02-22 16:49:11.569] $GPGGA,,,,,,,,,,M,,M,,*56
[2021-02-22 16:49:11.585] $GPVTG,,T,,M,,N,,K,N*2C
[2021-02-22 16:49:11.773] $GPGGA,,,,,,,,,,M,,M,,*56
[2021-02-22 16:49:11.773] $GPVTG,,T,,M,,N,,K,N*2C
[2021-02-22 16:49:11.976] $GPGGA,,,,,,,,,,M,,M,,*56
[2021-02-22 16:49:11.976] $GPVTG,,T,,M,,N,,K,N*2C
[2021-02-22 16:49:12.179] $GPGGA,,,,,,,,,,M,,M,,*56
[2021-02-22 16:49:12.179] $GPVTG,,T,,M,,N,,K,N*2C
[2021-02-22 16:49:12.382] $GPGGA,,,,,,,,,,M,,M,,*56
[2021-02-22 16:49:12.382] $GPVTG,,T,,M,,N,,K,N*2C
[2021-02-22 16:49:12.569] $GPGGA,,,,,,,,,,M,,M,,*56
[2021-02-22 16:49:12.585] $GPVTG,,T,,M,,N,,K,N*2C
[2021-02-22 16:49:12.772] $GPGGA,,,,,,,,,,M,,M,,*56
[2021-02-22 16:49:12.772] $GPVTG,,T,,M,,N,,K,N*2C
[2021-02-22 16:49:12.976] $GPGGA,,,,,,,,,,M,,M,,*56
[2021-02-22 16:49:12.976] $GPVTG,,T,,M,,N,,K,N*2C
[2021-02-22 16:49:13.179] $GPGGA,,,,,,,,,,M,,M,,*56
[2021-02-22 16:49:13.179] $GPVTG,,T,,M,,N,,K,N*2C
[2021-02-22 16:49:13.382] $GPGGA,,,,,,,,,,M,,M,,*56
[2021-02-22 16:49:13.382] $GPVTG,,T,,M,,N,,K,N*2C
[2021-02-22 16:49:13.569] $GPGGA,,,,,,,,,,M,,M,,*56
[2021-02-22 16:49:13.585] $GPVTG,,T,,M,,N,,K,N*2C
[2021-02-22 16:49:13.772] $GPGGA,,,,,,,,,,M,,M,,*56
[2021-02-22 16:49:13.772] $GPVTG,,T,,M,,N,,K,N*2C
[2021-02-22 16:49:13.976] $GPGGA,,,,,,,,,,M,,M,,*56
[2021-02-22 16:49:13.976] $GPVTG,,T,,M,,N,,K,N*2C
[2021-02-22 16:49:14.179] $GPGGA,,,,,,,,,,M,,M,,*56
[2021-02-22 16:49:14.179] $GPVTG,,T,,M,,N,,K,N*2C
[2021-02-22 16:49:14.382] $GPGGA,,,,,,,,,,M,,M,,*56
[2021-02-22 16:49:14.382] $GPVTG,,T,,M,,N,,K,N*2C
[2021-02-22 16:49:14.569] $GPGGA,,,,,,,,,,M,,M,,*56
[2021-02-22 16:49:14.585] $GPVTG,,T,,M,,N,,K,N*2C
[2021-02-22 16:49:14.772] $GPGGA,,,,,,,,,,M,,M,,*56
[2021-02-22 16:49:14.772] $GPVTG,,T,,M,,N,,K,N*2C
[2021-02-22 16:49:14.975] $GPGGA,,,,,,,,,,M,,M,,*56
[2021-02-22 16:49:14.975] $GPVTG,,T,,M,,N,,K,N*2C
[2021-02-22 16:49:15.179] $GPGGA,,,,,,,,,,M,,M,,*56
[2021-02-22 16:49:15.179] $GPVTG,,T,,M,,N,,K,N*2C
[2021-02-22 16:49:15.382] $GPGGA,,,,,,,,,,M,,M,,*56
[2021-02-22 16:49:15.382] $GPVTG,,T,,M,,N,,K,N*2C
[2021-02-22 16:49:15.569] $GPGGA,,,,,,,,,,M,,M,,*56
[2021-02-22 16:49:15.585] $GPVTG,,T,,M,,N,,K,N*2C
[2021-02-22 16:49:15.772] $GPGGA,,,,,,,,,,M,,M,,*56
[2021-02-22 16:49:15.772] $GPVTG,,T,,M,,N,,K,N*2C
[2021-02-22 16:49:15.975] $GPGGA,,,,,,,,,,M,,M,,*56
[2021-02-22 16:49:15.975] $GPVTG,,T,,M,,N,,K,N*2C
[2021-02-22 16:49:16.178] $GPGGA,,,,,,,,,,M,,M,,*56
[2021-02-22 16:49:16.178] $GPVTG,,T,,M,,N,,K,N*2C
[2021-02-22 16:49:16.382] $GPGGA,,,,,,,,,,M,,M,,*56
[2021-02-22 16:49:16.382] $GPVTG,,T,,M,,N,,K,N*2C
[2021-02-22 16:49:16.569] $GPGGA,,,,,,,,,,M,,M,,*56
[2021-02-22 16:49:16.585] $GPVTG,,T,,M,,N,,K,N*2C
[2021-02-22 16:49:16.772] $GPGGA,,,,,,,,,,M,,M,,*56
[2021-02-22 16:49:16.772] $GPVTG,,T,,M,,N,,K,N*2C
[2021-02-22 16:49:16.975] $GPGGA,,,,,,,,,,M,,M,,*56
[2021-02-22 16:49:16.975] $GPVTG,,T,,M,,N,,K,N*2C
[2021-02-22 16:49:17.178] $GPGGA,,,,,,,,,,M,,M,,*56
[2021-02-22 16:49:17.178] $GPVTG,,T,,M,,N,,K,N*2C
[2021-02-22 16:49:17.381] $GPGGA,,,,,,,,,,M,,M,,*56
[2021-02-22 16:49:17.381] $GPVTG,,T,,M,,N,,K,N*2C
[2021-02-22 16:49:17.569] $GPGGA,,,,,,,,,,M,,M,,*56
[2021-02-22 16:49:17.585] $GPVTG,,T,,M,,N,,K,N*2C
[2021-02-22 16:49:17.772] $GPGGA,,,,,,,,,,M,,M,,*56
[2021-02-22 16:49:17.772] $GPVTG,,T,,M,,N,,K,N*2C
[2021-02-22 16:49:17.975] $GPGGA,,,,,,,,,,M,,M,,*56
[2021-02-22 16:49:17.975] $GPVTG,,T,,M,,N,,K,N*2C
[2021-02-22 16:49:18.178] $GPGGA,,,,,,,,,,M,,M,,*56
[2021-02-22 16:49:18.178] $GPVTG,,T,,M,,N,,K,N*2C
[2021-02-22 16:49:18.381] $GPGGA,,,,,,,,,,M,,M,,*56
[2021-02-22 16:49:18.381] $GPVTG,,T,,M,,N,,K,N*2C
[2021-02-22 16:49:18.569] $GPGGA,,,,,,,,,,M,,M,,*56
[2021-02-22 16:49:18.585] $GPVTG,,T,,M,,N,,K,N*2C
[2021-02-22 16:49:18.772] $GPGGA,,,,,,,,,,M,,M,,*56
[2021-02-22 16:49:18.772] $GPVTG,,T,,M,,N,,K,N*2C
[2021-02-22 16:49:18.975] $GPGGA,,,,,,,,,,M,,M,,*56
[2021-02-22 16:49:18.975] $GPVTG,,T,,M,,N,,K,N*2C
[2021-02-22 16:49:19.178] $GPGGA,,,,,,,,,,M,,M,,*56
[2021-02-22 16:49:19.178] $GPVTG,,T,,M,,N,,K,N*2C
[2021-02-22 16:49:19.381] $GPGGA,,,,,,,,,,M,,M,,*56
[2021-02-22 16:49:19.381] $GPVTG,,T,,M,,N,,K,N*2C
[2021-02-22 16:49:19.569] $GPGGA,,,,,,,,,,M,,M,,*56
[2021-02-22 16:49:19.584] $GPVTG,,T,,M,,N,,K,N*2C
[2021-02-22 16:49:19.772] $GPGGA,,,,,,,,,,M,,M,,*56
[2021-02-22 16:49:19.772] $GPVTG,,T,,M,,N,,K,N*2C
[2021-02-22 16:49:19.975] $GPGGA,,,,,,,,,,M,,M,,*56
[2021-02-22 16:49:19.975] $GPVTG,,T,,M,,N,,K,N*2C
[2021-02-22 16:49:20.178] $GPGGA,,,,,,,,,,M,,M,,*56
[2021-02-22 16:49:20.178] $GPVTG,,T,,M,,N,,K,N*2C
[2021-02-22 16:49:20.381] $GPGGA,,,,,,,,,,M,,M,,*56
[2021-02-22 16:49:20.381] $GPVTG,,T,,M,,N,,K,N*2C
[2021-02-22 16:49:20.569] $GPGGA,,,,,,,,,,M,,M,,*56
[2021-02-22 16:49:20.584] $GPVTG,,T,,M,,N,,K,N*2C
[2021-02-22 16:49:20.772] $GPGGA,,,,,,,,,,M,,M,,*56
[2021-02-22 16:49:20.772] $GPVTG,,T,,M,,N,,K,N*2C
[2021-02-22 16:49:20.975] $GPGGA,,,,,,,,,,M,,M,,*56
[2021-02-22 16:49:20.975] $GPVTG,,T,,M,,N,,K,N*2C
[2021-02-22 16:49:21.178] $GPGGA,,,,,,,,,,M,,M,,*56
[2021-02-22 16:49:21.178] $GPVTG,,T,,M,,N,,K,N*2C
[2021-02-22 16:49:21.381] $GPGGA,,,,,,,,,,M,,M,,*56
[2021-02-22 16:49:21.397] $GPVTG,,T,,M,,N,,K,N*2C
[2021-02-22 16:49:21.569] $GPGGA,,,,,,,,,,M,,M,,*56
[2021-02-22 16:49:21.584] $GPVTG,,T,,M,,N,,K,N*2C
[2021-02-22 16:49:21.772] $GPGGA,,,,,,,,,,M,,M,,*56
[2021-02-22 16:49:21.772] $GPVTG,,T,,M,,N,,K,N*2C
[2021-02-22 16:49:21.975] $GPGGA,,,,,,,,,,M,,M,,*56
[2021-02-22 16:49:21.975] $GPVTG,,T,,M,,N,,K,N*2C
[2021-02-22 16:49:22.178] $GPGGA,,,,,,,,,,M,,M,,*56
[2021-02-22 16:49:22.178] $GPVTG,,T,,M,,N,,K,N*2C
[2021-02-22 16:49:22.381] $GPGGA,,,,,,,,,,M,,M,,*56
[2021-02-22 16:49:22.381] $GPVTG,,T,,M,,N,,K,N*2C
[2021-02-22 16:49:22.569] $GPGGA,,,,,,,,,,M,,M,,*56
[2021-02-22 16:49:22.584] $GPVTG,,T,,M,,N,,K,N*2C
[2021-02-22 16:49:22.772] $GPGGA,,,,,,,,,,M,,M,,*56
[2021-02-22 16:49:22.772] $GPVTG,,T,,M,,N,,K,N*2C
[2021-02-22 16:49:22.975] $GPGGA,,,,,,,,,,M,,M,,*56
[2021-02-22 16:49:22.975] $GPVTG,,T,,M,,N,,K,N*2C
[2021-02-22 16:49:23.178] $GPGGA,,,,,,,,,,M,,M,,*56
[2021-02-22 16:49:23.178] $GPVTG,,T,,M,,N,,K,N*2C
[2021-02-22 16:49:23.381] $GPGGA,,,,,,,,,,M,,M,,*56
[2021-02-22 16:49:23.381] $GPVTG,,T,,M,,N,,K,N*2C
[2021-02-22 16:49:23.569] $GPGGA,,,,,,,,,,M,,M,,*56
[2021-02-22 16:49:23.584] $GPVTG,,T,,M,,N,,K,N*2C
[2021-02-22 16:49:23.772] $GPGGA,,,,,,,,,,M,,M,,*56
[2021-02-22 16:49:23.772] $GPVTG,,T,,M,,N,,K,N*2C
[2021-02-22 16:49:23.975] $GPGGA,,,,,,,,,,M,,M,,*56
[2021-02-22 16:49:23.975] $GPVTG,,T,,M,,N,,K,N*2C
[2021-02-22 16:49:24.178] $GPGGA,,,,,,,,,,M,,M,,*56
[2021-02-22 16:49:24.178] $GPVTG,,T,,M,,N,,K,N*2C
[2021-02-22 16:49:24.381] $GPGGA,,,,,,,,,,M,,M,,*56
[2021-02-22 16:49:24.381] $GPVTG,,T,,M,,N,,K,N*2C
[2021-02-22 16:49:24.569] $GPGGA,,,,,,,,,,M,,M,,*56
[2021-02-22 16:49:24.584] $GPVTG,,T,,M,,N,,K,N*2C
[2021-02-22 16:49:24.772] $GPGGA,,,,,,,,,,M,,M,,*56
[2021-02-22 16:49:24.772] $GPVTG,,T,,M,,N,,K,N*2C
[2021-02-22 16:49:24.975] $GPGGA,,,,,,,,,,M,,M,,*56
[2021-02-22 16:49:24.975] $GPVTG,,T,,M,,N,,K,N*2C
[2021-02-22 16:49:25.178] $GPGGA,,,,,,,,,,M,,M,,*56
[2021-02-22 16:49:25.178] $GPVTG,,T,,M,,N,,K,N*2C
[2021-02-22 16:49:25.381] $GPGGA,,,,,,,,,,M,,M,,*56
[2021-02-22 16:49:25.381] $GPVTG,,T,,M,,N,,K,N*2C
[2021-02-22 16:49:25.568] $GPGGA,,,,,,,,,,M,,M,,*56
[2021-02-22 16:49:25.584] $GPVTG,,T,,M,,N,,K,N*2C
[2021-02-22 16:49:25.772] $GPGGA,,,,,,,,,,M,,M,,*56
[2021-02-22 16:49:25.772] $GPVTG,,T,,M,,N,,K,N*2C
[2021-02-22 16:49:25.975] $GPGGA,,,,,,,,,,M,,M,,*56
[2021-02-22 16:49:25.975] $GPVTG,,T,,M,,N,,K,N*2C
[2021-02-22 16:49:26.178] $GPGGA,,,,,,,,,,M,,M,,*56
[2021-02-22 16:49:26.178] $GPVTG,,T,,M,,N,,K,N*2C
[2021-02-22 16:49:26.381] $GPGGA,,,,,,,,,,M,,M,,*56
[2021-02-22 16:49:26.381] $GPVTG,,T,,M,,N,,K,N*2C
[2021-02-22 16:49:26.568] $GPGGA,,,,,,,,,,M,,M,,*56
[2021-02-22 16:49:26.584] $GPVTG,,T,,M,,N,,K,N*2C
[2021-02-22 16:49:26.771] $GPGGA,,,,,,,,,,M,,M,,*56
[2021-02-22 16:49:26.771] $GPVTG,,T,,M,,N,,K,N*2C
[2021-02-22 16:49:26.975] $GPGGA,,,,,,,,,,M,,M,,*56
[2021-02-22 16:49:26.975] $GPVTG,,T,,M,,N,,K,N*2C
[2021-02-22 16:49:27.178] $GPGGA,,,,,,,,,,M,,M,,*56
[2021-02-22 16:49:27.178] $GPVTG,,T,,M,,N,,K,N*2C
[2021-02-22 16:49:27.381] $GPGGA,,,,,,,,,,M,,M,,*56
[2021-02-22 16:49:27.381] $GPVTG,,T,,M,,N,,K,N*2C
[2021-02-22 16:49:27.568] $GPGGA,,,,,,,,,,M,,M,,*56
[2021-02-22 16:49:27.584] $GPVTG,,T,,M,,N,,K,N*2C
[2021-02-22 16:49:27.771] $GPGGA,,,,,,,,,,M,,M,,*56
[2021-02-22 16:49:27.771] $GPVTG,,T,,M,,N,,K,N*2C
[2021-02-22 16:49:27.975] $GPGGA,,,,,,,,,,M,,M,,*56
[2021-02-22 16:49:27.975] $GPVTG,,T,,M,,N,,K,N*2C
[2021-02-22 16:49:28.178] $GPGGA,,,,,,,,,,M,,M,,*56
[2021-02-22 16:49:28.178] $GPVTG,,T,,M,,N,,K,N*2C
[2021-02-22 16:49:28.381] $GPGGA,,,,,,,,,,M,,M,,*56
[2021-02-22 16:49:28.381] $GPVTG,,T,,M,,N,,K,N*2C
[2021-02-22 16:49:28.568] $GPGGA,,,,,,,,,,M,,M,,*56
[2021-02-22 16:49:28.584] $GPVTG,,T,,M,,N,,K,N*2C
[2021-02-22 16:49:28.771] $GPGGA,,,,,,,,,,M,,M,,*56
[2021-02-22 16:49:28.771] $GPVTG,,T,,M,,N,,K,N*2C
[2021-02-22 16:49:28.974] $GPGGA,,,,,,,,,,M,,M,,*56
[2021-02-22 16:49:28.974] $GPVTG,,T,,M,,N,,K,N*2C
[2021-02-22 16:49:29.178] $GPGGA,,,,,,,,,,M,,M,,*56
[2021-02-22 16:49:29.178] $GPVTG,,T,,M,,N,,K,N*2C
[2021-02-22 16:49:29.381] $GPGGA,,,,,,,,,,M,,M,,*56
[2021-02-22 16:49:29.381] $GPVTG,,T,,M,,N,,K,N*2C
[2021-02-22 16:49:29.568] $GPGGA,,,,,,,,,,M,,M,,*56
[2021-02-22 16:49:29.584] $GPVTG,,T,,M,,N,,K,N*2C
[2021-02-22 16:49:29.771] $GPGGA,,,,,,,,,,M,,M,,*56
[2021-02-22 16:49:29.771] $GPVTG,,T,,M,,N,,K,N*2C
[2021-02-22 16:49:29.974] $GPGGA,,,,,,,,,,M,,M,,*56
[2021-02-22 16:49:29.974] $GPVTG,,T,,M,,N,,K,N*2C
[2021-02-22 16:49:30.178] $GPGGA,,,,,,,,,,M,,M,,*56
[2021-02-22 16:49:30.178] $GPVTG,,T,,M,,N,,K,N*2C
[2021-02-22 16:49:30.381] $GPGGA,,,,,,,,,,M,,M,,*56
[2021-02-22 16:49:30.381] $GPVTG,,T,,M,,N,,K,N*2C
[2021-02-22 16:49:30.568] $GPGGA,,,,,,,,,,M,,M,,*56
[2021-02-22 16:49:30.584] $GPVTG,,T,,M,,N,,K,N*2C
[2021-02-22 16:49:30.771] $GPGGA,,,,,,,,,,M,,M,,*56
[2021-02-22 16:49:30.771] $GPVTG,,T,,M,,N,,K,N*2C
[2021-02-22 16:49:30.974] $GPGGA,,,,,,,,,,M,,M,,*56
[2021-02-22 16:49:30.974] $GPVTG,,T,,M,,N,,K,N*2C
[2021-02-22 16:49:31.177] $GPGGA,,,,,,,,,,M,,M,,*56
[2021-02-22 16:49:31.177] $GPVTG,,T,,M,,N,,K,N*2C
[2021-02-22 16:49:31.381] $GPGGA,,,,,,,,,,M,,M,,*56
[2021-02-22 16:49:31.381] $GPVTG,,T,,M,,N,,K,N*2C
[2021-02-22 16:49:31.568] $GPGGA,,,,,,,,,,M,,M,,*56
[2021-02-22 16:49:31.584] $GPVTG,,T,,M,,N,,K,N*2C
[2021-02-22 16:49:31.771] $GPGGA,,,,,,,,,,M,,M,,*56
[2021-02-22 16:49:31.771] $GPVTG,,T,,M,,N,,K,N*2C
[2021-02-22 16:49:31.974] $GPGGA,,,,,,,,,,M,,M,,*56
[2021-02-22 16:49:31.974] $GPVTG,,T,,M,,N,,K,N*2C
[2021-02-22 16:49:32.177] $GPGGA,,,,,,,,,,M,,M,,*56
[2021-02-22 16:49:32.177] $GPVTG,,T,,M,,N,,K,N*2C
[2021-02-22 16:49:32.380] $GPGGA,,,,,,,,,,M,,M,,*56
[2021-02-22 16:49:32.380] $GPVTG,,T,,M,,N,,K,N*2C
[2021-02-22 16:49:32.568] $GPGGA,,,,,,,,,,M,,M,,*56
[2021-02-22 16:49:32.584] $GPVTG,,T,,M,,N,,K,N*2C
[2021-02-22 16:49:32.771] $GPGGA,,,,,,,,,,M,,M,,*56
[2021-02-22 16:49:32.771] $GPVTG,,T,,M,,N,,K,N*2C
[2021-02-22 16:49:32.974] $GPGGA,,,,,,,,,,M,,M,,*56
[2021-02-22 16:49:32.974] $GPVTG,,T,,M,,N,,K,N*2C
[2021-02-22 16:49:33.177] $GPGGA,,,,,,,,,,M,,M,,*56
[2021-02-22 16:49:33.177] $GPVTG,,T,,M,,N,,K,N*2C
[2021-02-22 16:49:33.380] $GPGGA,,,,,,,,,,M,,M,,*56
[2021-02-22 16:49:33.380] $GPVTG,,T,,M,,N,,K,N*2C
[2021-02-22 16:49:33.568] $GPGGA,,,,,,,,,,M,,M,,*56
[2021-02-22 16:49:33.583] $GPVTG,,T,,M,,N,,K,N*2C
[2021-02-22 16:49:33.771] $GPGGA,,,,,,,,,,M,,M,,*56
[2021-02-22 16:49:33.771] $GPVTG,,T,,M,,N,,K,N*2C
[2021-02-22 16:49:33.974] $GPGGA,,,,,,,,,,M,,M,,*56
[2021-02-22 16:49:33.974] $GPVTG,,T,,M,,N,,K,N*2C
[2021-02-22 16:49:34.177] $GPGGA,,,,,,,,,,M,,M,,*56
[2021-02-22 16:49:34.177] $GPVTG,,T,,M,,N,,K,N*2C
[2021-02-22 16:49:34.380] $GPGGA,,,,,,,,,,M,,M,,*56
[2021-02-22 16:49:34.380] $GPVTG,,T,,M,,N,,K,N*2C
[2021-02-22 16:49:34.583] $GPGGA,,,,,,,,,,M,,M,,*56
[2021-02-22 16:49:34.583] $GPVTG,,T,,M,,N,,K,N*2C
[2021-02-22 16:49:34.787] $GPGGA,074934.40,3713.96087526,N,13701.56817257,E,1,05,2.2,98.262,M,36.771,M,,*5D
[2021-02-22 16:49:34.787] $GPVTG,92.18,T,100.63,M,0.06,N,0.11,K,A*13
[2021-02-22 16:49:34.880] $GPGGA,074934.50,3713.96087550,N,13701.56817167,E,1,05,2.2,98.260,M,36.771,M,,*5F
[2021-02-22 16:49:34.880] $GPVTG,291.11,T,299.56,M,0.03,N,0.05,K,A*2E
[2021-02-22 16:49:34.974] $GPGGA,074934.60,3713.96065388,N,13701.56786174,E,1,07,2.0,98.740,M,36.771,M,,*51
[2021-02-22 16:49:34.990] $GPVTG,345.55,T,354.00,M,0.02,N,0.03,K,A*22
[2021-02-22 16:49:35.068] $GPGGA,074934.70,3713.96065349,N,13701.56786069,E,1,07,2.0,98.742,M,36.771,M,,*52
[2021-02-22 16:49:35.083] $GPVTG,257.24,T,265.69,M,0.02,N,0.03,K,A*2A
[2021-02-22 16:49:35.177] $GPGGA,074934.80,3713.96071101,N,13701.56816829,E,1,08,1.2,97.119,M,36.771,M,,*55
[2021-02-22 16:49:35.193] $GPVTG,5.79,T,14.24,M,0.01,N,0.02,K,A*18
[2021-02-22 16:49:35.271] $GPGGA,074934.90,3713.96071262,N,13701.56816834,E,1,08,1.2,97.125,M,36.771,M,,*51
[2021-02-22 16:49:35.286] $GPVTG,6.37,T,14.82,M,0.05,N,0.09,K,A*12
[2021-02-22 16:49:35.380] $GPGGA,074935.00,3713.96070200,N,13701.56824328,E,1,08,1.2,96.772,M,36.771,M,,*5E
[2021-02-22 16:49:35.396] $GPVTG,22.89,T,31.34,M,0.02,N,0.03,K,A*26
[2021-02-22 16:49:35.474] $GPGGA,074935.10,3713.96070420,N,13701.56824005,E,1,08,1.2,96.767,M,36.771,M,,*53
[2021-02-22 16:49:35.490] $GPVTG,309.63,T,318.08,M,0.07,N,0.13,K,A*2B
[2021-02-22 16:49:35.583] $GPGGA,074935.20,3713.96071598,N,13701.56827916,E,1,08,1.2,96.568,M,36.771,M,,*56
[2021-02-22 16:49:35.583] $GPVTG,296.46,T,304.91,M,0.08,N,0.15,K,A*2F
[2021-02-22 16:49:35.677] $GPGGA,074935.30,3713.96071593,N,13701.56827875,E,1,08,1.2,96.564,M,36.771,M,,*54
[2021-02-22 16:49:35.693] $GPVTG,289.66,T,298.11,M,0.06,N,0.11,K,A*25
[2021-02-22 16:49:35.786] $GPGGA,074935.40,3713.96071235,N,13701.56815516,E,1,09,1.2,96.380,M,36.771,M,,*5C
[2021-02-22 16:49:35.786] $GPVTG,276.32,T,284.77,M,0.02,N,0.04,K,A*29
[2021-02-22 16:49:35.880] $GPGGA,074935.50,3713.96071283,N,13701.56815265,E,1,09,1.2,96.380,M,36.771,M,,*53
[2021-02-22 16:49:35.880] $GPVTG,277.33,T,285.78,M,0.05,N,0.09,K,A*2D
[2021-02-22 16:49:35.974] $GPGGA,074935.60,3713.96071532,N,13701.56809893,E,1,09,1.2,96.300,M,36.771,M,,*5B
[2021-02-22 16:49:35.990] $GPVTG,290.14,T,298.59,M,0.02,N,0.03,K,A*23
[2021-02-22 16:49:36.068] $GPGGA,074935.70,3713.96071416,N,13701.56809952,E,1,09,1.2,96.301,M,36.771,M,,*50
[2021-02-22 16:49:36.083] $GPVTG,176.64,T,185.09,M,0.01,N,0.02,K,A*27
[2021-02-22 16:49:36.177] $GPGGA,074935.80,3713.96071236,N,13701.56806195,E,1,09,1.2,96.293,M,36.771,M,,*5D
[2021-02-22 16:49:36.193] $GPVTG,206.91,T,215.36,M,0.02,N,0.04,K,A*2A
[2021-02-22 16:49:36.271] $GPGGA,074935.90,3713.96071469,N,13701.56805877,E,1,09,1.2,96.288,M,36.771,M,,*5C
[2021-02-22 16:49:36.286] $GPVTG,286.98,T,295.43,M,0.04,N,0.08,K,A*2B
[2021-02-22 16:49:36.380] $GPGGA,074936.00,3713.96069707,N,13701.56803062,E,1,10,1.1,96.416,M,36.771,M,,*54
[2021-02-22 16:49:36.396] $GPVTG,288.04,T,296.49,M,0.05,N,0.10,K,A*21
[2021-02-22 16:49:36.474] $GPGGA,074936.10,3713.96069521,N,13701.56802959,E,1,09,1.1,96.420,M,36.771,M,,*5E
[2021-02-22 16:49:36.490] $GPVTG,255.10,T,263.55,M,0.05,N,0.09,K,A*2B
[2021-02-22 16:49:36.583] $GPGGA,074936.20,3713.96068142,N,13701.56802176,E,1,10,1.1,96.559,M,36.771,M,,*5F
[2021-02-22 16:49:36.583] $GPVTG,277.15,T,285.60,M,0.03,N,0.06,K,A*29
[2021-02-22 16:49:36.677] $GPGGA,074936.30,3713.96068094,N,13701.56802053,E,1,10,1.1,96.557,M,36.771,M,,*5C
[2021-02-22 16:49:36.677] $GPVTG,263.97,T,272.42,M,0.04,N,0.07,K,A*28
[2021-02-22 16:49:36.786] $GPGGA,074936.40,3713.96067541,N,13701.56800801,E,1,10,1.1,96.641,M,36.771,M,,*50
[2021-02-22 16:49:36.786] $GPVTG,277.20,T,285.65,M,0.04,N,0.08,K,A*23
[2021-02-22 16:49:36.880] $GPGGA,074936.50,3713.96067590,N,13701.56800867,E,1,10,1.1,96.640,M,36.771,M,,*5C
[2021-02-22 16:49:36.880] $GPVTG,310.00,T,318.45,M,0.02,N,0.04,K,A*2C
[2021-02-22 16:49:36.989] $GPGGA,074936.60,3713.96067136,N,13701.56799819,E,1,10,1.1,96.726,M,36.771,M,,*50
[2021-02-22 16:49:36.989] $GPVTG,6.14,T,14.59,M,0.02,N,0.04,K,A*1F
[2021-02-22 16:49:37.083] $GPGGA,074936.70,3713.96067413,N,13701.56799866,E,1,10,1.1,96.721,M,36.771,M,,*5C
[2021-02-22 16:49:37.083] $GPVTG,13.04,T,21.49,M,0.06,N,0.10,K,A*2C
[2021-02-22 16:49:37.177] $GPGGA,074936.80,3713.96067343,N,13701.56798578,E,1,11,1.1,96.797,M,36.771,M,,*5E
[2021-02-22 16:49:37.193] $GPVTG,19.04,T,27.49,M,0.05,N,0.10,K,A*23
[2021-02-22 16:49:37.271] $GPGGA,074936.90,3713.96067381,N,13701.56798540,E,1,10,1.1,96.793,M,36.771,M,,*5F
[2021-02-22 16:49:37.286] $GPVTG,13.75,T,22.20,M,0.04,N,0.07,K,A*22
[2021-02-22 16:49:37.380] $GPGGA,074937.00,3713.96067587,N,13701.56797656,E,1,11,1.1,96.872,M,36.771,M,,*5D
[2021-02-22 16:49:37.396] $GPVTG,43.47,T,51.92,M,0.07,N,0.13,K,A*2D
[2021-02-22 16:49:37.474] $GPGGA,074937.10,3713.96067490,N,13701.56797796,E,1,11,1.1,96.866,M,36.771,M,,*53
[2021-02-22 16:49:37.489] $GPVTG,72.20,T,80.65,M,0.05,N,0.09,K,A*23
[2021-02-22 16:49:37.583] $GPGGA,074937.20,3713.96067697,N,13701.56796667,E,1,11,1.1,96.928,M,36.771,M,,*50
[2021-02-22 16:49:37.599] $GPVTG,83.29,T,91.74,M,0.03,N,0.06,K,A*2D
[2021-02-22 16:49:37.677] $GPGGA,074937.30,3713.96067930,N,13701.56796467,E,1,11,1.1,96.919,M,36.771,M,,*53
[2021-02-22 16:49:37.677] $GPVTG,350.60,T,359.05,M,0.02,N,0.04,K,A*2F
[2021-02-22 16:49:37.786] $GPGGA,074937.40,3713.96068161,N,13701.56795776,E,1,11,1.1,96.976,M,36.771,M,,*5E
[2021-02-22 16:49:37.786] $GPVTG,270.86,T,279.31,M,0.01,N,0.02,K,A*25
[2021-02-22 16:49:37.880] $GPGGA,074937.50,3713.96068361,N,13701.56795396,E,1,11,1.1,96.977,M,36.771,M,,*56
[2021-02-22 16:49:37.880] $GPVTG,294.87,T,303.32,M,0.06,N,0.11,K,A*24
[2021-02-22 16:49:37.989] $GPGGA,074937.60,3713.96068726,N,13701.56794898,E,1,11,1.1,97.031,M,36.771,M,,*5C
[2021-02-22 16:49:37.989] $GPVTG,304.72,T,313.17,M,0.06,N,0.12,K,A*23
[2021-02-22 16:49:38.083] $GPGGA,074937.70,3713.96068718,N,13701.56795185,E,1,11,1.1,97.029,M,36.771,M,,*5D
[2021-02-22 16:49:38.083] $GPVTG,350.33,T,358.78,M,0.02,N,0.05,K,A*23
[2021-02-22 16:49:38.177] $GPGGA,074937.80,3713.96068859,N,13701.56794847,E,1,11,1.1,97.088,M,36.771,M,,*55
[2021-02-22 16:49:38.193] $GPVTG,350.52,T,358.97,M,0.03,N,0.06,K,A*27
[2021-02-22 16:49:38.271] $GPGGA,074937.90,3713.96068981,N,13701.56794975,E,1,11,1.1,97.084,M,36.771,M,,*5C
[2021-02-22 16:49:38.286] $GPVTG,19.75,T,28.20,M,0.04,N,0.07,K,A*22
[2021-02-22 16:49:38.380] $GPGGA,074938.00,3713.96069133,N,13701.56794426,E,1,11,1.1,97.135,M,36.771,M,,*5A
[2021-02-22 16:49:38.396] $GPVTG,11.26,T,19.71,M,0.04,N,0.08,K,A*25
[2021-02-22 16:49:38.474] $GPGGA,074938.10,3713.96069184,N,13701.56794717,E,1,11,1.1,97.133,M,36.771,M,,*50
[2021-02-22 16:49:38.489] $GPVTG,49.84,T,58.29,M,0.05,N,0.10,K,A*20
[2021-02-22 16:49:38.583] $GPGGA,074938.20,3713.96069390,N,13701.56794294,E,1,11,1.1,97.177,M,36.771,M,,*5A
[2021-02-22 16:49:38.599] $GPVTG,39.76,T,48.21,M,0.06,N,0.11,K,A*21
[2021-02-22 16:49:38.677] $GPGGA,074938.30,3713.96069434,N,13701.56794522,E,1,11,1.1,97.171,M,36.771,M,,*5E
[2021-02-22 16:49:38.677] $GPVTG,60.24,T,68.69,M,0.06,N,0.11,K,A*24
[2021-02-22 16:49:38.786] $GPGGA,074938.40,3713.96069683,N,13701.56794027,E,1,11,1.1,97.213,M,36.771,M,,*50
[2021-02-22 16:49:38.786] $GPVTG,43.51,T,51.96,M,0.06,N,0.11,K,A*2D
[2021-02-22 16:49:38.880] $GPGGA,074938.50,3713.96069817,N,13701.56794120,E,1,11,1.1,97.214,M,36.771,M,,*53
[2021-02-22 16:49:38.880] $GPVTG,39.39,T,47.84,M,0.06,N,0.12,K,A*29
[2021-02-22 16:49:38.989] $GPGGA,074938.60,3713.96069886,N,13701.56793646,E,1,11,1.1,97.254,M,36.771,M,,*5C
[2021-02-22 16:49:38.989] $GPVTG,33.25,T,41.70,M,0.05,N,0.10,K,A*22
[2021-02-22 16:49:39.083] $GPGGA,074938.70,3713.96069968,N,13701.56793568,E,1,11,1.1,97.245,M,36.771,M,,*53
[2021-02-22 16:49:39.083] $GPVTG,7.92,T,16.37,M,0.03,N,0.05,K,A*1A
[2021-02-22 16:49:39.177] $GPGGA,074938.80,3713.96069946,N,13701.56793004,E,1,11,1.1,97.278,M,36.771,M,,*51
[2021-02-22 16:49:39.192] $GPVTG,272.98,T,281.43,M,0.02,N,0.03,K,A*28
[2021-02-22 16:49:39.271] $GPGGA,074938.90,3713.96069941,N,13701.56793247,E,1,11,1.1,97.268,M,36.771,M,,*53
[2021-02-22 16:49:39.286] $GPVTG,135.96,T,144.41,M,0.01,N,0.02,K,A*2C
[2021-02-22 16:49:39.380] $GPGGA,074939.00,3713.96069928,N,13701.56792883,E,1,11,1.1,97.294,M,36.771,M,,*54
[2021-02-22 16:49:39.396] $GPVTG,152.68,T,161.13,M,0.02,N,0.03,K,A*2E
[2021-02-22 16:49:39.474] $GPGGA,074939.10,3713.96070122,N,13701.56792776,E,1,11,1.1,97.290,M,36.771,M,,*5E
[2021-02-22 16:49:39.489] $GPVTG,333.39,T,341.84,M,0.02,N,0.03,K,A*21
[2021-02-22 16:49:39.583] $GPGGA,074939.20,3713.96070162,N,13701.56792516,E,1,11,1.1,97.311,M,36.771,M,,*55
[2021-02-22 16:49:39.583] $GPVTG,32.29,T,40.74,M,0.03,N,0.05,K,A*28
[2021-02-22 16:49:39.677] $GPGGA,074939.30,3713.96070316,N,13701.56792679,E,1,11,1.1,97.310,M,36.771,M,,*5E
[2021-02-22 16:49:39.677] $GPVTG,36.73,T,45.18,M,0.05,N,0.09,K,A*26
[2021-02-22 16:49:39.786] $GPGGA,074939.40,3713.96070313,N,13701.56792013,E,1,11,1.1,97.331,M,36.771,M,,*55
[2021-02-22 16:49:39.786] $GPVTG,0.01,T,8.46,M,0.04,N,0.08,K,A*24
[2021-02-22 16:49:39.880] $GPGGA,074939.50,3713.96070411,N,13701.56792013,E,1,11,1.1,97.322,M,36.771,M,,*53
[2021-02-22 16:49:39.880] $GPVTG,353.27,T,1.72,M,0.03,N,0.06,K,A*22
[2021-02-22 16:49:39.989] $GPGGA,074939.60,3713.96070493,N,13701.56791669,E,1,11,1.1,97.337,M,36.771,M,,*56
[2021-02-22 16:49:40.005] $GPVTG,9.34,T,17.79,M,0.04,N,0.08,K,A*19
[2021-02-22 16:49:40.083] $GPGGA,074939.70,3713.96070613,N,13701.56791643,E,1,11,1.1,97.335,M,36.771,M,,*57
[2021-02-22 16:49:40.083] $GPVTG,2.04,T,10.49,M,0.05,N,0.09,K,A*15
[2021-02-22 16:49:40.177] $GPGGA,074939.80,3713.96070446,N,13701.56791237,E,1,11,1.1,97.352,M,36.771,M,,*5C
[2021-02-22 16:49:40.192] $GPVTG,9.79,T,18.24,M,0.03,N,0.05,K,A*1D
[2021-02-22 16:49:40.271] $GPGGA,074939.90,3713.96070704,N,13701.56791073,E,1,11,1.1,97.347,M,36.771,M,,*5E
[2021-02-22 16:49:40.286] $GPVTG,340.10,T,348.55,M,0.05,N,0.09,K,A*26
[2021-02-22 16:49:40.380] $GPGGA,074940.00,3713.96070642,N,13701.56790440,E,1,11,1.1,97.361,M,36.771,M,,*5B
[2021-02-22 16:49:40.396] $GPVTG,321.68,T,330.13,M,0.05,N,0.09,K,A*23
[2021-02-22 16:49:40.474] $GPGGA,074940.10,3713.96070630,N,13701.56790410,E,1,11,1.1,97.358,M,36.771,M,,*50
[2021-02-22 16:49:40.489] $GPVTG,307.77,T,316.22,M,0.03,N,0.06,K,A*26
[2021-02-22 16:49:40.583] $GPGGA,074940.20,3713.96070724,N,13701.56788922,E,1,11,1.1,97.381,M,36.771,M,,*56
[2021-02-22 16:49:40.583] $GPVTG,297.91,T,306.36,M,0.05,N,0.08,K,A*2A
[2021-02-22 16:49:40.677] $GPGGA,074940.30,3713.96070798,N,13701.56788989,E,1,11,1.1,97.381,M,36.771,M,,*51
[2021-02-22 16:49:40.677] $GPVTG,320.13,T,328.58,M,0.03,N,0.06,K,A*21
[2021-02-22 16:49:40.786] $GPGGA,074940.40,3713.96070877,N,13701.56787804,E,1,11,1.1,97.415,M,36.771,M,,*59
[2021-02-22 16:49:40.786] $GPVTG,359.46,T,7.91,M,0.03,N,0.06,K,A*24
[2021-02-22 16:49:40.880] $GPGGA,074940.50,3713.96070894,N,13701.56787594,E,1,11,1.1,97.408,M,36.771,M,,*5D
[2021-02-22 16:49:40.880] $GPVTG,308.48,T,316.93,M,0.03,N,0.05,K,A*2C
[2021-02-22 16:49:40.989] $GPGGA,074940.60,3713.96070584,N,13701.56786247,E,1,11,1.1,97.440,M,36.771,M,,*56
[2021-02-22 16:49:40.989] $GPVTG,249.76,T,258.21,M,0.03,N,0.06,K,A*24
[2021-02-22 16:49:41.083] $GPGGA,074940.70,3713.96070685,N,13701.56786431,E,1,11,1.1,97.434,M,36.771,M,,*51
[2021-02-22 16:49:41.083] $GPVTG,238.12,T,246.57,M,0.01,N,0.01,K,A*2B
[2021-02-22 16:49:41.177] $GPGGA,074940.80,3713.96070237,N,13701.56786381,E,1,11,1.1,97.452,M,36.771,M,,*5F
[2021-02-22 16:49:41.192] $GPVTG,173.24,T,181.69,M,0.01,N,0.02,K,A*24
[2021-02-22 16:49:41.270] $GPGGA,074940.90,3713.96070306,N,13701.56786065,E,1,11,1.1,97.450,M,36.771,M,,*56
[2021-02-22 16:49:41.286] $GPVTG,260.45,T,268.90,M,0.03,N,0.06,K,A*26
[2021-02-22 16:49:41.380] $GPGGA,074941.00,3713.96069864,N,13701.56785907,E,1,11,1.1,97.453,M,36.771,M,,*54
[2021-02-22 16:49:41.395] $GPVTG,244.65,T,253.10,M,0.03,N,0.06,K,A*22
[2021-02-22 16:49:41.474] $GPGGA,074941.10,3713.96069975,N,13701.56785749,E,1,11,1.1,97.455,M,36.771,M,,*56
[2021-02-22 16:49:41.489] $GPVTG,276.10,T,284.55,M,0.04,N,0.07,K,A*2C
[2021-02-22 16:49:41.583] $GPGGA,074941.20,3713.96069646,N,13701.56785634,E,1,11,1.1,97.457,M,36.771,M,,*53
[2021-02-22 16:49:41.599] $GPVTG,294.13,T,302.58,M,0.03,N,0.05,K,A*24
[2021-02-22 16:49:41.677] $GPGGA,074941.30,3713.96069690,N,13701.56785669,E,1,11,1.1,97.457,M,36.771,M,,*51
[2021-02-22 16:49:41.677] $GPVTG,327.72,T,336.17,M,0.02,N,0.03,K,A*21
[2021-02-22 16:49:41.786] $GPGGA,074941.40,3713.96069400,N,13701.56785418,E,1,11,1.1,97.466,M,36.771,M,,*5B
[2021-02-22 16:49:41.786] $GPVTG,334.67,T,343.12,M,0.04,N,0.07,K,A*22
[2021-02-22 16:49:41.880] $GPGGA,074941.50,3713.96069341,N,13701.56785198,E,1,11,1.1,97.471,M,36.771,M,,*53
[2021-02-22 16:49:41.880] $GPVTG,301.07,T,309.52,M,0.04,N,0.08,K,A*27
[2021-02-22 16:49:41.989] $GPGGA,074941.60,3713.96068944,N,13701.56785300,E,1,11,1.1,97.481,M,36.771,M,,*52
[2021-02-22 16:49:41.989] $GPVTG,5.53,T,13.98,M,0.03,N,0.05,K,A*15
[2021-02-22 16:49:42.083] $GPGGA,074941.70,3713.96068955,N,13701.56785117,E,1,11,1.1,97.477,M,36.771,M,,*5E
[2021-02-22 16:49:42.083] $GPVTG,306.18,T,314.63,M,0.02,N,0.04,K,A*2A
[2021-02-22 16:49:42.177] $GPGGA,074941.80,3713.96068570,N,13701.56784979,E,1,11,1.1,97.485,M,36.771,M,,*56
[2021-02-22 16:49:42.192] $GPVTG,346.90,T,355.35,M,0.02,N,0.04,K,A*28
[2021-02-22 16:49:42.269] $GPGGA,074941.90,3713.96068668,N,13701.56784966,E,1,11,1.1,97.488,M,36.771,M,,*5E
[2021-02-22 16:49:42.284] $GPVTG,356.23,T,4.67,M,0.03,N,0.05,K,A*21
[2021-02-22 16:49:42.394] $GPGGA,074942.00,3713.96068148,N,13701.56784663,E,1,11,1.1,97.492,M,36.771,M,,*50
[2021-02-22 16:49:42.394] $GPVTG,347.01,T,355.46,M,0.02,N,0.05,K,A*24
[2021-02-22 16:49:42.472] $GPGGA,074942.10,3713.96068296,N,13701.56784740,E,1,11,1.1,97.493,M,36.771,M,,*50
[2021-02-22 16:49:42.487] $GPVTG,9.97,T,18.42,M,0.04,N,0.07,K,A*18
[2021-02-22 16:49:42.581] $GPGGA,074942.20,3713.96091580,N,13701.56749702,E,2,07,1.3,96.702,M,36.771,M,2.2,0000*70
[2021-02-22 16:49:42.597] $GPVTG,345.81,T,354.26,M,0.03,N,0.05,K,D*2D
[2021-02-22 16:49:42.675] $GPGGA,074942.30,3713.96091683,N,13701.56749599,E,2,07,1.3,96.706,M,36.771,M,2.2,0000*75
[2021-02-22 16:49:42.690] $GPVTG,338.53,T,346.98,M,0.04,N,0.07,K,D*2B
[2021-02-22 16:49:42.784] $GPGGA,074942.40,3713.96105489,N,13701.56727422,E,2,07,1.3,96.110,M,36.771,M,2.4,0000*78
[2021-02-22 16:49:42.800] $GPVTG,12.26,T,20.71,M,0.05,N,0.09,K,D*29
[2021-02-22 16:49:42.878] $GPGGA,074942.50,3713.96105532,N,13701.56727292,E,2,07,1.3,96.109,M,36.771,M,2.4,0000*7D
[2021-02-22 16:49:42.878] $GPVTG,347.73,T,356.18,M,0.04,N,0.07,K,D*28
[2021-02-22 16:49:42.987] $GPGGA,074942.60,3713.96108089,N,13701.56720042,E,2,07,1.3,95.809,M,36.771,M,2.6,0000*76
[2021-02-22 16:49:42.987] $GPVTG,328.18,T,336.63,M,0.04,N,0.08,K,D*29
[2021-02-22 16:49:43.081] $GPGGA,074942.70,3713.96108068,N,13701.56720132,E,2,07,1.3,95.805,M,36.771,M,2.6,0000*72
[2021-02-22 16:49:43.081] $GPVTG,334.58,T,343.03,M,0.02,N,0.03,K,D*29
[2021-02-22 16:49:43.190] $GPGGA,074942.80,3713.96109066,N,13701.56715693,E,2,07,1.3,95.596,M,36.771,M,2.8,0000*71
[2021-02-22 16:49:43.190] $GPVTG,255.71,T,264.16,M,0.02,N,0.04,K,D*23
[2021-02-22 16:49:43.269] $GPGGA,074942.90,3713.96108965,N,13701.56715533,E,2,07,1.3,95.601,M,36.771,M,2.8,0000*7F
[2021-02-22 16:49:43.284] $GPVTG,244.69,T,253.14,M,0.03,N,0.06,K,D*2F
[2021-02-22 16:49:43.378] $GPGGA,074943.00,3713.96110030,N,13701.56711879,E,2,07,1.3,95.439,M,36.771,M,3.0,0000*70
[2021-02-22 16:49:43.393] $GPVTG,218.83,T,227.28,M,0.02,N,0.04,K,D*2D
[2021-02-22 16:49:43.472] $GPGGA,074943.10,3713.96110055,N,13701.56711743,E,2,07,1.3,95.442,M,36.771,M,3.0,0000*78
[2021-02-22 16:49:43.487] $GPVTG,251.17,T,259.62,M,0.02,N,0.04,K,D*2A
[2021-02-22 16:49:43.581] $GPGGA,074943.20,3713.96111972,N,13701.56703565,E,2,08,1.2,95.258,M,36.771,M,2.2,0000*73
[2021-02-22 16:49:43.597] $GPVTG,247.02,T,255.47,M,0.03,N,0.05,K,D*22
[2021-02-22 16:49:43.675] $GPGGA,074943.30,3713.96132202,N,13701.56644215,E,5,05,2.4,92.914,M,36.771,M,2.3,0000*77
[2021-02-22 16:49:43.690] $GPVTG,255.29,T,263.74,M,0.02,N,0.03,K,D*2A
[2021-02-22 16:49:43.784] $GPGGA,074943.40,3713.96132087,N,13701.56643855,E,5,05,2.4,92.933,M,36.771,M,2.4,0000*74
[2021-02-22 16:49:43.800] $GPVTG,296.42,T,304.87,M,0.01,N,0.01,K,D*25
[2021-02-22 16:49:43.878] $GPGGA,074943.50,3713.96132221,N,13701.56644016,E,5,05,2.4,92.915,M,36.771,M,2.5,0000*76
[2021-02-22 16:49:43.893] $GPVTG,283.53,T,291.98,M,0.02,N,0.05,K,D*25
[2021-02-22 16:49:43.987] $GPGGA,074943.60,3713.96132191,N,13701.56644139,E,5,05,2.4,92.917,M,36.771,M,2.6,0000*70
[2021-02-22 16:49:44.003] $GPVTG,302.48,T,310.93,M,0.01,N,0.02,K,D*20
[2021-02-22 16:49:44.081] $GPGGA,074943.70,3713.96132022,N,13701.56644563,E,5,05,2.4,92.915,M,36.771,M,2.7,0000*70
[2021-02-22 16:49:44.081] $GPVTG,116.03,T,124.48,M,0.03,N,0.06,K,D*2D
[2021-02-22 16:49:44.190] $GPGGA,074943.80,3713.96132246,N,13701.56644291,E,5,05,2.4,92.915,M,36.771,M,2.8,0000*7A
[2021-02-22 16:49:44.190] $GPVTG,68.95,T,77.40,M,0.01,N,0.02,K,D*23
[2021-02-22 16:49:44.284] $GPGGA,074943.90,3713.96132078,N,13701.56644187,E,5,05,2.4,92.923,M,36.771,M,2.9,0000*74
[2021-02-22 16:49:44.284] $GPVTG,187.01,T,195.46,M,0.01,N,0.02,K,D*25
[2021-02-22 16:49:44.393] $GPGGA,074944.00,3713.96132348,N,13701.56644192,E,5,05,2.4,92.918,M,36.771,M,3.0,0000*7E
[2021-02-22 16:49:44.393] $GPVTG,1.78,T,10.23,M,0.01,N,0.03,K,D*1A
[2021-02-22 16:49:44.472] $GPGGA,074944.10,3713.96132107,N,13701.56644166,E,5,05,2.4,92.920,M,36.771,M,3.1,0000*77
[2021-02-22 16:49:44.487] $GPVTG,97.21,T,105.66,M,0.01,N,0.02,K,D*1C
[2021-02-22 16:49:44.597] $GPGGA,074944.20,3713.96132175,N,13701.56644646,E,5,05,2.4,92.906,M,36.771,M,3.2,0000*73
[2021-02-22 16:49:44.597] $GPVTG,57.64,T,66.09,M,0.02,N,0.04,K,D*29
[2021-02-22 16:49:44.675] $GPGGA,074944.30,3713.96134778,N,13701.56642404,E,4,07,1.3,93.205,M,36.771,M,2.3,0000*73
[2021-02-22 16:49:44.690] $GPVTG,12.98,T,21.43,M,0.02,N,0.04,K,D*26
[2021-02-22 16:49:44.784] $GPGGA,074944.40,3713.96134831,N,13701.56642062,E,4,07,1.3,93.209,M,36.771,M,2.4,0000*79
[2021-02-22 16:49:44.800] $GPVTG,340.17,T,348.62,M,0.03,N,0.06,K,D*29
[2021-02-22 16:49:44.878] $GPGGA,074944.50,3713.96134897,N,13701.56642621,E,4,07,1.3,93.210,M,36.771,M,2.5,0000*7C
[2021-02-22 16:49:44.893] $GPVTG,42.08,T,50.53,M,0.06,N,0.11,K,D*2D
[2021-02-22 16:49:44.987] $GPGGA,074944.60,3713.96135112,N,13701.56642685,E,4,07,1.3,93.203,M,36.771,M,2.6,0000*75
[2021-02-22 16:49:44.987] $GPVTG,11.83,T,20.28,M,0.07,N,0.13,K,D*20
[2021-02-22 16:49:45.081] $GPGGA,074944.70,3713.96134996,N,13701.56643173,E,4,07,1.3,93.193,M,36.771,M,2.7,0000*75
[2021-02-22 16:49:45.081] $GPVTG,49.18,T,57.63,M,0.07,N,0.12,K,D*21
[2021-02-22 16:49:45.190] $GPGGA,074944.80,3713.96134997,N,13701.56642624,E,4,07,1.3,93.206,M,36.771,M,2.8,0000*7F
[2021-02-22 16:49:45.190] $GPVTG,27.50,T,35.95,M,0.07,N,0.12,K,D*28
[2021-02-22 16:49:45.284] $GPGGA,074944.90,3713.96134842,N,13701.56642727,E,4,07,1.3,93.202,M,36.771,M,2.9,0000*70
[2021-02-22 16:49:45.284] $GPVTG,31.85,T,40.30,M,0.07,N,0.13,K,D*2B
[2021-02-22 16:49:45.393] $GPGGA,074945.00,3713.96135051,N,13701.56643214,E,4,07,1.3,93.204,M,36.771,M,3.0,0000*79
[2021-02-22 16:49:45.393] $GPVTG,50.36,T,58.81,M,0.09,N,0.16,K,D*2C
[2021-02-22 16:49:45.472] $GPGGA,074945.10,3713.96134939,N,13701.56642994,E,4,07,1.3,93.213,M,36.771,M,3.1,0000*7B
[2021-02-22 16:49:45.487] $GPVTG,40.74,T,49.19,M,0.07,N,0.13,K,D*21
[2021-02-22 16:49:45.581] $GPGGA,074945.20,3713.96134949,N,13701.56643249,E,4,08,1.3,93.207,M,36.771,M,2.2,0000*7D
[2021-02-22 16:49:45.596] $GPVTG,48.55,T,57.00,M,0.08,N,0.14,K,D*25
[2021-02-22 16:49:45.675] $GPGGA,074945.30,3713.96134549,N,13701.56643120,E,4,08,1.3,93.214,M,36.771,M,2.3,0000*7F
[2021-02-22 16:49:45.690] $GPVTG,76.73,T,85.18,M,0.05,N,0.09,K,D*2B
[2021-02-22 16:49:45.784] $GPGGA,074945.40,3713.96134750,N,13701.56643375,E,4,08,1.3,93.218,M,36.771,M,2.4,0000*7B
[2021-02-22 16:49:45.800] $GPVTG,64.58,T,73.03,M,0.05,N,0.09,K,D*22
[2021-02-22 16:49:45.878] $GPGGA,074945.50,3713.96134753,N,13701.56642986,E,4,08,1.3,93.209,M,36.771,M,2.5,0000*7F
[2021-02-22 16:49:45.893] $GPVTG,337.62,T,346.07,M,0.02,N,0.05,K,D*24
[2021-02-22 16:49:45.987] $GPGGA,074945.60,3713.96134725,N,13701.56643412,E,4,08,1.3,93.218,M,36.771,M,2.6,0000*7F
[2021-02-22 16:49:46.003] $GPVTG,161.78,T,170.23,M,0.01,N,0.02,K,D*2B
[2021-02-22 16:49:46.081] $GPGGA,074945.70,3713.96134832,N,13701.56643239,E,4,08,1.3,93.207,M,36.771,M,2.7,0000*77
[2021-02-22 16:49:46.081] $GPVTG,345.03,T,353.48,M,0.02,N,0.03,K,D*2F
[2021-02-22 16:49:46.190] $GPGGA,074945.80,3713.96134845,N,13701.56643095,E,4,08,1.3,93.212,M,36.771,M,2.8,0000*77
[2021-02-22 16:49:46.190] $GPVTG,293.10,T,301.55,M,0.03,N,0.06,K,D*28
[2021-02-22 16:49:46.284] $GPGGA,074945.90,3713.96134917,N,13701.56643016,E,4,08,1.3,93.205,M,36.771,M,2.9,0000*7C
[2021-02-22 16:49:46.284] $GPVTG,288.31,T,296.76,M,0.04,N,0.07,K,D*29
[2021-02-22 16:49:46.393] $GPGGA,074946.00,3713.96134397,N,13701.56642644,E,4,08,1.3,93.214,M,36.771,M,3.0,0000*7C
[2021-02-22 16:49:46.393] $GPVTG,274.30,T,282.75,M,0.04,N,0.08,K,D*22
[2021-02-22 16:49:46.471] $GPGGA,074946.10,3713.96134627,N,13701.56642748,E,4,08,1.3,93.213,M,36.771,M,3.1,0000*78
[2021-02-22 16:49:46.487] $GPVTG,322.31,T,330.76,M,0.05,N,0.09,K,D*2A
[2021-02-22 16:49:46.581] $GPGGA,074946.20,3713.96134691,N,13701.56643112,E,4,07,1.4,93.215,M,36.771,M,2.2,0000*72
[2021-02-22 16:49:46.596] $GPVTG,317.12,T,325.57,M,0.04,N,0.08,K,D*2A
[2021-02-22 16:49:46.675] $GPGGA,074946.30,3713.96134659,N,13701.56643146,E,4,07,1.4,93.215,M,36.771,M,2.3,0000*77
[2021-02-22 16:49:46.690] $GPVTG,317.21,T,325.66,M,0.03,N,0.06,K,D*21
[2021-02-22 16:49:46.784] $GPGGA,074946.40,3713.96134438,N,13701.56642965,E,4,07,1.4,93.216,M,36.771,M,2.4,0000*79
[2021-02-22 16:49:46.800] $GPVTG,331.32,T,339.77,M,0.01,N,0.03,K,D*2D
[2021-02-22 16:49:46.878] $GPGGA,074946.50,3713.96134561,N,13701.56642721,E,4,07,1.4,93.218,M,36.771,M,2.5,0000*74
[2021-02-22 16:49:46.893] $GPVTG,337.71,T,346.16,M,0.04,N,0.08,K,D*2D
[2021-02-22 16:49:46.987] $GPGGA,074946.60,3713.96134577,N,13701.56642687,E,4,07,1.4,93.213,M,36.771,M,2.6,0000*75
[2021-02-22 16:49:47.003] $GPVTG,341.79,T,350.24,M,0.06,N,0.12,K,D*2B
[2021-02-22 16:49:47.081] $GPGGA,074946.70,3713.96134756,N,13701.56642982,E,4,07,1.4,93.215,M,36.771,M,2.7,0000*78
[2021-02-22 16:49:47.081] $GPVTG,6.57,T,15.02,M,0.07,N,0.13,K,D*11
[2021-02-22 16:49:47.190] $GPGGA,074946.80,3713.96134735,N,13701.56642464,E,4,07,1.4,93.217,M,36.771,M,2.8,0000*7A
[2021-02-22 16:49:47.190] $GPVTG,354.57,T,3.02,M,0.08,N,0.15,K,D*2B
[2021-02-22 16:49:47.284] $GPGGA,074946.90,3713.96134540,N,13701.56642869,E,4,07,1.4,93.207,M,36.771,M,2.9,0000*7A
[2021-02-22 16:49:47.284] $GPVTG,22.78,T,31.23,M,0.05,N,0.10,K,D*2E
[2021-02-22 16:49:47.393] $GPGGA,074947.00,3713.96134627,N,13701.56642520,E,4,07,1.4,93.213,M,36.771,M,3.0,0000*7D
[2021-02-22 16:49:47.393] $GPVTG,32.47,T,40.92,M,0.06,N,0.11,K,D*2D
[2021-02-22 16:49:47.471] $GPGGA,074947.10,3713.96134523,N,13701.56642844,E,4,07,1.4,93.211,M,36.771,M,3.1,0000*77
[2021-02-22 16:49:47.487] $GPVTG,57.07,T,65.52,M,0.07,N,0.13,K,D*22
[2021-02-22 16:49:47.581] $GPGGA,074947.20,3713.96134993,N,13701.56642574,E,4,07,1.4,93.205,M,36.771,M,2.2,0000*7A
[2021-02-22 16:49:47.596] $GPVTG,48.03,T,56.48,M,0.06,N,0.12,K,D*23
[2021-02-22 16:49:47.675] $GPGGA,074947.30,3713.96134764,N,13701.56642466,E,4,07,1.4,93.210,M,36.771,M,2.3,0000*7A
[2021-02-22 16:49:47.690] $GPVTG,61.13,T,69.58,M,0.05,N,0.10,K,D*25
[2021-02-22 16:49:47.784] $GPGGA,074947.40,3713.96134805,N,13701.56642664,E,4,07,1.4,93.200,M,36.771,M,2.4,0000*73
[2021-02-22 16:49:47.799] $GPVTG,50.99,T,59.44,M,0.04,N,0.08,K,D*23
[2021-02-22 16:49:47.878] $GPGGA,074947.50,3713.96134674,N,13701.56642758,E,4,07,1.4,93.216,M,36.771,M,2.5,0000*72
[2021-02-22 16:49:47.893] $GPVTG,89.80,T,98.25,M,0.03,N,0.06,K,D*2C
[2021-02-22 16:49:47.987] $GPGGA,074947.60,3713.96135071,N,13701.56642253,E,4,07,1.4,93.192,M,36.771,M,2.6,0000*71
[2021-02-22 16:49:47.987] $GPVTG,6.04,T,14.49,M,0.03,N,0.06,K,D*19
[2021-02-22 16:49:48.081] $GPGGA,074947.70,3713.96134755,N,13701.56642800,E,4,07,1.4,93.210,M,36.771,M,2.7,0000*74
[2021-02-22 16:49:48.081] $GPVTG,94.26,T,102.71,M,0.04,N,0.07,K,D*19
[2021-02-22 16:49:48.190] $GPGGA,074947.80,3713.96134997,N,13701.56642651,E,4,07,1.4,93.203,M,36.771,M,2.8,0000*7C
[2021-02-22 16:49:48.190] $GPVTG,68.05,T,76.50,M,0.02,N,0.04,K,D*2F
[2021-02-22 16:49:48.284] $GPGGA,074947.90,3713.96134766,N,13701.56642367,E,4,07,1.4,93.205,M,36.771,M,2.9,0000*7A
[2021-02-22 16:49:48.284] $GPVTG,226.27,T,234.72,M,0.01,N,0.02,K,D*26
[2021-02-22 16:49:48.393] $GPGGA,074948.00,3713.96134738,N,13701.56642575,E,4,07,1.4,93.203,M,36.771,M,3.0,0000*7C
[2021-02-22 16:49:48.393] $GPVTG,160.29,T,168.74,M,0.02,N,0.04,K,D*20
[2021-02-22 16:49:48.471] $GPGGA,074948.10,3713.96134831,N,13701.56642504,E,4,07,1.4,93.205,M,36.771,M,3.1,0000*7A
[2021-02-22 16:49:48.487] $GPVTG,295.42,T,303.87,M,0.01,N,0.02,K,D*22
[2021-02-22 16:49:48.581] $GPGGA,074948.20,3713.96134749,N,13701.56642542,E,4,07,1.4,93.211,M,36.771,M,2.2,0000*7C
[2021-02-22 16:49:48.596] $GPVTG,336.85,T,345.30,M,0.01,N,0.01,K,D*2C
[2021-02-22 16:49:48.674] $GPGGA,074948.30,3713.96134803,N,13701.56642411,E,4,07,1.4,93.204,M,36.771,M,2.3,0000*7E
[2021-02-22 16:49:48.690] $GPVTG,302.73,T,311.18,M,0.03,N,0.06,K,D*2C
[2021-02-22 16:49:48.784] $GPGGA,074948.40,3713.96134793,N,13701.56642647,E,4,07,1.4,93.214,M,36.771,M,2.4,0000*78
[2021-02-22 16:49:48.799] $GPVTG,3.95,T,12.40,M,0.03,N,0.05,K,D*18
[2021-02-22 16:49:48.878] $GPGGA,074948.50,3713.96134777,N,13701.56642425,E,4,07,1.4,93.200,M,36.771,M,2.5,0000*71
[2021-02-22 16:49:48.893] $GPVTG,297.72,T,306.16,M,0.03,N,0.06,K,D*28
[2021-02-22 16:49:48.987] $GPGGA,074948.60,3713.96134916,N,13701.56642436,E,4,07,1.4,93.219,M,36.771,M,2.6,0000*72
[2021-02-22 16:49:49.002] $GPVTG,329.88,T,338.33,M,0.04,N,0.07,K,D*25
[2021-02-22 16:49:49.081] $GPGGA,074948.70,3713.96134896,N,13701.56642519,E,4,07,1.4,93.223,M,36.771,M,2.7,0000*7E
[2021-02-22 16:49:49.081] $GPVTG,359.54,T,7.98,M,0.03,N,0.06,K,D*2B
[2021-02-22 16:49:49.190] $GPGGA,074948.80,3713.96134658,N,13701.56642354,E,4,07,1.4,93.218,M,36.771,M,2.8,0000*75
[2021-02-22 16:49:49.190] $GPVTG,357.98,T,6.43,M,0.02,N,0.03,K,D*26
[2021-02-22 16:49:49.284] $GPGGA,074948.90,3713.96134813,N,13701.56642213,E,4,07,1.4,93.217,M,36.771,M,2.9,0000*79
[2021-02-22 16:49:49.284] $GPVTG,320.19,T,328.64,M,0.04,N,0.08,K,D*28
[2021-02-22 16:49:49.393] $GPGGA,074949.00,3713.96134732,N,13701.56642440,E,4,07,1.4,93.217,M,36.771,M,3.0,0000*75
[2021-02-22 16:49:49.393] $GPVTG,326.72,T,335.17,M,0.03,N,0.05,K,D*21
[2021-02-22 16:49:49.471] $GPGGA,074949.10,3713.96134845,N,13701.56641975,E,4,07,1.4,93.216,M,36.771,M,3.1,0000*73
[2021-02-22 16:49:49.487] $GPVTG,303.71,T,312.16,M,0.07,N,0.13,K,D*22
[2021-02-22 16:49:49.581] $GPGGA,074949.20,3713.96134802,N,13701.56642503,E,4,07,1.4,93.203,M,36.771,M,2.2,0000*7B
[2021-02-22 16:49:49.596] $GPVTG,314.17,T,322.62,M,0.07,N,0.13,K,D*24
[2021-02-22 16:49:49.674] $GPGGA,074949.30,3713.96134725,N,13701.56642455,E,4,07,1.4,93.206,M,36.771,M,2.3,0000*76
[2021-02-22 16:49:49.690] $GPVTG,316.47,T,324.92,M,0.05,N,0.10,K,D*2B
[2021-02-22 16:49:49.784] $GPGGA,074949.40,3713.96134849,N,13701.56642391,E,4,07,1.4,93.207,M,36.771,M,2.4,0000*7D
[2021-02-22 16:49:49.799] $GPVTG,332.36,T,340.81,M,0.05,N,0.09,K,D*23
[2021-02-22 16:49:49.877] $GPGGA,074949.50,3713.96134902,N,13701.56642324,E,4,07,1.4,93.204,M,36.771,M,2.5,0000*7E
[2021-02-22 16:49:49.893] $GPVTG,320.78,T,329.22,M,0.06,N,0.10,K,D*27
[2021-02-22 16:49:49.987] $GPGGA,074949.60,3713.96135038,N,13701.56642274,E,4,07,1.4,93.200,M,36.771,M,2.6,0000*7F
[2021-02-22 16:49:50.002] $GPVTG,333.90,T,342.35,M,0.07,N,0.12,K,D*2B
[2021-02-22 16:49:50.081] $GPGGA,074949.70,3713.96134941,N,13701.56642416,E,4,07,1.4,93.200,M,36.771,M,2.7,0000*7B
[2021-02-22 16:49:50.081] $GPVTG,329.34,T,337.79,M,0.04,N,0.08,K,D*2C
[2021-02-22 16:49:50.190] $GPGGA,074949.80,3713.96134901,N,13701.56642395,E,4,07,1.4,93.201,M,36.771,M,2.8,0000*72
[2021-02-22 16:49:50.190] $GPVTG,347.72,T,356.17,M,0.03,N,0.06,K,D*20
[2021-02-22 16:49:50.284] $GPGGA,074949.90,3713.96134909,N,13701.56642451,E,4,07,1.4,93.202,M,36.771,M,2.9,0000*76
[2021-02-22 16:49:50.284] $GPVTG,7.30,T,15.75,M,0.03,N,0.06,K,D*11
[2021-02-22 16:49:50.393] $GPGGA,074950.00,3713.96134906,N,13701.56642470,E,4,07,1.4,93.199,M,36.771,M,3.0,0000*72
[2021-02-22 16:49:50.393] $GPVTG,349.62,T,358.07,M,0.03,N,0.05,K,D*23
[2021-02-22 16:49:50.471] $GPGGA,074950.10,3713.96134757,N,13701.56642507,E,4,07,1.4,93.203,M,36.771,M,3.1,0000*79
[2021-02-22 16:49:50.487] $GPVTG,35.12,T,43.57,M,0.03,N,0.05,K,D*20
[2021-02-22 16:49:50.581] $GPGGA,074950.20,3713.96134979,N,13701.56642594,E,4,07,1.4,93.207,M,36.771,M,2.2,0000*74
[2021-02-22 16:49:50.596] $GPVTG,44.39,T,52.84,M,0.04,N,0.08,K,D*2B
[2021-02-22 16:49:50.674] $GPGGA,074950.30,3713.96135096,N,13701.56642426,E,4,07,1.4,93.211,M,36.771,M,2.3,0000*72
[2021-02-22 16:49:50.690] $GPVTG,18.73,T,27.18,M,0.04,N,0.08,K,D*2B
[2021-02-22 16:49:50.784] $GPGGA,074950.40,3713.96135041,N,13701.56642819,E,4,07,1.4,93.208,M,36.771,M,2.4,0000*70
[2021-02-22 16:49:50.799] $GPVTG,30.85,T,39.30,M,0.07,N,0.12,K,D*25
[2021-02-22 16:49:50.877] $GPGGA,074950.50,3713.96135372,N,13701.56642453,E,4,07,1.4,93.209,M,36.771,M,2.5,0000*70
[2021-02-22 16:49:50.893] $GPVTG,6.56,T,15.01,M,0.09,N,0.17,K,D*19
[2021-02-22 16:49:50.987] $GPGGA,074950.60,3713.96135240,N,13701.56642699,E,4,07,1.4,93.195,M,36.771,M,2.6,0000*72
[2021-02-22 16:49:51.002] $GPVTG,359.49,T,7.94,M,0.08,N,0.14,K,D*23
[2021-02-22 16:49:51.080] $GPGGA,074950.70,3713.96134998,N,13701.56642796,E,4,07,1.4,93.215,M,36.771,M,2.7,0000*78
[2021-02-22 16:49:51.080] $GPVTG,24.04,T,32.49,M,0.05,N,0.09,K,D*24
[2021-02-22 16:49:51.190] $GPGGA,074950.80,3713.96135279,N,13701.56642452,E,4,07,1.4,93.205,M,36.771,M,2.8,0000*77
[2021-02-22 16:49:51.205] $GPVTG,358.91,T,7.36,M,0.05,N,0.10,K,D*26
[2021-02-22 16:49:51.284] $GPGGA,074950.90,3713.96135025,N,13701.56642428,E,4,07,1.4,93.211,M,36.771,M,2.9,0000*74
[2021-02-22 16:49:51.284] $GPVTG,359.08,T,7.53,M,0.03,N,0.06,K,D*25
[2021-02-22 16:49:51.393] $GPGGA,074951.00,3713.96135094,N,13701.56642623,E,4,07,1.4,93.202,M,36.771,M,3.0,0000*75
[2021-02-22 16:49:51.393] $GPVTG,0.42,T,8.87,M,0.03,N,0.05,K,D*21
[2021-02-22 16:49:51.471] $GPGGA,074951.10,3713.96135162,N,13701.56642519,E,4,07,1.4,93.206,M,36.771,M,3.1,0000*73
[2021-02-22 16:49:51.487] $GPVTG,358.98,T,7.43,M,0.05,N,0.08,K,D*24
[2021-02-22 16:49:51.580] $GPGGA,074951.20,3713.96134939,N,13701.56642525,E,4,07,1.4,93.206,M,36.771,M,2.2,0000*7A
[2021-02-22 16:49:51.596] $GPVTG,343.00,T,351.45,M,0.05,N,0.09,K,D*28
[2021-02-22 16:49:51.674] $GPGGA,074951.30,3713.96134950,N,13701.56642834,E,4,07,1.4,93.205,M,36.771,M,2.3,0000*7B
[2021-02-22 16:49:51.690] $GPVTG,6.61,T,15.06,M,0.04,N,0.07,K,D*16
[2021-02-22 16:49:51.784] $GPGGA,074951.40,3713.96134849,N,13701.56642599,E,4,07,1.4,93.199,M,36.771,M,2.4,0000*7E
[2021-02-22 16:49:51.799] $GPVTG,309.78,T,318.22,M,0.02,N,0.04,K,D*2F
[2021-02-22 16:49:51.877] $GPGGA,074951.50,3713.96134872,N,13701.56642362,E,4,07,1.4,93.198,M,36.771,M,2.5,0000*75
[2021-02-22 16:49:51.893] $GPVTG,319.84,T,328.29,M,0.03,N,0.06,K,D*26
[2021-02-22 16:49:51.987] $GPGGA,074951.60,3713.96134742,N,13701.56642299,E,4,07,1.4,93.200,M,36.771,M,2.6,0000*7E
[2021-02-22 16:49:52.002] $GPVTG,297.71,T,306.16,M,0.02,N,0.04,K,D*28
[2021-02-22 16:49:52.080] $GPGGA,074951.70,3713.96134891,N,13701.56642415,E,4,07,1.4,93.201,M,36.771,M,2.7,0000*7C
[2021-02-22 16:49:52.080] $GPVTG,5.25,T,13.70,M,0.03,N,0.05,K,D*17
