
[2021-02-22 14:26:47.674] $GNGGA,052631.50,,,,,0,00,99.99,,,,,,*7E
[2021-02-22 14:26:47.705] $GNGGA,052631.60,,,,,0,00,99.99,,,,,,*7D
[2021-02-22 14:26:47.705] $GNGGA,052631.70,,,,,0,00,99.99,,,,,,*7C
[2021-02-22 14:26:47.705] $GNGGA,052631.80,,,,,0,00,99.99,,,,,,*73
[2021-02-22 14:26:47.705] $GNGGA,052631.90,,,,,0,00,99.99,,,,,,*72
[2021-02-22 14:26:47.705] $GNGGA,052632.00,,,,,0,00,99.99,,,,,,*78
[2021-02-22 14:26:47.705] $GNGGA,052632.10,,,,,0,00,99.99,,,,,,*79
[2021-02-22 14:26:47.705] $GNGGA,052632.20,,,,,0,00,99.99,,,,,,*7A
[2021-02-22 14:26:47.705] $GNGGA,052632.30,,,,,0,00,99.99,,,,,,*7B
[2021-02-22 14:26:47.705] $GNGGA,052632.40,,,,,0,00,99.99,,,,,,*7C
[2021-02-22 14:26:47.705] $GNGGA,052632.50,,,,,0,00,99.99,,,,,,*7D
[2021-02-22 14:26:47.705] $GNGGA,052632.60,,,,,0,00,99.99,,,,,,*7E
[2021-02-22 14:26:47.705] $GNGGA,052632.70,,,,,0,00,99.99,,,,,,*7F
[2021-02-22 14:26:47.705] $GNGGA,052632.80,,,,,0,00,99.99,,,,,,*70
[2021-02-22 14:26:47.705] $GNGGA,052632.90,,,,,0,00,99.99,,,,,,*71
[2021-02-22 14:26:47.705] $GNGGA,052633.00,,,,,0,00,99.99,,,,,,*79
[2021-02-22 14:26:47.705] $GNGGA,052633.10,,,,,0,00,99.99,,,,,,*78
[2021-02-22 14:26:47.705] $GNGGA,052633.20,,,,,0,00,99.99,,,,,,*7B
[2021-02-22 14:26:47.705] $GNGGA,052633.30,,,,,0,00,99.99,,,,,,*7A
[2021-02-22 14:26:47.705] $GNGGA,052633.40,,,,,0,00,99.99,,,,,,*7D
[2021-02-22 14:26:47.705] $GNGGA,052633.50,,,,,0,00,99.99,,,,,,*7C
[2021-02-22 14:26:47.705] $GNGGA,052633.60,,,,,0,00,99.99,,,,,,*7F
[2021-02-22 14:26:47.705] $GNGGA,052633.70,,,,,0,00,99.99,,,,,,*7E
[2021-02-22 14:26:47.705] $GNGGA,052633.80,,,,,0,00,99.99,,,,,,*71
[2021-02-22 14:26:47.705] $GNGGA,052633.90,,,,,0,00,99.99,,,,,,*70
[2021-02-22 14:26:47.705] $GNGGA,052634.00,,,,,0,00,99.99,,,,,,*7E
[2021-02-22 14:26:47.721] $GNGGA,052634.10,,,,,0,00,99.99,,,,,,*7F
[2021-02-22 14:26:47.721] $GNGGA,052634.20,,,,,0,00,99.99,,,,,,*7C
[2021-02-22 14:26:47.721] $GNGGA,052634.30,,,,,0,00,99.99,,,,,,*7D
[2021-02-22 14:26:47.721] $GNGGA,052634.40,,,,,0,00,99.99,,,,,,*7A
[2021-02-22 14:26:47.721] $GNGGA,052634.50,,,,,0,00,99.99,,,,,,*7B
[2021-02-22 14:26:47.721] $GNGGA,052634.60,,,,,0,00,99.99,,,,,,*78
[2021-02-22 14:26:47.721] $GNGGA,052634.70,,,,,0,00,99.99,,,,,,*79
[2021-02-22 14:26:47.721] $GNGGA,052634.80,,,,,0,00,99.99,,,,,,*76
[2021-02-22 14:26:47.721] $GNGGA,052634.90,,,,,0,00,99.99,,,,,,*77
[2021-02-22 14:26:47.721] $GNGGA,052635.00,,,,,0,00,99.99,,,,,,*7F
[2021-02-22 14:26:47.721] $GNGGA,052635.10,,,,,0,00,99.99,,,,,,*7E
[2021-02-22 14:26:47.721] $GNGGA,052635.20,,,,,0,00,99.99,,,,,,*7D
[2021-02-22 14:26:47.721] $GNGGA,052635.30,,,,,0,00,99.99,,,,,,*7C
[2021-02-22 14:26:47.721] $GNGGA,052635.40,,,,,0,00,99.99,,,,,,*7B
[2021-02-22 14:26:47.721] $GNGGA,052635.50,,,,,0,00,99.99,,,,,,*7A
[2021-02-22 14:26:47.721] $GNGGA,052635.60,,,,,0,00,99.99,,,,,,*79
[2021-02-22 14:26:47.721] $GNGGA,052635.70,,,,,0,00,99.99,,,,,,*78
[2021-02-22 14:26:47.721] $GNGGA,052635.80,,,,,0,00,99.99,,,,,,*77
[2021-02-22 14:26:47.721] $GNGGA,052635.90,,,,,0,00,99.99,,,,,,*76
[2021-02-22 14:26:47.721] $GNGGA,052636.00,,,,,0,00,99.99,,,,,,*7C
[2021-02-22 14:26:47.721] $GNGGA,052636.10,,,,,0,00,99.99,,,,,,*7D
[2021-02-22 14:26:47.721] $GNGGA,052636.20,,,,,0,00,99.99,,,,,,*7E
[2021-02-22 14:26:47.721] $GNGGA,052636.30,,,,,0,00,99.99,,,,,,*7F
[2021-02-22 14:26:47.721] $GNGGA,052636.40,,,,,0,00,99.99,,,,,,*78
[2021-02-22 14:26:47.736] $GNGGA,052636.50,,,,,0,00,99.99,,,,,,*79
[2021-02-22 14:26:47.736] $GNGGA,052636.60,,,,,0,00,99.99,,,,,,*7A
[2021-02-22 14:26:47.736] $GNGGA,052636.70,,,,,0,00,99.99,,,,,,*7B
[2021-02-22 14:26:47.736] $GNGGA,052636.80,,,,,0,00,99.99,,,,,,*74
[2021-02-22 14:26:47.736] $GNGGA,052636.90,,,,,0,00,99.99,,,,,,*75
[2021-02-22 14:26:47.736] $GNGGA,052637.00,,,,,0,00,99.99,,,,,,*7D
[2021-02-22 14:26:47.736] $GNGGA,052637.10,,,,,0,00,99.99,,,,,,*7C
[2021-02-22 14:26:47.736] $GNGGA,052637.20,,,,,0,00,99.99,,,,,,*7F
[2021-02-22 14:26:47.736] $GNGGA,052637.30,,,,,0,00,99.99,,,,,,*7E
[2021-02-22 14:26:47.736] $GNGGA,052637.40,,,,,0,00,99.99,,,,,,*79
[2021-02-22 14:26:47.736] $GNGGA,052637.50,,,,,0,00,99.99,,,,,,*78
[2021-02-22 14:26:47.736] $GNGGA,052637.60,,,,,0,00,99.99,,,,,,*7B
[2021-02-22 14:26:47.736] $GNGGA,052637.70,,,,,0,00,99.99,,,,,,*7A
[2021-02-22 14:26:47.736] $GNGGA,052637.80,,,,,0,00,99.99,,,,,,*75
[2021-02-22 14:26:47.736] $GNGGA,052637.90,,,,,0,00,99.99,,,,,,*74
[2021-02-22 14:26:47.736] $GNGGA,052638.00,,,,,0,00,99.99,,,,,,*72
[2021-02-22 14:26:47.736] $GNGGA,052638.10,,,,,0,00,99.99,,,,,,*73
[2021-02-22 14:26:47.736] $GNGGA,052638.20,,,,,0,00,99.99,,,,,,*70
[2021-02-22 14:26:47.736] $GNGGA,052638.30,,,,,0,00,99.99,,,,,,*71
[2021-02-22 14:26:47.736] $GNGGA,052638.40,,,,,0,00,99.99,,,,,,*76
[2021-02-22 14:26:47.736] $GNGGA,052638.50,,,,,0,00,99.99,,,,,,*77
[2021-02-22 14:26:47.736] $GNGGA,052638.60,,,,,0,00,99.99,,,,,,*74
[2021-02-22 14:26:47.736] $GNGGA,052638.70,,,,,0,00,99.99,,,,,,*75
[2021-02-22 14:26:47.736] $GNGGA,052638.80,,,,,0,00,99.99,,,,,,*7A
[2021-02-22 14:26:47.752] $GNGGA,052638.90,,,,,0,00,99.99,,,,,,*7B
[2021-02-22 14:26:47.752] $GNGGA,052639.00,,,,,0,00,99.99,,,,,,*73
[2021-02-22 14:26:47.752] $GNGGA,052639.10,,,,,0,00,99.99,,,,,,*72
[2021-02-22 14:26:47.752] $GNGGA,052639.20,,,,,0,00,99.99,,,,,,*71
[2021-02-22 14:26:47.752] $GNGGA,052639.30,,,,,0,00,99.99,,,,,,*70
[2021-02-22 14:26:47.752] $GNGGA,052639.40,,,,,0,00,99.99,,,,,,*77
[2021-02-22 14:26:47.752] $GNGGA,052639.50,,,,,0,00,99.99,,,,,,*76
[2021-02-22 14:26:47.752] $GNGGA,052639.60,,,,,0,00,99.99,,,,,,*75
[2021-02-22 14:26:47.752] $GNGGA,052639.70,,,,,0,00,99.99,,,,,,*74
[2021-02-22 14:26:47.752] $GNGGA,052639.80,,,,,0,00,99.99,,,,,,*7B
[2021-02-22 14:26:47.752] $GNGGA,052639.90,,,,,0,00,99.99,,,,,,*7A
[2021-02-22 14:26:47.752] $GNGGA,052640.00,,,,,0,00,99.99,,,,,,*7D
[2021-02-22 14:26:47.752] $GNGGA,052640.10,,,,,0,00,99.99,,,,,,*7C
[2021-02-22 14:26:47.752] $GNGGA,052640.20,,,,,0,00,99.99,,,,,,*7F
[2021-02-22 14:26:47.752] $GNGGA,052640.30,,,,,0,00,99.99,,,,,,*7E
[2021-02-22 14:26:47.752] $GNGGA,052640.40,,,,,0,00,99.99,,,,,,*79
[2021-02-22 14:26:47.752] $GNGGA,052640.50,,,,,0,00,99.99,,,,,,*78
[2021-02-22 14:26:47.752] $GNGGA,052640.60,,,,,0,00,99.99,,,,,,*7B
[2021-02-22 14:26:47.752] $GNGGA,052640.70,,,,,0,00,99.99,,,,,,*7A
[2021-02-22 14:26:47.752] $GNGGA,052640.80,,,,,0,00,99.99,,,,,,*75
[2021-02-22 14:26:47.752] $GNGGA,052640.90,,,,,0,00,99.99,,,,,,*74
[2021-02-22 14:26:47.752] $GNGGA,052641.00,,,,,0,00,99.99,,,,,,*7C
[2021-02-22 14:26:47.752] $GNGGA,052641.10,,,,,0,00,99.99,,,,,,*7D
[2021-02-22 14:26:47.752] $GNGGA,052641.20,,,,,0,00,99.99,,,,,,*7E
[2021-02-22 14:26:47.768] $GNGGA,052641.30,,,,,0,00,99.99,,,,,,*7F
[2021-02-22 14:26:47.768] $GNGGA,052641.40,,,,,0,00,99.99,,,,,,*78
[2021-02-22 14:26:47.768] $GNGGA,052641.50,,,,,0,00,99.99,,,,,,*79
[2021-02-22 14:26:47.768] $GNGGA,052641.60,,,,,0,00,99.99,,,,,,*7A
[2021-02-22 14:26:47.768] $GNGGA,052641.70,,,,,0,00,99.99,,,,,,*7B
[2021-02-22 14:26:47.768] $GNGGA,052641.80,,,,,0,00,99.99,,,,,,*74
[2021-02-22 14:26:47.768] $GNGGA,052641.90,,,,,0,00,99.99,,,,,,*75
[2021-02-22 14:26:47.768] $GNGGA,052642.00,,,,,0,00,99.99,,,,,,*7F
[2021-02-22 14:26:47.768] $GNGGA,052642.10,,,,,0,00,99.99,,,,,,*7E
[2021-02-22 14:26:47.768] $GNGGA,052642.20,,,,,0,00,99.99,,,,,,*7D
[2021-02-22 14:26:47.768] $GNGGA,052642.30,,,,,0,00,99.99,,,,,,*7C
[2021-02-22 14:26:47.768] $GNGGA,052642.40,,,,,0,00,99.99,,,,,,*7B
[2021-02-22 14:26:47.768] $GNGGA,052642.50,,,,,0,00,99.99,,,,,,*7A
[2021-02-22 14:26:47.768] $GNGGA,052642.60,,,,,0,00,99.99,,,,,,*79
[2021-02-22 14:26:47.768] $GNGGA,052642.70,,,,,0,00,99.99,,,,,,*78
[2021-02-22 14:26:47.768] $GNGGA,052642.80,,,,,0,00,99.99,,,,,,*77
[2021-02-22 14:26:47.768] $GNGGA,052642.90,,,,,0,00,99.99,,,,,,*76
[2021-02-22 14:26:47.768] $GNGGA,052643.00,,,,,0,00,99.99,,,,,,*7E
[2021-02-22 14:26:47.768] $GNGGA,052643.10,,,,,0,00,99.99,,,,,,*7F
[2021-02-22 14:26:47.768] $GNGGA,052643.20,,,,,0,00,99.99,,,,,,*7C
[2021-02-22 14:26:47.768] $GNGGA,052643.30,,,,,0,00,99.99,,,,,,*7D
[2021-02-22 14:26:47.768] $GNGGA,052643.40,,,,,0,00,99.99,,,,,,*7A
[2021-02-22 14:26:47.768] $GNGGA,052643.50,,,,,0,00,99.99,,,,,,*7B
[2021-02-22 14:26:47.768] $GNGGA,052643.60,,,,,0,00,99.99,,,,,,*78
[2021-02-22 14:26:47.783] $GNGGA,052643.70,,,,,0,00,99.99,,,,,,*79
[2021-02-22 14:26:47.783] $GNGGA,052643.80,,,,,0,00,99.99,,,,,,*76
[2021-02-22 14:26:47.783] $GNGGA,052643.90,,,,,0,00,99.99,,,,,,*77
[2021-02-22 14:26:47.783] $GNGGA,052644.00,,,,,0,00,99.99,,,,,,*79
[2021-02-22 14:26:47.783] $GNGGA,052644.10,,,,,0,00,99.99,,,,,,*78
[2021-02-22 14:26:47.783] $GNGGA,052644.20,,,,,0,00,99.99,,,,,,*7B
[2021-02-22 14:26:47.783] $GNGGA,052644.30,,,,,0,00,99.99,,,,,,*7A
[2021-02-22 14:26:47.783] $GNGGA,052644.40,,,,,0,00,99.99,,,,,,*7D
[2021-02-22 14:26:47.783] $GNGGA,052644.50,,,,,0,00,99.99,,,,,,*7C
[2021-02-22 14:26:47.783] $GNGGA,052644.60,,,,,0,00,99.99,,,,,,*7F
[2021-02-22 14:26:47.783] $GNGGA,052644.70,,,,,0,00,99.99,,,,,,*7E
[2021-02-22 14:26:47.783] $GNGGA,052644.80,,,,,0,00,99.99,,,,,,*71
[2021-02-22 14:26:47.783] $GNGGA,052644.90,,,,,0,00,99.99,,,,,,*70
[2021-02-22 14:26:47.783] $GNGGA,052645.00,,,,,0,00,99.99,,,,,,*78
[2021-02-22 14:26:47.783] $GNGGA,052645.10,,,,,0,00,99.99,,,,,,*79
[2021-02-22 14:26:47.783] $GNGGA,052645.20,,,,,0,00,99.99,,,,,,*7A
[2021-02-22 14:26:47.783] $GNGGA,052645.30,,,,,0,00,99.99,,,,,,*7B
[2021-02-22 14:26:47.783] $GNGGA,052645.40,,,,,0,00,99.99,,,,,,*7C
[2021-02-22 14:26:47.783] $GNGGA,052645.50,,,,,0,00,99.99,,,,,,*7D
[2021-02-22 14:26:47.783] $GNGGA,052645.60,,,,,0,00,99.99,,,,,,*7E
[2021-02-22 14:26:47.783] $GNGGA,052645.70,,,,,0,00,99.99,,,,,,*7F
[2021-02-22 14:26:47.783] $GNGGA,052645.80,,,,,0,00,99.99,,,,,,*70
[2021-02-22 14:26:47.783] $GNGGA,052645.90,,,,,0,00,99.99,,,,,,*71
[2021-02-22 14:26:47.783] $GNGGA,052646.00,,,,,0,00,99.99,,,,,,*7B
[2021-02-22 14:26:47.783] $GNGGA,052646.10,,,,,0,00,99.99,,,,,,*7A
[2021-02-22 14:26:47.783] $GNGGA,052646.20,,,,,0,00,99.99,,,,,,*79
[2021-02-22 14:26:47.783] $GNGGA,052646.30,,,,,0,00,99.99,,,,,,*78
[2021-02-22 14:26:47.783] $GNGGA,052646.40,,,,,0,00,99.99,,,,,,*7F
[2021-02-22 14:26:47.783] $GNGGA,052646.50,,,,,0,00,99.99,,,,,,*7E
[2021-02-22 14:26:47.783] $GNGGA,052646.60,,,,,0,00,99.99,,,,,,*7D
[2021-02-22 14:26:47.783] $GNGGA,052646.70,,,,,0,00,99.99,,,,,,*7C
[2021-02-22 14:26:47.783] $GNGGA,052646.80,,,,,0,00,99.99,,,,,,*73
[2021-02-22 14:26:47.783] $GNGGA,052646.90,,,,,0,00,99.99,,,,,,*72
[2021-02-22 14:26:47.783] $GNGGA,052647.00,,,,,0,00,99.99,,,,,,*7A
[2021-02-22 14:26:47.783] $GNGGA,052647.10,,,,,0,00,99.99,,,,,,*7B
[2021-02-22 14:26:47.783] $GNGGA,052647.20,,,,,0,00,99.99,,,,,,*78
[2021-02-22 14:26:47.783] $GNGGA,052647.30,,,,,0,00,99.99,,,,,,*79
[2021-02-22 14:26:47.783] $GNGGA,052647.40,,,,,0,00,99.99,,,,,,*7E
[2021-02-22 14:26:47.783] $GNGGA,052647.50,,,,,0,00,99.99,,,,,,*7F
[2021-02-22 14:26:47.783] $GNGGA,052647.60,,,,,0,00,99.99,,,,,,*7C
[2021-02-22 14:26:47.783] $GNGGA,052647.70,,,,,0,00,99.99,,,,,,*7D
[2021-02-22 14:26:47.783] $GNGGA,052647.80,,,,,0,00,99.99,,,,,,*72
[2021-02-22 14:26:47.830] $GNGGA,052647.90,,,,,0,00,99.99,,,,,,*73
[2021-02-22 14:26:47.924] $GNGGA,052648.00,,,,,0,00,99.99,,,,,,*75
[2021-02-22 14:26:48.018] $GNGGA,052648.10,,,,,0,00,99.99,,,,,,*74
[2021-02-22 14:26:48.127] $GNGGA,052648.20,,,,,0,00,99.99,,,,,,*77
[2021-02-22 14:26:48.221] $GNGGA,052648.30,,,,,0,00,99.99,,,,,,*76
[2021-02-22 14:26:48.315] $GNGGA,052648.40,,,,,0,00,99.99,,,,,,*71
[2021-02-22 14:26:48.408] $GNGGA,052648.50,,,,,0,00,99.99,,,,,,*70
[2021-02-22 14:26:48.533] $GNGGA,052648.60,,,,,0,00,99.99,,,,,,*73
[2021-02-22 14:26:48.627] $GNGGA,052648.70,,,,,0,00,99.99,,,,,,*72
[2021-02-22 14:26:48.721] $GNGGA,052648.80,,,,,0,00,99.99,,,,,,*7D
[2021-02-22 14:26:48.815] $GNGGA,052648.90,,,,,0,00,99.99,,,,,,*7C
[2021-02-22 14:26:48.924] $GNGGA,052649.00,,,,,0,00,99.99,,,,,,*74
[2021-02-22 14:26:49.018] $GNGGA,052649.10,,,,,0,00,99.99,,,,,,*75
[2021-02-22 14:26:49.127] $GNGGA,052649.20,,,,,0,00,99.99,,,,,,*76
[2021-02-22 14:26:49.221] $GNGGA,052649.30,,,,,0,00,99.99,,,,,,*77
[2021-02-22 14:26:49.330] $GNGGA,052649.40,,,,,0,00,99.99,,,,,,*70
[2021-02-22 14:26:49.424] $GNGGA,052649.50,,,,,0,00,99.99,,,,,,*71
[2021-02-22 14:26:49.518] $GNGGA,052649.60,,,,,0,00,99.99,,,,,,*72
[2021-02-22 14:26:49.611] $GNGGA,052649.70,,,,,0,00,99.99,,,,,,*73
[2021-02-22 14:26:49.721] $GNGGA,052649.80,,,,,0,00,99.99,,,,,,*7C
[2021-02-22 14:26:49.830] $GNGGA,052649.90,,,,,0,00,99.99,,,,,,*7D
[2021-02-22 14:26:49.924] $GNGGA,052650.00,,,,,0,00,99.99,,,,,,*7C
[2021-02-22 14:26:50.018] $GNGGA,052650.10,,,,,0,00,99.99,,,,,,*7D
[2021-02-22 14:26:50.127] $GNGGA,052650.20,,,,,0,00,99.99,,,,,,*7E
[2021-02-22 14:26:50.221] $GNGGA,052650.30,,,,,0,00,99.99,,,,,,*7F
[2021-02-22 14:26:50.314] $GNGGA,052650.40,,,,,0,00,99.99,,,,,,*78
[2021-02-22 14:26:50.408] $GNGGA,052650.50,,,,,0,00,99.99,,,,,,*79
[2021-02-22 14:26:50.533] $GNGGA,052650.60,,,,,0,00,99.99,,,,,,*7A
[2021-02-22 14:26:50.627] $GNGGA,052650.70,,,,,0,00,99.99,,,,,,*7B
[2021-02-22 14:26:50.721] $GNGGA,052650.80,,,,,0,00,99.99,,,,,,*74
[2021-02-22 14:26:50.814] $GNGGA,052650.90,,,,,0,00,99.99,,,,,,*75
[2021-02-22 14:26:50.924] $GNGGA,052651.00,,,,,0,00,99.99,,,,,,*7D
[2021-02-22 14:26:51.018] $GNGGA,052651.10,,,,,0,00,99.99,,,,,,*7C
[2021-02-22 14:26:51.111] $GNGGA,052651.20,,,,,0,00,99.99,,,,,,*7F
[2021-02-22 14:26:51.221] $GNGGA,052651.30,,,,,0,00,99.99,,,,,,*7E
[2021-02-22 14:26:51.330] $GNGGA,052651.40,,,,,0,00,99.99,,,,,,*79
[2021-02-22 14:26:51.424] $GNGGA,052651.50,,,,,0,00,99.99,,,,,,*78
[2021-02-22 14:26:51.517] $GNGGA,052651.60,,,,,0,00,99.99,,,,,,*7B
[2021-02-22 14:26:51.611] $GNGGA,052651.70,,,,,0,00,99.99,,,,,,*7A
[2021-02-22 14:26:51.721] $GNGGA,052651.80,,,,,0,00,99.99,,,,,,*75
[2021-02-22 14:26:51.830] $GNGGA,052651.90,,,,,0,00,99.99,,,,,,*74
[2021-02-22 14:26:51.924] $GNGGA,052652.00,,,,,0,00,99.99,,,,,,*7E
[2021-02-22 14:26:52.017] $GNGGA,052652.10,,,,,0,00,99.99,,,,,,*7F
[2021-02-22 14:26:52.127] $GNGGA,052652.20,,,,,0,00,99.99,,,,,,*7C
[2021-02-22 14:26:52.221] $GNGGA,052652.30,,,,,0,00,99.99,,,,,,*7D
[2021-02-22 14:26:52.314] $GNGGA,052652.40,,,,,0,00,99.99,,,,,,*7A
[2021-02-22 14:26:52.408] $GNGGA,052652.50,,,,,0,00,99.99,,,,,,*7B
[2021-02-22 14:26:52.533] $GNGGA,052652.60,,,,,0,00,99.99,,,,,,*78
[2021-02-22 14:26:52.627] $GNGGA,052652.70,,,,,0,00,99.99,,,,,,*79
[2021-02-22 14:26:52.721] $GNGGA,052652.80,,,,,0,00,99.99,,,,,,*76
[2021-02-22 14:26:52.814] $GNGGA,052652.90,,,,,0,00,99.99,,,,,,*77
[2021-02-22 14:26:52.924] $GNGGA,052653.00,,,,,0,00,99.99,,,,,,*7F
[2021-02-22 14:26:53.017] $GNGGA,052653.10,,,,,0,00,99.99,,,,,,*7E
[2021-02-22 14:26:53.111] $GNGGA,052653.20,,,,,0,00,99.99,,,,,,*7D
[2021-02-22 14:26:53.220] $GNGGA,052653.30,,,,,0,00,99.99,,,,,,*7C
[2021-02-22 14:26:53.330] $GNGGA,052653.40,,,,,0,00,99.99,,,,,,*7B
[2021-02-22 14:26:53.424] $GNGGA,052653.50,,,,,0,00,99.99,,,,,,*7A
[2021-02-22 14:26:53.517] $GNGGA,052653.60,,,,,0,00,99.99,,,,,,*79
[2021-02-22 14:26:53.611] $GNGGA,052653.70,,,,,0,00,99.99,,,,,,*78
[2021-02-22 14:26:53.720] $GNGGA,052653.80,,,,,0,00,99.99,,,,,,*77
[2021-02-22 14:26:53.814] $GNGGA,052653.90,,,,,0,00,99.99,,,,,,*76
[2021-02-22 14:26:53.924] $GNGGA,052654.00,,,,,0,00,99.99,,,,,,*78
[2021-02-22 14:26:54.017] $GNGGA,052654.10,,,,,0,00,99.99,,,,,,*79
[2021-02-22 14:26:54.127] $GNGGA,052654.20,,,,,0,00,99.99,,,,,,*7A
[2021-02-22 14:26:54.220] $GNGGA,052654.30,,,,,0,00,99.99,,,,,,*7B
[2021-02-22 14:26:54.314] $GNGGA,052654.40,,,,,0,00,99.99,,,,,,*7C
[2021-02-22 14:26:54.408] $GNGGA,052654.50,,,,,0,00,99.99,,,,,,*7D
[2021-02-22 14:26:54.533] $GNGGA,052654.60,,,,,0,00,99.99,,,,,,*7E
[2021-02-22 14:26:54.627] $GNGGA,052654.70,,,,,0,00,99.99,,,,,,*7F
[2021-02-22 14:26:54.720] $GNGGA,052654.80,,,,,0,00,99.99,,,,,,*70
[2021-02-22 14:26:54.814] $GNGGA,052654.90,,,,,0,00,99.99,,,,,,*71
[2021-02-22 14:26:54.923] $GNGGA,052655.00,,,,,0,00,99.99,,,,,,*79
[2021-02-22 14:26:55.017] $GNGGA,052655.10,,,,,0,00,99.99,,,,,,*78
[2021-02-22 14:26:55.111] $GNGGA,052655.20,,,,,0,00,99.99,,,,,,*7B
[2021-02-22 14:26:55.220] $GNGGA,052655.30,,,,,0,00,99.99,,,,,,*7A
[2021-02-22 14:26:55.330] $GNGGA,052655.40,,,,,0,00,99.99,,,,,,*7D
[2021-02-22 14:26:55.423] $GNGGA,052655.50,,,,,0,00,99.99,,,,,,*7C
[2021-02-22 14:26:55.517] $GNGGA,052655.60,,,,,0,00,99.99,,,,,,*7F
[2021-02-22 14:26:55.611] $GNGGA,052655.70,,,,,0,00,99.99,,,,,,*7E
[2021-02-22 14:26:55.720] $GNGGA,052655.80,,,,,0,00,99.99,,,,,,*71
[2021-02-22 14:26:55.814] $GNGGA,052655.90,,,,,0,00,99.99,,,,,,*70
[2021-02-22 14:26:55.923] $GNGGA,052656.00,,,,,0,00,99.99,,,,,,*7A
[2021-02-22 14:26:56.017] $GNGGA,052656.10,,,,,0,00,99.99,,,,,,*7B
[2021-02-22 14:26:56.126] $GNGGA,052656.20,,,,,0,00,99.99,,,,,,*78
[2021-02-22 14:26:56.220] $GNGGA,052656.30,,,,,0,00,99.99,,,,,,*79
[2021-02-22 14:26:56.314] $GNGGA,052656.40,,,,,0,00,99.99,,,,,,*7E
[2021-02-22 14:26:56.423] $GNGGA,052656.50,,,,,0,00,99.99,,,,,,*7F
[2021-02-22 14:26:56.517] $GNGGA,052656.60,,,,,0,00,99.99,,,,,,*7C
[2021-02-22 14:26:56.626] $GNGGA,052656.70,,,,,0,00,99.99,,,,,,*7D
[2021-02-22 14:26:56.720] $GNGGA,052656.80,,,,,0,00,99.99,,,,,,*72
[2021-02-22 14:26:56.830] $GNGGA,052656.90,,,,,0,00,99.99,,,,,,*73
[2021-02-22 14:26:56.923] $GNGGA,052657.00,,,,,0,00,99.99,,,,,,*7B
[2021-02-22 14:26:57.017] $GNGGA,052657.10,,,,,0,00,99.99,,,,,,*7A
[2021-02-22 14:26:57.111] $GNGGA,052657.20,,,,,0,00,99.99,,,,,,*79
[2021-02-22 14:26:57.236] $GNGGA,052657.30,,,,,0,00,99.99,,,,,,*78
[2021-02-22 14:26:57.330] $GNGGA,052657.40,,,,,0,00,99.99,,,,,,*7F
[2021-02-22 14:26:57.439] $GNGGA,052657.50,3713.972056000,N,13701.490688000,E,1,14,0.73,88.491,M,37.566,M,,*7E
[2021-02-22 14:26:57.517] $GNGGA,052657.60,3713.972194000,N,13701.490532000,E,1,16,0.66,87.620,M,37.566,M,,*71
[2021-02-22 14:26:57.611] $GNGGA,052657.70,3713.972116000,N,13701.490400000,E,1,16,0.65,86.833,M,37.566,M,,*74
[2021-02-22 14:26:57.720] $GNGGA,052657.80,3713.972116000,N,13701.490400000,E,1,17,0.60,86.510,M,37.566,M,,*73
[2021-02-22 14:26:57.830] $GNGGA,052657.90,3713.972074000,N,13701.490376000,E,1,17,0.60,86.470,M,37.566,M,,*76
[2021-02-22 14:26:57.908] $GNGGA,052658.00,3713.972074000,N,13701.490364000,E,1,17,0.60,86.292,M,37.566,M,,*79
[2021-02-22 14:26:58.017] $GNGGA,052658.10,3713.972062000,N,13701.490322000,E,1,17,0.60,86.285,M,37.566,M,,*7B
[2021-02-22 14:26:58.111] $GNGGA,052658.20,3713.972074000,N,13701.490292000,E,1,17,0.60,86.267,M,37.566,M,,*79
[2021-02-22 14:26:58.236] $GNGGA,052658.30,3713.972044000,N,13701.490340000,E,1,17,0.60,86.324,M,37.566,M,,*73
[2021-02-22 14:26:58.314] $GNGGA,052658.40,3713.972020000,N,13701.490358000,E,1,17,0.60,86.543,M,37.566,M,,*78
[2021-02-22 14:26:58.408] $GNGGA,052658.50,3713.971972000,N,13701.490454000,E,1,17,0.60,86.693,M,37.566,M,,*71
[2021-02-22 14:26:58.517] $GNGGA,052658.60,3713.971912000,N,13701.490430000,E,1,17,0.60,87.049,M,37.566,M,,*76
[2021-02-22 14:26:58.626] $GNGGA,052658.70,3713.971864000,N,13701.490454000,E,1,17,0.60,87.346,M,37.566,M,,*79
[2021-02-22 14:26:58.720] $GNGGA,052658.80,3713.971816000,N,13701.490424000,E,1,17,0.59,87.674,M,37.566,M,,*7A
[2021-02-22 14:26:58.814] $GNGGA,052658.90,3713.971792000,N,13701.490430000,E,1,17,0.59,87.875,M,37.566,M,,*72
[2021-02-22 14:26:58.923] $GNGGA,052659.00,3713.971774000,N,13701.490418000,E,1,17,0.59,88.006,M,37.566,M,,*7B
[2021-02-22 14:26:59.033] $GNGGA,052659.10,3713.971756000,N,13701.490412000,E,1,17,0.59,88.158,M,37.566,M,,*7A
[2021-02-22 14:26:59.111] $GNGGA,052659.20,3713.971720000,N,13701.490400000,E,1,17,0.59,88.211,M,37.566,M,,*75
[2021-02-22 14:26:59.220] $GNGGA,052659.30,3713.971708000,N,13701.490388000,E,1,17,0.59,88.272,M,37.566,M,,*7C
[2021-02-22 14:26:59.314] $GNGGA,052659.40,3713.971672000,N,13701.490346000,E,1,17,0.59,88.209,M,37.566,M,,*79
[2021-02-22 14:26:59.439] $GNGGA,052659.50,3713.971642000,N,13701.490334000,E,1,17,0.59,88.089,M,37.566,M,,*74
[2021-02-22 14:26:59.517] $GNGGA,052659.60,3713.971594000,N,13701.490340000,E,1,17,0.59,88.002,M,37.566,M,,*7F
[2021-02-22 14:26:59.611] $GNGGA,052659.70,3713.971552000,N,13701.490346000,E,1,17,0.59,87.918,M,37.566,M,,*7F
[2021-02-22 14:26:59.736] $GNGGA,052659.80,3713.971528000,N,13701.490358000,E,1,17,0.59,87.914,M,37.566,M,,*7E
[2021-02-22 14:26:59.814] $GNGGA,052659.90,3713.971504000,N,13701.490370000,E,1,17,0.59,87.846,M,37.566,M,,*7D
[2021-02-22 14:26:59.923] $GNGGA,052700.00,3713.971486000,N,13701.490382000,E,1,17,0.59,87.805,M,37.566,M,,*78
[2021-02-22 14:27:00.017] $GNGGA,052700.10,3713.971462000,N,13701.490394000,E,1,17,0.59,87.809,M,37.566,M,,*78
[2021-02-22 14:27:00.142] $GNGGA,052700.20,3713.971444000,N,13701.490394000,E,1,17,0.59,87.856,M,37.566,M,,*75
[2021-02-22 14:27:00.220] $GNGGA,052700.30,3713.971432000,N,13701.490394000,E,1,17,0.59,87.859,M,37.566,M,,*7A
[2021-02-22 14:27:00.314] $GNGGA,052700.40,3713.971420000,N,13701.490388000,E,1,17,0.59,87.849,M,37.566,M,,*72
[2021-02-22 14:27:00.423] $GNGGA,052700.50,3713.971402000,N,13701.490376000,E,1,17,0.59,87.839,M,37.566,M,,*75
[2021-02-22 14:27:00.532] $GNGGA,052700.60,3713.971390000,N,13701.490370000,E,1,17,0.59,87.822,M,37.566,M,,*76
[2021-02-22 14:27:00.611] $GNGGA,052700.70,3713.971384000,N,13701.490364000,E,1,17,0.59,87.829,M,37.566,M,,*7C
[2021-02-22 14:27:00.720] $GNGGA,052700.80,3713.971384000,N,13701.490352000,E,1,17,0.59,87.827,M,37.566,M,,*78
[2021-02-22 14:27:00.814] $GNGGA,052700.90,3713.971384000,N,13701.490334000,E,1,17,0.59,87.818,M,37.566,M,,*75
[2021-02-22 14:27:00.939] $GNGGA,052701.00,3713.971390000,N,13701.490322000,E,1,17,0.59,87.825,M,37.566,M,,*71
[2021-02-22 14:27:01.017] $GNGGA,052701.10,3713.971396000,N,13701.490304000,E,1,17,0.59,87.854,M,37.566,M,,*74
[2021-02-22 14:27:01.111] $GNGGA,052701.20,3713.971402000,N,13701.490286000,E,1,17,0.59,87.882,M,37.566,M,,*7D
[2021-02-22 14:27:01.220] $GNGGA,052701.30,3713.971408000,N,13701.490268000,E,1,17,0.59,87.910,M,37.566,M,,*7C
[2021-02-22 14:27:01.329] $GNGGA,052701.40,3713.971414000,N,13701.490250000,E,1,17,0.59,87.951,M,37.566,M,,*78
[2021-02-22 14:27:01.407] $GNGGA,052701.50,3713.971420000,N,13701.490232000,E,1,17,0.59,87.991,M,37.566,M,,*76
[2021-02-22 14:27:01.517] $GNGGA,052701.60,3713.971432000,N,13701.490220000,E,1,17,0.59,88.020,M,37.566,M,,*79
[2021-02-22 14:27:01.611] $GNGGA,052701.70,3713.971432000,N,13701.490202000,E,1,17,0.55,88.043,M,37.566,M,,*71
[2021-02-22 14:27:01.735] $GNGGA,052701.80,3713.971438000,N,13701.490184000,E,1,17,0.55,88.060,M,37.566,M,,*78
[2021-02-22 14:27:01.814] $GNGGA,052701.90,3713.971444000,N,13701.490178000,E,1,17,0.55,88.072,M,37.566,M,,*72
[2021-02-22 14:27:01.907] $GNGGA,052702.00,3713.971444000,N,13701.490166000,E,1,17,0.55,88.091,M,37.566,M,,*7A
[2021-02-22 14:27:02.017] $GNGGA,052702.10,3713.971450000,N,13701.490154000,E,1,17,0.55,88.103,M,37.566,M,,*75
[2021-02-22 14:27:02.142] $GNGGA,052702.20,3713.971450000,N,13701.490148000,E,1,17,0.55,88.111,M,37.566,M,,*78
[2021-02-22 14:27:02.220] $GNGGA,052702.30,3713.971450000,N,13701.490136000,E,1,17,0.55,88.118,M,37.566,M,,*79
[2021-02-22 14:27:02.314] $GNGGA,052702.40,3713.971450000,N,13701.490130000,E,1,17,0.55,88.122,M,37.566,M,,*71
[2021-02-22 14:27:02.423] $GNGGA,052702.50,3713.971456000,N,13701.490118000,E,1,17,0.55,88.111,M,37.566,M,,*7C
[2021-02-22 14:27:02.532] $GNGGA,052702.60,3713.971456000,N,13701.490112000,E,1,17,0.55,88.103,M,37.566,M,,*76
[2021-02-22 14:27:02.610] $GNGGA,052702.70,3713.971456000,N,13701.490106000,E,1,17,0.55,88.086,M,37.566,M,,*7E
[2021-02-22 14:27:02.720] $GNGGA,052702.80,3713.971462000,N,13701.490100000,E,1,17,0.55,88.069,M,37.566,M,,*71
[2021-02-22 14:27:02.814] $GNGGA,052702.90,3713.971462000,N,13701.490088000,E,1,17,0.55,88.047,M,37.566,M,,*7D
[2021-02-22 14:27:02.939] $GNGGA,052703.00,3713.971468000,N,13701.490088000,E,1,17,0.55,88.030,M,37.566,M,,*7F
[2021-02-22 14:27:03.017] $GNGGA,052703.10,3713.971468000,N,13701.490082000,E,1,17,0.55,88.009,M,37.566,M,,*7E
[2021-02-22 14:27:03.110] $GNGGA,052703.20,3713.971468000,N,13701.490076000,E,1,17,0.55,87.996,M,37.566,M,,*76
[2021-02-22 14:27:03.220] $GNGGA,052703.30,3713.971474000,N,13701.490064000,E,1,17,0.55,87.978,M,37.566,M,,*79
[2021-02-22 14:27:03.329] $GNGGA,052703.40,3713.971474000,N,13701.490058000,E,1,17,0.55,87.966,M,37.566,M,,*7E
[2021-02-22 14:27:03.407] $GNGGA,052703.50,3713.971480000,N,13701.490052000,E,1,17,0.55,87.953,M,37.566,M,,*78
[2021-02-22 14:27:03.517] $GNGGA,052703.60,3713.971480000,N,13701.490046000,E,1,17,0.55,87.942,M,37.566,M,,*7E
[2021-02-22 14:27:03.642] $GNGGA,052703.70,3713.971480000,N,13701.490040000,E,1,17,0.55,87.926,M,37.566,M,,*7B
[2021-02-22 14:27:03.720] $GNGGA,052703.80,3713.971486000,N,13701.490034000,E,1,17,0.55,87.913,M,37.566,M,,*77
[2021-02-22 14:27:03.813] $GNGGA,052703.90,3713.971486000,N,13701.490028000,E,1,17,0.55,87.901,M,37.566,M,,*78
[2021-02-22 14:27:03.938] $GNGGA,052704.00,3713.971492000,N,13701.490022000,E,1,17,0.55,87.889,M,37.566,M,,*78
[2021-02-22 14:27:04.017] $GNGGA,052704.10,3713.971492000,N,13701.490016000,E,1,17,0.55,87.873,M,37.566,M,,*7B
[2021-02-22 14:27:04.110] $GNGGA,052704.20,3713.971492000,N,13701.490016000,E,1,17,0.55,87.862,M,37.566,M,,*78
[2021-02-22 14:27:04.220] $GNGGA,052704.30,3713.971498000,N,13701.490010000,E,1,17,0.55,87.847,M,37.566,M,,*72
[2021-02-22 14:27:04.345] $GNGGA,052704.40,3713.971498000,N,13701.490004000,E,1,17,0.55,87.834,M,37.566,M,,*74
[2021-02-22 14:27:04.407] $GNGGA,052704.50,3713.971504000,N,13701.490004000,E,1,17,0.55,87.821,M,37.566,M,,*75
[2021-02-22 14:27:04.517] $GNGGA,052704.60,3713.971504000,N,13701.489998000,E,1,17,0.55,87.804,M,37.566,M,,*75
[2021-02-22 14:27:04.610] $GNGGA,052704.70,3713.971504000,N,13701.489992000,E,1,17,0.55,87.791,M,37.566,M,,*7D
[2021-02-22 14:27:04.735] $GNGGA,052704.80,3713.971510000,N,13701.489992000,E,1,17,0.55,87.779,M,37.566,M,,*71
[2021-02-22 14:27:04.813] $GNGGA,052704.90,3713.971510000,N,13701.489986000,E,1,17,0.55,87.768,M,37.566,M,,*75
[2021-02-22 14:27:04.923] $GNGGA,052705.00,3713.971510000,N,13701.489980000,E,1,17,0.55,87.757,M,37.566,M,,*77
[2021-02-22 14:27:05.017] $GNGGA,052705.10,3713.971516000,N,13701.489980000,E,1,17,0.55,87.743,M,37.566,M,,*75
[2021-02-22 14:27:05.141] $GNGGA,052705.20,3713.971516000,N,13701.489974000,E,1,17,0.55,87.733,M,37.566,M,,*7A
[2021-02-22 14:27:05.220] $GNGGA,052705.30,3713.971516000,N,13701.489968000,E,1,17,0.55,87.721,M,37.566,M,,*75
[2021-02-22 14:27:05.313] $GNGGA,052705.40,3713.971522000,N,13701.489968000,E,1,17,0.55,87.715,M,37.566,M,,*72
[2021-02-22 14:27:05.423] $GNGGA,052705.50,3713.971522000,N,13701.489962000,E,1,17,0.55,87.706,M,37.566,M,,*7B
[2021-02-22 14:27:05.532] $GNGGA,052705.60,3713.971522000,N,13701.489968000,E,1,17,0.55,87.696,M,37.566,M,,*7A
[2021-02-22 14:27:05.610] $GNGGA,052705.70,3713.971528000,N,13701.489968000,E,1,17,0.55,87.687,M,37.566,M,,*71
[2021-02-22 14:27:05.720] $GNGGA,052705.80,3713.971522000,N,13701.489956000,E,1,17,0.55,87.683,M,37.566,M,,*7D
[2021-02-22 14:27:05.813] $GNGGA,052705.90,3713.971522000,N,13701.489956000,E,1,17,0.55,87.671,M,37.566,M,,*71
[2021-02-22 14:27:05.938] $GNGGA,052706.00,3713.971528000,N,13701.489956000,E,1,17,0.55,87.663,M,37.566,M,,*72
[2021-02-22 14:27:06.016] $GNGGA,052706.10,3713.971528000,N,13701.489950000,E,1,17,0.55,87.657,M,37.566,M,,*72
[2021-02-22 14:27:06.110] $GNGGA,052706.20,3713.971528000,N,13701.489950000,E,1,17,0.55,87.649,M,37.566,M,,*7E
[2021-02-22 14:27:06.220] $GNGGA,052706.30,3713.971528000,N,13701.489944000,E,1,17,0.55,87.640,M,37.566,M,,*73
[2021-02-22 14:27:06.329] $GNGGA,052706.40,3713.971534000,N,13701.489944000,E,1,17,0.55,87.640,M,37.566,M,,*79
[2021-02-22 14:27:06.407] $GNGGA,052706.50,3713.971534000,N,13701.489938000,E,1,17,0.55,87.631,M,37.566,M,,*75
[2021-02-22 14:27:06.516] $GNGGA,052706.60,3713.971534000,N,13701.489938000,E,1,17,0.55,87.629,M,37.566,M,,*7F
[2021-02-22 14:27:06.610] $GNGGA,052706.70,3713.971534000,N,13701.489932000,E,1,17,0.55,87.622,M,37.566,M,,*7F
[2021-02-22 14:27:06.735] $GNGGA,052706.80,3713.971540000,N,13701.489932000,E,1,17,0.55,87.616,M,37.566,M,,*74
[2021-02-22 14:27:06.813] $GNGGA,052706.90,3713.971540000,N,13701.489926000,E,1,17,0.55,87.611,M,37.566,M,,*77
[2021-02-22 14:27:06.923] $GNGGA,052707.00,3713.971540000,N,13701.489926000,E,1,17,0.55,87.604,M,37.566,M,,*7B
[2021-02-22 14:27:07.016] $GNGGA,052707.10,3713.971540000,N,13701.489926000,E,1,17,0.55,87.600,M,37.566,M,,*7E
[2021-02-22 14:27:07.141] $GNGGA,052707.20,3713.971546000,N,13701.489920000,E,1,17,0.55,87.592,M,37.566,M,,*75
[2021-02-22 14:27:07.220] $GNGGA,052707.30,3713.971546000,N,13701.489920000,E,1,17,0.55,87.586,M,37.566,M,,*71
[2021-02-22 14:27:07.313] $GNGGA,052707.40,3713.971546000,N,13701.489914000,E,1,17,0.55,87.586,M,37.566,M,,*71
[2021-02-22 14:27:07.423] $GNGGA,052707.50,3713.971552000,N,13701.489914000,E,1,17,0.55,87.579,M,37.566,M,,*75
[2021-02-22 14:27:07.532] $GNGGA,052707.60,3713.971546000,N,13701.489908000,E,1,17,0.55,87.574,M,37.566,M,,*73
[2021-02-22 14:27:07.610] $GNGGA,052707.70,3713.971552000,N,13701.489908000,E,1,17,0.55,87.572,M,37.566,M,,*71
[2021-02-22 14:27:07.719] $GNGGA,052707.80,3713.971552000,N,13701.489902000,E,1,17,0.55,87.568,M,37.566,M,,*7F
[2021-02-22 14:27:07.829] $GNGGA,052707.90,3713.971558000,N,13701.489902000,E,1,17,0.55,87.561,M,37.566,M,,*7D
[2021-02-22 14:27:07.907] $GNGGA,052708.00,3713.971558000,N,13701.489896000,E,1,17,0.55,87.557,M,37.566,M,,*72
[2021-02-22 14:27:08.016] $GNGGA,052708.10,3713.971558000,N,13701.489896000,E,1,17,0.55,87.555,M,37.566,M,,*71
[2021-02-22 14:27:08.141] $GNGGA,052708.20,3713.971558000,N,13701.489890000,E,1,17,0.55,87.552,M,37.566,M,,*73
[2021-02-22 14:27:08.219] $GNGGA,052708.30,3713.971558000,N,13701.489890000,E,1,17,0.55,87.549,M,37.566,M,,*78
[2021-02-22 14:27:08.313] $GNGGA,052708.40,3713.971564000,N,13701.489890000,E,1,17,0.55,87.543,M,37.566,M,,*7A
[2021-02-22 14:27:08.438] $GNGGA,052708.50,3713.971564000,N,13701.489890000,E,1,17,0.55,87.540,M,37.566,M,,*78
[2021-02-22 14:27:08.516] $GNGGA,052708.60,3713.971564000,N,13701.489890000,E,1,17,0.55,87.537,M,37.566,M,,*7B
[2021-02-22 14:27:08.610] $GNGGA,052708.70,3713.971564000,N,13701.489890000,E,1,17,0.55,87.536,M,37.566,M,,*7B
[2021-02-22 14:27:08.719] $GNGGA,052708.80,3713.971564000,N,13701.489884000,E,1,17,0.55,87.534,M,37.566,M,,*73
[2021-02-22 14:27:08.829] $GNGGA,052708.90,3713.971570000,N,13701.489884000,E,1,17,0.55,87.526,M,37.566,M,,*74
[2021-02-22 14:27:08.907] $GNGGA,052709.00,3713.971570000,N,13701.489884000,E,1,17,0.55,87.524,M,37.566,M,,*7E
[2021-02-22 14:27:09.016] $GNGGA,052709.10,3713.971570000,N,13701.489884000,E,1,17,0.55,87.526,M,37.566,M,,*7D
[2021-02-22 14:27:09.110] $GNGGA,052709.20,3713.971570000,N,13701.489878000,E,1,17,0.55,87.518,M,37.566,M,,*70
[2021-02-22 14:27:09.235] $GNGGA,052709.30,3713.971570000,N,13701.489878000,E,1,17,0.55,87.517,M,37.566,M,,*7E
[2021-02-22 14:27:09.313] $GNGGA,052709.40,3713.971576000,N,13701.489878000,E,1,17,0.55,87.513,M,37.566,M,,*7B
[2021-02-22 14:27:09.422] $GNGGA,052709.50,3713.971576000,N,13701.489872000,E,1,17,0.55,87.514,M,37.566,M,,*77
[2021-02-22 14:27:09.516] $GNGGA,052709.60,3713.971582000,N,13701.489872000,E,1,17,0.55,87.509,M,37.566,M,,*73
[2021-02-22 14:27:09.641] $GNGGA,052709.70,3713.971582000,N,13701.489872000,E,1,17,0.55,87.509,M,37.566,M,,*72
[2021-02-22 14:27:09.719] $GNGGA,052709.80,3713.971582000,N,13701.489866000,E,1,17,0.55,87.504,M,37.566,M,,*75
[2021-02-22 14:27:09.813] $GNGGA,052709.90,3713.971582000,N,13701.489866000,E,1,17,0.55,87.505,M,37.566,M,,*75
[2021-02-22 14:27:09.922] $GNGGA,052710.00,3713.971582000,N,13701.489866000,E,1,17,0.55,87.499,M,37.566,M,,*70
[2021-02-22 14:27:10.032] $GNGGA,052710.10,3713.971582000,N,13701.489860000,E,1,17,0.55,87.498,M,37.566,M,,*76
[2021-02-22 14:27:10.110] $GNGGA,052710.20,3713.971588000,N,13701.489860000,E,1,17,0.55,87.499,M,37.566,M,,*7E
[2021-02-22 14:27:10.219] $GNGGA,052710.30,3713.971588000,N,13701.489860000,E,1,17,0.55,87.497,M,37.566,M,,*71
[2021-02-22 14:27:10.313] $GNGGA,052710.40,3713.971588000,N,13701.489860000,E,1,17,0.55,87.497,M,37.566,M,,*76
[2021-02-22 14:27:10.438] $GNGGA,052710.50,3713.971588000,N,13701.489860000,E,1,17,0.55,87.497,M,37.566,M,,*77
[2021-02-22 14:27:10.516] $GNGGA,052710.60,3713.971588000,N,13701.489860000,E,1,17,0.55,87.492,M,37.566,M,,*71
[2021-02-22 14:27:10.610] $GNGGA,052710.70,3713.971588000,N,13701.489860000,E,1,17,0.55,87.494,M,37.566,M,,*76
[2021-02-22 14:27:10.719] $GNGGA,052710.80,3713.971594000,N,13701.489860000,E,1,17,0.55,87.490,M,37.566,M,,*70
[2021-02-22 14:27:10.829] $GNGGA,052710.90,3713.971594000,N,13701.489860000,E,1,17,0.55,87.492,M,37.566,M,,*73
[2021-02-22 14:27:10.907] $GNGGA,052711.00,3713.971594000,N,13701.489860000,E,1,17,0.55,87.491,M,37.566,M,,*78
[2021-02-22 14:27:11.016] $GNGGA,052711.10,3713.971594000,N,13701.489860000,E,1,17,0.55,87.492,M,37.566,M,,*7A
[2021-02-22 14:27:11.110] $GNGGA,052711.20,3713.971594000,N,13701.489860000,E,1,17,0.55,87.490,M,37.566,M,,*7B
[2021-02-22 14:27:11.235] $GNGGA,052711.30,3713.971600000,N,13701.489860000,E,1,17,0.55,87.488,M,37.566,M,,*7D
[2021-02-22 14:27:11.313] $GNGGA,052711.40,3713.971600000,N,13701.489860000,E,1,17,0.55,87.489,M,37.566,M,,*7B
[2021-02-22 14:27:11.422] $GNGGA,052711.50,3713.971600000,N,13701.489860000,E,1,17,0.55,87.487,M,37.566,M,,*74
[2021-02-22 14:27:11.516] $GNGGA,052711.60,3713.971600000,N,13701.489860000,E,1,17,0.55,87.485,M,37.566,M,,*75
[2021-02-22 14:27:11.641] $GNGGA,052711.70,3713.971606000,N,13701.489854000,E,1,17,0.55,87.483,M,37.566,M,,*73
[2021-02-22 14:27:11.719] $GNGGA,052711.80,3713.971606000,N,13701.489854000,E,1,17,0.55,87.481,M,37.566,M,,*7E
[2021-02-22 14:27:11.813] $GNGGA,052711.90,3713.971606000,N,13701.489848000,E,1,17,0.55,87.483,M,37.566,M,,*70
[2021-02-22 14:27:11.922] $GNGGA,052712.00,3713.971606000,N,13701.489848000,E,1,17,0.55,87.485,M,37.566,M,,*7C
[2021-02-22 14:27:12.032] $GNGGA,052712.10,3713.971606000,N,13701.489848000,E,1,17,0.55,87.480,M,37.566,M,,*78
[2021-02-22 14:27:12.110] $GNGGA,052712.20,3713.971606000,N,13701.489848000,E,1,17,0.55,87.481,M,37.566,M,,*7A
[2021-02-22 14:27:12.219] $GNGGA,052712.30,3713.971612000,N,13701.489848000,E,1,17,0.55,87.483,M,37.566,M,,*7C
[2021-02-22 14:27:12.328] $GNGGA,052712.40,3713.971612000,N,13701.489842000,E,1,17,0.55,87.481,M,37.566,M,,*73
[2021-02-22 14:27:12.407] $GNGGA,052712.50,3713.971612000,N,13701.489842000,E,1,17,0.55,87.475,M,37.566,M,,*79
[2021-02-22 14:27:12.516] $GNGGA,052712.60,3713.971612000,N,13701.489842000,E,1,17,0.55,87.476,M,37.566,M,,*79
[2021-02-22 14:27:12.641] $GNGGA,052712.70,3713.971618000,N,13701.489842000,E,1,17,0.55,87.471,M,37.566,M,,*75
[2021-02-22 14:27:12.719] $GNGGA,052712.80,3713.971618000,N,13701.489842000,E,1,17,0.55,87.469,M,37.566,M,,*73
[2021-02-22 14:27:12.813] $GNGGA,052712.90,3713.971618000,N,13701.489842000,E,1,17,0.55,87.463,M,37.566,M,,*78
[2021-02-22 14:27:12.922] $GNGGA,052713.00,3713.971618000,N,13701.489836000,E,1,17,0.55,87.468,M,37.566,M,,*78
[2021-02-22 14:27:13.032] $GNGGA,052713.10,3713.971618000,N,13701.489836000,E,1,17,0.55,87.463,M,37.566,M,,*72
[2021-02-22 14:27:13.110] $GNGGA,052713.20,3713.971618000,N,13701.489836000,E,1,17,0.55,87.458,M,37.566,M,,*79
[2021-02-22 14:27:13.219] $GNGGA,052713.30,3713.971618000,N,13701.489836000,E,1,17,0.55,87.458,M,37.566,M,,*78
[2021-02-22 14:27:13.313] $GNGGA,052713.40,3713.971624000,N,13701.489836000,E,1,17,0.55,87.453,M,37.566,M,,*7B
[2021-02-22 14:27:13.438] $GNGGA,052713.50,3713.971624000,N,13701.489836000,E,1,17,0.55,87.453,M,37.566,M,,*7A
[2021-02-22 14:27:13.516] $GNGGA,052713.60,3713.971624000,N,13701.489830000,E,1,17,0.55,87.455,M,37.566,M,,*79
[2021-02-22 14:27:13.610] $GNGGA,052713.70,3713.971630000,N,13701.489830000,E,1,17,0.55,87.456,M,37.566,M,,*7E
[2021-02-22 14:27:13.719] $GNGGA,052713.80,3713.971630000,N,13701.489830000,E,1,17,0.55,87.454,M,37.566,M,,*73
[2021-02-22 14:27:13.828] $GNGGA,052713.90,3713.971630000,N,13701.489830000,E,1,17,0.55,87.450,M,37.566,M,,*76
[2021-02-22 14:27:13.907] $GNGGA,052714.00,3713.971630000,N,13701.489830000,E,1,17,0.55,87.453,M,37.566,M,,*7B
[2021-02-22 14:27:14.016] $GNGGA,052714.10,3713.971630000,N,13701.489824000,E,1,17,0.55,87.453,M,37.566,M,,*7F
[2021-02-22 14:27:14.110] $GNGGA,052714.20,3713.971630000,N,13701.489824000,E,1,17,0.55,87.449,M,37.566,M,,*77
[2021-02-22 14:27:14.235] $GNGGA,052714.30,3713.971630000,N,13701.489824000,E,1,17,0.55,87.451,M,37.566,M,,*7F
[2021-02-22 14:27:14.313] $GNGGA,052714.40,3713.971636000,N,13701.489824000,E,1,17,0.55,87.449,M,37.566,M,,*77
[2021-02-22 14:27:14.422] $GNGGA,052714.50,3713.971636000,N,13701.489824000,E,1,17,0.55,87.447,M,37.566,M,,*78
[2021-02-22 14:27:14.516] $GNGGA,052714.60,3713.971636000,N,13701.489824000,E,1,17,0.55,87.452,M,37.566,M,,*7F
[2021-02-22 14:27:14.641] $GNGGA,052714.70,3713.971636000,N,13701.489818000,E,1,17,0.55,87.449,M,37.566,M,,*7B
[2021-02-22 14:27:14.719] $GNGGA,052714.80,3713.971636000,N,13701.489818000,E,1,17,0.55,87.453,M,37.566,M,,*7F
[2021-02-22 14:27:14.813] $GNGGA,052714.90,3713.971636000,N,13701.489818000,E,1,17,0.55,87.450,M,37.566,M,,*7D
[2021-02-22 14:27:14.922] $GNGGA,052715.00,3713.971636000,N,13701.489818000,E,1,17,0.55,87.453,M,37.566,M,,*76
[2021-02-22 14:27:15.031] $GNGGA,052715.10,3713.971642000,N,13701.489818000,E,1,17,0.55,87.448,M,37.566,M,,*7E
[2021-02-22 14:27:15.110] $GNGGA,052715.20,3713.971642000,N,13701.489818000,E,1,17,0.55,87.451,M,37.566,M,,*75
[2021-02-22 14:27:15.219] $GNGGA,052715.30,3713.971642000,N,13701.489818000,E,1,17,0.55,87.455,M,37.566,M,,*70
[2021-02-22 14:27:15.313] $GNGGA,052715.40,3713.971642000,N,13701.489818000,E,1,17,0.55,87.452,M,37.566,M,,*70
[2021-02-22 14:27:15.438] $GNGGA,052715.50,3713.971642000,N,13701.489812000,E,1,17,0.55,87.453,M,37.566,M,,*7A
[2021-02-22 14:27:15.516] $GNGGA,052715.60,3713.971642000,N,13701.489812000,E,1,17,0.55,87.452,M,37.566,M,,*78
[2021-02-22 14:27:15.610] $GNGGA,052715.70,3713.971642000,N,13701.489812000,E,1,17,0.55,87.460,M,37.566,M,,*78
[2021-02-22 14:27:15.719] $GNGGA,052715.80,3713.971642000,N,13701.489812000,E,1,17,0.55,87.460,M,37.566,M,,*77
[2021-02-22 14:27:15.828] $GNGGA,052715.90,3713.971642000,N,13701.489812000,E,1,17,0.55,87.463,M,37.566,M,,*75
[2021-02-22 14:27:15.906] $GNGGA,052716.00,3713.971648000,N,13701.489812000,E,1,17,0.55,87.460,M,37.566,M,,*76
[2021-02-22 14:27:16.016] $GNGGA,052716.10,3713.971642000,N,13701.489806000,E,1,17,0.55,87.463,M,37.566,M,,*7B
[2021-02-22 14:27:16.110] $GNGGA,052716.20,3713.971642000,N,13701.489806000,E,1,17,0.55,87.471,M,37.566,M,,*7B
[2021-02-22 14:27:16.234] $GNGGA,052716.30,3713.971642000,N,13701.489806000,E,1,17,0.55,87.469,M,37.566,M,,*73
[2021-02-22 14:27:16.313] $GNGGA,052716.40,3713.971642000,N,13701.489806000,E,1,17,0.55,87.470,M,37.566,M,,*7C
[2021-02-22 14:27:16.422] $GNGGA,052716.50,3713.971642000,N,13701.489806000,E,1,17,0.55,87.473,M,37.566,M,,*7E
[2021-02-22 14:27:16.531] $GNGGA,052716.60,3713.971642000,N,13701.489806000,E,1,17,0.55,87.475,M,37.566,M,,*7B
[2021-02-22 14:27:16.609] $GNGGA,052716.70,3713.971642000,N,13701.489806000,E,1,17,0.55,87.475,M,37.566,M,,*7A
[2021-02-22 14:27:16.719] $GNGGA,052716.80,3713.971642000,N,13701.489806000,E,1,17,0.55,87.478,M,37.566,M,,*78
[2021-02-22 14:27:16.828] $GNGGA,052716.90,3713.971642000,N,13701.489806000,E,1,17,0.55,87.477,M,37.566,M,,*76
[2021-02-22 14:27:16.922] $GNGGA,052717.00,3713.971642000,N,13701.489806000,E,1,17,0.55,87.478,M,37.566,M,,*71
[2021-02-22 14:27:17.016] $GNGGA,052717.10,3713.971648000,N,13701.489806000,E,1,17,0.55,87.481,M,37.566,M,,*7C
[2021-02-22 14:27:17.141] $GNGGA,052717.20,3713.971648000,N,13701.489800000,E,1,17,0.55,87.482,M,37.566,M,,*7A
[2021-02-22 14:27:17.219] $GNGGA,052717.30,3713.971648000,N,13701.489800000,E,1,17,0.55,87.484,M,37.566,M,,*7D
[2021-02-22 14:27:17.313] $GNGGA,052717.40,3713.971648000,N,13701.489800000,E,1,17,0.55,87.487,M,37.566,M,,*79
[2021-02-22 14:27:17.422] $GNGGA,052717.50,3713.971648000,N,13701.489800000,E,1,17,0.55,87.489,M,37.566,M,,*76
[2021-02-22 14:27:17.531] $GNGGA,052717.60,3713.971654000,N,13701.489800000,E,1,17,0.55,87.489,M,37.566,M,,*78
[2021-02-22 14:27:17.609] $GNGGA,052717.70,3713.971648000,N,13701.489800000,E,1,17,0.55,87.491,M,37.566,M,,*7D
[2021-02-22 14:27:17.719] $GNGGA,052717.80,3713.971648000,N,13701.489800000,E,1,17,0.55,87.496,M,37.566,M,,*75
[2021-02-22 14:27:17.813] $GNGGA,052717.90,3713.971648000,N,13701.489800000,E,1,17,0.55,87.495,M,37.566,M,,*77
[2021-02-22 14:27:17.937] $GNGGA,052718.00,3713.971648000,N,13701.489794000,E,1,17,0.55,87.503,M,37.566,M,,*7D
[2021-02-22 14:27:18.016] $GNGGA,052718.10,3713.971648000,N,13701.489794000,E,1,17,0.55,87.501,M,37.566,M,,*7E
[2021-02-22 14:27:18.109] $GNGGA,052718.20,3713.971648000,N,13701.489794000,E,1,17,0.55,87.507,M,37.566,M,,*7B
[2021-02-22 14:27:18.219] $GNGGA,052718.30,3713.971648000,N,13701.489794000,E,1,17,0.55,87.508,M,37.566,M,,*75
[2021-02-22 14:27:18.328] $GNGGA,052718.40,3713.971654000,N,13701.489794000,E,1,17,0.55,87.510,M,37.566,M,,*76
[2021-02-22 14:27:18.406] $GNGGA,052718.50,3713.971654000,N,13701.489794000,E,1,17,0.55,87.513,M,37.566,M,,*74
[2021-02-22 14:27:18.516] $GNGGA,052718.60,3713.971648000,N,13701.489794000,E,1,17,0.55,87.516,M,37.566,M,,*7F
[2021-02-22 14:27:18.609] $GNGGA,052718.70,3713.971648000,N,13701.489794000,E,1,17,0.55,87.516,M,37.566,M,,*7E
[2021-02-22 14:27:18.734] $GNGGA,052718.80,3713.971654000,N,13701.489794000,E,1,17,0.55,87.520,M,37.566,M,,*79
[2021-02-22 14:27:18.812] $GNGGA,052718.90,3713.971648000,N,13701.489794000,E,1,17,0.55,87.521,M,37.566,M,,*74
[2021-02-22 14:27:18.922] $GNGGA,052719.00,3713.971654000,N,13701.489794000,E,1,17,0.55,87.522,M,37.566,M,,*72
[2021-02-22 14:27:19.016] $GNGGA,052719.10,3713.971654000,N,13701.489794000,E,1,17,0.55,87.525,M,37.566,M,,*74
[2021-02-22 14:27:19.141] $GNGGA,052719.20,3713.971654000,N,13701.489788000,E,1,17,0.55,87.528,M,37.566,M,,*77
[2021-02-22 14:27:19.219] $GNGGA,052719.30,3713.971654000,N,13701.489788000,E,1,17,0.55,87.528,M,37.566,M,,*76
[2021-02-22 14:27:19.312] $GNGGA,052719.40,3713.971654000,N,13701.489788000,E,1,17,0.55,87.532,M,37.566,M,,*7A
[2021-02-22 14:27:19.422] $GNGGA,052719.50,3713.971654000,N,13701.489788000,E,1,17,0.55,87.532,M,37.566,M,,*7B
[2021-02-22 14:27:19.531] $GNGGA,052719.60,3713.971654000,N,13701.489788000,E,1,17,0.55,87.538,M,37.566,M,,*72
[2021-02-22 14:27:19.609] $GNGGA,052719.70,3713.971654000,N,13701.489782000,E,1,17,0.55,87.537,M,37.566,M,,*76
[2021-02-22 14:27:19.719] $GNGGA,052719.80,3713.971654000,N,13701.489782000,E,1,17,0.55,87.538,M,37.566,M,,*76
[2021-02-22 14:27:19.812] $GNGGA,052719.90,3713.971654000,N,13701.489776000,E,1,17,0.55,87.540,M,37.566,M,,*73
[2021-02-22 14:27:19.937] $GNGGA,052720.00,3713.971654000,N,13701.489776000,E,1,17,0.55,87.543,M,37.566,M,,*73
[2021-02-22 14:27:20.015] $GNGGA,052720.10,3713.971654000,N,13701.489776000,E,1,17,0.55,87.545,M,37.566,M,,*74
[2021-02-22 14:27:20.109] $GNGGA,052720.20,3713.971654000,N,13701.489776000,E,1,17,0.55,87.549,M,37.566,M,,*7B
[2021-02-22 14:27:20.219] $GNGGA,052720.30,3713.971654000,N,13701.489776000,E,1,17,0.55,87.547,M,37.566,M,,*74
[2021-02-22 14:27:20.328] $GNGGA,052720.40,3713.971654000,N,13701.489776000,E,1,17,0.55,87.553,M,37.566,M,,*76
[2021-02-22 14:27:20.406] $GNGGA,052720.50,3713.971654000,N,13701.489770000,E,1,17,0.55,87.551,M,37.566,M,,*73
[2021-02-22 14:27:20.515] $GNGGA,052720.60,3713.971654000,N,13701.489770000,E,1,17,0.55,87.557,M,37.566,M,,*76
[2021-02-22 14:27:20.609] $GNGGA,052720.70,3713.971654000,N,13701.489770000,E,1,17,0.55,87.556,M,37.566,M,,*76
[2021-02-22 14:27:20.734] $GNGGA,052720.80,3713.971654000,N,13701.489770000,E,1,17,0.55,87.558,M,37.566,M,,*77
[2021-02-22 14:27:20.812] $GNGGA,052720.90,3713.971660000,N,13701.489770000,E,1,17,0.55,87.558,M,37.566,M,,*71
[2021-02-22 14:27:20.922] $GNGGA,052721.00,3713.971654000,N,13701.489770000,E,1,17,0.55,87.568,M,37.566,M,,*7D
[2021-02-22 14:27:21.031] $GNGGA,052721.10,3713.971654000,N,13701.489770000,E,1,17,0.55,87.563,M,37.566,M,,*77
[2021-02-22 14:27:21.109] $GNGGA,052721.20,3713.971654000,N,13701.489770000,E,1,17,0.55,87.568,M,37.566,M,,*7F
[2021-02-22 14:27:21.219] $GNGGA,052721.30,3713.971654000,N,13701.489770000,E,1,17,0.55,87.571,M,37.566,M,,*76
[2021-02-22 14:27:21.328] $GNGGA,052721.40,3713.971654000,N,13701.489770000,E,1,17,0.55,87.572,M,37.566,M,,*72
[2021-02-22 14:27:21.422] $GNGGA,052721.50,3713.971654000,N,13701.489764000,E,1,17,0.55,87.573,M,37.566,M,,*77
[2021-02-22 14:27:21.515] $GNGGA,052721.60,3713.971654000,N,13701.489770000,E,1,17,0.55,87.581,M,37.566,M,,*7C
[2021-02-22 14:27:21.609] $GNGGA,052721.70,3713.971654000,N,13701.489764000,E,1,17,0.55,87.578,M,37.566,M,,*7E
[2021-02-22 14:27:21.734] $GNGGA,052721.80,3713.971654000,N,13701.489764000,E,1,17,0.55,87.587,M,37.566,M,,*71
[2021-02-22 14:27:21.812] $GNGGA,052721.90,3713.971654000,N,13701.489764000,E,1,17,0.55,87.585,M,37.566,M,,*72
[2021-02-22 14:27:21.922] $GNGGA,052722.00,3713.971654000,N,13701.489764000,E,1,17,0.55,87.590,M,37.566,M,,*7C
[2021-02-22 14:27:22.015] $GNGGA,052722.10,3713.971654000,N,13701.489764000,E,1,17,0.55,87.588,M,37.566,M,,*74
[2021-02-22 14:27:22.140] $GNGGA,052722.20,3713.971654000,N,13701.489764000,E,1,16,0.55,87.594,M,37.566,M,,*7B
[2021-02-22 14:27:22.218] $GNGGA,052722.30,3713.971654000,N,13701.489758000,E,1,17,0.55,87.595,M,37.566,M,,*75
[2021-02-22 14:27:22.312] $GNGGA,052722.40,3713.971660000,N,13701.489758000,E,1,17,0.55,87.596,M,37.566,M,,*76
[2021-02-22 14:27:22.422] $GNGGA,052722.50,3713.971654000,N,13701.489758000,E,1,17,0.55,87.599,M,37.566,M,,*7F
[2021-02-22 14:27:22.531] $GNGGA,052722.60,3713.971654000,N,13701.489758000,E,1,16,0.55,87.603,M,37.566,M,,*7D
[2021-02-22 14:27:22.609] $GNGGA,052722.70,3713.971654000,N,13701.489758000,E,1,16,0.55,87.603,M,37.566,M,,*7C
[2021-02-22 14:27:22.718] $GNGGA,052722.80,3713.971654000,N,13701.489758000,E,1,16,0.55,87.607,M,37.566,M,,*77
[2021-02-22 14:27:22.812] $GNGGA,052722.90,3713.971654000,N,13701.489758000,E,1,16,0.55,87.613,M,37.566,M,,*73
[2021-02-22 14:27:22.937] $GNGGA,052723.00,3713.971654000,N,13701.489752000,E,1,16,0.55,87.610,M,37.566,M,,*72
[2021-02-22 14:27:23.015] $GNGGA,052723.10,3713.971654000,N,13701.489752000,E,1,16,0.55,87.613,M,37.566,M,,*70
[2021-02-22 14:27:23.109] $GNGGA,052723.20,3713.971654000,N,13701.489752000,E,1,16,0.55,87.615,M,37.566,M,,*75
[2021-02-22 14:27:23.218] $GNGGA,052723.30,3713.971654000,N,13701.489752000,E,1,16,0.55,87.617,M,37.566,M,,*76
[2021-02-22 14:27:23.328] $GNGGA,052723.40,3713.971654000,N,13701.489752000,E,1,16,0.55,87.621,M,37.566,M,,*74
[2021-02-22 14:27:23.421] $GNGGA,052723.50,3713.971654000,N,13701.489752000,E,1,16,0.55,87.622,M,37.566,M,,*76
[2021-02-22 14:27:23.515] $GNGGA,052723.60,3713.971654000,N,13701.489752000,E,1,16,0.55,87.625,M,37.566,M,,*72
[2021-02-22 14:27:23.609] $GNGGA,052723.70,3713.971654000,N,13701.489752000,E,1,16,0.55,87.628,M,37.566,M,,*7E
[2021-02-22 14:27:23.734] $GNGGA,052723.80,3713.971654000,N,13701.489752000,E,1,16,0.55,87.628,M,37.566,M,,*71
[2021-02-22 14:27:23.812] $GNGGA,052723.90,3713.971654000,N,13701.489752000,E,1,16,0.55,87.632,M,37.566,M,,*7B
[2021-02-22 14:27:23.921] $GNGGA,052724.00,3713.971654000,N,13701.489746000,E,1,16,0.55,87.633,M,37.566,M,,*71
[2021-02-22 14:27:24.015] $GNGGA,052724.10,3713.971654000,N,13701.489746000,E,1,16,0.55,87.635,M,37.566,M,,*76
[2021-02-22 14:27:24.140] $GNGGA,052724.20,3713.971654000,N,13701.489746000,E,1,16,0.55,87.638,M,37.566,M,,*78
[2021-02-22 14:27:24.218] $GNGGA,052724.30,3713.971654000,N,13701.489746000,E,1,16,0.55,87.637,M,37.566,M,,*76
[2021-02-22 14:27:24.312] $GNGGA,052724.40,3713.971654000,N,13701.489746000,E,1,16,0.55,87.640,M,37.566,M,,*71
[2021-02-22 14:27:24.421] $GNGGA,052724.50,3713.971654000,N,13701.489746000,E,1,16,0.55,87.642,M,37.566,M,,*72
[2021-02-22 14:27:24.531] $GNGGA,052724.60,3713.971654000,N,13701.489746000,E,1,16,0.55,87.643,M,37.566,M,,*70
[2021-02-22 14:27:24.609] $GNGGA,052724.70,3713.971654000,N,13701.489746000,E,1,16,0.55,87.649,M,37.566,M,,*7B
[2021-02-22 14:27:24.718] $GNGGA,052724.80,3713.971654000,N,13701.489740000,E,1,16,0.55,87.642,M,37.566,M,,*79
[2021-02-22 14:27:24.812] $GNGGA,052724.90,3713.971654000,N,13701.489740000,E,1,16,0.55,87.651,M,37.566,M,,*7A
[2021-02-22 14:27:24.937] $GNGGA,052725.00,3713.971654000,N,13701.489740000,E,1,16,0.55,87.649,M,37.566,M,,*7B
[2021-02-22 14:27:25.015] $GNGGA,052725.10,3713.971654000,N,13701.489740000,E,1,16,0.55,87.650,M,37.566,M,,*72
[2021-02-22 14:27:25.109] $GNGGA,052725.20,3713.971654000,N,13701.489740000,E,1,16,0.55,87.655,M,37.566,M,,*74
[2021-02-22 14:27:25.234] $GNGGA,052725.30,3713.971654000,N,13701.489740000,E,1,16,0.55,87.652,M,37.566,M,,*72
[2021-02-22 14:27:25.312] $GNGGA,052725.40,3713.971654000,N,13701.489734000,E,1,16,0.55,87.657,M,37.566,M,,*73
[2021-02-22 14:27:25.421] $GNGGA,052725.50,3713.971654000,N,13701.489740000,E,1,16,0.55,87.660,M,37.566,M,,*75
[2021-02-22 14:27:25.531] $GNGGA,052725.60,3713.971654000,N,13701.489734000,E,1,16,0.55,87.658,M,37.566,M,,*7E
[2021-02-22 14:27:25.609] $GNGGA,052725.70,3713.971654000,N,13701.489740000,E,1,16,0.55,87.660,M,37.566,M,,*77
[2021-02-22 14:27:25.718] $GNGGA,052725.80,3713.971654000,N,13701.489740000,E,1,16,0.55,87.661,M,37.566,M,,*79
[2021-02-22 14:27:25.843] $GNGGA,052725.90,3713.971654000,N,13701.489734000,E,1,16,0.55,87.663,M,37.566,M,,*79
[2021-02-22 14:27:25.921] $GNGGA,052726.00,3713.971654000,N,13701.489740000,E,1,16,0.55,87.662,M,37.566,M,,*71
[2021-02-22 14:27:26.015] $GNGGA,052726.10,3713.971654000,N,13701.489740000,E,1,16,0.55,87.664,M,37.566,M,,*76
[2021-02-22 14:27:26.109] $GNGGA,052726.20,3713.971654000,N,13701.489734000,E,1,16,0.55,87.668,M,37.566,M,,*7A
[2021-02-22 14:27:26.234] $GNGGA,052726.30,3713.971654000,N,13701.489734000,E,1,16,0.55,87.670,M,37.566,M,,*72
[2021-02-22 14:27:26.312] $GNGGA,052726.40,3713.971654000,N,13701.489734000,E,1,16,0.55,87.669,M,37.566,M,,*7D
[2021-02-22 14:27:26.421] $GNGGA,052726.50,3713.971654000,N,13701.489734000,E,1,16,0.55,87.670,M,37.566,M,,*74
[2021-02-22 14:27:26.515] $GNGGA,052726.60,3713.971648000,N,13701.489734000,E,1,16,0.55,87.674,M,37.566,M,,*7E
[2021-02-22 14:27:26.640] $GNGGA,052726.70,3713.971654000,N,13701.489728000,E,1,16,0.55,87.672,M,37.566,M,,*79
[2021-02-22 14:27:26.718] $GNGGA,052726.80,3713.971654000,N,13701.489728000,E,1,16,0.55,87.675,M,37.566,M,,*71
[2021-02-22 14:27:26.812] $GNGGA,052726.90,3713.971654000,N,13701.489722000,E,1,16,0.55,87.671,M,37.566,M,,*7E
[2021-02-22 14:27:26.921] $GNGGA,052727.00,3713.971654000,N,13701.489722000,E,1,16,0.55,87.677,M,37.566,M,,*70
[2021-02-22 14:27:27.031] $GNGGA,052727.10,3713.971654000,N,13701.489716000,E,1,16,0.55,87.678,M,37.566,M,,*79
[2021-02-22 14:27:27.109] $GNGGA,052727.20,3713.971654000,N,13701.489716000,E,1,16,0.55,87.679,M,37.566,M,,*7B
[2021-02-22 14:27:27.218] $GNGGA,052727.30,3713.971654000,N,13701.489716000,E,1,16,0.55,87.678,M,37.566,M,,*7B
[2021-02-22 14:27:27.312] $GNGGA,052727.40,3713.971654000,N,13701.489716000,E,1,16,0.55,87.682,M,37.566,M,,*79
[2021-02-22 14:27:27.437] $GNGGA,052727.50,3713.971660000,N,13701.489722000,E,1,16,0.55,87.681,M,37.566,M,,*7B
[2021-02-22 14:27:27.515] $GNGGA,052727.60,3713.971660000,N,13701.489716000,E,1,16,0.55,87.687,M,37.566,M,,*79
[2021-02-22 14:27:27.609] $GNGGA,052727.70,3713.971666000,N,13701.489716000,E,1,16,0.55,87.685,M,37.566,M,,*7C
[2021-02-22 14:27:27.718] $GNGGA,052727.80,3713.971666000,N,13701.489716000,E,1,16,0.55,87.686,M,37.566,M,,*70
[2021-02-22 14:27:27.827] $GNGGA,052727.90,3713.971666000,N,13701.489716000,E,1,16,0.55,87.690,M,37.566,M,,*76
[2021-02-22 14:27:27.921] $GNGGA,052728.00,3713.971666000,N,13701.489710000,E,1,16,0.55,87.688,M,37.566,M,,*7F
[2021-02-22 14:27:28.015] $GNGGA,052728.10,3713.971666000,N,13701.489716000,E,1,16,0.55,87.692,M,37.566,M,,*73
[2021-02-22 14:27:28.109] $GNGGA,052728.20,3713.971666000,N,13701.489716000,E,1,16,0.55,87.690,M,37.566,M,,*72
[2021-02-22 14:27:28.234] $GNGGA,052728.30,3713.971666000,N,13701.489722000,E,1,16,0.55,87.689,M,37.566,M,,*7C
[2021-02-22 14:27:28.312] $GNGGA,052728.40,3713.971666000,N,13701.489722000,E,1,16,0.55,87.695,M,37.566,M,,*76
[2021-02-22 14:27:28.421] $GNGGA,052728.50,3713.971666000,N,13701.489716000,E,1,16,0.55,87.694,M,37.566,M,,*71
[2021-02-22 14:27:28.515] $GNGGA,052728.60,3713.971666000,N,13701.489710000,E,1,16,0.55,87.696,M,37.566,M,,*76
[2021-02-22 14:27:28.640] $GNGGA,052728.70,3713.971660000,N,13701.489710000,E,1,16,0.55,87.693,M,37.566,M,,*74
[2021-02-22 14:27:28.718] $GNGGA,052728.80,3713.971660000,N,13701.489710000,E,1,16,0.55,87.694,M,37.566,M,,*7C
[2021-02-22 14:27:28.812] $GNGGA,052728.90,3713.971660000,N,13701.489704000,E,1,16,0.55,87.697,M,37.566,M,,*7B
[2021-02-22 14:27:28.921] $GNGGA,052729.00,3713.971654000,N,13701.489704000,E,1,16,0.55,87.693,M,37.566,M,,*70
[2021-02-22 14:27:29.030] $GNGGA,052729.10,3713.971660000,N,13701.489704000,E,1,16,0.55,87.698,M,37.566,M,,*7D
[2021-02-22 14:27:29.109] $GNGGA,052729.20,3713.971660000,N,13701.489704000,E,1,16,0.55,87.696,M,37.566,M,,*70
[2021-02-22 14:27:29.218] $GNGGA,052729.30,3713.971660000,N,13701.489704000,E,1,16,0.55,87.699,M,37.566,M,,*7E
[2021-02-22 14:27:29.312] $GNGGA,052729.40,3713.971660000,N,13701.489704000,E,1,16,0.55,87.699,M,37.566,M,,*79
[2021-02-22 14:27:29.437] $GNGGA,052729.50,3713.971660000,N,13701.489704000,E,1,16,0.55,87.697,M,37.566,M,,*76
[2021-02-22 14:27:29.515] $GNGGA,052729.60,3713.971660000,N,13701.489698000,E,1,16,0.55,87.701,M,37.566,M,,*7F
[2021-02-22 14:27:29.609] $GNGGA,052729.70,3713.971660000,N,13701.489698000,E,1,16,0.55,87.700,M,37.566,M,,*7F
[2021-02-22 14:27:29.734] $GNGGA,052729.80,3713.971660000,N,13701.489698000,E,1,16,0.55,87.698,M,37.566,M,,*70
[2021-02-22 14:27:29.812] $GNGGA,052729.90,3713.971660000,N,13701.489698000,E,1,16,0.55,87.700,M,37.566,M,,*71
[2021-02-22 14:27:29.921] $GNGGA,052730.00,3713.971660000,N,13701.489698000,E,1,16,0.55,87.696,M,37.566,M,,*7E
[2021-02-22 14:27:30.030] $GNGGA,052730.10,3713.971660000,N,13701.489698000,E,1,16,0.55,87.697,M,37.566,M,,*7E
[2021-02-22 14:27:30.109] $GNGGA,052730.20,3713.971660000,N,13701.489698000,E,1,16,0.55,87.702,M,37.566,M,,*70
[2021-02-22 14:27:30.218] $GNGGA,052730.30,3713.971660000,N,13701.489698000,E,1,16,0.55,87.699,M,37.566,M,,*72
[2021-02-22 14:27:30.312] $GNGGA,052730.40,3713.971660000,N,13701.489698000,E,1,16,0.55,87.702,M,37.566,M,,*76
[2021-02-22 14:27:30.437] $GNGGA,052730.50,3713.971660000,N,13701.489698000,E,1,16,0.55,87.703,M,37.566,M,,*76
[2021-02-22 14:27:30.515] $GNGGA,052730.60,3713.971660000,N,13701.489698000,E,1,16,0.55,87.698,M,37.566,M,,*76
[2021-02-22 14:27:30.608] $GNGGA,052730.70,3713.971660000,N,13701.489692000,E,1,16,0.59,87.698,M,37.566,M,,*71
[2021-02-22 14:27:30.718] $GNGGA,052730.80,3713.971660000,N,13701.489692000,E,1,16,0.59,87.703,M,37.566,M,,*7D
[2021-02-22 14:27:30.827] $GNGGA,052730.90,3713.971660000,N,13701.489692000,E,1,16,0.59,87.699,M,37.566,M,,*7E
[2021-02-22 14:27:30.921] $GNGGA,052731.00,3713.971660000,N,13701.489692000,E,1,16,0.59,87.700,M,37.566,M,,*77
[2021-02-22 14:27:31.015] $GNGGA,052731.10,3713.971660000,N,13701.489698000,E,1,16,0.59,87.700,M,37.566,M,,*7C
[2021-02-22 14:27:31.108] $GNGGA,052731.20,3713.971660000,N,13701.489692000,E,1,16,0.59,87.703,M,37.566,M,,*76
[2021-02-22 14:27:31.233] $GNGGA,052731.30,3713.971660000,N,13701.489698000,E,1,16,0.59,87.700,M,37.566,M,,*7E
[2021-02-22 14:27:31.312] $GNGGA,052731.40,3713.971666000,N,13701.489698000,E,1,16,0.59,87.699,M,37.566,M,,*7E
[2021-02-22 14:27:31.421] $GNGGA,052731.50,3713.971660000,N,13701.489698000,E,1,16,0.59,87.702,M,37.566,M,,*7A
[2021-02-22 14:27:31.515] $GNGGA,052731.60,3713.971666000,N,13701.489698000,E,1,16,0.59,87.704,M,37.566,M,,*79
[2021-02-22 14:27:31.640] $GNGGA,052731.70,3713.971660000,N,13701.489698000,E,1,16,0.59,87.702,M,37.566,M,,*78
[2021-02-22 14:27:31.718] $GNGGA,052731.80,3713.971660000,N,13701.489698000,E,1,16,0.59,87.703,M,37.566,M,,*76
[2021-02-22 14:27:31.812] $GNGGA,052731.90,3713.971660000,N,13701.489698000,E,1,16,0.59,87.703,M,37.566,M,,*77
[2021-02-22 14:27:31.921] $GNGGA,052732.00,3713.971660000,N,13701.489692000,E,1,16,0.59,87.704,M,37.566,M,,*70
[2021-02-22 14:27:32.030] $GNGGA,052732.10,3713.971660000,N,13701.489692000,E,1,16,0.59,87.706,M,37.566,M,,*73
[2021-02-22 14:27:32.108] $GNGGA,052732.20,3713.971660000,N,13701.489692000,E,1,16,0.59,87.704,M,37.566,M,,*72
[2021-02-22 14:27:32.218] $GNGGA,052732.30,3713.971660000,N,13701.489692000,E,1,16,0.59,87.706,M,37.566,M,,*71
[2021-02-22 14:27:32.311] $GNGGA,052732.40,3713.971660000,N,13701.489692000,E,1,16,0.59,87.705,M,37.566,M,,*75
[2021-02-22 14:27:32.436] $GNGGA,052732.50,3713.971666000,N,13701.489692000,E,1,16,0.59,87.710,M,37.566,M,,*76
[2021-02-22 14:27:32.515] $GNGGA,052732.60,3713.971666000,N,13701.489692000,E,1,16,0.59,87.708,M,37.566,M,,*7C
[2021-02-22 14:27:32.608] $GNGGA,052732.70,3713.971666000,N,13701.489692000,E,1,16,0.59,87.708,M,37.566,M,,*7D
[2021-02-22 14:27:32.718] $GNGGA,052732.80,3713.971666000,N,13701.489692000,E,1,16,0.59,87.711,M,37.566,M,,*7A
[2021-02-22 14:27:32.827] $GNGGA,052732.90,3713.971666000,N,13701.489692000,E,1,16,0.59,87.713,M,37.566,M,,*79
[2021-02-22 14:27:32.921] $GNGGA,052733.00,3713.971660000,N,13701.489692000,E,1,16,0.59,87.711,M,37.566,M,,*75
[2021-02-22 14:27:33.015] $GNGGA,052733.10,3713.971660000,N,13701.489692000,E,1,16,0.59,87.711,M,37.566,M,,*74
[2021-02-22 14:27:33.108] $GNGGA,052733.20,3713.971666000,N,13701.489686000,E,1,16,0.59,87.711,M,37.566,M,,*74
[2021-02-22 14:27:33.233] $GNGGA,052733.30,3713.971660000,N,13701.489686000,E,1,16,0.59,87.716,M,37.566,M,,*74
[2021-02-22 14:27:33.311] $GNGGA,052733.40,3713.971660000,N,13701.489686000,E,1,16,0.59,87.715,M,37.566,M,,*70
[2021-02-22 14:27:33.421] $GNGGA,052733.50,3713.971666000,N,13701.489686000,E,1,16,0.59,87.718,M,37.566,M,,*7A
[2021-02-22 14:27:33.515] $GNGGA,052733.60,3713.971666000,N,13701.489686000,E,1,16,0.59,87.719,M,37.566,M,,*78
[2021-02-22 14:27:33.639] $GNGGA,052733.70,3713.971666000,N,13701.489686000,E,1,16,0.59,87.719,M,37.566,M,,*79
[2021-02-22 14:27:33.718] $GNGGA,052733.80,3713.971666000,N,13701.489686000,E,1,16,0.59,87.720,M,37.566,M,,*7C
[2021-02-22 14:27:33.811] $GNGGA,052733.90,3713.971666000,N,13701.489686000,E,1,16,0.59,87.720,M,37.566,M,,*7D
[2021-02-22 14:27:33.936] $GNGGA,052734.00,3713.971666000,N,13701.489686000,E,1,16,0.59,87.720,M,37.566,M,,*73
[2021-02-22 14:27:34.014] $GNGGA,052734.10,3713.971666000,N,13701.489686000,E,1,16,0.59,87.723,M,37.566,M,,*71
[2021-02-22 14:27:34.108] $GNGGA,052734.20,3713.971666000,N,13701.489686000,E,1,16,0.59,87.721,M,37.566,M,,*70
[2021-02-22 14:27:34.233] $GNGGA,052734.30,3713.971666000,N,13701.489686000,E,1,16,0.59,87.723,M,37.566,M,,*73
[2021-02-22 14:27:34.311] $GNGGA,052734.40,3713.971666000,N,13701.489686000,E,1,16,0.59,87.721,M,37.566,M,,*76
[2021-02-22 14:27:34.421] $GNGGA,052734.50,3713.971672000,N,13701.489686000,E,1,16,0.59,87.725,M,37.566,M,,*76
[2021-02-22 14:27:34.530] $GNGGA,052734.60,3713.971672000,N,13701.489686000,E,1,16,0.59,87.725,M,37.566,M,,*75
[2021-02-22 14:27:34.608] $GNGGA,052734.70,3713.971672000,N,13701.489680000,E,1,16,0.59,87.728,M,37.566,M,,*7F
[2021-02-22 14:27:34.718] $GNGGA,052734.80,3713.971672000,N,13701.489686000,E,1,16,0.59,87.724,M,37.566,M,,*7A
[2021-02-22 14:27:35.124] $GNGGA,052734.90,3713.971672000,N,13701.489680000,E,1,16,0.59,87.727,M,37.566,M,,*7E
[2021-02-22 14:27:35.124] $GNGGA,052735.00,3713.971672000,N,13701.489686000,E,1,16,0.59,87.725,M,37.566,M,,*72
[2021-02-22 14:27:35.124] $GNGGA,052735.10,3713.971672000,N,13701.489686000,E,1,16,0.59,87.729,M,37.566,M,,*7F
[2021-02-22 14:27:35.124] $GNGGA,052735.20,3713.971672000,N,13701.489686000,E,1,16,0.59,87.728,M,37.566,M,,*7D
[2021-02-22 14:27:35.218] $GNGGA,052735.30,3713.971672000,N,13701.489686000,E,1,16,0.59,87.729,M,37.566,M,,*7D
[2021-02-22 14:27:35.342] $GNGGA,052735.40,3713.971672000,N,13701.489686000,E,1,16,0.59,87.726,M,37.566,M,,*75
[2021-02-22 14:27:35.421] $GNGGA,052735.50,3713.971672000,N,13701.489686000,E,1,16,0.59,87.732,M,37.566,M,,*71
[2021-02-22 14:27:35.514] $GNGGA,052735.60,3713.971672000,N,13701.489686000,E,1,16,0.59,87.730,M,37.566,M,,*70
[2021-02-22 14:27:35.624] $GNGGA,052735.70,3713.971672000,N,13701.489686000,E,1,16,0.59,87.730,M,37.566,M,,*71
