
[2021-02-22 14:44:53.178] $GPGGA,054435.40,,,,,0,00,0.0,,M,,M,0,0000*51
[2021-02-22 14:44:53.193] $GPGGA,054435.50,,,,,0,00,0.0,,M,,M,0,0000*50
[2021-02-22 14:44:53.193] $GPGGA,054435.60,,,,,0,00,0.0,,M,,M,0,0000*53
[2021-02-22 14:44:53.193] $GPGGA,054435.70,,,,,0,00,0.0,,M,,M,0,0000*52
[2021-02-22 14:44:53.193] $GPGGA,054435.80,,,,,0,00,0.0,,M,,M,0,0000*5D
[2021-02-22 14:44:53.193] $GPGGA,054435.90,,,,,0,00,0.0,,M,,M,0,0000*5C
[2021-02-22 14:44:53.193] $GPGGA,054436.00,,,,,0,00,0.0,,M,,M,0,0000*56
[2021-02-22 14:44:53.193] $GPGGA,054436.10,,,,,0,00,0.0,,M,,M,0,0000*57
[2021-02-22 14:44:53.193] $GPGGA,054436.20,,,,,0,00,0.0,,M,,M,0,0000*54
[2021-02-22 14:44:53.193] $GPGGA,054436.30,,,,,0,00,0.0,,M,,M,0,0000*55
[2021-02-22 14:44:53.193] $GPGGA,054436.40,,,,,0,00,0.0,,M,,M,0,0000*52
[2021-02-22 14:44:53.193] $GPGGA,054436.50,,,,,0,00,0.0,,M,,M,0,0000*53
[2021-02-22 14:44:53.193] $GPGGA,054436.60,,,,,0,00,0.0,,M,,M,0,0000*50
[2021-02-22 14:44:53.193] $GPGGA,054436.70,,,,,0,00,0.0,,M,,M,0,0000*51
[2021-02-22 14:44:53.193] $GPGGA,054436.80,,,,,0,00,0.0,,M,,M,0,0000*5E
[2021-02-22 14:44:53.193] $GPGGA,054436.90,,,,,0,00,0.0,,M,,M,0,0000*5F
[2021-02-22 14:44:53.193] $GPGGA,054437.00,,,,,0,00,0.0,,M,,M,0,0000*57
[2021-02-22 14:44:53.193] $GPGGA,054437.10,,,,,0,00,0.0,,M,,M,0,0000*56
[2021-02-22 14:44:53.193] $GPGGA,054437.20,,,,,0,00,0.0,,M,,M,0,0000*55
[2021-02-22 14:44:53.193] $GPGGA,054437.30,,,,,0,00,0.0,,M,,M,0,0000*54
[2021-02-22 14:44:53.193] $GPGGA,054437.40,,,,,0,00,0.0,,M,,M,0,0000*53
[2021-02-22 14:44:53.193] $GPGGA,054437.50,,,,,0,00,0.0,,M,,M,0,0000*52
[2021-02-22 14:44:53.209] $GPGGA,054437.60,,,,,0,00,0.0,,M,,M,0,0000*51
[2021-02-22 14:44:53.209] $GPGGA,054437.70,,,,,0,00,0.0,,M,,M,0,0000*50
[2021-02-22 14:44:53.209] $GPGGA,054437.80,,,,,0,00,0.0,,M,,M,0,0000*5F
[2021-02-22 14:44:53.209] $GPGGA,054437.90,,,,,0,00,0.0,,M,,M,0,0000*5E
[2021-02-22 14:44:53.209] $GPGGA,054438.00,,,,,0,00,0.0,,M,,M,0,0000*58
[2021-02-22 14:44:53.209] $GPGGA,054438.10,,,,,0,00,0.0,,M,,M,0,0000*59
[2021-02-22 14:44:53.209] $GPGGA,054438.20,,,,,0,00,0.0,,M,,M,0,0000*5A
[2021-02-22 14:44:53.209] $GPGGA,054438.30,,,,,0,00,0.0,,M,,M,0,0000*5B
[2021-02-22 14:44:53.209] $GPGGA,054438.40,,,,,0,00,0.0,,M,,M,0,0000*5C
[2021-02-22 14:44:53.209] $GPGGA,054438.50,,,,,0,00,0.0,,M,,M,0,0000*5D
[2021-02-22 14:44:53.209] $GPGGA,054438.60,,,,,0,00,0.0,,M,,M,0,0000*5E
[2021-02-22 14:44:53.209] $GPGGA,054438.70,,,,,0,00,0.0,,M,,M,0,0000*5F
[2021-02-22 14:44:53.209] $GPGGA,054438.80,,,,,0,00,0.0,,M,,M,0,0000*50
[2021-02-22 14:44:53.209] $GPGGA,054438.90,,,,,0,00,0.0,,M,,M,0,0000*51
[2021-02-22 14:44:53.209] $GPGGA,054439.00,,,,,0,00,0.0,,M,,M,0,0000*59
[2021-02-22 14:44:53.209] $GPGGA,054439.10,,,,,0,00,0.0,,M,,M,0,0000*58
[2021-02-22 14:44:53.209] $GPGGA,054439.20,,,,,0,00,0.0,,M,,M,0,0000*5B
[2021-02-22 14:44:53.209] $GPGGA,054439.30,,,,,0,00,0.0,,M,,M,0,0000*5A
[2021-02-22 14:44:53.209] $GPGGA,054439.40,,,,,0,00,0.0,,M,,M,0,0000*5D
[2021-02-22 14:44:53.209] $GPGGA,054439.50,,,,,0,00,0.0,,M,,M,0,0000*5C
[2021-02-22 14:44:53.209] $GPGGA,054439.60,,,,,0,00,0.0,,M,,M,0,0000*5F
[2021-02-22 14:44:53.209] $GPGGA,054439.70,,,,,0,00,0.0,,M,,M,0,0000*5E
[2021-02-22 14:44:53.224] $GPGGA,054439.80,,,,,0,00,0.0,,M,,M,0,0000*51
[2021-02-22 14:44:53.224] $GPGGA,054439.90,,,,,0,00,0.0,,M,,M,0,0000*50
[2021-02-22 14:44:53.224] $GPGGA,054440.00,,,,,0,00,0.0,,M,,M,0,0000*57
[2021-02-22 14:44:53.224] $GPGGA,054440.10,,,,,0,00,0.0,,M,,M,0,0000*56
[2021-02-22 14:44:53.224] $GPGGA,054440.20,,,,,0,00,0.0,,M,,M,0,0000*55
[2021-02-22 14:44:53.224] $GPGGA,054440.30,,,,,0,00,0.0,,M,,M,0,0000*54
[2021-02-22 14:44:53.224] $GPGGA,054440.40,,,,,0,00,0.0,,M,,M,0,0000*53
[2021-02-22 14:44:53.224] $GPGGA,054440.50,,,,,0,00,0.0,,M,,M,0,0000*52
[2021-02-22 14:44:53.224] $GPGGA,054440.60,,,,,0,00,0.0,,M,,M,0,0000*51
[2021-02-22 14:44:53.224] $GPGGA,054440.70,,,,,0,00,0.0,,M,,M,0,0000*50
[2021-02-22 14:44:53.224] $GPGGA,054440.80,,,,,0,00,0.0,,M,,M,0,0000*5F
[2021-02-22 14:44:53.224] $GPGGA,054440.90,,,,,0,00,0.0,,M,,M,0,0000*5E
[2021-02-22 14:44:53.224] $GPGGA,054441.00,,,,,0,00,0.0,,M,,M,0,0000*56
[2021-02-22 14:44:53.224] $GPGGA,054441.10,,,,,0,00,0.0,,M,,M,0,0000*57
[2021-02-22 14:44:53.224] $GPGGA,054441.20,,,,,0,00,0.0,,M,,M,0,0000*54
[2021-02-22 14:44:53.224] $GPGGA,054441.30,,,,,0,00,0.0,,M,,M,0,0000*55
[2021-02-22 14:44:53.224] $GPGGA,054441.40,,,,,0,00,0.0,,M,,M,0,0000*52
[2021-02-22 14:44:53.224] $GPGGA,054441.50,,,,,0,00,0.0,,M,,M,0,0000*53
[2021-02-22 14:44:53.224] $GPGGA,054441.60,,,,,0,00,0.0,,M,,M,0,0000*50
[2021-02-22 14:44:53.224] $GPGGA,054441.70,,,,,0,00,0.0,,M,,M,0,0000*51
[2021-02-22 14:44:53.224] $GPGGA,054441.80,,,,,0,00,0.0,,M,,M,0,0000*5E
[2021-02-22 14:44:53.240] $GPGGA,054441.90,,,,,0,00,0.0,,M,,M,0,0000*5F
[2021-02-22 14:44:53.240] $GPGGA,054442.00,,,,,0,00,0.0,,M,,M,0,0000*55
[2021-02-22 14:44:53.240] $GPGGA,054442.10,,,,,0,00,0.0,,M,,M,0,0000*54
[2021-02-22 14:44:53.240] $GPGGA,054442.20,,,,,0,00,0.0,,M,,M,0,0000*57
[2021-02-22 14:44:53.240] $GPGGA,054442.30,,,,,0,00,0.0,,M,,M,0,0000*56
[2021-02-22 14:44:53.240] $GPGGA,054442.40,,,,,0,00,0.0,,M,,M,0,0000*51
[2021-02-22 14:44:53.240] $GPGGA,054442.50,,,,,0,00,0.0,,M,,M,0,0000*50
[2021-02-22 14:44:53.240] $GPGGA,054442.60,,,,,0,00,0.0,,M,,M,0,0000*53
[2021-02-22 14:44:53.240] $GPGGA,054442.70,,,,,0,00,0.0,,M,,M,0,0000*52
[2021-02-22 14:44:53.240] $GPGGA,054442.80,,,,,0,00,0.0,,M,,M,0,0000*5D
[2021-02-22 14:44:53.240] $GPGGA,054442.90,,,,,0,00,0.0,,M,,M,0,0000*5C
[2021-02-22 14:44:53.240] $GPGGA,054443.00,,,,,0,00,0.0,,M,,M,0,0000*54
[2021-02-22 14:44:53.240] $GPGGA,054443.10,,,,,0,00,0.0,,M,,M,0,0000*55
[2021-02-22 14:44:53.240] $GPGGA,054443.20,,,,,0,00,0.0,,M,,M,0,0000*56
[2021-02-22 14:44:53.240] $GPGGA,054443.30,,,,,0,00,0.0,,M,,M,0,0000*57
[2021-02-22 14:44:53.240] $GPGGA,054443.40,,,,,0,00,0.0,,M,,M,0,0000*50
[2021-02-22 14:44:53.240] $GPGGA,054443.50,,,,,0,00,0.0,,M,,M,0,0000*51
[2021-02-22 14:44:53.240] $GPGGA,054443.60,,,,,0,00,0.0,,M,,M,0,0000*52
[2021-02-22 14:44:53.240] $GPGGA,054443.70,,,,,0,00,0.0,,M,,M,0,0000*53
[2021-02-22 14:44:53.240] $GPGGA,054443.80,,,,,0,00,0.0,,M,,M,0,0000*5C
[2021-02-22 14:44:53.240] $GPGGA,054443.90,,,,,0,00,0.0,,M,,M,0,0000*5D
[2021-02-22 14:44:53.240] $GPGGA,054444.00,,,,,0,00,0.0,,M,,M,0,0000*53
[2021-02-22 14:44:53.256] $GPGGA,054444.10,,,,,0,00,0.0,,M,,M,0,0000*52
[2021-02-22 14:44:53.256] $GPGGA,054444.20,,,,,0,00,0.0,,M,,M,0,0000*51
[2021-02-22 14:44:53.256] $GPGGA,054444.30,,,,,0,00,0.0,,M,,M,0,0000*50
[2021-02-22 14:44:53.256] $GPGGA,054444.40,,,,,0,00,0.0,,M,,M,0,0000*57
[2021-02-22 14:44:53.256] $GPGGA,054444.50,,,,,0,00,0.0,,M,,M,0,0000*56
[2021-02-22 14:44:53.256] $GPGGA,054444.60,,,,,0,00,0.0,,M,,M,0,0000*55
[2021-02-22 14:44:53.256] $GPGGA,054444.70,,,,,0,00,0.0,,M,,M,0,0000*54
[2021-02-22 14:44:53.256] $GPGGA,054444.80,,,,,0,00,0.0,,M,,M,0,0000*5B
[2021-02-22 14:44:53.256] $GPGGA,054444.90,,,,,0,00,0.0,,M,,M,0,0000*5A
[2021-02-22 14:44:53.256] $GPGGA,054445.00,,,,,0,00,0.0,,M,,M,0,0000*52
[2021-02-22 14:44:53.256] $GPGGA,054445.10,,,,,0,00,0.0,,M,,M,0,0000*53
[2021-02-22 14:44:53.256] $GPGGA,054445.20,,,,,0,00,0.0,,M,,M,0,0000*50
[2021-02-22 14:44:53.256] $GPGGA,054445.30,,,,,0,00,0.0,,M,,M,0,0000*51
[2021-02-22 14:44:53.256] $GPGGA,054445.40,,,,,0,00,0.0,,M,,M,0,0000*56
[2021-02-22 14:44:53.256] $GPGGA,054445.50,,,,,0,00,0.0,,M,,M,0,0000*57
[2021-02-22 14:44:53.256] $GPGGA,054445.60,,,,,0,00,0.0,,M,,M,0,0000*54
[2021-02-22 14:44:53.256] $GPGGA,054445.70,,,,,0,00,0.0,,M,,M,0,0000*55
[2021-02-22 14:44:53.256] $GPGGA,054445.80,,,,,0,00,0.0,,M,,M,0,0000*5A
[2021-02-22 14:44:53.256] $GPGGA,054445.90,,,,,0,00,0.0,,M,,M,0,0000*5B
[2021-02-22 14:44:53.256] $GPGGA,054446.00,,,,,0,00,0.0,,M,,M,0,0000*51
[2021-02-22 14:44:53.256] $GPGGA,054446.10,,,,,0,00,0.0,,M,,M,0,0000*50
[2021-02-22 14:44:53.271] $GPGGA,054446.20,,,,,0,00,0.0,,M,,M,0,0000*53
[2021-02-22 14:44:53.271] $GPGGA,054446.30,,,,,0,00,0.0,,M,,M,0,0000*52
[2021-02-22 14:44:53.271] $GPGGA,054446.40,,,,,0,00,0.0,,M,,M,0,0000*55
[2021-02-22 14:44:53.271] $GPGGA,054446.50,,,,,0,00,0.0,,M,,M,0,0000*54
[2021-02-22 14:44:53.271] $GPGGA,054446.60,,,,,0,00,0.0,,M,,M,0,0000*57
[2021-02-22 14:44:53.271] $GPGGA,054446.70,,,,,0,00,0.0,,M,,M,0,0000*56
[2021-02-22 14:44:53.271] $GPGGA,054446.80,,,,,0,00,0.0,,M,,M,0,0000*59
[2021-02-22 14:44:53.271] $GPGGA,054446.90,,,,,0,00,0.0,,M,,M,0,0000*58
[2021-02-22 14:44:53.271] $GPGGA,054447.00,,,,,0,00,0.0,,M,,M,0,0000*50
[2021-02-22 14:44:53.271] $GPGGA,054447.10,,,,,0,00,0.0,,M,,M,0,0000*51
[2021-02-22 14:44:53.271] $GPGGA,054447.20,,,,,0,00,0.0,,M,,M,0,0000*52
[2021-02-22 14:44:53.271] $GPGGA,054447.30,,,,,0,00,0.0,,M,,M,0,0000*53
[2021-02-22 14:44:53.271] $GPGGA,054447.40,,,,,0,00,0.0,,M,,M,0,0000*54
[2021-02-22 14:44:53.271] $GPGGA,054447.50,,,,,0,00,0.0,,M,,M,0,0000*55
[2021-02-22 14:44:53.271] $GPGGA,054447.60,,,,,0,00,0.0,,M,,M,0,0000*56
[2021-02-22 14:44:53.271] $GPGGA,054447.70,,,,,0,00,0.0,,M,,M,0,0000*57
[2021-02-22 14:44:53.271] $GPGGA,054447.80,,,,,0,00,0.0,,M,,M,0,0000*58
[2021-02-22 14:44:53.271] $GPGGA,054447.90,,,,,0,00,0.0,,M,,M,0,0000*59
[2021-02-22 14:44:53.271] $GPGGA,054448.00,,,,,0,00,0.0,,M,,M,0,0000*5F
[2021-02-22 14:44:53.271] $GPGGA,054448.10,,,,,0,00,0.0,,M,,M,0,0000*5E
[2021-02-22 14:44:53.271] $GPGGA,054448.20,,,,,0,00,0.0,,M,,M,0,0000*5D
[2021-02-22 14:44:53.271] $GPGGA,054448.30,,,,,0,00,0.0,,M,,M,0,0000*5C
[2021-02-22 14:44:53.287] $GPGGA,054448.40,,,,,0,00,0.0,,M,,M,0,0000*5B
[2021-02-22 14:44:53.287] $GPGGA,054448.50,,,,,0,00,0.0,,M,,M,0,0000*5A
[2021-02-22 14:44:53.287] $GPGGA,054448.60,,,,,0,00,0.0,,M,,M,0,0000*59
[2021-02-22 14:44:53.287] $GPGGA,054448.70,,,,,0,00,0.0,,M,,M,0,0000*58
[2021-02-22 14:44:53.287] $GPGGA,054448.80,,,,,0,00,0.0,,M,,M,0,0000*57
[2021-02-22 14:44:53.287] $GPGGA,054448.90,,,,,0,00,0.0,,M,,M,0,0000*56
[2021-02-22 14:44:53.287] $GPGGA,054449.00,,,,,0,00,0.0,,M,,M,0,0000*5E
[2021-02-22 14:44:53.287] $GPGGA,054449.10,,,,,0,00,0.0,,M,,M,0,0000*5F
[2021-02-22 14:44:53.287] $GPGGA,054449.20,,,,,0,00,0.0,,M,,M,0,0000*5C
[2021-02-22 14:44:53.287] $GPGGA,054449.30,,,,,0,00,0.0,,M,,M,0,0000*5D
[2021-02-22 14:44:53.287] $GPGGA,054449.40,,,,,0,00,0.0,,M,,M,0,0000*5A
[2021-02-22 14:44:53.287] $GPGGA,054449.50,,,,,0,00,0.0,,M,,M,0,0000*5B
[2021-02-22 14:44:53.287] $GPGGA,054449.60,,,,,0,00,0.0,,M,,M,0,0000*58
[2021-02-22 14:44:53.287] $GPGGA,054449.70,,,,,0,00,0.0,,M,,M,0,0000*59
[2021-02-22 14:44:53.287] $GPGGA,054449.80,,,,,0,00,0.0,,M,,M,0,0000*56
[2021-02-22 14:44:53.287] $GPGGA,054449.90,,,,,0,00,0.0,,M,,M,0,0000*57
[2021-02-22 14:44:53.287] $GPGGA,054450.00,,,,,0,00,0.0,,M,,M,0,0000*56
[2021-02-22 14:44:53.287] $GPGGA,054450.10,,,,,0,00,0.0,,M,,M,0,0000*57
[2021-02-22 14:44:53.287] $GPGGA,054450.20,,,,,0,00,0.0,,M,,M,0,0000*54
[2021-02-22 14:44:53.287] $GPGGA,054450.30,,,,,0,00,0.0,,M,,M,0,0000*55
[2021-02-22 14:44:53.287] $GPGGA,054450.40,,,,,0,00,0.0,,M,,M,0,0000*52
[2021-02-22 14:44:53.287] $GPGGA,054450.50,,,,,0,00,0.0,,M,,M,0,0000*53
[2021-02-22 14:44:53.303] $GPGGA,054450.60,,,,,0,00,0.0,,M,,M,0,0000*50
[2021-02-22 14:44:53.303] $GPGGA,054450.70,,,,,0,00,0.0,,M,,M,0,0000*51
[2021-02-22 14:44:53.303] $GPGGA,054450.80,,,,,0,00,0.0,,M,,M,0,0000*5E
[2021-02-22 14:44:53.303] $GPGGA,054450.90,,,,,0,00,0.0,,M,,M,0,0000*5F
[2021-02-22 14:44:53.303] $GPGGA,054451.00,,,,,0,00,0.0,,M,,M,0,0000*57
[2021-02-22 14:44:53.303] $GPGGA,054451.10,,,,,0,00,0.0,,M,,M,0,0000*56
[2021-02-22 14:44:53.303] $GPGGA,054451.20,,,,,0,00,0.0,,M,,M,0,0000*55
[2021-02-22 14:44:53.303] $GPGGA,054451.30,,,,,0,00,0.0,,M,,M,0,0000*54
[2021-02-22 14:44:53.303] $GPGGA,054451.40,,,,,0,00,0.0,,M,,M,0,0000*53
[2021-02-22 14:44:53.303] $GPGGA,054451.50,,,,,0,00,0.0,,M,,M,0,0000*52
[2021-02-22 14:44:53.303] $GPGGA,054451.60,,,,,0,00,0.0,,M,,M,0,0000*51
[2021-02-22 14:44:53.303] $GPGGA,054451.70,,,,,0,00,0.0,,M,,M,0,0000*50
[2021-02-22 14:44:53.303] $GPGGA,054451.80,,,,,0,00,0.0,,M,,M,0,0000*5F
[2021-02-22 14:44:53.303] $GPGGA,054451.90,,,,,0,00,0.0,,M,,M,0,0000*5E
[2021-02-22 14:44:53.303] $GPGGA,054452.00,,,,,0,00,0.0,,M,,M,0,0000*54
[2021-02-22 14:44:53.303] $GPGGA,054452.10,,,,,0,00,0.0,,M,,M,0,0000*55
[2021-02-22 14:44:53.303] $GPGGA,054452.20,,,,,0,00,0.0,,M,,M,0,0000*56
[2021-02-22 14:44:53.303] $GPGGA,054452.30,,,,,0,00,0.0,,M,,M,0,0000*57
[2021-02-22 14:44:53.303] $GPGGA,054452.40,,,,,0,00,0.0,,M,,M,0,0000*50
[2021-02-22 14:44:53.303] $GPGGA,054452.50,,,,,0,00,0.0,,M,,M,0,0000*51
[2021-02-22 14:44:53.303] $GPGGA,054452.60,,,,,0,00,0.0,,M,,M,0,0000*52
[2021-02-22 14:44:53.303] $GPGGA,054452.70,,,,,0,00,0.0,,M,,M,0,0000*53
[2021-02-22 14:44:53.303] $GPGGA,054452.80,,,,,0,00,0.0,,M,,M,0,0000*5C
[2021-02-22 14:44:53.303] $GPGGA,054452.90,,,,,0,00,0.0,,M,,M,0,0000*5D
[2021-02-22 14:44:53.396] $GPGGA,054453.00,,,,,0,00,0.0,,M,,M,0,0000*55
[2021-02-22 14:44:53.506] $GPGGA,054453.10,,,,,0,00,0.0,,M,,M,0,0000*54
[2021-02-22 14:44:53.599] $GPGGA,054453.20,,,,,0,00,0.0,,M,,M,0,0000*57
[2021-02-22 14:44:53.693] $GPGGA,054453.30,,,,,0,00,0.0,,M,,M,0,0000*56
[2021-02-22 14:44:53.803] $GPGGA,054453.40,,,,,0,00,0.0,,M,,M,0,0000*51
[2021-02-22 14:44:53.896] $GPGGA,054453.50,,,,,0,00,0.0,,M,,M,0,0000*50
[2021-02-22 14:44:53.990] $GPGGA,054453.60,,,,,0,00,0.0,,M,,M,0,0000*53
[2021-02-22 14:44:54.099] $GPGGA,054453.70,,,,,0,00,0.0,,M,,M,0,0000*52
[2021-02-22 14:44:54.209] $GPGGA,054453.80,,,,,0,00,0.0,,M,,M,0,0000*5D
[2021-02-22 14:44:54.303] $GPGGA,054453.90,,,,,0,00,0.0,,M,,M,0,0000*5C
[2021-02-22 14:44:54.396] $GPGGA,054454.00,,,,,0,00,0.0,,M,,M,0,0000*52
[2021-02-22 14:44:54.490] $GPGGA,054454.10,,,,,0,00,0.0,,M,,M,0,0000*53
[2021-02-22 14:44:54.599] $GPGGA,054454.20,,,,,0,00,0.0,,M,,M,0,0000*50
[2021-02-22 14:44:54.709] $GPGGA,054454.30,,,,,0,00,0.0,,M,,M,0,0000*51
[2021-02-22 14:44:54.802] $GPGGA,054454.40,,,,,0,00,0.0,,M,,M,0,0000*56
[2021-02-22 14:44:54.896] $GPGGA,054454.50,,,,,0,00,0.0,,M,,M,0,0000*57
[2021-02-22 14:44:55.006] $GPGGA,054454.60,,,,,0,00,0.0,,M,,M,0,0000*54
[2021-02-22 14:44:55.099] $GPGGA,054454.70,,,,,0,00,0.0,,M,,M,0,0000*55
[2021-02-22 14:44:55.193] $GPGGA,054454.80,,,,,0,00,0.0,,M,,M,0,0000*5A
[2021-02-22 14:44:55.287] $GPGGA,054454.90,,,,,0,00,0.0,,M,,M,0,0000*5B
[2021-02-22 14:44:55.412] $GPGGA,054455.00,,,,,0,00,0.0,,M,,M,0,0000*53
[2021-02-22 14:44:55.506] $GPGGA,054455.10,,,,,0,00,0.0,,M,,M,0,0000*52
[2021-02-22 14:44:55.599] $GPGGA,054455.20,,,,,0,00,0.0,,M,,M,0,0000*51
[2021-02-22 14:44:55.709] $GPGGA,054455.30,,,,,0,00,0.0,,M,,M,0,0000*50
[2021-02-22 14:44:55.802] $GPGGA,054455.40,,,,,0,00,0.0,,M,,M,0,0000*57
[2021-02-22 14:44:55.896] $GPGGA,054455.50,,,,,0,00,0.0,,M,,M,0,0000*56
[2021-02-22 14:44:55.990] $GPGGA,054455.60,,,,,0,00,0.0,,M,,M,0,0000*55
[2021-02-22 14:44:56.099] $GPGGA,054455.70,,,,,0,00,0.0,,M,,M,0,0000*54
[2021-02-22 14:44:56.209] $GPGGA,054455.80,,,,,0,00,0.0,,M,,M,0,0000*5B
[2021-02-22 14:44:56.302] $GPGGA,054455.90,,,,,0,00,0.0,,M,,M,0,0000*5A
[2021-02-22 14:44:56.396] $GPGGA,054456.00,,,,,0,00,0.0,,M,,M,0,0000*50
[2021-02-22 14:44:56.490] $GPGGA,054456.10,,,,,0,00,0.0,,M,,M,0,0000*51
[2021-02-22 14:44:56.584] $GPGGA,054456.20,,,,,0,00,0.0,,M,,M,0,0000*52
[2021-02-22 14:44:56.709] $GPGGA,054456.30,,,,,0,00,0.0,,M,,M,0,0000*53
[2021-02-22 14:44:56.802] $GPGGA,054456.40,,,,,0,00,0.0,,M,,M,0,0000*54
[2021-02-22 14:44:56.896] $GPGGA,054456.50,,,,,0,00,0.0,,M,,M,0,0000*55
[2021-02-22 14:44:56.990] $GPGGA,054456.60,,,,,0,00,0.0,,M,,M,0,0000*56
[2021-02-22 14:44:57.099] $GPGGA,054456.70,,,,,0,00,0.0,,M,,M,0,0000*57
[2021-02-22 14:44:57.193] $GPGGA,054456.80,,,,,0,00,0.0,,M,,M,0,0000*58
[2021-02-22 14:44:57.287] $GPGGA,054456.90,,,,,0,00,0.0,,M,,M,0,0000*59
[2021-02-22 14:44:57.412] $GPGGA,054457.00,,,,,0,00,0.0,,M,,M,0,0000*51
[2021-02-22 14:44:57.505] $GPGGA,054457.10,,,,,0,00,0.0,,M,,M,0,0000*50
[2021-02-22 14:44:57.599] $GPGGA,054457.20,,,,,0,00,0.0,,M,,M,0,0000*53
[2021-02-22 14:44:57.693] $GPGGA,054457.30,,,,,0,00,0.0,,M,,M,0,0000*52
[2021-02-22 14:44:57.802] $GPGGA,054457.40,,,,,0,00,0.0,,M,,M,0,0000*55
[2021-02-22 14:44:57.896] $GPGGA,054457.50,,,,,0,00,0.0,,M,,M,0,0000*54
[2021-02-22 14:44:57.990] $GPGGA,054457.60,,,,,0,00,0.0,,M,,M,0,0000*57
[2021-02-22 14:44:58.099] $GPGGA,054457.70,,,,,0,00,0.0,,M,,M,0,0000*56
[2021-02-22 14:44:58.209] $GPGGA,054457.80,,,,,0,00,0.0,,M,,M,0,0000*59
[2021-02-22 14:44:58.302] $GPGGA,054457.90,,,,,0,00,0.0,,M,,M,0,0000*58
[2021-02-22 14:44:58.396] $GPGGA,054458.00,,,,,0,00,0.0,,M,,M,0,0000*5E
[2021-02-22 14:44:58.490] $GPGGA,054458.10,,,,,0,00,0.0,,M,,M,0,0000*5F
[2021-02-22 14:44:58.599] $GPGGA,054458.20,,,,,0,00,0.0,,M,,M,0,0000*5C
[2021-02-22 14:44:58.693] $GPGGA,054458.30,,,,,0,00,0.0,,M,,M,0,0000*5D
[2021-02-22 14:44:58.802] $GPGGA,054458.40,,,,,0,00,0.0,,M,,M,0,0000*5A
[2021-02-22 14:44:58.896] $GPGGA,054458.50,,,,,0,00,0.0,,M,,M,0,0000*5B
[2021-02-22 14:44:59.005] $GPGGA,054458.60,,,,,0,00,0.0,,M,,M,0,0000*58
[2021-02-22 14:44:59.099] $GPGGA,054458.70,,,,,0,00,0.0,,M,,M,0,0000*59
[2021-02-22 14:44:59.193] $GPGGA,054458.80,,,,,0,00,0.0,,M,,M,0,0000*56
[2021-02-22 14:44:59.302] $GPGGA,054458.90,,,,,0,00,0.0,,M,,M,0,0000*57
[2021-02-22 14:44:59.412] $GPGGA,054459.00,,,,,0,00,0.0,,M,,M,0,0000*5F
[2021-02-22 14:44:59.505] $GPGGA,054459.10,,,,,0,00,0.0,,M,,M,0,0000*5E
[2021-02-22 14:44:59.599] $GPGGA,054459.20,,,,,0,00,0.0,,M,,M,0,0000*5D
[2021-02-22 14:44:59.708] $GPGGA,054459.30,,,,,0,00,0.0,,M,,M,0,0000*5C
[2021-02-22 14:44:59.802] $GPGGA,054459.40,,,,,0,00,0.0,,M,,M,0,0000*5B
[2021-02-22 14:44:59.896] $GPGGA,054459.50,,,,,0,00,0.0,,M,,M,0,0000*5A
[2021-02-22 14:44:59.990] $GPGGA,054459.60,,,,,0,00,0.0,,M,,M,0,0000*59
[2021-02-22 14:45:00.099] $GPGGA,054459.70,,,,,0,00,0.0,,M,,M,0,0000*58
[2021-02-22 14:45:00.208] $GPGGA,054459.80,,,,,0,00,0.0,,M,,M,0,0000*57
[2021-02-22 14:45:00.302] $GPGGA,054459.90,,,,,0,00,0.0,,M,,M,0,0000*56
[2021-02-22 14:45:00.396] $GPGGA,054500.00,,,,,0,00,0.0,,M,,M,0,0000*52
[2021-02-22 14:45:00.490] $GPGGA,054500.10,,,,,0,00,0.0,,M,,M,0,0000*53
[2021-02-22 14:45:00.583] $GPGGA,054500.20,,,,,0,00,0.0,,M,,M,0,0000*50
[2021-02-22 14:45:00.693] $GPGGA,054500.30,,,,,0,00,0.0,,M,,M,0,0000*51
[2021-02-22 14:45:00.802] $GPGGA,054500.40,,,,,0,00,0.0,,M,,M,0,0000*56
[2021-02-22 14:45:00.896] $GPGGA,054500.50,,,,,0,00,0.0,,M,,M,0,0000*57
[2021-02-22 14:45:01.005] $GPGGA,054500.60,,,,,0,00,0.0,,M,,M,0,0000*54
[2021-02-22 14:45:01.099] $GPGGA,054500.70,,,,,0,00,0.0,,M,,M,0,0000*55
[2021-02-22 14:45:01.193] $GPGGA,054500.80,,,,,0,00,0.0,,M,,M,0,0000*5A
[2021-02-22 14:45:01.286] $GPGGA,054500.90,,,,,0,00,0.0,,M,,M,0,0000*5B
[2021-02-22 14:45:01.411] $GPGGA,054501.00,,,,,0,00,0.0,,M,,M,0,0000*53
[2021-02-22 14:45:01.505] $GPGGA,054501.10,,,,,0,00,0.0,,M,,M,0,0000*52
[2021-02-22 14:45:01.599] $GPGGA,054501.20,,,,,0,00,0.0,,M,,M,0,0000*51
[2021-02-22 14:45:01.693] $GPGGA,054501.30,,,,,0,00,0.0,,M,,M,0,0000*50
[2021-02-22 14:45:01.802] $GPGGA,054501.40,,,,,0,00,0.0,,M,,M,0,0000*57
[2021-02-22 14:45:01.896] $GPGGA,054501.50,,,,,0,00,0.0,,M,,M,0,0000*56
[2021-02-22 14:45:01.989] $GPGGA,054501.60,,,,,0,00,0.0,,M,,M,0,0000*55
[2021-02-22 14:45:02.083] $GPGGA,054501.70,,,,,0,00,0.0,,M,,M,0,0000*54
[2021-02-22 14:45:02.208] $GPGGA,054501.80,,,,,0,00,0.0,,M,,M,0,0000*5B
[2021-02-22 14:45:02.302] $GPGGA,054501.90,,,,,0,00,0.0,,M,,M,0,0000*5A
[2021-02-22 14:45:02.396] $GPGGA,054502.00,,,,,0,00,0.0,,M,,M,0,0000*50
[2021-02-22 14:45:02.489] $GPGGA,054502.10,,,,,0,00,0.0,,M,,M,0,0000*51
[2021-02-22 14:45:02.599] $GPGGA,054502.20,,,,,0,00,0.0,,M,,M,0,0000*52
[2021-02-22 14:45:02.693] $GPGGA,054502.30,,,,,0,00,0.0,,M,,M,0,0000*53
[2021-02-22 14:45:02.802] $GPGGA,054502.40,,,,,0,00,0.0,,M,,M,0,0000*54
[2021-02-22 14:45:02.911] $GPGGA,054502.50,,,,,0,00,0.0,,M,,M,0,0000*55
[2021-02-22 14:45:03.005] $GPGGA,054502.60,,,,,0,00,0.0,,M,,M,0,0000*56
[2021-02-22 14:45:03.099] $GPGGA,054502.70,,,,,0,00,0.0,,M,,M,0,0000*57
[2021-02-22 14:45:03.193] $GPGGA,054502.80,,,,,0,00,0.0,,M,,M,0,0000*58
[2021-02-22 14:45:03.302] $GPGGA,054502.90,,,,,0,00,0.0,,M,,M,0,0000*59
[2021-02-22 14:45:03.396] $GPGGA,054503.00,,,,,0,00,0.0,,M,,M,0,0000*51
[2021-02-22 14:45:03.505] $GPGGA,054503.10,,,,,0,00,0.0,,M,,M,0,0000*50
[2021-02-22 14:45:03.599] $GPGGA,054503.20,,,,,0,00,0.0,,M,,M,0,0000*53
[2021-02-22 14:45:03.708] $GPGGA,054503.30,,,,,0,00,0.0,,M,,M,0,0000*52
[2021-02-22 14:45:03.802] $GPGGA,054503.40,,,,,0,00,0.0,,M,,M,0,0000*55
[2021-02-22 14:45:03.896] $GPGGA,054503.50,,,,,0,00,0.0,,M,,M,0,0000*54
[2021-02-22 14:45:03.989] $GPGGA,054503.60,,,,,0,00,0.0,,M,,M,0,0000*57
[2021-02-22 14:45:04.114] $GPGGA,054503.70,,,,,0,00,0.0,,M,,M,0,0000*56
[2021-02-22 14:45:04.208] $GPGGA,054503.80,,,,,0,00,0.0,,M,,M,0,0000*59
[2021-02-22 14:45:04.302] $GPGGA,054503.90,,,,,0,00,0.0,,M,,M,0,0000*58
[2021-02-22 14:45:04.396] $GPGGA,054504.00,,,,,0,00,0.0,,M,,M,0,0000*56
[2021-02-22 14:45:04.489] $GPGGA,054504.10,,,,,0,00,0.0,,M,,M,0,0000*57
[2021-02-22 14:45:04.599] $GPGGA,054504.20,,,,,0,00,0.0,,M,,M,0,0000*54
[2021-02-22 14:45:04.692] $GPGGA,054504.30,,,,,0,00,0.0,,M,,M,0,0000*55
[2021-02-22 14:45:04.802] $GPGGA,054504.40,,,,,0,00,0.0,,M,,M,0,0000*52
[2021-02-22 14:45:04.896] $GPGGA,054504.50,,,,,0,00,0.0,,M,,M,0,0000*53
[2021-02-22 14:45:05.005] $GPGGA,054504.60,,,,,0,00,0.0,,M,,M,0,0000*50
[2021-02-22 14:45:05.099] $GPGGA,054504.70,,,,,0,00,0.0,,M,,M,0,0000*51
[2021-02-22 14:45:05.192] $GPGGA,054504.80,,,,,0,00,0.0,,M,,M,0,0000*5E
[2021-02-22 14:45:05.286] $GPGGA,054504.90,,,,,0,00,0.0,,M,,M,0,0000*5F
[2021-02-22 14:45:05.396] $GPGGA,054505.00,,,,,0,00,0.0,,M,,M,0,0000*57
[2021-02-22 14:45:05.505] $GPGGA,054505.10,,,,,0,00,0.0,,M,,M,0,0000*56
[2021-02-22 14:45:05.599] $GPGGA,054505.20,,,,,0,00,0.0,,M,,M,0,0000*55
[2021-02-22 14:45:05.692] $GPGGA,054505.30,,,,,0,00,0.0,,M,,M,0,0000*54
[2021-02-22 14:45:05.802] $GPGGA,054505.40,,,,,0,00,0.0,,M,,M,0,0000*53
[2021-02-22 14:45:05.895] $GPGGA,054505.50,,,,,0,00,0.0,,M,,M,0,0000*52
[2021-02-22 14:45:05.989] $GPGGA,054505.60,,,,,0,00,0.0,,M,,M,0,0000*51
[2021-02-22 14:45:06.114] $GPGGA,054505.70,,,,,0,00,0.0,,M,,M,0,0000*50
[2021-02-22 14:45:06.208] $GPGGA,054505.80,,,,,0,00,0.0,,M,,M,0,0000*5F
[2021-02-22 14:45:06.302] $GPGGA,054505.90,,,,,0,00,0.0,,M,,M,0,0000*5E
[2021-02-22 14:45:06.395] $GPGGA,054506.00,,,,,0,00,0.0,,M,,M,0,0000*54
[2021-02-22 14:45:06.505] $GPGGA,054506.10,,,,,0,00,0.0,,M,,M,0,0000*55
[2021-02-22 14:45:06.599] $GPGGA,054506.20,,,,,0,00,0.0,,M,,M,0,0000*56
[2021-02-22 14:45:06.692] $GPGGA,054506.30,,,,,0,00,0.0,,M,,M,0,0000*57
[2021-02-22 14:45:06.802] $GPGGA,054506.40,,,,,0,00,0.0,,M,,M,0,0000*50
[2021-02-22 14:45:06.911] $GPGGA,054506.50,,,,,0,00,0.0,,M,,M,0,0000*51
[2021-02-22 14:45:07.005] $GPGGA,054506.60,,,,,0,00,0.0,,M,,M,0,0000*52
[2021-02-22 14:45:07.099] $GPGGA,054506.70,,,,,0,00,0.0,,M,,M,0,0000*53
[2021-02-22 14:45:07.192] $GPGGA,054506.80,,,,,0,00,0.0,,M,,M,0,0000*5C
[2021-02-22 14:45:07.302] $GPGGA,054506.90,,,,,0,00,0.0,,M,,M,0,0000*5D
[2021-02-22 14:45:07.395] $GPGGA,054507.00,,,,,0,00,0.0,,M,,M,0,0000*55
[2021-02-22 14:45:07.505] $GPGGA,054507.10,,,,,0,00,0.0,,M,,M,0,0000*54
[2021-02-22 14:45:07.598] $GPGGA,054507.20,,,,,0,00,0.0,,M,,M,0,0000*57
[2021-02-22 14:45:07.708] $GPGGA,054507.30,,,,,0,00,0.0,,M,,M,0,0000*56
[2021-02-22 14:45:07.802] $GPGGA,054507.40,,,,,0,00,0.0,,M,,M,0,0000*51
[2021-02-22 14:45:07.895] $GPGGA,054507.50,,,,,0,00,0.0,,M,,M,0,0000*50
[2021-02-22 14:45:07.989] $GPGGA,054507.60,,,,,0,00,0.0,,M,,M,0,0000*53
[2021-02-22 14:45:08.098] $GPGGA,054507.70,,,,,0,00,0.0,,M,,M,0,0000*52
[2021-02-22 14:45:08.208] $GPGGA,054507.80,,,,,0,00,0.0,,M,,M,0,0000*5D
[2021-02-22 14:45:08.302] $GPGGA,054507.90,,,,,0,00,0.0,,M,,M,0,0000*5C
[2021-02-22 14:45:08.395] $GPGGA,054508.00,,,,,0,00,0.0,,M,,M,0,0000*5A
[2021-02-22 14:45:08.489] $GPGGA,054508.10,,,,,0,00,0.0,,M,,M,0,0000*5B
[2021-02-22 14:45:08.598] $GPGGA,054508.20,,,,,0,00,0.0,,M,,M,0,0000*58
[2021-02-22 14:45:08.692] $GPGGA,054508.30,,,,,0,00,0.0,,M,,M,0,0000*59
[2021-02-22 14:45:08.786] $GPGGA,054508.40,,,,,0,00,0.0,,M,,M,0,0000*5E
[2021-02-22 14:45:08.895] $GPGGA,054508.50,,,,,0,00,0.0,,M,,M,0,0000*5F
[2021-02-22 14:45:09.005] $GPGGA,054508.60,,,,,0,00,0.0,,M,,M,0,0000*5C
[2021-02-22 14:45:09.098] $GPGGA,054508.70,,,,,0,00,0.0,,M,,M,0,0000*5D
[2021-02-22 14:45:09.192] $GPGGA,054508.80,,,,,0,00,0.0,,M,,M,0,0000*52
[2021-02-22 14:45:09.286] $GPGGA,054508.90,,,,,0,00,0.0,,M,,M,0,0000*53
[2021-02-22 14:45:09.395] $GPGGA,054509.00,,,,,0,00,0.0,,M,,M,0,0000*5B
[2021-02-22 14:45:09.505] $GPGGA,054509.10,,,,,0,00,0.0,,M,,M,0,0000*5A
[2021-02-22 14:45:09.598] $GPGGA,054509.20,,,,,0,00,0.0,,M,,M,0,0000*59
[2021-02-22 14:45:09.708] $GPGGA,054509.30,,,,,0,00,0.0,,M,,M,0,0000*58
[2021-02-22 14:45:09.801] $GPGGA,054509.40,,,,,0,00,0.0,,M,,M,0,0000*5F
[2021-02-22 14:45:09.895] $GPGGA,054509.50,,,,,0,00,0.0,,M,,M,0,0000*5E
[2021-02-22 14:45:09.989] $GPGGA,054509.60,,,,,0,00,0.0,,M,,M,0,0000*5D
[2021-02-22 14:45:10.098] $GPGGA,054509.70,,,,,0,00,0.0,,M,,M,0,0000*5C
[2021-02-22 14:45:10.208] $GPGGA,054509.80,,,,,0,00,0.0,,M,,M,0,0000*53
[2021-02-22 14:45:10.301] $GPGGA,054509.90,,,,,0,00,0.0,,M,,M,0,0000*52
[2021-02-22 14:45:10.395] $GPGGA,054510.00,,,,,0,00,0.0,,M,,M,0,0000*53
[2021-02-22 14:45:10.505] $GPGGA,054510.10,,,,,0,00,0.0,,M,,M,0,0000*52
[2021-02-22 14:45:10.598] $GPGGA,054510.20,,,,,0,00,0.0,,M,,M,0,0000*51
[2021-02-22 14:45:10.692] $GPGGA,054510.30,,,,,0,00,0.0,,M,,M,0,0000*50
[2021-02-22 14:45:10.786] $GPGGA,054510.40,,,,,0,00,0.0,,M,,M,0,0000*57
[2021-02-22 14:45:10.911] $GPGGA,054510.50,,,,,0,00,0.0,,M,,M,0,0000*56
[2021-02-22 14:45:11.004] $GPGGA,054510.60,,,,,0,00,0.0,,M,,M,0,0000*55
[2021-02-22 14:45:11.098] $GPGGA,054510.70,,,,,0,00,0.0,,M,,M,0,0000*54
[2021-02-22 14:45:11.192] $GPGGA,054510.80,,,,,0,00,0.0,,M,,M,0,0000*5B
[2021-02-22 14:45:11.301] $GPGGA,054510.90,,,,,0,00,0.0,,M,,M,0,0000*5A
[2021-02-22 14:45:11.395] $GPGGA,054511.00,,,,,0,00,0.0,,M,,M,0,0000*52
[2021-02-22 14:45:11.504] $GPGGA,054511.10,,,,,0,00,0.0,,M,,M,0,0000*53
[2021-02-22 14:45:11.614] $GPGGA,054511.20,,,,,0,00,0.0,,M,,M,0,0000*50
[2021-02-22 14:45:11.708] $GPGGA,054511.30,,,,,0,00,0.0,,M,,M,0,0000*51
[2021-02-22 14:45:11.801] $GPGGA,054511.40,,,,,0,00,0.0,,M,,M,0,0000*56
[2021-02-22 14:45:11.895] $GPGGA,054511.50,,,,,0,00,0.0,,M,,M,0,0000*57
[2021-02-22 14:45:12.004] $GPGGA,054511.60,,,,,0,00,0.0,,M,,M,0,0000*54
[2021-02-22 14:45:12.098] $GPGGA,054511.70,,,,,0,00,0.0,,M,,M,0,0000*55
[2021-02-22 14:45:12.208] $GPGGA,054511.80,,,,,0,00,0.0,,M,,M,0,0000*5A
[2021-02-22 14:45:12.301] $GPGGA,054511.90,,,,,0,00,0.0,,M,,M,0,0000*5B
[2021-02-22 14:45:12.395] $GPGGA,054512.00,,,,,0,00,0.0,,M,,M,0,0000*51
[2021-02-22 14:45:12.504] $GPGGA,054512.10,,,,,0,00,0.0,,M,,M,0,0000*50
[2021-02-22 14:45:12.598] $GPGGA,054512.20,,,,,0,00,0.0,,M,,M,0,0000*53
[2021-02-22 14:45:12.692] $GPGGA,054512.30,,,,,0,00,0.0,,M,,M,0,0000*52
[2021-02-22 14:45:12.786] $GPGGA,054512.40,,,,,0,00,0.0,,M,,M,0,0000*55
[2021-02-22 14:45:12.895] $GPGGA,054512.50,,,,,0,00,0.0,,M,,M,0,0000*54
[2021-02-22 14:45:13.004] $GPGGA,054512.60,,,,,0,00,0.0,,M,,M,0,0000*57
[2021-02-22 14:45:13.098] $GPGGA,054512.70,,,,,0,00,0.0,,M,,M,0,0000*56
[2021-02-22 14:45:13.192] $GPGGA,054512.80,,,,,0,00,0.0,,M,,M,0,0000*59
[2021-02-22 14:45:13.301] $GPGGA,054512.90,,,,,0,00,0.0,,M,,M,0,0000*58
[2021-02-22 14:45:13.395] $GPGGA,054513.00,,,,,0,00,0.0,,M,,M,0,0000*50
[2021-02-22 14:45:13.489] $GPGGA,054513.10,,,,,0,00,0.0,,M,,M,0,0000*51
[2021-02-22 14:45:13.598] $GPGGA,054513.20,,,,,0,00,0.0,,M,,M,0,0000*52
[2021-02-22 14:45:13.707] $GPGGA,054513.30,,,,,0,00,0.0,,M,,M,0,0000*53
[2021-02-22 14:45:13.801] $GPGGA,054513.40,,,,,0,00,0.0,,M,,M,0,0000*54
[2021-02-22 14:45:13.895] $GPGGA,054513.50,,,,,0,00,0.0,,M,,M,0,0000*55
[2021-02-22 14:45:13.989] $GPGGA,054513.60,,,,,0,00,0.0,,M,,M,0,0000*56
[2021-02-22 14:45:14.098] $GPGGA,054513.70,,,,,0,00,0.0,,M,,M,0,0000*57
[2021-02-22 14:45:14.207] $GPGGA,054513.80,,,,,0,00,0.0,,M,,M,0,0000*58
[2021-02-22 14:45:14.301] $GPGGA,054513.90,,,,,0,00,0.0,,M,,M,0,0000*59
[2021-02-22 14:45:14.395] $GPGGA,054514.00,,,,,0,00,0.0,,M,,M,0,0000*57
[2021-02-22 14:45:14.504] $GPGGA,054514.10,,,,,0,00,0.0,,M,,M,0,0000*56
[2021-02-22 14:45:14.598] $GPGGA,054514.20,,,,,0,00,0.0,,M,,M,0,0000*55
[2021-02-22 14:45:14.692] $GPGGA,054514.30,,,,,0,00,0.0,,M,,M,0,0000*54
[2021-02-22 14:45:14.785] $GPGGA,054514.40,,,,,0,00,0.0,,M,,M,0,0000*53
[2021-02-22 14:45:14.910] $GPGGA,054514.50,,,,,0,00,0.0,,M,,M,0,0000*52
[2021-02-22 14:45:15.004] $GPGGA,054514.60,,,,,0,00,0.0,,M,,M,0,0000*51
[2021-02-22 14:45:15.098] $GPGGA,054514.70,,,,,0,00,0.0,,M,,M,0,0000*50
[2021-02-22 14:45:15.207] $GPGGA,054514.80,,,,,0,00,0.0,,M,,M,0,0000*5F
[2021-02-22 14:45:15.301] $GPGGA,054514.90,,,,,0,00,0.0,,M,,M,0,0000*5E
[2021-02-22 14:45:15.395] $GPGGA,054515.00,,,,,0,00,0.0,,M,,M,0,0000*56
[2021-02-22 14:45:15.504] $GPGGA,054515.10,,,,,0,00,0.0,,M,,M,0,0000*57
[2021-02-22 14:45:15.614] $GPGGA,054515.20,,,,,0,00,0.0,,M,,M,0,0000*54
[2021-02-22 14:45:15.707] $GPGGA,054515.30,,,,,0,00,0.0,,M,,M,0,0000*55
[2021-02-22 14:45:15.801] $GPGGA,054515.40,,,,,0,00,0.0,,M,,M,0,0000*52
[2021-02-22 14:45:15.895] $GPGGA,054515.50,,,,,0,00,0.0,,M,,M,0,0000*53
[2021-02-22 14:45:16.004] $GPGGA,054515.60,,,,,0,00,0.0,,M,,M,0,0000*50
[2021-02-22 14:45:16.098] $GPGGA,054515.70,,,,,0,00,0.0,,M,,M,0,0000*51
[2021-02-22 14:45:16.207] $GPGGA,054515.80,,,,,0,00,0.0,,M,,M,0,0000*5E
[2021-02-22 14:45:16.301] $GPGGA,054515.90,,,,,0,00,0.0,,M,,M,0,0000*5F
[2021-02-22 14:45:16.410] $GPGGA,054516.00,,,,,0,00,0.0,,M,,M,0,0000*55
[2021-02-22 14:45:16.504] $GPGGA,054516.10,,,,,0,00,0.0,,M,,M,0,0000*54
[2021-02-22 14:45:16.598] $GPGGA,054516.20,,,,,0,00,0.0,,M,,M,0,0000*57
[2021-02-22 14:45:16.692] $GPGGA,054516.30,,,,,0,00,0.0,,M,,M,0,0000*56
[2021-02-22 14:45:16.785] $GPGGA,054516.40,,,,,0,00,0.0,,M,,M,0,0000*51
[2021-02-22 14:45:16.910] $GPGGA,054516.50,,,,,0,00,0.0,,M,,M,0,0000*50
[2021-02-22 14:45:17.004] $GPGGA,054516.60,,,,,0,00,0.0,,M,,M,0,0000*53
[2021-02-22 14:45:17.098] $GPGGA,054516.70,,,,,0,00,0.0,,M,,M,0,0000*52
[2021-02-22 14:45:17.192] $GPGGA,054516.80,,,,,0,00,0.0,,M,,M,0,0000*5D
[2021-02-22 14:45:17.301] $GPGGA,054516.90,,,,,0,00,0.0,,M,,M,0,0000*5C
[2021-02-22 14:45:17.395] $GPGGA,054517.00,,,,,0,00,0.0,,M,,M,0,0000*54
[2021-02-22 14:45:17.488] $GPGGA,054517.10,,,,,0,00,0.0,,M,,M,0,0000*55
[2021-02-22 14:45:17.598] $GPGGA,054517.20,,,,,0,00,0.0,,M,,M,0,0000*56
[2021-02-22 14:45:17.707] $GPGGA,054517.30,,,,,0,00,0.0,,M,,M,0,0000*57
[2021-02-22 14:45:17.801] $GPGGA,054517.40,,,,,0,00,0.0,,M,,M,0,0000*50
[2021-02-22 14:45:17.895] $GPGGA,054517.50,,,,,0,00,0.0,,M,,M,0,0000*51
[2021-02-22 14:45:17.988] $GPGGA,054517.60,,,,,0,00,0.0,,M,,M,0,0000*52
[2021-02-22 14:45:18.098] $GPGGA,054517.70,,,,,0,00,0.0,,M,,M,0,0000*53
[2021-02-22 14:45:18.207] $GPGGA,054517.80,,,,,0,00,0.0,,M,,M,0,0000*5C
[2021-02-22 14:45:18.301] $GPGGA,054517.90,,,,,0,00,0.0,,M,,M,0,0000*5D
[2021-02-22 14:45:18.395] $GPGGA,054518.00,,,,,0,00,0.0,,M,,M,0,0000*5B
[2021-02-22 14:45:18.504] $GPGGA,054518.10,,,,,0,00,0.0,,M,,M,0,0000*5A
[2021-02-22 14:45:18.598] $GPGGA,054518.20,,,,,0,00,0.0,,M,,M,0,0000*59
[2021-02-22 14:45:18.691] $GPGGA,054518.30,,,,,0,00,0.0,,M,,M,0,0000*58
[2021-02-22 14:45:18.801] $GPGGA,054518.40,,,,,0,00,0.0,,M,,M,0,0000*5F
[2021-02-22 14:45:18.910] $GPGGA,054518.50,,,,,0,00,0.0,,M,,M,0,0000*5E
[2021-02-22 14:45:19.004] $GPGGA,054518.60,,,,,0,00,0.0,,M,,M,0,0000*5D
[2021-02-22 14:45:19.098] $GPGGA,054518.70,,,,,0,00,0.0,,M,,M,0,0000*5C
[2021-02-22 14:45:19.207] $GPGGA,054518.80,,,,,0,00,0.0,,M,,M,0,0000*53
[2021-02-22 14:45:19.301] $GPGGA,054518.90,,,,,0,00,0.0,,M,,M,0,0000*52
[2021-02-22 14:45:19.395] $GPGGA,054519.00,,,,,0,00,0.0,,M,,M,0,0000*5A
[2021-02-22 14:45:19.488] $GPGGA,054519.10,,,,,0,00,0.0,,M,,M,0,0000*5B
[2021-02-22 14:45:19.613] $GPGGA,054519.20,,,,,0,00,0.0,,M,,M,0,0000*58
[2021-02-22 14:45:19.707] $GPGGA,054519.30,3713.9717467,N,13701.4904544,E,1,06,1.8,78.9194,M,37.55,M,,*51
[2021-02-22 14:45:19.816] $GPGGA,054519.40,3713.9719500,N,13701.4904654,E,1,07,1.7,79.3079,M,37.55,M,,*5D
[2021-02-22 14:45:19.895] $GPGGA,054519.50,3713.9720461,N,13701.4903371,E,1,07,1.7,78.2233,M,37.55,M,,*59
[2021-02-22 14:45:20.019] $GPGGA,054519.60,3713.9720762,N,13701.4904230,E,1,07,1.7,77.7587,M,37.55,M,,*5B
[2021-02-22 14:45:20.098] $GPGGA,054519.70,3713.9721862,N,13701.4902896,E,1,07,1.7,77.0478,M,37.55,M,,*52
[2021-02-22 14:45:20.223] $GPGGA,054519.80,3713.9716697,N,13701.4899174,E,1,08,1.3,80.5618,M,37.55,M,,*59
[2021-02-22 14:45:20.301] $GPGGA,054519.90,3713.9714659,N,13701.4897553,E,1,08,1.3,82.2610,M,37.55,M,,*5A
[2021-02-22 14:45:20.410] $GPGGA,054520.00,3713.9715849,N,13701.4898597,E,1,08,1.3,81.5150,M,37.55,M,,*57
[2021-02-22 14:45:20.519] $GPGGA,054520.10,3713.9716991,N,13701.4898512,E,1,08,1.3,81.0333,M,37.55,M,,*5E
[2021-02-22 14:45:20.598] $GPGGA,054520.20,3713.9715747,N,13701.4899142,E,1,08,1.3,81.7247,M,37.55,M,,*5E
[2021-02-22 14:45:20.723] $GPGGA,054520.30,3713.9716187,N,13701.4900503,E,1,08,1.3,80.9412,M,37.55,M,,*5F
[2021-02-22 14:45:20.801] $GPGGA,054520.40,3713.9715621,N,13701.4901163,E,1,08,1.3,81.0999,M,37.55,M,,*55
[2021-02-22 14:45:20.910] $GPGGA,054520.50,3713.9715310,N,13701.4901579,E,1,08,1.3,80.7792,M,37.55,M,,*5F
[2021-02-22 14:45:21.004] $GPGGA,054520.60,3713.9714474,N,13701.4901722,E,1,08,1.3,81.4072,M,37.55,M,,*5F
[2021-02-22 14:45:21.113] $GPGGA,054520.70,3713.9714821,N,13701.4901478,E,1,08,1.3,81.5843,M,37.55,M,,*55
[2021-02-22 14:45:21.191] $GPGGA,054520.80,3713.9714235,N,13701.4900590,E,1,08,1.3,81.6492,M,37.55,M,,*50
[2021-02-22 14:45:21.316] $GPGGA,054520.90,3713.9712615,N,13701.4899375,E,1,08,1.3,82.5421,M,37.55,M,,*55
[2021-02-22 14:45:21.394] $GPGGA,054521.00,3713.9713287,N,13701.4899136,E,1,08,1.3,82.1704,M,37.55,M,,*56
[2021-02-22 14:45:21.519] $GPGGA,054521.10,3713.9713804,N,13701.4898862,E,1,08,1.3,81.9418,M,37.55,M,,*5A
[2021-02-22 14:45:21.597] $GPGGA,054521.20,3713.9713656,N,13701.4900731,E,1,08,1.3,81.6888,M,37.55,M,,*53
[2021-02-22 14:45:21.722] $GPGGA,054521.30,3713.9713831,N,13701.4900357,E,1,08,1.3,81.8377,M,37.55,M,,*5C
[2021-02-22 14:45:21.801] $GPGGA,054521.40,3713.9714947,N,13701.4900977,E,1,08,1.3,80.7679,M,37.55,M,,*51
[2021-02-22 14:45:21.910] $GPGGA,054521.50,3713.9714848,N,13701.4900457,E,1,08,1.3,81.4455,M,37.55,M,,*5F
[2021-02-22 14:45:21.988] $GPGGA,054521.60,3713.9714557,N,13701.4900509,E,1,08,1.3,81.5644,M,37.55,M,,*56
[2021-02-22 14:45:22.113] $GPGGA,054521.70,3713.9713995,N,13701.4899869,E,1,08,1.3,81.9914,M,37.55,M,,*5E
[2021-02-22 14:45:22.222] $GPGGA,054521.80,3713.9713160,N,13701.4898835,E,1,08,1.3,82.7951,M,37.55,M,,*57
[2021-02-22 14:45:22.301] $GPGGA,054521.90,3713.9713979,N,13701.4899627,E,1,08,1.3,81.7573,M,37.55,M,,*55
[2021-02-22 14:45:22.426] $GPGGA,054522.00,3713.9714593,N,13701.4899836,E,1,08,1.3,81.4951,M,37.55,M,,*51
[2021-02-22 14:45:22.504] $GPGGA,054522.10,3713.9714624,N,13701.4898643,E,1,08,1.3,81.6125,M,37.55,M,,*5B
[2021-02-22 14:45:22.613] $GPGGA,054522.20,3713.9715080,N,13701.4899306,E,1,09,1.3,81.6861,M,37.55,M,,*5C
[2021-02-22 14:45:22.691] $GPGGA,054522.30,3713.9714328,N,13701.4898600,E,1,09,1.3,81.7295,M,37.55,M,,*5F
[2021-02-22 14:45:22.816] $GPGGA,054522.40,3713.9714473,N,13701.4898485,E,1,09,1.3,81.9926,M,37.55,M,,*53
[2021-02-22 14:45:22.894] $GPGGA,054522.50,3713.9714228,N,13701.4898602,E,1,09,1.3,82.7283,M,37.55,M,,*5E
[2021-02-22 14:45:23.019] $GPGGA,054522.60,3713.9714152,N,13701.4898594,E,1,09,1.3,82.6396,M,37.55,M,,*5B
[2021-02-22 14:45:23.097] $GPGGA,054522.70,3713.9714242,N,13701.4898878,E,1,09,1.3,82.4387,M,37.55,M,,*55
[2021-02-22 14:45:23.222] $GPGGA,054522.80,3713.9713872,N,13701.4899294,E,1,09,1.3,82.6841,M,37.55,M,,*5E
[2021-02-22 14:45:23.300] $GPGGA,054522.90,3713.9714784,N,13701.4899853,E,1,09,1.3,82.3085,M,37.55,M,,*5A
[2021-02-22 14:45:23.410] $GPGGA,054523.00,3713.9714697,N,13701.4899191,E,1,09,1.3,82.5149,M,37.55,M,,*51
[2021-02-22 14:45:23.504] $GPGGA,054523.10,3713.9714892,N,13701.4899185,E,1,09,1.3,82.5501,M,37.55,M,,*56
[2021-02-22 14:45:23.613] $GPGGA,054523.20,3713.9714137,N,13701.4899127,E,1,09,1.3,82.3214,M,37.55,M,,*5E
[2021-02-22 14:45:23.691] $GPGGA,054523.30,3713.9713893,N,13701.4900062,E,1,09,1.3,82.3770,M,37.55,M,,*59
[2021-02-22 14:45:23.816] $GPGGA,054523.40,3713.9713481,N,13701.4900753,E,1,09,1.3,82.5543,M,37.55,M,,*50
[2021-02-22 14:45:23.894] $GPGGA,054523.50,3713.9713601,N,13701.4900064,E,1,09,1.3,82.1693,M,37.55,M,,*52
[2021-02-22 14:45:24.019] $GPGGA,054523.60,3713.9713535,N,13701.4900300,E,1,09,1.3,82.4251,M,37.55,M,,*5B
[2021-02-22 14:45:24.113] $GPGGA,054523.70,3713.9713505,N,13701.4900982,E,1,09,1.3,82.5795,M,37.55,M,,*55
[2021-02-22 14:45:24.191] $GPGGA,054523.80,3713.9714562,N,13701.4900591,E,1,09,1.3,82.1696,M,37.55,M,,*54
[2021-02-22 14:45:24.316] $GPGGA,054523.90,3713.9714569,N,13701.4900501,E,1,09,1.3,81.9685,M,37.55,M,,*5E
[2021-02-22 14:45:24.394] $GPGGA,054524.00,3713.9714748,N,13701.4900529,E,1,09,1.3,81.6533,M,37.55,M,,*5A
[2021-02-22 14:45:24.519] $GPGGA,054524.10,3713.9714660,N,13701.4901828,E,1,09,1.3,81.7751,M,37.55,M,,*5A
[2021-02-22 14:45:24.597] $GPGGA,054524.20,3713.9715059,N,13701.4901117,E,1,09,1.3,81.6489,M,37.55,M,,*56
[2021-02-22 14:45:24.722] $GPGGA,054524.30,3713.9715076,N,13701.4901813,E,1,09,1.3,81.7020,M,37.55,M,,*51
[2021-02-22 14:45:24.800] $GPGGA,054524.40,3713.9714261,N,13701.4902059,E,1,09,1.3,81.9358,M,37.55,M,,*54
[2021-02-22 14:45:24.910] $GPGGA,054524.50,3713.9714197,N,13701.4901299,E,1,09,1.3,81.6431,M,37.55,M,,*55
[2021-02-22 14:45:25.004] $GPGGA,054524.60,3713.9714195,N,13701.4900743,E,1,09,1.3,81.5232,M,37.55,M,,*51
[2021-02-22 14:45:25.113] $GPGGA,054524.70,3713.9713362,N,13701.4900382,E,1,09,1.3,81.3046,M,37.55,M,,*53
[2021-02-22 14:45:25.191] $GPGGA,054524.80,3713.9713297,N,13701.4900878,E,1,09,1.3,81.7423,M,37.55,M,,*5A
[2021-02-22 14:45:25.316] $GPGGA,054524.90,3713.9712170,N,13701.4901487,E,1,09,1.3,82.6215,M,37.55,M,,*5C
[2021-02-22 14:45:25.394] $GPGGA,054525.00,3713.9712409,N,13701.4901387,E,1,09,1.3,82.5706,M,37.55,M,,*5C
[2021-02-22 14:45:25.519] $GPGGA,054525.10,3713.9712607,N,13701.4901167,E,1,09,1.3,82.4244,M,37.55,M,,*5F
[2021-02-22 14:45:25.597] $GPGGA,054525.20,3713.9711910,N,13701.4901516,E,1,09,1.3,82.7069,M,37.55,M,,*5A
[2021-02-22 14:45:25.722] $GPGGA,054525.30,3713.9711485,N,13701.4900404,E,1,09,1.3,82.6273,M,37.55,M,,*51
[2021-02-22 14:45:25.816] $GPGGA,054525.40,3713.9712289,N,13701.4899648,E,1,09,1.3,82.6378,M,37.55,M,,*5E
[2021-02-22 14:45:25.894] $GPGGA,054525.50,3713.9712382,N,13701.4898879,E,1,09,1.3,82.5854,M,37.55,M,,*5E
[2021-02-22 14:45:26.019] $GPGGA,054525.60,3713.9711834,N,13701.4898504,E,1,09,1.3,82.8195,M,37.55,M,,*56
[2021-02-22 14:45:26.097] $GPGGA,054525.70,3713.9712132,N,13701.4898830,E,1,09,1.3,82.6886,M,37.55,M,,*54
[2021-02-22 14:45:26.222] $GPGGA,054525.80,3713.9712894,N,13701.4897983,E,1,09,1.3,82.5394,M,37.55,M,,*53
[2021-02-22 14:45:26.300] $GPGGA,054525.90,3713.9712977,N,13701.4898518,E,1,09,1.3,82.3638,M,37.55,M,,*5A
[2021-02-22 14:45:26.425] $GPGGA,054526.00,3713.9713952,N,13701.4898337,E,1,09,1.3,82.1912,M,37.55,M,,*58
[2021-02-22 14:45:26.503] $GPGGA,054526.10,3713.9714473,N,13701.4898363,E,1,09,1.3,82.0982,M,37.55,M,,*59
[2021-02-22 14:45:26.613] $GPGGA,054526.20,3713.9715242,N,13701.4898563,E,1,09,1.3,81.4980,M,37.55,M,,*5C
[2021-02-22 14:45:26.691] $GPGGA,054526.30,3713.9715587,N,13701.4898466,E,1,09,1.4,81.2174,M,37.55,M,,*55
[2021-02-22 14:45:26.816] $GPGGA,054526.40,3713.9714880,N,13701.4900197,E,1,09,1.4,82.0392,M,37.55,M,,*59
[2021-02-22 14:45:26.894] $GPGGA,054526.50,3713.9714259,N,13701.4899877,E,1,09,1.4,81.8055,M,37.55,M,,*53
[2021-02-22 14:45:27.019] $GPGGA,054526.60,3713.9713844,N,13701.4899960,E,1,09,1.4,81.9564,M,37.55,M,,*50
[2021-02-22 14:45:27.097] $GPGGA,054526.70,3713.9713737,N,13701.4900186,E,1,09,1.4,82.3243,M,37.55,M,,*50
[2021-02-22 14:45:27.222] $GPGGA,054526.80,3713.9713609,N,13701.4900275,E,1,09,1.4,82.4849,M,37.55,M,,*5B
[2021-02-22 14:45:27.300] $GPGGA,054526.90,3713.9713830,N,13701.4900404,E,1,09,1.4,82.7503,M,37.55,M,,*5E
[2021-02-22 14:45:27.410] $GPGGA,054527.00,3713.9713569,N,13701.4899421,E,1,09,1.4,82.3732,M,37.55,M,,*55
[2021-02-22 14:45:27.488] $GPGGA,054527.10,3713.9713445,N,13701.4899522,E,1,09,1.4,82.3022,M,37.55,M,,*5F
[2021-02-22 14:45:27.613] $GPGGA,054527.20,3713.9712758,N,13701.4899169,E,1,09,1.4,82.3846,M,37.55,M,,*53
[2021-02-22 14:45:27.722] $GPGGA,054527.30,3713.9713318,N,13701.4899614,E,1,09,1.4,81.9481,M,37.55,M,,*50
[2021-02-22 14:45:27.800] $GPGGA,054527.40,3713.9713810,N,13701.4900219,E,1,09,1.4,81.4347,M,37.55,M,,*5C
[2021-02-22 14:45:27.925] $GPGGA,054527.50,3713.9713618,N,13701.4900164,E,1,09,1.4,81.5666,M,37.55,M,,*55
[2021-02-22 14:45:28.003] $GPGGA,054527.60,3713.9713507,N,13701.4900146,E,1,09,1.4,81.5369,M,37.55,M,,*51
[2021-02-22 14:45:28.113] $GPGGA,054527.70,3713.9713380,N,13701.4899656,E,1,09,1.4,81.3982,M,37.55,M,,*57
[2021-02-22 14:45:28.191] $GPGGA,054527.80,3713.9712992,N,13701.4899562,E,1,09,1.4,81.6846,M,37.55,M,,*58
[2021-02-22 14:45:28.316] $GPGGA,054527.90,3713.9712770,N,13701.4899711,E,1,09,1.4,82.2921,M,37.55,M,,*5A
[2021-02-22 14:45:28.394] $GPGGA,054528.00,3713.9712730,N,13701.4899321,E,1,09,1.4,82.1491,M,37.55,M,,*5A
[2021-02-22 14:45:28.519] $GPGGA,054528.10,3713.9712711,N,13701.4899751,E,1,09,1.4,82.4057,M,37.55,M,,*50
[2021-02-22 14:45:28.597] $GPGGA,054528.20,3713.9712340,N,13701.4899519,E,1,09,1.4,82.4803,M,37.55,M,,*54
[2021-02-22 14:45:28.722] $GPGGA,054528.30,3713.9712899,N,13701.4899263,E,1,09,1.4,81.8290,M,37.55,M,,*5F
[2021-02-22 14:45:28.800] $GPGGA,054528.40,3713.9712560,N,13701.4898817,E,1,09,1.4,81.6566,M,37.55,M,,*5B
[2021-02-22 14:45:28.910] $GPGGA,054528.50,3713.9712690,N,13701.4899315,E,1,09,1.4,81.5463,M,37.55,M,,*59
[2021-02-22 14:45:29.003] $GPGGA,054528.60,3713.9712544,N,13701.4899037,E,1,09,1.4,81.7382,M,37.55,M,,*59
[2021-02-22 14:45:29.113] $GPGGA,054528.70,3713.9712433,N,13701.4899558,E,1,09,1.4,81.9185,M,37.55,M,,*5E
[2021-02-22 14:45:29.191] $GPGGA,054528.80,3713.9712049,N,13701.4898939,E,1,09,1.4,82.2670,M,37.55,M,,*57
[2021-02-22 14:45:29.316] $GPGGA,054528.90,3713.9712548,N,13701.4898746,E,1,09,1.4,81.9731,M,37.55,M,,*58
[2021-02-22 14:45:29.425] $GPGGA,054529.00,3713.9712156,N,13701.4898842,E,1,09,1.4,82.5258,M,37.55,M,,*55
[2021-02-22 14:45:29.503] $GPGGA,054529.10,3713.9711771,N,13701.4898502,E,1,09,1.4,82.6661,M,37.55,M,,*50
[2021-02-22 14:45:29.613] $GPGGA,054529.20,3713.9711674,N,13701.4898034,E,1,09,1.4,82.4015,M,37.55,M,,*50
[2021-02-22 14:45:29.691] $GPGGA,054529.30,3713.9712425,N,13701.4898349,E,1,09,1.4,82.0209,M,37.55,M,,*56
[2021-02-22 14:45:29.816] $GPGGA,054529.40,3713.9711888,N,13701.4898920,E,1,09,1.4,82.3445,M,37.55,M,,*51
[2021-02-22 14:45:29.894] $GPGGA,054529.50,3713.9712152,N,13701.4899214,E,1,09,1.4,82.4226,M,37.55,M,,*54
[2021-02-22 14:45:30.019] $GPGGA,054529.60,3713.9712296,N,13701.4899667,E,1,09,1.4,82.3000,M,37.55,M,,*5D
[2021-02-22 14:45:30.097] $GPGGA,054529.70,3713.9713089,N,13701.4899649,E,1,09,1.4,82.0934,M,37.55,M,,*50
[2021-02-22 14:45:30.222] $GPGGA,054529.80,3713.9712754,N,13701.4900045,E,1,09,1.4,82.0595,M,37.55,M,,*55
[2021-02-22 14:45:30.300] $GPGGA,054529.90,3713.9712085,N,13701.4900780,E,1,09,1.4,82.3003,M,37.55,M,,*58
[2021-02-22 14:45:30.409] $GPGGA,054530.00,3713.9711920,N,13701.4901078,E,1,09,1.4,82.3334,M,37.55,M,,*5A
[2021-02-22 14:45:30.503] $GPGGA,054530.10,3713.9712691,N,13701.4901911,E,1,09,1.4,81.8298,M,37.55,M,,*54
[2021-02-22 14:45:30.612] $GPGGA,054530.20,3713.9712283,N,13701.4902223,E,1,09,1.4,82.0571,M,37.55,M,,*52
[2021-02-22 14:45:30.691] $GPGGA,054530.30,3713.9712663,N,13701.4902081,E,1,09,1.4,81.8794,M,37.55,M,,*51
[2021-02-22 14:45:30.816] $GPGGA,054530.40,3713.9712492,N,13701.4902107,E,1,09,1.4,81.7040,M,37.55,M,,*54
[2021-02-22 14:45:30.894] $GPGGA,054530.50,3713.9712102,N,13701.4901677,E,1,09,1.4,81.8943,M,37.55,M,,*5F
[2021-02-22 14:45:31.019] $GPGGA,054530.60,3713.9711325,N,13701.4901637,E,1,09,1.4,81.8412,M,37.55,M,,*55
[2021-02-22 14:45:31.097] $GPGGA,054530.70,3713.9711040,N,13701.4901712,E,1,09,1.4,81.7737,M,37.55,M,,*59
[2021-02-22 14:45:31.222] $GPGGA,054530.80,3713.9711687,N,13701.4901620,E,1,09,1.4,81.9576,M,37.55,M,,*52
[2021-02-22 14:45:31.316] $GPGGA,054530.90,3713.9712111,N,13701.4900897,E,1,09,1.4,81.6837,M,37.55,M,,*5C
[2021-02-22 14:45:31.394] $GPGGA,054531.00,3713.9712524,N,13701.4900188,E,1,09,1.4,81.5802,M,37.55,M,,*54
[2021-02-22 14:45:31.519] $GPGGA,054531.10,3713.9713322,N,13701.4899502,E,1,09,1.4,81.7348,M,37.55,M,,*54
[2021-02-22 14:45:31.597] $GPGGA,054531.20,3713.9713887,N,13701.4899490,E,1,09,1.4,81.7051,M,37.55,M,,*52
[2021-02-22 14:45:31.722] $GPGGA,054531.30,3713.9715432,N,13701.4906989,E,1,10,1.3,87.7616,M,37.55,M,,*59
[2021-02-22 14:45:31.800] $GPGGA,054531.40,3713.9714901,N,13701.4907209,E,1,10,1.3,87.9419,M,37.55,M,,*53
[2021-02-22 14:45:31.925] $GPGGA,054531.50,3713.9715370,N,13701.4907178,E,1,10,1.3,87.7889,M,37.55,M,,*51
[2021-02-22 14:45:32.003] $GPGGA,054531.60,3713.9715706,N,13701.4907044,E,1,10,1.3,87.6897,M,37.55,M,,*57
[2021-02-22 14:45:32.112] $GPGGA,054531.70,3713.9715632,N,13701.4906429,E,1,10,1.3,87.5564,M,37.55,M,,*5C
[2021-02-22 14:45:32.191] $GPGGA,054531.80,3713.9715829,N,13701.4906131,E,1,10,1.3,87.0482,M,37.55,M,,*57
[2021-02-22 14:45:32.316] $GPGGA,054531.90,3713.9716128,N,13701.4905527,E,1,10,1.3,87.0208,M,37.55,M,,*59
[2021-02-22 14:45:32.394] $GPGGA,054532.00,3713.9716188,N,13701.4905729,E,1,10,1.3,87.0633,M,37.55,M,,*59
[2021-02-22 14:45:32.519] $GPGGA,054532.10,3713.9715649,N,13701.4905547,E,1,10,1.3,87.2865,M,37.55,M,,*54
[2021-02-22 14:45:32.597] $GPGGA,054532.20,3713.9715907,N,13701.4905577,E,1,10,1.3,86.8799,M,37.55,M,,*56
[2021-02-22 14:45:32.722] $GPGGA,054532.30,3713.9715963,N,13701.4905599,E,1,10,1.3,86.6472,M,37.55,M,,*5D
[2021-02-22 14:45:32.800] $GPGGA,054532.40,3713.9715721,N,13701.4906425,E,1,10,1.3,86.8758,M,37.55,M,,*52
[2021-02-22 14:45:32.909] $GPGGA,054532.50,3713.9715403,N,13701.4906440,E,1,10,1.3,86.3421,M,37.55,M,,*55
[2021-02-22 14:45:33.019] $GPGGA,054532.60,3713.9714741,N,13701.4906733,E,1,10,1.3,86.8057,M,37.55,M,,*5B
[2021-02-22 14:45:33.097] $GPGGA,054532.70,3713.9714921,N,13701.4906949,E,1,10,1.3,86.5412,M,37.55,M,,*59
[2021-02-22 14:45:33.222] $GPGGA,054532.80,3713.9714785,N,13701.4907588,E,1,10,1.3,86.8266,M,37.55,M,,*5E
[2021-02-22 14:45:33.300] $GPGGA,054532.90,3713.9716383,N,13701.4906396,E,1,10,1.3,85.8103,M,37.55,M,,*54
[2021-02-22 14:45:33.425] $GPGGA,054533.00,3713.9715588,N,13701.4904695,E,1,11,1.3,84.7612,M,37.55,M,,*5E
[2021-02-22 14:45:33.503] $GPGGA,054533.10,3713.9716023,N,13701.4905287,E,1,11,1.3,84.4780,M,37.55,M,,*57
[2021-02-22 14:45:33.612] $GPGGA,054533.20,3713.9716947,N,13701.4905873,E,1,11,1.3,83.7890,M,37.55,M,,*54
[2021-02-22 14:45:33.690] $GPGGA,054533.30,3713.9716649,N,13701.4906428,E,1,11,1.3,83.8887,M,37.55,M,,*5C
[2021-02-22 14:45:33.815] $GPGGA,054533.40,3713.9716499,N,13701.4907853,E,1,11,1.3,83.7532,M,37.55,M,,*59
[2021-02-22 14:45:33.894] $GPGGA,054533.50,3713.9716337,N,13701.4907704,E,1,11,1.3,84.1165,M,37.55,M,,*51
[2021-02-22 14:45:34.019] $GPGGA,054533.60,3713.9715608,N,13701.4906847,E,1,11,1.3,84.9448,M,37.55,M,,*53
[2021-02-22 14:45:34.097] $GPGGA,054533.70,3713.9715852,N,13701.4907044,E,1,11,1.3,85.0848,M,37.55,M,,*5D
[2021-02-22 14:45:34.222] $GPGGA,054533.80,3713.9716276,N,13701.4906772,E,1,11,1.3,85.3686,M,37.55,M,,*51
[2021-02-22 14:45:34.300] $GPGGA,054533.90,3713.9715834,N,13701.4906240,E,1,11,1.3,85.2242,M,37.55,M,,*56
[2021-02-22 14:45:34.425] $GPGGA,054534.00,3713.9715881,N,13701.4906173,E,1,11,1.3,85.0829,M,37.55,M,,*50
[2021-02-22 14:45:34.503] $GPGGA,054534.10,3713.9715788,N,13701.4906363,E,1,11,1.3,85.1961,M,37.55,M,,*58
[2021-02-22 14:45:34.612] $GPGGA,054534.20,3713.9715620,N,13701.4906079,E,1,11,1.3,85.4642,M,37.55,M,,*5B
[2021-02-22 14:45:34.690] $GPGGA,054534.30,3713.9713458,N,13701.4905062,E,1,12,1.2,86.6907,M,37.55,M,,*55
[2021-02-22 14:45:34.815] $GPGGA,054534.40,3713.9713526,N,13701.4905374,E,1,12,1.2,86.6816,M,37.55,M,,*5F
[2021-02-22 14:45:34.925] $GPGGA,054534.50,3713.9713040,N,13701.4905067,E,1,12,1.2,87.3440,M,37.55,M,,*51
[2021-02-22 14:45:35.003] $GPGGA,054534.60,3713.9712961,N,13701.4905184,E,1,12,1.2,87.3652,M,37.55,M,,*54
[2021-02-22 14:45:35.112] $GPGGA,054534.70,3713.9713240,N,13701.4904642,E,1,12,1.2,87.3202,M,37.55,M,,*51
[2021-02-22 14:45:35.206] $GPGGA,054534.80,3713.9713923,N,13701.4904116,E,1,12,1.2,86.7089,M,37.55,M,,*52
[2021-02-22 14:45:35.315] $GPGGA,054534.90,3713.9714258,N,13701.4904210,E,1,12,1.2,86.3044,M,37.55,M,,*53
[2021-02-22 14:45:35.393] $GPGGA,054535.00,3713.9720450,N,13701.4899346,E,1,13,1.0,85.2020,M,37.55,M,,*56
[2021-02-22 14:45:35.518] $GPGGA,054535.10,3713.9719417,N,13701.4899320,E,1,13,1.0,85.5366,M,37.55,M,,*58
[2021-02-22 14:45:35.597] $GPGGA,054535.20,3713.9719456,N,13701.4898030,E,1,13,1.0,85.5811,M,37.55,M,,*56
[2021-02-22 14:45:35.722] $GPGGA,054535.30,3713.9719396,N,13701.4897750,E,1,13,1.0,85.8904,M,37.55,M,,*5A
[2021-02-22 14:45:35.800] $GPGGA,054535.40,3713.9719293,N,13701.4897984,E,1,13,1.0,85.5111,M,37.55,M,,*5F
[2021-02-22 14:45:35.925] $GPGGA,054535.50,3713.9718115,N,13701.4898068,E,1,13,1.0,85.6821,M,37.55,M,,*5F
[2021-02-22 14:45:36.003] $GPGGA,054535.60,3713.9717544,N,13701.4898423,E,1,13,1.0,85.5812,M,37.55,M,,*5B
[2021-02-22 14:45:36.112] $GPGGA,054535.70,3713.9718036,N,13701.4898516,E,1,13,1.0,85.0383,M,37.55,M,,*54
[2021-02-22 14:45:36.190] $GPGGA,054535.80,3713.9718460,N,13701.4899211,E,1,13,1.0,84.9459,M,37.55,M,,*55
[2021-02-22 14:45:36.315] $GPGGA,054535.90,3713.9719263,N,13701.4899276,E,1,13,1.0,84.8794,M,37.55,M,,*52
[2021-02-22 14:45:36.393] $GPGGA,054536.00,3713.9719204,N,13701.4899850,E,1,13,1.0,84.9680,M,37.55,M,,*52
[2021-02-22 14:45:36.518] $GPGGA,054536.10,3713.9719515,N,13701.4899690,E,1,13,1.0,85.2722,M,37.55,M,,*55
[2021-02-22 14:45:36.612] $GPGGA,054536.20,3713.9719311,N,13701.4898629,E,1,13,1.0,84.7505,M,37.55,M,,*54
[2021-02-22 14:45:36.706] $GPGGA,054536.30,3713.9719451,N,13701.4897736,E,1,14,1.0,85.1261,M,37.55,M,,*53
[2021-02-22 14:45:36.815] $GPGGA,054536.40,3713.9718340,N,13701.4898883,E,1,15,0.9,85.0968,M,37.55,M,,*56
[2021-02-22 14:45:36.893] $GPGGA,054536.50,3713.9718116,N,13701.4899250,E,1,15,0.9,84.7694,M,37.55,M,,*59
[2021-02-22 14:45:37.018] $GPGGA,054536.60,3713.9717326,N,13701.4899601,E,1,15,0.9,85.1382,M,37.55,M,,*51
[2021-02-22 14:45:37.096] $GPGGA,054536.70,3713.9717290,N,13701.4899475,E,1,15,0.9,85.0537,M,37.55,M,,*54
[2021-02-22 14:45:37.221] $GPGGA,054536.80,3713.9717459,N,13701.4899310,E,1,15,0.9,85.5064,M,37.55,M,,*5A
[2021-02-22 14:45:37.300] $GPGGA,054536.90,3713.9717355,N,13701.4899831,E,1,15,0.9,85.8804,M,37.55,M,,*5B
[2021-02-22 14:45:37.425] $GPGGA,054537.00,3713.9718335,N,13701.4900431,E,1,15,0.9,85.5968,M,37.55,M,,*51
[2021-02-22 14:45:37.503] $GPGGA,054537.10,3713.9718818,N,13701.4899753,E,1,15,0.9,85.5346,M,37.55,M,,*54
[2021-02-22 14:45:37.612] $GPGGA,054537.20,3713.9718501,N,13701.4899343,E,1,15,0.9,85.3440,M,37.55,M,,*50
[2021-02-22 14:45:37.706] $GPGGA,054537.30,3713.9718864,N,13701.4899204,E,1,15,0.9,85.4185,M,37.55,M,,*56
[2021-02-22 14:45:37.815] $GPGGA,054537.40,3713.9718327,N,13701.4899302,E,1,15,0.9,85.7084,M,37.55,M,,*59
[2021-02-22 14:45:37.893] $GPGGA,054537.50,3713.9718922,N,13701.4898953,E,1,15,0.9,85.7823,M,37.55,M,,*5D
[2021-02-22 14:45:38.018] $GPGGA,054537.60,3713.9718137,N,13701.4899340,E,1,15,0.9,85.7094,M,37.55,M,,*5F
[2021-02-22 14:45:38.096] $GPGGA,054537.70,3713.9718087,N,13701.4899515,E,1,15,0.9,86.0489,M,37.55,M,,*5E
[2021-02-22 14:45:38.221] $GPGGA,054537.80,3713.9718091,N,13701.4899700,E,1,15,0.9,86.1037,M,37.55,M,,*50
[2021-02-22 14:45:38.315] $GPGGA,054537.90,3713.9718307,N,13701.4899578,E,1,15,0.9,86.2187,M,37.55,M,,*59
[2021-02-22 14:45:38.393] $GPGGA,054538.00,3713.9718179,N,13701.4899669,E,1,15,0.9,86.2252,M,37.55,M,,*5C
[2021-02-22 14:45:38.518] $GPGGA,054538.10,3713.9717470,N,13701.4899933,E,1,16,0.8,86.4061,M,37.55,M,,*58
[2021-02-22 14:45:38.596] $GPGGA,054538.20,3713.9717735,N,13701.4899169,E,1,16,0.8,86.6207,M,37.55,M,,*5E
[2021-02-22 14:45:38.721] $GPGGA,054538.30,3713.9718236,N,13701.4899506,E,1,16,0.8,86.4676,M,37.55,M,,*5B
[2021-02-22 14:45:38.799] $GPGGA,054538.40,3713.9718405,N,13701.4899379,E,1,16,0.8,86.5492,M,37.55,M,,*5D
[2021-02-22 14:45:38.924] $GPGGA,054538.50,3713.9718968,N,13701.4900665,E,1,16,0.8,86.4365,M,37.55,M,,*5D
[2021-02-22 14:45:39.003] $GPGGA,054538.60,3713.9719241,N,13701.4900361,E,1,16,0.8,86.5300,M,37.55,M,,*5C
[2021-02-22 14:45:39.128] $GPGGA,054538.70,3713.9718309,N,13701.4900467,E,1,16,0.8,86.5100,M,37.55,M,,*52
[2021-02-22 14:45:39.206] $GPGGA,054538.80,3713.9718957,N,13701.4900280,E,1,16,0.8,86.3588,M,37.55,M,,*51
[2021-02-22 14:45:39.315] $GPGGA,054538.90,3713.9718230,N,13701.4900345,E,1,16,0.8,86.7709,M,37.55,M,,*5D
[2021-02-22 14:45:39.393] $GPGGA,054539.00,3713.9719464,N,13701.4899874,E,1,16,0.8,86.8943,M,37.55,M,,*54
[2021-02-22 14:45:39.518] $GPGGA,054539.10,3713.9719164,N,13701.4899911,E,1,16,0.8,86.5586,M,37.55,M,,*5A
[2021-02-22 14:45:39.596] $GPGGA,054539.20,3713.9720242,N,13701.4899951,E,1,16,0.8,86.2829,M,37.55,M,,*5F
[2021-02-22 14:45:39.721] $GPGGA,054539.30,3713.9720428,N,13701.4899967,E,1,16,0.8,86.4418,M,37.55,M,,*59
[2021-02-22 14:45:39.799] $GPGGA,054539.40,3713.9719842,N,13701.4899307,E,1,16,0.8,86.6330,M,37.55,M,,*57
[2021-02-22 14:45:39.924] $GPGGA,054539.50,3713.9719339,N,13701.4900004,E,1,16,0.8,86.6183,M,37.55,M,,*5A
[2021-02-22 14:45:40.002] $GPGGA,054539.60,3713.9719750,N,13701.4900691,E,1,16,0.8,86.4101,M,37.55,M,,*50
[2021-02-22 14:45:40.112] $GPGGA,054539.70,3713.9719684,N,13701.4901492,E,1,16,0.8,86.1945,M,37.55,M,,*54
[2021-02-22 14:45:40.221] $GPGGA,054539.80,3713.9719993,N,13701.4901454,E,1,16,0.8,85.9235,M,37.55,M,,*5F
[2021-02-22 14:45:40.299] $GPGGA,054539.90,3713.9719470,N,13701.4901111,E,1,16,0.8,85.6422,M,37.55,M,,*55
[2021-02-22 14:45:40.424] $GPGGA,054540.00,3713.9719259,N,13701.4901712,E,1,16,0.8,85.4809,M,37.55,M,,*5D
[2021-02-22 14:45:40.502] $GPGGA,054540.10,3713.9719671,N,13701.4902123,E,1,16,0.8,85.5537,M,37.55,M,,*54
[2021-02-22 14:45:40.627] $GPGGA,054540.20,3713.9719457,N,13701.4901799,E,1,16,0.8,85.3234,M,37.55,M,,*57
[2021-02-22 14:45:40.706] $GPGGA,054540.30,3713.9718784,N,13701.4901259,E,1,16,0.8,85.6630,M,37.55,M,,*56
[2021-02-22 14:45:40.815] $GPGGA,054540.40,3713.9718488,N,13701.4901104,E,1,16,0.8,85.8773,M,37.55,M,,*5D
[2021-02-22 14:45:40.893] $GPGGA,054540.50,3713.9718863,N,13701.4901250,E,1,16,0.8,86.0986,M,37.55,M,,*58
[2021-02-22 14:45:41.018] $GPGGA,054540.60,3713.9717638,N,13701.4900899,E,1,16,0.8,86.2587,M,37.55,M,,*55
[2021-02-22 14:45:41.096] $GPGGA,054540.70,3713.9718177,N,13701.4899914,E,1,16,0.8,86.4380,M,37.55,M,,*55
[2021-02-22 14:45:41.221] $GPGGA,054540.80,3713.9718408,N,13701.4900509,E,1,16,0.8,86.2241,M,37.55,M,,*5C
[2021-02-22 14:45:41.299] $GPGGA,054540.90,3713.9719206,N,13701.4901185,E,1,16,0.8,86.1985,M,37.55,M,,*55
[2021-02-22 14:45:41.424] $GPGGA,054541.00,3713.9719483,N,13701.4900752,E,1,16,0.8,86.3980,M,37.55,M,,*5C
[2021-02-22 14:45:41.502] $GPGGA,054541.10,3713.9719257,N,13701.4900190,E,1,16,0.8,86.4911,M,37.55,M,,*55
[2021-02-22 14:45:41.612] $GPGGA,054541.20,3713.9718840,N,13701.4900754,E,1,16,0.8,86.8748,M,37.55,M,,*5B
[2021-02-22 14:45:41.705] $GPGGA,054541.30,3713.9718829,N,13701.4900319,E,1,16,0.8,86.8886,M,37.55,M,,*55
[2021-02-22 14:45:41.815] $GPGGA,054541.40,3713.9718455,N,13701.4900469,E,1,16,0.8,86.9616,M,37.55,M,,*53
[2021-02-22 14:45:41.924] $GPGGA,054541.50,3713.9718336,N,13701.4899592,E,1,16,0.8,87.1071,M,37.55,M,,*5A
[2021-02-22 14:45:42.002] $GPGGA,054541.60,3713.9718563,N,13701.4899565,E,1,16,0.8,87.1796,M,37.55,M,,*59
[2021-02-22 14:45:42.127] $GPGGA,054541.70,3713.9719231,N,13701.4899669,E,1,16,0.8,86.7342,M,37.55,M,,*5C
[2021-02-22 14:45:42.205] $GPGGA,054541.80,3713.9718942,N,13701.4899235,E,1,16,0.8,86.8296,M,37.55,M,,*57
[2021-02-22 14:45:42.315] $GPGGA,054541.90,3713.9718877,N,13701.4899255,E,1,16,0.8,86.6954,M,37.55,M,,*5C
[2021-02-22 14:45:42.393] $GPGGA,054542.00,3713.9718268,N,13701.4898622,E,1,16,0.8,86.7097,M,37.55,M,,*50
[2021-02-22 14:45:42.518] $GPGGA,054542.10,3713.9718158,N,13701.4899581,E,1,16,0.8,86.9496,M,37.55,M,,*51
[2021-02-22 14:45:42.596] $GPGGA,054542.20,3713.9718334,N,13701.4899193,E,1,16,0.8,86.7802,M,37.55,M,,*52
[2021-02-22 14:45:42.721] $GPGGA,054542.30,3713.9718914,N,13701.4899348,E,1,16,0.8,86.6363,M,37.55,M,,*52
[2021-02-22 14:45:42.799] $GPGGA,054542.40,3713.9718702,N,13701.4899050,E,1,16,0.8,86.6592,M,37.55,M,,*5E
[2021-02-22 14:45:42.924] $GPGGA,054542.50,3713.9719238,N,13701.4899597,E,1,16,0.8,86.1932,M,37.55,M,,*5D
[2021-02-22 14:45:43.002] $GPGGA,054542.60,3713.9719332,N,13701.4898387,E,1,16,0.8,85.9096,M,37.55,M,,*5F
[2021-02-22 14:45:43.112] $GPGGA,054542.70,3713.9719769,N,13701.4898826,E,1,16,0.8,86.0227,M,37.55,M,,*56
[2021-02-22 14:45:43.205] $GPGGA,054542.80,3713.9719863,N,13701.4898215,E,1,16,0.8,85.9725,M,37.55,M,,*5B
[2021-02-22 14:45:43.315] $GPGGA,054542.90,3713.9719364,N,13701.4899169,E,1,16,0.8,86.0024,M,37.55,M,,*53
[2021-02-22 14:45:43.393] $GPGGA,054543.00,3713.9718871,N,13701.4899522,E,1,16,0.8,85.9091,M,37.55,M,,*5A
[2021-02-22 14:45:43.518] $GPGGA,054543.10,3713.9719499,N,13701.4899441,E,1,16,0.8,85.8567,M,37.55,M,,*59
[2021-02-22 14:45:43.596] $GPGGA,054543.20,3713.9720030,N,13701.4899969,E,1,16,0.8,85.8820,M,37.55,M,,*5E
[2021-02-22 14:45:43.721] $GPGGA,054543.30,3713.9720049,N,13701.4899799,E,1,16,0.8,85.8960,M,37.55,M,,*55
[2021-02-22 14:45:43.815] $GPGGA,054543.40,3713.9720102,N,13701.4899604,E,1,16,0.8,86.1772,M,37.55,M,,*5E
[2021-02-22 14:45:43.893] $GPGGA,054543.50,3713.9719403,N,13701.4899529,E,1,16,0.8,86.3388,M,37.55,M,,*5E
[2021-02-22 14:45:44.018] $GPGGA,054543.60,3713.9719101,N,13701.4899366,E,1,16,0.8,85.9685,M,37.55,M,,*56
[2021-02-22 14:45:44.096] $GPGGA,054543.70,3713.9718940,N,13701.4899150,E,1,16,0.8,86.1589,M,37.55,M,,*58
[2021-02-22 14:45:44.221] $GPGGA,054543.80,3713.9719226,N,13701.4899979,E,1,16,0.8,86.1109,M,37.55,M,,*52
[2021-02-22 14:45:44.299] $GPGGA,054543.90,3713.9718056,N,13701.4899929,E,1,16,0.8,86.4088,M,37.55,M,,*5F
[2021-02-22 14:45:44.424] $GPGGA,054544.00,3713.9718064,N,13701.4899764,E,1,16,0.8,86.7644,M,37.55,M,,*52
[2021-02-22 14:45:44.502] $GPGGA,054544.10,3713.9718370,N,13701.4899862,E,1,16,0.8,87.0029,M,37.55,M,,*57
[2021-02-22 14:45:44.627] $GPGGA,054544.20,3713.9718925,N,13701.4900708,E,1,16,0.8,87.0073,M,37.55,M,,*53
[2021-02-22 14:45:44.705] $GPGGA,054544.30,3713.9718312,N,13701.4899513,E,1,16,0.8,87.1265,M,37.55,M,,*51
[2021-02-22 14:45:44.815] $GPGGA,054544.40,3713.9718898,N,13701.4899383,E,1,16,0.8,87.0895,M,37.55,M,,*54
[2021-02-22 14:45:44.893] $GPGGA,054544.50,3713.9719218,N,13701.4899336,E,1,16,0.8,87.3079,M,37.55,M,,*51
[2021-02-22 14:45:45.018] $GPGGA,054544.60,3713.9719352,N,13701.4899638,E,1,16,0.8,87.3014,M,37.55,M,,*5D
[2021-02-22 14:45:45.096] $GPGGA,054544.70,3713.9719478,N,13701.4899469,E,1,16,0.8,87.1072,M,37.55,M,,*57
[2021-02-22 14:45:45.221] $GPGGA,054544.80,3713.9719806,N,13701.4898576,E,1,16,0.8,87.0242,M,37.55,M,,*53
[2021-02-22 14:45:45.299] $GPGGA,054544.90,3713.9720435,N,13701.4898854,E,1,16,0.8,86.6320,M,37.55,M,,*5B
[2021-02-22 14:45:45.424] $GPGGA,054545.00,3713.9721267,N,13701.4898628,E,1,16,0.8,86.6552,M,37.55,M,,*55
[2021-02-22 14:45:45.518] $GPGGA,054545.10,3713.9720163,N,13701.4899576,E,1,16,0.8,86.5668,M,37.55,M,,*52
[2021-02-22 14:45:45.596] $GPGGA,054545.20,3713.9719684,N,13701.4900174,E,1,16,0.8,86.5932,M,37.55,M,,*52
[2021-02-22 14:45:45.721] $GPGGA,054545.30,3713.9720031,N,13701.4900539,E,1,16,0.8,86.3887,M,37.55,M,,*55
[2021-02-22 14:45:45.799] $GPGGA,054545.40,3713.9719339,N,13701.4900987,E,1,16,0.8,86.2680,M,37.55,M,,*52
[2021-02-22 14:45:45.924] $GPGGA,054545.50,3713.9718930,N,13701.4900488,E,1,16,0.8,86.0888,M,37.55,M,,*57
[2021-02-22 14:45:46.002] $GPGGA,054545.60,3713.9719188,N,13701.4900596,E,1,16,0.8,85.9120,M,37.55,M,,*51
[2021-02-22 14:45:46.127] $GPGGA,054545.70,3713.9717688,N,13701.4899847,E,1,16,0.8,86.2189,M,37.55,M,,*52
[2021-02-22 14:45:46.205] $GPGGA,054545.80,3713.9717247,N,13701.4898724,E,1,16,0.8,86.7286,M,37.55,M,,*58
[2021-02-22 14:45:46.315] $GPGGA,054545.90,3713.9717453,N,13701.4899462,E,1,16,0.8,86.5219,M,37.55,M,,*5E
