
[2021-02-22 14:44:33.648] $GLGGA,054408.40,3713.96979839,N,13701.48886944,E,1,01,1412.8,94.478,M,36.771,M,,*7F
[2021-02-22 14:44:33.679] $GPGGA,,,,,,,,,,M,,M,,*56
[2021-02-22 14:44:33.679] $GPGGA,,,,,,,,,,M,,M,,*56
[2021-02-22 14:44:33.679] $GPGGA,,,,,,,,,,M,,M,,*56
[2021-02-22 14:44:33.679] $GPGGA,,,,,,,,,,M,,M,,*56
[2021-02-22 14:44:33.679] $GPGGA,,,,,,,,,,M,,M,,*56
[2021-02-22 14:44:33.679] $GPGGA,,,,,,,,,,M,,M,,*56
[2021-02-22 14:44:33.679] $GPGGA,,,,,,,,,,M,,M,,*56
[2021-02-22 14:44:33.679] $GPGGA,,,,,,,,,,M,,M,,*56
[2021-02-22 14:44:33.679] $GPGGA,,,,,,,,,,M,,M,,*56
[2021-02-22 14:44:33.679] $GPGGA,,,,,,,,,,M,,M,,*56
[2021-02-22 14:44:33.679] $GPGGA,,,,,,,,,,M,,M,,*56
[2021-02-22 14:44:33.679] $GPGGA,,,,,,,,,,M,,M,,*56
[2021-02-22 14:44:33.679] $GPGGA,,,,,,,,,,M,,M,,*56
[2021-02-22 14:44:33.679] $GPGGA,,,,,,,,,,M,,M,,*56
[2021-02-22 14:44:33.679] $GPGGA,,,,,,,,,,M,,M,,*56
[2021-02-22 14:44:33.679] $GPGGA,,,,,,,,,,M,,M,,*56
[2021-02-22 14:44:33.679] $GPGGA,,,,,,,,,,M,,M,,*56
[2021-02-22 14:44:33.679] $GPGGA,,,,,,,,,,M,,M,,*56
[2021-02-22 14:44:33.679] $GPGGA,,,,,,,,,,M,,M,,*56
[2021-02-22 14:44:33.679] $GPGGA,,,,,,,,,,M,,M,,*56
[2021-02-22 14:44:33.679] $GPGGA,,,,,,,,,,M,,M,,*56
[2021-02-22 14:44:33.679] $GPGGA,,,,,,,,,,M,,M,,*56
[2021-02-22 14:44:33.679] $GPGGA,,,,,,,,,,M,,M,,*56
[2021-02-22 14:44:33.679] $GPGGA,,,,,,,,,,M,,M,,*56
[2021-02-22 14:44:33.679] $GPGGA,,,,,,,,,,M,,M,,*56
[2021-02-22 14:44:33.679] $GPGGA,,,,,,,,,,M,,M,,*56
[2021-02-22 14:44:33.679] $GPGGA,,,,,,,,,,M,,M,,*56
[2021-02-22 14:44:33.679] $GPGGA,,,,,,,,,,M,,M,,*56
[2021-02-22 14:44:33.679] $GPGGA,,,,,,,,,,M,,M,,*56
[2021-02-22 14:44:33.679] $GPGGA,,,,,,,,,,M,,M,,*56
[2021-02-22 14:44:33.679] $GPGGA,,,,,,,,,,M,,M,,*56
[2021-02-22 14:44:33.679] $GPGGA,,,,,,,,,,M,,M,,*56
[2021-02-22 14:44:33.679] $GPGGA,,,,,,,,,,M,,M,,*56
[2021-02-22 14:44:33.679] $GPGGA,,,,,,,,,,M,,M,,*56
[2021-02-22 14:44:33.679] $GPGGA,,,,,,,,,,M,,M,,*56
[2021-02-22 14:44:33.679] $GPGGA,,,,,,,,,,M,,M,,*56
[2021-02-22 14:44:33.679] $GPGGA,,,,,,,,,,M,,M,,*56
[2021-02-22 14:44:33.679] $GPGGA,,,,,,,,,,M,,M,,*56
[2021-02-22 14:44:33.695] $GPGGA,,,,,,,,,,M,,M,,*56
[2021-02-22 14:44:33.695] $GPGGA,,,,,,,,,,M,,M,,*56
[2021-02-22 14:44:33.695] $GPGGA,,,,,,,,,,M,,M,,*56
[2021-02-22 14:44:33.695] $GPGGA,,,,,,,,,,M,,M,,*56
[2021-02-22 14:44:33.695] $GPGGA,,,,,,,,,,M,,M,,*56
[2021-02-22 14:44:33.695] $GPGGA,,,,,,,,,,M,,M,,*56
[2021-02-22 14:44:33.695] $GPGGA,,,,,,,,,,M,,M,,*56
[2021-02-22 14:44:33.695] $GPGGA,,,,,,,,,,M,,M,,*56
[2021-02-22 14:44:33.695] $GPGGA,,,,,,,,,,M,,M,,*56
[2021-02-22 14:44:33.695] $GPGGA,,,,,,,,,,M,,M,,*56
[2021-02-22 14:44:33.695] $GPGGA,,,,,,,,,,M,,M,,*56
[2021-02-22 14:44:33.695] $GPGGA,,,,,,,,,,M,,M,,*56
[2021-02-22 14:44:33.695] $GPGGA,,,,,,,,,,M,,M,,*56
[2021-02-22 14:44:33.695] $GPGGA,,,,,,,,,,M,,M,,*56
[2021-02-22 14:44:33.695] $GPGGA,,,,,,,,,,M,,M,,*56
[2021-02-22 14:44:33.695] $GPGGA,,,,,,,,,,M,,M,,*56
[2021-02-22 14:44:33.695] $GPGGA,,,,,,,,,,M,,M,,*56
[2021-02-22 14:44:33.695] $GPGGA,,,,,,,,,,M,,M,,*56
[2021-02-22 14:44:33.695] $GPGGA,,,,,,,,,,M,,M,,*56
[2021-02-22 14:44:33.695] $GPGGA,,,,,,,,,,M,,M,,*56
[2021-02-22 14:44:33.695] $GPGGA,,,,,,,,,,M,,M,,*56
[2021-02-22 14:44:33.695] $GPGGA,,,,,,,,,,M,,M,,*56
[2021-02-22 14:44:33.695] $GPGGA,,,,,,,,,,M,,M,,*56
[2021-02-22 14:44:33.695] $GPGGA,,,,,,,,,,M,,M,,*56
[2021-02-22 14:44:33.695] $GPGGA,,,,,,,,,,M,,M,,*56
[2021-02-22 14:44:33.695] $GPGGA,,,,,,,,,,M,,M,,*56
[2021-02-22 14:44:33.695] $GPGGA,,,,,,,,,,M,,M,,*56
[2021-02-22 14:44:33.695] $GPGGA,,,,,,,,,,M,,M,,*56
[2021-02-22 14:44:33.695] $GPGGA,,,,,,,,,,M,,M,,*56
[2021-02-22 14:44:33.695] $GPGGA,,,,,,,,,,M,,M,,*56
[2021-02-22 14:44:33.695] $GPGGA,,,,,,,,,,M,,M,,*56
[2021-02-22 14:44:33.695] $GPGGA,,,,,,,,,,M,,M,,*56
[2021-02-22 14:44:33.695] $GPGGA,,,,,,,,,,M,,M,,*56
[2021-02-22 14:44:33.695] $GPGGA,,,,,,,,,,M,,M,,*56
[2021-02-22 14:44:33.695] $GPGGA,,,,,,,,,,M,,M,,*56
[2021-02-22 14:44:33.695] $GPGGA,,,,,,,,,,M,,M,,*56
[2021-02-22 14:44:33.695] $GPGGA,,,,,,,,,,M,,M,,*56
[2021-02-22 14:44:33.695] $GPGGA,,,,,,,,,,M,,M,,*56
[2021-02-22 14:44:33.710] $GPGGA,,,,,,,,,,M,,M,,*56
[2021-02-22 14:44:33.710] $GPGGA,,,,,,,,,,M,,M,,*56
[2021-02-22 14:44:33.710] $GPGGA,,,,,,,,,,M,,M,,*56
[2021-02-22 14:44:33.710] $GPGGA,,,,,,,,,,M,,M,,*56
[2021-02-22 14:44:33.710] $GPGGA,,,,,,,,,,M,,M,,*56
[2021-02-22 14:44:33.710] $GPGGA,,,,,,,,,,M,,M,,*56
[2021-02-22 14:44:33.710] $GPGGA,,,,,,,,,,M,,M,,*56
[2021-02-22 14:44:33.710] $GPGGA,,,,,,,,,,M,,M,,*56
[2021-02-22 14:44:33.710] $GPGGA,,,,,,,,,,M,,M,,*56
[2021-02-22 14:44:33.710] $GPGGA,,,,,,,,,,M,,M,,*56
[2021-02-22 14:44:33.710] $GPGGA,,,,,,,,,,M,,M,,*56
[2021-02-22 14:44:33.710] $GPGGA,,,,,,,,,,M,,M,,*56
[2021-02-22 14:44:33.710] $GPGGA,,,,,,,,,,M,,M,,*56
[2021-02-22 14:44:33.710] $GPGGA,,,,,,,,,,M,,M,,*56
[2021-02-22 14:44:33.710] $GPGGA,,,,,,,,,,M,,M,,*56
[2021-02-22 14:44:33.710] $GPGGA,,,,,,,,,,M,,M,,*56
[2021-02-22 14:44:33.710] $GPGGA,,,,,,,,,,M,,M,,*56
[2021-02-22 14:44:33.710] $GPGGA,,,,,,,,,,M,,M,,*56
[2021-02-22 14:44:33.710] $GPGGA,,,,,,,,,,M,,M,,*56
[2021-02-22 14:44:33.710] $GPGGA,,,,,,,,,,M,,M,,*56
[2021-02-22 14:44:33.710] $GPGGA,,,,,,,,,,M,,M,,*56
[2021-02-22 14:44:33.710] $GPGGA,,,,,,,,,,M,,M,,*56
[2021-02-22 14:44:33.710] $GPGGA,,,,,,,,,,M,,M,,*56
[2021-02-22 14:44:33.710] $GPGGA,,,,,,,,,,M,,M,,*56
[2021-02-22 14:44:33.710] $GPGGA,,,,,,,,,,M,,M,,*56
[2021-02-22 14:44:33.710] $GPGGA,,,,,,,,,,M,,M,,*56
[2021-02-22 14:44:33.710] $GPGGA,,,,,,,,,,M,,M,,*56
[2021-02-22 14:44:33.710] $GPGGA,,,,,,,,,,M,,M,,*56
[2021-02-22 14:44:33.710] $GPGGA,,,,,,,,,,M,,M,,*56
[2021-02-22 14:44:33.710] $GPGGA,,,,,,,,,,M,,M,,*56
[2021-02-22 14:44:33.710] $GPGGA,,,,,,,,,,M,,M,,*56
[2021-02-22 14:44:33.710] $GPGGA,,,,,,,,,,M,,M,,*56
[2021-02-22 14:44:33.710] $GPGGA,,,,,,,,,,M,,M,,*56
[2021-02-22 14:44:33.710] $GPGGA,,,,,,,,,,M,,M,,*56
[2021-02-22 14:44:33.710] $GPGGA,,,,,,,,,,M,,M,,*56
[2021-02-22 14:44:33.710] $GPGGA,,,,,,,,,,M,,M,,*56
[2021-02-22 14:44:33.710] $GPGGA,,,,,,,,,,M,,M,,*56
[2021-02-22 14:44:33.710] $GPGGA,,,,,,,,,,M,,M,,*56
[2021-02-22 14:44:33.710] $GPGGA,,,,,,,,,,M,,M,,*56
[2021-02-22 14:44:33.710] $GPGGA,,,,,,,,,,M,,M,,*56
[2021-02-22 14:44:33.710] $GPGGA,,,,,,,,,,M,,M,,*56
[2021-02-22 14:44:33.710] $GPGGA,,,,,,,,,,M,,M,,*56
[2021-02-22 14:44:33.710] $GPGGA,,,,,,,,,,M,,M,,*56
[2021-02-22 14:44:33.710] $GPGGA,,,,,,,,,,M,,M,,*56
[2021-02-22 14:44:33.710] $GPGGA,,,,,,,,,,M,,M,,*56
[2021-02-22 14:44:33.710] $GPGGA,,,,,,,,,,M,,M,,*56
[2021-02-22 14:44:33.710] $GPGGA,,,,,,,,,,M,,M,,*56
[2021-02-22 14:44:33.710] $GPGGA,,,,,,,,,,M,,M,,*56
[2021-02-22 14:44:33.820] $GPGGA,,,,,,,,,,M,,M,,*56
[2021-02-22 14:44:34.007] $GPGGA,,,,,,,,,,M,,M,,*56
[2021-02-22 14:44:34.210] $GPGGA,,,,,,,,,,M,,M,,*56
[2021-02-22 14:44:34.398] $GPGGA,,,,,,,,,,M,,M,,*56
[2021-02-22 14:44:34.616] $GPGGA,,,,,,,,,,M,,M,,*56
[2021-02-22 14:44:34.804] $GPGGA,,,,,,,,,,M,,M,,*56
[2021-02-22 14:44:35.007] $GPGGA,,,,,,,,,,M,,M,,*56
[2021-02-22 14:44:35.210] $GPGGA,,,,,,,,,,M,,M,,*56
[2021-02-22 14:44:35.413] $GPGGA,,,,,,,,,,M,,M,,*56
[2021-02-22 14:44:35.601] $GPGGA,,,,,,,,,,M,,M,,*56
[2021-02-22 14:44:35.819] $GPGGA,,,,,,,,,,M,,M,,*56
[2021-02-22 14:44:36.007] $GPGGA,,,,,,,,,,M,,M,,*56
[2021-02-22 14:44:36.210] $GPGGA,,,,,,,,,,M,,M,,*56
[2021-02-22 14:44:36.398] $GPGGA,,,,,,,,,,M,,M,,*56
[2021-02-22 14:44:36.616] $GPGGA,,,,,,,,,,M,,M,,*56
[2021-02-22 14:44:36.804] $GPGGA,,,,,,,,,,M,,M,,*56
[2021-02-22 14:44:37.007] $GPGGA,,,,,,,,,,M,,M,,*56
[2021-02-22 14:44:37.210] $GPGGA,,,,,,,,,,M,,M,,*56
[2021-02-22 14:44:37.413] $GPGGA,,,,,,,,,,M,,M,,*56
[2021-02-22 14:44:37.601] $GPGGA,,,,,,,,,,M,,M,,*56
[2021-02-22 14:44:37.819] $GPGGA,,,,,,,,,,M,,M,,*56
[2021-02-22 14:44:38.007] $GPGGA,,,,,,,,,,M,,M,,*56
[2021-02-22 14:44:38.210] $GPGGA,,,,,,,,,,M,,M,,*56
[2021-02-22 14:44:38.397] $GPGGA,,,,,,,,,,M,,M,,*56
[2021-02-22 14:44:38.616] $GPGGA,,,,,,,,,,M,,M,,*56
[2021-02-22 14:44:38.804] $GPGGA,,,,,,,,,,M,,M,,*56
[2021-02-22 14:44:39.007] $GPGGA,,,,,,,,,,M,,M,,*56
[2021-02-22 14:44:39.210] $GPGGA,,,,,,,,,,M,,M,,*56
[2021-02-22 14:44:39.413] $GPGGA,,,,,,,,,,M,,M,,*56
[2021-02-22 14:44:39.600] $GPGGA,,,,,,,,,,M,,M,,*56
[2021-02-22 14:44:39.819] $GPGGA,,,,,,,,,,M,,M,,*56
[2021-02-22 14:44:40.007] $GPGGA,,,,,,,,,,M,,M,,*56
[2021-02-22 14:44:40.210] $GPGGA,,,,,,,,,,M,,M,,*56
[2021-02-22 14:44:40.413] $GPGGA,,,,,,,,,,M,,M,,*56
[2021-02-22 14:44:40.616] $GPGGA,,,,,,,,,,M,,M,,*56
[2021-02-22 14:44:40.803] $GPGGA,,,,,,,,,,M,,M,,*56
[2021-02-22 14:44:41.007] $GPGGA,,,,,,,,,,M,,M,,*56
[2021-02-22 14:44:41.225] $GPGGA,,,,,,,,,,M,,M,,*56
[2021-02-22 14:44:41.413] $GPGGA,,,,,,,,,,M,,M,,*56
[2021-02-22 14:44:41.600] $GPGGA,,,,,,,,,,M,,M,,*56
[2021-02-22 14:44:41.819] $GPGGA,,,,,,,,,,M,,M,,*56
[2021-02-22 14:44:42.006] $GPGGA,,,,,,,,,,M,,M,,*56
[2021-02-22 14:44:42.210] $GPGGA,,,,,,,,,,M,,M,,*56
[2021-02-22 14:44:42.413] $GPGGA,,,,,,,,,,M,,M,,*56
[2021-02-22 14:44:42.616] $GPGGA,,,,,,,,,,M,,M,,*56
[2021-02-22 14:44:42.819] $GPGGA,,,,,,,,,,M,,M,,*56
[2021-02-22 14:44:43.006] $GPGGA,,,,,,,,,,M,,M,,*56
[2021-02-22 14:44:43.210] $GPGGA,,,,,,,,,,M,,M,,*56
[2021-02-22 14:44:43.413] $GPGGA,,,,,,,,,,M,,M,,*56
[2021-02-22 14:44:43.616] $GPGGA,,,,,,,,,,M,,M,,*56
[2021-02-22 14:44:43.819] $GPGGA,,,,,,,,,,M,,M,,*56
[2021-02-22 14:44:44.006] $GPGGA,,,,,,,,,,M,,M,,*56
[2021-02-22 14:44:44.209] $GPGGA,,,,,,,,,,M,,M,,*56
[2021-02-22 14:44:44.413] $GPGGA,,,,,,,,,,M,,M,,*56
[2021-02-22 14:44:44.616] $GPGGA,,,,,,,,,,M,,M,,*56
[2021-02-22 14:44:44.819] $GPGGA,,,,,,,,,,M,,M,,*56
[2021-02-22 14:44:45.006] $GPGGA,,,,,,,,,,M,,M,,*56
[2021-02-22 14:44:45.225] $GPGGA,,,,,,,,,,M,,M,,*56
[2021-02-22 14:44:45.413] $GPGGA,,,,,,,,,,M,,M,,*56
[2021-02-22 14:44:45.616] $GPGGA,,,,,,,,,,M,,M,,*56
[2021-02-22 14:44:45.819] $GPGGA,,,,,,,,,,M,,M,,*56
[2021-02-22 14:44:46.022] $GPGGA,,,,,,,,,,M,,M,,*56
[2021-02-22 14:44:46.209] $GPGGA,,,,,,,,,,M,,M,,*56
[2021-02-22 14:44:46.412] $GPGGA,,,,,,,,,,M,,M,,*56
[2021-02-22 14:44:46.616] $GPGGA,,,,,,,,,,M,,M,,*56
[2021-02-22 14:44:46.819] $GPGGA,,,,,,,,,,M,,M,,*56
[2021-02-22 14:44:47.006] $GPGGA,,,,,,,,,,M,,M,,*56
[2021-02-22 14:44:47.225] $GPGGA,,,,,,,,,,M,,M,,*56
[2021-02-22 14:44:47.412] $GPGGA,,,,,,,,,,M,,M,,*56
[2021-02-22 14:44:47.615] $GPGGA,,,,,,,,,,M,,M,,*56
[2021-02-22 14:44:47.803] $GPGGA,,,,,,,,,,M,,M,,*56
[2021-02-22 14:44:48.022] $GPGGA,,,,,,,,,,M,,M,,*56
[2021-02-22 14:44:48.209] $GPGGA,,,,,,,,,,M,,M,,*56
[2021-02-22 14:44:48.412] $GPGGA,,,,,,,,,,M,,M,,*56
[2021-02-22 14:44:48.615] $GPGGA,,,,,,,,,,M,,M,,*56
[2021-02-22 14:44:48.819] $GPGGA,,,,,,,,,,M,,M,,*56
[2021-02-22 14:44:49.006] $GPGGA,,,,,,,,,,M,,M,,*56
[2021-02-22 14:44:49.225] $GPGGA,,,,,,,,,,M,,M,,*56
[2021-02-22 14:44:49.412] $GPGGA,,,,,,,,,,M,,M,,*56
[2021-02-22 14:44:49.615] $GPGGA,,,,,,,,,,M,,M,,*56
[2021-02-22 14:44:49.803] $GPGGA,,,,,,,,,,M,,M,,*56
[2021-02-22 14:44:50.022] $GPGGA,,,,,,,,,,M,,M,,*56
[2021-02-22 14:44:50.209] $GPGGA,,,,,,,,,,M,,M,,*56
[2021-02-22 14:44:50.412] $GPGGA,,,,,,,,,,M,,M,,*56
[2021-02-22 14:44:50.615] $GPGGA,,,,,,,,,,M,,M,,*56
[2021-02-22 14:44:50.818] $GPGGA,,,,,,,,,,M,,M,,*56
[2021-02-22 14:44:51.006] $GPGGA,,,,,,,,,,M,,M,,*56
[2021-02-22 14:44:51.225] $GPGGA,,,,,,,,,,M,,M,,*56
[2021-02-22 14:44:51.412] $GPGGA,,,,,,,,,,M,,M,,*56
[2021-02-22 14:44:51.615] $GPGGA,,,,,,,,,,M,,M,,*56
[2021-02-22 14:44:51.803] $GPGGA,,,,,,,,,,M,,M,,*56
[2021-02-22 14:44:52.021] $GPGGA,,,,,,,,,,M,,M,,*56
[2021-02-22 14:44:52.209] $GPGGA,,,,,,,,,,M,,M,,*56
[2021-02-22 14:44:52.412] $GPGGA,,,,,,,,,,M,,M,,*56
[2021-02-22 14:44:52.615] $GPGGA,,,,,,,,,,M,,M,,*56
[2021-02-22 14:44:52.818] $GPGGA,,,,,,,,,,M,,M,,*56
[2021-02-22 14:44:53.006] $GPGGA,,,,,,,,,,M,,M,,*56
[2021-02-22 14:44:53.224] $GPGGA,,,,,,,,,,M,,M,,*56
[2021-02-22 14:44:53.412] $GPGGA,,,,,,,,,,M,,M,,*56
[2021-02-22 14:44:53.615] $GPGGA,,,,,,,,,,M,,M,,*56
[2021-02-22 14:44:53.803] $GPGGA,,,,,,,,,,M,,M,,*56
[2021-02-22 14:44:54.021] $GPGGA,,,,,,,,,,M,,M,,*56
[2021-02-22 14:44:54.209] $GPGGA,,,,,,,,,,M,,M,,*56
[2021-02-22 14:44:54.412] $GPGGA,,,,,,,,,,M,,M,,*56
[2021-02-22 14:44:54.615] $GPGGA,,,,,,,,,,M,,M,,*56
[2021-02-22 14:44:54.818] $GPGGA,,,,,,,,,,M,,M,,*56
[2021-02-22 14:44:55.006] $GPGGA,,,,,,,,,,M,,M,,*56
[2021-02-22 14:44:55.224] $GPGGA,,,,,,,,,,M,,M,,*56
[2021-02-22 14:44:55.412] $GPGGA,,,,,,,,,,M,,M,,*56
[2021-02-22 14:44:55.615] $GPGGA,,,,,,,,,,M,,M,,*56
[2021-02-22 14:44:55.802] $GPGGA,,,,,,,,,,M,,M,,*56
[2021-02-22 14:44:56.021] $GPGGA,,,,,,,,,,M,,M,,*56
[2021-02-22 14:44:56.209] $GPGGA,,,,,,,,,,M,,M,,*56
[2021-02-22 14:44:56.412] $GPGGA,,,,,,,,,,M,,M,,*56
[2021-02-22 14:44:56.615] $GPGGA,,,,,,,,,,M,,M,,*56
[2021-02-22 14:44:56.818] $GPGGA,,,,,,,,,,M,,M,,*56
[2021-02-22 14:44:57.005] $GPGGA,,,,,,,,,,M,,M,,*56
[2021-02-22 14:44:57.224] $GPGGA,,,,,,,,,,M,,M,,*56
[2021-02-22 14:44:57.412] $GPGGA,,,,,,,,,,M,,M,,*56
[2021-02-22 14:44:57.615] $GPGGA,,,,,,,,,,M,,M,,*56
[2021-02-22 14:44:57.802] $GPGGA,,,,,,,,,,M,,M,,*56
[2021-02-22 14:44:58.021] $GPGGA,,,,,,,,,,M,,M,,*56
[2021-02-22 14:44:58.209] $GPGGA,,,,,,,,,,M,,M,,*56
[2021-02-22 14:44:58.412] $GPGGA,,,,,,,,,,M,,M,,*56
[2021-02-22 14:44:58.615] $GPGGA,,,,,,,,,,M,,M,,*56
[2021-02-22 14:44:58.818] $GPGGA,,,,,,,,,,M,,M,,*56
[2021-02-22 14:44:59.005] $GPGGA,,,,,,,,,,M,,M,,*56
[2021-02-22 14:44:59.208] $GPGGA,,,,,,,,,,M,,M,,*56
[2021-02-22 14:44:59.412] $GPGGA,,,,,,,,,,M,,M,,*56
[2021-02-22 14:44:59.615] $GPGGA,,,,,,,,,,M,,M,,*56
[2021-02-22 14:44:59.802] $GPGGA,,,,,,,,,,M,,M,,*56
[2021-02-22 14:45:00.021] $GPGGA,,,,,,,,,,M,,M,,*56
[2021-02-22 14:45:00.208] $GPGGA,,,,,,,,,,M,,M,,*56
[2021-02-22 14:45:00.411] $GPGGA,,,,,,,,,,M,,M,,*56
[2021-02-22 14:45:00.615] $GPGGA,,,,,,,,,,M,,M,,*56
[2021-02-22 14:45:00.818] $GPGGA,,,,,,,,,,M,,M,,*56
[2021-02-22 14:45:01.005] $GPGGA,,,,,,,,,,M,,M,,*56
[2021-02-22 14:45:01.208] $GPGGA,,,,,,,,,,M,,M,,*56
[2021-02-22 14:45:01.411] $GPGGA,,,,,,,,,,M,,M,,*56
[2021-02-22 14:45:01.615] $GPGGA,,,,,,,,,,M,,M,,*56
[2021-02-22 14:45:01.802] $GPGGA,,,,,,,,,,M,,M,,*56
[2021-02-22 14:45:02.021] $GPGGA,,,,,,,,,,M,,M,,*56
[2021-02-22 14:45:02.208] $GPGGA,,,,,,,,,,M,,M,,*56
[2021-02-22 14:45:02.411] $GPGGA,,,,,,,,,,M,,M,,*56
[2021-02-22 14:45:02.614] $GPGGA,,,,,,,,,,M,,M,,*56
[2021-02-22 14:45:02.818] $GPGGA,,,,,,,,,,M,,M,,*56
[2021-02-22 14:45:03.005] $GPGGA,,,,,,,,,,M,,M,,*56
[2021-02-22 14:45:03.224] $GPGGA,054502.80,3713.97201988,N,13701.48873672,E,1,03,6.3,93.447,M,36.771,M,,*58
[2021-02-22 14:45:03.302] $GPGGA,054502.90,3713.97202667,N,13701.48873778,E,1,03,6.3,93.447,M,36.771,M,,*5F
[2021-02-22 14:45:03.427] $GPGGA,054503.00,3713.96945359,N,13701.48902209,E,1,04,1.8,100.647,M,36.771,M,,*60
[2021-02-22 14:45:03.521] $GPGGA,054503.10,3713.96946089,N,13701.48902526,E,1,04,1.8,100.590,M,36.771,M,,*6F
[2021-02-22 14:45:03.630] $GNGGA,054503.20,3713.97104236,N,13701.48994412,E,1,06,1.5,93.490,M,36.771,M,,*47
[2021-02-22 14:45:03.724] $GNGGA,054503.30,3713.97104384,N,13701.48994479,E,1,06,1.5,93.483,M,36.771,M,,*41
[2021-02-22 14:45:03.833] $GNGGA,054503.40,3713.97145692,N,13701.48906921,E,2,05,3.5,92.653,M,36.771,M,1.4,0979*6A
[2021-02-22 14:45:03.927] $GNGGA,054503.50,3713.97145750,N,13701.48906676,E,2,04,3.5,92.646,M,36.771,M,1.5,0979*6D
[2021-02-22 14:45:04.021] $GNGGA,054503.60,3713.97141320,N,13701.48894834,E,2,06,3.5,93.040,M,36.771,M,1.6,0979*6B
[2021-02-22 14:45:04.114] $GNGGA,054503.70,3713.97141239,N,13701.48894454,E,2,06,3.5,93.034,M,36.771,M,1.7,0979*6B
[2021-02-22 14:45:04.224] $GNGGA,054503.80,3713.97135716,N,13701.48891046,E,2,06,3.5,93.263,M,36.771,M,1.8,0979*62
[2021-02-22 14:45:04.317] $GNGGA,054503.90,3713.97135446,N,13701.48890754,E,2,06,3.5,93.255,M,36.771,M,1.9,0979*64
[2021-02-22 14:45:04.427] $GNGGA,054504.00,3713.97132203,N,13701.48889151,E,2,06,3.5,93.332,M,36.771,M,1.0,0979*68
[2021-02-22 14:45:04.521] $GNGGA,054504.10,3713.97131929,N,13701.48889004,E,2,06,3.5,93.329,M,36.771,M,1.1,0979*63
[2021-02-22 14:45:04.630] $GNGGA,054504.20,3713.97128346,N,13701.48887526,E,2,06,3.5,93.406,M,36.771,M,1.2,0979*69
[2021-02-22 14:45:04.724] $GNGGA,054504.30,3713.97128263,N,13701.48887803,E,2,06,3.5,93.405,M,36.771,M,1.3,0979*66
[2021-02-22 14:45:04.833] $GNGGA,054504.40,3713.97144525,N,13701.48909139,E,2,07,1.5,93.079,M,36.771,M,1.4,0979*62
[2021-02-22 14:45:04.927] $GNGGA,054504.50,3713.97144339,N,13701.48909370,E,2,07,1.5,93.077,M,36.771,M,1.5,0979*68
[2021-02-22 14:45:05.021] $GNGGA,054504.60,3713.97145121,N,13701.48912555,E,2,07,1.5,93.088,M,36.771,M,1.6,0979*69
[2021-02-22 14:45:05.114] $GNGGA,054504.70,3713.97145073,N,13701.48912941,E,2,07,1.5,93.087,M,36.771,M,1.7,0979*69
[2021-02-22 14:45:05.224] $GNGGA,054504.80,3713.97147737,N,13701.48918296,E,2,07,1.5,93.048,M,36.771,M,1.8,0979*64
[2021-02-22 14:45:05.317] $GNGGA,054504.90,3713.97147885,N,13701.48918197,E,2,07,1.5,93.047,M,36.771,M,1.9,0979*6F
[2021-02-22 14:45:05.427] $GNGGA,054505.00,3713.97149135,N,13701.48919381,E,2,07,1.5,93.046,M,36.771,M,1.0,0979*67
[2021-02-22 14:45:05.521] $GNGGA,054505.10,3713.97149121,N,13701.48919831,E,2,07,1.5,93.046,M,36.771,M,1.1,0979*62
[2021-02-22 14:45:05.630] $GNGGA,054505.20,3713.97149495,N,13701.48921205,E,2,08,1.3,93.058,M,36.771,M,1.2,0979*68
[2021-02-22 14:45:05.724] $GNGGA,054505.30,3713.97149248,N,13701.48921616,E,2,07,1.3,93.053,M,36.771,M,1.3,0979*6C
[2021-02-22 14:45:05.833] $GNGGA,054505.40,3713.97147021,N,13701.48920011,E,2,09,1.3,93.031,M,36.771,M,1.4,0979*65
[2021-02-22 14:45:05.927] $GNGGA,054505.50,3713.97146736,N,13701.48920348,E,2,09,1.3,93.033,M,36.771,M,1.5,0979*68
[2021-02-22 14:45:06.020] $GNGGA,054505.60,3713.97143810,N,13701.48921188,E,2,09,1.3,93.052,M,36.771,M,1.6,0979*6E
[2021-02-22 14:45:06.114] $GNGGA,054505.70,3713.97143707,N,13701.48921631,E,2,09,1.3,93.044,M,36.771,M,1.7,0979*65
[2021-02-22 14:45:06.224] $GNGGA,054505.80,3713.97143158,N,13701.48922672,E,2,09,1.3,93.074,M,36.771,M,1.8,0979*6E
[2021-02-22 14:45:06.317] $GNGGA,054505.90,3713.97142988,N,13701.48922923,E,2,09,1.3,93.072,M,36.771,M,1.9,0979*67
[2021-02-22 14:45:06.427] $GNGGA,054506.00,3713.97142914,N,13701.48922966,E,2,09,1.3,93.079,M,36.771,M,1.0,0979*6B
[2021-02-22 14:45:06.520] $GNGGA,054506.10,3713.97142747,N,13701.48923151,E,2,09,1.3,93.073,M,36.771,M,1.1,0979*64
[2021-02-22 14:45:06.630] $GNGGA,054506.20,3713.97142625,N,13701.48922476,E,2,10,1.2,93.080,M,36.771,M,1.2,0979*65
[2021-02-22 14:45:06.724] $GNGGA,054506.30,3713.97142527,N,13701.48922902,E,2,09,1.2,93.076,M,36.771,M,1.3,0979*6B
[2021-02-22 14:45:06.833] $GNGGA,054506.40,3713.97141872,N,13701.48922548,E,2,10,1.2,93.087,M,36.771,M,1.4,0979*61
[2021-02-22 14:45:06.927] $GNGGA,054506.50,3713.97141746,N,13701.48922692,E,2,10,1.2,93.084,M,36.771,M,1.5,0979*6E
[2021-02-22 14:45:07.020] $GNGGA,054506.60,3713.97140737,N,13701.48922277,E,2,10,1.2,93.091,M,36.771,M,1.6,0979*62
[2021-02-22 14:45:07.114] $GNGGA,054506.70,3713.97140602,N,13701.48922172,E,2,10,1.2,93.085,M,36.771,M,1.7,0979*66
[2021-02-22 14:45:07.224] $GNGGA,054506.80,3713.97139309,N,13701.48921522,E,2,10,1.2,93.084,M,36.771,M,1.8,0979*65
[2021-02-22 14:45:07.317] $GNGGA,054506.90,3713.97139346,N,13701.48921852,E,2,10,1.2,93.080,M,36.771,M,1.9,0979*60
[2021-02-22 14:45:07.427] $GNGGA,054507.00,3713.97138956,N,13701.48922149,E,2,10,1.2,93.054,M,36.771,M,1.0,0979*62
[2021-02-22 14:45:07.520] $GNGGA,054507.10,3713.97138956,N,13701.48922500,E,2,10,1.2,93.048,M,36.771,M,1.1,0979*66
[2021-02-22 14:45:07.630] $GNGGA,054507.20,3713.97138571,N,13701.48923322,E,2,10,1.2,93.021,M,36.771,M,1.2,0979*67
[2021-02-22 14:45:07.723] $GNGGA,054507.30,3713.97138648,N,13701.48923326,E,2,10,1.2,93.017,M,36.771,M,1.3,0979*6F
[2021-02-22 14:45:07.833] $GNGGA,054507.40,3713.97138255,N,13701.48923880,E,2,10,1.2,92.996,M,36.771,M,1.4,0979*61
[2021-02-22 14:45:07.927] $GNGGA,054507.50,3713.97138488,N,13701.48924260,E,2,10,1.2,92.997,M,36.771,M,1.5,0979*65
[2021-02-22 14:45:08.020] $GNGGA,054507.60,3713.97138069,N,13701.48924505,E,2,10,1.2,92.979,M,36.771,M,1.6,0979*6A
[2021-02-22 14:45:08.114] $GNGGA,054507.70,3713.97138075,N,13701.48924679,E,2,10,1.2,92.982,M,36.771,M,1.7,0979*6B
[2021-02-22 14:45:08.223] $GNGGA,054507.80,3713.97138057,N,13701.48925090,E,2,10,1.2,92.979,M,36.771,M,1.8,0979*6F
[2021-02-22 14:45:08.317] $GNGGA,054507.90,3713.97138139,N,13701.48925188,E,2,10,1.2,92.982,M,36.771,M,1.9,0979*6A
[2021-02-22 14:45:08.427] $GNGGA,054508.00,3713.97138181,N,13701.48925650,E,2,10,1.2,92.986,M,36.771,M,1.0,0979*60
[2021-02-22 14:45:08.520] $GNGGA,054508.10,3713.97138061,N,13701.48925730,E,2,10,1.2,92.994,M,36.771,M,1.1,0979*6B
[2021-02-22 14:45:08.630] $GNGGA,054508.20,3713.97138364,N,13701.48925887,E,2,10,1.2,92.997,M,36.771,M,1.2,0979*6D
[2021-02-22 14:45:08.723] $GNGGA,054508.30,3713.97138758,N,13701.48925764,E,2,10,1.2,93.002,M,36.771,M,1.3,0979*60
[2021-02-22 14:45:08.833] $GNGGA,054508.40,3713.97139132,N,13701.48924975,E,2,10,1.2,93.003,M,36.771,M,1.4,0979*65
[2021-02-22 14:45:08.927] $GNGGA,054508.50,3713.97139119,N,13701.48923978,E,2,10,1.2,93.004,M,36.771,M,1.5,0979*61
[2021-02-22 14:45:09.020] $GNGGA,054508.60,3713.97139953,N,13701.48922954,E,2,10,1.2,93.004,M,36.771,M,1.6,0979*68
[2021-02-22 14:45:09.114] $GNGGA,054508.70,3713.97140205,N,13701.48922751,E,2,10,1.2,93.000,M,36.771,M,1.7,0979*61
[2021-02-22 14:45:09.223] $GNGGA,054508.80,3713.97141098,N,13701.48922554,E,2,10,1.2,92.993,M,36.771,M,1.8,0979*63
[2021-02-22 14:45:09.317] $GNGGA,054508.90,3713.97141009,N,13701.48922210,E,2,10,1.2,92.993,M,36.771,M,1.9,0979*6C
[2021-02-22 14:45:09.426] $GNGGA,054509.00,3713.97141983,N,13701.48923101,E,2,10,1.2,92.987,M,36.771,M,1.0,0979*61
[2021-02-22 14:45:09.520] $GNGGA,054509.10,3713.97141999,N,13701.48923544,E,2,10,1.2,92.994,M,36.771,M,1.1,0979*6D
[2021-02-22 14:45:09.630] $GNGGA,054509.20,3713.97143137,N,13701.48924940,E,2,10,1.2,92.984,M,36.771,M,1.2,0979*6D
[2021-02-22 14:45:09.723] $GNGGA,054509.30,3713.97143073,N,13701.48924782,E,2,10,1.2,92.991,M,36.771,M,1.3,0979*68
[2021-02-22 14:45:09.833] $GNGGA,054509.40,3713.97144060,N,13701.48925961,E,2,10,1.2,92.987,M,36.771,M,1.4,0979*68
[2021-02-22 14:45:09.926] $GNGGA,054509.50,3713.97144029,N,13701.48925649,E,2,10,1.2,92.996,M,36.771,M,1.5,0979*60
[2021-02-22 14:45:10.020] $GNGGA,054509.60,3713.97145154,N,13701.48926431,E,2,10,1.2,92.991,M,36.771,M,1.6,0979*63
[2021-02-22 14:45:10.114] $GNGGA,054509.70,3713.97145042,N,13701.48926266,E,2,10,1.2,92.992,M,36.771,M,1.7,0979*62
[2021-02-22 14:45:10.223] $GNGGA,054509.80,3713.97146074,N,13701.48926971,E,2,10,1.2,92.985,M,36.771,M,1.8,0979*6F
[2021-02-22 14:45:10.317] $GNGGA,054509.90,3713.97146034,N,13701.48926784,E,2,10,1.2,92.979,M,36.771,M,1.9,0979*6C
[2021-02-22 14:45:10.426] $GNGGA,054510.00,3713.97146709,N,13701.48927521,E,2,10,1.2,92.971,M,36.771,M,2.0,0979*6A
[2021-02-22 14:45:10.520] $GNGGA,054510.10,3713.97146562,N,13701.48927627,E,2,10,1.2,92.976,M,36.771,M,1.1,0979*64
[2021-02-22 14:45:10.630] $GNGGA,054510.20,3713.97147182,N,13701.48928411,E,2,10,1.2,92.970,M,36.771,M,1.2,0979*61
[2021-02-22 14:45:10.723] $GNGGA,054510.30,3713.97147131,N,13701.48928544,E,2,10,1.2,92.971,M,36.771,M,1.3,0979*69
[2021-02-22 14:45:10.833] $GNGGA,054510.40,3713.97147254,N,13701.48929459,E,2,10,1.2,92.962,M,36.771,M,1.4,0979*67
[2021-02-22 14:45:10.926] $GNGGA,054510.50,3713.97147149,N,13701.48929373,E,2,10,1.2,92.969,M,36.771,M,1.5,0979*6C
[2021-02-22 14:45:11.020] $GNGGA,054510.60,3713.97146577,N,13701.48930521,E,2,10,1.2,92.960,M,36.771,M,1.6,0979*64
[2021-02-22 14:45:11.114] $GNGGA,054510.70,3713.97146480,N,13701.48930414,E,2,10,1.2,92.975,M,36.771,M,1.7,0979*6E
[2021-02-22 14:45:11.223] $GNGGA,054510.80,3713.97145506,N,13701.48931330,E,2,10,1.2,92.964,M,36.771,M,1.8,0979*62
[2021-02-22 14:45:11.317] $GNGGA,054510.90,3713.97145535,N,13701.48931222,E,2,10,1.2,92.971,M,36.771,M,1.9,0979*64
[2021-02-22 14:45:11.426] $GNGGA,054511.00,3713.97144631,N,13701.48931957,E,2,10,1.2,92.956,M,36.771,M,1.0,0979*6F
[2021-02-22 14:45:11.520] $GNGGA,054511.10,3713.97144626,N,13701.48931694,E,2,10,1.2,92.954,M,36.771,M,1.1,0979*6B
[2021-02-22 14:45:11.629] $GPGGA,054511.20,3713.97059687,N,13701.48902820,E,5,04,3.6,97.604,M,36.771,M,1.2,0979*79
[2021-02-22 14:45:11.723] $GPGGA,054511.30,3713.97059764,N,13701.48903054,E,5,04,3.6,97.594,M,36.771,M,1.3,0979*75
[2021-02-22 14:45:11.833] $GPGGA,054511.40,3713.97059714,N,13701.48903169,E,5,04,3.6,97.593,M,36.771,M,1.4,0979*7A
[2021-02-22 14:45:11.926] $GPGGA,054511.50,3713.97060687,N,13701.48903412,E,5,04,3.6,97.559,M,36.771,M,1.5,0979*74
[2021-02-22 14:45:12.036] $GPGGA,054511.60,3713.97059837,N,13701.48902523,E,5,04,3.6,97.597,M,36.771,M,1.6,0979*7B
[2021-02-22 14:45:12.129] $GPGGA,054511.70,3713.97060109,N,13701.48902699,E,5,04,3.6,97.579,M,36.771,M,1.7,0979*77
[2021-02-22 14:45:12.223] $GPGGA,054511.80,3713.97059400,N,13701.48902577,E,5,04,3.6,97.588,M,36.771,M,1.8,0979*7C
[2021-02-22 14:45:12.317] $GPGGA,054511.90,3713.97059874,N,13701.48902750,E,5,04,3.6,97.581,M,36.771,M,1.9,0979*7D
[2021-02-22 14:45:12.426] $GPGGA,054512.00,3713.97059507,N,13701.48901875,E,5,04,3.6,97.603,M,36.771,M,2.0,0979*76
[2021-02-22 14:45:12.520] $GPGGA,054512.10,3713.97059952,N,13701.48902141,E,5,04,3.6,97.592,M,36.771,M,2.1,0979*7C
[2021-02-22 14:45:12.629] $GPGGA,054512.20,3713.97065019,N,13701.49009026,E,5,05,1.6,92.355,M,36.771,M,1.2,0979*7E
[2021-02-22 14:45:12.723] $GPGGA,054512.30,3713.97064960,N,13701.49009178,E,5,05,1.6,92.361,M,36.771,M,1.3,0979*75
[2021-02-22 14:45:12.833] $GPGGA,054512.40,3713.97064738,N,13701.49008547,E,5,05,1.6,92.370,M,36.771,M,1.4,0979*7F
[2021-02-22 14:45:12.926] $GPGGA,054512.50,3713.97064784,N,13701.49008836,E,5,05,1.6,92.380,M,36.771,M,1.5,0979*7C
[2021-02-22 14:45:13.036] $GPGGA,054512.60,3713.97064465,N,13701.49008958,E,5,05,1.6,92.364,M,36.771,M,1.6,0979*73
[2021-02-22 14:45:13.129] $GPGGA,054512.70,3713.97064547,N,13701.49008552,E,5,05,1.6,92.364,M,36.771,M,1.7,0979*74
[2021-02-22 14:45:13.223] $GPGGA,054512.80,3713.97064640,N,13701.49008478,E,5,05,1.6,92.375,M,36.771,M,1.8,0979*79
[2021-02-22 14:45:13.317] $GPGGA,054512.90,3713.97064348,N,13701.49008821,E,5,05,1.6,92.368,M,36.771,M,1.9,0979*78
[2021-02-22 14:45:13.426] $GPGGA,054513.00,3713.97105421,N,13701.48973074,E,5,05,1.6,92.492,M,36.771,M,1.0,0979*79
[2021-02-22 14:45:13.520] $GPGGA,054513.10,3713.97105293,N,13701.48973156,E,5,05,1.6,92.490,M,36.771,M,1.1,0979*75
[2021-02-22 14:45:13.629] $GPGGA,054513.20,3713.97105584,N,13701.48973157,E,5,05,1.6,92.488,M,36.771,M,1.2,0979*7C
[2021-02-22 14:45:13.723] $GPGGA,054513.30,3713.97105437,N,13701.48973345,E,5,05,1.6,92.486,M,36.771,M,1.3,0979*7A
[2021-02-22 14:45:13.832] $GPGGA,054513.40,3713.97105414,N,13701.48973082,E,5,05,1.6,92.496,M,36.771,M,1.4,0979*72
[2021-02-22 14:45:13.926] $GPGGA,054513.50,3713.97105297,N,13701.48972549,E,5,05,1.6,92.509,M,36.771,M,1.5,0979*7B
[2021-02-22 14:45:14.036] $GPGGA,054513.60,3713.97105406,N,13701.48972938,E,5,05,1.6,92.486,M,36.771,M,1.6,0979*79
[2021-02-22 14:45:14.129] $GPGGA,054513.70,3713.97105085,N,13701.48972810,E,5,05,1.6,92.485,M,36.771,M,1.7,0979*7E
[2021-02-22 14:45:14.239] $GPGGA,054513.80,3713.97105397,N,13701.48972638,E,5,05,1.6,92.494,M,36.771,M,1.8,0979*7A
[2021-02-22 14:45:14.317] $GPGGA,054513.90,3713.97105195,N,13701.48972631,E,5,05,1.6,92.498,M,36.771,M,1.9,0979*7F
[2021-02-22 14:45:14.426] $GPGGA,054514.00,3713.97117578,N,13701.48958296,E,5,05,1.6,92.607,M,36.771,M,1.0,0979*79
[2021-02-22 14:45:14.520] $GPGGA,054514.10,3713.97117653,N,13701.48958218,E,5,05,1.6,92.610,M,36.771,M,1.1,0979*73
[2021-02-22 14:45:14.629] $GPGGA,054514.20,3713.97117507,N,13701.48958018,E,5,05,1.6,92.607,M,36.771,M,1.2,0979*75
[2021-02-22 14:45:14.723] $GPGGA,054514.30,3713.97117640,N,13701.48958077,E,5,05,1.6,92.605,M,36.771,M,1.3,0979*7E
[2021-02-22 14:45:14.832] $GPGGA,054514.40,3713.97117309,N,13701.48957755,E,5,05,1.6,92.615,M,36.771,M,1.4,0979*7F
[2021-02-22 14:45:14.926] $GPGGA,054514.50,3713.97117372,N,13701.48957729,E,5,05,1.6,92.607,M,36.771,M,1.5,0979*7B
[2021-02-22 14:45:15.035] $GPGGA,054514.60,3713.97117296,N,13701.48957855,E,5,05,1.6,92.602,M,36.771,M,1.6,0979*71
[2021-02-22 14:45:15.129] $GPGGA,054514.70,3713.97117419,N,13701.48957652,E,5,05,1.6,92.615,M,36.771,M,1.7,0979*7F
[2021-02-22 14:45:15.223] $GPGGA,054514.80,3713.97117246,N,13701.48957630,E,5,05,1.6,92.600,M,36.771,M,1.8,0979*73
[2021-02-22 14:45:15.317] $GPGGA,054514.90,3713.97117427,N,13701.48957820,E,5,05,1.6,92.603,M,36.771,M,1.9,0979*7E
[2021-02-22 14:45:15.426] $GNGGA,054515.00,3713.97147762,N,13701.48927119,E,4,09,1.3,92.691,M,36.771,M,1.0,0979*61
[2021-02-22 14:45:15.520] $GNGGA,054515.10,3713.97147973,N,13701.48926803,E,4,09,1.3,92.685,M,36.771,M,1.1,0979*69
[2021-02-22 14:45:15.629] $GNGGA,054515.20,3713.97147781,N,13701.48927052,E,4,09,1.3,92.680,M,36.771,M,1.2,0979*62
[2021-02-22 14:45:15.723] $GNGGA,054515.30,3713.97147880,N,13701.48926618,E,4,09,1.3,92.683,M,36.771,M,1.3,0979*66
[2021-02-22 14:45:15.832] $GNGGA,054515.40,3713.97148010,N,13701.48926798,E,4,09,1.3,92.679,M,36.771,M,1.4,0979*64
[2021-02-22 14:45:15.926] $GNGGA,054515.50,3713.97147939,N,13701.48927161,E,4,09,1.3,92.677,M,36.771,M,1.5,0979*66
[2021-02-22 14:45:16.035] $GNGGA,054515.60,3713.97147916,N,13701.48927567,E,4,09,1.3,92.683,M,36.771,M,1.6,0979*62
[2021-02-22 14:45:16.129] $GNGGA,054515.70,3713.97147764,N,13701.48927255,E,4,09,1.3,92.681,M,36.771,M,1.7,0979*6D
[2021-02-22 14:45:16.223] $GNGGA,054515.80,3713.97148065,N,13701.48927531,E,4,09,1.3,92.684,M,36.771,M,1.8,0979*64
[2021-02-22 14:45:16.317] $GNGGA,054515.90,3713.97147704,N,13701.48927484,E,4,09,1.3,92.672,M,36.771,M,1.9,0979*6D
[2021-02-22 14:45:16.426] $GNGGA,054516.00,3713.97147768,N,13701.48927833,E,4,09,1.3,92.690,M,36.771,M,2.0,0979*6B
[2021-02-22 14:45:16.520] $GNGGA,054516.10,3713.97147760,N,13701.48928230,E,4,09,1.3,92.668,M,36.771,M,1.1,0979*61
[2021-02-22 14:45:16.629] $GNGGA,054516.20,3713.97148167,N,13701.48928565,E,4,09,1.3,92.674,M,36.771,M,1.2,0979*65
[2021-02-22 14:45:16.723] $GNGGA,054516.30,3713.97147965,N,13701.48928225,E,4,09,1.3,92.679,M,36.771,M,1.3,0979*6E
[2021-02-22 14:45:16.832] $GNGGA,054516.40,3713.97147991,N,13701.48928707,E,4,09,1.3,92.681,M,36.771,M,1.4,0979*67
[2021-02-22 14:45:16.926] $GNGGA,054516.50,3713.97147773,N,13701.48928605,E,4,09,1.3,92.680,M,36.771,M,1.5,0979*67
[2021-02-22 14:45:17.035] $GNGGA,054516.60,3713.97148035,N,13701.48928353,E,4,09,1.3,92.673,M,36.771,M,1.6,0979*67
[2021-02-22 14:45:17.129] $GNGGA,054516.70,3713.97147765,N,13701.48928080,E,4,09,1.3,92.681,M,36.771,M,1.7,0979*6A
[2021-02-22 14:45:17.238] $GNGGA,054516.80,3713.97148076,N,13701.48928205,E,4,09,1.3,92.682,M,36.771,M,1.8,0979*6C
[2021-02-22 14:45:17.317] $GNGGA,054516.90,3713.97147771,N,13701.48927885,E,4,09,1.3,92.673,M,36.771,M,1.9,0979*60
[2021-02-22 14:45:17.426] $GNGGA,054517.00,3713.97147665,N,13701.48927777,E,4,09,1.3,92.679,M,36.771,M,2.0,0979*6E
[2021-02-22 14:45:17.520] $GNGGA,054517.10,3713.97147507,N,13701.48927455,E,4,09,1.3,92.679,M,36.771,M,1.1,0979*69
[2021-02-22 14:45:17.629] $GNGGA,054517.20,3713.97147249,N,13701.48927466,E,4,09,1.3,92.680,M,36.771,M,1.2,0979*62
[2021-02-22 14:45:17.723] $GNGGA,054517.30,3713.97147271,N,13701.48927335,E,4,09,1.3,92.673,M,36.771,M,1.3,0979*64
[2021-02-22 14:45:17.832] $GNGGA,054517.40,3713.97147375,N,13701.48927024,E,4,09,1.3,92.679,M,36.771,M,1.4,0979*68
[2021-02-22 14:45:17.926] $GNGGA,054517.50,3713.97147245,N,13701.48926753,E,4,09,1.3,92.679,M,36.771,M,1.5,0979*6C
[2021-02-22 14:45:18.035] $GNGGA,054517.60,3713.97147298,N,13701.48926863,E,4,09,1.3,92.684,M,36.771,M,1.6,0979*62
[2021-02-22 14:45:18.129] $GNGGA,054517.70,3713.97147319,N,13701.48926952,E,4,09,1.3,92.673,M,36.771,M,1.7,0979*61
[2021-02-22 14:45:18.223] $GNGGA,054517.80,3713.97147283,N,13701.48926695,E,4,09,1.3,92.678,M,36.771,M,1.8,0979*6C
[2021-02-22 14:45:18.316] $GNGGA,054517.90,3713.97147492,N,13701.48926854,E,4,09,1.3,92.681,M,36.771,M,1.9,0979*6F
[2021-02-22 14:45:18.426] $GNGGA,054518.00,3713.97147337,N,13701.48927083,E,4,09,1.3,92.683,M,36.771,M,2.0,0979*6A
[2021-02-22 14:45:18.520] $GNGGA,054518.10,3713.97147764,N,13701.48927569,E,4,09,1.3,92.685,M,36.771,M,1.1,0979*6C
[2021-02-22 14:45:18.629] $GNGGA,054518.20,3713.97148158,N,13701.48927411,E,4,09,1.3,92.683,M,36.771,M,1.2,0979*62
[2021-02-22 14:45:18.723] $GNGGA,054518.30,3713.97148432,N,13701.48927534,E,4,09,1.3,92.686,M,36.771,M,1.3,0979*68
[2021-02-22 14:45:18.832] $GNGGA,054518.40,3713.97148457,N,13701.48927807,E,4,09,1.3,92.672,M,36.771,M,1.4,0979*6D
[2021-02-22 14:45:18.926] $GNGGA,054518.50,3713.97148376,N,13701.48927554,E,4,09,1.3,92.691,M,36.771,M,1.5,0979*6F
[2021-02-22 14:45:19.035] $GNGGA,054518.60,3713.97148213,N,13701.48927399,E,4,09,1.3,92.686,M,36.771,M,1.6,0979*6C
[2021-02-22 14:45:19.129] $GNGGA,054518.70,3713.97148474,N,13701.48927239,E,4,09,1.3,92.694,M,36.771,M,1.7,0979*63
[2021-02-22 14:45:19.223] $GNGGA,054518.80,3713.97148268,N,13701.48927680,E,4,09,1.3,92.676,M,36.771,M,1.8,0979*62
[2021-02-22 14:45:19.316] $GNGGA,054518.90,3713.97148505,N,13701.48927326,E,4,09,1.3,92.684,M,36.771,M,1.9,0979*6A
[2021-02-22 14:45:19.426] $GNGGA,054519.00,3713.97148273,N,13701.48926973,E,4,09,1.3,92.693,M,36.771,M,1.0,0979*60
[2021-02-22 14:45:19.520] $GNGGA,054519.10,3713.97147871,N,13701.48927548,E,4,09,1.3,92.685,M,36.771,M,1.1,0979*65
[2021-02-22 14:45:19.629] $GNGGA,054519.20,3713.97147960,N,13701.48927250,E,4,09,1.3,92.700,M,36.771,M,1.2,0979*66
[2021-02-22 14:45:19.723] $GNGGA,054519.30,3713.97148059,N,13701.48927325,E,4,09,1.3,92.683,M,36.771,M,1.3,0979*63
[2021-02-22 14:45:19.832] $GNGGA,054519.40,3713.97148043,N,13701.48927500,E,4,09,1.3,92.686,M,36.771,M,1.4,0979*6C
[2021-02-22 14:45:19.926] $GNGGA,054519.50,3713.97148247,N,13701.48927234,E,4,09,1.3,92.683,M,36.771,M,1.5,0979*6F
[2021-02-22 14:45:20.035] $GNGGA,054519.60,3713.97147952,N,13701.48927049,E,4,09,1.3,92.685,M,36.771,M,1.6,0979*61
[2021-02-22 14:45:20.129] $GNGGA,054519.70,3713.97148147,N,13701.48927146,E,4,09,1.3,92.690,M,36.771,M,1.7,0979*68
[2021-02-22 14:45:20.223] $GNGGA,054519.80,3713.97148081,N,13701.48927127,E,4,09,1.3,92.691,M,36.771,M,1.8,0979*65
[2021-02-22 14:45:20.316] $GNGGA,054519.90,3713.97148081,N,13701.48927243,E,4,09,1.3,92.694,M,36.771,M,1.9,0979*61
[2021-02-22 14:45:20.426] $GNGGA,054520.00,3713.97148244,N,13701.48927469,E,4,09,1.3,92.679,M,36.771,M,1.0,0979*6D
[2021-02-22 14:45:20.519] $GNGGA,054520.10,3713.97147998,N,13701.48927456,E,4,09,1.3,92.680,M,36.771,M,1.1,0979*62
[2021-02-22 14:45:20.629] $GNGGA,054520.20,3713.97148095,N,13701.48927358,E,4,09,1.3,92.683,M,36.771,M,1.2,0979*63
[2021-02-22 14:45:20.723] $GNGGA,054520.30,3713.97148097,N,13701.48927416,E,4,09,1.3,92.683,M,36.771,M,1.3,0979*6C
[2021-02-22 14:45:20.832] $GNGGA,054520.40,3713.97148110,N,13701.48927310,E,4,09,1.3,92.673,M,36.771,M,1.4,0979*6C
[2021-02-22 14:45:20.926] $GNGGA,054520.50,3713.97147942,N,13701.48927208,E,4,09,1.3,92.682,M,36.771,M,1.5,0979*6A
[2021-02-22 14:45:21.035] $GNGGA,054520.60,3713.97148101,N,13701.48927244,E,4,09,1.3,92.682,M,36.771,M,1.6,0979*62
[2021-02-22 14:45:21.129] $GNGGA,054520.70,3713.97147938,N,13701.48927154,E,4,09,1.3,92.682,M,36.771,M,1.7,0979*6D
[2021-02-22 14:45:21.238] $GNGGA,054520.80,3713.97148017,N,13701.48927419,E,4,09,1.3,92.680,M,36.771,M,1.8,0979*68
[2021-02-22 14:45:21.316] $GNGGA,054520.90,3713.97147928,N,13701.48927399,E,4,09,1.3,92.682,M,36.771,M,1.9,0979*6F
[2021-02-22 14:45:21.426] $GNGGA,054521.00,3713.97148128,N,13701.48927627,E,4,09,1.3,92.679,M,36.771,M,2.0,0979*6E
[2021-02-22 14:45:21.519] $GNGGA,054521.10,3713.97147946,N,13701.48927691,E,4,09,1.3,92.679,M,36.771,M,2.1,0979*6C
[2021-02-22 14:45:21.629] $GNGGA,054521.20,3713.97148369,N,13701.48928065,E,4,09,1.3,92.669,M,36.771,M,1.2,0979*64
[2021-02-22 14:45:21.722] $GNGGA,054521.30,3713.97148027,N,13701.48928398,E,4,09,1.3,92.666,M,36.771,M,1.3,0979*63
[2021-02-22 14:45:21.832] $GNGGA,054521.40,3713.97148177,N,13701.48928600,E,4,09,1.3,92.671,M,36.771,M,1.4,0979*65
[2021-02-22 14:45:21.926] $GNGGA,054521.50,3713.97147937,N,13701.48928765,E,4,09,1.3,92.667,M,36.771,M,1.5,0979*63
[2021-02-22 14:45:22.035] $GNGGA,054521.60,3713.97148067,N,13701.48928908,E,4,09,1.3,92.671,M,36.771,M,1.6,0979*62
[2021-02-22 14:45:22.129] $GNGGA,054521.70,3713.97147872,N,13701.48928957,E,4,09,1.3,92.675,M,36.771,M,1.7,0979*6F
[2021-02-22 14:45:22.238] $GNGGA,054521.80,3713.97148083,N,13701.48928846,E,4,09,1.3,92.674,M,36.771,M,1.8,0979*66
[2021-02-22 14:45:22.332] $GNGGA,054521.90,3713.97148145,N,13701.48928710,E,4,09,1.3,92.676,M,36.771,M,1.9,0979*63
[2021-02-22 14:45:22.426] $GNGGA,054522.00,3713.97147993,N,13701.48928862,E,4,09,1.3,92.675,M,36.771,M,2.0,0979*66
[2021-02-22 14:45:22.504] $GNGGA,054522.10,3713.97148000,N,13701.48928344,E,4,09,1.3,92.684,M,36.771,M,1.1,0979*68
[2021-02-22 14:45:22.629] $GNGGA,054522.20,3713.97147853,N,13701.48928059,E,4,09,1.3,92.679,M,36.771,M,1.2,0979*64
[2021-02-22 14:45:22.722] $GNGGA,054522.30,3713.97147890,N,13701.48928188,E,4,09,1.3,92.680,M,36.771,M,1.3,0979*60
[2021-02-22 14:45:22.832] $GNGGA,054522.40,3713.97147874,N,13701.48927907,E,4,09,1.3,92.684,M,36.771,M,1.4,0979*6E
[2021-02-22 14:45:22.926] $GNGGA,054522.50,3713.97148109,N,13701.48927913,E,4,09,1.3,92.675,M,36.771,M,1.5,0979*69
[2021-02-22 14:45:23.035] $GNGGA,054522.60,3713.97147857,N,13701.48927869,E,4,09,1.3,92.683,M,36.771,M,1.6,0979*61
[2021-02-22 14:45:23.129] $GNGGA,054522.70,3713.97148003,N,13701.48927565,E,4,09,1.3,92.679,M,36.771,M,1.7,0979*63
[2021-02-22 14:45:23.238] $GNGGA,054522.80,3713.97147972,N,13701.48927584,E,4,09,1.3,92.681,M,36.771,M,1.8,0979*6B
[2021-02-22 14:45:23.316] $GNGGA,054522.90,3713.97148256,N,13701.48927844,E,4,09,1.3,92.678,M,36.771,M,1.9,0979*6E
[2021-02-22 14:45:23.425] $GNGGA,054523.00,3713.97148121,N,13701.48927642,E,4,09,1.3,92.677,M,36.771,M,2.0,0979*68
[2021-02-22 14:45:23.519] $GNGGA,054523.10,3713.97148361,N,13701.48927786,E,4,09,1.3,92.685,M,36.771,M,1.1,0979*69
[2021-02-22 14:45:23.629] $GNGGA,054523.20,3713.97148319,N,13701.48927732,E,4,09,1.3,92.682,M,36.771,M,1.2,0979*6E
[2021-02-22 14:45:23.722] $GNGGA,054523.30,3713.97148412,N,13701.48928039,E,4,09,1.3,92.672,M,36.771,M,1.3,0979*6E
[2021-02-22 14:45:23.832] $GNGGA,054523.40,3713.97148202,N,13701.48927811,E,4,09,1.3,92.682,M,36.771,M,1.4,0979*6B
[2021-02-22 14:45:23.925] $GNGGA,054523.50,3713.97148401,N,13701.48927771,E,4,09,1.3,92.677,M,36.771,M,1.5,0979*6D
[2021-02-22 14:45:24.035] $GNGGA,054523.60,3713.97148136,N,13701.48927958,E,4,09,1.3,92.678,M,36.771,M,1.6,0979*66
[2021-02-22 14:45:24.129] $GNGGA,054523.70,3713.97148205,N,13701.48927940,E,4,09,1.3,92.681,M,36.771,M,1.7,0979*6A
[2021-02-22 14:45:24.238] $GNGGA,054523.80,3713.97148238,N,13701.48927929,E,4,09,1.3,92.677,M,36.771,M,1.8,0979*62
[2021-02-22 14:45:24.332] $GNGGA,054523.90,3713.97148217,N,13701.48927865,E,4,09,1.3,92.685,M,36.771,M,1.9,0979*6B
[2021-02-22 14:45:24.425] $GNGGA,054524.00,3713.97148519,N,13701.48927820,E,4,09,1.3,92.675,M,36.771,M,2.0,0979*68
[2021-02-22 14:45:24.519] $GNGGA,054524.10,3713.97148042,N,13701.48927920,E,4,09,1.3,92.672,M,36.771,M,1.1,0979*66
[2021-02-22 14:45:24.629] $GNGGA,054524.20,3713.97148017,N,13701.48928142,E,4,09,1.3,92.682,M,36.771,M,1.2,0979*6A
[2021-02-22 14:45:24.722] $GNGGA,054524.30,3713.97148050,N,13701.48928155,E,4,09,1.3,92.669,M,36.771,M,1.3,0979*6A
[2021-02-22 14:45:24.832] $GNGGA,054524.40,3713.97147960,N,13701.48928053,E,4,09,1.3,92.681,M,36.771,M,1.4,0979*6E
[2021-02-22 14:45:24.925] $GNGGA,054524.50,3713.97147869,N,13701.48928138,E,4,09,1.3,92.677,M,36.771,M,1.5,0979*63
[2021-02-22 14:45:25.035] $GNGGA,054524.60,3713.97147919,N,13701.48928009,E,4,09,1.3,92.672,M,36.771,M,1.6,0979*63
[2021-02-22 14:45:25.128] $GNGGA,054524.70,3713.97147905,N,13701.48928058,E,4,09,1.3,92.677,M,36.771,M,1.7,0979*6F
[2021-02-22 14:45:25.238] $GNGGA,054524.80,3713.97148104,N,13701.48928119,E,4,09,1.3,92.671,M,36.771,M,1.8,0979*6B
[2021-02-22 14:45:25.332] $GNGGA,054524.90,3713.97147816,N,13701.48927939,E,4,09,1.3,92.685,M,36.771,M,1.9,0979*60
[2021-02-22 14:45:25.425] $GNGGA,054525.00,3713.97148175,N,13701.48928141,E,4,09,1.3,92.678,M,36.771,M,2.0,0979*6B
[2021-02-22 14:45:25.519] $GNGGA,054525.10,3713.97147868,N,13701.48927870,E,4,09,1.3,92.677,M,36.771,M,2.1,0979*6A
[2021-02-22 14:45:25.628] $GNGGA,054525.20,3713.97148143,N,13701.48927983,E,4,09,1.3,92.672,M,36.771,M,1.2,0979*6E
[2021-02-22 14:45:25.722] $GNGGA,054525.30,3713.97147877,N,13701.48927796,E,4,09,1.3,92.675,M,36.771,M,1.3,0979*62
[2021-02-22 14:45:25.832] $GNGGA,054525.40,3713.97147726,N,13701.48928086,E,4,09,1.3,92.684,M,36.771,M,1.4,0979*6E
[2021-02-22 14:45:25.925] $GNGGA,054525.50,3713.97147910,N,13701.48927866,E,4,09,1.3,92.681,M,36.771,M,1.5,0979*69
[2021-02-22 14:45:26.035] $GNGGA,054525.60,3713.97148013,N,13701.48928149,E,4,09,1.3,92.671,M,36.771,M,1.6,0979*68
[2021-02-22 14:45:26.128] $GNGGA,054525.70,3713.97148009,N,13701.48927791,E,4,09,1.3,92.684,M,36.771,M,1.7,0979*65
[2021-02-22 14:45:26.238] $GNGGA,054525.80,3713.97147917,N,13701.48927920,E,4,09,1.3,92.680,M,36.771,M,1.8,0979*6C
[2021-02-22 14:45:26.316] $GNGGA,054525.90,3713.97147837,N,13701.48928055,E,4,09,1.3,92.677,M,36.771,M,1.9,0979*63
[2021-02-22 14:45:26.425] $GNGGA,054526.00,3713.97147921,N,13701.48927873,E,4,09,1.3,92.681,M,36.771,M,2.0,0979*6F
[2021-02-22 14:45:26.519] $GNGGA,054526.10,3713.97147953,N,13701.48927916,E,4,09,1.3,92.678,M,36.771,M,2.1,0979*6E
[2021-02-22 14:45:26.628] $GNGGA,054526.20,3713.97147676,N,13701.48927524,E,4,09,1.3,92.688,M,36.771,M,1.2,0979*67
[2021-02-22 14:45:26.722] $GNGGA,054526.30,3713.97147681,N,13701.48927699,E,4,09,1.3,92.684,M,36.771,M,1.3,0979*66
[2021-02-22 14:45:26.832] $GNGGA,054526.40,3713.97147730,N,13701.48927430,E,4,09,1.3,92.681,M,36.771,M,1.4,0979*69
[2021-02-22 14:45:26.925] $GNGGA,054526.50,3713.97147869,N,13701.48927478,E,4,09,1.3,92.679,M,36.771,M,1.5,0979*61
[2021-02-22 14:45:27.035] $GNGGA,054526.60,3713.97147828,N,13701.48927559,E,4,09,1.3,92.684,M,36.771,M,1.6,0979*64
[2021-02-22 14:45:27.128] $GNGGA,054526.70,3713.97147817,N,13701.48927317,E,4,09,1.3,92.688,M,36.771,M,1.7,0979*68
[2021-02-22 14:45:27.238] $GNGGA,054526.80,3713.97147785,N,13701.48927594,E,4,09,1.3,92.688,M,36.771,M,1.8,0979*61
[2021-02-22 14:45:27.316] $GNGGA,054526.90,3713.97147948,N,13701.48927396,E,4,09,1.3,92.683,M,36.771,M,1.9,0979*61
[2021-02-22 14:45:27.425] $GNGGA,054527.00,3713.97147723,N,13701.48927357,E,4,09,1.3,92.687,M,36.771,M,2.0,0979*69
[2021-02-22 14:45:27.519] $GNGGA,054527.10,3713.97147657,N,13701.48927194,E,4,09,1.3,92.686,M,36.771,M,2.1,0979*67
[2021-02-22 14:45:27.628] $GNGGA,054527.20,3713.97148076,N,13701.48927415,E,4,09,1.3,92.681,M,36.771,M,1.2,0979*65
[2021-02-22 14:45:27.722] $GNGGA,054527.30,3713.97148057,N,13701.48927599,E,4,09,1.3,92.680,M,36.771,M,1.3,0979*62
[2021-02-22 14:45:27.831] $GNGGA,054527.40,3713.97148111,N,13701.48927330,E,4,09,1.3,92.679,M,36.771,M,1.4,0979*62
[2021-02-22 14:45:27.925] $GNGGA,054527.50,3713.97147905,N,13701.48927528,E,4,09,1.3,92.683,M,36.771,M,1.5,0979*6A
[2021-02-22 14:45:28.035] $GNGGA,054527.60,3713.97148253,N,13701.48927537,E,4,09,1.3,92.675,M,36.771,M,1.6,0979*6A
[2021-02-22 14:45:28.128] $GNGGA,054527.70,3713.97148020,N,13701.48927482,E,4,09,1.3,92.678,M,36.771,M,1.7,0979*6E
[2021-02-22 14:45:28.238] $GNGGA,054527.80,3713.97147957,N,13701.48927655,E,4,09,1.3,92.678,M,36.771,M,1.8,0979*60
[2021-02-22 14:45:28.316] $GNGGA,054527.90,3713.97147998,N,13701.48927551,E,4,09,1.3,92.675,M,36.771,M,1.9,0979*69
[2021-02-22 14:45:28.425] $GNGGA,054528.00,3713.97148096,N,13701.48927698,E,4,09,1.3,92.678,M,36.771,M,2.0,0979*66
[2021-02-22 14:45:28.519] $GNGGA,054528.10,3713.97148077,N,13701.48927723,E,4,09,1.3,92.675,M,36.771,M,1.1,0979*66
[2021-02-22 14:45:28.628] $GNGGA,054528.20,3713.97147746,N,13701.48927825,E,4,09,1.3,92.678,M,36.771,M,1.2,0979*68
[2021-02-22 14:45:28.722] $GNGGA,054528.30,3713.97147898,N,13701.48927912,E,4,09,1.3,92.675,M,36.771,M,1.3,0979*6C
[2021-02-22 14:45:28.831] $GNGGA,054528.40,3713.97147910,N,13701.48927968,E,4,09,1.3,92.668,M,36.771,M,1.4,0979*6C
[2021-02-22 14:45:28.925] $GNGGA,054528.50,3713.97147782,N,13701.48927935,E,4,09,1.3,92.674,M,36.771,M,1.5,0979*6C
[2021-02-22 14:45:29.034] $GNGGA,054528.60,3713.97147835,N,13701.48927994,E,4,09,1.3,92.679,M,36.771,M,1.6,0979*69
[2021-02-22 14:45:29.128] $GNGGA,054528.70,3713.97147885,N,13701.48927793,E,4,09,1.3,92.672,M,36.771,M,1.7,0979*60
[2021-02-22 14:45:29.238] $GNGGA,054528.80,3713.97147529,N,13701.48928114,E,4,09,1.3,92.674,M,36.771,M,1.8,0979*6B
[2021-02-22 14:45:29.331] $GNGGA,054528.90,3713.97147834,N,13701.48928065,E,4,09,1.3,92.673,M,36.771,M,1.9,0979*6A
[2021-02-22 14:45:29.441] $GNGGA,054529.00,3713.97148032,N,13701.48927952,E,4,09,1.3,92.666,M,36.771,M,2.0,0979*6F
[2021-02-22 14:45:29.519] $GNGGA,054529.10,3713.97148166,N,13701.48928262,E,4,09,1.3,92.670,M,36.771,M,1.1,0979*6C
[2021-02-22 14:45:29.628] $GNGGA,054529.20,3713.97148203,N,13701.48928333,E,4,09,1.3,92.671,M,36.771,M,1.2,0979*68
[2021-02-22 14:45:29.722] $GNGGA,054529.30,3713.97148183,N,13701.48928435,E,4,09,1.3,92.665,M,36.771,M,1.3,0979*67
[2021-02-22 14:45:29.831] $GNGGA,054529.40,3713.97148646,N,13701.48927925,E,4,09,1.3,92.663,M,36.771,M,1.4,0979*6C
[2021-02-22 14:45:29.925] $GNGGA,054529.50,3713.97148336,N,13701.48928161,E,4,09,1.3,92.665,M,36.771,M,1.5,0979*6F
[2021-02-22 14:45:30.034] $GNGGA,054529.60,3713.97148485,N,13701.48928205,E,4,09,1.3,92.657,M,36.771,M,1.6,0979*60
[2021-02-22 14:45:30.128] $GNGGA,054529.70,3713.97148051,N,13701.48928085,E,4,09,1.3,92.673,M,36.771,M,1.7,0979*61
[2021-02-22 14:45:30.238] $GNGGA,054529.80,3713.97148255,N,13701.48928055,E,4,09,1.3,92.666,M,36.771,M,1.8,0979*6E
[2021-02-22 14:45:30.331] $GNGGA,054529.90,3713.97148342,N,13701.48927910,E,4,09,1.3,92.664,M,36.771,M,1.9,0979*6C
[2021-02-22 14:45:30.441] $GNGGA,054530.00,3713.97148146,N,13701.48927922,E,4,09,1.3,92.671,M,36.771,M,1.0,0979*67
[2021-02-22 14:45:30.519] $GNGGA,054530.10,3713.97148303,N,13701.48927901,E,4,09,1.3,92.674,M,36.771,M,1.1,0979*60
[2021-02-22 14:45:30.628] $GNGGA,054530.20,3713.97148637,N,13701.48927657,E,4,09,1.3,92.673,M,36.771,M,1.2,0979*69
[2021-02-22 14:45:30.722] $GNGGA,054530.30,3713.97148494,N,13701.48927791,E,4,09,1.3,92.667,M,36.771,M,1.3,0979*6C
[2021-02-22 14:45:30.831] $GNGGA,054530.40,3713.97148332,N,13701.48927620,E,4,09,1.3,92.671,M,36.771,M,1.4,0979*6B
[2021-02-22 14:45:30.925] $GNGGA,054530.50,3713.97148473,N,13701.48928037,E,4,09,1.3,92.670,M,36.771,M,1.5,0979*67
[2021-02-22 14:45:31.034] $GNGGA,054530.60,3713.97148278,N,13701.48927935,E,4,09,1.3,92.673,M,36.771,M,1.6,0979*6D
[2021-02-22 14:45:31.128] $GNGGA,054530.70,3713.97148364,N,13701.48927738,E,4,09,1.3,92.672,M,36.771,M,1.7,0979*63
[2021-02-22 14:45:31.237] $GNGGA,054530.80,3713.97148220,N,13701.48927900,E,4,09,1.3,92.673,M,36.771,M,1.8,0979*66
[2021-02-22 14:45:31.331] $GNGGA,054530.90,3713.97148413,N,13701.48927808,E,4,09,1.3,92.674,M,36.771,M,1.9,0979*6E
[2021-02-22 14:45:31.441] $GNGGA,054531.00,3713.97148329,N,13701.48927741,E,4,09,1.3,92.676,M,36.771,M,2.0,0979*62
[2021-02-22 14:45:31.519] $GNGGA,054531.10,3713.97148377,N,13701.48927955,E,4,10,1.2,92.682,M,36.771,M,1.1,0979*63
[2021-02-22 14:45:31.628] $GNGGA,054531.20,3713.97148513,N,13701.48927926,E,4,10,1.2,92.678,M,36.771,M,1.2,0979*66
[2021-02-22 14:45:31.722] $GNGGA,054531.30,3713.97148347,N,13701.48928011,E,4,10,1.2,92.671,M,36.771,M,1.3,0979*6A
[2021-02-22 14:45:31.831] $GNGGA,054531.40,3713.97148370,N,13701.48928117,E,4,10,1.2,92.673,M,36.771,M,1.4,0979*6B
[2021-02-22 14:45:31.925] $GNGGA,054531.50,3713.97148480,N,13701.48928029,E,4,10,1.2,92.678,M,36.771,M,1.5,0979*64
[2021-02-22 14:45:32.034] $GNGGA,054531.60,3713.97148138,N,13701.48927909,E,4,10,1.2,92.677,M,36.771,M,1.6,0979*69
[2021-02-22 14:45:32.128] $GNGGA,054531.70,3713.97148006,N,13701.48927738,E,4,10,1.2,92.679,M,36.771,M,1.7,0979*67
[2021-02-22 14:45:32.237] $GNGGA,054531.80,3713.97148185,N,13701.48927777,E,4,10,1.2,92.682,M,36.771,M,1.8,0979*62
[2021-02-22 14:45:32.331] $GNGGA,054531.90,3713.97148095,N,13701.48927554,E,4,10,1.2,92.674,M,36.771,M,1.9,0979*68
[2021-02-22 14:45:32.425] $GNGGA,054532.00,3713.97148362,N,13701.48927683,E,4,10,1.2,92.676,M,36.771,M,2.0,0979*68
[2021-02-22 14:45:32.503] $GNGGA,054532.10,3713.97148209,N,13701.48927290,E,4,10,1.2,92.677,M,36.771,M,1.1,0979*60
[2021-02-22 14:45:32.628] $GNGGA,054532.20,3713.97147998,N,13701.48927218,E,4,10,1.2,92.682,M,36.771,M,1.2,0979*66
[2021-02-22 14:45:32.722] $GNGGA,054532.30,3713.97148109,N,13701.48927560,E,4,10,1.2,92.678,M,36.771,M,1.3,0979*64
[2021-02-22 14:45:32.831] $GNGGA,054532.40,3713.97147805,N,13701.48927639,E,4,10,1.2,92.674,M,36.771,M,1.4,0979*6D
[2021-02-22 14:45:32.925] $GNGGA,054532.50,3713.97147659,N,13701.48927459,E,4,10,1.2,92.676,M,36.771,M,1.5,0979*6C
[2021-02-22 14:45:33.034] $GNGGA,054532.60,3713.97148019,N,13701.48927602,E,4,10,1.2,92.673,M,36.771,M,1.6,0979*68
[2021-02-22 14:45:33.128] $GNGGA,054532.70,3713.97148033,N,13701.48927548,E,4,10,1.2,92.677,M,36.771,M,1.7,0979*69
[2021-02-22 14:45:33.237] $GNGGA,054532.80,3713.97148321,N,13701.48927787,E,4,10,1.2,92.680,M,36.771,M,1.8,0979*60
[2021-02-22 14:45:33.331] $GNGGA,054532.90,3713.97147997,N,13701.48927784,E,4,10,1.2,92.680,M,36.771,M,1.9,0979*6B
[2021-02-22 14:45:33.440] $GNGGA,054533.00,3713.97148142,N,13701.48927495,E,4,10,1.2,92.664,M,36.771,M,1.0,0979*6C
[2021-02-22 14:45:33.519] $GNGGA,054533.10,3713.97147805,N,13701.48927276,E,4,10,1.2,92.673,M,36.771,M,1.1,0979*64
[2021-02-22 14:45:33.628] $GNGGA,054533.20,3713.97148151,N,13701.48927192,E,4,10,1.2,92.674,M,36.771,M,1.2,0979*6D
[2021-02-22 14:45:33.722] $GNGGA,054533.30,3713.97148072,N,13701.48927282,E,4,10,1.2,92.668,M,36.771,M,1.3,0979*62
[2021-02-22 14:45:33.831] $GNGGA,054533.40,3713.97148174,N,13701.48927018,E,4,10,1.2,92.685,M,36.771,M,1.4,0979*67
[2021-02-22 14:45:33.925] $GNGGA,054533.50,3713.97148383,N,13701.48927011,E,4,10,1.2,92.675,M,36.771,M,1.5,0979*6B
[2021-02-22 14:45:34.034] $GNGGA,054533.60,3713.97148392,N,13701.48927092,E,4,10,1.2,92.673,M,36.771,M,1.6,0979*66
[2021-02-22 14:45:34.128] $GNGGA,054533.70,3713.97148006,N,13701.48927174,E,4,10,1.2,92.679,M,36.771,M,1.7,0979*6B
[2021-02-22 14:45:34.237] $GNGGA,054533.80,3713.97148414,N,13701.48927157,E,4,10,1.2,92.676,M,36.771,M,1.8,0979*62
[2021-02-22 14:45:34.315] $GNGGA,054533.90,3713.97148264,N,13701.48927165,E,4,10,1.2,92.676,M,36.771,M,1.9,0979*62
[2021-02-22 14:45:34.425] $GNGGA,054534.00,3713.97148164,N,13701.48927193,E,4,10,1.2,92.672,M,36.771,M,2.0,0979*68
[2021-02-22 14:45:34.503] $GNGGA,054534.10,3713.97148323,N,13701.48926696,E,4,09,1.3,92.683,M,36.771,M,1.1,0979*6E
[2021-02-22 14:45:34.628] $GNGGA,054534.20,3713.97148510,N,13701.48926784,E,4,09,1.3,92.686,M,36.771,M,1.2,0979*6F
[2021-02-22 14:45:34.722] $GNGGA,054534.30,3713.97148215,N,13701.48926797,E,4,09,1.3,92.683,M,36.771,M,1.3,0979*6A
[2021-02-22 14:45:34.831] $GNGGA,054534.40,3713.97148159,N,13701.48926649,E,4,09,1.3,92.674,M,36.771,M,1.4,0979*6B
[2021-02-22 14:45:34.925] $GNGGA,054534.50,3713.97148287,N,13701.48926896,E,4,09,1.3,92.679,M,36.771,M,1.5,0979*6A
[2021-02-22 14:45:35.034] $GNGGA,054534.60,3713.97148101,N,13701.48927224,E,4,09,1.3,92.677,M,36.771,M,1.6,0979*6B
[2021-02-22 14:45:35.128] $GNGGA,054534.70,3713.97148195,N,13701.48926994,E,4,09,1.3,92.678,M,36.771,M,1.7,0979*68
[2021-02-22 14:45:35.237] $GNGGA,054534.80,3713.97148282,N,13701.48927162,E,4,09,1.3,92.691,M,36.771,M,1.8,0979*6A
[2021-02-22 14:45:35.331] $GNGGA,054534.90,3713.97148112,N,13701.48927230,E,4,09,1.3,92.685,M,36.771,M,1.9,0979*61
[2021-02-22 14:45:35.425] $GNGGA,054535.00,3713.97148067,N,13701.48927156,E,4,09,1.3,92.681,M,36.771,M,1.0,0979*64
[2021-02-22 14:45:35.518] $GNGGA,054535.10,3713.97148170,N,13701.48927210,E,4,09,1.3,92.683,M,36.771,M,1.1,0979*60
[2021-02-22 14:45:35.628] $GNGGA,054535.20,3713.97148243,N,13701.48927054,E,4,09,1.3,92.670,M,36.771,M,1.2,0979*6D
[2021-02-22 14:45:35.722] $GNGGA,054535.30,3713.97148124,N,13701.48927035,E,4,09,1.3,92.678,M,36.771,M,1.3,0979*60
[2021-02-22 14:45:35.831] $GNGGA,054535.40,3713.97148049,N,13701.48926720,E,4,09,1.3,92.680,M,36.771,M,1.4,0979*6F
[2021-02-22 14:45:35.925] $GNGGA,054535.50,3713.97148213,N,13701.48927123,E,4,09,1.3,92.672,M,36.771,M,1.5,0979*6B
[2021-02-22 14:45:36.034] $GNGGA,054535.60,3713.97148127,N,13701.48926835,E,4,09,1.3,92.681,M,36.771,M,1.6,0979*6C
[2021-02-22 14:45:36.128] $GNGGA,054535.70,3713.97147771,N,13701.48927006,E,4,09,1.3,92.678,M,36.771,M,1.7,0979*69
[2021-02-22 14:45:36.237] $GNGGA,054535.80,3713.97147929,N,13701.48926839,E,4,09,1.3,92.683,M,36.771,M,1.8,0979*6B
[2021-02-22 14:45:36.331] $GNGGA,054535.90,3713.97148243,N,13701.48926688,E,4,09,1.3,92.677,M,36.771,M,1.9,0979*6C
[2021-02-22 14:45:36.425] $GNGGA,054536.00,3713.97148021,N,13701.48927275,E,4,09,1.3,92.670,M,36.771,M,1.0,0979*69
[2021-02-22 14:45:36.518] $GNGGA,054536.10,3713.97147792,N,13701.48927456,E,4,09,1.3,92.668,M,36.771,M,1.1,0979*67
[2021-02-22 14:45:36.628] $GNGGA,054536.20,3713.97148093,N,13701.48927178,E,4,09,1.3,92.668,M,36.771,M,1.2,0979*67
[2021-02-22 14:45:36.721] $GNGGA,054536.30,3713.97148168,N,13701.48927016,E,4,09,1.3,92.665,M,36.771,M,1.3,0979*66
[2021-02-22 14:45:36.831] $GNGGA,054536.40,3713.97147876,N,13701.48927476,E,4,09,1.3,92.671,M,36.771,M,1.4,0979*68
[2021-02-22 14:45:36.925] $GNGGA,054536.50,3713.97148097,N,13701.48927371,E,4,09,1.3,92.668,M,36.771,M,1.5,0979*68
[2021-02-22 14:45:37.034] $GNGGA,054536.60,3713.97148234,N,13701.48927348,E,4,09,1.3,92.671,M,36.771,M,1.6,0979*61
[2021-02-22 14:45:37.128] $GNGGA,054536.70,3713.97148017,N,13701.48927448,E,4,09,1.3,92.667,M,36.771,M,1.7,0979*62
[2021-02-22 14:45:37.237] $GNGGA,054536.80,3713.97148396,N,13701.48927903,E,4,09,1.3,92.664,M,36.771,M,1.8,0979*69
[2021-02-22 14:45:37.331] $GNGGA,054536.90,3713.97148267,N,13701.48927854,E,4,09,1.3,92.676,M,36.771,M,1.9,0979*66
[2021-02-22 14:45:37.440] $GNGGA,054537.00,3713.97148432,N,13701.48928031,E,4,09,1.3,92.671,M,36.771,M,2.0,0979*61
[2021-02-22 14:45:37.518] $GNGGA,054537.10,3713.97148289,N,13701.48927792,E,4,09,1.3,92.664,M,36.771,M,1.1,0979*61
[2021-02-22 14:45:37.628] $GNGGA,054537.20,3713.97148524,N,13701.48928237,E,4,09,1.3,92.662,M,36.771,M,1.2,0979*62
[2021-02-22 14:45:37.721] $GNGGA,054537.30,3713.97148291,N,13701.48928160,E,4,09,1.3,92.672,M,36.771,M,1.3,0979*6B
[2021-02-22 14:45:37.831] $GNGGA,054537.40,3713.97148313,N,13701.48928401,E,4,09,1.3,92.673,M,36.771,M,1.4,0979*63
[2021-02-22 14:45:37.925] $GNGGA,054537.50,3713.97148734,N,13701.48928452,E,4,09,1.3,92.668,M,36.771,M,1.5,0979*6E
[2021-02-22 14:45:38.034] $GNGGA,054537.60,3713.97148930,N,13701.48928786,E,4,09,1.3,92.656,M,36.771,M,1.6,0979*63
[2021-02-22 14:45:38.128] $GNGGA,054537.70,3713.97148837,N,13701.48928442,E,4,09,1.3,92.666,M,36.771,M,1.7,0979*6D
[2021-02-22 14:45:38.237] $GNGGA,054537.80,3713.97148697,N,13701.48928308,E,4,09,1.3,92.673,M,36.771,M,1.8,0979*64
[2021-02-22 14:45:38.331] $GNGGA,054537.90,3713.97148813,N,13701.48928488,E,4,09,1.3,92.666,M,36.771,M,1.9,0979*6D
[2021-02-22 14:45:38.440] $GNGGA,054538.00,3713.97148680,N,13701.48928376,E,4,09,1.3,92.664,M,36.771,M,2.0,0979*61
[2021-02-22 14:45:38.518] $GNGGA,054538.10,3713.97148945,N,13701.48928051,E,4,09,1.3,92.689,M,36.771,M,1.1,0979*61
[2021-02-22 14:45:38.628] $GNGGA,054538.20,3713.97149128,N,13701.48928373,E,4,09,1.3,92.672,M,36.771,M,1.2,0979*64
[2021-02-22 14:45:38.721] $GNGGA,054538.30,3713.97148653,N,13701.48927918,E,4,09,1.3,92.684,M,36.771,M,1.3,0979*6F
[2021-02-22 14:45:38.831] $GNGGA,054538.40,3713.97148698,N,13701.48927723,E,4,09,1.3,92.672,M,36.771,M,1.4,0979*67
[2021-02-22 14:45:38.924] $GNGGA,054538.50,3713.97148475,N,13701.48927660,E,4,09,1.3,92.676,M,36.771,M,1.5,0979*64
[2021-02-22 14:45:39.034] $GNGGA,054538.60,3713.97148662,N,13701.48927729,E,4,09,1.3,92.674,M,36.771,M,1.6,0979*6E
[2021-02-22 14:45:39.128] $GNGGA,054538.70,3713.97148730,N,13701.48927696,E,4,09,1.3,92.676,M,36.771,M,1.7,0979*6F
[2021-02-22 14:45:39.237] $GNGGA,054538.80,3713.97148557,N,13701.48927382,E,4,09,1.3,92.675,M,36.771,M,1.8,0979*6F
[2021-02-22 14:45:39.331] $GNGGA,054538.90,3713.97148529,N,13701.48927168,E,4,09,1.3,92.675,M,36.771,M,1.9,0979*60
[2021-02-22 14:45:39.440] $GNGGA,054539.00,3713.97148315,N,13701.48926855,E,4,09,1.3,92.669,M,36.771,M,2.0,0979*60
[2021-02-22 14:45:39.518] $GNGGA,054539.10,3713.97148044,N,13701.48927190,E,4,10,1.2,92.681,M,36.771,M,1.1,0979*6A
[2021-02-22 14:45:39.627] $GNGGA,054539.20,3713.97147923,N,13701.48927134,E,4,10,1.2,92.665,M,36.771,M,1.2,0979*69
[2021-02-22 14:45:39.721] $GNGGA,054539.30,3713.97147939,N,13701.48927579,E,4,10,1.2,92.676,M,36.771,M,1.3,0979*6D
[2021-02-22 14:45:39.831] $GNGGA,054539.40,3713.97148122,N,13701.48927395,E,4,10,1.2,92.670,M,36.771,M,1.4,0979*62
[2021-02-22 14:45:39.924] $GNGGA,054539.50,3713.97147987,N,13701.48927182,E,4,10,1.2,92.681,M,36.771,M,1.5,0979*60
[2021-02-22 14:45:40.034] $GNGGA,054539.60,3713.97148204,N,13701.48927217,E,4,10,1.2,92.670,M,36.771,M,1.6,0979*6E
[2021-02-22 14:45:40.127] $GNGGA,054539.70,3713.97147983,N,13701.48927544,E,4,10,1.2,92.668,M,36.771,M,1.7,0979*6D
[2021-02-22 14:45:40.237] $GNGGA,054539.80,3713.97147892,N,13701.48927392,E,4,10,1.2,92.668,M,36.771,M,1.8,0979*61
[2021-02-22 14:45:40.331] $GNGGA,054539.90,3713.97147954,N,13701.48927555,E,4,10,1.2,92.674,M,36.771,M,1.9,0979*6A
[2021-02-22 14:45:40.440] $GNGGA,054540.00,3713.97147740,N,13701.48927571,E,4,10,1.2,92.673,M,36.771,M,2.0,0979*6D
[2021-02-22 14:45:40.534] $GNGGA,054540.10,3713.97148042,N,13701.48927582,E,4,10,1.2,92.672,M,36.771,M,2.1,0979*6A
[2021-02-22 14:45:40.627] $GNGGA,054540.20,3713.97148182,N,13701.48927652,E,4,10,1.2,92.675,M,36.771,M,1.2,0979*6D
[2021-02-22 14:45:40.721] $GNGGA,054540.30,3713.97148381,N,13701.48927707,E,4,10,1.2,92.682,M,36.771,M,1.3,0979*65
[2021-02-22 14:45:40.831] $GNGGA,054540.40,3713.97148299,N,13701.48927849,E,4,10,1.2,92.681,M,36.771,M,1.4,0979*6B
[2021-02-22 14:45:40.924] $GNGGA,054540.50,3713.97148318,N,13701.48927745,E,4,10,1.2,92.677,M,36.771,M,1.5,0979*69
[2021-02-22 14:45:41.034] $GNGGA,054540.60,3713.97148393,N,13701.48927750,E,4,10,1.2,92.673,M,36.771,M,1.6,0979*6A
[2021-02-22 14:45:41.127] $GNGGA,054540.70,3713.97148490,N,13701.48927681,E,4,10,1.2,92.682,M,36.771,M,1.7,0979*6D
[2021-02-22 14:45:41.237] $GNGGA,054540.80,3713.97148219,N,13701.48927964,E,4,10,1.2,92.680,M,36.771,M,1.8,0979*6C
[2021-02-22 14:45:41.330] $GNGGA,054540.90,3713.97148490,N,13701.48927510,E,4,10,1.2,92.682,M,36.771,M,1.9,0979*66
[2021-02-22 14:45:41.440] $GNGGA,054541.00,3713.97148409,N,13701.48927553,E,4,10,1.2,92.685,M,36.771,M,2.0,0979*64
[2021-02-22 14:45:41.518] $GNGGA,054541.10,3713.97148330,N,13701.48927924,E,4,10,1.2,92.667,M,36.771,M,1.1,0979*6A
[2021-02-22 14:45:41.627] $GNGGA,054541.20,3713.97148295,N,13701.48927808,E,4,10,1.2,92.682,M,36.771,M,1.2,0979*60
[2021-02-22 14:45:41.721] $GNGGA,054541.30,3713.97148063,N,13701.48927813,E,4,10,1.2,92.679,M,36.771,M,1.3,0979*65
[2021-02-22 14:45:41.830] $GNGGA,054541.40,3713.97148072,N,13701.48927441,E,4,10,1.2,92.684,M,36.771,M,1.4,0979*6C
[2021-02-22 14:45:41.924] $GNGGA,054541.50,3713.97148179,N,13701.48927475,E,4,10,1.2,92.682,M,36.771,M,1.5,0979*67
[2021-02-22 14:45:42.034] $GNGGA,054541.60,3713.97148333,N,13701.48927645,E,4,10,1.2,92.677,M,36.771,M,1.6,0979*60
[2021-02-22 14:45:42.127] $GNGGA,054541.70,3713.97148309,N,13701.48927451,E,4,10,1.2,92.678,M,36.771,M,1.7,0979*61
[2021-02-22 14:45:42.237] $GNGGA,054541.80,3713.97148308,N,13701.48927408,E,4,10,1.2,92.678,M,36.771,M,1.8,0979*6C
[2021-02-22 14:45:42.330] $GNGGA,054541.90,3713.97148216,N,13701.48927638,E,4,10,1.2,92.677,M,36.771,M,1.9,0979*6C
[2021-02-22 14:45:42.424] $GNGGA,054542.00,3713.97148101,N,13701.48927806,E,4,10,1.2,92.667,M,36.771,M,1.0,0979*68
[2021-02-22 14:45:42.518] $GNGGA,054542.10,3713.97148314,N,13701.48928080,E,4,10,1.2,92.664,M,36.771,M,1.1,0979*64
[2021-02-22 14:45:42.627] $GNGGA,054542.20,3713.97148431,N,13701.48928254,E,4,10,1.2,92.663,M,36.771,M,1.2,0979*68
[2021-02-22 14:45:42.721] $GNGGA,054542.30,3713.97148068,N,13701.48927950,E,4,10,1.2,92.677,M,36.771,M,1.3,0979*65
[2021-02-22 14:45:42.830] $GNGGA,054542.40,3713.97148157,N,13701.48928370,E,4,10,1.2,92.674,M,36.771,M,1.4,0979*6C
[2021-02-22 14:45:42.924] $GNGGA,054542.50,3713.97148251,N,13701.48928356,E,4,10,1.2,92.674,M,36.771,M,1.5,0979*6D
