
[2021-02-22 14:51:45.538] $GNGGA,055126.30,,,,,0,00,99.99,,,,,34.3,*64
[2021-02-22 14:51:45.569] $GNGGA,055126.40,,,,,0,00,99.99,,,,,34.4,*64
[2021-02-22 14:51:45.569] $GNGGA,055126.50,,,,,0,00,99.99,,,,,34.5,*64
[2021-02-22 14:51:45.569] $GNGGA,055126.60,,,,,0,00,99.99,,,,,34.6,*64
[2021-02-22 14:51:45.569] $GNGGA,055126.70,,,,,0,00,99.99,,,,,34.7,*64
[2021-02-22 14:51:45.569] $GNGGA,055126.80,,,,,0,00,99.99,,,,,34.8,*64
[2021-02-22 14:51:45.569] $GNGGA,055126.90,,,,,0,00,99.99,,,,,34.9,*64
[2021-02-22 14:51:45.569] $GNGGA,055127.00,,,,,0,00,99.99,,,,,35.0,*64
[2021-02-22 14:51:45.569] $GNGGA,055127.10,,,,,0,00,99.99,,,,,35.1,*64
[2021-02-22 14:51:45.569] $GNGGA,055127.20,,,,,0,00,99.99,,,,,35.2,*64
[2021-02-22 14:51:45.569] $GNGGA,055127.30,,,,,0,00,99.99,,,,,35.3,*64
[2021-02-22 14:51:45.569] $GNGGA,055127.40,,,,,0,00,99.99,,,,,35.4,*64
[2021-02-22 14:51:45.569] $GNGGA,055127.50,,,,,0,00,99.99,,,,,35.5,*64
[2021-02-22 14:51:45.569] $GNGGA,055127.60,,,,,0,00,99.99,,,,,35.6,*64
[2021-02-22 14:51:45.569] $GNGGA,055127.70,,,,,0,00,99.99,,,,,35.7,*64
[2021-02-22 14:51:45.569] $GNGGA,055127.80,,,,,0,00,99.99,,,,,35.8,*64
[2021-02-22 14:51:45.569] $GNGGA,055127.90,,,,,0,00,99.99,,,,,35.9,*64
[2021-02-22 14:51:45.569] $GNGGA,055128.00,,,,,0,00,99.99,,,,,36.0,*68
[2021-02-22 14:51:45.569] $GNGGA,055128.10,,,,,0,00,99.99,,,,,36.1,*68
[2021-02-22 14:51:45.569] $GNGGA,055128.20,,,,,0,00,99.99,,,,,36.2,*68
[2021-02-22 14:51:45.569] $GNGGA,055128.30,,,,,0,00,99.99,,,,,36.3,*68
[2021-02-22 14:51:45.569] $GNGGA,055128.40,,,,,0,00,99.99,,,,,36.4,*68
[2021-02-22 14:51:45.569] $GNGGA,055128.50,,,,,0,00,99.99,,,,,36.5,*68
[2021-02-22 14:51:45.569] $GNGGA,055128.60,,,,,0,00,99.99,,,,,36.6,*68
[2021-02-22 14:51:45.585] $GNGGA,055128.70,,,,,0,00,99.99,,,,,36.7,*68
[2021-02-22 14:51:45.585] $GNGGA,055128.80,,,,,0,00,99.99,,,,,36.8,*68
[2021-02-22 14:51:45.585] $GNGGA,055128.90,,,,,0,00,99.99,,,,,36.9,*68
[2021-02-22 14:51:45.585] $GNGGA,055129.00,,,,,0,00,99.99,,,,,37.0,*68
[2021-02-22 14:51:45.585] $GNGGA,055129.10,,,,,0,00,99.99,,,,,37.1,*68
[2021-02-22 14:51:45.585] $GNGGA,055129.20,,,,,0,00,99.99,,,,,37.2,*68
[2021-02-22 14:51:45.585] $GNGGA,055129.30,,,,,0,00,99.99,,,,,37.3,*68
[2021-02-22 14:51:45.585] $GNGGA,055129.40,,,,,0,00,99.99,,,,,37.4,*68
[2021-02-22 14:51:45.585] $GNGGA,055129.50,,,,,0,00,99.99,,,,,37.5,*68
[2021-02-22 14:51:45.585] $GNGGA,055129.60,,,,,0,00,99.99,,,,,37.6,*68
[2021-02-22 14:51:45.585] $GNGGA,055129.70,,,,,0,00,99.99,,,,,37.7,*68
[2021-02-22 14:51:45.585] $GNGGA,055129.80,,,,,0,00,99.99,,,,,37.8,*68
[2021-02-22 14:51:45.585] $GNGGA,055129.90,,,,,0,00,99.99,,,,,37.9,*68
[2021-02-22 14:51:45.585] $GNGGA,055130.00,,,,,0,00,99.99,,,,,38.0,*6F
[2021-02-22 14:51:45.585] $GNGGA,055130.10,,,,,0,00,99.99,,,,,38.1,*6F
[2021-02-22 14:51:45.585] $GNGGA,055130.20,,,,,0,00,99.99,,,,,38.2,*6F
[2021-02-22 14:51:45.585] $GNGGA,055130.30,,,,,0,00,99.99,,,,,38.3,*6F
[2021-02-22 14:51:45.585] $GNGGA,055130.40,,,,,0,00,99.99,,,,,38.4,*6F
[2021-02-22 14:51:45.585] $GNGGA,055130.50,,,,,0,00,99.99,,,,,38.5,*6F
[2021-02-22 14:51:45.585] $GNGGA,055130.60,,,,,0,00,99.99,,,,,38.6,*6F
[2021-02-22 14:51:45.585] $GNGGA,055130.70,,,,,0,00,99.99,,,,,38.7,*6F
[2021-02-22 14:51:45.585] $GNGGA,055130.80,,,,,0,00,99.99,,,,,38.8,*6F
[2021-02-22 14:51:45.600] $GNGGA,055130.90,,,,,0,00,99.99,,,,,38.9,*6F
[2021-02-22 14:51:45.600] $GNGGA,055131.00,,,,,0,00,99.99,,,,,39.0,*6F
[2021-02-22 14:51:45.600] $GNGGA,055131.10,,,,,0,00,99.99,,,,,39.1,*6F
[2021-02-22 14:51:45.600] $GNGGA,055131.20,,,,,0,00,99.99,,,,,39.2,*6F
[2021-02-22 14:51:45.600] $GNGGA,055131.30,,,,,0,00,99.99,,,,,39.3,*6F
[2021-02-22 14:51:45.600] $GNGGA,055131.40,,,,,0,00,99.99,,,,,39.4,*6F
[2021-02-22 14:51:45.600] $GNGGA,055131.50,,,,,0,00,99.99,,,,,39.5,*6F
[2021-02-22 14:51:45.600] $GNGGA,055131.60,,,,,0,00,99.99,,,,,39.6,*6F
[2021-02-22 14:51:45.600] $GNGGA,055131.70,,,,,0,00,99.99,,,,,39.7,*6F
[2021-02-22 14:51:45.600] $GNGGA,055131.80,,,,,0,00,99.99,,,,,39.8,*6F
[2021-02-22 14:51:45.600] $GNGGA,055131.90,,,,,0,00,99.99,,,,,39.9,*6F
[2021-02-22 14:51:45.600] $GNGGA,055132.00,,,,,0,00,99.99,,,,,40.0,*62
[2021-02-22 14:51:45.600] $GNGGA,055132.10,,,,,0,00,99.99,,,,,40.1,*62
[2021-02-22 14:51:45.600] $GNGGA,055132.20,,,,,0,00,99.99,,,,,40.2,*62
[2021-02-22 14:51:45.600] $GNGGA,055132.30,,,,,0,00,99.99,,,,,40.3,*62
[2021-02-22 14:51:45.600] $GNGGA,055132.40,,,,,0,00,99.99,,,,,40.4,*62
[2021-02-22 14:51:45.600] $GNGGA,055132.50,,,,,0,00,99.99,,,,,40.5,*62
[2021-02-22 14:51:45.600] $GNGGA,055132.60,,,,,0,00,99.99,,,,,40.6,*62
[2021-02-22 14:51:45.600] $GNGGA,055132.70,,,,,0,00,99.99,,,,,40.7,*62
[2021-02-22 14:51:45.600] $GNGGA,055132.80,,,,,0,00,99.99,,,,,40.8,*62
[2021-02-22 14:51:45.600] $GNGGA,055132.90,,,,,0,00,99.99,,,,,40.9,*62
[2021-02-22 14:51:45.600] $GNGGA,055133.00,,,,,0,00,99.99,,,,,41.0,*62
[2021-02-22 14:51:45.616] $GNGGA,055133.10,,,,,0,00,99.99,,,,,41.1,*62
[2021-02-22 14:51:45.616] $GNGGA,055133.20,,,,,0,00,99.99,,,,,41.2,*62
[2021-02-22 14:51:45.616] $GNGGA,055133.30,,,,,0,00,99.99,,,,,41.3,*62
[2021-02-22 14:51:45.616] $GNGGA,055133.40,,,,,0,00,99.99,,,,,41.4,*62
[2021-02-22 14:51:45.616] $GNGGA,055133.50,,,,,0,00,99.99,,,,,41.5,*62
[2021-02-22 14:51:45.616] $GNGGA,055133.60,,,,,0,00,99.99,,,,,41.6,*62
[2021-02-22 14:51:45.616] $GNGGA,055133.70,,,,,0,00,99.99,,,,,41.7,*62
[2021-02-22 14:51:45.616] $GNGGA,055133.80,,,,,0,00,99.99,,,,,41.8,*62
[2021-02-22 14:51:45.616] $GNGGA,055133.90,,,,,0,00,99.99,,,,,41.9,*62
[2021-02-22 14:51:45.616] $GNGGA,055134.00,,,,,0,00,99.99,,,,,42.0,*66
[2021-02-22 14:51:45.616] $GNGGA,055134.10,,,,,0,00,99.99,,,,,42.1,*66
[2021-02-22 14:51:45.616] $GNGGA,055134.20,,,,,0,00,99.99,,,,,42.2,*66
[2021-02-22 14:51:45.616] $GNGGA,055134.30,,,,,0,00,99.99,,,,,42.3,*66
[2021-02-22 14:51:45.616] $GNGGA,055134.40,,,,,0,00,99.99,,,,,42.4,*66
[2021-02-22 14:51:45.616] $GNGGA,055134.50,,,,,0,00,99.99,,,,,42.5,*66
[2021-02-22 14:51:45.616] $GNGGA,055134.60,,,,,0,00,99.99,,,,,42.6,*66
[2021-02-22 14:51:45.616] $GNGGA,055134.70,,,,,0,00,99.99,,,,,42.7,*66
[2021-02-22 14:51:45.616] $GNGGA,055134.80,,,,,0,00,99.99,,,,,42.8,*66
[2021-02-22 14:51:45.616] $GNGGA,055134.90,,,,,0,00,99.99,,,,,42.9,*66
[2021-02-22 14:51:45.616] $GNGGA,055135.00,,,,,0,00,99.99,,,,,43.0,*66
[2021-02-22 14:51:45.616] $GNGGA,055135.10,,,,,0,00,99.99,,,,,43.1,*66
[2021-02-22 14:51:45.616] $GNGGA,055135.20,,,,,0,00,99.99,,,,,43.2,*66
[2021-02-22 14:51:45.631] $GNGGA,055135.30,,,,,0,00,99.99,,,,,43.3,*66
[2021-02-22 14:51:45.631] $GNGGA,055135.40,,,,,0,00,99.99,,,,,43.4,*66
[2021-02-22 14:51:45.631] $GNGGA,055135.50,,,,,0,00,99.99,,,,,43.5,*66
[2021-02-22 14:51:45.631] $GNGGA,055135.60,,,,,0,00,99.99,,,,,43.6,*66
[2021-02-22 14:51:45.631] $GNGGA,055135.70,,,,,0,00,99.99,,,,,43.7,*66
[2021-02-22 14:51:45.631] $GNGGA,055135.80,,,,,0,00,99.99,,,,,43.8,*66
[2021-02-22 14:51:45.631] $GNGGA,055135.90,,,,,0,00,99.99,,,,,43.9,*66
[2021-02-22 14:51:45.631] $GNGGA,055136.00,,,,,0,00,99.99,,,,,44.0,*62
[2021-02-22 14:51:45.631] $GNGGA,055136.10,,,,,0,00,99.99,,,,,44.1,*62
[2021-02-22 14:51:45.631] $GNGGA,055136.20,,,,,0,00,99.99,,,,,44.2,*62
[2021-02-22 14:51:45.631] $GNGGA,055136.30,,,,,0,00,99.99,,,,,44.3,*62
[2021-02-22 14:51:45.631] $GNGGA,055136.40,,,,,0,00,99.99,,,,,44.4,*62
[2021-02-22 14:51:45.631] $GNGGA,055136.50,,,,,0,00,99.99,,,,,44.5,*62
[2021-02-22 14:51:45.631] $GNGGA,055136.60,,,,,0,00,99.99,,,,,44.6,*62
[2021-02-22 14:51:45.631] $GNGGA,055136.70,,,,,0,00,99.99,,,,,44.7,*62
[2021-02-22 14:51:45.631] $GNGGA,055136.80,,,,,0,00,99.99,,,,,44.8,*62
[2021-02-22 14:51:45.631] $GNGGA,055136.90,,,,,0,00,99.99,,,,,44.9,*62
[2021-02-22 14:51:45.631] $GNGGA,055137.00,,,,,0,00,99.99,,,,,45.0,*62
[2021-02-22 14:51:45.631] $GNGGA,055137.10,,,,,0,00,99.99,,,,,45.1,*62
[2021-02-22 14:51:45.631] $GNGGA,055137.20,,,,,0,00,99.99,,,,,45.2,*62
[2021-02-22 14:51:45.631] $GNGGA,055137.30,,,,,0,00,99.99,,,,,45.3,*62
[2021-02-22 14:51:45.631] $GNGGA,055137.40,,,,,0,00,99.99,,,,,45.4,*62
[2021-02-22 14:51:45.647] $GNGGA,055137.50,,,,,0,00,99.99,,,,,45.5,*62
[2021-02-22 14:51:45.647] $GNGGA,055137.60,,,,,0,00,99.99,,,,,45.6,*62
[2021-02-22 14:51:45.647] $GNGGA,055137.70,,,,,0,00,99.99,,,,,45.7,*62
[2021-02-22 14:51:45.647] $GNGGA,055137.80,,,,,0,00,99.99,,,,,45.8,*62
[2021-02-22 14:51:45.647] $GNGGA,055137.90,,,,,0,00,99.99,,,,,45.9,*62
[2021-02-22 14:51:45.647] $GNGGA,055138.00,,,,,0,00,99.99,,,,,46.0,*6E
[2021-02-22 14:51:45.647] $GNGGA,055138.10,,,,,0,00,99.99,,,,,46.1,*6E
[2021-02-22 14:51:45.647] $GNGGA,055138.20,,,,,0,00,99.99,,,,,46.2,*6E
[2021-02-22 14:51:45.647] $GNGGA,055138.30,,,,,0,00,99.99,,,,,46.3,*6E
[2021-02-22 14:51:45.647] $GNGGA,055138.40,,,,,0,00,99.99,,,,,46.4,*6E
[2021-02-22 14:51:45.647] $GNGGA,055138.50,,,,,0,00,99.99,,,,,46.5,*6E
[2021-02-22 14:51:45.647] $GNGGA,055138.60,,,,,0,00,99.99,,,,,46.6,*6E
[2021-02-22 14:51:45.647] $GNGGA,055138.70,,,,,0,00,99.99,,,,,46.7,*6E
[2021-02-22 14:51:45.647] $GNGGA,055138.80,,,,,0,00,99.99,,,,,46.8,*6E
[2021-02-22 14:51:45.647] $GNGGA,055138.90,,,,,0,00,99.99,,,,,46.9,*6E
[2021-02-22 14:51:45.647] $GNGGA,055139.00,,,,,0,00,99.99,,,,,47.0,*6E
[2021-02-22 14:51:45.647] $GNGGA,055139.10,,,,,0,00,99.99,,,,,47.1,*6E
[2021-02-22 14:51:45.647] $GNGGA,055139.20,,,,,0,00,99.99,,,,,47.2,*6E
[2021-02-22 14:51:45.647] $GNGGA,055139.30,,,,,0,00,99.99,,,,,47.3,*6E
[2021-02-22 14:51:45.647] $GNGGA,055139.40,,,,,0,00,99.99,,,,,47.4,*6E
[2021-02-22 14:51:45.647] $GNGGA,055139.50,,,,,0,00,99.99,,,,,47.5,*6E
[2021-02-22 14:51:45.647] $GNGGA,055139.60,,,,,0,00,99.99,,,,,47.6,*6E
[2021-02-22 14:51:45.663] $GNGGA,055139.70,,,,,0,00,99.99,,,,,47.7,*6E
[2021-02-22 14:51:45.663] $GNGGA,055139.80,,,,,0,00,99.99,,,,,47.8,*6E
[2021-02-22 14:51:45.663] $GNGGA,055139.90,,,,,0,00,99.99,,,,,47.9,*6E
[2021-02-22 14:51:45.663] $GNGGA,055140.00,,,,,0,00,99.99,,,,,48.0,*6F
[2021-02-22 14:51:45.663] $GNGGA,055140.10,,,,,0,00,99.99,,,,,48.1,*6F
[2021-02-22 14:51:45.663] $GNGGA,055140.20,,,,,0,00,99.99,,,,,48.2,*6F
[2021-02-22 14:51:45.663] $GNGGA,055140.30,,,,,0,00,99.99,,,,,48.3,*6F
[2021-02-22 14:51:45.663] $GNGGA,055140.40,,,,,0,00,99.99,,,,,48.4,*6F
[2021-02-22 14:51:45.663] $GNGGA,055140.50,,,,,0,00,99.99,,,,,48.5,*6F
[2021-02-22 14:51:45.663] $GNGGA,055140.60,,,,,0,00,99.99,,,,,48.6,*6F
[2021-02-22 14:51:45.663] $GNGGA,055140.70,,,,,0,00,99.99,,,,,48.7,*6F
[2021-02-22 14:51:45.663] $GNGGA,055140.80,,,,,0,00,99.99,,,,,48.8,*6F
[2021-02-22 14:51:45.663] $GNGGA,055140.90,,,,,0,00,99.99,,,,,48.9,*6F
[2021-02-22 14:51:45.663] $GNGGA,055141.00,,,,,0,00,99.99,,,,,49.0,*6F
[2021-02-22 14:51:45.663] $GNGGA,055141.10,,,,,0,00,99.99,,,,,49.1,*6F
[2021-02-22 14:51:45.663] $GNGGA,055141.20,,,,,0,00,99.99,,,,,49.2,*6F
[2021-02-22 14:51:45.663] $GNGGA,055141.30,,,,,0,00,99.99,,,,,49.3,*6F
[2021-02-22 14:51:45.663] $GNGGA,055141.40,,,,,0,00,99.99,,,,,49.4,*6F
[2021-02-22 14:51:45.663] $GNGGA,055141.50,,,,,0,00,99.99,,,,,49.5,*6F
[2021-02-22 14:51:45.663] $GNGGA,055141.60,,,,,0,00,99.99,,,,,49.6,*6F
[2021-02-22 14:51:45.663] $GNGGA,055141.70,,,,,0,00,99.99,,,,,49.7,*6F
[2021-02-22 14:51:45.663] $GNGGA,055141.80,,,,,0,00,99.99,,,,,49.8,*6F
[2021-02-22 14:51:45.678] $GNGGA,055141.90,,,,,0,00,99.99,,,,,49.9,*6F
[2021-02-22 14:51:45.678] $GNGGA,055142.00,,,,,0,00,99.99,,,,,50.0,*64
[2021-02-22 14:51:45.678] $GNGGA,055142.10,,,,,0,00,99.99,,,,,50.1,*64
[2021-02-22 14:51:45.678] $GNGGA,055142.20,,,,,0,00,99.99,,,,,50.2,*64
[2021-02-22 14:51:45.678] $GNGGA,055142.30,,,,,0,00,99.99,,,,,50.3,*64
[2021-02-22 14:51:45.678] $GNGGA,055142.40,,,,,0,00,99.99,,,,,50.4,*64
[2021-02-22 14:51:45.678] $GNGGA,055142.50,,,,,0,00,99.99,,,,,50.5,*64
[2021-02-22 14:51:45.678] $GNGGA,055142.60,,,,,0,00,99.99,,,,,50.6,*64
[2021-02-22 14:51:45.678] $GNGGA,055142.70,,,,,0,00,99.99,,,,,50.7,*64
[2021-02-22 14:51:45.678] $GNGGA,055142.80,,,,,0,00,99.99,,,,,50.8,*64
[2021-02-22 14:51:45.678] $GNGGA,055142.90,,,,,0,00,99.99,,,,,50.9,*64
[2021-02-22 14:51:45.678] $GNGGA,055143.00,,,,,0,00,99.99,,,,,51.0,*64
[2021-02-22 14:51:45.678] $GNGGA,055143.10,,,,,0,00,99.99,,,,,51.1,*64
[2021-02-22 14:51:45.678] $GNGGA,055143.20,,,,,0,00,99.99,,,,,51.2,*64
[2021-02-22 14:51:45.678] $GNGGA,055143.30,,,,,0,00,99.99,,,,,51.3,*64
[2021-02-22 14:51:45.678] $GNGGA,055143.40,,,,,0,00,99.99,,,,,51.4,*64
[2021-02-22 14:51:45.678] $GNGGA,055143.50,,,,,0,00,99.99,,,,,51.5,*64
[2021-02-22 14:51:45.678] $GNGGA,055143.60,,,,,0,00,99.99,,,,,51.6,*64
[2021-02-22 14:51:45.678] $GNGGA,055143.70,,,,,0,00,99.99,,,,,51.7,*64
[2021-02-22 14:51:45.678] $GNGGA,055143.80,,,,,0,00,99.99,,,,,51.8,*64
[2021-02-22 14:51:45.678] $GNGGA,055143.90,,,,,0,00,99.99,,,,,51.9,*64
[2021-02-22 14:51:45.678] $GNGGA,055144.00,,,,,0,00,99.99,,,,,52.0,*60
[2021-02-22 14:51:45.678] $GNGGA,055144.10,,,,,0,00,99.99,,,,,52.1,*60
[2021-02-22 14:51:45.678] $GNGGA,055144.20,,,,,0,00,99.99,,,,,52.2,*60
[2021-02-22 14:51:45.678] $GNGGA,055144.30,,,,,0,00,99.99,,,,,52.3,*60
[2021-02-22 14:51:45.678] $GNGGA,055144.40,,,,,0,00,99.99,,,,,52.4,*60
[2021-02-22 14:51:45.678] $GNGGA,055144.50,,,,,0,00,99.99,,,,,52.5,*60
[2021-02-22 14:51:45.678] $GNGGA,055144.60,,,,,0,00,99.99,,,,,52.6,*60
[2021-02-22 14:51:45.678] $GNGGA,055144.70,,,,,0,00,99.99,,,,,52.7,*60
[2021-02-22 14:51:45.678] $GNGGA,055144.80,,,,,0,00,
[2021-02-22 14:51:45.678] $GNGGA,055145.00,,,,,0,00,99.99,,,,,53.0,*60
[2021-02-22 14:51:45.710] $GNGGA,055145.10,,,,,0,00,99.99,,,,,53.1,*60
[2021-02-22 14:51:45.803] $GNGGA,055145.20,,,,,0,00,99.99,,,,,53.2,*60
[2021-02-22 14:51:45.897] $GNGGA,055145.30,,,,,0,00,99.99,,,,,53.3,*60
[2021-02-22 14:51:45.991] $GNGGA,055145.40,,,,,0,00,99.99,,,,,53.4,*60
[2021-02-22 14:51:46.116] $GNGGA,055145.50,,,,,0,00,99.99,,,,,53.5,*60
[2021-02-22 14:51:46.194] $GNGGA,055145.60,,,,,0,00,99.99,,,,,53.6,*60
[2021-02-22 14:51:46.303] $GNGGA,055145.70,,,,,0,00,99.99,,,,,53.7,*60
[2021-02-22 14:51:46.397] $GNGGA,055145.80,,,,,0,00,99.99,,,,,53.8,*60
[2021-02-22 14:51:46.506] $GNGGA,055145.90,,,,,0,00,99.99,,,,,53.9,*60
[2021-02-22 14:51:46.600] $GNGGA,055146.00,,,,,0,00,99.99,,,,,54.0,*64
[2021-02-22 14:51:46.694] $GNGGA,055146.10,,,,,0,00,99.99,,,,,54.1,*64
[2021-02-22 14:51:46.788] $GNGGA,055146.20,,,,,0,00,99.99,,,,,54.2,*64
[2021-02-22 14:51:46.913] $GNGGA,055146.30,,,,,0,00,99.99,,,,,54.3,*64
[2021-02-22 14:51:47.006] $GNGGA,055146.40,,,,,0,00,99.99,,,,,54.4,*64
[2021-02-22 14:51:47.100] $GNGGA,055146.50,,,,,0,00,99.99,,,,,54.5,*64
[2021-02-22 14:51:47.194] $GNGGA,055146.60,,,,,0,00,99.99,,,,,54.6,*64
[2021-02-22 14:51:47.303] $GNGGA,055146.70,,,,,0,00,99.99,,,,,54.7,*64
[2021-02-22 14:51:47.397] $GNGGA,055146.80,,,,,0,00,99.99,,,,,54.8,*64
[2021-02-22 14:51:47.506] $GNGGA,055146.90,,,,,0,00,99.99,,,,,54.9,*64
[2021-02-22 14:51:47.600] $GNGGA,055147.00,,,,,0,00,99.99,,,,,55.0,*64
[2021-02-22 14:51:47.709] $GNGGA,055147.10,,,,,0,00,99.99,,,,,55.1,*64
[2021-02-22 14:51:47.803] $GNGGA,055147.20,,,,,0,00,99.99,,,,,55.2,*64
[2021-02-22 14:51:47.897] $GNGGA,055147.30,,,,,0,00,99.99,,,,,55.3,*64
[2021-02-22 14:51:47.991] $GNGGA,055147.40,,,,,0,00,99.99,,,,,55.4,*64
[2021-02-22 14:51:48.100] $GNGGA,055147.50,,,,,0,00,99.99,,,,,55.5,*64
[2021-02-22 14:51:48.209] $GNGGA,055147.60,,,,,0,00,99.99,,,,,55.6,*64
[2021-02-22 14:51:48.303] $GNGGA,055147.70,,,,,0,00,99.99,,,,,55.7,*64
[2021-02-22 14:51:48.397] $GNGGA,055147.80,,,,,0,00,99.99,,,,,55.8,*64
[2021-02-22 14:51:48.506] $GNGGA,055147.90,,,,,0,00,99.99,,,,,55.9,*64
[2021-02-22 14:51:48.600] $GNGGA,055148.00,,,,,0,00,99.99,,,,,56.0,*68
[2021-02-22 14:51:48.694] $GNGGA,055148.10,,,,,0,00,99.99,,,,,56.1,*68
[2021-02-22 14:51:48.787] $GNGGA,055148.20,,,,,0,00,99.99,,,,,56.2,*68
[2021-02-22 14:51:48.912] $GNGGA,055148.30,,,,,0,00,99.99,,,,,56.3,*68
[2021-02-22 14:51:49.006] $GNGGA,055148.40,,,,,0,00,99.99,,,,,56.4,*68
[2021-02-22 14:51:49.100] $GNGGA,055148.50,,,,,0,00,99.99,,,,,56.5,*68
[2021-02-22 14:51:49.194] $GNGGA,055148.60,,,,,0,00,99.99,,,,,56.6,*68
[2021-02-22 14:51:49.303] $GNGGA,055148.70,,,,,0,00,99.99,,,,,56.7,*68
[2021-02-22 14:51:49.397] $GNGGA,055148.80,,,,,0,00,99.99,,,,,56.8,*68
[2021-02-22 14:51:49.491] $GNGGA,055148.90,,,,,0,00,99.99,,,,,56.9,*68
[2021-02-22 14:51:49.584] $GNGGA,055149.00,,,,,0,00,99.99,,,,,57.0,*68
[2021-02-22 14:51:49.709] $GNGGA,055149.10,,,,,0,00,99.99,,,,,57.1,*68
[2021-02-22 14:51:49.803] $GNGGA,055149.20,,,,,0,00,99.99,,,,,57.2,*68
[2021-02-22 14:51:49.897] $GNGGA,055149.30,,,,,0,00,99.99,,,,,57.3,*68
[2021-02-22 14:51:49.990] $GNGGA,055149.40,,,,,0,00,99.99,,,,,57.4,*68
[2021-02-22 14:51:50.100] $GNGGA,055149.50,,,,,0,00,99.99,,,,,57.5,*68
[2021-02-22 14:51:50.194] $GNGGA,055149.60,,,,,0,00,99.99,,,,,57.6,*68
[2021-02-22 14:51:50.303] $GNGGA,055149.70,,,,,0,00,99.99,,,,,57.7,*68
[2021-02-22 14:51:50.397] $GNGGA,055149.80,,,,,0,00,99.99,,,,,57.8,*68
[2021-02-22 14:51:50.506] $GNGGA,055149.90,,,,,0,00,99.99,,,,,57.9,*68
[2021-02-22 14:51:50.600] $GNGGA,055150.00,,,,,0,00,99.99,,,,,58.0,*6F
[2021-02-22 14:51:50.694] $GNGGA,055150.10,,,,,0,00,99.99,,,,,58.1,*6F
[2021-02-22 14:51:50.787] $GNGGA,055150.20,,,,,0,00,99.99,,,,,58.2,*6F
[2021-02-22 14:51:50.897] $GNGGA,055150.30,,,,,0,00,99.99,,,,,58.3,*6F
[2021-02-22 14:51:51.006] $GNGGA,055150.40,,,,,0,00,99.99,,,,,58.4,*6F
[2021-02-22 14:51:51.100] $GNGGA,055150.50,,,,,0,00,99.99,,,,,58.5,*6F
[2021-02-22 14:51:51.209] $GNGGA,055150.60,,,,,0,00,99.99,,,,,58.6,*6F
[2021-02-22 14:51:51.303] $GNGGA,055150.70,,,,,0,00,99.99,,,,,58.7,*6F
[2021-02-22 14:51:51.397] $GNGGA,055150.80,,,,,0,00,99.99,,,,,58.8,*6F
[2021-02-22 14:51:51.490] $GNGGA,055150.90,,,,,0,00,99.99,,,,,58.9,*6F
[2021-02-22 14:51:51.600] $GNGGA,055151.00,,,,,0,00,99.99,,,,,59.0,*6F
[2021-02-22 14:51:51.709] $GNGGA,055151.10,,,,,0,00,99.99,,,,,59.1,*6F
[2021-02-22 14:51:51.803] $GNGGA,055151.20,,,,,0,00,99.99,,,,,59.2,*6F
[2021-02-22 14:51:51.897] $GNGGA,055151.30,,,,,0,00,99.99,,,,,59.3,*6F
[2021-02-22 14:51:52.006] $GNGGA,055151.40,,,,,0,00,99.99,,,,,59.4,*6F
[2021-02-22 14:51:52.100] $GNGGA,055151.50,,,,,0,00,99.99,,,,,59.5,*6F
[2021-02-22 14:51:52.193] $GNGGA,055151.60,,,,,0,00,99.99,,,,,59.6,*6F
[2021-02-22 14:51:52.287] $GNGGA,055151.70,,,,,0,00,99.99,,,,,59.7,*6F
[2021-02-22 14:51:52.412] $GNGGA,055151.80,,,,,0,00,99.99,,,,,59.8,*6F
[2021-02-22 14:51:52.506] $GNGGA,055151.90,,,,,0,00,99.99,,,,,59.9,*6F
[2021-02-22 14:51:52.600] $GNGGA,055152.00,,,,,0,00,99.99,,,,,60.0,*66
[2021-02-22 14:51:52.693] $GNGGA,055152.10,,,,,0,00,99.99,,,,,60.1,*66
[2021-02-22 14:51:52.803] $GNGGA,055152.20,,,,,0,00,99.99,,,,,60.2,*66
[2021-02-22 14:51:52.897] $GNGGA,055152.30,,,,,0,00,99.99,,,,,60.3,*66
[2021-02-22 14:51:53.006] $GNGGA,055152.40,,,,,0,00,99.99,,,,,60.4,*66
[2021-02-22 14:51:53.100] $GNGGA,055152.50,,,,,0,00,99.99,,,,,60.5,*66
[2021-02-22 14:51:53.209] $GNGGA,055152.60,,,,,0,00,99.99,,,,,60.6,*66
[2021-02-22 14:51:53.303] $GNGGA,055152.70,,,,,0,00,99.99,,,,,60.7,*66
[2021-02-22 14:51:53.396] $GNGGA,055152.80,,,,,0,00,99.99,,,,,60.8,*66
[2021-02-22 14:51:53.490] $GNGGA,055152.90,,,,,0,00,99.99,,,,,60.9,*66
[2021-02-22 14:51:53.600] $GNGGA,055153.00,,,,,0,00,99.99,,,,,61.0,*66
[2021-02-22 14:51:53.709] $GNGGA,055153.10,,,,,0,00,99.99,,,,,61.1,*66
[2021-02-22 14:51:53.803] $GNGGA,055153.20,,,,,0,00,99.99,,,,,61.2,*66
[2021-02-22 14:51:53.896] $GNGGA,055153.30,,,,,0,00,99.99,,,,,61.3,*66
[2021-02-22 14:51:54.006] $GNGGA,055153.40,,,,,0,00,99.99,,,,,61.4,*66
[2021-02-22 14:51:54.100] $GNGGA,055153.50,,,,,0,00,99.99,,,,,61.5,*66
[2021-02-22 14:51:54.209] $GNGGA,055153.60,,,,,0,00,99.99,,,,,61.6,*66
[2021-02-22 14:51:54.303] $GNGGA,055153.70,,,,,0,00,99.99,,,,,61.7,*66
[2021-02-22 14:51:54.412] $GNGGA,055153.80,,,,,0,00,99.99,,,,,61.8,*66
[2021-02-22 14:51:54.506] $GNGGA,055153.90,,,,,0,00,99.99,,,,,61.9,*66
[2021-02-22 14:51:54.600] $GNGGA,055154.00,,,,,0,00,99.99,,,,,62.0,*62
[2021-02-22 14:51:54.693] $GNGGA,055154.10,,,,,0,00,99.99,,,,,62.1,*62
[2021-02-22 14:51:54.803] $GNGGA,055154.20,,,,,0,00,99.99,,,,,62.2,*62
[2021-02-22 14:51:54.896] $GNGGA,055154.30,,,,,0,00,99.99,,,,,62.3,*62
[2021-02-22 14:51:55.006] $GNGGA,055154.40,,,,,0,00,99.99,,,,,62.4,*62
[2021-02-22 14:51:55.100] $GNGGA,055154.50,,,,,0,00,99.99,,,,,62.5,*62
[2021-02-22 14:51:55.209] $GNGGA,055154.60,,,,,0,00,99.99,,,,,62.6,*62
[2021-02-22 14:51:55.303] $GNGGA,055154.70,,,,,0,00,99.99,,,,,62.7,*62
[2021-02-22 14:51:55.396] $GNGGA,055154.80,,,,,0,00,99.99,,,,,62.8,*62
[2021-02-22 14:51:55.490] $GNGGA,055154.90,,,,,0,00,99.99,,,,,62.9,*62
[2021-02-22 14:51:55.599] $GNGGA,055155.00,,,,,0,00,99.99,,,,,63.0,*62
[2021-02-22 14:51:55.709] $GNGGA,055155.10,,,,,0,00,99.99,,,,,63.1,*62
[2021-02-22 14:51:55.803] $GNGGA,055155.20,,,,,0,00,99.99,,,,,63.2,*62
[2021-02-22 14:51:55.896] $GNGGA,055155.30,,,,,0,00,99.99,,,,,63.3,*62
[2021-02-22 14:51:56.006] $GNGGA,055155.40,,,,,0,00,99.99,,,,,63.4,*62
[2021-02-22 14:51:56.099] $GNGGA,055155.50,,,,,0,00,99.99,,,,,63.5,*62
[2021-02-22 14:51:56.193] $GNGGA,055155.60,,,,,0,00,99.99,,,,,63.6,*62
[2021-02-22 14:51:56.287] $GNGGA,055155.70,,,,,0,00,99.99,,,,,63.7,*62
[2021-02-22 14:51:56.412] $GNGGA,055155.80,,,,,0,00,99.99,,,,,63.8,*62
[2021-02-22 14:51:56.506] $GNGGA,055155.90,,,,,0,00,99.99,,,,,63.9,*62
[2021-02-22 14:51:56.599] $GNGGA,055156.00,,,,,0,00,99.99,,,,,64.0,*66
[2021-02-22 14:51:56.693] $GNGGA,055156.10,,,,,0,00,99.99,,,,,64.1,*66
[2021-02-22 14:51:56.803] $GNGGA,055156.20,,,,,0,00,99.99,,,,,64.2,*66
[2021-02-22 14:51:56.896] $GNGGA,055156.30,,,,,0,00,99.99,,,,,64.3,*66
[2021-02-22 14:51:56.990] $GNGGA,055156.40,,,,,0,00,99.99,,,,,64.4,*66
[2021-02-22 14:51:57.099] $GNGGA,055156.50,,,,,0,00,99.99,,,,,64.5,*66
[2021-02-22 14:51:57.209] $GNGGA,055156.60,,,,,0,00,99.99,,,,,64.6,*66
[2021-02-22 14:51:57.302] $GNGGA,055156.70,,,,,0,00,99.99,,,,,64.7,*66
[2021-02-22 14:51:57.396] $GNGGA,055156.80,,,,,0,00,99.99,,,,,64.8,*66
[2021-02-22 14:51:57.490] $GNGGA,055156.90,,,,,0,00,99.99,,,,,64.9,*66
[2021-02-22 14:51:57.599] $GNGGA,055157.00,,,,,0,00,99.99,,,,,65.0,*66
[2021-02-22 14:51:57.709] $GNGGA,055157.10,,,,,0,00,99.99,,,,,65.1,*66
[2021-02-22 14:51:57.802] $GNGGA,055157.20,,,,,0,00,99.99,,,,,65.2,*66
[2021-02-22 14:51:57.896] $GNGGA,055157.30,,,,,0,00,99.99,,,,,65.3,*66
[2021-02-22 14:51:58.006] $GNGGA,055157.40,,,,,0,00,99.99,,,,,65.4,*66
[2021-02-22 14:51:58.099] $GNGGA,055157.50,,,,,0,00,99.99,,,,,65.5,*66
[2021-02-22 14:51:58.193] $GNGGA,055157.60,,,,,0,00,99.99,,,,,65.6,*66
[2021-02-22 14:51:58.287] $GNGGA,055157.70,,,,,0,00,99.99,,,,,65.7,*66
[2021-02-22 14:51:58.412] $GNGGA,055157.80,,,,,0,00,99.99,,,,,65.8,*66
[2021-02-22 14:51:58.506] $GNGGA,055157.90,,,,,0,00,99.99,,,,,65.9,*66
[2021-02-22 14:51:58.599] $GNGGA,055158.00,,,,,0,00,99.99,,,,,66.0,*6A
[2021-02-22 14:51:58.693] $GNGGA,055158.10,,,,,0,00,99.99,,,,,66.1,*6A
[2021-02-22 14:51:58.802] $GNGGA,055158.20,,,,,0,00,99.99,,,,,66.2,*6A
[2021-02-22 14:51:58.896] $GNGGA,055158.30,,,,,0,00,99.99,,,,,66.3,*6A
[2021-02-22 14:51:58.990] $GNGGA,055158.40,,,,,0,00,99.99,,,,,66.4,*6A
[2021-02-22 14:51:59.099] $GNGGA,055158.50,,,,,0,00,99.99,,,,,66.5,*6A
[2021-02-22 14:51:59.209] $GNGGA,055158.60,,,,,0,00,99.99,,,,,66.6,*6A
[2021-02-22 14:51:59.302] $GNGGA,055158.70,,,,,0,00,99.99,,,,,66.7,*6A
[2021-02-22 14:51:59.396] $GNGGA,055158.80,,,,,0,00,99.99,,,,,66.8,*6A
[2021-02-22 14:51:59.490] $GNGGA,055158.90,,,,,0,00,99.99,,,,,66.9,*6A
[2021-02-22 14:51:59.599] $GNGGA,055159.00,,,,,0,00,99.99,,,,,67.0,*6A
[2021-02-22 14:51:59.709] $GNGGA,055159.10,,,,,0,00,99.99,,,,,67.1,*6A
[2021-02-22 14:51:59.802] $GNGGA,055159.20,,,,,0,00,99.99,,,,,67.2,*6A
[2021-02-22 14:51:59.896] $GNGGA,055159.30,,,,,0,00,99.99,,,,,67.3,*6A
[2021-02-22 14:52:00.005] $GNGGA,055159.40,,,,,0,00,99.99,,,,,67.4,*6A
[2021-02-22 14:52:00.099] $GNGGA,055159.50,,,,,0,00,99.99,,,,,67.5,*6A
[2021-02-22 14:52:00.193] $GNGGA,055159.60,,,,,0,00,99.99,,,,,67.6,*6A
[2021-02-22 14:52:00.287] $GNGGA,055159.70,,,,,0,00,99.99,,,,,67.7,*6A
[2021-02-22 14:52:00.412] $GNGGA,055159.80,,,,,0,00,99.99,,,,,67.8,*6A
[2021-02-22 14:52:00.505] $GNGGA,055159.90,,,,,0,00,99.99,,,,,67.9,*6A
[2021-02-22 14:52:00.599] $GNGGA,055200.00,,,,,0,00,99.99,,,,,68.0,*6A
[2021-02-22 14:52:00.693] $GNGGA,055200.10,,,,,0,00,99.99,,,,,68.1,*6A
[2021-02-22 14:52:00.802] $GNGGA,055200.20,,,,,0,00,99.99,,,,,68.2,*6A
[2021-02-22 14:52:00.896] $GNGGA,055200.30,,,,,0,00,99.99,,,,,68.3,*6A
[2021-02-22 14:52:01.005] $GNGGA,055200.40,,,,,0,00,99.99,,,,,68.4,*6A
[2021-02-22 14:52:01.099] $GNGGA,055200.50,,,,,0,00,99.99,,,,,68.5,*6A
[2021-02-22 14:52:01.208] $GNGGA,055200.60,,,,,0,00,99.99,,,,,68.6,*6A
[2021-02-22 14:52:01.302] $GNGGA,055200.70,,,,,0,00,99.99,,,,,68.7,*6A
[2021-02-22 14:52:01.396] $GNGGA,055200.80,,,,,0,00,99.99,,,,,68.8,*6A
[2021-02-22 14:52:01.490] $GNGGA,055200.90,,,,,0,00,99.99,,,,,68.9,*6A
[2021-02-22 14:52:01.615] $GNGGA,055201.00,,,,,0,00,99.99,,,,,69.0,*6A
[2021-02-22 14:52:01.708] $GNGGA,055201.10,,,,,0,00,99.99,,,,,69.1,*6A
[2021-02-22 14:52:01.802] $GNGGA,055201.20,,,,,0,00,99.99,,,,,69.2,*6A
[2021-02-22 14:52:01.896] $GNGGA,055201.30,,,,,0,00,99.99,,,,,69.3,*6A
[2021-02-22 14:52:02.005] $GNGGA,055201.40,,,,,0,00,99.99,,,,,69.4,*6A
[2021-02-22 14:52:02.099] $GNGGA,055201.50,,,,,0,00,99.99,,,,,69.5,*6A
[2021-02-22 14:52:02.193] $GNGGA,055201.60,,,,,0,00,99.99,,,,,69.6,*6A
[2021-02-22 14:52:02.287] $GNGGA,055201.70,,,,,0,00,99.99,,,,,69.7,*6A
[2021-02-22 14:52:02.412] $GNGGA,055201.80,,,,,0,00,99.99,,,,,69.8,*6A
[2021-02-22 14:52:02.505] $GNGGA,055201.90,,,,,0,00,99.99,,,,,69.9,*6A
[2021-02-22 14:52:02.599] $GNGGA,055202.00,,,,,0,00,99.99,,,,,70.0,*61
[2021-02-22 14:52:02.693] $GNGGA,055202.10,,,,,0,00,99.99,,,,,70.1,*61
[2021-02-22 14:52:02.802] $GNGGA,055202.20,,,,,0,00,99.99,,,,,70.2,*61
[2021-02-22 14:52:02.896] $GNGGA,055202.30,,,,,0,00,99.99,,,,,70.3,*61
[2021-02-22 14:52:03.005] $GNGGA,055202.40,,,,,0,00,99.99,,,,,70.4,*61
[2021-02-22 14:52:03.099] $GNGGA,055202.50,,,,,0,00,99.99,,,,,70.5,*61
[2021-02-22 14:52:03.208] $GNGGA,055202.60,,,,,0,00,99.99,,,,,70.6,*61
[2021-02-22 14:52:03.302] $GNGGA,055202.70,,,,,0,00,99.99,,,,,70.7,*61
[2021-02-22 14:52:03.396] $GNGGA,055202.80,,,,,0,00,99.99,,,,,70.8,*61
[2021-02-22 14:52:03.490] $GNGGA,055202.90,,,,,0,00,99.99,,,,,70.9,*61
[2021-02-22 14:52:03.615] $GNGGA,055203.00,,,,,0,00,99.99,,,,,71.0,*61
[2021-02-22 14:52:03.708] $GNGGA,055203.10,,,,,0,00,99.99,,,,,71.1,*61
[2021-02-22 14:52:03.802] $GNGGA,055203.20,,,,,0,00,99.99,,,,,71.2,*61
[2021-02-22 14:52:03.896] $GNGGA,055203.30,,,,,0,00,99.99,,,,,71.3,*61
[2021-02-22 14:52:04.005] $GNGGA,055203.40,,,,,0,00,99.99,,,,,71.4,*61
[2021-02-22 14:52:04.099] $GNGGA,055203.50,,,,,0,00,99.99,,,,,71.5,*61
[2021-02-22 14:52:04.193] $GNGGA,055203.60,,,,,0,00,99.99,,,,,71.6,*61
[2021-02-22 14:52:04.286] $GNGGA,055203.70,,,,,0,00,99.99,,,,,71.7,*61
[2021-02-22 14:52:04.411] $GNGGA,055203.80,,,,,0,00,99.99,,,,,71.8,*61
[2021-02-22 14:52:04.505] $GNGGA,055203.90,,,,,0,00,99.99,,,,,71.9,*61
[2021-02-22 14:52:04.599] $GNGGA,055204.00,,,,,0,00,99.99,,,,,72.0,*65
[2021-02-22 14:52:04.693] $GNGGA,055204.10,,,,,0,00,99.99,,,,,72.1,*65
[2021-02-22 14:52:04.802] $GNGGA,055204.20,,,,,0,00,99.99,,,,,72.2,*65
[2021-02-22 14:52:04.896] $GNGGA,055204.30,,,,,0,00,99.99,,,,,72.3,*65
[2021-02-22 14:52:05.005] $GNGGA,055204.40,,,,,0,00,99.99,,,,,72.4,*65
[2021-02-22 14:52:05.099] $GNGGA,055204.50,,,,,0,00,99.99,,,,,72.5,*65
[2021-02-22 14:52:05.208] $GNGGA,055204.60,,,,,0,00,99.99,,,,,72.6,*65
[2021-02-22 14:52:05.302] $GNGGA,055204.70,,,,,0,00,99.99,,,,,72.7,*65
[2021-02-22 14:52:05.396] $GNGGA,055204.80,,,,,0,00,99.99,,,,,72.8,*65
[2021-02-22 14:52:05.489] $GNGGA,055204.90,,,,,0,00,99.99,,,,,72.9,*65
[2021-02-22 14:52:05.599] $GNGGA,055205.00,,,,,0,00,99.99,,,,,73.0,*65
[2021-02-22 14:52:05.693] $GNGGA,055205.10,,,,,0,00,99.99,,,,,73.1,*65
[2021-02-22 14:52:05.802] $GNGGA,055205.20,,,,,0,00,99.99,,,,,73.2,*65
[2021-02-22 14:52:05.896] $GNGGA,055205.30,,,,,0,00,99.99,,,,,73.3,*65
[2021-02-22 14:52:06.005] $GNGGA,055205.40,,,,,0,00,99.99,,,,,73.4,*65
[2021-02-22 14:52:06.099] $GNGGA,055205.50,,,,,0,00,99.99,,,,,73.5,*65
[2021-02-22 14:52:06.192] $GNGGA,055205.60,,,,,0,00,99.99,,,,,73.6,*65
[2021-02-22 14:52:06.286] $GNGGA,055205.70,,,,,0,00,99.99,,,,,73.7,*65
[2021-02-22 14:52:06.411] $GNGGA,055205.80,,,,,0,00,99.99,,,,,73.8,*65
[2021-02-22 14:52:06.505] $GNGGA,055205.90,,,,,0,00,99.99,,,,,73.9,*65
[2021-02-22 14:52:06.599] $GNGGA,055206.00,,,,,0,00,99.99,,,,,74.0,*61
[2021-02-22 14:52:06.692] $GNGGA,055206.10,,,,,0,00,99.99,,,,,74.1,*61
[2021-02-22 14:52:06.802] $GNGGA,055206.20,,,,,0,00,99.99,,,,,74.2,*61
[2021-02-22 14:52:06.896] $GNGGA,055206.30,,,,,0,00,99.99,,,,,74.3,*61
[2021-02-22 14:52:06.989] $GNGGA,055206.40,,,,,0,00,99.99,,,,,74.4,*61
[2021-02-22 14:52:07.099] $GNGGA,055206.50,,,,,0,00,99.99,,,,,74.5,*61
[2021-02-22 14:52:07.208] $GNGGA,055206.60,,,,,0,00,99.99,,,,,74.6,*61
[2021-02-22 14:52:07.302] $GNGGA,055206.70,,,,,0,00,99.99,,,,,74.7,*61
[2021-02-22 14:52:07.396] $GNGGA,055206.80,,,,,0,00,99.99,,,,,74.8,*61
[2021-02-22 14:52:07.489] $GNGGA,055206.90,,,,,0,00,99.99,,,,,74.9,*61
[2021-02-22 14:52:07.599] $GNGGA,055207.00,,,,,0,00,99.99,,,,,75.0,*61
[2021-02-22 14:52:07.692] $GNGGA,055207.10,,,,,0,00,99.99,,,,,75.1,*61
[2021-02-22 14:52:07.802] $GNGGA,055207.20,,,,,0,00,99.99,,,,,75.2,*61
[2021-02-22 14:52:07.895] $GNGGA,055207.30,,,,,0,00,99.99,,,,,75.3,*61
[2021-02-22 14:52:08.005] $GNGGA,055207.40,,,,,0,00,99.99,,,,,75.4,*61
[2021-02-22 14:52:08.099] $GNGGA,055207.50,,,,,0,00,99.99,,,,,75.5,*61
[2021-02-22 14:52:08.192] $GNGGA,055207.60,,,,,0,00,99.99,,,,,75.6,*61
[2021-02-22 14:52:08.286] $GNGGA,055207.70,,,,,0,00,99.99,,,,,75.7,*61
[2021-02-22 14:52:08.411] $GNGGA,055207.80,,,,,0,00,99.99,,,,,75.8,*61
[2021-02-22 14:52:08.505] $GNGGA,055207.90,,,,,0,00,99.99,,,,,75.9,*61
[2021-02-22 14:52:08.599] $GNGGA,055208.00,,,,,0,00,99.99,,,,,76.0,*6D
[2021-02-22 14:52:08.708] $GNGGA,055208.10,,,,,0,00,99.99,,,,,76.1,*6D
[2021-02-22 14:52:08.802] $GNGGA,055208.20,,,,,0,00,99.99,,,,,76.2,*6D
[2021-02-22 14:52:08.895] $GNGGA,055208.30,,,,,0,00,99.99,,,,,76.3,*6D
[2021-02-22 14:52:08.989] $GNGGA,055208.40,,,,,0,00,99.99,,,,,76.4,*6D
[2021-02-22 14:52:09.114] $GNGGA,055208.50,,,,,0,00,99.99,,,,,76.5,*6D
[2021-02-22 14:52:09.208] $GNGGA,055208.60,,,,,0,00,99.99,,,,,76.6,*6D
[2021-02-22 14:52:09.302] $GNGGA,055208.70,,,,,0,00,99.99,,,,,76.7,*6D
[2021-02-22 14:52:09.395] $GNGGA,055208.80,,,,,0,00,99.99,,,,,76.8,*6D
[2021-02-22 14:52:09.505] $GNGGA,055208.90,,,,,0,00,99.99,,,,,76.9,*6D
[2021-02-22 14:52:09.598] $GNGGA,055209.00,,,,,0,00,99.99,,,,,77.0,*6D
[2021-02-22 14:52:09.692] $GNGGA,055209.10,,,,,0,00,99.99,,,,,77.1,*6D
[2021-02-22 14:52:09.802] $GNGGA,055209.20,,,,,0,00,99.99,,,,,77.2,*6D
[2021-02-22 14:52:09.911] $GNGGA,055209.30,,,,,0,00,99.99,,,,,77.3,*6D
[2021-02-22 14:52:10.005] $GNGGA,055209.40,,,,,0,00,99.99,,,,,77.4,*6D
[2021-02-22 14:52:10.098] $GNGGA,055209.50,,,,,0,00,99.99,,,,,77.5,*6D
[2021-02-22 14:52:10.192] $GNGGA,055209.60,,,,,0,00,99.99,,,,,77.6,*6D
[2021-02-22 14:52:10.302] $GNGGA,055209.70,,,,,0,00,99.99,,,,,77.7,*6D
[2021-02-22 14:52:10.395] $GNGGA,055209.80,,,,,0,00,99.99,,,,,77.8,*6D
[2021-02-22 14:52:10.505] $GNGGA,055209.90,,,,,0,00,99.99,,,,,77.9,*6D
[2021-02-22 14:52:10.598] $GNGGA,055210.00,,,,,0,00,99.99,,,,,78.0,*6A
[2021-02-22 14:52:10.708] $GNGGA,055210.10,,,,,0,00,99.99,,,,,78.1,*6A
[2021-02-22 14:52:10.802] $GNGGA,055210.20,,,,,0,00,99.99,,,,,78.2,*6A
[2021-02-22 14:52:10.895] $GNGGA,055210.30,,,,,0,00,99.99,,,,,78.3,*6A
[2021-02-22 14:52:10.989] $GNGGA,055210.40,,,,,0,00,99.99,,,,,78.4,*6A
[2021-02-22 14:52:11.114] $GNGGA,055210.50,,,,,0,00,99.99,,,,,78.5,*6A
[2021-02-22 14:52:11.208] $GNGGA,055210.60,,,,,0,00,99.99,,,,,78.6,*6A
[2021-02-22 14:52:11.302] $GNGGA,055210.70,,,,,0,00,99.99,,,,,78.7,*6A
[2021-02-22 14:52:11.395] $GNGGA,055210.80,,,,,0,00,99.99,,,,,78.8,*6A
[2021-02-22 14:52:11.505] $GNGGA,055210.90,,,,,0,00,99.99,,,,,78.9,*6A
[2021-02-22 14:52:11.598] $GNGGA,055211.00,,,,,0,00,99.99,,,,,79.0,*6A
[2021-02-22 14:52:11.708] $GNGGA,055211.10,,,,,0,00,99.99,,,,,79.1,*6A
[2021-02-22 14:52:11.801] $GNGGA,055211.20,,,,,0,00,99.99,,,,,79.2,*6A
[2021-02-22 14:52:11.911] $GNGGA,055211.30,,,,,0,00,99.99,,,,,79.3,*6A
[2021-02-22 14:52:12.005] $GNGGA,055211.40,,,,,0,00,99.99,,,,,79.4,*6A
[2021-02-22 14:52:12.098] $GNGGA,055211.50,,,,,0,00,99.99,,,,,79.5,*6A
[2021-02-22 14:52:12.192] $GNGGA,055211.60,,,,,0,00,99.99,,,,,79.6,*6A
[2021-02-22 14:52:12.301] $GNGGA,055211.70,,,,,0,00,99.99,,,,,79.7,*6A
[2021-02-22 14:52:12.395] $GNGGA,055211.80,,,,,0,00,99.99,,,,,79.8,*6A
[2021-02-22 14:52:12.505] $GNGGA,055211.90,,,,,0,00,99.99,,,,,79.9,*6A
[2021-02-22 14:52:12.598] $GNGGA,055212.00,,,,,0,00,99.99,,,,,80.0,*6F
[2021-02-22 14:52:12.708] $GNGGA,055212.10,,,,,0,00,99.99,,,,,80.1,*6F
[2021-02-22 14:52:12.801] $GNGGA,055212.20,,,,,0,00,99.99,,,,,80.2,*6F
[2021-02-22 14:52:12.895] $GNGGA,055212.30,,,,,0,00,99.99,,,,,80.3,*6F
[2021-02-22 14:52:12.989] $GNGGA,055212.40,,,,,0,00,99.99,,,,,80.4,*6F
[2021-02-22 14:52:13.114] $GNGGA,055212.50,,,,,0,00,99.99,,,,,80.5,*6F
[2021-02-22 14:52:13.208] $GNGGA,055212.60,,,,,0,00,99.99,,,,,80.6,*6F
[2021-02-22 14:52:13.301] $GNGGA,055212.70,,,,,0,00,99.99,,,,,80.7,*6F
[2021-02-22 14:52:13.395] $GNGGA,055212.80,,,,,0,00,99.99,,,,,80.8,*6F
[2021-02-22 14:52:13.505] $GNGGA,055212.90,,,,,0,00,99.99,,,,,80.9,*6F
[2021-02-22 14:52:13.598] $GNGGA,055213.00,,,,,0,00,99.99,,,,,81.0,*6F
[2021-02-22 14:52:13.692] $GNGGA,055213.10,,,,,0,00,99.99,,,,,81.1,*6F
[2021-02-22 14:52:13.786] $GNGGA,055213.20,,,,,0,00,99.99,,,,,81.2,*6F
[2021-02-22 14:52:13.911] $GNGGA,055213.30,,,,,0,00,99.99,,,,,81.3,*6F
[2021-02-22 14:52:14.004] $GNGGA,055213.40,,,,,0,00,99.99,,,,,81.4,*6F
[2021-02-22 14:52:14.114] $GNGGA,055213.50,3713.936304843,N,13701.489376859,E,5,06,1.95,99.753,M,37.565,M,81.5,2006*68
[2021-02-22 14:52:14.192] $GNGGA,055213.60,3713.936187599,N,13701.489565442,E,5,06,1.95,99.907,M,37.565,M,81.6,2006*66
[2021-02-22 14:52:14.301] $GNGGA,055213.70,3713.936072347,N,13701.489879982,E,5,06,1.95,100.439,M,37.565,M,81.7,2006*58
[2021-02-22 14:52:14.395] $GNGGA,055213.80,3713.935899899,N,13701.489643296,E,5,06,1.95,100.523,M,37.565,M,81.8,2006*5D
[2021-02-22 14:52:14.489] $GNGGA,055213.90,3713.935878760,N,13701.489658437,E,5,06,1.95,100.704,M,37.565,M,81.9,2006*5B
[2021-02-22 14:52:14.614] $GNGGA,055214.00,3713.935872096,N,13701.489766902,E,5,06,1.95,100.461,M,37.565,M,82.0,2006*5C
[2021-02-22 14:52:14.692] $GNGGA,055214.10,3713.935774186,N,13701.489545421,E,5,06,1.95,100.803,M,37.565,M,82.1,2006*52
[2021-02-22 14:52:14.801] $GNGGA,055214.20,3713.935601149,N,13701.489502323,E,5,06,1.95,101.203,M,37.565,M,82.2,2006*5F
[2021-02-22 14:52:14.895] $GNGGA,055214.30,3713.935551002,N,13701.489565764,E,5,06,1.95,101.495,M,37.565,M,82.3,2006*58
[2021-02-22 14:52:14.989] $GNGGA,055214.40,3713.935446319,N,13701.489674083,E,5,06,1.95,102.131,M,37.565,M,82.4,2006*53
[2021-02-22 14:52:15.114] $GNGGA,055214.50,3713.935390808,N,13701.489618261,E,5,06,1.95,102.226,M,37.565,M,82.5,2006*55
[2021-02-22 14:52:15.192] $GNGGA,055214.60,3713.935444655,N,13701.489709116,E,5,06,1.95,101.971,M,37.565,M,82.6,2006*55
[2021-02-22 14:52:15.286] $GNGGA,055214.70,3713.935445986,N,13701.489705905,E,5,06,1.95,101.975,M,37.565,M,82.7,2006*57
[2021-02-22 14:52:15.395] $GNGGA,055214.80,3713.935459729,N,13701.489734973,E,5,06,1.95,101.879,M,37.565,M,82.8,2006*5F
[2021-02-22 14:52:15.504] $GNGGA,055214.90,3713.935464373,N,13701.489733855,E,5,06,1.95,101.862,M,37.565,M,82.9,2006*52
[2021-02-22 14:52:15.614] $GNGGA,055215.00,3713.935462164,N,13701.489720442,E,5,06,1.95,101.896,M,37.565,M,83.0,2006*53
[2021-02-22 14:52:15.692] $GNGGA,055215.10,3713.935486549,N,13701.489779792,E,5,06,1.95,101.710,M,37.565,M,83.1,2006*51
[2021-02-22 14:52:15.786] $GNGGA,055215.20,3713.935505897,N,13701.489833356,E,5,06,1.95,101.552,M,37.565,M,83.2,2006*5C
[2021-02-22 14:52:15.895] $GNGGA,055215.30,3713.935513077,N,13701.489857002,E,5,06,1.95,101.483,M,37.565,M,83.3,2006*50
[2021-02-22 14:52:15.989] $GNGGA,055215.40,3713.935494667,N,13701.489845486,E,5,06,1.95,101.562,M,37.565,M,83.4,2006*5C
[2021-02-22 14:52:16.114] $GNGGA,055215.50,3713.935501011,N,13701.489856145,E,5,06,1.95,101.523,M,37.565,M,83.5,2006*5B
[2021-02-22 14:52:16.192] $GNGGA,055215.60,3713.935497236,N,13701.489846280,E,5,04,2.97,101.550,M,37.565,M,83.6,2006*5E
[2021-02-22 14:52:16.301] $GNGGA,055215.70,3713.935496617,N,13701.489849100,E,5,00,2.97,101.549,M,37.565,M,83.7,2006*50
[2021-02-22 14:52:16.395] $GNGGA,055215.80,3713.935547969,N,13701.489895543,E,5,00,2.97,101.398,M,37.565,M,83.8,2006*53
[2021-02-22 14:52:16.520] $GNGGA,055215.90,3713.935586236,N,13701.489932653,E,5,00,2.97,101.280,M,37.565,M,83.9,2006*59
[2021-02-22 14:52:16.598] $GNGGA,055216.00,3713.935583795,N,13701.489931829,E,5,00,2.97,101.282,M,37.565,M,84.0,2006*56
[2021-02-22 14:52:16.692] $GNGGA,055216.10,3713.935603200,N,13701.489949151,E,5,00,2.97,101.218,M,37.565,M,84.1,2006*5E
[2021-02-22 14:52:16.801] $GNGGA,055216.20,3713.935649584,N,13701.489990944,E,5,00,2.97,101.079,M,37.565,M,84.2,2006*56
[2021-02-22 14:52:16.910] $GNGGA,055216.30,3713.935647209,N,13701.489988734,E,5,00,2.97,101.075,M,37.565,M,84.3,2006*56
[2021-02-22 14:52:16.989] $GNGGA,055216.40,3713.935644946,N,13701.489990339,E,5,00,2.97,101.075,M,37.565,M,84.4,2006*55
[2021-02-22 14:52:17.098] $GNGGA,055216.50,3713.935645318,N,13701.489991520,E,5,00,2.97,101.081,M,37.565,M,84.5,2006*51
[2021-02-22 14:52:17.192] $GNGGA,055216.60,3713.935752185,N,13701.490075593,E,5,00,2.97,100.728,M,37.565,M,84.6,2006*56
[2021-02-22 14:52:17.317] $GNGGA,055216.70,3713.935781264,N,13701.490081014,E,5,00,2.97,100.695,M,37.565,M,84.7,2006*52
[2021-02-22 14:52:17.395] $GNGGA,055216.80,3713.935801639,N,13701.490085169,E,5,00,2.97,100.694,M,37.565,M,84.8,2006*57
[2021-02-22 14:52:17.489] $GNGGA,055216.90,3713.935772718,N,13701.490041152,E,5,00,2.97,100.812,M,37.565,M,84.9,2006*5E
[2021-02-22 14:52:17.598] $GNGGA,055217.00,3713.935747985,N,13701.490009031,E,5,00,2.97,100.924,M,37.565,M,85.0,2006*5E
[2021-02-22 14:52:17.692] $GNGGA,055217.10,3713.935734008,N,13701.489963362,E,5,00,2.97,100.964,M,37.565,M,85.1,2006*5A
[2021-02-22 14:52:17.817] $GNGGA,055217.20,3713.935722243,N,13701.489948946,E,5,02,99.90,101.014,M,37.565,M,85.2,2006*6D
[2021-02-22 14:52:17.895] $GNGGA,055217.30,3713.935716965,N,13701.489952906,E,5,06,1.95,100.986,M,37.565,M,85.3,2006*59
[2021-02-22 14:52:17.989] $GNGGA,055217.40,3713.935713335,N,13701.489961646,E,5,06,1.95,100.956,M,37.565,M,85.4,2006*55
[2021-02-22 14:52:18.098] $GNGGA,055217.50,3713.935704545,N,13701.489938577,E,5,06,1.95,100.995,M,37.565,M,85.5,2006*50
[2021-02-22 14:52:18.192] $GNGGA,055217.60,3713.935696794,N,13701.489925811,E,5,06,1.95,101.028,M,37.565,M,85.6,2006*5B
[2021-02-22 14:52:18.317] $GNGGA,055217.70,3713.935683320,N,13701.489921239,E,5,06,1.95,101.041,M,37.565,M,85.7,2006*5F
[2021-02-22 14:52:18.395] $GNGGA,055217.80,3713.935682484,N,13701.489923985,E,5,06,1.95,101.016,M,37.565,M,85.8,2006*5B
[2021-02-22 14:52:18.489] $GNGGA,055217.90,3713.935863143,N,13701.490264567,E,4,06,1.95,100.784,M,37.565,M,85.9,2006*58
[2021-02-22 14:52:18.598] $GNGGA,055218.00,3713.935800974,N,13701.490189894,E,4,06,1.95,100.934,M,37.565,M,86.0,2006*59
[2021-02-22 14:52:18.692] $GNGGA,055218.10,3713.935815834,N,13701.490213697,E,4,05,2.13,100.855,M,37.565,M,86.1,2006*5D
[2021-02-22 14:52:18.817] $GNGGA,055218.20,3713.935837299,N,13701.490246271,E,4,06,1.95,100.799,M,37.565,M,86.2,2006*5D
[2021-02-22 14:52:18.895] $GNGGA,055218.30,3713.935804675,N,13701.490214353,E,4,06,1.95,100.860,M,37.565,M,86.3,2006*54
[2021-02-22 14:52:18.989] $GNGGA,055218.40,3713.935863494,N,13701.490317074,E,4,05,3.72,100.678,M,37.565,M,86.4,2006*53
[2021-02-22 14:52:19.098] $GNGGA,055218.50,3713.935884156,N,13701.490356245,E,4,05,3.72,100.599,M,37.565,M,86.5,2006*58
[2021-02-22 14:52:19.192] $GNGGA,055218.60,3713.935909491,N,13701.490401341,E,4,05,3.72,100.503,M,37.565,M,86.6,2006*51
[2021-02-22 14:52:19.317] $GNGGA,055218.70,3713.936415723,N,13701.491225692,E,4,05,3.72,98.771,M,37.565,M,86.7,2006*65
[2021-02-22 14:52:19.395] $GNGGA,055218.80,3713.935792612,N,13701.490216109,E,4,06,1.95,100.877,M,37.565,M,86.8,2006*5C
[2021-02-22 14:52:19.488] $GNGGA,055218.90,3713.936412405,N,13701.491224509,E,4,06,1.95,98.774,M,37.565,M,86.9,2006*68
[2021-02-22 14:52:19.598] $GNGGA,055219.00,3713.936412271,N,13701.491226788,E,4,06,1.95,98.770,M,37.565,M,87.0,2006*60
[2021-02-22 14:52:19.692] $GNGGA,055219.10,3713.935942217,N,13701.490464334,E,4,06,1.95,100.374,M,37.565,M,87.1,2006*59
[2021-02-22 14:52:19.817] $GNGGA,055219.20,3713.935943242,N,13701.490469121,E,4,06,1.95,100.366,M,37.565,M,87.2,2006*50
[2021-02-22 14:52:19.895] $GNGGA,055219.30,3713.935942867,N,13701.490468138,E,4,06,1.96,100.365,M,37.565,M,87.3,2006*55
[2021-02-22 14:52:19.988] $GNGGA,055219.40,3713.935785485,N,13701.490214568,E,4,06,1.96,100.896,M,37.565,M,87.4,2006*5B
[2021-02-22 14:52:20.098] $GNGGA,055219.50,3713.936408918,N,13701.491224964,E,4,06,1.96,98.778,M,37.565,M,87.5,2006*6A
[2021-02-22 14:52:20.192] $GNGGA,055219.60,3713.936409493,N,13701.491225268,E,4,06,1.96,98.776,M,37.565,M,87.6,2006*6D
[2021-02-22 14:52:20.317] $GNGGA,055219.70,3713.935939433,N,13701.490465159,E,4,06,1.96,100.369,M,37.565,M,87.7,2006*52
[2021-02-22 14:52:20.395] $GNGGA,055219.80,3713.935938640,N,13701.490463940,E,4,06,1.96,100.370,M,37.565,M,87.8,2006*5B
[2021-02-22 14:52:20.488] $GNGGA,055219.90,3713.935935314,N,13701.490462938,E,4,06,1.96,100.376,M,37.565,M,87.9,2006*5A
[2021-02-22 14:52:20.598] $GNGGA,055220.00,3713.935932729,N,13701.490462852,E,4,06,1.96,100.377,M,37.565,M,88.0,2006*5E
[2021-02-22 14:52:20.723] $GNGGA,055220.10,3713.935930275,N,13701.490461899,E,4,06,1.96,100.377,M,37.565,M,88.1,2006*54
[2021-02-22 14:52:20.801] $GNGGA,055220.20,3713.936402514,N,13701.491225211,E,4,06,1.96,98.769,M,37.565,M,88.2,2006*6D
[2021-02-22 14:52:20.895] $GNGGA,055220.30,3713.935925245,N,13701.490459635,E,4,06,1.96,100.378,M,37.565,M,88.3,2006*5F
[2021-02-22 14:52:20.988] $GNGGA,055220.40,3713.935922341,N,13701.490459868,E,4,06,1.96,100.377,M,37.565,M,88.4,2006*54
[2021-02-22 14:52:21.113] $GNGGA,055220.50,3713.935917606,N,13701.490457079,E,4,06,1.96,100.383,M,37.565,M,88.5,2006*59
[2021-02-22 14:52:21.192] $GNGGA,055220.60,3713.935912856,N,13701.490456865,E,4,06,1.96,100.384,M,37.565,M,88.6,2006*54
[2021-02-22 14:52:21.301] $GNGGA,055220.70,3713.935908026,N,13701.490455651,E,4,06,1.96,100.384,M,37.565,M,88.7,2006*5A
[2021-02-22 14:52:21.395] $GNGGA,055220.80,3713.935903180,N,13701.490451148,E,4,06,1.96,100.393,M,37.565,M,88.8,2006*51
[2021-02-22 14:52:21.520] $GNGGA,055220.90,3713.935904529,N,13701.490457038,E,4,12,1.04,100.380,M,37.565,M,88.9,2006*5D
[2021-02-22 14:52:21.598] $GNGGA,055221.00,3713.936390228,N,13701.491237813,E,4,14,1.00,98.710,M,37.565,M,89.0,2006*60
[2021-02-22 14:52:21.691] $GNGGA,055221.10,3713.936390290,N,13701.491240572,E,4,14,1.00,98.707,M,37.565,M,89.1,2006*6F
[2021-02-22 14:52:21.801] $GNGGA,055221.20,3713.936030088,N,13701.490667162,E,5,13,1.01,99.930,M,37.565,M,89.2,2006*64
[2021-02-22 14:52:21.910] $GNGGA,055221.30,3713.936052872,N,13701.490702860,E,5,13,1.01,99.857,M,37.565,M,89.3,2006*64
[2021-02-22 14:52:21.988] $GNGGA,055221.40,3713.936068591,N,13701.490727172,E,5,13,1.01,99.808,M,37.565,M,89.4,2006*6A
[2021-02-22 14:52:22.098] $GNGGA,055221.50,3713.936089507,N,13701.490760453,E,5,13,1.01,99.741,M,37.565,M,89.5,2006*6D
[2021-02-22 14:52:22.191] $GNGGA,055221.60,3713.936102838,N,13701.490779047,E,5,13,1.01,99.702,M,37.565,M,89.6,2006*60
[2021-02-22 14:52:22.316] $GNGGA,055221.70,3713.936136243,N,13701.490830764,E,5,13,1.01,99.588,M,37.565,M,89.7,2006*65
[2021-02-22 14:52:22.395] $GNGGA,055221.80,3713.936141024,N,13701.490838833,E,5,13,1.01,99.568,M,37.565,M,89.8,2006*6D
[2021-02-22 14:52:22.488] $GNGGA,055221.90,3713.936147835,N,13701.490852948,E,5,13,1.01,99.544,M,37.565,M,89.9,2006*6C
[2021-02-22 14:52:22.598] $GNGGA,055222.00,3713.936156202,N,13701.490870144,E,5,13,1.01,99.513,M,37.565,M,90.0,2006*6F
[2021-02-22 14:52:22.691] $GNGGA,055222.10,3713.936163404,N,13701.490881861,E,5,13,1.01,99.487,M,37.565,M,90.1,2006*65
[2021-02-22 14:52:22.816] $GNGGA,055222.20,3713.936396461,N,13701.491248199,E,4,14,1.00,98.694,M,37.565,M,90.2,2006*68
[2021-02-22 14:52:22.895] $GNGGA,055222.30,3713.936397363,N,13701.491250758,E,4,14,1.00,98.691,M,37.565,M,90.3,2006*6B
[2021-02-22 14:52:22.988] $GNGGA,055222.40,3713.936397759,N,13701.491248079,E,4,14,1.00,98.689,M,37.565,M,90.4,2006*62
[2021-02-22 14:52:23.098] $GNGGA,055222.50,3713.936398055,N,13701.491248485,E,4,14,1.00,98.686,M,37.565,M,90.5,2006*6E
[2021-02-22 14:52:23.191] $GNGGA,055222.60,3713.936397832,N,13701.491247106,E,4,14,1.00,98.688,M,37.565,M,90.6,2006*67
[2021-02-22 14:52:23.316] $GNGGA,055222.70,3713.936400964,N,13701.491246398,E,4,14,1.00,98.683,M,37.565,M,90.7,2006*63
[2021-02-22 14:52:23.394] $GNGGA,055222.80,3713.936401235,N,13701.491243311,E,4,14,1.00,98.684,M,37.565,M,90.8,2006*6E
[2021-02-22 14:52:23.488] $GNGGA,055222.90,3713.936402565,N,13701.491242306,E,4,14,1.00,98.686,M,37.565,M,90.9,2006*6A
[2021-02-22 14:52:23.598] $GNGGA,055223.00,3713.936403241,N,13701.491242889,E,4,14,1.00,98.683,M,37.565,M,91.0,2006*63
[2021-02-22 14:52:23.691] $GNGGA,055223.10,3713.936402359,N,13701.491244503,E,4,14,1.00,98.682,M,37.565,M,91.1,2006*62
[2021-02-22 14:52:23.816] $GNGGA,055223.20,3713.936399900,N,13701.491246672,E,4,14,1.00,98.683,M,37.565,M,91.2,2006*67
[2021-02-22 14:52:23.894] $GNGGA,055223.30,3713.936398123,N,13701.491249833,E,4,14,1.00,98.684,M,37.565,M,91.3,2006*6C
[2021-02-22 14:52:23.988] $GNGGA,055223.40,3713.936396874,N,13701.491250894,E,4,14,1.00,98.686,M,37.565,M,91.4,2006*6E
[2021-02-22 14:52:24.098] $GNGGA,055223.50,3713.936396611,N,13701.491253257,E,4,14,1.00,98.684,M,37.565,M,91.5,2006*67
[2021-02-22 14:52:24.191] $GNGGA,055223.60,3713.936394281,N,13701.491255109,E,4,14,1.00,98.686,M,37.565,M,91.6,2006*64
[2021-02-22 14:52:24.316] $GNGGA,055223.70,3713.936393016,N,13701.491258439,E,4,14,1.00,98.683,M,37.565,M,91.7,2006*61
[2021-02-22 14:52:24.394] $GNGGA,055223.80,3713.936391981,N,13701.491261755,E,4,14,1.00,98.683,M,37.565,M,91.8,2006*67
[2021-02-22 14:52:24.488] $GNGGA,055223.90,3713.936389326,N,13701.491261604,E,4,14,1.00,98.687,M,37.565,M,91.9,2006*68
[2021-02-22 14:52:24.598] $GNGGA,055224.00,3713.936387540,N,13701.491264738,E,4,14,1.00,98.683,M,37.565,M,92.0,2006*6B
[2021-02-22 14:52:24.722] $GNGGA,055224.10,3713.936386999,N,13701.491268998,E,4,14,1.00,98.682,M,37.565,M,92.1,2006*6B
[2021-02-22 14:52:24.801] $GNGGA,055224.20,3713.936386446,N,13701.491265695,E,4,14,1.00,98.679,M,37.565,M,92.2,2006*6F
[2021-02-22 14:52:24.894] $GNGGA,055224.30,3713.936387314,N,13701.491263599,E,4,14,1.00,98.679,M,37.565,M,92.3,2006*67
[2021-02-22 14:52:24.988] $GNGGA,055224.40,3713.936387274,N,13701.491261594,E,4,14,1.00,98.680,M,37.565,M,92.4,2006*69
[2021-02-22 14:52:25.113] $GNGGA,055224.50,3713.936387326,N,13701.491261733,E,4,14,1.00,98.680,M,37.565,M,92.5,2006*60
[2021-02-22 14:52:25.191] $GNGGA,055224.60,3713.936389153,N,13701.491261331,E,4,14,1.00,98.679,M,37.565,M,92.6,2006*6E
[2021-02-22 14:52:25.301] $GNGGA,055224.70,3713.936389940,N,13701.491261071,E,4,14,1.00,98.679,M,37.565,M,92.7,2006*63
[2021-02-22 14:52:25.394] $GNGGA,055224.80,3713.936389942,N,13701.491259932,E,4,14,1.00,98.683,M,37.565,M,92.8,2006*61
[2021-02-22 14:52:25.519] $GNGGA,055224.90,3713.936391833,N,13701.491259707,E,4,14,1.00,98.679,M,37.565,M,92.9,2006*62
[2021-02-22 14:52:25.597] $GNGGA,055225.00,3713.936394549,N,13701.491257347,E,4,14,1.00,98.677,M,37.565,M,93.0,2006*67
[2021-02-22 14:52:25.691] $GNGGA,055225.10,3713.936396095,N,13701.491253465,E,4,14,1.00,98.681,M,37.565,M,93.1,2006*6B
[2021-02-22 14:52:25.800] $GNGGA,055225.20,3713.936397389,N,13701.491252762,E,4,14,1.00,98.675,M,37.565,M,93.2,2006*6A
[2021-02-22 14:52:25.910] $GNGGA,055225.30,3713.936398589,N,13701.491252263,E,4,14,1.00,98.672,M,37.565,M,93.3,2006*60
[2021-02-22 14:52:25.988] $GNGGA,055225.40,3713.936397797,N,13701.491252365,E,4,14,1.00,98.676,M,37.565,M,93.4,2006*61
[2021-02-22 14:52:26.097] $GNGGA,055225.50,3713.936397317,N,13701.491253465,E,4,14,1.00,98.677,M,37.565,M,93.5,2006*6A
[2021-02-22 14:52:26.191] $GNGGA,055225.60,3713.936396882,N,13701.491253558,E,4,14,1.00,98.677,M,37.565,M,93.6,2006*63
[2021-02-22 14:52:26.316] $GNGGA,055225.70,3713.936397791,N,13701.491253616,E,4,14,1.00,98.674,M,37.565,M,93.7,2006*65
[2021-02-22 14:52:26.394] $GNGGA,055225.80,3713.936398548,N,13701.491253443,E,4,14,1.00,98.673,M,37.565,M,93.8,2006*69
[2021-02-22 14:52:26.488] $GNGGA,055225.90,3713.936399185,N,13701.491252634,E,4,14,1.00,98.673,M,37.565,M,93.9,2006*6E
[2021-02-22 14:52:26.597] $GNGGA,055226.00,3713.936399024,N,13701.491253754,E,4,14,1.00,98.671,M,37.565,M,94.0,2006*64
[2021-02-22 14:52:26.691] $GNGGA,055226.10,3713.936397936,N,13701.491254559,E,4,14,1.00,98.669,M,37.565,M,94.1,2006*61
[2021-02-22 14:52:26.816] $GNGGA,055226.20,3713.936397804,N,13701.491253939,E,4,14,1.00,98.670,M,37.565,M,94.2,2006*64
[2021-02-22 14:52:26.894] $GNGGA,055226.30,3713.936397907,N,13701.491253259,E,4,14,1.00,98.669,M,37.565,M,94.3,2006*63
[2021-02-22 14:52:26.988] $GNGGA,055226.40,3713.936398142,N,13701.491251794,E,4,14,1.00,98.674,M,37.565,M,94.4,2006*6F
[2021-02-22 14:52:27.097] $GNGGA,055226.50,3713.936398226,N,13701.491251655,E,4,14,1.00,98.675,M,37.565,M,94.5,2006*63
[2021-02-22 14:52:27.191] $GNGGA,055226.60,3713.936398584,N,13701.491251225,E,4,14,1.00,98.678,M,37.565,M,94.6,2006*62
[2021-02-22 14:52:27.316] $GNGGA,055226.70,3713.936398247,N,13701.491251799,E,4,14,1.00,98.676,M,37.565,M,94.7,2006*66
[2021-02-22 14:52:27.394] $GNGGA,055226.80,3713.936397370,N,13701.491252608,E,4,14,1.00,98.675,M,37.565,M,94.8,2006*65
[2021-02-22 14:52:27.488] $GNGGA,055226.90,3713.936397199,N,13701.491254158,E,4,14,1.00,98.674,M,37.565,M,94.9,2006*65
[2021-02-22 14:52:27.597] $GNGGA,055227.00,3713.936395204,N,13701.491254520,E,4,14,1.00,98.674,M,37.565,M,95.0,2006*6B
[2021-02-22 14:52:27.691] $GNGGA,055227.10,3713.936393778,N,13701.491255949,E,4,14,1.00,98.673,M,37.565,M,95.1,2006*66
[2021-02-22 14:52:27.816] $GNGGA,055227.20,3713.936392692,N,13701.491258049,E,4,14,1.00,98.672,M,37.565,M,95.2,2006*67
[2021-02-22 14:52:27.894] $GNGGA,055227.30,3713.936389674,N,13701.491260340,E,4,14,1.00,98.671,M,37.565,M,95.3,2006*67
[2021-02-22 14:52:27.988] $GNGGA,055227.40,3713.936388572,N,13701.491262898,E,4,14,1.00,98.675,M,37.565,M,95.4,2006*6B
[2021-02-22 14:52:28.097] $GNGGA,055227.50,3713.936386625,N,13701.491266933,E,4,14,1.00,98.672,M,37.565,M,95.5,2006*67
[2021-02-22 14:52:28.191] $GNGGA,055227.60,3713.936383620,N,13701.491269381,E,4,14,1.00,98.675,M,37.565,M,95.6,2006*6C
[2021-02-22 14:52:28.316] $GNGGA,055227.70,3713.936381406,N,13701.491277799,E,4,14,1.00,98.672,M,37.565,M,95.7,2006*6D
[2021-02-22 14:52:28.394] $GNGGA,055227.80,3713.936378494,N,13701.491280625,E,4,14,1.00,98.673,M,37.565,M,95.8,2006*6F
[2021-02-22 14:52:28.488] $GNGGA,055227.90,3713.936376232,N,13701.491282847,E,4,14,1.00,98.673,M,37.565,M,95.9,2006*63
[2021-02-22 14:52:28.597] $GNGGA,055228.00,3713.936375083,N,13701.491283107,E,4,14,1.00,98.674,M,37.565,M,96.0,2006*6F
[2021-02-22 14:52:28.691] $GNGGA,055228.10,3713.936376479,N,13701.491280972,E,4,14,1.00,98.675,M,37.565,M,96.1,2006*65
[2021-02-22 14:52:28.816] $GNGGA,055228.20,3713.936378827,N,13701.491277938,E,4,14,1.00,98.674,M,37.565,M,96.2,2006*6B
[2021-02-22 14:52:28.894] $GNGGA,055228.30,3713.936379930,N,13701.491271164,E,4,14,1.00,98.676,M,37.565,M,96.3,2006*68
[2021-02-22 14:52:28.988] $GNGGA,055228.40,3713.936380967,N,13701.491269241,E,4,14,1.00,98.678,M,37.565,M,96.4,2006*6F
[2021-02-22 14:52:29.097] $GNGGA,055228.50,3713.936382499,N,13701.491268648,E,4,14,1.00,98.672,M,37.565,M,96.5,2006*67
[2021-02-22 14:52:29.222] $GNGGA,055228.60,3713.936383860,N,13701.491265641,E,4,14,1.00,98.676,M,37.565,M,96.6,2006*6C
[2021-02-22 14:52:29.300] $GNGGA,055228.70,3713.936386045,N,13701.491264607,E,4,14,1.00,98.673,M,37.565,M,96.7,2006*60
[2021-02-22 14:52:29.394] $GNGGA,055228.80,3713.936386647,N,13701.491263168,E,4,14,1.00,98.672,M,37.565,M,96.8,2006*6C
[2021-02-22 14:52:29.503] $GNGGA,055228.90,3713.936386787,N,13701.491263189,E,4,14,1.00,98.673,M,37.565,M,96.9,2006*6F
[2021-02-22 14:52:29.613] $GNGGA,055229.00,3713.936388314,N,13701.491268523,E,4,14,1.00,98.667,M,37.565,M,97.0,2006*65
[2021-02-22 14:52:29.691] $GNGGA,055229.10,3713.936387532,N,13701.491265393,E,4,14,1.00,98.668,M,37.565,M,97.1,2006*67
[2021-02-22 14:52:29.800] $GNGGA,055229.20,3713.936386959,N,13701.491265788,E,4,14,1.00,98.669,M,37.565,M,97.2,2006*68
[2021-02-22 14:52:29.894] $GNGGA,055229.30,3713.936387270,N,13701.491270020,E,4,14,1.00,98.664,M,37.565,M,97.3,2006*65
[2021-02-22 14:52:30.019] $GNGGA,055229.40,3713.936387667,N,13701.491264876,E,4,14,1.00,98.665,M,37.565,M,97.4,2006*68
[2021-02-22 14:52:30.097] $GNGGA,055229.50,3713.936387775,N,13701.491264112,E,4,14,1.00,98.665,M,37.565,M,97.5,2006*61
[2021-02-22 14:52:30.191] $GNGGA,055229.60,3713.936387026,N,13701.491263102,E,4,14,1.00,98.668,M,37.565,M,97.6,2006*6B
[2021-02-22 14:52:30.300] $GNGGA,055229.70,3713.936387028,N,13701.491263350,E,4,14,1.00,98.668,M,37.565,M,97.7,2006*60
[2021-02-22 14:52:30.425] $GNGGA,055229.80,3713.936386266,N,13701.491264196,E,4,14,1.00,98.668,M,37.565,M,97.8,2006*66
[2021-02-22 14:52:30.488] $GNGGA,055229.90,3713.936387609,N,13701.491264013,E,4,14,1.00,98.666,M,37.565,M,97.9,2006*68
[2021-02-22 14:52:30.597] $GNGGA,055230.00,3713.936387456,N,13701.491263057,E,4,14,1.00,98.667,M,37.565,M,98.0,2006*61
[2021-02-22 14:52:30.691] $GNGGA,055230.10,3713.936387821,N,13701.491261911,E,4,14,1.00,98.670,M,37.565,M,98.1,2006*62
[2021-02-22 14:52:30.816] $GNGGA,055230.20,3713.936389849,N,13701.491259572,E,4,14,1.00,98.671,M,37.565,M,98.2,2006*61
[2021-02-22 14:52:30.894] $GNGGA,055230.30,3713.936390865,N,13701.491257872,E,4,14,1.00,98.676,M,37.565,M,98.3,2006*63
[2021-02-22 14:52:30.988] $GNGGA,055230.40,3713.936391984,N,13701.491257926,E,4,14,1.00,98.675,M,37.565,M,98.4,2006*6F
[2021-02-22 14:52:31.097] $GNGGA,055230.50,3713.936392386,N,13701.491256972,E,4,14,1.00,98.671,M,37.565,M,98.5,2006*60
[2021-02-22 14:52:31.191] $GNGGA,055230.60,3713.936392498,N,13701.491254855,E,4,14,1.00,98.675,M,37.565,M,98.6,2006*6A
[2021-02-22 14:52:31.316] $GNGGA,055230.70,3713.936393016,N,13701.491253402,E,4,14,1.00,98.672,M,37.565,M,98.7,2006*67
[2021-02-22 14:52:31.394] $GNGGA,055230.80,3713.936392572,N,13701.491253444,E,4,14,1.00,98.670,M,37.565,M,98.8,2006*61
[2021-02-22 14:52:31.488] $GNGGA,055230.90,3713.936391492,N,13701.491254912,E,4,14,1.00,98.670,M,37.565,M,98.9,2006*64
[2021-02-22 14:52:31.597] $GNGGA,055231.00,3713.936390393,N,13701.491255382,E,4,14,1.00,98.672,M,37.565,M,99.0,2006*63
[2021-02-22 14:52:31.691] $GNGGA,055231.10,3713.936390056,N,13701.491257135,E,4,14,1.00,98.668,M,37.565,M,99.1,2006*6E
[2021-02-22 14:52:31.816] $GNGGA,055231.20,3713.936390555,N,13701.491258203,E,4,14,1.00,98.663,M,37.565,M,99.2,2006*6A
[2021-02-22 14:52:31.894] $GNGGA,055231.30,3713.936390073,N,13701.491258026,E,4,14,1.00,98.666,M,37.565,M,99.3,2006*6B
[2021-02-22 14:52:31.988] $GNGGA,055231.40,3713.936390706,N,13701.491258116,E,4,14,1.00,98.667,M,37.565,M,99.4,2006*6D
[2021-02-22 14:52:32.097] $GNGGA,055231.50,3713.936391779,N,13701.491259567,E,4,14,1.00,98.664,M,37.565,M,99.5,2006*64
[2021-02-22 14:52:32.191] $GNGGA,055231.60,3713.936391871,N,13701.491259460,E,4,14,1.00,98.666,M,37.565,M,99.6,2006*67
[2021-02-22 14:52:32.316] $GNGGA,055231.70,3713.936392625,N,13701.491258752,E,4,14,1.00,98.662,M,37.565,M,99.7,2006*6C
[2021-02-22 14:52:32.394] $GNGGA,055231.80,3713.936392461,N,13701.491258973,E,4,14,1.00,98.665,M,37.565,M,99.8,2006*64
[2021-02-22 14:52:32.488] $GNGGA,055231.90,3713.936392232,N,13701.491258664,E,4,14,1.00,98.667,M,37.565,M,99.9,2006*6F
[2021-02-22 14:52:32.597] $GNGGA,055232.00,3713.936391832,N,13701.491258692,E,4,14,1.00,98.665,M,37.565,M,100.0,2006*5F
[2021-02-22 14:52:32.691] $GNGGA,055232.10,3713.936392285,N,13701.491259078,E,4,14,1.00,98.663,M,37.565,M,100.1,2006*5F
[2021-02-22 14:52:32.816] $GNGGA,055232.20,3713.936392107,N,13701.491259478,E,4,14,1.00,98.664,M,37.565,M,100.2,2006*55
[2021-02-22 14:52:32.894] $GNGGA,055232.30,3713.936392212,N,13701.491259277,E,4,14,1.00,98.663,M,37.565,M,100.3,2006*5C
[2021-02-22 14:52:32.988] $GNGGA,055232.40,3713.936390750,N,13701.491257702,E,4,14,1.00,98.671,M,37.565,M,100.4,2006*57
[2021-02-22 14:52:33.097] $GNGGA,055232.50,3713.936391050,N,13701.491258111,E,4,14,1.00,98.667,M,37.565,M,100.5,2006*5D
[2021-02-22 14:52:33.191] $GNGGA,055232.60,3713.936391455,N,13701.491259588,E,4,14,1.00,98.665,M,37.565,M,100.6,2006*5B
[2021-02-22 14:52:33.316] $GNGGA,055232.70,3713.936393412,N,13701.491263344,E,4,14,1.00,98.666,M,37.565,M,100.7,2006*56
[2021-02-22 14:52:33.394] $GNGGA,055232.80,3713.936393012,N,13701.491259771,E,4,14,1.00,98.665,M,37.565,M,100.8,2006*5A
[2021-02-22 14:52:33.488] $GNGGA,055232.90,3713.936392604,N,13701.491260047,E,4,14,1.00,98.662,M,37.565,M,100.9,2006*55
[2021-02-22 14:52:33.597] $GNGGA,055233.00,3713.936392142,N,13701.491263587,E,4,14,1.00,98.663,M,37.565,M,101.0,2006*5B
[2021-02-22 14:52:33.722] $GNGGA,055233.10,3713.936390495,N,13701.491259867,E,4,14,1.00,98.665,M,37.565,M,101.1,2006*5A
[2021-02-22 14:52:33.800] $GNGGA,055233.20,3713.936390510,N,13701.491259652,E,4,14,1.00,98.666,M,37.565,M,101.2,2006*5D
[2021-02-22 14:52:33.894] $GNGGA,055233.30,3713.936391224,N,13701.491259568,E,4,14,1.00,98.667,M,37.565,M,101.3,2006*57
[2021-02-22 14:52:34.003] $GNGGA,055233.40,3713.936392102,N,13701.491259918,E,4,14,1.00,98.665,M,37.565,M,101.4,2006*5A
[2021-02-22 14:52:34.112] $GNGGA,055233.50,3713.936392403,N,13701.491259439,E,4,14,1.00,98.667,M,37.565,M,101.5,2006*52
[2021-02-22 14:52:34.191] $GNGGA,055233.60,3713.936392439,N,13701.491259522,E,4,14,1.00,98.669,M,37.565,M,101.6,2006*5E
[2021-02-22 14:52:34.300] $GNGGA,055233.70,3713.936391659,N,13701.491259851,E,4,14,1.00,98.668,M,37.565,M,101.7,2006*51
[2021-02-22 14:52:34.394] $GNGGA,055233.80,3713.936391604,N,13701.491259533,E,4,14,1.00,98.668,M,37.565,M,101.8,2006*50
[2021-02-22 14:52:34.519] $GNGGA,055233.90,3713.936391343,N,13701.491259612,E,4,14,1.00,98.668,M,37.565,M,101.9,2006*56
[2021-02-22 14:52:34.597] $GNGGA,055234.00,3713.936392292,N,13701.491259542,E,4,14,1.00,98.668,M,37.565,M,102.0,2006*5A
[2021-02-22 14:52:34.691] $GNGGA,055234.10,3713.936393899,N,13701.491264697,E,4,14,1.00,98.663,M,37.565,M,102.1,2006*54
[2021-02-22 14:52:34.800] $GNGGA,055234.20,3713.936393411,N,13701.491261623,E,4,14,1.00,98.664,M,37.565,M,102.2,2006*55
[2021-02-22 14:52:34.925] $GNGGA,055234.30,3713.936394361,N,13701.491265848,E,4,14,1.00,98.662,M,37.565,M,102.3,2006*53
[2021-02-22 14:52:34.987] $GNGGA,055234.40,3713.936393238,N,13701.491265879,E,4,14,1.00,98.662,M,37.565,M,102.4,2006*5B
[2021-02-22 14:52:35.097] $GNGGA,055234.50,3713.936393388,N,13701.491265225,E,4,14,1.00,98.663,M,37.565,M,102.5,2006*53
[2021-02-22 14:52:35.190] $GNGGA,055234.60,3713.936391829,N,13701.491259909,E,4,14,1.00,98.667,M,37.565,M,102.6,2006*5F
[2021-02-22 14:52:35.300] $GNGGA,055234.70,3713.936393169,N,13701.491261016,E,4,14,1.00,98.664,M,37.565,M,102.7,2006*5F
[2021-02-22 14:52:35.409] $GNGGA,055234.80,3713.936393372,N,13701.491263339,E,4,14,1.00,98.664,M,37.565,M,102.8,2006*5B
[2021-02-22 14:52:35.487] $GNGGA,055234.90,3713.936392198,N,13701.491260576,E,4,14,1.00,98.663,M,37.565,M,102.9,2006*55
[2021-02-22 14:52:35.597] $GNGGA,055235.00,3713.936393090,N,13701.491264045,E,4,14,1.00,98.662,M,37.565,M,103.0,2006*5D
[2021-02-22 14:52:35.690] $GNGGA,055235.10,3713.936393725,N,13701.491262257,E,4,14,1.00,98.659,M,37.565,M,103.1,2006*5B
[2021-02-22 14:52:35.800] $GNGGA,055235.20,3713.936394296,N,13701.491265896,E,4,14,1.00,98.659,M,37.565,M,103.2,2006*51
[2021-02-22 14:52:35.909] $GNGGA,055235.30,3713.936394740,N,13701.491266087,E,4,14,1.00,98.655,M,37.565,M,103.3,2006*58
[2021-02-22 14:52:35.987] $GNGGA,055235.40,3713.936394948,N,13701.491265367,E,4,14,1.00,98.658,M,37.565,M,103.4,2006*5D
[2021-02-22 14:52:36.097] $GNGGA,055235.50,3713.936395238,N,13701.491265716,E,4,14,1.00,98.657,M,37.565,M,103.5,2006*5D
[2021-02-22 14:52:36.190] $GNGGA,055235.60,3713.936395310,N,13701.491261495,E,4,14,1.00,98.660,M,37.565,M,103.6,2006*5E
