
[2021-02-22 14:52:08.364] $GPGGA,055152.30,,,,,0,00,0.0,,M,,M,0,0000*53
[2021-02-22 14:52:08.395] $GPGGA,055152.40,,,,,0,00,0.0,,M,,M,0,0000*54
[2021-02-22 14:52:08.395] $GPGGA,055152.50,,,,,0,00,0.0,,M,,M,0,0000*55
[2021-02-22 14:52:08.395] $GPGGA,055152.60,,,,,0,00,0.0,,M,,M,0,0000*56
[2021-02-22 14:52:08.395] $GPGGA,055152.70,,,,,0,00,0.0,,M,,M,0,0000*57
[2021-02-22 14:52:08.395] $GPGGA,055152.80,,,,,0,00,0.0,,M,,M,0,0000*58
[2021-02-22 14:52:08.395] $GPGGA,055152.90,,,,,0,00,0.0,,M,,M,0,0000*59
[2021-02-22 14:52:08.395] $GPGGA,055153.00,,,,,0,00,0.0,,M,,M,0,0000*51
[2021-02-22 14:52:08.395] $GPGGA,055153.10,,,,,0,00,0.0,,M,,M,0,0000*50
[2021-02-22 14:52:08.395] $GPGGA,055153.20,,,,,0,00,0.0,,M,,M,0,0000*53
[2021-02-22 14:52:08.395] $GPGGA,055153.30,,,,,0,00,0.0,,M,,M,0,0000*52
[2021-02-22 14:52:08.395] $GPGGA,055153.40,,,,,0,00,0.0,,M,,M,0,0000*55
[2021-02-22 14:52:08.395] $GPGGA,055153.50,,,,,0,00,0.0,,M,,M,0,0000*54
[2021-02-22 14:52:08.395] $GPGGA,055153.60,,,,,0,00,0.0,,M,,M,0,0000*57
[2021-02-22 14:52:08.395] $GPGGA,055153.70,,,,,0,00,0.0,,M,,M,0,0000*56
[2021-02-22 14:52:08.395] $GPGGA,055153.80,,,,,0,00,0.0,,M,,M,0,0000*59
[2021-02-22 14:52:08.395] $GPGGA,055153.90,,,,,0,00,0.0,,M,,M,0,0000*58
[2021-02-22 14:52:08.395] $GPGGA,055154.00,,,,,0,00,0.0,,M,,M,0,0000*56
[2021-02-22 14:52:08.395] $GPGGA,055154.10,,,,,0,00,0.0,,M,,M,0,0000*57
[2021-02-22 14:52:08.395] $GPGGA,055154.20,,,,,0,00,0.0,,M,,M,0,0000*54
[2021-02-22 14:52:08.395] $GPGGA,055154.30,,,,,0,00,0.0,,M,,M,0,0000*55
[2021-02-22 14:52:08.395] $GPGGA,055154.40,,,,,0,00,0.0,,M,,M,0,0000*52
[2021-02-22 14:52:08.395] $GPGGA,055154.50,,,,,0,00,0.0,,M,,M,0,0000*53
[2021-02-22 14:52:08.427] $GPGGA,055154.60,,,,,0,00,0.0,,M,,M,0,0000*50
[2021-02-22 14:52:08.427] $GPGGA,055154.70,,,,,0,00,0.0,,M,,M,0,0000*51
[2021-02-22 14:52:08.427] $GPGGA,055154.80,,,,,0,00,0.0,,M,,M,0,0000*5E
[2021-02-22 14:52:08.427] $GPGGA,055154.90,,,,,0,00,0.0,,M,,M,0,0000*5F
[2021-02-22 14:52:08.427] $GPGGA,055155.00,,,,,0,00,0.0,,M,,M,0,0000*57
[2021-02-22 14:52:08.427] $GPGGA,055155.10,,,,,0,00,0.0,,M,,M,0,0000*56
[2021-02-22 14:52:08.427] $GPGGA,055155.20,,,,,0,00,0.0,,M,,M,0,0000*55
[2021-02-22 14:52:08.427] $GPGGA,055155.30,,,,,0,00,0.0,,M,,M,0,0000*54
[2021-02-22 14:52:08.427] $GPGGA,055155.40,,,,,0,00,0.0,,M,,M,0,0000*53
[2021-02-22 14:52:08.427] $GPGGA,055155.50,,,,,0,00,0.0,,M,,M,0,0000*52
[2021-02-22 14:52:08.427] $GPGGA,055155.60,,,,,0,00,0.0,,M,,M,0,0000*51
[2021-02-22 14:52:08.427] $GPGGA,055155.70,,,,,0,00,0.0,,M,,M,0,0000*50
[2021-02-22 14:52:08.427] $GPGGA,055155.80,,,,,0,00,0.0,,M,,M,0,0000*5F
[2021-02-22 14:52:08.427] $GPGGA,055155.90,,,,,0,00,0.0,,M,,M,0,0000*5E
[2021-02-22 14:52:08.427] $GPGGA,055156.00,,,,,0,00,0.0,,M,,M,0,0000*54
[2021-02-22 14:52:08.427] $GPGGA,055156.10,,,,,0,00,0.0,,M,,M,0,0000*55
[2021-02-22 14:52:08.427] $GPGGA,055156.20,,,,,0,00,0.0,,M,,M,0,0000*56
[2021-02-22 14:52:08.427] $GPGGA,055156.30,,,,,0,00,0.0,,M,,M,0,0000*57
[2021-02-22 14:52:08.427] $GPGGA,055156.40,,,,,0,00,0.0,,M,,M,0,0000*50
[2021-02-22 14:52:08.427] $GPGGA,055156.50,,,,,0,00,0.0,,M,,M,0,0000*51
[2021-02-22 14:52:08.427] $GPGGA,055156.60,,,,,0,00,0.0,,M,,M,0,0000*52
[2021-02-22 14:52:08.427] $GPGGA,055156.70,,,,,0,00,0.0,,M,,M,0,0000*53
[2021-02-22 14:52:08.442] $GPGGA,055156.80,,,,,0,00,0.0,,M,,M,0,0000*5C
[2021-02-22 14:52:08.442] $GPGGA,055156.90,,,,,0,00,0.0,,M,,M,0,0000*5D
[2021-02-22 14:52:08.442] $GPGGA,055157.00,,,,,0,00,0.0,,M,,M,0,0000*55
[2021-02-22 14:52:08.442] $GPGGA,055157.10,,,,,0,00,0.0,,M,,M,0,0000*54
[2021-02-22 14:52:08.442] $GPGGA,055157.20,,,,,0,00,0.0,,M,,M,0,0000*57
[2021-02-22 14:52:08.442] $GPGGA,055157.30,,,,,0,00,0.0,,M,,M,0,0000*56
[2021-02-22 14:52:08.442] $GPGGA,055157.40,,,,,0,00,0.0,,M,,M,0,0000*51
[2021-02-22 14:52:08.442] $GPGGA,055157.50,,,,,0,00,0.0,,M,,M,0,0000*50
[2021-02-22 14:52:08.442] $GPGGA,055157.60,,,,,0,00,0.0,,M,,M,0,0000*53
[2021-02-22 14:52:08.442] $GPGGA,055157.70,,,,,0,00,0.0,,M,,M,0,0000*52
[2021-02-22 14:52:08.442] $GPGGA,055157.80,,,,,0,00,0.0,,M,,M,0,0000*5D
[2021-02-22 14:52:08.442] $GPGGA,055157.90,,,,,0,00,0.0,,M,,M,0,0000*5C
[2021-02-22 14:52:08.442] $GPGGA,055158.00,,,,,0,00,0.0,,M,,M,0,0000*5A
[2021-02-22 14:52:08.442] $GPGGA,055158.10,,,,,0,00,0.0,,M,,M,0,0000*5B
[2021-02-22 14:52:08.442] $GPGGA,055158.20,,,,,0,00,0.0,,M,,M,0,0000*58
[2021-02-22 14:52:08.442] $GPGGA,055158.30,,,,,0,00,0.0,,M,,M,0,0000*59
[2021-02-22 14:52:08.442] $GPGGA,055158.40,,,,,0,00,0.0,,M,,M,0,0000*5E
[2021-02-22 14:52:08.442] $GPGGA,055158.50,,,,,0,00,0.0,,M,,M,0,0000*5F
[2021-02-22 14:52:08.442] $GPGGA,055158.60,,,,,0,00,0.0,,M,,M,0,0000*5C
[2021-02-22 14:52:08.442] $GPGGA,055158.70,,,,,0,00,0.0,,M,,M,0,0000*5D
[2021-02-22 14:52:08.442] $GPGGA,055158.80,,,,,0,00,0.0,,M,,M,0,0000*52
[2021-02-22 14:52:08.458] $GPGGA,055158.90,,,,,0,00,0.0,,M,,M,0,0000*53
[2021-02-22 14:52:08.458] $GPGGA,055159.00,,,,,0,00,0.0,,M,,M,0,0000*5B
[2021-02-22 14:52:08.458] $GPGGA,055159.10,,,,,0,00,0.0,,M,,M,0,0000*5A
[2021-02-22 14:52:08.458] $GPGGA,055159.20,,,,,0,00,0.0,,M,,M,0,0000*59
[2021-02-22 14:52:08.458] $GPGGA,055159.30,,,,,0,00,0.0,,M,,M,0,0000*58
[2021-02-22 14:52:08.458] $GPGGA,055159.40,,,,,0,00,0.0,,M,,M,0,0000*5F
[2021-02-22 14:52:08.458] $GPGGA,055159.50,,,,,0,00,0.0,,M,,M,0,0000*5E
[2021-02-22 14:52:08.458] $GPGGA,055159.60,,,,,0,00,0.0,,M,,M,0,0000*5D
[2021-02-22 14:52:08.458] $GPGGA,055159.70,,,,,0,00,0.0,,M,,M,0,0000*5C
[2021-02-22 14:52:08.458] $GPGGA,055159.80,,,,,0,00,0.0,,M,,M,0,0000*53
[2021-02-22 14:52:08.458] $GPGGA,055159.90,,,,,0,00,0.0,,M,,M,0,0000*52
[2021-02-22 14:52:08.458] $GPGGA,055200.00,,,,,0,00,0.0,,M,,M,0,0000*54
[2021-02-22 14:52:08.458] $GPGGA,055200.10,,,,,0,00,0.0,,M,,M,0,0000*55
[2021-02-22 14:52:08.458] $GPGGA,055200.20,,,,,0,00,0.0,,M,,M,0,0000*56
[2021-02-22 14:52:08.458] $GPGGA,055200.30,,,,,0,00,0.0,,M,,M,0,0000*57
[2021-02-22 14:52:08.458] $GPGGA,055200.40,,,,,0,00,0.0,,M,,M,0,0000*50
[2021-02-22 14:52:08.458] $GPGGA,055200.50,,,,,0,00,0.0,,M,,M,0,0000*51
[2021-02-22 14:52:08.458] $GPGGA,055200.60,,,,,0,00,0.0,,M,,M,0,0000*52
[2021-02-22 14:52:08.458] $GPGGA,055200.70,,,,,0,00,0.0,,M,,M,0,0000*53
[2021-02-22 14:52:08.458] $GPGGA,055200.80,,,,,0,00,0.0,,M,,M,0,0000*5C
[2021-02-22 14:52:08.458] $GPGGA,055200.90,,,,,0,00,0.0,,M,,M,0,0000*5D
[2021-02-22 14:52:08.458] $GPGGA,055201.00,,,,,0,00,0.0,,M,,M,0,0000*55
[2021-02-22 14:52:08.474] $GPGGA,055201.10,,,,,0,00,0.0,,M,,M,0,0000*54
[2021-02-22 14:52:08.474] $GPGGA,055201.20,,,,,0,00,0.0,,M,,M,0,0000*57
[2021-02-22 14:52:08.474] $GPGGA,055201.30,,,,,0,00,0.0,,M,,M,0,0000*56
[2021-02-22 14:52:08.474] $GPGGA,055201.40,,,,,0,00,0.0,,M,,M,0,0000*51
[2021-02-22 14:52:08.474] $GPGGA,055201.50,,,,,0,00,0.0,,M,,M,0,0000*50
[2021-02-22 14:52:08.474] $GPGGA,055201.60,,,,,0,00,0.0,,M,,M,0,0000*53
[2021-02-22 14:52:08.474] $GPGGA,055201.70,,,,,0,00,0.0,,M,,M,0,0000*52
[2021-02-22 14:52:08.474] $GPGGA,055201.80,,,,,0,00,0.0,,M,,M,0,0000*5D
[2021-02-22 14:52:08.474] $GPGGA,055201.90,,,,,0,00,0.0,,M,,M,0,0000*5C
[2021-02-22 14:52:08.474] $GPGGA,055202.00,,,,,0,00,0.0,,M,,M,0,0000*56
[2021-02-22 14:52:08.474] $GPGGA,055202.10,,,,,0,00,0.0,,M,,M,0,0000*57
[2021-02-22 14:52:08.474] $GPGGA,055202.20,,,,,0,00,0.0,,M,,M,0,0000*54
[2021-02-22 14:52:08.474] $GPGGA,055202.30,,,,,0,00,0.0,,M,,M,0,0000*55
[2021-02-22 14:52:08.474] $GPGGA,055202.40,,,,,0,00,0.0,,M,,M,0,0000*52
[2021-02-22 14:52:08.474] $GPGGA,055202.50,,,,,0,00,0.0,,M,,M,0,0000*53
[2021-02-22 14:52:08.474] $GPGGA,055202.60,,,,,0,00,0.0,,M,,M,0,0000*50
[2021-02-22 14:52:08.474] $GPGGA,055202.70,,,,,0,00,0.0,,M,,M,0,0000*51
[2021-02-22 14:52:08.474] $GPGGA,055202.80,,,,,0,00,0.0,,M,,M,0,0000*5E
[2021-02-22 14:52:08.474] $GPGGA,055202.90,,,,,0,00,0.0,,M,,M,0,0000*5F
[2021-02-22 14:52:08.474] $GPGGA,055203.00,,,,,0,00,0.0,,M,,M,0,0000*57
[2021-02-22 14:52:08.474] $GPGGA,055203.10,,,,,0,00,0.0,,M,,M,0,0000*56
[2021-02-22 14:52:08.489] $GPGGA,055203.20,,,,,0,00,0.0,,M,,M,0,0000*55
[2021-02-22 14:52:08.489] $GPGGA,055203.30,,,,,0,00,0.0,,M,,M,0,0000*54
[2021-02-22 14:52:08.489] $GPGGA,055203.40,,,,,0,00,0.0,,M,,M,0,0000*53
[2021-02-22 14:52:08.489] $GPGGA,055203.50,,,,,0,00,0.0,,M,,M,0,0000*52
[2021-02-22 14:52:08.489] $GPGGA,055203.60,,,,,0,00,0.0,,M,,M,0,0000*51
[2021-02-22 14:52:08.489] $GPGGA,055203.70,,,,,0,00,0.0,,M,,M,0,0000*50
[2021-02-22 14:52:08.489] $GPGGA,055203.80,,,,,0,00,0.0,,M,,M,0,0000*5F
[2021-02-22 14:52:08.489] $GPGGA,055203.90,,,,,0,00,0.0,,M,,M,0,0000*5E
[2021-02-22 14:52:08.489] $GPGGA,055204.00,,,,,0,00,0.0,,M,,M,0,0000*50
[2021-02-22 14:52:08.489] $GPGGA,055204.10,,,,,0,00,0.0,,M,,M,0,0000*51
[2021-02-22 14:52:08.489] $GPGGA,055204.20,,,,,0,00,0.0,,M,,M,0,0000*52
[2021-02-22 14:52:08.489] $GPGGA,055204.30,,,,,0,00,0.0,,M,,M,0,0000*53
[2021-02-22 14:52:08.489] $GPGGA,055204.40,,,,,0,00,0.0,,M,,M,0,0000*54
[2021-02-22 14:52:08.489] $GPGGA,055204.50,,,,,0,00,0.0,,M,,M,0,0000*55
[2021-02-22 14:52:08.489] $GPGGA,055204.60,,,,,0,00,0.0,,M,,M,0,0000*56
[2021-02-22 14:52:08.489] $GPGGA,055204.70,,,,,0,00,0.0,,M,,M,0,0000*57
[2021-02-22 14:52:08.489] $GPGGA,055204.80,,,,,0,00,0.0,,M,,M,0,0000*58
[2021-02-22 14:52:08.489] $GPGGA,055204.90,,,,,0,00,0.0,,M,,M,0,0000*59
[2021-02-22 14:52:08.489] $GPGGA,055205.00,,,,,0,00,0.0,,M,,M,0,0000*51
[2021-02-22 14:52:08.489] $GPGGA,055205.10,,,,,0,00,0.0,,M,,M,0,0000*50
[2021-02-22 14:52:08.489] $GPGGA,055205.20,,,,,0,00,0.0,,M,,M,0,0000*53
[2021-02-22 14:52:08.489] $GPGGA,055205.30,,,,,0,00,0.0,,M,,M,0,0000*52
[2021-02-22 14:52:08.505] $GPGGA,055205.40,,,,,0,00,0.0,,M,,M,0,0000*55
[2021-02-22 14:52:08.505] $GPGGA,055205.50,,,,,0,00,0.0,,M,,M,0,0000*54
[2021-02-22 14:52:08.505] $GPGGA,055205.60,,,,,0,00,0.0,,M,,M,0,0000*57
[2021-02-22 14:52:08.505] $GPGGA,055205.70,,,,,0,00,0.0,,M,,M,0,0000*56
[2021-02-22 14:52:08.505] $GPGGA,055205.80,,,,,0,00,0.0,,M,,M,0,0000*59
[2021-02-22 14:52:08.505] $GPGGA,055205.90,,,,,0,00,0.0,,M,,M,0,0000*58
[2021-02-22 14:52:08.505] $GPGGA,055206.00,,,,,0,00,0.0,,M,,M,0,0000*52
[2021-02-22 14:52:08.505] $GPGGA,055206.10,,,,,0,00,0.0,,M,,M,0,0000*53
[2021-02-22 14:52:08.505] $GPGGA,055206.20,,,,,0,00,0.0,,M,,M,0,0000*50
[2021-02-22 14:52:08.505] $GPGGA,055206.30,,,,,0,00,0.0,,M,,M,0,0000*51
[2021-02-22 14:52:08.505] $GPGGA,055206.40,,,,,0,00,0.0,,M,,M,0,0000*56
[2021-02-22 14:52:08.505] $GPGGA,055206.50,,,,,0,00,0.0,,M,,M,0,0000*57
[2021-02-22 14:52:08.505] $GPGGA,055206.60,,,,,0,00,0.0,,M,,M,0,0000*54
[2021-02-22 14:52:08.505] $GPGGA,055206.70,,,,,0,00,0.0,,M,,M,0,0000*55
[2021-02-22 14:52:08.505] $GPGGA,055206.80,,,,,0,00,0.0,,M,,M,0,0000*5A
[2021-02-22 14:52:08.505] $GPGGA,055206.90,,,,,0,00,0.0,,M,,M,0,0000*5B
[2021-02-22 14:52:08.505] $GPGGA,055207.00,,,,,0,00,0.0,,M,,M,0,0000*53
[2021-02-22 14:52:08.505] $GPGGA,055207.10,,,,,0,00,0.0,,M,,M,0,0000*52
[2021-02-22 14:52:08.505] $GPGGA,055207.20,,,,,0,00,0.0,,M,,M,0,0000*51
[2021-02-22 14:52:08.505] $GPGGA,055207.30,,,,,0,00,0.0,,M,,M,0,0000*50
[2021-02-22 14:52:08.505] $GPGGA,055207.40,,,,,0,00,0.0,,M,,M,0,0000*57
[2021-02-22 14:52:08.505] $GPGGA,055207.50,,,,,0,00,0.0,,M,,M,0,0000*56
[2021-02-22 14:52:08.505] $GPGGA,055207.60,,,,,0,00,0.0,,M,,M,0,0000*55
[2021-02-22 14:52:08.505] $GPGGA,055207.70,,,,,0,00,0.0,,M,,M,0,0000*54
[2021-02-22 14:52:08.505] $GPGGA,055207.80,,,,,0,00,0.0,,M,,M,0,0000*5B
[2021-02-22 14:52:08.505] $GPGGA,055207.90,,,,,0,00,0.0,,M,,M,0,0000*5A
[2021-02-22 14:52:08.505] $GPGGA,055208.00,,,,,0,00,0.0,,M,,M,0,0000*5C
[2021-02-22 14:52:08.505] $GPGGA,055208.10,,,,,0,00,0.0,,M,,M,0,0000*5D
[2021-02-22 14:52:08.599] $GPGGA,055208.20,,,,,0,00,0.0,,M,,M,0,0000*5E
[2021-02-22 14:52:08.692] $GPGGA,055208.30,,,,,0,00,0.0,,M,,M,0,0000*5F
[2021-02-22 14:52:08.786] $GPGGA,055208.40,,,,,0,00,0.0,,M,,M,0,0000*58
[2021-02-22 14:52:08.911] $GPGGA,055208.50,,,,,0,00,0.0,,M,,M,0,0000*59
[2021-02-22 14:52:09.005] $GPGGA,055208.60,,,,,0,00,0.0,,M,,M,0,0000*5A
[2021-02-22 14:52:09.099] $GPGGA,055208.70,,,,,0,00,0.0,,M,,M,0,0000*5B
[2021-02-22 14:52:09.192] $GPGGA,055208.80,,,,,0,00,0.0,,M,,M,0,0000*54
[2021-02-22 14:52:09.302] $GPGGA,055208.90,,,,,0,00,0.0,,M,,M,0,0000*55
[2021-02-22 14:52:09.395] $GPGGA,055209.00,,,,,0,00,0.0,,M,,M,0,0000*5D
[2021-02-22 14:52:09.489] $GPGGA,055209.10,,,,,0,00,0.0,,M,,M,0,0000*5C
[2021-02-22 14:52:09.598] $GPGGA,055209.20,,,,,0,00,0.0,,M,,M,0,0000*5F
[2021-02-22 14:52:09.708] $GPGGA,055209.30,,,,,0,00,0.0,,M,,M,0,0000*5E
[2021-02-22 14:52:09.802] $GPGGA,055209.40,,,,,0,00,0.0,,M,,M,0,0000*59
[2021-02-22 14:52:09.895] $GPGGA,055209.50,,,,,0,00,0.0,,M,,M,0,0000*58
[2021-02-22 14:52:09.989] $GPGGA,055209.60,,,,,0,00,0.0,,M,,M,0,0000*5B
[2021-02-22 14:52:10.098] $GPGGA,055209.70,,,,,0,00,0.0,,M,,M,0,0000*5A
[2021-02-22 14:52:10.208] $GPGGA,055209.80,,,,,0,00,0.0,,M,,M,0,0000*55
[2021-02-22 14:52:10.302] $GPGGA,055209.90,,,,,0,00,0.0,,M,,M,0,0000*54
[2021-02-22 14:52:10.395] $GPGGA,055210.00,,,,,0,00,0.0,,M,,M,0,0000*55
[2021-02-22 14:52:10.489] $GPGGA,055210.10,,,,,0,00,0.0,,M,,M,0,0000*54
[2021-02-22 14:52:10.598] $GPGGA,055210.20,,,,,0,00,0.0,,M,,M,0,0000*57
[2021-02-22 14:52:10.692] $GPGGA,055210.30,,,,,0,00,0.0,,M,,M,0,0000*56
[2021-02-22 14:52:10.786] $GPGGA,055210.40,,,,,0,00,0.0,,M,,M,0,0000*51
[2021-02-22 14:52:10.880] $GPGGA,055210.50,,,,,0,00,0.0,,M,,M,0,0000*50
[2021-02-22 14:52:11.005] $GPGGA,055210.60,,,,,0,00,0.0,,M,,M,0,0000*53
[2021-02-22 14:52:11.098] $GPGGA,055210.70,,,,,0,00,0.0,,M,,M,0,0000*52
[2021-02-22 14:52:11.192] $GPGGA,055210.80,,,,,0,00,0.0,,M,,M,0,0000*5D
[2021-02-22 14:52:11.286] $GPGGA,055210.90,,,,,0,00,0.0,,M,,M,0,0000*5C
[2021-02-22 14:52:11.395] $GPGGA,055211.00,,,,,0,00,0.0,,M,,M,0,0000*54
[2021-02-22 14:52:11.489] $GPGGA,055211.10,,,,,0,00,0.0,,M,,M,0,0000*55
[2021-02-22 14:52:11.598] $GPGGA,055211.20,,,,,0,00,0.0,,M,,M,0,0000*56
[2021-02-22 14:52:11.692] $GPGGA,055211.30,,,,,0,00,0.0,,M,,M,0,0000*57
[2021-02-22 14:52:11.801] $GPGGA,055211.40,,,,,0,00,0.0,,M,,M,0,0000*50
[2021-02-22 14:52:11.895] $GPGGA,055211.50,,,,,0,00,0.0,,M,,M,0,0000*51
[2021-02-22 14:52:11.989] $GPGGA,055211.60,,,,,0,00,0.0,,M,,M,0,0000*52
[2021-02-22 14:52:12.098] $GPGGA,055211.70,,,,,0,00,0.0,,M,,M,0,0000*53
[2021-02-22 14:52:12.208] $GPGGA,055211.80,,,,,0,00,0.0,,M,,M,0,0000*5C
[2021-02-22 14:52:12.301] $GPGGA,055211.90,,,,,0,00,0.0,,M,,M,0,0000*5D
[2021-02-22 14:52:12.395] $GPGGA,055212.00,,,,,0,00,0.0,,M,,M,0,0000*57
[2021-02-22 14:52:12.505] $GPGGA,055212.10,,,,,0,00,0.0,,M,,M,0,0000*56
[2021-02-22 14:52:12.598] $GPGGA,055212.20,,,,,0,00,0.0,,M,,M,0,0000*55
[2021-02-22 14:52:12.692] $GPGGA,055212.30,,,,,0,00,0.0,,M,,M,0,0000*54
[2021-02-22 14:52:12.786] $GPGGA,055212.40,,,,,0,00,0.0,,M,,M,0,0000*53
[2021-02-22 14:52:12.911] $GPGGA,055212.50,,,,,0,00,0.0,,M,,M,0,0000*52
[2021-02-22 14:52:13.005] $GPGGA,055212.60,,,,,0,00,0.0,,M,,M,0,0000*51
[2021-02-22 14:52:13.098] $GPGGA,055212.70,,,,,0,00,0.0,,M,,M,0,0000*50
[2021-02-22 14:52:13.192] $GPGGA,055212.80,,,,,0,00,0.0,,M,,M,0,0000*5F
[2021-02-22 14:52:13.301] $GPGGA,055212.90,,,,,0,00,0.0,,M,,M,0,0000*5E
[2021-02-22 14:52:13.395] $GPGGA,055213.00,,,,,0,00,0.0,,M,,M,0,0000*56
[2021-02-22 14:52:13.505] $GPGGA,055213.10,,,,,0,00,0.0,,M,,M,0,0000*57
[2021-02-22 14:52:13.598] $GPGGA,055213.20,,,,,0,00,0.0,,M,,M,0,0000*54
[2021-02-22 14:52:13.708] $GPGGA,055213.30,,,,,0,00,0.0,,M,,M,0,0000*55
[2021-02-22 14:52:13.801] $GPGGA,055213.40,,,,,0,00,0.0,,M,,M,0,0000*52
[2021-02-22 14:52:13.895] $GPGGA,055213.50,,,,,0,00,0.0,,M,,M,0,0000*53
[2021-02-22 14:52:13.989] $GPGGA,055213.60,,,,,0,00,0.0,,M,,M,0,0000*50
[2021-02-22 14:52:14.098] $GPGGA,055213.70,,,,,0,00,0.0,,M,,M,0,0000*51
[2021-02-22 14:52:14.192] $GPGGA,055213.80,,,,,0,00,0.0,,M,,M,0,0000*5E
[2021-02-22 14:52:14.301] $GPGGA,055213.90,,,,,0,00,0.0,,M,,M,0,0000*5F
[2021-02-22 14:52:14.395] $GPGGA,055214.00,,,,,0,00,0.0,,M,,M,0,0000*51
[2021-02-22 14:52:14.489] $GPGGA,055214.10,,,,,0,00,0.0,,M,,M,0,0000*50
[2021-02-22 14:52:14.598] $GPGGA,055214.20,,,,,0,00,0.0,,M,,M,0,0000*53
[2021-02-22 14:52:14.692] $GPGGA,055214.30,,,,,0,00,0.0,,M,,M,0,0000*52
[2021-02-22 14:52:14.786] $GPGGA,055214.40,,,,,0,00,0.0,,M,,M,0,0000*55
[2021-02-22 14:52:14.895] $GPGGA,055214.50,,,,,0,00,0.0,,M,,M,0,0000*54
[2021-02-22 14:52:15.004] $GPGGA,055214.60,,,,,0,00,0.0,,M,,M,0,0000*57
[2021-02-22 14:52:15.098] $GPGGA,055214.70,,,,,0,00,0.0,,M,,M,0,0000*56
[2021-02-22 14:52:15.192] $GPGGA,055214.80,,,,,0,00,0.0,,M,,M,0,0000*59
[2021-02-22 14:52:15.286] $GPGGA,055214.90,,,,,0,00,0.0,,M,,M,0,0000*58
[2021-02-22 14:52:15.395] $GPGGA,055215.00,,,,,0,00,0.0,,M,,M,0,0000*50
[2021-02-22 14:52:15.504] $GPGGA,055215.10,,,,,0,00,0.0,,M,,M,0,0000*51
[2021-02-22 14:52:15.598] $GPGGA,055215.20,,,,,0,00,0.0,,M,,M,0,0000*52
[2021-02-22 14:52:15.707] $GPGGA,055215.30,,,,,0,00,0.0,,M,,M,0,0000*53
[2021-02-22 14:52:15.801] $GPGGA,055215.40,,,,,0,00,0.0,,M,,M,0,0000*54
[2021-02-22 14:52:15.895] $GPGGA,055215.50,,,,,0,00,0.0,,M,,M,0,0000*55
[2021-02-22 14:52:15.989] $GPGGA,055215.60,,,,,0,00,0.0,,M,,M,0,0000*56
[2021-02-22 14:52:16.098] $GPGGA,055215.70,,,,,0,00,0.0,,M,,M,0,0000*57
[2021-02-22 14:52:16.207] $GPGGA,055215.80,,,,,0,00,0.0,,M,,M,0,0000*58
[2021-02-22 14:52:16.301] $GPGGA,055215.90,,,,,0,00,0.0,,M,,M,0,0000*59
[2021-02-22 14:52:16.395] $GPGGA,055216.00,,,,,0,00,0.0,,M,,M,0,0000*53
[2021-02-22 14:52:16.504] $GPGGA,055216.10,,,,,0,00,0.0,,M,,M,0,0000*52
[2021-02-22 14:52:16.598] $GPGGA,055216.20,,,,,0,00,0.0,,M,,M,0,0000*51
[2021-02-22 14:52:16.692] $GPGGA,055216.30,,,,,0,00,0.0,,M,,M,0,0000*50
[2021-02-22 14:52:16.801] $GPGGA,055216.40,,,,,0,00,0.0,,M,,M,0,0000*57
[2021-02-22 14:52:16.910] $GPGGA,055216.50,,,,,0,00,0.0,,M,,M,0,0000*56
[2021-02-22 14:52:17.004] $GPGGA,055216.60,,,,,0,00,0.0,,M,,M,0,0000*55
[2021-02-22 14:52:17.098] $GPGGA,055216.70,,,,,0,00,0.0,,M,,M,0,0000*54
[2021-02-22 14:52:17.192] $GPGGA,055216.80,,,,,0,00,0.0,,M,,M,0,0000*5B
[2021-02-22 14:52:17.301] $GPGGA,055216.90,,,,,0,00,0.0,,M,,M,0,0000*5A
[2021-02-22 14:52:17.395] $GPGGA,055217.00,,,,,0,00,0.0,,M,,M,0,0000*52
[2021-02-22 14:52:17.504] $GPGGA,055217.10,,,,,0,00,0.0,,M,,M,0,0000*53
[2021-02-22 14:52:17.614] $GPGGA,055217.20,,,,,0,00,0.0,,M,,M,0,0000*50
[2021-02-22 14:52:17.707] $GPGGA,055217.30,,,,,0,00,0.0,,M,,M,0,0000*51
[2021-02-22 14:52:17.801] $GPGGA,055217.40,,,,,0,00,0.0,,M,,M,0,0000*56
[2021-02-22 14:52:17.895] $GPGGA,055217.50,,,,,0,00,0.0,,M,,M,0,0000*57
[2021-02-22 14:52:17.989] $GPGGA,055217.60,,,,,0,00,0.0,,M,,M,0,0000*54
[2021-02-22 14:52:18.098] $GPGGA,055217.70,,,,,0,00,0.0,,M,,M,0,0000*55
[2021-02-22 14:52:18.207] $GPGGA,055217.80,,,,,0,00,0.0,,M,,M,0,0000*5A
[2021-02-22 14:52:18.301] $GPGGA,055217.90,,,,,0,00,0.0,,M,,M,0,0000*5B
[2021-02-22 14:52:18.395] $GPGGA,055218.00,,,,,0,00,0.0,,M,,M,0,0000*5D
[2021-02-22 14:52:18.504] $GPGGA,055218.10,,,,,0,00,0.0,,M,,M,0,0000*5C
[2021-02-22 14:52:18.598] $GPGGA,055218.20,,,,,0,00,0.0,,M,,M,0,0000*5F
[2021-02-22 14:52:18.707] $GPGGA,055218.30,,,,,0,00,0.0,,M,,M,0,0000*5E
[2021-02-22 14:52:18.785] $GPGGA,055218.40,,,,,0,00,0.0,,M,,M,0,0000*59
[2021-02-22 14:52:18.879] $GPGGA,055218.50,,,,,0,00,0.0,,M,,M,0,0000*58
[2021-02-22 14:52:19.004] $GPGGA,055218.60,,,,,0,00,0.0,,M,,M,0,0000*5B
[2021-02-22 14:52:19.098] $GPGGA,055218.70,,,,,0,00,0.0,,M,,M,0,0000*5A
[2021-02-22 14:52:19.192] $GPGGA,055218.80,,,,,0,00,0.0,,M,,M,0,0000*55
[2021-02-22 14:52:19.301] $GPGGA,055218.90,,,,,0,00,0.0,,M,,M,0,0000*54
[2021-02-22 14:52:19.395] $GPGGA,055219.00,,,,,0,00,0.0,,M,,M,0,0000*5C
[2021-02-22 14:52:19.504] $GPGGA,055219.10,,,,,0,00,0.0,,M,,M,0,0000*5D
[2021-02-22 14:52:19.598] $GPGGA,055219.20,,,,,0,00,0.0,,M,,M,0,0000*5E
[2021-02-22 14:52:19.707] $GPGGA,055219.30,,,,,0,00,0.0,,M,,M,0,0000*5F
[2021-02-22 14:52:19.801] $GPGGA,055219.40,,,,,0,00,0.0,,M,,M,0,0000*58
[2021-02-22 14:52:19.895] $GPGGA,055219.50,,,,,0,00,0.0,,M,,M,0,0000*59
[2021-02-22 14:52:19.988] $GPGGA,055219.60,,,,,0,00,0.0,,M,,M,0,0000*5A
[2021-02-22 14:52:20.098] $GPGGA,055219.70,,,,,0,00,0.0,,M,,M,0,0000*5B
[2021-02-22 14:52:20.207] $GPGGA,055219.80,,,,,0,00,0.0,,M,,M,0,0000*54
[2021-02-22 14:52:20.301] $GPGGA,055219.90,,,,,0,00,0.0,,M,,M,0,0000*55
[2021-02-22 14:52:20.395] $GPGGA,055220.00,,,,,0,00,0.0,,M,,M,0,0000*56
[2021-02-22 14:52:20.504] $GPGGA,055220.10,,,,,0,00,0.0,,M,,M,0,0000*57
[2021-02-22 14:52:20.598] $GPGGA,055220.20,,,,,0,00,0.0,,M,,M,0,0000*54
[2021-02-22 14:52:20.692] $GPGGA,055220.30,,,,,0,00,0.0,,M,,M,0,0000*55
[2021-02-22 14:52:20.801] $GPGGA,055220.40,,,,,0,00,0.0,,M,,M,0,0000*52
[2021-02-22 14:52:20.910] $GPGGA,055220.50,,,,,0,00,0.0,,M,,M,0,0000*53
[2021-02-22 14:52:21.004] $GPGGA,055220.60,,,,,0,00,0.0,,M,,M,0,0000*50
[2021-02-22 14:52:21.098] $GPGGA,055220.70,,,,,0,00,0.0,,M,,M,0,0000*51
[2021-02-22 14:52:21.207] $GPGGA,055220.80,,,,,0,00,0.0,,M,,M,0,0000*5E
[2021-02-22 14:52:21.301] $GPGGA,055220.90,,,,,0,00,0.0,,M,,M,0,0000*5F
[2021-02-22 14:52:21.395] $GPGGA,055221.00,,,,,0,00,0.0,,M,,M,0,0000*57
[2021-02-22 14:52:21.488] $GPGGA,055221.10,,,,,0,00,0.0,,M,,M,0,0000*56
[2021-02-22 14:52:21.613] $GPGGA,055221.20,,,,,0,00,0.0,,M,,M,0,0000*55
[2021-02-22 14:52:21.707] $GPGGA,055221.30,,,,,0,00,0.0,,M,,M,0,0000*54
[2021-02-22 14:52:21.801] $GPGGA,055221.40,,,,,0,00,0.0,,M,,M,0,0000*53
[2021-02-22 14:52:21.895] $GPGGA,055221.50,,,,,0,00,0.0,,M,,M,0,0000*52
[2021-02-22 14:52:22.004] $GPGGA,055221.60,,,,,0,00,0.0,,M,,M,0,0000*51
[2021-02-22 14:52:22.098] $GPGGA,055221.70,,,,,0,00,0.0,,M,,M,0,0000*50
[2021-02-22 14:52:22.207] $GPGGA,055221.80,,,,,0,00,0.0,,M,,M,0,0000*5F
[2021-02-22 14:52:22.301] $GPGGA,055221.90,,,,,0,00,0.0,,M,,M,0,0000*5E
[2021-02-22 14:52:22.410] $GPGGA,055222.00,,,,,0,00,0.0,,M,,M,0,0000*54
[2021-02-22 14:52:22.504] $GPGGA,055222.10,,,,,0,00,0.0,,M,,M,0,0000*55
[2021-02-22 14:52:22.598] $GPGGA,055222.20,,,,,0,00,0.0,,M,,M,0,0000*56
[2021-02-22 14:52:22.691] $GPGGA,055222.30,,,,,0,00,0.0,,M,,M,0,0000*57
[2021-02-22 14:52:22.785] $GPGGA,055222.40,,,,,0,00,0.0,,M,,M,0,0000*50
[2021-02-22 14:52:22.910] $GPGGA,055222.50,,,,,0,00,0.0,,M,,M,0,0000*51
[2021-02-22 14:52:23.004] $GPGGA,055222.60,,,,,0,00,0.0,,M,,M,0,0000*52
[2021-02-22 14:52:23.098] $GPGGA,055222.70,,,,,0,00,0.0,,M,,M,0,0000*53
[2021-02-22 14:52:23.191] $GPGGA,055222.80,,,,,0,00,0.0,,M,,M,0,0000*5C
[2021-02-22 14:52:23.301] $GPGGA,055222.90,,,,,0,00,0.0,,M,,M,0,0000*5D
[2021-02-22 14:52:23.394] $GPGGA,055223.00,,,,,0,00,0.0,,M,,M,0,0000*55
[2021-02-22 14:52:23.488] $GPGGA,055223.10,,,,,0,00,0.0,,M,,M,0,0000*54
[2021-02-22 14:52:23.598] $GPGGA,055223.20,,,,,0,00,0.0,,M,,M,0,0000*57
[2021-02-22 14:52:23.707] $GPGGA,055223.30,,,,,0,00,0.0,,M,,M,0,0000*56
[2021-02-22 14:52:23.801] $GPGGA,055223.40,,,,,0,00,0.0,,M,,M,0,0000*51
[2021-02-22 14:52:23.894] $GPGGA,055223.50,,,,,0,00,0.0,,M,,M,0,0000*50
[2021-02-22 14:52:23.988] $GPGGA,055223.60,,,,,0,00,0.0,,M,,M,0,0000*53
[2021-02-22 14:52:24.098] $GPGGA,055223.70,,,,,0,00,0.0,,M,,M,0,0000*52
[2021-02-22 14:52:24.207] $GPGGA,055223.80,,,,,0,00,0.0,,M,,M,0,0000*5D
[2021-02-22 14:52:24.301] $GPGGA,055223.90,,,,,0,00,0.0,,M,,M,0,0000*5C
[2021-02-22 14:52:24.410] $GPGGA,055224.00,,,,,0,00,0.0,,M,,M,0,0000*52
[2021-02-22 14:52:24.504] $GPGGA,055224.10,,,,,0,00,0.0,,M,,M,0,0000*53
[2021-02-22 14:52:24.598] $GPGGA,055224.20,,,,,0,00,0.0,,M,,M,0,0000*50
[2021-02-22 14:52:24.691] $GPGGA,055224.30,,,,,0,00,0.0,,M,,M,0,0000*51
[2021-02-22 14:52:24.801] $GPGGA,055224.40,,,,,0,00,0.0,,M,,M,0,0000*56
[2021-02-22 14:52:24.910] $GPGGA,055224.50,,,,,0,00,0.0,,M,,M,0,0000*57
[2021-02-22 14:52:25.004] $GPGGA,055224.60,,,,,0,00,0.0,,M,,M,0,0000*54
[2021-02-22 14:52:25.097] $GPGGA,055224.70,,,,,0,00,0.0,,M,,M,0,0000*55
[2021-02-22 14:52:25.207] $GPGGA,055224.80,,,,,0,00,0.0,,M,,M,0,0000*5A
[2021-02-22 14:52:25.301] $GPGGA,055224.90,,,,,0,00,0.0,,M,,M,0,0000*5B
[2021-02-22 14:52:25.394] $GPGGA,055225.00,,,,,0,00,0.0,,M,,M,0,0000*53
[2021-02-22 14:52:25.488] $GPGGA,055225.10,,,,,0,00,0.0,,M,,M,0,0000*52
[2021-02-22 14:52:25.613] $GPGGA,055225.20,,,,,0,00,0.0,,M,,M,0,0000*51
[2021-02-22 14:52:25.722] $GPGGA,055225.30,3713.9366420,N,13701.4914872,E,1,06,1.7,89.6923,M,37.55,M,,*5A
[2021-02-22 14:52:25.816] $GPGGA,055225.40,3713.9366734,N,13701.4914267,E,1,08,1.7,89.7044,M,37.55,M,,*52
[2021-02-22 14:52:25.894] $GPGGA,055225.50,3713.9368499,N,13701.4912411,E,1,08,1.7,89.3155,M,37.55,M,,*5D
[2021-02-22 14:52:26.019] $GPGGA,055225.60,3713.9368410,N,13701.4912349,E,1,08,1.7,89.2476,M,37.55,M,,*50
[2021-02-22 14:52:26.097] $GPGGA,055225.70,3713.9369848,N,13701.4912697,E,1,08,1.7,89.0245,M,37.55,M,,*53
[2021-02-22 14:52:26.222] $GPGGA,055225.80,3713.9370484,N,13701.4912695,E,1,08,1.7,88.5473,M,37.55,M,,*5D
[2021-02-22 14:52:26.316] $GPGGA,055225.90,3713.9369254,N,13701.4914208,E,1,08,1.7,88.6375,M,37.55,M,,*5B
[2021-02-22 14:52:26.394] $GPGGA,055226.00,3713.9369717,N,13701.4913248,E,1,08,1.7,89.0059,M,37.55,M,,*5A
[2021-02-22 14:52:26.519] $GPGGA,055226.10,3713.9368674,N,13701.4914569,E,1,08,1.7,89.2101,M,37.55,M,,*53
[2021-02-22 14:52:26.597] $GPGGA,055226.20,3713.9370276,N,13701.4914685,E,1,08,1.7,89.0461,M,37.55,M,,*5F
[2021-02-22 14:52:26.722] $GPGGA,055226.30,3713.9369714,N,13701.4914589,E,1,08,1.7,89.0693,M,37.55,M,,*57
[2021-02-22 14:52:26.800] $GPGGA,055226.40,3713.9369340,N,13701.4914770,E,1,08,1.7,89.1240,M,37.55,M,,*5A
[2021-02-22 14:52:26.925] $GPGGA,055226.50,3713.9368382,N,13701.4914437,E,1,08,1.7,89.2229,M,37.55,M,,*58
[2021-02-22 14:52:27.004] $GPGGA,055226.60,3713.9367442,N,13701.4915112,E,1,08,1.7,89.0611,M,37.55,M,,*51
[2021-02-22 14:52:27.129] $GPGGA,055226.70,3713.9367273,N,13701.4914385,E,1,08,1.7,89.7821,M,37.55,M,,*53
[2021-02-22 14:52:27.191] $GPGGA,055226.80,3713.9366816,N,13701.4913437,E,1,08,1.7,90.4516,M,37.55,M,,*5F
[2021-02-22 14:52:27.316] $GPGGA,055226.90,3713.9367124,N,13701.4912855,E,1,08,1.7,90.2705,M,37.55,M,,*58
[2021-02-22 14:52:27.394] $GPGGA,055227.00,3713.9367060,N,13701.4912898,E,1,08,1.7,90.6069,M,37.55,M,,*59
[2021-02-22 14:52:27.519] $GPGGA,055227.10,3713.9366807,N,13701.4912398,E,1,08,1.7,91.0786,M,37.55,M,,*5A
[2021-02-22 14:52:27.597] $GPGGA,055227.20,3713.9365684,N,13701.4912742,E,1,08,1.7,92.1948,M,37.55,M,,*52
[2021-02-22 14:52:27.722] $GPGGA,055227.30,3713.9364784,N,13701.4912862,E,1,08,1.7,92.6497,M,37.55,M,,*56
[2021-02-22 14:52:27.800] $GPGGA,055227.40,3713.9364355,N,13701.4913989,E,1,08,1.7,92.7300,M,37.55,M,,*54
[2021-02-22 14:52:27.925] $GPGGA,055227.50,3713.9364827,N,13701.4913624,E,1,08,1.7,93.1518,M,37.55,M,,*5B
[2021-02-22 14:52:28.019] $GPGGA,055227.60,3713.9364173,N,13701.4913608,E,1,08,1.7,93.1862,M,37.55,M,,*5E
[2021-02-22 14:52:28.097] $GPGGA,055227.70,3713.9363578,N,13701.4913909,E,1,08,1.7,93.4495,M,37.55,M,,*58
[2021-02-22 14:52:28.222] $GPGGA,055227.80,3713.9362088,N,13701.4914565,E,1,08,1.7,94.2359,M,37.55,M,,*5B
[2021-02-22 14:52:28.300] $GPGGA,055227.90,3713.9362340,N,13701.4914756,E,1,08,1.7,94.0935,M,37.55,M,,*5D
[2021-02-22 14:52:28.425] $GPGGA,055228.00,3713.9361958,N,13701.4915549,E,1,08,1.7,93.8366,M,37.55,M,,*55
[2021-02-22 14:52:28.503] $GPGGA,055228.10,3713.9361463,N,13701.4915696,E,1,08,1.7,93.8364,M,37.55,M,,*52
[2021-02-22 14:52:28.628] $GPGGA,055228.20,3713.9361558,N,13701.4914886,E,1,08,1.7,93.4807,M,37.55,M,,*54
[2021-02-22 14:52:28.691] $GPGGA,055228.30,3713.9361034,N,13701.4914893,E,1,08,1.7,93.6971,M,37.55,M,,*5C
[2021-02-22 14:52:28.816] $GPGGA,055228.40,3713.9362102,N,13701.4915386,E,1,08,1.7,93.6229,M,37.55,M,,*54
[2021-02-22 14:52:28.894] $GPGGA,055228.50,3713.9362365,N,13701.4916788,E,1,08,1.7,93.1812,M,37.55,M,,*5A
[2021-02-22 14:52:29.019] $GPGGA,055228.60,3713.9362753,N,13701.4917383,E,1,08,1.7,92.2244,M,37.55,M,,*5D
[2021-02-22 14:52:29.097] $GPGGA,055228.70,3713.9363078,N,13701.4916464,E,1,08,1.7,92.2857,M,37.55,M,,*54
[2021-02-22 14:52:29.222] $GPGGA,055228.80,3713.9363110,N,13701.4916873,E,1,08,1.7,92.1890,M,37.55,M,,*56
[2021-02-22 14:52:29.300] $GPGGA,055228.90,3713.9362437,N,13701.4915548,E,1,08,1.7,92.1072,M,37.55,M,,*54
[2021-02-22 14:52:29.425] $GPGGA,055229.00,3713.9363802,N,13701.4914061,E,1,08,1.7,91.9622,M,37.55,M,,*50
[2021-02-22 14:52:29.488] $GPGGA,055229.10,3713.9364710,N,13701.4911660,E,1,08,1.7,91.9888,M,37.55,M,,*56
[2021-02-22 14:52:29.628] $GPGGA,055229.20,3713.9365120,N,13701.4911947,E,1,08,1.7,91.5814,M,37.55,M,,*52
[2021-02-22 14:52:29.691] $GPGGA,055229.30,3713.9365249,N,13701.4911740,E,1,08,1.7,91.2684,M,37.55,M,,*56
[2021-02-22 14:52:29.816] $GPGGA,055229.40,3713.9365618,N,13701.4911412,E,1,08,1.7,90.8514,M,37.55,M,,*54
[2021-02-22 14:52:29.925] $GPGGA,055229.50,3713.9366687,N,13701.4910861,E,1,08,1.7,90.4063,M,37.55,M,,*50
[2021-02-22 14:52:30.003] $GPGGA,055229.60,3713.9367156,N,13701.4911296,E,1,08,1.7,89.9853,M,37.55,M,,*54
[2021-02-22 14:52:30.128] $GPGGA,055229.70,3713.9366830,N,13701.4911116,E,1,08,1.7,90.3433,M,37.55,M,,*5E
[2021-02-22 14:52:30.191] $GPGGA,055229.80,3713.9367325,N,13701.4911959,E,1,08,1.7,90.4269,M,37.55,M,,*52
[2021-02-22 14:52:30.316] $GPGGA,055229.90,3713.9368507,N,13701.4912223,E,1,08,1.7,89.9652,M,37.55,M,,*56
[2021-02-22 14:52:30.394] $GPGGA,055230.00,3713.9368251,N,13701.4911917,E,1,08,1.7,89.8767,M,37.55,M,,*5A
[2021-02-22 14:52:30.535] $GPGGA,055230.10,3713.9368440,N,13701.4912790,E,1,08,1.7,89.7823,M,37.55,M,,*5F
[2021-02-22 14:52:30.597] $GPGGA,055230.20,3713.9369196,N,13701.4913526,E,1,08,1.7,89.6159,M,37.55,M,,*58
[2021-02-22 14:52:30.722] $GPGGA,055230.30,3713.9368524,N,13701.4914071,E,1,09,1.7,89.7306,M,37.55,M,,*5D
[2021-02-22 14:52:30.800] $GPGGA,055230.40,3713.9367799,N,13701.4913666,E,1,09,1.7,90.1066,M,37.55,M,,*5D
[2021-02-22 14:52:30.925] $GPGGA,055230.50,3713.9367697,N,13701.4913332,E,1,09,1.7,90.5770,M,37.55,M,,*53
[2021-02-22 14:52:31.003] $GPGGA,055230.60,3713.9367735,N,13701.4914017,E,1,09,1.7,89.9795,M,37.55,M,,*55
[2021-02-22 14:52:31.128] $GPGGA,055230.70,3713.9371006,N,13701.4914151,E,1,10,1.2,88.8874,M,37.55,M,,*5A
[2021-02-22 14:52:31.191] $GPGGA,055230.80,3713.9371030,N,13701.4913191,E,1,10,1.2,88.6843,M,37.55,M,,*51
[2021-02-22 14:52:31.316] $GPGGA,055230.90,3713.9371590,N,13701.4913556,E,1,10,1.2,89.0550,M,37.55,M,,*58
[2021-02-22 14:52:31.394] $GPGGA,055231.00,3713.9372119,N,13701.4913512,E,1,10,1.2,88.9151,M,37.55,M,,*5B
[2021-02-22 14:52:31.519] $GPGGA,055231.10,3713.9370831,N,13701.4913193,E,1,10,1.2,89.3776,M,37.55,M,,*5E
[2021-02-22 14:52:31.628] $GPGGA,055231.20,3713.9370837,N,13701.4913217,E,1,10,1.2,88.6471,M,37.55,M,,*54
[2021-02-22 14:52:31.706] $GPGGA,055231.30,3713.9370053,N,13701.4913409,E,1,10,1.2,88.5487,M,37.55,M,,*5C
[2021-02-22 14:52:31.816] $GPGGA,055231.40,3713.9369898,N,13701.4913142,E,1,10,1.2,88.7737,M,37.55,M,,*5C
[2021-02-22 14:52:31.894] $GPGGA,055231.50,3713.9368307,N,13701.4912916,E,1,10,1.2,88.6677,M,37.55,M,,*5D
[2021-02-22 14:52:32.019] $GPGGA,055231.60,3713.9367997,N,13701.4911940,E,1,10,1.2,88.8835,M,37.55,M,,*54
[2021-02-22 14:52:32.097] $GPGGA,055231.70,3713.9367764,N,13701.4911475,E,1,10,1.2,89.0804,M,37.55,M,,*57
[2021-02-22 14:52:32.613] $GPGGA,055231.80,3713.9368228,N,13701.4911789,E,1,10,1.2,88.9823,M,37.55,M,,*57
[2021-02-22 14:52:32.613] $GPGGA,055231.90,3713.9369121,N,13701.4912710,E,1,10,1.2,88.9250,M,37.55,M,,*50
[2021-02-22 14:52:32.613] $GPGGA,055232.00,3713.9369285,N,13701.4913105,E,1,10,1.2,88.5703,M,37.55,M,,*5B
[2021-02-22 14:52:32.613] $GPGGA,055232.10,3713.9369758,N,13701.4914274,E,1,10,1.2,88.3494,M,37.55,M,,*56
[2021-02-22 14:52:32.613] $GPGGA,055232.20,3713.9370714,N,13701.4912634,E,1,10,1.2,88.5305,M,37.55,M,,*5A
[2021-02-22 14:52:32.691] $GPGGA,055232.30,3713.9370732,N,13701.4911870,E,1,10,1.2,89.0340,M,37.55,M,,*57
[2021-02-22 14:52:32.816] $GPGGA,055232.40,3713.9370735,N,13701.4912930,E,1,10,1.2,88.9645,M,37.55,M,,*59
[2021-02-22 14:52:32.894] $GPGGA,055232.50,3713.9371005,N,13701.4912904,E,1,10,1.2,89.5397,M,37.55,M,,*5D
[2021-02-22 14:52:33.019] $GPGGA,055232.60,3713.9370983,N,13701.4912317,E,1,10,1.2,89.7336,M,37.55,M,,*59
[2021-02-22 14:52:33.097] $GPGGA,055232.70,3713.9371024,N,13701.4912574,E,1,10,1.2,89.9003,M,37.55,M,,*55
[2021-02-22 14:52:33.222] $GPGGA,055232.80,3713.9370136,N,13701.4912315,E,1,10,1.2,89.4015,M,37.55,M,,*52
[2021-02-22 14:52:33.300] $GPGGA,055232.90,3713.9369970,N,13701.4912612,E,1,10,1.2,89.3456,M,37.55,M,,*57
[2021-02-22 14:52:33.409] $GPGGA,055233.00,3713.9369860,N,13701.4912981,E,1,10,1.2,89.2256,M,37.55,M,,*5D
[2021-02-22 14:52:33.519] $GPGGA,055233.10,3713.9369783,N,13701.4911955,E,1,10,1.2,89.3248,M,37.55,M,,*5A
[2021-02-22 14:52:33.597] $GPGGA,055233.20,3713.9370538,N,13701.4911578,E,1,10,1.2,89.1775,M,37.55,M,,*59
[2021-02-22 14:52:33.722] $GPGGA,055233.30,3713.9369561,N,13701.4911461,E,1,10,1.2,89.0558,M,37.55,M,,*59
[2021-02-22 14:52:33.800] $GPGGA,055233.40,3713.9369407,N,13701.4910657,E,1,10,1.2,89.2008,M,37.55,M,,*5B
[2021-02-22 14:52:33.925] $GPGGA,055233.50,3713.9369700,N,13701.4910273,E,1,10,1.2,89.1101,M,37.55,M,,*57
[2021-02-22 14:52:34.003] $GPGGA,055233.60,3713.9370629,N,13701.4910639,E,1,10,1.2,89.3418,M,37.55,M,,*53
[2021-02-22 14:52:34.112] $GPGGA,055233.70,3713.9369474,N,13701.4911293,E,1,10,1.2,89.5074,M,37.55,M,,*5D
[2021-02-22 14:52:34.191] $GPGGA,055233.80,3713.9369008,N,13701.4911022,E,1,10,1.2,89.7270,M,37.55,M,,*51
[2021-02-22 14:52:34.316] $GPGGA,055233.90,3713.9368618,N,13701.4911447,E,1,10,1.2,89.8833,M,37.55,M,,*53
[2021-02-22 14:52:34.394] $GPGGA,055234.00,3713.9368469,N,13701.4911736,E,1,10,1.2,90.0176,M,37.55,M,,*54
[2021-02-22 14:52:34.519] $GPGGA,055234.10,3713.9369307,N,13701.4911967,E,1,10,1.2,89.9470,M,37.55,M,,*53
[2021-02-22 14:52:34.597] $GPGGA,055234.20,3713.9367764,N,13701.4911351,E,1,10,1.2,89.9557,M,37.55,M,,*54
[2021-02-22 14:52:34.722] $GPGGA,055234.30,3713.9366924,N,13701.4912991,E,1,10,1.2,89.7184,M,37.55,M,,*5F
[2021-02-22 14:52:34.800] $GPGGA,055234.40,3713.9367183,N,13701.4913718,E,1,10,1.2,88.9952,M,37.55,M,,*5E
[2021-02-22 14:52:34.925] $GPGGA,055234.50,3713.9367180,N,13701.4913863,E,1,10,1.2,89.4356,M,37.55,M,,*5D
[2021-02-22 14:52:35.003] $GPGGA,055234.60,3713.9368345,N,13701.4913006,E,1,10,1.2,89.4951,M,37.55,M,,*5C
[2021-02-22 14:52:35.128] $GPGGA,055234.70,3713.9367561,N,13701.4913355,E,1,10,1.2,89.6110,M,37.55,M,,*58
[2021-02-22 14:52:35.909] $GPGGA,055234.80,3713.9368069,N,13701.4913281,E,1,10,1.2,89.2557,M,37.55,M,,*5E
[2021-02-22 14:52:35.909] $GPGGA,055234.90,3713.9369067,N,13701.4913450,E,1,10,1.2,88.9322,M,37.55,M,,*54
[2021-02-22 14:52:35.909] $GPGGA,055235.00,3713.9370033,N,13701.4913069,E,1,10,1.2,88.9940,M,37.55,M,,*55
[2021-02-22 14:52:35.909] $GPGGA,055235.10,3713.9369190,N,13701.4913602,E,1,10,1.2,89.0473,M,37.55,M,,*5A
[2021-02-22 14:52:35.909] $GPGGA,055235.20,3713.9369042,N,13701.4914331,E,1,10,1.2,89.0486,M,37.55,M,,*5F
[2021-02-22 14:52:35.909] $GPGGA,055235.30,3713.9369733,N,13701.4913859,E,1,10,1.2,89.1374,M,37.55,M,,*56
[2021-02-22 14:52:35.909] $GPGGA,055235.40,3713.9369868,N,13701.4913875,E,1,10,1.2,88.9993,M,37.55,M,,*54
[2021-02-22 14:52:35.909] $GPGGA,055235.50,3713.9369674,N,13701.4912965,E,1,10,1.2,89.1677,M,37.55,M,,*5B
[2021-02-22 14:52:36.019] $GPGGA,055235.60,3713.9370324,N,13701.4913101,E,1,10,1.2,88.9703,M,37.55,M,,*50
[2021-02-22 14:52:36.097] $GPGGA,055235.70,3713.9370928,N,13701.4912938,E,1,10,1.2,88.7039,M,37.55,M,,*54
[2021-02-22 14:52:36.222] $GPGGA,055235.80,3713.9371632,N,13701.4913265,E,1,10,1.2,88.4625,M,37.55,M,,*54
[2021-02-22 14:52:36.300] $GPGGA,055235.90,3713.9370454,N,13701.4913795,E,1,10,1.2,88.8230,M,37.55,M,,*50
[2021-02-22 14:52:36.425] $GPGGA,055236.00,3713.9370159,N,13701.4913501,E,1,10,1.2,89.1247,M,37.55,M,,*55
[2021-02-22 14:52:36.503] $GPGGA,055236.10,3713.9369890,N,13701.4914483,E,1,10,1.2,88.6210,M,37.55,M,,*58
[2021-02-22 14:52:36.612] $GPGGA,055236.20,3713.9370539,N,13701.4914928,E,1,10,1.2,88.7152,M,37.55,M,,*55
[2021-02-22 14:52:36.690] $GPGGA,055236.30,3713.9370918,N,13701.4914990,E,1,10,1.2,88.3075,M,37.55,M,,*58
[2021-02-22 14:52:36.815] $GPGGA,055236.40,3713.9370581,N,13701.4915424,E,1,10,1.2,88.4217,M,37.55,M,,*51
[2021-02-22 14:52:36.925] $GPGGA,055236.50,3713.9369533,N,13701.4914902,E,1,10,1.2,88.4929,M,37.55,M,,*5F
[2021-02-22 14:52:37.003] $GPGGA,055236.60,3713.9369104,N,13701.4916047,E,1,10,1.2,88.5842,M,37.55,M,,*5B
[2021-02-22 14:52:37.128] $GPGGA,055236.70,3713.9368054,N,13701.4916982,E,1,10,1.2,88.6576,M,37.55,M,,*56
[2021-02-22 14:52:37.190] $GPGGA,055236.80,3713.9368291,N,13701.4917011,E,1,10,1.2,88.6970,M,37.55,M,,*5A
[2021-02-22 14:52:37.315] $GPGGA,055236.90,3713.9368852,N,13701.4917032,E,1,10,1.2,88.8810,M,37.55,M,,*56
[2021-02-22 14:52:37.394] $GPGGA,055237.00,3713.9368930,N,13701.4916858,E,1,10,1.2,88.4631,M,37.55,M,,*5F
[2021-02-22 14:52:37.518] $GPGGA,055237.10,3713.9368815,N,13701.4916727,E,1,10,1.2,88.2694,M,37.55,M,,*56
[2021-02-22 14:52:37.597] $GPGGA,055237.20,3713.9369651,N,13701.4916751,E,1,10,1.2,88.2722,M,37.55,M,,*57
[2021-02-22 14:52:37.722] $GPGGA,055237.30,3713.9369513,N,13701.4916205,E,1,10,1.2,88.4539,M,37.55,M,,*59
[2021-02-22 14:52:37.800] $GPGGA,055237.40,3713.9369646,N,13701.4916943,E,1,10,1.2,88.8334,M,37.55,M,,*53
[2021-02-22 14:52:37.925] $GPGGA,055237.50,3713.9369919,N,13701.4917700,E,1,10,1.2,88.6551,M,37.55,M,,*54
[2021-02-22 14:52:38.003] $GPGGA,055237.60,3713.9369051,N,13701.4917870,E,1,10,1.2,88.5552,M,37.55,M,,*5A
[2021-02-22 14:52:38.112] $GPGGA,055237.70,3713.9368918,N,13701.4917505,E,1,10,1.2,88.9262,M,37.55,M,,*59
[2021-02-22 14:52:38.190] $GPGGA,055237.80,3713.9369065,N,13701.4916027,E,1,10,1.2,89.4715,M,37.55,M,,*59
[2021-02-22 14:52:38.315] $GPGGA,055237.90,3713.9369179,N,13701.4915330,E,1,10,1.2,89.6783,M,37.55,M,,*5F
[2021-02-22 14:52:38.393] $GPGGA,055238.00,3713.9369007,N,13701.4915589,E,1,10,1.2,89.3711,M,37.55,M,,*5B
[2021-02-22 14:52:38.518] $GPGGA,055238.10,3713.9370318,N,13701.4914023,E,1,11,1.2,89.9091,M,37.55,M,,*5F
[2021-02-22 14:52:38.596] $GPGGA,055238.20,3713.9369929,N,13701.4913799,E,1,11,1.2,90.0452,M,37.55,M,,*57
[2021-02-22 14:52:38.721] $GPGGA,055238.30,3713.9370227,N,13701.4913580,E,1,11,1.2,89.7982,M,37.55,M,,*5E
[2021-02-22 14:52:38.815] $GPGGA,055238.40,3713.9371003,N,13701.4913676,E,1,11,1.2,89.5645,M,37.55,M,,*50
[2021-02-22 14:52:38.893] $GPGGA,055238.50,3713.9371213,N,13701.4914162,E,1,11,1.2,89.3560,M,37.55,M,,*55
[2021-02-22 14:52:39.018] $GPGGA,055238.60,3713.9370953,N,13701.4915116,E,1,11,1.2,89.0365,M,37.55,M,,*5A
[2021-02-22 14:52:39.097] $GPGGA,055238.70,3713.9371674,N,13701.4916312,E,1,11,1.2,88.9098,M,37.55,M,,*5C
[2021-02-22 14:52:39.221] $GPGGA,055238.80,3713.9371728,N,13701.4917261,E,1,11,1.2,88.8673,M,37.55,M,,*5D
[2021-02-22 14:52:39.300] $GPGGA,055238.90,3713.9372204,N,13701.4916614,E,1,11,1.2,88.9851,M,37.55,M,,*5C
[2021-02-22 14:52:39.425] $GPGGA,055239.00,3713.9372216,N,13701.4917377,E,1,11,1.2,89.2435,M,37.55,M,,*52
[2021-02-22 14:52:39.503] $GPGGA,055239.10,3713.9372164,N,13701.4918228,E,1,11,1.2,89.4066,M,37.55,M,,*55
[2021-02-22 14:52:39.628] $GPGGA,055239.20,3713.9371684,N,13701.4916847,E,1,11,1.2,89.6920,M,37.55,M,,*58
[2021-02-22 14:52:39.690] $GPGGA,055239.30,3713.9372920,N,13701.4917646,E,1,11,1.2,89.5542,M,37.55,M,,*5E
[2021-02-22 14:52:39.831] $GPGGA,055239.40,3713.9372280,N,13701.4916681,E,1,11,1.2,90.1082,M,37.55,M,,*57
[2021-02-22 14:52:39.893] $GPGGA,055239.50,3713.9372218,N,13701.4917038,E,1,11,1.2,89.9518,M,37.55,M,,*54
[2021-02-22 14:52:40.018] $GPGGA,055239.60,3713.9372069,N,13701.4915678,E,1,11,1.2,90.2023,M,37.55,M,,*5D
[2021-02-22 14:52:40.096] $GPGGA,055239.70,3713.9371696,N,13701.4915744,E,1,11,1.2,90.2992,M,37.55,M,,*54
[2021-02-22 14:52:40.221] $GPGGA,055239.80,3713.9370668,N,13701.4915312,E,1,11,1.2,90.9136,M,37.55,M,,*51
[2021-02-22 14:52:40.299] $GPGGA,055239.90,3713.9371682,N,13701.4914455,E,1,11,1.2,90.9754,M,37.55,M,,*52
[2021-02-22 14:52:40.409] $GPGGA,055240.00,3713.9371890,N,13701.4913787,E,1,11,1.2,90.7799,M,37.55,M,,*5C
[2021-02-22 14:52:40.518] $GPGGA,055240.10,3713.9371601,N,13701.4913692,E,1,11,1.2,90.4782,M,37.55,M,,*57
[2021-02-22 14:52:40.596] $GPGGA,055240.20,3713.9371148,N,13701.4913135,E,1,11,1.2,90.6103,M,37.55,M,,*59
[2021-02-22 14:52:40.721] $GPGGA,055240.30,3713.9371084,N,13701.4914707,E,1,11,1.2,90.4053,M,37.55,M,,*5F
[2021-02-22 14:52:40.799] $GPGGA,055240.40,3713.9371187,N,13701.4915405,E,1,11,1.2,90.3343,M,37.55,M,,*5F
[2021-02-22 14:52:40.924] $GPGGA,055240.50,3713.9371676,N,13701.4915911,E,1,11,1.2,90.0802,M,37.55,M,,*52
[2021-02-22 14:52:41.003] $GPGGA,055240.60,3713.9372108,N,13701.4915815,E,1,11,1.2,89.8000,M,37.55,M,,*53
[2021-02-22 14:52:41.112] $GPGGA,055240.70,3713.9372484,N,13701.4915077,E,1,11,1.2,89.7019,M,37.55,M,,*58
[2021-02-22 14:52:41.190] $GPGGA,055240.80,3713.9373173,N,13701.4914624,E,1,11,1.2,89.5654,M,37.55,M,,*57
[2021-02-22 14:52:41.315] $GPGGA,055240.90,3713.9372282,N,13701.4915193,E,1,11,1.2,89.4168,M,37.55,M,,*59
[2021-02-22 14:52:41.393] $GPGGA,055241.00,3713.9372026,N,13701.4915598,E,1,11,1.2,89.4923,M,37.55,M,,*55
[2021-02-22 14:52:41.518] $GPGGA,055241.10,3713.9371439,N,13701.4916161,E,1,11,1.2,89.2561,M,37.55,M,,*50
[2021-02-22 14:52:41.596] $GPGGA,055241.20,3713.9371754,N,13701.4915413,E,1,11,1.2,89.3337,M,37.55,M,,*5C
[2021-02-22 14:52:41.721] $GPGGA,055241.30,3713.9372136,N,13701.4915613,E,1,11,1.2,89.3461,M,37.55,M,,*5A
[2021-02-22 14:52:41.799] $GPGGA,055241.40,3713.9371846,N,13701.4915542,E,1,11,1.2,89.4377,M,37.55,M,,*50
[2021-02-22 14:52:41.909] $GPGGA,055241.50,3713.9372136,N,13701.4916637,E,1,11,1.2,89.3667,M,37.55,M,,*5D
[2021-02-22 14:52:42.002] $GPGGA,055241.60,3713.9371689,N,13701.4916428,E,1,11,1.2,89.1709,M,37.55,M,,*59
[2021-02-22 14:52:42.112] $GPGGA,055241.70,3713.9371728,N,13701.4916687,E,1,11,1.2,89.0045,M,37.55,M,,*5B
[2021-02-22 14:52:42.190] $GPGGA,055241.80,3713.9372197,N,13701.4916391,E,1,11,1.2,88.9694,M,37.55,M,,*55
[2021-02-22 14:52:42.315] $GPGGA,055241.90,3713.9372254,N,13701.4916158,E,1,11,1.2,88.7466,M,37.55,M,,*5E
[2021-02-22 14:52:42.424] $GPGGA,055242.00,3713.9372301,N,13701.4915514,E,1,11,1.2,88.5995,M,37.55,M,,*59
[2021-02-22 14:52:42.502] $GPGGA,055242.10,3713.9372454,N,13701.4914892,E,1,11,1.2,88.8600,M,37.55,M,,*53
[2021-02-22 14:52:42.612] $GPGGA,055242.20,3713.9371298,N,13701.4915369,E,1,11,1.2,88.8266,M,37.55,M,,*5F
[2021-02-22 14:52:42.690] $GPGGA,055242.30,3713.9370840,N,13701.4916437,E,1,11,1.2,89.0765,M,37.55,M,,*50
[2021-02-22 14:52:42.815] $GPGGA,055242.40,3713.9369679,N,13701.4916325,E,1,11,1.2,89.3802,M,37.55,M,,*52
[2021-02-22 14:52:42.893] $GPGGA,055242.50,3713.9368349,N,13701.4915076,E,1,11,1.2,90.0577,M,37.55,M,,*56
[2021-02-22 14:52:43.018] $GPGGA,055242.60,3713.9368484,N,13701.4915561,E,1,11,1.2,90.5115,M,37.55,M,,*55
[2021-02-22 14:52:43.096] $GPGGA,055242.70,3713.9367853,N,13701.4916272,E,1,11,1.2,90.3227,M,37.55,M,,*5F
[2021-02-22 14:52:43.221] $GPGGA,055242.80,3713.9367842,N,13701.4917516,E,1,11,1.2,90.2262,M,37.55,M,,*54
[2021-02-22 14:52:43.299] $GPGGA,055242.90,3713.9367377,N,13701.4916818,E,1,11,1.2,90.2296,M,37.55,M,,*51
[2021-02-22 14:52:43.424] $GPGGA,055243.00,3713.9366293,N,13701.4914852,E,1,11,1.2,90.5241,M,37.55,M,,*52
[2021-02-22 14:52:43.502] $GPGGA,055243.10,3713.9366118,N,13701.4913690,E,1,11,1.2,90.1672,M,37.55,M,,*54
[2021-02-22 14:52:43.612] $GPGGA,055243.20,3713.9366201,N,13701.4912667,E,1,11,1.2,90.1250,M,37.55,M,,*51
[2021-02-22 14:52:43.721] $GPGGA,055243.30,3713.9365324,N,13701.4912193,E,1,11,1.2,89.8704,M,37.55,M,,*5C
[2021-02-22 14:52:43.815] $GPGGA,055243.40,3713.9367183,N,13701.4912110,E,1,11,1.2,89.8896,M,37.55,M,,*59
[2021-02-22 14:52:43.893] $GPGGA,055243.50,3713.9365512,N,13701.4908958,E,1,12,1.1,89.6207,M,37.55,M,,*55
[2021-02-22 14:52:44.018] $GPGGA,055243.60,3713.9365080,N,13701.4909279,E,1,12,1.1,89.7255,M,37.55,M,,*57
[2021-02-22 14:52:44.127] $GPGGA,055243.70,3713.9364979,N,13701.4909441,E,1,12,1.1,89.3704,M,37.55,M,,*50
[2021-02-22 14:52:44.205] $GPGGA,055243.80,3713.9364402,N,13701.4908266,E,1,12,1.1,89.5903,M,37.55,M,,*53
[2021-02-22 14:52:44.330] $GPGGA,055243.90,3713.9366247,N,13701.4908377,E,1,12,1.1,89.2062,M,37.55,M,,*5F
[2021-02-22 14:52:44.393] $GPGGA,055244.00,3713.9367105,N,13701.4909909,E,1,12,1.1,88.9577,M,37.55,M,,*5C
[2021-02-22 14:52:44.518] $GPGGA,055244.10,3713.9366633,N,13701.4909977,E,1,12,1.1,88.9014,M,37.55,M,,*57
[2021-02-22 14:52:44.596] $GPGGA,055244.20,3713.9365874,N,13701.4909116,E,1,12,1.1,88.9592,M,37.55,M,,*5E
[2021-02-22 14:52:44.721] $GPGGA,055244.30,3713.9366091,N,13701.4910121,E,1,12,1.1,88.4877,M,37.55,M,,*58
[2021-02-22 14:52:44.799] $GPGGA,055244.40,3713.9366632,N,13701.4909807,E,1,12,1.1,88.3214,M,37.55,M,,*5D
[2021-02-22 14:52:44.924] $GPGGA,055244.50,3713.9367289,N,13701.4908537,E,1,12,1.1,88.8093,M,37.55,M,,*50
[2021-02-22 14:52:45.002] $GPGGA,055244.60,3713.9367414,N,13701.4908827,E,1,12,1.1,88.7146,M,37.55,M,,*5B
[2021-02-22 14:52:45.127] $GPGGA,055244.70,3713.9367439,N,13701.4909161,E,1,12,1.1,88.8502,M,37.55,M,,*54
[2021-02-22 14:52:45.190] $GPGGA,055244.80,3713.9368062,N,13701.4908844,E,1,13,1.1,88.8754,M,37.55,M,,*51
[2021-02-22 14:52:45.330] $GPGGA,055244.90,3713.9368756,N,13701.4910607,E,1,13,1.1,88.7324,M,37.55,M,,*5C
[2021-02-22 14:52:45.393] $GPGGA,055245.00,3713.9368833,N,13701.4910571,E,1,13,1.1,88.6677,M,37.55,M,,*58
[2021-02-22 14:52:45.518] $GPGGA,055245.10,3713.9368937,N,13701.4910976,E,1,13,1.1,88.7273,M,37.55,M,,*56
[2021-02-22 14:52:45.596] $GPGGA,055245.20,3713.9369462,N,13701.4911681,E,1,13,1.1,88.5719,M,37.55,M,,*54
[2021-02-22 14:52:45.721] $GPGGA,055245.30,3713.9369222,N,13701.4911265,E,1,13,1.1,88.8748,M,37.55,M,,*50
[2021-02-22 14:52:45.799] $GPGGA,055245.40,3713.9369505,N,13701.4910581,E,1,13,1.1,89.0085,M,37.55,M,,*56
[2021-02-22 14:52:45.924] $GPGGA,055245.50,3713.9370058,N,13701.4911464,E,1,13,1.1,88.8642,M,37.55,M,,*5D
[2021-02-22 14:52:46.018] $GPGGA,055245.60,3713.9370027,N,13701.4911357,E,1,13,1.1,88.9886,M,37.55,M,,*56
[2021-02-22 14:52:46.096] $GPGGA,055245.70,3713.9369248,N,13701.4910993,E,1,13,1.1,89.4290,M,37.55,M,,*56
[2021-02-22 14:52:46.221] $GPGGA,055245.80,3713.9368856,N,13701.4911196,E,1,13,1.1,89.5614,M,37.55,M,,*58
[2021-02-22 14:52:46.299] $GPGGA,055245.90,3713.9367976,N,13701.4910782,E,1,13,1.1,89.7195,M,37.55,M,,*5B
[2021-02-22 14:52:46.424] $GPGGA,055246.00,3713.9368903,N,13701.4911318,E,1,13,1.1,89.5798,M,37.55,M,,*53
[2021-02-22 14:52:46.502] $GPGGA,055246.10,3713.9369172,N,13701.4910324,E,1,13,1.1,89.6729,M,37.55,M,,*5A
[2021-02-22 14:52:46.627] $GPGGA,055246.20,3713.9368846,N,13701.4910121,E,1,13,1.1,89.4056,M,37.55,M,,*5C
[2021-02-22 14:52:46.705] $GPGGA,055246.30,3713.9369309,N,13701.4909867,E,1,13,1.1,89.5686,M,37.55,M,,*55
[2021-02-22 14:52:46.815] $GPGGA,055246.40,3713.9369613,N,13701.4910275,E,1,13,1.1,89.3924,M,37.55,M,,*5C
[2021-02-22 14:52:46.893] $GPGGA,055246.50,3713.9370110,N,13701.4909675,E,1,13,1.1,89.3046,M,37.55,M,,*50
[2021-02-22 14:52:47.018] $GPGGA,055246.60,3713.9370125,N,13701.4910576,E,1,13,1.1,89.3292,M,37.55,M,,*56
[2021-02-22 14:52:47.096] $GPGGA,055246.70,3713.9369628,N,13701.4909891,E,1,13,1.1,89.5556,M,37.55,M,,*50
[2021-02-22 14:52:47.221] $GPGGA,055246.80,3713.9369803,N,13701.4909575,E,1,13,1.1,89.6057,M,37.55,M,,*58
[2021-02-22 14:52:47.299] $GPGGA,055246.90,3713.9370748,N,13701.4910354,E,1,13,1.1,89.3858,M,37.55,M,,*5E
[2021-02-22 14:52:47.424] $GPGGA,055247.00,3713.9370535,N,13701.4910796,E,1,13,1.1,89.4150,M,37.55,M,,*52
[2021-02-22 14:52:47.502] $GPGGA,055247.10,3713.9369947,N,13701.4909476,E,1,13,1.1,89.8001,M,37.55,M,,*5E
[2021-02-22 14:52:47.643] $GPGGA,055247.20,3713.9370705,N,13701.4901972,E,5,09,1.8,95.5183,M,37.55,M,5,0000*64
[2021-02-22 14:52:47.737] $GPGGA,055247.30,3713.9370475,N,13701.4901655,E,5,09,1.8,95.5473,M,37.55,M,5,0000*61
[2021-02-22 14:52:47.815] $GPGGA,055247.40,3713.9370405,N,13701.4901532,E,5,09,1.8,95.5210,M,37.55,M,5,0000*60
[2021-02-22 14:52:47.940] $GPGGA,055247.50,3713.9369967,N,13701.4901729,E,5,09,1.8,95.4753,M,37.55,M,5,0000*6B
[2021-02-22 14:52:48.018] $GPGGA,055247.60,3713.9369875,N,13701.4901479,E,5,09,1.8,95.5238,M,37.55,M,5,0000*65
[2021-02-22 14:52:48.143] $GPGGA,055247.70,3713.9369730,N,13701.4901084,E,5,09,1.8,95.5854,M,37.55,M,5,0000*6C
[2021-02-22 14:52:48.221] $GPGGA,055247.80,3713.9369668,N,13701.4900883,E,5,09,1.8,95.5774,M,37.55,M,5,0000*6C
[2021-02-22 14:52:48.330] $GPGGA,055247.90,3713.9369649,N,13701.4900661,E,5,09,1.8,95.5653,M,37.55,M,5,0000*68
[2021-02-22 14:52:48.408] $GPGGA,055248.00,3713.9369621,N,13701.4900494,E,5,09,1.8,95.5335,M,37.55,M,6,0000*6E
[2021-02-22 14:52:48.518] $GPGGA,055248.10,3713.9369606,N,13701.4900329,E,5,09,1.8,95.5004,M,37.55,M,6,0000*6A
[2021-02-22 14:52:48.643] $GPGGA,055248.20,3713.9369656,N,13701.4900238,E,5,09,1.8,95.5087,M,37.55,M,1,0000*61
[2021-02-22 14:52:48.736] $GPGGA,055248.30,3713.9369684,N,13701.4900149,E,5,09,1.8,95.5339,M,37.55,M,1,0000*6C
[2021-02-22 14:52:48.815] $GPGGA,055248.40,3713.9369779,N,13701.4900006,E,5,09,1.8,95.6009,M,37.55,M,1,0000*61
[2021-02-22 14:52:48.940] $GPGGA,055248.50,3713.9369857,N,13701.4899826,E,5,09,1.8,95.6707,M,37.55,M,1,0000*61
[2021-02-22 14:52:49.018] $GPGGA,055248.60,3713.9369942,N,13701.4899701,E,5,09,1.8,95.7472,M,37.55,M,1,0000*6D
[2021-02-22 14:52:49.127] $GPGGA,055248.70,3713.9369993,N,13701.4899563,E,5,09,1.8,95.8119,M,37.55,M,1,0000*61
[2021-02-22 14:52:49.205] $GPGGA,055248.80,3713.9370049,N,13701.4899389,E,5,09,1.8,95.8767,M,37.55,M,1,0000*65
[2021-02-22 14:52:49.330] $GPGGA,055248.90,3713.9370106,N,13701.4899345,E,5,09,1.8,95.9012,M,37.55,M,1,0000*6A
[2021-02-22 14:52:49.408] $GPGGA,055249.00,3713.9370178,N,13701.4899173,E,5,09,1.8,95.9010,M,37.55,M,2,0000*6D
[2021-02-22 14:52:49.533] $GPGGA,055249.10,3713.9370050,N,13701.4899648,E,5,11,1.3,95.7751,M,37.55,M,2,0000*66
[2021-02-22 14:52:49.643] $GPGGA,055249.20,3713.9369901,N,13701.4900062,E,5,11,1.3,95.6410,M,37.55,M,2,0000*68
[2021-02-22 14:52:49.721] $GPGGA,055249.30,3713.9369798,N,13701.4900345,E,5,11,1.3,95.5357,M,37.55,M,2,0000*66
[2021-02-22 14:52:49.846] $GPGGA,055249.40,3713.9369682,N,13701.4900713,E,5,11,1.3,95.4458,M,37.55,M,2,0000*65
[2021-02-22 14:52:49.924] $GPGGA,055249.50,3713.9369603,N,13701.4901069,E,5,11,1.3,95.3468,M,37.55,M,2,0000*62
[2021-02-22 14:52:50.049] $GPGGA,055249.60,3713.9369470,N,13701.4901356,E,5,11,1.3,95.2553,M,37.55,M,2,0000*60
[2021-02-22 14:52:50.127] $GPGGA,055249.70,3713.9369380,N,13701.4901506,E,5,11,1.3,95.1825,M,37.55,M,2,0000*65
[2021-02-22 14:52:50.236] $GPGGA,055249.80,3713.9369352,N,13701.4901633,E,5,11,1.3,95.1080,M,37.55,M,2,0000*67
[2021-02-22 14:52:50.330] $GPGGA,055249.90,3713.9369313,N,13701.4901803,E,5,11,1.3,95.0414,M,37.55,M,2,0000*66
[2021-02-22 14:52:50.439] $GPGGA,055250.00,3713.9369303,N,13701.4901970,E,5,11,1.3,94.9822,M,37.55,M,3,0000*63
[2021-02-22 14:52:50.533] $GPGGA,055250.10,3713.9369292,N,13701.4902106,E,5,11,1.3,94.9326,M,37.55,M,3,0000*6E
[2021-02-22 14:52:50.643] $GPGGA,055250.20,3713.9369281,N,13701.4902156,E,5,11,1.3,94.8952,M,37.55,M,3,0000*62
[2021-02-22 14:52:50.721] $GPGGA,055250.30,3713.9369280,N,13701.4902220,E,5,11,1.3,94.8696,M,37.55,M,3,0000*67
[2021-02-22 14:52:50.846] $GPGGA,055250.40,3713.9369279,N,13701.4902251,E,5,11,1.3,94.8480,M,37.55,M,3,0000*65
[2021-02-22 14:52:50.924] $GPGGA,055250.50,3713.9369281,N,13701.4902242,E,5,11,1.3,94.8125,M,37.55,M,3,0000*6B
[2021-02-22 14:52:51.049] $GPGGA,055250.60,3713.9369264,N,13701.4902261,E,5,11,1.3,94.7822,M,37.55,M,3,0000*63
[2021-02-22 14:52:51.127] $GPGGA,055250.70,3713.9369253,N,13701.4902294,E,5,11,1.3,94.7718,M,37.55,M,3,0000*6A
[2021-02-22 14:52:51.236] $GPGGA,055250.80,3713.9369239,N,13701.4902335,E,5,11,1.3,94.7657,M,37.55,M,3,0000*69
[2021-02-22 14:52:51.346] $GPGGA,055250.90,3713.9369249,N,13701.4902362,E,5,11,1.3,94.7652,M,37.55,M,3,0000*68
[2021-02-22 14:52:51.424] $GPGGA,055251.00,3713.9369246,N,13701.4902393,E,5,11,1.3,94.7553,M,37.55,M,4,0000*64
[2021-02-22 14:52:51.549] $GPGGA,055251.10,3713.9369261,N,13701.4902420,E,5,11,1.3,94.7488,M,37.55,M,4,0000*68
[2021-02-22 14:52:51.627] $GPGGA,055251.20,3713.9369249,N,13701.4902475,E,5,11,1.3,94.7332,M,37.55,M,4,0000*67
[2021-02-22 14:52:51.752] $GPGGA,055251.30,3713.9369238,N,13701.4902499,E,5,11,1.3,94.7256,M,37.55,M,4,0000*61
[2021-02-22 14:52:51.830] $GPGGA,055251.40,3713.9369247,N,13701.4902491,E,5,11,1.3,94.7244,M,37.55,M,4,0000*65
[2021-02-22 14:52:51.939] $GPGGA,055251.50,3713.9369241,N,13701.4902480,E,5,11,1.3,94.7153,M,37.55,M,4,0000*67
[2021-02-22 14:52:52.017] $GPGGA,055251.60,3713.9369223,N,13701.4902483,E,5,11,1.3,94.7020,M,37.55,M,4,0000*66
[2021-02-22 14:52:52.142] $GPGGA,055251.70,3713.9369205,N,13701.4902469,E,5,11,1.3,94.6968,M,37.55,M,4,0000*63
[2021-02-22 14:52:52.236] $GPGGA,055251.80,3713.9369189,N,13701.4902455,E,5,11,1.3,94.6968,M,37.55,M,4,0000*64
[2021-02-22 14:52:52.346] $GPGGA,055251.90,3713.9369199,N,13701.4902433,E,5,11,1.3,94.7019,M,37.55,M,4,0000*6A
[2021-02-22 14:52:52.424] $GPGGA,055252.00,3713.9369199,N,13701.4902445,E,5,11,1.3,94.6941,M,37.55,M,5,0000*65
[2021-02-22 14:52:52.517] $GPGGA,055252.10,3713.9369210,N,13701.4902472,E,5,11,1.3,94.6891,M,37.55,M,5,0000*6E
[2021-02-22 14:52:52.642] $GPGGA,055252.20,3713.9369210,N,13701.4902449,E,5,11,1.3,94.6946,M,37.55,M,5,0000*6E
[2021-02-22 14:52:52.736] $GPGGA,055252.30,3713.9369202,N,13701.4902399,E,5,11,1.3,94.6996,M,37.55,M,5,0000*6B
[2021-02-22 14:52:52.814] $GPGGA,055252.40,3713.9369193,N,13701.4902384,E,5,11,1.3,94.6990,M,37.55,M,5,0000*6D
[2021-02-22 14:52:52.939] $GPGGA,055252.50,3713.9369183,N,13701.4902382,E,5,11,1.3,94.7067,M,37.55,M,5,0000*6B
[2021-02-22 14:52:53.049] $GPGGA,055252.60,3713.9369172,N,13701.4902374,E,5,11,1.3,94.7214,M,37.55,M,5,0000*69
[2021-02-22 14:52:53.127] $GPGGA,055252.70,3713.9369167,N,13701.4902372,E,5,11,1.3,94.7266,M,37.55,M,5,0000*6F
[2021-02-22 14:52:53.252] $GPGGA,055252.80,3713.9369149,N,13701.4902364,E,5,11,1.3,94.7278,M,37.55,M,5,0000*64
[2021-02-22 14:52:53.330] $GPGGA,055252.90,3713.9369119,N,13701.4902371,E,5,11,1.3,94.7216,M,37.55,M,5,0000*6C
[2021-02-22 14:52:53.455] $GPGGA,055253.00,3713.9369096,N,13701.4902381,E,5,11,1.3,94.7114,M,37.55,M,6,0000*6F
[2021-02-22 14:52:53.549] $GPGGA,055253.10,3713.9369079,N,13701.4902410,E,5,11,1.3,94.7150,M,37.55,M,6,0000*60
[2021-02-22 14:52:53.642] $GPGGA,055253.20,3713.9369055,N,13701.4902425,E,5,11,1.3,94.7173,M,37.55,M,1,0000*6D
[2021-02-22 14:52:53.720] $GPGGA,055253.30,3713.9369044,N,13701.4902445,E,5,11,1.3,94.7186,M,37.55,M,1,0000*60
[2021-02-22 14:52:53.845] $GPGGA,055253.40,3713.9369021,N,13701.4902457,E,5,11,1.3,94.7199,M,37.55,M,1,0000*69
[2021-02-22 14:52:53.924] $GPGGA,055253.50,3713.9369004,N,13701.4902465,E,5,11,1.3,94.7121,M,37.55,M,1,0000*6D
[2021-02-22 14:52:54.049] $GPGGA,055253.60,3713.9368994,N,13701.4902456,E,5,11,1.3,94.7095,M,37.55,M,1,0000*61
[2021-02-22 14:52:54.127] $GPGGA,055253.70,3713.9368992,N,13701.4902475,E,5,11,1.3,94.7035,M,37.55,M,1,0000*6D
[2021-02-22 14:52:54.236] $GPGGA,055253.80,3713.9368994,N,13701.4902498,E,5,11,1.3,94.6936,M,37.55,M,1,0000*6C
[2021-02-22 14:52:54.314] $GPGGA,055253.90,3713.9368997,N,13701.4902530,E,5,11,1.3,94.6866,M,37.55,M,1,0000*69
[2021-02-22 14:52:54.455] $GPGGA,055254.00,3713.9369002,N,13701.4902541,E,5,11,1.3,94.6737,M,37.55,M,2,0000*6D
[2021-02-22 14:52:54.533] $GPGGA,055254.10,3713.9368991,N,13701.4902572,E,5,11,1.3,94.6598,M,37.55,M,2,0000*69
[2021-02-22 14:52:54.642] $GPGGA,055254.20,3713.9369004,N,13701.4902597,E,5,11,1.3,94.6545,M,37.55,M,2,0000*65
[2021-02-22 14:52:54.720] $GPGGA,055254.30,3713.9369008,N,13701.4902629,E,5,11,1.3,94.6524,M,37.55,M,2,0000*69
[2021-02-22 14:52:54.845] $GPGGA,055254.40,3713.9369011,N,13701.4902636,E,5,11,1.3,94.6494,M,37.55,M,2,0000*62
[2021-02-22 14:52:54.939] $GPGGA,055254.50,3713.9369008,N,13701.4902648,E,5,11,1.3,94.6505,M,37.55,M,2,0000*6B
[2021-02-22 14:52:55.017] $GPGGA,055254.60,3713.9369003,N,13701.4902656,E,5,11,1.3,94.6486,M,37.55,M,2,0000*66
[2021-02-22 14:52:55.142] $GPGGA,055254.70,3713.9369007,N,13701.4902662,E,5,11,1.3,94.6443,M,37.55,M,2,0000*6D
[2021-02-22 14:52:55.220] $GPGGA,055254.80,3713.9369024,N,13701.4902702,E,5,11,1.3,94.6413,M,37.55,M,2,0000*61
[2021-02-22 14:52:55.345] $GPGGA,055254.90,3713.9369024,N,13701.4902723,E,5,11,1.3,94.6406,M,37.55,M,2,0000*67
[2021-02-22 14:52:55.423] $GPGGA,055255.00,3713.9369029,N,13701.4902746,E,5,11,1.3,94.6314,M,37.55,M,3,0000*64
[2021-02-22 14:52:55.533] $GPGGA,055255.10,3713.9369034,N,13701.4902794,E,5,11,1.3,94.6209,M,37.55,M,3,0000*6B
[2021-02-22 14:52:55.642] $GPGGA,055255.20,3713.9369032,N,13701.4902824,E,5,11,1.3,94.6116,M,37.55,M,3,0000*67
[2021-02-22 14:52:55.736] $GPGGA,055255.30,3713.9369042,N,13701.4902858,E,5,11,1.3,94.6047,M,37.55,M,3,0000*6F
[2021-02-22 14:52:55.830] $GPGGA,055255.40,3713.9369052,N,13701.4902890,E,5,11,1.3,94.6019,M,37.55,M,3,0000*66
[2021-02-22 14:52:55.939] $GPGGA,055255.50,3713.9369038,N,13701.4902917,E,5,11,1.3,94.5970,M,37.55,M,3,0000*60
[2021-02-22 14:52:56.017] $GPGGA,055255.60,3713.9369039,N,13701.4902945,E,5,11,1.3,94.5919,M,37.55,M,3,0000*6A
[2021-02-22 14:52:56.142] $GPGGA,055255.70,3713.9369047,N,13701.4902978,E,5,11,1.3,94.5868,M,37.55,M,3,0000*6B
[2021-02-22 14:52:56.220] $GPGGA,055255.80,3713.9369050,N,13701.4903010,E,5,11,1.3,94.5804,M,37.55,M,3,0000*6E
[2021-02-22 14:52:56.345] $GPGGA,055255.90,3713.9369051,N,13701.4903044,E,5,11,1.3,94.5667,M,37.55,M,3,0000*64
[2021-02-22 14:52:56.423] $GPGGA,055256.00,3713.9369061,N,13701.4903076,E,5,11,1.3,94.5521,M,37.55,M,4,0000*6A
[2021-02-22 14:52:56.517] $GPGGA,055256.10,3713.9369060,N,13701.4903113,E,5,11,1.3,94.5337,M,37.55,M,4,0000*69
[2021-02-22 14:52:56.642] $GPGGA,055256.20,3713.9369064,N,13701.4903150,E,5,11,1.3,94.5159,M,37.55,M,4,0000*63
[2021-02-22 14:52:56.720] $GPGGA,055256.30,3713.9369077,N,13701.4903200,E,5,11,1.3,94.4937,M,37.55,M,4,0000*67
[2021-02-22 14:52:56.845] $GPGGA,055256.40,3713.9369089,N,13701.4903259,E,5,11,1.3,94.4730,M,37.55,M,4,0000*64
[2021-02-22 14:52:56.923] $GPGGA,055256.50,3713.9369109,N,13701.4903302,E,5,11,1.3,94.4557,M,37.55,M,4,0000*60
[2021-02-22 14:52:57.048] $GPGGA,055256.60,3713.9369116,N,13701.4903356,E,5,11,1.3,94.4403,M,37.55,M,4,0000*6C
[2021-02-22 14:52:57.126] $GPGGA,055256.70,3713.9369116,N,13701.4903387,E,5,11,1.3,94.4289,M,37.55,M,4,0000*65
[2021-02-22 14:52:57.251] $GPGGA,055256.80,3713.9369131,N,13701.4903428,E,5,11,1.3,94.4188,M,37.55,M,4,0000*6F
[2021-02-22 14:52:57.330] $GPGGA,055256.90,3713.9369140,N,13701.4903447,E,5,11,1.3,94.4127,M,37.55,M,4,0000*64
[2021-02-22 14:52:57.455] $GPGGA,055257.00,3713.9369140,N,13701.4903477,E,5,11,1.3,94.3989,M,37.55,M,5,0000*65
[2021-02-22 14:52:57.548] $GPGGA,055257.10,3713.9369145,N,13701.4903508,E,5,11,1.3,94.3849,M,37.55,M,5,0000*65
[2021-02-22 14:52:57.642] $GPGGA,055257.20,3713.9369206,N,13701.4903738,E,5,12,1.1,94.3258,M,37.55,M,5,0000*68
[2021-02-22 14:52:57.720] $GPGGA,055257.30,3713.9369244,N,13701.4903902,E,5,12,1.1,94.2758,M,37.55,M,5,0000*6C
[2021-02-22 14:52:57.845] $GPGGA,055257.40,3713.9369263,N,13701.4904002,E,5,12,1.1,94.2375,M,37.55,M,5,0000*6B
[2021-02-22 14:52:57.923] $GPGGA,055257.50,3713.9369285,N,13701.4904082,E,5,12,1.1,94.2025,M,37.55,M,5,0000*6C
[2021-02-22 14:52:58.048] $GPGGA,055257.60,3713.9369297,N,13701.4904143,E,5,12,1.1,94.1744,M,37.55,M,5,0000*63
[2021-02-22 14:52:58.126] $GPGGA,055257.70,3713.9369322,N,13701.4904174,E,5,12,1.1,94.1592,M,37.55,M,5,0000*60
[2021-02-22 14:52:58.251] $GPGGA,055257.80,3713.9369317,N,13701.4904263,E,5,12,1.1,94.1289,M,37.55,M,5,0000*61
[2021-02-22 14:52:58.329] $GPGGA,055257.90,3713.9369298,N,13701.4904314,E,5,12,1.1,94.1117,M,37.55,M,5,0000*63
[2021-02-22 14:52:58.455] $GPGGA,055258.00,3713.9369283,N,13701.4904351,E,5,12,1.1,94.0946,M,37.55,M,6,0000*60
[2021-02-22 14:52:58.533] $GPGGA,055258.10,3713.9369270,N,13701.4904386,E,5,12,1.1,94.0786,M,37.55,M,6,0000*65
[2021-02-22 14:52:58.642] $GPGGA,055258.20,3713.9369256,N,13701.4904425,E,5,12,1.1,94.0657,M,37.55,M,1,0000*66
[2021-02-22 14:52:58.751] $GPGGA,055258.30,3713.9369257,N,13701.4904442,E,5,12,1.1,94.0612,M,37.55,M,1,0000*66
[2021-02-22 14:52:58.830] $GPGGA,055258.40,3713.9369262,N,13701.4904457,E,5,12,1.1,94.0553,M,37.55,M,1,0000*65
[2021-02-22 14:52:58.954] $GPGGA,055258.50,3713.9369252,N,13701.4904483,E,5,12,1.1,94.0483,M,37.55,M,1,0000*62
[2021-02-22 14:52:59.033] $GPGGA,055258.60,3713.9369242,N,13701.4904537,E,5,12,1.1,94.0328,M,37.55,M,1,0000*68
[2021-02-22 14:52:59.142] $GPGGA,055258.70,3713.9369225,N,13701.4904586,E,5,12,1.1,94.0179,M,37.55,M,1,0000*64
[2021-02-22 14:52:59.236] $GPGGA,055258.80,3713.9369205,N,13701.4904625,E,5,12,1.1,94.0019,M,37.55,M,1,0000*64
