
[2021-02-22 14:51:24.852] $GPGGA,,,,,,,,,,M,,M,,*56
[2021-02-22 14:51:24.883] $GPGGA,,,,,,,,,,M,,M,,*56
[2021-02-22 14:51:24.883] $GPGGA,,,,,,,,,,M,,M,,*56
[2021-02-22 14:51:24.883] $GPGGA,,,,,,,,,,M,,M,,*56
[2021-02-22 14:51:24.883] $GPGGA,,,,,,,,,,M,,M,,*56
[2021-02-22 14:51:24.883] $GPGGA,,,,,,,,,,M,,M,,*56
[2021-02-22 14:51:24.883] $GPGGA,,,,,,,,,,M,,M,,*56
[2021-02-22 14:51:24.883] $GPGGA,,,,,,,,,,M,,M,,*56
[2021-02-22 14:51:24.883] $GPGGA,,,,,,,,,,M,,M,,*56
[2021-02-22 14:51:24.883] $GPGGA,,,,,,,,,,M,,M,,*56
[2021-02-22 14:51:24.883] $GPGGA,,,,,,,,,,M,,M,,*56
[2021-02-22 14:51:24.883] $GPGGA,,,,,,,,,,M,,M,,*56
[2021-02-22 14:51:24.883] $GPGGA,,,,,,,,,,M,,M,,*56
[2021-02-22 14:51:24.883] $GPGGA,,,,,,,,,,M,,M,,*56
[2021-02-22 14:51:24.883] $GPGGA,,,,,,,,,,M,,M,,*56
[2021-02-22 14:51:24.883] $GPGGA,,,,,,,,,,M,,M,,*56
[2021-02-22 14:51:24.883] $GPGGA,,,,,,,,,,M,,M,,*56
[2021-02-22 14:51:24.883] $GPGGA,,,,,,,,,,M,,M,,*56
[2021-02-22 14:51:24.883] $GPGGA,,,,,,,,,,M,,M,,*56
[2021-02-22 14:51:24.883] $GPGGA,,,,,,,,,,M,,M,,*56
[2021-02-22 14:51:24.883] $GPGGA,,,,,,,,,,M,,M,,*56
[2021-02-22 14:51:24.883] $GPGGA,,,,,,,,,,M,,M,,*56
[2021-02-22 14:51:24.883] $GPGGA,,,,,,,,,,M,,M,,*56
[2021-02-22 14:51:24.883] $GPGGA,,,,,,,,,,M,,M,,*56
[2021-02-22 14:51:24.883] $GPGGA,,,,,,,,,,M,,M,,*56
[2021-02-22 14:51:24.883] $GPGGA,,,,,,,,,,M,,M,,*56
[2021-02-22 14:51:24.883] $GPGGA,,,,,,,,,,M,,M,,*56
[2021-02-22 14:51:24.883] $GPGGA,,,,,,,,,,M,,M,,*56
[2021-02-22 14:51:24.883] $GPGGA,,,,,,,,,,M,,M,,*56
[2021-02-22 14:51:24.883] $GPGGA,,,,,,,,,,M,,M,,*56
[2021-02-22 14:51:24.883] $GPGGA,,,,,,,,,,M,,M,,*56
[2021-02-22 14:51:24.883] $GPGGA,,,,,,,,,,M,,M,,*56
[2021-02-22 14:51:24.883] $GPGGA,,,,,,,,,,M,,M,,*56
[2021-02-22 14:51:24.883] $GPGGA,,,,,,,,,,M,,M,,*56
[2021-02-22 14:51:24.883] $GPGGA,,,,,,,,,,M,,M,,*56
[2021-02-22 14:51:24.883] $GPGGA,,,,,,,,,,M,,M,,*56
[2021-02-22 14:51:24.883] $GPGGA,,,,,,,,,,M,,M,,*56
[2021-02-22 14:51:24.883] $GPGGA,,,,,,,,,,M,,M,,*56
[2021-02-22 14:51:24.883] $GPGGA,,,,,,,,,,M,,M,,*56
[2021-02-22 14:51:24.898] $GPGGA,,,,,,,,,,M,,M,,*56
[2021-02-22 14:51:24.898] $GPGGA,,,,,,,,,,M,,M,,*56
[2021-02-22 14:51:24.898] $GPGGA,,,,,,,,,,M,,M,,*56
[2021-02-22 14:51:24.898] $GPGGA,,,,,,,,,,M,,M,,*56
[2021-02-22 14:51:24.898] $GPGGA,,,,,,,,,,M,,M,,*56
[2021-02-22 14:51:24.898] $GPGGA,,,,,,,,,,M,,M,,*56
[2021-02-22 14:51:24.898] $GPGGA,,,,,,,,,,M,,M,,*56
[2021-02-22 14:51:24.898] $GPGGA,,,,,,,,,,M,,M,,*56
[2021-02-22 14:51:24.898] $GPGGA,,,,,,,,,,M,,M,,*56
[2021-02-22 14:51:24.898] $GPGGA,,,,,,,,,,M,,M,,*56
[2021-02-22 14:51:24.898] $GPGGA,,,,,,,,,,M,,M,,*56
[2021-02-22 14:51:24.898] $GPGGA,,,,,,,,,,M,,M,,*56
[2021-02-22 14:51:24.898] $GPGGA,,,,,,,,,,M,,M,,*56
[2021-02-22 14:51:24.898] $GPGGA,,,,,,,,,,M,,M,,*56
[2021-02-22 14:51:24.898] $GPGGA,,,,,,,,,,M,,M,,*56
[2021-02-22 14:51:24.898] $GPGGA,,,,,,,,,,M,,M,,*56
[2021-02-22 14:51:24.898] $GPGGA,,,,,,,,,,M,,M,,*56
[2021-02-22 14:51:24.898] $GPGGA,,,,,,,,,,M,,M,,*56
[2021-02-22 14:51:24.898] $GPGGA,,,,,,,,,,M,,M,,*56
[2021-02-22 14:51:24.898] $GPGGA,,,,,,,,,,M,,M,,*56
[2021-02-22 14:51:24.898] $GPGGA,,,,,,,,,,M,,M,,*56
[2021-02-22 14:51:24.898] $GPGGA,,,,,,,,,,M,,M,,*56
[2021-02-22 14:51:24.898] $GPGGA,,,,,,,,,,M,,M,,*56
[2021-02-22 14:51:24.898] $GPGGA,,,,,,,,,,M,,M,,*56
[2021-02-22 14:51:24.898] $GPGGA,,,,,,,,,,M,,M,,*56
[2021-02-22 14:51:24.898] $GPGGA,,,,,,,,,,M,,M,,*56
[2021-02-22 14:51:24.898] $GPGGA,,,,,,,,,,M,,M,,*56
[2021-02-22 14:51:24.898] $GPGGA,,,,,,,,,,M,,M,,*56
[2021-02-22 14:51:24.898] $GPGGA,,,,,,,,,,M,,M,,*56
[2021-02-22 14:51:24.898] $GPGGA,,,,,,,,,,M,,M,,*56
[2021-02-22 14:51:24.898] $GPGGA,,,,,,,,,,M,,M,,*56
[2021-02-22 14:51:24.898] $GPGGA,,,,,,,,,,M,,M,,*56
[2021-02-22 14:51:24.898] $GPGGA,,,,,,,,,,M,,M,,*56
[2021-02-22 14:51:24.898] $GPGGA,,,,,,,,,,M,,M,,*56
[2021-02-22 14:51:24.898] $GPGGA,,,,,,,,,,M,,M,,*56
[2021-02-22 14:51:24.898] $GPGGA,,,,,,,,,,M,,M,,*56
[2021-02-22 14:51:24.898] $GPGGA,,,,,,,,,,M,,M,,*56
[2021-02-22 14:51:24.898] $GPGGA,,,,,,,,,,M,,M,,*56
[2021-02-22 14:51:24.898] $GPGGA,,,,,,,,,,M,,M,,*56
[2021-02-22 14:51:24.898] $GPGGA,,,,,,,,,,M,,M,,*56
[2021-02-22 14:51:24.898] $GPGGA,,,,,,,,,,M,,M,,*56
[2021-02-22 14:51:25.023] $GPGGA,,,,,,,,,,M,,M,,*56
[2021-02-22 14:51:25.227] $GPGGA,,,,,,,,,,M,,M,,*56
[2021-02-22 14:51:25.414] $GPGGA,,,,,,,,,,M,,M,,*56
[2021-02-22 14:51:25.617] $GPGGA,,,,,,,,,,M,,M,,*56
[2021-02-22 14:51:25.820] $GPGGA,,,,,,,,,,M,,M,,*56
[2021-02-22 14:51:26.023] $GPGGA,,,,,,,,,,M,,M,,*56
[2021-02-22 14:51:26.227] $GPGGA,,,,,,,,,,M,,M,,*56
[2021-02-22 14:51:26.414] $GPGGA,,,,,,,,,,M,,M,,*56
[2021-02-22 14:51:26.617] $GPGGA,,,,,,,,,,M,,M,,*56
[2021-02-22 14:51:26.820] $GPGGA,,,,,,,,,,M,,M,,*56
[2021-02-22 14:51:27.008] $GPGGA,,,,,,,,,,M,,M,,*56
[2021-02-22 14:51:27.211] $GPGGA,,,,,,,,,,M,,M,,*56
[2021-02-22 14:51:27.414] $GPGGA,,,,,,,,,,M,,M,,*56
[2021-02-22 14:51:27.601] $GPGGA,,,,,,,,,,M,,M,,*56
[2021-02-22 14:51:27.820] $GPGGA,,,,,,,,,,M,,M,,*56
[2021-02-22 14:51:28.008] $GPGGA,,,,,,,,,,M,,M,,*56
[2021-02-22 14:51:28.211] $GPGGA,,,,,,,,,,M,,M,,*56
[2021-02-22 14:51:28.398] $GPGGA,,,,,,,,,,M,,M,,*56
[2021-02-22 14:51:28.617] $GPGGA,,,,,,,,,,M,,M,,*56
[2021-02-22 14:51:28.804] $GPGGA,,,,,,,,,,M,,M,,*56
[2021-02-22 14:51:29.008] $GPGGA,,,,,,,,,,M,,M,,*56
[2021-02-22 14:51:29.211] $GPGGA,,,,,,,,,,M,,M,,*56
[2021-02-22 14:51:29.414] $GPGGA,,,,,,,,,,M,,M,,*56
[2021-02-22 14:51:29.601] $GPGGA,,,,,,,,,,M,,M,,*56
[2021-02-22 14:51:29.820] $GPGGA,,,,,,,,,,M,,M,,*56
[2021-02-22 14:51:30.008] $GPGGA,,,,,,,,,,M,,M,,*56
[2021-02-22 14:51:30.211] $GPGGA,,,,,,,,,,M,,M,,*56
[2021-02-22 14:51:30.398] $GPGGA,,,,,,,,,,M,,M,,*56
[2021-02-22 14:51:30.617] $GPGGA,,,,,,,,,,M,,M,,*56
[2021-02-22 14:51:30.804] $GPGGA,,,,,,,,,,M,,M,,*56
[2021-02-22 14:51:31.023] $GPGGA,,,,,,,,,,M,,M,,*56
[2021-02-22 14:51:31.211] $GPGGA,,,,,,,,,,M,,M,,*56
[2021-02-22 14:51:31.414] $GPGGA,,,,,,,,,,M,,M,,*56
[2021-02-22 14:51:31.601] $GPGGA,,,,,,,,,,M,,M,,*56
[2021-02-22 14:51:31.820] $GPGGA,,,,,,,,,,M,,M,,*56
[2021-02-22 14:51:32.007] $GPGGA,,,,,,,,,,M,,M,,*56
[2021-02-22 14:51:32.211] $GPGGA,,,,,,,,,,M,,M,,*56
[2021-02-22 14:51:32.414] $GPGGA,,,,,,,,,,M,,M,,*56
[2021-02-22 14:51:32.617] $GPGGA,,,,,,,,,,M,,M,,*56
[2021-02-22 14:51:32.804] $GPGGA,,,,,,,,,,M,,M,,*56
[2021-02-22 14:51:33.007] $GPGGA,,,,,,,,,,M,,M,,*56
[2021-02-22 14:51:33.210] $GPGGA,,,,,,,,,,M,,M,,*56
[2021-02-22 14:51:33.414] $GPGGA,,,,,,,,,,M,,M,,*56
[2021-02-22 14:51:33.601] $GPGGA,,,,,,,,,,M,,M,,*56
[2021-02-22 14:51:33.820] $GPGGA,,,,,,,,,,M,,M,,*56
[2021-02-22 14:51:34.007] $GPGGA,,,,,,,,,,M,,M,,*56
[2021-02-22 14:51:34.210] $GPGGA,,,,,,,,,,M,,M,,*56
[2021-02-22 14:51:34.398] $GPGGA,,,,,,,,,,M,,M,,*56
[2021-02-22 14:51:34.617] $GPGGA,,,,,,,,,,M,,M,,*56
[2021-02-22 14:51:34.804] $GPGGA,,,,,,,,,,M,,M,,*56
[2021-02-22 14:51:35.023] $GPGGA,,,,,,,,,,M,,M,,*56
[2021-02-22 14:51:35.210] $GPGGA,,,,,,,,,,M,,M,,*56
[2021-02-22 14:51:35.413] $GPGGA,,,,,,,,,,M,,M,,*56
[2021-02-22 14:51:35.601] $GPGGA,,,,,,,,,,M,,M,,*56
[2021-02-22 14:51:35.820] $GPGGA,,,,,,,,,,M,,M,,*56
[2021-02-22 14:51:36.007] $GPGGA,,,,,,,,,,M,,M,,*56
[2021-02-22 14:51:36.210] $GPGGA,,,,,,,,,,M,,M,,*56
[2021-02-22 14:51:36.398] $GPGGA,,,,,,,,,,M,,M,,*56
[2021-02-22 14:51:36.616] $GPGGA,,,,,,,,,,M,,M,,*56
[2021-02-22 14:51:36.804] $GPGGA,,,,,,,,,,M,,M,,*56
[2021-02-22 14:51:37.007] $GPGGA,,,,,,,,,,M,,M,,*56
[2021-02-22 14:51:37.210] $GPGGA,,,,,,,,,,M,,M,,*56
[2021-02-22 14:51:37.413] $GPGGA,,,,,,,,,,M,,M,,*56
[2021-02-22 14:51:37.601] $GPGGA,,,,,,,,,,M,,M,,*56
[2021-02-22 14:51:37.819] $GPGGA,,,,,,,,,,M,,M,,*56
[2021-02-22 14:51:38.023] $GPGGA,,,,,,,,,,M,,M,,*56
[2021-02-22 14:51:38.210] $GPGGA,,,,,,,,,,M,,M,,*56
[2021-02-22 14:51:38.398] $GPGGA,,,,,,,,,,M,,M,,*56
[2021-02-22 14:51:38.616] $GPGGA,,,,,,,,,,M,,M,,*56
[2021-02-22 14:51:38.804] $GPGGA,,,,,,,,,,M,,M,,*56
[2021-02-22 14:51:39.023] $GPGGA,,,,,,,,,,M,,M,,*56
[2021-02-22 14:51:39.226] $GPGGA,,,,,,,,,,M,,M,,*56
[2021-02-22 14:51:39.413] $GPGGA,,,,,,,,,,M,,M,,*56
[2021-02-22 14:51:39.616] $GPGGA,,,,,,,,,,M,,M,,*56
[2021-02-22 14:51:39.819] $GPGGA,,,,,,,,,,M,,M,,*56
[2021-02-22 14:51:40.007] $GPGGA,,,,,,,,,,M,,M,,*56
[2021-02-22 14:51:40.210] $GPGGA,,,,,,,,,,M,,M,,*56
[2021-02-22 14:51:40.413] $GPGGA,,,,,,,,,,M,,M,,*56
[2021-02-22 14:51:40.616] $GPGGA,,,,,,,,,,M,,M,,*56
[2021-02-22 14:51:40.819] $GPGGA,,,,,,,,,,M,,M,,*56
[2021-02-22 14:51:41.007] $GPGGA,,,,,,,,,,M,,M,,*56
[2021-02-22 14:51:41.225] $GPGGA,,,,,,,,,,M,,M,,*56
[2021-02-22 14:51:41.413] $GPGGA,,,,,,,,,,M,,M,,*56
[2021-02-22 14:51:41.616] $GPGGA,,,,,,,,,,M,,M,,*56
[2021-02-22 14:51:41.819] $GPGGA,,,,,,,,,,M,,M,,*56
[2021-02-22 14:51:42.022] $GPGGA,,,,,,,,,,M,,M,,*56
[2021-02-22 14:51:42.210] $GPGGA,,,,,,,,,,M,,M,,*56
[2021-02-22 14:51:42.429] $GPGGA,,,,,,,,,,M,,M,,*56
[2021-02-22 14:51:42.616] $GPGGA,,,,,,,,,,M,,M,,*56
[2021-02-22 14:51:42.819] $GPGGA,,,,,,,,,,M,,M,,*56
[2021-02-22 14:51:43.007] $GPGGA,,,,,,,,,,M,,M,,*56
[2021-02-22 14:51:43.225] $GPGGA,,,,,,,,,,M,,M,,*56
[2021-02-22 14:51:43.413] $GPGGA,,,,,,,,,,M,,M,,*56
[2021-02-22 14:51:43.616] $GPGGA,,,,,,,,,,M,,M,,*56
[2021-02-22 14:51:43.819] $GPGGA,,,,,,,,,,M,,M,,*56
[2021-02-22 14:51:44.022] $GPGGA,,,,,,,,,,M,,M,,*56
[2021-02-22 14:51:44.210] $GPGGA,,,,,,,,,,M,,M,,*56
[2021-02-22 14:51:44.413] $GPGGA,,,,,,,,,,M,,M,,*56
[2021-02-22 14:51:44.616] $GPGGA,,,,,,,,,,M,,M,,*56
[2021-02-22 14:51:44.819] $GPGGA,,,,,,,,,,M,,M,,*56
[2021-02-22 14:51:45.006] $GPGGA,,,,,,,,,,M,,M,,*56
[2021-02-22 14:51:45.225] $GPGGA,,,,,,,,,,M,,M,,*56
[2021-02-22 14:51:45.413] $GPGGA,,,,,,,,,,M,,M,,*56
[2021-02-22 14:51:45.616] $GPGGA,,,,,,,,,,M,,M,,*56
[2021-02-22 14:51:45.819] $GPGGA,,,,,,,,,,M,,M,,*56
[2021-02-22 14:51:46.022] $GPGGA,,,,,,,,,,M,,M,,*56
[2021-02-22 14:51:46.209] $GPGGA,,,,,,,,,,M,,M,,*56
[2021-02-22 14:51:46.413] $GPGGA,,,,,,,,,,M,,M,,*56
[2021-02-22 14:51:46.616] $GPGGA,,,,,,,,,,M,,M,,*56
[2021-02-22 14:51:46.819] $GPGGA,,,,,,,,,,M,,M,,*56
[2021-02-22 14:51:47.022] $GPGGA,,,,,,,,,,M,,M,,*56
[2021-02-22 14:51:47.209] $GPGGA,,,,,,,,,,M,,M,,*56
[2021-02-22 14:51:47.413] $GPGGA,,,,,,,,,,M,,M,,*56
[2021-02-22 14:51:47.616] $GPGGA,,,,,,,,,,M,,M,,*56
[2021-02-22 14:51:47.803] $GPGGA,,,,,,,,,,M,,M,,*56
[2021-02-22 14:51:48.022] $GPGGA,,,,,,,,,,M,,M,,*56
[2021-02-22 14:51:48.209] $GPGGA,,,,,,,,,,M,,M,,*56
[2021-02-22 14:51:48.413] $GPGGA,,,,,,,,,,M,,M,,*56
[2021-02-22 14:51:48.616] $GPGGA,,,,,,,,,,M,,M,,*56
[2021-02-22 14:51:48.819] $GPGGA,,,,,,,,,,M,,M,,*56
[2021-02-22 14:51:49.006] $GPGGA,,,,,,,,,,M,,M,,*56
[2021-02-22 14:51:49.225] $GPGGA,,,,,,,,,,M,,M,,*56
[2021-02-22 14:51:49.412] $GPGGA,,,,,,,,,,M,,M,,*56
[2021-02-22 14:51:49.616] $GPGGA,,,,,,,,,,M,,M,,*56
[2021-02-22 14:51:49.803] $GPGGA,,,,,,,,,,M,,M,,*56
[2021-02-22 14:51:50.022] $GPGGA,,,,,,,,,,M,,M,,*56
[2021-02-22 14:51:50.209] $GPGGA,,,,,,,,,,M,,M,,*56
[2021-02-22 14:51:50.412] $GPGGA,,,,,,,,,,M,,M,,*56
[2021-02-22 14:51:50.600] $GPGGA,,,,,,,,,,M,,M,,*56
[2021-02-22 14:51:50.819] $GPGGA,,,,,,,,,,M,,M,,*56
[2021-02-22 14:51:51.006] $GPGGA,,,,,,,,,,M,,M,,*56
[2021-02-22 14:51:51.209] $GPGGA,,,,,,,,,,M,,M,,*56
[2021-02-22 14:51:51.412] $GPGGA,,,,,,,,,,M,,M,,*56
[2021-02-22 14:51:51.615] $GPGGA,,,,,,,,,,M,,M,,*56
[2021-02-22 14:51:51.803] $GPGGA,,,,,,,,,,M,,M,,*56
[2021-02-22 14:51:52.022] $GPGGA,,,,,,,,,,M,,M,,*56
[2021-02-22 14:51:52.209] $GPGGA,,,,,,,,,,M,,M,,*56
[2021-02-22 14:51:52.412] $GPGGA,,,,,,,,,,M,,M,,*56
[2021-02-22 14:51:52.600] $GPGGA,,,,,,,,,,M,,M,,*56
[2021-02-22 14:51:52.818] $GPGGA,,,,,,,,,,M,,M,,*56
[2021-02-22 14:51:53.006] $GPGGA,,,,,,,,,,M,,M,,*56
[2021-02-22 14:51:53.225] $GPGGA,,,,,,,,,,M,,M,,*56
[2021-02-22 14:51:53.412] $GPGGA,,,,,,,,,,M,,M,,*56
[2021-02-22 14:51:53.615] $GPGGA,,,,,,,,,,M,,M,,*56
[2021-02-22 14:51:53.803] $GPGGA,,,,,,,,,,M,,M,,*56
[2021-02-22 14:51:54.021] $GPGGA,,,,,,,,,,M,,M,,*56
[2021-02-22 14:51:54.209] $GPGGA,,,,,,,,,,M,,M,,*56
[2021-02-22 14:51:54.412] $GPGGA,,,,,,,,,,M,,M,,*56
[2021-02-22 14:51:54.600] $GPGGA,,,,,,,,,,M,,M,,*56
[2021-02-22 14:51:54.818] $GPGGA,,,,,,,,,,M,,M,,*56
[2021-02-22 14:51:55.006] $GPGGA,,,,,,,,,,M,,M,,*56
[2021-02-22 14:51:55.209] $GPGGA,,,,,,,,,,M,,M,,*56
[2021-02-22 14:51:55.412] $GPGGA,,,,,,,,,,M,,M,,*56
[2021-02-22 14:51:55.615] $GPGGA,,,,,,,,,,M,,M,,*56
[2021-02-22 14:51:55.803] $GPGGA,,,,,,,,,,M,,M,,*56
[2021-02-22 14:51:56.021] $GPGGA,,,,,,,,,,M,,M,,*56
[2021-02-22 14:51:56.209] $GPGGA,,,,,,,,,,M,,M,,*56
[2021-02-22 14:51:56.412] $GPGGA,,,,,,,,,,M,,M,,*56
[2021-02-22 14:51:56.599] $GPGGA,,,,,,,,,,M,,M,,*56
[2021-02-22 14:51:56.818] $GPGGA,,,,,,,,,,M,,M,,*56
[2021-02-22 14:51:57.006] $GPGGA,,,,,,,,,,M,,M,,*56
[2021-02-22 14:51:57.209] $GPGGA,,,,,,,,,,M,,M,,*56
[2021-02-22 14:51:57.412] $GPGGA,,,,,,,,,,M,,M,,*56
[2021-02-22 14:51:57.615] $GPGGA,,,,,,,,,,M,,M,,*56
[2021-02-22 14:51:57.802] $GPGGA,,,,,,,,,,M,,M,,*56
[2021-02-22 14:51:58.021] $GPGGA,,,,,,,,,,M,,M,,*56
[2021-02-22 14:51:58.209] $GPGGA,,,,,,,,,,M,,M,,*56
[2021-02-22 14:51:58.412] $GPGGA,,,,,,,,,,M,,M,,*56
[2021-02-22 14:51:58.599] $GPGGA,,,,,,,,,,M,,M,,*56
[2021-02-22 14:51:58.818] $GPGGA,,,,,,,,,,M,,M,,*56
[2021-02-22 14:51:59.005] $GPGGA,,,,,,,,,,M,,M,,*56
[2021-02-22 14:51:59.209] $GPGGA,,,,,,,,,,M,,M,,*56
[2021-02-22 14:51:59.412] $GPGGA,,,,,,,,,,M,,M,,*56
[2021-02-22 14:51:59.615] $GPGGA,,,,,,,,,,M,,M,,*56
[2021-02-22 14:51:59.802] $GPGGA,,,,,,,,,,M,,M,,*56
[2021-02-22 14:52:00.021] $GPGGA,,,,,,,,,,M,,M,,*56
[2021-02-22 14:52:00.209] $GPGGA,,,,,,,,,,M,,M,,*56
[2021-02-22 14:52:00.412] $GPGGA,,,,,,,,,,M,,M,,*56
[2021-02-22 14:52:00.599] $GPGGA,,,,,,,,,,M,,M,,*56
[2021-02-22 14:52:00.818] $GPGGA,,,,,,,,,,M,,M,,*56
[2021-02-22 14:52:01.005] $GPGGA,,,,,,,,,,M,,M,,*56
[2021-02-22 14:52:01.208] $GPGGA,,,,,,,,,,M,,M,,*56
[2021-02-22 14:52:01.412] $GPGGA,,,,,,,,,,M,,M,,*56
[2021-02-22 14:52:01.615] $GPGGA,,,,,,,,,,M,,M,,*56
[2021-02-22 14:52:01.802] $GPGGA,,,,,,,,,,M,,M,,*56
[2021-02-22 14:52:02.021] $GPGGA,,,,,,,,,,M,,M,,*56
[2021-02-22 14:52:02.208] $GPGGA,,,,,,,,,,M,,M,,*56
[2021-02-22 14:52:02.412] $GPGGA,,,,,,,,,,M,,M,,*56
[2021-02-22 14:52:02.615] $GPGGA,,,,,,,,,,M,,M,,*56
[2021-02-22 14:52:02.818] $GPGGA,,,,,,,,,,M,,M,,*56
[2021-02-22 14:52:03.005] $GPGGA,,,,,,,,,,M,,M,,*56
[2021-02-22 14:52:03.208] $GPGGA,,,,,,,,,,M,,M,,*56
[2021-02-22 14:52:03.411] $GPGGA,,,,,,,,,,M,,M,,*56
[2021-02-22 14:52:03.615] $GPGGA,,,,,,,,,,M,,M,,*56
[2021-02-22 14:52:03.802] $GPGGA,,,,,,,,,,M,,M,,*56
[2021-02-22 14:52:04.005] $GPGGA,,,,,,,,,,M,,M,,*56
[2021-02-22 14:52:04.208] $GPGGA,,,,,,,,,,M,,M,,*56
[2021-02-22 14:52:04.411] $GPGGA,,,,,,,,,,M,,M,,*56
[2021-02-22 14:52:04.599] $GPGGA,,,,,,,,,,M,,M,,*56
[2021-02-22 14:52:04.818] $GPGGA,,,,,,,,,,M,,M,,*56
[2021-02-22 14:52:05.005] $GPGGA,,,,,,,,,,M,,M,,*56
[2021-02-22 14:52:05.208] $GPGGA,,,,,,,,,,M,,M,,*56
[2021-02-22 14:52:05.396] $GPGGA,,,,,,,,,,M,,M,,*56
[2021-02-22 14:52:05.614] $GPGGA,,,,,,,,,,M,,M,,*56
[2021-02-22 14:52:05.802] $GPGGA,,,,,,,,,,M,,M,,*56
[2021-02-22 14:52:06.005] $GPGGA,,,,,,,,,,M,,M,,*56
[2021-02-22 14:52:06.208] $GPGGA,,,,,,,,,,M,,M,,*56
[2021-02-22 14:52:06.411] $GPGGA,,,,,,,,,,M,,M,,*56
[2021-02-22 14:52:06.599] $GPGGA,,,,,,,,,,M,,M,,*56
[2021-02-22 14:52:06.817] $GPGGA,,,,,,,,,,M,,M,,*56
[2021-02-22 14:52:07.005] $GPGGA,,,,,,,,,,M,,M,,*56
[2021-02-22 14:52:07.208] $GPGGA,,,,,,,,,,M,,M,,*56
[2021-02-22 14:52:07.396] $GPGGA,,,,,,,,,,M,,M,,*56
[2021-02-22 14:52:07.614] $GPGGA,,,,,,,,,,M,,M,,*56
[2021-02-22 14:52:07.802] $GPGGA,,,,,,,,,,M,,M,,*56
[2021-02-22 14:52:08.005] $GPGGA,,,,,,,,,,M,,M,,*56
[2021-02-22 14:52:08.208] $GPGGA,,,,,,,,,,M,,M,,*56
[2021-02-22 14:52:08.411] $GPGGA,,,,,,,,,,M,,M,,*56
[2021-02-22 14:52:08.599] $GPGGA,,,,,,,,,,M,,M,,*56
[2021-02-22 14:52:08.817] $GPGGA,,,,,,,,,,M,,M,,*56
[2021-02-22 14:52:09.005] $GPGGA,,,,,,,,,,M,,M,,*56
[2021-02-22 14:52:09.208] $GPGGA,,,,,,,,,,M,,M,,*56
[2021-02-22 14:52:09.395] $GPGGA,,,,,,,,,,M,,M,,*56
[2021-02-22 14:52:09.614] $GPGGA,,,,,,,,,,M,,M,,*56
[2021-02-22 14:52:09.802] $GPGGA,,,,,,,,,,M,,M,,*56
[2021-02-22 14:52:10.005] $GPGGA,,,,,,,,,,M,,M,,*56
[2021-02-22 14:52:10.208] $GPGGA,,,,,,,,,,M,,M,,*56
[2021-02-22 14:52:10.411] $GPGGA,,,,,,,,,,M,,M,,*56
[2021-02-22 14:52:10.598] $GPGGA,,,,,,,,,,M,,M,,*56
[2021-02-22 14:52:10.817] $GPGGA,,,,,,,,,,M,,M,,*56
[2021-02-22 14:52:11.005] $GPGGA,,,,,,,,,,M,,M,,*56
[2021-02-22 14:52:11.208] $GPGGA,,,,,,,,,,M,,M,,*56
[2021-02-22 14:52:11.395] $GPGGA,,,,,,,,,,M,,M,,*56
[2021-02-22 14:52:11.614] $GPGGA,,,,,,,,,,M,,M,,*56
[2021-02-22 14:52:11.801] $GPGGA,,,,,,,,,,M,,M,,*56
[2021-02-22 14:52:12.005] $GPGGA,,,,,,,,,,M,,M,,*56
[2021-02-22 14:52:12.223] $GPGGA,,,,,,,,,,M,,M,,*56
[2021-02-22 14:52:12.411] $GPGGA,,,,,,,,,,M,,M,,*56
[2021-02-22 14:52:12.598] $GPGGA,,,,,,,,,,M,,M,,*56
[2021-02-22 14:52:12.817] $GPGGA,,,,,,,,,,M,,M,,*56
[2021-02-22 14:52:13.005] $GPGGA,,,,,,,,,,M,,M,,*56
[2021-02-22 14:52:13.208] $GPGGA,,,,,,,,,,M,,M,,*56
[2021-02-22 14:52:13.426] $GPGGA,,,,,,,,,,M,,M,,*56
[2021-02-22 14:52:13.614] $GPGGA,,,,,,,,,,M,,M,,*56
[2021-02-22 14:52:13.801] $GPGGA,,,,,,,,,,M,,M,,*56
[2021-02-22 14:52:14.004] $GPGGA,,,,,,,,,,M,,M,,*56
[2021-02-22 14:52:14.223] $GPGGA,,,,,,,,,,M,,M,,*56
[2021-02-22 14:52:14.411] $GPGGA,,,,,,,,,,M,,M,,*56
[2021-02-22 14:52:14.614] $GPGGA,,,,,,,,,,M,,M,,*56
[2021-02-22 14:52:14.817] $GPGGA,,,,,,,,,,M,,M,,*56
[2021-02-22 14:52:15.020] $GPGGA,,,,,,,,,,M,,M,,*56
[2021-02-22 14:52:15.223] $GPGGA,,,,,,,,,,M,,M,,*56
[2021-02-22 14:52:15.426] $GPGGA,,,,,,,,,,M,,M,,*56
[2021-02-22 14:52:15.614] $GPGGA,,,,,,,,,,M,,M,,*56
[2021-02-22 14:52:15.817] $GPGGA,,,,,,,,,,M,,M,,*56
[2021-02-22 14:52:16.020] $GPGGA,,,,,,,,,,M,,M,,*56
[2021-02-22 14:52:16.223] $GNGGA,055215.80,3713.93581711,N,13701.49073885,E,2,06,2.3,96.125,M,36.771,M,1.8,0979*6A
[2021-02-22 14:52:16.426] $GNGGA,055216.00,3713.93605045,N,13701.49001032,E,1,07,2.1,95.685,M,36.771,M,,*47
[2021-02-22 14:52:16.520] $GNGGA,055216.10,3713.93605042,N,13701.49001037,E,1,07,2.1,95.687,M,36.771,M,,*46
[2021-02-22 14:52:16.614] $GNGGA,055216.20,3713.93600152,N,13701.48995794,E,1,07,2.1,94.797,M,36.771,M,,*4A
[2021-02-22 14:52:16.723] $GNGGA,055216.30,3713.93599859,N,13701.48995587,E,1,07,2.1,94.791,M,36.771,M,,*4C
[2021-02-22 14:52:16.832] $GNGGA,055216.40,3713.93607989,N,13701.48993073,E,1,07,2.3,94.821,M,36.771,M,,*4D
[2021-02-22 14:52:16.926] $GNGGA,055216.50,3713.93608155,N,13701.48992875,E,1,07,2.3,94.825,M,36.771,M,,*41
[2021-02-22 14:52:17.035] $GNGGA,055216.60,3713.93609666,N,13701.49003605,E,1,07,2.1,94.765,M,36.771,M,,*44
[2021-02-22 14:52:17.129] $GNGGA,055216.70,3713.93609632,N,13701.49003411,E,1,07,2.1,94.762,M,36.771,M,,*44
[2021-02-22 14:52:17.223] $GNGGA,055216.80,3713.93612170,N,13701.49005557,E,1,07,2.1,94.920,M,36.771,M,,*4D
[2021-02-22 14:52:17.317] $GNGGA,055216.90,3713.93611890,N,13701.49006041,E,1,07,2.1,94.914,M,36.771,M,,*4E
[2021-02-22 14:52:17.426] $GNGGA,055217.00,3713.93613425,N,13701.49010995,E,1,07,2.1,95.019,M,36.771,M,,*44
[2021-02-22 14:52:17.520] $GNGGA,055217.10,3713.93613506,N,13701.49010973,E,1,07,2.1,95.008,M,36.771,M,,*4D
[2021-02-22 14:52:17.629] $GNGGA,055217.20,3713.93616047,N,13701.49017011,E,1,07,2.1,95.004,M,36.771,M,,*4D
[2021-02-22 14:52:17.723] $GNGGA,055217.30,3713.93616457,N,13701.49016734,E,1,07,2.1,95.011,M,36.771,M,,*4C
[2021-02-22 14:52:17.832] $GNGGA,055217.40,3713.93617524,N,13701.49021674,E,1,07,2.1,95.115,M,36.771,M,,*4B
[2021-02-22 14:52:17.926] $GNGGA,055217.50,3713.93617603,N,13701.49021800,E,1,07,2.1,95.113,M,36.771,M,,*47
[2021-02-22 14:52:18.020] $GNGGA,055217.60,3713.93618025,N,13701.49027583,E,1,07,2.1,95.085,M,36.771,M,,*47
[2021-02-22 14:52:18.129] $GNGGA,055217.70,3713.93617612,N,13701.49027568,E,1,07,2.1,95.087,M,36.771,M,,*4C
[2021-02-22 14:52:18.223] $GNGGA,055217.80,3713.93617781,N,13701.49028867,E,1,07,2.3,95.181,M,36.771,M,,*40
[2021-02-22 14:52:18.317] $GNGGA,055217.90,3713.93619187,N,13701.49028739,E,1,07,2.3,95.167,M,36.771,M,,*43
[2021-02-22 14:52:18.426] $GNGGA,055218.00,3713.93619628,N,13701.49033786,E,1,07,2.3,95.038,M,36.771,M,,*42
[2021-02-22 14:52:18.520] $GNGGA,055218.10,3713.93619760,N,13701.49033834,E,1,07,2.3,95.050,M,36.771,M,,*46
[2021-02-22 14:52:18.629] $GNGGA,055218.20,3713.93620073,N,13701.49032706,E,1,07,2.3,95.106,M,36.771,M,,*47
[2021-02-22 14:52:18.723] $GNGGA,055218.30,3713.93620094,N,13701.49033283,E,1,07,2.3,95.104,M,36.771,M,,*44
[2021-02-22 14:52:18.832] $GNGGA,055218.40,3713.93623147,N,13701.49034487,E,2,07,2.4,95.332,M,36.771,M,1.4,0979*65
[2021-02-22 14:52:18.926] $GNGGA,055218.50,3713.93623215,N,13701.49034355,E,2,06,2.4,95.331,M,36.771,M,1.5,0979*6B
[2021-02-22 14:52:19.035] $GNGGA,055218.60,3713.93624318,N,13701.49031084,E,2,07,2.4,95.433,M,36.771,M,1.6,0979*6E
[2021-02-22 14:52:19.129] $GNGGA,055218.70,3713.93624289,N,13701.49031090,E,2,07,2.4,95.428,M,36.771,M,1.7,0979*68
[2021-02-22 14:52:19.223] $GNGGA,055218.80,3713.93640729,N,13701.49022103,E,2,08,1.7,95.901,M,36.771,M,1.8,0979*65
[2021-02-22 14:52:19.317] $GNGGA,055218.90,3713.93640756,N,13701.49022040,E,2,07,1.7,95.899,M,36.771,M,1.9,0979*64
[2021-02-22 14:52:19.426] $GNGGA,055219.00,3713.93643387,N,13701.49021552,E,2,07,1.7,95.751,M,36.771,M,2.0,0979*63
[2021-02-22 14:52:19.520] $GNGGA,055219.10,3713.93643451,N,13701.49021416,E,2,07,1.7,95.754,M,36.771,M,1.1,0979*68
[2021-02-22 14:52:19.629] $GNGGA,055219.20,3713.93645569,N,13701.49020599,E,2,08,1.7,95.617,M,36.771,M,1.2,0979*6A
[2021-02-22 14:52:19.723] $GNGGA,055219.30,3713.93645553,N,13701.49020491,E,2,08,1.7,95.614,M,36.771,M,1.3,0979*69
[2021-02-22 14:52:19.832] $GNGGA,055219.40,3713.93649635,N,13701.49018125,E,2,09,1.6,95.542,M,36.771,M,1.4,0979*67
[2021-02-22 14:52:19.926] $GNGGA,055219.50,3713.93649599,N,13701.49018261,E,2,08,1.6,95.536,M,36.771,M,1.5,0979*63
[2021-02-22 14:52:20.035] $GNGGA,055219.60,3713.93651429,N,13701.49017536,E,2,09,1.6,95.385,M,36.771,M,1.6,0979*65
[2021-02-22 14:52:20.129] $GNGGA,055219.70,3713.93651301,N,13701.49017474,E,2,09,1.6,95.382,M,36.771,M,1.7,0979*68
[2021-02-22 14:52:20.223] $GNGGA,055219.80,3713.93652957,N,13701.49016933,E,2,09,1.6,95.240,M,36.771,M,1.8,0979*62
[2021-02-22 14:52:20.332] $GNGGA,055219.90,3713.93652895,N,13701.49016948,E,2,09,1.6,95.243,M,36.771,M,1.9,0979*62
[2021-02-22 14:52:20.426] $GNGGA,055220.00,3713.93654677,N,13701.49016917,E,2,09,1.6,95.135,M,36.771,M,1.0,0979*64
[2021-02-22 14:52:20.520] $GNGGA,055220.10,3713.93654433,N,13701.49017088,E,2,09,1.6,95.128,M,36.771,M,1.1,0979*64
[2021-02-22 14:52:20.629] $GNGGA,055220.20,3713.93655980,N,13701.49017162,E,2,09,1.6,95.029,M,36.771,M,1.2,0979*65
[2021-02-22 14:52:20.723] $GNGGA,055220.30,3713.93655794,N,13701.49016974,E,2,09,1.6,95.030,M,36.771,M,1.3,0979*68
[2021-02-22 14:52:20.832] $GNGGA,055220.40,3713.93657267,N,13701.49016859,E,2,09,1.6,94.949,M,36.771,M,1.4,0979*6B
[2021-02-22 14:52:20.926] $GNGGA,055220.50,3713.93657075,N,13701.49017062,E,2,09,1.6,94.946,M,36.771,M,1.5,0979*64
[2021-02-22 14:52:21.035] $GNGGA,055220.60,3713.93658235,N,13701.49016767,E,2,09,1.6,94.881,M,36.771,M,1.6,0979*64
[2021-02-22 14:52:21.129] $GNGGA,055220.70,3713.93657810,N,13701.49016746,E,2,09,1.6,94.885,M,36.771,M,1.7,0979*61
[2021-02-22 14:52:21.223] $GNGGA,055220.80,3713.93658324,N,13701.49016479,E,2,09,1.6,94.819,M,36.771,M,1.8,0979*68
[2021-02-22 14:52:21.316] $GNGGA,055220.90,3713.93658038,N,13701.49016457,E,2,09,1.6,94.823,M,36.771,M,1.9,0979*63
[2021-02-22 14:52:21.426] $GNGGA,055221.00,3713.93659888,N,13701.49014186,E,2,10,1.3,94.727,M,36.771,M,1.0,0979*6D
[2021-02-22 14:52:21.520] $GNGGA,055221.10,3713.93659765,N,13701.49014336,E,2,10,1.3,94.722,M,36.771,M,1.1,0979*6D
[2021-02-22 14:52:21.629] $GNGGA,055221.20,3713.93661242,N,13701.49013291,E,2,10,1.3,94.637,M,36.771,M,1.2,0979*68
[2021-02-22 14:52:21.723] $GNGGA,055221.30,3713.93661405,N,13701.49013447,E,2,10,1.3,94.639,M,36.771,M,1.3,0979*6E
[2021-02-22 14:52:21.832] $GNGGA,055221.40,3713.93662348,N,13701.49012669,E,2,10,1.3,94.558,M,36.771,M,1.4,0979*68
[2021-02-22 14:52:21.926] $GNGGA,055221.50,3713.93662607,N,13701.49012780,E,2,10,1.3,94.561,M,36.771,M,1.5,0979*6A
[2021-02-22 14:52:22.035] $GNGGA,055221.60,3713.93663146,N,13701.49012307,E,2,10,1.3,94.485,M,36.771,M,1.6,0979*69
[2021-02-22 14:52:22.129] $GNGGA,055221.70,3713.93663084,N,13701.49012469,E,2,10,1.3,94.478,M,36.771,M,1.7,0979*6B
[2021-02-22 14:52:22.223] $GNGGA,055221.80,3713.93662502,N,13701.49013231,E,2,09,1.5,94.386,M,36.771,M,1.8,0979*63
[2021-02-22 14:52:22.316] $GNGGA,055221.90,3713.93662679,N,13701.49013043,E,2,09,1.5,94.397,M,36.771,M,1.9,0979*6B
[2021-02-22 14:52:22.410] $GNGGA,055222.00,3713.93662039,N,13701.49013411,E,2,09,1.5,94.329,M,36.771,M,2.0,0979*6F
[2021-02-22 14:52:22.520] $GNGGA,055222.10,3713.93662030,N,13701.49013568,E,2,09,1.5,94.324,M,36.771,M,2.1,0979*64
[2021-02-22 14:52:22.629] $GNGGA,055222.20,3713.93661967,N,13701.49013693,E,2,09,1.5,94.276,M,36.771,M,1.2,0979*6E
[2021-02-22 14:52:22.723] $GNGGA,055222.30,3713.93662058,N,13701.49013526,E,2,09,1.5,94.277,M,36.771,M,1.3,0979*64
[2021-02-22 14:52:22.832] $GNGGA,055222.40,3713.93662070,N,13701.49013576,E,2,09,1.5,94.234,M,36.771,M,1.4,0979*6C
[2021-02-22 14:52:22.926] $GNGGA,055222.50,3713.93662083,N,13701.49013794,E,2,09,1.5,94.227,M,36.771,M,1.5,0979*6C
[2021-02-22 14:52:23.035] $GNGGA,055222.60,3713.93661983,N,13701.49013952,E,2,09,1.5,94.192,M,36.771,M,1.6,0979*6F
[2021-02-22 14:52:23.129] $GNGGA,055222.70,3713.93662227,N,13701.49013954,E,2,09,1.5,94.188,M,36.771,M,1.7,0979*64
[2021-02-22 14:52:23.223] $GNGGA,055222.80,3713.93662090,N,13701.49014215,E,2,09,1.5,94.159,M,36.771,M,1.8,0979*6F
[2021-02-22 14:52:23.316] $GNGGA,055222.90,3713.93662323,N,13701.49014143,E,2,09,1.5,94.155,M,36.771,M,1.9,0979*68
[2021-02-22 14:52:23.426] $GNGGA,055223.00,3713.93662179,N,13701.49014346,E,2,09,1.5,94.131,M,36.771,M,2.0,0979*62
[2021-02-22 14:52:23.519] $GNGGA,055223.10,3713.93662069,N,13701.49014297,E,2,09,1.5,94.133,M,36.771,M,2.1,0979*6D
[2021-02-22 14:52:23.629] $GNGGA,055223.20,3713.93661401,N,13701.49014547,E,2,09,1.5,94.115,M,36.771,M,1.2,0979*69
[2021-02-22 14:52:23.723] $GNGGA,055223.30,3713.93661303,N,13701.49014937,E,2,09,1.5,94.114,M,36.771,M,1.3,0979*66
[2021-02-22 14:52:23.832] $GNGGA,055223.40,3713.93660321,N,13701.49015332,E,2,09,1.5,94.101,M,36.771,M,1.4,0979*6D
[2021-02-22 14:52:23.926] $GNGGA,055223.50,3713.93660164,N,13701.49015352,E,2,09,1.5,94.103,M,36.771,M,1.5,0979*6A
[2021-02-22 14:52:24.035] $GNGGA,055223.60,3713.93659316,N,13701.49015494,E,2,09,1.5,94.093,M,36.771,M,1.6,0979*62
[2021-02-22 14:52:24.129] $GNGGA,055223.70,3713.93658980,N,13701.49015969,E,2,09,1.5,94.086,M,36.771,M,1.7,0979*6D
[2021-02-22 14:52:24.222] $GNGGA,055223.80,3713.93658341,N,13701.49015872,E,2,09,1.5,94.068,M,36.771,M,1.8,0979*61
[2021-02-22 14:52:24.332] $GNGGA,055223.90,3713.93658203,N,13701.49015998,E,2,09,1.5,94.067,M,36.771,M,1.9,0979*6C
[2021-02-22 14:52:24.426] $GNGGA,055224.00,3713.93657304,N,13701.49015860,E,2,09,1.5,94.052,M,36.771,M,2.0,0979*61
[2021-02-22 14:52:24.519] $GNGGA,055224.10,3713.93657257,N,13701.49015884,E,2,09,1.5,94.048,M,36.771,M,2.1,0979*67
[2021-02-22 14:52:24.629] $GNGGA,055224.20,3713.93656727,N,13701.49015671,E,2,09,1.5,94.045,M,36.771,M,1.2,0979*6E
[2021-02-22 14:52:24.722] $GNGGA,055224.30,3713.93656804,N,13701.49015684,E,2,09,1.5,94.042,M,36.771,M,1.3,0979*6D
[2021-02-22 14:52:24.832] $GNGGA,055224.40,3713.93657179,N,13701.49014441,E,2,09,1.5,94.048,M,36.771,M,1.4,0979*6F
[2021-02-22 14:52:24.926] $GNGGA,055224.50,3713.93657180,N,13701.49014465,E,2,09,1.5,94.049,M,36.771,M,1.5,0979*6E
[2021-02-22 14:52:25.035] $GNGGA,055224.60,3713.93656843,N,13701.49014362,E,2,10,1.3,94.043,M,36.771,M,1.6,0979*6D
[2021-02-22 14:52:25.129] $GNGGA,055224.70,3713.93656902,N,13701.49014334,E,2,10,1.3,94.043,M,36.771,M,1.7,0979*6A
[2021-02-22 14:52:25.222] $GNGGA,055224.80,3713.93656978,N,13701.49013748,E,2,10,1.3,94.041,M,36.771,M,1.8,0979*6D
[2021-02-22 14:52:25.316] $GNGGA,055224.90,3713.93657162,N,13701.49013655,E,2,10,1.3,94.045,M,36.771,M,1.9,0979*66
[2021-02-22 14:52:25.426] $GNGGA,055225.00,3713.93657267,N,13701.49012951,E,2,10,1.3,94.042,M,36.771,M,2.0,0979*6F
[2021-02-22 14:52:25.519] $GNGGA,055225.10,3713.93657565,N,13701.49012549,E,2,10,1.3,94.046,M,36.771,M,2.1,0979*6B
[2021-02-22 14:52:25.629] $GNGGA,055225.20,3713.93657507,N,13701.49011264,E,2,10,1.3,94.038,M,36.771,M,1.2,0979*6E
[2021-02-22 14:52:25.722] $GNGGA,055225.30,3713.93657636,N,13701.49011173,E,2,10,1.3,94.043,M,36.771,M,1.3,0979*66
[2021-02-22 14:52:25.832] $GNGGA,055225.40,3713.93657516,N,13701.49010225,E,2,10,1.3,94.037,M,36.771,M,1.4,0979*65
[2021-02-22 14:52:25.925] $GNGGA,055225.50,3713.93657467,N,13701.49010070,E,2,10,1.3,94.043,M,36.771,M,1.5,0979*63
[2021-02-22 14:52:26.035] $GNGGA,055225.60,3713.93657879,N,13701.49009290,E,2,10,1.3,94.040,M,36.771,M,1.6,0979*67
[2021-02-22 14:52:26.129] $GNGGA,055225.70,3713.93657887,N,13701.49009293,E,2,10,1.3,94.040,M,36.771,M,1.7,0979*65
[2021-02-22 14:52:26.222] $GNGGA,055225.80,3713.93657811,N,13701.49008317,E,2,10,1.3,94.035,M,36.771,M,1.8,0979*64
[2021-02-22 14:52:26.332] $GNGGA,055225.90,3713.93657879,N,13701.49008351,E,2,10,1.3,94.039,M,36.771,M,1.9,0979*64
[2021-02-22 14:52:26.425] $GNGGA,055226.00,3713.93658341,N,13701.49007437,E,2,10,1.3,94.033,M,36.771,M,1.0,0979*6A
[2021-02-22 14:52:26.535] $GNGGA,055226.10,3713.93658424,N,13701.49007382,E,2,10,1.3,94.039,M,36.771,M,1.1,0979*6D
[2021-02-22 14:52:26.629] $GNGGA,055226.20,3713.93658495,N,13701.49006508,E,2,10,1.3,94.032,M,36.771,M,1.2,0979*69
[2021-02-22 14:52:26.722] $GNGGA,055226.30,3713.93658377,N,13701.49006336,E,2,10,1.3,94.035,M,36.771,M,1.3,0979*6E
[2021-02-22 14:52:26.832] $GNGGA,055226.40,3713.93658532,N,13701.49005486,E,2,10,1.3,94.030,M,36.771,M,1.4,0979*63
[2021-02-22 14:52:26.925] $GNGGA,055226.50,3713.93658473,N,13701.49005468,E,2,10,1.3,94.031,M,36.771,M,1.5,0979*66
[2021-02-22 14:52:27.035] $GNGGA,055226.60,3713.93658654,N,13701.49004892,E,2,10,1.3,94.020,M,36.771,M,1.6,0979*69
[2021-02-22 14:52:27.129] $GNGGA,055226.70,3713.93658634,N,13701.49004820,E,2,10,1.3,94.029,M,36.771,M,1.7,0979*6F
[2021-02-22 14:52:27.222] $GNGGA,055226.80,3713.93658643,N,13701.49004310,E,2,10,1.3,94.020,M,36.771,M,1.8,0979*6E
[2021-02-22 14:52:27.332] $GNGGA,055226.90,3713.93658580,N,13701.49004545,E,2,10,1.3,94.014,M,36.771,M,1.9,0979*63
[2021-02-22 14:52:27.425] $GNGGA,055227.00,3713.93658429,N,13701.49004121,E,2,10,1.3,94.010,M,36.771,M,2.0,0979*61
[2021-02-22 14:52:27.535] $GNGGA,055227.10,3713.93658307,N,13701.49004080,E,2,10,1.3,94.006,M,36.771,M,1.1,0979*64
[2021-02-22 14:52:27.629] $GNGGA,055227.20,3713.93658273,N,13701.49003386,E,2,10,1.3,93.998,M,36.771,M,1.2,0979*6D
[2021-02-22 14:52:27.722] $GNGGA,055227.30,3713.93658109,N,13701.49003720,E,2,10,1.3,94.000,M,36.771,M,1.3,0979*64
[2021-02-22 14:52:27.832] $GNGGA,055227.40,3713.93657917,N,13701.49003154,E,2,10,1.3,93.990,M,36.771,M,1.4,0979*6E
[2021-02-22 14:52:27.925] $GNGGA,055227.50,3713.93657800,N,13701.49003366,E,2,10,1.3,93.993,M,36.771,M,1.5,0979*69
[2021-02-22 14:52:28.035] $GNGGA,055227.60,3713.93657655,N,13701.49002861,E,2,10,1.3,93.984,M,36.771,M,1.6,0979*6C
[2021-02-22 14:52:28.128] $GNGGA,055227.70,3713.93657331,N,13701.49003128,E,2,10,1.3,93.985,M,36.771,M,1.7,0979*6F
[2021-02-22 14:52:28.222] $GNGGA,055227.80,3713.93657116,N,13701.49002475,E,2,10,1.3,93.983,M,36.771,M,1.8,0979*62
[2021-02-22 14:52:28.332] $GNGGA,055227.90,3713.93656874,N,13701.49002729,E,2,10,1.3,93.976,M,36.771,M,1.9,0979*6E
[2021-02-22 14:52:28.425] $GNGGA,055228.00,3713.93656440,N,13701.49001924,E,2,10,1.3,93.979,M,36.771,M,2.0,0979*66
[2021-02-22 14:52:28.535] $GNGGA,055228.10,3713.93656373,N,13701.49001815,E,2,10,1.3,93.977,M,36.771,M,1.1,0979*6F
[2021-02-22 14:52:28.628] $GNGGA,055228.20,3713.93656112,N,13701.49000798,E,2,10,1.3,93.989,M,36.771,M,1.2,0979*60
[2021-02-22 14:52:28.722] $GNGGA,055228.30,3713.93656269,N,13701.49000714,E,2,10,1.3,93.986,M,36.771,M,1.3,0979*64
[2021-02-22 14:52:28.832] $GNGGA,055228.40,3713.93655975,N,13701.48999825,E,2,10,1.3,93.996,M,36.771,M,1.4,0979*65
[2021-02-22 14:52:28.925] $GNGGA,055228.50,3713.93656362,N,13701.48999604,E,2,10,1.3,93.996,M,36.771,M,1.5,0979*67
[2021-02-22 14:52:29.035] $GNGGA,055228.60,3713.93655693,N,13701.48999073,E,2,10,1.3,94.008,M,36.771,M,1.6,0979*60
[2021-02-22 14:52:29.128] $GNGGA,055228.70,3713.93655936,N,13701.48998775,E,2,10,1.3,94.011,M,36.771,M,1.7,0979*68
[2021-02-22 14:52:29.222] $GNGGA,055228.80,3713.93655243,N,13701.48998539,E,2,10,1.3,94.024,M,36.771,M,1.8,0979*6D
[2021-02-22 14:52:29.332] $GNGGA,055228.90,3713.93655449,N,13701.48998426,E,2,10,1.3,94.020,M,36.771,M,1.9,0979*6A
[2021-02-22 14:52:29.441] $GNGGA,055229.00,3713.93654860,N,13701.48998141,E,2,10,1.3,94.029,M,36.771,M,1.0,0979*60
[2021-02-22 14:52:29.519] $GNGGA,055229.10,3713.93654870,N,13701.48998131,E,2,10,1.3,94.036,M,36.771,M,1.1,0979*68
[2021-02-22 14:52:29.628] $GNGGA,055229.20,3713.93654157,N,13701.48998019,E,2,10,1.3,94.045,M,36.771,M,1.2,0979*6B
[2021-02-22 14:52:29.722] $GNGGA,055229.30,3713.93654309,N,13701.48997961,E,2,10,1.3,94.043,M,36.771,M,1.3,0979*6D
[2021-02-22 14:52:29.831] $GNGGA,055229.40,3713.93653768,N,13701.48997843,E,2,10,1.3,94.047,M,36.771,M,1.4,0979*6C
[2021-02-22 14:52:29.925] $GNGGA,055229.50,3713.93653919,N,13701.48997736,E,2,10,1.3,94.051,M,36.771,M,1.5,0979*6E
[2021-02-22 14:52:30.035] $GNGGA,055229.60,3713.93653619,N,13701.48997579,E,2,10,1.3,94.053,M,36.771,M,1.6,0979*6A
[2021-02-22 14:52:30.128] $GNGGA,055229.70,3713.93653734,N,13701.48997612,E,2,10,1.3,94.056,M,36.771,M,1.7,0979*6F
[2021-02-22 14:52:30.238] $GNGGA,055229.80,3713.93653459,N,13701.48997336,E,2,10,1.3,94.061,M,36.771,M,1.8,0979*60
[2021-02-22 14:52:30.331] $GNGGA,055229.90,3713.93653497,N,13701.48997275,E,2,10,1.3,94.064,M,36.771,M,1.9,0979*61
[2021-02-22 14:52:30.441] $GNGGA,055230.00,3713.93652611,N,13701.48996909,E,2,10,1.3,94.070,M,36.771,M,2.0,0979*63
[2021-02-22 14:52:30.535] $GNGGA,055230.10,3713.93652757,N,13701.48997163,E,2,10,1.3,94.064,M,36.771,M,2.1,0979*60
[2021-02-22 14:52:30.628] $GNGGA,055230.20,3713.93652249,N,13701.48996645,E,2,10,1.3,94.068,M,36.771,M,2.2,0979*64
[2021-02-22 14:52:30.738] $GNGGA,055230.30,3713.93652364,N,13701.48996431,E,2,10,1.3,94.069,M,36.771,M,1.3,0979*69
[2021-02-22 14:52:30.831] $GNGGA,055230.40,3713.93650118,N,13701.49008042,E,5,09,1.3,94.739,M,36.771,M,1.4,0979*60
[2021-02-22 14:52:30.925] $GNGGA,055230.50,3713.93650246,N,13701.49008210,E,5,09,1.3,94.738,M,36.771,M,1.5,0979*6C
[2021-02-22 14:52:31.035] $GNGGA,055230.60,3713.93650047,N,13701.49008165,E,5,09,1.3,94.742,M,36.771,M,1.6,0979*63
[2021-02-22 14:52:31.128] $GNGGA,055230.70,3713.93650266,N,13701.49007948,E,5,09,1.3,94.737,M,36.771,M,1.7,0979*68
[2021-02-22 14:52:31.238] $GNGGA,055230.80,3713.93650332,N,13701.49007723,E,5,09,1.3,94.739,M,36.771,M,1.8,0979*65
[2021-02-22 14:52:31.331] $GNGGA,055230.90,3713.93650064,N,13701.49008283,E,5,09,1.3,94.734,M,36.771,M,1.9,0979*68
[2021-02-22 14:52:31.441] $GNGGA,055231.00,3713.93650099,N,13701.49008266,E,5,09,1.3,94.732,M,36.771,M,2.0,0979*65
[2021-02-22 14:52:31.534] $GNGGA,055231.10,3713.93649888,N,13701.49008423,E,5,09,1.3,94.736,M,36.771,M,2.1,0979*66
[2021-02-22 14:52:31.628] $GNGGA,055231.20,3713.93652425,N,13701.49007575,E,5,09,1.3,94.631,M,36.771,M,1.2,0979*6F
[2021-02-22 14:52:31.722] $GNGGA,055231.30,3713.93652469,N,13701.49007339,E,5,09,1.3,94.636,M,36.771,M,1.3,0979*6E
[2021-02-22 14:52:31.831] $GNGGA,055231.40,3713.93652814,N,13701.49007900,E,5,09,1.3,94.623,M,36.771,M,1.4,0979*6C
[2021-02-22 14:52:31.925] $GNGGA,055231.50,3713.93652447,N,13701.49007426,E,5,09,1.3,94.638,M,36.771,M,1.5,0979*65
[2021-02-22 14:52:32.034] $GNGGA,055231.60,3713.93652629,N,13701.49007457,E,5,09,1.3,94.637,M,36.771,M,1.6,0979*66
[2021-02-22 14:52:32.128] $GNGGA,055231.70,3713.93652676,N,13701.49007585,E,5,09,1.3,94.633,M,36.771,M,1.7,0979*66
[2021-02-22 14:52:32.238] $GNGGA,055231.80,3713.93652734,N,13701.49007451,E,5,09,1.3,94.630,M,36.771,M,1.8,0979*6A
[2021-02-22 14:52:32.331] $GNGGA,055231.90,3713.93652517,N,13701.49007522,E,5,09,1.3,94.636,M,36.771,M,1.9,0979*6A
[2021-02-22 14:52:32.425] $GNGGA,055232.00,3713.93652695,N,13701.49007666,E,5,09,1.3,94.633,M,36.771,M,2.0,0979*65
[2021-02-22 14:52:32.503] $GNGGA,055232.10,3713.93654138,N,13701.49007498,E,5,09,1.3,94.611,M,36.771,M,1.1,0979*63
[2021-02-22 14:52:32.628] $GNGGA,055232.20,3713.93654053,N,13701.49007438,E,5,09,1.3,94.603,M,36.771,M,1.2,0979*66
[2021-02-22 14:52:32.722] $GNGGA,055232.30,3713.93654010,N,13701.49007621,E,5,09,1.3,94.596,M,36.771,M,1.3,0979*64
[2021-02-22 14:52:32.831] $GNGGA,055232.40,3713.93654046,N,13701.49007419,E,5,09,1.3,94.604,M,36.771,M,1.4,0979*66
[2021-02-22 14:52:32.925] $GNGGA,055232.50,3713.93654028,N,13701.49007510,E,5,09,1.3,94.601,M,36.771,M,1.5,0979*63
[2021-02-22 14:52:33.034] $GNGGA,055232.60,3713.93654049,N,13701.49007620,E,5,09,1.3,94.603,M,36.771,M,1.6,0979*66
[2021-02-22 14:52:33.128] $GNGGA,055232.70,3713.93654218,N,13701.49007879,E,5,09,1.3,94.591,M,36.771,M,1.7,0979*6A
[2021-02-22 14:52:33.237] $GNGGA,055232.80,3713.93653825,N,13701.49007481,E,5,09,1.3,94.610,M,36.771,M,1.8,0979*68
[2021-02-22 14:52:33.331] $GNGGA,055232.90,3713.93654193,N,13701.49007665,E,5,09,1.3,94.596,M,36.771,M,1.9,0979*6E
[2021-02-22 14:52:33.441] $GNGGA,055233.00,3713.93653902,N,13701.49007784,E,5,09,1.3,94.598,M,36.771,M,2.0,0979*6B
[2021-02-22 14:52:33.534] $GNGGA,055233.10,3713.93653900,N,13701.49007405,E,5,09,1.3,94.605,M,36.771,M,2.1,0979*64
[2021-02-22 14:52:33.628] $GNGGA,055233.20,3713.93653680,N,13701.49006501,E,5,10,1.2,94.569,M,36.771,M,1.2,0979*64
[2021-02-22 14:52:33.722] $GNGGA,055233.30,3713.93653895,N,13701.49006832,E,5,10,1.2,94.563,M,36.771,M,1.3,0979*69
[2021-02-22 14:52:33.831] $GNGGA,055233.40,3713.93654111,N,13701.49006577,E,5,10,1.2,94.567,M,36.771,M,1.4,0979*63
[2021-02-22 14:52:33.925] $GNGGA,055233.50,3713.93653761,N,13701.49006591,E,5,10,1.2,94.576,M,36.771,M,1.5,0979*6D
[2021-02-22 14:52:34.034] $GNGGA,055233.60,3713.93654004,N,13701.49006663,E,5,10,1.2,94.568,M,36.771,M,1.6,0979*6F
[2021-02-22 14:52:34.128] $GNGGA,055233.70,3713.93654082,N,13701.49006592,E,5,10,1.2,94.573,M,36.771,M,1.7,0979*66
[2021-02-22 14:52:34.237] $GNGGA,055233.80,3713.93653703,N,13701.49006634,E,5,10,1.2,94.570,M,36.771,M,1.8,0979*63
[2021-02-22 14:52:34.331] $GNGGA,055233.90,3713.93653856,N,13701.49006706,E,5,10,1.2,94.568,M,36.771,M,1.9,0979*65
[2021-02-22 14:52:34.441] $GNGGA,055234.00,3713.93654014,N,13701.49006935,E,5,10,1.2,94.555,M,36.771,M,2.0,0979*68
[2021-02-22 14:52:34.534] $GNGGA,055234.10,3713.93653869,N,13701.49006429,E,5,10,1.2,94.567,M,36.771,M,1.1,0979*6F
[2021-02-22 14:52:34.628] $GNGGA,055234.20,3713.93653812,N,13701.49006535,E,5,10,1.2,94.573,M,36.771,M,1.2,0979*6A
[2021-02-22 14:52:34.737] $GNGGA,055234.30,3713.93653943,N,13701.49006467,E,5,10,1.2,94.576,M,36.771,M,1.3,0979*6C
[2021-02-22 14:52:34.831] $GNGGA,055234.40,3713.93653894,N,13701.49006498,E,5,10,1.2,94.566,M,36.771,M,1.4,0979*66
[2021-02-22 14:52:34.925] $GNGGA,055234.50,3713.93653589,N,13701.49006510,E,5,10,1.2,94.568,M,36.771,M,1.5,0979*68
[2021-02-22 14:52:35.034] $GNGGA,055234.60,3713.93653912,N,13701.49006577,E,5,10,1.2,94.570,M,36.771,M,1.6,0979*6E
[2021-02-22 14:52:35.128] $GNGGA,055234.70,3713.93653871,N,13701.49006631,E,5,10,1.2,94.569,M,36.771,M,1.7,0979*63
[2021-02-22 14:52:35.237] $GNGGA,055234.80,3713.93654120,N,13701.49006444,E,5,10,1.2,94.568,M,36.771,M,1.8,0979*68
[2021-02-22 14:52:35.331] $GNGGA,055234.90,3713.93653957,N,13701.49006412,E,5,10,1.2,94.570,M,36.771,M,1.9,0979*6D
[2021-02-22 14:52:35.440] $GNGGA,055235.00,3713.93653917,N,13701.49006530,E,5,10,1.2,94.570,M,36.771,M,2.0,0979*6A
[2021-02-22 14:52:35.534] $GNGGA,055235.10,3713.93654011,N,13701.49006646,E,5,10,1.2,94.564,M,36.771,M,1.1,0979*66
[2021-02-22 14:52:35.628] $GNGGA,055235.20,3713.93653872,N,13701.49006709,E,5,10,1.2,94.567,M,36.771,M,1.2,0979*65
[2021-02-22 14:52:35.722] $GNGGA,055235.30,3713.93654026,N,13701.49006734,E,5,10,1.2,94.563,M,36.771,M,1.3,0979*61
[2021-02-22 14:52:35.831] $GNGGA,055235.40,3713.93654087,N,13701.49006705,E,5,10,1.2,94.567,M,36.771,M,1.4,0979*6C
[2021-02-22 14:52:35.925] $GNGGA,055235.50,3713.93654047,N,13701.49006945,E,5,10,1.2,94.571,M,36.771,M,1.5,0979*6D
[2021-02-22 14:52:36.034] $GNGGA,055235.60,3713.93653986,N,13701.49006493,E,5,10,1.2,94.568,M,36.771,M,1.6,0979*60
[2021-02-22 14:52:36.128] $GNGGA,055235.70,3713.93653974,N,13701.49006590,E,5,10,1.2,94.570,M,36.771,M,1.7,0979*66
[2021-02-22 14:52:36.237] $GNGGA,055235.80,3713.93654194,N,13701.49007228,E,5,10,1.2,94.564,M,36.771,M,1.8,0979*67
[2021-02-22 14:52:36.331] $GNGGA,055235.90,3713.93654061,N,13701.49006744,E,5,10,1.2,94.572,M,36.771,M,1.9,0979*65
[2021-02-22 14:52:36.440] $GNGGA,055236.00,3713.93653960,N,13701.49006397,E,5,10,1.2,94.573,M,36.771,M,2.0,0979*61
[2021-02-22 14:52:36.519] $GNGGA,055236.10,3713.93654118,N,13701.49006267,E,5,10,1.2,94.577,M,36.771,M,1.1,0979*68
[2021-02-22 14:52:36.628] $GNGGA,055236.20,3713.93654277,N,13701.49006523,E,5,10,1.2,94.575,M,36.771,M,1.2,0979*67
[2021-02-22 14:52:36.722] $GNGGA,055236.30,3713.93654033,N,13701.49006559,E,5,10,1.2,94.579,M,36.771,M,1.3,0979*64
[2021-02-22 14:52:36.831] $GNGGA,055236.40,3713.93654078,N,13701.49006352,E,5,10,1.2,94.574,M,36.771,M,1.4,0979*6B
[2021-02-22 14:52:36.925] $GNGGA,055236.50,3713.93654207,N,13701.49006245,E,5,10,1.2,94.575,M,36.771,M,1.5,0979*67
[2021-02-22 14:52:37.034] $GNGGA,055236.60,3713.93654259,N,13701.49006748,E,5,10,1.2,94.565,M,36.771,M,1.6,0979*65
[2021-02-22 14:52:37.128] $GNGGA,055236.70,3713.93653902,N,13701.49006434,E,5,10,1.2,94.570,M,36.771,M,1.7,0979*6B
[2021-02-22 14:52:37.237] $GNGGA,055236.80,3713.93654039,N,13701.49006596,E,5,10,1.2,94.570,M,36.771,M,1.8,0979*64
[2021-02-22 14:52:37.331] $GNGGA,055236.90,3713.93654221,N,13701.49006716,E,5,10,1.2,94.567,M,36.771,M,1.9,0979*63
[2021-02-22 14:52:37.440] $GNGGA,055237.00,3713.93654162,N,13701.49006382,E,5,10,1.2,94.577,M,36.771,M,2.0,0979*6D
[2021-02-22 14:52:37.534] $GNGGA,055237.10,3713.93654034,N,13701.49006371,E,4,10,1.2,94.565,M,36.771,M,1.1,0979*62
[2021-02-22 14:52:37.628] $GNGGA,055237.20,3713.93653877,N,13701.49006181,E,4,10,1.2,94.567,M,36.771,M,1.2,0979*65
[2021-02-22 14:52:37.722] $GNGGA,055237.30,3713.93654113,N,13701.49006177,E,4,10,1.2,94.567,M,36.771,M,1.3,0979*60
[2021-02-22 14:52:37.831] $GNGGA,055237.40,3713.93654019,N,13701.49006362,E,4,10,1.2,94.572,M,36.771,M,1.4,0979*69
[2021-02-22 14:52:37.925] $GNGGA,055237.50,3713.93653925,N,13701.49006363,E,4,10,1.2,94.569,M,36.771,M,1.5,0979*63
[2021-02-22 14:52:38.034] $GNGGA,055237.60,3713.93654082,N,13701.49006176,E,4,10,1.2,94.568,M,36.771,M,1.6,0979*67
[2021-02-22 14:52:38.128] $GNGGA,055237.70,3713.93654118,N,13701.49006446,E,4,10,1.2,94.561,M,36.771,M,1.7,0979*6A
[2021-02-22 14:52:38.237] $GNGGA,055237.80,3713.93653977,N,13701.49006328,E,4,10,1.2,94.571,M,36.771,M,1.8,0979*62
[2021-02-22 14:52:38.331] $GNGGA,055237.90,3713.93653980,N,13701.49006154,E,4,10,1.2,94.572,M,36.771,M,1.9,0979*60
[2021-02-22 14:52:38.440] $GNGGA,055238.00,3713.93653968,N,13701.49006209,E,4,10,1.2,94.567,M,36.771,M,2.0,0979*65
[2021-02-22 14:52:38.518] $GNGGA,055238.10,3713.93653919,N,13701.49006407,E,4,10,1.2,94.564,M,36.771,M,2.1,0979*68
[2021-02-22 14:52:38.628] $GNGGA,055238.20,3713.93654271,N,13701.49006606,E,4,10,1.2,94.571,M,36.771,M,2.2,0979*6D
[2021-02-22 14:52:38.737] $GNGGA,055238.30,3713.93654127,N,13701.49006667,E,4,10,1.2,94.563,M,36.771,M,1.3,0979*6A
[2021-02-22 14:52:38.831] $GNGGA,055238.40,3713.93654030,N,13701.49006419,E,4,10,1.2,94.562,M,36.771,M,1.4,0979*67
[2021-02-22 14:52:38.925] $GNGGA,055238.50,3713.93654214,N,13701.49006584,E,4,10,1.2,94.565,M,36.771,M,1.5,0979*61
[2021-02-22 14:52:39.034] $GNGGA,055238.60,3713.93653993,N,13701.49006432,E,4,10,1.2,94.571,M,36.771,M,1.6,0979*6B
[2021-02-22 14:52:39.128] $GNGGA,055238.70,3713.93654145,N,13701.49006298,E,4,10,1.2,94.567,M,36.771,M,1.7,0979*6E
[2021-02-22 14:52:39.237] $GNGGA,055238.80,3713.93654210,N,13701.49006428,E,4,10,1.2,94.565,M,36.771,M,1.8,0979*62
[2021-02-22 14:52:39.331] $GNGGA,055238.90,3713.93654011,N,13701.49006470,E,4,10,1.2,94.559,M,36.771,M,1.9,0979*63
[2021-02-22 14:52:39.440] $GNGGA,055239.00,3713.93654192,N,13701.49006192,E,4,10,1.2,94.561,M,36.771,M,2.0,0979*69
[2021-02-22 14:52:39.534] $GNGGA,055239.10,3713.93653860,N,13701.49006336,E,4,10,1.2,94.569,M,36.771,M,1.1,0979*6D
[2021-02-22 14:52:39.628] $GNGGA,055239.20,3713.93654044,N,13701.49006184,E,4,10,1.2,94.565,M,36.771,M,1.2,0979*63
[2021-02-22 14:52:39.737] $GNGGA,055239.30,3713.93654185,N,13701.49006290,E,4,10,1.2,94.570,M,36.771,M,1.3,0979*6D
[2021-02-22 14:52:39.831] $GNGGA,055239.40,3713.93653934,N,13701.49006332,E,4,10,1.2,94.566,M,36.771,M,1.4,0979*66
[2021-02-22 14:52:39.925] $GNGGA,055239.50,3713.93653873,N,13701.49006348,E,4,10,1.2,94.555,M,36.771,M,1.5,0979*69
[2021-02-22 14:52:40.034] $GNGGA,055239.60,3713.93653866,N,13701.49006541,E,4,10,1.2,94.568,M,36.771,M,1.6,0979*6C
[2021-02-22 14:52:40.128] $GNGGA,055239.70,3713.93654041,N,13701.49006521,E,4,10,1.2,94.568,M,36.771,M,1.7,0979*60
[2021-02-22 14:52:40.237] $GNGGA,055239.80,3713.93653824,N,13701.49006413,E,4,10,1.2,94.567,M,36.771,M,1.8,0979*63
[2021-02-22 14:52:40.315] $GNGGA,055239.90,3713.93653818,N,13701.49006423,E,4,10,1.2,94.561,M,36.771,M,1.9,0979*69
[2021-02-22 14:52:40.424] $GNGGA,055240.00,3713.93653842,N,13701.49006338,E,4,10,1.2,94.573,M,36.771,M,2.0,0979*65
[2021-02-22 14:52:40.518] $GNGGA,055240.10,3713.93653875,N,13701.49006582,E,4,10,1.2,94.565,M,36.771,M,2.1,0979*61
[2021-02-22 14:52:40.628] $GNGGA,055240.20,3713.93653930,N,13701.49006627,E,4,10,1.2,94.563,M,36.771,M,1.2,0979*68
[2021-02-22 14:52:40.721] $GNGGA,055240.30,3713.93653978,N,13701.49006606,E,4,10,1.2,94.573,M,36.771,M,1.3,0979*66
[2021-02-22 14:52:40.831] $GNGGA,055240.40,3713.93653973,N,13701.49006566,E,4,10,1.2,94.561,M,36.771,M,1.4,0979*6B
[2021-02-22 14:52:40.924] $GNGGA,055240.50,3713.93654049,N,13701.49006812,E,4,10,1.2,94.556,M,36.771,M,1.5,0979*66
[2021-02-22 14:52:41.034] $GNGGA,055240.60,3713.93654238,N,13701.49006519,E,4,10,1.2,94.559,M,36.771,M,1.6,0979*6B
[2021-02-22 14:52:41.128] $GNGGA,055240.70,3713.93653871,N,13701.49006655,E,4,10,1.2,94.558,M,36.771,M,1.7,0979*61
[2021-02-22 14:52:41.237] $GNGGA,055240.80,3713.93654184,N,13701.49006571,E,4,10,1.2,94.564,M,36.771,M,1.8,0979*6F
[2021-02-22 14:52:41.315] $GNGGA,055240.90,3713.93653843,N,13701.49006451,E,4,10,1.2,94.568,M,36.771,M,1.9,0979*65
[2021-02-22 14:52:41.440] $GNGGA,055241.00,3713.93653922,N,13701.49006335,E,4,10,1.2,94.555,M,36.771,M,1.0,0979*69
[2021-02-22 14:52:41.518] $GNGGA,055241.10,3713.93654063,N,13701.49006588,E,4,10,1.2,94.554,M,36.771,M,1.1,0979*63
[2021-02-22 14:52:41.628] $GNGGA,055241.20,3713.93653835,N,13701.49006373,E,4,10,1.2,94.559,M,36.771,M,1.2,0979*60
[2021-02-22 14:52:41.721] $GNGGA,055241.30,3713.93654184,N,13701.49006737,E,4,10,1.2,94.544,M,36.771,M,1.3,0979*6C
[2021-02-22 14:52:41.831] $GNGGA,055241.40,3713.93653947,N,13701.49006535,E,4,10,1.2,94.552,M,36.771,M,1.4,0979*6B
[2021-02-22 14:52:41.924] $GNGGA,055241.50,3713.93653759,N,13701.49006341,E,4,10,1.2,94.557,M,36.771,M,1.5,0979*6A
[2021-02-22 14:52:42.034] $GNGGA,055241.60,3713.93654012,N,13701.49006295,E,4,10,1.2,94.560,M,36.771,M,1.6,0979*69
[2021-02-22 14:52:42.127] $GNGGA,055241.70,3713.93653919,N,13701.49006586,E,4,10,1.2,94.557,M,36.771,M,1.7,0979*6D
[2021-02-22 14:52:42.221] $GNGGA,055241.80,3713.93654029,N,13701.49006206,E,4,10,1.2,94.558,M,36.771,M,1.8,0979*60
[2021-02-22 14:52:42.315] $GNGGA,055241.90,3713.93653571,N,13701.49006457,E,4,10,1.2,94.566,M,36.771,M,1.9,0979*60
[2021-02-22 14:52:42.424] $GNGGA,055242.00,3713.93654018,N,13701.49006307,E,4,10,1.2,94.552,M,36.771,M,2.0,0979*68
[2021-02-22 14:52:42.502] $GNGGA,055242.10,3713.93654106,N,13701.49006545,E,4,10,1.2,94.575,M,36.771,M,1.1,0979*60
[2021-02-22 14:52:42.627] $GNGGA,055242.20,3713.93654027,N,13701.49006651,E,4,10,1.2,94.567,M,36.771,M,1.2,0979*67
[2021-02-22 14:52:42.721] $GNGGA,055242.30,3713.93654083,N,13701.49006617,E,4,10,1.2,94.571,M,36.771,M,1.3,0979*6C
[2021-02-22 14:52:42.831] $GNGGA,055242.40,3713.93653921,N,13701.49006712,E,4,10,1.2,94.565,M,36.771,M,1.4,0979*6B
[2021-02-22 14:52:42.924] $GNGGA,055242.50,3713.93654166,N,13701.49006774,E,4,10,1.2,94.560,M,36.771,M,1.5,0979*62
[2021-02-22 14:52:43.034] $GNGGA,055242.60,3713.93653882,N,13701.49006464,E,4,10,1.2,94.568,M,36.771,M,1.6,0979*6C
[2021-02-22 14:52:43.127] $GNGGA,055242.70,3713.93653985,N,13701.49006615,E,4,10,1.2,94.566,M,36.771,M,1.7,0979*60
[2021-02-22 14:52:43.221] $GNGGA,055242.80,3713.93654205,N,13701.49006488,E,4,10,1.2,94.578,M,36.771,M,1.8,0979*6D
[2021-02-22 14:52:43.315] $GNGGA,055242.90,3713.93654046,N,13701.49006812,E,4,10,1.2,94.564,M,36.771,M,1.9,0979*6A
[2021-02-22 14:52:43.440] $GNGGA,055243.00,3713.93654006,N,13701.49006699,E,4,10,1.2,94.563,M,36.771,M,2.0,0979*66
[2021-02-22 14:52:43.565] $GNGGA,055243.10,3713.93653800,N,13701.49006438,E,4,10,1.2,94.564,M,36.771,M,1.1,0979*62
[2021-02-22 14:52:43.627] $GNGGA,055243.20,3713.93653952,N,13701.49006219,E,4,10,1.2,94.560,M,36.771,M,1.2,0979*65
[2021-02-22 14:52:43.721] $GNGGA,055243.30,3713.93654235,N,13701.49006465,E,4,10,1.2,94.554,M,36.771,M,1.3,0979*62
[2021-02-22 14:52:43.830] $GNGGA,055243.40,3713.93654210,N,13701.49006642,E,4,10,1.2,94.555,M,36.771,M,1.4,0979*63
[2021-02-22 14:52:43.924] $GNGGA,055243.50,3713.93654239,N,13701.49006636,E,4,10,1.2,94.560,M,36.771,M,1.5,0979*6D
[2021-02-22 14:52:44.034] $GNGGA,055243.60,3713.93654324,N,13701.49006494,E,4,10,1.2,94.558,M,36.771,M,1.6,0979*61
[2021-02-22 14:52:44.127] $GNGGA,055243.70,3713.93654266,N,13701.49006509,E,4,10,1.2,94.560,M,36.771,M,1.7,0979*68
[2021-02-22 14:52:44.237] $GNGGA,055243.80,3713.93654005,N,13701.49006311,E,4,10,1.2,94.562,M,36.771,M,1.8,0979*62
[2021-02-22 14:52:44.330] $GNGGA,055243.90,3713.93654113,N,13701.49006166,E,4,10,1.2,94.559,M,36.771,M,1.9,0979*6E
[2021-02-22 14:52:44.424] $GNGGA,055244.00,3713.93654307,N,13701.49006112,E,4,10,1.2,94.574,M,36.771,M,2.0,0979*61
[2021-02-22 14:52:44.502] $GNGGA,055244.10,3713.93654194,N,13701.49006208,E,4,10,1.2,94.564,M,36.771,M,1.1,0979*63
[2021-02-22 14:52:44.627] $GNGGA,055244.20,3713.93654439,N,13701.49005862,E,4,10,1.2,94.575,M,36.771,M,1.2,0979*64
[2021-02-22 14:52:44.737] $GNGGA,055244.30,3713.93654209,N,13701.49006115,E,4,10,1.2,94.570,M,36.771,M,1.3,0979*6E
[2021-02-22 14:52:44.830] $GNGGA,055244.40,3713.93654370,N,13701.49005950,E,4,10,1.2,94.572,M,36.771,M,1.4,0979*69
[2021-02-22 14:52:44.940] $GNGGA,055244.50,3713.93654379,N,13701.49006142,E,4,10,1.2,94.572,M,36.771,M,1.5,0979*68
[2021-02-22 14:52:45.034] $GNGGA,055244.60,3713.93654334,N,13701.49006054,E,4,10,1.2,94.563,M,36.771,M,1.6,0979*67
[2021-02-22 14:52:45.127] $GNGGA,055244.70,3713.93654316,N,13701.49005824,E,4,10,1.2,94.567,M,36.771,M,1.7,0979*6F
[2021-02-22 14:52:45.237] $GNGGA,055244.80,3713.93654381,N,13701.49006373,E,4,10,1.2,94.561,M,36.771,M,1.8,0979*6D
[2021-02-22 14:52:45.330] $GNGGA,055244.90,3713.93654243,N,13701.49005821,E,4,10,1.2,94.573,M,36.771,M,1.9,0979*6E
[2021-02-22 14:52:45.440] $GNGGA,055245.00,3713.93654395,N,13701.49005943,E,4,10,1.2,94.566,M,36.771,M,2.0,0979*67
[2021-02-22 14:52:45.518] $GNGGA,055245.10,3713.93653831,N,13701.49006147,E,4,10,1.2,94.568,M,36.771,M,1.1,0979*67
[2021-02-22 14:52:45.627] $GNGGA,055245.20,3713.93654037,N,13701.49006545,E,4,10,1.2,94.558,M,36.771,M,1.2,0979*6B
[2021-02-22 14:52:45.737] $GNGGA,055245.30,3713.93653824,N,13701.49006411,E,4,10,1.2,94.559,M,36.771,M,1.3,0979*67
[2021-02-22 14:52:45.830] $GNGGA,055245.40,3713.93653897,N,13701.49006367,E,4,10,1.2,94.567,M,36.771,M,1.4,0979*64
[2021-02-22 14:52:45.940] $GNGGA,055245.50,3713.93653778,N,13701.49006551,E,4,10,1.2,94.560,M,36.771,M,1.5,0979*6E
[2021-02-22 14:52:46.034] $GNGGA,055245.60,3713.93653906,N,13701.49006166,E,4,10,1.2,94.567,M,36.771,M,1.6,0979*6E
[2021-02-22 14:52:46.127] $GNGGA,055245.70,3713.93653918,N,13701.49006644,E,4,10,1.2,94.553,M,36.771,M,1.7,0979*61
[2021-02-22 14:52:46.237] $GNGGA,055245.80,3713.93653954,N,13701.49006662,E,4,10,1.2,94.562,M,36.771,M,1.8,0979*6F
[2021-02-22 14:52:46.330] $GNGGA,055245.90,3713.93653982,N,13701.49006296,E,4,10,1.2,94.560,M,36.771,M,1.9,0979*69
[2021-02-22 14:52:46.440] $GNGGA,055246.00,3713.93653999,N,13701.49006511,E,4,10,1.2,94.566,M,36.771,M,2.0,0979*6D
[2021-02-22 14:52:46.533] $GNGGA,055246.10,3713.93653807,N,13701.49006496,E,4,10,1.2,94.558,M,36.771,M,2.1,0979*68
[2021-02-22 14:52:46.627] $GNGGA,055246.20,3713.93653881,N,13701.49006607,E,4,10,1.2,94.559,M,36.771,M,2.2,0979*6D
[2021-02-22 14:52:46.721] $GNGGA,055246.30,3713.93654146,N,13701.49006700,E,4,10,1.2,94.581,M,36.771,M,1.3,0979*68
[2021-02-22 14:52:46.830] $GNGGA,055246.40,3713.93654117,N,13701.49006788,E,4,10,1.2,94.571,M,36.771,M,1.4,0979*63
[2021-02-22 14:52:46.924] $GNGGA,055246.50,3713.93653941,N,13701.49006625,E,4,10,1.2,94.580,M,36.771,M,1.5,0979*67
[2021-02-22 14:52:47.033] $GNGGA,055246.60,3713.93653979,N,13701.49006643,E,4,10,1.2,94.580,M,36.771,M,1.6,0979*6C
[2021-02-22 14:52:47.127] $GNGGA,055246.70,3713.93653845,N,13701.49006688,E,4,10,1.2,94.587,M,36.771,M,1.7,0979*62
[2021-02-22 14:52:47.237] $GNGGA,055246.80,3713.93653756,N,13701.49006667,E,4,10,1.2,94.580,M,36.771,M,1.8,0979*69
[2021-02-22 14:52:47.330] $GNGGA,055246.90,3713.93653994,N,13701.49006603,E,4,10,1.2,94.583,M,36.771,M,1.9,0979*68
[2021-02-22 14:52:47.440] $GNGGA,055247.00,3713.93654073,N,13701.49006740,E,4,10,1.2,94.581,M,36.771,M,2.0,0979*69
[2021-02-22 14:52:47.533] $GNGGA,055247.10,3713.93653788,N,13701.49006666,E,4,10,1.2,94.570,M,36.771,M,1.1,0979*65
[2021-02-22 14:52:47.627] $GNGGA,055247.20,3713.93654054,N,13701.49006412,E,4,10,1.2,94.574,M,36.771,M,1.2,0979*61
[2021-02-22 14:52:47.721] $GNGGA,055247.30,3713.93653989,N,13701.49006687,E,4,10,1.2,94.572,M,36.771,M,1.3,0979*67
[2021-02-22 14:52:47.830] $GNGGA,055247.40,3713.93654141,N,13701.49006448,E,4,10,1.2,94.569,M,36.771,M,1.4,0979*67
[2021-02-22 14:52:47.924] $GNGGA,055247.50,3713.93653917,N,13701.49006714,E,4,10,1.2,94.567,M,36.771,M,1.5,0979*6F
[2021-02-22 14:52:48.033] $GNGGA,055247.60,3713.93654103,N,13701.49006605,E,4,10,1.2,94.569,M,36.771,M,1.6,0979*6A
[2021-02-22 14:52:48.127] $GNGGA,055247.70,3713.93654172,N,13701.49006724,E,4,10,1.2,94.568,M,36.771,M,1.7,0979*6F
[2021-02-22 14:52:48.236] $GNGGA,055247.80,3713.93653875,N,13701.49006803,E,4,10,1.2,94.576,M,36.771,M,1.8,0979*63
[2021-02-22 14:52:48.330] $GNGGA,055247.90,3713.93654040,N,13701.49006405,E,4,10,1.2,94.577,M,36.771,M,1.9,0979*61
[2021-02-22 14:52:48.440] $GNGGA,055248.00,3713.93654213,N,13701.49006608,E,4,10,1.2,94.567,M,36.771,M,2.0,0979*67
[2021-02-22 14:52:48.518] $GNGGA,055248.10,3713.93653911,N,13701.49006598,E,4,10,1.2,94.578,M,36.771,M,2.1,0979*6D
[2021-02-22 14:52:48.643] $GNGGA,055248.20,3713.93654171,N,13701.49006543,E,4,10,1.2,94.576,M,36.771,M,1.2,0979*6F
[2021-02-22 14:52:48.721] $GNGGA,055248.30,3713.93654102,N,13701.49006580,E,4,10,1.2,94.573,M,36.771,M,1.3,0979*61
[2021-02-22 14:52:48.830] $GNGGA,055248.40,3713.93653976,N,13701.49006564,E,4,10,1.2,94.574,M,36.771,M,1.4,0979*60
[2021-02-22 14:52:48.924] $GNGGA,055248.50,3713.93654139,N,13701.49006659,E,4,10,1.2,94.576,M,36.771,M,1.5,0979*6B
[2021-02-22 14:52:49.033] $GNGGA,055248.60,3713.93654007,N,13701.49006407,E,4,10,1.2,94.579,M,36.771,M,1.6,0979*61
[2021-02-22 14:52:49.127] $GNGGA,055248.70,3713.93654058,N,13701.49006577,E,4,10,1.2,94.578,M,36.771,M,1.7,0979*6C
[2021-02-22 14:52:49.236] $GNGGA,055248.80,3713.93654251,N,13701.49006576,E,4,10,1.2,94.570,M,36.771,M,1.8,0979*6E
[2021-02-22 14:52:49.330] $GNGGA,055248.90,3713.93654280,N,13701.49006731,E,4,10,1.2,94.575,M,36.771,M,1.9,0979*66
[2021-02-22 14:52:49.439] $GNGGA,055249.00,3713.93654038,N,13701.49006447,E,4,10,1.2,94.576,M,36.771,M,2.0,0979*64
[2021-02-22 14:52:49.518] $GNGGA,055249.10,3713.93654004,N,13701.49006545,E,4,10,1.2,94.573,M,36.771,M,2.1,0979*6D
[2021-02-22 14:52:49.627] $GNGGA,055249.20,3713.93654149,N,13701.49006753,E,4,10,1.2,94.573,M,36.771,M,1.2,0979*63
[2021-02-22 14:52:49.721] $GNGGA,055249.30,3713.93654215,N,13701.49006472,E,4,10,1.2,94.571,M,36.771,M,1.3,0979*6B
[2021-02-22 14:52:49.830] $GNGGA,055249.40,3713.93654092,N,13701.49006378,E,4,10,1.2,94.576,M,36.771,M,1.4,0979*6C
[2021-02-22 14:52:49.924] $GNGGA,055249.50,3713.93654123,N,13701.49006440,E,4,10,1.2,94.580,M,36.771,M,1.5,0979*62
[2021-02-22 14:52:50.033] $GNGGA,055249.60,3713.93654064,N,13701.49006473,E,4,10,1.2,94.580,M,36.771,M,1.6,0979*60
[2021-02-22 14:52:50.127] $GNGGA,055249.70,3713.93654090,N,13701.49006420,E,4,10,1.2,94.575,M,36.771,M,1.7,0979*67
[2021-02-22 14:52:50.236] $GNGGA,055249.80,3713.93654176,N,13701.49006666,E,4,10,1.2,94.573,M,36.771,M,1.8,0979*68
[2021-02-22 14:52:50.330] $GNGGA,055249.90,3713.93654151,N,13701.49006606,E,4,10,1.2,94.578,M,36.771,M,1.9,0979*60
[2021-02-22 14:52:50.439] $GNGGA,055250.00,3713.93654300,N,13701.49006508,E,4,10,1.2,94.576,M,36.771,M,2.0,0979*6E
[2021-02-22 14:52:50.533] $GNGGA,055250.10,3713.93654312,N,13701.49006347,E,4,10,1.2,94.568,M,36.771,M,1.1,0979*6C
[2021-02-22 14:52:50.627] $GNGGA,055250.20,3713.93654476,N,13701.49006663,E,4,10,1.2,94.565,M,36.771,M,1.2,0979*67
[2021-02-22 14:52:50.721] $GNGGA,055250.30,3713.93654384,N,13701.49006409,E,4,10,1.2,94.566,M,36.771,M,1.3,0979*60
[2021-02-22 14:52:50.830] $GNGGA,055250.40,3713.93654147,N,13701.49006550,E,4,10,1.2,94.575,M,36.771,M,1.4,0979*62
[2021-02-22 14:52:50.924] $GNGGA,055250.50,3713.93654097,N,13701.49006442,E,4,10,1.2,94.574,M,36.771,M,1.5,0979*6D
[2021-02-22 14:52:51.033] $GNGGA,055250.60,3713.93654229,N,13701.49006452,E,4,10,1.2,94.572,M,36.771,M,1.6,0979*6D
[2021-02-22 14:52:51.127] $GNGGA,055250.70,3713.93654151,N,13701.49006561,E,4,10,1.2,94.570,M,36.771,M,1.7,0979*62
[2021-02-22 14:52:51.236] $GNGGA,055250.80,3713.93654192,N,13701.49006596,E,4,10,1.2,94.567,M,36.771,M,1.8,0979*63
[2021-02-22 14:52:51.330] $GNGGA,055250.90,3713.93654075,N,13701.49006838,E,4,10,1.2,94.568,M,36.771,M,1.9,0979*6D
[2021-02-22 14:52:51.439] $GNGGA,055251.00,3713.93654362,N,13701.49006745,E,4,10,1.2,94.565,M,36.771,M,2.0,0979*62
[2021-02-22 14:52:51.518] $GNGGA,055251.10,3713.93654171,N,13701.49006523,E,4,10,1.2,94.570,M,36.771,M,1.1,0979*67
[2021-02-22 14:52:51.627] $GNGGA,055251.20,3713.93654182,N,13701.49006606,E,4,10,1.2,94.567,M,36.771,M,1.2,0979*69
[2021-02-22 14:52:51.721] $GNGGA,055251.30,3713.93654209,N,13701.49006530,E,4,10,1.2,94.566,M,36.771,M,1.3,0979*6E
[2021-02-22 14:52:51.830] $GNGGA,055251.40,3713.93654259,N,13701.49006812,E,4,10,1.2,94.564,M,36.771,M,1.4,0979*64
[2021-02-22 14:52:51.924] $GNGGA,055251.50,3713.93654243,N,13701.49006624,E,4,10,1.2,94.567,M,36.771,M,1.5,0979*67
[2021-02-22 14:52:52.033] $GNGGA,055251.60,3713.93654233,N,13701.49006819,E,4,10,1.2,94.560,M,36.771,M,1.6,0979*67
[2021-02-22 14:52:52.127] $GNGGA,055251.70,3713.93654250,N,13701.49006676,E,4,10,1.2,94.571,M,36.771,M,1.7,0979*65
[2021-02-22 14:52:52.236] $GNGGA,055251.80,3713.93654206,N,13701.49006811,E,4,10,1.2,94.557,M,36.771,M,1.8,0979*6D
[2021-02-22 14:52:52.330] $GNGGA,055251.90,3713.93654264,N,13701.49006407,E,4,10,1.2,94.569,M,36.771,M,1.9,0979*6F
[2021-02-22 14:52:52.424] $GNGGA,055252.00,3713.93654328,N,13701.49006566,E,4,10,1.2,94.572,M,36.771,M,2.0,0979*6A
[2021-02-22 14:52:52.502] $GNGGA,055252.10,3713.93653953,N,13701.49006173,E,4,10,1.2,94.566,M,36.771,M,1.1,0979*6D
[2021-02-22 14:52:52.627] $GNGGA,055252.20,3713.93654194,N,13701.49006387,E,4,10,1.2,94.566,M,36.771,M,1.2,0979*60
[2021-02-22 14:52:52.721] $GNGGA,055252.30,3713.93654064,N,13701.49006095,E,4,10,1.2,94.578,M,36.771,M,1.3,0979*61
[2021-02-22 14:52:52.830] $GNGGA,055252.40,3713.93654156,N,13701.49006418,E,4,10,1.2,94.566,M,36.771,M,1.4,0979*6F
[2021-02-22 14:52:52.924] $GNGGA,055252.50,3713.93653996,N,13701.49006311,E,4,10,1.2,94.574,M,36.771,M,1.5,0979*61
[2021-02-22 14:52:53.033] $GNGGA,055252.60,3713.93654106,N,13701.49006271,E,4,10,1.2,94.575,M,36.771,M,1.6,0979*61
[2021-02-22 14:52:53.127] $GNGGA,055252.70,3713.93654166,N,13701.49006700,E,4,10,1.2,94.563,M,36.771,M,1.7,0979*63
[2021-02-22 14:52:53.236] $GNGGA,055252.80,3713.93654199,N,13701.49006494,E,4,10,1.2,94.569,M,36.771,M,1.8,0979*67
[2021-02-22 14:52:53.330] $GNGGA,055252.90,3713.93654117,N,13701.49006457,E,4,10,1.2,94.568,M,36.771,M,1.9,0979*6F
