
[2021-02-22 15:01:11.247] $GNGGA,060057.60,,,,,0,00,99.99,,,,,20.6,*60
[2021-02-22 15:01:11.279] $GNGGA,060057.70,,,,,0,00,99.99,,,,,20.7,*60
[2021-02-22 15:01:11.279] $GNGGA,060057.80,,,,,0,00,99.99,,,,,20.8,*60
[2021-02-22 15:01:11.279] $GNGGA,060057.90,,,,,0,00,99.99,,,,,20.9,*60
[2021-02-22 15:01:11.279] $GNGGA,060058.00,,,,,0,00,99.99,,,,,21.0,*6E
[2021-02-22 15:01:11.279] $GNGGA,060058.10,,,,,0,00,99.99,,,,,21.1,*6E
[2021-02-22 15:01:11.279] $GNGGA,060058.20,,,,,0,00,99.99,,,,,21.2,*6E
[2021-02-22 15:01:11.279] $GNGGA,060058.30,,,,,0,00,99.99,,,,,21.3,*6E
[2021-02-22 15:01:11.279] $GNGGA,060058.40,,,,,0,00,99.99,,,,,21.4,*6E
[2021-02-22 15:01:11.279] $GNGGA,060058.50,,,,,0,00,99.99,,,,,21.5,*6E
[2021-02-22 15:01:11.279] $GNGGA,060058.60,,,,,0,00,99.99,,,,,21.6,*6E
[2021-02-22 15:01:11.279] $GNGGA,060058.70,,,,,0,00,99.99,,,,,21.7,*6E
[2021-02-22 15:01:11.279] $GNGGA,060058.80,,,,,0,00,99.99,,,,,21.8,*6E
[2021-02-22 15:01:11.279] $GNGGA,060058.90,,,,,0,00,99.99,,,,,21.9,*6E
[2021-02-22 15:01:11.279] $GNGGA,060059.00,,,,,0,00,99.99,,,,,22.0,*6C
[2021-02-22 15:01:11.279] $GNGGA,060059.10,,,,,0,00,99.99,,,,,22.1,*6C
[2021-02-22 15:01:11.279] $GNGGA,060059.20,,,,,0,00,99.99,,,,,22.2,*6C
[2021-02-22 15:01:11.279] $GNGGA,060059.30,,,,,0,00,99.99,,,,,22.3,*6C
[2021-02-22 15:01:11.279] $GNGGA,060059.40,,,,,0,00,99.99,,,,,22.4,*6C
[2021-02-22 15:01:11.279] $GNGGA,060059.50,,,,,0,00,99.99,,,,,22.5,*6C
[2021-02-22 15:01:11.279] $GNGGA,060059.60,,,,,0,00,99.99,,,,,22.6,*6C
[2021-02-22 15:01:11.279] $GNGGA,060059.70,,,,,0,00,99.99,,,,,22.7,*6C
[2021-02-22 15:01:11.279] $GNGGA,060059.80,,,,,0,00,99.99,,,,,22.8,*6C
[2021-02-22 15:01:11.279] $GNGGA,060059.90,,,,,0,00,99.99,,,,,22.9,*6C
[2021-02-22 15:01:11.294] $GNGGA,060100.00,,,,,0,00,99.99,,,,,23.0,*60
[2021-02-22 15:01:11.294] $GNGGA,060100.10,,,,,0,00,99.99,,,,,23.1,*60
[2021-02-22 15:01:11.294] $GNGGA,060100.20,,,,,0,00,99.99,,,,,23.2,*60
[2021-02-22 15:01:11.294] $GNGGA,060100.30,,,,,0,00,99.99,,,,,23.3,*60
[2021-02-22 15:01:11.294] $GNGGA,060100.40,,,,,0,00,99.99,,,,,23.4,*60
[2021-02-22 15:01:11.294] $GNGGA,060100.50,,,,,0,00,99.99,,,,,23.5,*60
[2021-02-22 15:01:11.294] $GNGGA,060100.60,,,,,0,00,99.99,,,,,23.6,*60
[2021-02-22 15:01:11.294] $GNGGA,060100.70,,,,,0,00,99.99,,,,,23.7,*60
[2021-02-22 15:01:11.294] $GNGGA,060100.80,,,,,0,00,99.99,,,,,23.8,*60
[2021-02-22 15:01:11.294] $GNGGA,060100.90,,,,,0,00,99.99,,,,,23.9,*60
[2021-02-22 15:01:11.294] $GNGGA,060101.00,,,,,0,00,99.99,,,,,24.0,*66
[2021-02-22 15:01:11.294] $GNGGA,060101.10,,,,,0,00,99.99,,,,,24.1,*66
[2021-02-22 15:01:11.294] $GNGGA,060101.20,,,,,0,00,99.99,,,,,24.2,*66
[2021-02-22 15:01:11.294] $GNGGA,060101.30,,,,,0,00,99.99,,,,,24.3,*66
[2021-02-22 15:01:11.294] $GNGGA,060101.40,,,,,0,00,99.99,,,,,24.4,*66
[2021-02-22 15:01:11.294] $GNGGA,060101.50,,,,,0,00,99.99,,,,,24.5,*66
[2021-02-22 15:01:11.294] $GNGGA,060101.60,,,,,0,00,99.99,,,,,24.6,*66
[2021-02-22 15:01:11.294] $GNGGA,060101.70,,,,,0,00,99.99,,,,,24.7,*66
[2021-02-22 15:01:11.294] $GNGGA,060101.80,,,,,0,00,99.99,,,,,24.8,*66
[2021-02-22 15:01:11.294] $GNGGA,060101.90,,,,,0,00,99.99,,,,,24.9,*66
[2021-02-22 15:01:11.294] $GNGGA,060102.00,,,,,0,00,99.99,,,,,25.0,*64
[2021-02-22 15:01:11.294] $GNGGA,060102.10,,,,,0,00,99.99,,,,,25.1,*64
[2021-02-22 15:01:11.310] $GNGGA,060102.20,,,,,0,00,99.99,,,,,25.2,*64
[2021-02-22 15:01:11.310] $GNGGA,060102.30,,,,,0,00,99.99,,,,,25.3,*64
[2021-02-22 15:01:11.310] $GNGGA,060102.40,,,,,0,00,99.99,,,,,25.4,*64
[2021-02-22 15:01:11.310] $GNGGA,060102.50,,,,,0,00,99.99,,,,,25.5,*64
[2021-02-22 15:01:11.310] $GNGGA,060102.60,,,,,0,00,99.99,,,,,25.6,*64
[2021-02-22 15:01:11.310] $GNGGA,060102.70,,,,,0,00,99.99,,,,,25.7,*64
[2021-02-22 15:01:11.310] $GNGGA,060102.80,,,,,0,00,99.99,,,,,25.8,*64
[2021-02-22 15:01:11.310] $GNGGA,060102.90,,,,,0,00,99.99,,,,,25.9,*64
[2021-02-22 15:01:11.310] $GNGGA,060103.00,,,,,0,00,99.99,,,,,26.0,*66
[2021-02-22 15:01:11.310] $GNGGA,060103.10,,,,,0,00,99.99,,,,,26.1,*66
[2021-02-22 15:01:11.310] $GNGGA,060103.20,,,,,0,00,99.99,,,,,26.2,*66
[2021-02-22 15:01:11.310] $GNGGA,060103.30,,,,,0,00,99.99,,,,,26.3,*66
[2021-02-22 15:01:11.310] $GNGGA,060103.40,,,,,0,00,99.99,,,,,26.4,*66
[2021-02-22 15:01:11.310] $GNGGA,060103.50,,,,,0,00,99.99,,,,,26.5,*66
[2021-02-22 15:01:11.310] $GNGGA,060103.60,,,,,0,00,99.99,,,,,26.6,*66
[2021-02-22 15:01:11.310] $GNGGA,060103.70,,,,,0,00,99.99,,,,,26.7,*66
[2021-02-22 15:01:11.310] $GNGGA,060103.80,,,,,0,00,99.99,,,,,26.8,*66
[2021-02-22 15:01:11.310] $GNGGA,060103.90,,,,,0,00,99.99,,,,,26.9,*66
[2021-02-22 15:01:11.310] $GNGGA,060104.00,,,,,0,00,99.99,,,,,27.0,*60
[2021-02-22 15:01:11.310] $GNGGA,060104.10,,,,,0,00,99.99,,,,,27.1,*60
[2021-02-22 15:01:11.310] $GNGGA,060104.20,,,,,0,00,99.99,,,,,27.2,*60
[2021-02-22 15:01:11.310] $GNGGA,060104.30,,,,,0,00,99.99,,,,,27.3,*60
[2021-02-22 15:01:11.325] $GNGGA,060104.40,,,,,0,00,99.99,,,,,27.4,*60
[2021-02-22 15:01:11.325] $GNGGA,060104.50,,,,,0,00,99.99,,,,,27.5,*60
[2021-02-22 15:01:11.325] $GNGGA,060104.60,,,,,0,00,99.99,,,,,27.6,*60
[2021-02-22 15:01:11.325] $GNGGA,060104.70,,,,,0,00,99.99,,,,,27.7,*60
[2021-02-22 15:01:11.325] $GNGGA,060104.80,,,,,0,00,99.99,,,,,27.8,*60
[2021-02-22 15:01:11.325] $GNGGA,060104.90,,,,,0,00,99.99,,,,,27.9,*60
[2021-02-22 15:01:11.325] $GNGGA,060105.00,,,,,0,00,99.99,,,,,28.0,*6E
[2021-02-22 15:01:11.325] $GNGGA,060105.10,,,,,0,00,99.99,,,,,28.1,*6E
[2021-02-22 15:01:11.325] $GNGGA,060105.20,,,,,0,00,99.99,,,,,28.2,*6E
[2021-02-22 15:01:11.325] $GNGGA,060105.30,,,,,0,00,99.99,,,,,28.3,*6E
[2021-02-22 15:01:11.325] $GNGGA,060105.40,,,,,0,00,99.99,,,,,28.4,*6E
[2021-02-22 15:01:11.325] $GNGGA,060105.50,,,,,0,00,99.99,,,,,28.5,*6E
[2021-02-22 15:01:11.325] $GNGGA,060105.60,,,,,0,00,99.99,,,,,28.6,*6E
[2021-02-22 15:01:11.325] $GNGGA,060105.70,,,,,0,00,99.99,,,,,28.7,*6E
[2021-02-22 15:01:11.325] $GNGGA,060105.80,,,,,0,00,99.99,,,,,28.8,*6E
[2021-02-22 15:01:11.325] $GNGGA,060105.90,,,,,0,00,99.99,,,,,28.9,*6E
[2021-02-22 15:01:11.325] $GNGGA,060106.00,,,,,0,00,99.99,,,,,29.0,*6C
[2021-02-22 15:01:11.325] $GNGGA,060106.10,,,,,0,00,99.99,,,,,29.1,*6C
[2021-02-22 15:01:11.325] $GNGGA,060106.20,,,,,0,00,99.99,,,,,29.2,*6C
[2021-02-22 15:01:11.325] $GNGGA,060106.30,,,,,0,00,99.99,,,,,29.3,*6C
[2021-02-22 15:01:11.325] $GNGGA,060106.40,,,,,0,00,99.99,,,,,29.4,*6C
[2021-02-22 15:01:11.325] $GNGGA,060106.50,,,,,0,00,99.99,,,,,29.5,*6C
[2021-02-22 15:01:11.341] $GNGGA,060106.60,,,,,0,00,99.99,,,,,29.6,*6C
[2021-02-22 15:01:11.341] $GNGGA,060106.70,,,,,0,00,99.99,,,,,29.7,*6C
[2021-02-22 15:01:11.341] $GNGGA,060106.80,,,,,0,00,99.99,,,,,29.8,*6C
[2021-02-22 15:01:11.341] $GNGGA,060106.90,,,,,0,00,99.99,,,,,29.9,*6C
[2021-02-22 15:01:11.341] $GNGGA,060107.00,,,,,0,00,99.99,,,,,30.0,*65
[2021-02-22 15:01:11.341] $GNGGA,060107.10,,,,,0,00,99.99,,,,,30.1,*65
[2021-02-22 15:01:11.341] $GNGGA,060107.20,,,,,0,00,99.99,,,,,30.2,*65
[2021-02-22 15:01:11.341] $GNGGA,060107.30,,,,,0,00,99.99,,,,,30.3,*65
[2021-02-22 15:01:11.341] $GNGGA,060107.40,,,,,0,00,99.99,,,,,30.4,*65
[2021-02-22 15:01:11.341] $GNGGA,060107.50,,,,,0,00,99.99,,,,,30.5,*65
[2021-02-22 15:01:11.341] $GNGGA,060107.60,,,,,0,00,99.99,,,,,30.6,*65
[2021-02-22 15:01:11.341] $GNGGA,060107.70,,,,,0,00,99.99,,,,,30.7,*65
[2021-02-22 15:01:11.341] $GNGGA,060107.80,,,,,0,00,99.99,,,,,30.8,*65
[2021-02-22 15:01:11.341] $GNGGA,060107.90,,,,,0,00,99.99,,,,,30.9,*65
[2021-02-22 15:01:11.341] $GNGGA,060108.00,,,,,0,00,99.99,,,,,31.0,*6B
[2021-02-22 15:01:11.341] $GNGGA,060108.10,,,,,0,00,99.99,,,,,31.1,*6B
[2021-02-22 15:01:11.341] $GNGGA,060108.20,,,,,0,00,99.99,,,,,31.2,*6B
[2021-02-22 15:01:11.341] $GNGGA,060108.30,,,,,0,00,99.99,,,,,31.3,*6B
[2021-02-22 15:01:11.341] $GNGGA,060108.40,,,,,0,00,99.99,,,,,31.4,*6B
[2021-02-22 15:01:11.341] $GNGGA,060108.50,,,,,0,00,99.99,,,,,31.5,*6B
[2021-02-22 15:01:11.341] $GNGGA,060108.60,,,,,0,00,99.99,,,,,31.6,*6B
[2021-02-22 15:01:11.341] $GNGGA,060108.70,,,,,0,00,99.99,,,,,31.7,*6B
[2021-02-22 15:01:11.341] $GNGGA,060108.80,,,,,0,00,99.99,,,,,31.8,*6B
[2021-02-22 15:01:11.341] $GNGGA,060108.90,,,,,0,00,99.99,,,,,31.9,*6B
[2021-02-22 15:01:11.341] $GNGGA,060109.00,,,,,0,00,99.99,,,,,32.0,*69
[2021-02-22 15:01:11.341] $GNGGA,060109.10,,,,,0,00,99.99,,,,,32.1,*69
[2021-02-22 15:01:11.341] $GNGGA,060109.20,,,,,0,00,99.99,,,,,32.2,*69
[2021-02-22 15:01:11.341] $GNGGA,060109.30,,,,,0,00,99.99,,,,,32.3,*69
[2021-02-22 15:01:11.341] $GNGGA,060109.40,,,,,0,00,99.99,,,,,32.4,*69
[2021-02-22 15:01:11.341] $GNGGA,060109.50,,,,,0,00,99.99,,,,,32.5,*69
[2021-02-22 15:01:11.341] $GNGGA,060109.60,,,,,0,00,99.99,,,,,32.6,*69
[2021-02-22 15:01:11.341] $GNGGA,060109.70,,,,,0,00,99.99,,,,,32.7,*69
[2021-02-22 15:01:11.341] $GNGGA,060109.80,,,,,0,00,99.99,,,,,32.8,*69
[2021-02-22 15:01:11.341] $GNGGA,060109.90,,,,,0,00,99.99,,,,,32.9,*69
[2021-02-22 15:01:11.341] $GNGGA,060110.00,,,,,0,00,99.99,,,,,33.0,*60
[2021-02-22 15:01:11.341] $GNGGA,060110.10,,,,,0,00,99.99,,,,,33.1,*60
[2021-02-22 15:01:11.341] $GNGGA,060110.20,,,,,0,00,99.99,,,,,33.2,*60
[2021-02-22 15:01:11.341] $GNGGA,060110.30,,,,,0,00,99.99,,,,,33.3,*60
[2021-02-22 15:01:11.341] $GNGGA,060110.40,,,,,0,00,99.99,,,,,33.4,*60
[2021-02-22 15:01:11.341] $GNGGA,060110.50,,,,,0,00,99.99,,,,,33.5,*60
[2021-02-22 15:01:11.341] $GNGGA,060110.60,,,,,0,00,99.99,,,,,33.6,*60
[2021-02-22 15:01:11.341] $GNGGA,060110.70,,,,,0,00,99.99,,,,,33.7,*60
[2021-02-22 15:01:11.404] $GNGGA,060110.80,,,,,0,00,99.99,,,,,33.8,*60
[2021-02-22 15:01:11.497] $GNGGA,060110.90,,,,,0,00,99.99,,,,,33.9,*60
[2021-02-22 15:01:11.591] $GNGGA,060111.00,,,,,0,00,99.99,,,,,34.0,*66
[2021-02-22 15:01:11.700] $GNGGA,060111.10,,,,,0,00,99.99,,,,,34.1,*66
[2021-02-22 15:01:11.810] $GNGGA,060111.20,,,,,0,00,99.99,,,,,34.2,*66
[2021-02-22 15:01:11.904] $GNGGA,060111.30,,,,,0,00,99.99,,,,,34.3,*66
[2021-02-22 15:01:11.997] $GNGGA,060111.40,,,,,0,00,99.99,,,,,34.4,*66
[2021-02-22 15:01:12.107] $GNGGA,060111.50,,,,,0,00,99.99,,,,,34.5,*66
[2021-02-22 15:01:12.200] $GNGGA,060111.60,,,,,0,00,99.99,,,,,34.6,*66
[2021-02-22 15:01:12.341] $GNGGA,060111.70,,,,,0,00,99.99,,,,,34.7,*66
[2021-02-22 15:01:12.388] $GNGGA,060111.80,,,,,0,00,99.99,,,,,34.8,*66
[2021-02-22 15:01:12.497] $GNGGA,060111.90,,,,,0,00,99.99,,,,,34.9,*66
[2021-02-22 15:01:12.607] $GNGGA,060112.00,,,,,0,00,99.99,,,,,35.0,*64
[2021-02-22 15:01:12.700] $GNGGA,060112.10,,,,,0,00,99.99,,,,,35.1,*64
[2021-02-22 15:01:12.794] $GNGGA,060112.20,,,,,0,00,99.99,,,,,35.2,*64
[2021-02-22 15:01:12.903] $GNGGA,060112.30,,,,,0,00,99.99,,,,,35.3,*64
[2021-02-22 15:01:12.997] $GNGGA,060112.40,,,,,0,00,99.99,,,,,35.4,*64
[2021-02-22 15:01:13.091] $GNGGA,060112.50,,,,,0,00,99.99,,,,,35.5,*64
[2021-02-22 15:01:13.185] $GNGGA,060112.60,,,,,0,00,99.99,,,,,35.6,*64
[2021-02-22 15:01:13.310] $GNGGA,060112.70,,,,,0,00,99.99,,,,,35.7,*64
[2021-02-22 15:01:13.403] $GNGGA,060112.80,,,,,0,00,99.99,,,,,35.8,*64
[2021-02-22 15:01:13.497] $GNGGA,060112.90,,,,,0,00,99.99,,,,,35.9,*64
[2021-02-22 15:01:13.591] $GNGGA,060113.00,,,,,0,00,99.99,,,,,36.0,*66
[2021-02-22 15:01:13.700] $GNGGA,060113.10,,,,,0,00,99.99,,,,,36.1,*66
[2021-02-22 15:01:13.794] $GNGGA,060113.20,,,,,0,00,99.99,,,,,36.2,*66
[2021-02-22 15:01:13.903] $GNGGA,060113.30,,,,,0,00,99.99,,,,,36.3,*66
[2021-02-22 15:01:13.997] $GNGGA,060113.40,,,,,0,00,99.99,,,,,36.4,*66
[2021-02-22 15:01:14.107] $GNGGA,060113.50,,,,,0,00,99.99,,,,,36.5,*66
[2021-02-22 15:01:14.200] $GNGGA,060113.60,,,,,0,00,99.99,,,,,36.6,*66
[2021-02-22 15:01:14.294] $GNGGA,060113.70,,,,,0,00,99.99,,,,,36.7,*66
[2021-02-22 15:01:14.388] $GNGGA,060113.80,,,,,0,00,99.99,,,,,36.8,*66
[2021-02-22 15:01:14.497] $GNGGA,060113.90,,,,,0,00,99.99,,,,,36.9,*66
[2021-02-22 15:01:14.606] $GNGGA,060114.00,,,,,0,00,99.99,,,,,37.0,*60
[2021-02-22 15:01:14.700] $GNGGA,060114.10,,,,,0,00,99.99,,,,,37.1,*60
[2021-02-22 15:01:14.794] $GNGGA,060114.20,,,,,0,00,99.99,,,,,37.2,*60
[2021-02-22 15:01:14.903] $GNGGA,060114.30,,,,,0,00,99.99,,,,,37.3,*60
[2021-02-22 15:01:14.997] $GNGGA,060114.40,,,,,0,00,99.99,,,,,37.4,*60
[2021-02-22 15:01:15.091] $GNGGA,060114.50,,,,,0,00,99.99,,,,,37.5,*60
[2021-02-22 15:01:15.185] $GNGGA,060114.60,,,,,0,00,99.99,,,,,37.6,*60
[2021-02-22 15:01:15.310] $GNGGA,060114.70,,,,,0,00,99.99,,,,,37.7,*60
[2021-02-22 15:01:15.403] $GNGGA,060114.80,,,,,0,00,99.99,,,,,37.8,*60
[2021-02-22 15:01:15.497] $GNGGA,060114.90,,,,,0,00,99.99,,,,,37.9,*60
[2021-02-22 15:01:15.591] $GNGGA,060115.00,,,,,0,00,99.99,,,,,38.0,*6E
[2021-02-22 15:01:15.700] $GNGGA,060115.10,,,,,0,00,99.99,,,,,38.1,*6E
[2021-02-22 15:01:15.794] $GNGGA,060115.20,,,,,0,00,99.99,,,,,38.2,*6E
[2021-02-22 15:01:15.888] $GNGGA,060115.30,,,,,0,00,99.99,,,,,38.3,*6E
[2021-02-22 15:01:15.997] $GNGGA,060115.40,,,,,0,00,99.99,,,,,38.4,*6E
[2021-02-22 15:01:16.106] $GNGGA,060115.50,,,,,0,00,99.99,,,,,38.5,*6E
[2021-02-22 15:01:16.200] $GNGGA,060115.60,,,,,0,00,99.99,,,,,38.6,*6E
[2021-02-22 15:01:16.294] $GNGGA,060115.70,,,,,0,00,99.99,,,,,38.7,*6E
[2021-02-22 15:01:16.388] $GNGGA,060115.80,,,,,0,00,99.99,,,,,38.8,*6E
[2021-02-22 15:01:16.497] $GNGGA,060115.90,,,,,0,00,99.99,,,,,38.9,*6E
[2021-02-22 15:01:16.606] $GNGGA,060116.00,,,,,0,00,99.99,,,,,39.0,*6C
[2021-02-22 15:01:16.700] $GNGGA,060116.10,,,,,0,00,99.99,,,,,39.1,*6C
[2021-02-22 15:01:16.794] $GNGGA,060116.20,,,,,0,00,99.99,,,,,39.2,*6C
[2021-02-22 15:01:16.903] $GNGGA,060116.30,,,,,0,00,99.99,,,,,39.3,*6C
[2021-02-22 15:01:16.997] $GNGGA,060116.40,,,,,0,00,99.99,,,,,39.4,*6C
[2021-02-22 15:01:17.091] $GNGGA,060116.50,,,,,0,00,99.99,,,,,39.5,*6C
[2021-02-22 15:01:17.184] $GNGGA,060116.60,,,,,0,00,99.99,,,,,39.6,*6C
[2021-02-22 15:01:17.309] $GNGGA,060116.70,,,,,0,00,99.99,,,,,39.7,*6C
[2021-02-22 15:01:17.403] $GNGGA,060116.80,,,,,0,00,99.99,,,,,39.8,*6C
[2021-02-22 15:01:17.497] $GNGGA,060116.90,,,,,0,00,99.99,,,,,39.9,*6C
[2021-02-22 15:01:17.591] $GNGGA,060117.00,,,,,0,00,99.99,,,,,40.0,*63
[2021-02-22 15:01:17.700] $GNGGA,060117.10,,,,,0,00,99.99,,,,,40.1,*63
[2021-02-22 15:01:17.794] $GNGGA,060117.20,,,,,0,00,99.99,,,,,40.2,*63
[2021-02-22 15:01:17.903] $GNGGA,060117.30,,,,,0,00,99.99,,,,,40.3,*63
[2021-02-22 15:01:17.997] $GNGGA,060117.40,,,,,0,00,99.99,,,,,40.4,*63
[2021-02-22 15:01:18.106] $GNGGA,060117.50,,,,,0,00,99.99,,,,,40.5,*63
[2021-02-22 15:01:18.200] $GNGGA,060117.60,,,,,0,00,99.99,,,,,40.6,*63
[2021-02-22 15:01:18.294] $GNGGA,060117.70,,,,,0,00,99.99,,,,,40.7,*63
[2021-02-22 15:01:18.387] $GNGGA,060117.80,,,,,0,00,99.99,,,,,40.8,*63
[2021-02-22 15:01:18.497] $GNGGA,060117.90,,,,,0,00,99.99,,,,,40.9,*63
[2021-02-22 15:01:18.606] $GNGGA,060118.00,,,,,0,00,99.99,,,,,41.0,*6D
[2021-02-22 15:01:18.700] $GNGGA,060118.10,,,,,0,00,99.99,,,,,41.1,*6D
[2021-02-22 15:01:18.794] $GNGGA,060118.20,,,,,0,00,99.99,,,,,41.2,*6D
[2021-02-22 15:01:18.903] $GNGGA,060118.30,,,,,0,00,99.99,,,,,41.3,*6D
[2021-02-22 15:01:18.997] $GNGGA,060118.40,,,,,0,00,99.99,,,,,41.4,*6D
[2021-02-22 15:01:19.091] $GNGGA,060118.50,,,,,0,00,99.99,,,,,41.5,*6D
[2021-02-22 15:01:19.184] $GNGGA,060118.60,,,,,0,00,99.99,,,,,41.6,*6D
[2021-02-22 15:01:19.309] $GNGGA,060118.70,,,,,0,00,99.99,,,,,41.7,*6D
[2021-02-22 15:01:19.403] $GNGGA,060118.80,,,,,0,00,99.99,,,,,41.8,*6D
[2021-02-22 15:01:19.497] $GNGGA,060118.90,,,,,0,00,99.99,,,,,41.9,*6D
[2021-02-22 15:01:19.591] $GNGGA,060119.00,,,,,0,00,99.99,,,,,42.0,*6F
[2021-02-22 15:01:19.700] $GNGGA,060119.10,,,,,0,00,99.99,,,,,42.1,*6F
[2021-02-22 15:01:19.794] $GNGGA,060119.20,,,,,0,00,99.99,,,,,42.2,*6F
[2021-02-22 15:01:19.903] $GNGGA,060119.30,,,,,0,00,99.99,,,,,42.3,*6F
[2021-02-22 15:01:19.997] $GNGGA,060119.40,,,,,0,00,99.99,,,,,42.4,*6F
[2021-02-22 15:01:20.106] $GNGGA,060119.50,,,,,0,00,99.99,,,,,42.5,*6F
[2021-02-22 15:01:20.200] $GNGGA,060119.60,,,,,0,00,99.99,,,,,42.6,*6F
[2021-02-22 15:01:20.294] $GNGGA,060119.70,,,,,0,00,99.99,,,,,42.7,*6F
[2021-02-22 15:01:20.387] $GNGGA,060119.80,,,,,0,00,99.99,,,,,42.8,*6F
[2021-02-22 15:01:20.497] $GNGGA,060119.90,,,,,0,00,99.99,,,,,42.9,*6F
[2021-02-22 15:01:20.606] $GNGGA,060120.00,,,,,0,00,99.99,,,,,43.0,*64
[2021-02-22 15:01:20.700] $GNGGA,060120.10,,,,,0,00,99.99,,,,,43.1,*64
[2021-02-22 15:01:20.809] $GNGGA,060120.20,,,,,0,00,99.99,,,,,43.2,*64
[2021-02-22 15:01:20.903] $GNGGA,060120.30,,,,,0,00,99.99,,,,,43.3,*64
[2021-02-22 15:01:20.997] $GNGGA,060120.40,,,,,0,00,99.99,,,,,43.4,*64
[2021-02-22 15:01:21.090] $GNGGA,060120.50,,,,,0,00,99.99,,,,,43.5,*64
[2021-02-22 15:01:21.200] $GNGGA,060120.60,,,,,0,00,99.99,,,,,43.6,*64
[2021-02-22 15:01:21.309] $GNGGA,060120.70,,,,,0,00,99.99,,,,,43.7,*64
[2021-02-22 15:01:21.403] $GNGGA,060120.80,,,,,0,00,99.99,,,,,43.8,*64
[2021-02-22 15:01:21.497] $GNGGA,060120.90,,,,,0,00,99.99,,,,,43.9,*64
[2021-02-22 15:01:21.606] $GNGGA,060121.00,,,,,0,00,99.99,,,,,44.0,*62
[2021-02-22 15:01:21.700] $GNGGA,060121.10,,,,,0,00,99.99,,,,,44.1,*62
[2021-02-22 15:01:21.793] $GNGGA,060121.20,,,,,0,00,99.99,,,,,44.2,*62
[2021-02-22 15:01:21.887] $GNGGA,060121.30,,,,,0,00,99.99,,,,,44.3,*62
[2021-02-22 15:01:22.012] $GNGGA,060121.40,,,,,0,00,99.99,,,,,44.4,*62
[2021-02-22 15:01:22.106] $GNGGA,060121.50,,,,,0,00,99.99,,,,,44.5,*62
[2021-02-22 15:01:22.200] $GNGGA,060121.60,,,,,0,00,99.99,,,,,44.6,*62
[2021-02-22 15:01:22.293] $GNGGA,060121.70,,,,,0,00,99.99,,,,,44.7,*62
[2021-02-22 15:01:22.403] $GNGGA,060121.80,,,,,0,00,99.99,,,,,44.8,*62
[2021-02-22 15:01:22.497] $GNGGA,060121.90,,,,,0,00,99.99,,,,,44.9,*62
[2021-02-22 15:01:22.606] $GNGGA,060122.00,,,,,0,00,99.99,,,,,45.0,*60
[2021-02-22 15:01:22.700] $GNGGA,060122.10,,,,,0,00,99.99,,,,,45.1,*60
[2021-02-22 15:01:22.809] $GNGGA,060122.20,,,,,0,00,99.99,,,,,45.2,*60
[2021-02-22 15:01:22.903] $GNGGA,060122.30,,,,,0,00,99.99,,,,,45.3,*60
[2021-02-22 15:01:22.997] $GNGGA,060122.40,,,,,0,00,99.99,,,,,45.4,*60
[2021-02-22 15:01:23.090] $GNGGA,060122.50,,,,,0,00,99.99,,,,,45.5,*60
[2021-02-22 15:01:23.200] $GNGGA,060122.60,,,,,0,00,99.99,,,,,45.6,*60
[2021-02-22 15:01:23.309] $GNGGA,060122.70,,,,,0,00,99.99,,,,,45.7,*60
[2021-02-22 15:01:23.403] $GNGGA,060122.80,,,,,0,00,99.99,,,,,45.8,*60
[2021-02-22 15:01:23.497] $GNGGA,060122.90,,,,,0,00,99.99,,,,,45.9,*60
[2021-02-22 15:01:23.606] $GNGGA,060123.00,,,,,0,00,99.99,,,,,46.0,*62
[2021-02-22 15:01:23.700] $GNGGA,060123.10,,,,,0,00,99.99,,,,,46.1,*62
[2021-02-22 15:01:23.793] $GNGGA,060123.20,,,,,0,00,99.99,,,,,46.2,*62
[2021-02-22 15:01:23.887] $GNGGA,060123.30,,,,,0,00,99.99,,,,,46.3,*62
[2021-02-22 15:01:24.012] $GNGGA,060123.40,,,,,0,00,99.99,,,,,46.4,*62
[2021-02-22 15:01:24.106] $GNGGA,060123.50,,,,,0,00,99.99,,,,,46.5,*62
[2021-02-22 15:01:24.200] $GNGGA,060123.60,,,,,0,00,99.99,,,,,46.6,*62
[2021-02-22 15:01:24.293] $GNGGA,060123.70,,,,,0,00,99.99,,,,,46.7,*62
[2021-02-22 15:01:24.403] $GNGGA,060123.80,,,,,0,00,99.99,,,,,46.8,*62
[2021-02-22 15:01:24.496] $GNGGA,060123.90,,,,,0,00,99.99,,,,,46.9,*62
[2021-02-22 15:01:24.606] $GNGGA,060124.00,,,,,0,00,99.99,,,,,47.0,*64
[2021-02-22 15:01:24.699] $GNGGA,060124.10,,,,,0,00,99.99,,,,,47.1,*64
[2021-02-22 15:01:24.809] $GNGGA,060124.20,,,,,0,00,99.99,,,,,47.2,*64
[2021-02-22 15:01:24.903] $GNGGA,060124.30,,,,,0,00,99.99,,,,,47.3,*64
[2021-02-22 15:01:24.996] $GNGGA,060124.40,,,,,0,00,99.99,,,,,47.4,*64
[2021-02-22 15:01:25.090] $GNGGA,060124.50,,,,,0,00,99.99,,,,,47.5,*64
[2021-02-22 15:01:25.215] $GNGGA,060124.60,,,,,0,00,99.99,,,,,47.6,*64
[2021-02-22 15:01:25.309] $GNGGA,060124.70,,,,,0,00,99.99,,,,,47.7,*64
[2021-02-22 15:01:25.403] $GNGGA,060124.80,,,,,0,00,99.99,,,,,47.8,*64
[2021-02-22 15:01:25.496] $GNGGA,060124.90,,,,,0,00,99.99,,,,,47.9,*64
[2021-02-22 15:01:25.606] $GNGGA,060125.00,,,,,0,00,99.99,,,,,48.0,*6A
[2021-02-22 15:01:25.699] $GNGGA,060125.10,,,,,0,00,99.99,,,,,48.1,*6A
[2021-02-22 15:01:25.793] $GNGGA,060125.20,,,,,0,00,99.99,,,,,48.2,*6A
[2021-02-22 15:01:25.887] $GNGGA,060125.30,,,,,0,00,99.99,,,,,48.3,*6A
[2021-02-22 15:01:26.012] $GNGGA,060125.40,,,,,0,00,99.99,,,,,48.4,*6A
[2021-02-22 15:01:26.106] $GNGGA,060125.50,,,,,0,00,99.99,,,,,48.5,*6A
[2021-02-22 15:01:26.199] $GNGGA,060125.60,,,,,0,00,99.99,,,,,48.6,*6A
[2021-02-22 15:01:26.293] $GNGGA,060125.70,,,,,0,00,99.99,,,,,48.7,*6A
[2021-02-22 15:01:26.403] $GNGGA,060125.80,,,,,0,00,99.99,,,,,48.8,*6A
[2021-02-22 15:01:26.496] $GNGGA,060125.90,,,,,0,00,99.99,,,,,48.9,*6A
[2021-02-22 15:01:26.606] $GNGGA,060126.00,,,,,0,00,99.99,,,,,49.0,*68
[2021-02-22 15:01:26.699] $GNGGA,060126.10,,,,,0,00,99.99,,,,,49.1,*68
[2021-02-22 15:01:26.809] $GNGGA,060126.20,,,,,0,00,99.99,,,,,49.2,*68
[2021-02-22 15:01:26.903] $GNGGA,060126.30,,,,,0,00,99.99,,,,,49.3,*68
[2021-02-22 15:01:26.996] $GNGGA,060126.40,,,,,0,00,99.99,,,,,49.4,*68
[2021-02-22 15:01:27.090] $GNGGA,060126.50,,,,,0,00,99.99,,,,,49.5,*68
[2021-02-22 15:01:27.215] $GNGGA,060126.60,,,,,0,00,99.99,,,,,49.6,*68
[2021-02-22 15:01:27.309] $GNGGA,060126.70,,,,,0,00,99.99,,,,,49.7,*68
[2021-02-22 15:01:27.402] $GNGGA,060126.80,,,,,0,00,99.99,,,,,49.8,*68
[2021-02-22 15:01:27.496] $GNGGA,060126.90,,,,,0,00,99.99,,,,,49.9,*68
[2021-02-22 15:01:27.606] $GNGGA,060127.00,,,,,0,00,99.99,,,,,50.0,*61
[2021-02-22 15:01:27.699] $GNGGA,060127.10,,,,,0,00,99.99,,,,,50.1,*61
[2021-02-22 15:01:27.793] $GNGGA,060127.20,,,,,0,00,99.99,,,,,50.2,*61
[2021-02-22 15:01:27.887] $GNGGA,060127.30,,,,,0,00,99.99,,,,,50.3,*61
[2021-02-22 15:01:27.996] $GNGGA,060127.40,,,,,0,00,99.99,,,,,50.4,*61
[2021-02-22 15:01:28.106] $GNGGA,060127.50,,,,,0,00,99.99,,,,,50.5,*61
[2021-02-22 15:01:28.199] $GNGGA,060127.60,,,,,0,00,99.99,,,,,50.6,*61
[2021-02-22 15:01:28.293] $GNGGA,060127.70,,,,,0,00,99.99,,,,,50.7,*61
[2021-02-22 15:01:28.402] $GNGGA,060127.80,,,,,0,00,99.99,,,,,50.8,*61
[2021-02-22 15:01:28.496] $GNGGA,060127.90,,,,,0,00,99.99,,,,,50.9,*61
[2021-02-22 15:01:28.605] $GNGGA,060128.00,,,,,0,00,99.99,,,,,51.0,*6F
[2021-02-22 15:01:28.699] $GNGGA,060128.10,,,,,0,00,99.99,,,,,51.1,*6F
[2021-02-22 15:01:28.809] $GNGGA,060128.20,,,,,0,00,99.99,,,,,51.2,*6F
[2021-02-22 15:01:28.902] $GNGGA,060128.30,,,,,0,00,99.99,,,,,51.3,*6F
[2021-02-22 15:01:28.996] $GNGGA,060128.40,,,,,0,00,99.99,,,,,51.4,*6F
[2021-02-22 15:01:29.090] $GNGGA,060128.50,,,,,0,00,99.99,,,,,51.5,*6F
[2021-02-22 15:01:29.215] $GNGGA,060128.60,,,,,0,00,99.99,,,,,51.6,*6F
[2021-02-22 15:01:29.309] $GNGGA,060128.70,,,,,0,00,99.99,,,,,51.7,*6F
[2021-02-22 15:01:29.402] $GNGGA,060128.80,,,,,0,00,99.99,,,,,51.8,*6F
[2021-02-22 15:01:29.496] $GNGGA,060128.90,,,,,0,00,99.99,,,,,51.9,*6F
[2021-02-22 15:01:29.605] $GNGGA,060129.00,,,,,0,00,99.99,,,,,52.0,*6D
[2021-02-22 15:01:29.699] $GNGGA,060129.10,,,,,0,00,99.99,,,,,52.1,*6D
[2021-02-22 15:01:29.793] $GNGGA,060129.20,,,,,0,00,99.99,,,,,52.2,*6D
[2021-02-22 15:01:29.887] $GNGGA,060129.30,,,,,0,00,99.99,,,,,52.3,*6D
[2021-02-22 15:01:30.012] $GNGGA,060129.40,,,,,0,00,99.99,,,,,52.4,*6D
[2021-02-22 15:01:30.105] $GNGGA,060129.50,,,,,0,00,99.99,,,,,52.5,*6D
[2021-02-22 15:01:30.199] $GNGGA,060129.60,,,,,0,00,99.99,,,,,52.6,*6D
[2021-02-22 15:01:30.293] $GNGGA,060129.70,,,,,0,00,99.99,,,,,52.7,*6D
[2021-02-22 15:01:30.402] $GNGGA,060129.80,,,,,0,00,99.99,,,,,52.8,*6D
[2021-02-22 15:01:30.496] $GNGGA,060129.90,,,,,0,00,99.99,,,,,52.9,*6D
[2021-02-22 15:01:30.605] $GNGGA,060130.00,,,,,0,00,99.99,,,,,53.0,*64
[2021-02-22 15:01:30.699] $GNGGA,060130.10,,,,,0,00,99.99,,,,,53.1,*64
[2021-02-22 15:01:30.808] $GNGGA,060130.20,,,,,0,00,99.99,,,,,53.2,*64
[2021-02-22 15:01:30.902] $GNGGA,060130.30,,,,,0,00,99.99,,,,,53.3,*64
[2021-02-22 15:01:30.996] $GNGGA,060130.40,,,,,0,00,99.99,,,,,53.4,*64
[2021-02-22 15:01:31.090] $GNGGA,060130.50,,,,,0,00,99.99,,,,,53.5,*64
[2021-02-22 15:01:31.215] $GNGGA,060130.60,,,,,0,00,99.99,,,,,53.6,*64
[2021-02-22 15:01:31.293] $GNGGA,060130.70,,,,,0,00,99.99,,,,,53.7,*64
[2021-02-22 15:01:31.402] $GNGGA,060130.80,,,,,0,00,99.99,,,,,53.8,*64
[2021-02-22 15:01:31.496] $GNGGA,060130.90,,,,,0,00,99.99,,,,,53.9,*64
[2021-02-22 15:01:31.605] $GNGGA,060131.00,,,,,0,00,99.99,,,,,54.0,*62
[2021-02-22 15:01:31.699] $GNGGA,060131.10,,,,,0,00,99.99,,,,,54.1,*62
[2021-02-22 15:01:31.793] $GNGGA,060131.20,,,,,0,00,99.99,,,,,54.2,*62
[2021-02-22 15:01:31.887] $GNGGA,060131.30,,,,,0,00,99.99,,,,,54.3,*62
[2021-02-22 15:01:32.011] $GNGGA,060131.40,,,,,0,00,99.99,,,,,54.4,*62
[2021-02-22 15:01:32.105] $GNGGA,060131.50,,,,,0,00,99.99,,,,,54.5,*62
[2021-02-22 15:01:32.199] $GNGGA,060131.60,,,,,0,00,99.99,,,,,54.6,*62
[2021-02-22 15:01:32.293] $GNGGA,060131.70,,,,,0,00,99.99,,,,,54.7,*62
[2021-02-22 15:01:32.402] $GNGGA,060131.80,,,,,0,00,99.99,,,,,54.8,*62
[2021-02-22 15:01:32.496] $GNGGA,060131.90,,,,,0,00,99.99,,,,,54.9,*62
[2021-02-22 15:01:32.605] $GNGGA,060132.00,,,,,0,00,99.99,,,,,55.0,*60
[2021-02-22 15:01:32.699] $GNGGA,060132.10,,,,,0,00,99.99,,,,,55.1,*60
[2021-02-22 15:01:32.808] $GNGGA,060132.20,,,,,0,00,99.99,,,,,55.2,*60
[2021-02-22 15:01:32.902] $GNGGA,060132.30,,,,,0,00,99.99,,,,,55.3,*60
[2021-02-22 15:01:32.996] $GNGGA,060132.40,,,,,0,00,99.99,,,,,55.4,*60
[2021-02-22 15:01:33.090] $GNGGA,060132.50,,,,,0,00,99.99,,,,,55.5,*60
[2021-02-22 15:01:33.215] $GNGGA,060132.60,,,,,0,00,99.99,,,,,55.6,*60
[2021-02-22 15:01:33.293] $GNGGA,060132.70,,,,,0,00,99.99,,,,,55.7,*60
[2021-02-22 15:01:33.402] $GNGGA,060132.80,,,,,0,00,99.99,,,,,55.8,*60
[2021-02-22 15:01:33.496] $GNGGA,060132.90,,,,,0,00,99.99,,,,,55.9,*60
[2021-02-22 15:01:33.605] $GNGGA,060133.00,,,,,0,00,99.99,,,,,56.0,*62
[2021-02-22 15:01:33.699] $GNGGA,060133.10,,,,,0,00,99.99,,,,,56.1,*62
[2021-02-22 15:01:33.793] $GNGGA,060133.20,,,,,0,00,99.99,,,,,56.2,*62
[2021-02-22 15:01:33.886] $GNGGA,060133.30,,,,,0,00,99.99,,,,,56.3,*62
[2021-02-22 15:01:34.011] $GNGGA,060133.40,,,,,0,00,99.99,,,,,56.4,*62
[2021-02-22 15:01:34.105] $GNGGA,060133.50,,,,,0,00,99.99,,,,,56.5,*62
[2021-02-22 15:01:34.199] $GNGGA,060133.60,,,,,0,00,99.99,,,,,56.6,*62
[2021-02-22 15:01:34.293] $GNGGA,060133.70,,,,,0,00,99.99,,,,,56.7,*62
[2021-02-22 15:01:34.402] $GNGGA,060133.80,,,,,0,00,99.99,,,,,56.8,*62
[2021-02-22 15:01:34.496] $GNGGA,060133.90,,,,,0,00,99.99,,,,,56.9,*62
[2021-02-22 15:01:34.605] $GNGGA,060134.00,,,,,0,00,99.99,,,,,57.0,*64
[2021-02-22 15:01:34.699] $GNGGA,060134.10,,,,,0,00,99.99,,,,,57.1,*64
[2021-02-22 15:01:34.808] $GNGGA,060134.20,,,,,0,00,99.99,,,,,57.2,*64
[2021-02-22 15:01:34.902] $GNGGA,060134.30,,,,,0,00,99.99,,,,,57.3,*64
[2021-02-22 15:01:34.996] $GNGGA,060134.40,,,,,0,00,99.99,,,,,57.4,*64
[2021-02-22 15:01:35.089] $GNGGA,060134.50,,,,,0,00,99.99,,,,,57.5,*64
[2021-02-22 15:01:35.199] $GNGGA,060134.60,,,,,0,00,99.99,,,,,57.6,*64
[2021-02-22 15:01:35.293] $GNGGA,060134.70,,,,,0,00,99.99,,,,,57.7,*64
[2021-02-22 15:01:35.402] $GNGGA,060134.80,,,,,0,00,99.99,,,,,57.8,*64
[2021-02-22 15:01:35.496] $GNGGA,060134.90,,,,,0,00,99.99,,,,,57.9,*64
[2021-02-22 15:01:35.605] $GNGGA,060135.00,,,,,0,00,99.99,,,,,58.0,*6A
[2021-02-22 15:01:35.699] $GNGGA,060135.10,,,,,0,00,99.99,,,,,58.1,*6A
[2021-02-22 15:01:35.793] $GNGGA,060135.20,,,,,0,00,99.99,,,,,58.2,*6A
[2021-02-22 15:01:35.886] $GNGGA,060135.30,,,,,0,00,99.99,,,,,58.3,*6A
[2021-02-22 15:01:36.011] $GNGGA,060135.40,,,,,0,00,99.99,,,,,58.4,*6A
[2021-02-22 15:01:36.105] $GNGGA,060135.50,,,,,0,00,99.99,,,,,58.5,*6A
[2021-02-22 15:01:36.199] $GNGGA,060135.60,,,,,0,00,99.99,,,,,58.6,*6A
[2021-02-22 15:01:36.292] $GNGGA,060135.70,,,,,0,00,99.99,,,,,58.7,*6A
[2021-02-22 15:01:36.402] $GNGGA,060135.80,,,,,0,00,99.99,,,,,58.8,*6A
[2021-02-22 15:01:36.496] $GNGGA,060135.90,,,,,0,00,99.99,,,,,58.9,*6A
[2021-02-22 15:01:36.589] $GNGGA,060136.00,,,,,0,00,99.99,,,,,59.0,*68
[2021-02-22 15:01:36.683] $GNGGA,060136.10,,,,,0,00,99.99,,,,,59.1,*68
[2021-02-22 15:01:36.808] $GNGGA,060136.20,,,,,0,00,99.99,,,,,59.2,*68
[2021-02-22 15:01:36.902] $GNGGA,060136.30,,,,,0,00,99.99,,,,,59.3,*68
[2021-02-22 15:01:36.996] $GNGGA,060136.40,,,,,0,00,99.99,,,,,59.4,*68
[2021-02-22 15:01:37.089] $GNGGA,060136.50,,,,,0,00,99.99,,,,,59.5,*68
[2021-02-22 15:01:37.214] $GNGGA,060136.60,,,,,0,00,99.99,,,,,59.6,*68
[2021-02-22 15:01:37.292] $GNGGA,060136.70,,,,,0,00,99.99,,,,,59.7,*68
[2021-02-22 15:01:37.402] $GNGGA,060136.80,,,,,0,00,99.99,,,,,59.8,*68
[2021-02-22 15:01:37.496] $GNGGA,060136.90,,,,,0,00,99.99,,,,,59.9,*68
[2021-02-22 15:01:37.605] $GNGGA,060137.00,,,,,0,00,99.99,,,,,60.0,*63
[2021-02-22 15:01:37.699] $GNGGA,060137.10,,,,,0,00,99.99,,,,,60.1,*63
[2021-02-22 15:01:37.792] $GNGGA,060137.20,,,,,0,00,99.99,,,,,60.2,*63
[2021-02-22 15:01:37.886] $GNGGA,060137.30,,,,,0,00,99.99,,,,,60.3,*63
[2021-02-22 15:01:38.011] $GNGGA,060137.40,,,,,0,00,99.99,,,,,60.4,*63
[2021-02-22 15:01:38.105] $GNGGA,060137.50,,,,,0,00,99.99,,,,,60.5,*63
[2021-02-22 15:01:38.199] $GNGGA,060137.60,,,,,0,00,99.99,,,,,60.6,*63
[2021-02-22 15:01:38.308] $GNGGA,060137.70,,,,,0,00,99.99,,,,,60.7,*63
[2021-02-22 15:01:38.402] $GNGGA,060137.80,,,,,0,00,99.99,,,,,60.8,*63
[2021-02-22 15:01:38.495] $GNGGA,060137.90,,,,,0,00,99.99,,,,,60.9,*63
[2021-02-22 15:01:38.589] $GNGGA,060138.00,,,,,0,00,99.99,,,,,61.0,*6D
[2021-02-22 15:01:38.714] $GNGGA,060138.10,,,,,0,00,99.99,,,,,61.1,*6D
[2021-02-22 15:01:38.808] $GNGGA,060138.20,,,,,0,00,99.99,,,,,61.2,*6D
[2021-02-22 15:01:38.902] $GNGGA,060138.30,,,,,0,00,99.99,,,,,61.3,*6D
[2021-02-22 15:01:38.995] $GNGGA,060138.40,,,,,0,00,99.99,,,,,61.4,*6D
[2021-02-22 15:01:39.105] $GNGGA,060138.50,,,,,0,00,99.99,,,,,61.5,*6D
[2021-02-22 15:01:39.199] $GNGGA,060138.60,,,,,0,00,99.99,,,,,61.6,*6D
[2021-02-22 15:01:39.292] $GNGGA,060138.70,,,,,0,00,99.99,,,,,61.7,*6D
[2021-02-22 15:01:39.402] $GNGGA,060138.80,,,,,0,00,99.99,,,,,61.8,*6D
[2021-02-22 15:01:39.511] $GNGGA,060138.90,,,,,0,00,99.99,,,,,61.9,*6D
[2021-02-22 15:01:39.620] $GNGGA,060139.00,3713.907193256,N,13701.462836096,E,5,00,99.90,86.123,M,37.565,M,62.0,2006*54
[2021-02-22 15:01:39.698] $GNGGA,060139.10,3713.906886797,N,13701.462802256,E,5,02,99.90,86.133,M,37.565,M,62.1,2006*5A
[2021-02-22 15:01:39.792] $GNGGA,060139.20,3713.906931918,N,13701.462376079,E,5,03,99.90,86.124,M,37.565,M,62.2,2006*5E
[2021-02-22 15:01:39.886] $GNGGA,060139.30,3713.906911596,N,13701.462548443,E,5,05,2.08,86.116,M,37.565,M,62.3,2006*64
[2021-02-22 15:01:39.995] $GNGGA,060139.40,3713.906932764,N,13701.462421764,E,5,05,2.08,86.080,M,37.565,M,62.4,2006*6C
[2021-02-22 15:01:40.105] $GNGGA,060139.50,3713.907220386,N,13701.462393135,E,5,05,2.08,86.174,M,37.565,M,62.5,2006*6B
[2021-02-22 15:01:40.183] $GNGGA,060139.60,3713.907222010,N,13701.462394481,E,5,03,99.90,86.169,M,37.565,M,62.6,2006*51
[2021-02-22 15:01:40.292] $GNGGA,060139.70,3713.907216203,N,13701.462419452,E,5,00,99.90,86.141,M,37.565,M,62.7,2006*53
[2021-02-22 15:01:40.386] $GNGGA,060139.80,3713.907216513,N,13701.462420687,E,5,00,99.90,86.139,M,37.565,M,62.8,2006*5A
[2021-02-22 15:01:40.495] $GNGGA,060139.90,3713.907217043,N,13701.462421929,E,5,00,99.90,86.139,M,37.565,M,62.9,2006*51
[2021-02-22 15:01:40.620] $GNGGA,060140.00,3713.907217220,N,13701.462422780,E,5,00,99.90,86.138,M,37.565,M,63.0,2006*56
[2021-02-22 15:01:40.683] $GNGGA,060140.10,3713.907217314,N,13701.462422635,E,5,00,99.90,86.137,M,37.565,M,63.1,2006*50
[2021-02-22 15:01:40.792] $GNGGA,060140.20,3713.907218097,N,13701.462423208,E,5,00,99.90,86.140,M,37.565,M,63.2,2006*5C
[2021-02-22 15:01:40.886] $GNGGA,060140.30,3713.907216998,N,13701.462422812,E,5,00,99.90,86.140,M,37.565,M,63.3,2006*54
[2021-02-22 15:01:40.995] $GNGGA,060140.40,3713.907217740,N,13701.462423624,E,5,00,99.90,86.141,M,37.565,M,63.4,2006*55
[2021-02-22 15:01:41.105] $GNGGA,060140.50,3713.907218388,N,13701.462423107,E,5,00,99.90,86.142,M,37.565,M,63.5,2006*5F
[2021-02-22 15:01:41.183] $GNGGA,060140.60,3713.907219041,N,13701.462423946,E,5,00,99.90,86.147,M,37.565,M,63.6,2006*50
[2021-02-22 15:01:41.292] $GNGGA,060140.70,3713.907214469,N,13701.462389115,E,5,00,99.90,86.247,M,37.565,M,63.7,2006*59
[2021-02-22 15:01:41.386] $GNGGA,060140.80,3713.907162918,N,13701.462366168,E,5,00,99.90,86.267,M,37.565,M,63.8,2006*59
[2021-02-22 15:01:41.495] $GNGGA,060140.90,3713.907163235,N,13701.462365661,E,5,00,99.90,86.269,M,37.565,M,63.9,2006*5F
[2021-02-22 15:01:41.620] $GNGGA,060141.00,3713.907164734,N,13701.462365675,E,5,00,99.90,86.274,M,37.565,M,64.0,2006*53
[2021-02-22 15:01:41.698] $GNGGA,060141.10,3713.907164560,N,13701.462366972,E,5,00,99.90,86.273,M,37.565,M,64.1,2006*5C
[2021-02-22 15:01:41.792] $GNGGA,060141.20,3713.907130532,N,13701.462367935,E,5,02,99.90,86.259,M,37.565,M,64.2,2006*52
[2021-02-22 15:01:41.886] $GNGGA,060141.30,3713.906982622,N,13701.462279699,E,5,05,2.08,86.524,M,37.565,M,64.3,2006*6E
[2021-02-22 15:01:42.011] $GNGGA,060141.40,3713.906684639,N,13701.462094568,E,5,06,1.13,86.715,M,37.565,M,64.4,2006*6B
[2021-02-22 15:01:42.089] $GNGGA,060141.50,3713.906808464,N,13701.462080414,E,5,06,1.13,86.753,M,37.565,M,64.5,2006*66
[2021-02-22 15:01:42.198] $GNGGA,060141.60,3713.906878652,N,13701.462053505,E,5,06,1.13,86.647,M,37.565,M,64.6,2006*6D
[2021-02-22 15:01:42.292] $GNGGA,060141.70,3713.907053772,N,13701.461773684,E,5,06,1.13,86.790,M,37.565,M,64.7,2006*69
[2021-02-22 15:01:42.417] $GNGGA,060141.80,3713.907107206,N,13701.461747437,E,5,06,1.13,86.850,M,37.565,M,64.8,2006*61
[2021-02-22 15:01:42.495] $GNGGA,060141.90,3713.907082883,N,13701.461729526,E,5,06,1.13,87.017,M,37.565,M,64.9,2006*69
[2021-02-22 15:01:42.589] $GNGGA,060142.00,3713.907085746,N,13701.461691424,E,5,06,1.13,87.006,M,37.565,M,65.0,2006*6B
[2021-02-22 15:01:42.698] $GNGGA,060142.10,3713.906927956,N,13701.461287852,E,5,06,1.13,87.695,M,37.565,M,65.1,2006*66
[2021-02-22 15:01:42.808] $GNGGA,060142.20,3713.906889273,N,13701.461256791,E,5,06,1.13,87.717,M,37.565,M,65.2,2006*68
[2021-02-22 15:01:42.886] $GNGGA,060142.30,3713.906865748,N,13701.461200018,E,5,06,1.13,87.794,M,37.565,M,65.3,2006*69
[2021-02-22 15:01:42.995] $GNGGA,060142.40,3713.906831738,N,13701.461123623,E,5,06,1.13,87.947,M,37.565,M,65.4,2006*63
[2021-02-22 15:01:43.089] $GNGGA,060142.50,3713.906774064,N,13701.460996176,E,5,06,1.13,88.332,M,37.565,M,65.5,2006*64
[2021-02-22 15:01:43.214] $GNGGA,060142.60,3713.906652297,N,13701.460809912,E,5,06,1.13,88.823,M,37.565,M,65.6,2006*69
[2021-02-22 15:01:43.292] $GNGGA,060142.70,3713.906606000,N,13701.460750162,E,5,06,1.13,89.056,M,37.565,M,65.7,2006*63
[2021-02-22 15:01:43.386] $GNGGA,060142.80,3713.906586735,N,13701.460726692,E,5,06,1.13,89.144,M,37.565,M,65.8,2006*62
[2021-02-22 15:01:43.495] $GNGGA,060142.90,3713.906620681,N,13701.460766569,E,5,06,1.13,89.020,M,37.565,M,65.9,2006*63
[2021-02-22 15:01:43.589] $GNGGA,060143.00,3713.906577541,N,13701.460718233,E,5,06,1.13,89.243,M,37.565,M,66.0,2006*69
[2021-02-22 15:01:43.714] $GNGGA,060143.10,3713.906576067,N,13701.460700642,E,5,06,1.13,89.325,M,37.565,M,66.1,2006*63
[2021-02-22 15:01:43.792] $GNGGA,060143.20,3713.906559594,N,13701.460676294,E,5,06,1.13,89.390,M,37.565,M,66.2,2006*66
[2021-02-22 15:01:43.886] $GNGGA,060143.30,3713.906568413,N,13701.460674107,E,5,06,1.13,89.420,M,37.565,M,66.3,2006*6D
[2021-02-22 15:01:43.995] $GNGGA,060143.40,3713.906565229,N,13701.460666222,E,5,06,1.13,89.486,M,37.565,M,66.4,2006*64
[2021-02-22 15:01:44.089] $GNGGA,060143.50,3713.906569218,N,13701.460666204,E,5,06,1.13,89.520,M,37.565,M,66.5,2006*63
[2021-02-22 15:01:44.214] $GNGGA,060143.60,3713.906582334,N,13701.460667846,E,5,06,1.13,89.543,M,37.565,M,66.6,2006*61
[2021-02-22 15:01:44.292] $GNGGA,060143.70,3713.906581794,N,13701.460666082,E,5,06,1.13,89.565,M,37.565,M,66.7,2006*69
[2021-02-22 15:01:44.386] $GNGGA,060143.80,3713.906583360,N,13701.460659057,E,5,06,1.13,89.572,M,37.565,M,66.8,2006*66
[2021-02-22 15:01:44.495] $GNGGA,060143.90,3713.906599355,N,13701.460655665,E,5,06,1.13,89.586,M,37.565,M,66.9,2006*6B
[2021-02-22 15:01:44.589] $GNGGA,060144.00,3713.906607175,N,13701.460654951,E,5,06,1.13,89.585,M,37.565,M,67.0,2006*63
[2021-02-22 15:01:44.714] $GNGGA,060144.10,3713.906610353,N,13701.460652159,E,5,06,1.13,89.584,M,37.565,M,67.1,2006*64
[2021-02-22 15:01:44.792] $GNGGA,060144.20,3713.906613866,N,13701.460649062,E,5,06,1.13,89.593,M,37.565,M,67.2,2006*6F
[2021-02-22 15:01:44.886] $GNGGA,060144.30,3713.906624922,N,13701.460645561,E,5,06,1.13,89.606,M,37.565,M,67.3,2006*6F
[2021-02-22 15:01:44.995] $GNGGA,060144.40,3713.906629084,N,13701.460640890,E,5,06,1.13,89.625,M,37.565,M,67.4,2006*60
[2021-02-22 15:01:45.089] $GNGGA,060144.50,3713.906633713,N,13701.460635481,E,5,06,1.13,89.640,M,37.565,M,67.5,2006*6F
[2021-02-22 15:01:45.214] $GNGGA,060144.60,3713.906636099,N,13701.460628815,E,5,06,1.13,89.663,M,37.565,M,67.6,2006*63
[2021-02-22 15:01:45.292] $GNGGA,060144.70,3713.906636822,N,13701.460619615,E,5,06,1.13,89.697,M,37.565,M,67.7,2006*6C
[2021-02-22 15:01:45.386] $GNGGA,060144.80,3713.906637894,N,13701.460613599,E,5,09,0.95,89.720,M,37.565,M,67.8,2006*60
[2021-02-22 15:01:45.495] $GNGGA,060144.90,3713.906447807,N,13701.460117189,E,4,11,0.93,90.753,M,37.565,M,67.9,2006*6B
[2021-02-22 15:01:45.589] $GNGGA,060145.00,3713.906449179,N,13701.460118691,E,4,09,1.05,90.760,M,37.565,M,68.0,2006*6D
[2021-02-22 15:01:45.714] $GNGGA,060145.10,3713.906448988,N,13701.460118401,E,4,09,1.05,90.758,M,37.565,M,68.1,2006*6A
[2021-02-22 15:01:45.792] $GNGGA,060145.20,3713.906449983,N,13701.460117737,E,4,09,1.05,90.759,M,37.565,M,68.2,2006*68
[2021-02-22 15:01:45.886] $GNGGA,060145.30,3713.906451015,N,13701.460117478,E,4,09,1.05,90.758,M,37.565,M,68.3,2006*6E
[2021-02-22 15:01:45.995] $GNGGA,060145.40,3713.906450006,N,13701.460117079,E,4,09,1.05,90.759,M,37.565,M,68.4,2006*69
[2021-02-22 15:01:46.120] $GNGGA,060145.50,3713.906448983,N,13701.460117105,E,4,15,0.77,90.760,M,37.565,M,68.5,2006*6D
[2021-02-22 15:01:46.198] $GNGGA,060145.60,3713.906448517,N,13701.460117387,E,4,15,0.77,90.760,M,37.565,M,68.6,2006*64
[2021-02-22 15:01:46.292] $GNGGA,060145.70,3713.906448656,N,13701.460117624,E,4,15,0.77,90.759,M,37.565,M,68.7,2006*64
[2021-02-22 15:01:46.401] $GNGGA,060145.80,3713.906448836,N,13701.460116528,E,4,15,0.77,90.763,M,37.565,M,68.8,2006*6B
[2021-02-22 15:01:46.510] $GNGGA,060145.90,3713.906448803,N,13701.460116337,E,4,15,0.77,90.761,M,37.565,M,68.9,2006*67
[2021-02-22 15:01:46.589] $GNGGA,060146.00,3713.906449043,N,13701.460115967,E,4,15,0.77,90.761,M,37.565,M,69.0,2006*64
[2021-02-22 15:01:46.698] $GNGGA,060146.10,3713.906448726,N,13701.460115619,E,4,15,0.77,90.763,M,37.565,M,69.1,2006*65
[2021-02-22 15:01:46.792] $GNGGA,060146.20,3713.906448344,N,13701.460116220,E,4,15,0.77,90.761,M,37.565,M,69.2,2006*6A
[2021-02-22 15:01:46.917] $GNGGA,060146.30,3713.906448234,N,13701.460115917,E,4,15,0.77,90.762,M,37.565,M,69.3,2006*63
[2021-02-22 15:01:46.995] $GNGGA,060146.40,3713.906448958,N,13701.460115488,E,4,15,0.77,90.762,M,37.565,M,69.4,2006*69
[2021-02-22 15:01:47.089] $GNGGA,060146.50,3713.906449211,N,13701.460114787,E,4,15,0.77,90.763,M,37.565,M,69.5,2006*62
[2021-02-22 15:01:47.198] $GNGGA,060146.60,3713.906449178,N,13701.460115191,E,4,15,0.77,90.762,M,37.565,M,69.6,2006*6F
[2021-02-22 15:01:47.307] $GNGGA,060146.70,3713.906448190,N,13701.460115762,E,4,15,0.77,90.762,M,37.565,M,69.7,2006*62
[2021-02-22 15:01:47.385] $GNGGA,060146.80,3713.906447700,N,13701.460115105,E,4,15,0.77,90.760,M,37.565,M,69.8,2006*67
[2021-02-22 15:01:47.495] $GNGGA,060146.90,3713.906448290,N,13701.460115312,E,4,15,0.77,90.761,M,37.565,M,69.9,2006*61
[2021-02-22 15:01:47.589] $GNGGA,060147.00,3713.906449277,N,13701.460115185,E,4,15,0.77,90.761,M,37.565,M,70.0,2006*6C
[2021-02-22 15:01:47.714] $GNGGA,060147.10,3713.906449447,N,13701.460115067,E,4,15,0.77,90.762,M,37.565,M,70.1,2006*67
[2021-02-22 15:01:47.792] $GNGGA,060147.20,3713.906449437,N,13701.460115655,E,4,15,0.77,90.763,M,37.565,M,70.2,2006*66
[2021-02-22 15:01:47.885] $GNGGA,060147.30,3713.906449253,N,13701.460115781,E,4,15,0.77,90.762,M,37.565,M,70.3,2006*6B
[2021-02-22 15:01:47.995] $GNGGA,060147.40,3713.906449683,N,13701.460115163,E,4,15,0.77,90.764,M,37.565,M,70.4,2006*6E
[2021-02-22 15:01:48.089] $GNGGA,060147.50,3713.906449334,N,13701.460115189,E,4,15,0.77,90.761,M,37.565,M,70.5,2006*66
[2021-02-22 15:01:48.214] $GNGGA,060147.60,3713.906449474,N,13701.460115131,E,4,15,0.77,90.764,M,37.565,M,70.6,2006*63
[2021-02-22 15:01:48.292] $GNGGA,060147.70,3713.906449373,N,13701.460115633,E,4,15,0.77,90.762,M,37.565,M,70.7,2006*60
[2021-02-22 15:01:48.385] $GNGGA,060147.80,3713.906448722,N,13701.460115918,E,4,15,0.77,90.762,M,37.565,M,70.8,2006*67
[2021-02-22 15:01:48.495] $GNGGA,060147.90,3713.906448679,N,13701.460115206,E,4,15,0.77,90.762,M,37.565,M,70.9,2006*6C
[2021-02-22 15:01:48.589] $GNGGA,060148.00,3713.906448885,N,13701.460114938,E,4,15,0.77,90.763,M,37.565,M,71.0,2006*69
[2021-02-22 15:01:48.713] $GNGGA,060148.10,3713.906449582,N,13701.460115666,E,4,15,0.77,90.763,M,37.565,M,71.1,2006*67
[2021-02-22 15:01:48.792] $GNGGA,060148.20,3713.906449873,N,13701.460115106,E,4,15,0.77,90.764,M,37.565,M,71.2,2006*62
[2021-02-22 15:01:48.885] $GNGGA,060148.30,3713.906449487,N,13701.460114922,E,4,15,0.77,90.762,M,37.565,M,71.3,2006*6C
[2021-02-22 15:01:48.995] $GNGGA,060148.40,3713.906448907,N,13701.460115649,E,4,15,0.77,90.761,M,37.565,M,71.4,2006*68
[2021-02-22 15:01:49.088] $GNGGA,060148.50,3713.906448399,N,13701.460115940,E,4,15,0.77,90.765,M,37.565,M,71.5,2006*67
[2021-02-22 15:01:49.213] $GNGGA,060148.60,3713.906448918,N,13701.460115939,E,4,15,0.77,90.762,M,37.565,M,71.6,2006*6D
[2021-02-22 15:01:49.292] $GNGGA,060148.70,3713.906448725,N,13701.460115461,E,4,15,0.77,90.762,M,37.565,M,71.7,2006*6D
[2021-02-22 15:01:49.385] $GNGGA,060148.80,3713.906448763,N,13701.460115127,E,4,15,0.77,90.764,M,37.565,M,71.8,2006*6E
[2021-02-22 15:01:49.495] $GNGGA,060148.90,3713.906448394,N,13701.460115181,E,4,15,0.77,90.763,M,37.565,M,71.9,2006*69
[2021-02-22 15:01:49.588] $GNGGA,060149.00,3713.906448357,N,13701.460115617,E,4,15,0.77,90.763,M,37.565,M,72.0,2006*6C
[2021-02-22 15:01:49.713] $GNGGA,060149.10,3713.906449047,N,13701.460115168,E,4,15,0.77,90.764,M,37.565,M,72.1,2006*67
[2021-02-22 15:01:49.792] $GNGGA,060149.20,3713.906449239,N,13701.460114403,E,4,15,0.77,90.765,M,37.565,M,72.2,2006*64
[2021-02-22 15:01:49.885] $GNGGA,060149.30,3713.906449601,N,13701.460114005,E,4,15,0.77,90.765,M,37.565,M,72.3,2006*69
[2021-02-22 15:01:49.995] $GNGGA,060149.40,3713.906448801,N,13701.460113500,E,4,15,0.77,90.766,M,37.565,M,72.4,2006*62
[2021-02-22 15:01:50.120] $GNGGA,060149.50,3713.906448687,N,13701.460113883,E,4,15,0.77,90.766,M,37.565,M,72.5,2006*64
[2021-02-22 15:01:50.198] $GNGGA,060149.60,3713.906449042,N,13701.460113913,E,4,15,0.77,90.765,M,37.565,M,72.6,2006*61
[2021-02-22 15:01:50.292] $GNGGA,060149.70,3713.906449729,N,13701.460113263,E,4,15,0.77,90.767,M,37.565,M,72.7,2006*65
[2021-02-22 15:01:50.401] $GNGGA,060149.80,3713.906449482,N,13701.460112715,E,4,15,0.77,90.766,M,37.565,M,72.8,2006*63
[2021-02-22 15:01:50.510] $GNGGA,060149.90,3713.906449638,N,13701.460112169,E,4,15,0.77,90.765,M,37.565,M,72.9,2006*6E
[2021-02-22 15:01:50.588] $GNGGA,060150.00,3713.906449123,N,13701.460112062,E,4,15,0.77,90.767,M,37.565,M,73.0,2006*62
[2021-02-22 15:01:50.698] $GNGGA,060150.10,3713.906448580,N,13701.460113076,E,4,15,0.77,90.769,M,37.565,M,73.1,2006*64
[2021-02-22 15:01:50.791] $GNGGA,060150.20,3713.906449498,N,13701.460114200,E,4,15,0.77,90.767,M,37.565,M,73.2,2006*67
[2021-02-22 15:01:50.916] $GNGGA,060150.30,3713.906449638,N,13701.460113698,E,4,15,0.77,90.769,M,37.565,M,73.3,2006*63
[2021-02-22 15:01:50.995] $GNGGA,060150.40,3713.906449428,N,13701.460113454,E,4,15,0.77,90.767,M,37.565,M,73.4,2006*6C
[2021-02-22 15:01:51.088] $GNGGA,060150.50,3713.906450317,N,13701.460113042,E,4,15,0.77,90.769,M,37.565,M,73.5,2006*62
[2021-02-22 15:01:51.198] $GNGGA,060150.60,3713.906449699,N,13701.460113691,E,4,15,0.77,90.767,M,37.565,M,73.6,2006*6F
[2021-02-22 15:01:51.323] $GNGGA,060150.70,3713.906449691,N,13701.460114117,E,4,15,0.77,90.766,M,37.565,M,73.7,2006*68
[2021-02-22 15:01:51.385] $GNGGA,060150.80,3713.906450081,N,13701.460113595,E,4,15,0.77,90.767,M,37.565,M,73.8,2006*6F
[2021-02-22 15:01:51.495] $GNGGA,060150.90,3713.906450133,N,13701.460113601,E,4,15,0.77,90.768,M,37.565,M,73.9,2006*66
[2021-02-22 15:01:51.588] $GNGGA,060151.00,3713.906449723,N,13701.460113839,E,4,15,0.77,90.766,M,37.565,M,74.0,2006*64
[2021-02-22 15:01:51.713] $GNGGA,060151.10,3713.906449355,N,13701.460113497,E,4,15,0.77,90.767,M,37.565,M,74.1,2006*68
[2021-02-22 15:01:51.791] $GNGGA,060151.20,3713.906449461,N,13701.460113804,E,4,15,0.77,90.763,M,37.565,M,74.2,2006*6A
[2021-02-22 15:01:51.885] $GNGGA,060151.30,3713.906449684,N,13701.460113367,E,4,15,0.77,90.765,M,37.565,M,74.3,2006*6B
[2021-02-22 15:01:51.995] $GNGGA,060151.40,3713.906449702,N,13701.460112948,E,4,15,0.77,90.763,M,37.565,M,74.4,2006*64
[2021-02-22 15:01:52.119] $GNGGA,060151.50,3713.906450442,N,13701.460112823,E,4,15,0.77,90.763,M,37.565,M,74.5,2006*67
[2021-02-22 15:01:52.198] $GNGGA,060151.60,3713.906451091,N,13701.460112840,E,4,15,0.77,90.760,M,37.565,M,74.6,2006*6A
[2021-02-22 15:01:52.291] $GNGGA,060151.70,3713.906449644,N,13701.460114201,E,4,15,0.77,90.759,M,37.565,M,74.7,2006*6E
[2021-02-22 15:01:52.401] $GNGGA,060151.80,3713.906449273,N,13701.460114403,E,4,15,0.77,90.760,M,37.565,M,74.8,2006*60
[2021-02-22 15:01:52.494] $GNGGA,060151.90,3713.906449800,N,13701.460114345,E,4,15,0.77,90.760,M,37.565,M,74.9,2006*6B
[2021-02-22 15:01:52.619] $GNGGA,060152.00,3713.906450487,N,13701.460113949,E,4,15,0.77,90.761,M,37.565,M,75.0,2006*62
[2021-02-22 15:01:52.698] $GNGGA,060152.10,3713.906450802,N,13701.460113893,E,4,15,0.77,90.761,M,37.565,M,75.1,2006*65
[2021-02-22 15:01:52.791] $GNGGA,060152.20,3713.906450520,N,13701.460113911,E,4,15,0.77,90.763,M,37.565,M,75.2,2006*61
[2021-02-22 15:01:52.901] $GNGGA,060152.30,3713.906449488,N,13701.460113932,E,4,15,0.77,90.765,M,37.565,M,75.3,2006*6D
[2021-02-22 15:01:52.994] $GNGGA,060152.40,3713.906448889,N,13701.460113613,E,4,15,0.77,90.767,M,37.565,M,75.4,2006*6F
[2021-02-22 15:01:53.119] $GNGGA,060152.50,3713.906449426,N,13701.460114112,E,4,15,0.77,90.766,M,37.565,M,75.5,2006*67
[2021-02-22 15:01:53.198] $GNGGA,060152.60,3713.906449496,N,13701.460113900,E,4,15,0.77,90.767,M,37.565,M,75.6,2006*61
[2021-02-22 15:01:53.291] $GNGGA,060152.70,3713.906449503,N,13701.460113468,E,4,15,0.77,90.770,M,37.565,M,75.7,2006*69
[2021-02-22 15:01:53.401] $GNGGA,060152.80,3713.906448851,N,13701.460113646,E,4,15,0.77,90.766,M,37.565,M,75.8,2006*6B
[2021-02-22 15:01:53.494] $GNGGA,060152.90,3713.906448292,N,13701.460114836,E,4,15,0.77,90.766,M,37.565,M,75.9,2006*60
[2021-02-22 15:01:53.619] $GNGGA,060153.00,3713.906448292,N,13701.460114273,E,4,14,0.79,90.768,M,37.565,M,76.0,2006*68
[2021-02-22 15:01:53.697] $GNGGA,060153.10,3713.906447148,N,13701.460116049,E,4,14,0.79,90.773,M,37.565,M,76.1,2006*60
[2021-02-22 15:01:53.791] $GNGGA,060153.20,3713.906447347,N,13701.460116134,E,4,14,0.79,90.776,M,37.565,M,76.2,2006*63
[2021-02-22 15:01:53.901] $GNGGA,060153.30,3713.906447784,N,13701.460115464,E,4,14,0.79,90.777,M,37.565,M,76.3,2006*6A
[2021-02-22 15:01:53.994] $GNGGA,060153.40,3713.906448452,N,13701.460116389,E,4,14,0.79,90.774,M,37.565,M,76.4,2006*69
[2021-02-22 15:01:54.119] $GNGGA,060153.50,3713.906448219,N,13701.460116488,E,4,14,0.79,90.769,M,37.565,M,76.5,2006*6A
[2021-02-22 15:01:54.197] $GNGGA,060153.60,3713.906448678,N,13701.460116505,E,4,14,0.79,90.771,M,37.565,M,76.6,2006*64
[2021-02-22 15:01:54.291] $GNGGA,060153.70,3713.906448671,N,13701.460115967,E,4,14,0.79,90.770,M,37.565,M,76.7,2006*67
[2021-02-22 15:01:54.401] $GNGGA,060153.80,3713.906449242,N,13701.460116293,E,4,14,0.79,90.769,M,37.565,M,76.8,2006*69
[2021-02-22 15:01:54.510] $GNGGA,060153.90,3713.906448855,N,13701.460116642,E,4,14,0.79,90.768,M,37.565,M,76.9,2006*6D
[2021-02-22 15:01:54.588] $GNGGA,060154.00,3713.906448467,N,13701.460117026,E,4,14,0.79,90.768,M,37.565,M,77.0,2006*63
[2021-02-22 15:01:54.697] $GNGGA,060154.10,3713.906449114,N,13701.460116778,E,4,14,0.79,90.768,M,37.565,M,77.1,2006*6E
[2021-02-22 15:01:54.791] $GNGGA,060154.20,3713.906449123,N,13701.460116087,E,4,14,0.79,90.769,M,37.565,M,77.2,2006*6C
[2021-02-22 15:01:54.916] $GNGGA,060154.30,3713.906449005,N,13701.460116257,E,4,14,0.79,90.771,M,37.565,M,77.3,2006*6F
[2021-02-22 15:01:54.994] $GNGGA,060154.40,3713.906449723,N,13701.460116516,E,4,14,0.79,90.768,M,37.565,M,77.4,2006*66
[2021-02-22 15:01:55.088] $GNGGA,060154.50,3713.906449720,N,13701.460117341,E,4,14,0.79,90.769,M,37.565,M,77.5,2006*61
[2021-02-22 15:01:55.197] $GNGGA,060154.60,3713.906449757,N,13701.460117952,E,4,14,0.79,90.770,M,37.565,M,77.6,2006*61
[2021-02-22 15:01:55.307] $GNGGA,060154.70,3713.906449796,N,13701.460117247,E,4,14,0.79,90.770,M,37.565,M,77.7,2006*63
[2021-02-22 15:01:55.385] $GNGGA,060154.80,3713.906450502,N,13701.460116251,E,4,15,0.77,90.770,M,37.565,M,77.8,2006*6D
[2021-02-22 15:01:55.494] $GNGGA,060154.90,3713.906449805,N,13701.460115397,E,4,15,0.77,90.767,M,37.565,M,77.9,2006*61
[2021-02-22 15:01:55.588] $GNGGA,060155.00,3713.906450328,N,13701.460116041,E,4,15,0.77,90.766,M,37.565,M,78.0,2006*69
[2021-02-22 15:01:55.713] $GNGGA,060155.10,3713.906449761,N,13701.460116899,E,4,15,0.77,90.765,M,37.565,M,78.1,2006*66
[2021-02-22 15:01:55.791] $GNGGA,060155.20,3713.906449830,N,13701.460116435,E,4,15,0.77,90.764,M,37.565,M,78.2,2006*66
[2021-02-22 15:01:55.885] $GNGGA,060155.30,3713.906449791,N,13701.460114853,E,4,15,0.77,90.766,M,37.565,M,78.3,2006*6E
[2021-02-22 15:01:55.994] $GNGGA,060155.40,3713.906450362,N,13701.460114116,E,4,15,0.77,90.767,M,37.565,M,78.4,2006*67
[2021-02-22 15:01:56.119] $GNGGA,060155.50,3713.906451292,N,13701.460114846,E,4,15,0.77,90.768,M,37.565,M,78.5,2006*6B
[2021-02-22 15:01:56.197] $GNGGA,060155.60,3713.906451749,N,13701.460115012,E,4,15,0.77,90.768,M,37.565,M,78.6,2006*60
[2021-02-22 15:01:56.291] $GNGGA,060155.70,3713.906451155,N,13701.460115712,E,4,15,0.77,90.767,M,37.565,M,78.7,2006*63
[2021-02-22 15:01:56.400] $GNGGA,060155.80,3713.906451080,N,13701.460115535,E,4,15,0.77,90.767,M,37.565,M,78.8,2006*6D
[2021-02-22 15:01:56.494] $GNGGA,060155.90,3713.906451025,N,13701.460115158,E,4,15,0.77,90.769,M,37.565,M,78.9,2006*63
[2021-02-22 15:01:56.619] $GNGGA,060156.00,3713.906450467,N,13701.460115054,E,4,15,0.77,90.767,M,37.565,M,79.0,2006*61
[2021-02-22 15:01:56.697] $GNGGA,060156.10,3713.906451269,N,13701.460115497,E,4,15,0.77,90.769,M,37.565,M,79.1,2006*6D
[2021-02-22 15:01:56.791] $GNGGA,060156.20,3713.906451194,N,13701.460117045,E,4,15,0.77,90.769,M,37.565,M,79.2,2006*65
[2021-02-22 15:01:56.900] $GNGGA,060156.30,3713.906451413,N,13701.460117238,E,4,15,0.77,90.768,M,37.565,M,79.3,2006*66
[2021-02-22 15:01:56.994] $GNGGA,060156.40,3713.906452715,N,13701.460116875,E,4,15,0.77,90.766,M,37.565,M,79.4,2006*6C
[2021-02-22 15:01:57.119] $GNGGA,060156.50,3713.906452412,N,13701.460116218,E,4,15,0.77,90.766,M,37.565,M,79.5,2006*69
[2021-02-22 15:01:57.197] $GNGGA,060156.60,3713.906452519,N,13701.460116363,E,4,15,0.77,90.766,M,37.565,M,79.6,2006*6E
[2021-02-22 15:01:57.291] $GNGGA,060156.70,3713.906452064,N,13701.460116737,E,4,15,0.77,90.767,M,37.565,M,79.7,2006*65
[2021-02-22 15:01:57.400] $GNGGA,060156.80,3713.906452026,N,13701.460115831,E,4,15,0.77,90.765,M,37.565,M,79.8,2006*6B
[2021-02-22 15:01:57.494] $GNGGA,060156.90,3713.906452089,N,13701.460115687,E,4,15,0.77,90.765,M,37.565,M,79.9,2006*6D
[2021-02-22 15:01:57.619] $GNGGA,060157.00,3713.906453015,N,13701.460115644,E,4,15,0.77,90.766,M,37.565,M,80.0,2006*62
[2021-02-22 15:01:57.697] $GNGGA,060157.10,3713.906453026,N,13701.460115778,E,4,15,0.77,90.767,M,37.565,M,80.1,2006*6D
[2021-02-22 15:01:57.791] $GNGGA,060157.20,3713.906451820,N,13701.460115574,E,4,15,0.77,90.770,M,37.565,M,80.2,2006*69
[2021-02-22 15:01:57.900] $GNGGA,060157.30,3713.906450924,N,13701.460116249,E,4,15,0.77,90.767,M,37.565,M,80.3,2006*61
[2021-02-22 15:01:57.994] $GNGGA,060157.40,3713.906451099,N,13701.460116181,E,4,15,0.77,90.769,M,37.565,M,80.4,2006*66
[2021-02-22 15:01:58.119] $GNGGA,060157.50,3713.906451244,N,13701.460116341,E,4,15,0.77,90.767,M,37.565,M,80.5,2006*64
[2021-02-22 15:01:58.197] $GNGGA,060157.60,3713.906451940,N,13701.460116212,E,4,15,0.77,90.768,M,37.565,M,80.6,2006*63
[2021-02-22 15:01:58.291] $GNGGA,060157.70,3713.906451998,N,13701.460117000,E,4,15,0.77,90.766,M,37.565,M,80.7,2006*68
[2021-02-22 15:01:58.400] $GNGGA,060157.80,3713.906451062,N,13701.460117113,E,4,15,0.77,90.763,M,37.565,M,80.8,2006*62
[2021-02-22 15:01:58.494] $GNGGA,060157.90,3713.906450169,N,13701.460117153,E,4,15,0.77,90.765,M,37.565,M,80.9,2006*6B
[2021-02-22 15:01:58.619] $GNGGA,060158.00,3713.906450693,N,13701.460116932,E,4,15,0.77,90.765,M,37.565,M,81.0,2006*69
[2021-02-22 15:01:58.697] $GNGGA,060158.10,3713.906450689,N,13701.460116480,E,4,15,0.77,90.766,M,37.565,M,81.1,2006*65
[2021-02-22 15:01:58.791] $GNGGA,060158.20,3713.906450134,N,13701.460116221,E,4,15,0.77,90.766,M,37.565,M,81.2,2006*69
[2021-02-22 15:01:58.900] $GNGGA,060158.30,3713.906450079,N,13701.460115780,E,4,15,0.77,90.764,M,37.565,M,81.3,2006*6E
[2021-02-22 15:01:59.010] $GNGGA,060158.40,3713.906450008,N,13701.460115570,E,4,15,0.77,90.762,M,37.565,M,81.4,2006*63
[2021-02-22 15:01:59.088] $GNGGA,060158.50,3713.906449754,N,13701.460115579,E,4,15,0.77,90.764,M,37.565,M,81.5,2006*6A
[2021-02-22 15:01:59.197] $GNGGA,060158.60,3713.906450149,N,13701.460116189,E,4,15,0.77,90.762,M,37.565,M,81.6,2006*66
[2021-02-22 15:01:59.291] $GNGGA,060158.70,3713.906451227,N,13701.460116042,E,4,15,0.77,90.765,M,37.565,M,81.7,2006*6D
[2021-02-22 15:01:59.416] $GNGGA,060158.80,3713.906450594,N,13701.460116384,E,4,15,0.77,90.767,M,37.565,M,81.8,2006*68
[2021-02-22 15:01:59.494] $GNGGA,060158.90,3713.906451308,N,13701.460115918,E,4,15,0.77,90.766,M,37.565,M,81.9,2006*67
[2021-02-22 15:01:59.588] $GNGGA,060159.00,3713.906452070,N,13701.460115572,E,4,15,0.77,90.768,M,37.565,M,82.0,2006*64
[2021-02-22 15:01:59.697] $GNGGA,060159.10,3713.906452928,N,13701.460116360,E,4,15,0.77,90.769,M,37.565,M,82.1,2006*67
[2021-02-22 15:01:59.822] $GNGGA,060159.20,3713.906451713,N,13701.460115364,E,4,15,0.77,90.767,M,37.565,M,82.2,2006*6B
[2021-02-22 15:01:59.885] $GNGGA,060159.30,3713.906451989,N,13701.460115318,E,4,15,0.77,90.766,M,37.565,M,82.3,2006*6C
[2021-02-22 15:01:59.994] $GNGGA,060159.40,3713.906452000,N,13701.460115639,E,4,15,0.77,90.767,M,37.565,M,82.4,2006*60
[2021-02-22 15:02:00.088] $GNGGA,060159.50,3713.906453774,N,13701.460116771,E,4,15,0.77,90.766,M,37.565,M,82.5,2006*6A
[2021-02-22 15:02:00.213] $GNGGA,060159.60,3713.906455900,N,13701.460117703,E,4,15,0.77,90.766,M,37.565,M,82.6,2006*65
[2021-02-22 15:02:00.291] $GNGGA,060159.70,3713.906456087,N,13701.460118099,E,4,15,0.77,90.765,M,37.565,M,82.7,2006*68
[2021-02-22 15:02:00.385] $GNGGA,060159.80,3713.906454972,N,13701.460117853,E,4,15,0.77,90.767,M,37.565,M,82.8,2006*6A
[2021-02-22 15:02:00.494] $GNGGA,060159.90,3713.906452919,N,13701.460118606,E,4,15,0.77,90.766,M,37.565,M,82.9,2006*61
[2021-02-22 15:02:00.619] $GNGGA,060200.00,3713.906452542,N,13701.460117493,E,4,15,0.77,90.763,M,37.565,M,83.0,2006*69
[2021-02-22 15:02:00.697] $GNGGA,060200.10,3713.906453774,N,13701.460116403,E,4,15,0.77,90.764,M,37.565,M,83.1,2006*60
[2021-02-22 15:02:00.791] $GNGGA,060200.20,3713.906453660,N,13701.460117748,E,4,15,0.77,90.765,M,37.565,M,83.2,2006*68
[2021-02-22 15:02:00.900] $GNGGA,060200.30,3713.906453478,N,13701.460117773,E,4,15,0.77,90.767,M,37.565,M,83.3,2006*69
[2021-02-22 15:02:00.994] $GNGGA,060200.40,3713.906452095,N,13701.460117396,E,4,15,0.77,90.763,M,37.565,M,83.4,2006*64
[2021-02-22 15:02:01.119] $GNGGA,060200.50,3713.906453305,N,13701.460116479,E,4,15,0.77,90.764,M,37.565,M,83.5,2006*6F
[2021-02-22 15:02:01.197] $GNGGA,060200.60,3713.906454307,N,13701.460115442,E,4,15,0.77,90.767,M,37.565,M,83.6,2006*62
[2021-02-22 15:02:01.291] $GNGGA,060200.70,3713.906454727,N,13701.460116881,E,4,15,0.77,90.767,M,37.565,M,83.7,2006*64
[2021-02-22 15:02:01.400] $GNGGA,060200.80,3713.906455097,N,13701.460117523,E,4,15,0.77,90.766,M,37.565,M,83.8,2006*6C
[2021-02-22 15:02:01.494] $GNGGA,060200.90,3713.906454177,N,13701.460117483,E,4,15,0.77,90.767,M,37.565,M,83.9,2006*68
[2021-02-22 15:02:01.619] $GNGGA,060201.00,3713.906453285,N,13701.460116401,E,4,15,0.77,90.764,M,37.565,M,84.0,2006*6F
[2021-02-22 15:02:01.697] $GNGGA,060201.10,3713.906453416,N,13701.460114845,E,4,15,0.77,90.764,M,37.565,M,84.1,2006*6D
[2021-02-22 15:02:01.791] $GNGGA,060201.20,3713.906453436,N,13701.460115638,E,4,14,0.79,90.765,M,37.565,M,84.2,2006*64
[2021-02-22 15:02:01.900] $GNGGA,060201.30,3713.906455498,N,13701.460117114,E,4,15,0.77,90.766,M,37.565,M,84.3,2006*61
[2021-02-22 15:02:01.994] $GNGGA,060201.40,3713.906455902,N,13701.460118741,E,4,15,0.77,90.764,M,37.565,M,84.4,2006*64
[2021-02-22 15:02:02.119] $GNGGA,060201.50,3713.906455261,N,13701.460118985,E,4,15,0.77,90.765,M,37.565,M,84.5,2006*6D
[2021-02-22 15:02:02.197] $GNGGA,060201.60,3713.906453774,N,13701.460117913,E,4,15,0.77,90.762,M,37.565,M,84.6,2006*6D
[2021-02-22 15:02:02.291] $GNGGA,060201.70,3713.906453380,N,13701.460116146,E,4,15,0.77,90.765,M,37.565,M,84.7,2006*6C
[2021-02-22 15:02:02.400] $GNGGA,060201.80,3713.906454256,N,13701.460116698,E,4,15,0.77,90.764,M,37.565,M,84.8,2006*64
[2021-02-22 15:02:02.494] $GNGGA,060201.90,3713.906455413,N,13701.460117070,E,4,15,0.77,90.765,M,37.565,M,84.9,2006*62
[2021-02-22 15:02:02.619] $GNGGA,060202.00,3713.906455873,N,13701.460118651,E,4,15,0.77,90.761,M,37.565,M,85.0,2006*64
[2021-02-22 15:02:02.697] $GNGGA,060202.10,3713.906456272,N,13701.460118710,E,4,15,0.77,90.763,M,37.565,M,85.1,2006*6A
[2021-02-22 15:02:02.791] $GNGGA,060202.20,3713.906456275,N,13701.460118563,E,4,15,0.77,90.765,M,37.565,M,85.2,2006*6D
[2021-02-22 15:02:02.900] $GNGGA,060202.30,3713.906457367,N,13701.460117858,E,4,15,0.77,90.764,M,37.565,M,85.3,2006*65
[2021-02-22 15:02:02.994] $GNGGA,060202.40,3713.906456702,N,13701.460118383,E,4,15,0.77,90.763,M,37.565,M,85.4,2006*66
[2021-02-22 15:02:03.119] $GNGGA,060202.50,3713.906457568,N,13701.460117501,E,4,15,0.77,90.764,M,37.565,M,85.5,2006*6D
[2021-02-22 15:02:03.197] $GNGGA,060202.60,3713.906457424,N,13701.460117814,E,4,15,0.77,90.762,M,37.565,M,85.6,2006*6B
[2021-02-22 15:02:03.291] $GNGGA,060202.70,3713.906456314,N,13701.460118166,E,4,15,0.77,90.765,M,37.565,M,85.7,2006*6A
[2021-02-22 15:02:03.400] $GNGGA,060202.80,3713.906456476,N,13701.460118527,E,4,15,0.77,90.764,M,37.565,M,85.8,2006*69
[2021-02-22 15:02:03.509] $GNGGA,060202.90,3713.906456336,N,13701.460117367,E,4,15,0.77,90.766,M,37.565,M,85.9,2006*65
[2021-02-22 15:02:03.587] $GNGGA,060203.00,3713.906456449,N,13701.460117059,E,4,15,0.77,90.763,M,37.565,M,86.0,2006*63
[2021-02-22 15:02:03.697] $GNGGA,060203.10,3713.906456746,N,13701.460116835,E,4,15,0.77,90.764,M,37.565,M,86.1,2006*6B
[2021-02-22 15:02:03.791] $GNGGA,060203.20,3713.906457338,N,13701.460117483,E,4,15,0.77,90.765,M,37.565,M,86.2,2006*66
[2021-02-22 15:02:03.916] $GNGGA,060203.30,3713.906456172,N,13701.460117856,E,4,15,0.77,90.766,M,37.565,M,86.3,2006*6C
[2021-02-22 15:02:03.994] $GNGGA,060203.40,3713.906455478,N,13701.460117567,E,4,15,0.77,90.763,M,37.565,M,86.4,2006*6A
[2021-02-22 15:02:04.087] $GNGGA,060203.50,3713.906455005,N,13701.460117110,E,4,15,0.77,90.763,M,37.565,M,86.5,2006*60
[2021-02-22 15:02:04.197] $GNGGA,060203.60,3713.906456246,N,13701.460116525,E,4,15,0.77,90.764,M,37.565,M,86.6,2006*62
[2021-02-22 15:02:04.322] $GNGGA,060203.70,3713.906456855,N,13701.460116824,E,4,15,0.77,90.763,M,37.565,M,86.7,2006*61
[2021-02-22 15:02:04.384] $GNGGA,060203.80,3713.906456814,N,13701.460117163,E,4,15,0.77,90.762,M,37.565,M,86.8,2006*6E
[2021-02-22 15:02:04.494] $GNGGA,060203.90,3713.906456050,N,13701.460117652,E,4,15,0.77,90.765,M,37.565,M,86.9,2006*64
[2021-02-22 15:02:04.587] $GNGGA,060204.00,3713.906457078,N,13701.460117340,E,4,15,0.77,90.765,M,37.565,M,87.0,2006*6F
[2021-02-22 15:02:04.712] $GNGGA,060204.10,3713.906457561,N,13701.460117659,E,4,15,0.77,90.765,M,37.565,M,87.1,2006*6F
[2021-02-22 15:02:04.791] $GNGGA,060204.20,3713.906457737,N,13701.460117335,E,4,15,0.77,90.768,M,37.565,M,87.2,2006*6C
[2021-02-22 15:02:04.900] $GNGGA,060204.30,3713.906458325,N,13701.460117059,E,4,15,0.77,90.768,M,37.565,M,87.3,2006*6D
[2021-02-22 15:02:04.994] $GNGGA,060204.40,3713.906458075,N,13701.460117877,E,4,15,0.77,90.766,M,37.565,M,87.4,2006*61
[2021-02-22 15:02:05.119] $GNGGA,060204.50,3713.906457728,N,13701.460117567,E,4,15,0.77,90.765,M,37.565,M,87.5,2006*6E
[2021-02-22 15:02:05.197] $GNGGA,060204.60,3713.906458172,N,13701.460117356,E,4,15,0.77,90.764,M,37.565,M,87.6,2006*6D
