
[2021-02-22 15:01:27.934] $GPGGA,060113.40,,,,,0,00,0.0,,M,,M,0,0000*57
[2021-02-22 15:01:27.965] $GPGGA,060113.50,,,,,0,00,0.0,,M,,M,0,0000*56
[2021-02-22 15:01:27.965] $GPGGA,060113.60,,,,,0,00,0.0,,M,,M,0,0000*55
[2021-02-22 15:01:27.965] $GPGGA,060113.70,,,,,0,00,0.0,,M,,M,0,0000*54
[2021-02-22 15:01:27.965] $GPGGA,060113.80,,,,,0,00,0.0,,M,,M,0,0000*5B
[2021-02-22 15:01:27.965] $GPGGA,060113.90,,,,,0,00,0.0,,M,,M,0,0000*5A
[2021-02-22 15:01:27.965] $GPGGA,060114.00,,,,,0,00,0.0,,M,,M,0,0000*54
[2021-02-22 15:01:27.965] $GPGGA,060114.10,,,,,0,00,0.0,,M,,M,0,0000*55
[2021-02-22 15:01:27.965] $GPGGA,060114.20,,,,,0,00,0.0,,M,,M,0,0000*56
[2021-02-22 15:01:27.965] $GPGGA,060114.30,,,,,0,00,0.0,,M,,M,0,0000*57
[2021-02-22 15:01:27.965] $GPGGA,060114.40,,,,,0,00,0.0,,M,,M,0,0000*50
[2021-02-22 15:01:27.965] $GPGGA,060114.50,,,,,0,00,0.0,,M,,M,0,0000*51
[2021-02-22 15:01:27.965] $GPGGA,060114.60,,,,,0,00,0.0,,M,,M,0,0000*52
[2021-02-22 15:01:27.965] $GPGGA,060114.70,,,,,0,00,0.0,,M,,M,0,0000*53
[2021-02-22 15:01:27.965] $GPGGA,060114.80,,,,,0,00,0.0,,M,,M,0,0000*5C
[2021-02-22 15:01:27.965] $GPGGA,060114.90,,,,,0,00,0.0,,M,,M,0,0000*5D
[2021-02-22 15:01:27.965] $GPGGA,060115.00,,,,,0,00,0.0,,M,,M,0,0000*55
[2021-02-22 15:01:27.965] $GPGGA,060115.10,,,,,0,00,0.0,,M,,M,0,0000*54
[2021-02-22 15:01:27.965] $GPGGA,060115.20,,,,,0,00,0.0,,M,,M,0,0000*57
[2021-02-22 15:01:27.965] $GPGGA,060115.30,,,,,0,00,0.0,,M,,M,0,0000*56
[2021-02-22 15:01:27.965] $GPGGA,060115.40,,,,,0,00,0.0,,M,,M,0,0000*51
[2021-02-22 15:01:27.965] $GPGGA,060115.50,,,,,0,00,0.0,,M,,M,0,0000*50
[2021-02-22 15:01:27.965] $GPGGA,060115.60,,,,,0,00,0.0,,M,,M,0,0000*53
[2021-02-22 15:01:27.981] $GPGGA,060115.70,,,,,0,00,0.0,,M,,M,0,0000*52
[2021-02-22 15:01:27.981] $GPGGA,060115.80,,,,,0,00,0.0,,M,,M,0,0000*5D
[2021-02-22 15:01:27.981] $GPGGA,060115.90,,,,,0,00,0.0,,M,,M,0,0000*5C
[2021-02-22 15:01:27.981] $GPGGA,060116.00,,,,,0,00,0.0,,M,,M,0,0000*56
[2021-02-22 15:01:27.981] $GPGGA,060116.10,,,,,0,00,0.0,,M,,M,0,0000*57
[2021-02-22 15:01:27.981] $GPGGA,060116.20,,,,,0,00,0.0,,M,,M,0,0000*54
[2021-02-22 15:01:27.981] $GPGGA,060116.30,,,,,0,00,0.0,,M,,M,0,0000*55
[2021-02-22 15:01:27.981] $GPGGA,060116.40,,,,,0,00,0.0,,M,,M,0,0000*52
[2021-02-22 15:01:27.981] $GPGGA,060116.50,,,,,0,00,0.0,,M,,M,0,0000*53
[2021-02-22 15:01:27.981] $GPGGA,060116.60,,,,,0,00,0.0,,M,,M,0,0000*50
[2021-02-22 15:01:27.981] $GPGGA,060116.70,,,,,0,00,0.0,,M,,M,0,0000*51
[2021-02-22 15:01:27.981] $GPGGA,060116.80,,,,,0,00,0.0,,M,,M,0,0000*5E
[2021-02-22 15:01:27.981] $GPGGA,060116.90,,,,,0,00,0.0,,M,,M,0,0000*5F
[2021-02-22 15:01:27.981] $GPGGA,060117.00,,,,,0,00,0.0,,M,,M,0,0000*57
[2021-02-22 15:01:27.981] $GPGGA,060117.10,,,,,0,00,0.0,,M,,M,0,0000*56
[2021-02-22 15:01:27.981] $GPGGA,060117.20,,,,,0,00,0.0,,M,,M,0,0000*55
[2021-02-22 15:01:27.981] $GPGGA,060117.30,,,,,0,00,0.0,,M,,M,0,0000*54
[2021-02-22 15:01:27.981] $GPGGA,060117.40,,,,,0,00,0.0,,M,,M,0,0000*53
[2021-02-22 15:01:27.981] $GPGGA,060117.50,,,,,0,00,0.0,,M,,M,0,0000*52
[2021-02-22 15:01:27.981] $GPGGA,060117.60,,,,,0,00,0.0,,M,,M,0,0000*51
[2021-02-22 15:01:27.981] $GPGGA,060117.70,,,,,0,00,0.0,,M,,M,0,0000*50
[2021-02-22 15:01:27.981] $GPGGA,060117.80,,,,,0,00,0.0,,M,,M,0,0000*5F
[2021-02-22 15:01:27.996] $GPGGA,060117.90,,,,,0,00,0.0,,M,,M,0,0000*5E
[2021-02-22 15:01:27.996] $GPGGA,060118.00,,,,,0,00,0.0,,M,,M,0,0000*58
[2021-02-22 15:01:27.996] $GPGGA,060118.10,,,,,0,00,0.0,,M,,M,0,0000*59
[2021-02-22 15:01:27.996] $GPGGA,060118.20,,,,,0,00,0.0,,M,,M,0,0000*5A
[2021-02-22 15:01:27.996] $GPGGA,060118.30,,,,,0,00,0.0,,M,,M,0,0000*5B
[2021-02-22 15:01:27.996] $GPGGA,060118.40,,,,,0,00,0.0,,M,,M,0,0000*5C
[2021-02-22 15:01:27.996] $GPGGA,060118.50,,,,,0,00,0.0,,M,,M,0,0000*5D
[2021-02-22 15:01:27.996] $GPGGA,060118.60,,,,,0,00,0.0,,M,,M,0,0000*5E
[2021-02-22 15:01:27.996] $GPGGA,060118.70,,,,,0,00,0.0,,M,,M,0,0000*5F
[2021-02-22 15:01:27.996] $GPGGA,060118.80,,,,,0,00,0.0,,M,,M,0,0000*50
[2021-02-22 15:01:27.996] $GPGGA,060118.90,,,,,0,00,0.0,,M,,M,0,0000*51
[2021-02-22 15:01:27.996] $GPGGA,060119.00,,,,,0,00,0.0,,M,,M,0,0000*59
[2021-02-22 15:01:27.996] $GPGGA,060119.10,,,,,0,00,0.0,,M,,M,0,0000*58
[2021-02-22 15:01:27.996] $GPGGA,060119.20,,,,,0,00,0.0,,M,,M,0,0000*5B
[2021-02-22 15:01:27.996] $GPGGA,060119.30,,,,,0,00,0.0,,M,,M,0,0000*5A
[2021-02-22 15:01:27.996] $GPGGA,060119.40,,,,,0,00,0.0,,M,,M,0,0000*5D
[2021-02-22 15:01:27.996] $GPGGA,060119.50,,,,,0,00,0.0,,M,,M,0,0000*5C
[2021-02-22 15:01:27.996] $GPGGA,060119.60,,,,,0,00,0.0,,M,,M,0,0000*5F
[2021-02-22 15:01:27.996] $GPGGA,060119.70,,,,,0,00,0.0,,M,,M,0,0000*5E
[2021-02-22 15:01:27.996] $GPGGA,060119.80,,,,,0,00,0.0,,M,,M,0,0000*51
[2021-02-22 15:01:27.996] $GPGGA,060119.90,,,,,0,00,0.0,,M,,M,0,0000*50
[2021-02-22 15:01:28.012] $GPGGA,060120.00,,,,,0,00,0.0,,M,,M,0,0000*53
[2021-02-22 15:01:28.012] $GPGGA,060120.10,,,,,0,00,0.0,,M,,M,0,0000*52
[2021-02-22 15:01:28.012] $GPGGA,060120.20,,,,,0,00,0.0,,M,,M,0,0000*51
[2021-02-22 15:01:28.012] $GPGGA,060120.30,,,,,0,00,0.0,,M,,M,0,0000*50
[2021-02-22 15:01:28.012] $GPGGA,060120.40,,,,,0,00,0.0,,M,,M,0,0000*57
[2021-02-22 15:01:28.012] $GPGGA,060120.50,,,,,0,00,0.0,,M,,M,0,0000*56
[2021-02-22 15:01:28.012] $GPGGA,060120.60,,,,,0,00,0.0,,M,,M,0,0000*55
[2021-02-22 15:01:28.012] $GPGGA,060120.70,,,,,0,00,0.0,,M,,M,0,0000*54
[2021-02-22 15:01:28.012] $GPGGA,060120.80,,,,,0,00,0.0,,M,,M,0,0000*5B
[2021-02-22 15:01:28.012] $GPGGA,060120.90,,,,,0,00,0.0,,M,,M,0,0000*5A
[2021-02-22 15:01:28.012] $GPGGA,060121.00,,,,,0,00,0.0,,M,,M,0,0000*52
[2021-02-22 15:01:28.012] $GPGGA,060121.10,,,,,0,00,0.0,,M,,M,0,0000*53
[2021-02-22 15:01:28.012] $GPGGA,060121.20,,,,,0,00,0.0,,M,,M,0,0000*50
[2021-02-22 15:01:28.012] $GPGGA,060121.30,,,,,0,00,0.0,,M,,M,0,0000*51
[2021-02-22 15:01:28.012] $GPGGA,060121.40,,,,,0,00,0.0,,M,,M,0,0000*56
[2021-02-22 15:01:28.012] $GPGGA,060121.50,,,,,0,00,0.0,,M,,M,0,0000*57
[2021-02-22 15:01:28.012] $GPGGA,060121.60,,,,,0,00,0.0,,M,,M,0,0000*54
[2021-02-22 15:01:28.012] $GPGGA,060121.70,,,,,0,00,0.0,,M,,M,0,0000*55
[2021-02-22 15:01:28.012] $GPGGA,060121.80,,,,,0,00,0.0,,M,,M,0,0000*5A
[2021-02-22 15:01:28.012] $GPGGA,060121.90,,,,,0,00,0.0,,M,,M,0,0000*5B
[2021-02-22 15:01:28.012] $GPGGA,060122.00,,,,,0,00,0.0,,M,,M,0,0000*51
[2021-02-22 15:01:28.012] $GPGGA,060122.10,,,,,0,00,0.0,,M,,M,0,0000*50
[2021-02-22 15:01:28.027] $GPGGA,060122.20,,,,,0,00,0.0,,M,,M,0,0000*53
[2021-02-22 15:01:28.027] $GPGGA,060122.30,,,,,0,00,0.0,,M,,M,0,0000*52
[2021-02-22 15:01:28.027] $GPGGA,060122.40,,,,,0,00,0.0,,M,,M,0,0000*55
[2021-02-22 15:01:28.027] $GPGGA,060122.50,,,,,0,00,0.0,,M,,M,0,0000*54
[2021-02-22 15:01:28.027] $GPGGA,060122.60,,,,,0,00,0.0,,M,,M,0,0000*57
[2021-02-22 15:01:28.027] $GPGGA,060122.70,,,,,0,00,0.0,,M,,M,0,0000*56
[2021-02-22 15:01:28.027] $GPGGA,060122.80,,,,,0,00,0.0,,M,,M,0,0000*59
[2021-02-22 15:01:28.027] $GPGGA,060122.90,,,,,0,00,0.0,,M,,M,0,0000*58
[2021-02-22 15:01:28.027] $GPGGA,060123.00,,,,,0,00,0.0,,M,,M,0,0000*50
[2021-02-22 15:01:28.027] $GPGGA,060123.10,,,,,0,00,0.0,,M,,M,0,0000*51
[2021-02-22 15:01:28.027] $GPGGA,060123.20,,,,,0,00,0.0,,M,,M,0,0000*52
[2021-02-22 15:01:28.027] $GPGGA,060123.30,,,,,0,00,0.0,,M,,M,0,0000*53
[2021-02-22 15:01:28.027] $GPGGA,060123.40,,,,,0,00,0.0,,M,,M,0,0000*54
[2021-02-22 15:01:28.027] $GPGGA,060123.50,,,,,0,00,0.0,,M,,M,0,0000*55
[2021-02-22 15:01:28.027] $GPGGA,060123.60,,,,,0,00,0.0,,M,,M,0,0000*56
[2021-02-22 15:01:28.027] $GPGGA,060123.70,,,,,0,00,0.0,,M,,M,0,0000*57
[2021-02-22 15:01:28.027] $GPGGA,060123.80,,,,,0,00,0.0,,M,,M,0,0000*58
[2021-02-22 15:01:28.027] $GPGGA,060123.90,,,,,0,00,0.0,,M,,M,0,0000*59
[2021-02-22 15:01:28.027] $GPGGA,060124.00,,,,,0,00,0.0,,M,,M,0,0000*57
[2021-02-22 15:01:28.027] $GPGGA,060124.10,,,,,0,00,0.0,,M,,M,0,0000*56
[2021-02-22 15:01:28.027] $GPGGA,060124.20,,,,,0,00,0.0,,M,,M,0,0000*55
[2021-02-22 15:01:28.043] $GPGGA,060124.30,,,,,0,00,0.0,,M,,M,0,0000*54
[2021-02-22 15:01:28.043] $GPGGA,060124.40,,,,,0,00,0.0,,M,,M,0,0000*53
[2021-02-22 15:01:28.043] $GPGGA,060124.50,,,,,0,00,0.0,,M,,M,0,0000*52
[2021-02-22 15:01:28.043] $GPGGA,060124.60,,,,,0,00,0.0,,M,,M,0,0000*51
[2021-02-22 15:01:28.043] $GPGGA,060124.70,,,,,0,00,0.0,,M,,M,0,0000*50
[2021-02-22 15:01:28.043] $GPGGA,060124.80,,,,,0,00,0.0,,M,,M,0,0000*5F
[2021-02-22 15:01:28.043] $GPGGA,060124.90,,,,,0,00,0.0,,M,,M,0,0000*5E
[2021-02-22 15:01:28.043] $GPGGA,060125.00,,,,,0,00,0.0,,M,,M,0,0000*56
[2021-02-22 15:01:28.043] $GPGGA,060125.10,,,,,0,00,0.0,,M,,M,0,0000*57
[2021-02-22 15:01:28.043] $GPGGA,060125.20,,,,,0,00,0.0,,M,,M,0,0000*54
[2021-02-22 15:01:28.043] $GPGGA,060125.30,,,,,0,00,0.0,,M,,M,0,0000*55
[2021-02-22 15:01:28.043] $GPGGA,060125.40,,,,,0,00,0.0,,M,,M,0,0000*52
[2021-02-22 15:01:28.043] $GPGGA,060125.50,,,,,0,00,0.0,,M,,M,0,0000*53
[2021-02-22 15:01:28.043] $GPGGA,060125.60,,,,,0,00,0.0,,M,,M,0,0000*50
[2021-02-22 15:01:28.043] $GPGGA,060125.70,,,,,0,00,0.0,,M,,M,0,0000*51
[2021-02-22 15:01:28.043] $GPGGA,060125.80,,,,,0,00,0.0,,M,,M,0,0000*5E
[2021-02-22 15:01:28.043] $GPGGA,060125.90,,,,,0,00,0.0,,M,,M,0,0000*5F
[2021-02-22 15:01:28.043] $GPGGA,060126.00,,,,,0,00,0.0,,M,,M,0,0000*55
[2021-02-22 15:01:28.043] $GPGGA,060126.10,,,,,0,00,0.0,,M,,M,0,0000*54
[2021-02-22 15:01:28.043] $GPGGA,060126.20,,,,,0,00,0.0,,M,,M,0,0000*57
[2021-02-22 15:01:28.043] $GPGGA,060126.30,,,,,0,00,0.0,,M,,M,0,0000*56
[2021-02-22 15:01:28.043] $GPGGA,060126.40,,,,,0,00,0.0,,M,,M,0,0000*51
[2021-02-22 15:01:28.043] $GPGGA,060126.50,,,,,0,00,0.0,,M,,M,0,0000*50
[2021-02-22 15:01:28.043] $GPGGA,060126.60,,,,,0,00,0.0,,M,,M,0,0000*53
[2021-02-22 15:01:28.043] $GPGGA,060126.70,,,,,0,00,0.0,,M,,M,0,0000*52
[2021-02-22 15:01:28.043] $GPGGA,060126.80,,,,,0,00,0.0,,M,,M,0,0000*5D
[2021-02-22 15:01:28.043] $GPGGA,060126.90,,,,,0,00,0.0,,M,,M,0,0000*5C
[2021-02-22 15:01:28.043] $GPGGA,060127.00,,,,,0,00,0.0,,M,,M,0,0000*54
[2021-02-22 15:01:28.043] $GPGGA,060127.10,,,,,0,00,0.0,,M,,M,0,0000*55
[2021-02-22 15:01:28.043] $GPGGA,060127.20,,,,,0,00,0.0,,M,,M,0,0000*56
[2021-02-22 15:01:28.043] $GPGGA,060127.30,,,,,0,00,0.0,,M,,M,0,0000*57
[2021-02-22 15:01:28.043] $GPGGA,060127.40,,,,,0,00,0.0,,M,,M,0,0000*50
[2021-02-22 15:01:28.043] $GPGGA,060127.50,,,,,0,00,0.0,,M,,M,0,0000*51
[2021-02-22 15:01:28.043] $GPGGA,060127.60,,,,,0,00,0.0,,M,,M,0,0000*52
[2021-02-22 15:01:28.090] $GPGGA,060127.70,,,,,0,00,0.0,,M,,M,0,0000*53
[2021-02-22 15:01:28.184] $GPGGA,060127.80,,,,,0,00,0.0,,M,,M,0,0000*5C
[2021-02-22 15:01:28.309] $GPGGA,060127.90,,,,,0,00,0.0,,M,,M,0,0000*5D
[2021-02-22 15:01:28.402] $GPGGA,060128.00,,,,,0,00,0.0,,M,,M,0,0000*5B
[2021-02-22 15:01:28.496] $GPGGA,060128.10,,,,,0,00,0.0,,M,,M,0,0000*5A
[2021-02-22 15:01:28.590] $GPGGA,060128.20,,,,,0,00,0.0,,M,,M,0,0000*59
[2021-02-22 15:01:28.684] $GPGGA,060128.30,,,,,0,00,0.0,,M,,M,0,0000*58
[2021-02-22 15:01:28.793] $GPGGA,060128.40,,,,,0,00,0.0,,M,,M,0,0000*5F
[2021-02-22 15:01:28.902] $GPGGA,060128.50,,,,,0,00,0.0,,M,,M,0,0000*5E
[2021-02-22 15:01:28.996] $GPGGA,060128.60,,,,,0,00,0.0,,M,,M,0,0000*5D
[2021-02-22 15:01:29.090] $GPGGA,060128.70,,,,,0,00,0.0,,M,,M,0,0000*5C
[2021-02-22 15:01:29.199] $GPGGA,060128.80,,,,,0,00,0.0,,M,,M,0,0000*53
[2021-02-22 15:01:29.293] $GPGGA,060128.90,,,,,0,00,0.0,,M,,M,0,0000*52
[2021-02-22 15:01:29.387] $GPGGA,060129.00,,,,,0,00,0.0,,M,,M,0,0000*5A
[2021-02-22 15:01:29.480] $GPGGA,060129.10,,,,,0,00,0.0,,M,,M,0,0000*5B
[2021-02-22 15:01:29.605] $GPGGA,060129.20,,,,,0,00,0.0,,M,,M,0,0000*58
[2021-02-22 15:01:29.699] $GPGGA,060129.30,,,,,0,00,0.0,,M,,M,0,0000*59
[2021-02-22 15:01:29.793] $GPGGA,060129.40,,,,,0,00,0.0,,M,,M,0,0000*5E
[2021-02-22 15:01:29.887] $GPGGA,060129.50,,,,,0,00,0.0,,M,,M,0,0000*5F
[2021-02-22 15:01:29.996] $GPGGA,060129.60,,,,,0,00,0.0,,M,,M,0,0000*5C
[2021-02-22 15:01:30.090] $GPGGA,060129.70,,,,,0,00,0.0,,M,,M,0,0000*5D
[2021-02-22 15:01:30.184] $GPGGA,060129.80,,,,,0,00,0.0,,M,,M,0,0000*52
[2021-02-22 15:01:30.309] $GPGGA,060129.90,,,,,0,00,0.0,,M,,M,0,0000*53
[2021-02-22 15:01:30.402] $GPGGA,060130.00,,,,,0,00,0.0,,M,,M,0,0000*52
[2021-02-22 15:01:30.496] $GPGGA,060130.10,,,,,0,00,0.0,,M,,M,0,0000*53
[2021-02-22 15:01:30.590] $GPGGA,060130.20,,,,,0,00,0.0,,M,,M,0,0000*50
[2021-02-22 15:01:30.699] $GPGGA,060130.30,,,,,0,00,0.0,,M,,M,0,0000*51
[2021-02-22 15:01:30.793] $GPGGA,060130.40,,,,,0,00,0.0,,M,,M,0,0000*56
[2021-02-22 15:01:30.902] $GPGGA,060130.50,,,,,0,00,0.0,,M,,M,0,0000*57
[2021-02-22 15:01:30.996] $GPGGA,060130.60,,,,,0,00,0.0,,M,,M,0,0000*54
[2021-02-22 15:01:31.105] $GPGGA,060130.70,,,,,0,00,0.0,,M,,M,0,0000*55
[2021-02-22 15:01:31.199] $GPGGA,060130.80,,,,,0,00,0.0,,M,,M,0,0000*5A
[2021-02-22 15:01:31.293] $GPGGA,060130.90,,,,,0,00,0.0,,M,,M,0,0000*5B
[2021-02-22 15:01:31.387] $GPGGA,060131.00,,,,,0,00,0.0,,M,,M,0,0000*53
[2021-02-22 15:01:31.496] $GPGGA,060131.10,,,,,0,00,0.0,,M,,M,0,0000*52
[2021-02-22 15:01:31.605] $GPGGA,060131.20,,,,,0,00,0.0,,M,,M,0,0000*51
[2021-02-22 15:01:31.699] $GPGGA,060131.30,,,,,0,00,0.0,,M,,M,0,0000*50
[2021-02-22 15:01:31.808] $GPGGA,060131.40,,,,,0,00,0.0,,M,,M,0,0000*57
[2021-02-22 15:01:31.902] $GPGGA,060131.50,,,,,0,00,0.0,,M,,M,0,0000*56
[2021-02-22 15:01:31.996] $GPGGA,060131.60,,,,,0,00,0.0,,M,,M,0,0000*55
[2021-02-22 15:01:32.090] $GPGGA,060131.70,,,,,0,00,0.0,,M,,M,0,0000*54
[2021-02-22 15:01:32.183] $GPGGA,060131.80,,,,,0,00,0.0,,M,,M,0,0000*5B
[2021-02-22 15:01:32.308] $GPGGA,060131.90,,,,,0,00,0.0,,M,,M,0,0000*5A
[2021-02-22 15:01:32.402] $GPGGA,060132.00,,,,,0,00,0.0,,M,,M,0,0000*50
[2021-02-22 15:01:32.496] $GPGGA,060132.10,,,,,0,00,0.0,,M,,M,0,0000*51
[2021-02-22 15:01:32.590] $GPGGA,060132.20,,,,,0,00,0.0,,M,,M,0,0000*52
[2021-02-22 15:01:32.683] $GPGGA,060132.30,,,,,0,00,0.0,,M,,M,0,0000*53
[2021-02-22 15:01:32.793] $GPGGA,060132.40,,,,,0,00,0.0,,M,,M,0,0000*54
[2021-02-22 15:01:32.886] $GPGGA,060132.50,,,,,0,00,0.0,,M,,M,0,0000*55
[2021-02-22 15:01:32.996] $GPGGA,060132.60,,,,,0,00,0.0,,M,,M,0,0000*56
[2021-02-22 15:01:33.090] $GPGGA,060132.70,,,,,0,00,0.0,,M,,M,0,0000*57
[2021-02-22 15:01:33.199] $GPGGA,060132.80,,,,,0,00,0.0,,M,,M,0,0000*58
[2021-02-22 15:01:33.293] $GPGGA,060132.90,,,,,0,00,0.0,,M,,M,0,0000*59
[2021-02-22 15:01:33.386] $GPGGA,060133.00,,,,,0,00,0.0,,M,,M,0,0000*51
[2021-02-22 15:01:33.480] $GPGGA,060133.10,,,,,0,00,0.0,,M,,M,0,0000*50
[2021-02-22 15:01:33.605] $GPGGA,060133.20,,,,,0,00,0.0,,M,,M,0,0000*53
[2021-02-22 15:01:33.699] $GPGGA,060133.30,,,,,0,00,0.0,,M,,M,0,0000*52
[2021-02-22 15:01:33.793] $GPGGA,060133.40,,,,,0,00,0.0,,M,,M,0,0000*55
[2021-02-22 15:01:33.902] $GPGGA,060133.50,,,,,0,00,0.0,,M,,M,0,0000*54
[2021-02-22 15:01:33.996] $GPGGA,060133.60,,,,,0,00,0.0,,M,,M,0,0000*57
[2021-02-22 15:01:34.090] $GPGGA,060133.70,,,,,0,00,0.0,,M,,M,0,0000*56
[2021-02-22 15:01:34.183] $GPGGA,060133.80,,,,,0,00,0.0,,M,,M,0,0000*59
[2021-02-22 15:01:34.308] $GPGGA,060133.90,,,,,0,00,0.0,,M,,M,0,0000*58
[2021-02-22 15:01:34.402] $GPGGA,060134.00,,,,,0,00,0.0,,M,,M,0,0000*56
[2021-02-22 15:01:34.496] $GPGGA,060134.10,,,,,0,00,0.0,,M,,M,0,0000*57
[2021-02-22 15:01:34.589] $GPGGA,060134.20,,,,,0,00,0.0,,M,,M,0,0000*54
[2021-02-22 15:01:34.699] $GPGGA,060134.30,,,,,0,00,0.0,,M,,M,0,0000*55
[2021-02-22 15:01:34.793] $GPGGA,060134.40,,,,,0,00,0.0,,M,,M,0,0000*52
[2021-02-22 15:01:34.886] $GPGGA,060134.50,,,,,0,00,0.0,,M,,M,0,0000*53
[2021-02-22 15:01:34.996] $GPGGA,060134.60,,,,,0,00,0.0,,M,,M,0,0000*50
[2021-02-22 15:01:35.105] $GPGGA,060134.70,,,,,0,00,0.0,,M,,M,0,0000*51
[2021-02-22 15:01:35.199] $GPGGA,060134.80,,,,,0,00,0.0,,M,,M,0,0000*5E
[2021-02-22 15:01:35.293] $GPGGA,060134.90,,,,,0,00,0.0,,M,,M,0,0000*5F
[2021-02-22 15:01:35.402] $GPGGA,060135.00,,,,,0,00,0.0,,M,,M,0,0000*57
[2021-02-22 15:01:35.496] $GPGGA,060135.10,,,,,0,00,0.0,,M,,M,0,0000*56
[2021-02-22 15:01:35.605] $GPGGA,060135.20,,,,,0,00,0.0,,M,,M,0,0000*55
[2021-02-22 15:01:35.699] $GPGGA,060135.30,,,,,0,00,0.0,,M,,M,0,0000*54
[2021-02-22 15:01:35.808] $GPGGA,060135.40,,,,,0,00,0.0,,M,,M,0,0000*53
[2021-02-22 15:01:35.902] $GPGGA,060135.50,,,,,0,00,0.0,,M,,M,0,0000*52
[2021-02-22 15:01:35.996] $GPGGA,060135.60,,,,,0,00,0.0,,M,,M,0,0000*51
[2021-02-22 15:01:36.089] $GPGGA,060135.70,,,,,0,00,0.0,,M,,M,0,0000*50
[2021-02-22 15:01:36.183] $GPGGA,060135.80,,,,,0,00,0.0,,M,,M,0,0000*5F
[2021-02-22 15:01:36.308] $GPGGA,060135.90,,,,,0,00,0.0,,M,,M,0,0000*5E
[2021-02-22 15:01:36.402] $GPGGA,060136.00,,,,,0,00,0.0,,M,,M,0,0000*54
[2021-02-22 15:01:36.496] $GPGGA,060136.10,,,,,0,00,0.0,,M,,M,0,0000*55
[2021-02-22 15:01:36.589] $GPGGA,060136.20,,,,,0,00,0.0,,M,,M,0,0000*56
[2021-02-22 15:01:36.683] $GPGGA,060136.30,,,,,0,00,0.0,,M,,M,0,0000*57
[2021-02-22 15:01:36.792] $GPGGA,060136.40,,,,,0,00,0.0,,M,,M,0,0000*50
[2021-02-22 15:01:36.886] $GPGGA,060136.50,,,,,0,00,0.0,,M,,M,0,0000*51
[2021-02-22 15:01:36.996] $GPGGA,060136.60,,,,,0,00,0.0,,M,,M,0,0000*52
[2021-02-22 15:01:37.089] $GPGGA,060136.70,,,,,0,00,0.0,,M,,M,0,0000*53
[2021-02-22 15:01:37.199] $GPGGA,060136.80,,,,,0,00,0.0,,M,,M,0,0000*5C
[2021-02-22 15:01:37.292] $GPGGA,060136.90,,,,,0,00,0.0,,M,,M,0,0000*5D
[2021-02-22 15:01:37.386] $GPGGA,060137.00,,,,,0,00,0.0,,M,,M,0,0000*55
[2021-02-22 15:01:37.496] $GPGGA,060137.10,,,,,0,00,0.0,,M,,M,0,0000*54
[2021-02-22 15:01:37.605] $GPGGA,060137.20,,,,,0,00,0.0,,M,,M,0,0000*57
[2021-02-22 15:01:37.699] $GPGGA,060137.30,,,,,0,00,0.0,,M,,M,0,0000*56
[2021-02-22 15:01:37.792] $GPGGA,060137.40,,,,,0,00,0.0,,M,,M,0,0000*51
[2021-02-22 15:01:37.902] $GPGGA,060137.50,,,,,0,00,0.0,,M,,M,0,0000*50
[2021-02-22 15:01:37.995] $GPGGA,060137.60,,,,,0,00,0.0,,M,,M,0,0000*53
[2021-02-22 15:01:38.089] $GPGGA,060137.70,,,,,0,00,0.0,,M,,M,0,0000*52
[2021-02-22 15:01:38.183] $GPGGA,060137.80,,,,,0,00,0.0,,M,,M,0,0000*5D
[2021-02-22 15:01:38.308] $GPGGA,060137.90,,,,,0,00,0.0,,M,,M,0,0000*5C
[2021-02-22 15:01:38.402] $GPGGA,060138.00,,,,,0,00,0.0,,M,,M,0,0000*5A
[2021-02-22 15:01:38.495] $GPGGA,060138.10,,,,,0,00,0.0,,M,,M,0,0000*5B
[2021-02-22 15:01:38.589] $GPGGA,060138.20,,,,,0,00,0.0,,M,,M,0,0000*58
[2021-02-22 15:01:38.699] $GPGGA,060138.30,,,,,0,00,0.0,,M,,M,0,0000*59
[2021-02-22 15:01:38.792] $GPGGA,060138.40,,,,,0,00,0.0,,M,,M,0,0000*5E
[2021-02-22 15:01:38.886] $GPGGA,060138.50,,,,,0,00,0.0,,M,,M,0,0000*5F
[2021-02-22 15:01:39.011] $GPGGA,060138.60,,,,,0,00,0.0,,M,,M,0,0000*5C
[2021-02-22 15:01:39.105] $GPGGA,060138.70,,,,,0,00,0.0,,M,,M,0,0000*5D
[2021-02-22 15:01:39.199] $GPGGA,060138.80,,,,,0,00,0.0,,M,,M,0,0000*52
[2021-02-22 15:01:39.292] $GPGGA,060138.90,,,,,0,00,0.0,,M,,M,0,0000*53
[2021-02-22 15:01:39.402] $GPGGA,060139.00,,,,,0,00,0.0,,M,,M,0,0000*5B
[2021-02-22 15:01:39.495] $GPGGA,060139.10,,,,,0,00,0.0,,M,,M,0,0000*5A
[2021-02-22 15:01:39.605] $GPGGA,060139.20,,,,,0,00,0.0,,M,,M,0,0000*59
[2021-02-22 15:01:39.698] $GPGGA,060139.30,,,,,0,00,0.0,,M,,M,0,0000*58
[2021-02-22 15:01:39.808] $GPGGA,060139.40,,,,,0,00,0.0,,M,,M,0,0000*5F
[2021-02-22 15:01:39.902] $GPGGA,060139.50,,,,,0,00,0.0,,M,,M,0,0000*5E
[2021-02-22 15:01:39.995] $GPGGA,060139.60,,,,,0,00,0.0,,M,,M,0,0000*5D
[2021-02-22 15:01:40.089] $GPGGA,060139.70,,,,,0,00,0.0,,M,,M,0,0000*5C
[2021-02-22 15:01:40.214] $GPGGA,060139.80,,,,,0,00,0.0,,M,,M,0,0000*53
[2021-02-22 15:01:40.308] $GPGGA,060139.90,,,,,0,00,0.0,,M,,M,0,0000*52
[2021-02-22 15:01:40.402] $GPGGA,060140.00,,,,,0,00,0.0,,M,,M,0,0000*55
[2021-02-22 15:01:40.495] $GPGGA,060140.10,,,,,0,00,0.0,,M,,M,0,0000*54
[2021-02-22 15:01:40.589] $GPGGA,060140.20,,,,,0,00,0.0,,M,,M,0,0000*57
[2021-02-22 15:01:40.698] $GPGGA,060140.30,,,,,0,00,0.0,,M,,M,0,0000*56
[2021-02-22 15:01:40.792] $GPGGA,060140.40,,,,,0,00,0.0,,M,,M,0,0000*51
[2021-02-22 15:01:40.886] $GPGGA,060140.50,,,,,0,00,0.0,,M,,M,0,0000*50
[2021-02-22 15:01:40.995] $GPGGA,060140.60,,,,,0,00,0.0,,M,,M,0,0000*53
[2021-02-22 15:01:41.105] $GPGGA,060140.70,,,,,0,00,0.0,,M,,M,0,0000*52
[2021-02-22 15:01:41.198] $GPGGA,060140.80,,,,,0,00,0.0,,M,,M,0,0000*5D
[2021-02-22 15:01:41.292] $GPGGA,060140.90,,,,,0,00,0.0,,M,,M,0,0000*5C
[2021-02-22 15:01:41.386] $GPGGA,060141.00,,,,,0,00,0.0,,M,,M,0,0000*54
[2021-02-22 15:01:41.495] $GPGGA,060141.10,,,,,0,00,0.0,,M,,M,0,0000*55
[2021-02-22 15:01:41.589] $GPGGA,060141.20,,,,,0,00,0.0,,M,,M,0,0000*56
[2021-02-22 15:01:41.698] $GPGGA,060141.30,,,,,0,00,0.0,,M,,M,0,0000*57
[2021-02-22 15:01:41.792] $GPGGA,060141.40,,,,,0,00,0.0,,M,,M,0,0000*50
[2021-02-22 15:01:41.901] $GPGGA,060141.50,,,,,0,00,0.0,,M,,M,0,0000*51
[2021-02-22 15:01:41.995] $GPGGA,060141.60,,,,,0,00,0.0,,M,,M,0,0000*52
[2021-02-22 15:01:42.089] $GPGGA,060141.70,,,,,0,00,0.0,,M,,M,0,0000*53
[2021-02-22 15:01:42.183] $GPGGA,060141.80,,,,,0,00,0.0,,M,,M,0,0000*5C
[2021-02-22 15:01:42.308] $GPGGA,060141.90,,,,,0,00,0.0,,M,,M,0,0000*5D
[2021-02-22 15:01:42.401] $GPGGA,060142.00,,,,,0,00,0.0,,M,,M,0,0000*57
[2021-02-22 15:01:42.495] $GPGGA,060142.10,,,,,0,00,0.0,,M,,M,0,0000*56
[2021-02-22 15:01:42.605] $GPGGA,060142.20,,,,,0,00,0.0,,M,,M,0,0000*55
[2021-02-22 15:01:42.698] $GPGGA,060142.30,,,,,0,00,0.0,,M,,M,0,0000*54
[2021-02-22 15:01:42.792] $GPGGA,060142.40,,,,,0,00,0.0,,M,,M,0,0000*53
[2021-02-22 15:01:42.886] $GPGGA,060142.50,,,,,0,00,0.0,,M,,M,0,0000*52
[2021-02-22 15:01:43.011] $GPGGA,060142.60,,,,,0,00,0.0,,M,,M,0,0000*51
[2021-02-22 15:01:43.104] $GPGGA,060142.70,,,,,0,00,0.0,,M,,M,0,0000*50
[2021-02-22 15:01:43.198] $GPGGA,060142.80,,,,,0,00,0.0,,M,,M,0,0000*5F
[2021-02-22 15:01:43.292] $GPGGA,060142.90,,,,,0,00,0.0,,M,,M,0,0000*5E
[2021-02-22 15:01:43.401] $GPGGA,060143.00,,,,,0,00,0.0,,M,,M,0,0000*56
[2021-02-22 15:01:43.495] $GPGGA,060143.10,,,,,0,00,0.0,,M,,M,0,0000*57
[2021-02-22 15:01:43.604] $GPGGA,060143.20,,,,,0,00,0.0,,M,,M,0,0000*54
[2021-02-22 15:01:43.698] $GPGGA,060143.30,,,,,0,00,0.0,,M,,M,0,0000*55
[2021-02-22 15:01:43.808] $GPGGA,060143.40,,,,,0,00,0.0,,M,,M,0,0000*52
[2021-02-22 15:01:43.901] $GPGGA,060143.50,,,,,0,00,0.0,,M,,M,0,0000*53
[2021-02-22 15:01:43.995] $GPGGA,060143.60,,,,,0,00,0.0,,M,,M,0,0000*50
[2021-02-22 15:01:44.089] $GPGGA,060143.70,,,,,0,00,0.0,,M,,M,0,0000*51
[2021-02-22 15:01:44.214] $GPGGA,060143.80,,,,,0,00,0.0,,M,,M,0,0000*5E
[2021-02-22 15:01:44.308] $GPGGA,060143.90,,,,,0,00,0.0,,M,,M,0,0000*5F
[2021-02-22 15:01:44.401] $GPGGA,060144.00,,,,,0,00,0.0,,M,,M,0,0000*51
[2021-02-22 15:01:44.495] $GPGGA,060144.10,,,,,0,00,0.0,,M,,M,0,0000*50
[2021-02-22 15:01:44.589] $GPGGA,060144.20,,,,,0,00,0.0,,M,,M,0,0000*53
[2021-02-22 15:01:44.698] $GPGGA,060144.30,,,,,0,00,0.0,,M,,M,0,0000*52
[2021-02-22 15:01:44.792] $GPGGA,060144.40,,,,,0,00,0.0,,M,,M,0,0000*55
[2021-02-22 15:01:44.886] $GPGGA,060144.50,,,,,0,00,0.0,,M,,M,0,0000*54
[2021-02-22 15:01:44.979] $GPGGA,060144.60,,,,,0,00,0.0,,M,,M,0,0000*57
[2021-02-22 15:01:45.104] $GPGGA,060144.70,,,,,0,00,0.0,,M,,M,0,0000*56
[2021-02-22 15:01:45.198] $GPGGA,060144.80,,,,,0,00,0.0,,M,,M,0,0000*59
[2021-02-22 15:01:45.292] $GPGGA,060144.90,,,,,0,00,0.0,,M,,M,0,0000*58
[2021-02-22 15:01:45.386] $GPGGA,060145.00,,,,,0,00,0.0,,M,,M,0,0000*50
[2021-02-22 15:01:45.495] $GPGGA,060145.10,,,,,0,00,0.0,,M,,M,0,0000*51
[2021-02-22 15:01:45.604] $GPGGA,060145.20,,,,,0,00,0.0,,M,,M,0,0000*52
[2021-02-22 15:01:45.698] $GPGGA,060145.30,,,,,0,00,0.0,,M,,M,0,0000*53
[2021-02-22 15:01:45.792] $GPGGA,060145.40,,,,,0,00,0.0,,M,,M,0,0000*54
[2021-02-22 15:01:45.901] $GPGGA,060145.50,,,,,0,00,0.0,,M,,M,0,0000*55
[2021-02-22 15:01:45.995] $GPGGA,060145.60,,,,,0,00,0.0,,M,,M,0,0000*56
[2021-02-22 15:01:46.089] $GPGGA,060145.70,,,,,0,00,0.0,,M,,M,0,0000*57
[2021-02-22 15:01:46.214] $GPGGA,060145.80,,,,,0,00,0.0,,M,,M,0,0000*58
[2021-02-22 15:01:46.307] $GPGGA,060145.90,,,,,0,00,0.0,,M,,M,0,0000*59
[2021-02-22 15:01:46.401] $GPGGA,060146.00,,,,,0,00,0.0,,M,,M,0,0000*53
[2021-02-22 15:01:46.495] $GPGGA,060146.10,,,,,0,00,0.0,,M,,M,0,0000*52
[2021-02-22 15:01:46.604] $GPGGA,060146.20,,,,,0,00,0.0,,M,,M,0,0000*51
[2021-02-22 15:01:46.698] $GPGGA,060146.30,,,,,0,00,0.0,,M,,M,0,0000*50
[2021-02-22 15:01:46.792] $GPGGA,060146.40,,,,,0,00,0.0,,M,,M,0,0000*57
[2021-02-22 15:01:46.886] $GPGGA,060146.50,,,,,0,00,0.0,,M,,M,0,0000*56
[2021-02-22 15:01:47.010] $GPGGA,060146.60,,,,,0,00,0.0,,M,,M,0,0000*55
[2021-02-22 15:01:47.104] $GPGGA,060146.70,,,,,0,00,0.0,,M,,M,0,0000*54
[2021-02-22 15:01:47.198] $GPGGA,060146.80,,,,,0,00,0.0,,M,,M,0,0000*5B
[2021-02-22 15:01:47.292] $GPGGA,060146.90,,,,,0,00,0.0,,M,,M,0,0000*5A
[2021-02-22 15:01:47.401] $GPGGA,060147.00,,,,,0,00,0.0,,M,,M,0,0000*52
[2021-02-22 15:01:47.495] $GPGGA,060147.10,,,,,0,00,0.0,,M,,M,0,0000*53
[2021-02-22 15:01:47.589] $GPGGA,060147.20,,,,,0,00,0.0,,M,,M,0,0000*50
[2021-02-22 15:01:47.698] $GPGGA,060147.30,,,,,0,00,0.0,,M,,M,0,0000*51
[2021-02-22 15:01:47.807] $GPGGA,060147.40,,,,,0,00,0.0,,M,,M,0,0000*56
[2021-02-22 15:01:47.901] $GPGGA,060147.50,,,,,0,00,0.0,,M,,M,0,0000*57
[2021-02-22 15:01:47.995] $GPGGA,060147.60,,,,,0,00,0.0,,M,,M,0,0000*54
[2021-02-22 15:01:48.104] $GPGGA,060147.70,,,,,0,00,0.0,,M,,M,0,0000*55
[2021-02-22 15:01:48.198] $GPGGA,060147.80,,,,,0,00,0.0,,M,,M,0,0000*5A
[2021-02-22 15:01:48.307] $GPGGA,060147.90,,,,,0,00,0.0,,M,,M,0,0000*5B
[2021-02-22 15:01:48.401] $GPGGA,060148.00,,,,,0,00,0.0,,M,,M,0,0000*5D
[2021-02-22 15:01:48.495] $GPGGA,060148.10,,,,,0,00,0.0,,M,,M,0,0000*5C
[2021-02-22 15:01:48.589] $GPGGA,060148.20,,,,,0,00,0.0,,M,,M,0,0000*5F
[2021-02-22 15:01:48.698] $GPGGA,060148.30,,,,,0,00,0.0,,M,,M,0,0000*5E
[2021-02-22 15:01:48.792] $GPGGA,060148.40,,,,,0,00,0.0,,M,,M,0,0000*59
[2021-02-22 15:01:48.885] $GPGGA,060148.50,,,,,0,00,0.0,,M,,M,0,0000*58
[2021-02-22 15:01:48.979] $GPGGA,060148.60,,,,,0,00,0.0,,M,,M,0,0000*5B
[2021-02-22 15:01:49.104] $GPGGA,060148.70,,,,,0,00,0.0,,M,,M,0,0000*5A
[2021-02-22 15:01:49.198] $GPGGA,060148.80,,,,,0,00,0.0,,M,,M,0,0000*55
[2021-02-22 15:01:49.292] $GPGGA,060148.90,,,,,0,00,0.0,,M,,M,0,0000*54
[2021-02-22 15:01:49.385] $GPGGA,060149.00,,,,,0,00,0.0,,M,,M,0,0000*5C
[2021-02-22 15:01:49.495] $GPGGA,060149.10,,,,,0,00,0.0,,M,,M,0,0000*5D
[2021-02-22 15:01:49.588] $GPGGA,060149.20,,,,,0,00,0.0,,M,,M,0,0000*5E
[2021-02-22 15:01:49.682] $GPGGA,060149.30,,,,,0,00,0.0,,M,,M,0,0000*5F
[2021-02-22 15:01:49.807] $GPGGA,060149.40,,,,,0,00,0.0,,M,,M,0,0000*58
[2021-02-22 15:01:49.901] $GPGGA,060149.50,,,,,0,00,0.0,,M,,M,0,0000*59
[2021-02-22 15:01:49.995] $GPGGA,060149.60,,,,,0,00,0.0,,M,,M,0,0000*5A
[2021-02-22 15:01:50.088] $GPGGA,060149.70,,,,,0,00,0.0,,M,,M,0,0000*5B
[2021-02-22 15:01:50.198] $GPGGA,060149.80,,,,,0,00,0.0,,M,,M,0,0000*54
[2021-02-22 15:01:50.323] $GPGGA,060149.90,3713.9051007,N,13701.4612771,E,1,06,1.6,91.5047,M,37.55,M,,*5C
[2021-02-22 15:01:50.416] $GPGGA,060150.00,3713.9052854,N,13701.4613133,E,1,06,1.6,91.9567,M,37.55,M,,*5A
[2021-02-22 15:01:50.495] $GPGGA,060150.10,3713.9054994,N,13701.4613615,E,1,06,1.6,90.7382,M,37.55,M,,*51
[2021-02-22 15:01:50.620] $GPGGA,060150.20,3713.9053528,N,13701.4616506,E,1,06,1.6,90.6876,M,37.55,M,,*5B
[2021-02-22 15:01:50.698] $GPGGA,060150.30,3713.9056182,N,13701.4616285,E,1,06,1.6,90.1179,M,37.55,M,,*56
[2021-02-22 15:01:50.823] $GPGGA,060150.40,3713.9049519,N,13701.4615365,E,1,06,1.6,93.6622,M,37.55,M,,*58
[2021-02-22 15:01:50.901] $GPGGA,060150.50,3713.9052676,N,13701.4616359,E,1,06,1.6,92.4704,M,37.55,M,,*53
[2021-02-22 15:01:51.010] $GPGGA,060150.60,3713.9053917,N,13701.4614836,E,1,06,1.6,92.1055,M,37.55,M,,*5F
[2021-02-22 15:01:51.088] $GPGGA,060150.70,3713.9054595,N,13701.4614175,E,1,06,1.6,91.9029,M,37.55,M,,*51
[2021-02-22 15:01:51.213] $GPGGA,060150.80,3713.9053058,N,13701.4614059,E,1,06,1.6,92.8282,M,37.55,M,,*53
[2021-02-22 15:01:51.291] $GPGGA,060150.90,3713.9052449,N,13701.4615158,E,1,06,1.6,93.5497,M,37.55,M,,*58
[2021-02-22 15:01:51.416] $GPGGA,060151.00,3713.9049754,N,13701.4614468,E,1,06,1.6,94.3050,M,37.55,M,,*5C
[2021-02-22 15:01:51.526] $GPGGA,060151.10,3713.9049121,N,13701.4615285,E,1,06,1.6,94.5641,M,37.55,M,,*5D
[2021-02-22 15:01:51.588] $GPGGA,060151.20,3713.9050062,N,13701.4616150,E,1,06,1.6,94.0945,M,37.55,M,,*56
[2021-02-22 15:01:51.713] $GPGGA,060151.30,3713.9049337,N,13701.4615965,E,1,06,1.6,94.3951,M,37.55,M,,*57
[2021-02-22 15:01:51.791] $GPGGA,060151.40,3713.9048156,N,13701.4617339,E,1,06,1.6,94.9741,M,37.55,M,,*50
[2021-02-22 15:01:51.916] $GPGGA,060151.50,3713.9046665,N,13701.4617917,E,1,06,1.6,94.6639,M,37.55,M,,*5F
[2021-02-22 15:01:51.995] $GPGGA,060151.60,3713.9047723,N,13701.4618552,E,1,06,1.6,94.2380,M,37.55,M,,*5F
[2021-02-22 15:01:52.119] $GPGGA,060151.70,3713.9048051,N,13701.4619383,E,1,06,1.6,93.9258,M,37.55,M,,*50
[2021-02-22 15:01:52.198] $GPGGA,060151.80,3713.9047392,N,13701.4618817,E,1,06,1.6,93.9507,M,37.55,M,,*56
[2021-02-22 15:01:52.323] $GPGGA,060151.90,3713.9046736,N,13701.4619455,E,1,06,1.6,94.0714,M,37.55,M,,*59
[2021-02-22 15:01:52.401] $GPGGA,060152.00,3713.9048756,N,13701.4618665,E,1,06,1.6,93.3141,M,37.55,M,,*59
[2021-02-22 15:01:52.526] $GPGGA,060152.10,3713.9047963,N,13701.4618082,E,1,06,1.6,93.3634,M,37.55,M,,*55
[2021-02-22 15:01:52.588] $GPGGA,060152.20,3713.9048110,N,13701.4618859,E,1,06,1.6,93.5446,M,37.55,M,,*5A
[2021-02-22 15:01:52.713] $GPGGA,060152.30,3713.9048722,N,13701.4616769,E,1,06,1.6,92.9422,M,37.55,M,,*51
[2021-02-22 15:01:52.791] $GPGGA,060152.40,3713.9048326,N,13701.4616038,E,1,06,1.6,92.9436,M,37.55,M,,*50
[2021-02-22 15:01:52.916] $GPGGA,060152.50,3713.9047823,N,13701.4616355,E,1,06,1.6,93.2320,M,37.55,M,,*52
[2021-02-22 15:01:52.994] $GPGGA,060152.60,3713.9049180,N,13701.4615856,E,1,06,1.6,92.3919,M,37.55,M,,*54
[2021-02-22 15:01:53.119] $GPGGA,060152.70,3713.9050028,N,13701.4615868,E,1,06,1.6,91.8484,M,37.55,M,,*52
[2021-02-22 15:01:53.198] $GPGGA,060152.80,3713.9051302,N,13701.4615500,E,1,06,1.6,91.3926,M,37.55,M,,*5A
[2021-02-22 15:01:53.322] $GPGGA,060152.90,3713.9048960,N,13701.4616168,E,1,06,1.6,92.4332,M,37.55,M,,*5F
[2021-02-22 15:01:53.416] $GPGGA,060153.00,3713.9048127,N,13701.4617101,E,1,06,1.6,93.1807,M,37.55,M,,*5B
[2021-02-22 15:01:53.494] $GPGGA,060153.10,3713.9049920,N,13701.4617374,E,1,06,1.6,92.9390,M,37.55,M,,*58
[2021-02-22 15:01:53.619] $GPGGA,060153.20,3713.9051550,N,13701.4615845,E,1,06,1.6,91.9954,M,37.55,M,,*53
[2021-02-22 15:01:53.697] $GPGGA,060153.30,3713.9051152,N,13701.4617274,E,1,06,1.6,92.9022,M,37.55,M,,*55
[2021-02-22 15:01:53.822] $GPGGA,060153.40,3713.9050542,N,13701.4616618,E,1,06,1.6,93.5309,M,37.55,M,,*5E
[2021-02-22 15:01:53.901] $GPGGA,060153.50,3713.9051790,N,13701.4616582,E,1,06,1.6,92.8694,M,37.55,M,,*5E
[2021-02-22 15:01:54.010] $GPGGA,060153.60,3713.9050816,N,13701.4615994,E,1,06,1.6,93.7719,M,37.55,M,,*5F
[2021-02-22 15:01:54.088] $GPGGA,060153.70,3713.9048989,N,13701.4615775,E,1,06,1.6,94.0103,M,37.55,M,,*5C
[2021-02-22 15:01:54.213] $GPGGA,060153.80,3713.9047474,N,13701.4615305,E,1,06,1.6,93.8274,M,37.55,M,,*5C
[2021-02-22 15:01:54.291] $GPGGA,060153.90,3713.9047780,N,13701.4615595,E,1,06,1.6,93.9992,M,37.55,M,,*58
[2021-02-22 15:01:54.416] $GPGGA,060154.00,3713.9049193,N,13701.4615469,E,1,06,1.6,93.6032,M,37.55,M,,*52
[2021-02-22 15:01:54.494] $GPGGA,060154.10,3713.9048961,N,13701.4615645,E,1,06,1.6,93.1339,M,37.55,M,,*54
[2021-02-22 15:01:54.619] $GPGGA,060154.20,3713.9051000,N,13701.4613165,E,1,06,1.6,91.9113,M,37.55,M,,*52
[2021-02-22 15:01:54.697] $GPGGA,060154.30,3713.9050167,N,13701.4613900,E,1,06,1.6,92.1154,M,37.55,M,,*51
[2021-02-22 15:01:54.822] $GPGGA,060154.40,3713.9051373,N,13701.4613888,E,1,06,1.6,91.8098,M,37.55,M,,*5A
[2021-02-22 15:01:54.885] $GPGGA,060154.50,3713.9051881,N,13701.4614082,E,1,06,1.6,91.4016,M,37.55,M,,*52
[2021-02-22 15:01:55.010] $GPGGA,060154.60,3713.9051504,N,13701.4613593,E,1,06,1.6,91.6963,M,37.55,M,,*5A
[2021-02-22 15:01:55.119] $GPGGA,060154.70,3713.9050497,N,13701.4613833,E,1,06,1.6,92.0370,M,37.55,M,,*5B
[2021-02-22 15:01:55.197] $GPGGA,060154.80,3713.9051074,N,13701.4612490,E,1,06,1.6,92.0084,M,37.55,M,,*50
[2021-02-22 15:01:55.322] $GPGGA,060154.90,3713.9051620,N,13701.4612768,E,1,06,1.6,91.6395,M,37.55,M,,*54
[2021-02-22 15:01:55.400] $GPGGA,060155.00,3713.9051150,N,13701.4613445,E,1,06,1.6,91.8618,M,37.55,M,,*5F
[2021-02-22 15:01:55.510] $GPGGA,060155.10,3713.9052194,N,13701.4613253,E,1,06,1.6,91.4908,M,37.55,M,,*56
[2021-02-22 15:01:55.588] $GPGGA,060155.20,3713.9052187,N,13701.4612749,E,1,06,1.6,91.8970,M,37.55,M,,*5B
[2021-02-22 15:01:55.713] $GPGGA,060155.30,3713.9060929,N,13701.4603249,E,1,08,1.4,79.5413,M,37.55,M,,*5D
[2021-02-22 15:01:55.791] $GPGGA,060155.40,3713.9061028,N,13701.4604261,E,1,08,1.4,79.4467,M,37.55,M,,*5C
[2021-02-22 15:01:55.916] $GPGGA,060155.50,3713.9062001,N,13701.4604747,E,1,08,1.4,79.3612,M,37.55,M,,*53
[2021-02-22 15:01:55.994] $GPGGA,060155.60,3713.9061487,N,13701.4605534,E,1,08,1.4,79.6347,M,37.55,M,,*5E
[2021-02-22 15:01:56.119] $GPGGA,060155.70,3713.9061309,N,13701.4604849,E,1,08,1.4,79.5653,M,37.55,M,,*5B
[2021-02-22 15:01:56.197] $GPGGA,060155.80,3713.9061715,N,13701.4603712,E,1,08,1.4,79.7850,M,37.55,M,,*54
[2021-02-22 15:01:56.322] $GPGGA,060155.90,3713.9061906,N,13701.4603135,E,1,08,1.4,79.4161,M,37.55,M,,*52
[2021-02-22 15:01:56.400] $GPGGA,060156.00,3713.9062534,N,13701.4603620,E,1,08,1.4,79.6062,M,37.55,M,,*55
[2021-02-22 15:01:56.525] $GPGGA,060156.10,3713.9062460,N,13701.4603174,E,1,08,1.4,79.7330,M,37.55,M,,*57
[2021-02-22 15:01:56.588] $GPGGA,060156.20,3713.9062089,N,13701.4603406,E,1,08,1.4,80.1154,M,37.55,M,,*57
[2021-02-22 15:01:56.713] $GPGGA,060156.30,3713.9062275,N,13701.4603003,E,1,08,1.4,79.8576,M,37.55,M,,*5D
[2021-02-22 15:01:56.791] $GPGGA,060156.40,3713.9062660,N,13701.4602844,E,1,08,1.4,79.7828,M,37.55,M,,*59
[2021-02-22 15:01:56.916] $GPGGA,060156.50,3713.9062232,N,13701.4602319,E,1,08,1.4,79.6177,M,37.55,M,,*5A
[2021-02-22 15:01:57.010] $GPGGA,060156.60,3713.9060970,N,13701.4603254,E,1,08,1.4,79.7260,M,37.55,M,,*5B
[2021-02-22 15:01:57.088] $GPGGA,060156.70,3713.9061223,N,13701.4602477,E,1,08,1.4,79.6517,M,37.55,M,,*56
[2021-02-22 15:01:57.213] $GPGGA,060156.80,3713.9060677,N,13701.4603212,E,1,08,1.4,79.5686,M,37.55,M,,*51
[2021-02-22 15:01:57.291] $GPGGA,060156.90,3713.9060976,N,13701.4603259,E,1,08,1.4,79.7319,M,37.55,M,,*50
[2021-02-22 15:01:57.416] $GPGGA,060157.00,3713.9060602,N,13701.4604685,E,1,08,1.4,79.6815,M,37.55,M,,*50
[2021-02-22 15:01:57.494] $GPGGA,060157.10,3713.9061231,N,13701.4604594,E,1,08,1.4,79.1233,M,37.55,M,,*5E
[2021-02-22 15:01:57.619] $GPGGA,060157.20,3713.9061686,N,13701.4603953,E,1,08,1.4,78.8107,M,37.55,M,,*59
[2021-02-22 15:01:57.697] $GPGGA,060157.30,3713.9062256,N,13701.4602869,E,1,08,1.4,78.5216,M,37.55,M,,*55
[2021-02-22 15:01:57.822] $GPGGA,060157.40,3713.9061335,N,13701.4603296,E,1,08,1.4,79.2920,M,37.55,M,,*56
[2021-02-22 15:01:57.900] $GPGGA,060157.50,3713.9062120,N,13701.4602355,E,1,08,1.4,78.9016,M,37.55,M,,*5B
[2021-02-22 15:01:58.025] $GPGGA,060157.60,3713.9061749,N,13701.4602632,E,1,08,1.4,79.0292,M,37.55,M,,*50
[2021-02-22 15:01:58.088] $GPGGA,060157.70,3713.9062553,N,13701.4602609,E,1,08,1.4,78.9148,M,37.55,M,,*5F
[2021-02-22 15:01:58.213] $GPGGA,060157.80,3713.9062612,N,13701.4602928,E,1,08,1.4,79.1134,M,37.55,M,,*58
[2021-02-22 15:01:58.291] $GPGGA,060157.90,3713.9062821,N,13701.4603406,E,1,08,1.4,78.9568,M,37.55,M,,*53
[2021-02-22 15:01:58.416] $GPGGA,060158.00,3713.9062883,N,13701.4603671,E,1,08,1.4,79.3764,M,37.55,M,,*5A
[2021-02-22 15:01:58.494] $GPGGA,060158.10,3713.9062241,N,13701.4605075,E,1,09,1.4,79.8598,M,37.55,M,,*50
[2021-02-22 15:01:58.619] $GPGGA,060158.20,3713.9062952,N,13701.4604686,E,1,09,1.4,79.5638,M,37.55,M,,*55
[2021-02-22 15:01:58.728] $GPGGA,060158.30,3713.9062755,N,13701.4605075,E,1,09,1.4,79.5840,M,37.55,M,,*57
[2021-02-22 15:01:58.791] $GPGGA,060158.40,3713.9062520,N,13701.4605394,E,1,08,1.4,79.8480,M,37.55,M,,*50
[2021-02-22 15:01:58.916] $GPGGA,060158.50,3713.9063197,N,13701.4604128,E,1,08,1.4,79.6919,M,37.55,M,,*5F
[2021-02-22 15:01:58.994] $GPGGA,060158.60,3713.9062764,N,13701.4603329,E,1,08,1.4,79.0372,M,37.55,M,,*52
[2021-02-22 15:01:59.119] $GPGGA,060158.70,3713.9061525,N,13701.4603788,E,1,08,1.4,79.1043,M,37.55,M,,*58
[2021-02-22 15:01:59.197] $GPGGA,060158.80,3713.9060425,N,13701.4603065,E,1,08,1.4,79.2805,M,37.55,M,,*5A
[2021-02-22 15:01:59.322] $GPGGA,060158.90,3713.9058828,N,13701.4604142,E,1,08,1.4,79.0336,M,37.55,M,,*5B
[2021-02-22 15:01:59.400] $GPGGA,060159.00,3713.9059855,N,13701.4603657,E,1,08,1.4,79.3407,M,37.55,M,,*5A
[2021-02-22 15:01:59.525] $GPGGA,060159.10,3713.9059078,N,13701.4604171,E,1,08,1.4,79.0643,M,37.55,M,,*59
[2021-02-22 15:01:59.588] $GPGGA,060159.20,3713.9059080,N,13701.4603005,E,1,08,1.4,79.0737,M,37.55,M,,*5A
[2021-02-22 15:01:59.713] $GPGGA,060159.30,3713.9059537,N,13701.4602409,E,1,08,1.4,79.4802,M,37.55,M,,*56
[2021-02-22 15:01:59.791] $GPGGA,060159.40,3713.9059702,N,13701.4603611,E,1,08,1.4,79.4797,M,37.55,M,,*5C
[2021-02-22 15:01:59.916] $GPGGA,060159.50,3713.9060588,N,13701.4603820,E,1,08,1.4,79.7763,M,37.55,M,,*53
[2021-02-22 15:01:59.994] $GPGGA,060159.60,3713.9059892,N,13701.4603611,E,1,08,1.4,80.0348,M,37.55,M,,*5C
[2021-02-22 15:02:00.119] $GPGGA,060159.70,3713.9059706,N,13701.4603206,E,1,08,1.4,79.8948,M,37.55,M,,*59
[2021-02-22 15:02:00.197] $GPGGA,060159.80,3713.9060140,N,13701.4603760,E,1,08,1.4,79.9568,M,37.55,M,,*52
[2021-02-22 15:02:00.322] $GPGGA,060159.90,3713.9060443,N,13701.4603040,E,1,08,1.4,79.9621,M,37.55,M,,*5E
[2021-02-22 15:02:00.416] $GPGGA,060200.00,3713.9061696,N,13701.4602188,E,1,08,1.4,79.6213,M,37.55,M,,*5D
[2021-02-22 15:02:00.494] $GPGGA,060200.10,3713.9062262,N,13701.4602035,E,1,08,1.4,79.2782,M,37.55,M,,*5E
[2021-02-22 15:02:00.619] $GPGGA,060200.20,3713.9062251,N,13701.4602047,E,1,09,1.4,78.8747,M,37.55,M,,*5B
[2021-02-22 15:02:00.697] $GPGGA,060200.30,3713.9061906,N,13701.4603523,E,1,09,1.4,78.9590,M,37.55,M,,*5F
[2021-02-22 15:02:00.822] $GPGGA,060200.40,3713.9061959,N,13701.4602889,E,1,09,1.4,78.7115,M,37.55,M,,*59
[2021-02-22 15:02:00.900] $GPGGA,060200.50,3713.9060799,N,13701.4602748,E,1,09,1.4,78.6494,M,37.55,M,,*54
[2021-02-22 15:02:01.025] $GPGGA,060200.60,3713.9061378,N,13701.4602384,E,1,09,1.4,78.4632,M,37.55,M,,*55
[2021-02-22 15:02:01.088] $GPGGA,060200.70,3713.9062160,N,13701.4603202,E,1,09,1.4,78.9328,M,37.55,M,,*51
[2021-02-22 15:02:01.213] $GPGGA,060200.80,3713.9062361,N,13701.4603110,E,1,09,1.4,78.7433,M,37.55,M,,*5E
[2021-02-22 15:02:01.291] $GPGGA,060200.90,3713.9062220,N,13701.4603008,E,1,09,1.4,79.0924,M,37.55,M,,*5E
[2021-02-22 15:02:01.416] $GPGGA,060201.00,3713.9061784,N,13701.4603396,E,1,09,1.4,78.9857,M,37.55,M,,*57
[2021-02-22 15:02:01.494] $GPGGA,060201.10,3713.9060233,N,13701.4603961,E,1,09,1.4,79.4290,M,37.55,M,,*51
[2021-02-22 15:02:01.619] $GPGGA,060201.20,3713.9060604,N,13701.4604436,E,1,09,1.4,79.7238,M,37.55,M,,*5B
[2021-02-22 15:02:01.697] $GPGGA,060201.30,3713.9061294,N,13701.4603327,E,1,09,1.4,79.4376,M,37.55,M,,*5E
[2021-02-22 15:02:01.822] $GPGGA,060201.40,3713.9061407,N,13701.4602332,E,1,09,1.4,79.9588,M,37.55,M,,*5A
[2021-02-22 15:02:01.900] $GPGGA,060201.50,3713.9061642,N,13701.4602027,E,1,09,1.4,79.8926,M,37.55,M,,*56
[2021-02-22 15:02:02.025] $GPGGA,060201.60,3713.9061057,N,13701.4602320,E,1,09,1.4,79.9950,M,37.55,M,,*53
[2021-02-22 15:02:02.088] $GPGGA,060201.70,3713.9060448,N,13701.4603126,E,1,09,1.4,80.1520,M,37.55,M,,*59
[2021-02-22 15:02:02.213] $GPGGA,060201.80,3713.9061329,N,13701.4604087,E,1,09,1.4,80.2708,M,37.55,M,,*51
[2021-02-22 15:02:02.322] $GPGGA,060201.90,3713.9061229,N,13701.4604424,E,1,09,1.4,80.6849,M,37.55,M,,*52
[2021-02-22 15:02:02.400] $GPGGA,060202.00,3713.9060717,N,13701.4603739,E,1,09,1.4,80.3720,M,37.55,M,,*5C
[2021-02-22 15:02:02.525] $GPGGA,060202.10,3713.9060902,N,13701.4604112,E,1,09,1.4,80.3034,M,37.55,M,,*5D
[2021-02-22 15:02:02.588] $GPGGA,060202.20,3713.9060357,N,13701.4603295,E,1,09,1.4,80.4323,M,37.55,M,,*5D
[2021-02-22 15:02:02.712] $GPGGA,060202.30,3713.9061471,N,13701.4601630,E,1,09,1.4,79.9638,M,37.55,M,,*53
[2021-02-22 15:02:02.791] $GPGGA,060202.40,3713.9062803,N,13701.4600728,E,1,09,1.4,79.7565,M,37.55,M,,*52
[2021-02-22 15:02:02.916] $GPGGA,060202.50,3713.9061680,N,13701.4602044,E,1,09,1.4,80.3402,M,37.55,M,,*58
[2021-02-22 15:02:02.994] $GPGGA,060202.60,3713.9062423,N,13701.4602660,E,1,09,1.4,80.1119,M,37.55,M,,*5E
[2021-02-22 15:02:03.119] $GPGGA,060202.70,3713.9061091,N,13701.4603557,E,1,09,1.4,80.1497,M,37.55,M,,*54
[2021-02-22 15:02:03.197] $GPGGA,060202.80,3713.9060838,N,13701.4602947,E,1,09,1.4,79.7375,M,37.55,M,,*56
[2021-02-22 15:02:03.322] $GPGGA,060202.90,3713.9061102,N,13701.4603100,E,1,09,1.4,79.5598,M,37.55,M,,*5B
[2021-02-22 15:02:03.400] $GPGGA,060203.00,3713.9059695,N,13701.4603702,E,1,09,1.4,79.3320,M,37.55,M,,*56
[2021-02-22 15:02:03.525] $GPGGA,060203.10,3713.9059589,N,13701.4604533,E,1,09,1.4,79.0793,M,37.55,M,,*51
[2021-02-22 15:02:03.587] $GPGGA,060203.20,3713.9060371,N,13701.4604004,E,1,09,1.4,79.0140,M,37.55,M,,*50
[2021-02-22 15:02:03.712] $GPGGA,060203.30,3713.9059611,N,13701.4603646,E,1,09,1.4,79.0033,M,37.55,M,,*5A
[2021-02-22 15:02:03.791] $GPGGA,060203.40,3713.9059247,N,13701.4604267,E,1,09,1.4,79.3187,M,37.55,M,,*57
[2021-02-22 15:02:03.916] $GPGGA,060203.50,3713.9060448,N,13701.4603442,E,1,09,1.4,79.0413,M,37.55,M,,*58
[2021-02-22 15:02:04.025] $GPGGA,060203.60,3713.9061691,N,13701.4602540,E,1,09,1.4,78.6701,M,37.55,M,,*59
[2021-02-22 15:02:04.103] $GPGGA,060203.70,3713.9061070,N,13701.4603832,E,1,09,1.4,79.3952,M,37.55,M,,*54
[2021-02-22 15:02:04.212] $GPGGA,060203.80,3713.9061646,N,13701.4603613,E,1,09,1.4,79.3176,M,37.55,M,,*5B
[2021-02-22 15:02:04.291] $GPGGA,060203.90,3713.9061183,N,13701.4603431,E,1,09,1.4,79.6621,M,37.55,M,,*56
[2021-02-22 15:02:04.416] $GPGGA,060204.00,3713.9060775,N,13701.4605150,E,1,09,1.4,79.9814,M,37.55,M,,*55
[2021-02-22 15:02:04.494] $GPGGA,060204.10,3713.9061914,N,13701.4604446,E,1,09,1.4,79.8146,M,37.55,M,,*50
[2021-02-22 15:02:04.619] $GPGGA,060204.20,3713.9063640,N,13701.4602968,E,1,09,1.4,79.3022,M,37.55,M,,*50
[2021-02-22 15:02:04.697] $GPGGA,060204.30,3713.9063852,N,13701.4603733,E,1,09,1.4,79.1437,M,37.55,M,,*5F
[2021-02-22 15:02:04.822] $GPGGA,060204.40,3713.9063950,N,13701.4603047,E,1,09,1.4,79.1699,M,37.55,M,,*59
[2021-02-22 15:02:04.900] $GPGGA,060204.50,3713.9062556,N,13701.4603471,E,1,09,1.4,79.6580,M,37.55,M,,*5E
[2021-02-22 15:02:05.025] $GPGGA,060204.60,3713.9062636,N,13701.4602955,E,1,09,1.4,80.0605,M,37.55,M,,*5C
[2021-02-22 15:02:05.087] $GPGGA,060204.70,3713.9062229,N,13701.4603148,E,1,09,1.4,80.0759,M,37.55,M,,*5A
[2021-02-22 15:02:05.212] $GPGGA,060204.80,3713.9060908,N,13701.4603959,E,1,09,1.4,80.3332,M,37.55,M,,*5D
[2021-02-22 15:02:05.290] $GPGGA,060204.90,3713.9060170,N,13701.4604104,E,1,09,1.4,80.3853,M,37.55,M,,*50
[2021-02-22 15:02:05.415] $GPGGA,060205.00,3713.9059847,N,13701.4603587,E,1,09,1.4,80.3834,M,37.55,M,,*56
[2021-02-22 15:02:05.494] $GPGGA,060205.10,3713.9059383,N,13701.4603483,E,1,09,1.4,80.3797,M,37.55,M,,*57
[2021-02-22 15:02:05.619] $GPGGA,060205.20,3713.9060436,N,13701.4602814,E,1,09,1.4,79.9769,M,37.55,M,,*59
[2021-02-22 15:02:05.697] $GPGGA,060205.30,3713.9061718,N,13701.4602159,E,1,09,1.4,79.4089,M,37.55,M,,*52
[2021-02-22 15:02:05.822] $GPGGA,060205.40,3713.9062655,N,13701.4602175,E,1,09,1.4,79.7006,M,37.55,M,,*54
[2021-02-22 15:02:05.915] $GPGGA,060205.50,3713.9060779,N,13701.4602942,E,1,09,1.4,79.8685,M,37.55,M,,*56
[2021-02-22 15:02:05.994] $GPGGA,060205.60,3713.9054987,N,13701.4608423,E,1,10,1.1,82.4913,M,37.55,M,,*58
[2021-02-22 15:02:06.118] $GPGGA,060205.70,3713.9054805,N,13701.4608362,E,1,10,1.1,82.6504,M,37.55,M,,*58
[2021-02-22 15:02:06.197] $GPGGA,060205.80,3713.9055003,N,13701.4608182,E,1,10,1.1,82.8215,M,37.55,M,,*5D
[2021-02-22 15:02:06.322] $GPGGA,060205.90,3713.9054692,N,13701.4608544,E,1,10,1.1,82.7889,M,37.55,M,,*5D
[2021-02-22 15:02:06.400] $GPGGA,060206.00,3713.9053386,N,13701.4609493,E,1,10,1.1,83.0216,M,37.55,M,,*50
[2021-02-22 15:02:06.525] $GPGGA,060206.10,3713.9053505,N,13701.4609309,E,1,10,1.1,83.6116,M,37.55,M,,*5D
[2021-02-22 15:02:06.603] $GPGGA,060206.20,3713.9054015,N,13701.4608045,E,1,10,1.1,83.2626,M,37.55,M,,*57
[2021-02-22 15:02:06.712] $GPGGA,060206.30,3713.9054291,N,13701.4607739,E,1,10,1.1,82.8295,M,37.55,M,,*5C
[2021-02-22 15:02:06.790] $GPGGA,060206.40,3713.9053804,N,13701.4607261,E,1,10,1.1,82.6059,M,37.55,M,,*5E
[2021-02-22 15:02:06.915] $GPGGA,060206.50,3713.9053294,N,13701.4607041,E,1,10,1.1,82.3775,M,37.55,M,,*50
[2021-02-22 15:02:06.993] $GPGGA,060206.60,3713.9053465,N,13701.4607275,E,1,10,1.1,82.3174,M,37.55,M,,*59
[2021-02-22 15:02:07.118] $GPGGA,060206.70,3713.9053553,N,13701.4607353,E,1,10,1.1,82.3835,M,37.55,M,,*55
[2021-02-22 15:02:07.197] $GPGGA,060206.80,3713.9053237,N,13701.4607228,E,1,10,1.1,82.0919,M,37.55,M,,*5E
[2021-02-22 15:02:07.322] $GPGGA,060206.90,3713.9053020,N,13701.4606640,E,1,10,1.1,82.3647,M,37.55,M,,*57
[2021-02-22 15:02:07.400] $GPGGA,060207.00,3713.9053738,N,13701.4606527,E,1,10,1.1,82.5243,M,37.55,M,,*55
[2021-02-22 15:02:07.525] $GPGGA,060207.10,3713.9053764,N,13701.4605708,E,1,10,1.1,82.6863,M,37.55,M,,*5A
[2021-02-22 15:02:07.618] $GPGGA,060207.20,3713.9053438,N,13701.4606400,E,1,10,1.1,82.8788,M,37.55,M,,*5F
[2021-02-22 15:02:07.697] $GPGGA,060207.30,3713.9052482,N,13701.4606347,E,1,10,1.1,82.9578,M,37.55,M,,*56
[2021-02-22 15:02:07.821] $GPGGA,060207.40,3713.9051870,N,13701.4606768,E,1,10,1.1,83.2258,M,37.55,M,,*55
[2021-02-22 15:02:07.900] $GPGGA,060207.50,3713.9052200,N,13701.4606504,E,1,10,1.1,82.9524,M,37.55,M,,*54
[2021-02-22 15:02:08.025] $GPGGA,060207.60,3713.9052437,N,13701.4606371,E,1,10,1.1,83.1118,M,37.55,M,,*53
[2021-02-22 15:02:08.103] $GPGGA,060207.70,3713.9052617,N,13701.4606634,E,1,10,1.1,82.8615,M,37.55,M,,*54
[2021-02-22 15:02:08.212] $GPGGA,060207.80,3713.9052513,N,13701.4606462,E,1,10,1.1,82.6751,M,37.55,M,,*52
[2021-02-22 15:02:08.290] $GPGGA,060207.90,3713.9053622,N,13701.4605152,E,1,10,1.1,82.4918,M,37.55,M,,*57
[2021-02-22 15:02:08.415] $GPGGA,060208.00,3713.9053419,N,13701.4606023,E,1,10,1.1,82.4779,M,37.55,M,,*56
[2021-02-22 15:02:08.493] $GPGGA,060208.10,3713.9052829,N,13701.4606671,E,1,10,1.1,82.1095,M,37.55,M,,*58
[2021-02-22 15:02:08.618] $GPGGA,060208.20,3713.9053801,N,13701.4606307,E,1,10,1.1,81.9826,M,37.55,M,,*5F
[2021-02-22 15:02:08.696] $GPGGA,060208.30,3713.9054646,N,13701.4606741,E,1,10,1.1,81.6330,M,37.55,M,,*51
[2021-02-22 15:02:08.821] $GPGGA,060208.40,3713.9055580,N,13701.4607280,E,1,10,1.1,81.6857,M,37.55,M,,*5D
[2021-02-22 15:02:08.900] $GPGGA,060208.50,3713.9055814,N,13701.4608254,E,1,10,1.1,81.9038,M,37.55,M,,*54
[2021-02-22 15:02:09.025] $GPGGA,060208.60,3713.9054639,N,13701.4607828,E,1,10,1.1,81.6879,M,37.55,M,,*5B
[2021-02-22 15:02:09.087] $GPGGA,060208.70,3713.9055349,N,13701.4607644,E,1,10,1.1,81.5246,M,37.55,M,,*58
[2021-02-22 15:02:09.212] $GPGGA,060208.80,3713.9055312,N,13701.4608876,E,1,10,1.1,81.4729,M,37.55,M,,*54
[2021-02-22 15:02:09.290] $GPGGA,060208.90,3713.9055806,N,13701.4608091,E,1,10,1.1,81.5196,M,37.55,M,,*59
[2021-02-22 15:02:09.415] $GPGGA,060209.00,3713.9055981,N,13701.4607579,E,1,10,1.1,81.9169,M,37.55,M,,*5F
[2021-02-22 15:02:09.525] $GPGGA,060209.10,3713.9055474,N,13701.4607920,E,1,10,1.1,82.3302,M,37.55,M,,*5F
[2021-02-22 15:02:09.603] $GPGGA,060209.20,3713.9055123,N,13701.4608344,E,1,10,1.1,82.9136,M,37.55,M,,*53
[2021-02-22 15:02:09.728] $GPGGA,060209.30,3713.9054961,N,13701.4608426,E,1,10,1.1,82.9947,M,37.55,M,,*50
[2021-02-22 15:02:09.790] $GPGGA,060209.40,3713.9054377,N,13701.4608383,E,1,10,1.1,83.4171,M,37.55,M,,*53
[2021-02-22 15:02:09.915] $GPGGA,060209.50,3713.9054810,N,13701.4609311,E,1,10,1.1,83.7771,M,37.55,M,,*57
[2021-02-22 15:02:09.993] $GPGGA,060209.60,3713.9055260,N,13701.4609066,E,1,10,1.1,83.5046,M,37.55,M,,*5A
[2021-02-22 15:02:10.118] $GPGGA,060209.70,3713.9056193,N,13701.4608168,E,1,10,1.1,83.2889,M,37.55,M,,*55
[2021-02-22 15:02:10.196] $GPGGA,060209.80,3713.9055892,N,13701.4608922,E,1,10,1.1,83.3892,M,37.55,M,,*5C
[2021-02-22 15:02:10.321] $GPGGA,060209.90,3713.9055912,N,13701.4609074,E,1,10,1.1,83.6286,M,37.55,M,,*55
[2021-02-22 15:02:10.399] $GPGGA,060210.00,3713.9056246,N,13701.4609457,E,1,10,1.1,83.9927,M,37.55,M,,*57
[2021-02-22 15:02:10.524] $GPGGA,060210.10,3713.9056653,N,13701.4609604,E,1,10,1.1,83.5762,M,37.55,M,,*51
[2021-02-22 15:02:10.587] $GPGGA,060210.20,3713.9056331,N,13701.4608723,E,1,10,1.1,83.2614,M,37.55,M,,*51
[2021-02-22 15:02:10.712] $GPGGA,060210.30,3713.9056739,N,13701.4609416,E,1,10,1.1,83.1975,M,37.55,M,,*53
[2021-02-22 15:02:10.790] $GPGGA,060210.40,3713.9056631,N,13701.4609858,E,1,10,1.1,82.7049,M,37.55,M,,*5A
[2021-02-22 15:02:10.915] $GPGGA,060210.50,3713.9057536,N,13701.4610178,E,1,10,1.1,82.6615,M,37.55,M,,*53
[2021-02-22 15:02:10.993] $GPGGA,060210.60,3713.9058282,N,13701.4609905,E,1,10,1.1,82.4636,M,37.55,M,,*5E
[2021-02-22 15:02:11.118] $GPGGA,060210.70,3713.9057441,N,13701.4610206,E,1,10,1.1,82.6190,M,37.55,M,,*50
[2021-02-22 15:02:11.228] $GPGGA,060210.80,3713.9058584,N,13701.4608042,E,1,11,1.0,81.9622,M,37.55,M,,*51
[2021-02-22 15:02:11.290] $GPGGA,060210.90,3713.9058607,N,13701.4607707,E,1,11,1.0,82.1632,M,37.55,M,,*5B
[2021-02-22 15:02:11.415] $GPGGA,060211.00,3713.9058464,N,13701.4607629,E,1,11,1.0,82.4460,M,37.55,M,,*59
[2021-02-22 15:02:11.493] $GPGGA,060211.10,3713.9056883,N,13701.4607671,E,1,11,1.0,82.2072,M,37.55,M,,*5F
[2021-02-22 15:02:11.618] $GPGGA,060211.20,3713.9056963,N,13701.4608291,E,1,11,1.0,82.3671,M,37.55,M,,*52
[2021-02-22 15:02:11.696] $GPGGA,060211.30,3713.9056612,N,13701.4607697,E,1,11,1.0,82.3837,M,37.55,M,,*5B
[2021-02-22 15:02:11.821] $GPGGA,060211.40,3713.9057196,N,13701.4608515,E,1,11,1.0,82.5819,M,37.55,M,,*5A
[2021-02-22 15:02:11.899] $GPGGA,060211.50,3713.9057196,N,13701.4607633,E,1,11,1.0,82.8460,M,37.55,M,,*5C
[2021-02-22 15:02:12.024] $GPGGA,060211.60,3713.9057708,N,13701.4607076,E,1,11,1.0,82.7203,M,37.55,M,,*55
[2021-02-22 15:02:12.102] $GPGGA,060211.70,3713.9058098,N,13701.4607303,E,1,11,1.0,82.7034,M,37.55,M,,*52
[2021-02-22 15:02:12.212] $GPGGA,060211.80,3713.9058195,N,13701.4606819,E,1,11,1.0,82.2519,M,37.55,M,,*5F
[2021-02-22 15:02:12.290] $GPGGA,060211.90,3713.9057500,N,13701.4606632,E,1,11,1.0,82.5499,M,37.55,M,,*50
[2021-02-22 15:02:12.415] $GPGGA,060212.00,3713.9057632,N,13701.4606788,E,1,11,1.0,82.2110,M,37.55,M,,*5B
[2021-02-22 15:02:12.493] $GPGGA,060212.10,3713.9057734,N,13701.4606241,E,1,11,1.0,81.8781,M,37.55,M,,*5A
[2021-02-22 15:02:12.618] $GPGGA,060212.20,3713.9058312,N,13701.4606095,E,1,11,1.0,81.7247,M,37.55,M,,*5D
[2021-02-22 15:02:12.696] $GPGGA,060212.30,3713.9057778,N,13701.4605628,E,1,11,1.0,81.4525,M,37.55,M,,*58
[2021-02-22 15:02:12.821] $GPGGA,060212.40,3713.9058566,N,13701.4606055,E,1,11,1.0,81.1732,M,37.55,M,,*53
[2021-02-22 15:02:12.899] $GPGGA,060212.50,3713.9057406,N,13701.4605899,E,1,11,1.0,81.5074,M,37.55,M,,*50
[2021-02-22 15:02:13.024] $GPGGA,060212.60,3713.9057509,N,13701.4605941,E,1,11,1.0,81.3185,M,37.55,M,,*50
[2021-02-22 15:02:13.118] $GPGGA,060212.70,3713.9057880,N,13701.4606524,E,1,11,1.0,81.5115,M,37.55,M,,*5E
[2021-02-22 15:02:13.196] $GPGGA,060212.80,3713.9057977,N,13701.4605861,E,1,11,1.0,81.1685,M,37.55,M,,*5D
[2021-02-22 15:02:13.321] $GPGGA,060212.90,3713.9058316,N,13701.4605717,E,1,11,1.0,81.4252,M,37.55,M,,*5B
[2021-02-22 15:02:13.399] $GPGGA,060213.00,3713.9058672,N,13701.4605485,E,1,11,1.0,81.4792,M,37.55,M,,*55
[2021-02-22 15:02:13.524] $GPGGA,060213.10,3713.9057921,N,13701.4605177,E,1,11,1.0,81.2362,M,37.55,M,,*57
[2021-02-22 15:02:13.602] $GPGGA,060213.20,3713.9058127,N,13701.4604306,E,1,11,1.0,81.4639,M,37.55,M,,*5D
[2021-02-22 15:02:13.727] $GPGGA,060213.30,3713.9059380,N,13701.4604229,E,1,11,1.0,81.2280,M,37.55,M,,*5E
[2021-02-22 15:02:13.790] $GPGGA,060213.40,3713.9059825,N,13701.4604278,E,1,11,1.0,81.4068,M,37.55,M,,*5B
[2021-02-22 15:02:13.915] $GPGGA,060213.50,3713.9060134,N,13701.4604250,E,1,11,1.0,81.2299,M,37.55,M,,*59
[2021-02-22 15:02:13.993] $GPGGA,060213.60,3713.9060140,N,13701.4603763,E,1,11,1.0,81.2258,M,37.55,M,,*56
[2021-02-22 15:02:14.118] $GPGGA,060213.70,3713.9059226,N,13701.4604377,E,1,11,1.0,80.9480,M,37.55,M,,*51
[2021-02-22 15:02:14.196] $GPGGA,060213.80,3713.9058762,N,13701.4604287,E,1,11,1.0,80.8694,M,37.55,M,,*52
[2021-02-22 15:02:14.321] $GPGGA,060213.90,3713.9058946,N,13701.4604239,E,1,11,1.0,80.5086,M,37.55,M,,*56
[2021-02-22 15:02:14.399] $GPGGA,060214.00,3713.9058213,N,13701.4603815,E,1,11,1.0,80.5981,M,37.55,M,,*5E
[2021-02-22 15:02:14.524] $GPGGA,060214.10,3713.9058278,N,13701.4604235,E,1,11,1.0,80.7119,M,37.55,M,,*56
[2021-02-22 15:02:14.587] $GPGGA,060214.20,3713.9059003,N,13701.4604074,E,1,11,1.0,80.5370,M,37.55,M,,*52
[2021-02-22 15:02:14.712] $GPGGA,060214.30,3713.9058219,N,13701.4604091,E,1,11,1.0,80.4571,M,37.55,M,,*56
[2021-02-22 15:02:14.821] $GPGGA,060214.40,3713.9057233,N,13701.4604163,E,1,11,1.0,80.6675,M,37.55,M,,*5F
[2021-02-22 15:02:14.899] $GPGGA,060214.50,3713.9056964,N,13701.4604693,E,1,11,1.0,80.6129,M,37.55,M,,*50
[2021-02-22 15:02:15.024] $GPGGA,060214.60,3713.9057846,N,13701.4603539,E,1,12,1.0,81.2833,M,37.55,M,,*53
[2021-02-22 15:02:15.102] $GPGGA,060214.70,3713.9057746,N,13701.4603037,E,1,12,1.0,81.5415,M,37.55,M,,*59
[2021-02-22 15:02:15.227] $GPGGA,060214.80,3713.9057686,N,13701.4603356,E,1,12,1.0,81.7108,M,37.55,M,,*54
[2021-02-22 15:02:15.290] $GPGGA,060214.90,3713.9057912,N,13701.4603917,E,1,12,1.0,81.8608,M,37.55,M,,*50
[2021-02-22 15:02:15.415] $GPGGA,060215.00,3713.9058207,N,13701.4603482,E,1,12,1.0,82.1792,M,37.55,M,,*51
[2021-02-22 15:02:15.493] $GPGGA,060215.10,3713.9058334,N,13701.4604163,E,1,12,1.0,82.1849,M,37.55,M,,*55
[2021-02-22 15:02:15.618] $GPGGA,060215.20,3713.9059189,N,13701.4604143,E,1,12,1.0,82.3527,M,37.55,M,,*56
[2021-02-22 15:02:15.696] $GPGGA,060215.30,3713.9059361,N,13701.4603687,E,1,12,1.0,82.5854,M,37.55,M,,*54
[2021-02-22 15:02:15.821] $GPGGA,060215.40,3713.9059190,N,13701.4603699,E,1,12,1.0,83.0562,M,37.55,M,,*5C
[2021-02-22 15:02:15.899] $GPGGA,060215.50,3713.9059874,N,13701.4604636,E,1,12,1.0,82.8596,M,37.55,M,,*5E
[2021-02-22 15:02:16.024] $GPGGA,060215.60,3713.9059458,N,13701.4605165,E,1,12,1.0,82.7458,M,37.55,M,,*53
[2021-02-22 15:02:16.102] $GPGGA,060215.70,3713.9059022,N,13701.4605324,E,1,12,1.0,82.6297,M,37.55,M,,*58
[2021-02-22 15:02:16.212] $GPGGA,060215.80,3713.9059398,N,13701.4605457,E,1,12,1.0,83.0990,M,37.55,M,,*5D
[2021-02-22 15:02:16.290] $GPGGA,060215.90,3713.9059057,N,13701.4604507,E,1,12,1.0,82.7592,M,37.55,M,,*51
[2021-02-22 15:02:16.415] $GPGGA,060216.00,3713.9059028,N,13701.4603934,E,1,12,1.0,82.5327,M,37.55,M,,*52
[2021-02-22 15:02:16.524] $GPGGA,060216.10,3713.9058832,N,13701.4604949,E,1,12,1.0,82.8007,M,37.55,M,,*50
[2021-02-22 15:02:16.602] $GPGGA,060216.20,3713.9059594,N,13701.4604930,E,1,12,1.0,82.6554,M,37.55,M,,*50
[2021-02-22 15:02:16.712] $GPGGA,060216.30,3713.9059389,N,13701.4605379,E,1,12,1.0,82.6183,M,37.55,M,,*53
[2021-02-22 15:02:16.790] $GPGGA,060216.40,3713.9059476,N,13701.4605111,E,1,12,1.0,82.6815,M,37.55,M,,*59
[2021-02-22 15:02:16.915] $GPGGA,060216.50,3713.9059716,N,13701.4605167,E,1,12,1.0,82.4429,M,37.55,M,,*5D
[2021-02-22 15:02:16.993] $GPGGA,060216.60,3713.9058901,N,13701.4605251,E,1,12,1.0,82.1493,M,37.55,M,,*55
[2021-02-22 15:02:17.118] $GPGGA,060216.70,3713.9059138,N,13701.4604916,E,1,12,1.0,82.5741,M,37.55,M,,*56
[2021-02-22 15:02:17.196] $GPGGA,060216.80,3713.9060390,N,13701.4604567,E,1,12,1.0,82.4882,M,37.55,M,,*58
[2021-02-22 15:02:17.321] $GPGGA,060216.90,3713.9060537,N,13701.4603957,E,1,12,1.0,82.8708,M,37.55,M,,*5B
[2021-02-22 15:02:17.399] $GPGGA,060217.00,3713.9060723,N,13701.4603984,E,1,12,1.0,83.0357,M,37.55,M,,*5D
[2021-02-22 15:02:17.524] $GPGGA,060217.10,3713.9060162,N,13701.4603970,E,1,12,1.0,82.7180,M,37.55,M,,*5A
[2021-02-22 15:02:17.618] $GPGGA,060217.20,3713.9073943,N,13701.4585061,E,5,08,1.9,92.9015,M,37.55,M,5,0000*65
[2021-02-22 15:02:17.727] $GPGGA,060217.30,3713.9074332,N,13701.4585891,E,5,08,1.9,93.0432,M,37.55,M,5,0000*61
[2021-02-22 15:02:17.805] $GPGGA,060217.40,3713.9074611,N,13701.4585380,E,5,08,1.9,93.1738,M,37.55,M,5,0000*61
[2021-02-22 15:02:17.930] $GPGGA,060217.50,3713.9074606,N,13701.4585995,E,5,08,1.9,93.1822,M,37.55,M,5,0000*6C
[2021-02-22 15:02:18.008] $GPGGA,060217.60,3713.9074901,N,13701.4585950,E,5,08,1.9,93.3370,M,37.55,M,5,0000*60
[2021-02-22 15:02:18.133] $GPGGA,060217.70,3713.9075149,N,13701.4585470,E,5,08,1.9,93.5114,M,37.55,M,5,0000*6D
[2021-02-22 15:02:18.211] $GPGGA,060217.80,3713.9075353,N,13701.4585313,E,5,08,1.9,93.5779,M,37.55,M,5,0000*64
[2021-02-22 15:02:18.321] $GPGGA,060217.90,3713.9075524,N,13701.4584979,E,5,08,1.9,93.7286,M,37.55,M,5,0000*63
[2021-02-22 15:02:18.430] $GPGGA,060218.00,3713.9075822,N,13701.4584936,E,5,08,1.9,93.8572,M,37.55,M,6,0000*65
[2021-02-22 15:02:18.524] $GPGGA,060218.10,3713.9075468,N,13701.4585045,E,5,08,1.9,93.8251,M,37.55,M,6,0000*6C
[2021-02-22 15:02:18.633] $GPGGA,060218.20,3713.9075289,N,13701.4585079,E,5,08,1.9,93.7938,M,37.55,M,1,0000*65
[2021-02-22 15:02:18.711] $GPGGA,060218.30,3713.9075125,N,13701.4585370,E,5,08,1.9,93.7375,M,37.55,M,1,0000*68
[2021-02-22 15:02:18.821] $GPGGA,060218.40,3713.9075094,N,13701.4585295,E,5,08,1.9,93.7211,M,37.55,M,1,0000*6D
[2021-02-22 15:02:18.914] $GPGGA,060218.50,3713.9074979,N,13701.4585406,E,5,08,1.9,93.6508,M,37.55,M,1,0000*65
[2021-02-22 15:02:19.039] $GPGGA,060218.60,3713.9074990,N,13701.4585597,E,5,08,1.9,93.6093,M,37.55,M,1,0000*6F
[2021-02-22 15:02:19.102] $GPGGA,060218.70,3713.9075017,N,13701.4585522,E,5,08,1.9,93.6038,M,37.55,M,1,0000*66
[2021-02-22 15:02:19.227] $GPGGA,060218.80,3713.9074968,N,13701.4585452,E,5,08,1.9,93.5673,M,37.55,M,1,0000*65
[2021-02-22 15:02:19.305] $GPGGA,060218.90,3713.9074924,N,13701.4585587,E,5,08,1.9,93.5534,M,37.55,M,1,0000*65
[2021-02-22 15:02:19.430] $GPGGA,060219.00,3713.9074862,N,13701.4585540,E,5,08,1.9,93.5488,M,37.55,M,2,0000*60
[2021-02-22 15:02:19.508] $GPGGA,060219.10,3713.9074004,N,13701.4586792,E,5,09,1.5,93.3251,M,37.55,M,2,0000*6E
[2021-02-22 15:02:19.633] $GPGGA,060219.20,3713.9073167,N,13701.4587936,E,5,09,1.5,93.1186,M,37.55,M,2,0000*64
[2021-02-22 15:02:19.711] $GPGGA,060219.30,3713.9072531,N,13701.4588847,E,5,09,1.5,92.9769,M,37.55,M,2,0000*65
[2021-02-22 15:02:19.836] $GPGGA,060219.40,3713.9072087,N,13701.4589584,E,5,09,1.5,92.8848,M,37.55,M,2,0000*64
[2021-02-22 15:02:19.914] $GPGGA,060219.50,3713.9071642,N,13701.4590133,E,5,09,1.5,92.7956,M,37.55,M,2,0000*68
[2021-02-22 15:02:20.024] $GPGGA,060219.60,3713.9071270,N,13701.4590618,E,5,09,1.5,92.7135,M,37.55,M,2,0000*6D
[2021-02-22 15:02:20.133] $GPGGA,060219.70,3713.9070951,N,13701.4590964,E,5,09,1.5,92.6554,M,37.55,M,2,0000*63
[2021-02-22 15:02:20.211] $GPGGA,060219.80,3713.9070697,N,13701.4591339,E,5,09,1.5,92.5935,M,37.55,M,2,0000*62
[2021-02-22 15:02:20.336] $GPGGA,060219.90,3713.9070384,N,13701.4591679,E,5,09,1.5,92.5049,M,37.55,M,2,0000*67
[2021-02-22 15:02:20.414] $GPGGA,060220.00,3713.9070248,N,13701.4591881,E,5,09,1.5,92.4788,M,37.55,M,3,0000*66
[2021-02-22 15:02:20.524] $GPGGA,060220.10,3713.9070224,N,13701.4592059,E,5,09,1.5,92.4840,M,37.55,M,3,0000*68
[2021-02-22 15:02:20.633] $GPGGA,060220.20,3713.9070174,N,13701.4592264,E,5,09,1.5,92.4649,M,37.55,M,3,0000*66
[2021-02-22 15:02:20.727] $GPGGA,060220.30,3713.9070139,N,13701.4592457,E,5,09,1.5,92.4461,M,37.55,M,3,0000*60
[2021-02-22 15:02:20.821] $GPGGA,060220.40,3713.9070099,N,13701.4592659,E,5,09,1.5,92.4018,M,37.55,M,3,0000*6A
[2021-02-22 15:02:20.930] $GPGGA,060220.50,3713.9070090,N,13701.4592838,E,5,09,1.5,92.3764,M,37.55,M,3,0000*60
[2021-02-22 15:02:21.008] $GPGGA,060220.60,3713.9070052,N,13701.4593010,E,5,09,1.5,92.3360,M,37.55,M,3,0000*6E
[2021-02-22 15:02:21.133] $GPGGA,060220.70,3713.9070010,N,13701.4593186,E,5,09,1.5,92.2928,M,37.55,M,3,0000*60
[2021-02-22 15:02:21.211] $GPGGA,060220.80,3713.9069957,N,13701.4593341,E,5,09,1.5,92.2386,M,37.55,M,3,0000*6A
[2021-02-22 15:02:21.336] $GPGGA,060220.90,3713.9069933,N,13701.4593458,E,5,09,1.5,92.2181,M,37.55,M,3,0000*63
[2021-02-22 15:02:21.414] $GPGGA,060221.00,3713.9069847,N,13701.4593599,E,5,09,1.5,92.1682,M,37.55,M,4,0000*65
[2021-02-22 15:02:21.524] $GPGGA,060221.10,3713.9069850,N,13701.4593775,E,5,09,1.5,92.1538,M,37.55,M,4,0000*60
[2021-02-22 15:02:21.602] $GPGGA,060221.20,3713.9069873,N,13701.4593969,E,5,09,1.5,92.1452,M,37.55,M,4,0000*6C
[2021-02-22 15:02:21.727] $GPGGA,060221.30,3713.9069843,N,13701.4594122,E,5,09,1.5,92.1496,M,37.55,M,4,0000*66
[2021-02-22 15:02:21.805] $GPGGA,060221.40,3713.9069778,N,13701.4594250,E,5,09,1.5,92.1377,M,37.55,M,4,0000*68
