
[2021-02-22 15:06:46.240] $GNGGA,060630.90,3713.90647385,N,13701.45974676,E,4,09,1.2,91.657,M,36.770,M,1.9,0979*63
[2021-02-22 15:06:46.271] $GNGGA,060631.00,3713.90647105,N,13701.45974407,E,4,09,1.2,91.659,M,36.770,M,1.0,0979*62
[2021-02-22 15:06:46.271] $GNGGA,060631.10,3713.90647430,N,13701.45974575,E,4,09,1.2,91.662,M,36.770,M,1.1,0979*6D
[2021-02-22 15:06:46.271] $GNGGA,060631.20,3713.90647503,N,13701.45974793,E,4,09,1.2,91.663,M,36.770,M,1.2,0979*67
[2021-02-22 15:06:46.271] $GNGGA,060631.30,3713.90647521,N,13701.45974609,E,4,09,1.2,91.666,M,36.770,M,1.3,0979*60
[2021-02-22 15:06:46.271] $GNGGA,060631.40,3713.90647376,N,13701.45974732,E,4,09,1.2,91.663,M,36.770,M,1.4,0979*68
[2021-02-22 15:06:46.271] $GNGGA,060631.50,3713.90647214,N,13701.45974714,E,4,09,1.2,91.661,M,36.770,M,1.5,0979*6B
[2021-02-22 15:06:46.271] $GNGGA,060631.60,3713.90647162,N,13701.45974435,E,4,09,1.2,91.671,M,36.770,M,1.6,0979*68
[2021-02-22 15:06:46.271] $GNGGA,060631.70,3713.90647137,N,13701.45974558,E,4,09,1.2,91.660,M,36.770,M,1.7,0979*62
[2021-02-22 15:06:46.271] $GNGGA,060631.80,3713.90647017,N,13701.45974145,E,4,09,1.2,91.667,M,36.770,M,1.8,0979*6E
[2021-02-22 15:06:46.271] $GNGGA,060631.90,3713.90647114,N,13701.45974313,E,4,09,1.2,91.666,M,36.770,M,1.9,0979*6C
[2021-02-22 15:06:46.271] $GNGGA,060632.00,3713.90646855,N,13701.45974451,E,4,09,1.2,91.668,M,36.770,M,2.0,0979*6E
[2021-02-22 15:06:46.271] $GNGGA,060632.10,3713.90647341,N,13701.45974724,E,4,09,1.2,91.649,M,36.770,M,1.1,0979*60
[2021-02-22 15:06:46.287] $GNGGA,060632.20,3713.90647050,N,13701.45974584,E,4,09,1.2,91.653,M,36.770,M,1.2,0979*60
[2021-02-22 15:06:46.287] $GNGGA,060632.30,3713.90647142,N,13701.45974621,E,4,09,1.2,91.649,M,36.770,M,1.3,0979*65
[2021-02-22 15:06:46.287] $GNGGA,060632.40,3713.90647051,N,13701.45974479,E,4,09,1.2,91.648,M,36.770,M,1.4,0979*68
[2021-02-22 15:06:46.287] $GNGGA,060632.50,3713.90646847,N,13701.45974545,E,4,09,1.2,91.659,M,36.770,M,1.5,0979*68
[2021-02-22 15:06:46.287] $GNGGA,060632.60,3713.90646972,N,13701.45974648,E,4,09,1.2,91.651,M,36.770,M,1.6,0979*69
[2021-02-22 15:06:46.287] $GNGGA,060632.70,3713.90647200,N,13701.45974505,E,4,09,1.2,91.648,M,36.770,M,1.7,0979*64
[2021-02-22 15:06:46.287] $GNGGA,060632.80,3713.90647332,N,13701.45974513,E,4,09,1.2,91.648,M,36.770,M,1.8,0979*63
[2021-02-22 15:06:46.287] $GNGGA,060632.90,3713.90646957,N,13701.45974705,E,4,09,1.2,91.656,M,36.770,M,1.9,0979*61
[2021-02-22 15:06:46.287] $GNGGA,060633.00,3713.90647433,N,13701.45974474,E,4,09,1.2,91.645,M,36.770,M,2.0,0979*6A
[2021-02-22 15:06:46.287] $GNGGA,060633.10,3713.90647303,N,13701.45974670,E,4,09,1.2,91.648,M,36.770,M,2.1,0979*65
[2021-02-22 15:06:46.287] $GNGGA,060633.20,3713.90647488,N,13701.45974437,E,4,09,1.2,91.660,M,36.770,M,1.2,0979*69
[2021-02-22 15:06:46.303] $GNGGA,060633.30,3713.90647667,N,13701.45974447,E,4,09,1.2,91.661,M,36.770,M,1.3,0979*6C
[2021-02-22 15:06:46.303] $GNGGA,060633.40,3713.90647579,N,13701.45974556,E,4,09,1.2,91.666,M,36.770,M,1.4,0979*66
[2021-02-22 15:06:46.303] $GNGGA,060633.50,3713.90647654,N,13701.45974504,E,4,09,1.2,91.665,M,36.770,M,1.5,0979*6E
[2021-02-22 15:06:46.303] $GNGGA,060633.60,3713.90647929,N,13701.45974611,E,4,09,1.2,91.660,M,36.770,M,1.6,0979*69
[2021-02-22 15:06:46.303] $GNGGA,060633.70,3713.90648091,N,13701.45974557,E,4,09,1.2,91.665,M,36.770,M,1.7,0979*68
[2021-02-22 15:06:46.303] $GNGGA,060633.80,3713.90648017,N,13701.45974531,E,4,09,1.2,91.659,M,36.770,M,1.8,0979*69
[2021-02-22 15:06:46.303] $GNGGA,060633.90,3713.90647933,N,13701.45974920,E,4,09,1.2,91.654,M,36.770,M,0.9,0979*69
[2021-02-22 15:06:46.303] $GNGGA,060634.00,3713.90647935,N,13701.45974938,E,4,09,1.2,91.658,M,36.770,M,1.0,0979*6C
[2021-02-22 15:06:46.303] $GNGGA,060634.10,3713.90647941,N,13701.45974970,E,4,09,1.2,91.658,M,36.770,M,1.1,0979*63
[2021-02-22 15:06:46.303] $GNGGA,060634.20,3713.90647865,N,13701.45974906,E,4,09,1.2,91.657,M,36.770,M,1.2,0979*6A
[2021-02-22 15:06:46.303] $GNGGA,060634.30,3713.90647996,N,13701.45974896,E,4,09,1.2,91.653,M,36.770,M,1.3,0979*6B
[2021-02-22 15:06:46.318] $GNGGA,060634.40,3713.90647932,N,13701.45974815,E,4,09,1.2,91.656,M,36.770,M,1.4,0979*6B
[2021-02-22 15:06:46.318] $GNGGA,060634.50,3713.90647861,N,13701.45974836,E,4,09,1.2,91.659,M,36.770,M,1.5,0979*62
[2021-02-22 15:06:46.318] $GNGGA,060634.60,3713.90647901,N,13701.45974714,E,4,09,1.2,91.659,M,36.770,M,1.6,0979*6A
[2021-02-22 15:06:46.318] $GNGGA,060634.70,3713.90647745,N,13701.45974566,E,4,09,1.2,91.657,M,36.770,M,1.7,0979*6D
[2021-02-22 15:06:46.318] $GNGGA,060634.80,3713.90647846,N,13701.45974764,E,4,09,1.2,91.659,M,36.770,M,1.8,0979*6F
[2021-02-22 15:06:46.318] $GNGGA,060634.90,3713.90647922,N,13701.45974795,E,4,09,1.2,91.657,M,36.770,M,1.9,0979*6C
[2021-02-22 15:06:46.318] $GNGGA,060635.00,3713.90648020,N,13701.45974781,E,4,09,1.2,91.657,M,36.770,M,2.0,0979*6F
[2021-02-22 15:06:46.318] $GNGGA,060635.10,3713.90648041,N,13701.45975000,E,4,09,1.2,91.654,M,36.770,M,1.1,0979*67
[2021-02-22 15:06:46.318] $GNGGA,060635.20,3713.90648108,N,13701.45974921,E,4,09,1.2,91.667,M,36.770,M,1.2,0979*60
[2021-02-22 15:06:46.318] $GNGGA,060635.30,3713.90648047,N,13701.45974908,E,4,09,1.2,91.656,M,36.770,M,1.3,0979*63
[2021-02-22 15:06:46.318] $GNGGA,060635.40,3713.90647965,N,13701.45975120,E,4,09,1.2,91.661,M,36.770,M,1.4,0979*62
[2021-02-22 15:06:46.318] $GNGGA,060635.50,3713.90647860,N,13701.45975297,E,4,09,1.2,91.651,M,36.770,M,1.5,0979*6A
[2021-02-22 15:06:46.334] $GNGGA,060635.60,3713.90647872,N,13701.45975141,E,4,09,1.2,91.656,M,36.770,M,1.6,0979*66
[2021-02-22 15:06:46.334] $GNGGA,060635.70,3713.90647711,N,13701.45974883,E,4,09,1.2,91.656,M,36.770,M,1.7,0979*6A
[2021-02-22 15:06:46.334] $GNGGA,060635.80,3713.90647737,N,13701.45974898,E,4,09,1.2,91.658,M,36.770,M,1.8,0979*6A
[2021-02-22 15:06:46.334] $GNGGA,060635.90,3713.90647727,N,13701.45974898,E,4,09,1.2,91.655,M,36.770,M,1.9,0979*66
[2021-02-22 15:06:46.334] $GNGGA,060636.00,3713.90647685,N,13701.45974909,E,4,09,1.2,91.663,M,36.770,M,2.0,0979*63
[2021-02-22 15:06:46.334] $GNGGA,060636.10,3713.90647506,N,13701.45974935,E,4,09,1.2,91.651,M,36.770,M,1.1,0979*66
[2021-02-22 15:06:46.334] $GNGGA,060636.20,3713.90647549,N,13701.45974908,E,4,09,1.2,91.649,M,36.770,M,1.2,0979*6A
[2021-02-22 15:06:46.334] $GNGGA,060636.30,3713.90647487,N,13701.45974939,E,4,09,1.2,91.653,M,36.770,M,1.3,0979*60
[2021-02-22 15:06:46.334] $GNGGA,060636.40,3713.90647332,N,13701.45975114,E,4,09,1.2,91.654,M,36.770,M,1.4,0979*68
[2021-02-22 15:06:46.334] $GNGGA,060636.50,3713.90646967,N,13701.45974870,E,4,09,1.2,91.655,M,36.770,M,1.5,0979*68
[2021-02-22 15:06:46.334] $GNGGA,060636.60,3713.90647174,N,13701.45975102,E,4,09,1.2,91.653,M,36.770,M,1.6,0979*68
[2021-02-22 15:06:46.349] $GNGGA,060636.70,3713.90647208,N,13701.45975047,E,4,09,1.2,91.651,M,36.770,M,1.7,0979*62
[2021-02-22 15:06:46.349] $GNGGA,060636.80,3713.90647450,N,13701.45975023,E,4,09,1.2,91.657,M,36.770,M,1.8,0979*6D
[2021-02-22 15:06:46.349] $GNGGA,060636.90,3713.90647674,N,13701.45974886,E,4,09,1.2,91.653,M,36.770,M,1.9,0979*6B
[2021-02-22 15:06:46.349] $GNGGA,060637.00,3713.90647719,N,13701.45975125,E,4,09,1.2,91.651,M,36.770,M,1.0,0979*63
[2021-02-22 15:06:46.349] $GNGGA,060637.10,3713.90647873,N,13701.45975075,E,4,09,1.2,91.648,M,36.770,M,1.1,0979*6C
[2021-02-22 15:06:46.349] $GNGGA,060637.20,3713.90647569,N,13701.45975148,E,4,09,1.2,91.650,M,36.770,M,1.2,0979*6C
[2021-02-22 15:06:46.349] $GNGGA,060637.30,3713.90647711,N,13701.45975288,E,4,09,1.2,91.651,M,36.770,M,1.3,0979*6F
[2021-02-22 15:06:46.349] $GNGGA,060637.40,3713.90647920,N,13701.45975475,E,4,09,1.2,91.647,M,36.770,M,1.4,0979*60
[2021-02-22 15:06:46.349] $GNGGA,060637.50,3713.90647747,N,13701.45975127,E,4,09,1.2,91.655,M,36.770,M,1.5,0979*6E
[2021-02-22 15:06:46.349] $GNGGA,060637.60,3713.90647938,N,13701.45975163,E,4,09,1.2,91.650,M,36.770,M,1.6,0979*6D
[2021-02-22 15:06:46.349] $GNGGA,060637.70,3713.90648431,N,13701.45975212,E,4,09,1.2,91.648,M,36.770,M,1.7,0979*6A
[2021-02-22 15:06:46.365] $GNGGA,060637.80,3713.90648484,N,13701.45975087,E,4,09,1.2,91.647,M,36.770,M,1.8,0979*65
[2021-02-22 15:06:46.365] $GNGGA,060637.90,3713.90648202,N,13701.45975426,E,4,09,1.2,91.646,M,36.770,M,1.9,0979*63
[2021-02-22 15:06:46.365] $GNGGA,060638.00,3713.90648281,N,13701.45975397,E,4,09,1.2,91.646,M,36.770,M,1.0,0979*6A
[2021-02-22 15:06:46.365] $GNGGA,060638.10,3713.90648123,N,13701.45975310,E,4,09,1.2,91.654,M,36.770,M,1.1,0979*6D
[2021-02-22 15:06:46.365] $GNGGA,060638.20,3713.90648294,N,13701.45975582,E,4,09,1.2,91.650,M,36.770,M,1.2,0979*6B
[2021-02-22 15:06:46.365] $GNGGA,060638.30,3713.90648452,N,13701.45975586,E,4,09,1.2,91.647,M,36.770,M,1.3,0979*65
[2021-02-22 15:06:46.365] $GNGGA,060638.40,3713.90648352,N,13701.45975630,E,4,09,1.2,91.645,M,36.770,M,1.4,0979*6E
[2021-02-22 15:06:46.365] $GNGGA,060638.50,3713.90648602,N,13701.45975601,E,4,09,1.2,91.646,M,36.770,M,1.5,0979*6F
[2021-02-22 15:06:46.365] $GNGGA,060638.60,3713.90648496,N,13701.45975626,E,4,09,1.2,91.645,M,36.770,M,1.6,0979*66
[2021-02-22 15:06:46.365] $GNGGA,060638.70,3713.90648505,N,13701.45975735,E,4,09,1.2,91.641,M,36.770,M,1.7,0979*6A
[2021-02-22 15:06:46.365] $GNGGA,060638.80,3713.90648262,N,13701.45975689,E,4,09,1.2,91.645,M,36.770,M,1.8,0979*6E
[2021-02-22 15:06:46.381] $GNGGA,060638.90,3713.90648309,N,13701.45975630,E,4,09,1.2,91.647,M,36.770,M,1.9,0979*62
[2021-02-22 15:06:46.381] $GNGGA,060639.00,3713.90648217,N,13701.45975572,E,4,09,1.2,91.635,M,36.770,M,1.0,0979*6D
[2021-02-22 15:06:46.381] $GNGGA,060639.10,3713.90648159,N,13701.45975505,E,4,09,1.2,91.641,M,36.770,M,1.1,0979*67
[2021-02-22 15:06:46.381] $GNGGA,060639.20,3713.90648130,N,13701.45975580,E,4,09,1.2,91.644,M,36.770,M,1.2,0979*60
[2021-02-22 15:06:46.381] $GNGGA,060639.30,3713.90648323,N,13701.45975414,E,4,09,1.2,91.635,M,36.770,M,1.3,0979*6A
[2021-02-22 15:06:46.381] $GNGGA,060639.40,3713.90648327,N,13701.45975454,E,4,09,1.2,91.634,M,36.770,M,1.4,0979*6B
[2021-02-22 15:06:46.381] $GNGGA,060639.50,3713.90648396,N,13701.45975428,E,4,09,1.2,91.642,M,36.770,M,1.5,0979*6B
[2021-02-22 15:06:46.381] $GNGGA,060639.60,3713.90648583,N,13701.45975581,E,4,09,1.2,91.641,M,36.770,M,1.6,0979*68
[2021-02-22 15:06:46.381] $GNGGA,060639.70,3713.90648342,N,13701.45975498,E,4,09,1.2,91.641,M,36.770,M,1.7,0979*6A
[2021-02-22 15:06:46.381] $GNGGA,060639.80,3713.90648674,N,13701.45975866,E,4,09,1.2,91.635,M,36.770,M,1.8,0979*64
[2021-02-22 15:06:46.381] $GNGGA,060639.90,3713.90648811,N,13701.45975996,E,4,09,1.2,91.634,M,36.770,M,1.9,0979*66
[2021-02-22 15:06:46.381] $GNGGA,060640.00,3713.90648563,N,13701.45975810,E,4,09,1.2,91.635,M,36.770,M,2.0,0979*6D
[2021-02-22 15:06:46.381] $GNGGA,060640.10,3713.90648651,N,13701.45975992,E,4,09,1.2,91.638,M,36.770,M,2.1,0979*69
[2021-02-22 15:06:46.381] $GNGGA,060640.20,3713.90648677,N,13701.45975509,E,4,09,1.2,91.641,M,36.770,M,1.2,0979*6E
[2021-02-22 15:06:46.381] $GNGGA,060640.30,3713.90648569,N,13701.45975436,E,4,09,1.2,91.651,M,36.770,M,1.3,0979*6E
[2021-02-22 15:06:46.381] $GNGGA,060640.40,3713.90648801,N,13701.45975454,E,4,09,1.2,91.646,M,36.770,M
[2021-02-22 15:06:46.381] $GNGGA,060645.90,3713.90649380,N,13701.45976278,E,4,09,1.2,91.647,M,36.770,M,1.9,0979*63
[2021-02-22 15:06:46.428] $GNGGA,060646.00,3713.90649193,N,13701.45975876,E,4,09,1.2,91.653,M,36.770,M,1.0,0979*62
[2021-02-22 15:06:46.521] $GNGGA,060646.10,3713.90649229,N,13701.45975731,E,4,09,1.2,91.650,M,36.770,M,1.1,0979*6F
[2021-02-22 15:06:46.631] $GNGGA,060646.20,3713.90649157,N,13701.45975795,E,4,09,1.2,91.651,M,36.770,M,1.2,0979*6A
[2021-02-22 15:06:46.724] $GNGGA,060646.30,3713.90649255,N,13701.45975852,E,4,09,1.2,91.657,M,36.770,M,1.3,0979*69
[2021-02-22 15:06:46.834] $GNGGA,060646.40,3713.90649029,N,13701.45975647,E,4,09,1.2,91.652,M,36.770,M,1.4,0979*6F
[2021-02-22 15:06:46.928] $GNGGA,060646.50,3713.90649152,N,13701.45975738,E,4,09,1.2,91.657,M,36.770,M,1.5,0979*6E
[2021-02-22 15:06:47.021] $GNGGA,060646.60,3713.90649161,N,13701.45975853,E,4,09,1.2,91.647,M,36.770,M,1.6,0979*6D
[2021-02-22 15:06:47.115] $GNGGA,060646.70,3713.90649088,N,13701.45975759,E,4,09,1.2,91.651,M,36.770,M,1.7,0979*69
[2021-02-22 15:06:47.224] $GNGGA,060646.80,3713.90649097,N,13701.45975576,E,4,09,1.2,91.652,M,36.770,M,1.8,0979*6B
[2021-02-22 15:06:47.318] $GNGGA,060646.90,3713.90648991,N,13701.45975625,E,4,09,1.2,91.649,M,36.770,M,0.9,0979*6B
[2021-02-22 15:06:47.428] $GNGGA,060647.00,3713.90649091,N,13701.45975646,E,4,09,1.2,91.648,M,36.770,M,1.0,0979*67
[2021-02-22 15:06:47.521] $GNGGA,060647.10,3713.90649119,N,13701.45975696,E,4,09,1.2,91.651,M,36.770,M,1.1,0979*63
[2021-02-22 15:06:47.631] $GNGGA,060647.20,3713.90649063,N,13701.45975710,E,4,09,1.2,91.655,M,36.770,M,1.2,0979*64
[2021-02-22 15:06:47.724] $GNGGA,060647.30,3713.90649193,N,13701.45975713,E,4,09,1.2,91.652,M,36.770,M,1.3,0979*6E
[2021-02-22 15:06:47.834] $GNGGA,060647.40,3713.90649118,N,13701.45975864,E,4,09,1.2,91.654,M,36.770,M,1.4,0979*64
[2021-02-22 15:06:47.927] $GNGGA,060647.50,3713.90649051,N,13701.45976131,E,4,09,1.2,91.651,M,36.770,M,1.5,0979*67
[2021-02-22 15:06:48.021] $GNGGA,060647.60,3713.90648868,N,13701.45976121,E,4,09,1.2,91.652,M,36.770,M,1.6,0979*66
[2021-02-22 15:06:48.115] $GNGGA,060647.70,3713.90649044,N,13701.45976012,E,4,09,1.2,91.659,M,36.770,M,1.7,0979*6B
[2021-02-22 15:06:48.224] $GNGGA,060647.80,3713.90649085,N,13701.45976005,E,4,09,1.2,91.652,M,36.770,M,1.8,0979*6B
[2021-02-22 15:06:48.318] $GNGGA,060647.90,3713.90648814,N,13701.45975978,E,4,09,1.2,91.656,M,36.770,M,1.9,0979*6E
[2021-02-22 15:06:48.427] $GNGGA,060648.00,3713.90648883,N,13701.45975856,E,4,09,1.2,91.653,M,36.770,M,2.0,0979*64
[2021-02-22 15:06:48.521] $GNGGA,060648.10,3713.90649048,N,13701.45975970,E,4,09,1.2,91.650,M,36.770,M,2.1,0979*6C
[2021-02-22 15:06:48.631] $GNGGA,060648.20,3713.90649326,N,13701.45976065,E,4,09,1.2,91.646,M,36.770,M,1.2,0979*6D
[2021-02-22 15:06:48.724] $GNGGA,060648.30,3713.90649378,N,13701.45976365,E,4,09,1.2,91.639,M,36.770,M,1.3,0979*6D
[2021-02-22 15:06:48.834] $GNGGA,060648.40,3713.90649564,N,13701.45976456,E,4,09,1.2,91.643,M,36.770,M,1.4,0979*6C
[2021-02-22 15:06:48.927] $GNGGA,060648.50,3713.90649436,N,13701.45976554,E,4,09,1.2,91.643,M,36.770,M,1.5,0979*69
[2021-02-22 15:06:49.037] $GNGGA,060648.60,3713.90649105,N,13701.45976852,E,4,09,1.2,91.648,M,36.770,M,1.6,0979*6C
[2021-02-22 15:06:49.115] $GNGGA,060648.70,3713.90649265,N,13701.45976827,E,4,09,1.2,91.635,M,36.770,M,1.7,0979*61
[2021-02-22 15:06:49.224] $GNGGA,060648.80,3713.90649315,N,13701.45977019,E,4,09,1.2,91.637,M,36.770,M,1.8,0979*61
[2021-02-22 15:06:49.318] $GNGGA,060648.90,3713.90649445,N,13701.45976921,E,4,09,1.2,91.639,M,36.770,M,1.9,0979*6E
[2021-02-22 15:06:49.427] $GNGGA,060649.00,3713.90649734,N,13701.45977084,E,4,09,1.2,91.628,M,36.770,M,1.0,0979*6D
[2021-02-22 15:06:49.521] $GNGGA,060649.10,3713.90649546,N,13701.45977090,E,4,09,1.2,91.627,M,36.770,M,1.1,0979*60
[2021-02-22 15:06:49.630] $GNGGA,060649.20,3713.90649650,N,13701.45977329,E,4,09,1.2,91.629,M,36.770,M,1.2,0979*6B
[2021-02-22 15:06:49.724] $GNGGA,060649.30,3713.90649618,N,13701.45977047,E,4,09,1.2,91.626,M,36.770,M,1.3,0979*63
[2021-02-22 15:06:49.834] $GNGGA,060649.40,3713.90649219,N,13701.45977214,E,4,09,1.2,91.624,M,36.770,M,1.4,0979*60
[2021-02-22 15:06:49.927] $GNGGA,060649.50,3713.90649473,N,13701.45977120,E,4,09,1.2,91.633,M,36.770,M,1.5,0979*68
[2021-02-22 15:06:50.037] $GNGGA,060649.60,3713.90649507,N,13701.45977221,E,4,09,1.2,91.625,M,36.770,M,1.6,0979*6F
[2021-02-22 15:06:50.115] $GNGGA,060649.70,3713.90649350,N,13701.45977199,E,4,09,1.2,91.627,M,36.770,M,1.7,0979*69
[2021-02-22 15:06:50.224] $GNGGA,060649.80,3713.90649370,N,13701.45976929,E,4,09,1.2,91.630,M,36.770,M,1.8,0979*6F
[2021-02-22 15:06:50.318] $GNGGA,060649.90,3713.90649335,N,13701.45976978,E,4,09,1.2,91.627,M,36.770,M,1.9,0979*6C
[2021-02-22 15:06:50.427] $GNGGA,060650.00,3713.90649055,N,13701.45976858,E,4,09,1.2,91.632,M,36.770,M,1.0,0979*66
[2021-02-22 15:06:50.521] $GNGGA,060650.10,3713.90648968,N,13701.45976945,E,4,09,1.2,91.630,M,36.770,M,1.1,0979*6F
[2021-02-22 15:06:50.630] $GNGGA,060650.20,3713.90649008,N,13701.45976977,E,4,09,1.2,91.630,M,36.770,M,1.2,0979*60
[2021-02-22 15:06:50.724] $GNGGA,060650.30,3713.90649020,N,13701.45977070,E,4,09,1.2,91.623,M,36.770,M,1.3,0979*67
[2021-02-22 15:06:50.833] $GNGGA,060650.40,3713.90649029,N,13701.45976741,E,4,09,1.2,91.621,M,36.770,M,1.4,0979*68
[2021-02-22 15:06:50.927] $GNGGA,060650.50,3713.90649322,N,13701.45976974,E,4,09,1.2,91.631,M,36.770,M,1.5,0979*69
[2021-02-22 15:06:51.021] $GNGGA,060650.60,3713.90649084,N,13701.45976827,E,4,09,1.2,91.629,M,36.770,M,1.6,0979*68
[2021-02-22 15:06:51.115] $GNGGA,060650.70,3713.90649278,N,13701.45976932,E,4,09,1.2,91.629,M,36.770,M,1.7,0979*6C
[2021-02-22 15:06:51.224] $GNGGA,060650.80,3713.90649147,N,13701.45977065,E,4,09,1.2,91.625,M,36.770,M,1.8,0979*65
[2021-02-22 15:06:51.318] $GNGGA,060650.90,3713.90649261,N,13701.45976844,E,4,09,1.2,91.626,M,36.770,M,1.9,0979*6B
[2021-02-22 15:06:51.427] $GNGGA,060651.00,3713.90649187,N,13701.45977038,E,4,09,1.2,91.630,M,36.770,M,2.0,0979*67
[2021-02-22 15:06:51.521] $GNGGA,060651.10,3713.90649329,N,13701.45976775,E,4,09,1.2,91.627,M,36.770,M,1.1,0979*6B
[2021-02-22 15:06:51.630] $GNGGA,060651.20,3713.90649678,N,13701.45976690,E,4,09,1.2,91.627,M,36.770,M,1.2,0979*60
[2021-02-22 15:06:51.724] $GNGGA,060651.30,3713.90649542,N,13701.45976870,E,4,09,1.2,91.629,M,36.770,M,1.3,0979*64
[2021-02-22 15:06:51.833] $GNGGA,060651.40,3713.90649593,N,13701.45976777,E,4,09,1.2,91.626,M,36.770,M,1.4,0979*6F
[2021-02-22 15:06:51.927] $GNGGA,060651.50,3713.90649501,N,13701.45976903,E,4,09,1.2,91.620,M,36.770,M,1.5,0979*6F
[2021-02-22 15:06:52.021] $GNGGA,060651.60,3713.90649644,N,13701.45976940,E,4,09,1.2,91.625,M,36.770,M,1.6,0979*6F
[2021-02-22 15:06:52.115] $GNGGA,060651.70,3713.90649375,N,13701.45976936,E,4,09,1.2,91.623,M,36.770,M,1.7,0979*6F
[2021-02-22 15:06:52.224] $GNGGA,060651.80,3713.90649618,N,13701.45977041,E,4,09,1.2,91.626,M,36.770,M,1.8,0979*6C
[2021-02-22 15:06:52.318] $GNGGA,060651.90,3713.90649622,N,13701.45977078,E,4,09,1.2,91.629,M,36.770,M,1.9,0979*60
[2021-02-22 15:06:52.443] $GNGGA,060652.00,3713.90649596,N,13701.45977102,E,4,09,1.2,91.626,M,36.770,M,2.0,0979*6F
[2021-02-22 15:06:52.505] $GNGGA,060652.10,3713.90649768,N,13701.45977136,E,4,09,1.2,91.633,M,36.770,M,1.1,0979*6C
[2021-02-22 15:06:52.630] $GNGGA,060652.20,3713.90649661,N,13701.45977120,E,4,09,1.2,91.629,M,36.770,M,1.2,0979*68
[2021-02-22 15:06:52.724] $GNGGA,060652.30,3713.90649957,N,13701.45977298,E,4,09,1.2,91.629,M,36.770,M,1.3,0979*62
[2021-02-22 15:06:52.833] $GNGGA,060652.40,3713.90649742,N,13701.45977253,E,4,09,1.2,91.631,M,36.770,M,1.4,0979*66
[2021-02-22 15:06:52.927] $GNGGA,060652.50,3713.90649622,N,13701.45977334,E,4,09,1.2,91.632,M,36.770,M,1.5,0979*62
[2021-02-22 15:06:53.021] $GNGGA,060652.60,3713.90649739,N,13701.45977405,E,4,09,1.2,91.631,M,36.770,M,1.6,0979*6F
[2021-02-22 15:06:53.115] $GNGGA,060652.70,3713.90649514,N,13701.45977265,E,4,09,1.2,91.627,M,36.770,M,1.7,0979*65
[2021-02-22 15:06:53.224] $GNGGA,060652.80,3713.90649780,N,13701.45977412,E,4,09,1.2,91.624,M,36.770,M,1.8,0979*6F
[2021-02-22 15:06:53.302] $GNGGA,060652.90,3713.90649944,N,13701.45977423,E,4,09,1.2,91.621,M,36.770,M,1.9,0979*6E
[2021-02-22 15:06:53.427] $GNGGA,060653.00,3713.90650161,N,13701.45977035,E,4,09,1.2,91.628,M,36.770,M,1.0,0979*62
[2021-02-22 15:06:53.521] $GNGGA,060653.10,3713.90650180,N,13701.45977024,E,4,09,1.2,91.633,M,36.770,M,1.1,0979*67
[2021-02-22 15:06:53.630] $GNGGA,060653.20,3713.90649894,N,13701.45977023,E,4,09,1.2,91.633,M,36.770,M,1.2,0979*64
[2021-02-22 15:06:53.724] $GNGGA,060653.30,3713.90649998,N,13701.45977275,E,4,09,1.2,91.630,M,36.770,M,1.3,0979*6B
[2021-02-22 15:06:53.833] $GNGGA,060653.40,3713.90649925,N,13701.45977075,E,4,09,1.2,91.625,M,36.770,M,1.4,0979*6B
[2021-02-22 15:06:53.927] $GNGGA,060653.50,3713.90649920,N,13701.45977262,E,4,09,1.2,91.630,M,36.770,M,1.5,0979*6E
[2021-02-22 15:06:54.021] $GNGGA,060653.60,3713.90649591,N,13701.45977082,E,4,09,1.2,91.635,M,36.770,M,1.6,0979*61
[2021-02-22 15:06:54.115] $GNGGA,060653.70,3713.90649850,N,13701.45977088,E,4,09,1.2,91.627,M,36.770,M,1.7,0979*68
[2021-02-22 15:06:54.224] $GNGGA,060653.80,3713.90649662,N,13701.45976949,E,4,09,1.2,91.628,M,36.770,M,1.8,0979*6D
[2021-02-22 15:06:54.318] $GNGGA,060653.90,3713.90649684,N,13701.45976849,E,4,09,1.2,91.629,M,36.770,M,1.9,0979*65
[2021-02-22 15:06:54.427] $GNGGA,060654.00,3713.90649712,N,13701.45977082,E,4,09,1.2,91.626,M,36.770,M,1.0,0979*6D
[2021-02-22 15:06:54.521] $GNGGA,060654.10,3713.90649597,N,13701.45977008,E,4,09,1.2,91.630,M,36.770,M,1.1,0979*67
[2021-02-22 15:06:54.630] $GNGGA,060654.20,3713.90649696,N,13701.45976957,E,4,09,1.2,91.629,M,36.770,M,1.2,0979*6F
[2021-02-22 15:06:54.724] $GNGGA,060654.30,3713.90649550,N,13701.45977077,E,4,09,1.2,91.630,M,36.770,M,1.3,0979*64
[2021-02-22 15:06:54.833] $GNGGA,060654.40,3713.90649590,N,13701.45977329,E,4,09,1.2,91.628,M,36.770,M,1.4,0979*69
[2021-02-22 15:06:54.927] $GNGGA,060654.50,3713.90649550,N,13701.45977043,E,4,09,1.2,91.630,M,36.770,M,1.5,0979*63
[2021-02-22 15:06:55.021] $GNGGA,060654.60,3713.90649366,N,13701.45977315,E,4,09,1.2,91.636,M,36.770,M,1.6,0979*66
[2021-02-22 15:06:55.114] $GNGGA,060654.70,3713.90649772,N,13701.45977325,E,4,09,1.2,91.631,M,36.770,M,1.7,0979*63
[2021-02-22 15:06:55.224] $GNGGA,060654.80,3713.90649789,N,13701.45977265,E,4,09,1.2,91.625,M,36.770,M,1.8,0979*67
[2021-02-22 15:06:55.318] $GNGGA,060654.90,3713.90649924,N,13701.45977255,E,4,09,1.2,91.630,M,36.770,M,0.9,0979*68
[2021-02-22 15:06:55.427] $GNGGA,060655.00,3713.90649865,N,13701.45977340,E,4,09,1.2,91.635,M,36.770,M,1.0,0979*6C
[2021-02-22 15:06:55.521] $GNGGA,060655.10,3713.90649799,N,13701.45977517,E,4,09,1.2,91.627,M,36.770,M,1.1,0979*67
[2021-02-22 15:06:55.630] $GNGGA,060655.20,3713.90649857,N,13701.45977521,E,4,09,1.2,91.634,M,36.770,M,1.2,0979*6D
[2021-02-22 15:06:55.724] $GNGGA,060655.30,3713.90650022,N,13701.45977556,E,4,09,1.2,91.637,M,36.770,M,1.3,0979*6C
[2021-02-22 15:06:55.833] $GNGGA,060655.40,3713.90649837,N,13701.45977547,E,4,09,1.2,91.632,M,36.770,M,1.4,0979*6D
[2021-02-22 15:06:55.927] $GNGGA,060655.50,3713.90649889,N,13701.45977458,E,4,09,1.2,91.630,M,36.770,M,1.5,0979*65
[2021-02-22 15:06:56.021] $GNGGA,060655.60,3713.90649985,N,13701.45977350,E,4,09,1.2,91.636,M,36.770,M,1.6,0979*61
[2021-02-22 15:06:56.114] $GNGGA,060655.70,3713.90649951,N,13701.45977532,E,4,09,1.2,91.631,M,36.770,M,1.7,0979*6D
[2021-02-22 15:06:56.224] $GNGGA,060655.80,3713.90649833,N,13701.45977506,E,4,09,1.2,91.624,M,36.770,M,1.8,0979*6B
[2021-02-22 15:06:56.318] $GNGGA,060655.90,3713.90649887,N,13701.45977495,E,4,09,1.2,91.641,M,36.770,M,0.9,0979*6D
[2021-02-22 15:06:56.427] $GNGGA,060656.00,3713.90649737,N,13701.45977277,E,4,09,1.2,91.635,M,36.770,M,1.0,0979*62
[2021-02-22 15:06:56.521] $GNGGA,060656.10,3713.90650116,N,13701.45977157,E,4,09,1.2,91.640,M,36.770,M,1.1,0979*6C
[2021-02-22 15:06:56.630] $GNGGA,060656.20,3713.90649827,N,13701.45977294,E,4,09,1.2,91.639,M,36.770,M,1.2,0979*6D
[2021-02-22 15:06:56.724] $GNGGA,060656.30,3713.90649844,N,13701.45977431,E,4,09,1.2,91.649,M,36.770,M,1.3,0979*66
[2021-02-22 15:06:56.833] $GNGGA,060656.40,3713.90649939,N,13701.45977518,E,4,09,1.2,91.638,M,36.770,M,1.4,0979*61
[2021-02-22 15:06:56.927] $GNGGA,060656.50,3713.90649951,N,13701.45977152,E,4,09,1.2,91.632,M,36.770,M,1.5,0979*6F
[2021-02-22 15:06:57.021] $GNGGA,060656.60,3713.90649660,N,13701.45977339,E,4,09,1.2,91.647,M,36.770,M,1.6,0979*6F
[2021-02-22 15:06:57.130] $GNGGA,060656.70,3713.90649899,N,13701.45977431,E,4,09,1.2,91.641,M,36.770,M,1.7,0979*6E
[2021-02-22 15:06:57.224] $GNGGA,060656.80,3713.90649889,N,13701.45977446,E,4,09,1.2,91.643,M,36.770,M,1.8,0979*6D
[2021-02-22 15:06:57.317] $GNGGA,060656.90,3713.90649725,N,13701.45977225,E,4,09,1.2,91.630,M,36.770,M,1.9,0979*63
[2021-02-22 15:06:57.427] $GNGGA,060657.00,3713.90649782,N,13701.45977298,E,4,09,1.2,91.642,M,36.770,M,2.0,0979*6F
[2021-02-22 15:06:57.521] $GNGGA,060657.10,3713.90649774,N,13701.45977319,E,4,09,1.2,91.640,M,36.770,M,2.1,0979*6C
[2021-02-22 15:06:57.630] $GNGGA,060657.20,3713.90649599,N,13701.45977318,E,4,09,1.2,91.638,M,36.770,M,1.2,0979*60
[2021-02-22 15:06:57.724] $GNGGA,060657.30,3713.90649530,N,13701.45977370,E,4,09,1.2,91.634,M,36.770,M,1.3,0979*61
[2021-02-22 15:06:57.833] $GNGGA,060657.40,3713.90649689,N,13701.45976917,E,4,09,1.2,91.637,M,36.770,M,1.4,0979*69
[2021-02-22 15:06:57.927] $GNGGA,060657.50,3713.90649635,N,13701.45977261,E,4,09,1.2,91.638,M,36.770,M,1.5,0979*6A
[2021-02-22 15:06:58.020] $GNGGA,060657.60,3713.90649768,N,13701.45977236,E,4,09,1.2,91.637,M,36.770,M,1.6,0979*6E
[2021-02-22 15:06:58.114] $GNGGA,060657.70,3713.90649825,N,13701.45977165,E,4,09,1.2,91.642,M,36.770,M,1.7,0979*6F
[2021-02-22 15:06:58.224] $GNGGA,060657.80,3713.90650078,N,13701.45977355,E,4,09,1.2,91.630,M,36.770,M,1.8,0979*63
[2021-02-22 15:06:58.317] $GNGGA,060657.90,3713.90650333,N,13701.45977086,E,4,09,1.2,91.635,M,36.770,M,1.9,0979*67
[2021-02-22 15:06:58.427] $GNGGA,060658.00,3713.90650290,N,13701.45977319,E,4,09,1.2,91.641,M,36.770,M,2.0,0979*65
[2021-02-22 15:06:58.520] $GNGGA,060658.10,3713.90650072,N,13701.45977467,E,4,09,1.2,91.639,M,36.770,M,1.1,0979*69
[2021-02-22 15:06:58.630] $GNGGA,060658.20,3713.90649884,N,13701.45977369,E,4,09,1.2,91.646,M,36.770,M,1.2,0979*61
[2021-02-22 15:06:58.724] $GNGGA,060658.30,3713.90649959,N,13701.45977497,E,4,09,1.2,91.646,M,36.770,M,1.3,0979*66
[2021-02-22 15:06:58.833] $GNGGA,060658.40,3713.90649977,N,13701.45977530,E,4,09,1.2,91.639,M,36.770,M,1.4,0979*6E
[2021-02-22 15:06:58.927] $GNGGA,060658.50,3713.90649994,N,13701.45977418,E,4,09,1.2,91.645,M,36.770,M,1.5,0979*63
[2021-02-22 15:06:59.036] $GNGGA,060658.60,3713.90650141,N,13701.45977564,E,4,09,1.2,91.635,M,36.770,M,1.6,0979*66
[2021-02-22 15:06:59.114] $GNGGA,060658.70,3713.90650180,N,13701.45977036,E,4,09,1.2,91.645,M,36.770,M,1.7,0979*6E
[2021-02-22 15:06:59.224] $GNGGA,060658.80,3713.90650311,N,13701.45977379,E,4,09,1.2,91.644,M,36.770,M,1.8,0979*6D
[2021-02-22 15:06:59.317] $GNGGA,060658.90,3713.90650287,N,13701.45977265,E,4,09,1.2,91.643,M,36.770,M,1.9,0979*68
[2021-02-22 15:06:59.427] $GNGGA,060659.00,3713.90650141,N,13701.45977020,E,4,09,1.2,91.637,M,36.770,M,1.0,0979*60
[2021-02-22 15:06:59.520] $GNGGA,060659.10,3713.90650187,N,13701.45977017,E,4,09,1.2,91.644,M,36.770,M,1.1,0979*6A
[2021-02-22 15:06:59.630] $GNGGA,060659.20,3713.90650243,N,13701.45977122,E,4,09,1.2,91.642,M,36.770,M,1.2,0979*60
[2021-02-22 15:06:59.724] $GNGGA,060659.30,3713.90650223,N,13701.45977052,E,4,09,1.2,91.641,M,36.770,M,1.3,0979*63
[2021-02-22 15:06:59.833] $GNGGA,060659.40,3713.90650208,N,13701.45977146,E,4,09,1.2,91.643,M,36.770,M,1.4,0979*6C
[2021-02-22 15:06:59.927] $GNGGA,060659.50,3713.90650312,N,13701.45977017,E,4,09,1.2,91.642,M,36.770,M,1.5,0979*62
[2021-02-22 15:07:00.036] $GNGGA,060659.60,3713.90650149,N,13701.45977090,E,4,09,1.2,91.635,M,36.770,M,1.6,0979*61
[2021-02-22 15:07:00.114] $GNGGA,060659.70,3713.90650123,N,13701.45977081,E,4,09,1.2,91.637,M,36.770,M,1.7,0979*6F
[2021-02-22 15:07:00.224] $GNGGA,060659.80,3713.90650371,N,13701.45977045,E,4,09,1.2,91.637,M,36.770,M,1.8,0979*62
[2021-02-22 15:07:00.317] $GNGGA,060659.90,3713.90650268,N,13701.45977034,E,4,09,1.2,91.638,M,36.770,M,1.9,0979*62
[2021-02-22 15:07:00.427] $GNGGA,060700.00,3713.90650374,N,13701.45977130,E,4,09,1.2,91.638,M,36.770,M,2.0,0979*65
[2021-02-22 15:07:00.520] $GNGGA,060700.10,3713.90650126,N,13701.45976908,E,4,09,1.2,91.638,M,36.770,M,1.1,0979*61
[2021-02-22 15:07:00.630] $GNGGA,060700.20,3713.90649966,N,13701.45976963,E,4,09,1.2,91.639,M,36.770,M,1.2,0979*69
[2021-02-22 15:07:00.723] $GNGGA,060700.30,3713.90650132,N,13701.45976888,E,4,09,1.2,91.639,M,36.770,M,1.3,0979*6C
[2021-02-22 15:07:00.833] $GNGGA,060700.40,3713.90650017,N,13701.45977066,E,4,09,1.2,91.639,M,36.770,M,1.4,0979*63
[2021-02-22 15:07:00.927] $GNGGA,060700.50,3713.90649969,N,13701.45977044,E,4,09,1.2,91.638,M,36.770,M,1.5,0979*6A
[2021-02-22 15:07:01.020] $GNGGA,060700.60,3713.90650020,N,13701.45976941,E,4,09,1.2,91.639,M,36.770,M,1.6,0979*6A
[2021-02-22 15:07:01.114] $GNGGA,060700.70,3713.90649767,N,13701.45976872,E,4,09,1.2,91.640,M,36.770,M,1.7,0979*69
[2021-02-22 15:07:01.223] $GNGGA,060700.80,3713.90649678,N,13701.45977069,E,4,09,1.2,91.638,M,36.770,M,1.8,0979*6A
[2021-02-22 15:07:01.317] $GNGGA,060700.90,3713.90649571,N,13701.45977023,E,4,09,1.2,91.641,M,36.770,M,1.9,0979*60
[2021-02-22 15:07:01.427] $GNGGA,060701.00,3713.90649717,N,13701.45976395,E,4,09,1.2,91.647,M,36.770,M,1.0,0979*6A
[2021-02-22 15:07:01.520] $GNGGA,060701.10,3713.90649608,N,13701.45976307,E,4,09,1.2,91.644,M,36.770,M,1.1,0979*6D
[2021-02-22 15:07:01.630] $GNGGA,060701.20,3713.90649767,N,13701.45976293,E,4,09,1.2,91.647,M,36.770,M,1.2,0979*6A
[2021-02-22 15:07:01.723] $GNGGA,060701.30,3713.90649714,N,13701.45976572,E,4,09,1.2,91.644,M,36.770,M,1.3,0979*65
[2021-02-22 15:07:01.833] $GNGGA,060701.40,3713.90649708,N,13701.45976691,E,4,09,1.2,91.648,M,36.770,M,1.4,0979*6A
[2021-02-22 15:07:01.926] $GNGGA,060701.50,3713.90649626,N,13701.45976560,E,4,09,1.2,91.646,M,36.770,M,1.5,0979*64
[2021-02-22 15:07:02.020] $GNGGA,060701.60,3713.90649858,N,13701.45976801,E,4,09,1.2,91.645,M,36.770,M,1.6,0979*6A
[2021-02-22 15:07:02.114] $GNGGA,060701.70,3713.90649939,N,13701.45976596,E,4,09,1.2,91.643,M,36.770,M,1.7,0979*69
[2021-02-22 15:07:02.223] $GNGGA,060701.80,3713.90650020,N,13701.45976499,E,4,09,1.2,91.641,M,36.770,M,1.8,0979*6C
[2021-02-22 15:07:02.317] $GNGGA,060701.90,3713.90649800,N,13701.45976380,E,4,09,1.2,91.646,M,36.770,M,1.9,0979*66
[2021-02-22 15:07:02.411] $GNGGA,060702.00,3713.90649629,N,13701.45976576,E,4,09,1.2,91.645,M,36.770,M,1.0,0979*6C
[2021-02-22 15:07:02.505] $GNGGA,060702.10,3713.90649727,N,13701.45976671,E,4,09,1.2,91.638,M,36.770,M,1.1,0979*6D
[2021-02-22 15:07:02.630] $GNGGA,060702.20,3713.90649526,N,13701.45976755,E,4,09,1.2,91.643,M,36.770,M,1.2,0979*65
[2021-02-22 15:07:02.723] $GNGGA,060702.30,3713.90649611,N,13701.45976661,E,4,09,1.2,91.642,M,36.770,M,1.3,0979*65
[2021-02-22 15:07:02.833] $GNGGA,060702.40,3713.90649709,N,13701.45976680,E,4,09,1.2,91.645,M,36.770,M,1.4,0979*65
[2021-02-22 15:07:02.926] $GNGGA,060702.50,3713.90649595,N,13701.45976667,E,4,09,1.2,91.639,M,36.770,M,1.5,0979*60
[2021-02-22 15:07:03.036] $GNGGA,060702.60,3713.90649809,N,13701.45976687,E,4,09,1.2,91.639,M,36.770,M,1.6,0979*66
[2021-02-22 15:07:03.114] $GNGGA,060702.70,3713.90649670,N,13701.45976798,E,4,09,1.2,91.641,M,36.770,M,1.7,0979*66
[2021-02-22 15:07:03.223] $GNGGA,060702.80,3713.90649507,N,13701.45976886,E,4,09,1.2,91.646,M,36.770,M,0.8,0979*63
[2021-02-22 15:07:03.317] $GNGGA,060702.90,3713.90649685,N,13701.45976872,E,4,09,1.2,91.651,M,36.770,M,0.9,0979*67
[2021-02-22 15:07:03.426] $GNGGA,060703.00,3713.90649561,N,13701.45976767,E,4,09,1.2,91.640,M,36.770,M,1.0,0979*65
[2021-02-22 15:07:03.520] $GNGGA,060703.10,3713.90649629,N,13701.45976867,E,4,09,1.2,91.637,M,36.770,M,1.1,0979*65
[2021-02-22 15:07:03.630] $GNGGA,060703.20,3713.90649402,N,13701.45976697,E,4,09,1.2,91.642,M,36.770,M,1.2,0979*6D
[2021-02-22 15:07:03.723] $GNGGA,060703.30,3713.90649460,N,13701.45976645,E,4,09,1.2,91.641,M,36.770,M,1.3,0979*65
[2021-02-22 15:07:03.833] $GNGGA,060703.40,3713.90649434,N,13701.45977008,E,4,09,1.2,91.643,M,36.770,M,1.4,0979*68
[2021-02-22 15:07:03.926] $GNGGA,060703.50,3713.90649605,N,13701.45977005,E,4,09,1.2,91.641,M,36.770,M,1.5,0979*67
[2021-02-22 15:07:04.020] $GNGGA,060703.60,3713.90649605,N,13701.45976788,E,4,09,1.2,91.637,M,36.770,M,1.6,0979*65
[2021-02-22 15:07:04.114] $GNGGA,060703.70,3713.90649732,N,13701.45977005,E,4,09,1.2,91.639,M,36.770,M,1.7,0979*6D
[2021-02-22 15:07:04.223] $GNGGA,060703.80,3713.90649854,N,13701.45976965,E,4,09,1.2,91.640,M,36.770,M,1.8,0979*62
[2021-02-22 15:07:04.317] $GNGGA,060703.90,3713.90649865,N,13701.45977142,E,4,09,1.2,91.645,M,36.770,M,1.9,0979*69
[2021-02-22 15:07:04.426] $GNGGA,060704.00,3713.90649706,N,13701.45977090,E,4,09,1.2,91.646,M,36.770,M,2.0,0979*6A
[2021-02-22 15:07:04.520] $GNGGA,060704.10,3713.90649682,N,13701.45977055,E,4,09,1.2,91.643,M,36.770,M,2.1,0979*6B
[2021-02-22 15:07:04.629] $GNGGA,060704.20,3713.90649610,N,13701.45977047,E,4,09,1.2,91.642,M,36.770,M,1.2,0979*61
[2021-02-22 15:07:04.723] $GNGGA,060704.30,3713.90649546,N,13701.45977083,E,4,09,1.2,91.641,M,36.770,M,1.3,0979*6A
[2021-02-22 15:07:04.833] $GNGGA,060704.40,3713.90649491,N,13701.45976831,E,4,09,1.2,91.639,M,36.770,M,1.4,0979*6E
[2021-02-22 15:07:04.926] $GNGGA,060704.50,3713.90649277,N,13701.45976672,E,4,09,1.2,91.640,M,36.770,M,1.5,0979*67
[2021-02-22 15:07:05.020] $GNGGA,060704.60,3713.90649360,N,13701.45976632,E,4,09,1.2,91.640,M,36.770,M,1.6,0979*64
[2021-02-22 15:07:05.129] $GNGGA,060704.70,3713.90649541,N,13701.45976788,E,4,09,1.2,91.645,M,36.770,M,1.7,0979*64
[2021-02-22 15:07:05.223] $GNGGA,060704.80,3713.90649842,N,13701.45976730,E,4,09,1.2,91.635,M,36.770,M,1.8,0979*6E
[2021-02-22 15:07:05.317] $GNGGA,060704.90,3713.90649873,N,13701.45976661,E,4,09,1.2,91.642,M,36.770,M,1.9,0979*69
[2021-02-22 15:07:05.426] $GNGGA,060705.00,3713.90649902,N,13701.45976311,E,4,09,1.2,91.652,M,36.770,M,1.0,0979*6C
[2021-02-22 15:07:05.520] $GNGGA,060705.10,3713.90650296,N,13701.45976115,E,4,09,1.2,91.653,M,36.770,M,1.1,0979*65
[2021-02-22 15:07:05.629] $GNGGA,060705.20,3713.90650304,N,13701.45976117,E,4,09,1.2,91.648,M,36.770,M,1.2,0979*67
[2021-02-22 15:07:05.723] $GNGGA,060705.30,3713.90650163,N,13701.45976331,E,4,09,1.2,91.651,M,36.770,M,1.3,0979*6A
[2021-02-22 15:07:05.832] $GNGGA,060705.40,3713.90650008,N,13701.45976441,E,4,09,1.2,91.652,M,36.770,M,1.4,0979*65
[2021-02-22 15:07:05.926] $GNGGA,060705.50,3713.90649952,N,13701.45976393,E,4,09,1.2,91.650,M,36.770,M,1.5,0979*61
[2021-02-22 15:07:06.020] $GNGGA,060705.60,3713.90650124,N,13701.45976214,E,4,09,1.2,91.649,M,36.770,M,1.6,0979*66
[2021-02-22 15:07:06.129] $GNGGA,060705.70,3713.90650060,N,13701.45976089,E,4,09,1.2,91.655,M,36.770,M,1.7,0979*6C
[2021-02-22 15:07:06.223] $GNGGA,060705.80,3713.90649930,N,13701.45976644,E,4,09,1.2,91.652,M,36.770,M,1.8,0979*68
[2021-02-22 15:07:06.317] $GNGGA,060705.90,3713.90649861,N,13701.45976950,E,4,09,1.2,91.648,M,36.770,M,1.9,0979*6C
[2021-02-22 15:07:06.426] $GNGGA,060706.00,3713.90649748,N,13701.45976731,E,4,09,1.2,91.649,M,36.770,M,2.0,0979*60
[2021-02-22 15:07:06.520] $GNGGA,060706.10,3713.90649910,N,13701.45976226,E,4,09,1.2,91.651,M,36.770,M,1.1,0979*6A
[2021-02-22 15:07:06.629] $GNGGA,060706.20,3713.90649951,N,13701.45975837,E,4,09,1.2,91.650,M,36.770,M,1.2,0979*67
[2021-02-22 15:07:06.723] $GNGGA,060706.30,3713.90649915,N,13701.45975920,E,4,09,1.2,91.647,M,36.770,M,1.3,0979*66
[2021-02-22 15:07:06.832] $GNGGA,060706.40,3713.90650099,N,13701.45975908,E,4,09,1.2,91.647,M,36.770,M,1.4,0979*69
[2021-02-22 15:07:06.926] $GNGGA,060706.50,3713.90649921,N,13701.45975859,E,4,09,1.2,91.654,M,36.770,M,1.5,0979*6C
[2021-02-22 15:07:07.020] $GNGGA,060706.60,3713.90649656,N,13701.45976258,E,4,09,1.2,91.648,M,36.770,M,1.6,0979*66
[2021-02-22 15:07:07.129] $GNGGA,060706.70,3713.90649703,N,13701.45976290,E,4,09,1.2,91.660,M,36.770,M,1.7,0979*69
[2021-02-22 15:07:07.223] $GNGGA,060706.80,3713.90649276,N,13701.45976541,E,4,09,1.2,91.654,M,36.770,M,1.8,0979*62
[2021-02-22 15:07:07.317] $GNGGA,060706.90,3713.90649437,N,13701.45976248,E,4,09,1.2,91.650,M,36.770,M,1.9,0979*6B
[2021-02-22 15:07:07.426] $GNGGA,060707.00,3713.90649300,N,13701.45976102,E,4,09,1.2,91.647,M,36.770,M,2.0,0979*61
[2021-02-22 15:07:07.520] $GNGGA,060707.10,3713.90648601,N,13701.45975714,E,4,09,1.2,91.655,M,36.770,M,1.1,0979*66
[2021-02-22 15:07:07.629] $GNGGA,060707.20,3713.90649079,N,13701.45975648,E,4,09,1.2,91.643,M,36.770,M,1.2,0979*61
[2021-02-22 15:07:07.723] $GNGGA,060707.30,3713.90648991,N,13701.45975824,E,4,09,1.2,91.653,M,36.770,M,1.3,0979*6A
[2021-02-22 15:07:07.832] $GNGGA,060707.40,3713.90648821,N,13701.45975844,E,4,09,1.2,91.653,M,36.770,M,1.4,0979*66
[2021-02-22 15:07:07.926] $GNGGA,060707.50,3713.90648924,N,13701.45975738,E,4,09,1.2,91.659,M,36.770,M,1.5,0979*6C
[2021-02-22 15:07:08.035] $GNGGA,060707.60,3713.90648983,N,13701.45975581,E,4,09,1.2,91.645,M,36.770,M,1.6,0979*6C
[2021-02-22 15:07:08.114] $GNGGA,060707.70,3713.90649032,N,13701.45975216,E,4,09,1.2,91.656,M,36.770,M,1.7,0979*65
[2021-02-22 15:07:08.223] $GNGGA,060707.80,3713.90648899,N,13701.45975542,E,4,09,1.2,91.648,M,36.770,M,1.8,0979*64
[2021-02-22 15:07:08.317] $GNGGA,060707.90,3713.90649065,N,13701.45975613,E,4,09,1.2,91.650,M,36.770,M,1.9,0979*60
[2021-02-22 15:07:08.426] $GNGGA,060708.00,3713.90649083,N,13701.45975659,E,4,09,1.2,91.658,M,36.770,M,2.0,0979*62
[2021-02-22 15:07:08.520] $GNGGA,060708.10,3713.90649341,N,13701.45975701,E,4,09,1.2,91.658,M,36.770,M,1.1,0979*60
[2021-02-22 15:07:08.629] $GNGGA,060708.20,3713.90649756,N,13701.45975884,E,4,09,1.2,91.657,M,36.770,M,1.2,0979*6F
[2021-02-22 15:07:08.723] $GNGGA,060708.30,3713.90649707,N,13701.45975924,E,4,09,1.2,91.656,M,36.770,M,1.3,0979*61
[2021-02-22 15:07:08.832] $GNGGA,060708.40,3713.90649765,N,13701.45975855,E,4,09,1.2,91.652,M,36.770,M,1.4,0979*66
[2021-02-22 15:07:08.926] $GNGGA,060708.50,3713.90649432,N,13701.45975612,E,4,09,1.2,91.655,M,36.770,M,1.5,0979*6D
[2021-02-22 15:07:09.035] $GNGGA,060708.60,3713.90649863,N,13701.45975846,E,4,09,1.2,91.656,M,36.770,M,1.6,0979*69
[2021-02-22 15:07:09.114] $GNGGA,060708.70,3713.90649560,N,13701.45975683,E,4,09,1.2,91.660,M,36.770,M,1.7,0979*65
[2021-02-22 15:07:09.223] $GNGGA,060708.80,3713.90649579,N,13701.45975565,E,4,09,1.2,91.648,M,36.770,M,1.8,0979*6C
[2021-02-22 15:07:09.317] $GNGGA,060708.90,3713.90650149,N,13701.45975911,E,4,09,1.2,91.641,M,36.770,M,0.9,0979*64
[2021-02-22 15:07:09.426] $GNGGA,060709.00,3713.90650311,N,13701.45976023,E,4,09,1.2,91.641,M,36.770,M,1.0,0979*60
[2021-02-22 15:07:09.520] $GNGGA,060709.10,3713.90650108,N,13701.45975829,E,4,09,1.2,91.649,M,36.770,M,1.1,0979*63
[2021-02-22 15:07:09.629] $GNGGA,060709.20,3713.90650231,N,13701.45975772,E,4,09,1.2,91.642,M,36.770,M,1.2,0979*60
[2021-02-22 15:07:09.723] $GNGGA,060709.30,3713.90650052,N,13701.45975506,E,4,09,1.2,91.644,M,36.770,M,1.3,0979*60
[2021-02-22 15:07:09.832] $GNGGA,060709.40,3713.90650223,N,13701.45975723,E,4,09,1.2,91.644,M,36.770,M,1.4,0979*61
[2021-02-22 15:07:09.926] $GNGGA,060709.50,3713.90649918,N,13701.45975484,E,4,09,1.2,91.641,M,36.770,M,1.5,0979*61
[2021-02-22 15:07:10.035] $GNGGA,060709.60,3713.90649756,N,13701.45975508,E,4,09,1.2,91.644,M,36.770,M,1.6,0979*65
[2021-02-22 15:07:10.129] $GNGGA,060709.70,3713.90649982,N,13701.45975356,E,4,09,1.2,91.639,M,36.770,M,1.7,0979*65
[2021-02-22 15:07:10.223] $GNGGA,060709.80,3713.90650117,N,13701.45975019,E,4,09,1.2,91.636,M,36.770,M,1.8,0979*6E
[2021-02-22 15:07:10.317] $GNGGA,060709.90,3713.90650277,N,13701.45975166,E,4,09,1.2,91.639,M,36.770,M,1.9,0979*6D
[2021-02-22 15:07:10.426] $GNGGA,060710.00,3713.90650231,N,13701.45974569,E,4,09,1.2,91.648,M,36.770,M,1.0,0979*6B
[2021-02-22 15:07:10.520] $GNGGA,060710.10,3713.90650230,N,13701.45974579,E,4,09,1.2,91.647,M,36.770,M,1.1,0979*64
[2021-02-22 15:07:10.629] $GNGGA,060710.20,3713.90650305,N,13701.45974508,E,4,09,1.2,91.644,M,36.770,M,1.2,0979*66
[2021-02-22 15:07:10.723] $GNGGA,060710.30,3713.90650384,N,13701.45974591,E,4,09,1.2,91.647,M,36.770,M,1.3,0979*6C
[2021-02-22 15:07:10.832] $GNGGA,060710.40,3713.90650237,N,13701.45974721,E,4,09,1.2,91.649,M,36.770,M,1.4,0979*62
[2021-02-22 15:07:10.926] $GNGGA,060710.50,3713.90650336,N,13701.45974731,E,4,09,1.2,91.644,M,36.770,M,1.5,0979*6E
[2021-02-22 15:07:11.035] $GNGGA,060710.60,3713.90650456,N,13701.45975056,E,4,09,1.2,91.647,M,36.770,M,1.6,0979*6B
[2021-02-22 15:07:11.113] $GNGGA,060710.70,3713.90650336,N,13701.45975120,E,4,09,1.2,91.648,M,36.770,M,1.7,0979*65
[2021-02-22 15:07:11.223] $GNGGA,060710.80,3713.90650353,N,13701.45975284,E,4,09,1.2,91.652,M,36.770,M,1.8,0979*60
[2021-02-22 15:07:11.316] $GNGGA,060710.90,3713.90650274,N,13701.45975281,E,4,09,1.2,91.646,M,36.770,M,1.9,0979*64
[2021-02-22 15:07:11.426] $GNGGA,060711.00,3713.90650211,N,13701.45975202,E,4,09,1.2,91.656,M,36.770,M,1.0,0979*6C
[2021-02-22 15:07:11.520] $GNGGA,060711.10,3713.90650393,N,13701.45975226,E,4,09,1.2,91.656,M,36.770,M,1.1,0979*61
[2021-02-22 15:07:11.629] $GNGGA,060711.20,3713.90650654,N,13701.45975401,E,4,09,1.2,91.662,M,36.770,M,1.2,0979*6B
[2021-02-22 15:07:11.723] $GNGGA,060711.30,3713.90650717,N,13701.45975914,E,4,09,1.2,91.650,M,36.770,M,1.3,0979*65
[2021-02-22 15:07:11.832] $GNGGA,060711.40,3713.90650630,N,13701.45975833,E,4,09,1.2,91.654,M,36.770,M,1.4,0979*61
[2021-02-22 15:07:11.926] $GNGGA,060711.50,3713.90650536,N,13701.45976178,E,4,09,1.2,91.656,M,36.770,M,1.5,0979*63
[2021-02-22 15:07:12.035] $GNGGA,060711.60,3713.90650714,N,13701.45976045,E,4,09,1.2,91.658,M,36.770,M,1.6,0979*60
[2021-02-22 15:07:12.113] $GNGGA,060711.70,3713.90650779,N,13701.45976499,E,4,09,1.2,91.655,M,36.770,M,1.7,0979*63
[2021-02-22 15:07:12.223] $GNGGA,060711.80,3713.90650742,N,13701.45976267,E,4,09,1.2,91.656,M,36.770,M,1.8,0979*6F
[2021-02-22 15:07:12.316] $GNGGA,060711.90,3713.90650815,N,13701.45976029,E,4,09,1.2,91.660,M,36.770,M,1.9,0979*6F
[2021-02-22 15:07:12.410] $GNGGA,060712.00,3713.90650911,N,13701.45976179,E,4,09,1.2,91.662,M,36.770,M,2.0,0979*6C
[2021-02-22 15:07:12.504] $GNGGA,060712.10,3713.90651171,N,13701.45976237,E,4,09,1.2,91.647,M,36.770,M,1.1,0979*6E
[2021-02-22 15:07:12.629] $GNGGA,060712.20,3713.90650785,N,13701.45976142,E,4,09,1.2,91.647,M,36.770,M,1.2,0979*63
[2021-02-22 15:07:12.723] $GNGGA,060712.30,3713.90650977,N,13701.45975977,E,4,09,1.2,91.640,M,36.770,M,1.3,0979*6A
[2021-02-22 15:07:12.832] $GNGGA,060712.40,3713.90650823,N,13701.45976106,E,4,09,1.2,91.640,M,36.770,M,1.4,0979*67
[2021-02-22 15:07:12.926] $GNGGA,060712.50,3713.90650566,N,13701.45976007,E,4,09,1.2,91.651,M,36.770,M,1.5,0979*6B
[2021-02-22 15:07:13.035] $GNGGA,060712.60,3713.90650458,N,13701.45975981,E,4,09,1.2,91.645,M,36.770,M,1.6,0979*66
[2021-02-22 15:07:13.113] $GNGGA,060712.70,3713.90650286,N,13701.45975736,E,4,09,1.2,91.648,M,36.770,M,1.7,0979*6C
[2021-02-22 15:07:13.223] $GNGGA,060712.80,3713.90650318,N,13701.45975802,E,4,09,1.2,91.645,M,36.770,M,1.8,0979*6F
[2021-02-22 15:07:13.316] $GNGGA,060712.90,3713.90650323,N,13701.45975598,E,4,09,1.2,91.634,M,36.770,M,1.9,0979*6F
[2021-02-22 15:07:13.426] $GNGGA,060713.00,3713.90650492,N,13701.45975589,E,4,09,1.2,91.645,M,36.770,M,2.0,0979*66
[2021-02-22 15:07:13.519] $GNGGA,060713.10,3713.90650471,N,13701.45975762,E,4,09,1.2,91.643,M,36.770,M,2.1,0979*6A
[2021-02-22 15:07:13.629] $GNGGA,060713.20,3713.90650193,N,13701.45975909,E,4,09,1.2,91.644,M,36.770,M,1.2,0979*64
[2021-02-22 15:07:13.723] $GNGGA,060713.30,3713.90650220,N,13701.45975947,E,4,09,1.2,91.648,M,36.770,M,1.3,0979*69
[2021-02-22 15:07:13.832] $GNGGA,060713.40,3713.90650252,N,13701.45975978,E,4,09,1.2,91.640,M,36.770,M,1.4,0979*68
[2021-02-22 15:07:13.926] $GNGGA,060713.50,3713.90650384,N,13701.45976115,E,4,09,1.2,91.650,M,36.770,M,1.5,0979*63
[2021-02-22 15:07:14.035] $GNGGA,060713.60,3713.90650252,N,13701.45976159,E,4,09,1.2,91.645,M,36.770,M,1.6,0979*65
[2021-02-22 15:07:14.113] $GNGGA,060713.70,3713.90650408,N,13701.45976166,E,4,09,1.2,91.651,M,36.770,M,1.7,0979*65
[2021-02-22 15:07:14.222] $GNGGA,060713.80,3713.90650485,N,13701.45976133,E,4,09,1.2,91.643,M,36.770,M,1.8,0979*63
[2021-02-22 15:07:14.316] $GNGGA,060713.90,3713.90650649,N,13701.45976282,E,4,09,1.2,91.641,M,36.770,M,1.9,0979*6A
[2021-02-22 15:07:14.426] $GNGGA,060714.00,3713.90650522,N,13701.45976311,E,4,09,1.2,91.644,M,36.770,M,2.0,0979*6E
[2021-02-22 15:07:14.519] $GNGGA,060714.10,3713.90650914,N,13701.45976600,E,4,09,1.2,91.651,M,36.770,M,1.1,0979*65
[2021-02-22 15:07:14.629] $GNGGA,060714.20,3713.90650835,N,13701.45976550,E,4,09,1.2,91.643,M,36.770,M,1.2,0979*62
[2021-02-22 15:07:14.722] $GNGGA,060714.30,3713.90650967,N,13701.45976605,E,4,09,1.2,91.642,M,36.770,M,1.3,0979*66
[2021-02-22 15:07:14.832] $GNGGA,060714.40,3713.90650692,N,13701.45976481,E,4,09,1.2,91.648,M,36.770,M,1.4,0979*67
[2021-02-22 15:07:14.926] $GNGGA,060714.50,3713.90650796,N,13701.45976422,E,4,09,1.2,91.641,M,36.770,M,1.5,0979*62
[2021-02-22 15:07:15.035] $GNGGA,060714.60,3713.90650768,N,13701.45976169,E,4,09,1.2,91.650,M,36.770,M,1.6,0979*69
[2021-02-22 15:07:15.129] $GNGGA,060714.70,3713.90650842,N,13701.45976406,E,4,09,1.2,91.648,M,36.770,M,1.7,0979*6B
[2021-02-22 15:07:15.222] $GNGGA,060714.80,3713.90650711,N,13701.45976176,E,4,09,1.2,91.649,M,36.770,M,1.8,0979*61
[2021-02-22 15:07:15.316] $GNGGA,060714.90,3713.90650705,N,13701.45976264,E,4,09,1.2,91.646,M,36.770,M,1.9,0979*6B
[2021-02-22 15:07:15.426] $GNGGA,060715.00,3713.90650589,N,13701.45976313,E,4,09,1.2,91.650,M,36.770,M,2.0,0979*69
[2021-02-22 15:07:15.519] $GNGGA,060715.10,3713.90650568,N,13701.45976015,E,4,09,1.2,91.658,M,36.770,M,1.1,0979*68
[2021-02-22 15:07:15.629] $GNGGA,060715.20,3713.90650571,N,13701.45976243,E,4,09,1.2,91.663,M,36.770,M,1.2,0979*69
[2021-02-22 15:07:15.722] $GNGGA,060715.30,3713.90650497,N,13701.45976324,E,4,09,1.2,91.659,M,36.770,M,1.3,0979*69
[2021-02-22 15:07:15.832] $GNGGA,060715.40,3713.90650672,N,13701.45976377,E,4,09,1.2,91.653,M,36.770,M,1.4,0979*6C
[2021-02-22 15:07:15.925] $GNGGA,060715.50,3713.90650679,N,13701.45976471,E,4,09,1.2,91.658,M,36.770,M,1.5,0979*6D
[2021-02-22 15:07:16.035] $GNGGA,060715.60,3713.90650697,N,13701.45976221,E,4,09,1.2,91.664,M,36.770,M,1.6,0979*61
[2021-02-22 15:07:16.129] $GNGGA,060715.70,3713.90650664,N,13701.45976315,E,4,09,1.2,91.658,M,36.770,M,1.7,0979*64
[2021-02-22 15:07:16.222] $GNGGA,060715.80,3713.90650825,N,13701.45976496,E,4,09,1.2,91.651,M,36.770,M,1.8,0979*6A
[2021-02-22 15:07:16.316] $GNGGA,060715.90,3713.90650672,N,13701.45976485,E,4,09,1.2,91.662,M,36.770,M,1.9,0979*64
[2021-02-22 15:07:16.425] $GNGGA,060716.00,3713.90650599,N,13701.45976451,E,4,09,1.2,91.662,M,36.770,M,2.0,0979*6B
[2021-02-22 15:07:16.519] $GNGGA,060716.10,3713.90650624,N,13701.45976653,E,4,09,1.2,91.654,M,36.770,M,1.1,0979*68
[2021-02-22 15:07:16.629] $GNGGA,060716.20,3713.90650801,N,13701.45976465,E,4,09,1.2,91.654,M,36.770,M,1.2,0979*66
[2021-02-22 15:07:16.722] $GNGGA,060716.30,3713.90650632,N,13701.45976447,E,4,09,1.2,91.656,M,36.770,M,1.3,0979*6A
[2021-02-22 15:07:16.832] $GNGGA,060716.40,3713.90650380,N,13701.45976352,E,4,09,1.2,91.653,M,36.770,M,1.4,0979*60
[2021-02-22 15:07:16.925] $GNGGA,060716.50,3713.90650374,N,13701.45976344,E,4,09,1.2,91.653,M,36.770,M,1.5,0979*6C
[2021-02-22 15:07:17.035] $GNGGA,060716.60,3713.90650265,N,13701.45976294,E,4,09,1.2,91.655,M,36.770,M,1.6,0979*67
[2021-02-22 15:07:17.129] $GNGGA,060716.70,3713.90650402,N,13701.45976381,E,4,09,1.2,91.658,M,36.770,M,1.7,0979*68
[2021-02-22 15:07:17.222] $GNGGA,060716.80,3713.90650608,N,13701.45976258,E,4,09,1.2,91.653,M,36.770,M,1.8,0979*6E
[2021-02-22 15:07:17.316] $GNGGA,060716.90,3713.90650748,N,13701.45976162,E,4,09,1.2,91.650,M,36.770,M,1.9,0979*62
[2021-02-22 15:07:17.425] $GNGGA,060717.00,3713.90650783,N,13701.45975904,E,4,09,1.2,91.654,M,36.770,M,1.0,0979*6B
[2021-02-22 15:07:17.519] $GNGGA,060717.10,3713.90650841,N,13701.45975926,E,4,09,1.2,91.656,M,36.770,M,1.1,0979*68
[2021-02-22 15:07:17.629] $GNGGA,060717.20,3713.90650803,N,13701.45976268,E,4,09,1.2,91.658,M,36.770,M,1.2,0979*62
[2021-02-22 15:07:17.722] $GNGGA,060717.30,3713.90650805,N,13701.45976341,E,4,09,1.2,91.657,M,36.770,M,1.3,0979*61
[2021-02-22 15:07:17.832] $GNGGA,060717.40,3713.90650694,N,13701.45976299,E,4,09,1.2,91.653,M,36.770,M,1.4,0979*67
[2021-02-22 15:07:17.925] $GNGGA,060717.50,3713.90650834,N,13701.45976196,E,4,09,1.2,91.654,M,36.770,M,1.5,0979*68
[2021-02-22 15:07:18.035] $GNGGA,060717.60,3713.90651030,N,13701.45976135,E,4,09,1.2,91.658,M,36.770,M,1.6,0979*60
[2021-02-22 15:07:18.128] $GNGGA,060717.70,3713.90651111,N,13701.45976086,E,4,09,1.2,91.658,M,36.770,M,1.7,0979*6B
[2021-02-22 15:07:18.222] $GNGGA,060717.80,3713.90651206,N,13701.45976143,E,4,09,1.2,91.652,M,36.770,M,1.8,0979*6C
[2021-02-22 15:07:18.316] $GNGGA,060717.90,3713.90650979,N,13701.45976101,E,4,09,1.2,91.656,M,36.770,M,1.9,0979*6C
[2021-02-22 15:07:18.425] $GNGGA,060718.00,3713.90651074,N,13701.45975976,E,4,09,1.2,91.651,M,36.770,M,1.0,0979*6A
[2021-02-22 15:07:18.519] $GNGGA,060718.10,3713.90650833,N,13701.45975924,E,4,09,1.2,91.662,M,36.770,M,1.1,0979*67
[2021-02-22 15:07:18.628] $GNGGA,060718.20,3713.90650951,N,13701.45975961,E,4,09,1.2,91.658,M,36.770,M,1.2,0979*6A
[2021-02-22 15:07:18.722] $GNGGA,060718.30,3713.90650975,N,13701.45976164,E,4,09,1.2,91.665,M,36.770,M,1.3,0979*6C
[2021-02-22 15:07:18.832] $GNGGA,060718.40,3713.90650861,N,13701.45976271,E,4,09,1.2,91.650,M,36.770,M,1.4,0979*69
[2021-02-22 15:07:18.925] $GNGGA,060718.50,3713.90650793,N,13701.45976082,E,4,09,1.2,91.662,M,36.770,M,1.5,0979*64
[2021-02-22 15:07:19.035] $GNGGA,060718.60,3713.90650950,N,13701.45976312,E,4,09,1.2,91.659,M,36.770,M,1.6,0979*67
[2021-02-22 15:07:19.128] $GNGGA,060718.70,3713.90650767,N,13701.45975960,E,4,09,1.2,91.660,M,36.770,M,1.7,0979*6B
[2021-02-22 15:07:19.222] $GNGGA,060718.80,3713.90650762,N,13701.45976134,E,4,09,1.2,91.656,M,36.770,M,1.8,0979*61
[2021-02-22 15:07:19.316] $GNGGA,060718.90,3713.90650993,N,13701.45976125,E,4,09,1.2,91.659,M,36.770,M,1.9,0979*6E
[2021-02-22 15:07:19.425] $GNGGA,060719.00,3713.90650807,N,13701.45975897,E,4,09,1.2,91.661,M,36.770,M,2.0,0979*68
[2021-02-22 15:07:19.519] $GNGGA,060719.10,3713.90651020,N,13701.45975921,E,4,09,1.2,91.659,M,36.770,M,1.1,0979*60
[2021-02-22 15:07:19.628] $GNGGA,060719.20,3713.90650752,N,13701.45975946,E,4,09,1.2,91.660,M,36.770,M,1.2,0979*68
[2021-02-22 15:07:19.722] $GNGGA,060719.30,3713.90650862,N,13701.45975971,E,4,09,1.2,91.660,M,36.770,M,1.3,0979*60
[2021-02-22 15:07:19.831] $GNGGA,060719.40,3713.90650871,N,13701.45976030,E,4,09,1.2,91.658,M,36.770,M,1.4,0979*66
[2021-02-22 15:07:19.925] $GNGGA,060719.50,3713.90650686,N,13701.45975816,E,4,09,1.2,91.649,M,36.770,M,1.5,0979*6F
[2021-02-22 15:07:20.035] $GNGGA,060719.60,3713.90650651,N,13701.45975757,E,4,09,1.2,91.657,M,36.770,M,1.6,0979*60
[2021-02-22 15:07:20.128] $GNGGA,060719.70,3713.90650830,N,13701.45975731,E,4,09,1.2,91.664,M,36.770,M,1.7,0979*69
[2021-02-22 15:07:20.222] $GNGGA,060719.80,3713.90650893,N,13701.45975769,E,4,09,1.2,91.650,M,36.770,M,1.8,0979*6A
[2021-02-22 15:07:20.316] $GNGGA,060719.90,3713.90651052,N,13701.45975650,E,4,09,1.2,91.655,M,36.770,M,1.9,0979*60
[2021-02-22 15:07:20.425] $GNGGA,060720.00,3713.90650743,N,13701.45975847,E,4,09,1.2,91.654,M,36.770,M,2.0,0979*66
[2021-02-22 15:07:20.519] $GNGGA,060720.10,3713.90650851,N,13701.45975682,E,4,09,1.2,91.654,M,36.770,M,2.1,0979*6D
[2021-02-22 15:07:20.628] $GNGGA,060720.20,3713.90650778,N,13701.45975857,E,4,09,1.2,91.648,M,36.770,M,1.2,0979*61
[2021-02-22 15:07:20.722] $GNGGA,060720.30,3713.90651010,N,13701.45975900,E,4,09,1.2,91.657,M,36.770,M,1.3,0979*64
[2021-02-22 15:07:20.831] $GNGGA,060720.40,3713.90650805,N,13701.45975871,E,4,09,1.2,91.655,M,36.770,M,1.4,0979*6C
[2021-02-22 15:07:20.925] $GNGGA,060720.50,3713.90651092,N,13701.45976010,E,4,09,1.2,91.653,M,36.770,M,1.5,0979*61
[2021-02-22 15:07:21.035] $GNGGA,060720.60,3713.90651205,N,13701.45975758,E,4,09,1.2,91.654,M,36.770,M,1.6,0979*62
[2021-02-22 15:07:21.128] $GNGGA,060720.70,3713.90651154,N,13701.45975799,E,4,09,1.2,91.650,M,36.770,M,1.7,0979*6C
[2021-02-22 15:07:25.440] $GNGGA,060720.80,3713.90651251,N,13701.45975974,E,4,09,1.2,91.654,M,36.770,M,1.8,0979*63
[2021-02-22 15:07:25.456] $GNGGA,060720.90,3713.90651341,N,13701.45975989,E,4,09,1.2,91.660,M,36.770,M,1.9,0979*66
[2021-02-22 15:07:25.456] $GNGGA,060721.00,3713.90651651,N,13701.45975766,E,4,09,1.2,91.649,M,36.770,M,1.0,0979*67
[2021-02-22 15:07:25.456] $GNGGA,060721.10,3713.90651499,N,13701.45976091,E,4,09,1.2,91.657,M,36.770,M,1.1,0979*62
[2021-02-22 15:07:25.456] $GNGGA,060721.20,3713.90651766,N,13701.45975895,E,4,09,1.2,91.645,M,36.770,M,1.2,0979*6D
[2021-02-22 15:07:25.456] $GNGGA,060721.30,3713.90651677,N,13701.45976093,E,4,09,1.2,91.653,M,36.770,M,1.3,0979*66
[2021-02-22 15:07:25.456] $GNGGA,060721.40,3713.90651636,N,13701.45976110,E,4,09,1.2,91.648,M,36.770,M,1.4,0979*63
[2021-02-22 15:07:25.456] $GNGGA,060721.50,3713.90651780,N,13701.45976111,E,4,09,1.2,91.645,M,36.770,M,1.5,0979*63
[2021-02-22 15:07:25.456] $GNGGA,060721.60,3713.90651416,N,13701.45976103,E,4,09,1.2,91.649,M,36.770,M,1.6,0979*60
[2021-02-22 15:07:25.456] $GNGGA,060721.70,3713.90651332,N,13701.45976330,E,4,09,1.2,91.648,M,36.770,M,1.7,0979*62
[2021-02-22 15:07:25.456] $GNGGA,060721.80,3713.90651277,N,13701.45976276,E,4,09,1.2,91.647,M,36.770,M,1.8,0979*6E
[2021-02-22 15:07:25.456] $GNGGA,060721.90,3713.90651261,N,13701.45975755,E,4,09,1.2,91.641,M,36.770,M,0.9,0979*69
[2021-02-22 15:07:25.456] $GNGGA,060722.00,3713.90651368,N,13701.45975857,E,4,09,1.2,91.648,M,36.770,M,1.0,0979*67
[2021-02-22 15:07:25.472] $GNGGA,060722.10,3713.90651555,N,13701.45975876,E,4,09,1.2,91.645,M,36.770,M,1.1,0979*61
[2021-02-22 15:07:25.472] $GNGGA,060722.20,3713.90651502,N,13701.45975787,E,4,09,1.2,91.645,M,36.770,M,1.2,0979*62
[2021-02-22 15:07:25.472] $GNGGA,060722.30,3713.90651994,N,13701.45975636,E,4,09,1.2,91.644,M,36.770,M,1.3,0979*6B
[2021-02-22 15:07:25.472] $GNGGA,060722.40,3713.90652094,N,13701.45975593,E,4,09,1.2,91.645,M,36.770,M,1.4,0979*6C
[2021-02-22 15:07:25.472] $GNGGA,060722.50,3713.90652435,N,13701.45975943,E,4,09,1.2,91.644,M,36.770,M,1.5,0979*63
[2021-02-22 15:07:25.472] $GNGGA,060722.60,3713.90652176,N,13701.45976048,E,4,09,1.2,91.647,M,36.770,M,1.6,0979*63
[2021-02-22 15:07:25.472] $GNGGA,060722.70,3713.90651737,N,13701.45976278,E,4,09,1.2,91.649,M,36.770,M,1.7,0979*6C
[2021-02-22 15:07:25.472] $GNGGA,060722.80,3713.90651725,N,13701.45976153,E,4,09,1.2,91.640,M,36.770,M,1.8,0979*6C
[2021-02-22 15:07:25.472] $GNGGA,060722.90,3713.90651775,N,13701.45976070,E,4,09,1.2,91.643,M,36.770,M,1.9,0979*6A
[2021-02-22 15:07:25.472] $GNGGA,060723.00,3713.90651392,N,13701.45976007,E,4,09,1.2,91.662,M,36.770,M,1.0,0979*65
[2021-02-22 15:07:25.472] $GNGGA,060723.10,3713.90651535,N,13701.45975989,E,4,09,1.2,91.661,M,36.770,M,1.1,0979*61
[2021-02-22 15:07:25.487] $GNGGA,060723.20,3713.90651513,N,13701.45975800,E,4,09,1.2,91.660,M,36.770,M,1.2,0979*64
[2021-02-22 15:07:25.487] $GNGGA,060723.30,3713.90650869,N,13701.45975844,E,4,09,1.2,91.658,M,36.770,M,1.3,0979*6E
[2021-02-22 15:07:25.487] $GNGGA,060723.40,3713.90650560,N,13701.45975446,E,4,09,1.2,91.658,M,36.770,M,1.4,0979*64
[2021-02-22 15:07:25.487] $GNGGA,060723.50,3713.90650381,N,13701.45975445,E,4,09,1.2,91.660,M,36.770,M,1.5,0979*65
[2021-02-22 15:07:25.487] $GNGGA,060723.60,3713.90650250,N,13701.45975160,E,4,09,1.2,91.659,M,36.770,M,1.6,0979*60
[2021-02-22 15:07:25.487] $GNGGA,060723.70,3713.90650175,N,13701.45975279,E,4,09,1.2,91.654,M,36.770,M,1.7,0979*62
[2021-02-22 15:07:25.487] $GNGGA,060723.80,3713.90650072,N,13701.45975196,E,4,09,1.2,91.652,M,36.770,M,1.8,0979*60
[2021-02-22 15:07:25.487] $GNGGA,060723.90,3713.90650210,N,13701.45975620,E,4,09,1.2,91.659,M,36.770,M,1.9,0979*67
[2021-02-22 15:07:25.487] $GNGGA,060724.00,3713.90650104,N,13701.45975514,E,4,09,1.2,91.655,M,36.770,M,2.0,0979*6D
[2021-02-22 15:07:25.487] $GNGGA,060724.10,3713.90650281,N,13701.45975355,E,4,09,1.2,91.655,M,36.770,M,1.1,0979*63
[2021-02-22 15:07:25.487] $GNGGA,060724.20,3713.90650583,N,13701.45975570,E,4,09,1.2,91.659,M,36.770,M,1.2,0979*6B
[2021-02-22 15:07:25.487] $GNGGA,060724.30,3713.90650663,N,13701.45975685,E,4,09,1.2,91.661,M,36.770,M,1.3,0979*64
[2021-02-22 15:07:25.487] $GNGGA,060724.40,3713.90650555,N,13701.45975801,E,4,09,1.2,91.665,M,36.770,M,1.4,0979*64
[2021-02-22 15:07:25.487] $GNGGA,060724.50,3713.90650740,N,13701.45975642,E,4,09,1.2,91.658,M,36.770,M,1.5,0979*65
[2021-02-22 15:07:25.487] $GNGGA,060724.60,3713.90650603,N,13701.45976127,E,4,09,1.2,91.663,M,36.770,M,1.6,0979*6C
[2021-02-22 15:07:25.487] $GNGGA,060724.70,3713.90650939,N,13701.45976212,E,4,09,1.2,91.665,M,36.770,M,1.7,0979*69
[2021-02-22 15:07:25.487] $GNGGA,060724.80,3713.90651125,N,13701.45976166,E,4,09,1.2,91.650,M,36.770,M,1.8,0979*6B
[2021-02-22 15:07:25.487] $GNGGA,060724.90,3713.90650910,N,13701.45976255,E,4,09,1.2,91.658,M,36.770,M,1.9,0979*6F
[2021-02-22 15:07:25.487] $GNGGA,060725.00,3713.90651340,N,13701.45976627,E,4,09,1.2,91.651,M,36.770,M,1.0,0979*68
[2021-02-22 15:07:25.519] $GNGGA,060725.10,3713.90651166,N,13701.45976540,E,4,09,1.2,91.656,M,36.770,M,1.1,0979*6B
[2021-02-22 15:07:25.628] $GNGGA,060725.20,3713.90651000,N,13701.45976389,E,4,09,1.2,91.658,M,36.770,M,1.2,0979*67
[2021-02-22 15:07:25.722] $GNGGA,060725.30,3713.90650660,N,13701.45976412,E,4,09,1.2,91.656,M,36.770,M,1.3,0979*6D
[2021-02-22 15:07:25.831] $GNGGA,060725.40,3713.90650659,N,13701.45976371,E,4,09,1.2,91.651,M,36.770,M,1.4,0979*62
[2021-02-22 15:07:25.925] $GNGGA,060725.50,3713.90650911,N,13701.45975986,E,4,09,1.2,91.662,M,36.770,M,1.5,0979*60
[2021-02-22 15:07:26.034] $GNGGA,060725.60,3713.90651495,N,13701.45975961,E,4,09,1.2,91.650,M,36.770,M,1.6,0979*68
[2021-02-22 15:07:26.128] $GNGGA,060725.70,3713.90651822,N,13701.45975672,E,4,09,1.2,91.658,M,36.770,M,1.7,0979*6D
[2021-02-22 15:07:26.222] $GNGGA,060725.80,3713.90651743,N,13701.45975651,E,4,09,1.2,91.649,M,36.770,M,1.8,0979*64
[2021-02-22 15:07:26.331] $GNGGA,060725.90,3713.90651315,N,13701.45975369,E,4,09,1.2,91.654,M,36.770,M,1.9,0979*61
[2021-02-22 15:07:26.425] $GNGGA,060726.00,3713.90650845,N,13701.45974284,E,4,09,1.2,91.656,M,36.770,M,1.0,0979*6C
[2021-02-22 15:07:26.519] $GNGGA,060726.10,3713.90650769,N,13701.45974171,E,4,09,1.2,91.654,M,36.770,M,1.1,0979*66
[2021-02-22 15:07:26.628] $GNGGA,060726.20,3713.90650612,N,13701.45974656,E,4,09,1.2,91.656,M,36.770,M,1.2,0979*6B
[2021-02-22 15:07:26.722] $GNGGA,060726.30,3713.90650837,N,13701.45975189,E,4,09,1.2,91.655,M,36.770,M,1.3,0979*65
[2021-02-22 15:07:26.831] $GNGGA,060726.40,3713.90651039,N,13701.45975575,E,4,09,1.2,91.656,M,36.770,M,1.4,0979*66
[2021-02-22 15:07:26.925] $GNGGA,060726.50,3713.90651390,N,13701.45975351,E,4,09,1.2,91.657,M,36.770,M,1.5,0979*67
[2021-02-22 15:07:27.034] $GNGGA,060726.60,3713.90651417,N,13701.45975354,E,4,09,1.2,91.650,M,36.770,M,1.6,0979*6D
[2021-02-22 15:07:27.128] $GNGGA,060726.70,3713.90651425,N,13701.45975489,E,4,09,1.2,91.654,M,36.770,M,1.7,0979*6F
[2021-02-22 15:07:27.222] $GNGGA,060726.80,3713.90651080,N,13701.45975407,E,4,09,1.2,91.652,M,36.770,M,1.8,0979*64
[2021-02-22 15:07:27.315] $GNGGA,060726.90,3713.90650706,N,13701.45975682,E,4,09,1.2,91.663,M,36.770,M,1.9,0979*61
[2021-02-22 15:07:27.425] $GNGGA,060727.00,3713.90651179,N,13701.45976058,E,4,09,1.2,91.656,M,36.770,M,1.0,0979*6B
[2021-02-22 15:07:27.518] $GNGGA,060727.10,3713.90650893,N,13701.45976090,E,4,09,1.2,91.653,M,36.770,M,1.1,0979*66
[2021-02-22 15:07:27.628] $GNGGA,060727.20,3713.90650978,N,13701.45975919,E,4,09,1.2,91.653,M,36.770,M,1.2,0979*69
[2021-02-22 15:07:27.722] $GNGGA,060727.30,3713.90650933,N,13701.45976094,E,4,09,1.2,91.652,M,36.770,M,1.3,0979*68
[2021-02-22 15:07:27.831] $GNGGA,060727.40,3713.90650804,N,13701.45976261,E,4,09,1.2,91.657,M,36.770,M,1.4,0979*60
[2021-02-22 15:07:27.925] $GNGGA,060727.50,3713.90650739,N,13701.45976255,E,4,09,1.2,91.647,M,36.770,M,1.5,0979*67
[2021-02-22 15:07:28.034] $GNGGA,060727.60,3713.90650328,N,13701.45976200,E,4,09,1.2,91.652,M,36.770,M,1.6,0979*67
[2021-02-22 15:07:28.128] $GNGGA,060727.70,3713.90650033,N,13701.45976130,E,4,09,1.2,91.653,M,36.770,M,1.7,0979*6F
[2021-02-22 15:07:28.222] $GNGGA,060727.80,3713.90649932,N,13701.45976105,E,4,09,1.2,91.652,M,36.770,M,1.8,0979*68
[2021-02-22 15:07:28.315] $GNGGA,060727.90,3713.90649762,N,13701.45976129,E,4,09,1.2,91.645,M,36.770,M,1.9,0979*6B
[2021-02-22 15:07:28.425] $GNGGA,060728.00,3713.90649521,N,13701.45975962,E,4,09,1.2,91.649,M,36.770,M,2.0,0979*6A
[2021-02-22 15:07:28.518] $GNGGA,060728.10,3713.90649435,N,13701.45976137,E,4,09,1.2,91.658,M,36.770,M,2.1,0979*65
[2021-02-22 15:07:28.628] $GNGGA,060728.20,3713.90649452,N,13701.45975841,E,4,09,1.2,91.643,M,36.770,M,1.2,0979*66
[2021-02-22 15:07:28.721] $GNGGA,060728.30,3713.90649714,N,13701.45975658,E,4,09,1.2,91.643,M,36.770,M,1.3,0979*61
