[2021-02-22 15:00:57.014] $GPGGA,,,,,,,,,,M,,M,,*56
[2021-02-22 15:00:57.045] $GPGGA,,,,,,,,,,M,,M,,*56
[2021-02-22 15:00:57.045] $GPGGA,,,,,,,,,,M,,M,,*56
[2021-02-22 15:00:57.045] $GPGGA,,,,,,,,,,M,,M,,*56
[2021-02-22 15:00:57.045] $GPGGA,,,,,,,,,,M,,M,,*56
[2021-02-22 15:00:57.045] $GPGGA,,,,,,,,,,M,,M,,*56
[2021-02-22 15:00:57.045] $GPGGA,,,,,,,,,,M,,M,,*56
[2021-02-22 15:00:57.045] $GPGGA,,,,,,,,,,M,,M,,*56
[2021-02-22 15:00:57.045] $GPGGA,,,,,,,,,,M,,M,,*56
[2021-02-22 15:00:57.045] $GPGGA,,,,,,,,,,M,,M,,*56
[2021-02-22 15:00:57.045] $GPGGA,,,,,,,,,,M,,M,,*56
[2021-02-22 15:00:57.045] $GPGGA,,,,,,,,,,M,,M,,*56
[2021-02-22 15:00:57.045] $GPGGA,,,,,,,,,,M,,M,,*56
[2021-02-22 15:00:57.045] $GPGGA,,,,,,,,,,M,,M,,*56
[2021-02-22 15:00:57.045] $GPGGA,,,,,,,,,,M,,M,,*56
[2021-02-22 15:00:57.045] $GPGGA,,,,,,,,,,M,,M,,*56
[2021-02-22 15:00:57.045] $GPGGA,,,,,,,,,,M,,M,,*56
[2021-02-22 15:00:57.045] $GPGGA,,,,,,,,,,M,,M,,*56
[2021-02-22 15:00:57.045] $GPGGA,,,,,,,,,,M,,M,,*56
[2021-02-22 15:00:57.045] $GPGGA,,,,,,,,,,M,,M,,*56
[2021-02-22 15:00:57.076] $GPGGA,,,,,,,,,,M,,M,,*56
[2021-02-22 15:00:57.076] $GPGGA,,,,,,,,,,M,,M,,*56
[2021-02-22 15:00:57.076] $GPGGA,,,,,,,,,,M,,M,,*56
[2021-02-22 15:00:57.076] $GPGGA,,,,,,,,,,M,,M,,*56
[2021-02-22 15:00:57.076] $GPGGA,,,,,,,,,,M,,M,,*56
[2021-02-22 15:00:57.076] $GPGGA,,,,,,,,,,M,,M,,*56
[2021-02-22 15:00:57.076] $GPGGA,,,,,,,,,,M,,M,,*56
[2021-02-22 15:00:57.076] $GPGGA,,,,,,,,,,M,,M,,*56
[2021-02-22 15:00:57.076] $GPGGA,,,,,,,,,,M,,M,,*56
[2021-02-22 15:00:57.076] $GPGGA,,,,,,,,,,M,,M,,*56
[2021-02-22 15:00:57.076] $GPGGA,,,,,,,,,,M,,M,,*56
[2021-02-22 15:00:57.076] $GPGGA,,,,,,,,,,M,,M,,*56
[2021-02-22 15:00:57.076] $GPGGA,,,,,,,,,,M,,M,,*56
[2021-02-22 15:00:57.076] $GPGGA,,,,,,,,,,M,,M,,*56
[2021-02-22 15:00:57.076] $GPGGA,,,,,,,,,,M,,M,,*56
[2021-02-22 15:00:57.076] $GPGGA,,,,,,,,,,M,,M,,*56
[2021-02-22 15:00:57.076] $GPGGA,,,,,,,,,,M,,M,,*56
[2021-02-22 15:00:57.076] $GPGGA,,,,,,,,,,M,,M,,*56
[2021-02-22 15:00:57.076] $GPGGA,,,,,,,,,,M,,M,,*56
[2021-02-22 15:00:57.076] $GPGGA,,,,,,,,,,M,,M,,*56
[2021-02-22 15:00:57.092] $GPGGA,,,,,,,,,,M,,M,,*56
[2021-02-22 15:00:57.092] $GPGGA,,,,,,,,,,M,,M,,*56
[2021-02-22 15:00:57.092] $GPGGA,,,,,,,,,,M,,M,,*56
[2021-02-22 15:00:57.092] $GPGGA,,,,,,,,,,M,,M,,*56
[2021-02-22 15:00:57.092] $GPGGA,,,,,,,,,,M,,M,,*56
[2021-02-22 15:00:57.092] $GPGGA,,,,,,,,,,M,,M,,*56
[2021-02-22 15:00:57.092] $GPGGA,,,,,,,,,,M,,M,,*56
[2021-02-22 15:00:57.092] $GPGGA,,,,,,,,,,M,,M,,*56
[2021-02-22 15:00:57.092] $GPGGA,,,,,,,,,,M,,M,,*56
[2021-02-22 15:00:57.092] $GPGGA,,,,,,,,,,M,,M,,*56
[2021-02-22 15:00:57.092] $GPGGA,,,,,,,,,,M,,M,,*56
[2021-02-22 15:00:57.092] $GPGGA,,,,,,,,,,M,,M,,*56
[2021-02-22 15:00:57.092] $GPGGA,,,,,,,,,,M,,M,,*56
[2021-02-22 15:00:57.092] $GPGGA,,,,,,,,,,M,,M,,*56
[2021-02-22 15:00:57.092] $GPGGA,,,,,,,,,,M,,M,,*56
[2021-02-22 15:00:57.092] $GPGGA,,,,,,,,,,M,,M,,*56
[2021-02-22 15:00:57.092] $GPGGA,,,,,,,,,,M,,M,,*56
[2021-02-22 15:00:57.092] $GPGGA,,,,,,,,,,M,,M,,*56
[2021-02-22 15:00:57.092] $GPGGA,,,,,,,,,,M,,M,,*56
[2021-02-22 15:00:57.201] $GPGGA,,,,,,,,,,M,,M,,*56
[2021-02-22 15:00:57.405] $GPGGA,,,,,,,,,,M,,M,,*56
[2021-02-22 15:00:57.592] $GPGGA,,,,,,,,,,M,,M,,*56
[2021-02-22 15:00:57.795] $GPGGA,,,,,,,,,,M,,M,,*56
[2021-02-22 15:00:57.998] $GPGGA,,,,,,,,,,M,,M,,*56
[2021-02-22 15:00:58.201] $GPGGA,,,,,,,,,,M,,M,,*56
[2021-02-22 15:00:58.389] $GPGGA,,,,,,,,,,M,,M,,*56
[2021-02-22 15:00:58.592] $GPGGA,,,,,,,,,,M,,M,,*56
[2021-02-22 15:00:58.795] $GPGGA,,,,,,,,,,M,,M,,*56
[2021-02-22 15:00:58.998] $GPGGA,,,,,,,,,,M,,M,,*56
[2021-02-22 15:00:59.201] $GPGGA,,,,,,,,,,M,,M,,*56
[2021-02-22 15:00:59.389] $GPGGA,,,,,,,,,,M,,M,,*56
[2021-02-22 15:00:59.592] $GPGGA,,,,,,,,,,M,,M,,*56
[2021-02-22 15:00:59.795] $GPGGA,,,,,,,,,,M,,M,,*56
[2021-02-22 15:00:59.998] $GPGGA,,,,,,,,,,M,,M,,*56
[2021-02-22 15:01:00.201] $GPGGA,,,,,,,,,,M,,M,,*56
[2021-02-22 15:01:00.389] $GPGGA,,,,,,,,,,M,,M,,*56
[2021-02-22 15:01:00.592] $GPGGA,,,,,,,,,,M,,M,,*56
[2021-02-22 15:01:00.795] $GPGGA,,,,,,,,,,M,,M,,*56
[2021-02-22 15:01:00.998] $GPGGA,,,,,,,,,,M,,M,,*56
[2021-02-22 15:01:01.201] $GPGGA,,,,,,,,,,M,,M,,*56
[2021-02-22 15:01:01.389] $GPGGA,,,,,,,,,,M,,M,,*56
[2021-02-22 15:01:01.592] $GPGGA,,,,,,,,,,M,,M,,*56
[2021-02-22 15:01:01.795] $GPGGA,,,,,,,,,,M,,M,,*56
[2021-02-22 15:01:01.998] $GPGGA,,,,,,,,,,M,,M,,*56
[2021-02-22 15:01:02.201] $GPGGA,,,,,,,,,,M,,M,,*56
[2021-02-22 15:01:02.389] $GPGGA,,,,,,,,,,M,,M,,*56
[2021-02-22 15:01:02.592] $GPGGA,,,,,,,,,,M,,M,,*56
[2021-02-22 15:01:02.795] $GPGGA,,,,,,,,,,M,,M,,*56
[2021-02-22 15:01:02.998] $GPGGA,,,,,,,,,,M,,M,,*56
[2021-02-22 15:01:03.201] $GPGGA,,,,,,,,,,M,,M,,*56
[2021-02-22 15:01:03.404] $GPGGA,,,,,,,,,,M,,M,,*56
[2021-02-22 15:01:03.592] $GPGGA,,,,,,,,,,M,,M,,*56
[2021-02-22 15:01:03.795] $GPGGA,,,,,,,,,,M,,M,,*56
[2021-02-22 15:01:03.998] $GPGGA,,,,,,,,,,M,,M,,*56
[2021-02-22 15:01:04.201] $GPGGA,,,,,,,,,,M,,M,,*56
[2021-02-22 15:01:04.404] $GPGGA,,,,,,,,,,M,,M,,*56
[2021-02-22 15:01:04.592] $GPGGA,,,,,,,,,,M,,M,,*56
[2021-02-22 15:01:04.795] $GPGGA,,,,,,,,,,M,,M,,*56
[2021-02-22 15:01:04.998] $GPGGA,,,,,,,,,,M,,M,,*56
[2021-02-22 15:01:05.201] $GPGGA,,,,,,,,,,M,,M,,*56
[2021-02-22 15:01:05.404] $GPGGA,,,,,,,,,,M,,M,,*56
[2021-02-22 15:01:05.591] $GPGGA,,,,,,,,,,M,,M,,*56
[2021-02-22 15:01:05.795] $GPGGA,,,,,,,,,,M,,M,,*56
[2021-02-22 15:01:05.998] $GPGGA,,,,,,,,,,M,,M,,*56
[2021-02-22 15:01:06.201] $GPGGA,,,,,,,,,,M,,M,,*56
[2021-02-22 15:01:06.404] $GPGGA,,,,,,,,,,M,,M,,*56
[2021-02-22 15:01:06.591] $GPGGA,,,,,,,,,,M,,M,,*56
[2021-02-22 15:01:06.795] $GPGGA,,,,,,,,,,M,,M,,*56
[2021-02-22 15:01:06.998] $GPGGA,,,,,,,,,,M,,M,,*56
[2021-02-22 15:01:07.201] $GPGGA,,,,,,,,,,M,,M,,*56
[2021-02-22 15:01:07.404] $GPGGA,,,,,,,,,,M,,M,,*56
[2021-02-22 15:01:07.591] $GPGGA,,,,,,,,,,M,,M,,*56
[2021-02-22 15:01:07.794] $GPGGA,,,,,,,,,,M,,M,,*56
[2021-02-22 15:01:07.998] $GPGGA,,,,,,,,,,M,,M,,*56
[2021-02-22 15:01:08.201] $GPGGA,,,,,,,,,,M,,M,,*56
[2021-02-22 15:01:08.404] $GPGGA,,,,,,,,,,M,,M,,*56
[2021-02-22 15:01:08.591] $GPGGA,,,,,,,,,,M,,M,,*56
[2021-02-22 15:01:08.794] $GPGGA,,,,,,,,,,M,,M,,*56
[2021-02-22 15:01:08.998] $GPGGA,,,,,,,,,,M,,M,,*56
[2021-02-22 15:01:09.201] $GPGGA,,,,,,,,,,M,,M,,*56
[2021-02-22 15:01:09.388] $GPGGA,,,,,,,,,,M,,M,,*56
[2021-02-22 15:01:09.591] $GPGGA,,,,,,,,,,M,,M,,*56
[2021-02-22 15:01:09.794] $GPGGA,,,,,,,,,,M,,M,,*56
[2021-02-22 15:01:09.997] $GPGGA,,,,,,,,,,M,,M,,*56
[2021-02-22 15:01:10.201] $GPGGA,,,,,,,,,,M,,M,,*56
[2021-02-22 15:01:10.404] $GPGGA,,,,,,,,,,M,,M,,*56
[2021-02-22 15:01:10.591] $GPGGA,,,,,,,,,,M,,M,,*56
[2021-02-22 15:01:10.794] $GPGGA,,,,,,,,,,M,,M,,*56
[2021-02-22 15:01:10.997] $GPGGA,,,,,,,,,,M,,M,,*56
[2021-02-22 15:01:11.200] $GPGGA,,,,,,,,,,M,,M,,*56
[2021-02-22 15:01:11.404] $GPGGA,,,,,,,,,,M,,M,,*56
[2021-02-22 15:01:11.591] $GPGGA,,,,,,,,,,M,,M,,*56
[2021-02-22 15:01:11.794] $GPGGA,,,,,,,,,,M,,M,,*56
[2021-02-22 15:01:11.997] $GPGGA,,,,,,,,,,M,,M,,*56
[2021-02-22 15:01:12.200] $GPGGA,,,,,,,,,,M,,M,,*56
[2021-02-22 15:01:12.388] $GPGGA,,,,,,,,,,M,,M,,*56
[2021-02-22 15:01:12.591] $GPGGA,,,,,,,,,,M,,M,,*56
[2021-02-22 15:01:12.794] $GPGGA,,,,,,,,,,M,,M,,*56
[2021-02-22 15:01:12.997] $GPGGA,,,,,,,,,,M,,M,,*56
[2021-02-22 15:01:13.200] $GPGGA,,,,,,,,,,M,,M,,*56
[2021-02-22 15:01:13.403] $GPGGA,,,,,,,,,,M,,M,,*56
[2021-02-22 15:01:13.591] $GPGGA,,,,,,,,,,M,,M,,*56
[2021-02-22 15:01:13.794] $GPGGA,,,,,,,,,,M,,M,,*56
[2021-02-22 15:01:13.997] $GPGGA,,,,,,,,,,M,,M,,*56
[2021-02-22 15:01:14.200] $GPGGA,,,,,,,,,,M,,M,,*56
[2021-02-22 15:01:14.403] $GPGGA,,,,,,,,,,M,,M,,*56
[2021-02-22 15:01:14.591] $GPGGA,,,,,,,,,,M,,M,,*56
[2021-02-22 15:01:14.794] $GPGGA,,,,,,,,,,M,,M,,*56
[2021-02-22 15:01:14.997] $GPGGA,,,,,,,,,,M,,M,,*56
[2021-02-22 15:01:15.200] $GPGGA,,,,,,,,,,M,,M,,*56
[2021-02-22 15:01:15.403] $GPGGA,,,,,,,,,,M,,M,,*56
[2021-02-22 15:01:15.591] $GPGGA,,,,,,,,,,M,,M,,*56
[2021-02-22 15:01:15.794] $GPGGA,,,,,,,,,,M,,M,,*56
[2021-02-22 15:01:15.997] $GPGGA,,,,,,,,,,M,,M,,*56
[2021-02-22 15:01:16.200] $GPGGA,,,,,,,,,,M,,M,,*56
[2021-02-22 15:01:16.403] $GPGGA,,,,,,,,,,M,,M,,*56
[2021-02-22 15:01:16.591] $GPGGA,,,,,,,,,,M,,M,,*56
[2021-02-22 15:01:16.794] $GPGGA,,,,,,,,,,M,,M,,*56
[2021-02-22 15:01:16.997] $GPGGA,,,,,,,,,,M,,M,,*56
[2021-02-22 15:01:17.200] $GPGGA,,,,,,,,,,M,,M,,*56
[2021-02-22 15:01:17.403] $GPGGA,,,,,,,,,,M,,M,,*56
[2021-02-22 15:01:17.591] $GPGGA,,,,,,,,,,M,,M,,*56
[2021-02-22 15:01:17.794] $GPGGA,,,,,,,,,,M,,M,,*56
[2021-02-22 15:01:17.997] $GPGGA,,,,,,,,,,M,,M,,*56
[2021-02-22 15:01:18.200] $GPGGA,,,,,,,,,,M,,M,,*56
[2021-02-22 15:01:18.403] $GPGGA,,,,,,,,,,M,,M,,*56
[2021-02-22 15:01:18.591] $GPGGA,,,,,,,,,,M,,M,,*56
[2021-02-22 15:01:18.794] $GPGGA,,,,,,,,,,M,,M,,*56
[2021-02-22 15:01:18.997] $GPGGA,,,,,,,,,,M,,M,,*56
[2021-02-22 15:01:19.200] $GPGGA,,,,,,,,,,M,,M,,*56
[2021-02-22 15:01:19.403] $GPGGA,,,,,,,,,,M,,M,,*56
[2021-02-22 15:01:19.591] $GPGGA,,,,,,,,,,M,,M,,*56
[2021-02-22 15:01:19.794] $GPGGA,,,,,,,,,,M,,M,,*56
[2021-02-22 15:01:19.997] $GPGGA,,,,,,,,,,M,,M,,*56
[2021-02-22 15:01:20.200] $GPGGA,,,,,,,,,,M,,M,,*56
[2021-02-22 15:01:20.403] $GPGGA,,,,,,,,,,M,,M,,*56
[2021-02-22 15:01:20.590] $GPGGA,,,,,,,,,,M,,M,,*56
[2021-02-22 15:01:20.794] $GPGGA,,,,,,,,,,M,,M,,*56
[2021-02-22 15:01:20.997] $GPGGA,,,,,,,,,,M,,M,,*56
[2021-02-22 15:01:21.200] $GPGGA,,,,,,,,,,M,,M,,*56
[2021-02-22 15:01:21.403] $GPGGA,,,,,,,,,,M,,M,,*56
[2021-02-22 15:01:21.590] $GPGGA,,,,,,,,,,M,,M,,*56
[2021-02-22 15:01:21.793] $GPGGA,,,,,,,,,,M,,M,,*56
[2021-02-22 15:01:21.997] $GPGGA,,,,,,,,,,M,,M,,*56
[2021-02-22 15:01:22.200] $GPGGA,,,,,,,,,,M,,M,,*56
[2021-02-22 15:01:22.403] $GPGGA,,,,,,,,,,M,,M,,*56
[2021-02-22 15:01:22.590] $GPGGA,,,,,,,,,,M,,M,,*56
[2021-02-22 15:01:22.793] $GPGGA,,,,,,,,,,M,,M,,*56
[2021-02-22 15:01:22.997] $GPGGA,,,,,,,,,,M,,M,,*56
[2021-02-22 15:01:23.200] $GPGGA,,,,,,,,,,M,,M,,*56
[2021-02-22 15:01:23.403] $GPGGA,,,,,,,,,,M,,M,,*56
[2021-02-22 15:01:23.590] $GPGGA,,,,,,,,,,M,,M,,*56
[2021-02-22 15:01:23.793] $GPGGA,,,,,,,,,,M,,M,,*56
[2021-02-22 15:01:23.996] $GPGGA,,,,,,,,,,M,,M,,*56
[2021-02-22 15:01:24.200] $GPGGA,,,,,,,,,,M,,M,,*56
[2021-02-22 15:01:24.403] $GPGGA,,,,,,,,,,M,,M,,*56
[2021-02-22 15:01:24.590] $GPGGA,,,,,,,,,,M,,M,,*56
[2021-02-22 15:01:24.793] $GPGGA,,,,,,,,,,M,,M,,*56
[2021-02-22 15:01:24.996] $GPGGA,,,,,,,,,,M,,M,,*56
[2021-02-22 15:01:25.200] $GPGGA,,,,,,,,,,M,,M,,*56
[2021-02-22 15:01:25.403] $GPGGA,,,,,,,,,,M,,M,,*56
[2021-02-22 15:01:25.590] $GPGGA,,,,,,,,,,M,,M,,*56
[2021-02-22 15:01:25.793] $GPGGA,,,,,,,,,,M,,M,,*56
[2021-02-22 15:01:25.996] $GPGGA,,,,,,,,,,M,,M,,*56
[2021-02-22 15:01:26.199] $GPGGA,,,,,,,,,,M,,M,,*56
[2021-02-22 15:01:26.403] $GPGGA,,,,,,,,,,M,,M,,*56
[2021-02-22 15:01:26.590] $GPGGA,,,,,,,,,,M,,M,,*56
[2021-02-22 15:01:26.793] $GPGGA,,,,,,,,,,M,,M,,*56
[2021-02-22 15:01:26.996] $GPGGA,,,,,,,,,,M,,M,,*56
[2021-02-22 15:01:27.199] $GPGGA,,,,,,,,,,M,,M,,*56
[2021-02-22 15:01:27.402] $GPGGA,,,,,,,,,,M,,M,,*56
[2021-02-22 15:01:27.590] $GPGGA,,,,,,,,,,M,,M,,*56
[2021-02-22 15:01:27.793] $GPGGA,,,,,,,,,,M,,M,,*56
[2021-02-22 15:01:27.996] $GPGGA,,,,,,,,,,M,,M,,*56
[2021-02-22 15:01:28.199] $GPGGA,,,,,,,,,,M,,M,,*56
[2021-02-22 15:01:28.402] $GPGGA,,,,,,,,,,M,,M,,*56
[2021-02-22 15:01:28.590] $GPGGA,,,,,,,,,,M,,M,,*56
[2021-02-22 15:01:28.793] $GPGGA,,,,,,,,,,M,,M,,*56
[2021-02-22 15:01:28.996] $GPGGA,,,,,,,,,,M,,M,,*56
[2021-02-22 15:01:29.199] $GPGGA,,,,,,,,,,M,,M,,*56
[2021-02-22 15:01:29.402] $GPGGA,,,,,,,,,,M,,M,,*56
[2021-02-22 15:01:29.590] $GPGGA,,,,,,,,,,M,,M,,*56
[2021-02-22 15:01:29.793] $GPGGA,,,,,,,,,,M,,M,,*56
[2021-02-22 15:01:29.996] $GPGGA,,,,,,,,,,M,,M,,*56
[2021-02-22 15:01:30.199] $GPGGA,,,,,,,,,,M,,M,,*56
[2021-02-22 15:01:30.402] $GPGGA,,,,,,,,,,M,,M,,*56
[2021-02-22 15:01:30.590] $GPGGA,,,,,,,,,,M,,M,,*56
[2021-02-22 15:01:30.793] $GPGGA,,,,,,,,,,M,,M,,*56
[2021-02-22 15:01:30.996] $GPGGA,,,,,,,,,,M,,M,,*56
[2021-02-22 15:01:31.199] $GPGGA,,,,,,,,,,M,,M,,*56
[2021-02-22 15:01:31.402] $GPGGA,,,,,,,,,,M,,M,,*56
[2021-02-22 15:01:31.605] $GPGGA,,,,,,,,,,M,,M,,*56
[2021-02-22 15:01:31.793] $GPGGA,,,,,,,,,,M,,M,,*56
[2021-02-22 15:01:31.996] $GPGGA,,,,,,,,,,M,,M,,*56
[2021-02-22 15:01:32.199] $GPGGA,,,,,,,,,,M,,M,,*56
[2021-02-22 15:01:32.402] $GPGGA,,,,,,,,,,M,,M,,*56
[2021-02-22 15:01:32.605] $GPGGA,,,,,,,,,,M,,M,,*56
[2021-02-22 15:01:32.793] $GPGGA,,,,,,,,,,M,,M,,*56
[2021-02-22 15:01:32.996] $GPGGA,,,,,,,,,,M,,M,,*56
[2021-02-22 15:01:33.199] $GPGGA,,,,,,,,,,M,,M,,*56
[2021-02-22 15:01:33.402] $GPGGA,,,,,,,,,,M,,M,,*56
[2021-02-22 15:01:33.589] $GPGGA,,,,,,,,,,M,,M,,*56
[2021-02-22 15:01:33.793] $GPGGA,,,,,,,,,,M,,M,,*56
[2021-02-22 15:01:33.996] $GPGGA,,,,,,,,,,M,,M,,*56
[2021-02-22 15:01:34.199] $GPGGA,,,,,,,,,,M,,M,,*56
[2021-02-22 15:01:34.402] $GPGGA,,,,,,,,,,M,,M,,*56
[2021-02-22 15:01:34.589] $GPGGA,,,,,,,,,,M,,M,,*56
[2021-02-22 15:01:34.793] $GPGGA,,,,,,,,,,M,,M,,*56
[2021-02-22 15:01:34.996] $GPGGA,,,,,,,,,,M,,M,,*56
[2021-02-22 15:01:35.199] $GPGGA,,,,,,,,,,M,,M,,*56
[2021-02-22 15:01:35.402] $GPGGA,,,,,,,,,,M,,M,,*56
[2021-02-22 15:01:35.589] $GPGGA,,,,,,,,,,M,,M,,*56
[2021-02-22 15:01:35.793] $GPGGA,,,,,,,,,,M,,M,,*56
[2021-02-22 15:01:35.996] $GPGGA,,,,,,,,,,M,,M,,*56
[2021-02-22 15:01:36.199] $GPGGA,,,,,,,,,,M,,M,,*56
[2021-02-22 15:01:36.402] $GPGGA,,,,,,,,,,M,,M,,*56
[2021-02-22 15:01:36.589] $GPGGA,,,,,,,,,,M,,M,,*56
[2021-02-22 15:01:36.792] $GPGGA,,,,,,,,,,M,,M,,*56
[2021-02-22 15:01:36.996] $GPGGA,,,,,,,,,,M,,M,,*56
[2021-02-22 15:01:37.199] $GPGGA,,,,,,,,,,M,,M,,*56
[2021-02-22 15:01:37.402] $GPGGA,,,,,,,,,,M,,M,,*56
[2021-02-22 15:01:37.605] $GPGGA,,,,,,,,,,M,,M,,*56
[2021-02-22 15:01:37.792] $GPGGA,,,,,,,,,,M,,M,,*56
[2021-02-22 15:01:37.995] $GPGGA,,,,,,,,,,M,,M,,*56
[2021-02-22 15:01:38.199] $GPGGA,,,,,,,,,,M,,M,,*56
[2021-02-22 15:01:38.402] $GPGGA,,,,,,,,,,M,,M,,*56
[2021-02-22 15:01:38.589] $GPGGA,,,,,,,,,,M,,M,,*56
[2021-02-22 15:01:38.792] $GPGGA,,,,,,,,,,M,,M,,*56
[2021-02-22 15:01:38.995] $GPGGA,,,,,,,,,,M,,M,,*56
[2021-02-22 15:01:39.199] $GPGGA,,,,,,,,,,M,,M,,*56
[2021-02-22 15:01:39.402] $GPGGA,,,,,,,,,,M,,M,,*56
[2021-02-22 15:01:39.605] $GPGGA,,,,,,,,,,M,,M,,*56
[2021-02-22 15:01:39.792] $GPGGA,,,,,,,,,,M,,M,,*56
[2021-02-22 15:01:39.995] $GPGGA,,,,,,,,,,M,,M,,*56
[2021-02-22 15:01:40.198] $GPGGA,,,,,,,,,,M,,M,,*56
[2021-02-22 15:01:40.402] $GPGGA,,,,,,,,,,M,,M,,*56
[2021-02-22 15:01:40.589] $GPGGA,,,,,,,,,,M,,M,,*56
[2021-02-22 15:01:40.792] $GPGGA,,,,,,,,,,M,,M,,*56
[2021-02-22 15:01:40.995] $GPGGA,,,,,,,,,,M,,M,,*56
[2021-02-22 15:01:41.198] $GPGGA,,,,,,,,,,M,,M,,*56
[2021-02-22 15:01:41.401] $GPGGA,60141,3713.905626,N,13701.46111,E,1,5,2.4,94.683,M,36.77,M,,*54
[2021-02-22 15:01:41.495] $GPGGA,60141.1,3713.905629,N,13701.46111,E,1,5,2.4,94.693,M,36.77,M,,*50
[2021-02-22 15:01:41.605] $GPGGA,60141.2,3713.906352,N,13701.46008,E,2,7,1.4,92.625,M,36.77,M,45.2,0000*43
[2021-02-22 15:01:41.698] $GPGGA,60141.3,3713.906353,N,13701.46008,E,2,7,1.4,92.622,M,36.77,M,45.2,0000*44
[2021-02-22 15:01:41.808] $GPGGA,60141.4,3713.906564,N,13701.45994,E,2,8,1.1,92.391,M,36.77,M,45.4,0000*4E
[2021-02-22 15:01:41.901] $GPGGA,60141.5,3713.906566,N,13701.45994,E,2,8,1.1,92.395,M,36.77,M,45.4,0000*43
[2021-02-22 15:01:42.011] $GPGGA,60141.6,3713.906654,N,13701.45986,E,2,8,1.1,92.493,M,36.77,M,45.6,0000*4C
[2021-02-22 15:01:42.105] $GPGGA,60141.7,3713.906655,N,13701.45985,E,2,8,1.1,92.493,M,36.77,M,45.6,0000*4A
[2021-02-22 15:01:42.198] $GPGGA,60141.8,3713.906709,N,13701.4598,E,2,8,1.1,92.534,M,36.77,M,45.8,0000*46
[2021-02-22 15:01:42.292] $GPGGA,60141.9,3713.90671,N,13701.4598,E,2,8,1.1,92.531,M,36.77,M,45.8,0000*4F
[2021-02-22 15:01:42.417] $GPGGA,60142,3713.906741,N,13701.45974,E,2,8,1.1,92.53,M,36.77,M,46,0000*43
[2021-02-22 15:01:42.495] $GPGGA,60142.1,3713.906742,N,13701.45974,E,2,8,1.1,92.527,M,36.77,M,46,0000*47
[2021-02-22 15:01:42.605] $GPGGA,60142.2,3713.906764,N,13701.45968,E,2,8,1.1,92.525,M,36.77,M,46.2,0000*4E
[2021-02-22 15:01:42.698] $GPGGA,60142.3,3713.906765,N,13701.45968,E,2,8,1.1,92.522,M,36.77,M,46.2,0000*4E
[2021-02-22 15:01:42.808] $GPGGA,60142.4,3713.906783,N,13701.45964,E,2,8,1.1,92.506,M,36.77,M,46.4,0000*44
[2021-02-22 15:01:42.901] $GPGGA,60142.5,3713.906784,N,13701.45964,E,2,8,1.1,92.503,M,36.77,M,46.4,0000*4C
[2021-02-22 15:01:43.011] $GPGGA,60142.6,3713.906806,N,13701.4596,E,2,8,1.1,92.487,M,36.77,M,46.6,0000*4D
[2021-02-22 15:01:43.104] $GPGGA,60142.7,3713.906807,N,13701.4596,E,2,8,1.1,92.487,M,36.77,M,46.6,0000*41
[2021-02-22 15:01:43.198] $GPGGA,60142.8,3713.906835,N,13701.45955,E,2,9,1.1,92.535,M,36.77,M,46.8,0000*4E
[2021-02-22 15:01:43.292] $GPGGA,60142.9,3713.906836,N,13701.45955,E,2,9,1.1,92.535,M,36.77,M,46.8,0000*4D
[2021-02-22 15:01:43.401] $GPGGA,60143,3713.906855,N,13701.45951,E,2,9,1.1,92.572,M,36.77,M,47,0000*48
[2021-02-22 15:01:43.495] $GPGGA,60143.1,3713.906856,N,13701.45951,E,2,9,1.1,92.568,M,36.77,M,47,0000*43
[2021-02-22 15:01:43.604] $GPGGA,60143.2,3713.906871,N,13701.45948,E,2,9,1.1,92.612,M,36.77,M,47.2,0000*4E
[2021-02-22 15:01:43.698] $GPGGA,60143.3,3713.906872,N,13701.45948,E,2,9,1.1,92.609,M,36.77,M,47.2,0000*4C
[2021-02-22 15:01:43.808] $GPGGA,60143.4,3713.906882,N,13701.45947,E,2,9,1.1,92.637,M,36.77,M,47.4,0000*4E
[2021-02-22 15:01:43.901] $GPGGA,60143.5,3713.906884,N,13701.45946,E,2,9,1.1,92.64,M,36.77,M,47.4,0000*44
[2021-02-22 15:01:44.011] $GPGGA,60143.6,3713.906891,N,13701.45945,E,2,9,1.1,92.663,M,36.77,M,47.6,0000*46
[2021-02-22 15:01:44.104] $GPGGA,60143.7,3713.906892,N,13701.45945,E,2,9,1.1,92.658,M,36.77,M,47.6,0000*42
[2021-02-22 15:01:44.198] $GPGGA,60143.8,3713.906904,N,13701.45944,E,2,9,1.1,92.681,M,36.77,M,47.8,0000*4C
[2021-02-22 15:01:44.292] $GPGGA,60143.9,3713.906904,N,13701.45944,E,2,9,1.1,92.679,M,36.77,M,47.8,0000*49
[2021-02-22 15:01:44.401] $GPGGA,60144,3713.906911,N,13701.45943,E,2,11,0.9,92.699,M,36.77,M,48,0000*46
[2021-02-22 15:01:44.495] $GPGGA,60144.1,3713.906912,N,13701.45943,E,2,10,0.9,92.701,M,36.77,M,48,0000*40
[2021-02-22 15:01:44.604] $GPGGA,60144.2,3713.90692,N,13701.45942,E,2,11,0.9,92.713,M,36.77,M,48.2,0000*44
[2021-02-22 15:01:44.698] $GPGGA,60144.3,3713.906923,N,13701.45943,E,2,11,0.9,92.71,M,36.77,M,48.2,0000*44
[2021-02-22 15:01:44.807] $GPGGA,60144.4,3713.906925,N,13701.45942,E,2,11,0.9,92.722,M,36.77,M,48.4,0000*43
[2021-02-22 15:01:44.901] $GPGGA,60144.5,3713.906927,N,13701.45942,E,2,11,0.9,92.719,M,36.77,M,48.4,0000*43
[2021-02-22 15:01:45.011] $GPGGA,60144.6,3713.906925,N,13701.45941,E,2,11,0.9,92.727,M,36.77,M,48.6,0000*41
[2021-02-22 15:01:45.104] $GPGGA,60144.7,3713.906927,N,13701.45941,E,2,11,0.9,92.727,M,36.77,M,48.6,0000*4E
[2021-02-22 15:01:45.198] $GPGGA,60144.8,3713.906922,N,13701.45941,E,2,11,0.9,92.737,M,36.77,M,48.8,0000*4A
[2021-02-22 15:01:45.292] $GPGGA,60144.9,3713.906924,N,13701.45941,E,2,11,0.9,92.73,M,36.77,M,48.8,0000*46
[2021-02-22 15:01:45.401] $GPGGA,60145,3713.906913,N,13701.4594,E,2,11,0.9,92.727,M,36.77,M,49,0000*43
[2021-02-22 15:01:45.495] $GPGGA,60145.1,3713.906913,N,13701.4594,E,2,11,0.9,92.727,M,36.77,M,49,0000*45
[2021-02-22 15:01:45.604] $GPGGA,60145.2,3713.906911,N,13701.45939,E,2,11,0.9,92.717,M,36.77,M,49.2,0000*48
[2021-02-22 15:01:45.698] $GPGGA,60145.3,3713.906911,N,13701.45939,E,2,11,0.9,92.721,M,36.77,M,49.2,0000*45
[2021-02-22 15:01:45.807] $GPGGA,60145.4,3713.906914,N,13701.45939,E,2,11,0.9,92.715,M,36.77,M,49.4,0000*45
[2021-02-22 15:01:45.901] $GPGGA,60145.5,3713.906912,N,13701.45939,E,2,11,0.9,92.711,M,36.77,M,49.4,0000*41
[2021-02-22 15:01:46.011] $GPGGA,60145.6,3713.906913,N,13701.45939,E,2,11,0.9,92.706,M,36.77,M,49.6,0000*48
[2021-02-22 15:01:46.104] $GPGGA,60145.7,3713.906913,N,13701.45939,E,2,11,0.9,92.71,M,36.77,M,49.6,0000*44
[2021-02-22 15:01:46.198] $GPGGA,60145.8,3713.906911,N,13701.45939,E,2,11,0.9,92.7,M,36.77,M,49.8,0000*47
[2021-02-22 15:01:46.307] $GPGGA,60145.9,3713.906913,N,13701.45939,E,2,11,0.9,92.698,M,36.77,M,49.8,0000*4C
[2021-02-22 15:01:46.401] $GPGGA,60146,3713.90691,N,13701.45939,E,2,11,0.9,92.69,M,36.77,M,50,0000*46
[2021-02-22 15:01:46.495] $GPGGA,60146.1,3713.906911,N,13701.45939,E,2,11,0.9,92.692,M,36.77,M,50,0000*43
[2021-02-22 15:01:46.604] $GPGGA,60146.2,3713.906907,N,13701.45939,E,2,11,0.9,92.686,M,36.77,M,50.2,0000*43
[2021-02-22 15:01:46.698] $GPGGA,60146.3,3713.906908,N,13701.45939,E,2,11,0.9,92.685,M,36.77,M,50.2,0000*41
[2021-02-22 15:01:46.807] $GPGGA,60146.4,3713.906904,N,13701.4594,E,2,11,0.9,92.682,M,36.77,M,50.4,0000*48
[2021-02-22 15:01:46.901] $GPGGA,60146.5,3713.906905,N,13701.4594,E,2,11,0.9,92.68,M,36.77,M,50.4,0000*43
[2021-02-22 15:01:47.010] $GPGGA,60146.6,3713.906899,N,13701.4594,E,2,11,0.9,92.674,M,36.77,M,50.6,0000*47
[2021-02-22 15:01:47.104] $GPGGA,60146.7,3713.906899,N,13701.4594,E,2,11,0.9,92.671,M,36.77,M,50.6,0000*4A
[2021-02-22 15:01:47.214] $GPGGA,60146.8,3713.90689,N,13701.4594,E,2,11,0.9,92.664,M,36.77,M,50.8,0000*40
[2021-02-22 15:01:47.292] $GPGGA,60146.9,3713.906892,N,13701.4594,E,2,11,0.9,92.662,M,36.77,M,50.8,0000*48
[2021-02-22 15:01:47.417] $GPGGA,60147,3713.906884,N,13701.45939,E,2,11,0.9,92.65,M,36.77,M,51,0000*4F
[2021-02-22 15:01:47.495] $GPGGA,60147.1,3713.906884,N,13701.45939,E,2,11,0.9,92.652,M,36.77,M,51,0000*49
[2021-02-22 15:01:47.604] $GPGGA,60147.2,3713.906878,N,13701.45939,E,2,11,0.9,92.645,M,36.77,M,51.2,0000*4A
[2021-02-22 15:01:47.698] $GPGGA,60147.3,3713.906878,N,13701.45939,E,2,11,0.9,92.645,M,36.77,M,51.2,0000*41
[2021-02-22 15:01:47.807] $GPGGA,60147.4,3713.906868,N,13701.45938,E,2,11,0.9,92.64,M,36.77,M,51.4,0000*43
[2021-02-22 15:01:47.901] $GPGGA,60147.5,3713.906869,N,13701.45938,E,2,11,0.9,92.643,M,36.77,M,51.4,0000*4D
[2021-02-22 15:01:48.010] $GPGGA,60147.6,3713.90686,N,13701.45938,E,2,11,0.9,92.64,M,36.77,M,51.6,0000*4C
[2021-02-22 15:01:48.104] $GPGGA,60147.7,3713.906861,N,13701.45938,E,2,11,0.9,92.637,M,36.77,M,51.6,0000*40
[2021-02-22 15:01:48.214] $GPGGA,60147.8,3713.906851,N,13701.45938,E,2,11,0.9,92.638,M,36.77,M,51.8,0000*4B
[2021-02-22 15:01:48.307] $GPGGA,60147.9,3713.906852,N,13701.45938,E,2,11,0.9,92.635,M,36.77,M,51.8,0000*41
[2021-02-22 15:01:48.401] $GPGGA,60148,3713.906838,N,13701.45938,E,2,11,0.9,92.631,M,36.77,M,52,0000*4E
[2021-02-22 15:01:48.495] $GPGGA,60148.1,3713.90684,N,13701.45938,E,2,11,0.9,92.633,M,36.77,M,52,0000*4F
[2021-02-22 15:01:48.604] $GPGGA,60148.2,3713.906829,N,13701.45938,E,2,11,0.9,92.631,M,36.77,M,52.2,0000*48
[2021-02-22 15:01:48.698] $GPGGA,60148.3,3713.906829,N,13701.45938,E,2,6,0.9,92.629,M,36.77,M,52.2,0000*43
[2021-02-22 15:01:48.807] $GPGGA,60148.4,3713.906778,N,13701.45939,E,2,6,1.4,92.707,M,36.77,M,2.4,0000*79
[2021-02-22 15:01:48.901] $GPGGA,60148.5,3713.906777,N,13701.45939,E,2,6,1.4,92.704,M,36.77,M,2.4,0000*74
[2021-02-22 15:01:49.010] $GPGGA,60148.6,3713.906735,N,13701.45941,E,2,6,1.4,92.747,M,36.77,M,2.6,0000*71
[2021-02-22 15:01:49.104] $GPGGA,60148.7,3713.906736,N,13701.45941,E,2,6,1.4,92.748,M,36.77,M,2.6,0000*7A
[2021-02-22 15:01:49.198] $GPGGA,60148.8,3713.906697,N,13701.45942,E,2,6,1.4,92.764,M,36.77,M,2.8,0000*75
[2021-02-22 15:01:49.292] $GPGGA,60148.9,3713.906699,N,13701.45942,E,2,6,1.4,92.76,M,36.77,M,2.8,0000*7E
[2021-02-22 15:01:49.401] $GPGGA,60149,3713.906665,N,13701.45944,E,2,6,1.4,92.77,M,36.77,M,3,0000*76
[2021-02-22 15:01:49.495] $GPGGA,60149.1,3713.906665,N,13701.45944,E,2,6,1.4,92.773,M,36.77,M,3,0000*7F
[2021-02-22 15:01:49.604] $GPGGA,60149.2,3713.906637,N,13701.45945,E,2,6,1.4,92.771,M,36.77,M,3.2,0000*78
[2021-02-22 15:01:49.698] $GPGGA,60149.3,3713.906637,N,13701.45945,E,2,6,1.4,92.767,M,36.77,M,3.2,0000*71
[2021-02-22 15:01:49.807] $GPGGA,60149.4,3713.90661,N,13701.45946,E,2,6,1.4,92.765,M,36.77,M,2.4,0000*70
[2021-02-22 15:01:49.901] $GPGGA,60149.5,3713.90661,N,13701.45947,E,2,6,1.4,92.763,M,36.77,M,2.4,0000*7C
[2021-02-22 15:01:50.010] $GPGGA,60149.6,3713.906587,N,13701.45948,E,2,6,1.4,92.756,M,36.77,M,2.6,0000*72
[2021-02-22 15:01:50.104] $GPGGA,60149.7,3713.906588,N,13701.45948,E,2,6,1.4,92.757,M,36.77,M,2.6,0000*72
[2021-02-22 15:01:50.213] $GPGGA,60149.8,3713.906569,N,13701.45948,E,2,6,1.4,92.754,M,36.77,M,2.8,0000*70
[2021-02-22 15:01:50.292] $GPGGA,60149.9,3713.906569,N,13701.45948,E,2,6,1.4,92.752,M,36.77,M,2.8,0000*7B
[2021-02-22 15:01:50.401] $GPGGA,60150,3713.906551,N,13701.45949,E,2,6,1.4,92.75,M,36.77,M,3,0000*74
[2021-02-22 15:01:50.495] $GPGGA,60150.1,3713.906552,N,13701.45949,E,2,6,1.4,92.75,M,36.77,M,3,0000*71
[2021-02-22 15:01:50.604] $GPGGA,60150.2,3713.906537,N,13701.4595,E,2,6,1.4,92.75,M,36.77,M,3.2,0000*74
[2021-02-22 15:01:50.698] $GPGGA,60150.3,3713.906662,N,13701.45946,E,5,7,1.4,91.572,M,36.77,M,2.3,0000*71
[2021-02-22 15:01:50.807] $GPGGA,60150.4,3713.906664,N,13701.45946,E,5,7,1.4,91.572,M,36.77,M,2.4,0000*7A
[2021-02-22 15:01:50.901] $GPGGA,60150.5,3713.906663,N,13701.45946,E,5,7,1.4,91.569,M,36.77,M,2.5,0000*79
[2021-02-22 15:01:51.010] $GPGGA,60150.6,3713.906663,N,13701.45946,E,5,7,1.4,91.572,M,36.77,M,2.6,0000*7D
[2021-02-22 15:01:51.104] $GPGGA,60150.7,3713.906665,N,13701.45946,E,5,7,1.4,91.569,M,36.77,M,2.7,0000*70
[2021-02-22 15:01:51.213] $GPGGA,60150.8,3713.906664,N,13701.45946,E,5,7,1.4,91.572,M,36.77,M,2.8,0000*71
[2021-02-22 15:01:51.307] $GPGGA,60150.9,3713.906666,N,13701.45946,E,5,7,1.4,91.57,M,36.77,M,2.9,0000*7F
[2021-02-22 15:01:51.416] $GPGGA,60151,3713.906667,N,13701.45946,E,5,7,1.4,91.566,M,36.77,M,3,0000*73
[2021-02-22 15:01:51.495] $GPGGA,60151.1,3713.906664,N,13701.45946,E,5,7,1.4,91.575,M,36.77,M,3.1,0000*78
[2021-02-22 15:01:51.619] $GPGGA,60151.2,3713.906663,N,13701.45946,E,5,7,1.4,91.574,M,36.77,M,3.2,0000*78
[2021-02-22 15:01:51.698] $GPGGA,60151.3,3713.906666,N,13701.45946,E,4,7,1.4,91.561,M,36.77,M,2.3,0000*7F
[2021-02-22 15:01:51.807] $GPGGA,60151.4,3713.906666,N,13701.45946,E,4,7,1.4,91.562,M,36.77,M,2.4,0000*71
[2021-02-22 15:01:51.901] $GPGGA,60151.5,3713.906667,N,13701.45946,E,4,7,1.4,91.561,M,36.77,M,2.5,0000*76
[2021-02-22 15:01:52.010] $GPGGA,60151.6,3713.906669,N,13701.45946,E,4,7,1.4,91.566,M,36.77,M,2.6,0000*72
[2021-02-22 15:01:52.104] $GPGGA,60151.7,3713.906669,N,13701.45946,E,4,7,1.4,91.557,M,36.77,M,2.7,0000*77
[2021-02-22 15:01:52.213] $GPGGA,60151.8,3713.906665,N,13701.45946,E,4,7,1.4,91.565,M,36.77,M,2.8,0000*74
[2021-02-22 15:01:52.307] $GPGGA,60151.9,3713.906667,N,13701.45946,E,4,7,1.4,91.558,M,36.77,M,2.9,0000*7A
[2021-02-22 15:01:52.416] $GPGGA,60152,3713.906667,N,13701.45946,E,4,7,1.4,91.563,M,36.77,M,3,0000*77
[2021-02-22 15:01:52.494] $GPGGA,60152.1,3713.906669,N,13701.45946,E,4,7,1.4,91.562,M,36.77,M,3.1,0000*75
[2021-02-22 15:01:52.619] $GPGGA,60152.2,3713.906668,N,13701.45946,E,4,7,1.4,91.564,M,36.77,M,3.2,0000*7F
[2021-02-22 15:01:52.698] $GPGGA,60152.3,3713.906665,N,13701.45947,E,4,7,1.4,91.567,M,36.77,M,2.3,0000*76
[2021-02-22 15:01:52.807] $GPGGA,60152.4,3713.906664,N,13701.45947,E,4,7,1.4,91.578,M,36.77,M,2.4,0000*78
[2021-02-22 15:01:52.901] $GPGGA,60152.5,3713.906666,N,13701.45947,E,4,7,1.4,91.568,M,36.77,M,2.5,0000*71
[2021-02-22 15:01:53.010] $GPGGA,60152.6,3713.906667,N,13701.45946,E,4,7,1.4,91.566,M,36.77,M,2.6,0000*7A
[2021-02-22 15:01:53.104] $GPGGA,60152.7,3713.906666,N,13701.45947,E,4,7,1.4,91.579,M,36.77,M,2.7,0000*77
[2021-02-22 15:01:53.213] $GPGGA,60152.8,3713.906665,N,13701.45946,E,4,7,1.4,91.57,M,36.77,M,2.8,0000*7A
[2021-02-22 15:01:53.307] $GPGGA,60152.9,3713.906665,N,13701.45947,E,4,7,1.4,91.574,M,36.77,M,2.9,0000*7F
[2021-02-22 15:01:53.416] $GPGGA,60153,3713.906664,N,13701.45947,E,4,7,1.4,91.574,M,36.77,M,3,0000*72
[2021-02-22 15:01:53.494] $GPGGA,60153.1,3713.906667,N,13701.45947,E,4,7,1.4,91.569,M,36.77,M,3.1,0000*71
[2021-02-22 15:01:53.604] $GPGGA,60153.2,3713.906666,N,13701.45947,E,4,7,1.4,91.565,M,36.77,M,3.2,0000*7E
[2021-02-22 15:01:53.697] $GPGGA,60153.3,3713.906664,N,13701.45947,E,4,7,1.4,91.59,M,36.77,M,2.3,0000*77
[2021-02-22 15:01:53.807] $GPGGA,60153.4,3713.906664,N,13701.45947,E,4,7,1.4,91.584,M,36.77,M,2.4,0000*70
[2021-02-22 15:01:53.901] $GPGGA,60153.5,3713.906663,N,13701.45947,E,4,7,1.4,91.584,M,36.77,M,2.5,0000*7A
[2021-02-22 15:01:54.010] $GPGGA,60153.6,3713.906665,N,13701.45947,E,4,7,1.4,91.582,M,36.77,M,2.6,0000*77
[2021-02-22 15:01:54.104] $GPGGA,60153.7,3713.906661,N,13701.45947,E,4,7,1.4,91.589,M,36.77,M,2.7,0000*7D
[2021-02-22 15:01:54.213] $GPGGA,60153.8,3713.906664,N,13701.45947,E,4,7,1.4,91.587,M,36.77,M,2.8,0000*76
[2021-02-22 15:01:54.307] $GPGGA,60153.9,3713.906664,N,13701.45947,E,4,7,1.4,91.584,M,36.77,M,2.9,0000*7E
[2021-02-22 15:01:54.416] $GPGGA,60154,3713.90666,N,13701.45947,E,4,7,1.4,91.587,M,36.77,M,3,0000*76
[2021-02-22 15:01:54.494] $GPGGA,60154.1,3713.906662,N,13701.45947,E,4,7,1.4,91.589,M,36.77,M,3.1,0000*70
[2021-02-22 15:01:54.604] $GPGGA,60154.2,3713.906665,N,13701.45947,E,4,7,1.4,91.586,M,36.77,M,3.2,0000*7A
[2021-02-22 15:01:54.697] $GPGGA,60154.3,3713.906665,N,13701.45947,E,4,11,0.9,91.614,M,36.77,M,2.3,0000*7F
[2021-02-22 15:01:54.807] $GPGGA,60154.4,3713.906664,N,13701.45947,E,4,11,0.9,91.608,M,36.77,M,2.4,0000*70
[2021-02-22 15:01:54.901] $GPGGA,60154.5,3713.906666,N,13701.45947,E,4,11,0.9,91.611,M,36.77,M,2.5,0000*7F
[2021-02-22 15:01:55.010] $GPGGA,60154.6,3713.906664,N,13701.45947,E,4,11,0.9,91.615,M,36.77,M,2.6,0000*78
[2021-02-22 15:01:55.104] $GPGGA,60154.7,3713.906666,N,13701.45947,E,4,11,0.9,91.61,M,36.77,M,2.7,0000*7B
[2021-02-22 15:01:55.213] $GPGGA,60154.8,3713.906665,N,13701.45947,E,4,11,0.9,91.619,M,36.77,M,2.8,0000*7C
[2021-02-22 15:01:55.307] $GPGGA,60154.9,3713.906666,N,13701.45947,E,4,11,0.9,91.61,M,36.77,M,2.9,0000*79
[2021-02-22 15:01:55.416] $GPGGA,60155,3713.906666,N,13701.45947,E,4,11,0.9,91.61,M,36.77,M,3,0000*7C
[2021-02-22 15:01:55.494] $GPGGA,60155.1,3713.906663,N,13701.45947,E,4,11,0.9,91.608,M,36.77,M,3.1,0000*7B
[2021-02-22 15:01:55.604] $GPGGA,60155.2,3713.906663,N,13701.45947,E,4,11,0.9,91.611,M,36.77,M,3.2,0000*74
[2021-02-22 15:01:55.697] $GPGGA,60155.3,3713.906663,N,13701.45947,E,4,10,1.1,91.603,M,36.77,M,2.3,0000*78
[2021-02-22 15:01:55.807] $GPGGA,60155.4,3713.906664,N,13701.45947,E,4,10,1.1,91.595,M,36.77,M,2.4,0000*74
[2021-02-22 15:01:55.900] $GPGGA,60155.5,3713.906665,N,13701.45947,E,4,10,1.1,91.599,M,36.77,M,2.5,0000*77
[2021-02-22 15:01:56.010] $GPGGA,60155.6,3713.906665,N,13701.45947,E,4,10,1.1,91.603,M,36.77,M,2.6,0000*76
[2021-02-22 15:01:56.104] $GPGGA,60155.7,3713.906664,N,13701.45947,E,4,10,1.1,91.602,M,36.77,M,2.7,0000*7D
[2021-02-22 15:01:56.213] $GPGGA,60155.8,3713.906663,N,13701.45947,E,4,10,1.1,91.596,M,36.77,M,2.8,0000*7D
[2021-02-22 15:01:56.307] $GPGGA,60155.9,3713.906661,N,13701.45947,E,4,10,1.1,91.6,M,36.77,M,2.9,0000*70
[2021-02-22 15:01:56.416] $GPGGA,60156,3713.906661,N,13701.45947,E,4,10,1.1,91.599,M,36.77,M,3,0000*73
[2021-02-22 15:01:56.494] $GPGGA,60156.1,3713.906663,N,13701.45947,E,4,10,1.1,91.604,M,36.77,M,3.1,0000*78
[2021-02-22 15:01:56.604] $GPGGA,60156.2,3713.906663,N,13701.45947,E,4,10,1.1,91.599,M,36.77,M,3.2,0000*78
[2021-02-22 15:01:56.697] $GPGGA,60156.3,3713.906664,N,13701.45947,E,4,10,1.1,91.601,M,36.77,M,3.3,0000*73
[2021-02-22 15:01:56.807] $GPGGA,60156.4,3713.906662,N,13701.45947,E,4,10,1.1,91.6,M,36.77,M,3.4,0000*7A
[2021-02-22 15:01:56.900] $GPGGA,60156.5,3713.906664,N,13701.45947,E,4,10,1.1,91.6,M,36.77,M,3.5,0000*76
[2021-02-22 15:01:57.010] $GPGGA,60156.6,3713.906664,N,13701.45947,E,4,10,1.1,91.595,M,36.77,M,3.6,0000*71
[2021-02-22 15:01:57.103] $GPGGA,60156.7,3713.906664,N,13701.45947,E,4,10,1.1,91.597,M,36.77,M,3.7,0000*77
[2021-02-22 15:01:57.213] $GPGGA,60156.8,3713.906664,N,13701.45947,E,4,10,1.1,91.596,M,36.77,M,3.8,0000*70
[2021-02-22 15:01:57.307] $GPGGA,60156.9,3713.906665,N,13701.45947,E,4,10,1.1,91.597,M,36.77,M,3.9,0000*7E
[2021-02-22 15:01:57.416] $GPGGA,60157,3713.906665,N,13701.45947,E,4,10,1.1,91.599,M,36.77,M,4,0000*77
[2021-02-22 15:01:57.494] $GPGGA,60157.1,3713.906664,N,13701.45947,E,4,10,1.1,91.596,M,36.77,M,4.1,0000*77
[2021-02-22 15:01:57.604] $GPGGA,60157.2,3713.906665,N,13701.45947,E,4,10,1.1,91.591,M,36.77,M,4.2,0000*79
[2021-02-22 15:01:57.697] $GPGGA,60157.3,3713.906664,N,13701.45947,E,4,10,1.1,91.61,M,36.77,M,2.3,0000*7D
[2021-02-22 15:01:57.807] $GPGGA,60157.4,3713.906663,N,13701.45947,E,4,10,1.1,91.611,M,36.77,M,2.4,0000*7C
[2021-02-22 15:01:57.900] $GPGGA,60157.5,3713.906664,N,13701.45947,E,4,10,1.1,91.609,M,36.77,M,2.5,0000*71
[2021-02-22 15:01:58.010] $GPGGA,60157.6,3713.906663,N,13701.45947,E,4,10,1.1,91.613,M,36.77,M,2.6,0000*7D
[2021-02-22 15:01:58.103] $GPGGA,60157.7,3713.906665,N,13701.45947,E,4,10,1.1,91.612,M,36.77,M,2.7,0000*7E
[2021-02-22 15:01:58.213] $GPGGA,60157.8,3713.906664,N,13701.45947,E,4,10,1.1,91.608,M,36.77,M,2.8,0000*7D
[2021-02-22 15:01:58.307] $GPGGA,60157.9,3713.906663,N,13701.45947,E,4,10,1.1,91.606,M,36.77,M,2.9,0000*7A
[2021-02-22 15:01:58.416] $GPGGA,60158,3713.906663,N,13701.45947,E,4,10,1.1,91.608,M,36.77,M,3,0000*79
[2021-02-22 15:01:58.494] $GPGGA,60158.1,3713.906663,N,13701.45947,E,4,10,1.1,91.608,M,36.77,M,3.1,0000*71
[2021-02-22 15:01:58.619] $GPGGA,60158.2,3713.906665,N,13701.45947,E,4,10,1.1,91.607,M,36.77,M,3.2,0000*72
[2021-02-22 15:01:58.697] $GPGGA,60158.3,3713.906663,N,13701.45947,E,4,10,1.1,91.597,M,36.77,M,2.3,0000*72
[2021-02-22 15:01:58.807] $GPGGA,60158.4,3713.906664,N,13701.45947,E,4,10,1.1,91.597,M,36.77,M,2.4,0000*71
[2021-02-22 15:01:58.900] $GPGGA,60158.5,3713.906663,N,13701.45947,E,4,10,1.1,91.595,M,36.77,M,2.5,0000*7A
[2021-02-22 15:01:59.010] $GPGGA,60158.6,3713.906664,N,13701.45947,E,4,10,1.1,91.592,M,36.77,M,2.6,0000*71
[2021-02-22 15:01:59.103] $GPGGA,60158.7,3713.906663,N,13701.45947,E,4,10,1.1,91.597,M,36.77,M,2.7,0000*7B
[2021-02-22 15:01:59.213] $GPGGA,60158.8,3713.906664,N,13701.45947,E,4,10,1.1,91.588,M,36.77,M,2.8,0000*70
[2021-02-22 15:01:59.306] $GPGGA,60158.9,3713.906663,N,13701.45947,E,4,10,1.1,91.596,M,36.77,M,2.9,0000*75
[2021-02-22 15:01:59.416] $GPGGA,60159,3713.906664,N,13701.45947,E,4,10,1.1,91.592,M,36.77,M,3,0000*7D
[2021-02-22 15:01:59.494] $GPGGA,60159.1,3713.906664,N,13701.45947,E,4,10,1.1,91.594,M,36.77,M,3.1,0000*7C
[2021-02-22 15:01:59.603] $GPGGA,60159.2,3713.906664,N,13701.45947,E,4,10,1.1,91.585,M,36.77,M,3.2,0000*75
[2021-02-22 15:01:59.697] $GPGGA,60159.3,3713.906663,N,13701.45947,E,4,10,1.1,91.587,M,36.77,M,3.3,0000*78
[2021-02-22 15:01:59.806] $GPGGA,60159.4,3713.906663,N,13701.45947,E,4,10,1.1,91.59,M,36.77,M,3.4,0000*78
[2021-02-22 15:01:59.900] $GPGGA,60159.5,3713.906665,N,13701.45947,E,4,10,1.1,91.593,M,36.77,M,3.5,0000*70
[2021-02-22 15:02:00.010] $GPGGA,60159.6,3713.906669,N,13701.45947,E,4,10,1.1,91.588,M,36.77,M,3.6,0000*79
[2021-02-22 15:02:00.103] $GPGGA,60159.7,3713.906668,N,13701.45947,E,4,10,1.1,91.588,M,36.77,M,3.7,0000*7E
[2021-02-22 15:02:00.213] $GPGGA,60159.8,3713.906667,N,13701.45947,E,4,10,1.1,91.592,M,36.77,M,3.8,0000*7D
[2021-02-22 15:02:00.306] $GPGGA,60159.9,3713.906665,N,13701.45947,E,4,10,1.1,91.589,M,36.77,M,3.9,0000*74
[2021-02-22 15:02:00.416] $GPGGA,60200,3713.906665,N,13701.45947,E,4,10,1.1,91.589,M,36.77,M,4,0000*7A
[2021-02-22 15:02:00.494] $GPGGA,60200.1,3713.906663,N,13701.45947,E,4,10,1.1,91.587,M,36.77,M,4.1,0000*7E
[2021-02-22 15:02:00.603] $GPGGA,60200.2,3713.906664,N,13701.45947,E,4,10,1.1,91.582,M,36.77,M,4.2,0000*7E
[2021-02-22 15:02:00.697] $GPGGA,60200.3,3713.906664,N,13701.45947,E,4,10,1.1,91.586,M,36.77,M,4.3,0000*7D
[2021-02-22 15:02:00.806] $GPGGA,60200.4,3713.906664,N,13701.45947,E,4,10,1.1,91.584,M,36.77,M,4.4,0000*73
[2021-02-22 15:02:00.900] $GPGGA,60200.5,3713.906662,N,13701.45947,E,4,10,1.1,91.586,M,36.77,M,4.5,0000*78
[2021-02-22 15:02:01.010] $GPGGA,60200.6,3713.906665,N,13701.45947,E,4,10,1.1,91.583,M,36.77,M,4.6,0000*72
[2021-02-22 15:02:01.103] $GPGGA,60200.7,3713.906665,N,13701.45947,E,4,10,1.1,91.59,M,36.77,M,4.7,0000*7F
[2021-02-22 15:02:01.213] $GPGGA,60200.8,3713.906664,N,13701.45947,E,4,10,1.1,91.582,M,36.77,M,4.8,0000*72
[2021-02-22 15:02:01.306] $GPGGA,60200.9,3713.906663,N,13701.45947,E,4,10,1.1,91.578,M,36.77,M,4.9,0000*75
[2021-02-22 15:02:01.416] $GPGGA,60201,3713.906663,N,13701.45947,E,4,10,1.1,91.584,M,36.77,M,5,0000*77
[2021-02-22 15:02:01.509] $GPGGA,60201.1,3713.906662,N,13701.45947,E,4,10,1.1,91.589,M,36.77,M,5.1,0000*7C
[2021-02-22 15:02:01.603] $GPGGA,60201.2,3713.906663,N,13701.45947,E,4,10,1.1,91.581,M,36.77,M,5.2,0000*74
[2021-02-22 15:02:01.697] $GPGGA,60201.3,3713.906666,N,13701.45947,E,4,10,1.1,91.583,M,36.77,M,5.3,0000*79
[2021-02-22 15:02:01.806] $GPGGA,60201.4,3713.906666,N,13701.45947,E,4,10,1.1,91.576,M,36.77,M,5.4,0000*7B
[2021-02-22 15:02:01.900] $GPGGA,60201.5,3713.906666,N,13701.45947,E,4,10,1.1,91.584,M,36.77,M,5.5,0000*73
[2021-02-22 15:02:02.009] $GPGGA,60201.6,3713.906662,N,13701.45947,E,4,10,1.1,91.577,M,36.77,M,5.6,0000*7D
[2021-02-22 15:02:02.103] $GPGGA,60201.7,3713.906664,N,13701.45947,E,4,10,1.1,91.587,M,36.77,M,5.7,0000*70
[2021-02-22 15:02:02.213] $GPGGA,60201.8,3713.906663,N,13701.45947,E,4,10,1.1,91.582,M,36.77,M,5.8,0000*76
[2021-02-22 15:02:02.306] $GPGGA,60201.9,3713.906666,N,13701.45947,E,4,10,1.1,91.585,M,36.77,M,5.9,0000*7D
[2021-02-22 15:02:02.416] $GPGGA,60202,3713.906666,N,13701.45947,E,4,10,1.1,91.584,M,36.77,M,6,0000*79
[2021-02-22 15:02:02.494] $GPGGA,60202.1,3713.906665,N,13701.45947,E,4,10,1.1,91.579,M,36.77,M,6.1,0000*77
[2021-02-22 15:02:02.603] $GPGGA,60202.2,3713.906665,N,13701.45947,E,4,10,1.1,91.579,M,36.77,M,6.2,0000*71
[2021-02-22 15:02:02.697] $GPGGA,60202.3,3713.906666,N,13701.45947,E,4,10,1.1,91.583,M,36.77,M,6.3,0000*79
[2021-02-22 15:02:02.806] $GPGGA,60202.4,3713.906667,N,13701.45947,E,4,10,1.1,91.579,M,36.77,M,6.4,0000*76
[2021-02-22 15:02:02.900] $GPGGA,60202.5,3713.906665,N,13701.45947,E,4,10,1.1,91.579,M,36.77,M,6.5,0000*79
[2021-02-22 15:02:03.009] $GPGGA,60202.6,3713.906666,N,13701.45947,E,4,10,1.1,91.583,M,36.77,M,6.6,0000*7C
[2021-02-22 15:02:03.103] $GPGGA,60202.7,3713.906667,N,13701.45947,E,4,10,1.1,91.581,M,36.77,M,6.7,0000*74
[2021-02-22 15:02:03.212] $GPGGA,60202.8,3713.906664,N,13701.45947,E,4,10,1.1,91.575,M,36.77,M,6.8,0000*73
[2021-02-22 15:02:03.306] $GPGGA,60202.9,3713.906664,N,13701.45947,E,4,10,1.1,91.584,M,36.77,M,6.9,0000*70
[2021-02-22 15:02:03.416] $GPGGA,60203,3713.906665,N,13701.45947,E,4,10,1.1,91.574,M,36.77,M,7,0000*7E
[2021-02-22 15:02:03.494] $GPGGA,60203.1,3713.906666,N,13701.45947,E,4,10,1.1,91.58,M,36.77,M,7.1,0000*7A
[2021-02-22 15:02:03.619] $GPGGA,60203.2,3713.906665,N,13701.45947,E,4,10,1.1,91.573,M,36.77,M,7.2,0000*7C
[2021-02-22 15:02:03.697] $GPGGA,60203.3,3713.906664,N,13701.45947,E,4,10,1.1,91.578,M,36.77,M,7.3,0000*71
[2021-02-22 15:02:03.806] $GPGGA,60203.4,3713.906664,N,13701.45947,E,4,10,1.1,91.585,M,36.77,M,7.4,0000*71
[2021-02-22 15:02:03.900] $GPGGA,60203.5,3713.906664,N,13701.45947,E,4,10,1.1,91.575,M,36.77,M,7.5,0000*75
[2021-02-22 15:02:04.009] $GPGGA,60203.6,3713.906664,N,13701.45947,E,4,10,1.1,91.578,M,36.77,M,7.6,0000*72
[2021-02-22 15:02:04.103] $GPGGA,60203.7,3713.906666,N,13701.45947,E,4,10,1.1,91.582,M,36.77,M,7.7,0000*76
[2021-02-22 15:02:04.212] $GPGGA,60203.8,3713.906666,N,13701.45947,E,4,10,1.1,91.579,M,36.77,M,7.8,0000*7F
[2021-02-22 15:02:04.306] $GPGGA,60203.9,3713.906662,N,13701.45947,E,4,10,1.1,91.579,M,36.77,M,7.9,0000*71
[2021-02-22 15:02:04.416] $GPGGA,60204,3713.906665,N,13701.45947,E,4,10,1.1,91.578,M,36.77,M,8,0000*70
[2021-02-22 15:02:04.494] $GPGGA,60204.1,3713.906663,N,13701.45947,E,4,10,1.1,91.573,M,36.77,M,8.1,0000*73
[2021-02-22 15:02:04.619] $GPGGA,60204.2,3713.906666,N,13701.45947,E,4,10,1.1,91.579,M,36.77,M,8.2,0000*71
[2021-02-22 15:02:04.697] $GPGGA,60204.3,3713.906665,N,13701.45947,E,4,10,1.1,91.599,M,36.77,M,2.3,0000*7B
[2021-02-22 15:02:04.806] $GPGGA,60204.4,3713.906664,N,13701.45947,E,4,10,1.1,91.602,M,36.77,M,2.4,0000*7C
[2021-02-22 15:02:04.900] $GPGGA,60204.5,3713.906664,N,13701.45947,E,4,10,1.1,91.602,M,36.77,M,2.5,0000*76
[2021-02-22 15:02:05.009] $GPGGA,60204.6,3713.906665,N,13701.45947,E,4,10,1.1,91.605,M,36.77,M,2.6,0000*78
[2021-02-22 15:02:05.103] $GPGGA,60204.7,3713.906665,N,13701.45947,E,4,10,1.1,91.605,M,36.77,M,2.7,0000*79
[2021-02-22 15:02:05.212] $GPGGA,60204.8,3713.906665,N,13701.45947,E,4,10,1.1,91.604,M,36.77,M,2.8,0000*70
[2021-02-22 15:02:05.306] $GPGGA,60204.9,3713.906665,N,13701.45947,E,4,10,1.1,91.601,M,36.77,M,2.9,0000*75
[2021-02-22 15:02:05.415] $GPGGA,60205,3713.906664,N,13701.45947,E,4,10,1.1,91.61,M,36.77,M,3,0000*79
[2021-02-22 15:02:05.509] $GPGGA,60205.1,3713.906665,N,13701.45947,E,4,10,1.1,91.601,M,36.77,M,3.1,0000*71
[2021-02-22 15:02:05.603] $GPGGA,60205.2,3713.906663,N,13701.45947,E,4,10,1.1,91.61,M,36.77,M,3.2,0000*7A
[2021-02-22 15:02:05.697] $GPGGA,60205.3,3713.906663,N,13701.45947,E,4,10,1.1,91.604,M,36.77,M,2.3,0000*72
[2021-02-22 15:02:05.806] $GPGGA,60205.4,3713.906665,N,13701.45947,E,4,10,1.1,91.603,M,36.77,M,2.4,0000*73
[2021-02-22 15:02:05.900] $GPGGA,60205.5,3713.906663,N,13701.45947,E,4,10,1.1,91.608,M,36.77,M,2.5,0000*7E
[2021-02-22 15:02:06.009] $GPGGA,60205.6,3713.906665,N,13701.45947,E,4,10,1.1,91.602,M,36.77,M,2.6,0000*78
[2021-02-22 15:02:06.103] $GPGGA,60205.7,3713.906663,N,13701.45947,E,4,10,1.1,91.606,M,36.77,M,2.7,0000*7E
[2021-02-22 15:02:06.212] $GPGGA,60205.8,3713.906665,N,13701.45947,E,4,10,1.1,91.605,M,36.77,M,2.8,0000*70
[2021-02-22 15:02:06.306] $GPGGA,60205.9,3713.906664,N,13701.45947,E,4,10,1.1,91.6,M,36.77,M,2.9,0000*79
[2021-02-22 15:02:06.415] $GPGGA,60206,3713.906664,N,13701.45947,E,4,10,1.1,91.605,M,36.77,M,3,0000*7E
[2021-02-22 15:02:06.494] $GPGGA,60206.1,3713.906664,N,13701.45947,E,4,10,1.1,91.606,M,36.77,M,3.1,0000*71
[2021-02-22 15:02:06.618] $GPGGA,60206.2,3713.906663,N,13701.45947,E,4,10,1.1,91.601,M,36.77,M,3.2,0000*7A
[2021-02-22 15:02:06.697] $GPGGA,60206.3,3713.906664,N,13701.45947,E,4,10,1.1,91.609,M,36.77,M,2.3,0000*79
[2021-02-22 15:02:06.806] $GPGGA,60206.4,3713.906661,N,13701.45947,E,4,10,1.1,91.606,M,36.77,M,2.4,0000*7F
[2021-02-22 15:02:06.900] $GPGGA,60206.5,3713.906662,N,13701.45947,E,4,10,1.1,91.606,M,36.77,M,2.5,0000*7F
[2021-02-22 15:02:07.009] $GPGGA,60206.6,3713.906662,N,13701.45947,E,4,10,1.1,91.604,M,36.77,M,2.6,0000*70
[2021-02-22 15:02:07.103] $GPGGA,60206.7,3713.906665,N,13701.45947,E,4,10,1.1,91.608,M,36.77,M,2.7,0000*7D
[2021-02-22 15:02:07.212] $GPGGA,60206.8,3713.906665,N,13701.45947,E,4,10,1.1,91.607,M,36.77,M,2.8,0000*7D
[2021-02-22 15:02:07.306] $GPGGA,60206.9,3713.906663,N,13701.45947,E,4,10,1.1,91.606,M,36.77,M,2.9,0000*79
[2021-02-22 15:02:07.415] $GPGGA,60207,3713.906663,N,13701.45947,E,4,10,1.1,91.603,M,36.77,M,3,0000*77
[2021-02-22 15:02:07.493] $GPGGA,60207.1,3713.906664,N,13701.45947,E,4,10,1.1,91.609,M,36.77,M,3.1,0000*7E
[2021-02-22 15:02:07.603] $GPGGA,60207.2,3713.906665,N,13701.45947,E,4,10,1.1,91.604,M,36.77,M,3.2,0000*71
[2021-02-22 15:02:07.697] $GPGGA,60207.3,3713.906666,N,13701.45947,E,4,10,1.1,91.611,M,36.77,M,2.3,0000*7B
[2021-02-22 15:02:07.806] $GPGGA,60207.4,3713.906665,N,13701.45947,E,4,10,1.1,91.611,M,36.77,M,2.4,0000*71
[2021-02-22 15:02:07.900] $GPGGA,60207.5,3713.906666,N,13701.45947,E,4,10,1.1,91.606,M,36.77,M,2.5,0000*75
[2021-02-22 15:02:08.009] $GPGGA,60207.6,3713.906664,N,13701.45947,E,4,10,1.1,91.611,M,36.77,M,2.6,0000*7E
[2021-02-22 15:02:08.103] $GPGGA,60207.7,3713.906666,N,13701.45947,E,4,10,1.1,91.608,M,36.77,M,2.7,0000*75
[2021-02-22 15:02:08.212] $GPGGA,60207.8,3713.906664,N,13701.45947,E,4,10,1.1,91.606,M,36.77,M,2.8,0000*7F
[2021-02-22 15:02:08.306] $GPGGA,60207.9,3713.906665,N,13701.45947,E,4,10,1.1,91.614,M,36.77,M,2.9,0000*75
[2021-02-22 15:02:08.415] $GPGGA,60208,3713.906664,N,13701.45947,E,4,10,1.1,91.6,M,36.77,M,3,0000*75
[2021-02-22 15:02:08.509] $GPGGA,60208.1,3713.906664,N,13701.45947,E,4,10,1.1,91.612,M,36.77,M,3.1,0000*7E
[2021-02-22 15:02:08.618] $GPGGA,60208.2,3713.906662,N,13701.45948,E,4,10,1.1,91.606,M,36.77,M,3.2,0000*73
[2021-02-22 15:02:08.696] $GPGGA,60208.3,3713.906663,N,13701.45948,E,4,10,1.1,91.613,M,36.77,M,3.3,0000*7D
[2021-02-22 15:02:08.806] $GPGGA,60208.4,3713.906659,N,13701.45948,E,4,10,1.1,91.607,M,36.77,M,3.4,0000*71
[2021-02-22 15:02:08.900] $GPGGA,60208.5,3713.906654,N,13701.45948,E,4,10,1.1,91.608,M,36.77,M,3.5,0000*7B
[2021-02-22 15:02:09.009] $GPGGA,60208.6,3713.906652,N,13701.45948,E,4,10,1.1,91.611,M,36.77,M,3.6,0000*73
[2021-02-22 15:02:09.103] $GPGGA,60208.7,3713.906648,N,13701.45948,E,4,10,1.1,91.609,M,36.77,M,3.7,0000*7C
[2021-02-22 15:02:09.212] $GPGGA,60208.8,3713.906644,N,13701.45947,E,4,10,1.1,91.611,M,36.77,M,3.8,0000*76
[2021-02-22 15:02:09.306] $GPGGA,60208.9,3713.90664,N,13701.45947,E,4,10,1.1,91.61,M,36.77,M,3.9,0000*7C
[2021-02-22 15:02:09.415] $GPGGA,60209,3713.906641,N,13701.45946,E,4,10,1.1,91.607,M,36.77,M,4,0000*7A
[2021-02-22 15:02:09.493] $GPGGA,60209.1,3713.906641,N,13701.45946,E,4,10,1.1,91.606,M,36.77,M,4.1,0000*71
[2021-02-22 15:02:09.603] $GPGGA,60209.2,3713.906647,N,13701.45946,E,4,10,1.1,91.606,M,36.77,M,4.2,0000*70
[2021-02-22 15:02:09.696] $GPGGA,60209.3,3713.906647,N,13701.45946,E,4,10,1.1,91.608,M,36.77,M,4.3,0000*75
[2021-02-22 15:02:09.806] $GPGGA,60209.4,3713.90665,N,13701.45946,E,4,10,1.1,91.602,M,36.77,M,4.4,0000*71
[2021-02-22 15:02:09.899] $GPGGA,60209.5,3713.906649,N,13701.45946,E,4,10,1.1,91.607,M,36.77,M,4.5,0000*72
[2021-02-22 15:02:10.009] $GPGGA,60209.6,3713.90665,N,13701.45947,E,4,10,1.1,91.608,M,36.77,M,4.6,0000*79
[2021-02-22 15:02:10.103] $GPGGA,60209.7,3713.90665,N,13701.45947,E,4,10,1.1,91.6,M,36.77,M,4.7,0000*7F
[2021-02-22 15:02:10.212] $GPGGA,60209.8,3713.90665,N,13701.45947,E,4,10,1.1,91.61,M,36.77,M,4.8,0000*79
[2021-02-22 15:02:10.306] $GPGGA,60209.9,3713.90665,N,13701.45946,E,4,10,1.1,91.6,M,36.77,M,2.9,0000*7F
[2021-02-22 15:02:10.415] $GPGGA,60210,3713.906652,N,13701.45946,E,4,10,1.1,91.609,M,36.77,M,3,0000*75
[2021-02-22 15:02:10.509] $GPGGA,60210.1,3713.906651,N,13701.45946,E,4,10,1.1,91.607,M,36.77,M,3.1,0000*73
[2021-02-22 15:02:10.603] $GPGGA,60210.2,3713.906653,N,13701.45947,E,4,10,1.1,91.603,M,36.77,M,3.2,0000*7C
[2021-02-22 15:02:10.696] $GPGGA,60210.3,3713.906654,N,13701.45946,E,4,10,1.1,91.606,M,36.77,M,3.3,0000*7F
[2021-02-22 15:02:10.806] $GPGGA,60210.4,3713.906656,N,13701.45947,E,4,10,1.1,91.605,M,36.77,M,3.4,0000*7E
[2021-02-22 15:02:10.899] $GPGGA,60210.5,3713.906654,N,13701.45946,E,4,10,1.1,91.602,M,36.77,M,3.5,0000*7C
[2021-02-22 15:02:11.009] $GPGGA,60210.6,3713.906652,N,13701.45947,E,4,10,1.1,91.6,M,36.77,M,2.6,0000*7E
[2021-02-22 15:02:11.103] $GPGGA,60210.7,3713.906653,N,13701.45946,E,4,10,1.1,91.6,M,36.77,M,2.7,0000*7E
[2021-02-22 15:02:11.212] $GPGGA,60210.8,3713.906655,N,13701.45946,E,4,10,1.1,91.602,M,36.77,M,2.8,0000*73
[2021-02-22 15:02:11.306] $GPGGA,60210.9,3713.906655,N,13701.45946,E,4,10,1.1,91.6,M,36.77,M,2.9,0000*76
[2021-02-22 15:02:11.415] $GPGGA,60211,3713.906655,N,13701.45947,E,4,10,1.1,91.599,M,36.77,M,3,0000*77
[2021-02-22 15:02:11.509] $GPGGA,60211.1,3713.906654,N,13701.45946,E,4,10,1.1,91.597,M,36.77,M,3.1,0000*71
[2021-02-22 15:02:11.618] $GPGGA,60211.2,3713.906655,N,13701.45946,E,4,10,1.1,91.597,M,36.77,M,3.2,0000*7B
[2021-02-22 15:02:11.712] $GPGGA,60211.3,3713.906653,N,13701.45946,E,4,10,1.1,91.601,M,36.77,M,3.3,0000*72
[2021-02-22 15:02:11.806] $GPGGA,60211.4,3713.906656,N,13701.45946,E,4,10,1.1,91.612,M,36.77,M,2.4,0000*75
[2021-02-22 15:02:11.899] $GPGGA,60211.5,3713.906657,N,13701.45946,E,4,10,1.1,91.614,M,36.77,M,2.5,0000*70
[2021-02-22 15:02:12.009] $GPGGA,60211.6,3713.906655,N,13701.45946,E,4,10,1.1,91.61,M,36.77,M,2.6,0000*7B
[2021-02-22 15:02:12.102] $GPGGA,60211.7,3713.906654,N,13701.45947,E,4,10,1.1,91.61,M,36.77,M,2.7,0000*75
[2021-02-22 15:02:12.212] $GPGGA,60211.8,3713.906656,N,13701.45948,E,4,10,1.1,91.602,M,36.77,M,2.8,0000*74
[2021-02-22 15:02:12.306] $GPGGA,60211.9,3713.906657,N,13701.45948,E,4,10,1.1,91.609,M,36.77,M,2.9,0000*79
[2021-02-22 15:02:12.415] $GPGGA,60212,3713.906658,N,13701.45949,E,4,10,1.1,91.61,M,36.77,M,3,0000*7C
[2021-02-22 15:02:12.509] $GPGGA,60212.1,3713.906659,N,13701.45948,E,4,10,1.1,91.617,M,36.77,M,3.1,0000*7C
[2021-02-22 15:02:12.602] $GPGGA,60212.2,3713.906658,N,13701.45948,E,4,10,1.1,91.607,M,36.77,M,3.2,0000*7C
[2021-02-22 15:02:12.696] $GPGGA,60212.3,3713.906655,N,13701.45948,E,4,10,1.1,91.61,M,36.77,M,3.3,0000*71
[2021-02-22 15:02:12.806] $GPGGA,60212.4,3713.906657,N,13701.45947,E,4,10,1.1,91.615,M,36.77,M,3.4,0000*7D
[2021-02-22 15:02:12.899] $GPGGA,60212.5,3713.906658,N,13701.45947,E,4,10,1.1,91.611,M,36.77,M,3.5,0000*7A
[2021-02-22 15:02:13.009] $GPGGA,60212.6,3713.906661,N,13701.45947,E,4,10,1.1,91.613,M,36.77,M,3.6,0000*71
[2021-02-22 15:02:13.102] $GPGGA,60212.7,3713.90666,N,13701.45947,E,4,10,1.1,91.615,M,36.77,M,3.7,0000*7F
[2021-02-22 15:02:13.212] $GPGGA,60212.8,3713.906661,N,13701.45947,E,4,10,1.1,91.609,M,36.77,M,3.8,0000*79
[2021-02-22 15:02:13.306] $GPGGA,60212.9,3713.90666,N,13701.45947,E,4,10,1.1,91.612,M,36.77,M,3.9,0000*70
[2021-02-22 15:02:13.415] $GPGGA,60213,3713.906662,N,13701.45947,E,4,10,1.1,91.614,M,36.77,M,4,0000*7B
[2021-02-22 15:02:13.509] $GPGGA,60213.1,3713.906662,N,13701.45947,E,4,10,1.1,91.611,M,36.77,M,4.1,0000*7F
[2021-02-22 15:02:13.618] $GPGGA,60213.2,3713.906663,N,13701.45947,E,4,10,1.1,91.614,M,36.77,M,4.2,0000*7E
[2021-02-22 15:02:13.696] $GPGGA,60213.3,3713.906659,N,13701.45947,E,4,10,1.1,91.613,M,36.77,M,2.3,0000*7B
[2021-02-22 15:02:13.805] $GPGGA,60213.4,3713.906658,N,13701.45947,E,4,10,1.1,91.614,M,36.77,M,2.4,0000*7F
[2021-02-22 15:02:13.899] $GPGGA,60213.5,3713.906659,N,13701.45947,E,4,10,1.1,91.61,M,36.77,M,2.5,0000*77
[2021-02-22 15:02:14.009] $GPGGA,60213.6,3713.90666,N,13701.45947,E,4,10,1.1,91.607,M,36.77,M,2.6,0000*72
[2021-02-22 15:02:14.102] $GPGGA,60213.7,3713.90666,N,13701.45947,E,4,10,1.1,91.61,M,36.77,M,2.7,0000*77
[2021-02-22 15:02:14.212] $GPGGA,60213.8,3713.90666,N,13701.45947,E,4,10,1.1,91.607,M,36.77,M,2.8,0000*73
[2021-02-22 15:02:14.305] $GPGGA,60213.9,3713.906659,N,13701.45947,E,4,10,1.1,91.613,M,36.77,M,2.9,0000*7B
[2021-02-22 15:02:14.415] $GPGGA,60214,3713.906658,N,13701.45947,E,4,10,1.1,91.612,M,36.77,M,3,0000*74
[2021-02-22 15:02:14.509] $GPGGA,60214.1,3713.906659,N,13701.45947,E,4,10,1.1,91.61,M,36.77,M,3.1,0000*75
[2021-02-22 15:02:14.618] $GPGGA,60214.2,3713.906659,N,13701.45947,E,4,10,1.1,91.607,M,36.77,M,3.2,0000*7E
[2021-02-22 15:02:14.696] $GPGGA,60214.3,3713.906657,N,13701.45947,E,4,10,1.1,91.617,M,36.77,M,2.3,0000*7B
[2021-02-22 15:02:14.805] $GPGGA,60214.4,3713.906657,N,13701.45947,E,4,10,1.1,91.615,M,36.77,M,2.4,0000*76
[2021-02-22 15:02:14.899] $GPGGA,60214.5,3713.906659,N,13701.45947,E,4,10,1.1,91.618,M,36.77,M,2.5,0000*78
[2021-02-22 15:02:15.009] $GPGGA,60214.6,3713.906656,N,13701.45947,E,4,10,1.1,91.615,M,36.77,M,2.6,0000*71
[2021-02-22 15:02:15.102] $GPGGA,60214.7,3713.906657,N,13701.45947,E,4,10,1.1,91.618,M,36.77,M,2.7,0000*75
[2021-02-22 15:02:15.212] $GPGGA,60214.8,3713.906657,N,13701.45947,E,4,10,1.1,91.615,M,36.77,M,2.8,0000*7B
[2021-02-22 15:02:15.305] $GPGGA,60214.9,3713.906657,N,13701.45947,E,4,10,1.1,91.616,M,36.77,M,2.9,0000*73
[2021-02-22 15:02:15.415] $GPGGA,60215,3713.906657,N,13701.45947,E,4,10,1.1,91.618,M,36.77,M,3,0000*73
[2021-02-22 15:02:15.508] $GPGGA,60215.1,3713.906656,N,13701.45947,E,4,10,1.1,91.618,M,36.77,M,3.1,0000*77
[2021-02-22 15:02:15.618] $GPGGA,60215.2,3713.906657,N,13701.45947,E,4,10,1.1,91.62,M,36.77,M,3.2,0000*7D
[2021-02-22 15:02:15.696] $GPGGA,60215.3,3713.906657,N,13701.45947,E,4,10,1.1,91.61,M,36.77,M,2.3,0000*72
[2021-02-22 15:02:15.805] $GPGGA,60215.4,3713.906656,N,13701.45948,E,4,10,1.1,91.615,M,36.77,M,2.4,0000*70
[2021-02-22 15:02:15.899] $GPGGA,60215.5,3713.906657,N,13701.45947,E,4,10,1.1,91.607,M,36.77,M,2.5,0000*7E
[2021-02-22 15:02:16.008] $GPGGA,60215.6,3713.906655,N,13701.45948,E,4,10,1.1,91.615,M,36.77,M,2.6,0000*75
[2021-02-22 15:02:16.102] $GPGGA,60215.7,3713.906656,N,13701.45948,E,4,10,1.1,91.615,M,36.77,M,2.7,0000*7E
[2021-02-22 15:02:16.212] $GPGGA,60215.8,3713.906659,N,13701.45948,E,4,10,1.1,91.613,M,36.77,M,2.8,0000*7B
[2021-02-22 15:02:16.305] $GPGGA,60215.9,3713.906658,N,13701.45949,E,4,10,1.1,91.614,M,36.77,M,2.9,0000*7F
[2021-02-22 15:02:16.415] $GPGGA,60216,3713.906659,N,13701.45948,E,4,10,1.1,91.614,M,36.77,M,3,0000*7E
[2021-02-22 15:02:16.508] $GPGGA,60216.1,3713.906655,N,13701.45948,E,4,10,1.1,91.618,M,36.77,M,3.1,0000*7D
[2021-02-22 15:02:16.602] $GPGGA,60216.2,3713.90665,N,13701.45949,E,4,10,1.1,91.613,M,36.77,M,3.2,0000*7E
[2021-02-22 15:02:16.696] $GPGGA,60216.3,3713.906655,N,13701.45949,E,4,10,1.1,91.619,M,36.77,M,2.3,0000*7A
[2021-02-22 15:02:16.805] $GPGGA,60216.4,3713.906653,N,13701.45948,E,4,10,1.1,91.612,M,36.77,M,2.4,0000*75
[2021-02-22 15:02:16.899] $GPGGA,60216.5,3713.906656,N,13701.45948,E,4,10,1.1,91.619,M,36.77,M,2.5,0000*7C
[2021-02-22 15:02:17.008] $GPGGA,60216.6,3713.906656,N,13701.45948,E,4,10,1.1,91.616,M,36.77,M,2.6,0000*7C
[2021-02-22 15:02:17.102] $GPGGA,60216.7,3713.906655,N,13701.45948,E,4,10,1.1,91.611,M,36.77,M,2.7,0000*7B
[2021-02-22 15:02:17.212] $GPGGA,60216.8,3713.906657,N,13701.45948,E,4,10,1.1,91.618,M,36.77,M,2.8,0000*73
[2021-02-22 15:02:17.305] $GPGGA,60216.9,3713.906657,N,13701.45948,E,4,10,1.1,91.618,M,36.77,M,2.9,0000*73
[2021-02-22 15:02:17.415] $GPGGA,60217,3713.906662,N,13701.45947,E,4,10,1.1,91.612,M,36.77,M,3,0000*7F
[2021-02-22 15:02:17.508] $GPGGA,60217.1,3713.906663,N,13701.45947,E,4,10,1.1,91.614,M,36.77,M,3.1,0000*79
[2021-02-22 15:02:17.618] $GPGGA,60217.2,3713.906664,N,13701.45947,E,4,10,1.1,91.619,M,36.77,M,3.2,0000*75
[2021-02-22 15:02:17.696] $GPGGA,60217.3,3713.906657,N,13701.45947,E,4,10,1.1,91.616,M,36.77,M,2.3,0000*72
[2021-02-22 15:02:17.805] $GPGGA,60217.4,3713.906657,N,13701.45947,E,4,10,1.1,91.613,M,36.77,M,2.4,0000*7E
[2021-02-22 15:02:17.899] $GPGGA,60217.5,3713.906659,N,13701.45947,E,4,10,1.1,91.616,M,36.77,M,2.5,0000*7D
[2021-02-22 15:02:18.008] $GPGGA,60217.6,3713.906659,N,13701.45947,E,4,10,1.1,91.62,M,36.77,M,2.6,0000*79
[2021-02-22 15:02:18.102] $GPGGA,60217.7,3713.90666,N,13701.45947,E,4,10,1.1,91.616,M,36.77,M,2.7,0000*70
[2021-02-22 15:02:18.211] $GPGGA,60217.8,3713.906659,N,13701.45947,E,4,10,1.1,91.616,M,36.77,M,2.8,0000*7C
[2021-02-22 15:02:18.305] $GPGGA,60217.9,3713.906663,N,13701.45947,E,4,10,1.1,91.619,M,36.77,M,2.9,0000*7C
[2021-02-22 15:02:18.415] $GPGGA,60218,3713.906658,N,13701.45947,E,4,10,1.1,91.61,M,36.77,M,3,0000*7A
[2021-02-22 15:02:18.508] $GPGGA,60218.1,3713.906657,N,13701.45947,E,4,10,1.1,91.617,M,36.77,M,3.1,0000*74
[2021-02-22 15:02:18.618] $GPGGA,60218.2,3713.906657,N,13701.45947,E,4,10,1.1,91.616,M,36.77,M,3.2,0000*7E
[2021-02-22 15:02:18.696] $GPGGA,60218.3,3713.906661,N,13701.45947,E,4,10,1.1,91.612,M,36.77,M,2.3,0000*73
[2021-02-22 15:02:18.805] $GPGGA,60218.4,3713.906663,N,13701.45947,E,4,10,1.1,91.619,M,36.77,M,2.4,0000*7D
[2021-02-22 15:02:18.899] $GPGGA,60218.5,3713.90666,N,13701.45947,E,4,10,1.1,91.612,M,36.77,M,2.5,0000*7C
[2021-02-22 15:02:19.008] $GPGGA,60218.6,3713.906662,N,13701.45947,E,4,10,1.1,91.612,M,36.77,M,2.6,0000*76
[2021-02-22 15:02:19.102] $GPGGA,60218.7,3713.906661,N,13701.45947,E,4,10,1.1,91.615,M,36.77,M,2.7,0000*76
[2021-02-22 15:02:19.211] $GPGGA,60218.8,3713.90666,N,13701.45947,E,4,10,1.1,91.608,M,36.77,M,2.8,0000*7C
[2021-02-22 15:02:19.305] $GPGGA,60218.9,3713.90666,N,13701.45947,E,4,10,1.1,91.614,M,36.77,M,2.9,0000*71
[2021-02-22 15:02:19.414] $GPGGA,60219,3713.906662,N,13701.45947,E,4,10,1.1,91.614,M,36.77,M,3,0000*71
[2021-02-22 15:02:19.508] $GPGGA,60219.1,3713.906664,N,13701.45947,E,4,10,1.1,91.616,M,36.77,M,3.1,0000*70
[2021-02-22 15:02:19.618] $GPGGA,60219.2,3713.906662,N,13701.45947,E,4,10,1.1,91.619,M,36.77,M,3.2,0000*71
[2021-02-22 15:02:19.696] $GPGGA,60219.3,3713.906661,N,13701.45947,E,4,10,1.1,91.605,M,36.77,M,2.3,0000*71
[2021-02-22 15:02:19.805] $GPGGA,60219.4,3713.906661,N,13701.45947,E,4,10,1.1,91.61,M,36.77,M,2.4,0000*74
[2021-02-22 15:02:19.899] $GPGGA,60219.5,3713.906664,N,13701.45947,E,4,10,1.1,91.614,M,36.77,M,2.5,0000*7F
[2021-02-22 15:02:20.008] $GPGGA,60219.6,3713.906664,N,13701.45947,E,4,10,1.1,91.611,M,36.77,M,2.6,0000*78
[2021-02-22 15:02:20.102] $GPGGA,60219.7,3713.906666,N,13701.45948,E,4,10,1.1,91.613,M,36.77,M,2.7,0000*7C
[2021-02-22 15:02:20.211] $GPGGA,60219.8,3713.906662,N,13701.45947,E,4,10,1.1,91.608,M,36.77,M,2.8,0000*7D
[2021-02-22 15:02:20.305] $GPGGA,60219.9,3713.906661,N,13701.45947,E,4,10,1.1,91.609,M,36.77,M,2.9,0000*78
[2021-02-22 15:02:20.414] $GPGGA,60220,3713.906663,N,13701.45947,E,4,10,1.1,91.614,M,36.77,M,3,0000*7D
[2021-02-22 15:02:20.508] $GPGGA,60220.1,3713.906664,N,13701.45947,E,4,10,1.1,91.61,M,36.77,M,3.1,0000*7D
[2021-02-22 15:02:20.617] $GPGGA,60220.2,3713.906662,N,13701.45947,E,4,10,1.1,91.613,M,36.77,M,3.2,0000*7F
[2021-02-22 15:02:20.696] $GPGGA,60220.3,3713.906666,N,13701.45947,E,4,10,1.1,91.615,M,36.77,M,2.3,0000*72
[2021-02-22 15:02:20.805] $GPGGA,60220.4,3713.906667,N,13701.45947,E,4,10,1.1,91.611,M,36.77,M,2.4,0000*73
[2021-02-22 15:02:20.899] $GPGGA,60220.5,3713.906666,N,13701.45947,E,4,10,1.1,91.61,M,36.77,M,2.5,0000*79
[2021-02-22 15:02:21.008] $GPGGA,60220.6,3713.906664,N,13701.45947,E,4,10,1.1,91.607,M,36.77,M,2.6,0000*78
[2021-02-22 15:02:21.102] $GPGGA,60220.7,3713.906665,N,13701.45947,E,4,10,1.1,91.614,M,36.77,M,2.7,0000*77
[2021-02-22 15:02:21.211] $GPGGA,60220.8,3713.906665,N,13701.45947,E,4,10,1.1,91.615,M,36.77,M,2.8,0000*7F
[2021-02-22 15:02:21.305] $GPGGA,60220.9,3713.906665,N,13701.45947,E,4,10,1.1,91.614,M,36.77,M,2.9,0000*7F
[2021-02-22 15:02:21.414] $GPGGA,60221,3713.906666,N,13701.45947,E,4,10,1.1,91.613,M,36.77,M,3,0000*73
[2021-02-22 15:02:21.508] $GPGGA,60221.1,3713.906666,N,13701.45947,E,4,10,1.1,91.613,M,36.77,M,3.1,0000*7E
[2021-02-22 15:02:21.617] $GPGGA,60221.2,3713.906665,N,13701.45947,E,4,10,1.1,91.612,M,36.77,M,3.2,0000*7A
[2021-02-22 15:02:21.696] $GPGGA,60221.3,3713.906663,N,13701.45947,E,4,10,1.1,91.614,M,36.77,M,2.3,0000*7B
[2021-02-22 15:02:21.805] $GPGGA,60221.4,3713.906661,N,13701.45948,E,4,10,1.1,91.609,M,36.77,M,2.4,0000*74
[2021-02-22 15:02:21.899] $GPGGA,60221.5,3713.906661,N,13701.45947,E,4,10,1.1,91.61,M,36.77,M,2.5,0000*78
[2021-02-22 15:02:22.008] $GPGGA,60221.6,3713.906661,N,13701.45947,E,4,10,1.1,91.617,M,36.77,M,2.6,0000*73
[2021-02-22 15:02:22.102] $GPGGA,60221.7,3713.906662,N,13701.45947,E,4,10,1.1,91.611,M,36.77,M,2.7,0000*7A
[2021-02-22 15:02:22.211] $GPGGA,60221.8,3713.90666,N,13701.45947,E,4,10,1.1,91.618,M,36.77,M,2.8,0000*7C
[2021-02-22 15:02:22.305] $GPGGA,60221.9,3713.906663,N,13701.45947,E,4,10,1.1,91.611,M,36.77,M,2.9,0000*7E
[2021-02-22 15:02:22.414] $GPGGA,60222,3713.906664,N,13701.45947,E,4,10,1.1,91.611,M,36.77,M,3,0000*7D
[2021-02-22 15:02:22.508] $GPGGA,60222.1,3713.906662,N,13701.45947,E,4,10,1.1,91.611,M,36.77,M,3.1,0000*7B
[2021-02-22 15:02:22.602] $GPGGA,60222.2,3713.906662,N,13701.45947,E,4,10,1.1,91.614,M,36.77,M,3.2,0000*7B
[2021-02-22 15:02:22.696] $GPGGA,60222.3,3713.906662,N,13701.45947,E,4,10,1.1,91.616,M,36.77,M,2.3,0000*73
[2021-02-22 15:02:22.805] $GPGGA,60222.4,3713.906661,N,13701.45947,E,4,10,1.1,91.616,M,36.77,M,2.4,0000*7B
[2021-02-22 15:02:22.899] $GPGGA,60222.5,3713.906662,N,13701.45947,E,4,10,1.1,91.617,M,36.77,M,2.5,0000*70
[2021-02-22 15:02:23.008] $GPGGA,60222.6,3713.906661,N,13701.45947,E,4,10,1.1,91.615,M,36.77,M,2.6,0000*71
[2021-02-22 15:02:23.102] $GPGGA,60222.7,3713.906662,N,13701.45947,E,4,10,1.1,91.62,M,36.77,M,2.7,0000*71
[2021-02-22 15:02:23.211] $GPGGA,60222.8,3713.906661,N,13701.45947,E,4,10,1.1,91.615,M,36.77,M,2.8,0000*71
[2021-02-22 15:02:23.305] $GPGGA,60222.9,3713.906661,N,13701.45947,E,4,10,1.1,91.616,M,36.77,M,2.9,0000*7B
[2021-02-22 15:02:23.414] $GPGGA,60223,3713.906662,N,13701.45947,E,4,10,1.1,91.619,M,36.77,M,3,0000*77
[2021-02-22 15:02:23.508] $GPGGA,60223.1,3713.906661,N,13701.45947,E,4,10,1.1,91.619,M,36.77,M,3.1,0000*71
[2021-02-22 15:02:23.617] $GPGGA,60223.2,3713.90666,N,13701.45947,E,4,10,1.1,91.615,M,36.77,M,3.2,0000*77
[2021-02-22 15:02:23.695] $GPGGA,60223.3,3713.906664,N,13701.45947,E,4,10,1.1,91.609,M,36.77,M,2.3,0000*73
[2021-02-22 15:02:23.805] $GPGGA,60223.4,3713.906665,N,13701.45947,E,4,10,1.1,91.609,M,36.77,M,2.4,0000*7D
[2021-02-22 15:02:23.898] $GPGGA,60223.5,3713.906664,N,13701.45947,E,4,10,1.1,91.611,M,36.77,M,2.5,0000*7A
[2021-02-22 15:02:24.008] $GPGGA,60223.6,3713.906663,N,13701.45947,E,4,10,1.1,91.612,M,36.77,M,2.6,0000*7F
