
[2021-02-22 15:16:37.716] $GNGGA,061623.70,,,,,0,00,99.99,,,,,26.7,*62
[2021-02-22 15:16:37.747] $GNGGA,061623.80,,,,,0,00,99.99,,,,,26.8,*62
[2021-02-22 15:16:37.747] $GNGGA,061623.90,,,,,0,00,99.99,,,,,26.9,*62
[2021-02-22 15:16:37.747] $GNGGA,061624.00,,,,,0,00,99.99,,,,,27.0,*64
[2021-02-22 15:16:37.747] $GNGGA,061624.10,,,,,0,00,99.99,,,,,27.1,*64
[2021-02-22 15:16:37.747] $GNGGA,061624.20,,,,,0,00,99.99,,,,,27.2,*64
[2021-02-22 15:16:37.747] $GNGGA,061624.30,,,,,0,00,99.99,,,,,27.3,*64
[2021-02-22 15:16:37.747] $GNGGA,061624.40,,,,,0,00,99.99,,,,,27.4,*64
[2021-02-22 15:16:37.747] $GNGGA,061624.50,,,,,0,00,99.99,,,,,27.5,*64
[2021-02-22 15:16:37.747] $GNGGA,061624.60,,,,,0,00,99.99,,,,,27.6,*64
[2021-02-22 15:16:37.747] $GNGGA,061624.70,,,,,0,00,99.99,,,,,27.7,*64
[2021-02-22 15:16:37.747] $GNGGA,061624.80,,,,,0,00,99.99,,,,,27.8,*64
[2021-02-22 15:16:37.747] $GNGGA,061624.90,,,,,0,00,99.99,,,,,27.9,*64
[2021-02-22 15:16:37.747] $GNGGA,061625.00,,,,,0,00,99.99,,,,,28.0,*6A
[2021-02-22 15:16:37.747] $GNGGA,061625.10,,,,,0,00,99.99,,,,,28.1,*6A
[2021-02-22 15:16:37.747] $GNGGA,061625.20,,,,,0,00,99.99,,,,,28.2,*6A
[2021-02-22 15:16:37.747] $GNGGA,061625.30,,,,,0,00,99.99,,,,,28.3,*6A
[2021-02-22 15:16:37.747] $GNGGA,061625.40,,,,,0,00,99.99,,,,,28.4,*6A
[2021-02-22 15:16:37.747] $GNGGA,061625.50,,,,,0,00,99.99,,,,,28.5,*6A
[2021-02-22 15:16:37.747] $GNGGA,061625.60,,,,,0,00,99.99,,,,,28.6,*6A
[2021-02-22 15:16:37.747] $GNGGA,061625.70,,,,,0,00,99.99,,,,,28.7,*6A
[2021-02-22 15:16:37.747] $GNGGA,061625.80,,,,,0,00,99.99,,,,,28.8,*6A
[2021-02-22 15:16:37.747] $GNGGA,061625.90,,,,,0,00,99.99,,,,,28.9,*6A
[2021-02-22 15:16:37.747] $GNGGA,061626.00,,,,,0,00,99.99,,,,,29.0,*68
[2021-02-22 15:16:37.763] $GNGGA,061626.10,,,,,0,00,99.99,,,,,29.1,*68
[2021-02-22 15:16:37.763] $GNGGA,061626.20,,,,,0,00,99.99,,,,,29.2,*68
[2021-02-22 15:16:37.763] $GNGGA,061626.30,,,,,0,00,99.99,,,,,29.3,*68
[2021-02-22 15:16:37.763] $GNGGA,061626.40,,,,,0,00,99.99,,,,,29.4,*68
[2021-02-22 15:16:37.763] $GNGGA,061626.50,,,,,0,00,99.99,,,,,29.5,*68
[2021-02-22 15:16:37.763] $GNGGA,061626.60,,,,,0,00,99.99,,,,,29.6,*68
[2021-02-22 15:16:37.763] $GNGGA,061626.70,,,,,0,00,99.99,,,,,29.7,*68
[2021-02-22 15:16:37.763] $GNGGA,061626.80,,,,,0,00,99.99,,,,,29.8,*68
[2021-02-22 15:16:37.763] $GNGGA,061626.90,,,,,0,00,99.99,,,,,29.9,*68
[2021-02-22 15:16:37.763] $GNGGA,061627.00,,,,,0,00,99.99,,,,,30.0,*61
[2021-02-22 15:16:37.763] $GNGGA,061627.10,,,,,0,00,99.99,,,,,30.1,*61
[2021-02-22 15:16:37.763] $GNGGA,061627.20,,,,,0,00,99.99,,,,,30.2,*61
[2021-02-22 15:16:37.763] $GNGGA,061627.30,,,,,0,00,99.99,,,,,30.3,*61
[2021-02-22 15:16:37.763] $GNGGA,061627.40,,,,,0,00,99.99,,,,,30.4,*61
[2021-02-22 15:16:37.763] $GNGGA,061627.50,,,,,0,00,99.99,,,,,30.5,*61
[2021-02-22 15:16:37.763] $GNGGA,061627.60,,,,,0,00,99.99,,,,,30.6,*61
[2021-02-22 15:16:37.763] $GNGGA,061627.70,,,,,0,00,99.99,,,,,30.7,*61
[2021-02-22 15:16:37.763] $GNGGA,061627.80,,,,,0,00,99.99,,,,,30.8,*61
[2021-02-22 15:16:37.763] $GNGGA,061627.90,,,,,0,00,99.99,,,,,30.9,*61
[2021-02-22 15:16:37.763] $GNGGA,061628.00,,,,,0,00,99.99,,,,,31.0,*6F
[2021-02-22 15:16:37.763] $GNGGA,061628.10,,,,,0,00,99.99,,,,,31.1,*6F
[2021-02-22 15:16:37.763] $GNGGA,061628.20,,,,,0,00,99.99,,,,,31.2,*6F
[2021-02-22 15:16:37.778] $GNGGA,061628.30,,,,,0,00,99.99,,,,,31.3,*6F
[2021-02-22 15:16:37.778] $GNGGA,061628.40,,,,,0,00,99.99,,,,,31.4,*6F
[2021-02-22 15:16:37.778] $GNGGA,061628.50,,,,,0,00,99.99,,,,,31.5,*6F
[2021-02-22 15:16:37.778] $GNGGA,061628.60,,,,,0,00,99.99,,,,,31.6,*6F
[2021-02-22 15:16:37.778] $GNGGA,061628.70,,,,,0,00,99.99,,,,,31.7,*6F
[2021-02-22 15:16:37.778] $GNGGA,061628.80,,,,,0,00,99.99,,,,,31.8,*6F
[2021-02-22 15:16:37.778] $GNGGA,061628.90,,,,,0,00,99.99,,,,,31.9,*6F
[2021-02-22 15:16:37.778] $GNGGA,061629.00,,,,,0,00,99.99,,,,,32.0,*6D
[2021-02-22 15:16:37.778] $GNGGA,061629.10,,,,,0,00,99.99,,,,,32.1,*6D
[2021-02-22 15:16:37.778] $GNGGA,061629.20,,,,,0,00,99.99,,,,,32.2,*6D
[2021-02-22 15:16:37.778] $GNGGA,061629.30,,,,,0,00,99.99,,,,,32.3,*6D
[2021-02-22 15:16:37.778] $GNGGA,061629.40,,,,,0,00,99.99,,,,,32.4,*6D
[2021-02-22 15:16:37.778] $GNGGA,061629.50,,,,,0,00,99.99,,,,,32.5,*6D
[2021-02-22 15:16:37.778] $GNGGA,061629.60,,,,,0,00,99.99,,,,,32.6,*6D
[2021-02-22 15:16:37.778] $GNGGA,061629.70,,,,,0,00,99.99,,,,,32.7,*6D
[2021-02-22 15:16:37.778] $GNGGA,061629.80,,,,,0,00,99.99,,,,,32.8,*6D
[2021-02-22 15:16:37.778] $GNGGA,061629.90,,,,,0,00,99.99,,,,,32.9,*6D
[2021-02-22 15:16:37.778] $GNGGA,061630.00,,,,,0,00,99.99,,,,,33.0,*64
[2021-02-22 15:16:37.778] $GNGGA,061630.10,,,,,0,00,99.99,,,,,33.1,*64
[2021-02-22 15:16:37.778] $GNGGA,061630.20,,,,,0,00,99.99,,,,,33.2,*64
[2021-02-22 15:16:37.778] $GNGGA,061630.30,,,,,0,00,99.99,,,,,33.3,*64
[2021-02-22 15:16:37.778] $GNGGA,061630.40,,,,,0,00,99.99,,,,,33.4,*64
[2021-02-22 15:16:37.794] $GNGGA,061630.50,,,,,0,00,99.99,,,,,33.5,*64
[2021-02-22 15:16:37.794] $GNGGA,061630.60,,,,,0,00,99.99,,,,,33.6,*64
[2021-02-22 15:16:37.794] $GNGGA,061630.70,,,,,0,00,99.99,,,,,33.7,*64
[2021-02-22 15:16:37.794] $GNGGA,061630.80,,,,,0,00,99.99,,,,,33.8,*64
[2021-02-22 15:16:37.794] $GNGGA,061630.90,,,,,0,00,99.99,,,,,33.9,*64
[2021-02-22 15:16:37.794] $GNGGA,061631.00,,,,,0,00,99.99,,,,,34.0,*62
[2021-02-22 15:16:37.794] $GNGGA,061631.10,,,,,0,00,99.99,,,,,34.1,*62
[2021-02-22 15:16:37.794] $GNGGA,061631.20,,,,,0,00,99.99,,,,,34.2,*62
[2021-02-22 15:16:37.794] $GNGGA,061631.30,,,,,0,00,99.99,,,,,34.3,*62
[2021-02-22 15:16:37.794] $GNGGA,061631.40,,,,,0,00,99.99,,,,,34.4,*62
[2021-02-22 15:16:37.794] $GNGGA,061631.50,,,,,0,00,99.99,,,,,34.5,*62
[2021-02-22 15:16:37.794] $GNGGA,061631.60,,,,,0,00,99.99,,,,,34.6,*62
[2021-02-22 15:16:37.794] $GNGGA,061631.70,,,,,0,00,99.99,,,,,34.7,*62
[2021-02-22 15:16:37.794] $GNGGA,061631.80,,,,,0,00,99.99,,,,,34.8,*62
[2021-02-22 15:16:37.794] $GNGGA,061631.90,,,,,0,00,99.99,,,,,34.9,*62
[2021-02-22 15:16:37.794] $GNGGA,061632.00,,,,,0,00,99.99,,,,,35.0,*60
[2021-02-22 15:16:37.794] $GNGGA,061632.10,,,,,0,00,99.99,,,,,35.1,*60
[2021-02-22 15:16:37.794] $GNGGA,061632.20,,,,,0,00,99.99,,,,,35.2,*60
[2021-02-22 15:16:37.794] $GNGGA,061632.30,,,,,0,00,99.99,,,,,35.3,*60
[2021-02-22 15:16:37.794] $GNGGA,061632.40,,,,,0,00,99.99,,,,,35.4,*60
[2021-02-22 15:16:37.794] $GNGGA,061632.50,,,,,0,00,99.99,,,,,35.5,*60
[2021-02-22 15:16:37.794] $GNGGA,061632.60,,,,,0,00,99.99,,,,,35.6,*60
[2021-02-22 15:16:37.810] $GNGGA,061632.70,,,,,0,00,99.99,,,,,35.7,*60
[2021-02-22 15:16:37.810] $GNGGA,061632.80,,,,,0,00,99.99,,,,,35.8,*60
[2021-02-22 15:16:37.810] $GNGGA,061632.90,,,,,0,00,99.99,,,,,35.9,*60
[2021-02-22 15:16:37.810] $GNGGA,061633.00,,,,,0,00,99.99,,,,,36.0,*62
[2021-02-22 15:16:37.810] $GNGGA,061633.10,,,,,0,00,99.99,,,,,36.1,*62
[2021-02-22 15:16:37.810] $GNGGA,061633.20,,,,,0,00,99.99,,,,,36.2,*62
[2021-02-22 15:16:37.810] $GNGGA,061633.30,,,,,0,00,99.99,,,,,36.3,*62
[2021-02-22 15:16:37.810] $GNGGA,061633.40,,,,,0,00,99.99,,,,,36.4,*62
[2021-02-22 15:16:37.810] $GNGGA,061633.50,,,,,0,00,99.99,,,,,36.5,*62
[2021-02-22 15:16:37.810] $GNGGA,061633.60,,,,,0,00,99.99,,,,,36.6,*62
[2021-02-22 15:16:37.810] $GNGGA,061633.70,,,,,0,00,99.99,,,,,36.7,*62
[2021-02-22 15:16:37.810] $GNGGA,061633.80,,,,,0,00,99.99,,,,,36.8,*62
[2021-02-22 15:16:37.810] $GNGGA,061633.90,,,,,0,00,99.99,,,,,36.9,*62
[2021-02-22 15:16:37.810] $GNGGA,061634.00,,,,,0,00,99.99,,,,,37.0,*64
[2021-02-22 15:16:37.810] $GNGGA,061634.10,,,,,0,00,99.99,,,,,37.1,*64
[2021-02-22 15:16:37.810] $GNGGA,061634.20,,,,,0,00,99.99,,,,,37.2,*64
[2021-02-22 15:16:37.810] $GNGGA,061634.30,,,,,0,00,99.99,,,,,37.3,*64
[2021-02-22 15:16:37.810] $GNGGA,061634.40,,,,,0,00,99.99,,,,,37.4,*64
[2021-02-22 15:16:37.810] $GNGGA,061634.50,,,,,0,00,99.99,,,,,37.5,*64
[2021-02-22 15:16:37.810] $GNGGA,061634.60,,,,,0,00,99.99,,,,,37.6,*64
[2021-02-22 15:16:37.810] $GNGGA,061634.70,,,,,0,00,99.99,,,,,37.7,*64
[2021-02-22 15:16:37.810] $GNGGA,061634.80,,,,,0,00,99.99,,,,,37.8,*64
[2021-02-22 15:16:37.825] $GNGGA,061634.90,,,,,0,00,99.99,,,,,37.9,*64
[2021-02-22 15:16:37.825] $GNGGA,061635.00,,,,,0,00,99.99,,,,,38.0,*6A
[2021-02-22 15:16:37.825] $GNGGA,061635.10,,,,,0,00,99.99,,,,,38.1,*6A
[2021-02-22 15:16:37.825] $GNGGA,061635.20,,,,,0,00,99.99,,,,,38.2,*6A
[2021-02-22 15:16:37.825] $GNGGA,061635.30,,,,,0,00,99.99,,,,,38.3,*6A
[2021-02-22 15:16:37.825] $GNGGA,061635.40,,,,,0,00,99.99,,,,,38.4,*6A
[2021-02-22 15:16:37.825] $GNGGA,061635.50,,,,,0,00,99.99,,,,,38.5,*6A
[2021-02-22 15:16:37.825] $GNGGA,061635.60,,,,,0,00,99.99,,,,,38.6,*6A
[2021-02-22 15:16:37.825] $GNGGA,061635.70,,,,,0,00,99.99,,,,,38.7,*6A
[2021-02-22 15:16:37.825] $GNGGA,061635.80,,,,,0,00,99.99,,,,,38.8,*6A
[2021-02-22 15:16:37.825] $GNGGA,061635.90,,,,,0,00,99.99,,,,,38.9,*6A
[2021-02-22 15:16:37.825] $GNGGA,061636.00,,,,,0,00,99.99,,,,,39.0,*68
[2021-02-22 15:16:37.825] $GNGGA,061636.10,,,,,0,00,99.99,,,,,39.1,*68
[2021-02-22 15:16:37.825] $GNGGA,061636.20,,,,,0,00,99.99,,,,,39.2,*68
[2021-02-22 15:16:37.825] $GNGGA,061636.30,,,,,0,00,99.99,,,,,39.3,*68
[2021-02-22 15:16:37.825] $GNGGA,061636.40,,,,,0,00,99.99,,,,,39.4,*68
[2021-02-22 15:16:37.825] $GNGGA,061636.50,,,,,0,00,99.99,,,,,39.5,*68
[2021-02-22 15:16:37.825] $GNGGA,061636.60,,,,,0,00,99.99,,,,,39.6,*68
[2021-02-22 15:16:37.825] $GNGGA,061636.70,,,,,0,00,99.99,,,,,39.7,*68
[2021-02-22 15:16:37.825] $GNGGA,061636.80,,,,,0,00,99.99,,,,,39.8,*68
[2021-02-22 15:16:37.825] $GNGGA,061636.90,,,,,0,00,99.99,,,,,39.9,*68
[2021-02-22 15:16:37.825] $GNGGA,061637.00,,,,,0,00,99.99,,,,,40.0,*67
[2021-02-22 15:16:37.825] $GNGGA,061637.10,,,,,0,00,99.99,,,,,40.1,*67
[2021-02-22 15:16:37.825] $GNGGA,061637.20,,,,,0,00,99.99,,,,,40.2,*67
[2021-02-22 15:16:37.888] $GNGGA,061637.30,,,,,0,00,99.99,,,,,40.3,*67
[2021-02-22 15:16:37.997] $GNGGA,061637.40,,,,,0,00,99.99,,,,,40.4,*67
[2021-02-22 15:16:38.107] $GNGGA,061637.50,,,,,0,00,99.99,,,,,40.5,*67
[2021-02-22 15:16:38.200] $GNGGA,061637.60,,,,,0,00,99.99,,,,,40.6,*67
[2021-02-22 15:16:38.294] $GNGGA,061637.70,,,,,0,00,99.99,,,,,40.7,*67
[2021-02-22 15:16:38.403] $GNGGA,061637.80,,,,,0,00,99.99,,,,,40.8,*67
[2021-02-22 15:16:38.497] $GNGGA,061637.90,,,,,0,00,99.99,,,,,40.9,*67
[2021-02-22 15:16:38.591] $GNGGA,061638.00,,,,,0,00,99.99,,,,,41.0,*69
[2021-02-22 15:16:38.685] $GNGGA,061638.10,,,,,0,00,99.99,,,,,41.1,*69
[2021-02-22 15:16:38.810] $GNGGA,061638.20,,,,,0,00,99.99,,,,,41.2,*69
[2021-02-22 15:16:38.903] $GNGGA,061638.30,,,,,0,00,99.99,,,,,41.3,*69
[2021-02-22 15:16:38.997] $GNGGA,061638.40,,,,,0,00,99.99,,,,,41.4,*69
[2021-02-22 15:16:39.091] $GNGGA,061638.50,,,,,0,00,99.99,,,,,41.5,*69
[2021-02-22 15:16:39.200] $GNGGA,061638.60,,,,,0,00,99.99,,,,,41.6,*69
[2021-02-22 15:16:39.294] $GNGGA,061638.70,,,,,0,00,99.99,,,,,41.7,*69
[2021-02-22 15:16:39.403] $GNGGA,061638.80,,,,,0,00,99.99,,,,,41.8,*69
[2021-02-22 15:16:39.497] $GNGGA,061638.90,,,,,0,00,99.99,,,,,41.9,*69
[2021-02-22 15:16:39.606] $GNGGA,061639.00,,,,,0,00,99.99,,,,,42.0,*6B
[2021-02-22 15:16:39.700] $GNGGA,061639.10,,,,,0,00,99.99,,,,,42.1,*6B
[2021-02-22 15:16:39.794] $GNGGA,061639.20,,,,,0,00,99.99,,,,,42.2,*6B
[2021-02-22 15:16:39.888] $GNGGA,061639.30,,,,,0,00,99.99,,,,,42.3,*6B
[2021-02-22 15:16:39.997] $GNGGA,061639.40,,,,,0,00,99.99,,,,,42.4,*6B
[2021-02-22 15:16:40.106] $GNGGA,061639.50,,,,,0,00,99.99,,,,,42.5,*6B
[2021-02-22 15:16:40.200] $GNGGA,061639.60,,,,,0,00,99.99,,,,,42.6,*6B
[2021-02-22 15:16:40.294] $GNGGA,061639.70,,,,,0,00,99.99,,,,,42.7,*6B
[2021-02-22 15:16:40.403] $GNGGA,061639.80,,,,,0,00,99.99,,,,,42.8,*6B
[2021-02-22 15:16:40.497] $GNGGA,061639.90,,,,,0,00,99.99,,,,,42.9,*6B
[2021-02-22 15:16:40.591] $GNGGA,061640.00,,,,,0,00,99.99,,,,,43.0,*64
[2021-02-22 15:16:40.684] $GNGGA,061640.10,,,,,0,00,99.99,,,,,43.1,*64
[2021-02-22 15:16:40.809] $GNGGA,061640.20,,,,,0,00,99.99,,,,,43.2,*64
[2021-02-22 15:16:40.903] $GNGGA,061640.30,,,,,0,00,99.99,,,,,43.3,*64
[2021-02-22 15:16:40.997] $GNGGA,061640.40,,,,,0,00,99.99,,,,,43.4,*64
[2021-02-22 15:16:41.091] $GNGGA,061640.50,,,,,0,00,99.99,,,,,43.5,*64
[2021-02-22 15:16:41.200] $GNGGA,061640.60,,,,,0,00,99.99,,,,,43.6,*64
[2021-02-22 15:16:41.294] $GNGGA,061640.70,,,,,0,00,99.99,,,,,43.7,*64
[2021-02-22 15:16:41.388] $GNGGA,061640.80,,,,,0,00,99.99,,,,,43.8,*64
[2021-02-22 15:16:41.497] $GNGGA,061640.90,,,,,0,00,99.99,,,,,43.9,*64
[2021-02-22 15:16:41.606] $GNGGA,061641.00,,,,,0,00,99.99,,,,,44.0,*62
[2021-02-22 15:16:41.700] $GNGGA,061641.10,,,,,0,00,99.99,,,,,44.1,*62
[2021-02-22 15:16:41.794] $GNGGA,061641.20,,,,,0,00,99.99,,,,,44.2,*62
[2021-02-22 15:16:41.887] $GNGGA,061641.30,,,,,0,00,99.99,,,,,44.3,*62
[2021-02-22 15:16:41.997] $GNGGA,061641.40,,,,,0,00,99.99,,,,,44.4,*62
[2021-02-22 15:16:42.106] $GNGGA,061641.50,,,,,0,00,99.99,,,,,44.5,*62
[2021-02-22 15:16:42.200] $GNGGA,061641.60,,,,,0,00,99.99,,,,,44.6,*62
[2021-02-22 15:16:42.294] $GNGGA,061641.70,,,,,0,00,99.99,,,,,44.7,*62
[2021-02-22 15:16:42.403] $GNGGA,061641.80,,,,,0,00,99.99,,,,,44.8,*62
[2021-02-22 15:16:42.497] $GNGGA,061641.90,,,,,0,00,99.99,,,,,44.9,*62
[2021-02-22 15:16:42.591] $GNGGA,061642.00,,,,,0,00,99.99,,,,,45.0,*60
[2021-02-22 15:16:42.684] $GNGGA,061642.10,,,,,0,00,99.99,,,,,45.1,*60
[2021-02-22 15:16:42.809] $GNGGA,061642.20,,,,,0,00,99.99,,,,,45.2,*60
[2021-02-22 15:16:42.903] $GNGGA,061642.30,,,,,0,00,99.99,,,,,45.3,*60
[2021-02-22 15:16:42.997] $GNGGA,061642.40,,,,,0,00,99.99,,,,,45.4,*60
[2021-02-22 15:16:43.091] $GNGGA,061642.50,,,,,0,00,99.99,,,,,45.5,*60
[2021-02-22 15:16:43.200] $GNGGA,061642.60,,,,,0,00,99.99,,,,,45.6,*60
[2021-02-22 15:16:43.294] $GNGGA,061642.70,,,,,0,00,99.99,,,,,45.7,*60
[2021-02-22 15:16:43.387] $GNGGA,061642.80,,,,,0,00,99.99,,,,,45.8,*60
[2021-02-22 15:16:43.481] $GNGGA,061642.90,,,,,0,00,99.99,,,,,45.9,*60
[2021-02-22 15:16:43.606] $GNGGA,061643.00,,,,,0,00,99.99,,,,,46.0,*62
[2021-02-22 15:16:43.700] $GNGGA,061643.10,,,,,0,00,99.99,,,,,46.1,*62
[2021-02-22 15:16:43.794] $GNGGA,061643.20,,,,,0,00,99.99,,,,,46.2,*62
[2021-02-22 15:16:43.887] $GNGGA,061643.30,,,,,0,00,99.99,,,,,46.3,*62
[2021-02-22 15:16:43.997] $GNGGA,061643.40,,,,,0,00,99.99,,,,,46.4,*62
[2021-02-22 15:16:44.091] $GNGGA,061643.50,,,,,0,00,99.99,,,,,46.5,*62
[2021-02-22 15:16:44.200] $GNGGA,061643.60,,,,,0,00,99.99,,,,,46.6,*62
[2021-02-22 15:16:44.294] $GNGGA,061643.70,,,,,0,00,99.99,,,,,46.7,*62
[2021-02-22 15:16:44.403] $GNGGA,061643.80,,,,,0,00,99.99,,,,,46.8,*62
[2021-02-22 15:16:44.497] $GNGGA,061643.90,,,,,0,00,99.99,,,,,46.9,*62
[2021-02-22 15:16:44.590] $GNGGA,061644.00,,,,,0,00,99.99,,,,,47.0,*64
[2021-02-22 15:16:44.684] $GNGGA,061644.10,,,,,0,00,99.99,,,,,47.1,*64
[2021-02-22 15:16:44.809] $GNGGA,061644.20,,,,,0,00,99.99,,,,,47.2,*64
[2021-02-22 15:16:44.903] $GNGGA,061644.30,,,,,0,00,99.99,,,,,47.3,*64
[2021-02-22 15:16:44.997] $GNGGA,061644.40,,,,,0,00,99.99,,,,,47.4,*64
[2021-02-22 15:16:45.090] $GNGGA,061644.50,,,,,0,00,99.99,,,,,47.5,*64
[2021-02-22 15:16:45.200] $GNGGA,061644.60,,,,,0,00,99.99,,,,,47.6,*64
[2021-02-22 15:16:45.294] $GNGGA,061644.70,,,,,0,00,99.99,,,,,47.7,*64
[2021-02-22 15:16:45.387] $GNGGA,061644.80,,,,,0,00,99.99,,,,,47.8,*64
[2021-02-22 15:16:45.481] $GNGGA,061644.90,,,,,0,00,99.99,,,,,47.9,*64
[2021-02-22 15:16:45.606] $GNGGA,061645.00,,,,,0,00,99.99,,,,,48.0,*6A
[2021-02-22 15:16:45.700] $GNGGA,061645.10,,,,,0,00,99.99,,,,,48.1,*6A
[2021-02-22 15:16:45.793] $GNGGA,061645.20,,,,,0,00,99.99,,,,,48.2,*6A
[2021-02-22 15:16:45.887] $GNGGA,061645.30,,,,,0,00,99.99,,,,,48.3,*6A
[2021-02-22 15:16:45.997] $GNGGA,061645.40,,,,,0,00,99.99,,,,,48.4,*6A
[2021-02-22 15:16:46.090] $GNGGA,061645.50,,,,,0,00,99.99,,,,,48.5,*6A
[2021-02-22 15:16:46.200] $GNGGA,061645.60,,,,,0,00,99.99,,,,,48.6,*6A
[2021-02-22 15:16:46.293] $GNGGA,061645.70,,,,,0,00,99.99,,,,,48.7,*6A
[2021-02-22 15:16:46.403] $GNGGA,061645.80,,,,,0,00,99.99,,,,,48.8,*6A
[2021-02-22 15:16:46.497] $GNGGA,061645.90,,,,,0,00,99.99,,,,,48.9,*6A
[2021-02-22 15:16:46.590] $GNGGA,061646.00,,,,,0,00,99.99,,,,,49.0,*68
[2021-02-22 15:16:46.684] $GNGGA,061646.10,,,,,0,00,99.99,,,,,49.1,*68
[2021-02-22 15:16:46.809] $GNGGA,061646.20,,,,,0,00,99.99,,,,,49.2,*68
[2021-02-22 15:16:46.903] $GNGGA,061646.30,,,,,0,00,99.99,,,,,49.3,*68
[2021-02-22 15:16:46.997] $GNGGA,061646.40,,,,,0,00,99.99,,,,,49.4,*68
[2021-02-22 15:16:47.106] $GNGGA,061646.50,,,,,0,00,99.99,,,,,49.5,*68
[2021-02-22 15:16:47.200] $GNGGA,061646.60,,,,,0,00,99.99,,,,,49.6,*68
[2021-02-22 15:16:47.293] $GNGGA,061646.70,,,,,0,00,99.99,,,,,49.7,*68
[2021-02-22 15:16:47.387] $GNGGA,061646.80,,,,,0,00,99.99,,,,,49.8,*68
[2021-02-22 15:16:47.512] $GNGGA,061646.90,,,,,0,00,99.99,,,,,49.9,*68
[2021-02-22 15:16:47.606] $GNGGA,061647.00,,,,,0,00,99.99,,,,,50.0,*61
[2021-02-22 15:16:47.700] $GNGGA,061647.10,,,,,0,00,99.99,,,,,50.1,*61
[2021-02-22 15:16:47.793] $GNGGA,061647.20,,,,,0,00,99.99,,,,,50.2,*61
[2021-02-22 15:16:47.903] $GNGGA,061647.30,,,,,0,00,99.99,,,,,50.3,*61
[2021-02-22 15:16:47.996] $GNGGA,061647.40,,,,,0,00,99.99,,,,,50.4,*61
[2021-02-22 15:16:48.090] $GNGGA,061647.50,,,,,0,00,99.99,,,,,50.5,*61
[2021-02-22 15:16:48.200] $GNGGA,061647.60,,,,,0,00,99.99,,,,,50.6,*61
[2021-02-22 15:16:48.309] $GNGGA,061647.70,,,,,0,00,99.99,,,,,50.7,*61
[2021-02-22 15:16:48.403] $GNGGA,061647.80,,,,,0,00,99.99,,,,,50.8,*61
[2021-02-22 15:16:48.496] $GNGGA,061647.90,,,,,0,00,99.99,,,,,50.9,*61
[2021-02-22 15:16:48.590] $GNGGA,061648.00,,,,,0,00,99.99,,,,,51.0,*6F
[2021-02-22 15:16:48.700] $GNGGA,061648.10,,,,,0,00,99.99,,,,,51.1,*6F
[2021-02-22 15:16:48.793] $GNGGA,061648.20,,,,,0,00,99.99,,,,,51.2,*6F
[2021-02-22 15:16:48.903] $GNGGA,061648.30,,,,,0,00,99.99,,,,,51.3,*6F
[2021-02-22 15:16:48.996] $GNGGA,061648.40,,,,,0,00,99.99,,,,,51.4,*6F
[2021-02-22 15:16:49.106] $GNGGA,061648.50,,,,,0,00,99.99,,,,,51.5,*6F
[2021-02-22 15:16:49.199] $GNGGA,061648.60,,,,,0,00,99.99,,,,,51.6,*6F
[2021-02-22 15:16:49.293] $GNGGA,061648.70,,,,,0,00,99.99,,,,,51.7,*6F
[2021-02-22 15:16:49.387] $GNGGA,061648.80,,,,,0,00,99.99,,,,,51.8,*6F
[2021-02-22 15:16:49.496] $GNGGA,061648.90,,,,,0,00,99.99,,,,,51.9,*6F
[2021-02-22 15:16:49.606] $GNGGA,061649.00,,,,,0,00,99.99,,,,,52.0,*6D
[2021-02-22 15:16:49.699] $GNGGA,061649.10,,,,,0,00,99.99,,,,,52.1,*6D
[2021-02-22 15:16:49.793] $GNGGA,061649.20,,,,,0,00,99.99,,,,,52.2,*6D
[2021-02-22 15:16:49.903] $GNGGA,061649.30,,,,,0,00,99.99,,,,,52.3,*6D
[2021-02-22 15:16:49.996] $GNGGA,061649.40,,,,,0,00,99.99,,,,,52.4,*6D
[2021-02-22 15:16:50.090] $GNGGA,061649.50,,,,,0,00,99.99,,,,,52.5,*6D
[2021-02-22 15:16:50.199] $GNGGA,061649.60,,,,,0,00,99.99,,,,,52.6,*6D
[2021-02-22 15:16:50.309] $GNGGA,061649.70,,,,,0,00,99.99,,,,,52.7,*6D
[2021-02-22 15:16:50.403] $GNGGA,061649.80,,,,,0,00,99.99,,,,,52.8,*6D
[2021-02-22 15:16:50.496] $GNGGA,061649.90,,,,,0,00,99.99,,,,,52.9,*6D
[2021-02-22 15:16:50.590] $GNGGA,061650.00,,,,,0,00,99.99,,,,,53.0,*64
[2021-02-22 15:16:50.699] $GNGGA,061650.10,,,,,0,00,99.99,,,,,53.1,*64
[2021-02-22 15:16:50.809] $GNGGA,061650.20,,,,,0,00,99.99,,,,,53.2,*64
[2021-02-22 15:16:50.902] $GNGGA,061650.30,,,,,0,00,99.99,,,,,53.3,*64
[2021-02-22 15:16:50.996] $GNGGA,061650.40,,,,,0,00,99.99,,,,,53.4,*64
[2021-02-22 15:16:51.106] $GNGGA,061650.50,,,,,0,00,99.99,,,,,53.5,*64
[2021-02-22 15:16:51.199] $GNGGA,061650.60,,,,,0,00,99.99,,,,,53.6,*64
[2021-02-22 15:16:51.309] $GNGGA,061650.70,,,,,0,00,99.99,,,,,53.7,*64
[2021-02-22 15:16:51.387] $GNGGA,061650.80,,,,,0,00,99.99,,,,,53.8,*64
[2021-02-22 15:16:51.496] $GNGGA,061650.90,,,,,0,00,99.99,,,,,53.9,*64
[2021-02-22 15:16:51.606] $GNGGA,061651.00,,,,,0,00,99.99,,,,,54.0,*62
[2021-02-22 15:16:51.699] $GNGGA,061651.10,,,,,0,00,99.99,,,,,54.1,*62
[2021-02-22 15:16:51.793] $GNGGA,061651.20,,,,,0,00,99.99,,,,,54.2,*62
[2021-02-22 15:16:51.902] $GNGGA,061651.30,,,,,0,00,99.99,,,,,54.3,*62
[2021-02-22 15:16:52.012] $GNGGA,061651.40,,,,,0,00,99.99,,,,,54.4,*62
[2021-02-22 15:16:52.090] $GNGGA,061651.50,,,,,0,00,99.99,,,,,54.5,*62
[2021-02-22 15:16:52.199] $GNGGA,061651.60,,,,,0,00,99.99,,,,,54.6,*62
[2021-02-22 15:16:52.309] $GNGGA,061651.70,,,,,0,00,99.99,,,,,54.7,*62
[2021-02-22 15:16:52.402] $GNGGA,061651.80,,,,,0,00,99.99,,,,,54.8,*62
[2021-02-22 15:16:52.496] $GNGGA,061651.90,,,,,0,00,99.99,,,,,54.9,*62
[2021-02-22 15:16:52.590] $GNGGA,061652.00,,,,,0,00,99.99,,,,,55.0,*60
[2021-02-22 15:16:52.699] $GNGGA,061652.10,,,,,0,00,99.99,,,,,55.1,*60
[2021-02-22 15:16:52.809] $GNGGA,061652.20,,,,,0,00,99.99,,,,,55.2,*60
[2021-02-22 15:16:52.902] $GNGGA,061652.30,,,,,0,00,99.99,,,,,55.3,*60
[2021-02-22 15:16:52.996] $GNGGA,061652.40,,,,,0,00,99.99,,,,,55.4,*60
[2021-02-22 15:16:53.105] $GNGGA,061652.50,,,,,0,00,99.99,,,,,55.5,*60
[2021-02-22 15:16:53.199] $GNGGA,061652.60,,,,,0,00,99.99,,,,,55.6,*60
[2021-02-22 15:16:53.293] $GNGGA,061652.70,,,,,0,00,99.99,,,,,55.7,*60
[2021-02-22 15:16:53.387] $GNGGA,061652.80,,,,,0,00,99.99,,,,,55.8,*60
[2021-02-22 15:16:53.512] $GNGGA,061652.90,,,,,0,00,99.99,,,,,55.9,*60
[2021-02-22 15:16:53.605] $GNGGA,061653.00,,,,,0,00,99.99,,,,,56.0,*62
[2021-02-22 15:16:53.699] $GNGGA,061653.10,,,,,0,00,99.99,,,,,56.1,*62
[2021-02-22 15:16:53.793] $GNGGA,061653.20,,,,,0,00,99.99,,,,,56.2,*62
[2021-02-22 15:16:53.902] $GNGGA,061653.30,,,,,0,00,99.99,,,,,56.3,*62
[2021-02-22 15:16:53.996] $GNGGA,061653.40,,,,,0,00,99.99,,,,,56.4,*62
[2021-02-22 15:16:54.090] $GNGGA,061653.50,,,,,0,00,99.99,,,,,56.5,*62
[2021-02-22 15:16:54.199] $GNGGA,061653.60,,,,,0,00,99.99,,,,,56.6,*62
[2021-02-22 15:16:54.309] $GNGGA,061653.70,,,,,0,00,99.99,,,,,56.7,*62
[2021-02-22 15:16:54.402] $GNGGA,061653.80,,,,,0,00,99.99,,,,,56.8,*62
[2021-02-22 15:16:54.496] $GNGGA,061653.90,,,,,0,00,99.99,,,,,56.9,*62
[2021-02-22 15:16:54.590] $GNGGA,061654.00,,,,,0,00,99.99,,,,,57.0,*64
[2021-02-22 15:16:54.699] $GNGGA,061654.10,,,,,0,00,99.99,,,,,57.1,*64
[2021-02-22 15:16:54.808] $GNGGA,061654.20,,,,,0,00,99.99,,,,,57.2,*64
[2021-02-22 15:16:54.902] $GNGGA,061654.30,,,,,0,00,99.99,,,,,57.3,*64
[2021-02-22 15:16:54.996] $GNGGA,061654.40,,,,,0,00,99.99,,,,,57.4,*64
[2021-02-22 15:16:55.105] $GNGGA,061654.50,,,,,0,00,99.99,,,,,57.5,*64
[2021-02-22 15:16:55.199] $GNGGA,061654.60,,,,,0,00,99.99,,,,,57.6,*64
[2021-02-22 15:16:55.293] $GNGGA,061654.70,,,,,0,00,99.99,,,,,57.7,*64
[2021-02-22 15:16:55.387] $GNGGA,061654.80,,,,,0,00,99.99,,,,,57.8,*64
[2021-02-22 15:16:55.496] $GNGGA,061654.90,,,,,0,00,99.99,,,,,57.9,*64
[2021-02-22 15:16:55.605] $GNGGA,061655.00,,,,,0,00,99.99,,,,,58.0,*6A
[2021-02-22 15:16:55.699] $GNGGA,061655.10,,,,,0,00,99.99,,,,,58.1,*6A
[2021-02-22 15:16:55.793] $GNGGA,061655.20,,,,,0,00,99.99,,,,,58.2,*6A
[2021-02-22 15:16:55.902] $GNGGA,061655.30,,,,,0,00,99.99,,,,,58.3,*6A
[2021-02-22 15:16:55.996] $GNGGA,061655.40,,,,,0,00,99.99,,,,,58.4,*6A
[2021-02-22 15:16:56.090] $GNGGA,061655.50,,,,,0,00,99.99,,,,,58.5,*6A
[2021-02-22 15:16:56.199] $GNGGA,061655.60,,,,,0,00,99.99,,,,,58.6,*6A
[2021-02-22 15:16:56.308] $GNGGA,061655.70,,,,,0,00,99.99,,,,,58.7,*6A
[2021-02-22 15:16:56.402] $GNGGA,061655.80,,,,,0,00,99.99,,,,,58.8,*6A
[2021-02-22 15:16:56.496] $GNGGA,061655.90,,,,,0,00,99.99,,,,,58.9,*6A
[2021-02-22 15:16:56.590] $GNGGA,061656.00,,,,,0,00,99.99,,,,,59.0,*68
[2021-02-22 15:16:56.699] $GNGGA,061656.10,,,,,0,00,99.99,,,,,59.1,*68
[2021-02-22 15:16:56.808] $GNGGA,061656.20,,,,,0,00,99.99,,,,,59.2,*68
[2021-02-22 15:16:56.902] $GNGGA,061656.30,,,,,0,00,99.99,,,,,59.3,*68
[2021-02-22 15:16:56.996] $GNGGA,061656.40,,,,,0,00,99.99,,,,,59.4,*68
[2021-02-22 15:16:57.105] $GNGGA,061656.50,,,,,0,00,99.99,,,,,59.5,*68
[2021-02-22 15:16:57.199] $GNGGA,061656.60,,,,,0,00,99.99,,,,,59.6,*68
[2021-02-22 15:16:57.293] $GNGGA,061656.70,,,,,0,00,99.99,,,,,59.7,*68
[2021-02-22 15:16:57.386] $GNGGA,061656.80,,,,,0,00,99.99,,,,,59.8,*68
[2021-02-22 15:16:57.496] $GNGGA,061656.90,,,,,0,00,99.99,,,,,59.9,*68
[2021-02-22 15:16:57.605] $GNGGA,061657.00,,,,,0,00,99.99,,,,,60.0,*63
[2021-02-22 15:16:57.699] $GNGGA,061657.10,,,,,0,00,99.99,,,,,60.1,*63
[2021-02-22 15:16:57.793] $GNGGA,061657.20,,,,,0,00,99.99,,,,,60.2,*63
[2021-02-22 15:16:57.902] $GNGGA,061657.30,,,,,0,00,99.99,,,,,60.3,*63
[2021-02-22 15:16:57.996] $GNGGA,061657.40,,,,,0,00,99.99,,,,,60.4,*63
[2021-02-22 15:16:58.105] $GNGGA,061657.50,3713.896852000,N,13701.439358000,E,1,07,1.84,84.952,M,37.565,M,60.5,*69
[2021-02-22 15:16:58.183] $GNGGA,061657.60,3713.897140000,N,13701.438206000,E,1,11,0.82,83.850,M,37.565,M,60.6,*6D
[2021-02-22 15:16:58.293] $GNGGA,061657.70,3713.897128000,N,13701.437948000,E,1,11,0.82,83.657,M,37.565,M,60.7,*64
[2021-02-22 15:16:58.386] $GNGGA,061657.80,3713.897062000,N,13701.437894000,E,1,11,0.78,83.447,M,37.565,M,60.8,*6D
[2021-02-22 15:16:58.496] $GNGGA,061657.90,3713.897086000,N,13701.437828000,E,1,10,0.78,83.315,M,37.565,M,60.9,*61
[2021-02-22 15:16:58.605] $GNGGA,061658.00,3713.897050000,N,13701.437762000,E,1,10,0.78,83.209,M,37.565,M,61.0,*69
[2021-02-22 15:16:58.683] $GNGGA,061658.10,3713.897002000,N,13701.437774000,E,1,10,0.78,83.222,M,37.565,M,61.1,*60
[2021-02-22 15:16:58.793] $GNGGA,061658.20,3713.897026000,N,13701.437726000,E,1,10,0.78,83.162,M,37.565,M,61.2,*66
[2021-02-22 15:16:58.886] $GNGGA,061658.30,3713.897014000,N,13701.437708000,E,1,10,0.72,83.179,M,37.565,M,61.3,*6B
[2021-02-22 15:16:59.011] $GNGGA,061658.40,3713.896942000,N,13701.437714000,E,1,10,0.72,83.106,M,37.565,M,61.4,*65
[2021-02-22 15:16:59.089] $GNGGA,061658.50,3713.896948000,N,13701.437720000,E,1,10,0.72,83.138,M,37.565,M,61.5,*65
[2021-02-22 15:16:59.183] $GNGGA,061658.60,3713.896948000,N,13701.437720000,E,1,10,0.72,83.344,M,37.565,M,61.6,*6C
[2021-02-22 15:16:59.293] $GNGGA,061658.70,3713.897008000,N,13701.437702000,E,1,10,0.68,83.506,M,37.565,M,61.7,*6B
[2021-02-22 15:16:59.418] $GNGGA,061658.80,3713.897050000,N,13701.437738000,E,1,09,0.68,83.725,M,37.565,M,61.8,*64
[2021-02-22 15:16:59.496] $GNGGA,061658.90,3713.897062000,N,13701.437744000,E,1,09,0.68,83.902,M,37.565,M,61.9,*65
[2021-02-22 15:16:59.589] $GNGGA,061659.00,3713.897098000,N,13701.437762000,E,1,09,0.68,84.061,M,37.565,M,62.0,*6D
[2021-02-22 15:16:59.699] $GNGGA,061659.10,3713.897110000,N,13701.437786000,E,1,09,0.68,84.108,M,37.565,M,62.1,*68
[2021-02-22 15:16:59.808] $GNGGA,061659.20,3713.897122000,N,13701.437810000,E,1,09,0.68,84.232,M,37.565,M,62.2,*63
[2021-02-22 15:16:59.886] $GNGGA,061659.30,3713.897128000,N,13701.437828000,E,1,09,0.68,84.358,M,37.565,M,62.3,*6F
[2021-02-22 15:16:59.996] $GNGGA,061659.40,3713.897104000,N,13701.437828000,E,1,09,0.68,84.437,M,37.565,M,62.4,*6F
[2021-02-22 15:17:00.089] $GNGGA,061659.50,3713.897098000,N,13701.437828000,E,1,10,0.68,84.518,M,37.565,M,62.5,*6F
[2021-02-22 15:17:00.214] $GNGGA,061659.60,3713.897086000,N,13701.437840000,E,1,11,0.68,84.596,M,37.565,M,62.6,*69
[2021-02-22 15:17:00.292] $GNGGA,061659.70,3713.897062000,N,13701.437852000,E,1,11,0.68,84.719,M,37.565,M,62.7,*65
[2021-02-22 15:17:00.386] $GNGGA,061659.80,3713.897050000,N,13701.437852000,E,1,11,0.68,84.830,M,37.565,M,62.8,*60
[2021-02-22 15:17:00.496] $GNGGA,061659.90,3713.897038000,N,13701.437858000,E,1,11,0.68,84.922,M,37.565,M,62.9,*66
[2021-02-22 15:17:00.621] $GNGGA,061700.00,3713.897026000,N,13701.437858000,E,1,11,0.64,85.024,M,37.565,M,63.0,*67
[2021-02-22 15:17:00.683] $GNGGA,061700.10,3713.897020000,N,13701.437864000,E,1,10,0.64,85.077,M,37.565,M,63.1,*69
[2021-02-22 15:17:00.792] $GNGGA,061700.20,3713.896996000,N,13701.437876000,E,1,10,0.64,85.121,M,37.565,M,63.2,*6D
[2021-02-22 15:17:00.886] $GNGGA,061700.30,3713.896966000,N,13701.437894000,E,1,10,0.64,85.172,M,37.565,M,63.3,*68
[2021-02-22 15:17:01.011] $GNGGA,061700.40,3713.896954000,N,13701.437918000,E,1,10,0.64,85.271,M,37.565,M,63.4,*6C
[2021-02-22 15:17:01.089] $GNGGA,061700.50,3713.896942000,N,13701.437930000,E,1,10,0.64,85.342,M,37.565,M,63.5,*60
[2021-02-22 15:17:01.183] $GNGGA,061700.60,3713.896930000,N,13701.437942000,E,1,10,0.64,85.395,M,37.565,M,63.6,*6A
[2021-02-22 15:17:01.292] $GNGGA,061700.70,3713.896924000,N,13701.437948000,E,1,10,0.64,85.444,M,37.565,M,63.7,*6E
[2021-02-22 15:17:01.417] $GNGGA,061700.80,3713.896918000,N,13701.437960000,E,1,10,0.64,85.463,M,37.565,M,63.8,*6E
[2021-02-22 15:17:01.496] $GNGGA,061700.90,3713.896912000,N,13701.437966000,E,1,10,0.64,85.501,M,37.565,M,63.9,*67
[2021-02-22 15:17:01.589] $GNGGA,061701.00,3713.896906000,N,13701.437972000,E,1,11,0.64,85.534,M,37.565,M,64.0,*66
[2021-02-22 15:17:01.699] $GNGGA,061701.10,3713.896900000,N,13701.437966000,E,1,11,0.64,85.582,M,37.565,M,64.1,*68
[2021-02-22 15:17:01.808] $GNGGA,061701.20,3713.896900000,N,13701.437966000,E,1,11,0.64,85.611,M,37.565,M,64.2,*61
[2021-02-22 15:17:01.886] $GNGGA,061701.30,3713.896906000,N,13701.437954000,E,1,11,0.64,85.640,M,37.565,M,64.3,*62
[2021-02-22 15:17:01.995] $GNGGA,061701.40,3713.896906000,N,13701.437942000,E,1,11,0.64,85.673,M,37.565,M,64.4,*65
[2021-02-22 15:17:02.089] $GNGGA,061701.50,3713.896912000,N,13701.437930000,E,1,11,0.64,85.703,M,37.565,M,64.5,*63
[2021-02-22 15:17:02.214] $GNGGA,061701.60,3713.896912000,N,13701.437918000,E,1,11,0.64,85.728,M,37.565,M,64.6,*60
[2021-02-22 15:17:02.292] $GNGGA,061701.70,3713.896912000,N,13701.437906000,E,1,11,0.64,85.756,M,37.565,M,64.7,*66
[2021-02-22 15:17:02.386] $GNGGA,061701.80,3713.896918000,N,13701.437894000,E,1,11,0.64,85.784,M,37.565,M,64.8,*69
[2021-02-22 15:17:02.495] $GNGGA,061701.90,3713.896918000,N,13701.437882000,E,1,11,0.64,85.806,M,37.565,M,64.9,*6B
[2021-02-22 15:17:02.589] $GNGGA,061702.00,3713.896918000,N,13701.437870000,E,1,11,0.64,85.829,M,37.565,M,65.0,*69
[2021-02-22 15:17:02.714] $GNGGA,061702.10,3713.896918000,N,13701.437858000,E,1,11,0.64,85.849,M,37.565,M,65.1,*65
[2021-02-22 15:17:02.792] $GNGGA,061702.20,3713.896918000,N,13701.437846000,E,1,12,0.64,85.873,M,37.565,M,65.2,*60
[2021-02-22 15:17:02.886] $GNGGA,061702.30,3713.896924000,N,13701.437840000,E,1,12,0.64,85.891,M,37.565,M,65.3,*65
[2021-02-22 15:17:02.995] $GNGGA,061702.40,3713.896924000,N,13701.437828000,E,1,12,0.64,85.902,M,37.565,M,65.4,*60
[2021-02-22 15:17:03.105] $GNGGA,061702.50,3713.896924000,N,13701.437816000,E,1,12,0.64,85.904,M,37.565,M,65.5,*6B
[2021-02-22 15:17:03.183] $GNGGA,061702.60,3713.896924000,N,13701.437804000,E,1,12,0.64,85.903,M,37.565,M,65.6,*6F
[2021-02-22 15:17:03.292] $GNGGA,061702.70,3713.896918000,N,13701.437804000,E,1,12,0.68,85.870,M,37.565,M,65.7,*69
[2021-02-22 15:17:03.386] $GNGGA,061702.80,3713.896918000,N,13701.437798000,E,1,12,0.68,85.844,M,37.565,M,65.8,*64
[2021-02-22 15:17:03.511] $GNGGA,061702.90,3713.896918000,N,13701.437786000,E,1,12,0.68,85.810,M,37.565,M,65.9,*6A
[2021-02-22 15:17:03.589] $GNGGA,061703.00,3713.896918000,N,13701.437786000,E,1,12,0.68,85.768,M,37.565,M,66.0,*68
[2021-02-22 15:17:03.683] $GNGGA,061703.10,3713.896918000,N,13701.437780000,E,1,12,0.64,85.731,M,37.565,M,66.1,*6E
[2021-02-22 15:17:03.792] $GNGGA,061703.20,3713.896912000,N,13701.437780000,E,1,12,0.64,85.688,M,37.565,M,66.2,*67
[2021-02-22 15:17:03.917] $GNGGA,061703.30,3713.896912000,N,13701.437780000,E,1,12,0.64,85.651,M,37.565,M,66.3,*63
[2021-02-22 15:17:03.995] $GNGGA,061703.40,3713.896906000,N,13701.437780000,E,1,12,0.64,85.615,M,37.565,M,66.4,*66
[2021-02-22 15:17:04.089] $GNGGA,061703.50,3713.896900000,N,13701.437780000,E,1,12,0.64,85.577,M,37.565,M,66.5,*67
[2021-02-22 15:17:04.198] $GNGGA,061703.60,3713.896894000,N,13701.437780000,E,1,12,0.64,85.544,M,37.565,M,66.6,*6B
[2021-02-22 15:17:04.308] $GNGGA,061703.70,3713.896894000,N,13701.437774000,E,1,12,0.64,85.515,M,37.565,M,66.7,*64
[2021-02-22 15:17:04.386] $GNGGA,061703.80,3713.896888000,N,13701.437774000,E,1,12,0.64,85.490,M,37.565,M,66.8,*65
[2021-02-22 15:17:04.495] $GNGGA,061703.90,3713.896888000,N,13701.437768000,E,1,12,0.64,85.458,M,37.565,M,66.9,*6C
[2021-02-22 15:17:04.589] $GNGGA,061704.00,3713.896882000,N,13701.437762000,E,1,12,0.64,85.443,M,37.565,M,67.0,*60
[2021-02-22 15:17:04.714] $GNGGA,061704.10,3713.896882000,N,13701.437762000,E,1,12,0.64,85.431,M,37.565,M,67.1,*65
[2021-02-22 15:17:04.792] $GNGGA,061704.20,3713.896882000,N,13701.437756000,E,1,12,0.64,85.423,M,37.565,M,67.2,*61
[2021-02-22 15:17:04.886] $GNGGA,061704.30,3713.896882000,N,13701.437744000,E,1,12,0.64,85.414,M,37.565,M,67.3,*66
[2021-02-22 15:17:04.995] $GNGGA,061704.40,3713.896876000,N,13701.437738000,E,1,12,0.64,85.407,M,37.565,M,67.4,*64
[2021-02-22 15:17:05.105] $GNGGA,061704.50,3713.896870000,N,13701.437726000,E,1,12,0.64,85.401,M,37.565,M,67.5,*6B
[2021-02-22 15:17:05.183] $GNGGA,061704.60,3713.896876000,N,13701.437726000,E,1,12,0.68,85.397,M,37.565,M,67.6,*69
[2021-02-22 15:17:05.292] $GNGGA,061704.70,3713.896876000,N,13701.437720000,E,1,12,0.68,85.393,M,37.565,M,67.7,*6B
[2021-02-22 15:17:05.386] $GNGGA,061704.80,3713.896876000,N,13701.437714000,E,1,12,0.68,85.386,M,37.565,M,67.8,*68
[2021-02-22 15:17:05.511] $GNGGA,061704.90,3713.896876000,N,13701.437708000,E,1,12,0.68,85.384,M,37.565,M,67.9,*67
[2021-02-22 15:17:05.589] $GNGGA,061705.00,3713.896876000,N,13701.437702000,E,1,12,0.68,85.378,M,37.565,M,68.0,*60
[2021-02-22 15:17:05.683] $GNGGA,061705.10,3713.896870000,N,13701.437696000,E,1,12,0.68,85.370,M,37.565,M,68.1,*62
[2021-02-22 15:17:05.792] $GNGGA,061705.20,3713.896870000,N,13701.437690000,E,1,12,0.68,85.363,M,37.565,M,68.2,*66
[2021-02-22 15:17:05.917] $GNGGA,061705.30,3713.896870000,N,13701.437684000,E,1,12,0.68,85.360,M,37.565,M,68.3,*60
[2021-02-22 15:17:05.995] $GNGGA,061705.40,3713.896870000,N,13701.437672000,E,1,11,0.68,85.358,M,37.565,M,68.4,*61
[2021-02-22 15:17:06.089] $GNGGA,061705.50,3713.896870000,N,13701.437672000,E,1,11,0.68,85.354,M,37.565,M,68.5,*6D
[2021-02-22 15:17:06.198] $GNGGA,061705.60,3713.896870000,N,13701.437666000,E,1,11,0.68,85.356,M,37.565,M,68.6,*6A
[2021-02-22 15:17:06.308] $GNGGA,061705.70,3713.896870000,N,13701.437660000,E,1,11,0.68,85.349,M,37.565,M,68.7,*62
[2021-02-22 15:17:06.386] $GNGGA,061705.80,3713.896870000,N,13701.437648000,E,1,12,0.68,85.350,M,37.565,M,68.8,*63
[2021-02-22 15:17:06.495] $GNGGA,061705.90,3713.896864000,N,13701.437642000,E,1,12,0.68,85.354,M,37.565,M,68.9,*68
[2021-02-22 15:17:06.589] $GNGGA,061706.00,3713.896864000,N,13701.437636000,E,1,12,0.68,85.347,M,37.565,M,69.0,*6B
[2021-02-22 15:17:06.698] $GNGGA,061706.10,3713.896864000,N,13701.437630000,E,1,12,0.68,85.358,M,37.565,M,69.1,*63
[2021-02-22 15:17:06.808] $GNGGA,061706.20,3713.896864000,N,13701.437624000,E,1,12,0.68,85.361,M,37.565,M,69.2,*6C
[2021-02-22 15:17:06.886] $GNGGA,061706.30,3713.896864000,N,13701.437618000,E,1,12,0.68,85.361,M,37.565,M,69.3,*63
[2021-02-22 15:17:06.995] $GNGGA,061706.40,3713.896864000,N,13701.437612000,E,1,12,0.68,85.366,M,37.565,M,69.4,*6E
[2021-02-22 15:17:07.089] $GNGGA,061706.50,3713.896864000,N,13701.437606000,E,1,12,0.68,85.369,M,37.565,M,69.5,*64
[2021-02-22 15:17:07.198] $GNGGA,061706.60,3713.896864000,N,13701.437600000,E,1,12,0.68,85.376,M,37.565,M,69.6,*6C
[2021-02-22 15:17:07.308] $GNGGA,061706.70,3713.896864000,N,13701.437600000,E,1,12,0.68,85.375,M,37.565,M,69.7,*6F
[2021-02-22 15:17:07.386] $GNGGA,061706.80,3713.896864000,N,13701.437594000,E,1,12,0.68,85.379,M,37.565,M,69.8,*6D
[2021-02-22 15:17:07.495] $GNGGA,061706.90,3713.896858000,N,13701.437588000,E,1,12,0.68,85.385,M,37.565,M,69.9,*6C
[2021-02-22 15:17:07.589] $GNGGA,061707.00,3713.896858000,N,13701.437582000,E,1,11,0.68,85.388,M,37.565,M,70.0,*61
[2021-02-22 15:17:07.714] $GNGGA,061707.10,3713.896858000,N,13701.437582000,E,1,11,0.68,85.389,M,37.565,M,70.1,*60
[2021-02-22 15:17:07.792] $GNGGA,061707.20,3713.896858000,N,13701.437576000,E,1,11,0.68,85.386,M,37.565,M,70.2,*64
[2021-02-22 15:17:07.886] $GNGGA,061707.30,3713.896858000,N,13701.437570000,E,1,11,0.68,85.391,M,37.565,M,70.3,*64
[2021-02-22 15:17:07.995] $GNGGA,061707.40,3713.896858000,N,13701.437564000,E,1,11,0.68,85.392,M,37.565,M,70.4,*62
[2021-02-22 15:17:08.104] $GNGGA,061707.50,3713.896858000,N,13701.437558000,E,1,11,0.64,85.391,M,37.565,M,70.5,*62
[2021-02-22 15:17:08.198] $GNGGA,061707.60,3713.896858000,N,13701.437558000,E,1,11,0.64,85.386,M,37.565,M,70.6,*64
[2021-02-22 15:17:08.292] $GNGGA,061707.70,3713.896858000,N,13701.437552000,E,1,11,0.64,85.389,M,37.565,M,70.7,*61
[2021-02-22 15:17:08.386] $GNGGA,061707.80,3713.896858000,N,13701.437552000,E,1,11,0.64,85.384,M,37.565,M,70.8,*6C
[2021-02-22 15:17:08.511] $GNGGA,061707.90,3713.896858000,N,13701.437546000,E,1,11,0.64,85.388,M,37.565,M,70.9,*65
[2021-02-22 15:17:08.589] $GNGGA,061708.00,3713.896858000,N,13701.437540000,E,1,11,0.64,85.389,M,37.565,M,71.0,*6C
[2021-02-22 15:17:08.683] $GNGGA,061708.10,3713.896858000,N,13701.437540000,E,1,12,0.64,85.383,M,37.565,M,71.1,*65
[2021-02-22 15:17:08.792] $GNGGA,061708.20,3713.896858000,N,13701.437528000,E,1,12,0.64,85.386,M,37.565,M,71.2,*6E
[2021-02-22 15:17:08.917] $GNGGA,061708.30,3713.896858000,N,13701.437528000,E,1,12,0.64,85.386,M,37.565,M,71.3,*6E
[2021-02-22 15:17:08.995] $GNGGA,061708.40,3713.896858000,N,13701.437522000,E,1,12,0.64,85.383,M,37.565,M,71.4,*61
[2021-02-22 15:17:09.089] $GNGGA,061708.50,3713.896858000,N,13701.437522000,E,1,12,0.64,85.385,M,37.565,M,71.5,*67
[2021-02-22 15:17:09.198] $GNGGA,061708.60,3713.896858000,N,13701.437522000,E,1,13,0.64,85.382,M,37.565,M,71.6,*61
[2021-02-22 15:17:09.323] $GNGGA,061708.70,3713.896852000,N,13701.437516000,E,1,12,0.64,85.387,M,37.565,M,71.7,*68
[2021-02-22 15:17:09.386] $GNGGA,061708.80,3713.896852000,N,13701.437516000,E,1,12,0.64,85.389,M,37.565,M,71.8,*66
[2021-02-22 15:17:09.495] $GNGGA,061708.90,3713.896858000,N,13701.437510000,E,1,12,0.64,85.393,M,37.565,M,71.9,*61
[2021-02-22 15:17:09.589] $GNGGA,061709.00,3713.896858000,N,13701.437510000,E,1,12,0.64,85.393,M,37.565,M,72.0,*63
[2021-02-22 15:17:09.714] $GNGGA,061709.10,3713.896858000,N,13701.437504000,E,1,12,0.64,85.403,M,37.565,M,72.1,*68
[2021-02-22 15:17:09.792] $GNGGA,061709.20,3713.896858000,N,13701.437504000,E,1,12,0.64,85.411,M,37.565,M,72.2,*6B
[2021-02-22 15:17:09.886] $GNGGA,061709.30,3713.896858000,N,13701.437504000,E,1,12,0.68,85.419,M,37.565,M,72.3,*6F
[2021-02-22 15:17:09.995] $GNGGA,061709.40,3713.896858000,N,13701.437498000,E,1,12,0.68,85.427,M,37.565,M,72.4,*66
[2021-02-22 15:17:10.104] $GNGGA,061709.50,3713.896858000,N,13701.437498000,E,1,12,0.68,85.431,M,37.565,M,72.5,*61
[2021-02-22 15:17:10.182] $GNGGA,061709.60,3713.896858000,N,13701.437492000,E,1,12,0.68,85.433,M,37.565,M,72.6,*69
[2021-02-22 15:17:10.292] $GNGGA,061709.70,3713.896858000,N,13701.437492000,E,1,12,0.68,85.440,M,37.565,M,72.7,*6D
[2021-02-22 15:17:10.386] $GNGGA,061709.80,3713.896864000,N,13701.437492000,E,1,12,0.68,85.446,M,37.565,M,72.8,*64
[2021-02-22 15:17:10.510] $GNGGA,061709.90,3713.896858000,N,13701.437492000,E,1,12,0.68,85.451,M,37.565,M,72.9,*6D
[2021-02-22 15:17:10.589] $GNGGA,061710.00,3713.896864000,N,13701.437486000,E,1,12,0.68,85.456,M,37.565,M,73.0,*69
[2021-02-22 15:17:10.682] $GNGGA,061710.10,3713.896864000,N,13701.437486000,E,1,12,0.68,85.460,M,37.565,M,73.1,*6C
[2021-02-22 15:17:10.792] $GNGGA,061710.20,3713.896864000,N,13701.437486000,E,1,12,0.68,85.467,M,37.565,M,73.2,*6B
[2021-02-22 15:17:10.917] $GNGGA,061710.30,3713.896864000,N,13701.437486000,E,1,12,0.68,85.475,M,37.565,M,73.3,*68
[2021-02-22 15:17:10.995] $GNGGA,061710.40,3713.896864000,N,13701.437480000,E,1,12,0.68,85.480,M,37.565,M,73.4,*64
[2021-02-22 15:17:11.089] $GNGGA,061710.50,3713.896864000,N,13701.437480000,E,1,12,0.68,85.485,M,37.565,M,73.5,*61
[2021-02-22 15:17:11.198] $GNGGA,061710.60,3713.896864000,N,13701.437480000,E,1,12,0.68,85.490,M,37.565,M,73.6,*65
[2021-02-22 15:17:11.292] $GNGGA,061710.70,3713.896864000,N,13701.437480000,E,1,12,0.68,85.498,M,37.565,M,73.7,*6D
[2021-02-22 15:17:11.417] $GNGGA,061710.80,3713.896864000,N,13701.437480000,E,1,12,0.68,85.503,M,37.565,M,73.8,*6E
[2021-02-22 15:17:11.495] $GNGGA,061710.90,3713.896864000,N,13701.437474000,E,1,12,0.68,85.507,M,37.565,M,73.9,*61
[2021-02-22 15:17:11.589] $GNGGA,061711.00,3713.896864000,N,13701.437480000,E,1,12,0.68,85.514,M,37.565,M,74.0,*6E
[2021-02-22 15:17:11.698] $GNGGA,061711.10,3713.896864000,N,13701.437474000,E,1,12,0.68,85.519,M,37.565,M,74.1,*68
[2021-02-22 15:17:11.807] $GNGGA,061711.20,3713.896864000,N,13701.437474000,E,1,11,0.68,85.527,M,37.565,M,74.2,*66
[2021-02-22 15:17:11.885] $GNGGA,061711.30,3713.896864000,N,13701.437474000,E,1,13,0.68,85.530,M,37.565,M,74.3,*62
[2021-02-22 15:17:11.995] $GNGGA,061711.40,3713.896864000,N,13701.437474000,E,1,13,0.68,85.538,M,37.565,M,74.4,*6A
[2021-02-22 15:17:12.089] $GNGGA,061711.50,3713.896864000,N,13701.437474000,E,1,13,0.68,85.538,M,37.565,M,74.5,*6A
[2021-02-22 15:17:12.213] $GNGGA,061711.60,3713.896864000,N,13701.437480000,E,1,13,0.68,85.543,M,37.565,M,74.6,*6D
[2021-02-22 15:17:12.292] $GNGGA,061711.70,3713.896864000,N,13701.437480000,E,1,13,0.68,85.544,M,37.565,M,74.7,*6A
[2021-02-22 15:17:12.385] $GNGGA,061711.80,3713.896864000,N,13701.437480000,E,1,13,0.68,85.549,M,37.565,M,74.8,*67
[2021-02-22 15:17:12.495] $GNGGA,061711.90,3713.896864000,N,13701.437480000,E,1,13,0.68,85.549,M,37.565,M,74.9,*67
[2021-02-22 15:17:12.620] $GNGGA,061712.00,3713.896864000,N,13701.437480000,E,1,13,0.64,85.555,M,37.565,M,75.0,*64
[2021-02-22 15:17:12.682] $GNGGA,061712.10,3713.896864000,N,13701.437480000,E,1,13,0.64,85.561,M,37.565,M,75.1,*63
[2021-02-22 15:17:12.792] $GNGGA,061712.20,3713.896864000,N,13701.437480000,E,1,13,0.64,85.564,M,37.565,M,75.2,*66
[2021-02-22 15:17:12.885] $GNGGA,061712.30,3713.896864000,N,13701.437480000,E,1,12,0.64,85.566,M,37.565,M,75.3,*65
[2021-02-22 15:17:13.010] $GNGGA,061712.40,3713.896864000,N,13701.437480000,E,1,12,0.64,85.565,M,37.565,M,75.4,*66
[2021-02-22 15:17:13.088] $GNGGA,061712.50,3713.896864000,N,13701.437480000,E,1,11,0.64,85.572,M,37.565,M,75.5,*63
[2021-02-22 15:17:13.198] $GNGGA,061712.60,3713.896864000,N,13701.437480000,E,1,11,0.64,85.571,M,37.565,M,75.6,*60
[2021-02-22 15:17:13.292] $GNGGA,061712.70,3713.896864000,N,13701.437474000,E,1,12,0.64,85.577,M,37.565,M,75.7,*6E
[2021-02-22 15:17:13.417] $GNGGA,061712.80,3713.896864000,N,13701.437480000,E,1,12,0.64,85.580,M,37.565,M,75.8,*6D
[2021-02-22 15:17:13.495] $GNGGA,061712.90,3713.896870000,N,13701.437480000,E,1,12,0.64,85.585,M,37.565,M,75.9,*6D
[2021-02-22 15:17:13.588] $GNGGA,061713.00,3713.896870000,N,13701.437480000,E,1,12,0.64,85.592,M,37.565,M,76.0,*69
[2021-02-22 15:17:13.698] $GNGGA,061713.10,3713.896870000,N,13701.437480000,E,1,12,0.64,85.594,M,37.565,M,76.1,*6F
[2021-02-22 15:17:13.807] $GNGGA,061713.20,3713.896870000,N,13701.437480000,E,1,12,0.64,85.601,M,37.565,M,76.2,*60
[2021-02-22 15:17:13.885] $GNGGA,061713.30,3713.896870000,N,13701.437480000,E,1,12,0.64,85.604,M,37.565,M,76.3,*65
[2021-02-22 15:17:13.995] $GNGGA,061713.40,3713.896876000,N,13701.437480000,E,1,12,0.64,85.609,M,37.565,M,76.4,*6E
[2021-02-22 15:17:14.088] $GNGGA,061713.50,3713.896876000,N,13701.437474000,E,1,12,0.64,85.611,M,37.565,M,76.5,*6C
[2021-02-22 15:17:14.213] $GNGGA,061713.60,3713.896870000,N,13701.437474000,E,1,12,0.64,85.611,M,37.565,M,76.6,*6A
[2021-02-22 15:17:14.292] $GNGGA,061713.70,3713.896876000,N,13701.437474000,E,1,12,0.64,85.617,M,37.565,M,76.7,*6A
[2021-02-22 15:17:14.385] $GNGGA,061713.80,3713.896876000,N,13701.437474000,E,1,12,0.64,85.620,M,37.565,M,76.8,*6E
[2021-02-22 15:17:14.495] $GNGGA,061713.90,3713.896876000,N,13701.437468000,E,1,12,0.64,85.625,M,37.565,M,76.9,*66
[2021-02-22 15:17:14.620] $GNGGA,061714.00,3713.896876000,N,13701.437468000,E,1,12,0.64,85.632,M,37.565,M,77.0,*66
[2021-02-22 15:17:14.682] $GNGGA,061714.10,3713.896882000,N,13701.437468000,E,1,12,0.64,85.638,M,37.565,M,77.1,*67
[2021-02-22 15:17:14.792] $GNGGA,061714.20,3713.896882000,N,13701.437468000,E,1,12,0.64,85.641,M,37.565,M,77.2,*69
[2021-02-22 15:17:14.885] $GNGGA,061714.30,3713.896882000,N,13701.437468000,E,1,12,0.64,85.645,M,37.565,M,77.3,*6D
[2021-02-22 15:17:15.010] $GNGGA,061714.40,3713.896882000,N,13701.437468000,E,1,12,0.64,85.650,M,37.565,M,77.4,*69
[2021-02-22 15:17:15.088] $GNGGA,061714.50,3713.896882000,N,13701.437468000,E,1,12,0.64,85.655,M,37.565,M,77.5,*6C
[2021-02-22 15:17:15.182] $GNGGA,061714.60,3713.896888000,N,13701.437468000,E,1,12,0.64,85.656,M,37.565,M,77.6,*65
[2021-02-22 15:17:15.291] $GNGGA,061714.70,3713.896888000,N,13701.437468000,E,1,12,0.64,85.659,M,37.565,M,77.7,*6A
[2021-02-22 15:17:15.385] $GNGGA,061714.80,3713.896888000,N,13701.437468000,E,1,12,0.64,85.664,M,37.565,M,77.8,*64
[2021-02-22 15:17:15.510] $GNGGA,061714.90,3713.896894000,N,13701.437468000,E,1,12,0.64,85.666,M,37.565,M,77.9,*6B
[2021-02-22 15:17:15.588] $GNGGA,061715.00,3713.896894000,N,13701.437468000,E,1,12,0.64,85.666,M,37.565,M,78.0,*65
[2021-02-22 15:17:15.698] $GNGGA,061715.10,3713.896894000,N,13701.437468000,E,1,12,0.64,85.671,M,37.565,M,78.1,*63
[2021-02-22 15:17:15.791] $GNGGA,061715.20,3713.896894000,N,13701.437468000,E,1,12,0.64,85.673,M,37.565,M,78.2,*61
[2021-02-22 15:17:15.885] $GNGGA,061715.30,3713.896900000,N,13701.437468000,E,1,12,0.64,85.671,M,37.565,M,78.3,*6F
[2021-02-22 15:17:16.010] $GNGGA,061715.40,3713.896894000,N,13701.437468000,E,1,12,0.64,85.675,M,37.565,M,78.4,*67
[2021-02-22 15:17:16.088] $GNGGA,061715.50,3713.896894000,N,13701.437474000,E,1,12,0.64,85.679,M,37.565,M,78.5,*66
[2021-02-22 15:17:16.198] $GNGGA,061715.60,3713.896900000,N,13701.437474000,E,1,12,0.64,85.678,M,37.565,M,78.6,*6B
[2021-02-22 15:17:16.291] $GNGGA,061715.70,3713.896900000,N,13701.437474000,E,1,12,0.64,85.680,M,37.565,M,78.7,*6C
[2021-02-22 15:17:16.416] $GNGGA,061715.80,3713.896900000,N,13701.437474000,E,1,12,0.64,85.689,M,37.565,M,78.8,*65
[2021-02-22 15:17:16.495] $GNGGA,061715.90,3713.896900000,N,13701.437474000,E,1,12,0.64,85.689,M,37.565,M,78.9,*65
[2021-02-22 15:17:16.588] $GNGGA,061716.00,3713.896900000,N,13701.437474000,E,1,12,0.64,85.690,M,37.565,M,79.0,*6F
[2021-02-22 15:17:16.698] $GNGGA,061716.10,3713.896900000,N,13701.437480000,E,1,12,0.64,85.693,M,37.565,M,79.1,*67
[2021-02-22 15:17:16.807] $GNGGA,061716.20,3713.896900000,N,13701.437480000,E,1,12,0.64,85.699,M,37.565,M,79.2,*6D
[2021-02-22 15:17:16.885] $GNGGA,061716.30,3713.896900000,N,13701.437480000,E,1,12,0.64,85.701,M,37.565,M,79.3,*6D
[2021-02-22 15:17:16.994] $GNGGA,061716.40,3713.896900000,N,13701.437474000,E,1,12,0.64,85.699,M,37.565,M,79.4,*66
[2021-02-22 15:17:17.088] $GNGGA,061716.50,3713.896906000,N,13701.437480000,E,1,12,0.64,85.705,M,37.565,M,79.5,*6F
[2021-02-22 15:17:17.213] $GNGGA,061716.60,3713.896906000,N,13701.437480000,E,1,12,0.64,85.705,M,37.565,M,79.6,*6F
[2021-02-22 15:17:17.291] $GNGGA,061716.70,3713.896906000,N,13701.437480000,E,1,12,0.64,85.707,M,37.565,M,79.7,*6D
[2021-02-22 15:17:17.385] $GNGGA,061716.80,3713.896906000,N,13701.437480000,E,1,12,0.64,85.711,M,37.565,M,79.8,*6A
[2021-02-22 15:17:17.494] $GNGGA,061716.90,3713.896906000,N,13701.437480000,E,1,12,0.64,85.708,M,37.565,M,79.9,*62
[2021-02-22 15:17:17.619] $GNGGA,061717.00,3713.896906000,N,13701.437480000,E,1,12,0.64,85.717,M,37.565,M,80.0,*6B
[2021-02-22 15:17:17.697] $GNGGA,061717.10,3713.896906000,N,13701.437480000,E,1,12,0.64,85.717,M,37.565,M,80.1,*6B
[2021-02-22 15:17:17.791] $GNGGA,061717.20,3713.896906000,N,13701.437480000,E,1,12,0.64,85.723,M,37.565,M,80.2,*6C
[2021-02-22 15:17:17.885] $GNGGA,061717.30,3713.896906000,N,13701.437480000,E,1,11,0.64,85.723,M,37.565,M,80.3,*6F
[2021-02-22 15:17:18.010] $GNGGA,061717.40,3713.896906000,N,13701.437480000,E,1,11,0.64,85.731,M,37.565,M,80.4,*6C
[2021-02-22 15:17:18.088] $GNGGA,061717.50,3713.896906000,N,13701.437480000,E,1,12,0.64,85.732,M,37.565,M,80.5,*6C
[2021-02-22 15:17:18.197] $GNGGA,061717.60,3713.896906000,N,13701.437480000,E,1,12,0.64,85.734,M,37.565,M,80.6,*6A
[2021-02-22 15:17:18.291] $GNGGA,061717.70,3713.896912000,N,13701.437480000,E,1,11,0.64,85.738,M,37.565,M,80.7,*60
[2021-02-22 15:17:18.416] $GNGGA,061717.80,3713.896906000,N,13701.437486000,E,1,12,0.64,85.741,M,37.565,M,80.8,*6E
[2021-02-22 15:17:18.494] $GNGGA,061717.90,3713.896912000,N,13701.437486000,E,1,12,0.64,85.742,M,37.565,M,80.9,*68
[2021-02-22 15:17:18.588] $GNGGA,061718.00,3713.896906000,N,13701.437486000,E,1,12,0.64,85.746,M,37.565,M,81.0,*67
[2021-02-22 15:17:18.697] $GNGGA,061718.10,3713.896906000,N,13701.437486000,E,1,12,0.64,85.754,M,37.565,M,81.1,*64
[2021-02-22 15:17:18.807] $GNGGA,061718.20,3713.896906000,N,13701.437480000,E,1,12,0.64,85.755,M,37.565,M,81.2,*63
[2021-02-22 15:17:18.885] $GNGGA,061718.30,3713.896906000,N,13701.437486000,E,1,12,0.64,85.760,M,37.565,M,81.3,*63
[2021-02-22 15:17:18.994] $GNGGA,061718.40,3713.896906000,N,13701.437480000,E,1,12,0.64,85.767,M,37.565,M,81.4,*62
[2021-02-22 15:17:19.088] $GNGGA,061718.50,3713.896906000,N,13701.437486000,E,1,12,0.64,85.772,M,37.565,M,81.5,*60
[2021-02-22 15:17:19.213] $GNGGA,061718.60,3713.896906000,N,13701.437486000,E,1,12,0.64,85.777,M,37.565,M,81.6,*65
[2021-02-22 15:17:19.291] $GNGGA,061718.70,3713.896912000,N,13701.437480000,E,1,12,0.64,85.778,M,37.565,M,81.7,*69
[2021-02-22 15:17:19.385] $GNGGA,061718.80,3713.896912000,N,13701.437480000,E,1,12,0.68,85.785,M,37.565,M,81.8,*67
[2021-02-22 15:17:19.494] $GNGGA,061718.90,3713.896912000,N,13701.437480000,E,1,13,0.68,85.784,M,37.565,M,81.9,*67
[2021-02-22 15:17:19.604] $GNGGA,061719.00,3713.896912000,N,13701.437480000,E,1,13,0.68,85.789,M,37.565,M,82.0,*68
[2021-02-22 15:17:19.682] $GNGGA,061719.10,3713.896912000,N,13701.437480000,E,1,13,0.68,85.794,M,37.565,M,82.1,*64
[2021-02-22 15:17:19.791] $GNGGA,061719.20,3713.896912000,N,13701.437480000,E,1,13,0.68,85.794,M,37.565,M,82.2,*64
[2021-02-22 15:17:19.885] $GNGGA,061719.30,3713.896912000,N,13701.437486000,E,1,13,0.68,85.797,M,37.565,M,82.3,*61
[2021-02-22 15:17:19.994] $GNGGA,061719.40,3713.896918000,N,13701.437486000,E,1,12,0.68,85.801,M,37.565,M,82.4,*6A
[2021-02-22 15:17:20.119] $GNGGA,061719.50,3713.896912000,N,13701.437486000,E,1,12,0.68,85.802,M,37.565,M,82.5,*63
[2021-02-22 15:17:20.182] $GNGGA,061719.60,3713.896912000,N,13701.437486000,E,1,12,0.64,85.804,M,37.565,M,82.6,*69
[2021-02-22 15:17:20.291] $GNGGA,061719.70,3713.896918000,N,13701.437486000,E,1,12,0.64,85.805,M,37.565,M,82.7,*62
[2021-02-22 15:17:20.385] $GNGGA,061719.80,3713.896918000,N,13701.437486000,E,1,12,0.64,85.809,M,37.565,M,82.8,*6E
[2021-02-22 15:17:20.510] $GNGGA,061719.90,3713.896912000,N,13701.437480000,E,1,12,0.64,85.811,M,37.565,M,82.9,*6B
[2021-02-22 15:17:20.588] $GNGGA,061720.00,3713.896912000,N,13701.437486000,E,1,12,0.64,85.811,M,37.565,M,83.0,*66
[2021-02-22 15:17:20.697] $GNGGA,061720.10,3713.896912000,N,13701.437486000,E,1,12,0.64,85.812,M,37.565,M,83.1,*65
[2021-02-22 15:17:20.791] $GNGGA,061720.20,3713.896912000,N,13701.437486000,E,1,12,0.64,85.813,M,37.565,M,83.2,*64
[2021-02-22 15:17:20.916] $GNGGA,061720.30,3713.896912000,N,13701.437486000,E,1,12,0.64,85.819,M,37.565,M,83.3,*6E
[2021-02-22 15:17:20.994] $GNGGA,061720.40,3713.896912000,N,13701.437486000,E,1,12,0.64,85.818,M,37.565,M,83.4,*6F
[2021-02-22 15:17:21.088] $GNGGA,061720.50,3713.896912000,N,13701.437492000,E,1,12,0.64,85.822,M,37.565,M,83.5,*63
[2021-02-22 15:17:21.197] $GNGGA,061720.60,3713.896912000,N,13701.437486000,E,1,12,0.64,85.826,M,37.565,M,83.6,*62
[2021-02-22 15:17:21.307] $GNGGA,061720.70,3713.896912000,N,13701.437486000,E,1,12,0.64,85.827,M,37.565,M,83.7,*63
[2021-02-22 15:17:21.385] $GNGGA,061720.80,3713.896912000,N,13701.437492000,E,1,11,0.64,85.829,M,37.565,M,83.8,*6B
[2021-02-22 15:17:21.494] $GNGGA,061720.90,3713.896912000,N,13701.437492000,E,1,11,0.64,85.835,M,37.565,M,83.9,*66
[2021-02-22 15:17:21.588] $GNGGA,061721.00,3713.896912000,N,13701.437492000,E,1,11,0.64,85.837,M,37.565,M,84.0,*62
[2021-02-22 15:17:21.713] $GNGGA,061721.10,3713.896912000,N,13701.437492000,E,1,11,0.64,85.839,M,37.565,M,84.1,*6C
[2021-02-22 15:17:21.791] $GNGGA,061721.20,3713.896912000,N,13701.437486000,E,1,11,0.64,85.846,M,37.565,M,84.2,*61
[2021-02-22 15:17:21.885] $GNGGA,061721.30,3713.896912000,N,13701.437486000,E,1,11,0.64,85.848,M,37.565,M,84.3,*6F
[2021-02-22 15:17:21.994] $GNGGA,061721.40,3713.896912000,N,13701.437486000,E,1,11,0.64,85.849,M,37.565,M,84.4,*6E
[2021-02-22 15:17:22.119] $GNGGA,061721.50,3713.896912000,N,13701.437492000,E,1,11,0.68,85.853,M,37.565,M,84.5,*6C
[2021-02-22 15:17:22.182] $GNGGA,061721.60,3713.896912000,N,13701.437492000,E,1,12,0.68,85.859,M,37.565,M,84.6,*65
[2021-02-22 15:17:22.291] $GNGGA,061721.70,3713.896912000,N,13701.437486000,E,1,12,0.68,85.860,M,37.565,M,84.7,*6A
[2021-02-22 15:17:22.385] $GNGGA,061721.80,3713.896912000,N,13701.437486000,E,1,13,0.68,85.864,M,37.565,M,84.8,*6F
[2021-02-22 15:17:22.510] $GNGGA,061721.90,3713.896912000,N,13701.437486000,E,1,13,0.68,85.865,M,37.565,M,84.9,*6E
[2021-02-22 15:17:22.588] $GNGGA,061722.00,3713.896912000,N,13701.437486000,E,1,13,0.68,85.872,M,37.565,M,85.0,*6A
[2021-02-22 15:17:22.697] $GNGGA,061722.10,3713.896912000,N,13701.437486000,E,1,13,0.68,85.870,M,37.565,M,85.1,*68
[2021-02-22 15:17:22.791] $GNGGA,061722.20,3713.896912000,N,13701.437486000,E,1,13,0.68,85.878,M,37.565,M,85.2,*60
[2021-02-22 15:17:22.916] $GNGGA,061722.30,3713.896918000,N,13701.437486000,E,1,13,0.68,85.878,M,37.565,M,85.3,*6A
[2021-02-22 15:17:22.994] $GNGGA,061722.40,3713.896912000,N,13701.437486000,E,1,13,0.68,85.883,M,37.565,M,85.4,*64
[2021-02-22 15:17:23.088] $GNGGA,061722.50,3713.896912000,N,13701.437486000,E,1,13,0.68,85.886,M,37.565,M,85.5,*61
[2021-02-22 15:17:23.197] $GNGGA,061722.60,3713.896912000,N,13701.437486000,E,1,13,0.68,85.890,M,37.565,M,85.6,*66
[2021-02-22 15:17:23.306] $GNGGA,061722.70,3713.896912000,N,13701.437486000,E,1,13,0.68,85.893,M,37.565,M,85.7,*65
[2021-02-22 15:17:23.385] $GNGGA,061722.80,3713.896912000,N,13701.437486000,E,1,13,0.68,85.895,M,37.565,M,85.8,*63
[2021-02-22 15:17:23.494] $GNGGA,061722.90,3713.896912000,N,13701.437486000,E,1,13,0.65,85.901,M,37.565,M,85.9,*62
[2021-02-22 15:17:23.588] $GNGGA,061723.00,3713.896912000,N,13701.437492000,E,1,13,0.65,85.905,M,37.565,M,86.0,*61
[2021-02-22 15:17:23.713] $GNGGA,061723.10,3713.896912000,N,13701.437492000,E,1,13,0.65,85.909,M,37.565,M,86.1,*6D
[2021-02-22 15:17:23.791] $GNGGA,061723.20,3713.896912000,N,13701.437492000,E,1,13,0.65,85.909,M,37.565,M,86.2,*6D
[2021-02-22 15:17:23.885] $GNGGA,061723.30,3713.896912000,N,13701.437492000,E,1,13,0.65,85.913,M,37.565,M,86.3,*66
[2021-02-22 15:17:23.994] $GNGGA,061723.40,3713.896918000,N,13701.437492000,E,1,13,0.65,85.916,M,37.565,M,86.4,*69
[2021-02-22 15:17:24.088] $GNGGA,061723.50,3713.896918000,N,13701.437498000,E,1,13,0.68,85.918,M,37.565,M,86.5,*60
[2021-02-22 15:17:24.213] $GNGGA,061723.60,3713.896918000,N,13701.437498000,E,1,13,0.68,85.924,M,37.565,M,86.6,*6F
[2021-02-22 15:17:24.291] $GNGGA,061723.70,3713.896918000,N,13701.437498000,E,1,13,0.68,85.926,M,37.565,M,86.7,*6D
[2021-02-22 15:17:24.385] $GNGGA,061723.80,3713.896912000,N,13701.437492000,E,1,13,0.68,85.929,M,37.565,M,86.8,*62
[2021-02-22 15:17:24.494] $GNGGA,061723.90,3713.896912000,N,13701.437492000,E,1,13,0.68,85.935,M,37.565,M,86.9,*6F
[2021-02-22 15:17:24.588] $GNGGA,061724.00,3713.896912000,N,13701.437492000,E,1,13,0.68,85.938,M,37.565,M,87.0,*64
[2021-02-22 15:17:24.713] $GNGGA,061724.10,3713.896906000,N,13701.437486000,E,1,13,0.68,85.937,M,37.565,M,87.1,*6B
[2021-02-22 15:17:24.791] $GNGGA,061724.20,3713.896894000,N,13701.437480000,E,1,13,0.68,85.946,M,37.565,M,87.2,*61
[2021-02-22 15:17:24.885] $GNGGA,061724.30,3713.896894000,N,13701.437474000,E,1,13,0.64,85.950,M,37.565,M,87.3,*61
[2021-02-22 15:17:24.994] $GNGGA,061724.40,3713.896894000,N,13701.437474000,E,1,13,0.64,85.954,M,37.565,M,87.4,*65
[2021-02-22 15:17:25.119] $GNGGA,061724.50,3713.896894000,N,13701.437468000,E,1,13,0.64,85.954,M,37.565,M,87.5,*68
[2021-02-22 15:17:25.181] $GNGGA,061724.60,3713.896888000,N,13701.437468000,E,1,13,0.64,85.951,M,37.565,M,87.6,*60
[2021-02-22 15:17:25.291] $GNGGA,061724.70,3713.896894000,N,13701.437468000,E,1,13,0.62,85.960,M,37.565,M,87.7,*69
[2021-02-22 15:17:25.385] $GNGGA,061724.80,3713.896894000,N,13701.437468000,E,1,13,0.62,85.962,M,37.565,M,87.8,*6B
[2021-02-22 15:17:25.509] $GNGGA,061724.90,3713.896900000,N,13701.437468000,E,1,13,0.62,85.963,M,37.565,M,87.9,*66
[2021-02-22 15:17:25.588] $GNGGA,061725.00,3713.896906000,N,13701.437468000,E,1,13,0.62,85.969,M,37.565,M,88.0,*64
[2021-02-22 15:17:25.697] $GNGGA,061725.10,3713.896912000,N,13701.437474000,E,1,13,0.64,85.969,M,37.565,M,88.1,*6A
[2021-02-22 15:17:25.791] $GNGGA,061725.20,3713.896906000,N,13701.437480000,E,1,13,0.62,85.974,M,37.565,M,88.2,*6E
[2021-02-22 15:17:25.916] $GNGGA,061725.30,3713.896900000,N,13701.437486000,E,1,13,0.62,85.970,M,37.565,M,88.3,*6A
[2021-02-22 15:17:25.994] $GNGGA,061725.40,3713.896900000,N,13701.437486000,E,1,13,0.62,85.972,M,37.565,M,88.4,*68
[2021-02-22 15:17:26.088] $GNGGA,061725.50,3713.896900000,N,13701.437492000,E,1,13,0.65,85.978,M,37.565,M,88.5,*60
[2021-02-22 15:17:26.197] $GNGGA,061725.60,3713.896900000,N,13701.437492000,E,1,13,0.65,85.980,M,37.565,M,88.6,*67
[2021-02-22 15:17:26.306] $GNGGA,061725.70,3713.896906000,N,13701.437492000,E,1,13,0.65,85.983,M,37.565,M,88.7,*62
[2021-02-22 15:17:26.384] $GNGGA,061725.80,3713.896900000,N,13701.437492000,E,1,13,0.65,85.986,M,37.565,M,88.8,*61
[2021-02-22 15:17:26.494] $GNGGA,061725.90,3713.896906000,N,13701.437492000,E,1,13,0.65,85.991,M,37.565,M,88.9,*61
[2021-02-22 15:17:26.588] $GNGGA,061726.00,3713.896906000,N,13701.437486000,E,1,12,0.65,85.990,M,37.565,M,89.0,*66
[2021-02-22 15:17:26.712] $GNGGA,061726.10,3713.896906000,N,13701.437486000,E,1,13,0.65,85.997,M,37.565,M,89.1,*60
[2021-02-22 15:17:26.791] $GNGGA,061726.20,3713.896906000,N,13701.437492000,E,1,13,0.65,85.999,M,37.565,M,89.2,*6B
[2021-02-22 15:17:26.900] $GNGGA,061726.30,3713.896906000,N,13701.437492000,E,1,14,0.65,85.996,M,37.565,M,89.3,*63
[2021-02-22 15:17:26.994] $GNGGA,061726.40,3713.896906000,N,13701.437492000,E,1,14,0.65,85.997,M,37.565,M,89.4,*62
[2021-02-22 15:17:27.119] $GNGGA,061726.50,3713.896900000,N,13701.437486000,E,1,13,0.65,85.996,M,37.565,M,89.5,*67
[2021-02-22 15:17:27.197] $GNGGA,061726.60,3713.896894000,N,13701.437486000,E,1,13,0.65,85.992,M,37.565,M,89.6,*6F
[2021-02-22 15:17:27.291] $GNGGA,061726.70,3713.896894000,N,13701.437480000,E,1,13,0.65,85.993,M,37.565,M,89.7,*68
[2021-02-22 15:17:27.384] $GNGGA,061726.80,3713.896894000,N,13701.437480000,E,1,13,0.65,85.993,M,37.565,M,89.8,*68
[2021-02-22 15:17:27.509] $GNGGA,061726.90,3713.896888000,N,13701.437480000,E,1,13,0.65,85.989,M,37.565,M,89.9,*6E
[2021-02-22 15:17:27.587] $GNGGA,061727.00,3713.896888000,N,13701.437486000,E,1,13,0.65,85.990,M,37.565,M,90.0,*69
[2021-02-22 15:17:27.697] $GNGGA,061727.10,3713.896894000,N,13701.437486000,E,1,13,0.65,85.992,M,37.565,M,90.1,*66
[2021-02-22 15:17:27.791] $GNGGA,061727.20,3713.896888000,N,13701.437486000,E,1,13,0.65,85.988,M,37.565,M,90.2,*60
[2021-02-22 15:17:27.916] $GNGGA,061727.30,3713.896888000,N,13701.437486000,E,1,13,0.68,85.988,M,37.565,M,90.3,*6D
[2021-02-22 15:17:27.994] $GNGGA,061727.40,3713.896888000,N,13701.437486000,E,1,13,0.68,85.991,M,37.565,M,90.4,*65
[2021-02-22 15:17:28.087] $GNGGA,061727.50,3713.896888000,N,13701.437486000,E,1,12,0.68,85.993,M,37.565,M,90.5,*66
[2021-02-22 15:17:28.197] $GNGGA,061727.60,3713.896888000,N,13701.437492000,E,1,12,0.68,85.995,M,37.565,M,90.6,*65
[2021-02-22 15:17:28.306] $GNGGA,061727.70,3713.896888000,N,13701.437492000,E,1,12,0.68,85.997,M,37.565,M,90.7,*67
[2021-02-22 15:17:28.384] $GNGGA,061727.80,3713.896888000,N,13701.437492000,E,1,12,0.68,85.996,M,37.565,M,90.8,*66
[2021-02-22 15:17:28.494] $GNGGA,061727.90,3713.896882000,N,13701.437486000,E,1,12,0.68,86.000,M,37.565,M,90.9,*6C
[2021-02-22 15:17:28.587] $GNGGA,061728.00,3713.896882000,N,13701.437486000,E,1,12,0.68,86.001,M,37.565,M,91.0,*63
[2021-02-22 15:17:28.697] $GNGGA,061728.10,3713.896882000,N,13701.437486000,E,1,12,0.68,86.007,M,37.565,M,91.1,*65
[2021-02-22 15:17:28.806] $GNGGA,061728.20,3713.896882000,N,13701.437492000,E,1,12,0.68,86.011,M,37.565,M,91.2,*67
[2021-02-22 15:17:28.884] $GNGGA,061728.30,3713.896882000,N,13701.437492000,E,1,12,0.68,86.011,M,37.565,M,91.3,*67
[2021-02-22 15:17:28.994] $GNGGA,061728.40,3713.896882000,N,13701.437492000,E,1,12,0.65,86.015,M,37.565,M,91.4,*6E
[2021-02-22 15:17:29.087] $GNGGA,061728.50,3713.896876000,N,13701.437492000,E,1,12,0.65,86.018,M,37.565,M,91.5,*68
[2021-02-22 15:17:29.212] $GNGGA,061728.60,3713.896876000,N,13701.437492000,E,1,12,0.65,86.019,M,37.565,M,91.6,*69
[2021-02-22 15:17:29.291] $GNGGA,061728.70,3713.896876000,N,13701.437492000,E,1,12,0.65,86.021,M,37.565,M,91.7,*62
