
[2021-02-22 15:10:46.567] $GNGGA,061034.10,,,,,0,00,99.99,,,,,27.1,*63
[2021-02-22 15:10:46.583] $GNGGA,061034.20,,,,,0,00,99.99,,,,,27.2,*63
[2021-02-22 15:10:46.583] $GNGGA,061034.30,,,,,0,00,99.99,,,,,27.3,*63
[2021-02-22 15:10:46.583] $GNGGA,061034.40,,,,,0,00,99.99,,,,,27.4,*63
[2021-02-22 15:10:46.583] $GNGGA,061034.50,,,,,0,00,99.99,,,,,27.5,*63
[2021-02-22 15:10:46.583] $GNGGA,061034.60,,,,,0,00,99.99,,,,,27.6,*63
[2021-02-22 15:10:46.583] $GNGGA,061034.70,,,,,0,00,99.99,,,,,27.7,*63
[2021-02-22 15:10:46.583] $GNGGA,061034.80,,,,,0,00,99.99,,,,,27.8,*63
[2021-02-22 15:10:46.583] $GNGGA,061034.90,,,,,0,00,99.99,,,,,27.9,*63
[2021-02-22 15:10:46.583] $GNGGA,061035.00,,,,,0,00,99.99,,,,,28.0,*6D
[2021-02-22 15:10:46.583] $GNGGA,061035.10,,,,,0,00,99.99,,,,,28.1,*6D
[2021-02-22 15:10:46.583] $GNGGA,061035.20,,,,,0,00,99.99,,,,,28.2,*6D
[2021-02-22 15:10:46.583] $GNGGA,061035.30,,,,,0,00,99.99,,,,,28.3,*6D
[2021-02-22 15:10:46.583] $GNGGA,061035.40,,,,,0,00,99.99,,,,,28.4,*6D
[2021-02-22 15:10:46.583] $GNGGA,061035.50,,,,,0,00,99.99,,,,,28.5,*6D
[2021-02-22 15:10:46.583] $GNGGA,061035.60,,,,,0,00,99.99,,,,,28.6,*6D
[2021-02-22 15:10:46.583] $GNGGA,061035.70,,,,,0,00,99.99,,,,,28.7,*6D
[2021-02-22 15:10:46.583] $GNGGA,061035.80,,,,,0,00,99.99,,,,,28.8,*6D
[2021-02-22 15:10:46.583] $GNGGA,061035.90,,,,,0,00,99.99,,,,,28.9,*6D
[2021-02-22 15:10:46.583] $GNGGA,061036.00,,,,,0,00,99.99,,,,,29.0,*6F
[2021-02-22 15:10:46.583] $GNGGA,061036.10,,,,,0,00,99.99,,,,,29.1,*6F
[2021-02-22 15:10:46.583] $GNGGA,061036.20,,,,,0,00,99.99,,,,,29.2,*6F
[2021-02-22 15:10:46.583] $GNGGA,061036.30,,,,,0,00,99.99,,,,,29.3,*6F
[2021-02-22 15:10:46.598] $GNGGA,061036.40,,,,,0,00,99.99,,,,,29.4,*6F
[2021-02-22 15:10:46.598] $GNGGA,061036.50,,,,,0,00,99.99,,,,,29.5,*6F
[2021-02-22 15:10:46.598] $GNGGA,061036.60,,,,,0,00,99.99,,,,,29.6,*6F
[2021-02-22 15:10:46.598] $GNGGA,061036.70,,,,,0,00,99.99,,,,,29.7,*6F
[2021-02-22 15:10:46.598] $GNGGA,061036.80,,,,,0,00,99.99,,,,,29.8,*6F
[2021-02-22 15:10:46.598] $GNGGA,061036.90,,,,,0,00,99.99,,,,,29.9,*6F
[2021-02-22 15:10:46.598] $GNGGA,061037.00,,,,,0,00,99.99,,,,,30.0,*66
[2021-02-22 15:10:46.598] $GNGGA,061037.10,,,,,0,00,99.99,,,,,30.1,*66
[2021-02-22 15:10:46.598] $GNGGA,061037.20,,,,,0,00,99.99,,,,,30.2,*66
[2021-02-22 15:10:46.598] $GNGGA,061037.30,,,,,0,00,99.99,,,,,30.3,*66
[2021-02-22 15:10:46.598] $GNGGA,061037.40,,,,,0,00,99.99,,,,,30.4,*66
[2021-02-22 15:10:46.598] $GNGGA,061037.50,,,,,0,00,99.99,,,,,30.5,*66
[2021-02-22 15:10:46.598] $GNGGA,061037.60,,,,,0,00,99.99,,,,,30.6,*66
[2021-02-22 15:10:46.598] $GNGGA,061037.70,,,,,0,00,99.99,,,,,30.7,*66
[2021-02-22 15:10:46.598] $GNGGA,061037.80,,,,,0,00,99.99,,,,,30.8,*66
[2021-02-22 15:10:46.598] $GNGGA,061037.90,,,,,0,00,99.99,,,,,30.9,*66
[2021-02-22 15:10:46.598] $GNGGA,061038.00,,,,,0,00,99.99,,,,,31.0,*68
[2021-02-22 15:10:46.598] $GNGGA,061038.10,,,,,0,00,99.99,,,,,31.1,*68
[2021-02-22 15:10:46.598] $GNGGA,061038.20,,,,,0,00,99.99,,,,,31.2,*68
[2021-02-22 15:10:46.598] $GNGGA,061038.30,,,,,0,00,99.99,,,,,31.3,*68
[2021-02-22 15:10:46.598] $GNGGA,061038.40,,,,,0,00,99.99,,,,,31.4,*68
[2021-02-22 15:10:46.598] $GNGGA,061038.50,,,,,0,00,99.99,,,,,31.5,*68
[2021-02-22 15:10:46.614] $GNGGA,061038.60,,,,,0,00,99.99,,,,,31.6,*68
[2021-02-22 15:10:46.614] $GNGGA,061038.70,,,,,0,00,99.99,,,,,31.7,*68
[2021-02-22 15:10:46.614] $GNGGA,061038.80,,,,,0,00,99.99,,,,,31.8,*68
[2021-02-22 15:10:46.614] $GNGGA,061038.90,,,,,0,00,99.99,,,,,31.9,*68
[2021-02-22 15:10:46.614] $GNGGA,061039.00,,,,,0,00,99.99,,,,,32.0,*6A
[2021-02-22 15:10:46.614] $GNGGA,061039.10,,,,,0,00,99.99,,,,,32.1,*6A
[2021-02-22 15:10:46.614] $GNGGA,061039.20,,,,,0,00,99.99,,,,,32.2,*6A
[2021-02-22 15:10:46.614] $GNGGA,061039.30,,,,,0,00,99.99,,,,,32.3,*6A
[2021-02-22 15:10:46.614] $GNGGA,061039.40,,,,,0,00,99.99,,,,,32.4,*6A
[2021-02-22 15:10:46.614] $GNGGA,061039.50,,,,,0,00,99.99,,,,,32.5,*6A
[2021-02-22 15:10:46.614] $GNGGA,061039.60,,,,,0,00,99.99,,,,,32.6,*6A
[2021-02-22 15:10:46.614] $GNGGA,061039.70,,,,,0,00,99.99,,,,,32.7,*6A
[2021-02-22 15:10:46.614] $GNGGA,061039.80,,,,,0,00,99.99,,,,,32.8,*6A
[2021-02-22 15:10:46.614] $GNGGA,061039.90,,,,,0,00,99.99,,,,,32.9,*6A
[2021-02-22 15:10:46.614] $GNGGA,061040.00,,,,,0,00,99.99,,,,,33.0,*65
[2021-02-22 15:10:46.614] $GNGGA,061040.10,,,,,0,00,99.99,,,,,33.1,*65
[2021-02-22 15:10:46.614] $GNGGA,061040.20,,,,,0,00,99.99,,,,,33.2,*65
[2021-02-22 15:10:46.614] $GNGGA,061040.30,,,,,0,00,99.99,,,,,33.3,*65
[2021-02-22 15:10:46.614] $GNGGA,061040.40,,,,,0,00,99.99,,,,,33.4,*65
[2021-02-22 15:10:46.614] $GNGGA,061040.50,,,,,0,00,99.99,,,,,33.5,*65
[2021-02-22 15:10:46.614] $GNGGA,061040.60,,,,,0,00,99.99,,,,,33.6,*65
[2021-02-22 15:10:46.614] $GNGGA,061040.70,,,,,0,00,99.99,,,,,33.7,*65
[2021-02-22 15:10:46.630] $GNGGA,061040.80,,,,,0,00,99.99,,,,,33.8,*65
[2021-02-22 15:10:46.630] $GNGGA,061040.90,,,,,0,00,99.99,,,,,33.9,*65
[2021-02-22 15:10:46.630] $GNGGA,061041.00,,,,,0,00,99.99,,,,,34.0,*63
[2021-02-22 15:10:46.630] $GNGGA,061041.10,,,,,0,00,99.99,,,,,34.1,*63
[2021-02-22 15:10:46.630] $GNGGA,061041.20,,,,,0,00,99.99,,,,,34.2,*63
[2021-02-22 15:10:46.630] $GNGGA,061041.30,,,,,0,00,99.99,,,,,34.3,*63
[2021-02-22 15:10:46.630] $GNGGA,061041.40,,,,,0,00,99.99,,,,,34.4,*63
[2021-02-22 15:10:46.630] $GNGGA,061041.50,,,,,0,00,99.99,,,,,34.5,*63
[2021-02-22 15:10:46.630] $GNGGA,061041.60,,,,,0,00,99.99,,,,,34.6,*63
[2021-02-22 15:10:46.630] $GNGGA,061041.70,,,,,0,00,99.99,,,,,34.7,*63
[2021-02-22 15:10:46.630] $GNGGA,061041.80,,,,,0,00,99.99,,,,,34.8,*63
[2021-02-22 15:10:46.630] $GNGGA,061041.90,,,,,0,00,99.99,,,,,34.9,*63
[2021-02-22 15:10:46.630] $GNGGA,061042.00,,,,,0,00,99.99,,,,,35.0,*61
[2021-02-22 15:10:46.630] $GNGGA,061042.10,,,,,0,00,99.99,,,,,35.1,*61
[2021-02-22 15:10:46.630] $GNGGA,061042.20,,,,,0,00,99.99,,,,,35.2,*61
[2021-02-22 15:10:46.630] $GNGGA,061042.30,,,,,0,00,99.99,,,,,35.3,*61
[2021-02-22 15:10:46.630] $GNGGA,061042.40,,,,,0,00,99.99,,,,,35.4,*61
[2021-02-22 15:10:46.630] $GNGGA,061042.50,,,,,0,00,99.99,,,,,35.5,*61
[2021-02-22 15:10:46.630] $GNGGA,061042.60,,,,,0,00,99.99,,,,,35.6,*61
[2021-02-22 15:10:46.630] $GNGGA,061042.70,,,,,0,00,99.99,,,,,35.7,*61
[2021-02-22 15:10:46.630] $GNGGA,061042.80,,,,,0,00,99.99,,,,,35.8,*61
[2021-02-22 15:10:46.630] $GNGGA,061042.90,,,,,0,00,99.99,,,,,35.9,*61
[2021-02-22 15:10:46.645] $GNGGA,061043.00,,,,,0,00,99.99,,,,,36.0,*63
[2021-02-22 15:10:46.645] $GNGGA,061043.10,,,,,0,00,99.99,,,,,36.1,*63
[2021-02-22 15:10:46.645] $GNGGA,061043.20,,,,,0,00,99.99,,,,,36.2,*63
[2021-02-22 15:10:46.645] $GNGGA,061043.30,,,,,0,00,99.99,,,,,36.3,*63
[2021-02-22 15:10:46.645] $GNGGA,061043.40,,,,,0,00,99.99,,,,,36.4,*63
[2021-02-22 15:10:46.645] $GNGGA,061043.50,,,,,0,00,99.99,,,,,36.5,*63
[2021-02-22 15:10:46.645] $GNGGA,061043.60,,,,,0,00,99.99,,,,,36.6,*63
[2021-02-22 15:10:46.645] $GNGGA,061043.70,,,,,0,00,99.99,,,,,36.7,*63
[2021-02-22 15:10:46.645] $GNGGA,061043.80,,,,,0,00,99.99,,,,,36.8,*63
[2021-02-22 15:10:46.645] $GNGGA,061043.90,,,,,0,00,99.99,,,,,36.9,*63
[2021-02-22 15:10:46.645] $GNGGA,061044.00,,,,,0,00,99.99,,,,,37.0,*65
[2021-02-22 15:10:46.645] $GNGGA,061044.10,,,,,0,00,99.99,,,,,37.1,*65
[2021-02-22 15:10:46.645] $GNGGA,061044.20,,,,,0,00,99.99,,,,,37.2,*65
[2021-02-22 15:10:46.645] $GNGGA,061044.30,,,,,0,00,99.99,,,,,37.3,*65
[2021-02-22 15:10:46.645] $GNGGA,061044.40,,,,,0,00,99.99,,,,,37.4,*65
[2021-02-22 15:10:46.645] $GNGGA,061044.50,,,,,0,00,99.99,,,,,37.5,*65
[2021-02-22 15:10:46.645] $GNGGA,061044.60,,,,,0,00,99.99,,,,,37.6,*65
[2021-02-22 15:10:46.645] $GNGGA,061044.70,,,,,0,00,99.99,,,,,37.7,*65
[2021-02-22 15:10:46.645] $GNGGA,061044.80,,,,,0,00,99.99,,,,,37.8,*65
[2021-02-22 15:10:46.645] $GNGGA,061044.90,,,,,0,00,99.99,,,,,37.9,*65
[2021-02-22 15:10:46.645] $GNGGA,061045.00,,,,,0,00,99.99,,,,,38.0,*6B
[2021-02-22 15:10:46.645] $GNGGA,061045.10,,,,,0,00,99.99,,,,,38.1,*6B
[2021-02-22 15:10:46.645] $GNGGA,061045.20,,,,,0,00,99.99,,,,,38.2,*6B
[2021-02-22 15:10:46.645] $GNGGA,061045.30,,,,,0,00,99.99,,,,,38.3,*6B
[2021-02-22 15:10:46.645] $GNGGA,061045.40,,,,,0,00,99.99,,,,,38.4,*6B
[2021-02-22 15:10:46.645] $GNGGA,061045.50,,,,,0,00,99.99,,,,,38.5,*6B
[2021-02-22 15:10:46.645] $GNGGA,061045.60,,,,,0,00,99.99,,,,,38.6,*6B
[2021-02-22 15:10:46.645] $GNGGA,061045.70,,,,,0,00,99.99,,,,,38.7,*6B
[2021-02-22 15:10:46.645] $GNGGA,061045.80,,,,,0,00,99.99,,,,,38.8,*6B
[2021-02-22 15:10:46.645] $GNGGA,061045.90,,,,,0,00,99.99,,,,,38.9,*6B
[2021-02-22 15:10:46.645] $GNGGA,061046.00,,,,,0,00,99.99,,,,,39.0,*69
[2021-02-22 15:10:46.708] $GNGGA,061046.10,,,,,0,00,99.99,,,,,39.1,*69
[2021-02-22 15:10:46.802] $GNGGA,061046.20,,,,,0,00,99.99,,,,,39.2,*69
[2021-02-22 15:10:46.895] $GNGGA,061046.30,,,,,0,00,99.99,,,,,39.3,*69
[2021-02-22 15:10:46.989] $GNGGA,061046.40,,,,,0,00,99.99,,,,,39.4,*69
[2021-02-22 15:10:47.098] $GNGGA,061046.50,,,,,0,00,99.99,,,,,39.5,*69
[2021-02-22 15:10:47.192] $GNGGA,061046.60,,,,,0,00,99.99,,,,,39.6,*69
[2021-02-22 15:10:47.301] $GNGGA,061046.70,,,,,0,00,99.99,,,,,39.7,*69
[2021-02-22 15:10:47.395] $GNGGA,061046.80,,,,,0,00,99.99,,,,,39.8,*69
[2021-02-22 15:10:47.505] $GNGGA,061046.90,,,,,0,00,99.99,,,,,39.9,*69
[2021-02-22 15:10:47.598] $GNGGA,061047.00,,,,,0,00,99.99,,,,,40.0,*66
[2021-02-22 15:10:47.692] $GNGGA,061047.10,,,,,0,00,99.99,,,,,40.1,*66
[2021-02-22 15:10:47.786] $GNGGA,061047.20,,,,,0,00,99.99,,,,,40.2,*66
[2021-02-22 15:10:47.911] $GNGGA,061047.30,,,,,0,00,99.99,,,,,40.3,*66
[2021-02-22 15:10:48.005] $GNGGA,061047.40,,,,,0,00,99.99,,,,,40.4,*66
[2021-02-22 15:10:48.098] $GNGGA,061047.50,,,,,0,00,99.99,,,,,40.5,*66
[2021-02-22 15:10:48.192] $GNGGA,061047.60,,,,,0,00,99.99,,,,,40.6,*66
[2021-02-22 15:10:48.301] $GNGGA,061047.70,,,,,0,00,99.99,,,,,40.7,*66
[2021-02-22 15:10:48.395] $GNGGA,061047.80,,,,,0,00,99.99,,,,,40.8,*66
[2021-02-22 15:10:48.489] $GNGGA,061047.90,,,,,0,00,99.99,,,,,40.9,*66
[2021-02-22 15:10:48.583] $GNGGA,061048.00,,,,,0,00,99.99,,,,,41.0,*68
[2021-02-22 15:10:48.708] $GNGGA,061048.10,,,,,0,00,99.99,,,,,41.1,*68
[2021-02-22 15:10:48.801] $GNGGA,061048.20,,,,,0,00,99.99,,,,,41.2,*68
[2021-02-22 15:10:48.895] $GNGGA,061048.30,,,,,0,00,99.99,,,,,41.3,*68
[2021-02-22 15:10:48.989] $GNGGA,061048.40,,,,,0,00,99.99,,,,,41.4,*68
[2021-02-22 15:10:49.098] $GNGGA,061048.50,,,,,0,00,99.99,,,,,41.5,*68
[2021-02-22 15:10:49.208] $GNGGA,061048.60,,,,,0,00,99.99,,,,,41.6,*68
[2021-02-22 15:10:49.301] $GNGGA,061048.70,,,,,0,00,99.99,,,,,41.7,*68
[2021-02-22 15:10:49.395] $GNGGA,061048.80,,,,,0,00,99.99,,,,,41.8,*68
[2021-02-22 15:10:49.504] $GNGGA,061048.90,,,,,0,00,99.99,,,,,41.9,*68
[2021-02-22 15:10:49.598] $GNGGA,061049.00,,,,,0,00,99.99,,,,,42.0,*6A
[2021-02-22 15:10:49.692] $GNGGA,061049.10,,,,,0,00,99.99,,,,,42.1,*6A
[2021-02-22 15:10:49.786] $GNGGA,061049.20,,,,,0,00,99.99,,,,,42.2,*6A
[2021-02-22 15:10:49.895] $GNGGA,061049.30,,,,,0,00,99.99,,,,,42.3,*6A
[2021-02-22 15:10:50.004] $GNGGA,061049.40,,,,,0,00,99.99,,,,,42.4,*6A
[2021-02-22 15:10:50.098] $GNGGA,061049.50,,,,,0,00,99.99,,,,,42.5,*6A
[2021-02-22 15:10:50.192] $GNGGA,061049.60,,,,,0,00,99.99,,,,,42.6,*6A
[2021-02-22 15:10:50.301] $GNGGA,061049.70,,,,,0,00,99.99,,,,,42.7,*6A
[2021-02-22 15:10:50.395] $GNGGA,061049.80,,,,,0,00,99.99,,,,,42.8,*6A
[2021-02-22 15:10:50.489] $GNGGA,061049.90,,,,,0,00,99.99,,,,,42.9,*6A
[2021-02-22 15:10:50.583] $GNGGA,061050.00,,,,,0,00,99.99,,,,,43.0,*63
[2021-02-22 15:10:50.707] $GNGGA,061050.10,,,,,0,00,99.99,,,,,43.1,*63
[2021-02-22 15:10:50.801] $GNGGA,061050.20,,,,,0,00,99.99,,,,,43.2,*63
[2021-02-22 15:10:50.895] $GNGGA,061050.30,,,,,0,00,99.99,,,,,43.3,*63
[2021-02-22 15:10:50.989] $GNGGA,061050.40,,,,,0,00,99.99,,,,,43.4,*63
[2021-02-22 15:10:51.098] $GNGGA,061050.50,,,,,0,00,99.99,,,,,43.5,*63
[2021-02-22 15:10:51.192] $GNGGA,061050.60,,,,,0,00,99.99,,,,,43.6,*63
[2021-02-22 15:10:51.301] $GNGGA,061050.70,,,,,0,00,99.99,,,,,43.7,*63
[2021-02-22 15:10:51.395] $GNGGA,061050.80,,,,,0,00,99.99,,,,,43.8,*63
[2021-02-22 15:10:51.504] $GNGGA,061050.90,,,,,0,00,99.99,,,,,43.9,*63
[2021-02-22 15:10:51.598] $GNGGA,061051.00,,,,,0,00,99.99,,,,,44.0,*65
[2021-02-22 15:10:51.692] $GNGGA,061051.10,,,,,0,00,99.99,,,,,44.1,*65
[2021-02-22 15:10:51.786] $GNGGA,061051.20,,,,,0,00,99.99,,,,,44.2,*65
[2021-02-22 15:10:51.895] $GNGGA,061051.30,,,,,0,00,99.99,,,,,44.3,*65
[2021-02-22 15:10:52.004] $GNGGA,061051.40,,,,,0,00,99.99,,,,,44.4,*65
[2021-02-22 15:10:52.098] $GNGGA,061051.50,,,,,0,00,99.99,,,,,44.5,*65
[2021-02-22 15:10:52.192] $GNGGA,061051.60,,,,,0,00,99.99,,,,,44.6,*65
[2021-02-22 15:10:52.301] $GNGGA,061051.70,,,,,0,00,99.99,,,,,44.7,*65
[2021-02-22 15:10:52.395] $GNGGA,061051.80,,,,,0,00,99.99,,,,,44.8,*65
[2021-02-22 15:10:52.489] $GNGGA,061051.90,,,,,0,00,99.99,,,,,44.9,*65
[2021-02-22 15:10:52.582] $GNGGA,061052.00,,,,,0,00,99.99,,,,,45.0,*67
[2021-02-22 15:10:52.707] $GNGGA,061052.10,,,,,0,00,99.99,,,,,45.1,*67
[2021-02-22 15:10:52.801] $GNGGA,061052.20,,,,,0,00,99.99,,,,,45.2,*67
[2021-02-22 15:10:52.895] $GNGGA,061052.30,,,,,0,00,99.99,,,,,45.3,*67
[2021-02-22 15:10:52.989] $GNGGA,061052.40,,,,,0,00,99.99,,,,,45.4,*67
[2021-02-22 15:10:53.098] $GNGGA,061052.50,,,,,0,00,99.99,,,,,45.5,*67
[2021-02-22 15:10:53.192] $GNGGA,061052.60,,,,,0,00,99.99,,,,,45.6,*67
[2021-02-22 15:10:53.301] $GNGGA,061052.70,,,,,0,00,99.99,,,,,45.7,*67
[2021-02-22 15:10:53.395] $GNGGA,061052.80,,,,,0,00,99.99,,,,,45.8,*67
[2021-02-22 15:10:53.504] $GNGGA,061052.90,,,,,0,00,99.99,,,,,45.9,*67
[2021-02-22 15:10:53.598] $GNGGA,061053.00,,,,,0,00,99.99,,,,,46.0,*65
[2021-02-22 15:10:53.692] $GNGGA,061053.10,,,,,0,00,99.99,,,,,46.1,*65
[2021-02-22 15:10:53.785] $GNGGA,061053.20,,,,,0,00,99.99,,,,,46.2,*65
[2021-02-22 15:10:53.895] $GNGGA,061053.30,,,,,0,00,99.99,,,,,46.3,*65
[2021-02-22 15:10:54.004] $GNGGA,061053.40,,,,,0,00,99.99,,,,,46.4,*65
[2021-02-22 15:10:54.098] $GNGGA,061053.50,,,,,0,00,99.99,,,,,46.5,*65
[2021-02-22 15:10:54.192] $GNGGA,061053.60,,,,,0,00,99.99,,,,,46.6,*65
[2021-02-22 15:10:54.301] $GNGGA,061053.70,,,,,0,00,99.99,,,,,46.7,*65
[2021-02-22 15:10:54.395] $GNGGA,061053.80,,,,,0,00,99.99,,,,,46.8,*65
[2021-02-22 15:10:54.488] $GNGGA,061053.90,,,,,0,00,99.99,,,,,46.9,*65
[2021-02-22 15:10:54.582] $GNGGA,061054.00,,,,,0,00,99.99,,,,,47.0,*63
[2021-02-22 15:10:54.707] $GNGGA,061054.10,,,,,0,00,99.99,,,,,47.1,*63
[2021-02-22 15:10:54.801] $GNGGA,061054.20,,,,,0,00,99.99,,,,,47.2,*63
[2021-02-22 15:10:54.895] $GNGGA,061054.30,,,,,0,00,99.99,,,,,47.3,*63
[2021-02-22 15:10:55.004] $GNGGA,061054.40,,,,,0,00,99.99,,,,,47.4,*63
[2021-02-22 15:10:55.098] $GNGGA,061054.50,,,,,0,00,99.99,,,,,47.5,*63
[2021-02-22 15:10:55.192] $GNGGA,061054.60,,,,,0,00,99.99,,,,,47.6,*63
[2021-02-22 15:10:55.285] $GNGGA,061054.70,,,,,0,00,99.99,,,,,47.7,*63
[2021-02-22 15:10:55.410] $GNGGA,061054.80,,,,,0,00,99.99,,,,,47.8,*63
[2021-02-22 15:10:55.504] $GNGGA,061054.90,,,,,0,00,99.99,,,,,47.9,*63
[2021-02-22 15:10:55.598] $GNGGA,061055.00,,,,,0,00,99.99,,,,,48.0,*6D
[2021-02-22 15:10:55.691] $GNGGA,061055.10,,,,,0,00,99.99,,,,,48.1,*6D
[2021-02-22 15:10:55.801] $GNGGA,061055.20,,,,,0,00,99.99,,,,,48.2,*6D
[2021-02-22 15:10:55.895] $GNGGA,061055.30,,,,,0,00,99.99,,,,,48.3,*6D
[2021-02-22 15:10:56.004] $GNGGA,061055.40,,,,,0,00,99.99,,,,,48.4,*6D
[2021-02-22 15:10:56.098] $GNGGA,061055.50,,,,,0,00,99.99,,,,,48.5,*6D
[2021-02-22 15:10:56.207] $GNGGA,061055.60,,,,,0,00,99.99,,,,,48.6,*6D
[2021-02-22 15:10:56.301] $GNGGA,061055.70,,,,,0,00,99.99,,,,,48.7,*6D
[2021-02-22 15:10:56.395] $GNGGA,061055.80,,,,,0,00,99.99,,,,,48.8,*6D
[2021-02-22 15:10:56.488] $GNGGA,061055.90,,,,,0,00,99.99,,,,,48.9,*6D
[2021-02-22 15:10:56.598] $GNGGA,061056.00,,,,,0,00,99.99,,,,,49.0,*6F
[2021-02-22 15:10:56.707] $GNGGA,061056.10,,,,,0,00,99.99,,,,,49.1,*6F
[2021-02-22 15:10:56.801] $GNGGA,061056.20,,,,,0,00,99.99,,,,,49.2,*6F
[2021-02-22 15:10:56.895] $GNGGA,061056.30,,,,,0,00,99.99,,,,,49.3,*6F
[2021-02-22 15:10:57.004] $GNGGA,061056.40,,,,,0,00,99.99,,,,,49.4,*6F
[2021-02-22 15:10:57.098] $GNGGA,061056.50,,,,,0,00,99.99,,,,,49.5,*6F
[2021-02-22 15:10:57.191] $GNGGA,061056.60,,,,,0,00,99.99,,,,,49.6,*6F
[2021-02-22 15:10:57.285] $GNGGA,061056.70,,,,,0,00,99.99,,,,,49.7,*6F
[2021-02-22 15:10:57.410] $GNGGA,061056.80,,,,,0,00,99.99,,,,,49.8,*6F
[2021-02-22 15:10:57.504] $GNGGA,061056.90,,,,,0,00,99.99,,,,,49.9,*6F
[2021-02-22 15:10:57.598] $GNGGA,061057.00,,,,,0,00,99.99,,,,,50.0,*66
[2021-02-22 15:10:57.691] $GNGGA,061057.10,,,,,0,00,99.99,,,,,50.1,*66
[2021-02-22 15:10:57.801] $GNGGA,061057.20,,,,,0,00,99.99,,,,,50.2,*66
[2021-02-22 15:10:57.895] $GNGGA,061057.30,,,,,0,00,99.99,,,,,50.3,*66
[2021-02-22 15:10:58.004] $GNGGA,061057.40,,,,,0,00,99.99,,,,,50.4,*66
[2021-02-22 15:10:58.098] $GNGGA,061057.50,,,,,0,00,99.99,,,,,50.5,*66
[2021-02-22 15:10:58.207] $GNGGA,061057.60,,,,,0,00,99.99,,,,,50.6,*66
[2021-02-22 15:10:58.301] $GNGGA,061057.70,,,,,0,00,99.99,,,,,50.7,*66
[2021-02-22 15:10:58.394] $GNGGA,061057.80,,,,,0,00,99.99,,,,,50.8,*66
[2021-02-22 15:10:58.488] $GNGGA,061057.90,,,,,0,00,99.99,,,,,50.9,*66
[2021-02-22 15:10:58.598] $GNGGA,061058.00,,,,,0,00,99.99,,,,,51.0,*68
[2021-02-22 15:10:58.707] $GNGGA,061058.10,,,,,0,00,99.99,,,,,51.1,*68
[2021-02-22 15:10:58.801] $GNGGA,061058.20,,,,,0,00,99.99,,,,,51.2,*68
[2021-02-22 15:10:58.894] $GNGGA,061058.30,,,,,0,00,99.99,,,,,51.3,*68
[2021-02-22 15:10:59.004] $GNGGA,061058.40,,,,,0,00,99.99,,,,,51.4,*68
[2021-02-22 15:10:59.097] $GNGGA,061058.50,,,,,0,00,99.99,,,,,51.5,*68
[2021-02-22 15:10:59.191] $GNGGA,061058.60,,,,,0,00,99.99,,,,,51.6,*68
[2021-02-22 15:10:59.285] $GNGGA,061058.70,,,,,0,00,99.99,,,,,51.7,*68
[2021-02-22 15:10:59.410] $GNGGA,061058.80,,,,,0,00,99.99,,,,,51.8,*68
[2021-02-22 15:10:59.504] $GNGGA,061058.90,,,,,0,00,99.99,,,,,51.9,*68
[2021-02-22 15:10:59.598] $GNGGA,061059.00,,,,,0,00,99.99,,,,,52.0,*6A
[2021-02-22 15:10:59.691] $GNGGA,061059.10,,,,,0,00,99.99,,,,,52.1,*6A
[2021-02-22 15:10:59.801] $GNGGA,061059.20,,,,,0,00,99.99,,,,,52.2,*6A
[2021-02-22 15:10:59.894] $GNGGA,061059.30,,,,,0,00,99.99,,,,,52.3,*6A
[2021-02-22 15:11:00.004] $GNGGA,061059.40,,,,,0,00,99.99,,,,,52.4,*6A
[2021-02-22 15:11:00.097] $GNGGA,061059.50,,,,,0,00,99.99,,,,,52.5,*6A
[2021-02-22 15:11:00.207] $GNGGA,061059.60,,,,,0,00,99.99,,,,,52.6,*6A
[2021-02-22 15:11:00.301] $GNGGA,061059.70,,,,,0,00,99.99,,,,,52.7,*6A
[2021-02-22 15:11:00.394] $GNGGA,061059.80,,,,,0,00,99.99,,,,,52.8,*6A
[2021-02-22 15:11:00.488] $GNGGA,061059.90,,,,,0,00,99.99,,,,,52.9,*6A
[2021-02-22 15:11:00.597] $GNGGA,061100.00,,,,,0,00,99.99,,,,,53.0,*66
[2021-02-22 15:11:00.707] $GNGGA,061100.10,,,,,0,00,99.99,,,,,53.1,*66
[2021-02-22 15:11:00.801] $GNGGA,061100.20,,,,,0,00,99.99,,,,,53.2,*66
[2021-02-22 15:11:00.894] $GNGGA,061100.30,,,,,0,00,99.99,,,,,53.3,*66
[2021-02-22 15:11:01.004] $GNGGA,061100.40,,,,,0,00,99.99,,,,,53.4,*66
[2021-02-22 15:11:01.097] $GNGGA,061100.50,,,,,0,00,99.99,,,,,53.5,*66
[2021-02-22 15:11:01.191] $GNGGA,061100.60,,,,,0,00,99.99,,,,,53.6,*66
[2021-02-22 15:11:01.285] $GNGGA,061100.70,,,,,0,00,99.99,,,,,53.7,*66
[2021-02-22 15:11:01.410] $GNGGA,061100.80,,,,,0,00,99.99,,,,,53.8,*66
[2021-02-22 15:11:01.504] $GNGGA,061100.90,,,,,0,00,99.99,,,,,53.9,*66
[2021-02-22 15:11:01.597] $GNGGA,061101.00,,,,,0,00,99.99,,,,,54.0,*60
[2021-02-22 15:11:01.691] $GNGGA,061101.10,,,,,0,00,99.99,,,,,54.1,*60
[2021-02-22 15:11:01.800] $GNGGA,061101.20,,,,,0,00,99.99,,,,,54.2,*60
[2021-02-22 15:11:01.894] $GNGGA,061101.30,,,,,0,00,99.99,,,,,54.3,*60
[2021-02-22 15:11:01.988] $GNGGA,061101.40,,,,,0,00,99.99,,,,,54.4,*60
[2021-02-22 15:11:02.097] $GNGGA,061101.50,,,,,0,00,99.99,,,,,54.5,*60
[2021-02-22 15:11:02.207] $GNGGA,061101.60,,,,,0,00,99.99,,,,,54.6,*60
[2021-02-22 15:11:02.300] $GNGGA,061101.70,,,,,0,00,99.99,,,,,54.7,*60
[2021-02-22 15:11:02.394] $GNGGA,061101.80,,,,,0,00,99.99,,,,,54.8,*60
[2021-02-22 15:11:02.488] $GNGGA,061101.90,,,,,0,00,99.99,,,,,54.9,*60
[2021-02-22 15:11:02.597] $GNGGA,061102.00,,,,,0,00,99.99,,,,,55.0,*62
[2021-02-22 15:11:02.707] $GNGGA,061102.10,,,,,0,00,99.99,,,,,55.1,*62
[2021-02-22 15:11:02.800] $GNGGA,061102.20,,,,,0,00,99.99,,,,,55.2,*62
[2021-02-22 15:11:02.894] $GNGGA,061102.30,,,,,0,00,99.99,,,,,55.3,*62
[2021-02-22 15:11:03.003] $GNGGA,061102.40,,,,,0,00,99.99,,,,,55.4,*62
[2021-02-22 15:11:03.097] $GNGGA,061102.50,,,,,0,00,99.99,,,,,55.5,*62
[2021-02-22 15:11:03.191] $GNGGA,061102.60,,,,,0,00,99.99,,,,,55.6,*62
[2021-02-22 15:11:03.285] $GNGGA,061102.70,,,,,0,00,99.99,,,,,55.7,*62
[2021-02-22 15:11:03.410] $GNGGA,061102.80,,,,,0,00,99.99,,,,,55.8,*62
[2021-02-22 15:11:03.503] $GNGGA,061102.90,,,,,0,00,99.99,,,,,55.9,*62
[2021-02-22 15:11:03.597] $GNGGA,061103.00,,,,,0,00,99.99,,,,,56.0,*60
[2021-02-22 15:11:03.691] $GNGGA,061103.10,,,,,0,00,99.99,,,,,56.1,*60
[2021-02-22 15:11:03.800] $GNGGA,061103.20,,,,,0,00,99.99,,,,,56.2,*60
[2021-02-22 15:11:03.894] $GNGGA,061103.30,,,,,0,00,99.99,,,,,56.3,*60
[2021-02-22 15:11:03.988] $GNGGA,061103.40,,,,,0,00,99.99,,,,,56.4,*60
[2021-02-22 15:11:04.097] $GNGGA,061103.50,,,,,0,00,99.99,,,,,56.5,*60
[2021-02-22 15:11:04.207] $GNGGA,061103.60,,,,,0,00,99.99,,,,,56.6,*60
[2021-02-22 15:11:04.300] $GNGGA,061103.70,,,,,0,00,99.99,,,,,56.7,*60
[2021-02-22 15:11:04.394] $GNGGA,061103.80,,,,,0,00,99.99,,,,,56.8,*60
[2021-02-22 15:11:04.488] $GNGGA,061103.90,,,,,0,00,99.99,,,,,56.9,*60
[2021-02-22 15:11:04.597] $GNGGA,061104.00,,,,,0,00,99.99,,,,,57.0,*66
[2021-02-22 15:11:04.707] $GNGGA,061104.10,,,,,0,00,99.99,,,,,57.1,*66
[2021-02-22 15:11:04.800] $GNGGA,061104.20,,,,,0,00,99.99,,,,,57.2,*66
[2021-02-22 15:11:04.894] $GNGGA,061104.30,,,,,0,00,99.99,,,,,57.3,*66
[2021-02-22 15:11:05.003] $GNGGA,061104.40,,,,,0,00,99.99,,,,,57.4,*66
[2021-02-22 15:11:05.097] $GNGGA,061104.50,,,,,0,00,99.99,,,,,57.5,*66
[2021-02-22 15:11:05.191] $GNGGA,061104.60,,,,,0,00,99.99,,,,,57.6,*66
[2021-02-22 15:11:05.285] $GNGGA,061104.70,,,,,0,00,99.99,,,,,57.7,*66
[2021-02-22 15:11:05.410] $GNGGA,061104.80,,,,,0,00,99.99,,,,,57.8,*66
[2021-02-22 15:11:05.503] $GNGGA,061104.90,,,,,0,00,99.99,,,,,57.9,*66
[2021-02-22 15:11:05.597] $GNGGA,061105.00,,,,,0,00,99.99,,,,,58.0,*68
[2021-02-22 15:11:05.691] $GNGGA,061105.10,,,,,0,00,99.99,,,,,58.1,*68
[2021-02-22 15:11:05.800] $GNGGA,061105.20,,,,,0,00,99.99,,,,,58.2,*68
[2021-02-22 15:11:05.894] $GNGGA,061105.30,,,,,0,00,99.99,,,,,58.3,*68
[2021-02-22 15:11:05.988] $GNGGA,061105.40,,,,,0,00,99.99,,,,,58.4,*68
[2021-02-22 15:11:06.097] $GNGGA,061105.50,,,,,0,00,99.99,,,,,58.5,*68
[2021-02-22 15:11:06.206] $GNGGA,061105.60,,,,,0,00,99.99,,,,,58.6,*68
[2021-02-22 15:11:06.300] $GNGGA,061105.70,,,,,0,00,99.99,,,,,58.7,*68
[2021-02-22 15:11:06.394] $GNGGA,061105.80,,,,,0,00,99.99,,,,,58.8,*68
[2021-02-22 15:11:06.488] $GNGGA,061105.90,,,,,0,00,99.99,,,,,58.9,*68
[2021-02-22 15:11:06.597] $GNGGA,061106.00,,,,,0,00,99.99,,,,,59.0,*6A
[2021-02-22 15:11:06.706] $GNGGA,061106.10,,,,,0,00,99.99,,,,,59.1,*6A
[2021-02-22 15:11:06.800] $GNGGA,061106.20,,,,,0,00,99.99,,,,,59.2,*6A
[2021-02-22 15:11:06.894] $GNGGA,061106.30,,,,,0,00,99.99,,,,,59.3,*6A
[2021-02-22 15:11:07.003] $GNGGA,061106.40,,,,,0,00,99.99,,,,,59.4,*6A
[2021-02-22 15:11:07.097] $GNGGA,061106.50,,,,,0,00,99.99,,,,,59.5,*6A
[2021-02-22 15:11:07.191] $GNGGA,061106.60,,,,,0,00,99.99,,,,,59.6,*6A
[2021-02-22 15:11:07.284] $GNGGA,061106.70,,,,,0,00,99.99,,,,,59.7,*6A
[2021-02-22 15:11:07.409] $GNGGA,061106.80,,,,,0,00,99.99,,,,,59.8,*6A
[2021-02-22 15:11:07.503] $GNGGA,061106.90,,,,,0,00,99.99,,,,,59.9,*6A
[2021-02-22 15:11:07.597] $GNGGA,061107.00,,,,,0,00,99.99,,,,,60.0,*61
[2021-02-22 15:11:07.691] $GNGGA,061107.10,,,,,0,00,99.99,,,,,60.1,*61
[2021-02-22 15:11:07.800] $GNGGA,061107.20,,,,,0,00,99.99,,,,,60.2,*61
[2021-02-22 15:11:07.894] $GNGGA,061107.30,,,,,0,00,99.99,,,,,60.3,*61
[2021-02-22 15:11:07.988] $GNGGA,061107.40,,,,,0,00,99.99,,,,,60.4,*61
[2021-02-22 15:11:08.097] $GNGGA,061107.50,,,,,0,00,99.99,,,,,60.5,*61
[2021-02-22 15:11:08.206] $GNGGA,061107.60,,,,,0,00,99.99,,,,,60.6,*61
[2021-02-22 15:11:08.300] $GNGGA,061107.70,,,,,0,00,99.99,,,,,60.7,*61
[2021-02-22 15:11:08.394] $GNGGA,061107.80,,,,,0,00,99.99,,,,,60.8,*61
[2021-02-22 15:11:08.488] $GNGGA,061107.90,,,,,0,00,99.99,,,,,60.9,*61
[2021-02-22 15:11:08.597] $GNGGA,061108.00,,,,,0,00,99.99,,,,,61.0,*6F
[2021-02-22 15:11:08.691] $GNGGA,061108.10,,,,,0,00,99.99,,,,,61.1,*6F
[2021-02-22 15:11:08.800] $GNGGA,061108.20,,,,,0,00,99.99,,,,,61.2,*6F
[2021-02-22 15:11:08.894] $GNGGA,061108.30,,,,,0,00,99.99,,,,,61.3,*6F
[2021-02-22 15:11:09.003] $GNGGA,061108.40,,,,,0,00,99.99,,,,,61.4,*6F
[2021-02-22 15:11:09.097] $GNGGA,061108.50,,,,,0,00,99.99,,,,,61.5,*6F
[2021-02-22 15:11:09.191] $GNGGA,061108.60,,,,,0,00,99.99,,,,,61.6,*6F
[2021-02-22 15:11:09.284] $GNGGA,061108.70,,,,,0,00,99.99,,,,,61.7,*6F
[2021-02-22 15:11:09.409] $GNGGA,061108.80,,,,,0,00,99.99,,,,,61.8,*6F
[2021-02-22 15:11:09.503] $GNGGA,061108.90,,,,,0,00,99.99,,,,,61.9,*6F
[2021-02-22 15:11:09.597] $GNGGA,061109.00,3713.897037799,N,13701.439620721,E,5,02,99.90,93.134,M,37.565,M,62.0,2006*5B
[2021-02-22 15:11:09.691] $GNGGA,061109.10,3713.897037441,N,13701.439627169,E,5,02,99.90,93.126,M,37.565,M,62.1,2006*53
[2021-02-22 15:11:09.784] $GNGGA,061109.20,3713.897038220,N,13701.439622388,E,5,02,99.90,93.122,M,37.565,M,62.2,2006*51
[2021-02-22 15:11:09.894] $GNGGA,061109.30,3713.896593693,N,13701.439505139,E,5,03,99.90,93.164,M,37.565,M,62.3,2006*55
[2021-02-22 15:11:09.987] $GNGGA,061109.40,3713.896594357,N,13701.439505932,E,5,03,99.90,93.177,M,37.565,M,62.4,2006*5E
[2021-02-22 15:11:10.112] $GNGGA,061109.50,3713.896593883,N,13701.439506545,E,5,03,99.90,93.197,M,37.565,M,62.5,2006*5A
[2021-02-22 15:11:10.191] $GNGGA,061109.60,3713.896593985,N,13701.439504525,E,5,03,99.90,93.189,M,37.565,M,62.6,2006*56
[2021-02-22 15:11:10.284] $GNGGA,061109.70,3713.896592152,N,13701.439506131,E,5,00,99.90,93.203,M,37.565,M,62.7,2006*54
[2021-02-22 15:11:10.394] $GNGGA,061109.80,3713.896591085,N,13701.439506451,E,5,00,99.90,93.213,M,37.565,M,62.8,2006*5E
[2021-02-22 15:11:10.487] $GNGGA,061109.90,3713.896591649,N,13701.439506896,E,5,00,99.90,93.208,M,37.565,M,62.9,2006*55
[2021-02-22 15:11:10.612] $GNGGA,061110.00,3713.896592834,N,13701.439505475,E,5,00,99.90,93.202,M,37.565,M,63.0,2006*53
[2021-02-22 15:11:10.690] $GNGGA,061110.10,3713.896595711,N,13701.439503033,E,5,00,99.90,93.186,M,37.565,M,63.1,2006*53
[2021-02-22 15:11:10.784] $GNGGA,061110.20,3713.896592353,N,13701.439504588,E,5,00,99.90,93.208,M,37.565,M,63.2,2006*51
[2021-02-22 15:11:10.894] $GNGGA,061110.30,3713.896593487,N,13701.439501876,E,5,00,99.90,93.194,M,37.565,M,63.3,2006*51
[2021-02-22 15:11:10.987] $GNGGA,061110.40,3713.896593464,N,13701.439503958,E,5,00,99.90,93.201,M,37.565,M,63.4,2006*5C
[2021-02-22 15:11:11.112] $GNGGA,061110.50,3713.896592579,N,13701.439504990,E,5,00,99.90,93.195,M,37.565,M,63.5,2006*5D
[2021-02-22 15:11:11.190] $GNGGA,061110.60,3713.896591809,N,13701.439505046,E,5,00,99.90,93.198,M,37.565,M,63.6,2006*5A
[2021-02-22 15:11:11.284] $GNGGA,061110.70,3713.896591850,N,13701.439507589,E,5,00,99.90,93.207,M,37.565,M,63.7,2006*57
[2021-02-22 15:11:11.394] $GNGGA,061110.80,3713.896593555,N,13701.439507807,E,5,00,99.90,93.204,M,37.565,M,63.8,2006*55
[2021-02-22 15:11:11.519] $GNGGA,061110.90,3713.896594386,N,13701.439508763,E,5,00,99.90,93.204,M,37.565,M,63.9,2006*58
[2021-02-22 15:11:11.597] $GNGGA,061111.00,3713.896595523,N,13701.439508495,E,5,00,99.90,93.204,M,37.565,M,64.0,2006*5C
[2021-02-22 15:11:11.690] $GNGGA,061111.10,3713.896596648,N,13701.439512424,E,5,00,99.90,93.206,M,37.565,M,64.1,2006*52
[2021-02-22 15:11:11.800] $GNGGA,061111.20,3713.896595500,N,13701.439514268,E,5,00,99.90,93.206,M,37.565,M,64.2,2006*56
[2021-02-22 15:11:11.909] $GNGGA,061111.30,3713.896547727,N,13701.438855146,E,5,03,99.90,93.277,M,37.565,M,64.3,2006*5D
[2021-02-22 15:11:11.987] $GNGGA,061111.40,3713.896600508,N,13701.439015014,E,5,04,1.55,93.092,M,37.565,M,64.4,2006*6F
[2021-02-22 15:11:12.097] $GNGGA,061111.50,3713.896590469,N,13701.439009065,E,5,04,1.55,92.952,M,37.565,M,64.5,2006*6C
[2021-02-22 15:11:12.190] $GNGGA,061111.60,3713.896497131,N,13701.438697564,E,5,03,99.90,92.774,M,37.565,M,64.6,2006*53
[2021-02-22 15:11:12.315] $GNGGA,061111.70,3713.896499660,N,13701.438703540,E,5,02,99.90,92.664,M,37.565,M,64.7,2006*55
[2021-02-22 15:11:12.394] $GNGGA,061111.80,3713.896496708,N,13701.438697673,E,5,02,99.90,92.770,M,37.565,M,64.8,2006*5E
[2021-02-22 15:11:12.487] $GNGGA,061111.90,3713.896510283,N,13701.438682594,E,5,02,99.90,92.808,M,37.565,M,64.9,2006*59
[2021-02-22 15:11:12.597] $GNGGA,061112.00,3713.896512665,N,13701.438684630,E,5,02,99.90,92.920,M,37.565,M,65.0,2006*55
[2021-02-22 15:11:12.690] $GNGGA,061112.10,3713.896516015,N,13701.438688548,E,5,02,99.90,93.114,M,37.565,M,65.1,2006*5E
[2021-02-22 15:11:12.815] $GNGGA,061112.20,3713.896509933,N,13701.438680664,E,5,03,99.90,93.373,M,37.565,M,65.2,2006*5A
[2021-02-22 15:11:12.893] $GNGGA,061112.30,3713.896517583,N,13701.438691121,E,5,03,99.90,93.407,M,37.565,M,65.3,2006*50
[2021-02-22 15:11:12.987] $GNGGA,061112.40,3713.896554857,N,13701.438770252,E,5,03,99.90,93.004,M,37.565,M,65.4,2006*5D
[2021-02-22 15:11:13.097] $GNGGA,061112.50,3713.896544263,N,13701.438742952,E,5,03,99.90,93.237,M,37.565,M,65.5,2006*59
[2021-02-22 15:11:13.190] $GNGGA,061112.60,3713.896563502,N,13701.438767842,E,5,03,99.90,93.246,M,37.565,M,65.6,2006*5D
[2021-02-22 15:11:13.315] $GNGGA,061112.70,3713.896573768,N,13701.438769033,E,5,03,99.90,93.368,M,37.565,M,65.7,2006*5F
[2021-02-22 15:11:13.393] $GNGGA,061112.80,3713.896593710,N,13701.438794134,E,5,03,99.90,93.352,M,37.565,M,65.8,2006*53
[2021-02-22 15:11:13.487] $GNGGA,061112.90,3713.896599107,N,13701.438797816,E,5,03,99.90,93.386,M,37.565,M,65.9,2006*5A
[2021-02-22 15:11:13.597] $GNGGA,061113.00,3713.896600077,N,13701.438796943,E,5,03,99.90,93.409,M,37.565,M,66.0,2006*5D
[2021-02-22 15:11:13.690] $GNGGA,061113.10,3713.896589303,N,13701.438784407,E,5,03,99.90,93.374,M,37.565,M,66.1,2006*5C
[2021-02-22 15:11:13.815] $GNGGA,061113.20,3713.896579627,N,13701.438770787,E,5,03,99.90,93.338,M,37.565,M,66.2,2006*58
[2021-02-22 15:11:13.893] $GNGGA,061113.30,3713.896571386,N,13701.438764128,E,5,03,99.90,93.260,M,37.565,M,66.3,2006*54
[2021-02-22 15:11:13.987] $GNGGA,061113.40,3713.896576543,N,13701.438774232,E,5,03,99.90,93.200,M,37.565,M,66.4,2006*53
[2021-02-22 15:11:14.097] $GNGGA,061113.50,3713.896585331,N,13701.438796262,E,5,03,99.90,93.080,M,37.565,M,66.5,2006*5F
[2021-02-22 15:11:14.190] $GNGGA,061113.60,3713.896589574,N,13701.438804541,E,5,03,99.90,93.028,M,37.565,M,66.6,2006*54
[2021-02-22 15:11:14.315] $GNGGA,061113.70,3713.896600431,N,13701.438823224,E,5,03,99.90,92.916,M,37.565,M,66.7,2006*52
[2021-02-22 15:11:14.393] $GNGGA,061113.80,3713.896603408,N,13701.438827336,E,5,03,99.90,92.887,M,37.565,M,66.8,2006*54
[2021-02-22 15:11:14.487] $GNGGA,061113.90,3713.896609036,N,13701.438838531,E,5,03,99.90,92.876,M,37.565,M,66.9,2006*56
[2021-02-22 15:11:14.596] $GNGGA,061114.00,3713.896609833,N,13701.438833693,E,5,03,99.90,92.882,M,37.565,M,67.0,2006*56
[2021-02-22 15:11:14.690] $GNGGA,061114.10,3713.896608576,N,13701.438831099,E,5,03,99.90,92.881,M,37.565,M,67.1,2006*56
[2021-02-22 15:11:14.815] $GNGGA,061114.20,3713.896556346,N,13701.438661971,E,5,03,99.90,92.588,M,37.565,M,67.2,2006*5B
[2021-02-22 15:11:14.893] $GNGGA,061114.30,3713.896545031,N,13701.438621133,E,5,03,99.90,92.537,M,37.565,M,67.3,2006*54
[2021-02-22 15:11:14.987] $GNGGA,061114.40,3713.896520594,N,13701.438540963,E,5,03,99.90,92.413,M,37.565,M,67.4,2006*53
[2021-02-22 15:11:15.096] $GNGGA,061114.50,3713.896514792,N,13701.438517735,E,5,03,99.90,92.383,M,37.565,M,67.5,2006*51
[2021-02-22 15:11:15.190] $GNGGA,061114.60,3713.896506081,N,13701.438485985,E,5,03,99.90,92.348,M,37.565,M,67.6,2006*5F
[2021-02-22 15:11:15.315] $GNGGA,061114.70,3713.896495390,N,13701.438465609,E,5,03,99.90,92.378,M,37.565,M,67.7,2006*51
[2021-02-22 15:11:15.393] $GNGGA,061114.80,3713.896486761,N,13701.438438845,E,5,03,99.90,92.360,M,37.565,M,67.8,2006*5E
[2021-02-22 15:11:15.487] $GNGGA,061114.90,3713.896477130,N,13701.438379699,E,5,07,2.06,92.439,M,37.565,M,67.9,2006*6D
[2021-02-22 15:11:15.596] $GNGGA,061115.00,3713.896465756,N,13701.438329829,E,5,09,1.94,92.460,M,37.565,M,68.0,2006*6C
[2021-02-22 15:11:15.706] $GNGGA,061115.10,3713.896450907,N,13701.438309806,E,5,09,1.94,92.502,M,37.565,M,68.1,2006*6A
[2021-02-22 15:11:15.784] $GNGGA,061115.20,3713.896438912,N,13701.438284596,E,5,09,1.94,92.526,M,37.565,M,68.2,2006*66
[2021-02-22 15:11:15.893] $GNGGA,061115.30,3713.896426935,N,13701.438284289,E,5,09,1.94,92.579,M,37.565,M,68.3,2006*6F
[2021-02-22 15:11:15.987] $GNGGA,061115.40,3713.896423958,N,13701.438281521,E,5,09,1.94,92.645,M,37.565,M,68.4,2006*6D
[2021-02-22 15:11:16.112] $GNGGA,061115.50,3713.896413358,N,13701.438267955,E,5,09,1.94,92.686,M,37.565,M,68.5,2006*6C
[2021-02-22 15:11:16.190] $GNGGA,061115.60,3713.896410542,N,13701.438260516,E,5,09,1.94,92.741,M,37.565,M,68.6,2006*64
[2021-02-22 15:11:16.284] $GNGGA,061115.70,3713.896400976,N,13701.438253158,E,5,09,1.94,92.770,M,37.565,M,68.7,2006*62
[2021-02-22 15:11:16.393] $GNGGA,061115.80,3713.896397774,N,13701.438250116,E,5,09,1.94,92.803,M,37.565,M,68.8,2006*65
[2021-02-22 15:11:16.518] $GNGGA,061115.90,3713.896403508,N,13701.438248698,E,5,10,1.87,92.804,M,37.565,M,68.9,2006*63
[2021-02-22 15:11:16.596] $GNGGA,061116.00,3713.896431253,N,13701.438245813,E,5,12,0.86,92.794,M,37.565,M,69.0,2006*6D
[2021-02-22 15:11:16.690] $GNGGA,061116.10,3713.896433676,N,13701.438242742,E,5,12,0.86,92.795,M,37.565,M,69.1,2006*61
[2021-02-22 15:11:16.799] $GNGGA,061116.20,3713.896466964,N,13701.438249497,E,5,12,0.86,92.775,M,37.565,M,69.2,2006*63
[2021-02-22 15:11:16.909] $GNGGA,061116.30,3713.896468503,N,13701.438245424,E,5,12,0.86,92.782,M,37.565,M,69.3,2006*6C
[2021-02-22 15:11:16.987] $GNGGA,061116.40,3713.896499061,N,13701.438244584,E,5,12,0.86,92.754,M,37.565,M,69.4,2006*62
[2021-02-22 15:11:17.096] $GNGGA,061116.50,3713.896496005,N,13701.438221913,E,5,12,0.86,92.725,M,37.565,M,69.5,2006*68
[2021-02-22 15:11:17.190] $GNGGA,061116.60,3713.896529033,N,13701.438218723,E,5,11,0.97,92.728,M,37.565,M,69.6,2006*61
[2021-02-22 15:11:17.299] $GNGGA,061116.70,3713.896523748,N,13701.438211199,E,5,12,0.92,92.707,M,37.565,M,69.7,2006*65
[2021-02-22 15:11:17.409] $GNGGA,061116.80,3713.896524010,N,13701.438204983,E,5,12,0.92,92.712,M,37.565,M,69.8,2006*6B
[2021-02-22 15:11:17.487] $GNGGA,061116.90,3713.896488393,N,13701.438185719,E,5,12,0.92,92.705,M,37.565,M,69.9,2006*65
[2021-02-22 15:11:17.596] $GNGGA,061117.00,3713.896488039,N,13701.438174109,E,5,12,0.92,92.718,M,37.565,M,70.0,2006*6A
[2021-02-22 15:11:17.690] $GNGGA,061117.10,3713.896453039,N,13701.438159169,E,5,12,0.92,92.732,M,37.565,M,70.1,2006*6D
[2021-02-22 15:11:17.799] $GNGGA,061117.20,3713.896454895,N,13701.438155928,E,5,11,1.06,92.738,M,37.565,M,70.2,2006*60
[2021-02-22 15:11:17.909] $GNGGA,061117.30,3713.896440408,N,13701.438138812,E,5,11,1.06,92.747,M,37.565,M,70.3,2006*66
[2021-02-22 15:11:17.987] $GNGGA,061117.40,3713.896442903,N,13701.438135942,E,5,11,1.06,92.751,M,37.565,M,70.4,2006*6C
[2021-02-22 15:11:18.096] $GNGGA,061117.50,3713.896439359,N,13701.438132137,E,5,11,1.06,92.741,M,37.565,M,70.5,2006*69
[2021-02-22 15:11:18.190] $GNGGA,061117.60,3713.896437819,N,13701.438125464,E,5,10,1.17,92.735,M,37.565,M,70.6,2006*6F
[2021-02-22 15:11:18.299] $GNGGA,061117.70,3713.896434007,N,13701.438124903,E,5,11,1.07,92.733,M,37.565,M,70.7,2006*60
[2021-02-22 15:11:18.409] $GNGGA,061117.80,3713.896435956,N,13701.438125521,E,5,11,0.93,92.751,M,37.565,M,70.8,2006*69
[2021-02-22 15:11:18.487] $GNGGA,061117.90,3713.896435005,N,13701.438127886,E,5,11,0.93,92.752,M,37.565,M,70.9,2006*67
[2021-02-22 15:11:18.596] $GNGGA,061118.00,3713.896441975,N,13701.438127239,E,5,11,0.93,92.773,M,37.565,M,71.0,2006*69
[2021-02-22 15:11:18.690] $GNGGA,061118.10,3713.896454975,N,13701.438128631,E,5,10,0.99,92.758,M,37.565,M,71.1,2006*6C
[2021-02-22 15:11:18.799] $GNGGA,061118.20,3713.896461956,N,13701.438129333,E,5,10,0.99,92.779,M,37.565,M,71.2,2006*6E
[2021-02-22 15:11:18.909] $GNGGA,061118.30,3713.896491805,N,13701.438133817,E,5,10,0.99,92.756,M,37.565,M,71.3,2006*6D
[2021-02-22 15:11:18.987] $GNGGA,061118.40,3713.896491968,N,13701.438131612,E,5,10,0.99,92.769,M,37.565,M,71.4,2006*62
[2021-02-22 15:11:19.096] $GNGGA,061118.50,3713.896507776,N,13701.438133378,E,5,10,0.99,92.756,M,37.565,M,71.5,2006*6A
[2021-02-22 15:11:19.190] $GNGGA,061118.60,3713.896507556,N,13701.438130745,E,5,10,0.99,92.768,M,37.565,M,71.6,2006*6E
[2021-02-22 15:11:19.299] $GNGGA,061118.70,3713.896507052,N,13701.438127113,E,5,10,0.99,92.770,M,37.565,M,71.7,2006*65
[2021-02-22 15:11:19.409] $GNGGA,061118.80,3713.896507391,N,13701.438123580,E,5,11,0.93,92.781,M,37.565,M,71.8,2006*66
[2021-02-22 15:11:19.487] $GNGGA,061118.90,3713.896507089,N,13701.438117434,E,5,12,0.85,92.783,M,37.565,M,71.9,2006*63
[2021-02-22 15:11:19.596] $GNGGA,061119.00,3713.896502479,N,13701.438110466,E,5,12,0.85,92.798,M,37.565,M,72.0,2006*65
[2021-02-22 15:11:19.690] $GNGGA,061119.10,3713.896500902,N,13701.438107537,E,5,12,0.85,92.807,M,37.565,M,72.1,2006*6C
[2021-02-22 15:11:19.815] $GNGGA,061119.20,3713.896503207,N,13701.438103038,E,5,11,0.93,92.807,M,37.565,M,72.2,2006*6B
[2021-02-22 15:11:19.893] $GNGGA,061119.30,3713.896502119,N,13701.438100413,E,5,11,0.93,92.816,M,37.565,M,72.3,2006*68
[2021-02-22 15:11:19.987] $GNGGA,061119.40,3713.896502904,N,13701.438097624,E,5,10,1.87,92.818,M,37.565,M,72.4,2006*6E
[2021-02-22 15:11:20.096] $GNGGA,061119.50,3713.896500867,N,13701.438096091,E,5,10,1.87,92.824,M,37.565,M,72.5,2006*6E
[2021-02-22 15:11:20.205] $GNGGA,061119.60,3713.896499505,N,13701.438093233,E,5,10,1.87,92.822,M,37.565,M,72.6,2006*6F
[2021-02-22 15:11:20.284] $GNGGA,061119.70,3713.896501261,N,13701.438088687,E,5,10,1.87,92.825,M,37.565,M,72.7,2006*6C
[2021-02-22 15:11:20.393] $GNGGA,061119.80,3713.896501814,N,13701.438085626,E,5,10,1.87,92.835,M,37.565,M,72.8,2006*63
[2021-02-22 15:11:20.487] $GNGGA,061119.90,3713.896501372,N,13701.438081643,E,5,10,1.87,92.836,M,37.565,M,72.9,2006*6C
[2021-02-22 15:11:20.612] $GNGGA,061120.00,3713.896501741,N,13701.438078859,E,5,10,1.87,92.826,M,37.565,M,73.0,2006*61
[2021-02-22 15:11:20.690] $GNGGA,061120.10,3713.896503222,N,13701.438073282,E,5,10,1.87,92.827,M,37.565,M,73.1,2006*65
[2021-02-22 15:11:20.784] $GNGGA,061120.20,3713.896501566,N,13701.438068536,E,5,10,1.87,92.822,M,37.565,M,73.2,2006*67
[2021-02-22 15:11:20.893] $GNGGA,061120.30,3713.896501720,N,13701.438064713,E,5,10,1.87,92.821,M,37.565,M,73.3,2006*6D
[2021-02-22 15:11:21.018] $GNGGA,061120.40,3713.896501894,N,13701.438062384,E,5,10,1.87,92.809,M,37.565,M,73.4,2006*6B
[2021-02-22 15:11:21.096] $GNGGA,061120.50,3713.896501716,N,13701.438060846,E,5,10,1.87,92.812,M,37.565,M,73.5,2006*63
[2021-02-22 15:11:21.190] $GNGGA,061120.60,3713.896501113,N,13701.438058695,E,5,10,1.87,92.813,M,37.565,M,73.6,2006*6A
[2021-02-22 15:11:21.299] $GNGGA,061120.70,3713.896502482,N,13701.438056923,E,5,10,1.87,92.810,M,37.565,M,73.7,2006*6B
[2021-02-22 15:11:21.409] $GNGGA,061120.80,3713.896501957,N,13701.438056811,E,5,11,1.05,92.806,M,37.565,M,73.8,2006*61
[2021-02-22 15:11:21.487] $GNGGA,061120.90,3713.896502317,N,13701.438054743,E,5,10,1.87,92.800,M,37.565,M,73.9,2006*6B
[2021-02-22 15:11:21.596] $GNGGA,061121.00,3713.896502683,N,13701.438054941,E,5,10,1.87,92.801,M,37.565,M,74.0,2006*68
[2021-02-22 15:11:21.690] $GNGGA,061121.10,3713.896502427,N,13701.438057344,E,5,10,1.87,92.798,M,37.565,M,74.1,2006*67
[2021-02-22 15:11:21.799] $GNGGA,061121.20,3713.896502422,N,13701.438057660,E,5,10,1.87,92.789,M,37.565,M,74.2,2006*61
[2021-02-22 15:11:21.908] $GNGGA,061121.30,3713.896501272,N,13701.438059772,E,5,10,1.87,92.790,M,37.565,M,74.3,2006*65
[2021-02-22 15:11:21.987] $GNGGA,061121.40,3713.896503175,N,13701.438056232,E,5,11,0.93,92.785,M,37.565,M,74.4,2006*6C
[2021-02-22 15:11:22.096] $GNGGA,061121.50,3713.896501535,N,13701.438053967,E,5,13,0.84,92.783,M,37.565,M,74.5,2006*62
[2021-02-22 15:11:22.190] $GNGGA,061121.60,3713.896502804,N,13701.438049738,E,5,13,0.84,92.775,M,37.565,M,74.6,2006*68
[2021-02-22 15:11:22.299] $GNGGA,061121.70,3713.896502392,N,13701.438050709,E,5,13,0.84,92.773,M,37.565,M,74.7,2006*60
[2021-02-22 15:11:22.408] $GNGGA,061121.80,3713.896503322,N,13701.438047355,E,5,13,0.84,92.770,M,37.565,M,74.8,2006*62
[2021-02-22 15:11:22.487] $GNGGA,061121.90,3713.896501790,N,13701.438045289,E,5,13,0.84,92.771,M,37.565,M,74.9,2006*6E
[2021-02-22 15:11:22.596] $GNGGA,061122.00,3713.896504197,N,13701.438040931,E,5,13,0.84,92.766,M,37.565,M,75.0,2006*63
[2021-02-22 15:11:22.690] $GNGGA,061122.10,3713.896504954,N,13701.438038374,E,5,12,0.86,92.766,M,37.565,M,75.1,2006*63
[2021-02-22 15:11:22.799] $GNGGA,061122.20,3713.896505409,N,13701.438035545,E,5,10,1.87,92.765,M,37.565,M,75.2,2006*6F
[2021-02-22 15:11:22.908] $GNGGA,061122.30,3713.896506225,N,13701.438032617,E,5,09,1.94,92.755,M,37.565,M,75.3,2006*6E
[2021-02-22 15:11:22.987] $GNGGA,061122.40,3713.896506602,N,13701.438031436,E,5,09,1.94,92.755,M,37.565,M,75.4,2006*6D
[2021-02-22 15:11:23.096] $GNGGA,061122.50,3713.896506915,N,13701.438032060,E,5,09,1.94,92.747,M,37.565,M,75.5,2006*63
[2021-02-22 15:11:23.190] $GNGGA,061122.60,3713.896507759,N,13701.438029211,E,5,09,1.94,92.748,M,37.565,M,75.6,2006*65
[2021-02-22 15:11:23.299] $GNGGA,061122.70,3713.896509459,N,13701.438028631,E,5,10,1.87,92.750,M,37.565,M,75.7,2006*6C
[2021-02-22 15:11:23.408] $GNGGA,061122.80,3713.896511355,N,13701.438025829,E,5,09,2.02,92.746,M,37.565,M,75.8,2006*65
[2021-02-22 15:11:23.486] $GNGGA,061122.90,3713.896511104,N,13701.438023442,E,5,09,2.02,92.743,M,37.565,M,75.9,2006*61
[2021-02-22 15:11:23.596] $GNGGA,061123.00,3713.896509622,N,13701.438019662,E,5,10,1.87,92.738,M,37.565,M,76.0,2006*6A
[2021-02-22 15:11:23.690] $GNGGA,061123.10,3713.896508308,N,13701.438017679,E,5,10,1.87,92.733,M,37.565,M,76.1,2006*69
[2021-02-22 15:11:23.799] $GNGGA,061123.20,3713.896510624,N,13701.438014412,E,5,10,1.87,92.732,M,37.565,M,76.2,2006*66
[2021-02-22 15:11:23.908] $GNGGA,061123.30,3713.896821845,N,13701.438024190,E,4,10,1.87,92.716,M,37.565,M,76.3,2006*6B
[2021-02-22 15:11:23.986] $GNGGA,061123.40,3713.896853266,N,13701.437963488,E,4,10,1.87,92.691,M,37.565,M,76.4,2006*62
[2021-02-22 15:11:24.096] $GNGGA,061123.50,3713.896852858,N,13701.437964801,E,4,10,1.87,92.673,M,37.565,M,76.5,2006*62
[2021-02-22 15:11:24.190] $GNGGA,061123.60,3713.896853309,N,13701.437964393,E,4,10,1.87,92.677,M,37.565,M,76.6,2006*68
[2021-02-22 15:11:24.315] $GNGGA,061123.70,3713.896854487,N,13701.437963686,E,4,10,1.87,92.672,M,37.565,M,76.7,2006*6D
[2021-02-22 15:11:24.393] $GNGGA,061123.80,3713.896854540,N,13701.437963592,E,4,10,1.87,92.672,M,37.565,M,76.8,2006*61
[2021-02-22 15:11:24.486] $GNGGA,061123.90,3713.896854637,N,13701.437962860,E,4,10,1.87,92.666,M,37.565,M,76.9,2006*66
[2021-02-22 15:11:24.596] $GNGGA,061124.00,3713.896855089,N,13701.437962253,E,4,10,1.87,92.666,M,37.565,M,77.0,2006*68
[2021-02-22 15:11:24.705] $GNGGA,061124.10,3713.896853948,N,13701.437962461,E,4,10,1.87,92.665,M,37.565,M,77.1,2006*6E
[2021-02-22 15:11:24.783] $GNGGA,061124.20,3713.896864702,N,13701.437938018,E,4,10,1.87,92.656,M,37.565,M,77.2,2006*6F
[2021-02-22 15:11:24.893] $GNGGA,061124.30,3713.896864855,N,13701.437935991,E,4,10,1.87,92.654,M,37.565,M,77.3,2006*65
[2021-02-22 15:11:24.986] $GNGGA,061124.40,3713.896864102,N,13701.437934076,E,4,10,1.87,92.656,M,37.565,M,77.4,2006*6D
[2021-02-22 15:11:25.111] $GNGGA,061124.50,3713.896864093,N,13701.437935476,E,4,10,1.87,92.656,M,37.565,M,77.5,2006*61
[2021-02-22 15:11:25.189] $GNGGA,061124.60,3713.896863923,N,13701.437935665,E,4,10,1.87,92.654,M,37.565,M,77.6,2006*66
[2021-02-22 15:11:25.299] $GNGGA,061124.70,3713.896860750,N,13701.437939829,E,4,10,1.87,92.659,M,37.565,M,77.7,2006*68
[2021-02-22 15:11:25.393] $GNGGA,061124.80,3713.896859108,N,13701.437940758,E,4,10,1.87,92.658,M,37.565,M,77.8,2006*6F
[2021-02-22 15:11:25.518] $GNGGA,061124.90,3713.896859742,N,13701.437940881,E,4,10,1.87,92.661,M,37.565,M,77.9,2006*66
[2021-02-22 15:11:25.596] $GNGGA,061125.00,3713.896857675,N,13701.437941729,E,4,10,1.87,92.658,M,37.565,M,78.0,2006*65
[2021-02-22 15:11:25.689] $GNGGA,061125.10,3713.896857873,N,13701.437942359,E,4,10,1.87,92.657,M,37.565,M,78.1,2006*62
[2021-02-22 15:11:25.799] $GNGGA,061125.20,3713.896857465,N,13701.437943164,E,4,10,1.87,92.659,M,37.565,M,78.2,2006*6A
[2021-02-22 15:11:25.908] $GNGGA,061125.30,3713.896857159,N,13701.437944039,E,4,10,1.87,92.660,M,37.565,M,78.3,2006*64
[2021-02-22 15:11:25.986] $GNGGA,061125.40,3713.896856821,N,13701.437942074,E,4,10,1.87,92.660,M,37.565,M,78.4,2006*6C
[2021-02-22 15:11:26.096] $GNGGA,061125.50,3713.896856263,N,13701.437939791,E,4,10,1.87,92.663,M,37.565,M,78.5,2006*63
[2021-02-22 15:11:26.189] $GNGGA,061125.60,3713.896857290,N,13701.437936961,E,4,10,1.87,92.660,M,37.565,M,78.6,2006*63
[2021-02-22 15:11:26.299] $GNGGA,061125.70,3713.896857786,N,13701.437932364,E,4,10,1.87,92.657,M,37.565,M,78.7,2006*6E
[2021-02-22 15:11:26.408] $GNGGA,061125.80,3713.896859978,N,13701.437928851,E,4,10,1.87,92.660,M,37.565,M,78.8,2006*6D
[2021-02-22 15:11:26.486] $GNGGA,061125.90,3713.896862130,N,13701.437926086,E,4,10,1.87,92.656,M,37.565,M,78.9,2006*68
[2021-02-22 15:11:26.596] $GNGGA,061126.00,3713.896864254,N,13701.437926025,E,4,10,1.87,92.656,M,37.565,M,79.0,2006*64
[2021-02-22 15:11:26.689] $GNGGA,061126.10,3713.896864981,N,13701.437925820,E,4,11,0.93,92.657,M,37.565,M,79.1,2006*6D
[2021-02-22 15:11:26.799] $GNGGA,061126.20,3713.896867939,N,13701.437919727,E,4,11,0.93,92.650,M,37.565,M,79.2,2006*6D
[2021-02-22 15:11:26.908] $GNGGA,061126.30,3713.896867286,N,13701.437922864,E,4,11,0.93,92.654,M,37.565,M,79.3,2006*66
[2021-02-22 15:11:26.986] $GNGGA,061126.40,3713.896867158,N,13701.437920979,E,4,10,1.87,92.652,M,37.565,M,79.4,2006*6A
[2021-02-22 15:11:27.096] $GNGGA,061126.50,3713.896867801,N,13701.437921717,E,4,10,1.87,92.654,M,37.565,M,79.5,2006*6E
[2021-02-22 15:11:27.189] $GNGGA,061126.60,3713.896867356,N,13701.437922805,E,4,10,1.87,92.650,M,37.565,M,79.6,2006*6C
[2021-02-22 15:11:27.299] $GNGGA,061126.70,3713.896867203,N,13701.437923847,E,4,10,1.87,92.653,M,37.565,M,79.7,2006*69
[2021-02-22 15:11:27.408] $GNGGA,061126.80,3713.896867890,N,13701.437925010,E,4,09,2.02,92.654,M,37.565,M,79.8,2006*64
[2021-02-22 15:11:27.486] $GNGGA,061126.90,3713.896864493,N,13701.437927234,E,4,09,2.02,92.656,M,37.565,M,79.9,2006*6C
[2021-02-22 15:11:27.596] $GNGGA,061127.00,3713.896864465,N,13701.437927721,E,4,09,2.02,92.653,M,37.565,M,80.0,2006*66
[2021-02-22 15:11:27.689] $GNGGA,061127.10,3713.896864657,N,13701.437926197,E,4,09,2.02,92.652,M,37.565,M,80.1,2006*6E
[2021-02-22 15:11:27.799] $GNGGA,061127.20,3713.896863943,N,13701.437927151,E,4,09,2.02,92.652,M,37.565,M,80.2,2006*68
[2021-02-22 15:11:27.908] $GNGGA,061127.30,3713.896863294,N,13701.437926834,E,4,09,2.02,92.648,M,37.565,M,80.3,2006*69
[2021-02-22 15:11:27.986] $GNGGA,061127.40,3713.896862803,N,13701.437927727,E,4,09,2.02,92.648,M,37.565,M,80.4,2006*60
[2021-02-22 15:11:28.096] $GNGGA,061127.50,3713.896861897,N,13701.437928014,E,4,09,2.02,92.648,M,37.565,M,80.5,2006*66
[2021-02-22 15:11:28.189] $GNGGA,061127.60,3713.896861686,N,13701.437929098,E,4,09,2.02,92.651,M,37.565,M,80.6,2006*65
[2021-02-22 15:11:28.314] $GNGGA,061127.70,3713.896859977,N,13701.437929761,E,4,09,2.02,92.652,M,37.565,M,80.7,2006*6D
[2021-02-22 15:11:28.392] $GNGGA,061127.80,3713.896860725,N,13701.437930306,E,4,09,2.02,92.646,M,37.565,M,80.8,2006*66
[2021-02-22 15:11:28.486] $GNGGA,061127.90,3713.896859613,N,13701.437929474,E,4,09,2.02,92.646,M,37.565,M,80.9,2006*62
[2021-02-22 15:11:28.596] $GNGGA,061128.00,3713.896858751,N,13701.437928096,E,4,09,2.02,92.645,M,37.565,M,81.0,2006*60
[2021-02-22 15:11:28.705] $GNGGA,061128.10,3713.896857306,N,13701.437928535,E,4,09,2.02,92.644,M,37.565,M,81.1,2006*64
[2021-02-22 15:11:28.783] $GNGGA,061128.20,3713.896857584,N,13701.437929151,E,4,09,2.02,92.642,M,37.565,M,81.2,2006*69
[2021-02-22 15:11:28.892] $GNGGA,061128.30,3713.896857363,N,13701.437928530,E,4,09,2.02,92.642,M,37.565,M,81.3,2006*64
[2021-02-22 15:11:28.986] $GNGGA,061128.40,3713.896856474,N,13701.437931088,E,4,09,2.02,92.641,M,37.565,M,81.4,2006*69
[2021-02-22 15:11:29.111] $GNGGA,061128.50,3713.896855046,N,13701.437929302,E,4,09,2.02,92.638,M,37.565,M,81.5,2006*69
[2021-02-22 15:11:29.189] $GNGGA,061128.60,3713.896860437,N,13701.437920648,E,4,09,2.02,92.629,M,37.565,M,81.6,2006*6F
[2021-02-22 15:11:29.299] $GNGGA,061128.70,3713.896861287,N,13701.437920404,E,4,09,2.02,92.631,M,37.565,M,81.7,2006*60
[2021-02-22 15:11:29.392] $GNGGA,061128.80,3713.896860758,N,13701.437920279,E,4,09,2.02,92.633,M,37.565,M,81.8,2006*68
[2021-02-22 15:11:29.517] $GNGGA,061128.90,3713.896860429,N,13701.437921436,E,4,09,2.02,92.636,M,37.565,M,81.9,2006*64
[2021-02-22 15:11:29.595] $GNGGA,061129.00,3713.896860749,N,13701.437921095,E,4,09,2.02,92.638,M,37.565,M,82.0,2006*60
[2021-02-22 15:11:29.689] $GNGGA,061129.10,3713.896861086,N,13701.437922664,E,4,09,2.02,92.638,M,37.565,M,82.1,2006*6E
[2021-02-22 15:11:29.799] $GNGGA,061129.20,3713.896861111,N,13701.437924383,E,4,10,1.17,92.641,M,37.565,M,82.2,2006*6A
[2021-02-22 15:11:29.908] $GNGGA,061129.30,3713.896861131,N,13701.437924560,E,4,10,1.17,92.635,M,37.565,M,82.3,2006*60
[2021-02-22 15:11:29.986] $GNGGA,061129.40,3713.896862109,N,13701.437925600,E,4,10,1.17,92.636,M,37.565,M,82.4,2006*6F
[2021-02-22 15:11:30.095] $GNGGA,061129.50,3713.896862981,N,13701.437926573,E,4,10,1.17,92.631,M,37.565,M,82.5,2006*64
[2021-02-22 15:11:30.189] $GNGGA,061129.60,3713.896862529,N,13701.437927347,E,4,10,1.17,92.627,M,37.565,M,82.6,2006*6D
[2021-02-22 15:11:30.314] $GNGGA,061129.70,3713.896862039,N,13701.437926754,E,4,10,1.17,92.629,M,37.565,M,82.7,2006*60
[2021-02-22 15:11:30.392] $GNGGA,061129.80,3713.896862912,N,13701.437925714,E,4,10,1.17,92.628,M,37.565,M,82.8,2006*66
[2021-02-22 15:11:30.486] $GNGGA,061129.90,3713.896863716,N,13701.437923701,E,4,10,1.17,92.628,M,37.565,M,82.9,2006*6F
[2021-02-22 15:11:30.595] $GNGGA,061130.00,3713.896862461,N,13701.437923485,E,4,10,1.17,92.627,M,37.565,M,83.0,2006*64
[2021-02-22 15:11:30.689] $GNGGA,061130.10,3713.896861307,N,13701.437922905,E,4,10,1.17,92.625,M,37.565,M,83.1,2006*66
[2021-02-22 15:11:30.814] $GNGGA,061130.20,3713.896861177,N,13701.437920804,E,4,10,1.17,92.630,M,37.565,M,83.2,2006*65
[2021-02-22 15:11:30.892] $GNGGA,061130.30,3713.896861796,N,13701.437921178,E,4,10,1.17,92.627,M,37.565,M,83.3,2006*69
[2021-02-22 15:11:30.986] $GNGGA,061130.40,3713.896861333,N,13701.437919892,E,4,10,1.17,92.627,M,37.565,M,83.4,2006*64
[2021-02-22 15:11:31.095] $GNGGA,061130.50,3713.896859742,N,13701.437920532,E,4,10,1.17,92.628,M,37.565,M,83.5,2006*6F
[2021-02-22 15:11:31.189] $GNGGA,061130.60,3713.896859588,N,13701.437919989,E,4,10,1.17,92.626,M,37.565,M,83.6,2006*63
[2021-02-22 15:11:31.314] $GNGGA,061130.70,3713.896859496,N,13701.437920633,E,4,10,1.17,92.621,M,37.565,M,83.7,2006*6E
[2021-02-22 15:11:31.392] $GNGGA,061130.80,3713.896859682,N,13701.437921915,E,4,10,1.17,92.620,M,37.565,M,83.8,2006*62
[2021-02-22 15:11:31.486] $GNGGA,061130.90,3713.896858904,N,13701.437920114,E,4,10,1.17,92.619,M,37.565,M,83.9,2006*60
[2021-02-22 15:11:31.595] $GNGGA,061131.00,3713.896858779,N,13701.437920335,E,4,10,1.17,92.621,M,37.565,M,84.0,2006*68
[2021-02-22 15:11:31.689] $GNGGA,061131.10,3713.896860317,N,13701.437920078,E,4,10,1.17,92.621,M,37.565,M,84.1,2006*65
[2021-02-22 15:11:31.814] $GNGGA,061131.20,3713.896862156,N,13701.437920484,E,4,10,1.17,92.616,M,37.565,M,84.2,2006*63
[2021-02-22 15:11:31.892] $GNGGA,061131.30,3713.896860813,N,13701.437920622,E,4,10,1.17,92.619,M,37.565,M,84.3,2006*68
[2021-02-22 15:11:31.986] $GNGGA,061131.40,3713.896861543,N,13701.437920077,E,4,09,2.02,92.626,M,37.565,M,84.4,2006*64
[2021-02-22 15:11:32.095] $GNGGA,061131.50,3713.896862210,N,13701.437919380,E,4,09,2.02,92.626,M,37.565,M,84.5,2006*67
[2021-02-22 15:11:32.189] $GNGGA,061131.60,3713.896861572,N,13701.437920167,E,4,09,2.02,92.623,M,37.565,M,84.6,2006*63
[2021-02-22 15:11:32.314] $GNGGA,061131.70,3713.896860960,N,13701.437919374,E,4,09,2.02,92.629,M,37.565,M,84.7,2006*6D
[2021-02-22 15:11:32.392] $GNGGA,061131.80,3713.896860737,N,13701.437918383,E,4,09,2.02,92.632,M,37.565,M,84.8,2006*62
[2021-02-22 15:11:32.486] $GNGGA,061131.90,3713.896861079,N,13701.437917294,E,4,09,2.02,92.632,M,37.565,M,84.9,2006*66
[2021-02-22 15:11:32.595] $GNGGA,061132.00,3713.896861614,N,13701.437917672,E,4,09,2.02,92.630,M,37.565,M,85.0,2006*67
[2021-02-22 15:11:32.705] $GNGGA,061132.10,3713.896861683,N,13701.437918190,E,4,10,1.17,92.634,M,37.565,M,85.1,2006*66
[2021-02-22 15:11:32.783] $GNGGA,061132.20,3713.896861896,N,13701.437917254,E,4,10,1.17,92.629,M,37.565,M,85.2,2006*64
[2021-02-22 15:11:32.892] $GNGGA,061132.30,3713.896861873,N,13701.437916490,E,4,10,1.17,92.627,M,37.565,M,85.3,2006*6E
[2021-02-22 15:11:32.986] $GNGGA,061132.40,3713.896862143,N,13701.437916735,E,4,10,1.17,92.626,M,37.565,M,85.4,2006*6A
[2021-02-22 15:11:33.111] $GNGGA,061132.50,3713.896862197,N,13701.437917530,E,4,10,1.17,92.627,M,37.565,M,85.5,2006*64
[2021-02-22 15:11:33.189] $GNGGA,061132.60,3713.896860658,N,13701.437918413,E,4,10,1.17,92.625,M,37.565,M,85.6,2006*6F
[2021-02-22 15:11:33.298] $GNGGA,061132.70,3713.896860611,N,13701.437919434,E,4,10,1.17,92.620,M,37.565,M,85.7,2006*63
[2021-02-22 15:11:33.392] $GNGGA,061132.80,3713.896861024,N,13701.437921952,E,4,10,1.17,92.619,M,37.565,M,85.8,2006*6E
[2021-02-22 15:11:33.517] $GNGGA,061132.90,3713.896860461,N,13701.437922602,E,4,10,1.17,92.619,M,37.565,M,85.9,2006*63
[2021-02-22 15:11:33.595] $GNGGA,061133.00,3713.896859152,N,13701.437923726,E,4,10,1.17,92.619,M,37.565,M,86.0,2006*68
[2021-02-22 15:11:33.689] $GNGGA,061133.10,3713.896857890,N,13701.437922747,E,4,10,1.17,92.621,M,37.565,M,86.1,2006*6C
[2021-02-22 15:11:33.798] $GNGGA,061133.20,3713.896857934,N,13701.437922737,E,4,10,1.17,92.621,M,37.565,M,86.2,2006*64
[2021-02-22 15:11:33.908] $GNGGA,061133.30,3713.896858150,N,13701.437924550,E,4,10,1.17,92.618,M,37.565,M,86.3,2006*6E
[2021-02-22 15:11:33.986] $GNGGA,061133.40,3713.896858077,N,13701.437924967,E,4,10,1.17,92.616,M,37.565,M,86.4,2006*6C
[2021-02-22 15:11:34.095] $GNGGA,061133.50,3713.896857244,N,13701.437925273,E,4,10,1.17,92.621,M,37.565,M,86.5,2006*6A
[2021-02-22 15:11:34.189] $GNGGA,061133.60,3713.896856996,N,13701.437924982,E,4,10,1.17,92.624,M,37.565,M,86.6,2006*6E
[2021-02-22 15:11:34.314] $GNGGA,061133.70,3713.896857751,N,13701.437925468,E,4,10,1.17,92.620,M,37.565,M,86.7,2006*66
[2021-02-22 15:11:34.392] $GNGGA,061133.80,3713.896858347,N,13701.437925799,E,4,09,2.02,92.625,M,37.565,M,86.8,2006*6D
[2021-02-22 15:11:34.486] $GNGGA,061133.90,3713.896858150,N,13701.437924841,E,4,09,2.02,92.627,M,37.565,M,86.9,2006*60
[2021-02-22 15:11:34.595] $GNGGA,061134.00,3713.896857992,N,13701.437925677,E,4,09,2.02,92.626,M,37.565,M,87.0,2006*64
[2021-02-22 15:11:34.689] $GNGGA,061134.10,3713.896858480,N,13701.437926923,E,4,09,2.02,92.625,M,37.565,M,87.1,2006*6B
[2021-02-22 15:11:34.814] $GNGGA,061134.20,3713.896859479,N,13701.437925262,E,4,10,1.74,92.622,M,37.565,M,87.2,2006*6C
[2021-02-22 15:11:34.892] $GNGGA,061134.30,3713.896779707,N,13701.437965020,E,4,10,1.74,92.544,M,37.565,M,87.3,2006*68
[2021-02-22 15:11:34.986] $GNGGA,061134.40,3713.896774065,N,13701.437968959,E,4,10,1.74,92.540,M,37.565,M,87.4,2006*68
[2021-02-22 15:11:35.095] $GNGGA,061134.50,3713.896772170,N,13701.437969443,E,4,10,1.74,92.541,M,37.565,M,87.5,2006*6D
[2021-02-22 15:11:35.189] $GNGGA,061134.60,3713.896773598,N,13701.437971243,E,4,10,1.74,92.540,M,37.565,M,87.6,2006*60
[2021-02-22 15:11:35.314] $GNGGA,061134.70,3713.896774617,N,13701.437970946,E,4,10,1.74,92.538,M,37.565,M,87.7,2006*63
[2021-02-22 15:11:35.392] $GNGGA,061134.80,3713.896773826,N,13701.437970760,E,4,09,1.99,92.541,M,37.565,M,87.8,2006*67
[2021-02-22 15:11:35.486] $GNGGA,061134.90,3713.896772402,N,13701.437970317,E,4,10,1.74,92.543,M,37.565,M,87.9,2006*61
[2021-02-22 15:11:35.595] $GNGGA,061135.00,3713.896772351,N,13701.437968482,E,4,10,1.74,92.539,M,37.565,M,88.0,2006*61
[2021-02-22 15:11:35.689] $GNGGA,061135.10,3713.896772871,N,13701.437967449,E,4,10,1.74,92.539,M,37.565,M,88.1,2006*60
[2021-02-22 15:11:35.814] $GNGGA,061135.20,3713.896772231,N,13701.437968040,E,4,10,1.74,92.541,M,37.565,M,88.2,2006*63
[2021-02-22 15:11:35.892] $GNGGA,061135.30,3713.896769393,N,13701.437973205,E,4,10,1.74,92.550,M,37.565,M,88.3,2006*69
[2021-02-22 15:11:35.986] $GNGGA,061135.40,3713.896769689,N,13701.437974984,E,4,10,1.74,92.550,M,37.565,M,88.4,2006*62
[2021-02-22 15:11:36.095] $GNGGA,061135.50,3713.896769354,N,13701.437976322,E,4,10,1.74,92.551,M,37.565,M,88.5,2006*62
[2021-02-22 15:11:36.189] $GNGGA,061135.60,3713.896769106,N,13701.437975616,E,4,10,1.74,92.554,M,37.565,M,88.6,2006*63
[2021-02-22 15:11:36.314] $GNGGA,061135.70,3713.896768719,N,13701.437977484,E,4,10,1.74,92.556,M,37.565,M,88.7,2006*63
[2021-02-22 15:11:36.392] $GNGGA,061135.80,3713.896768751,N,13701.437979346,E,4,10,1.74,92.552,M,37.565,M,88.8,2006*6C
[2021-02-22 15:11:36.486] $GNGGA,061135.90,3713.896770671,N,13701.437980051,E,4,10,1.74,92.557,M,37.565,M,88.9,2006*60
[2021-02-22 15:11:36.595] $GNGGA,061136.00,3713.896771548,N,13701.437982206,E,4,10,1.74,92.560,M,37.565,M,89.0,2006*6C
[2021-02-22 15:11:36.689] $GNGGA,061136.10,3713.896771863,N,13701.437982895,E,4,10,1.74,92.560,M,37.565,M,89.1,2006*68
[2021-02-22 15:11:36.814] $GNGGA,061136.20,3713.896773879,N,13701.437980108,E,4,10,1.74,92.541,M,37.565,M,89.2,2006*6D
[2021-02-22 15:11:36.892] $GNGGA,061136.30,3713.896773586,N,13701.437979590,E,4,10,1.74,92.541,M,37.565,M,89.3,2006*63
[2021-02-22 15:11:36.986] $GNGGA,061136.40,3713.896772355,N,13701.437978277,E,4,10,1.74,92.543,M,37.565,M,89.4,2006*67
[2021-02-22 15:11:37.095] $GNGGA,061136.50,3713.896772823,N,13701.437976596,E,4,10,1.74,92.541,M,37.565,M,89.5,2006*69
[2021-02-22 15:11:37.204] $GNGGA,061136.60,3713.896772238,N,13701.437976555,E,4,10,1.74,92.543,M,37.565,M,89.6,2006*64
[2021-02-22 15:11:37.298] $GNGGA,061136.70,3713.896772853,N,13701.437978098,E,4,10,1.74,92.541,M,37.565,M,89.7,2006*6B
[2021-02-22 15:11:37.392] $GNGGA,061136.80,3713.896773487,N,13701.437978401,E,4,10,1.74,92.538,M,37.565,M,89.8,2006*65
[2021-02-22 15:11:37.486] $GNGGA,061136.90,3713.896771995,N,13701.437979643,E,4,10,1.74,92.539,M,37.565,M,89.9,2006*6D
[2021-02-22 15:11:37.611] $GNGGA,061137.00,3713.896773918,N,13701.437978702,E,4,09,1.99,92.539,M,37.565,M,90.0,2006*6D
[2021-02-22 15:11:37.689] $GNGGA,061137.10,3713.896773481,N,13701.437979874,E,4,10,1.74,92.535,M,37.565,M,90.1,2006*68
[2021-02-22 15:11:37.798] $GNGGA,061137.20,3713.896774761,N,13701.437980653,E,4,09,1.99,92.534,M,37.565,M,90.2,2006*65
[2021-02-22 15:11:37.892] $GNGGA,061137.30,3713.896775070,N,13701.437986636,E,4,10,1.74,92.554,M,37.565,M,90.3,2006*6B
[2021-02-22 15:11:38.017] $GNGGA,061137.40,3713.896774266,N,13701.437986348,E,4,10,1.74,92.553,M,37.565,M,90.4,2006*64
[2021-02-22 15:11:38.095] $GNGGA,061137.50,3713.896775154,N,13701.437987618,E,4,10,1.74,92.554,M,37.565,M,90.5,2006*61
[2021-02-22 15:11:38.189] $GNGGA,061137.60,3713.896776691,N,13701.437983576,E,4,10,1.74,92.535,M,37.565,M,90.6,2006*64
[2021-02-22 15:11:38.298] $GNGGA,061137.70,3713.896776454,N,13701.437983383,E,4,10,1.74,92.536,M,37.565,M,90.7,2006*60
[2021-02-22 15:11:38.407] $GNGGA,061137.80,3713.896777089,N,13701.437982524,E,4,10,1.74,92.535,M,37.565,M,90.8,2006*6C
[2021-02-22 15:11:38.485] $GNGGA,061137.90,3713.896776836,N,13701.437981390,E,4,10,1.74,92.530,M,37.565,M,90.9,2006*6E
[2021-02-22 15:11:38.595] $GNGGA,061138.00,3713.896775765,N,13701.437980813,E,4,10,1.74,92.539,M,37.565,M,91.0,2006*62
[2021-02-22 15:11:38.689] $GNGGA,061138.10,3713.896774216,N,13701.437980110,E,4,10,1.74,92.539,M,37.565,M,91.1,2006*68
[2021-02-22 15:11:38.814] $GNGGA,061138.20,3713.896775418,N,13701.437979391,E,4,10,1.74,92.534,M,37.565,M,91.2,2006*61
[2021-02-22 15:11:38.892] $GNGGA,061138.30,3713.896776309,N,13701.437979603,E,4,10,1.74,92.534,M,37.565,M,91.3,2006*6B
[2021-02-22 15:11:38.985] $GNGGA,061138.40,3713.896776311,N,13701.437979953,E,4,10,1.74,92.537,M,37.565,M,91.4,2006*6B
