
[2021-02-22 15:16:51.402] $GPGGA,061657.80,,,,,0,00,0.0,,M,,M,0,0000*5D
[2021-02-22 15:16:51.418] $GPGGA,061657.90,,,,,0,00,0.0,,M,,M,0,0000*5C
[2021-02-22 15:16:51.418] $GPGGA,061658.00,,,,,0,00,0.0,,M,,M,0,0000*5A
[2021-02-22 15:16:51.418] $GPGGA,061658.10,,,,,0,00,0.0,,M,,M,0,0000*5B
[2021-02-22 15:16:51.418] $GPGGA,061658.20,,,,,0,00,0.0,,M,,M,0,0000*58
[2021-02-22 15:16:51.418] $GPGGA,061658.30,,,,,0,00,0.0,,M,,M,0,0000*59
[2021-02-22 15:16:51.418] $GPGGA,061658.40,,,,,0,00,0.0,,M,,M,0,0000*5E
[2021-02-22 15:16:51.418] $GPGGA,061658.50,,,,,0,00,0.0,,M,,M,0,0000*5F
[2021-02-22 15:16:51.418] $GPGGA,061658.60,,,,,0,00,0.0,,M,,M,0,0000*5C
[2021-02-22 15:16:51.418] $GPGGA,061658.70,,,,,0,00,0.0,,M,,M,0,0000*5D
[2021-02-22 15:16:51.418] $GPGGA,061658.80,,,,,0,00,0.0,,M,,M,0,0000*52
[2021-02-22 15:16:51.418] $GPGGA,061658.90,,,,,0,00,0.0,,M,,M,0,0000*53
[2021-02-22 15:16:51.418] $GPGGA,061659.00,,,,,0,00,0.0,,M,,M,0,0000*5B
[2021-02-22 15:16:51.418] $GPGGA,061659.10,,,,,0,00,0.0,,M,,M,0,0000*5A
[2021-02-22 15:16:51.418] $GPGGA,061659.20,,,,,0,00,0.0,,M,,M,0,0000*59
[2021-02-22 15:16:51.418] $GPGGA,061659.30,,,,,0,00,0.0,,M,,M,0,0000*58
[2021-02-22 15:16:51.418] $GPGGA,061659.40,,,,,0,00,0.0,,M,,M,0,0000*5F
[2021-02-22 15:16:51.418] $GPGGA,061659.50,,,,,0,00,0.0,,M,,M,0,0000*5E
[2021-02-22 15:16:51.418] $GPGGA,061659.60,,,,,0,00,0.0,,M,,M,0,0000*5D
[2021-02-22 15:16:51.418] $GPGGA,061659.70,,,,,0,00,0.0,,M,,M,0,0000*5C
[2021-02-22 15:16:51.418] $GPGGA,061659.80,,,,,0,00,0.0,,M,,M,0,0000*53
[2021-02-22 15:16:51.418] $GPGGA,061659.90,,,,,0,00,0.0,,M,,M,0,0000*52
[2021-02-22 15:16:51.418] $GPGGA,061700.00,,,,,0,00,0.0,,M,,M,0,0000*56
[2021-02-22 15:16:51.449] $GPGGA,061700.10,,,,,0,00,0.0,,M,,M,0,0000*57
[2021-02-22 15:16:51.449] $GPGGA,061700.20,,,,,0,00,0.0,,M,,M,0,0000*54
[2021-02-22 15:16:51.449] $GPGGA,061700.30,,,,,0,00,0.0,,M,,M,0,0000*55
[2021-02-22 15:16:51.449] $GPGGA,061700.40,,,,,0,00,0.0,,M,,M,0,0000*52
[2021-02-22 15:16:51.449] $GPGGA,061700.50,,,,,0,00,0.0,,M,,M,0,0000*53
[2021-02-22 15:16:51.449] $GPGGA,061700.60,,,,,0,00,0.0,,M,,M,0,0000*50
[2021-02-22 15:16:51.449] $GPGGA,061700.70,,,,,0,00,0.0,,M,,M,0,0000*51
[2021-02-22 15:16:51.449] $GPGGA,061700.80,,,,,0,00,0.0,,M,,M,0,0000*5E
[2021-02-22 15:16:51.449] $GPGGA,061700.90,,,,,0,00,0.0,,M,,M,0,0000*5F
[2021-02-22 15:16:51.449] $GPGGA,061701.00,,,,,0,00,0.0,,M,,M,0,0000*57
[2021-02-22 15:16:51.449] $GPGGA,061701.10,,,,,0,00,0.0,,M,,M,0,0000*56
[2021-02-22 15:16:51.449] $GPGGA,061701.20,,,,,0,00,0.0,,M,,M,0,0000*55
[2021-02-22 15:16:51.449] $GPGGA,061701.30,,,,,0,00,0.0,,M,,M,0,0000*54
[2021-02-22 15:16:51.449] $GPGGA,061701.40,,,,,0,00,0.0,,M,,M,0,0000*53
[2021-02-22 15:16:51.449] $GPGGA,061701.50,,,,,0,00,0.0,,M,,M,0,0000*52
[2021-02-22 15:16:51.449] $GPGGA,061701.60,,,,,0,00,0.0,,M,,M,0,0000*51
[2021-02-22 15:16:51.449] $GPGGA,061701.70,,,,,0,00,0.0,,M,,M,0,0000*50
[2021-02-22 15:16:51.449] $GPGGA,061701.80,,,,,0,00,0.0,,M,,M,0,0000*5F
[2021-02-22 15:16:51.449] $GPGGA,061701.90,,,,,0,00,0.0,,M,,M,0,0000*5E
[2021-02-22 15:16:51.449] $GPGGA,061702.00,,,,,0,00,0.0,,M,,M,0,0000*54
[2021-02-22 15:16:51.449] $GPGGA,061702.10,,,,,0,00,0.0,,M,,M,0,0000*55
[2021-02-22 15:16:51.449] $GPGGA,061702.20,,,,,0,00,0.0,,M,,M,0,0000*56
[2021-02-22 15:16:51.465] $GPGGA,061702.30,,,,,0,00,0.0,,M,,M,0,0000*57
[2021-02-22 15:16:51.465] $GPGGA,061702.40,,,,,0,00,0.0,,M,,M,0,0000*50
[2021-02-22 15:16:51.465] $GPGGA,061702.50,,,,,0,00,0.0,,M,,M,0,0000*51
[2021-02-22 15:16:51.465] $GPGGA,061702.60,,,,,0,00,0.0,,M,,M,0,0000*52
[2021-02-22 15:16:51.465] $GPGGA,061702.70,,,,,0,00,0.0,,M,,M,0,0000*53
[2021-02-22 15:16:51.465] $GPGGA,061702.80,,,,,0,00,0.0,,M,,M,0,0000*5C
[2021-02-22 15:16:51.465] $GPGGA,061702.90,,,,,0,00,0.0,,M,,M,0,0000*5D
[2021-02-22 15:16:51.465] $GPGGA,061703.00,,,,,0,00,0.0,,M,,M,0,0000*55
[2021-02-22 15:16:51.465] $GPGGA,061703.10,,,,,0,00,0.0,,M,,M,0,0000*54
[2021-02-22 15:16:51.465] $GPGGA,061703.20,,,,,0,00,0.0,,M,,M,0,0000*57
[2021-02-22 15:16:51.465] $GPGGA,061703.30,,,,,0,00,0.0,,M,,M,0,0000*56
[2021-02-22 15:16:51.465] $GPGGA,061703.40,,,,,0,00,0.0,,M,,M,0,0000*51
[2021-02-22 15:16:51.465] $GPGGA,061703.50,,,,,0,00,0.0,,M,,M,0,0000*50
[2021-02-22 15:16:51.465] $GPGGA,061703.60,,,,,0,00,0.0,,M,,M,0,0000*53
[2021-02-22 15:16:51.465] $GPGGA,061703.70,,,,,0,00,0.0,,M,,M,0,0000*52
[2021-02-22 15:16:51.465] $GPGGA,061703.80,,,,,0,00,0.0,,M,,M,0,0000*5D
[2021-02-22 15:16:51.465] $GPGGA,061703.90,,,,,0,00,0.0,,M,,M,0,0000*5C
[2021-02-22 15:16:51.465] $GPGGA,061704.00,,,,,0,00,0.0,,M,,M,0,0000*52
[2021-02-22 15:16:51.465] $GPGGA,061704.10,,,,,0,00,0.0,,M,,M,0,0000*53
[2021-02-22 15:16:51.465] $GPGGA,061704.20,,,,,0,00,0.0,,M,,M,0,0000*50
[2021-02-22 15:16:51.465] $GPGGA,061704.30,,,,,0,00,0.0,,M,,M,0,0000*51
[2021-02-22 15:16:51.481] $GPGGA,061704.40,,,,,0,00,0.0,,M,,M,0,0000*56
[2021-02-22 15:16:51.481] $GPGGA,061704.50,,,,,0,00,0.0,,M,,M,0,0000*57
[2021-02-22 15:16:51.481] $GPGGA,061704.60,,,,,0,00,0.0,,M,,M,0,0000*54
[2021-02-22 15:16:51.481] $GPGGA,061704.70,,,,,0,00,0.0,,M,,M,0,0000*55
[2021-02-22 15:16:51.481] $GPGGA,061704.80,,,,,0,00,0.0,,M,,M,0,0000*5A
[2021-02-22 15:16:51.481] $GPGGA,061704.90,,,,,0,00,0.0,,M,,M,0,0000*5B
[2021-02-22 15:16:51.481] $GPGGA,061705.00,,,,,0,00,0.0,,M,,M,0,0000*53
[2021-02-22 15:16:51.481] $GPGGA,061705.10,,,,,0,00,0.0,,M,,M,0,0000*52
[2021-02-22 15:16:51.481] $GPGGA,061705.20,,,,,0,00,0.0,,M,,M,0,0000*51
[2021-02-22 15:16:51.481] $GPGGA,061705.30,,,,,0,00,0.0,,M,,M,0,0000*50
[2021-02-22 15:16:51.481] $GPGGA,061705.40,,,,,0,00,0.0,,M,,M,0,0000*57
[2021-02-22 15:16:51.481] $GPGGA,061705.50,,,,,0,00,0.0,,M,,M,0,0000*56
[2021-02-22 15:16:51.481] $GPGGA,061705.60,,,,,0,00,0.0,,M,,M,0,0000*55
[2021-02-22 15:16:51.481] $GPGGA,061705.70,,,,,0,00,0.0,,M,,M,0,0000*54
[2021-02-22 15:16:51.481] $GPGGA,061705.80,,,,,0,00,0.0,,M,,M,0,0000*5B
[2021-02-22 15:16:51.481] $GPGGA,061705.90,,,,,0,00,0.0,,M,,M,0,0000*5A
[2021-02-22 15:16:51.481] $GPGGA,061706.00,,,,,0,00,0.0,,M,,M,0,0000*50
[2021-02-22 15:16:51.481] $GPGGA,061706.10,,,,,0,00,0.0,,M,,M,0,0000*51
[2021-02-22 15:16:51.481] $GPGGA,061706.20,,,,,0,00,0.0,,M,,M,0,0000*52
[2021-02-22 15:16:51.481] $GPGGA,061706.30,,,,,0,00,0.0,,M,,M,0,0000*53
[2021-02-22 15:16:51.481] $GPGGA,061706.40,,,,,0,00,0.0,,M,,M,0,0000*54
[2021-02-22 15:16:51.481] $GPGGA,061706.50,,,,,0,00,0.0,,M,,M,0,0000*55
[2021-02-22 15:16:51.496] $GPGGA,061706.60,,,,,0,00,0.0,,M,,M,0,0000*56
[2021-02-22 15:16:51.496] $GPGGA,061706.70,,,,,0,00,0.0,,M,,M,0,0000*57
[2021-02-22 15:16:51.496] $GPGGA,061706.80,,,,,0,00,0.0,,M,,M,0,0000*58
[2021-02-22 15:16:51.496] $GPGGA,061706.90,,,,,0,00,0.0,,M,,M,0,0000*59
[2021-02-22 15:16:51.496] $GPGGA,061707.00,,,,,0,00,0.0,,M,,M,0,0000*51
[2021-02-22 15:16:51.496] $GPGGA,061707.10,,,,,0,00,0.0,,M,,M,0,0000*50
[2021-02-22 15:16:51.496] $GPGGA,061707.20,,,,,0,00,0.0,,M,,M,0,0000*53
[2021-02-22 15:16:51.496] $GPGGA,061707.30,,,,,0,00,0.0,,M,,M,0,0000*52
[2021-02-22 15:16:51.496] $GPGGA,061707.40,,,,,0,00,0.0,,M,,M,0,0000*55
[2021-02-22 15:16:51.496] $GPGGA,061707.50,,,,,0,00,0.0,,M,,M,0,0000*54
[2021-02-22 15:16:51.496] $GPGGA,061707.60,,,,,0,00,0.0,,M,,M,0,0000*57
[2021-02-22 15:16:51.496] $GPGGA,061707.70,,,,,0,00,0.0,,M,,M,0,0000*56
[2021-02-22 15:16:51.496] $GPGGA,061707.80,,,,,0,00,0.0,,M,,M,0,0000*59
[2021-02-22 15:16:51.496] $GPGGA,061707.90,,,,,0,00,0.0,,M,,M,0,0000*58
[2021-02-22 15:16:51.496] $GPGGA,061708.00,,,,,0,00,0.0,,M,,M,0,0000*5E
[2021-02-22 15:16:51.496] $GPGGA,061708.10,,,,,0,00,0.0,,M,,M,0,0000*5F
[2021-02-22 15:16:51.496] $GPGGA,061708.20,,,,,0,00,0.0,,M,,M,0,0000*5C
[2021-02-22 15:16:51.496] $GPGGA,061708.30,,,,,0,00,0.0,,M,,M,0,0000*5D
[2021-02-22 15:16:51.496] $GPGGA,061708.40,,,,,0,00,0.0,,M,,M,0,0000*5A
[2021-02-22 15:16:51.496] $GPGGA,061708.50,,,,,0,00,0.0,,M,,M,0,0000*5B
[2021-02-22 15:16:51.496] $GPGGA,061708.60,,,,,0,00,0.0,,M,,M,0,0000*58
[2021-02-22 15:16:51.496] $GPGGA,061708.70,,,,,0,00,0.0,,M,,M,0,0000*59
[2021-02-22 15:16:51.496] $GPGGA,061708.80,,,,,0,00,0.0,,M,,M,0,0000*56
[2021-02-22 15:16:51.496] $GPGGA,061708.90,,,,,0,00,0.0,,M,,M,0,0000*57
[2021-02-22 15:16:51.496] $GPGGA,061709.00,,,,,0,00,0.0,,M,,M,0,0000*5F
[2021-02-22 15:16:51.496] $GPGGA,061709.10,,,,,0,00,0.0,,M,,M,0,0000*5E
[2021-02-22 15:16:51.606] $GPGGA,061709.20,,,,,0,00,0.0,,M,,M,0,0000*5D
[2021-02-22 15:16:51.699] $GPGGA,061709.30,,,,,0,00,0.0,,M,,M,0,0000*5C
[2021-02-22 15:16:51.793] $GPGGA,061709.40,,,,,0,00,0.0,,M,,M,0,0000*5B
[2021-02-22 15:16:51.887] $GPGGA,061709.50,,,,,0,00,0.0,,M,,M,0,0000*5A
[2021-02-22 15:16:51.981] $GPGGA,061709.60,,,,,0,00,0.0,,M,,M,0,0000*59
[2021-02-22 15:16:52.106] $GPGGA,061709.70,,,,,0,00,0.0,,M,,M,0,0000*58
[2021-02-22 15:16:52.199] $GPGGA,061709.80,,,,,0,00,0.0,,M,,M,0,0000*57
[2021-02-22 15:16:52.293] $GPGGA,061709.90,,,,,0,00,0.0,,M,,M,0,0000*56
[2021-02-22 15:16:52.387] $GPGGA,061710.00,,,,,0,00,0.0,,M,,M,0,0000*57
[2021-02-22 15:16:52.496] $GPGGA,061710.10,,,,,0,00,0.0,,M,,M,0,0000*56
[2021-02-22 15:16:52.605] $GPGGA,061710.20,,,,,0,00,0.0,,M,,M,0,0000*55
[2021-02-22 15:16:52.684] $GPGGA,061710.30,,,,,0,00,0.0,,M,,M,0,0000*54
[2021-02-22 15:16:52.809] $GPGGA,061710.40,,,,,0,00,0.0,,M,,M,0,0000*53
[2021-02-22 15:16:52.902] $GPGGA,061710.50,,,,,0,00,0.0,,M,,M,0,0000*52
[2021-02-22 15:16:52.996] $GPGGA,061710.60,,,,,0,00,0.0,,M,,M,0,0000*51
[2021-02-22 15:16:53.090] $GPGGA,061710.70,,,,,0,00,0.0,,M,,M,0,0000*50
[2021-02-22 15:16:53.199] $GPGGA,061710.80,,,,,0,00,0.0,,M,,M,0,0000*5F
[2021-02-22 15:16:53.293] $GPGGA,061710.90,,,,,0,00,0.0,,M,,M,0,0000*5E
[2021-02-22 15:16:53.402] $GPGGA,061711.00,,,,,0,00,0.0,,M,,M,0,0000*56
[2021-02-22 15:16:53.496] $GPGGA,061711.10,,,,,0,00,0.0,,M,,M,0,0000*57
[2021-02-22 15:16:53.605] $GPGGA,061711.20,,,,,0,00,0.0,,M,,M,0,0000*54
[2021-02-22 15:16:53.699] $GPGGA,061711.30,,,,,0,00,0.0,,M,,M,0,0000*55
[2021-02-22 15:16:53.793] $GPGGA,061711.40,,,,,0,00,0.0,,M,,M,0,0000*52
[2021-02-22 15:16:53.887] $GPGGA,061711.50,,,,,0,00,0.0,,M,,M,0,0000*53
[2021-02-22 15:16:54.012] $GPGGA,061711.60,,,,,0,00,0.0,,M,,M,0,0000*50
[2021-02-22 15:16:54.105] $GPGGA,061711.70,,,,,0,00,0.0,,M,,M,0,0000*51
[2021-02-22 15:16:54.199] $GPGGA,061711.80,,,,,0,00,0.0,,M,,M,0,0000*5E
[2021-02-22 15:16:54.309] $GPGGA,061711.90,,,,,0,00,0.0,,M,,M,0,0000*5F
[2021-02-22 15:16:54.402] $GPGGA,061712.00,,,,,0,00,0.0,,M,,M,0,0000*55
[2021-02-22 15:16:54.496] $GPGGA,061712.10,,,,,0,00,0.0,,M,,M,0,0000*54
[2021-02-22 15:16:54.590] $GPGGA,061712.20,,,,,0,00,0.0,,M,,M,0,0000*57
[2021-02-22 15:16:54.699] $GPGGA,061712.30,,,,,0,00,0.0,,M,,M,0,0000*56
[2021-02-22 15:16:54.808] $GPGGA,061712.40,,,,,0,00,0.0,,M,,M,0,0000*51
[2021-02-22 15:16:54.902] $GPGGA,061712.50,,,,,0,00,0.0,,M,,M,0,0000*50
[2021-02-22 15:16:54.996] $GPGGA,061712.60,,,,,0,00,0.0,,M,,M,0,0000*53
[2021-02-22 15:16:55.105] $GPGGA,061712.70,,,,,0,00,0.0,,M,,M,0,0000*52
[2021-02-22 15:16:55.199] $GPGGA,061712.80,,,,,0,00,0.0,,M,,M,0,0000*5D
[2021-02-22 15:16:55.293] $GPGGA,061712.90,,,,,0,00,0.0,,M,,M,0,0000*5C
[2021-02-22 15:16:55.402] $GPGGA,061713.00,,,,,0,00,0.0,,M,,M,0,0000*54
[2021-02-22 15:16:55.480] $GPGGA,061713.10,,,,,0,00,0.0,,M,,M,0,0000*55
[2021-02-22 15:16:55.605] $GPGGA,061713.20,,,,,0,00,0.0,,M,,M,0,0000*56
[2021-02-22 15:16:55.699] $GPGGA,061713.30,,,,,0,00,0.0,,M,,M,0,0000*57
[2021-02-22 15:16:55.793] $GPGGA,061713.40,,,,,0,00,0.0,,M,,M,0,0000*50
[2021-02-22 15:16:55.887] $GPGGA,061713.50,,,,,0,00,0.0,,M,,M,0,0000*51
[2021-02-22 15:16:55.980] $GPGGA,061713.60,,,,,0,00,0.0,,M,,M,0,0000*52
[2021-02-22 15:16:56.090] $GPGGA,061713.70,,,,,0,00,0.0,,M,,M,0,0000*53
[2021-02-22 15:16:56.199] $GPGGA,061713.80,,,,,0,00,0.0,,M,,M,0,0000*5C
[2021-02-22 15:16:56.293] $GPGGA,061713.90,,,,,0,00,0.0,,M,,M,0,0000*5D
[2021-02-22 15:16:56.402] $GPGGA,061714.00,,,,,0,00,0.0,,M,,M,0,0000*53
[2021-02-22 15:16:56.496] $GPGGA,061714.10,,,,,0,00,0.0,,M,,M,0,0000*52
[2021-02-22 15:16:56.590] $GPGGA,061714.20,,,,,0,00,0.0,,M,,M,0,0000*51
[2021-02-22 15:16:56.683] $GPGGA,061714.30,,,,,0,00,0.0,,M,,M,0,0000*50
[2021-02-22 15:16:56.808] $GPGGA,061714.40,,,,,0,00,0.0,,M,,M,0,0000*57
[2021-02-22 15:16:56.902] $GPGGA,061714.50,,,,,0,00,0.0,,M,,M,0,0000*56
[2021-02-22 15:16:56.996] $GPGGA,061714.60,,,,,0,00,0.0,,M,,M,0,0000*55
[2021-02-22 15:16:57.090] $GPGGA,061714.70,,,,,0,00,0.0,,M,,M,0,0000*54
[2021-02-22 15:16:57.199] $GPGGA,061714.80,,,,,0,00,0.0,,M,,M,0,0000*5B
[2021-02-22 15:16:57.293] $GPGGA,061714.90,,,,,0,00,0.0,,M,,M,0,0000*5A
[2021-02-22 15:16:57.402] $GPGGA,061715.00,,,,,0,00,0.0,,M,,M,0,0000*52
[2021-02-22 15:16:57.480] $GPGGA,061715.10,,,,,0,00,0.0,,M,,M,0,0000*53
[2021-02-22 15:16:57.605] $GPGGA,061715.20,,,,,0,00,0.0,,M,,M,0,0000*50
[2021-02-22 15:16:57.699] $GPGGA,061715.30,,,,,0,00,0.0,,M,,M,0,0000*51
[2021-02-22 15:16:57.793] $GPGGA,061715.40,,,,,0,00,0.0,,M,,M,0,0000*56
[2021-02-22 15:16:57.902] $GPGGA,061715.50,,,,,0,00,0.0,,M,,M,0,0000*57
[2021-02-22 15:16:58.011] $GPGGA,061715.60,,,,,0,00,0.0,,M,,M,0,0000*54
[2021-02-22 15:16:58.090] $GPGGA,061715.70,,,,,0,00,0.0,,M,,M,0,0000*55
[2021-02-22 15:16:58.199] $GPGGA,061715.80,,,,,0,00,0.0,,M,,M,0,0000*5A
[2021-02-22 15:16:58.308] $GPGGA,061715.90,,,,,0,00,0.0,,M,,M,0,0000*5B
[2021-02-22 15:16:58.402] $GPGGA,061716.00,,,,,0,00,0.0,,M,,M,0,0000*51
[2021-02-22 15:16:58.496] $GPGGA,061716.10,,,,,0,00,0.0,,M,,M,0,0000*50
[2021-02-22 15:16:58.590] $GPGGA,061716.20,,,,,0,00,0.0,,M,,M,0,0000*53
[2021-02-22 15:16:58.699] $GPGGA,061716.30,,,,,0,00,0.0,,M,,M,0,0000*52
[2021-02-22 15:16:58.808] $GPGGA,061716.40,,,,,0,00,0.0,,M,,M,0,0000*55
[2021-02-22 15:16:58.902] $GPGGA,061716.50,,,,,0,00,0.0,,M,,M,0,0000*54
[2021-02-22 15:16:58.996] $GPGGA,061716.60,,,,,0,00,0.0,,M,,M,0,0000*57
[2021-02-22 15:16:59.105] $GPGGA,061716.70,,,,,0,00,0.0,,M,,M,0,0000*56
[2021-02-22 15:16:59.199] $GPGGA,061716.80,,,,,0,00,0.0,,M,,M,0,0000*59
[2021-02-22 15:16:59.293] $GPGGA,061716.90,,,,,0,00,0.0,,M,,M,0,0000*58
[2021-02-22 15:16:59.386] $GPGGA,061717.00,,,,,0,00,0.0,,M,,M,0,0000*50
[2021-02-22 15:16:59.480] $GPGGA,061717.10,,,,,0,00,0.0,,M,,M,0,0000*51
[2021-02-22 15:16:59.605] $GPGGA,061717.20,,,,,0,00,0.0,,M,,M,0,0000*52
[2021-02-22 15:16:59.699] $GPGGA,061717.30,,,,,0,00,0.0,,M,,M,0,0000*53
[2021-02-22 15:16:59.793] $GPGGA,061717.40,,,,,0,00,0.0,,M,,M,0,0000*54
[2021-02-22 15:16:59.886] $GPGGA,061717.50,,,,,0,00,0.0,,M,,M,0,0000*55
[2021-02-22 15:16:59.996] $GPGGA,061717.60,,,,,0,00,0.0,,M,,M,0,0000*56
[2021-02-22 15:17:00.105] $GPGGA,061717.70,,,,,0,00,0.0,,M,,M,0,0000*57
[2021-02-22 15:17:00.183] $GPGGA,061717.80,,,,,0,00,0.0,,M,,M,0,0000*58
[2021-02-22 15:17:00.292] $GPGGA,061717.90,,,,,0,00,0.0,,M,,M,0,0000*59
[2021-02-22 15:17:00.402] $GPGGA,061718.00,,,,,0,00,0.0,,M,,M,0,0000*5F
[2021-02-22 15:17:00.496] $GPGGA,061718.10,,,,,0,00,0.0,,M,,M,0,0000*5E
[2021-02-22 15:17:00.589] $GPGGA,061718.20,,,,,0,00,0.0,,M,,M,0,0000*5D
[2021-02-22 15:17:00.683] $GPGGA,061718.30,,,,,0,00,0.0,,M,,M,0,0000*5C
[2021-02-22 15:17:00.808] $GPGGA,061718.40,,,,,0,00,0.0,,M,,M,0,0000*5B
[2021-02-22 15:17:00.902] $GPGGA,061718.50,,,,,0,00,0.0,,M,,M,0,0000*5A
[2021-02-22 15:17:00.996] $GPGGA,061718.60,,,,,0,00,0.0,,M,,M,0,0000*59
[2021-02-22 15:17:01.089] $GPGGA,061718.70,,,,,0,00,0.0,,M,,M,0,0000*58
[2021-02-22 15:17:01.199] $GPGGA,061718.80,,,,,0,00,0.0,,M,,M,0,0000*57
[2021-02-22 15:17:01.308] $GPGGA,061718.90,,,,,0,00,0.0,,M,,M,0,0000*56
[2021-02-22 15:17:01.386] $GPGGA,061719.00,,,,,0,00,0.0,,M,,M,0,0000*5E
[2021-02-22 15:17:01.511] $GPGGA,061719.10,,,,,0,00,0.0,,M,,M,0,0000*5F
[2021-02-22 15:17:01.605] $GPGGA,061719.20,,,,,0,00,0.0,,M,,M,0,0000*5C
[2021-02-22 15:17:01.699] $GPGGA,061719.30,,,,,0,00,0.0,,M,,M,0,0000*5D
[2021-02-22 15:17:01.792] $GPGGA,061719.40,,,,,0,00,0.0,,M,,M,0,0000*5A
[2021-02-22 15:17:01.902] $GPGGA,061719.50,,,,,0,00,0.0,,M,,M,0,0000*5B
[2021-02-22 15:17:01.995] $GPGGA,061719.60,,,,,0,00,0.0,,M,,M,0,0000*58
[2021-02-22 15:17:02.105] $GPGGA,061719.70,,,,,0,00,0.0,,M,,M,0,0000*59
[2021-02-22 15:17:02.183] $GPGGA,061719.80,,,,,0,00,0.0,,M,,M,0,0000*56
[2021-02-22 15:17:02.308] $GPGGA,061719.90,,,,,0,00,0.0,,M,,M,0,0000*57
[2021-02-22 15:17:02.402] $GPGGA,061720.00,,,,,0,00,0.0,,M,,M,0,0000*54
[2021-02-22 15:17:02.495] $GPGGA,061720.10,,,,,0,00,0.0,,M,,M,0,0000*55
[2021-02-22 15:17:02.589] $GPGGA,061720.20,,,,,0,00,0.0,,M,,M,0,0000*56
[2021-02-22 15:17:02.699] $GPGGA,061720.30,,,,,0,00,0.0,,M,,M,0,0000*57
[2021-02-22 15:17:02.808] $GPGGA,061720.40,,,,,0,00,0.0,,M,,M,0,0000*50
[2021-02-22 15:17:02.902] $GPGGA,061720.50,,,,,0,00,0.0,,M,,M,0,0000*51
[2021-02-22 15:17:02.995] $GPGGA,061720.60,,,,,0,00,0.0,,M,,M,0,0000*52
[2021-02-22 15:17:03.105] $GPGGA,061720.70,,,,,0,00,0.0,,M,,M,0,0000*53
[2021-02-22 15:17:03.199] $GPGGA,061720.80,,,,,0,00,0.0,,M,,M,0,0000*5C
[2021-02-22 15:17:03.292] $GPGGA,061720.90,,,,,0,00,0.0,,M,,M,0,0000*5D
[2021-02-22 15:17:03.386] $GPGGA,061721.00,,,,,0,00,0.0,,M,,M,0,0000*55
[2021-02-22 15:17:03.495] $GPGGA,061721.10,,,,,0,00,0.0,,M,,M,0,0000*54
[2021-02-22 15:17:03.605] $GPGGA,061721.20,,,,,0,00,0.0,,M,,M,0,0000*57
[2021-02-22 15:17:03.698] $GPGGA,061721.30,,,,,0,00,0.0,,M,,M,0,0000*56
[2021-02-22 15:17:03.792] $GPGGA,061721.40,,,,,0,00,0.0,,M,,M,0,0000*51
[2021-02-22 15:17:03.886] $GPGGA,061721.50,,,,,0,00,0.0,,M,,M,0,0000*50
[2021-02-22 15:17:03.995] $GPGGA,061721.60,,,,,0,00,0.0,,M,,M,0,0000*53
[2021-02-22 15:17:04.089] $GPGGA,061721.70,,,,,0,00,0.0,,M,,M,0,0000*52
[2021-02-22 15:17:04.183] $GPGGA,061721.80,,,,,0,00,0.0,,M,,M,0,0000*5D
[2021-02-22 15:17:04.292] $GPGGA,061721.90,,,,,0,00,0.0,,M,,M,0,0000*5C
[2021-02-22 15:17:04.402] $GPGGA,061722.00,,,,,0,00,0.0,,M,,M,0,0000*56
[2021-02-22 15:17:04.495] $GPGGA,061722.10,,,,,0,00,0.0,,M,,M,0,0000*57
[2021-02-22 15:17:04.589] $GPGGA,061722.20,,,,,0,00,0.0,,M,,M,0,0000*54
[2021-02-22 15:17:04.683] $GPGGA,061722.30,,,,,0,00,0.0,,M,,M,0,0000*55
[2021-02-22 15:17:04.792] $GPGGA,061722.40,,,,,0,00,0.0,,M,,M,0,0000*52
[2021-02-22 15:17:04.902] $GPGGA,061722.50,,,,,0,00,0.0,,M,,M,0,0000*53
[2021-02-22 15:17:04.995] $GPGGA,061722.60,,,,,0,00,0.0,,M,,M,0,0000*50
[2021-02-22 15:17:05.105] $GPGGA,061722.70,,,,,0,00,0.0,,M,,M,0,0000*51
[2021-02-22 15:17:05.198] $GPGGA,061722.80,,,,,0,00,0.0,,M,,M,0,0000*5E
[2021-02-22 15:17:05.292] $GPGGA,061722.90,,,,,0,00,0.0,,M,,M,0,0000*5F
[2021-02-22 15:17:05.386] $GPGGA,061723.00,,,,,0,00,0.0,,M,,M,0,0000*57
[2021-02-22 15:17:05.511] $GPGGA,061723.10,,,,,0,00,0.0,,M,,M,0,0000*56
[2021-02-22 15:17:05.605] $GPGGA,061723.20,,,,,0,00,0.0,,M,,M,0,0000*55
[2021-02-22 15:17:05.698] $GPGGA,061723.30,,,,,0,00,0.0,,M,,M,0,0000*54
[2021-02-22 15:17:05.792] $GPGGA,061723.40,,,,,0,00,0.0,,M,,M,0,0000*53
[2021-02-22 15:17:05.901] $GPGGA,061723.50,,,,,0,00,0.0,,M,,M,0,0000*52
[2021-02-22 15:17:05.995] $GPGGA,061723.60,,,,,0,00,0.0,,M,,M,0,0000*51
[2021-02-22 15:17:06.089] $GPGGA,061723.70,,,,,0,00,0.0,,M,,M,0,0000*50
[2021-02-22 15:17:06.183] $GPGGA,061723.80,,,,,0,00,0.0,,M,,M,0,0000*5F
[2021-02-22 15:17:06.308] $GPGGA,061723.90,,,,,0,00,0.0,,M,,M,0,0000*5E
[2021-02-22 15:17:06.401] $GPGGA,061724.00,,,,,0,00,0.0,,M,,M,0,0000*50
[2021-02-22 15:17:06.495] $GPGGA,061724.10,,,,,0,00,0.0,,M,,M,0,0000*51
[2021-02-22 15:17:06.589] $GPGGA,061724.20,,,,,0,00,0.0,,M,,M,0,0000*52
[2021-02-22 15:17:06.698] $GPGGA,061724.30,,,,,0,00,0.0,,M,,M,0,0000*53
[2021-02-22 15:17:06.792] $GPGGA,061724.40,,,,,0,00,0.0,,M,,M,0,0000*54
[2021-02-22 15:17:06.901] $GPGGA,061724.50,,,,,0,00,0.0,,M,,M,0,0000*55
[2021-02-22 15:17:07.011] $GPGGA,061724.60,,,,,0,00,0.0,,M,,M,0,0000*56
[2021-02-22 15:17:07.104] $GPGGA,061724.70,,,,,0,00,0.0,,M,,M,0,0000*57
[2021-02-22 15:17:07.198] $GPGGA,061724.80,,,,,0,00,0.0,,M,,M,0,0000*58
[2021-02-22 15:17:07.292] $GPGGA,061724.90,,,,,0,00,0.0,,M,,M,0,0000*59
[2021-02-22 15:17:07.386] $GPGGA,061725.00,,,,,0,00,0.0,,M,,M,0,0000*51
[2021-02-22 15:17:07.495] $GPGGA,061725.10,,,,,0,00,0.0,,M,,M,0,0000*50
[2021-02-22 15:17:07.604] $GPGGA,061725.20,,,,,0,00,0.0,,M,,M,0,0000*53
[2021-02-22 15:17:07.698] $GPGGA,061725.30,,,,,0,00,0.0,,M,,M,0,0000*52
[2021-02-22 15:17:07.792] $GPGGA,061725.40,,,,,0,00,0.0,,M,,M,0,0000*55
[2021-02-22 15:17:07.886] $GPGGA,061725.50,,,,,0,00,0.0,,M,,M,0,0000*54
[2021-02-22 15:17:07.995] $GPGGA,061725.60,,,,,0,00,0.0,,M,,M,0,0000*57
[2021-02-22 15:17:08.089] $GPGGA,061725.70,,,,,0,00,0.0,,M,,M,0,0000*56
[2021-02-22 15:17:08.183] $GPGGA,061725.80,,,,,0,00,0.0,,M,,M,0,0000*59
[2021-02-22 15:17:08.292] $GPGGA,061725.90,,,,,0,00,0.0,,M,,M,0,0000*58
[2021-02-22 15:17:08.401] $GPGGA,061726.00,,,,,0,00,0.0,,M,,M,0,0000*52
[2021-02-22 15:17:08.495] $GPGGA,061726.10,,,,,0,00,0.0,,M,,M,0,0000*53
[2021-02-22 15:17:08.589] $GPGGA,061726.20,,,,,0,00,0.0,,M,,M,0,0000*50
[2021-02-22 15:17:08.698] $GPGGA,061726.30,,,,,0,00,0.0,,M,,M,0,0000*51
[2021-02-22 15:17:08.792] $GPGGA,061726.40,,,,,0,00,0.0,,M,,M,0,0000*56
[2021-02-22 15:17:08.901] $GPGGA,061726.50,,,,,0,00,0.0,,M,,M,0,0000*57
[2021-02-22 15:17:08.995] $GPGGA,061726.60,,,,,0,00,0.0,,M,,M,0,0000*54
[2021-02-22 15:17:09.104] $GPGGA,061726.70,,,,,0,00,0.0,,M,,M,0,0000*55
[2021-02-22 15:17:09.198] $GPGGA,061726.80,,,,,0,00,0.0,,M,,M,0,0000*5A
[2021-02-22 15:17:09.292] $GPGGA,061726.90,,,,,0,00,0.0,,M,,M,0,0000*5B
[2021-02-22 15:17:09.386] $GPGGA,061727.00,,,,,0,00,0.0,,M,,M,0,0000*53
[2021-02-22 15:17:09.495] $GPGGA,061727.10,,,,,0,00,0.0,,M,,M,0,0000*52
[2021-02-22 15:17:09.604] $GPGGA,061727.20,,,,,0,00,0.0,,M,,M,0,0000*51
[2021-02-22 15:17:09.698] $GPGGA,061727.30,,,,,0,00,0.0,,M,,M,0,0000*50
[2021-02-22 15:17:09.792] $GPGGA,061727.40,,,,,0,00,0.0,,M,,M,0,0000*57
[2021-02-22 15:17:09.901] $GPGGA,061727.50,,,,,0,00,0.0,,M,,M,0,0000*56
[2021-02-22 15:17:09.995] $GPGGA,061727.60,,,,,0,00,0.0,,M,,M,0,0000*55
[2021-02-22 15:17:10.089] $GPGGA,061727.70,,,,,0,00,0.0,,M,,M,0,0000*54
[2021-02-22 15:17:10.182] $GPGGA,061727.80,,,,,0,00,0.0,,M,,M,0,0000*5B
[2021-02-22 15:17:10.307] $GPGGA,061727.90,,,,,0,00,0.0,,M,,M,0,0000*5A
[2021-02-22 15:17:10.401] $GPGGA,061728.00,,,,,0,00,0.0,,M,,M,0,0000*5C
[2021-02-22 15:17:10.495] $GPGGA,061728.10,,,,,0,00,0.0,,M,,M,0,0000*5D
[2021-02-22 15:17:10.604] $GPGGA,061728.20,,,,,0,00,0.0,,M,,M,0,0000*5E
[2021-02-22 15:17:10.698] $GPGGA,061728.30,,,,,0,00,0.0,,M,,M,0,0000*5F
[2021-02-22 15:17:10.792] $GPGGA,061728.40,,,,,0,00,0.0,,M,,M,0,0000*58
[2021-02-22 15:17:10.901] $GPGGA,061728.50,,,,,0,00,0.0,,M,,M,0,0000*59
[2021-02-22 15:17:11.010] $GPGGA,061728.60,,,,,0,00,0.0,,M,,M,0,0000*5A
[2021-02-22 15:17:11.104] $GPGGA,061728.70,,,,,0,00,0.0,,M,,M,0,0000*5B
[2021-02-22 15:17:11.198] $GPGGA,061728.80,,,,,0,00,0.0,,M,,M,0,0000*54
[2021-02-22 15:17:11.292] $GPGGA,061728.90,,,,,0,00,0.0,,M,,M,0,0000*55
[2021-02-22 15:17:11.401] $GPGGA,061729.00,,,,,0,00,0.0,,M,,M,0,0000*5D
[2021-02-22 15:17:11.510] $GPGGA,061729.10,,,,,0,00,0.0,,M,,M,0,0000*5C
[2021-02-22 15:17:11.604] $GPGGA,061729.20,,,,,0,00,0.0,,M,,M,0,0000*5F
[2021-02-22 15:17:11.698] $GPGGA,061729.30,,,,,0,00,0.0,,M,,M,0,0000*5E
[2021-02-22 15:17:11.792] $GPGGA,061729.40,,,,,0,00,0.0,,M,,M,0,0000*59
[2021-02-22 15:17:11.901] $GPGGA,061729.50,,,,,0,00,0.0,,M,,M,0,0000*58
[2021-02-22 15:17:11.995] $GPGGA,061729.60,,,,,0,00,0.0,,M,,M,0,0000*5B
[2021-02-22 15:17:12.089] $GPGGA,061729.70,,,,,0,00,0.0,,M,,M,0,0000*5A
[2021-02-22 15:17:12.182] $GPGGA,061729.80,,,,,0,00,0.0,,M,,M,0,0000*55
[2021-02-22 15:17:12.307] $GPGGA,061729.90,,,,,0,00,0.0,,M,,M,0,0000*54
[2021-02-22 15:17:12.401] $GPGGA,061730.00,,,,,0,00,0.0,,M,,M,0,0000*55
[2021-02-22 15:17:12.495] $GPGGA,061730.10,,,,,0,00,0.0,,M,,M,0,0000*54
[2021-02-22 15:17:12.589] $GPGGA,061730.20,,,,,0,00,0.0,,M,,M,0,0000*57
[2021-02-22 15:17:12.698] $GPGGA,061730.30,,,,,0,00,0.0,,M,,M,0,0000*56
[2021-02-22 15:17:12.792] $GPGGA,061730.40,,,,,0,00,0.0,,M,,M,0,0000*51
[2021-02-22 15:17:12.901] $GPGGA,061730.50,,,,,0,00,0.0,,M,,M,0,0000*50
[2021-02-22 15:17:12.995] $GPGGA,061730.60,,,,,0,00,0.0,,M,,M,0,0000*53
[2021-02-22 15:17:13.104] $GPGGA,061730.70,,,,,0,00,0.0,,M,,M,0,0000*52
[2021-02-22 15:17:13.198] $GPGGA,061730.80,,,,,0,00,0.0,,M,,M,0,0000*5D
[2021-02-22 15:17:13.292] $GPGGA,061730.90,,,,,0,00,0.0,,M,,M,0,0000*5C
[2021-02-22 15:17:13.385] $GPGGA,061731.00,,,,,0,00,0.0,,M,,M,0,0000*54
[2021-02-22 15:17:13.495] $GPGGA,061731.10,,,,,0,00,0.0,,M,,M,0,0000*55
[2021-02-22 15:17:13.588] $GPGGA,061731.20,,,,,0,00,0.0,,M,,M,0,0000*56
[2021-02-22 15:17:13.698] $GPGGA,061731.30,,,,,0,00,0.0,,M,,M,0,0000*57
[2021-02-22 15:17:13.792] $GPGGA,061731.40,,,,,0,00,0.0,,M,,M,0,0000*50
[2021-02-22 15:17:13.901] $GPGGA,061731.50,,,,,0,00,0.0,,M,,M,0,0000*51
[2021-02-22 15:17:13.995] $GPGGA,061731.60,,,,,0,00,0.0,,M,,M,0,0000*52
[2021-02-22 15:17:14.088] $GPGGA,061731.70,,,,,0,00,0.0,,M,,M,0,0000*53
[2021-02-22 15:17:14.198] $GPGGA,061731.80,,,,,0,00,0.0,,M,,M,0,0000*5C
[2021-02-22 15:17:14.307] $GPGGA,061731.90,,,,,0,00,0.0,,M,,M,0,0000*5D
[2021-02-22 15:17:14.401] $GPGGA,061732.00,,,,,0,00,0.0,,M,,M,0,0000*57
[2021-02-22 15:17:14.495] $GPGGA,061732.10,,,,,0,00,0.0,,M,,M,0,0000*56
[2021-02-22 15:17:14.604] $GPGGA,061732.20,,,,,0,00,0.0,,M,,M,0,0000*55
[2021-02-22 15:17:14.698] $GPGGA,061732.30,,,,,0,00,0.0,,M,,M,0,0000*54
[2021-02-22 15:17:14.792] $GPGGA,061732.40,,,,,0,00,0.0,,M,,M,0,0000*53
[2021-02-22 15:17:14.901] $GPGGA,061732.50,,,,,0,00,0.0,,M,,M,0,0000*52
[2021-02-22 15:17:15.010] $GPGGA,061732.60,,,,,0,00,0.0,,M,,M,0,0000*51
[2021-02-22 15:17:15.104] $GPGGA,061732.70,,,,,0,00,0.0,,M,,M,0,0000*50
[2021-02-22 15:17:15.198] $GPGGA,061732.80,,,,,0,00,0.0,,M,,M,0,0000*5F
[2021-02-22 15:17:15.291] $GPGGA,061732.90,,,,,0,00,0.0,,M,,M,0,0000*5E
[2021-02-22 15:17:15.401] $GPGGA,061733.00,,,,,0,00,0.0,,M,,M,0,0000*56
[2021-02-22 15:17:15.510] $GPGGA,061733.10,,,,,0,00,0.0,,M,,M,0,0000*57
[2021-02-22 15:17:15.588] $GPGGA,061733.20,,,,,0,00,0.0,,M,,M,0,0000*54
[2021-02-22 15:17:15.698] $GPGGA,061733.30,,,,,0,00,0.0,,M,,M,0,0000*55
[2021-02-22 15:17:15.807] $GPGGA,061733.40,,,,,0,00,0.0,,M,,M,0,0000*52
[2021-02-22 15:17:15.901] $GPGGA,061733.50,,,,,0,00,0.0,,M,,M,0,0000*53
[2021-02-22 15:17:15.995] $GPGGA,061733.60,,,,,0,00,0.0,,M,,M,0,0000*50
[2021-02-22 15:17:16.088] $GPGGA,061733.70,,,,,0,00,0.0,,M,,M,0,0000*51
[2021-02-22 15:17:16.213] $GPGGA,061733.80,,,,,0,00,0.0,,M,,M,0,0000*5E
[2021-02-22 15:17:16.307] $GPGGA,061733.90,,,,,0,00,0.0,,M,,M,0,0000*5F
[2021-02-22 15:17:16.401] $GPGGA,061734.00,,,,,0,00,0.0,,M,,M,0,0000*51
[2021-02-22 15:17:16.495] $GPGGA,061734.10,,,,,0,00,0.0,,M,,M,0,0000*50
[2021-02-22 15:17:16.588] $GPGGA,061734.20,,,,,0,00,0.0,,M,,M,0,0000*53
[2021-02-22 15:17:16.698] $GPGGA,061734.30,,,,,0,00,0.0,,M,,M,0,0000*52
[2021-02-22 15:17:16.791] $GPGGA,061734.40,,,,,0,00,0.0,,M,,M,0,0000*55
[2021-02-22 15:17:16.885] $GPGGA,061734.50,,,,,0,00,0.0,,M,,M,0,0000*54
[2021-02-22 15:17:16.994] $GPGGA,061734.60,,,,,0,00,0.0,,M,,M,0,0000*57
[2021-02-22 15:17:17.104] $GPGGA,061734.70,,,,,0,00,0.0,,M,,M,0,0000*56
[2021-02-22 15:17:17.198] $GPGGA,061734.80,,,,,0,00,0.0,,M,,M,0,0000*59
[2021-02-22 15:17:17.291] $GPGGA,061734.90,,,,,0,00,0.0,,M,,M,0,0000*58
[2021-02-22 15:17:17.385] $GPGGA,061735.00,,,,,0,00,0.0,,M,,M,0,0000*50
[2021-02-22 15:17:17.494] $GPGGA,061735.10,,,,,0,00,0.0,,M,,M,0,0000*51
[2021-02-22 15:17:17.588] $GPGGA,061735.20,,,,,0,00,0.0,,M,,M,0,0000*52
[2021-02-22 15:17:17.697] $GPGGA,061735.30,,,,,0,00,0.0,,M,,M,0,0000*53
[2021-02-22 15:17:17.807] $GPGGA,061735.40,,,,,0,00,0.0,,M,,M,0,0000*54
[2021-02-22 15:17:17.901] $GPGGA,061735.50,,,,,0,00,0.0,,M,,M,0,0000*55
[2021-02-22 15:17:17.994] $GPGGA,061735.60,,,,,0,00,0.0,,M,,M,0,0000*56
[2021-02-22 15:17:18.088] $GPGGA,061735.70,,,,,0,00,0.0,,M,,M,0,0000*57
[2021-02-22 15:17:18.213] $GPGGA,061735.80,,,,,0,00,0.0,,M,,M,0,0000*58
[2021-02-22 15:17:18.307] $GPGGA,061735.90,,,,,0,00,0.0,,M,,M,0,0000*59
[2021-02-22 15:17:18.401] $GPGGA,061736.00,,,,,0,00,0.0,,M,,M,0,0000*53
[2021-02-22 15:17:18.494] $GPGGA,061736.10,,,,,0,00,0.0,,M,,M,0,0000*52
[2021-02-22 15:17:18.604] $GPGGA,061736.20,,,,,0,00,0.0,,M,,M,0,0000*51
[2021-02-22 15:17:18.697] $GPGGA,061736.30,,,,,0,00,0.0,,M,,M,0,0000*50
[2021-02-22 15:17:18.791] $GPGGA,061736.40,,,,,0,00,0.0,,M,,M,0,0000*57
[2021-02-22 15:17:18.885] $GPGGA,061736.50,,,,,0,00,0.0,,M,,M,0,0000*56
[2021-02-22 15:17:19.010] $GPGGA,061736.60,,,,,0,00,0.0,,M,,M,0,0000*55
[2021-02-22 15:17:19.104] $GPGGA,061736.70,,,,,0,00,0.0,,M,,M,0,0000*54
[2021-02-22 15:17:19.197] $GPGGA,061736.80,,,,,0,00,0.0,,M,,M,0,0000*5B
[2021-02-22 15:17:19.307] $GPGGA,061736.90,,,,,0,00,0.0,,M,,M,0,0000*5A
[2021-02-22 15:17:19.401] $GPGGA,061737.00,,,,,0,00,0.0,,M,,M,0,0000*52
[2021-02-22 15:17:19.494] $GPGGA,061737.10,,,,,0,00,0.0,,M,,M,0,0000*53
[2021-02-22 15:17:19.588] $GPGGA,061737.20,,,,,0,00,0.0,,M,,M,0,0000*50
[2021-02-22 15:17:19.713] $GPGGA,061737.30,,,,,0,00,0.0,,M,,M,0,0000*51
[2021-02-22 15:17:19.807] $GPGGA,061737.40,,,,,0,00,0.0,,M,,M,0,0000*56
[2021-02-22 15:17:19.900] $GPGGA,061737.50,,,,,0,00,0.0,,M,,M,0,0000*57
[2021-02-22 15:17:19.994] $GPGGA,061737.60,,,,,0,00,0.0,,M,,M,0,0000*54
[2021-02-22 15:17:20.104] $GPGGA,061737.70,,,,,0,00,0.0,,M,,M,0,0000*55
[2021-02-22 15:17:20.197] $GPGGA,061737.80,,,,,0,00,0.0,,M,,M,0,0000*5A
[2021-02-22 15:17:20.307] $GPGGA,061737.90,,,,,0,00,0.0,,M,,M,0,0000*5B
[2021-02-22 15:17:20.400] $GPGGA,061738.00,,,,,0,00,0.0,,M,,M,0,0000*5D
[2021-02-22 15:17:20.494] $GPGGA,061738.10,,,,,0,00,0.0,,M,,M,0,0000*5C
[2021-02-22 15:17:20.604] $GPGGA,061738.20,,,,,0,00,0.0,,M,,M,0,0000*5F
[2021-02-22 15:17:20.697] $GPGGA,061738.30,,,,,0,00,0.0,,M,,M,0,0000*5E
[2021-02-22 15:17:20.791] $GPGGA,061738.40,,,,,0,00,0.0,,M,,M,0,0000*59
[2021-02-22 15:17:20.885] $GPGGA,061738.50,,,,,0,00,0.0,,M,,M,0,0000*58
[2021-02-22 15:17:20.979] $GPGGA,061738.60,,,,,0,00,0.0,,M,,M,0,0000*5B
[2021-02-22 15:17:21.104] $GPGGA,061738.70,,,,,0,00,0.0,,M,,M,0,0000*5A
[2021-02-22 15:17:21.197] $GPGGA,061738.80,,,,,0,00,0.0,,M,,M,0,0000*55
[2021-02-22 15:17:21.291] $GPGGA,061738.90,,,,,0,00,0.0,,M,,M,0,0000*54
[2021-02-22 15:17:21.400] $GPGGA,061739.00,,,,,0,00,0.0,,M,,M,0,0000*5C
[2021-02-22 15:17:21.494] $GPGGA,061739.10,,,,,0,00,0.0,,M,,M,0,0000*5D
[2021-02-22 15:17:21.588] $GPGGA,061739.20,,,,,0,00,0.0,,M,,M,0,0000*5E
[2021-02-22 15:17:21.697] $GPGGA,061739.30,,,,,0,00,0.0,,M,,M,0,0000*5F
[2021-02-22 15:17:21.807] $GPGGA,061739.40,,,,,0,00,0.0,,M,,M,0,0000*58
[2021-02-22 15:17:21.900] $GPGGA,061739.50,,,,,0,00,0.0,,M,,M,0,0000*59
[2021-02-22 15:17:21.994] $GPGGA,061739.60,,,,,0,00,0.0,,M,,M,0,0000*5A
[2021-02-22 15:17:22.088] $GPGGA,061739.70,,,,,0,00,0.0,,M,,M,0,0000*5B
[2021-02-22 15:17:22.197] $GPGGA,061739.80,,,,,0,00,0.0,,M,,M,0,0000*54
[2021-02-22 15:17:22.307] $GPGGA,061739.90,,,,,0,00,0.0,,M,,M,0,0000*55
[2021-02-22 15:17:22.400] $GPGGA,061740.00,,,,,0,00,0.0,,M,,M,0,0000*52
[2021-02-22 15:17:22.494] $GPGGA,061740.10,,,,,0,00,0.0,,M,,M,0,0000*53
[2021-02-22 15:17:22.603] $GPGGA,061740.20,,,,,0,00,0.0,,M,,M,0,0000*50
[2021-02-22 15:17:22.697] $GPGGA,061740.30,,,,,0,00,0.0,,M,,M,0,0000*51
[2021-02-22 15:17:22.791] $GPGGA,061740.40,,,,,0,00,0.0,,M,,M,0,0000*56
[2021-02-22 15:17:22.900] $GPGGA,061740.50,,,,,0,00,0.0,,M,,M,0,0000*57
[2021-02-22 15:17:23.010] $GPGGA,061740.60,,,,,0,00,0.0,,M,,M,0,0000*54
[2021-02-22 15:17:23.103] $GPGGA,061740.70,,,,,0,00,0.0,,M,,M,0,0000*55
[2021-02-22 15:17:23.306] $GPGGA,061740.80,,,,,0,00,0.0,,M,,M,0,0000*5A
[2021-02-22 15:17:23.306] $GPGGA,061740.90,,,,,0,00,0.0,,M,,M,0,0000*5B
[2021-02-22 15:17:23.400] $GPGGA,061741.00,,,,,0,00,0.0,,M,,M,0,0000*53
[2021-02-22 15:17:23.494] $GPGGA,061741.10,,,,,0,00,0.0,,M,,M,0,0000*52
[2021-02-22 15:17:23.588] $GPGGA,061741.20,,,,,0,00,0.0,,M,,M,0,0000*51
[2021-02-22 15:17:23.713] $GPGGA,061741.30,,,,,0,00,0.0,,M,,M,0,0000*50
[2021-02-22 15:17:23.806] $GPGGA,061741.40,,,,,0,00,0.0,,M,,M,0,0000*57
[2021-02-22 15:17:23.900] $GPGGA,061741.50,,,,,0,00,0.0,,M,,M,0,0000*56
[2021-02-22 15:17:23.994] $GPGGA,061741.60,,,,,0,00,0.0,,M,,M,0,0000*55
[2021-02-22 15:17:24.103] $GPGGA,061741.70,,,,,0,00,0.0,,M,,M,0,0000*54
[2021-02-22 15:17:24.197] $GPGGA,061741.80,,,,,0,00,0.0,,M,,M,0,0000*5B
[2021-02-22 15:17:24.306] $GPGGA,061741.90,,,,,0,00,0.0,,M,,M,0,0000*5A
[2021-02-22 15:17:24.400] $GPGGA,061742.00,,,,,0,00,0.0,,M,,M,0,0000*50
[2021-02-22 15:17:24.494] $GPGGA,061742.10,,,,,0,00,0.0,,M,,M,0,0000*51
[2021-02-22 15:17:24.603] $GPGGA,061742.20,,,,,0,00,0.0,,M,,M,0,0000*52
[2021-02-22 15:17:24.697] $GPGGA,061742.30,,,,,0,00,0.0,,M,,M,0,0000*53
[2021-02-22 15:17:24.791] $GPGGA,061742.40,,,,,0,00,0.0,,M,,M,0,0000*54
[2021-02-22 15:17:24.885] $GPGGA,061742.50,,,,,0,00,0.0,,M,,M,0,0000*55
[2021-02-22 15:17:24.994] $GPGGA,061742.60,,,,,0,00,0.0,,M,,M,0,0000*56
[2021-02-22 15:17:25.103] $GPGGA,061742.70,,,,,0,00,0.0,,M,,M,0,0000*57
[2021-02-22 15:17:25.197] $GPGGA,061742.80,,,,,0,00,0.0,,M,,M,0,0000*58
[2021-02-22 15:17:25.291] $GPGGA,061742.90,,,,,0,00,0.0,,M,,M,0,0000*59
[2021-02-22 15:17:25.400] $GPGGA,061743.00,,,,,0,00,0.0,,M,,M,0,0000*51
[2021-02-22 15:17:25.494] $GPGGA,061743.10,,,,,0,00,0.0,,M,,M,0,0000*50
[2021-02-22 15:17:25.588] $GPGGA,061743.20,,,,,0,00,0.0,,M,,M,0,0000*53
[2021-02-22 15:17:25.713] $GPGGA,061743.30,3713.8967101,N,13701.4384989,E,5,05,3.0,99.2117,M,37.55,M,88,0000*5A
[2021-02-22 15:17:25.822] $GPGGA,061743.40,3713.8968783,N,13701.4381540,E,5,05,3.0,97.1202,M,37.55,M,88,0000*58
[2021-02-22 15:17:25.916] $GPGGA,061743.50,3713.8971019,N,13701.4377996,E,5,05,3.0,94.8675,M,37.55,M,88,0000*55
[2021-02-22 15:17:26.025] $GPGGA,061743.60,3713.8972965,N,13701.4374660,E,5,05,3.0,92.8730,M,37.55,M,88,0000*54
[2021-02-22 15:17:26.103] $GPGGA,061743.70,3713.8974932,N,13701.4371485,E,5,05,3.0,91.0808,M,37.55,M,88,0000*52
[2021-02-22 15:17:26.213] $GPGGA,061743.80,3713.8976641,N,13701.4368420,E,5,05,3.0,89.3591,M,37.55,M,88,0000*54
[2021-02-22 15:17:26.291] $GPGGA,061743.90,3713.8978224,N,13701.4365665,E,5,05,3.0,87.8535,M,37.55,M,88,0000*59
[2021-02-22 15:17:26.416] $GPGGA,061744.00,3713.8982985,N,13701.4353225,E,5,06,2.8,78.7841,M,37.55,M,89,0000*5D
[2021-02-22 15:17:26.525] $GPGGA,061744.10,3713.8984917,N,13701.4349225,E,5,06,2.8,76.2209,M,37.55,M,89,0000*57
[2021-02-22 15:17:26.619] $GPGGA,061744.20,3713.8985914,N,13701.4347557,E,5,06,2.8,75.1429,M,37.55,M,89,0000*5E
[2021-02-22 15:17:26.712] $GPGGA,061744.30,3713.8987258,N,13701.4344769,E,5,06,2.8,73.3673,M,37.55,M,89,0000*5B
[2021-02-22 15:17:26.822] $GPGGA,061744.40,3713.8987829,N,13701.4344002,E,5,06,2.8,72.9174,M,37.55,M,89,0000*51
[2021-02-22 15:17:26.900] $GPGGA,061744.50,3713.8988332,N,13701.4343048,E,5,06,2.8,72.3780,M,37.55,M,89,0000*50
[2021-02-22 15:17:27.009] $GPGGA,061744.60,3713.8988731,N,13701.4342303,E,5,06,2.8,71.8379,M,37.55,M,89,0000*53
[2021-02-22 15:17:27.119] $GPGGA,061744.70,3713.8989057,N,13701.4341707,E,5,06,2.8,71.5257,M,37.55,M,89,0000*57
[2021-02-22 15:17:27.197] $GPGGA,061744.80,3713.8989176,N,13701.4341432,E,5,06,2.8,71.4005,M,37.55,M,89,0000*5B
[2021-02-22 15:17:27.322] $GPGGA,061744.90,3713.8988932,N,13701.4341826,E,5,06,2.8,71.5529,M,37.55,M,89,0000*50
[2021-02-22 15:17:27.400] $GPGGA,061745.00,3713.8988706,N,13701.4342141,E,5,06,2.8,71.6422,M,37.55,M,90,0000*5B
[2021-02-22 15:17:27.525] $GPGGA,061745.10,3713.8988735,N,13701.4341896,E,5,06,2.8,71.5062,M,37.55,M,90,0000*59
[2021-02-22 15:17:27.603] $GPGGA,061745.20,3713.8988705,N,13701.4341926,E,5,06,2.8,71.6351,M,37.55,M,90,0000*53
[2021-02-22 15:17:27.712] $GPGGA,061745.30,3713.8988924,N,13701.4341484,E,5,06,2.8,71.5527,M,37.55,M,90,0000*5E
[2021-02-22 15:17:27.791] $GPGGA,061745.40,3713.8989050,N,13701.4341232,E,5,06,2.8,71.4892,M,37.55,M,90,0000*5B
[2021-02-22 15:17:27.916] $GPGGA,061745.50,3713.8989109,N,13701.4341123,E,5,06,2.8,71.5304,M,37.55,M,90,0000*51
[2021-02-22 15:17:27.994] $GPGGA,061745.60,3713.8989215,N,13701.4340966,E,5,06,2.8,71.4983,M,37.55,M,90,0000*50
[2021-02-22 15:17:28.119] $GPGGA,061745.70,3713.8989316,N,13701.4340910,E,5,06,2.8,71.4854,M,37.55,M,90,0000*59
[2021-02-22 15:17:28.197] $GPGGA,061745.80,3713.8989462,N,13701.4340669,E,5,06,2.8,71.3687,M,37.55,M,90,0000*54
[2021-02-22 15:17:28.322] $GPGGA,061745.90,3713.8989688,N,13701.4340381,E,5,06,2.8,71.2683,M,37.55,M,90,0000*55
[2021-02-22 15:17:28.400] $GPGGA,061746.00,3713.8989899,N,13701.4340121,E,5,06,2.8,71.1507,M,37.55,M,91,0000*54
[2021-02-22 15:17:28.494] $GPGGA,061746.10,3713.8990250,N,13701.4339598,E,5,06,2.8,70.8869,M,37.55,M,91,0000*57
[2021-02-22 15:17:28.587] $GPGGA,061746.20,3713.8990472,N,13701.4339400,E,5,06,2.8,70.8211,M,37.55,M,91,0000*57
[2021-02-22 15:17:28.712] $GPGGA,061746.30,3713.8990765,N,13701.4339013,E,5,06,2.8,70.6511,M,37.55,M,91,0000*5C
[2021-02-22 15:17:28.822] $GPGGA,061746.40,3713.8991053,N,13701.4338718,E,5,06,2.8,70.5323,M,37.55,M,91,0000*51
[2021-02-22 15:17:28.900] $GPGGA,061746.50,3713.8991233,N,13701.4338560,E,5,06,2.8,70.4598,M,37.55,M,91,0000*5E
[2021-02-22 15:17:29.025] $GPGGA,061746.60,3713.8991372,N,13701.4338459,E,5,06,2.8,70.4116,M,37.55,M,91,0000*50
[2021-02-22 15:17:29.103] $GPGGA,061746.70,3713.8991491,N,13701.4338408,E,5,06,2.8,70.3757,M,37.55,M,91,0000*5B
[2021-02-22 15:17:29.212] $GPGGA,061746.80,3713.8991571,N,13701.4338301,E,5,06,2.8,70.3332,M,37.55,M,91,0000*52
[2021-02-22 15:17:29.306] $GPGGA,061746.90,3713.8991718,N,13701.4338112,E,5,06,2.8,70.2594,M,37.55,M,91,0000*55
[2021-02-22 15:17:29.415] $GPGGA,061747.00,3713.8991856,N,13701.4337954,E,5,06,2.8,70.1976,M,37.55,M,92,0000*5D
[2021-02-22 15:17:29.509] $GPGGA,061747.10,3713.8992058,N,13701.4337689,E,5,06,2.8,70.0751,M,37.55,M,92,0000*5C
[2021-02-22 15:17:29.619] $GPGGA,061747.20,3713.8992229,N,13701.4337438,E,5,06,2.8,69.9584,M,37.55,M,92,0000*58
[2021-02-22 15:17:29.697] $GPGGA,061747.30,3713.8992441,N,13701.4337168,E,5,06,2.8,69.8527,M,37.55,M,92,0000*59
[2021-02-22 15:17:29.822] $GPGGA,061747.40,3713.8992655,N,13701.4336868,E,5,06,2.8,69.7272,M,37.55,M,92,0000*59
[2021-02-22 15:17:29.900] $GPGGA,061747.50,3713.8992815,N,13701.4336701,E,5,06,2.8,69.6920,M,37.55,M,92,0000*5F
[2021-02-22 15:17:30.025] $GPGGA,061747.60,3713.8993005,N,13701.4336399,E,5,06,2.8,69.5592,M,37.55,M,92,0000*57
[2021-02-22 15:17:30.103] $GPGGA,061747.70,3713.8993182,N,13701.4336089,E,5,06,2.8,69.4297,M,37.55,M,92,0000*59
[2021-02-22 15:17:30.228] $GPGGA,061747.80,3713.8993222,N,13701.4335992,E,5,06,2.8,69.3697,M,37.55,M,92,0000*5C
[2021-02-22 15:17:30.290] $GPGGA,061747.90,3713.8993161,N,13701.4336078,E,5,06,2.8,69.3997,M,37.55,M,92,0000*58
[2021-02-22 15:17:30.415] $GPGGA,061748.00,3713.8993194,N,13701.4335933,E,5,06,2.8,69.3577,M,37.55,M,93,0000*52
[2021-02-22 15:17:30.509] $GPGGA,061748.10,3713.8993193,N,13701.4335869,E,5,06,2.8,69.3283,M,37.55,M,93,0000*56
[2021-02-22 15:17:30.618] $GPGGA,061748.20,3713.8993127,N,13701.4335906,E,5,06,2.8,69.3532,M,37.55,M,93,0000*5F
[2021-02-22 15:17:30.712] $GPGGA,061748.30,3713.8993099,N,13701.4335907,E,5,06,2.8,69.3669,M,37.55,M,93,0000*56
[2021-02-22 15:17:30.790] $GPGGA,061748.40,3713.8993049,N,13701.4335920,E,5,06,2.8,69.3886,M,37.55,M,93,0000*56
[2021-02-22 15:17:30.915] $GPGGA,061748.50,3713.8992969,N,13701.4336061,E,5,06,2.8,69.4402,M,37.55,M,93,0000*55
[2021-02-22 15:17:30.994] $GPGGA,061748.60,3713.8992829,N,13701.4336336,E,5,06,2.8,69.5594,M,37.55,M,93,0000*5D
[2021-02-22 15:17:31.118] $GPGGA,061748.70,3713.8992816,N,13701.4336370,E,5,06,2.8,69.5726,M,37.55,M,93,0000*59
[2021-02-22 15:17:31.197] $GPGGA,061748.80,3713.8992754,N,13701.4336503,E,5,06,2.8,69.6071,M,37.55,M,93,0000*5B
[2021-02-22 15:17:31.322] $GPGGA,061748.90,3713.8992728,N,13701.4336589,E,5,06,2.8,69.6177,M,37.55,M,93,0000*54
[2021-02-22 15:17:31.400] $GPGGA,061749.00,3713.8992686,N,13701.4336668,E,5,06,2.8,69.6316,M,37.55,M,94,0000*57
[2021-02-22 15:17:31.525] $GPGGA,061749.10,3713.8992657,N,13701.4336694,E,5,06,2.8,69.6423,M,37.55,M,94,0000*58
[2021-02-22 15:17:31.603] $GPGGA,061749.20,3713.8992593,N,13701.4336754,E,5,06,2.8,69.6720,M,37.55,M,94,0000*5D
[2021-02-22 15:17:31.712] $GPGGA,061749.30,3713.8992576,N,13701.4336757,E,5,06,2.8,69.6780,M,37.55,M,94,0000*5E
[2021-02-22 15:17:31.790] $GPGGA,061749.40,3713.8992485,N,13701.4336861,E,5,06,2.8,69.7264,M,37.55,M,94,0000*50
[2021-02-22 15:17:31.915] $GPGGA,061749.50,3713.8992337,N,13701.4337066,E,5,06,2.8,69.8178,M,37.55,M,94,0000*50
[2021-02-22 15:17:31.993] $GPGGA,061749.60,3713.8992209,N,13701.4337258,E,5,06,2.8,69.8915,M,37.55,M,94,0000*53
[2021-02-22 15:17:32.118] $GPGGA,061749.70,3713.8992046,N,13701.4337518,E,5,06,2.8,69.9976,M,37.55,M,94,0000*5C
[2021-02-22 15:17:32.197] $GPGGA,061749.80,3713.8991824,N,13701.4337857,E,5,06,2.8,70.1431,M,37.55,M,94,0000*54
[2021-02-22 15:17:32.321] $GPGGA,061749.90,3713.8991689,N,13701.4338118,E,5,06,2.8,70.2632,M,37.55,M,94,0000*53
[2021-02-22 15:17:32.431] $GPGGA,061750.00,3713.8991566,N,13701.4338380,E,5,06,2.8,70.3894,M,37.55,M,95,0000*51
[2021-02-22 15:17:32.525] $GPGGA,061750.10,3713.8991464,N,13701.4338594,E,5,06,2.8,70.5023,M,37.55,M,95,0000*52
[2021-02-22 15:17:32.618] $GPGGA,061750.20,3713.8991386,N,13701.4338755,E,5,06,2.8,70.5854,M,37.55,M,95,0000*5D
[2021-02-22 15:17:32.696] $GPGGA,061750.30,3713.8991313,N,13701.4338885,E,5,06,2.8,70.6553,M,37.55,M,95,0000*5B
[2021-02-22 15:17:32.821] $GPGGA,061750.40,3713.8991197,N,13701.4339094,E,5,06,2.8,70.7581,M,37.55,M,95,0000*55
[2021-02-22 15:17:32.900] $GPGGA,061750.50,3713.8991083,N,13701.4339314,E,5,06,2.8,70.8643,M,37.55,M,95,0000*59
[2021-02-22 15:17:33.025] $GPGGA,061750.60,3713.8990983,N,13701.4339510,E,5,06,2.8,70.9694,M,37.55,M,95,0000*5B
[2021-02-22 15:17:33.103] $GPGGA,061750.70,3713.8990911,N,13701.4339669,E,5,06,2.8,71.0417,M,37.55,M,95,0000*5D
[2021-02-22 15:17:33.228] $GPGGA,061750.80,3713.8990837,N,13701.4339811,E,5,06,2.8,71.1002,M,37.55,M,95,0000*57
[2021-02-22 15:17:33.306] $GPGGA,061750.90,3713.8990754,N,13701.4339972,E,5,06,2.8,71.1753,M,37.55,M,95,0000*5B
[2021-02-22 15:17:33.415] $GPGGA,061751.00,3713.8990682,N,13701.4340146,E,5,06,2.8,71.2508,M,37.55,M,96,0000*54
[2021-02-22 15:17:33.525] $GPGGA,061751.10,3713.8990658,N,13701.4340184,E,5,06,2.8,71.2698,M,37.55,M,96,0000*56
[2021-02-22 15:17:33.618] $GPGGA,061751.20,3713.8990611,N,13701.4340295,E,5,06,2.8,71.3230,M,37.55,M,96,0000*5C
[2021-02-22 15:17:33.696] $GPGGA,061751.30,3713.8990547,N,13701.4340418,E,5,06,2.8,71.3847,M,37.55,M,96,0000*54
[2021-02-22 15:17:33.821] $GPGGA,061751.40,3713.8990450,N,13701.4340635,E,5,06,2.8,71.4742,M,37.55,M,96,0000*54
[2021-02-22 15:17:33.900] $GPGGA,061751.50,3713.8990393,N,13701.4340776,E,5,06,2.8,71.5428,M,37.55,M,96,0000*55
[2021-02-22 15:17:34.024] $GPGGA,061751.60,3713.8990302,N,13701.4340966,E,5,06,2.8,71.6345,M,37.55,M,96,0000*5E
[2021-02-22 15:17:34.103] $GPGGA,061751.70,3713.8990252,N,13701.4341047,E,5,06,2.8,71.6738,M,37.55,M,96,0000*5E
[2021-02-22 15:17:34.212] $GPGGA,061751.80,3713.8990188,N,13701.4341206,E,5,06,2.8,71.7511,M,37.55,M,96,0000*5A
[2021-02-22 15:17:34.321] $GPGGA,061751.90,3713.8990045,N,13701.4341490,E,5,06,2.8,71.8809,M,37.55,M,96,0000*59
[2021-02-22 15:17:34.399] $GPGGA,061752.00,3713.8989968,N,13701.4341669,E,5,06,2.8,71.9610,M,37.55,M,97,0000*5F
[2021-02-22 15:17:34.524] $GPGGA,061752.10,3713.8989880,N,13701.4341866,E,5,06,2.8,72.0584,M,37.55,M,97,0000*5C
[2021-02-22 15:17:34.603] $GPGGA,061752.20,3713.8989773,N,13701.4342073,E,5,06,2.8,72.1511,M,37.55,M,97,0000*5E
[2021-02-22 15:17:34.728] $GPGGA,061752.30,3713.8989695,N,13701.4342244,E,5,06,2.8,72.2275,M,37.55,M,97,0000*56
[2021-02-22 15:17:34.790] $GPGGA,061752.40,3713.8989613,N,13701.4342419,E,5,06,2.8,72.3063,M,37.55,M,97,0000*55
[2021-02-22 15:17:34.915] $GPGGA,061752.50,3713.8989565,N,13701.4342507,E,5,06,2.8,72.3511,M,37.55,M,97,0000*58
[2021-02-22 15:17:34.993] $GPGGA,061752.60,3713.8989503,N,13701.4342618,E,5,06,2.8,72.4017,M,37.55,M,97,0000*52
[2021-02-22 15:17:35.118] $GPGGA,061752.70,3713.8989446,N,13701.4342684,E,5,06,2.8,72.4315,M,37.55,M,97,0000*57
[2021-02-22 15:17:35.196] $GPGGA,061752.80,3713.8989348,N,13701.4342835,E,5,06,2.8,72.4984,M,37.55,M,97,0000*57
[2021-02-22 15:17:35.321] $GPGGA,061752.90,3713.8989284,N,13701.4342973,E,5,06,2.8,72.5486,M,37.55,M,97,0000*5A
[2021-02-22 15:17:35.399] $GPGGA,061753.00,3713.8989224,N,13701.4343076,E,5,06,2.8,72.5833,M,37.55,M,98,0000*58
[2021-02-22 15:17:35.493] $GPGGA,061753.10,3713.8989164,N,13701.4343183,E,5,06,2.8,72.6135,M,37.55,M,98,0000*59
[2021-02-22 15:17:35.618] $GPGGA,061753.20,3713.8989062,N,13701.4343391,E,5,06,2.8,72.6886,M,37.55,M,98,0000*5D
[2021-02-22 15:17:35.712] $GPGGA,061753.30,3713.8988949,N,13701.4343613,E,5,06,2.8,72.7763,M,37.55,M,98,0000*57
[2021-02-22 15:17:35.790] $GPGGA,061753.40,3713.8988861,N,13701.4343831,E,5,06,2.8,72.8558,M,37.55,M,98,0000*50
[2021-02-22 15:17:36.446] $GPGGA,061753.50,3713.8988804,N,13701.4343981,E,5,06,2.8,72.9217,M,37.55,M,98,0000*55
[2021-02-22 15:17:36.446] $GPGGA,061753.60,3713.8988776,N,13701.4344082,E,5,06,2.8,72.9719,M,37.55,M,98,0000*5A
[2021-02-22 15:17:36.446] $GPGGA,061753.70,3713.8988688,N,13701.4344279,E,5,06,2.8,73.0644,M,37.55,M,98,0000*5C
[2021-02-22 15:17:36.446] $GPGGA,061753.80,3713.8988644,N,13701.4344384,E,5,06,2.8,73.1138,M,37.55,M,98,0000*5D
[2021-02-22 15:17:36.446] $GPGGA,061753.90,3713.8988625,N,13701.4344454,E,5,06,2.8,73.1506,M,37.55,M,98,0000*58
[2021-02-22 15:17:36.446] $GPGGA,061754.00,3713.8988625,N,13701.4344485,E,5,06,2.8,73.1810,M,37.55,M,99,0000*51
[2021-02-22 15:17:36.509] $GPGGA,061754.10,3713.8988642,N,13701.4344478,E,5,06,2.8,73.1882,M,37.55,M,99,0000*58
[2021-02-22 15:17:36.618] $GPGGA,061754.20,3713.8988652,N,13701.4344514,E,5,06,2.8,73.2108,M,37.55,M,99,0000*59
[2021-02-22 15:17:36.696] $GPGGA,061754.30,3713.8988654,N,13701.4344502,E,5,06,2.8,73.2210,M,37.55,M,99,0000*53
[2021-02-22 15:17:36.821] $GPGGA,061754.40,3713.8988651,N,13701.4344505,E,5,06,2.8,73.2305,M,37.55,M,99,0000*53
[2021-02-22 15:17:36.899] $GPGGA,061754.50,3713.8988663,N,13701.4344489,E,5,06,2.8,73.2449,M,37.55,M,99,0000*59
[2021-02-22 15:17:37.024] $GPGGA,061754.60,3713.8988663,N,13701.4344488,E,5,06,2.8,73.2581,M,37.55,M,99,0000*5E
[2021-02-22 15:17:37.102] $GPGGA,061754.70,3713.8988669,N,13701.4344439,E,5,06,2.8,73.2582,M,37.55,M,99,0000*5C
[2021-02-22 15:17:37.212] $GPGGA,061754.80,3713.8988698,N,13701.4344357,E,5,06,2.8,73.2398,M,37.55,M,99,0000*5F
[2021-02-22 15:17:37.306] $GPGGA,061754.90,3713.8988728,N,13701.4344294,E,5,06,2.8,73.2248,M,37.55,M,99,0000*56
[2021-02-22 15:17:37.415] $GPGGA,061755.00,3713.8988780,N,13701.4344196,E,5,06,2.8,73.1930,M,37.55,M,100,0000*6B
[2021-02-22 15:17:37.524] $GPGGA,061755.10,3713.8988834,N,13701.4344092,E,5,06,2.8,73.1491,M,37.55,M,100,0000*69
[2021-02-22 15:17:37.618] $GPGGA,061755.20,3713.8988870,N,13701.4344019,E,5,06,2.8,73.1154,M,37.55,M,100,0000*65
[2021-02-22 15:17:37.696] $GPGGA,061755.30,3713.8988885,N,13701.4343968,E,5,06,2.8,73.0877,M,37.55,M,100,0000*6F
[2021-02-22 15:17:37.821] $GPGGA,061755.40,3713.8988909,N,13701.4343940,E,5,06,2.8,73.0750,M,37.55,M,100,0000*6D
[2021-02-22 15:17:37.915] $GPGGA,061755.50,3713.8988916,N,13701.4343952,E,5,06,2.8,73.0776,M,37.55,M,100,0000*65
[2021-02-22 15:17:37.993] $GPGGA,061755.60,3713.8988904,N,13701.4343980,E,5,06,2.8,73.0958,M,37.55,M,100,0000*68
[2021-02-22 15:17:38.118] $GPGGA,061755.70,3713.8988877,N,13701.4344057,E,5,06,2.8,73.1333,M,37.55,M,100,0000*6E
[2021-02-22 15:17:38.196] $GPGGA,061755.80,3713.8988852,N,13701.4344104,E,5,06,2.8,73.1553,M,37.55,M,100,0000*61
[2021-02-22 15:17:38.321] $GPGGA,061755.90,3713.8988826,N,13701.4344145,E,5,06,2.8,73.1744,M,37.55,M,100,0000*62
[2021-02-22 15:17:38.399] $GPGGA,061756.00,3713.8988778,N,13701.4344214,E,5,06,2.8,73.2059,M,37.55,M,101,0000*62
[2021-02-22 15:17:38.493] $GPGGA,061756.10,3713.8988726,N,13701.4344289,E,5,06,2.8,73.2332,M,37.55,M,101,0000*62
[2021-02-22 15:17:38.618] $GPGGA,061756.20,3713.8988661,N,13701.4344381,E,5,06,2.8,73.2818,M,37.55,M,101,0000*69
[2021-02-22 15:17:38.712] $GPGGA,061756.30,3713.8988613,N,13701.4344421,E,5,06,2.8,73.2946,M,37.55,M,101,0000*6A
[2021-02-22 15:17:38.805] $GPGGA,061756.40,3713.8988557,N,13701.4344479,E,5,06,2.8,73.3222,M,37.55,M,101,0000*6B
[2021-02-22 15:17:38.915] $GPGGA,061756.50,3713.8988519,N,13701.4344531,E,5,06,2.8,73.3566,M,37.55,M,101,0000*6A
[2021-02-22 15:17:38.993] $GPGGA,061756.60,3713.8988484,N,13701.4344545,E,5,06,2.8,73.3716,M,37.55,M,101,0000*6A
[2021-02-22 15:17:39.118] $GPGGA,061756.70,3713.8988447,N,13701.4344580,E,5,06,2.8,73.3915,M,37.55,M,101,0000*60
[2021-02-22 15:17:39.196] $GPGGA,061756.80,3713.8988433,N,13701.4344618,E,5,06,2.8,73.4153,M,37.55,M,101,0000*63
[2021-02-22 15:17:39.321] $GPGGA,061756.90,3713.8988430,N,13701.4344633,E,5,06,2.8,73.4334,M,37.55,M,101,0000*6B
[2021-02-22 15:17:39.399] $GPGGA,061757.00,3713.8988443,N,13701.4344632,E,5,06,2.8,73.4412,M,37.55,M,102,0000*66
[2021-02-22 15:17:39.493] $GPGGA,061757.10,3713.8988467,N,13701.4344583,E,5,06,2.8,73.4378,M,37.55,M,102,0000*63
[2021-02-22 15:17:39.618] $GPGGA,061757.20,3713.8988487,N,13701.4344542,E,5,06,2.8,73.4349,M,37.55,M,102,0000*61
[2021-02-22 15:17:39.696] $GPGGA,061757.30,3713.8988494,N,13701.4344527,E,5,06,2.8,73.4429,M,37.55,M,102,0000*60
[2021-02-22 15:17:39.821] $GPGGA,061757.40,3713.8988499,N,13701.4344504,E,5,06,2.8,73.4399,M,37.55,M,102,0000*67
[2021-02-22 15:17:39.899] $GPGGA,061757.50,3713.8988517,N,13701.4344465,E,5,06,2.8,73.4315,M,37.55,M,102,0000*63
[2021-02-22 15:17:40.024] $GPGGA,061757.60,3713.8988514,N,13701.4344457,E,5,06,2.8,73.4317,M,37.55,M,102,0000*60
[2021-02-22 15:17:40.102] $GPGGA,061757.70,3713.8988489,N,13701.4344458,E,5,06,2.8,73.4364,M,37.55,M,102,0000*6F
[2021-02-22 15:17:40.227] $GPGGA,061757.80,3713.8988470,N,13701.4344438,E,5,06,2.8,73.4453,M,37.55,M,102,0000*63
[2021-02-22 15:17:40.305] $GPGGA,061757.90,3713.8988477,N,13701.4344412,E,5,06,2.8,73.4455,M,37.55,M,102,0000*6B
[2021-02-22 15:17:40.430] $GPGGA,061758.00,3713.8988473,N,13701.4344401,E,5,06,2.8,73.4551,M,37.55,M,103,0000*6F
[2021-02-22 15:17:40.524] $GPGGA,061758.10,3713.8988484,N,13701.4344364,E,5,06,2.8,73.4590,M,37.55,M,103,0000*6F
[2021-02-22 15:17:40.618] $GPGGA,061758.20,3713.8988512,N,13701.4344271,E,5,06,2.8,73.4397,M,37.55,M,103,0000*66
[2021-02-22 15:17:40.696] $GPGGA,061758.30,3713.8988531,N,13701.4344192,E,5,06,2.8,73.4055,M,37.55,M,103,0000*65
[2021-02-22 15:17:40.821] $GPGGA,061758.40,3713.8988563,N,13701.4344072,E,5,06,2.8,73.3590,M,37.55,M,103,0000*61
[2021-02-22 15:17:40.899] $GPGGA,061758.50,3713.8988663,N,13701.4343879,E,5,06,2.8,73.3075,M,37.55,M,103,0000*69
[2021-02-22 15:17:41.024] $GPGGA,061758.60,3713.8988696,N,13701.4343798,E,5,06,2.8,73.2813,M,37.55,M,103,0000*69
[2021-02-22 15:17:41.102] $GPGGA,061758.70,3713.8988746,N,13701.4343650,E,5,06,2.8,73.2405,M,37.55,M,103,0000*6A
[2021-02-22 15:17:41.211] $GPGGA,061758.80,3713.8988771,N,13701.4343626,E,5,06,2.8,73.2586,M,37.55,M,103,0000*6A
[2021-02-22 15:17:41.305] $GPGGA,061758.90,3713.8988808,N,13701.4343543,E,5,06,2.8,73.2305,M,37.55,M,103,0000*67
[2021-02-22 15:17:41.415] $GPGGA,061759.00,3713.8988854,N,13701.4343432,E,5,06,2.8,73.2056,M,37.55,M,104,0000*63
[2021-02-22 15:17:41.508] $GPGGA,061759.10,3713.8988904,N,13701.4343315,E,5,06,2.8,73.1581,M,37.55,M,104,0000*68
[2021-02-22 15:17:41.602] $GPGGA,061759.20,3713.8988960,N,13701.4343193,E,5,06,2.8,73.1148,M,37.55,M,104,0000*64
[2021-02-22 15:17:41.727] $GPGGA,061759.30,3713.8989027,N,13701.4343033,E,5,06,2.8,73.0655,M,37.55,M,104,0000*6F
[2021-02-22 15:17:41.805] $GPGGA,061759.40,3713.8989079,N,13701.4342911,E,5,06,2.8,73.0287,M,37.55,M,104,0000*60
[2021-02-22 15:17:41.915] $GPGGA,061759.50,3713.8989135,N,13701.4342787,E,5,06,2.8,72.9900,M,37.55,M,104,0000*65
[2021-02-22 15:17:41.993] $GPGGA,061759.60,3713.8989202,N,13701.4342624,E,5,06,2.8,72.9341,M,37.55,M,104,0000*66
[2021-02-22 15:17:42.118] $GPGGA,061759.70,3713.8989250,N,13701.4342489,E,5,06,2.8,72.8893,M,37.55,M,104,0000*60
[2021-02-22 15:17:42.196] $GPGGA,061759.80,3713.8989275,N,13701.4342399,E,5,06,2.8,72.8579,M,37.55,M,104,0000*67
[2021-02-22 15:17:42.321] $GPGGA,061759.90,3713.8989293,N,13701.4342318,E,5,06,2.8,72.8224,M,37.55,M,104,0000*68
[2021-02-22 15:17:42.399] $GPGGA,061800.00,3713.8989317,N,13701.4342238,E,5,06,2.8,72.7891,M,37.55,M,105,0000*66
[2021-02-22 15:17:42.493] $GPGGA,061800.10,,,,,0,00,0.0,,M,,M,0,0000*58
[2021-02-22 15:17:42.618] $GPGGA,061800.20,3713.8958850,N,13701.4388992,E,1,10,1.8,82.6011,M,37.55,M,,*57
[2021-02-22 15:17:42.711] $GPGGA,061800.30,3713.8959071,N,13701.4388544,E,1,10,1.8,82.5255,M,37.55,M,,*5A
[2021-02-22 15:17:42.790] $GPGGA,061800.40,3713.8956806,N,13701.4389388,E,1,10,1.8,82.4147,M,37.55,M,,*5C
[2021-02-22 15:17:42.914] $GPGGA,061800.50,3713.8957913,N,13701.4388943,E,1,10,1.8,82.4696,M,37.55,M,,*5E
[2021-02-22 15:17:42.993] $GPGGA,061800.60,3713.8957269,N,13701.4389172,E,1,10,1.8,82.5511,M,37.55,M,,*5D
[2021-02-22 15:17:43.118] $GPGGA,061800.70,3713.8960044,N,13701.4386640,E,1,10,1.8,81.4360,M,37.55,M,,*5E
[2021-02-22 15:17:43.211] $GPGGA,061800.80,3713.8961033,N,13701.4385794,E,1,10,1.8,81.4820,M,37.55,M,,*54
[2021-02-22 15:17:43.290] $GPGGA,061800.90,3713.8963965,N,13701.4382533,E,1,10,1.8,80.5561,M,37.55,M,,*5D
[2021-02-22 15:17:43.414] $GPGGA,061801.00,3713.8966511,N,13701.4380256,E,1,10,1.8,80.6854,M,37.55,M,,*51
[2021-02-22 15:17:43.493] $GPGGA,061801.10,3713.8968819,N,13701.4378839,E,1,10,1.8,80.2334,M,37.55,M,,*56
[2021-02-22 15:17:43.618] $GPGGA,061801.20,3713.8967976,N,13701.4377964,E,1,10,1.8,81.2216,M,37.55,M,,*54
[2021-02-22 15:17:43.711] $GPGGA,061801.30,3713.8969959,N,13701.4375295,E,1,10,1.8,80.7629,M,37.55,M,,*5D
[2021-02-22 15:17:43.821] $GPGGA,061801.40,3713.8970109,N,13701.4376133,E,1,10,1.8,81.0452,M,37.55,M,,*5B
[2021-02-22 15:17:43.899] $GPGGA,061801.50,3713.8970853,N,13701.4377909,E,1,10,1.8,80.8340,M,37.55,M,,*51
[2021-02-22 15:17:44.024] $GPGGA,061801.60,3713.8969247,N,13701.4377691,E,1,10,1.8,81.3267,M,37.55,M,,*55
[2021-02-22 15:17:44.086] $GPGGA,061801.70,3713.8968709,N,13701.4377725,E,1,10,1.8,81.2251,M,37.55,M,,*50
[2021-02-22 15:17:44.211] $GPGGA,061801.80,3713.8968787,N,13701.4378223,E,1,10,1.8,81.4030,M,37.55,M,,*56
[2021-02-22 15:17:44.289] $GPGGA,061801.90,3713.8967410,N,13701.4379111,E,1,10,1.8,82.1666,M,37.55,M,,*55
[2021-02-22 15:17:44.414] $GPGGA,061802.00,3713.8964555,N,13701.4380915,E,1,10,1.8,83.4304,M,37.55,M,,*53
[2021-02-22 15:17:44.493] $GPGGA,061802.10,3713.8963230,N,13701.4383543,E,1,10,1.8,84.6190,M,37.55,M,,*57
[2021-02-22 15:17:44.618] $GPGGA,061802.20,3713.8963036,N,13701.4384272,E,1,10,1.8,84.8900,M,37.55,M,,*5D
[2021-02-22 15:17:44.696] $GPGGA,061802.30,3713.8958448,N,13701.4389011,E,1,10,1.8,86.5589,M,37.55,M,,*51
[2021-02-22 15:17:44.821] $GPGGA,061802.40,3713.8961030,N,13701.4387431,E,1,10,1.8,84.9201,M,37.55,M,,*56
[2021-02-22 15:17:44.914] $GPGGA,061802.50,3713.8962983,N,13701.4386531,E,1,10,1.8,84.3895,M,37.55,M,,*58
[2021-02-22 15:17:44.993] $GPGGA,061802.60,3713.8962878,N,13701.4387719,E,1,10,1.8,84.6058,M,37.55,M,,*5B
[2021-02-22 15:17:45.117] $GPGGA,061802.70,3713.8964563,N,13701.4387867,E,1,10,1.8,84.4022,M,37.55,M,,*52
[2021-02-22 15:17:45.196] $GPGGA,061802.80,3713.8963411,N,13701.4388887,E,1,10,1.8,84.4741,M,37.55,M,,*5D
[2021-02-22 15:17:45.321] $GPGGA,061802.90,3713.8963643,N,13701.4388739,E,1,10,1.8,83.5585,M,37.55,M,,*5F
[2021-02-22 15:17:45.399] $GPGGA,061803.00,3713.8962263,N,13701.4389770,E,1,10,1.8,83.7434,M,37.55,M,,*55
[2021-02-22 15:17:45.524] $GPGGA,061803.10,3713.8962897,N,13701.4387422,E,1,10,1.8,83.4777,M,37.55,M,,*58
[2021-02-22 15:17:45.586] $GPGGA,061803.20,3713.8964353,N,13701.4387484,E,1,10,1.8,82.9265,M,37.55,M,,*58
[2021-02-22 15:17:45.711] $GPGGA,061803.30,3713.8962849,N,13701.4388546,E,1,10,1.8,83.2546,M,37.55,M,,*53
[2021-02-22 15:17:45.789] $GPGGA,061803.40,3713.8962191,N,13701.4388455,E,1,10,1.8,83.1182,M,37.55,M,,*54
[2021-02-22 15:17:45.914] $GPGGA,061803.50,3713.8962507,N,13701.4387615,E,1,10,1.8,83.0587,M,37.55,M,,*57
[2021-02-22 15:17:45.992] $GPGGA,061803.60,3713.8962043,N,13701.4388496,E,1,10,1.8,83.2052,M,37.55,M,,*58
[2021-02-22 15:17:46.117] $GPGGA,061803.70,3713.8961033,N,13701.4389812,E,1,10,1.8,83.7201,M,37.55,M,,*5D
[2021-02-22 15:17:46.196] $GPGGA,061803.80,3713.8958442,N,13701.4391675,E,1,10,1.8,84.7222,M,37.55,M,,*5A
[2021-02-22 15:17:46.321] $GPGGA,061803.90,3713.8957053,N,13701.4392108,E,1,10,1.8,84.8274,M,37.55,M,,*52
[2021-02-22 15:17:46.399] $GPGGA,061804.00,3713.8955959,N,13701.4393316,E,1,10,1.8,85.1969,M,37.55,M,,*5E
[2021-02-22 15:17:46.524] $GPGGA,061804.10,3713.8955399,N,13701.4394351,E,1,10,1.8,85.8461,M,37.55,M,,*51
[2021-02-22 15:17:46.586] $GPGGA,061804.20,3713.8956654,N,13701.4395372,E,1,10,1.8,86.0474,M,37.55,M,,*5A
[2021-02-22 15:17:46.711] $GPGGA,061804.30,3713.8954176,N,13701.4396015,E,1,10,1.8,86.9038,M,37.55,M,,*5A
[2021-02-22 15:17:46.820] $GPGGA,061804.40,3713.8953179,N,13701.4396930,E,1,10,1.8,87.6109,M,37.55,M,,*56
[2021-02-22 15:17:46.899] $GPGGA,061804.50,3713.8951041,N,13701.4399404,E,1,10,1.8,88.1333,M,37.55,M,,*59
[2021-02-22 15:17:47.024] $GPGGA,061804.60,3713.8952979,N,13701.4398606,E,1,10,1.8,87.9323,M,37.55,M,,*5C
[2021-02-22 15:17:47.102] $GPGGA,061804.70,3713.8952776,N,13701.4396528,E,1,10,1.8,88.3225,M,37.55,M,,*5F
[2021-02-22 15:17:47.211] $GPGGA,061804.80,3713.8953665,N,13701.4397064,E,1,10,1.8,89.0258,M,37.55,M,,*56
[2021-02-22 15:17:47.289] $GPGGA,061804.90,3713.8955017,N,13701.4396229,E,1,10,1.8,88.6713,M,37.55,M,,*55
[2021-02-22 15:17:47.414] $GPGGA,061805.00,3713.8956643,N,13701.4393963,E,1,10,1.8,88.5093,M,37.55,M,,*55
[2021-02-22 15:17:47.492] $GPGGA,061805.10,3713.8957177,N,13701.4394524,E,1,10,1.8,89.1814,M,37.55,M,,*5F
[2021-02-22 15:17:47.602] $GPGGA,061805.20,3713.8986404,N,13701.4347434,E,5,07,1.7,74.8351,M,37.55,M,5,0000*66
[2021-02-22 15:17:47.727] $GPGGA,061805.30,3713.8984344,N,13701.4350843,E,5,07,1.7,76.2453,M,37.55,M,5,0000*61
[2021-02-22 15:17:47.820] $GPGGA,061805.40,3713.8982814,N,13701.4353427,E,5,07,1.7,77.3108,M,37.55,M,5,0000*68
[2021-02-22 15:17:47.899] $GPGGA,061805.50,3713.8981630,N,13701.4355437,E,5,07,1.7,78.1401,M,37.55,M,5,0000*64
[2021-02-22 15:17:48.024] $GPGGA,061805.60,3713.8980681,N,13701.4357071,E,5,07,1.7,78.8110,M,37.55,M,5,0000*64
[2021-02-22 15:17:48.102] $GPGGA,061805.70,3713.8979879,N,13701.4358407,E,5,07,1.7,79.3642,M,37.55,M,5,0000*6A
[2021-02-22 15:17:48.227] $GPGGA,061805.80,3713.8979182,N,13701.4359619,E,5,07,1.7,79.8624,M,37.55,M,5,0000*6F
[2021-02-22 15:17:48.305] $GPGGA,061805.90,3713.8978619,N,13701.4360575,E,5,07,1.7,80.2537,M,37.55,M,5,0000*64
[2021-02-22 15:17:48.414] $GPGGA,061806.00,3713.8978050,N,13701.4361567,E,5,07,1.7,80.6549,M,37.55,M,6,0000*69
[2021-02-22 15:17:48.508] $GPGGA,061806.10,3713.8977589,N,13701.4362348,E,5,07,1.7,80.9667,M,37.55,M,6,0000*6E
[2021-02-22 15:17:48.602] $GPGGA,061806.20,3713.8977172,N,13701.4363071,E,5,07,1.7,81.2582,M,37.55,M,1,0000*60
[2021-02-22 15:17:48.727] $GPGGA,061806.30,3713.8976872,N,13701.4363595,E,5,07,1.7,81.4708,M,37.55,M,1,0000*60
[2021-02-22 15:17:48.805] $GPGGA,061806.40,3713.8976555,N,13701.4364134,E,5,07,1.7,81.6943,M,37.55,M,1,0000*64
[2021-02-22 15:17:48.914] $GPGGA,061806.50,3713.8976331,N,13701.4364491,E,5,07,1.7,81.8549,M,37.55,M,1,0000*63
[2021-02-22 15:17:48.992] $GPGGA,061806.60,3713.8976153,N,13701.4364733,E,5,07,1.7,81.9659,M,37.55,M,1,0000*6E
[2021-02-22 15:17:49.117] $GPGGA,061806.70,3713.8975949,N,13701.4365014,E,5,07,1.7,82.0907,M,37.55,M,1,0000*62
[2021-02-22 15:17:49.195] $GPGGA,061806.80,3713.8975750,N,13701.4365316,E,5,07,1.7,82.2246,M,37.55,M,1,0000*66
[2021-02-22 15:17:49.320] $GPGGA,061806.90,3713.8975606,N,13701.4365516,E,5,07,1.7,82.3157,M,37.55,M,1,0000*61
[2021-02-22 15:17:49.398] $GPGGA,061807.00,3713.8975497,N,13701.4365690,E,5,07,1.7,82.3979,M,37.55,M,2,0000*69
[2021-02-22 15:17:49.523] $GPGGA,061807.10,3713.8975344,N,13701.4365923,E,5,09,1.6,82.5010,M,37.55,M,2,0000*69
[2021-02-22 15:17:49.602] $GPGGA,061807.20,3713.8975155,N,13701.4366229,E,5,09,1.6,82.6296,M,37.55,M,2,0000*65
[2021-02-22 15:17:49.727] $GPGGA,061807.30,3713.8974932,N,13701.4366588,E,5,09,1.6,82.7690,M,37.55,M,2,0000*63
[2021-02-22 15:17:49.805] $GPGGA,061807.40,3713.8974730,N,13701.4366929,E,5,09,1.6,82.8983,M,37.55,M,2,0000*6D
[2021-02-22 15:17:49.930] $GPGGA,061807.50,3713.8974519,N,13701.4367238,E,5,09,1.6,83.0173,M,37.55,M,2,0000*61
[2021-02-22 15:17:50.008] $GPGGA,061807.60,3713.8974372,N,13701.4367494,E,5,09,1.6,83.1255,M,37.55,M,2,0000*6F
[2021-02-22 15:17:50.117] $GPGGA,061807.70,3713.8974268,N,13701.4367702,E,5,09,1.6,83.2140,M,37.55,M,2,0000*6C
[2021-02-22 15:17:50.195] $GPGGA,061807.80,3713.8974164,N,13701.4367924,E,5,09,1.6,83.3081,M,37.55,M,2,0000*6B
