
[2021-02-22 15:10:33.037] $GPGGA,,,,,,,,,,M,,M,,*56
[2021-02-22 15:10:33.068] $GPGGA,,,,,,,,,,M,,M,,*56
[2021-02-22 15:10:33.068] $GPGGA,,,,,,,,,,M,,M,,*56
[2021-02-22 15:10:33.068] $GPGGA,,,,,,,,,,M,,M,,*56
[2021-02-22 15:10:33.068] $GPGGA,,,,,,,,,,M,,M,,*56
[2021-02-22 15:10:33.068] $GPGGA,,,,,,,,,,M,,M,,*56
[2021-02-22 15:10:33.068] $GPGGA,,,,,,,,,,M,,M,,*56
[2021-02-22 15:10:33.068] $GPGGA,,,,,,,,,,M,,M,,*56
[2021-02-22 15:10:33.068] $GPGGA,,,,,,,,,,M,,M,,*56
[2021-02-22 15:10:33.068] $GPGGA,,,,,,,,,,M,,M,,*56
[2021-02-22 15:10:33.068] $GPGGA,,,,,,,,,,M,,M,,*56
[2021-02-22 15:10:33.068] $GPGGA,,,,,,,,,,M,,M,,*56
[2021-02-22 15:10:33.068] $GPGGA,,,,,,,,,,M,,M,,*56
[2021-02-22 15:10:33.068] $GPGGA,,,,,,,,,,M,,M,,*56
[2021-02-22 15:10:33.068] $GPGGA,,,,,,,,,,M,,M,,*56
[2021-02-22 15:10:33.068] $GPGGA,,,,,,,,,,M,,M,,*56
[2021-02-22 15:10:33.068] $GPGGA,,,,,,,,,,M,,M,,*56
[2021-02-22 15:10:33.068] $GPGGA,,,,,,,,,,M,,M,,*56
[2021-02-22 15:10:33.068] $GPGGA,,,,,,,,,,M,,M,,*56
[2021-02-22 15:10:33.068] $GPGGA,,,,,,,,,,M,,M,,*56
[2021-02-22 15:10:33.068] $GPGGA,,,,,,,,,,M,,M,,*56
[2021-02-22 15:10:33.068] $GPGGA,,,,,,,,,,M,,M,,*56
[2021-02-22 15:10:33.068] $GPGGA,,,,,,,,,,M,,M,,*56
[2021-02-22 15:10:33.068] $GPGGA,,,,,,,,,,M,,M,,*56
[2021-02-22 15:10:33.068] $GPGGA,,,,,,,,,,M,,M,,*56
[2021-02-22 15:10:33.068] $GPGGA,,,,,,,,,,M,,M,,*56
[2021-02-22 15:10:33.068] $GPGGA,,,,,,,,,,M,,M,,*56
[2021-02-22 15:10:33.068] $GPGGA,,,,,,,,,,M,,M,,*56
[2021-02-22 15:10:33.068] $GPGGA,,,,,,,,,,M,,M,,*56
[2021-02-22 15:10:33.068] $GPGGA,,,,,,,,,,M,,M,,*56
[2021-02-22 15:10:33.068] $GPGGA,,,,,,,,,,M,,M,,*56
[2021-02-22 15:10:33.068] $GPGGA,,,,,,,,,,M,,M,,*56
[2021-02-22 15:10:33.068] $GPGGA,,,,,,,,,,M,,M,,*56
[2021-02-22 15:10:33.068] $GPGGA,,,,,,,,,,M,,M,,*56
[2021-02-22 15:10:33.068] $GPGGA,,,,,,,,,,M,,M,,*56
[2021-02-22 15:10:33.068] $GPGGA,,,,,,,,,,M,,M,,*56
[2021-02-22 15:10:33.068] $GPGGA,,,,,,,,,,M,,M,,*56
[2021-02-22 15:10:33.068] $GPGGA,,,,,,,,,,M,,M,,*56
[2021-02-22 15:10:33.068] $GPGGA,,,,,,,,,,M,,M,,*56
[2021-02-22 15:10:33.099] $GPGGA,,,,,,,,,,M,,M,,*56
[2021-02-22 15:10:33.099] $GPGGA,,,,,,,,,,M,,M,,*56
[2021-02-22 15:10:33.099] $GPGGA,,,,,,,,,,M,,M,,*56
[2021-02-22 15:10:33.099] $GPGGA,,,,,,,,,,M,,M,,*56
[2021-02-22 15:10:33.099] $GPGGA,,,,,,,,,,M,,M,,*56
[2021-02-22 15:10:33.099] $GPGGA,,,,,,,,,,M,,M,,*56
[2021-02-22 15:10:33.099] $GPGGA,,,,,,,,,,M,,M,,*56
[2021-02-22 15:10:33.099] $GPGGA,,,,,,,,,,M,,M,,*56
[2021-02-22 15:10:33.099] $GPGGA,,,,,,,,,,M,,M,,*56
[2021-02-22 15:10:33.099] $GPGGA,,,,,,,,,,M,,M,,*56
[2021-02-22 15:10:33.099] $GPGGA,,,,,,,,,,M,,M,,*56
[2021-02-22 15:10:33.099] $GPGGA,,,,,,,,,,M,,M,,*56
[2021-02-22 15:10:33.099] $GPGGA,,,,,,,,,,M,,M,,*56
[2021-02-22 15:10:33.099] $GPGGA,,,,,,,,,,M,,M,,*56
[2021-02-22 15:10:33.099] $GPGGA,,,,,,,,,,M,,M,,*56
[2021-02-22 15:10:33.099] $GPGGA,,,,,,,,,,M,,M,,*56
[2021-02-22 15:10:33.099] $GPGGA,,,,,,,,,,M,,M,,*56
[2021-02-22 15:10:33.099] $GPGGA,,,,,,,,,,M,,M,,*56
[2021-02-22 15:10:33.099] $GPGGA,,,,,,,,,,M,,M,,*56
[2021-02-22 15:10:33.099] $GPGGA,,,,,,,,,,M,,M,,*56
[2021-02-22 15:10:33.099] $GPGGA,,,,,,,,,,M,,M,,*56
[2021-02-22 15:10:33.099] $GPGGA,,,,,,,,,,M,,M,,*56
[2021-02-22 15:10:33.099] $GPGGA,,,,,,,,,,M,,M,,*56
[2021-02-22 15:10:33.099] $GPGGA,,,,,,,,,,M,,M,,*56
[2021-02-22 15:10:33.099] $GPGGA,,,,,,,,,,M,,M,,*56
[2021-02-22 15:10:33.099] $GPGGA,,,,,,,,,,M,,M,,*56
[2021-02-22 15:10:33.099] $GPGGA,,,,,,,,,,M,,M,,*56
[2021-02-22 15:10:33.099] $GPGGA,,,,,,,,,,M,,M,,*56
[2021-02-22 15:10:33.099] $GPGGA,,,,,,,,,,M,,M,,*56
[2021-02-22 15:10:33.099] $GPGGA,,,,,,,,,,M,,M,,*56
[2021-02-22 15:10:33.099] $GPGGA,,,,,,,,,,M,,M,,*56
[2021-02-22 15:10:33.099] $GPGGA,,,,,,,,,,M,,M,,*56
[2021-02-22 15:10:33.099] $GPGGA,,,,,,,,,,M,,M,,*56
[2021-02-22 15:10:33.099] $GPGGA,,,,,,,,,,M,,M,,*56
[2021-02-22 15:10:33.099] $GPGGA,,,,,,,,,,M,,M,,*56
[2021-02-22 15:10:33.099] $GPGGA,,,,,,,,,,M,,M,,*56
[2021-02-22 15:10:33.099] $GPGGA,,,,,,,,,,M,,M,,*56
[2021-02-22 15:10:33.099] $GPGGA,,,,,,,,,,M,,M,,*56
[2021-02-22 15:10:33.099] $GPGGA,,,,,,,,,,M,,M,,*56
[2021-02-22 15:10:33.099] $GPGGA,,,,,,,,,,M,,M,,*56
[2021-02-22 15:10:33.099] $GPGGA,,,,,,,,,,M,,M,,*56
[2021-02-22 15:10:33.099] $GPGGA,,,,,,,,,,M,,M,,*56
[2021-02-22 15:10:33.099] $GPGGA,,,,,,,,,,M,,M,,*56
[2021-02-22 15:10:33.099] $GPGGA,,,,,,,,,,M,,M,,*56
[2021-02-22 15:10:33.099] $GPGGA,,,,,,,,,,M,,M,,*56
[2021-02-22 15:10:33.099] $GPGGA,,,,,,,,,,M,,M,,*56
[2021-02-22 15:10:33.099] $GPGGA,,,,,,,,,,M,,M,,*56
[2021-02-22 15:10:33.099] $GPGGA,,,,,,,,,,M,,M,,*56
[2021-02-22 15:10:33.099] $GPGGA,,,,,,,,,,M,,M,,*56
[2021-02-22 15:10:33.099] $GPGGA,,,,,,,,,,M,,M,,*56
[2021-02-22 15:10:33.209] $GPGGA,,,,,,,,,,M,,M,,*56
[2021-02-22 15:10:33.412] $GPGGA,,,,,,,,,,M,,M,,*56
[2021-02-22 15:10:33.615] $GPGGA,,,,,,,,,,M,,M,,*56
[2021-02-22 15:10:33.818] $GPGGA,,,,,,,,,,M,,M,,*56
[2021-02-22 15:10:34.006] $GPGGA,,,,,,,,,,M,,M,,*56
[2021-02-22 15:10:34.209] $GPGGA,,,,,,,,,,M,,M,,*56
[2021-02-22 15:10:34.412] $GPGGA,,,,,,,,,,M,,M,,*56
[2021-02-22 15:10:34.599] $GPGGA,,,,,,,,,,M,,M,,*56
[2021-02-22 15:10:34.818] $GPGGA,,,,,,,,,,M,,M,,*56
[2021-02-22 15:10:35.005] $GPGGA,,,,,,,,,,M,,M,,*56
[2021-02-22 15:10:35.209] $GPGGA,,,,,,,,,,M,,M,,*56
[2021-02-22 15:10:35.396] $GPGGA,,,,,,,,,,M,,M,,*56
[2021-02-22 15:10:35.615] $GPGGA,,,,,,,,,,M,,M,,*56
[2021-02-22 15:10:35.802] $GPGGA,,,,,,,,,,M,,M,,*56
[2021-02-22 15:10:36.005] $GPGGA,,,,,,,,,,M,,M,,*56
[2021-02-22 15:10:36.208] $GPGGA,,,,,,,,,,M,,M,,*56
[2021-02-22 15:10:36.412] $GPGGA,,,,,,,,,,M,,M,,*56
[2021-02-22 15:10:36.599] $GPGGA,,,,,,,,,,M,,M,,*56
[2021-02-22 15:10:36.818] $GPGGA,,,,,,,,,,M,,M,,*56
[2021-02-22 15:10:37.005] $GPGGA,,,,,,,,,,M,,M,,*56
[2021-02-22 15:10:37.208] $GPGGA,,,,,,,,,,M,,M,,*56
[2021-02-22 15:10:37.396] $GPGGA,,,,,,,,,,M,,M,,*56
[2021-02-22 15:10:37.615] $GPGGA,,,,,,,,,,M,,M,,*56
[2021-02-22 15:10:37.802] $GPGGA,,,,,,,,,,M,,M,,*56
[2021-02-22 15:10:38.021] $GPGGA,,,,,,,,,,M,,M,,*56
[2021-02-22 15:10:38.208] $GPGGA,,,,,,,,,,M,,M,,*56
[2021-02-22 15:10:38.411] $GPGGA,,,,,,,,,,M,,M,,*56
[2021-02-22 15:10:38.599] $GPGGA,,,,,,,,,,M,,M,,*56
[2021-02-22 15:10:38.818] $GPGGA,,,,,,,,,,M,,M,,*56
[2021-02-22 15:10:39.005] $GPGGA,,,,,,,,,,M,,M,,*56
[2021-02-22 15:10:39.208] $GPGGA,,,,,,,,,,M,,M,,*56
[2021-02-22 15:10:39.396] $GPGGA,,,,,,,,,,M,,M,,*56
[2021-02-22 15:10:39.615] $GPGGA,,,,,,,,,,M,,M,,*56
[2021-02-22 15:10:39.802] $GPGGA,,,,,,,,,,M,,M,,*56
[2021-02-22 15:10:40.005] $GPGGA,,,,,,,,,,M,,M,,*56
[2021-02-22 15:10:40.208] $GPGGA,,,,,,,,,,M,,M,,*56
[2021-02-22 15:10:40.411] $GPGGA,,,,,,,,,,M,,M,,*56
[2021-02-22 15:10:40.599] $GPGGA,,,,,,,,,,M,,M,,*56
[2021-02-22 15:10:40.818] $GPGGA,,,,,,,,,,M,,M,,*56
[2021-02-22 15:10:41.005] $GPGGA,,,,,,,,,,M,,M,,*56
[2021-02-22 15:10:41.208] $GPGGA,,,,,,,,,,M,,M,,*56
[2021-02-22 15:10:41.396] $GPGGA,,,,,,,,,,M,,M,,*56
[2021-02-22 15:10:41.614] $GPGGA,,,,,,,,,,M,,M,,*56
[2021-02-22 15:10:41.802] $GPGGA,,,,,,,,,,M,,M,,*56
[2021-02-22 15:10:42.005] $GPGGA,,,,,,,,,,M,,M,,*56
[2021-02-22 15:10:42.208] $GPGGA,,,,,,,,,,M,,M,,*56
[2021-02-22 15:10:42.411] $GPGGA,,,,,,,,,,M,,M,,*56
[2021-02-22 15:10:42.599] $GPGGA,,,,,,,,,,M,,M,,*56
[2021-02-22 15:10:42.817] $GPGGA,,,,,,,,,,M,,M,,*56
[2021-02-22 15:10:43.005] $GPGGA,,,,,,,,,,M,,M,,*56
[2021-02-22 15:10:43.208] $GPGGA,,,,,,,,,,M,,M,,*56
[2021-02-22 15:10:43.396] $GPGGA,,,,,,,,,,M,,M,,*56
[2021-02-22 15:10:43.614] $GPGGA,,,,,,,,,,M,,M,,*56
[2021-02-22 15:10:43.817] $GPGGA,,,,,,,,,,M,,M,,*56
[2021-02-22 15:10:44.005] $GPGGA,,,,,,,,,,M,,M,,*56
[2021-02-22 15:10:44.224] $GPGGA,,,,,,,,,,M,,M,,*56
[2021-02-22 15:10:44.411] $GPGGA,,,,,,,,,,M,,M,,*56
[2021-02-22 15:10:44.599] $GPGGA,,,,,,,,,,M,,M,,*56
[2021-02-22 15:10:44.817] $GPGGA,,,,,,,,,,M,,M,,*56
[2021-02-22 15:10:45.005] $GPGGA,,,,,,,,,,M,,M,,*56
[2021-02-22 15:10:45.208] $GPGGA,,,,,,,,,,M,,M,,*56
[2021-02-22 15:10:45.411] $GPGGA,,,,,,,,,,M,,M,,*56
[2021-02-22 15:10:45.614] $GPGGA,,,,,,,,,,M,,M,,*56
[2021-02-22 15:10:45.817] $GPGGA,,,,,,,,,,M,,M,,*56
[2021-02-22 15:10:46.005] $GPGGA,,,,,,,,,,M,,M,,*56
[2021-02-22 15:10:46.192] $GPGGA,,,,,,,,,,M,,M,,*56
[2021-02-22 15:10:46.411] $GPGGA,,,,,,,,,,M,,M,,*56
[2021-02-22 15:10:46.614] $GPGGA,,,,,,,,,,M,,M,,*56
[2021-02-22 15:10:46.817] $GPGGA,,,,,,,,,,M,,M,,*56
[2021-02-22 15:10:47.020] $GPGGA,,,,,,,,,,M,,M,,*56
[2021-02-22 15:10:47.208] $GPGGA,,,,,,,,,,M,,M,,*56
[2021-02-22 15:10:47.411] $GPGGA,,,,,,,,,,M,,M,,*56
[2021-02-22 15:10:47.598] $GPGGA,,,,,,,,,,M,,M,,*56
[2021-02-22 15:10:47.817] $GPGGA,,,,,,,,,,M,,M,,*56
[2021-02-22 15:10:48.005] $GPGGA,,,,,,,,,,M,,M,,*56
[2021-02-22 15:10:48.223] $GPGGA,,,,,,,,,,M,,M,,*56
[2021-02-22 15:10:48.411] $GPGGA,,,,,,,,,,M,,M,,*56
[2021-02-22 15:10:48.629] $GPGGA,,,,,,,,,,M,,M,,*56
[2021-02-22 15:10:48.801] $GPGGA,,,,,,,,,,M,,M,,*56
[2021-02-22 15:10:49.020] $GPGGA,,,,,,,,,,M,,M,,*56
[2021-02-22 15:10:49.223] $GPGGA,,,,,,,,,,M,,M,,*56
[2021-02-22 15:10:49.411] $GPGGA,,,,,,,,,,M,,M,,*56
[2021-02-22 15:10:49.614] $GPGGA,,,,,,,,,,M,,M,,*56
[2021-02-22 15:10:49.817] $GPGGA,,,,,,,,,,M,,M,,*56
[2021-02-22 15:10:50.004] $GPGGA,,,,,,,,,,M,,M,,*56
[2021-02-22 15:10:50.223] $GPGGA,,,,,,,,,,M,,M,,*56
[2021-02-22 15:10:50.411] $GPGGA,,,,,,,,,,M,,M,,*56
[2021-02-22 15:10:50.614] $GPGGA,,,,,,,,,,M,,M,,*56
[2021-02-22 15:10:50.801] $GPGGA,,,,,,,,,,M,,M,,*56
[2021-02-22 15:10:51.020] $GPGGA,,,,,,,,,,M,,M,,*56
[2021-02-22 15:10:51.207] $GPGGA,,,,,,,,,,M,,M,,*56
[2021-02-22 15:10:51.426] $GPGGA,,,,,,,,,,M,,M,,*56
[2021-02-22 15:10:51.614] $GPGGA,,,,,,,,,,M,,M,,*56
[2021-02-22 15:10:51.817] $GPGGA,,,,,,,,,,M,,M,,*56
[2021-02-22 15:10:52.004] $GPGGA,,,,,,,,,,M,,M,,*56
[2021-02-22 15:10:52.223] $GPGGA,,,,,,,,,,M,,M,,*56
[2021-02-22 15:10:52.411] $GPGGA,,,,,,,,,,M,,M,,*56
[2021-02-22 15:10:52.614] $GPGGA,,,,,,,,,,M,,M,,*56
[2021-02-22 15:10:52.801] $GPGGA,,,,,,,,,,M,,M,,*56
[2021-02-22 15:10:53.020] $GPGGA,,,,,,,,,,M,,M,,*56
[2021-02-22 15:10:53.207] $GPGGA,,,,,,,,,,M,,M,,*56
[2021-02-22 15:10:53.410] $GPGGA,,,,,,,,,,M,,M,,*56
[2021-02-22 15:10:53.613] $GPGGA,,,,,,,,,,M,,M,,*56
[2021-02-22 15:10:53.817] $GPGGA,,,,,,,,,,M,,M,,*56
[2021-02-22 15:10:54.004] $GPGGA,,,,,,,,,,M,,M,,*56
[2021-02-22 15:10:54.207] $GPGGA,,,,,,,,,,M,,M,,*56
[2021-02-22 15:10:54.410] $GPGGA,,,,,,,,,,M,,M,,*56
[2021-02-22 15:10:54.613] $GPGGA,,,,,,,,,,M,,M,,*56
[2021-02-22 15:10:54.801] $GPGGA,,,,,,,,,,M,,M,,*56
[2021-02-22 15:10:55.020] $GPGGA,,,,,,,,,,M,,M,,*56
[2021-02-22 15:10:55.207] $GPGGA,,,,,,,,,,M,,M,,*56
[2021-02-22 15:10:55.410] $GPGGA,,,,,,,,,,M,,M,,*56
[2021-02-22 15:10:55.613] $GPGGA,,,,,,,,,,M,,M,,*56
[2021-02-22 15:10:55.816] $GPGGA,,,,,,,,,,M,,M,,*56
[2021-02-22 15:10:56.004] $GPGGA,,,,,,,,,,M,,M,,*56
[2021-02-22 15:10:56.223] $GPGGA,,,,,,,,,,M,,M,,*56
[2021-02-22 15:10:56.410] $GPGGA,,,,,,,,,,M,,M,,*56
[2021-02-22 15:10:56.613] $GPGGA,,,,,,,,,,M,,M,,*56
[2021-02-22 15:10:56.801] $GPGGA,,,,,,,,,,M,,M,,*56
[2021-02-22 15:10:57.020] $GPGGA,,,,,,,,,,M,,M,,*56
[2021-02-22 15:10:57.207] $GPGGA,,,,,,,,,,M,,M,,*56
[2021-02-22 15:10:57.410] $GPGGA,,,,,,,,,,M,,M,,*56
[2021-02-22 15:10:57.613] $GPGGA,,,,,,,,,,M,,M,,*56
[2021-02-22 15:10:57.816] $GPGGA,,,,,,,,,,M,,M,,*56
[2021-02-22 15:10:58.004] $GPGGA,,,,,,,,,,M,,M,,*56
[2021-02-22 15:10:58.207] $GPGGA,,,,,,,,,,M,,M,,*56
[2021-02-22 15:10:58.410] $GPGGA,,,,,,,,,,M,,M,,*56
[2021-02-22 15:10:58.613] $GPGGA,,,,,,,,,,M,,M,,*56
[2021-02-22 15:10:58.801] $GPGGA,,,,,,,,,,M,,M,,*56
[2021-02-22 15:10:59.019] $GPGGA,,,,,,,,,,M,,M,,*56
[2021-02-22 15:10:59.207] $GPGGA,,,,,,,,,,M,,M,,*56
[2021-02-22 15:10:59.410] $GPGGA,,,,,,,,,,M,,M,,*56
[2021-02-22 15:10:59.613] $GPGGA,,,,,,,,,,M,,M,,*56
[2021-02-22 15:10:59.816] $GPGGA,,,,,,,,,,M,,M,,*56
[2021-02-22 15:11:00.004] $GPGGA,,,,,,,,,,M,,M,,*56
[2021-02-22 15:11:00.207] $GPGGA,,,,,,,,,,M,,M,,*56
[2021-02-22 15:11:00.410] $GPGGA,,,,,,,,,,M,,M,,*56
[2021-02-22 15:11:00.613] $GPGGA,,,,,,,,,,M,,M,,*56
[2021-02-22 15:11:00.801] $GPGGA,,,,,,,,,,M,,M,,*56
[2021-02-22 15:11:01.019] $GPGGA,,,,,,,,,,M,,M,,*56
[2021-02-22 15:11:01.207] $GPGGA,,,,,,,,,,M,,M,,*56
[2021-02-22 15:11:01.410] $GPGGA,,,,,,,,,,M,,M,,*56
[2021-02-22 15:11:01.613] $GPGGA,,,,,,,,,,M,,M,,*56
[2021-02-22 15:11:01.816] $GPGGA,,,,,,,,,,M,,M,,*56
[2021-02-22 15:11:02.004] $GPGGA,,,,,,,,,,M,,M,,*56
[2021-02-22 15:11:02.222] $GPGGA,,,,,,,,,,M,,M,,*56
[2021-02-22 15:11:02.410] $GPGGA,,,,,,,,,,M,,M,,*56
[2021-02-22 15:11:02.613] $GPGGA,,,,,,,,,,M,,M,,*56
[2021-02-22 15:11:02.816] $GPGGA,,,,,,,,,,M,,M,,*56
[2021-02-22 15:11:03.019] $GPGGA,,,,,,,,,,M,,M,,*56
[2021-02-22 15:11:03.207] $GPGGA,,,,,,,,,,M,,M,,*56
[2021-02-22 15:11:03.410] $GPGGA,,,,,,,,,,M,,M,,*56
[2021-02-22 15:11:03.613] $GPGGA,,,,,,,,,,M,,M,,*56
[2021-02-22 15:11:03.816] $GPGGA,,,,,,,,,,M,,M,,*56
[2021-02-22 15:11:04.003] $GPGGA,,,,,,,,,,M,,M,,*56
[2021-02-22 15:11:04.207] $GPGGA,,,,,,,,,,M,,M,,*56
[2021-02-22 15:11:04.410] $GPGGA,,,,,,,,,,M,,M,,*56
[2021-02-22 15:11:04.613] $GPGGA,,,,,,,,,,M,,M,,*56
[2021-02-22 15:11:04.816] $GPGGA,,,,,,,,,,M,,M,,*56
[2021-02-22 15:11:05.019] $GPGGA,,,,,,,,,,M,,M,,*56
[2021-02-22 15:11:05.206] $GPGGA,,,,,,,,,,M,,M,,*56
[2021-02-22 15:11:05.410] $GPGGA,,,,,,,,,,M,,M,,*56
[2021-02-22 15:11:05.613] $GPGGA,,,,,,,,,,M,,M,,*56
[2021-02-22 15:11:05.816] $GPGGA,,,,,,,,,,M,,M,,*56
[2021-02-22 15:11:06.003] $GPGGA,,,,,,,,,,M,,M,,*56
[2021-02-22 15:11:06.222] $GPGGA,,,,,,,,,,M,,M,,*56
[2021-02-22 15:11:06.409] $GPGGA,,,,,,,,,,M,,M,,*56
[2021-02-22 15:11:06.613] $GPGGA,,,,,,,,,,M,,M,,*56
[2021-02-22 15:11:06.816] $GPGGA,,,,,,,,,,M,,M,,*56
[2021-02-22 15:11:07.019] $GPGGA,,,,,,,,,,M,,M,,*56
[2021-02-22 15:11:07.206] $GPGGA,,,,,,,,,,M,,M,,*56
[2021-02-22 15:11:07.409] $GPGGA,,,,,,,,,,M,,M,,*56
[2021-02-22 15:11:07.613] $GPGGA,,,,,,,,,,M,,M,,*56
[2021-02-22 15:11:07.816] $GPGGA,,,,,,,,,,M,,M,,*56
[2021-02-22 15:11:08.003] $GPGGA,,,,,,,,,,M,,M,,*56
[2021-02-22 15:11:08.206] $GPGGA,,,,,,,,,,M,,M,,*56
[2021-02-22 15:11:08.409] $GPGGA,,,,,,,,,,M,,M,,*56
[2021-02-22 15:11:08.613] $GPGGA,,,,,,,,,,M,,M,,*56
[2021-02-22 15:11:08.800] $GPGGA,,,,,,,,,,M,,M,,*56
[2021-02-22 15:11:09.019] $GPGGA,,,,,,,,,,M,,M,,*56
[2021-02-22 15:11:09.206] $GPGGA,,,,,,,,,,M,,M,,*56
[2021-02-22 15:11:09.409] $GPGGA,,,,,,,,,,M,,M,,*56
[2021-02-22 15:11:09.612] $GPGGA,,,,,,,,,,M,,M,,*56
[2021-02-22 15:11:09.815] $GPGGA,,,,,,,,,,M,,M,,*56
[2021-02-22 15:11:10.003] $GPGGA,,,,,,,,,,M,,M,,*56
[2021-02-22 15:11:10.222] $GPGGA,,,,,,,,,,M,,M,,*56
[2021-02-22 15:11:10.409] $GPGGA,,,,,,,,,,M,,M,,*56
[2021-02-22 15:11:10.612] $GPGGA,,,,,,,,,,M,,M,,*56
[2021-02-22 15:11:10.800] $GPGGA,,,,,,,,,,M,,M,,*56
[2021-02-22 15:11:11.019] $GPGGA,,,,,,,,,,M,,M,,*56
[2021-02-22 15:11:11.206] $GPGGA,,,,,,,,,,M,,M,,*56
[2021-02-22 15:11:11.409] $GPGGA,,,,,,,,,,M,,M,,*56
[2021-02-22 15:11:11.597] $GNGGA,061111.20,3713.89617830,N,13701.43605860,E,2,04,3.9,95.003,M,36.770,M,1.2,0979*69
[2021-02-22 15:11:11.815] $GNGGA,061111.40,3713.89661997,N,13701.43329200,E,1,05,2.7,98.508,M,36.770,M,,*41
[2021-02-22 15:11:11.925] $GNGGA,061111.50,3713.89661943,N,13701.43329122,E,1,05,2.7,98.513,M,36.770,M,,*40
[2021-02-22 15:11:12.019] $GNGGA,061111.60,3713.89538476,N,13701.43765245,E,2,06,2.1,89.297,M,36.770,M,1.6,0979*6A
[2021-02-22 15:11:12.112] $GNGGA,061111.70,3713.89538489,N,13701.43765103,E,2,06,2.1,89.302,M,36.770,M,1.7,0979*66
[2021-02-22 15:11:12.222] $GNGGA,061111.80,3713.89528738,N,13701.43799158,E,2,06,2.1,88.631,M,36.770,M,1.8,0979*67
[2021-02-22 15:11:12.315] $GNGGA,061111.90,3713.89528815,N,13701.43798848,E,2,06,2.1,88.634,M,36.770,M,1.9,0979*6B
[2021-02-22 15:11:12.409] $GNGGA,061112.00,3713.89524093,N,13701.43813425,E,2,07,2.1,88.400,M,36.770,M,2.0,0979*6E
[2021-02-22 15:11:12.503] $GNGGA,061112.10,3713.89523902,N,13701.43813560,E,2,07,2.1,88.396,M,36.770,M,1.1,0979*63
[2021-02-22 15:11:12.628] $GNGGA,061112.20,3713.89521055,N,13701.43820193,E,2,07,2.1,88.280,M,36.770,M,1.2,0979*64
[2021-02-22 15:11:12.722] $GNGGA,061112.30,3713.89521135,N,13701.43820354,E,2,07,2.1,88.277,M,36.770,M,1.3,0979*62
[2021-02-22 15:11:12.831] $GNGGA,061112.40,3713.89519343,N,13701.43820586,E,2,07,1.4,88.250,M,36.770,M,1.4,0979*60
[2021-02-22 15:11:12.925] $GNGGA,061112.50,3713.89519296,N,13701.43820618,E,2,07,1.4,88.246,M,36.770,M,1.5,0979*6A
[2021-02-22 15:11:13.018] $GNGGA,061112.60,3713.89516138,N,13701.43817412,E,2,07,2.1,88.311,M,36.770,M,1.6,0979*6B
[2021-02-22 15:11:13.112] $GNGGA,061112.70,3713.89516250,N,13701.43817493,E,2,07,2.1,88.313,M,36.770,M,1.7,0979*6D
[2021-02-22 15:11:13.222] $GNGGA,061112.80,3713.89514001,N,13701.43810202,E,2,07,2.1,88.427,M,36.770,M,1.8,0979*60
[2021-02-22 15:11:13.315] $GNGGA,061112.90,3713.89514031,N,13701.43810296,E,2,07,2.1,88.429,M,36.770,M,1.9,0979*60
[2021-02-22 15:11:13.425] $GNGGA,061113.00,3713.89514176,N,13701.43800543,E,2,07,2.1,88.562,M,36.770,M,2.0,0979*60
[2021-02-22 15:11:13.518] $GNGGA,061113.10,3713.89514141,N,13701.43800446,E,2,07,2.1,88.563,M,36.770,M,2.1,0979*61
[2021-02-22 15:11:13.628] $GNGGA,061113.20,3713.89514534,N,13701.43791980,E,2,07,2.1,88.667,M,36.770,M,1.2,0979*63
[2021-02-22 15:11:13.721] $GNGGA,061113.30,3713.89514429,N,13701.43791572,E,2,07,2.1,88.670,M,36.770,M,1.3,0979*69
[2021-02-22 15:11:13.831] $GNGGA,061113.40,3713.89515396,N,13701.43784426,E,2,07,2.1,88.756,M,36.770,M,1.4,0979*6A
[2021-02-22 15:11:13.925] $GNGGA,061113.50,3713.89515365,N,13701.43784325,E,2,07,2.1,88.756,M,36.770,M,1.5,0979*62
[2021-02-22 15:11:14.018] $GNGGA,061113.60,3713.89515569,N,13701.43778619,E,2,07,2.1,88.830,M,36.770,M,1.6,0979*6E
[2021-02-22 15:11:14.112] $GNGGA,061113.70,3713.89515680,N,13701.43778460,E,2,07,2.1,88.835,M,36.770,M,1.7,0979*63
[2021-02-22 15:11:14.222] $GNGGA,061113.80,3713.89516504,N,13701.43774115,E,2,07,2.1,88.893,M,36.770,M,1.8,0979*68
[2021-02-22 15:11:14.315] $GNGGA,061113.90,3713.89516260,N,13701.43773866,E,2,07,2.1,88.891,M,36.770,M,1.9,0979*65
[2021-02-22 15:11:14.425] $GNGGA,061114.00,3713.89518001,N,13701.43769623,E,2,07,2.1,88.945,M,36.770,M,2.0,0979*66
[2021-02-22 15:11:14.518] $GNGGA,061114.10,3713.89518120,N,13701.43769497,E,2,07,2.1,88.944,M,36.770,M,1.1,0979*6B
[2021-02-22 15:11:14.628] $GNGGA,061114.20,3713.89520301,N,13701.43763782,E,2,07,2.1,89.005,M,36.770,M,1.2,0979*61
[2021-02-22 15:11:14.721] $GNGGA,061114.30,3713.89520347,N,13701.43763603,E,2,07,2.1,89.003,M,36.770,M,1.3,0979*6D
[2021-02-22 15:11:14.831] $GNGGA,061114.40,3713.89522968,N,13701.43760232,E,2,07,2.1,89.058,M,36.770,M,1.4,0979*63
[2021-02-22 15:11:14.925] $GNGGA,061114.50,3713.89523052,N,13701.43760112,E,2,07,2.1,89.059,M,36.770,M,1.5,0979*62
[2021-02-22 15:11:15.018] $GNGGA,061114.60,3713.89526184,N,13701.43757308,E,2,07,2.1,89.112,M,36.770,M,1.6,0979*6E
[2021-02-22 15:11:15.112] $GNGGA,061114.70,3713.89526244,N,13701.43757286,E,2,07,2.1,89.109,M,36.770,M,1.7,0979*6C
[2021-02-22 15:11:15.221] $GNGGA,061114.80,3713.89529708,N,13701.43755300,E,2,07,2.1,89.161,M,36.770,M,1.8,0979*6D
[2021-02-22 15:11:15.315] $GNGGA,061114.90,3713.89529820,N,13701.43755388,E,2,07,2.1,89.158,M,36.770,M,1.9,0979*62
[2021-02-22 15:11:15.425] $GNGGA,061115.00,3713.89532973,N,13701.43753832,E,2,07,2.1,89.202,M,36.770,M,2.0,0979*6D
[2021-02-22 15:11:15.518] $GNGGA,061115.10,3713.89532870,N,13701.43753770,E,2,07,2.1,89.199,M,36.770,M,1.1,0979*64
[2021-02-22 15:11:15.628] $GNGGA,061115.20,3713.89536041,N,13701.43752219,E,2,07,2.1,89.238,M,36.770,M,1.2,0979*69
[2021-02-22 15:11:15.721] $GNGGA,061115.30,3713.89536083,N,13701.43752107,E,2,07,2.1,89.239,M,36.770,M,1.3,0979*6A
[2021-02-22 15:11:15.831] $GNGGA,061115.40,3713.89539384,N,13701.43750221,E,2,07,2.1,89.286,M,36.770,M,1.4,0979*60
[2021-02-22 15:11:15.924] $GNGGA,061115.50,3713.89539399,N,13701.43750126,E,2,07,2.1,89.293,M,36.770,M,1.5,0979*6C
[2021-02-22 15:11:16.018] $GNGGA,061115.60,3713.89542602,N,13701.43748356,E,2,07,2.1,89.342,M,36.770,M,1.6,0979*66
[2021-02-22 15:11:16.112] $GNGGA,061115.70,3713.89542646,N,13701.43748238,E,2,07,2.1,89.347,M,36.770,M,1.7,0979*6A
[2021-02-22 15:11:16.221] $GNGGA,061115.80,3713.89545333,N,13701.43746343,E,2,07,2.1,89.394,M,36.770,M,1.8,0979*67
[2021-02-22 15:11:16.315] $GNGGA,061115.90,3713.89545376,N,13701.43746237,E,2,07,2.1,89.396,M,36.770,M,1.9,0979*66
[2021-02-22 15:11:16.424] $GNGGA,061116.00,3713.89547607,N,13701.43743657,E,2,07,2.1,89.442,M,36.770,M,1.0,0979*6D
[2021-02-22 15:11:16.518] $GNGGA,061116.10,3713.89547710,N,13701.43743655,E,2,07,2.1,89.443,M,36.770,M,1.1,0979*69
[2021-02-22 15:11:16.628] $GNGGA,061116.20,3713.89549812,N,13701.43741034,E,2,07,2.1,89.488,M,36.770,M,1.2,0979*6E
[2021-02-22 15:11:16.721] $GNGGA,061116.30,3713.89549933,N,13701.43740933,E,2,07,2.1,89.490,M,36.770,M,1.3,0979*6A
[2021-02-22 15:11:16.831] $GNGGA,061116.40,3713.89551812,N,13701.43738914,E,2,07,2.1,89.526,M,36.770,M,1.4,0979*67
[2021-02-22 15:11:16.924] $GNGGA,061116.50,3713.89552012,N,13701.43738605,E,2,07,2.1,89.529,M,36.770,M,1.5,0979*6C
[2021-02-22 15:11:17.018] $GNGGA,061116.60,3713.89553412,N,13701.43736882,E,2,07,2.1,89.565,M,36.770,M,1.6,0979*6E
[2021-02-22 15:11:17.112] $GNGGA,061116.70,3713.89553590,N,13701.43736860,E,2,07,2.1,89.567,M,36.770,M,1.7,0979*6B
[2021-02-22 15:11:17.221] $GNGGA,061116.80,3713.89554766,N,13701.43735442,E,2,07,2.1,89.610,M,36.770,M,1.8,0979*6B
[2021-02-22 15:11:17.315] $GNGGA,061116.90,3713.89554698,N,13701.43735451,E,2,07,2.1,89.608,M,36.770,M,1.9,0979*60
[2021-02-22 15:11:17.424] $GNGGA,061117.00,3713.89555476,N,13701.43734721,E,2,07,2.1,89.639,M,36.770,M,1.0,0979*65
[2021-02-22 15:11:17.518] $GNGGA,061117.10,3713.89555498,N,13701.43734399,E,2,07,2.1,89.644,M,36.770,M,1.1,0979*68
[2021-02-22 15:11:17.627] $GNGGA,061117.20,3713.89556211,N,13701.43733949,E,2,07,2.1,89.678,M,36.770,M,1.2,0979*63
[2021-02-22 15:11:17.721] $GNGGA,061117.30,3713.89556152,N,13701.43733685,E,2,07,2.1,89.682,M,36.770,M,1.3,0979*6D
[2021-02-22 15:11:17.831] $GNGGA,061117.40,3713.89556896,N,13701.43732947,E,2,07,2.1,89.716,M,36.770,M,1.4,0979*60
[2021-02-22 15:11:17.924] $GNGGA,061117.50,3713.89556847,N,13701.43732937,E,2,07,2.1,89.719,M,36.770,M,1.5,0979*64
[2021-02-22 15:11:18.018] $GNGGA,061117.60,3713.89557682,N,13701.43732174,E,2,07,2.1,89.747,M,36.770,M,1.6,0979*66
[2021-02-22 15:11:18.127] $GNGGA,061117.70,3713.89557786,N,13701.43732024,E,2,07,2.1,89.749,M,36.770,M,1.7,0979*69
[2021-02-22 15:11:18.221] $GNGGA,061117.80,3713.89558852,N,13701.43731681,E,2,07,2.1,89.761,M,36.770,M,1.8,0979*60
[2021-02-22 15:11:18.315] $GNGGA,061117.90,3713.89558910,N,13701.43731668,E,2,07,2.1,89.767,M,36.770,M,1.9,0979*66
[2021-02-22 15:11:18.424] $GNGGA,061118.00,3713.89560481,N,13701.43731757,E,2,07,2.1,89.777,M,36.770,M,1.0,0979*6B
[2021-02-22 15:11:18.518] $GNGGA,061118.10,3713.89560467,N,13701.43731794,E,2,07,2.1,89.779,M,36.770,M,1.1,0979*62
[2021-02-22 15:11:18.627] $GNGGA,061118.20,3713.89561912,N,13701.43732137,E,2,07,2.1,89.792,M,36.770,M,1.2,0979*65
[2021-02-22 15:11:18.721] $GNGGA,061118.30,3713.89562006,N,13701.43732210,E,2,07,2.1,89.791,M,36.770,M,1.3,0979*6F
[2021-02-22 15:11:18.831] $GNGGA,061118.40,3713.89563422,N,13701.43732648,E,2,07,2.1,89.805,M,36.770,M,1.4,0979*67
[2021-02-22 15:11:18.924] $GNGGA,061118.50,3713.89563337,N,13701.43732497,E,2,07,2.1,89.809,M,36.770,M,1.5,0979*68
[2021-02-22 15:11:19.018] $GNGGA,061118.60,3713.89564894,N,13701.43732663,E,2,07,2.1,89.823,M,36.770,M,1.6,0979*6C
[2021-02-22 15:11:19.112] $GNGGA,061118.70,3713.89564883,N,13701.43732553,E,2,07,2.1,89.829,M,36.770,M,1.7,0979*60
[2021-02-22 15:11:19.221] $GNGGA,061118.80,3713.89566345,N,13701.43732450,E,2,07,2.1,89.846,M,36.770,M,1.8,0979*68
[2021-02-22 15:11:19.315] $GNGGA,061118.90,3713.89566480,N,13701.43732427,E,2,07,2.1,89.846,M,36.770,M,1.9,0979*66
[2021-02-22 15:11:19.424] $GNGGA,061119.00,3713.89567497,N,13701.43732262,E,2,07,2.1,89.857,M,36.770,M,1.0,0979*67
[2021-02-22 15:11:19.518] $GNGGA,061119.10,3713.89567639,N,13701.43732364,E,2,07,2.1,89.858,M,36.770,M,1.1,0979*69
[2021-02-22 15:11:19.627] $GNGGA,061119.20,3713.89568465,N,13701.43732153,E,2,07,2.1,89.868,M,36.770,M,1.2,0979*68
[2021-02-22 15:11:19.721] $GNGGA,061119.30,3713.89568722,N,13701.43732723,E,2,07,2.1,89.866,M,36.770,M,1.3,0979*67
[2021-02-22 15:11:19.830] $GNGGA,061119.40,3713.89569645,N,13701.43732266,E,2,07,2.1,89.871,M,36.770,M,1.4,0979*64
[2021-02-22 15:11:19.924] $GNGGA,061119.50,3713.89569439,N,13701.43732372,E,2,07,2.1,89.870,M,36.770,M,1.5,0979*68
[2021-02-22 15:11:20.018] $GNGGA,061119.60,3713.89570248,N,13701.43731631,E,2,07,2.1,89.889,M,36.770,M,1.6,0979*67
[2021-02-22 15:11:20.112] $GNGGA,061119.70,3713.89570218,N,13701.43731796,E,2,07,2.1,89.886,M,36.770,M,1.7,0979*61
[2021-02-22 15:11:20.221] $GNGGA,061119.80,3713.89570756,N,13701.43730672,E,2,08,1.6,89.908,M,36.770,M,1.8,0979*68
[2021-02-22 15:11:20.315] $GNGGA,061119.90,3713.89570822,N,13701.43730727,E,2,07,1.6,89.910,M,36.770,M,1.9,0979*63
[2021-02-22 15:11:20.424] $GNGGA,061120.00,3713.89571262,N,13701.43729904,E,2,08,1.6,89.926,M,36.770,M,2.0,0979*68
[2021-02-22 15:11:20.518] $GNGGA,061120.10,3713.89571265,N,13701.43729856,E,2,08,1.6,89.922,M,36.770,M,2.1,0979*6D
[2021-02-22 15:11:20.627] $GNGGA,061120.20,3713.89571865,N,13701.43729248,E,2,08,1.6,89.940,M,36.770,M,1.2,0979*65
[2021-02-22 15:11:20.721] $GNGGA,061120.30,3713.89571757,N,13701.43729241,E,2,08,1.6,89.936,M,36.770,M,1.3,0979*63
[2021-02-22 15:11:20.830] $GNGGA,061120.40,3713.89572223,N,13701.43728577,E,2,08,1.6,89.954,M,36.770,M,1.4,0979*61
[2021-02-22 15:11:20.924] $GNGGA,061120.50,3713.89572060,N,13701.43728679,E,2,08,1.6,89.954,M,36.770,M,1.5,0979*69
[2021-02-22 15:11:21.018] $GNGGA,061120.60,3713.89572525,N,13701.43728467,E,2,08,1.6,89.967,M,36.770,M,1.6,0979*60
[2021-02-22 15:11:21.112] $GNGGA,061120.70,3713.89572589,N,13701.43728478,E,2,08,1.6,89.967,M,36.770,M,1.7,0979*68
[2021-02-22 15:11:21.221] $GNGGA,061120.80,3713.89573279,N,13701.43728495,E,2,08,1.6,89.980,M,36.770,M,1.8,0979*6B
[2021-02-22 15:11:21.315] $GNGGA,061120.90,3713.89573378,N,13701.43728718,E,2,08,1.6,89.981,M,36.770,M,1.9,0979*6C
[2021-02-22 15:11:21.424] $GNGGA,061121.00,3713.89574240,N,13701.43728924,E,2,09,1.5,89.995,M,36.770,M,2.0,0979*65
[2021-02-22 15:11:21.518] $GNGGA,061121.10,3713.89574327,N,13701.43729200,E,2,08,1.5,89.996,M,36.770,M,2.1,0979*6B
[2021-02-22 15:11:21.627] $GNGGA,061121.20,3713.89575355,N,13701.43729908,E,2,09,1.5,90.006,M,36.770,M,1.2,0979*66
[2021-02-22 15:11:21.721] $GNGGA,061121.30,3713.89575341,N,13701.43730184,E,2,09,1.5,90.004,M,36.770,M,1.3,0979*65
[2021-02-22 15:11:21.830] $GNGGA,061121.40,3713.89576368,N,13701.43730852,E,2,09,1.5,90.015,M,36.770,M,1.4,0979*6F
[2021-02-22 15:11:21.924] $GNGGA,061121.50,3713.89576237,N,13701.43730842,E,2,09,1.5,90.014,M,36.770,M,1.5,0979*64
[2021-02-22 15:11:22.018] $GNGGA,061121.60,3713.89577368,N,13701.43731228,E,2,09,1.5,90.027,M,36.770,M,1.6,0979*69
[2021-02-22 15:11:22.127] $GNGGA,061121.70,3713.89577263,N,13701.43731099,E,2,09,1.5,90.029,M,36.770,M,1.7,0979*65
[2021-02-22 15:11:22.221] $GNGGA,061121.80,3713.89578257,N,13701.43731141,E,2,09,1.5,90.046,M,36.770,M,1.8,0979*60
[2021-02-22 15:11:22.315] $GNGGA,061121.90,3713.89578207,N,13701.43731180,E,2,09,1.5,90.044,M,36.770,M,1.9,0979*6A
[2021-02-22 15:11:22.408] $GNGGA,061122.00,3713.89579079,N,13701.43730995,E,2,09,1.5,90.058,M,36.770,M,2.0,0979*60
[2021-02-22 15:11:22.518] $GNGGA,061122.10,3713.89579096,N,13701.43730916,E,2,09,1.5,90.063,M,36.770,M,1.1,0979*61
[2021-02-22 15:11:22.627] $GNGGA,061122.20,3713.89579940,N,13701.43730590,E,2,09,1.5,90.074,M,36.770,M,1.2,0979*67
[2021-02-22 15:11:22.721] $GNGGA,061122.30,3713.89580037,N,13701.43730626,E,2,09,1.5,90.077,M,36.770,M,1.3,0979*65
[2021-02-22 15:11:22.830] $GNGGA,061122.40,3713.89580608,N,13701.43730176,E,2,09,1.5,90.094,M,36.770,M,1.4,0979*60
[2021-02-22 15:11:22.924] $GNGGA,061122.50,3713.89580744,N,13701.43730337,E,2,09,1.5,90.090,M,36.770,M,1.5,0979*6A
[2021-02-22 15:11:23.018] $GNGGA,061122.60,3713.89581351,N,13701.43729831,E,2,09,1.5,90.110,M,36.770,M,1.6,0979*67
[2021-02-22 15:11:23.111] $GNGGA,061122.70,3713.89581307,N,13701.43729806,E,2,09,1.5,90.110,M,36.770,M,1.7,0979*60
[2021-02-22 15:11:23.221] $GNGGA,061122.80,3713.89582150,N,13701.43729178,E,2,09,1.5,90.135,M,36.770,M,1.8,0979*64
[2021-02-22 15:11:23.315] $GNGGA,061122.90,3713.89582025,N,13701.43729252,E,2,09,1.5,90.130,M,36.770,M,1.9,0979*69
[2021-02-22 15:11:23.424] $GNGGA,061123.00,3713.89582504,N,13701.43728813,E,2,09,1.5,90.152,M,36.770,M,1.0,0979*64
[2021-02-22 15:11:23.518] $GNGGA,061123.10,3713.89582462,N,13701.43728649,E,2,09,1.5,90.152,M,36.770,M,1.1,0979*64
[2021-02-22 15:11:23.627] $GNGGA,061123.20,3713.89582563,N,13701.43728103,E,2,09,1.5,90.179,M,36.770,M,1.2,0979*64
[2021-02-22 15:11:23.721] $GNGGA,061123.30,3713.89582538,N,13701.43727944,E,2,09,1.5,90.173,M,36.770,M,1.3,0979*64
[2021-02-22 15:11:23.830] $GNGGA,061123.40,3713.89582785,N,13701.43727659,E,2,09,1.5,90.202,M,36.770,M,1.4,0979*66
[2021-02-22 15:11:23.924] $GNGGA,061123.50,3713.89582875,N,13701.43727694,E,2,09,1.5,90.200,M,36.770,M,1.5,0979*65
[2021-02-22 15:11:24.018] $GNGGA,061123.60,3713.89583403,N,13701.43727694,E,2,09,1.5,90.214,M,36.770,M,1.6,0979*6C
[2021-02-22 15:11:24.111] $GNGGA,061123.70,3713.89583406,N,13701.43727525,E,2,09,1.5,90.222,M,36.770,M,1.7,0979*65
[2021-02-22 15:11:24.221] $GNGGA,061123.80,3713.89583572,N,13701.43727425,E,2,09,1.5,90.230,M,36.770,M,1.8,0979*65
[2021-02-22 15:11:24.315] $GNGGA,061123.90,3713.89583471,N,13701.43727331,E,2,09,1.5,90.232,M,36.770,M,1.9,0979*67
[2021-02-22 15:11:24.424] $GNGGA,061124.00,3713.89583282,N,13701.43727100,E,2,09,1.5,90.245,M,36.770,M,1.0,0979*6A
[2021-02-22 15:11:24.518] $GNGGA,061124.10,3713.89583435,N,13701.43727036,E,2,09,1.5,90.244,M,36.770,M,1.1,0979*65
[2021-02-22 15:11:24.627] $GNGGA,061124.20,3713.89583086,N,13701.43726576,E,2,09,1.5,90.257,M,36.770,M,1.2,0979*6B
[2021-02-22 15:11:24.721] $GNGGA,061124.30,3713.89583015,N,13701.43726585,E,2,09,1.5,90.252,M,36.770,M,1.3,0979*68
[2021-02-22 15:11:24.830] $GNGGA,061124.40,3713.89582539,N,13701.43725669,E,2,09,1.5,90.269,M,36.770,M,1.4,0979*68
[2021-02-22 15:11:24.924] $GNGGA,061124.50,3713.89582613,N,13701.43725672,E,2,09,1.5,90.267,M,36.770,M,1.5,0979*67
[2021-02-22 15:11:25.033] $GNGGA,061124.60,3713.89582105,N,13701.43724617,E,2,09,1.5,90.283,M,36.770,M,1.6,0979*6F
[2021-02-22 15:11:25.111] $GNGGA,061124.70,3713.89582223,N,13701.43724729,E,2,09,1.5,90.282,M,36.770,M,1.7,0979*65
[2021-02-22 15:11:25.221] $GNGGA,061124.80,3713.89581949,N,13701.43723841,E,2,09,1.5,90.293,M,36.770,M,1.8,0979*67
[2021-02-22 15:11:25.314] $GNGGA,061124.90,3713.89581897,N,13701.43723809,E,2,09,1.5,90.292,M,36.770,M,1.9,0979*68
[2021-02-22 15:11:25.424] $GNGGA,061125.00,3713.89581564,N,13701.43722770,E,2,09,1.5,90.303,M,36.770,M,1.0,0979*61
[2021-02-22 15:11:25.518] $GNGGA,061125.10,3713.89581630,N,13701.43722824,E,2,09,1.5,90.301,M,36.770,M,1.1,0979*6F
[2021-02-22 15:11:25.627] $GNGGA,061125.20,3713.89581131,N,13701.43721540,E,2,09,1.5,90.314,M,36.770,M,1.2,0979*61
[2021-02-22 15:11:25.721] $GNGGA,061125.30,3713.89581144,N,13701.43721500,E,2,09,1.5,90.308,M,36.770,M,1.3,0979*6A
[2021-02-22 15:11:25.830] $GNGGA,061125.40,3713.89580862,N,13701.43720414,E,2,09,1.5,90.319,M,36.770,M,1.4,0979*63
[2021-02-22 15:11:25.924] $GNGGA,061125.50,3713.89580864,N,13701.43720264,E,2,09,1.5,90.320,M,36.770,M,1.5,0979*6E
[2021-02-22 15:11:26.018] $GNGGA,061125.60,3713.89580697,N,13701.43719039,E,2,09,1.5,90.331,M,36.770,M,1.6,0979*6C
[2021-02-22 15:11:26.111] $GNGGA,061125.70,3713.89580718,N,13701.43718846,E,2,09,1.5,90.333,M,36.770,M,1.7,0979*69
[2021-02-22 15:11:26.221] $GNGGA,061125.80,3713.89580701,N,13701.43717597,E,2,09,1.5,90.345,M,36.770,M,1.8,0979*6E
[2021-02-22 15:11:26.314] $GNGGA,061125.90,3713.89580863,N,13701.43717414,E,2,09,1.5,90.346,M,36.770,M,1.9,0979*6C
[2021-02-22 15:11:26.424] $GNGGA,061126.00,3713.89580992,N,13701.43716667,E,2,09,1.5,90.358,M,36.770,M,1.0,0979*68
[2021-02-22 15:11:26.517] $GNGGA,061126.10,3713.89584998,N,13701.43658789,E,5,07,1.6,94.757,M,36.770,M,1.1,0979*69
[2021-02-22 15:11:26.627] $GNGGA,061126.20,3713.89584884,N,13701.43658856,E,5,07,1.6,94.758,M,36.770,M,1.2,0979*67
[2021-02-22 15:11:26.721] $GNGGA,061126.30,3713.89584591,N,13701.43659081,E,5,07,1.6,94.749,M,36.770,M,1.3,0979*6D
[2021-02-22 15:11:26.830] $GNGGA,061126.40,3713.89584708,N,13701.43659100,E,5,07,1.6,94.749,M,36.770,M,1.4,0979*67
[2021-02-22 15:11:26.924] $GNGGA,061126.50,3713.89584569,N,13701.43659173,E,5,07,1.6,94.751,M,36.770,M,1.5,0979*6F
[2021-02-22 15:11:27.033] $GNGGA,061126.60,3713.89584619,N,13701.43659511,E,5,07,1.6,94.742,M,36.770,M,1.6,0979*69
[2021-02-22 15:11:27.127] $GNGGA,061126.70,3713.89584750,N,13701.43659495,E,5,07,1.6,94.746,M,36.770,M,1.7,0979*6C
[2021-02-22 15:11:27.221] $GNGGA,061126.80,3713.89584892,N,13701.43659513,E,5,07,1.6,94.746,M,36.770,M,1.8,0979*62
[2021-02-22 15:11:27.314] $GNGGA,061126.90,3713.89584919,N,13701.43659462,E,5,07,1.6,94.745,M,36.770,M,1.9,0979*64
[2021-02-22 15:11:27.424] $GNGGA,061127.00,3713.89584690,N,13701.43659222,E,5,07,1.6,94.748,M,36.770,M,2.0,0979*67
[2021-02-22 15:11:27.517] $GNGGA,061127.10,3713.89584844,N,13701.43659353,E,5,07,1.6,94.746,M,36.770,M,2.1,0979*69
[2021-02-22 15:11:27.627] $GNGGA,061127.20,3713.89584815,N,13701.43659344,E,5,07,1.6,94.744,M,36.770,M,2.2,0979*69
[2021-02-22 15:11:27.721] $GNGGA,061127.30,3713.89588121,N,13701.43657228,E,5,07,1.6,94.241,M,36.770,M,1.3,0979*6D
[2021-02-22 15:11:27.830] $GNGGA,061127.40,3713.89588249,N,13701.43656930,E,5,07,1.6,94.245,M,36.770,M,1.4,0979*67
[2021-02-22 15:11:27.924] $GNGGA,061127.50,3713.89588085,N,13701.43656985,E,5,07,1.6,94.243,M,36.770,M,1.5,0979*6D
[2021-02-22 15:11:28.033] $GNGGA,061127.60,3713.89588488,N,13701.43657353,E,5,07,1.6,94.238,M,36.770,M,1.6,0979*68
[2021-02-22 15:11:28.127] $GNGGA,061127.70,3713.89588145,N,13701.43657081,E,5,07,1.6,94.240,M,36.770,M,1.7,0979*6F
[2021-02-22 15:11:28.236] $GNGGA,061127.80,3713.89588422,N,13701.43656993,E,5,07,1.6,94.238,M,36.770,M,1.8,0979*6F
[2021-02-22 15:11:28.314] $GNGGA,061127.90,3713.89584625,N,13701.43656753,E,5,07,1.6,94.531,M,36.770,M,0.9,0979*6B
[2021-02-22 15:11:28.424] $GNGGA,061128.00,3713.89584396,N,13701.43656752,E,5,07,1.6,94.528,M,36.770,M,1.0,0979*61
[2021-02-22 15:11:28.517] $GNGGA,061128.10,3713.89584355,N,13701.43656862,E,5,07,1.6,94.540,M,36.770,M,1.1,0979*6C
[2021-02-22 15:11:28.627] $GNGGA,061128.20,3713.89584343,N,13701.43656704,E,5,07,1.6,94.529,M,36.770,M,1.2,0979*6B
[2021-02-22 15:11:28.720] $GNGGA,061128.30,3713.89584393,N,13701.43656749,E,5,07,1.6,94.527,M,36.770,M,1.3,0979*61
[2021-02-22 15:11:28.830] $GNGGA,061128.40,3713.89584331,N,13701.43656454,E,5,07,1.6,94.521,M,36.770,M,1.4,0979*60
[2021-02-22 15:11:28.924] $GNGGA,061128.50,3713.89584260,N,13701.43656521,E,5,07,1.6,94.527,M,36.770,M,1.5,0979*60
[2021-02-22 15:11:29.033] $GNGGA,061128.60,3713.89584215,N,13701.43656488,E,5,07,1.6,94.522,M,36.770,M,1.6,0979*65
[2021-02-22 15:11:29.127] $GNGGA,061128.70,3713.89584392,N,13701.43656469,E,5,07,1.6,94.535,M,36.770,M,1.7,0979*62
[2021-02-22 15:11:29.220] $GNGGA,061128.80,3713.89584190,N,13701.43656287,E,5,07,1.6,94.526,M,36.770,M,1.8,0979*66
[2021-02-22 15:11:29.314] $GNGGA,061128.90,3713.89584537,N,13701.43656529,E,5,07,1.6,94.534,M,36.770,M,1.9,0979*6F
[2021-02-22 15:11:29.424] $GNGGA,061129.00,3713.89584366,N,13701.43656463,E,5,07,1.6,94.534,M,36.770,M,2.0,0979*60
[2021-02-22 15:11:29.517] $GNGGA,061129.10,3713.89584626,N,13701.43656555,E,5,07,1.6,94.530,M,36.770,M,2.1,0979*61
[2021-02-22 15:11:29.627] $GNGGA,061129.20,3713.89585727,N,13701.43658071,E,5,07,1.6,94.478,M,36.770,M,1.2,0979*63
[2021-02-22 15:11:29.720] $GNGGA,061129.30,3713.89585872,N,13701.43658037,E,5,07,1.6,94.476,M,36.770,M,1.3,0979*60
[2021-02-22 15:11:29.830] $GNGGA,061129.40,3713.89585805,N,13701.43658503,E,5,07,1.6,94.478,M,36.770,M,1.4,0979*6C
[2021-02-22 15:11:29.923] $GNGGA,061129.50,3713.89585890,N,13701.43658514,E,5,07,1.6,94.467,M,36.770,M,1.5,0979*68
[2021-02-22 15:11:30.033] $GNGGA,061129.60,3713.89585862,N,13701.43658455,E,5,07,1.6,94.479,M,36.770,M,1.6,0979*6E
[2021-02-22 15:11:30.127] $GNGGA,061129.70,3713.89585911,N,13701.43658501,E,5,07,1.6,94.467,M,36.770,M,1.7,0979*64
[2021-02-22 15:11:30.220] $GNGGA,061129.80,3713.89585787,N,13701.43658368,E,5,07,1.6,94.477,M,36.770,M,1.8,0979*6D
[2021-02-22 15:11:30.314] $GNGGA,061129.90,3713.89585868,N,13701.43658240,E,5,07,1.6,94.471,M,36.770,M,1.9,0979*6E
[2021-02-22 15:11:30.424] $GNGGA,061130.00,3713.89585914,N,13701.43657955,E,5,07,1.6,94.466,M,36.770,M,2.0,0979*69
[2021-02-22 15:11:30.517] $GNGGA,061130.10,3713.89590311,N,13701.43657083,E,5,07,1.6,94.122,M,36.770,M,1.1,0979*66
[2021-02-22 15:11:30.627] $GNGGA,061130.20,3713.89590577,N,13701.43657111,E,5,07,1.6,94.110,M,36.770,M,1.2,0979*6B
[2021-02-22 15:11:30.720] $GNGGA,061130.30,3713.89590454,N,13701.43657223,E,5,07,1.6,94.114,M,36.770,M,1.3,0979*6D
[2021-02-22 15:11:30.830] $GNGGA,061130.40,3713.89590657,N,13701.43657123,E,5,07,1.6,94.112,M,36.770,M,1.4,0979*69
[2021-02-22 15:11:30.923] $GNGGA,061130.50,3713.89590543,N,13701.43657014,E,5,07,1.6,94.116,M,36.770,M,1.5,0979*6E
[2021-02-22 15:11:31.033] $GNGGA,061130.60,3713.89590438,N,13701.43657197,E,5,07,1.6,94.113,M,36.770,M,1.6,0979*6C
[2021-02-22 15:11:31.127] $GNGGA,061130.70,3713.89590318,N,13701.43657060,E,5,07,1.6,94.104,M,36.770,M,1.7,0979*66
[2021-02-22 15:11:31.220] $GNGGA,061130.80,3713.89590511,N,13701.43657073,E,5,07,1.6,94.107,M,36.770,M,1.8,0979*68
[2021-02-22 15:11:31.314] $GNGGA,061130.90,3713.89590398,N,13701.43657214,E,5,07,1.6,94.113,M,36.770,M,1.9,0979*69
[2021-02-22 15:11:31.423] $GNGGA,061131.00,3713.89590186,N,13701.43656981,E,5,07,1.6,94.107,M,36.770,M,2.0,0979*65
[2021-02-22 15:11:31.517] $GNGGA,061131.10,3713.89594721,N,13701.43657903,E,5,07,1.6,93.936,M,36.770,M,1.1,0979*6F
[2021-02-22 15:11:31.627] $GNGGA,061131.20,3713.89594358,N,13701.43658286,E,5,07,1.6,93.942,M,36.770,M,1.2,0979*6F
[2021-02-22 15:11:31.720] $GNGGA,061131.30,3713.89594829,N,13701.43657882,E,5,07,1.6,93.940,M,36.770,M,1.3,0979*61
[2021-02-22 15:11:31.830] $GNGGA,061131.40,3713.89594989,N,13701.43657860,E,5,07,1.6,93.940,M,36.770,M,1.4,0979*66
[2021-02-22 15:11:31.923] $GNGGA,061131.50,3713.89595303,N,13701.43657776,E,5,07,1.6,93.945,M,36.770,M,1.5,0979*62
[2021-02-22 15:11:32.033] $GNGGA,061131.60,3713.89595205,N,13701.43657727,E,5,07,1.6,93.940,M,36.770,M,1.6,0979*64
[2021-02-22 15:11:32.126] $GNGGA,061131.70,3713.89594662,N,13701.43657842,E,5,07,1.6,93.937,M,36.770,M,1.7,0979*6C
[2021-02-22 15:11:32.236] $GNGGA,061131.80,3713.89595002,N,13701.43657601,E,5,07,1.6,93.944,M,36.770,M,1.8,0979*60
[2021-02-22 15:11:32.314] $GNGGA,061131.90,3713.89595135,N,13701.43657560,E,5,07,1.6,93.940,M,36.770,M,1.9,0979*65
[2021-02-22 15:11:32.423] $GNGGA,061132.00,3713.89594220,N,13701.43657687,E,5,07,1.6,93.942,M,36.770,M,2.0,0979*6B
[2021-02-22 15:11:32.517] $GNGGA,061132.10,3713.89591952,N,13701.43650203,E,5,07,1.6,94.202,M,36.770,M,1.1,0979*64
[2021-02-22 15:11:32.626] $GNGGA,061132.20,3713.89591704,N,13701.43650257,E,5,07,1.6,94.198,M,36.770,M,1.2,0979*68
[2021-02-22 15:11:32.720] $GNGGA,061132.30,3713.89591890,N,13701.43650605,E,5,07,1.6,94.195,M,36.770,M,1.3,0979*64
[2021-02-22 15:11:32.830] $GNGGA,061132.40,3713.89591851,N,13701.43650476,E,5,07,1.6,94.198,M,36.770,M,1.4,0979*62
[2021-02-22 15:11:32.923] $GNGGA,061132.50,3713.89591650,N,13701.43650462,E,5,07,1.6,94.203,M,36.770,M,1.5,0979*69
[2021-02-22 15:11:33.033] $GNGGA,061132.60,3713.89591800,N,13701.43650669,E,5,07,1.6,94.192,M,36.770,M,1.6,0979*60
[2021-02-22 15:11:33.126] $GNGGA,061132.70,3713.89591390,N,13701.43650586,E,5,07,1.6,94.202,M,36.770,M,1.7,0979*6A
[2021-02-22 15:11:33.704] $GNGGA,061132.80,3713.89591946,N,13701.43650691,E,5,07,1.6,94.193,M,36.770,M,1.8,0979*65
[2021-02-22 15:11:33.704] $GNGGA,061132.90,3713.89591704,N,13701.43650504,E,5,07,1.6,94.192,M,36.770,M,1.9,0979*63
[2021-02-22 15:11:33.704] $GNGGA,061133.00,3713.89587830,N,13701.43654358,E,5,07,1.6,94.510,M,36.770,M,1.0,0979*68
[2021-02-22 15:11:33.704] $GNGGA,061133.10,3713.89587831,N,13701.43654216,E,5,07,1.6,94.522,M,36.770,M,1.1,0979*63
[2021-02-22 15:11:33.704] $GNGGA,061133.20,3713.89588013,N,13701.43654311,E,5,07,1.6,94.513,M,36.770,M,1.2,0979*60
[2021-02-22 15:11:33.720] $GNGGA,061133.30,3713.89588037,N,13701.43654468,E,5,07,1.6,94.511,M,36.770,M,1.3,0979*6D
[2021-02-22 15:11:33.829] $GNGGA,061133.40,3713.89587700,N,13701.43654438,E,5,07,1.6,94.518,M,36.770,M,1.4,0979*6D
[2021-02-22 15:11:33.923] $GNGGA,061133.50,3713.89588151,N,13701.43654563,E,5,07,1.6,94.514,M,36.770,M,1.5,0979*63
[2021-02-22 15:11:34.033] $GNGGA,061133.60,3713.89588295,N,13701.43654492,E,5,07,1.6,94.519,M,36.770,M,1.6,0979*6A
[2021-02-22 15:11:34.126] $GNGGA,061133.70,3713.89588070,N,13701.43654560,E,5,07,1.6,94.514,M,36.770,M,1.7,0979*62
[2021-02-22 15:11:34.220] $GNGGA,061133.80,3713.89588105,N,13701.43654468,E,5,07,1.6,94.516,M,36.770,M,1.8,0979*6A
[2021-02-22 15:11:34.329] $GNGGA,061133.90,3713.89588068,N,13701.43654704,E,5,07,1.6,94.517,M,36.770,M,1.9,0979*68
[2021-02-22 15:11:34.423] $GNGGA,061134.00,3713.89585559,N,13701.43656395,E,5,07,1.6,94.600,M,36.770,M,1.0,0979*6E
[2021-02-22 15:11:34.533] $GNGGA,061134.10,3713.89585746,N,13701.43656280,E,5,07,1.6,94.596,M,36.770,M,1.1,0979*6B
[2021-02-22 15:11:34.626] $GNGGA,061134.20,3713.89585782,N,13701.43656439,E,5,07,1.6,94.604,M,36.770,M,1.2,0979*6F
[2021-02-22 15:11:34.720] $GNGGA,061134.30,3713.89585846,N,13701.43656470,E,5,07,1.6,94.598,M,36.770,M,1.3,0979*63
[2021-02-22 15:11:34.829] $GNGGA,061134.40,3713.89585713,N,13701.43656572,E,5,07,1.6,94.606,M,36.770,M,1.4,0979*6B
[2021-02-22 15:11:34.923] $GNGGA,061134.50,3713.89585535,N,13701.43656476,E,5,07,1.6,94.603,M,36.770,M,1.5,0979*6D
[2021-02-22 15:11:35.032] $GNGGA,061134.60,3713.89585867,N,13701.43656697,E,5,07,1.6,94.600,M,36.770,M,1.6,0979*69
[2021-02-22 15:11:35.111] $GNGGA,061134.70,3713.89586133,N,13701.43656647,E,5,07,1.6,94.596,M,36.770,M,1.7,0979*63
[2021-02-22 15:11:35.220] $GNGGA,061134.80,3713.89585928,N,13701.43656671,E,5,07,1.6,94.595,M,36.770,M,1.8,0979*64
[2021-02-22 15:11:35.314] $GNGGA,061134.90,3713.89586477,N,13701.43651705,E,5,07,1.6,94.397,M,36.770,M,0.9,0979*60
[2021-02-22 15:11:35.423] $GNGGA,061135.00,3713.89586630,N,13701.43651639,E,5,07,1.6,94.395,M,36.770,M,1.0,0979*6D
[2021-02-22 15:11:35.517] $GNGGA,061135.10,3713.89586427,N,13701.43651482,E,5,07,1.6,94.392,M,36.770,M,1.1,0979*6C
[2021-02-22 15:11:35.626] $GNGGA,061135.20,3713.89586541,N,13701.43651689,E,5,07,1.6,94.394,M,36.770,M,1.2,0979*62
[2021-02-22 15:11:35.720] $GNGGA,061135.30,3713.89586338,N,13701.43651871,E,5,07,1.6,94.395,M,36.770,M,1.3,0979*62
[2021-02-22 15:11:35.829] $GNGGA,061135.40,3713.89586482,N,13701.43651960,E,5,07,1.6,94.397,M,36.770,M,1.4,0979*67
[2021-02-22 15:11:35.923] $GNGGA,061135.50,3713.89586371,N,13701.43652057,E,5,07,1.6,94.399,M,36.770,M,1.5,0979*6C
[2021-02-22 15:11:36.032] $GNGGA,061135.60,3713.89586595,N,13701.43652074,E,5,07,1.6,94.400,M,36.770,M,1.6,0979*66
[2021-02-22 15:11:36.126] $GNGGA,061135.70,3713.89586605,N,13701.43652155,E,5,07,1.6,94.402,M,36.770,M,1.7,0979*6C
[2021-02-22 15:11:36.220] $GNGGA,061135.80,3713.89587021,N,13701.43652495,E,5,07,1.6,94.387,M,36.770,M,1.8,0979*6E
[2021-02-22 15:11:36.314] $GNGGA,061135.90,3713.89586875,N,13701.43652315,E,5,07,1.6,94.398,M,36.770,M,1.9,0979*67
[2021-02-22 15:11:36.423] $GNGGA,061136.00,3713.89587326,N,13701.43652977,E,5,07,1.6,94.383,M,36.770,M,2.0,0979*6F
[2021-02-22 15:11:36.517] $GNGGA,061136.10,3713.89587144,N,13701.43652798,E,5,07,1.6,94.380,M,36.770,M,2.1,0979*65
[2021-02-22 15:11:36.626] $GNGGA,061136.20,3713.89585531,N,13701.43654208,E,5,07,1.6,94.152,M,36.770,M,1.2,0979*65
[2021-02-22 15:11:36.720] $GNGGA,061136.30,3713.89585769,N,13701.43654363,E,5,07,1.6,94.151,M,36.770,M,1.3,0979*65
[2021-02-22 15:11:36.829] $GNGGA,061136.40,3713.89585782,N,13701.43654251,E,5,07,1.6,94.150,M,36.770,M,1.4,0979*61
[2021-02-22 15:11:36.923] $GNGGA,061136.50,3713.89585603,N,13701.43654236,E,5,07,1.6,94.153,M,36.770,M,1.5,0979*6B
[2021-02-22 15:11:37.032] $GNGGA,061136.60,3713.89585738,N,13701.43654037,E,5,07,1.6,94.156,M,36.770,M,1.6,0979*64
[2021-02-22 15:11:37.126] $GNGGA,061136.70,3713.89585363,N,13701.43654209,E,5,07,1.6,94.168,M,36.770,M,1.7,0979*6C
[2021-02-22 15:11:37.235] $GNGGA,061136.80,3713.89585812,N,13701.43654312,E,5,07,1.6,94.147,M,36.770,M,1.8,0979*67
[2021-02-22 15:11:37.314] $GNGGA,061136.90,3713.89585718,N,13701.43654507,E,5,07,1.6,94.150,M,36.770,M,1.9,0979*66
[2021-02-22 15:11:37.423] $GNGGA,061137.00,3713.89588375,N,13701.43649276,E,5,07,1.6,93.748,M,36.770,M,1.0,0979*60
[2021-02-22 15:11:37.517] $GNGGA,061137.10,3713.89587984,N,13701.43649509,E,5,07,1.6,93.752,M,36.770,M,1.1,0979*6F
[2021-02-22 15:11:37.626] $GNGGA,061137.20,3713.89588242,N,13701.43649512,E,5,07,1.6,93.748,M,36.770,M,1.2,0979*60
[2021-02-22 15:11:37.720] $GNGGA,061137.30,3713.89588042,N,13701.43649775,E,5,07,1.6,93.752,M,36.770,M,1.3,0979*6A
[2021-02-22 15:11:37.829] $GNGGA,061137.40,3713.89588018,N,13701.43649742,E,5,07,1.6,93.758,M,36.770,M,1.4,0979*6B
[2021-02-22 15:11:37.923] $GNGGA,061137.50,3713.89588093,N,13701.43649732,E,5,07,1.6,93.748,M,36.770,M,1.5,0979*6E
[2021-02-22 15:11:38.032] $GNGGA,061137.60,3713.89588906,N,13701.43650164,E,5,07,1.6,93.733,M,36.770,M,1.6,0979*6A
[2021-02-22 15:11:38.126] $GNGGA,061137.70,3713.89588276,N,13701.43649639,E,5,07,1.6,93.755,M,36.770,M,1.7,0979*61
[2021-02-22 15:11:38.235] $GNGGA,061137.80,3713.89588130,N,13701.43649485,E,5,07,1.6,93.751,M,36.770,M,1.8,0979*61
[2021-02-22 15:11:38.314] $GNGGA,061137.90,3713.89588385,N,13701.43649628,E,5,07,1.6,93.757,M,36.770,M,1.9,0979*6E
[2021-02-22 15:11:38.423] $GNGGA,061138.00,3713.89588227,N,13701.43649428,E,5,07,1.6,93.749,M,36.770,M,2.0,0979*66
[2021-02-22 15:11:38.517] $GNGGA,061138.10,3713.89589404,N,13701.43645341,E,5,07,1.6,93.856,M,36.770,M,1.1,0979*66
[2021-02-22 15:11:38.626] $GNGGA,061138.20,3713.89589626,N,13701.43645209,E,5,07,1.6,93.857,M,36.770,M,1.2,0979*68
[2021-02-22 15:11:38.720] $GNGGA,061138.30,3713.89589312,N,13701.43645171,E,5,07,1.6,93.860,M,36.770,M,1.3,0979*62
[2021-02-22 15:11:38.829] $GNGGA,061138.40,3713.89589666,N,13701.43645263,E,5,07,1.6,93.850,M,36.770,M,1.4,0979*67
[2021-02-22 15:11:38.923] $GNGGA,061138.50,3713.89589592,N,13701.43645284,E,5,07,1.6,93.857,M,36.770,M,1.5,0979*61
[2021-02-22 15:11:39.032] $GNGGA,061138.60,3713.89589583,N,13701.43645362,E,5,07,1.6,93.854,M,36.770,M,1.6,0979*6B
[2021-02-22 15:11:39.126] $GNGGA,061138.70,3713.89589671,N,13701.43645452,E,5,07,1.6,93.854,M,36.770,M,1.7,0979*61
[2021-02-22 15:11:39.235] $GNGGA,061138.80,3713.89589426,N,13701.43645138,E,5,07,1.6,93.854,M,36.770,M,1.8,0979*68
[2021-02-22 15:11:39.314] $GNGGA,061138.90,3713.89589677,N,13701.43645563,E,5,07,1.6,93.855,M,36.770,M,1.9,0979*65
[2021-02-22 15:11:39.438] $GNGGA,061139.00,3713.89589679,N,13701.43645114,E,5,07,1.6,93.849,M,36.770,M,2.0,0979*60
[2021-02-22 15:11:39.517] $GNGGA,061139.10,3713.89588691,N,13701.43646489,E,5,07,1.6,94.030,M,36.770,M,1.1,0979*67
[2021-02-22 15:11:39.626] $GNGGA,061139.20,3713.89588651,N,13701.43646678,E,5,07,1.6,94.036,M,36.770,M,1.2,0979*61
[2021-02-22 15:11:39.720] $GNGGA,061139.30,3713.89588724,N,13701.43646610,E,5,07,1.6,94.032,M,36.770,M,1.3,0979*68
[2021-02-22 15:11:39.829] $GNGGA,061139.40,3713.89588846,N,13701.43646866,E,5,07,1.6,94.033,M,36.770,M,1.4,0979*6D
[2021-02-22 15:11:39.923] $GNGGA,061139.50,3713.89588419,N,13701.43646747,E,5,07,1.6,94.041,M,36.770,M,1.5,0979*62
[2021-02-22 15:11:40.032] $GNGGA,061139.60,3713.89588040,N,13701.43646450,E,5,07,1.6,94.033,M,36.770,M,1.6,0979*6A
[2021-02-22 15:11:40.126] $GNGGA,061139.70,3713.89588472,N,13701.43646639,E,5,07,1.6,94.038,M,36.770,M,1.7,0979*69
[2021-02-22 15:11:40.220] $GNGGA,061139.80,3713.89588537,N,13701.43646722,E,5,07,1.6,94.045,M,36.770,M,1.8,0979*68
[2021-02-22 15:11:40.313] $GNGGA,061139.90,3713.89588746,N,13701.43646798,E,5,07,1.6,94.033,M,36.770,M,1.9,0979*6C
[2021-02-22 15:11:40.438] $GNGGA,061140.00,3713.89588588,N,13701.43646907,E,5,07,1.6,94.040,M,36.770,M,2.0,0979*6D
[2021-02-22 15:11:40.516] $GNGGA,061140.10,3713.89587417,N,13701.43655730,E,5,07,1.6,94.448,M,36.770,M,1.1,0979*62
[2021-02-22 15:11:40.626] $GNGGA,061140.20,3713.89587170,N,13701.43655565,E,5,07,1.6,94.442,M,36.770,M,1.2,0979*6E
[2021-02-22 15:11:40.720] $GNGGA,061140.30,3713.89587391,N,13701.43655892,E,5,07,1.6,94.441,M,36.770,M,1.3,0979*65
[2021-02-22 15:11:40.829] $GNGGA,061140.40,3713.89586925,N,13701.43655770,E,5,07,1.6,94.451,M,36.770,M,1.4,0979*63
[2021-02-22 15:11:40.923] $GNGGA,061140.50,3713.89587242,N,13701.43655934,E,5,07,1.6,94.445,M,36.770,M,1.5,0979*63
[2021-02-22 15:11:41.032] $GNGGA,061140.60,3713.89587149,N,13701.43655894,E,5,07,1.6,94.457,M,36.770,M,1.6,0979*63
[2021-02-22 15:11:41.126] $GNGGA,061140.70,3713.89587071,N,13701.43655833,E,5,07,1.6,94.439,M,36.770,M,1.7,0979*6C
[2021-02-22 15:11:41.220] $GNGGA,061140.80,3713.89587084,N,13701.43655711,E,5,07,1.6,94.448,M,36.770,M,1.8,0979*6F
[2021-02-22 15:11:41.313] $GNGGA,061140.90,3713.89587380,N,13701.43655634,E,5,07,1.6,94.445,M,36.770,M,1.9,0979*63
[2021-02-22 15:11:41.423] $GNGGA,061141.00,3713.89586949,N,13701.43655664,E,5,07,1.6,94.604,M,36.770,M,1.0,0979*6E
[2021-02-22 15:11:41.516] $GNGGA,061141.10,3713.89587058,N,13701.43655297,E,5,07,1.6,94.596,M,36.770,M,1.1,0979*66
[2021-02-22 15:11:41.626] $GNGGA,061141.20,3713.89587058,N,13701.43655312,E,5,07,1.6,94.598,M,36.770,M,1.2,0979*64
[2021-02-22 15:11:41.720] $GNGGA,061141.30,3713.89586728,N,13701.43655177,E,5,07,1.6,94.600,M,36.770,M,1.3,0979*66
[2021-02-22 15:11:41.829] $GNGGA,061141.40,3713.89587134,N,13701.43655036,E,5,07,1.6,94.583,M,36.770,M,1.4,0979*60
[2021-02-22 15:11:41.923] $GNGGA,061141.50,3713.89586919,N,13701.43655182,E,5,07,1.6,94.597,M,36.770,M,1.5,0979*6D
[2021-02-22 15:11:42.032] $GNGGA,061141.60,3713.89587116,N,13701.43654970,E,5,07,1.6,94.588,M,36.770,M,1.6,0979*61
[2021-02-22 15:11:42.126] $GNGGA,061141.70,3713.89587134,N,13701.43654925,E,5,07,1.6,94.588,M,36.770,M,1.7,0979*61
[2021-02-22 15:11:42.235] $GNGGA,061141.80,3713.89587414,N,13701.43655083,E,5,07,1.6,94.585,M,36.770,M,1.8,0979*6F
[2021-02-22 15:11:42.313] $GNGGA,061141.90,3713.89587099,N,13701.43654976,E,5,07,1.6,94.604,M,36.770,M,1.9,0979*66
[2021-02-22 15:11:42.407] $GNGGA,061142.00,3713.89586866,N,13701.43649648,E,5,06,1.7,94.528,M,36.770,M,1.0,0979*6F
[2021-02-22 15:11:42.516] $GNGGA,061142.10,3713.89586767,N,13701.43649634,E,5,06,1.7,94.527,M,36.770,M,1.1,0979*65
[2021-02-22 15:11:42.626] $GNGGA,061142.20,3713.89586545,N,13701.43649533,E,5,06,1.7,94.536,M,36.770,M,1.2,0979*63
[2021-02-22 15:11:42.719] $GNGGA,061142.30,3713.89586761,N,13701.43649445,E,5,06,1.7,94.521,M,36.770,M,1.3,0979*61
[2021-02-22 15:11:42.829] $GNGGA,061142.40,3713.89586858,N,13701.43649858,E,5,06,1.7,94.528,M,36.770,M,1.4,0979*6D
[2021-02-22 15:11:42.923] $GNGGA,061142.50,3713.89586763,N,13701.43649595,E,5,06,1.7,94.526,M,36.770,M,1.5,0979*68
[2021-02-22 15:11:43.032] $GNGGA,061142.60,3713.89586618,N,13701.43649707,E,5,06,1.7,94.528,M,36.770,M,1.6,0979*62
[2021-02-22 15:11:43.126] $GNGGA,061142.70,3713.89586840,N,13701.43649701,E,5,06,1.7,94.529,M,36.770,M,1.7,0979*66
[2021-02-22 15:11:43.219] $GNGGA,061142.80,3713.89586848,N,13701.43649843,E,5,06,1.7,94.537,M,36.770,M,1.8,0979*68
[2021-02-22 15:11:43.313] $GNGGA,061142.90,3713.89586765,N,13701.43650623,E,5,06,1.7,94.532,M,36.770,M,0.9,0979*6C
[2021-02-22 15:11:43.423] $GNGGA,061143.00,3713.89586980,N,13701.43650627,E,5,06,1.7,94.529,M,36.770,M,1.0,0979*67
[2021-02-22 15:11:43.516] $GNGGA,061143.10,3713.89586845,N,13701.43650921,E,5,06,1.7,94.536,M,36.770,M,1.1,0979*68
[2021-02-22 15:11:43.626] $GNGGA,061143.20,3713.89586857,N,13701.43650589,E,5,06,1.7,94.530,M,36.770,M,1.2,0979*63
[2021-02-22 15:11:43.719] $GNGGA,061143.30,3713.89586971,N,13701.43650446,E,5,06,1.7,94.517,M,36.770,M,1.3,0979*61
[2021-02-22 15:11:43.829] $GNGGA,061143.40,3713.89586777,N,13701.43650378,E,5,06,1.7,94.527,M,36.770,M,1.4,0979*60
[2021-02-22 15:11:43.923] $GNGGA,061143.50,3713.89586749,N,13701.43650733,E,5,06,1.7,94.530,M,36.770,M,1.5,0979*60
[2021-02-22 15:11:44.032] $GNGGA,061143.60,3713.89586560,N,13701.43650298,E,5,06,1.7,94.527,M,36.770,M,1.6,0979*6B
[2021-02-22 15:11:44.126] $GNGGA,061143.70,3713.89586670,N,13701.43650307,E,5,06,1.7,94.524,M,36.770,M,1.7,0979*6D
[2021-02-22 15:11:44.219] $GNGGA,061143.80,3713.89586444,N,13701.43650598,E,5,06,1.7,94.535,M,36.770,M,1.8,0979*68
[2021-02-22 15:11:44.329] $GNGGA,061143.90,3713.89586656,N,13701.43651281,E,5,06,1.7,94.550,M,36.770,M,1.9,0979*64
[2021-02-22 15:11:44.423] $GNGGA,061144.00,3713.89586448,N,13701.43651103,E,5,06,1.7,94.545,M,36.770,M,2.0,0979*60
[2021-02-22 15:11:44.516] $GNGGA,061144.10,3713.89586495,N,13701.43651095,E,5,06,1.7,94.544,M,36.770,M,2.1,0979*6F
[2021-02-22 15:11:44.626] $GNGGA,061144.20,3713.89585739,N,13701.43654056,E,5,06,1.7,94.609,M,36.770,M,1.2,0979*6A
[2021-02-22 15:11:44.719] $GNGGA,061144.30,3713.89585732,N,13701.43653882,E,5,06,1.7,94.612,M,36.770,M,1.3,0979*6D
[2021-02-22 15:11:44.829] $GNGGA,061144.40,3713.89585996,N,13701.43654111,E,5,06,1.7,94.601,M,36.770,M,1.4,0979*6B
[2021-02-22 15:11:44.922] $GNGGA,061144.50,3713.89586270,N,13701.43653811,E,5,06,1.7,94.611,M,36.770,M,1.5,0979*64
[2021-02-22 15:11:45.032] $GNGGA,061144.60,3713.89585890,N,13701.43654060,E,5,06,1.7,94.613,M,36.770,M,1.6,0979*68
[2021-02-22 15:11:45.126] $GNGGA,061144.70,3713.89585921,N,13701.43653908,E,5,06,1.7,94.600,M,36.770,M,1.7,0979*61
[2021-02-22 15:11:45.219] $GNGGA,061144.80,3713.89585861,N,13701.43653748,E,5,06,1.7,94.601,M,36.770,M,1.8,0979*6F
[2021-02-22 15:11:45.313] $GNGGA,061144.90,3713.89585821,N,13701.43653907,E,5,06,1.7,94.610,M,36.770,M,1.9,0979*6E
[2021-02-22 15:11:45.422] $GNGGA,061145.00,3713.89585775,N,13701.43653718,E,5,06,1.7,94.614,M,36.770,M,2.0,0979*66
[2021-02-22 15:11:45.516] $GNGGA,061145.10,3713.89594680,N,13701.43626536,E,5,07,1.6,92.536,M,36.770,M,1.1,0979*67
[2021-02-22 15:11:45.626] $GNGGA,061145.20,3713.89594843,N,13701.43626267,E,5,07,1.6,92.535,M,36.770,M,1.2,0979*66
[2021-02-22 15:11:45.719] $GNGGA,061145.30,3713.89594737,N,13701.43626395,E,5,07,1.6,92.537,M,36.770,M,1.3,0979*64
[2021-02-22 15:11:45.829] $GNGGA,061145.40,3713.89594842,N,13701.43626615,E,5,07,1.6,92.530,M,36.770,M,1.4,0979*63
[2021-02-22 15:11:45.922] $GNGGA,061145.50,3713.89594667,N,13701.43626164,E,5,07,1.6,92.535,M,36.770,M,1.5,0979*6E
[2021-02-22 15:11:46.032] $GNGGA,061145.60,3713.89594697,N,13701.43626588,E,5,07,1.6,92.534,M,36.770,M,1.6,0979*66
[2021-02-22 15:11:46.125] $GNGGA,061145.70,3713.89594661,N,13701.43626558,E,5,07,1.6,92.536,M,36.770,M,1.7,0979*60
[2021-02-22 15:11:46.235] $GNGGA,061145.80,3713.89594760,N,13701.43626592,E,5,07,1.6,92.531,M,36.770,M,1.8,0979*61
[2021-02-22 15:11:46.329] $GNGGA,061145.90,3713.89595156,N,13701.43626277,E,5,07,1.6,92.528,M,36.770,M,1.9,0979*67
[2021-02-22 15:11:46.422] $GNGGA,061146.00,3713.89595233,N,13701.43622186,E,5,07,1.6,92.415,M,36.770,M,1.0,0979*62
[2021-02-22 15:11:46.516] $GNGGA,061146.10,3713.89595253,N,13701.43622337,E,5,07,1.6,92.419,M,36.770,M,1.1,0979*60
[2021-02-22 15:11:46.625] $GNGGA,061146.20,3713.89594802,N,13701.43622060,E,5,07,1.6,92.417,M,36.770,M,1.2,0979*60
[2021-02-22 15:11:46.719] $GNGGA,061146.30,3713.89594611,N,13701.43621980,E,5,07,1.6,92.418,M,36.770,M,1.3,0979*67
[2021-02-22 15:11:46.829] $GNGGA,061146.40,3713.89594586,N,13701.43621216,E,5,07,1.6,92.401,M,36.770,M,1.4,0979*66
[2021-02-22 15:11:46.922] $GNGGA,061146.50,3713.89594559,N,13701.43621124,E,5,07,1.6,92.400,M,36.770,M,1.5,0979*67
[2021-02-22 15:11:47.032] $GNGGA,061146.60,3713.89594889,N,13701.43621302,E,5,07,1.6,92.395,M,36.770,M,1.6,0979*6A
[2021-02-22 15:11:47.125] $GNGGA,061146.70,3713.89594838,N,13701.43621336,E,5,07,1.6,92.398,M,36.770,M,1.7,0979*6A
[2021-02-22 15:11:47.235] $GNGGA,061146.80,3713.89594698,N,13701.43621143,E,5,07,1.6,92.397,M,36.770,M,1.8,0979*61
[2021-02-22 15:11:47.329] $GNGGA,061146.90,3713.89594990,N,13701.43621305,E,5,07,1.6,92.398,M,36.770,M,1.9,0979*69
[2021-02-22 15:11:47.422] $GNGGA,061147.00,3713.89554525,N,13701.43740185,E,5,08,1.5,95.572,M,36.770,M,1.0,0979*63
[2021-02-22 15:11:47.516] $GNGGA,061147.10,3713.89554460,N,13701.43740191,E,5,08,1.5,95.571,M,36.770,M,1.1,0979*65
[2021-02-22 15:11:47.625] $GNGGA,061147.20,3713.89554296,N,13701.43739914,E,5,08,1.5,95.568,M,36.770,M,1.2,0979*69
[2021-02-22 15:11:47.719] $GNGGA,061147.30,3713.89554016,N,13701.43739567,E,5,08,1.5,95.572,M,36.770,M,1.3,0979*60
[2021-02-22 15:11:47.829] $GNGGA,061147.40,3713.89554254,N,13701.43739171,E,5,08,1.5,95.566,M,36.770,M,1.4,0979*62
[2021-02-22 15:11:47.922] $GNGGA,061147.50,3713.89553975,N,13701.43738864,E,5,08,1.5,95.555,M,36.770,M,1.5,0979*61
[2021-02-22 15:11:48.032] $GNGGA,061147.60,3713.89554083,N,13701.43739282,E,5,08,1.5,95.564,M,36.770,M,1.6,0979*67
[2021-02-22 15:11:48.125] $GNGGA,061147.70,3713.89554015,N,13701.43739297,E,5,08,1.5,95.577,M,36.770,M,1.7,0979*6E
[2021-02-22 15:11:48.219] $GNGGA,061147.80,3713.89589001,N,13701.43682927,E,2,10,1.1,90.793,M,36.770,M,1.8,0979*6D
[2021-02-22 15:11:48.313] $GNGGA,061147.90,3713.89589015,N,13701.43682860,E,2,10,1.1,90.790,M,36.770,M,1.9,0979*69
[2021-02-22 15:11:48.422] $GNGGA,061148.00,3713.89588933,N,13701.43682482,E,2,10,1.1,90.803,M,36.770,M,1.0,0979*6F
[2021-02-22 15:11:48.516] $GNGGA,061148.10,3713.89512894,N,13701.43749103,E,5,08,1.5,96.939,M,36.770,M,1.1,0979*6E
[2021-02-22 15:11:48.625] $GNGGA,061148.20,3713.89513273,N,13701.43749653,E,5,08,1.5,96.938,M,36.770,M,1.2,0979*6F
[2021-02-22 15:11:48.719] $GNGGA,061148.30,3713.89513035,N,13701.43749761,E,5,08,1.5,96.947,M,36.770,M,1.3,0979*67
[2021-02-22 15:11:48.828] $GNGGA,061148.40,3713.89513068,N,13701.43750053,E,5,08,1.5,96.948,M,36.770,M,1.4,0979*6E
[2021-02-22 15:11:48.922] $GNGGA,061148.50,3713.89512993,N,13701.43750050,E,5,08,1.5,96.947,M,36.770,M,1.5,0979*6E
[2021-02-22 15:11:49.032] $GNGGA,061148.60,3713.89512885,N,13701.43749572,E,5,08,1.5,96.942,M,36.770,M,1.6,0979*60
[2021-02-22 15:11:49.125] $GNGGA,061148.70,3713.89512525,N,13701.43749371,E,5,08,1.5,96.957,M,36.770,M,1.7,0979*66
[2021-02-22 15:11:49.235] $GNGGA,061148.80,3713.89512640,N,13701.43749177,E,5,08,1.5,96.942,M,36.770,M,1.8,0979*66
[2021-02-22 15:11:49.313] $GNGGA,061148.90,3713.89512631,N,13701.43749032,E,5,08,1.5,96.946,M,36.770,M,1.9,0979*64
[2021-02-22 15:11:49.438] $GNGGA,061149.00,3713.89587286,N,13701.43680478,E,2,10,1.1,90.854,M,36.770,M,1.0,0979*61
[2021-02-22 15:11:49.516] $GNGGA,061149.10,3713.89587202,N,13701.43680609,E,2,10,1.1,90.854,M,36.770,M,1.1,0979*69
[2021-02-22 15:11:49.625] $GNGGA,061149.20,3713.89587135,N,13701.43680092,E,2,10,1.1,90.860,M,36.770,M,1.2,0979*6D
[2021-02-22 15:11:49.719] $GNGGA,061149.30,3713.89587189,N,13701.43679947,E,2,10,1.1,90.864,M,36.770,M,1.3,0979*69
[2021-02-22 15:11:49.828] $GNGGA,061149.40,3713.89587339,N,13701.43679281,E,2,10,1.1,90.867,M,36.770,M,1.4,0979*62
[2021-02-22 15:11:49.922] $GNGGA,061149.50,3713.89587128,N,13701.43679432,E,2,10,1.1,90.869,M,36.770,M,1.5,0979*60
[2021-02-22 15:11:50.031] $GNGGA,061149.60,3713.89586930,N,13701.43678984,E,2,10,1.1,90.873,M,36.770,M,1.6,0979*6A
[2021-02-22 15:11:50.125] $GNGGA,061149.70,3713.89586887,N,13701.43679157,E,2,10,1.1,90.874,M,36.770,M,1.7,0979*67
[2021-02-22 15:11:50.219] $GNGGA,061149.80,3713.89586608,N,13701.43679109,E,2,10,1.1,90.878,M,36.770,M,1.8,0979*69
[2021-02-22 15:11:50.328] $GNGGA,061149.90,3713.89586709,N,13701.43679105,E,2,10,1.1,90.872,M,36.770,M,1.9,0979*6F
[2021-02-22 15:11:50.422] $GNGGA,061150.00,3713.89586831,N,13701.43678925,E,2,10,1.1,90.875,M,36.770,M,2.0,0979*6C
[2021-02-22 15:11:50.516] $GNGGA,061150.10,3713.89586750,N,13701.43678735,E,2,10,1.1,90.875,M,36.770,M,2.1,0979*6B
[2021-02-22 15:11:50.625] $GNGGA,061150.20,3713.89586868,N,13701.43678163,E,2,10,1.1,90.874,M,36.770,M,1.2,0979*68
[2021-02-22 15:11:50.719] $GNGGA,061150.30,3713.89586905,N,13701.43678098,E,2,10,1.1,90.874,M,36.770,M,1.3,0979*67
[2021-02-22 15:11:50.828] $GNGGA,061150.40,3713.89587180,N,13701.43677814,E,2,10,1.1,90.880,M,36.770,M,1.4,0979*6B
[2021-02-22 15:11:50.922] $GNGGA,061150.50,3713.89587203,N,13701.43677873,E,2,10,1.1,90.877,M,36.770,M,1.5,0979*6A
[2021-02-22 15:11:51.031] $GNGGA,061150.60,3713.89587429,N,13701.43677724,E,2,10,1.1,90.885,M,36.770,M,1.6,0979*64
