
[2021-02-22 15:16:22.279] $GPGGA,,,,,,,,,,M,,M,,*56
[2021-02-22 15:16:22.279] $GPVTG,,T,,M,,N,,K,N*2C
[2021-02-22 15:16:22.311] $GPGGA,,,,,,,,,,M,,M,,*56
[2021-02-22 15:16:22.311] $GPVTG,,T,,M,,N,,K,N*2C
[2021-02-22 15:16:22.311] $GPGGA,,,,,,,,,,M,,M,,*56
[2021-02-22 15:16:22.311] $GPVTG,,T,,M,,N,,K,N*2C
[2021-02-22 15:16:22.311] $GPGGA,,,,,,,,,,M,,M,,*56
[2021-02-22 15:16:22.311] $GPVTG,,T,,M,,N,,K,N*2C
[2021-02-22 15:16:22.311] $GPGGA,,,,,,,,,,M,,M,,*56
[2021-02-22 15:16:22.311] $GPVTG,,T,,M,,N,,K,N*2C
[2021-02-22 15:16:22.311] $GPGGA,,,,,,,,,,M,,M,,*56
[2021-02-22 15:16:22.311] $GPVTG,,T,,M,,N,,K,N*2C
[2021-02-22 15:16:22.311] $GPGGA,,,,,,,,,,M,,M,,*56
[2021-02-22 15:16:22.311] $GPVTG,,T,,M,,N,,K,N*2C
[2021-02-22 15:16:22.311] $GPGGA,,,,,,,,,,M,,M,,*56
[2021-02-22 15:16:22.311] $GPVTG,,T,,M,,N,,K,N*2C
[2021-02-22 15:16:22.311] $GPGGA,,,,,,,,,,M,,M,,*56
[2021-02-22 15:16:22.311] $GPVTG,,T,,M,,N,,K,N*2C
[2021-02-22 15:16:22.311] $GPGGA,,,,,,,,,,M,,M,,*56
[2021-02-22 15:16:22.311] $GPVTG,,T,,M,,N,,K,N*2C
[2021-02-22 15:16:22.311] $GPGGA,,,,,,,,,,M,,M,,*56
[2021-02-22 15:16:22.311] $GPVTG,,T,,M,,N,,K,N*2C
[2021-02-22 15:16:22.311] $GPGGA,,,,,,,,,,M,,M,,*56
[2021-02-22 15:16:22.311] $GPVTG,,T,,M,,N,,K,N*2C
[2021-02-22 15:16:22.311] $GPGGA,,,,,,,,,,M,,M,,*56
[2021-02-22 15:16:22.311] $GPVTG,,T,,M,,N,,K,N*2C
[2021-02-22 15:16:22.311] $GPGGA,,,,,,,,,,M,,M,,*56
[2021-02-22 15:16:22.311] $GPVTG,,T,,M,,N,,K,N*2C
[2021-02-22 15:16:22.311] $GPGGA,,,,,,,,,,M,,M,,*56
[2021-02-22 15:16:22.311] $GPVTG,,T,,M,,N,,K,N*2C
[2021-02-22 15:16:22.311] $GPGGA,,,,,,,,,,M,,M,,*56
[2021-02-22 15:16:22.311] $GPVTG,,T,,M,,N,,K,N*2C
[2021-02-22 15:16:22.311] $GPGGA,,,,,,,,,,M,,M,,*56
[2021-02-22 15:16:22.311] $GPVTG,,T,,M,,N,,K,N*2C
[2021-02-22 15:16:22.311] $GPGGA,,,,,,,,,,M,,M,,*56
[2021-02-22 15:16:22.311] $GPVTG,,T,,M,,N,,K,N*2C
[2021-02-22 15:16:22.311] $GPGGA,,,,,,,,,,M,,M,,*56
[2021-02-22 15:16:22.311] $GPVTG,,T,,M,,N,,K,N*2C
[2021-02-22 15:16:22.311] $GPGGA,,,,,,,,,,M,,M,,*56
[2021-02-22 15:16:22.311] $GPVTG,,T,,M,,N,,K,N*2C
[2021-02-22 15:16:22.311] $GPGGA,,,,,,,,,,M,,M,,*56
[2021-02-22 15:16:22.342] $GPVTG,,T,,M,,N,,K,N*2C
[2021-02-22 15:16:22.342] $GPGGA,,,,,,,,,,M,,M,,*56
[2021-02-22 15:16:22.342] $GPVTG,,T,,M,,N,,K,N*2C
[2021-02-22 15:16:22.342] $GPGGA,,,,,,,,,,M,,M,,*56
[2021-02-22 15:16:22.342] $GPVTG,,T,,M,,N,,K,N*2C
[2021-02-22 15:16:22.342] $GPGGA,,,,,,,,,,M,,M,,*56
[2021-02-22 15:16:22.342] $GPVTG,,T,,M,,N,,K,N*2C
[2021-02-22 15:16:22.342] $GPGGA,,,,,,,,,,M,,M,,*56
[2021-02-22 15:16:22.342] $GPVTG,,T,,M,,N,,K,N*2C
[2021-02-22 15:16:22.342] $GPGGA,,,,,,,,,,M,,M,,*56
[2021-02-22 15:16:22.342] $GPVTG,,T,,M,,N,,K,N*2C
[2021-02-22 15:16:22.342] $GPGGA,,,,,,,,,,M,,M,,*56
[2021-02-22 15:16:22.342] $GPVTG,,T,,M,,N,,K,N*2C
[2021-02-22 15:16:22.342] $GPGGA,,,,,,,,,,M,,M,,*56
[2021-02-22 15:16:22.342] $GPVTG,,T,,M,,N,,K,N*2C
[2021-02-22 15:16:22.342] $GPGGA,,,,,,,,,,M,,M,,*56
[2021-02-22 15:16:22.342] $GPVTG,,T,,M,,N,,K,N*2C
[2021-02-22 15:16:22.342] $GPGGA,,,,,,,,,,M,,M,,*56
[2021-02-22 15:16:22.342] $GPVTG,,T,,M,,N,,K,N*2C
[2021-02-22 15:16:22.342] $GPGGA,,,,,,,,,,M,,M,,*56
[2021-02-22 15:16:22.342] $GPVTG,,T,,M,,N,,K,N*2C
[2021-02-22 15:16:22.342] $GPGGA,,,,,,,,,,M,,M,,*56
[2021-02-22 15:16:22.342] $GPVTG,,T,,M,,N,,K,N*2C
[2021-02-22 15:16:22.342] $GPGGA,,,,,,,,,,M,,M,,*56
[2021-02-22 15:16:22.342] $GPVTG,,T,,M,,N,,K,N*2C
[2021-02-22 15:16:22.342] $GPGGA,,,,,,,,,,M,,M,,*56
[2021-02-22 15:16:22.342] $GPVTG,,T,,M,,N,,K,N*2C
[2021-02-22 15:16:22.342] $GPGGA,,,,,,,,,,M,,M,,*56
[2021-02-22 15:16:22.342] $GPVTG,,T,,M,,N,,K,N*2C
[2021-02-22 15:16:22.342] $GPGGA,,,,,,,,,,M,,M,,*56
[2021-02-22 15:16:22.342] $GPVTG,,T,,M,,N,,K,N*2C
[2021-02-22 15:16:22.342] $GPGGA,,,,,,,,,,M,,M,,*56
[2021-02-22 15:16:22.342] $GPVTG,,T,,M,,N,,K,N*2C
[2021-02-22 15:16:22.342] $GPGGA,,,,,,,,,,M,,M,,*56
[2021-02-22 15:16:22.342] $GPVTG,,T,,M,,N,,K,N*2C
[2021-02-22 15:16:22.342] $GPGGA,,,,,,,,,,M,,M,,*56
[2021-02-22 15:16:22.342] $GPVTG,,T,,M,,N,,K,N*2C
[2021-02-22 15:16:22.342] $GPGGA,,,,,,,,,,M,,M,,*56
[2021-02-22 15:16:22.342] $GPVTG,,T,,M,,N,,K,N*2C
[2021-02-22 15:16:22.358] $GPGGA,,,,,,,,,,M,,M,,*56
[2021-02-22 15:16:22.358] $GPVTG,,T,,M,,N,,K,N*2C
[2021-02-22 15:16:22.358] $GPGGA,,,,,,,,,,M,,M,,*56
[2021-02-22 15:16:22.358] $GPVTG,,T,,M,,N,,K,N*2C
[2021-02-22 15:16:22.358] $GPGGA,,,,,,,,,,M,,M,,*56
[2021-02-22 15:16:22.358] $GPVTG,,T,,M,,N,,K,N*2C
[2021-02-22 15:16:22.358] $GPGGA,,,,,,,,,,M,,M,,*56
[2021-02-22 15:16:22.358] $GPVTG,,T,,M,,N,,K,N*2C
[2021-02-22 15:16:22.358] $GPGGA,,,,,,,,,,M,,M,,*56
[2021-02-22 15:16:22.358] $GPVTG,,T,,M,,N,,K,N*2C
[2021-02-22 15:16:22.358] $GPGGA,,,,,,,,,,M,,M,,*56
[2021-02-22 15:16:22.358] $GPVTG,,T,,M,,N,,K,N*2C
[2021-02-22 15:16:22.358] $GPGGA,,,,,,,,,,M,,M,,*56
[2021-02-22 15:16:22.358] $GPVTG,,T,,M,,N,,K,N*2C
[2021-02-22 15:16:22.358] $GPGGA,,,,,,,,,,M,,M,,*56
[2021-02-22 15:16:22.358] $GPVTG,,T,,M,,N,,K,N*2C
[2021-02-22 15:16:22.358] $GPGGA,,,,,,,,,,M,,M,,*56
[2021-02-22 15:16:22.358] $GPVTG,,T,,M,,N,,K,N*2C
[2021-02-22 15:16:22.358] $GPGGA,,,,,,,,,,M,,M,,*56
[2021-02-22 15:16:22.358] $GPVTG,,T,,M,,N,,K,N*2C
[2021-02-22 15:16:22.358] $GPGGA,,,,,,,,,,M,,M,,*56
[2021-02-22 15:16:22.358] $GPVTG,,T,,M,,N,,K,N*2C
[2021-02-22 15:16:22.358] $GPGGA,,,,,,,,,,M,,M,,*56
[2021-02-22 15:16:22.358] $GPVTG,,T,,M,,N,,K,N*2C
[2021-02-22 15:16:22.358] $GPGGA,,,,,,,,,,M,,M,,*56
[2021-02-22 15:16:22.358] $GPVTG,,T,,M,,N,,K,N*2C
[2021-02-22 15:16:22.358] $GPGGA,,,,,,,,,,M,,M,,*56
[2021-02-22 15:16:22.358] $GPVTG,,T,,M,,N,,K,N*2C
[2021-02-22 15:16:22.358] $GPGGA,,,,,,,,,,M,,M,,*56
[2021-02-22 15:16:22.358] $GPVTG,,T,,M,,N,,K,N*2C
[2021-02-22 15:16:22.358] $GPGGA,,,,,,,,,,M,,M,,*56
[2021-02-22 15:16:22.358] $GPVTG,,T,,M,,N,,K,N*2C
[2021-02-22 15:16:22.358] $GPGGA,,,,,,,,,,M,,M,,*56
[2021-02-22 15:16:22.358] $GPVTG,,T,,M,,N,,K,N*2C
[2021-02-22 15:16:22.358] $GPGGA,,,,,,,,,,M,,M,,*56
[2021-02-22 15:16:22.358] $GPVTG,,T,,M,,N,,K,N*2C
[2021-02-22 15:16:22.358] $GPGGA,,,,,,,,,,M,,M,,*56
[2021-02-22 15:16:22.358] $GPVTG,,T,,M,,N,,K,N*2C
[2021-02-22 15:16:22.358] $GPGGA,,,,,,,,,,M,,M,,*56
[2021-02-22 15:16:22.358] $GPVTG,,T,,M,,N,,K,N*2C
[2021-02-22 15:16:22.358] $GPGGA,,,,,,,,,,M,,M,,*56
[2021-02-22 15:16:22.358] $GPVTG,,T,,M,,N,,K,N*2C
[2021-02-22 15:16:22.358] $GPGGA,,,,,,,,,,M,,M,,*56
[2021-02-22 15:16:22.358] $GPVTG,,T,,M,,N,,K,N*2C
[2021-02-22 15:16:22.358] $GPGGA,,,,,,,,,,M,,M,,*56
[2021-02-22 15:16:22.358] $GPVTG,,T,,M,,N,,K,N*2C
[2021-02-22 15:16:22.358] $GPGGA,,,,,,,,,,M,,M,,*56
[2021-02-22 15:16:22.358] $GPVTG,,T,,M,,N,,K,N*2C
[2021-02-22 15:16:22.358] $GPGGA,,,,,,,,,,M,,M,,*56
[2021-02-22 15:16:22.358] $GPVTG,,T,,M,,N,,K,N*2C
[2021-02-22 15:16:22.358] $GPGGA,,,,,,,,,,M,,M,,*56
[2021-02-22 15:16:22.358] $GPVTG,,T,,M,,N,,K,N*2C
[2021-02-22 15:16:22.358] $GPGGA,,,,,,,,,,M,,M,,*56
[2021-02-22 15:16:22.358] $GPVTG,,T,,M,,N,,K,N*2C
[2021-02-22 15:16:22.358] $GPGGA,,,,,,,,,,M,,M,,*56
[2021-02-22 15:16:22.358] $GPVTG,,T,,M,,N,,K,N*2C
[2021-02-22 15:16:22.358] $GPGGA,,,,,,,,,,M,,M,,*56
[2021-02-22 15:16:22.358] $GPVTG,,T,,M,,N,,K,N*2C
[2021-02-22 15:16:22.358] $GPGGA,,,,,,,,,,M,,M,,*56
[2021-02-22 15:16:22.358] $GPVTG,,T,,M,,N,,K,N*2C
[2021-02-22 15:16:22.358] $GPGGA,,,,,,,,,,M,,M,,*56
[2021-02-22 15:16:22.358] $GPVTG,,T,,M,,N,,K,N*2C
[2021-02-22 15:16:22.389] $GPGGA,,,,,,,,,,M,,M,,*56
[2021-02-22 15:16:22.389] $GPVTG,,T,,M,,N,,K,N*2C
[2021-02-22 15:16:22.592] $GPGGA,,,,,,,,,,M,,M,,*56
[2021-02-22 15:16:22.608] $GPVTG,,T,,M,,N,,K,N*2C
[2021-02-22 15:16:22.795] $GPGGA,,,,,,,,,,M,,M,,*56
[2021-02-22 15:16:22.811] $GPVTG,,T,,M,,N,,K,N*2C
[2021-02-22 15:16:22.998] $GPGGA,,,,,,,,,,M,,M,,*56
[2021-02-22 15:16:23.014] $GPVTG,,T,,M,,N,,K,N*2C
[2021-02-22 15:16:23.201] $GPGGA,,,,,,,,,,M,,M,,*56
[2021-02-22 15:16:23.201] $GPVTG,,T,,M,,N,,K,N*2C
[2021-02-22 15:16:23.389] $GPGGA,,,,,,,,,,M,,M,,*56
[2021-02-22 15:16:23.404] $GPVTG,,T,,M,,N,,K,N*2C
[2021-02-22 15:16:23.592] $GPGGA,,,,,,,,,,M,,M,,*56
[2021-02-22 15:16:23.607] $GPVTG,,T,,M,,N,,K,N*2C
[2021-02-22 15:16:23.795] $GPGGA,,,,,,,,,,M,,M,,*56
[2021-02-22 15:16:23.811] $GPVTG,,T,,M,,N,,K,N*2C
[2021-02-22 15:16:23.998] $GPGGA,,,,,,,,,,M,,M,,*56
[2021-02-22 15:16:23.998] $GPVTG,,T,,M,,N,,K,N*2C
[2021-02-22 15:16:24.201] $GPGGA,,,,,,,,,,M,,M,,*56
[2021-02-22 15:16:24.201] $GPVTG,,T,,M,,N,,K,N*2C
[2021-02-22 15:16:24.389] $GPGGA,,,,,,,,,,M,,M,,*56
[2021-02-22 15:16:24.389] $GPVTG,,T,,M,,N,,K,N*2C
[2021-02-22 15:16:24.592] $GPGGA,,,,,,,,,,M,,M,,*56
[2021-02-22 15:16:24.592] $GPVTG,,T,,M,,N,,K,N*2C
[2021-02-22 15:16:24.795] $GPGGA,,,,,,,,,,M,,M,,*56
[2021-02-22 15:16:24.795] $GPVTG,,T,,M,,N,,K,N*2C
[2021-02-22 15:16:24.998] $GPGGA,,,,,,,,,,M,,M,,*56
[2021-02-22 15:16:24.998] $GPVTG,,T,,M,,N,,K,N*2C
[2021-02-22 15:16:25.186] $GPGGA,,,,,,,,,,M,,M,,*56
[2021-02-22 15:16:25.201] $GPVTG,,T,,M,,N,,K,N*2C
[2021-02-22 15:16:25.389] $GPGGA,,,,,,,,,,M,,M,,*56
[2021-02-22 15:16:25.389] $GPVTG,,T,,M,,N,,K,N*2C
[2021-02-22 15:16:25.592] $GPGGA,,,,,,,,,,M,,M,,*56
[2021-02-22 15:16:25.607] $GPVTG,,T,,M,,N,,K,N*2C
[2021-02-22 15:16:25.795] $GPGGA,,,,,,,,,,M,,M,,*56
[2021-02-22 15:16:25.795] $GPVTG,,T,,M,,N,,K,N*2C
[2021-02-22 15:16:25.998] $GPGGA,,,,,,,,,,M,,M,,*56
[2021-02-22 15:16:25.998] $GPVTG,,T,,M,,N,,K,N*2C
[2021-02-22 15:16:26.201] $GPGGA,,,,,,,,,,M,,M,,*56
[2021-02-22 15:16:26.201] $GPVTG,,T,,M,,N,,K,N*2C
[2021-02-22 15:16:26.389] $GPGGA,,,,,,,,,,M,,M,,*56
[2021-02-22 15:16:26.404] $GPVTG,,T,,M,,N,,K,N*2C
[2021-02-22 15:16:26.592] $GPGGA,,,,,,,,,,M,,M,,*56
[2021-02-22 15:16:26.607] $GPVTG,,T,,M,,N,,K,N*2C
[2021-02-22 15:16:26.795] $GPGGA,,,,,,,,,,M,,M,,*56
[2021-02-22 15:16:26.795] $GPVTG,,T,,M,,N,,K,N*2C
[2021-02-22 15:16:26.998] $GPGGA,,,,,,,,,,M,,M,,*56
[2021-02-22 15:16:26.998] $GPVTG,,T,,M,,N,,K,N*2C
[2021-02-22 15:16:27.201] $GPGGA,,,,,,,,,,M,,M,,*56
[2021-02-22 15:16:27.201] $GPVTG,,T,,M,,N,,K,N*2C
[2021-02-22 15:16:27.389] $GPGGA,,,,,,,,,,M,,M,,*56
[2021-02-22 15:16:27.404] $GPVTG,,T,,M,,N,,K,N*2C
[2021-02-22 15:16:27.592] $GPGGA,,,,,,,,,,M,,M,,*56
[2021-02-22 15:16:27.592] $GPVTG,,T,,M,,N,,K,N*2C
[2021-02-22 15:16:27.795] $GPGGA,,,,,,,,,,M,,M,,*56
[2021-02-22 15:16:27.795] $GPVTG,,T,,M,,N,,K,N*2C
[2021-02-22 15:16:27.998] $GPGGA,,,,,,,,,,M,,M,,*56
[2021-02-22 15:16:27.998] $GPVTG,,T,,M,,N,,K,N*2C
[2021-02-22 15:16:28.201] $GPGGA,,,,,,,,,,M,,M,,*56
[2021-02-22 15:16:28.201] $GPVTG,,T,,M,,N,,K,N*2C
[2021-02-22 15:16:28.388] $GPGGA,,,,,,,,,,M,,M,,*56
[2021-02-22 15:16:28.404] $GPVTG,,T,,M,,N,,K,N*2C
[2021-02-22 15:16:28.592] $GPGGA,,,,,,,,,,M,,M,,*56
[2021-02-22 15:16:28.607] $GPVTG,,T,,M,,N,,K,N*2C
[2021-02-22 15:16:28.795] $GPGGA,,,,,,,,,,M,,M,,*56
[2021-02-22 15:16:28.795] $GPVTG,,T,,M,,N,,K,N*2C
[2021-02-22 15:16:28.998] $GPGGA,,,,,,,,,,M,,M,,*56
[2021-02-22 15:16:28.998] $GPVTG,,T,,M,,N,,K,N*2C
[2021-02-22 15:16:29.185] $GPGGA,,,,,,,,,,M,,M,,*56
[2021-02-22 15:16:29.201] $GPVTG,,T,,M,,N,,K,N*2C
[2021-02-22 15:16:29.388] $GPGGA,,,,,,,,,,M,,M,,*56
[2021-02-22 15:16:29.404] $GPVTG,,T,,M,,N,,K,N*2C
[2021-02-22 15:16:29.592] $GPGGA,,,,,,,,,,M,,M,,*56
[2021-02-22 15:16:29.607] $GPVTG,,T,,M,,N,,K,N*2C
[2021-02-22 15:16:29.795] $GPGGA,,,,,,,,,,M,,M,,*56
[2021-02-22 15:16:29.810] $GPVTG,,T,,M,,N,,K,N*2C
[2021-02-22 15:16:29.998] $GPGGA,,,,,,,,,,M,,M,,*56
[2021-02-22 15:16:29.998] $GPVTG,,T,,M,,N,,K,N*2C
[2021-02-22 15:16:30.201] $GPGGA,,,,,,,,,,M,,M,,*56
[2021-02-22 15:16:30.201] $GPVTG,,T,,M,,N,,K,N*2C
[2021-02-22 15:16:30.388] $GPGGA,,,,,,,,,,M,,M,,*56
[2021-02-22 15:16:30.404] $GPVTG,,T,,M,,N,,K,N*2C
[2021-02-22 15:16:30.591] $GPGGA,,,,,,,,,,M,,M,,*56
[2021-02-22 15:16:30.607] $GPVTG,,T,,M,,N,,K,N*2C
[2021-02-22 15:16:30.795] $GPGGA,,,,,,,,,,M,,M,,*56
[2021-02-22 15:16:30.795] $GPVTG,,T,,M,,N,,K,N*2C
[2021-02-22 15:16:30.998] $GPGGA,,,,,,,,,,M,,M,,*56
[2021-02-22 15:16:30.998] $GPVTG,,T,,M,,N,,K,N*2C
[2021-02-22 15:16:31.201] $GPGGA,,,,,,,,,,M,,M,,*56
[2021-02-22 15:16:31.201] $GPVTG,,T,,M,,N,,K,N*2C
[2021-02-22 15:16:31.388] $GPGGA,,,,,,,,,,M,,M,,*56
[2021-02-22 15:16:31.404] $GPVTG,,T,,M,,N,,K,N*2C
[2021-02-22 15:16:31.591] $GPGGA,,,,,,,,,,M,,M,,*56
[2021-02-22 15:16:31.607] $GPVTG,,T,,M,,N,,K,N*2C
[2021-02-22 15:16:31.794] $GPGGA,,,,,,,,,,M,,M,,*56
[2021-02-22 15:16:31.810] $GPVTG,,T,,M,,N,,K,N*2C
[2021-02-22 15:16:31.998] $GPGGA,,,,,,,,,,M,,M,,*56
[2021-02-22 15:16:31.998] $GPVTG,,T,,M,,N,,K,N*2C
[2021-02-22 15:16:32.201] $GPGGA,,,,,,,,,,M,,M,,*56
[2021-02-22 15:16:32.201] $GPVTG,,T,,M,,N,,K,N*2C
[2021-02-22 15:16:32.388] $GPGGA,,,,,,,,,,M,,M,,*56
[2021-02-22 15:16:32.404] $GPVTG,,T,,M,,N,,K,N*2C
[2021-02-22 15:16:32.591] $GPGGA,,,,,,,,,,M,,M,,*56
[2021-02-22 15:16:32.607] $GPVTG,,T,,M,,N,,K,N*2C
[2021-02-22 15:16:32.794] $GPGGA,,,,,,,,,,M,,M,,*56
[2021-02-22 15:16:32.794] $GPVTG,,T,,M,,N,,K,N*2C
[2021-02-22 15:16:32.998] $GPGGA,,,,,,,,,,M,,M,,*56
[2021-02-22 15:16:32.998] $GPVTG,,T,,M,,N,,K,N*2C
[2021-02-22 15:16:33.201] $GPGGA,,,,,,,,,,M,,M,,*56
[2021-02-22 15:16:33.201] $GPVTG,,T,,M,,N,,K,N*2C
[2021-02-22 15:16:33.388] $GPGGA,,,,,,,,,,M,,M,,*56
[2021-02-22 15:16:33.404] $GPVTG,,T,,M,,N,,K,N*2C
[2021-02-22 15:16:33.591] $GPGGA,,,,,,,,,,M,,M,,*56
[2021-02-22 15:16:33.607] $GPVTG,,T,,M,,N,,K,N*2C
[2021-02-22 15:16:33.794] $GPGGA,,,,,,,,,,M,,M,,*56
[2021-02-22 15:16:33.810] $GPVTG,,T,,M,,N,,K,N*2C
[2021-02-22 15:16:33.997] $GPGGA,,,,,,,,,,M,,M,,*56
[2021-02-22 15:16:33.997] $GPVTG,,T,,M,,N,,K,N*2C
[2021-02-22 15:16:34.201] $GPGGA,,,,,,,,,,M,,M,,*56
[2021-02-22 15:16:34.201] $GPVTG,,T,,M,,N,,K,N*2C
[2021-02-22 15:16:34.388] $GPGGA,,,,,,,,,,M,,M,,*56
[2021-02-22 15:16:34.404] $GPVTG,,T,,M,,N,,K,N*2C
[2021-02-22 15:16:34.591] $GPGGA,,,,,,,,,,M,,M,,*56
[2021-02-22 15:16:34.607] $GPVTG,,T,,M,,N,,K,N*2C
[2021-02-22 15:16:34.794] $GPGGA,,,,,,,,,,M,,M,,*56
[2021-02-22 15:16:34.794] $GPVTG,,T,,M,,N,,K,N*2C
[2021-02-22 15:16:34.997] $GPGGA,,,,,,,,,,M,,M,,*56
[2021-02-22 15:16:34.997] $GPVTG,,T,,M,,N,,K,N*2C
[2021-02-22 15:16:35.200] $GPGGA,,,,,,,,,,M,,M,,*56
[2021-02-22 15:16:35.200] $GPVTG,,T,,M,,N,,K,N*2C
[2021-02-22 15:16:35.388] $GPGGA,,,,,,,,,,M,,M,,*56
[2021-02-22 15:16:35.404] $GPVTG,,T,,M,,N,,K,N*2C
[2021-02-22 15:16:35.591] $GPGGA,,,,,,,,,,M,,M,,*56
[2021-02-22 15:16:35.607] $GPVTG,,T,,M,,N,,K,N*2C
[2021-02-22 15:16:35.794] $GPGGA,,,,,,,,,,M,,M,,*56
[2021-02-22 15:16:35.810] $GPVTG,,T,,M,,N,,K,N*2C
[2021-02-22 15:16:35.997] $GPGGA,,,,,,,,,,M,,M,,*56
[2021-02-22 15:16:35.997] $GPVTG,,T,,M,,N,,K,N*2C
[2021-02-22 15:16:36.200] $GPGGA,,,,,,,,,,M,,M,,*56
[2021-02-22 15:16:36.200] $GPVTG,,T,,M,,N,,K,N*2C
[2021-02-22 15:16:36.388] $GPGGA,,,,,,,,,,M,,M,,*56
[2021-02-22 15:16:36.403] $GPVTG,,T,,M,,N,,K,N*2C
[2021-02-22 15:16:36.591] $GPGGA,,,,,,,,,,M,,M,,*56
[2021-02-22 15:16:36.607] $GPVTG,,T,,M,,N,,K,N*2C
[2021-02-22 15:16:36.794] $GPGGA,,,,,,,,,,M,,M,,*56
[2021-02-22 15:16:36.794] $GPVTG,,T,,M,,N,,K,N*2C
[2021-02-22 15:16:36.997] $GPGGA,,,,,,,,,,M,,M,,*56
[2021-02-22 15:16:36.997] $GPVTG,,T,,M,,N,,K,N*2C
[2021-02-22 15:16:37.185] $GPGGA,,,,,,,,,,M,,M,,*56
[2021-02-22 15:16:37.200] $GPVTG,,T,,M,,N,,K,N*2C
[2021-02-22 15:16:37.388] $GPGGA,,,,,,,,,,M,,M,,*56
[2021-02-22 15:16:37.403] $GPVTG,,T,,M,,N,,K,N*2C
[2021-02-22 15:16:37.591] $GPGGA,,,,,,,,,,M,,M,,*56
[2021-02-22 15:16:37.591] $GPVTG,,T,,M,,N,,K,N*2C
[2021-02-22 15:16:37.794] $GPGGA,,,,,,,,,,M,,M,,*56
[2021-02-22 15:16:37.794] $GPVTG,,T,,M,,N,,K,N*2C
[2021-02-22 15:16:37.997] $GPGGA,,,,,,,,,,M,,M,,*56
[2021-02-22 15:16:37.997] $GPVTG,,T,,M,,N,,K,N*2C
[2021-02-22 15:16:38.200] $GPGGA,,,,,,,,,,M,,M,,*56
[2021-02-22 15:16:38.216] $GPVTG,,T,,M,,N,,K,N*2C
[2021-02-22 15:16:38.388] $GPGGA,,,,,,,,,,M,,M,,*56
[2021-02-22 15:16:38.403] $GPVTG,,T,,M,,N,,K,N*2C
[2021-02-22 15:16:38.591] $GPGGA,,,,,,,,,,M,,M,,*56
[2021-02-22 15:16:38.606] $GPVTG,,T,,M,,N,,K,N*2C
[2021-02-22 15:16:38.794] $GPGGA,,,,,,,,,,M,,M,,*56
[2021-02-22 15:16:38.794] $GPVTG,,T,,M,,N,,K,N*2C
[2021-02-22 15:16:38.997] $GPGGA,,,,,,,,,,M,,M,,*56
[2021-02-22 15:16:39.013] $GPVTG,,T,,M,,N,,K,N*2C
[2021-02-22 15:16:39.200] $GPGGA,,,,,,,,,,M,,M,,*56
[2021-02-22 15:16:39.200] $GPVTG,,T,,M,,N,,K,N*2C
[2021-02-22 15:16:39.403] $GPGGA,,,,,,,,,,M,,M,,*56
[2021-02-22 15:16:39.403] $GPVTG,,T,,M,,N,,K,N*2C
[2021-02-22 15:16:39.591] $GPGGA,,,,,,,,,,M,,M,,*56
[2021-02-22 15:16:39.591] $GPVTG,,T,,M,,N,,K,N*2C
[2021-02-22 15:16:39.794] $GPGGA,,,,,,,,,,M,,M,,*56
[2021-02-22 15:16:39.810] $GPVTG,,T,,M,,N,,K,N*2C
[2021-02-22 15:16:39.997] $GPGGA,,,,,,,,,,M,,M,,*56
[2021-02-22 15:16:39.997] $GPVTG,,T,,M,,N,,K,N*2C
[2021-02-22 15:16:40.184] $GPGGA,,,,,,,,,,M,,M,,*56
[2021-02-22 15:16:40.200] $GPVTG,,T,,M,,N,,K,N*2C
[2021-02-22 15:16:40.388] $GPGGA,,,,,,,,,,M,,M,,*56
[2021-02-22 15:16:40.403] $GPVTG,,T,,M,,N,,K,N*2C
[2021-02-22 15:16:40.591] $GPGGA,,,,,,,,,,M,,M,,*56
[2021-02-22 15:16:40.606] $GPVTG,,T,,M,,N,,K,N*2C
[2021-02-22 15:16:40.794] $GPGGA,,,,,,,,,,M,,M,,*56
[2021-02-22 15:16:40.794] $GPVTG,,T,,M,,N,,K,N*2C
[2021-02-22 15:16:40.997] $GPGGA,,,,,,,,,,M,,M,,*56
[2021-02-22 15:16:40.997] $GPVTG,,T,,M,,N,,K,N*2C
[2021-02-22 15:16:41.200] $GPGGA,,,,,,,,,,M,,M,,*56
[2021-02-22 15:16:41.200] $GPVTG,,T,,M,,N,,K,N*2C
[2021-02-22 15:16:41.403] $GPGGA,,,,,,,,,,M,,M,,*56
[2021-02-22 15:16:41.403] $GPVTG,,T,,M,,N,,K,N*2C
[2021-02-22 15:16:41.591] $GPGGA,,,,,,,,,,M,,M,,*56
[2021-02-22 15:16:41.606] $GPVTG,,T,,M,,N,,K,N*2C
[2021-02-22 15:16:41.794] $GPGGA,,,,,,,,,,M,,M,,*56
[2021-02-22 15:16:41.794] $GPVTG,,T,,M,,N,,K,N*2C
[2021-02-22 15:16:41.997] $GPGGA,,,,,,,,,,M,,M,,*56
[2021-02-22 15:16:41.997] $GPVTG,,T,,M,,N,,K,N*2C
[2021-02-22 15:16:42.200] $GPGGA,,,,,,,,,,M,,M,,*56
[2021-02-22 15:16:42.200] $GPVTG,,T,,M,,N,,K,N*2C
[2021-02-22 15:16:42.388] $GPGGA,,,,,,,,,,M,,M,,*56
[2021-02-22 15:16:42.403] $GPVTG,,T,,M,,N,,K,N*2C
[2021-02-22 15:16:42.591] $GPGGA,,,,,,,,,,M,,M,,*56
[2021-02-22 15:16:42.606] $GPVTG,,T,,M,,N,,K,N*2C
[2021-02-22 15:16:42.794] $GPGGA,,,,,,,,,,M,,M,,*56
[2021-02-22 15:16:42.794] $GPVTG,,T,,M,,N,,K,N*2C
[2021-02-22 15:16:42.997] $GPGGA,,,,,,,,,,M,,M,,*56
[2021-02-22 15:16:42.997] $GPVTG,,T,,M,,N,,K,N*2C
[2021-02-22 15:16:43.200] $GPGGA,,,,,,,,,,M,,M,,*56
[2021-02-22 15:16:43.200] $GPVTG,,T,,M,,N,,K,N*2C
[2021-02-22 15:16:43.403] $GPGGA,,,,,,,,,,M,,M,,*56
[2021-02-22 15:16:43.403] $GPVTG,,T,,M,,N,,K,N*2C
[2021-02-22 15:16:43.590] $GPGGA,,,,,,,,,,M,,M,,*56
[2021-02-22 15:16:43.606] $GPVTG,,T,,M,,N,,K,N*2C
[2021-02-22 15:16:43.794] $GPGGA,,,,,,,,,,M,,M,,*56
[2021-02-22 15:16:43.809] $GPVTG,,T,,M,,N,,K,N*2C
[2021-02-22 15:16:43.997] $GPGGA,,,,,,,,,,M,,M,,*56
[2021-02-22 15:16:43.997] $GPVTG,,T,,M,,N,,K,N*2C
[2021-02-22 15:16:44.200] $GPGGA,,,,,,,,,,M,,M,,*56
[2021-02-22 15:16:44.200] $GPVTG,,T,,M,,N,,K,N*2C
[2021-02-22 15:16:44.387] $GPGGA,,,,,,,,,,M,,M,,*56
[2021-02-22 15:16:44.403] $GPVTG,,T,,M,,N,,K,N*2C
[2021-02-22 15:16:44.590] $GPGGA,,,,,,,,,,M,,M,,*56
[2021-02-22 15:16:44.606] $GPVTG,,T,,M,,N,,K,N*2C
[2021-02-22 15:16:44.794] $GPGGA,,,,,,,,,,M,,M,,*56
[2021-02-22 15:16:44.794] $GPVTG,,T,,M,,N,,K,N*2C
[2021-02-22 15:16:44.997] $GPGGA,,,,,,,,,,M,,M,,*56
[2021-02-22 15:16:44.997] $GPVTG,,T,,M,,N,,K,N*2C
[2021-02-22 15:16:45.200] $GPGGA,,,,,,,,,,M,,M,,*56
[2021-02-22 15:16:45.200] $GPVTG,,T,,M,,N,,K,N*2C
[2021-02-22 15:16:45.387] $GPGGA,,,,,,,,,,M,,M,,*56
[2021-02-22 15:16:45.403] $GPVTG,,T,,M,,N,,K,N*2C
[2021-02-22 15:16:45.590] $GPGGA,,,,,,,,,,M,,M,,*56
[2021-02-22 15:16:45.606] $GPVTG,,T,,M,,N,,K,N*2C
[2021-02-22 15:16:45.793] $GPGGA,,,,,,,,,,M,,M,,*56
[2021-02-22 15:16:45.793] $GPVTG,,T,,M,,N,,K,N*2C
[2021-02-22 15:16:45.997] $GPGGA,,,,,,,,,,M,,M,,*56
[2021-02-22 15:16:45.997] $GPVTG,,T,,M,,N,,K,N*2C
[2021-02-22 15:16:46.200] $GPGGA,,,,,,,,,,M,,M,,*56
[2021-02-22 15:16:46.200] $GPVTG,,T,,M,,N,,K,N*2C
[2021-02-22 15:16:46.387] $GPGGA,,,,,,,,,,M,,M,,*56
[2021-02-22 15:16:46.403] $GPVTG,,T,,M,,N,,K,N*2C
[2021-02-22 15:16:46.590] $GPGGA,,,,,,,,,,M,,M,,*56
[2021-02-22 15:16:46.606] $GPVTG,,T,,M,,N,,K,N*2C
[2021-02-22 15:16:46.793] $GPGGA,,,,,,,,,,M,,M,,*56
[2021-02-22 15:16:46.809] $GPVTG,,T,,M,,N,,K,N*2C
[2021-02-22 15:16:46.997] $GPGGA,,,,,,,,,,M,,M,,*56
[2021-02-22 15:16:46.997] $GPVTG,,T,,M,,N,,K,N*2C
[2021-02-22 15:16:47.200] $GPGGA,,,,,,,,,,M,,M,,*56
[2021-02-22 15:16:47.200] $GPVTG,,T,,M,,N,,K,N*2C
[2021-02-22 15:16:47.387] $GPGGA,,,,,,,,,,M,,M,,*56
[2021-02-22 15:16:47.403] $GPVTG,,T,,M,,N,,K,N*2C
[2021-02-22 15:16:47.590] $GPGGA,,,,,,,,,,M,,M,,*56
[2021-02-22 15:16:47.590] $GPVTG,,T,,M,,N,,K,N*2C
[2021-02-22 15:16:47.793] $GPGGA,,,,,,,,,,M,,M,,*56
[2021-02-22 15:16:47.793] $GPVTG,,T,,M,,N,,K,N*2C
[2021-02-22 15:16:47.996] $GPGGA,,,,,,,,,,M,,M,,*56
[2021-02-22 15:16:47.996] $GPVTG,,T,,M,,N,,K,N*2C
[2021-02-22 15:16:48.200] $GPGGA,,,,,,,,,,M,,M,,*56
[2021-02-22 15:16:48.200] $GPVTG,,T,,M,,N,,K,N*2C
[2021-02-22 15:16:48.387] $GPGGA,,,,,,,,,,M,,M,,*56
[2021-02-22 15:16:48.403] $GPVTG,,T,,M,,N,,K,N*2C
[2021-02-22 15:16:48.590] $GPGGA,,,,,,,,,,M,,M,,*56
[2021-02-22 15:16:48.606] $GPVTG,,T,,M,,N,,K,N*2C
[2021-02-22 15:16:48.793] $GPGGA,,,,,,,,,,M,,M,,*56
[2021-02-22 15:16:48.793] $GPVTG,,T,,M,,N,,K,N*2C
[2021-02-22 15:16:48.996] $GPGGA,,,,,,,,,,M,,M,,*56
[2021-02-22 15:16:48.996] $GPVTG,,T,,M,,N,,K,N*2C
[2021-02-22 15:16:49.199] $GPGGA,,,,,,,,,,M,,M,,*56
[2021-02-22 15:16:49.199] $GPVTG,,T,,M,,N,,K,N*2C
[2021-02-22 15:16:49.387] $GPGGA,,,,,,,,,,M,,M,,*56
[2021-02-22 15:16:49.403] $GPVTG,,T,,M,,N,,K,N*2C
[2021-02-22 15:16:49.590] $GPGGA,,,,,,,,,,M,,M,,*56
[2021-02-22 15:16:49.606] $GPVTG,,T,,M,,N,,K,N*2C
[2021-02-22 15:16:49.793] $GPGGA,,,,,,,,,,M,,M,,*56
[2021-02-22 15:16:49.793] $GPVTG,,T,,M,,N,,K,N*2C
[2021-02-22 15:16:49.996] $GPGGA,,,,,,,,,,M,,M,,*56
[2021-02-22 15:16:49.996] $GPVTG,,T,,M,,N,,K,N*2C
[2021-02-22 15:16:50.199] $GPGGA,,,,,,,,,,M,,M,,*56
[2021-02-22 15:16:50.199] $GPVTG,,T,,M,,N,,K,N*2C
[2021-02-22 15:16:50.403] $GPGGA,,,,,,,,,,M,,M,,*56
[2021-02-22 15:16:50.403] $GPVTG,,T,,M,,N,,K,N*2C
[2021-02-22 15:16:50.590] $GPGGA,,,,,,,,,,M,,M,,*56
[2021-02-22 15:16:50.606] $GPVTG,,T,,M,,N,,K,N*2C
[2021-02-22 15:16:50.793] $GPGGA,,,,,,,,,,M,,M,,*56
[2021-02-22 15:16:50.809] $GPVTG,,T,,M,,N,,K,N*2C
[2021-02-22 15:16:50.996] $GPGGA,,,,,,,,,,M,,M,,*56
[2021-02-22 15:16:50.996] $GPVTG,,T,,M,,N,,K,N*2C
[2021-02-22 15:16:51.199] $GPGGA,,,,,,,,,,M,,M,,*56
[2021-02-22 15:16:51.199] $GPVTG,,T,,M,,N,,K,N*2C
[2021-02-22 15:16:51.387] $GPGGA,,,,,,,,,,M,,M,,*56
[2021-02-22 15:16:51.402] $GPVTG,,T,,M,,N,,K,N*2C
[2021-02-22 15:16:51.590] $GPGGA,,,,,,,,,,M,,M,,*56
[2021-02-22 15:16:51.606] $GPVTG,,T,,M,,N,,K,N*2C
[2021-02-22 15:16:51.793] $GPGGA,,,,,,,,,,M,,M,,*56
[2021-02-22 15:16:51.809] $GPVTG,,T,,M,,N,,K,N*2C
[2021-02-22 15:16:51.996] $GPGGA,,,,,,,,,,M,,M,,*56
[2021-02-22 15:16:52.012] $GPVTG,,T,,M,,N,,K,N*2C
[2021-02-22 15:16:52.199] $GPGGA,,,,,,,,,,M,,M,,*56
[2021-02-22 15:16:52.199] $GPVTG,,T,,M,,N,,K,N*2C
[2021-02-22 15:16:52.402] $GPGGA,,,,,,,,,,M,,M,,*56
[2021-02-22 15:16:52.418] $GPVTG,,T,,M,,N,,K,N*2C
[2021-02-22 15:16:52.590] $GPGGA,,,,,,,,,,M,,M,,*56
[2021-02-22 15:16:52.605] $GPVTG,,T,,M,,N,,K,N*2C
[2021-02-22 15:16:52.793] $GPGGA,,,,,,,,,,M,,M,,*56
[2021-02-22 15:16:52.809] $GPVTG,,T,,M,,N,,K,N*2C
[2021-02-22 15:16:52.996] $GPGGA,,,,,,,,,,M,,M,,*56
[2021-02-22 15:16:52.996] $GPVTG,,T,,M,,N,,K,N*2C
[2021-02-22 15:16:53.199] $GPGGA,,,,,,,,,,M,,M,,*56
[2021-02-22 15:16:53.199] $GPVTG,,T,,M,,N,,K,N*2C
[2021-02-22 15:16:53.402] $GPGGA,,,,,,,,,,M,,M,,*56
[2021-02-22 15:16:53.402] $GPVTG,,T,,M,,N,,K,N*2C
[2021-02-22 15:16:53.590] $GPGGA,,,,,,,,,,M,,M,,*56
[2021-02-22 15:16:53.605] $GPVTG,,T,,M,,N,,K,N*2C
[2021-02-22 15:16:53.793] $GPGGA,,,,,,,,,,M,,M,,*56
[2021-02-22 15:16:53.809] $GPVTG,,T,,M,,N,,K,N*2C
[2021-02-22 15:16:53.996] $GPGGA,,,,,,,,,,M,,M,,*56
[2021-02-22 15:16:54.012] $GPVTG,,T,,M,,N,,K,N*2C
[2021-02-22 15:16:54.199] $GPGGA,,,,,,,,,,M,,M,,*56
[2021-02-22 15:16:54.199] $GPVTG,,T,,M,,N,,K,N*2C
[2021-02-22 15:16:54.402] $GPGGA,,,,,,,,,,M,,M,,*56
[2021-02-22 15:16:54.402] $GPVTG,,T,,M,,N,,K,N*2C
[2021-02-22 15:16:54.590] $GPGGA,,,,,,,,,,M,,M,,*56
[2021-02-22 15:16:54.605] $GPVTG,,T,,M,,N,,K,N*2C
[2021-02-22 15:16:54.793] $GPGGA,,,,,,,,,,M,,M,,*56
[2021-02-22 15:16:54.808] $GPVTG,,T,,M,,N,,K,N*2C
[2021-02-22 15:16:54.996] $GPGGA,,,,,,,,,,M,,M,,*56
[2021-02-22 15:16:55.012] $GPVTG,,T,,M,,N,,K,N*2C
[2021-02-22 15:16:55.199] $GPGGA,,,,,,,,,,M,,M,,*56
[2021-02-22 15:16:55.215] $GPVTG,,T,,M,,N,,K,N*2C
[2021-02-22 15:16:55.402] $GPGGA,,,,,,,,,,M,,M,,*56
[2021-02-22 15:16:55.402] $GPVTG,,T,,M,,N,,K,N*2C
[2021-02-22 15:16:55.590] $GPGGA,,,,,,,,,,M,,M,,*56
[2021-02-22 15:16:55.605] $GPVTG,,T,,M,,N,,K,N*2C
[2021-02-22 15:16:55.793] $GPGGA,,,,,,,,,,M,,M,,*56
[2021-02-22 15:16:55.808] $GPVTG,,T,,M,,N,,K,N*2C
[2021-02-22 15:16:55.996] $GPGGA,,,,,,,,,,M,,M,,*56
[2021-02-22 15:16:56.012] $GPVTG,,T,,M,,N,,K,N*2C
[2021-02-22 15:16:56.199] $GPGGA,,,,,,,,,,M,,M,,*56
[2021-02-22 15:16:56.199] $GPVTG,,T,,M,,N,,K,N*2C
[2021-02-22 15:16:56.402] $GPGGA,,,,,,,,,,M,,M,,*56
[2021-02-22 15:16:56.402] $GPVTG,,T,,M,,N,,K,N*2C
[2021-02-22 15:16:56.590] $GPGGA,,,,,,,,,,M,,M,,*56
[2021-02-22 15:16:56.605] $GPVTG,,T,,M,,N,,K,N*2C
[2021-02-22 15:16:56.793] $GPGGA,,,,,,,,,,M,,M,,*56
[2021-02-22 15:16:56.808] $GPVTG,,T,,M,,N,,K,N*2C
[2021-02-22 15:16:56.996] $GPGGA,,,,,,,,,,M,,M,,*56
[2021-02-22 15:16:56.996] $GPVTG,,T,,M,,N,,K,N*2C
[2021-02-22 15:16:57.199] $GPGGA,,,,,,,,,,M,,M,,*56
[2021-02-22 15:16:57.199] $GPVTG,,T,,M,,N,,K,N*2C
[2021-02-22 15:16:57.402] $GPGGA,,,,,,,,,,M,,M,,*56
[2021-02-22 15:16:57.402] $GPVTG,,T,,M,,N,,K,N*2C
[2021-02-22 15:16:57.590] $GPGGA,,,,,,,,,,M,,M,,*56
[2021-02-22 15:16:57.605] $GPVTG,,T,,M,,N,,K,N*2C
[2021-02-22 15:16:57.793] $GPGGA,,,,,,,,,,M,,M,,*56
[2021-02-22 15:16:57.808] $GPVTG,,T,,M,,N,,K,N*2C
[2021-02-22 15:16:57.996] $GPGGA,,,,,,,,,,M,,M,,*56
[2021-02-22 15:16:58.011] $GPVTG,,T,,M,,N,,K,N*2C
[2021-02-22 15:16:58.199] $GPGGA,,,,,,,,,,M,,M,,*56
[2021-02-22 15:16:58.199] $GPVTG,,T,,M,,N,,K,N*2C
[2021-02-22 15:16:58.402] $GPGGA,,,,,,,,,,M,,M,,*56
[2021-02-22 15:16:58.402] $GPVTG,,T,,M,,N,,K,N*2C
[2021-02-22 15:16:58.590] $GPGGA,,,,,,,,,,M,,M,,*56
[2021-02-22 15:16:58.605] $GPVTG,,T,,M,,N,,K,N*2C
[2021-02-22 15:16:58.793] $GPGGA,,,,,,,,,,M,,M,,*56
[2021-02-22 15:16:58.808] $GPVTG,,T,,M,,N,,K,N*2C
[2021-02-22 15:16:58.996] $GPGGA,,,,,,,,,,M,,M,,*56
[2021-02-22 15:16:58.996] $GPVTG,,T,,M,,N,,K,N*2C
[2021-02-22 15:16:59.199] $GPGGA,,,,,,,,,,M,,M,,*56
[2021-02-22 15:16:59.199] $GPVTG,,T,,M,,N,,K,N*2C
[2021-02-22 15:16:59.402] $GPGGA,,,,,,,,,,M,,M,,*56
[2021-02-22 15:16:59.402] $GPVTG,,T,,M,,N,,K,N*2C
[2021-02-22 15:16:59.589] $GPGGA,,,,,,,,,,M,,M,,*56
[2021-02-22 15:16:59.605] $GPVTG,,T,,M,,N,,K,N*2C
[2021-02-22 15:16:59.793] $GPGGA,061659.40,3713.89641110,N,13701.43836081,E,1,06,2.8,101.629,M,36.770,M,,*62
[2021-02-22 15:16:59.824] $GPVTG,243.21,T,251.66,M,0.13,N,0.25,K,A*26
[2021-02-22 15:16:59.902] $GPGGA,061659.50,3713.89641049,N,13701.43835788,E,1,06,2.8,101.621,M,36.770,M,,*6B
[2021-02-22 15:16:59.917] $GPVTG,255.43,T,263.88,M,0.09,N,0.16,K,A*2F
[2021-02-22 15:17:00.011] $GPGGA,061659.60,3713.89701261,N,13701.43769011,E,2,05,2.8,101.027,M,36.770,M,40.6,0000*78
[2021-02-22 15:17:00.027] $GPVTG,227.49,T,235.94,M,0.07,N,0.13,K,D*20
[2021-02-22 15:17:00.089] $GPGGA,061659.70,3713.89701453,N,13701.43768784,E,2,05,2.8,101.032,M,36.770,M,40.6,0000*70
[2021-02-22 15:17:00.121] $GPVTG,304.59,T,313.04,M,0.07,N,0.13,K,D*2D
[2021-02-22 15:17:00.199] $GPGGA,061659.80,3713.89713964,N,13701.43755603,E,2,05,2.8,100.503,M,36.770,M,40.8,0000*7D
[2021-02-22 15:17:00.214] $GPVTG,257.10,T,265.55,M,0.04,N,0.07,K,D*25
[2021-02-22 15:17:00.292] $GPGGA,061659.90,3713.89714351,N,13701.43755489,E,2,05,2.8,100.512,M,36.770,M,40.8,0000*77
[2021-02-22 15:17:00.308] $GPVTG,340.38,T,348.83,M,0.08,N,0.14,K,D*23
[2021-02-22 15:17:00.402] $GPGGA,061700.00,3713.89718976,N,13701.43748670,E,2,05,2.8,100.150,M,36.770,M,41.0,0000*73
[2021-02-22 15:17:00.417] $GPVTG,337.96,T,346.41,M,0.04,N,0.08,K,D*26
[2021-02-22 15:17:00.496] $GPGGA,061700.10,3713.89719397,N,13701.43748701,E,2,05,2.8,100.157,M,36.770,M,41.0,0000*76
[2021-02-22 15:17:00.511] $GPVTG,4.06,T,12.51,M,0.09,N,0.17,K,D*1C
[2021-02-22 15:17:00.605] $GPGGA,061700.20,3713.89719574,N,13701.43742095,E,2,05,2.8,99.689,M,36.770,M,41.2,0000*49
[2021-02-22 15:17:00.621] $GPVTG,19.93,T,28.38,M,0.10,N,0.18,K,D*2D
[2021-02-22 15:17:00.699] $GPGGA,061700.30,3713.89719580,N,13701.43741986,E,2,05,2.8,99.685,M,36.770,M,41.2,0000*47
[2021-02-22 15:17:00.714] $GPVTG,12.99,T,21.43,M,0.07,N,0.12,K,D*25
[2021-02-22 15:17:00.792] $GPGGA,061700.40,3713.89719225,N,13701.43735954,E,2,05,2.8,99.363,M,36.770,M,41.4,0000*4F
[2021-02-22 15:17:00.824] $GPVTG,6.83,T,15.28,M,0.05,N,0.09,K,D*19
[2021-02-22 15:17:00.902] $GPGGA,061700.50,3713.89719176,N,13701.43735958,E,2,05,2.8,99.361,M,36.770,M,41.4,0000*45
[2021-02-22 15:17:00.917] $GPVTG,18.21,T,26.66,M,0.03,N,0.05,K,D*2E
[2021-02-22 15:17:00.996] $GPGGA,061700.60,3713.89717772,N,13701.43731180,E,2,05,2.8,99.099,M,36.770,M,41.6,0000*45
[2021-02-22 15:17:01.027] $GPVTG,10.91,T,19.36,M,0.03,N,0.05,K,D*24
[2021-02-22 15:17:01.089] $GPGGA,061700.70,3713.89718022,N,13701.43731048,E,2,05,2.8,99.117,M,36.770,M,41.6,0000*4B
[2021-02-22 15:17:01.121] $GPVTG,357.65,T,6.10,M,0.03,N,0.06,K,D*26
[2021-02-22 15:17:01.199] $GPGGA,061700.80,3713.89716561,N,13701.43727743,E,2,05,2.8,98.923,M,36.770,M,41.8,0000*43
[2021-02-22 15:17:01.214] $GPVTG,304.27,T,312.72,M,0.01,N,0.01,K,D*21
[2021-02-22 15:17:01.292] $GPGGA,061700.90,3713.89716492,N,13701.43727975,E,2,05,2.8,98.911,M,36.770,M,41.8,0000*45
[2021-02-22 15:17:01.324] $GPVTG,83.92,T,92.37,M,0.02,N,0.03,K,D*28
[2021-02-22 15:17:01.402] $GPGGA,061701.00,3713.89715230,N,13701.43725778,E,2,06,1.7,98.764,M,36.770,M,42.0,0000*49
[2021-02-22 15:17:01.417] $GPVTG,79.18,T,87.63,M,0.02,N,0.03,K,D*2A
[2021-02-22 15:17:01.496] $GPGGA,061701.10,3713.89715252,N,13701.43725795,E,2,06,1.7,98.759,M,36.770,M,42.0,0000*41
[2021-02-22 15:17:01.511] $GPVTG,44.55,T,53.00,M,0.02,N,0.03,K,D*21
[2021-02-22 15:17:01.605] $GPGGA,061701.20,3713.89710655,N,13701.43722887,E,2,06,1.7,98.325,M,36.770,M,42.2,0000*42
[2021-02-22 15:17:01.620] $GPVTG,93.25,T,101.70,M,0.03,N,0.05,K,D*1A
[2021-02-22 15:17:01.699] $GPGGA,061701.30,3713.89710937,N,13701.43722701,E,2,06,1.7,98.327,M,36.770,M,42.2,0000*4B
[2021-02-22 15:17:01.714] $GPVTG,3.91,T,12.36,M,0.03,N,0.06,K,D*1E
[2021-02-22 15:17:01.808] $GPGGA,061701.40,3713.89699925,N,13701.43715486,E,2,06,1.7,97.254,M,36.770,M,42.4,0000*4B
[2021-02-22 15:17:01.824] $GPVTG,351.66,T,0.11,M,0.05,N,0.10,K,D*25
[2021-02-22 15:17:01.902] $GPGGA,061701.50,3713.89700233,N,13701.43715589,E,2,06,1.7,97.256,M,36.770,M,42.4,0000*4B
[2021-02-22 15:17:01.917] $GPVTG,5.36,T,13.80,M,0.07,N,0.14,K,D*1E
[2021-02-22 15:17:01.995] $GPGGA,061701.60,3713.89693898,N,13701.43712535,E,2,06,1.7,96.650,M,36.770,M,42.6,0000*49
[2021-02-22 15:17:02.011] $GPVTG,2.72,T,11.17,M,0.10,N,0.19,K,D*1E
[2021-02-22 15:17:02.089] $GPGGA,061701.70,3713.89693868,N,13701.43712676,E,2,06,1.7,96.644,M,36.770,M,42.6,0000*46
[2021-02-22 15:17:02.120] $GPVTG,9.44,T,17.89,M,0.08,N,0.15,K,D*14
[2021-02-22 15:17:02.199] $GPGGA,061701.80,3713.89688454,N,13701.43712618,E,2,06,1.7,96.215,M,36.770,M,42.8,0000*46
[2021-02-22 15:17:02.214] $GPVTG,13.75,T,22.20,M,0.07,N,0.12,K,D*20
[2021-02-22 15:17:02.292] $GPGGA,061701.90,3713.89688356,N,13701.43712755,E,2,06,1.7,96.208,M,36.770,M,42.8,0000*46
[2021-02-22 15:17:02.308] $GPVTG,30.60,T,39.05,M,0.04,N,0.08,K,D*20
[2021-02-22 15:17:02.402] $GPGGA,061702.00,3713.89684143,N,13701.43713511,E,2,06,1.7,95.931,M,36.770,M,43.0,0000*4E
[2021-02-22 15:17:02.417] $GPVTG,74.77,T,83.22,M,0.01,N,0.03,K,D*2C
[2021-02-22 15:17:02.495] $GPGGA,061702.10,3713.89684349,N,13701.43713524,E,2,06,1.7,95.932,M,36.770,M,43.0,0000*42
[2021-02-22 15:17:02.511] $GPVTG,27.14,T,35.59,M,0.02,N,0.04,K,D*2A
[2021-02-22 15:17:02.605] $GPGGA,061702.20,3713.89680717,N,13701.43714716,E,2,06,1.7,95.739,M,36.770,M,43.2,0000*49
[2021-02-22 15:17:02.620] $GPVTG,351.72,T,0.16,M,0.02,N,0.05,K,D*24
[2021-02-22 15:17:02.699] $GPGGA,061702.30,3713.89680754,N,13701.43714938,E,2,06,1.7,95.741,M,36.770,M,43.2,0000*42
[2021-02-22 15:17:02.714] $GPVTG,60.30,T,68.75,M,0.03,N,0.05,K,D*29
[2021-02-22 15:17:02.808] $GPGGA,061702.40,3713.89677235,N,13701.43715788,E,2,06,1.7,95.535,M,36.770,M,43.4,0000*4C
[2021-02-22 15:17:02.824] $GPVTG,41.54,T,49.99,M,0.03,N,0.06,K,D*2A
[2021-02-22 15:17:02.902] $GPGGA,061702.50,3713.89677415,N,13701.43715888,E,2,06,1.7,95.530,M,36.770,M,43.4,0000*43
[2021-02-22 15:17:02.902] $GPVTG,24.55,T,33.00,M,0.05,N,0.09,K,D*2C
[2021-02-22 15:17:02.995] $GPGGA,061702.60,3713.89669999,N,13701.43717421,E,2,07,1.3,95.112,M,36.770,M,43.6,0000*48
[2021-02-22 15:17:03.011] $GPVTG,50.03,T,58.48,M,0.05,N,0.09,K,D*2D
[2021-02-22 15:17:03.089] $GPGGA,061702.70,3713.89670038,N,13701.43717509,E,2,07,1.3,95.103,M,36.770,M,43.6,0000*48
[2021-02-22 15:17:03.105] $GPVTG,45.42,T,53.87,M,0.04,N,0.08,K,D*24
[2021-02-22 15:17:03.199] $GPGGA,061702.80,3713.89654995,N,13701.43721280,E,2,07,1.3,94.335,M,36.770,M,43.8,0000*44
[2021-02-22 15:17:03.214] $GPVTG,9.19,T,17.64,M,0.03,N,0.06,K,D*16
[2021-02-22 15:17:03.292] $GPGGA,061702.90,3713.89654895,N,13701.43721211,E,2,07,1.3,94.335,M,36.770,M,43.8,0000*4C
[2021-02-22 15:17:03.308] $GPVTG,310.99,T,319.44,M,0.01,N,0.02,K,D*2C
[2021-02-22 15:17:03.402] $GPGGA,061703.00,3713.89650774,N,13701.43721451,E,2,07,1.3,94.111,M,36.770,M,44.0,0000*49
[2021-02-22 15:17:03.417] $GPVTG,271.61,T,280.06,M,0.02,N,0.03,K,D*28
[2021-02-22 15:17:03.495] $GPGGA,061703.10,3713.89650913,N,13701.43721370,E,2,07,1.3,94.110,M,36.770,M,44.0,0000*42
[2021-02-22 15:17:03.511] $GPVTG,307.18,T,315.63,M,0.03,N,0.06,K,D*2C
[2021-02-22 15:17:03.605] $GPGGA,061703.20,3713.89650305,N,13701.43721266,E,2,07,1.3,94.053,M,36.770,M,44.2,0000*4E
[2021-02-22 15:17:03.620] $GPVTG,329.52,T,337.97,M,0.04,N,0.07,K,D*23
[2021-02-22 15:17:03.698] $GPGGA,061703.30,3713.89650555,N,13701.43721012,E,2,07,1.3,94.056,M,36.770,M,44.2,0000*48
[2021-02-22 15:17:03.714] $GPVTG,323.72,T,332.17,M,0.07,N,0.14,K,D*27
[2021-02-22 15:17:03.808] $GPGGA,061703.40,3713.89651644,N,13701.43720597,E,2,07,1.3,94.067,M,36.770,M,44.4,0000*40
[2021-02-22 15:17:03.823] $GPVTG,346.36,T,354.81,M,0.08,N,0.15,K,D*25
[2021-02-22 15:17:03.902] $GPGGA,061703.50,3713.89651672,N,13701.43720537,E,2,07,1.3,94.054,M,36.770,M,44.4,0000*4E
[2021-02-22 15:17:03.917] $GPVTG,339.95,T,348.40,M,0.07,N,0.12,K,D*2C
[2021-02-22 15:17:03.995] $GPGGA,061703.60,3713.89653122,N,13701.43719801,E,2,07,1.3,94.099,M,36.770,M,44.6,0000*4C
[2021-02-22 15:17:04.027] $GPVTG,341.48,T,349.93,M,0.05,N,0.10,K,D*2C
[2021-02-22 15:17:04.089] $GPGGA,061703.70,3713.89653200,N,13701.43719966,E,2,07,1.3,94.092,M,36.770,M,44.6,0000*45
[2021-02-22 15:17:04.105] $GPVTG,11.93,T,20.38,M,0.04,N,0.07,K,D*26
[2021-02-22 15:17:04.214] $GPGGA,061703.80,3713.89655282,N,13701.43719139,E,2,07,1.3,94.142,M,36.770,M,44.8,0000*46
[2021-02-22 15:17:04.214] $GPVTG,3.97,T,12.42,M,0.05,N,0.08,K,D*13
[2021-02-22 15:17:04.292] $GPGGA,061703.90,3713.89655276,N,13701.43719255,E,2,07,1.3,94.144,M,36.770,M,44.8,0000*43
[2021-02-22 15:17:04.323] $GPVTG,33.93,T,42.38,M,0.03,N,0.06,K,D*24
[2021-02-22 15:17:04.402] $GPGGA,061704.00,3713.89657261,N,13701.43718211,E,2,07,1.3,94.192,M,36.770,M,45.0,0000*4A
[2021-02-22 15:17:04.417] $GPVTG,11.65,T,20.10,M,0.04,N,0.08,K,D*2A
[2021-02-22 15:17:04.495] $GPGGA,061704.10,3713.89657263,N,13701.43718168,E,2,07,1.3,94.190,M,36.770,M,45.0,0000*46
[2021-02-22 15:17:04.511] $GPVTG,4.12,T,12.57,M,0.03,N,0.05,K,D*16
[2021-02-22 15:17:04.605] $GPGGA,061704.20,3713.89658715,N,13701.43716814,E,2,07,1.3,94.219,M,36.770,M,45.2,0000*42
[2021-02-22 15:17:04.620] $GPVTG,7.95,T,16.40,M,0.01,N,0.02,K,D*1D
[2021-02-22 15:17:04.698] $GPGGA,061704.30,3713.89658630,N,13701.43716724,E,2,07,1.3,94.226,M,36.770,M,45.2,0000*45
[2021-02-22 15:17:04.714] $GPVTG,221.56,T,230.01,M,0.01,N,0.02,K,D*27
[2021-02-22 15:17:04.808] $GPGGA,061704.40,3713.89659405,N,13701.43715364,E,2,07,1.3,94.233,M,36.770,M,45.4,0000*46
[2021-02-22 15:17:04.823] $GPVTG,200.43,T,208.88,M,0.05,N,0.10,K,D*2D
[2021-02-22 15:17:04.902] $GPGGA,061704.50,3713.89659418,N,13701.43715264,E,2,07,1.3,94.236,M,36.770,M,45.4,0000*4F
[2021-02-22 15:17:04.917] $GPVTG,214.88,T,223.33,M,0.04,N,0.08,K,D*2E
[2021-02-22 15:17:05.011] $GPGGA,061704.60,3713.89660102,N,13701.43713923,E,2,07,1.3,94.242,M,36.770,M,45.6,0000*47
[2021-02-22 15:17:05.027] $GPVTG,231.50,T,239.95,M,0.04,N,0.08,K,D*2B
[2021-02-22 15:17:05.089] $GPGGA,061704.70,3713.89660462,N,13701.43714317,E,2,07,1.3,94.233,M,36.770,M,45.6,0000*49
[2021-02-22 15:17:05.120] $GPVTG,35.48,T,43.93,M,0.04,N,0.07,K,D*22
[2021-02-22 15:17:05.198] $GPGGA,061704.80,3713.89660934,N,13701.43713959,E,2,07,1.3,94.243,M,36.770,M,45.8,0000*46
[2021-02-22 15:17:05.214] $GPVTG,19.67,T,28.12,M,0.04,N,0.07,K,D*25
[2021-02-22 15:17:05.292] $GPGGA,061704.90,3713.89661163,N,13701.43714122,E,2,07,1.3,94.244,M,36.770,M,45.8,0000*48
[2021-02-22 15:17:05.308] $GPVTG,26.03,T,34.48,M,0.07,N,0.12,K,D*2E
[2021-02-22 15:17:05.402] $GPGGA,061705.00,3713.89661533,N,13701.43714600,E,2,07,1.3,94.252,M,36.770,M,46.0,0000*4A
[2021-02-22 15:17:05.417] $GPVTG,37.95,T,46.40,M,0.10,N,0.18,K,D*20
[2021-02-22 15:17:05.495] $GPGGA,061705.10,3713.89661626,N,13701.43714657,E,2,07,1.3,94.239,M,36.770,M,46.0,0000*43
[2021-02-22 15:17:05.511] $GPVTG,36.82,T,45.27,M,0.09,N,0.16,K,D*23
[2021-02-22 15:17:05.605] $GPGGA,061705.20,3713.89661427,N,13701.43714645,E,2,07,1.3,94.257,M,36.770,M,46.2,0000*4A
[2021-02-22 15:17:05.620] $GPVTG,37.34,T,45.79,M,0.03,N,0.06,K,D*2F
[2021-02-22 15:17:05.698] $GPGGA,061705.30,3713.89661600,N,13701.43714711,E,2,07,1.3,94.253,M,36.770,M,46.2,0000*48
[2021-02-22 15:17:05.714] $GPVTG,25.60,T,34.05,M,0.04,N,0.08,K,D*29
[2021-02-22 15:17:05.808] $GPGGA,061705.40,3713.89661663,N,13701.43714560,E,2,07,1.3,94.263,M,36.770,M,46.4,0000*4B
[2021-02-22 15:17:05.823] $GPVTG,343.52,T,351.97,M,0.04,N,0.07,K,D*2F
[2021-02-22 15:17:05.901] $GPGGA,061705.50,3713.89661700,N,13701.43714568,E,2,07,1.3,94.263,M,36.770,M,46.4,0000*46
[2021-02-22 15:17:05.917] $GPVTG,340.16,T,348.61,M,0.03,N,0.05,K,D*28
[2021-02-22 15:17:06.011] $GPGGA,061705.60,3713.89661591,N,13701.43714444,E,2,07,1.3,94.270,M,36.770,M,46.6,0000*40
[2021-02-22 15:17:06.011] $GPVTG,308.95,T,317.40,M,0.03,N,0.05,K,D*26
[2021-02-22 15:17:06.089] $GPGGA,061705.70,3713.89661786,N,13701.43714482,E,2,07,1.3,94.270,M,36.770,M,46.6,0000*4F
[2021-02-22 15:17:06.105] $GPVTG,340.51,T,348.96,M,0.04,N,0.07,K,D*26
[2021-02-22 15:17:06.198] $GPGGA,061705.80,3713.89661679,N,13701.43714094,E,2,07,1.3,94.274,M,36.770,M,46.8,0000*48
[2021-02-22 15:17:06.214] $GPVTG,319.69,T,328.14,M,0.04,N,0.07,K,D*2D
[2021-02-22 15:17:06.292] $GPGGA,061705.90,3713.89661532,N,13701.43714170,E,2,07,1.3,94.270,M,36.770,M,46.8,0000*4A
[2021-02-22 15:17:06.323] $GPVTG,246.70,T,255.15,M,0.01,N,0.02,K,D*24
[2021-02-22 15:17:06.401] $GPGGA,061706.00,3713.89661353,N,13701.43713891,E,2,07,1.3,94.272,M,36.770,M,47.0,0000*4B
[2021-02-22 15:17:06.417] $GPVTG,275.38,T,283.83,M,0.02,N,0.03,K,D*2E
[2021-02-22 15:17:06.495] $GPGGA,061706.10,3713.89661229,N,13701.43713957,E,2,07,1.3,94.272,M,36.770,M,47.0,0000*4D
[2021-02-22 15:17:06.511] $GPVTG,190.14,T,198.59,M,0.02,N,0.04,K,D*21
[2021-02-22 15:17:06.605] $GPGGA,061706.20,3713.89660939,N,13701.43713523,E,2,07,1.3,94.265,M,36.770,M,47.2,0000*4E
[2021-02-22 15:17:06.620] $GPVTG,261.49,T,269.94,M,0.02,N,0.04,K,D*28
[2021-02-22 15:17:06.698] $GPGGA,061706.30,3713.89661052,N,13701.43713654,E,2,07,1.3,94.259,M,36.770,M,47.2,0000*46
[2021-02-22 15:17:06.714] $GPVTG,11.50,T,19.95,M,0.01,N,0.02,K,D*24
[2021-02-22 15:17:06.808] $GPGGA,061706.40,3713.89660737,N,13701.43713059,E,2,07,1.3,94.248,M,36.770,M,47.4,0000*49
[2021-02-22 15:17:06.823] $GPVTG,346.99,T,355.44,M,0.03,N,0.05,K,D*22
[2021-02-22 15:17:06.901] $GPGGA,061706.50,3713.89660809,N,13701.43713026,E,2,07,1.3,94.247,M,36.770,M,47.4,0000*4D
[2021-02-22 15:17:06.917] $GPVTG,344.28,T,352.73,M,0.03,N,0.05,K,D*29
[2021-02-22 15:17:07.011] $GPGGA,061706.60,3713.89660569,N,13701.43712809,E,2,07,1.3,94.240,M,36.770,M,47.6,0000*44
[2021-02-22 15:17:07.026] $GPVTG,3.00,T,11.45,M,0.02,N,0.03,K,D*15
[2021-02-22 15:17:07.089] $GPGGA,061706.70,3713.89660809,N,13701.43713114,E,2,07,1.3,94.237,M,36.770,M,47.6,0000*4A
[2021-02-22 15:17:07.120] $GPVTG,39.25,T,47.70,M,0.06,N,0.11,K,D*29
[2021-02-22 15:17:07.198] $GPGGA,061706.80,3713.89660803,N,13701.43712880,E,2,08,1.1,94.236,M,36.770,M,47.8,0000*48
[2021-02-22 15:17:07.214] $GPVTG,44.04,T,52.49,M,0.04,N,0.08,K,D*24
[2021-02-22 15:17:07.292] $GPGGA,061706.90,3713.89660801,N,13701.43712983,E,2,07,1.1,94.229,M,36.770,M,47.8,0000*48
[2021-02-22 15:17:07.308] $GPVTG,62.31,T,70.76,M,0.04,N,0.07,K,D*25
[2021-02-22 15:17:07.401] $GPGGA,061707.00,3713.89660924,N,13701.43712437,E,2,08,1.1,94.229,M,36.770,M,48.0,0000*4C
[2021-02-22 15:17:07.417] $GPVTG,52.40,T,60.85,M,0.05,N,0.08,K,D*23
[2021-02-22 15:17:07.495] $GPGGA,061707.10,3713.89661033,N,13701.43712291,E,2,08,1.1,94.222,M,36.770,M,48.0,0000*42
[2021-02-22 15:17:07.511] $GPVTG,17.94,T,26.39,M,0.03,N,0.06,K,D*26
[2021-02-22 15:17:07.604] $GPGGA,061707.20,3713.89661530,N,13701.43712131,E,2,08,1.1,94.228,M,36.770,M,48.2,0000*46
[2021-02-22 15:17:07.620] $GPVTG,350.12,T,358.57,M,0.05,N,0.10,K,D*2B
[2021-02-22 15:17:07.698] $GPGGA,061707.30,3713.89661458,N,13701.43712208,E,2,08,1.1,94.226,M,36.770,M,48.2,0000*4F
[2021-02-22 15:17:07.714] $GPVTG,4.01,T,12.46,M,0.03,N,0.05,K,D*14
[2021-02-22 15:17:07.808] $GPGGA,061707.40,3713.89661740,N,13701.43711695,E,2,08,1.1,94.224,M,36.770,M,48.4,0000*45
[2021-02-22 15:17:07.823] $GPVTG,326.37,T,334.82,M,0.03,N,0.06,K,D*2E
[2021-02-22 15:17:07.901] $GPGGA,061707.50,3713.89661782,N,13701.43711585,E,2,08,1.1,94.222,M,36.770,M,48.4,0000*4E
[2021-02-22 15:17:07.917] $GPVTG,310.26,T,318.71,M,0.03,N,0.06,K,D*29
[2021-02-22 15:17:07.995] $GPGGA,061707.60,3713.89662142,N,13701.43711277,E,2,08,1.1,94.220,M,36.770,M,48.6,0000*4E
[2021-02-22 15:17:08.011] $GPVTG,310.20,T,318.65,M,0.05,N,0.09,K,D*23
[2021-02-22 15:17:08.089] $GPGGA,061707.70,3713.89662439,N,13701.43711458,E,2,08,1.1,94.217,M,36.770,M,48.6,0000*49
[2021-02-22 15:17:08.120] $GPVTG,351.44,T,359.89,M,0.06,N,0.11,K,D*29
[2021-02-22 15:17:08.198] $GPGGA,061707.80,3713.89662711,N,13701.43710935,E,2,08,1.1,94.208,M,36.770,M,48.8,0000*48
[2021-02-22 15:17:08.214] $GPVTG,346.36,T,354.81,M,0.06,N,0.10,K,D*2E
[2021-02-22 15:17:08.292] $GPGGA,061707.90,3713.89662747,N,13701.43711248,E,2,08,1.1,94.204,M,36.770,M,48.8,0000*46
[2021-02-22 15:17:08.308] $GPVTG,36.19,T,44.64,M,0.05,N,0.09,K,D*25
[2021-02-22 15:17:08.401] $GPGGA,061708.00,3713.89663091,N,13701.43711031,E,2,08,1.1,94.197,M,36.770,M,49.0,0000*41
[2021-02-22 15:17:08.417] $GPVTG,26.70,T,35.15,M,0.05,N,0.10,K,D*23
[2021-02-22 15:17:08.495] $GPGGA,061708.10,3713.89663298,N,13701.43711461,E,2,08,1.1,94.196,M,36.770,M,49.0,0000*4B
[2021-02-22 15:17:08.511] $GPVTG,48.90,T,57.35,M,0.09,N,0.17,K,D*28
[2021-02-22 15:17:08.604] $GPGGA,061708.20,3713.89657887,N,13701.43709002,E,1,14,0.8,94.252,M,36.770,M,,*5D
[2021-02-22 15:17:08.620] $GPVTG,60.56,T,69.01,M,0.07,N,0.13,K,A*2D
[2021-02-22 15:17:08.698] $GPGGA,061708.30,3713.89658140,N,13701.43708828,E,1,14,0.8,94.244,M,36.770,M,,*57
[2021-02-22 15:17:08.714] $GPVTG,23.13,T,31.58,M,0.06,N,0.11,K,A*29
[2021-02-22 15:17:08.807] $GPGGA,061708.40,3713.89652664,N,13701.43707799,E,1,14,0.8,94.298,M,36.770,M,,*50
[2021-02-22 15:17:08.823] $GPVTG,20.60,T,29.05,M,0.08,N,0.14,K,A*24
[2021-02-22 15:17:08.901] $GPGGA,061708.50,3713.89652846,N,13701.43707844,E,1,14,0.8,94.305,M,36.770,M,,*55
[2021-02-22 15:17:08.901] $GPVTG,18.70,T,27.15,M,0.08,N,0.15,K,A*20
[2021-02-22 15:17:08.995] $GPGGA,061708.60,3713.89647660,N,13701.43710980,E,1,14,0.8,94.388,M,36.770,M,,*52
[2021-02-22 15:17:09.026] $GPVTG,353.90,T,2.35,M,0.07,N,0.12,K,A*2F
[2021-02-22 15:17:09.089] $GPGGA,061708.70,3713.89647763,N,13701.43711164,E,1,14,0.8,94.389,M,36.770,M,,*53
[2021-02-22 15:17:09.120] $GPVTG,9.86,T,18.31,M,0.06,N,0.11,K,A*19
[2021-02-22 15:17:09.198] $GPGGA,061708.80,3713.89642398,N,13701.43714509,E,1,14,0.8,94.463,M,36.770,M,,*50
[2021-02-22 15:17:09.214] $GPVTG,349.72,T,358.17,M,0.04,N,0.07,K,A*23
[2021-02-22 15:17:09.292] $GPGGA,061708.90,3713.89642497,N,13701.43714820,E,1,14,0.8,94.460,M,36.770,M,,*5C
[2021-02-22 15:17:09.307] $GPVTG,31.02,T,39.47,M,0.04,N,0.08,K,A*26
[2021-02-22 15:17:09.401] $GPGGA,061709.00,3713.89636216,N,13701.43714492,E,1,14,0.8,94.499,M,36.770,M,,*5B
[2021-02-22 15:17:09.417] $GPVTG,353.52,T,1.97,M,0.03,N,0.06,K,A*2B
[2021-02-22 15:17:09.495] $GPGGA,061709.10,3713.89636375,N,13701.43714787,E,1,14,0.8,94.491,M,36.770,M,,*51
[2021-02-22 15:17:09.511] $GPVTG,27.28,T,35.73,M,0.05,N,0.09,K,A*22
[2021-02-22 15:17:09.604] $GPGGA,061709.20,3713.89630642,N,13701.43714594,E,1,14,0.8,94.515,M,36.770,M,,*58
[2021-02-22 15:17:09.620] $GPVTG,354.16,T,2.61,M,0.05,N,0.09,K,A*2F
[2021-02-22 15:17:09.698] $GPGGA,061709.30,3713.89630630,N,13701.43714826,E,1,14,0.8,94.507,M,36.770,M,,*5B
[2021-02-22 15:17:09.714] $GPVTG,21.53,T,29.98,M,0.04,N,0.07,K,A*2F
[2021-02-22 15:17:09.807] $GPGGA,061709.40,3713.89625088,N,13701.43715095,E,1,14,0.8,94.531,M,36.770,M,,*59
[2021-02-22 15:17:09.823] $GPVTG,25.14,T,33.59,M,0.02,N,0.04,K,A*2B
[2021-02-22 15:17:09.901] $GPGGA,061709.50,3713.89625282,N,13701.43715215,E,1,14,0.8,94.524,M,36.770,M,,*5E
[2021-02-22 15:17:09.917] $GPVTG,19.69,T,28.14,M,0.04,N,0.08,K,A*27
[2021-02-22 15:17:10.011] $GPGGA,061709.60,3713.89620418,N,13701.43715693,E,1,14,0.8,94.537,M,36.770,M,,*55
[2021-02-22 15:17:10.011] $GPVTG,18.64,T,27.09,M,0.05,N,0.09,K,A*28
[2021-02-22 15:17:10.089] $GPGGA,061709.70,3713.89620516,N,13701.43715653,E,1,14,0.8,94.528,M,36.770,M,,*59
[2021-02-22 15:17:10.104] $GPVTG,356.09,T,4.54,M,0.05,N,0.08,K,A*22
[2021-02-22 15:17:10.198] $GPGGA,061709.80,3713.89616009,N,13701.43716409,E,1,14,0.8,94.544,M,36.770,M,,*5C
[2021-02-22 15:17:10.214] $GPVTG,346.05,T,354.50,M,0.06,N,0.10,K,A*27
[2021-02-22 15:17:10.292] $GPGGA,061709.90,3713.89616155,N,13701.43716748,E,1,14,0.8,94.535,M,36.770,M,,*55
[2021-02-22 15:17:10.307] $GPVTG,21.74,T,30.19,M,0.06,N,0.11,K,A*2E
[2021-02-22 15:17:10.401] $GPGGA,061710.00,3713.89611664,N,13701.43717862,E,1,14,0.8,94.534,M,36.770,M,,*51
[2021-02-22 15:17:10.417] $GPVTG,7.38,T,15.82,M,0.03,N,0.06,K,A*14
[2021-02-22 15:17:10.495] $GPGGA,061710.10,3713.89611783,N,13701.43717667,E,1,14,0.8,94.540,M,36.770,M,,*50
[2021-02-22 15:17:10.510] $GPVTG,333.95,T,342.40,M,0.04,N,0.07,K,A*2E
[2021-02-22 15:17:10.604] $GPGGA,061710.20,3713.89607564,N,13701.43719167,E,1,14,0.8,94.537,M,36.770,M,,*56
[2021-02-22 15:17:10.620] $GPVTG,347.51,T,355.96,M,0.02,N,0.04,K,A*2D
[2021-02-22 15:17:10.698] $GPGGA,061710.30,3713.89607669,N,13701.43719338,E,1,14,0.8,94.529,M,36.770,M,,*5E
[2021-02-22 15:17:10.714] $GPVTG,24.39,T,32.84,M,0.03,N,0.06,K,A*27
[2021-02-22 15:17:10.807] $GPGGA,061710.40,3713.89603879,N,13701.43720714,E,1,14,0.8,94.545,M,36.770,M,,*58
[2021-02-22 15:17:10.823] $GPVTG,14.38,T,22.83,M,0.04,N,0.07,K,A*25
[2021-02-22 15:17:10.901] $GPGGA,061710.50,3713.89604033,N,13701.43720507,E,1,14,0.8,94.541,M,36.770,M,,*5C
[2021-02-22 15:17:10.901] $GPVTG,338.31,T,346.76,M,0.05,N,0.09,K,A*25
[2021-02-22 15:17:10.995] $GPGGA,061710.60,3713.89600185,N,13701.43721957,E,1,14,0.8,94.545,M,36.770,M,,*5B
[2021-02-22 15:17:11.026] $GPVTG,323.67,T,332.12,M,0.02,N,0.04,K,A*27
[2021-02-22 15:17:11.104] $GPGGA,061710.70,3713.89600289,N,13701.43721900,E,1,14,0.8,94.543,M,36.770,M,,*51
[2021-02-22 15:17:11.104] $GPVTG,322.61,T,331.06,M,0.03,N,0.05,K,A*26
[2021-02-22 15:17:11.198] $GPGGA,061710.80,3713.89596709,N,13701.43723035,E,1,14,0.8,94.534,M,36.770,M,,*52
[2021-02-22 15:17:11.214] $GPVTG,282.17,T,290.62,M,0.03,N,0.06,K,A*27
[2021-02-22 15:17:11.292] $GPGGA,061710.90,3713.89596739,N,13701.43722902,E,1,14,0.8,94.539,M,36.770,M,,*51
[2021-02-22 15:17:11.307] $GPVTG,277.01,T,285.46,M,0.03,N,0.06,K,A*28
[2021-02-22 15:17:11.401] $GPGGA,061711.00,3713.89593905,N,13701.43723889,E,1,14,0.8,94.523,M,36.770,M,,*55
[2021-02-22 15:17:11.417] $GPVTG,0.20,T,8.65,M,0.03,N,0.05,K,A*2C
[2021-02-22 15:17:11.495] $GPGGA,061711.10,3713.89594033,N,13701.43723891,E,1,14,0.8,94.530,M,36.770,M,,*54
[2021-02-22 15:17:11.510] $GPVTG,12.72,T,21.17,M,0.04,N,0.07,K,A*23
[2021-02-22 15:17:11.604] $GPGGA,061711.20,3713.89591246,N,13701.43725103,E,1,14,0.8,94.531,M,36.770,M,,*57
[2021-02-22 15:17:11.620] $GPVTG,12.50,T,20.95,M,0.07,N,0.13,K,A*2E
[2021-02-22 15:17:11.698] $GPGGA,061711.30,3713.89591314,N,13701.43725302,E,1,14,0.8,94.530,M,36.770,M,,*52
[2021-02-22 15:17:11.714] $GPVTG,33.25,T,41.70,M,0.07,N,0.12,K,A*22
[2021-02-22 15:17:11.807] $GPGGA,061711.40,3713.89588260,N,13701.43726717,E,1,14,0.8,94.532,M,36.770,M,,*5E
[2021-02-22 15:17:11.823] $GPVTG,49.55,T,58.00,M,0.06,N,0.11,K,A*25
[2021-02-22 15:17:11.901] $GPGGA,061711.50,3713.89588218,N,13701.43726733,E,1,14,0.8,94.533,M,36.770,M,,*57
[2021-02-22 15:17:11.917] $GPVTG,65.09,T,73.54,M,0.04,N,0.07,K,A*2F
[2021-02-22 15:17:12.010] $GPGGA,061711.60,3713.89585192,N,13701.43728325,E,1,14,0.8,94.526,M,36.770,M,,*51
[2021-02-22 15:17:12.026] $GPVTG,107.93,T,116.38,M,0.05,N,0.10,K,A*26
[2021-02-22 15:17:12.104] $GPGGA,061711.70,3713.89585351,N,13701.43728617,E,1,14,0.8,94.523,M,36.770,M,,*5C
[2021-02-22 15:17:12.104] $GPVTG,87.01,T,95.46,M,0.07,N,0.13,K,A*26
[2021-02-22 15:17:12.198] $GPGGA,061711.80,3713.89582889,N,13701.43729507,E,1,14,0.8,94.522,M,36.770,M,,*58
[2021-02-22 15:17:12.213] $GPVTG,123.66,T,132.11,M,0.05,N,0.10,K,A*27
[2021-02-22 15:17:12.292] $GPGGA,061711.90,3713.89583226,N,13701.43729736,E,1,14,0.8,94.531,M,36.770,M,,*55
[2021-02-22 15:17:12.307] $GPVTG,72.77,T,81.22,M,0.06,N,0.12,K,A*2A
[2021-02-22 15:17:12.417] $GPGGA,061712.00,3713.89581522,N,13701.43730423,E,1,14,0.8,94.520,M,36.770,M,,*51
[2021-02-22 15:17:12.417] $GPVTG,50.20,T,58.65,M,0.06,N,0.12,K,A*2F
[2021-02-22 15:17:12.495] $GPGGA,061712.10,3713.89581602,N,13701.43730519,E,1,14,0.8,94.520,M,36.770,M,,*59
[2021-02-22 15:17:12.510] $GPVTG,44.42,T,52.87,M,0.06,N,0.11,K,A*2B
[2021-02-22 15:17:12.604] $GPGGA,061712.20,3713.89580148,N,13701.43730852,E,1,14,0.8,94.510,M,36.770,M,,*53
[2021-02-22 15:17:12.620] $GPVTG,1.69,T,10.14,M,0.06,N,0.12,K,A*1C
[2021-02-22 15:17:12.698] $GPGGA,061712.30,3713.89580008,N,13701.43731127,E,1,14,0.8,94.509,M,36.770,M,,*55
[2021-02-22 15:17:12.713] $GPVTG,40.99,T,49.44,M,0.04,N,0.07,K,A*29
[2021-02-22 15:17:12.807] $GPGGA,061712.40,3713.89578633,N,13701.43731763,E,1,14,0.8,94.495,M,36.770,M,,*59
[2021-02-22 15:17:12.823] $GPVTG,33.53,T,41.98,M,0.04,N,0.07,K,A*22
[2021-02-22 15:17:12.901] $GPGGA,061712.50,3713.89578778,N,13701.43731796,E,1,14,0.8,94.495,M,36.770,M,,*5C
[2021-02-22 15:17:12.901] $GPVTG,25.47,T,33.92,M,0.04,N,0.07,K,A*2F
[2021-02-22 15:17:13.010] $GPGGA,061712.60,3713.89577307,N,13701.43732359,E,1,14,0.8,94.477,M,36.770,M,,*54
[2021-02-22 15:17:13.010] $GPVTG,102.56,T,111.01,M,0.02,N,0.04,K,A*25
[2021-02-22 15:17:13.088] $GPGGA,061712.70,3713.89577439,N,13701.43732183,E,1,14,0.8,94.479,M,36.770,M,,*54
[2021-02-22 15:17:13.104] $GPVTG,323.90,T,332.35,M,0.02,N,0.03,K,A*2D
[2021-02-22 15:17:13.198] $GPGGA,061712.80,3713.89576382,N,13701.43732382,E,1,14,0.8,94.466,M,36.770,M,,*50
[2021-02-22 15:17:13.213] $GPVTG,316.87,T,325.32,M,0.03,N,0.05,K,A*2B
[2021-02-22 15:17:13.292] $GPGGA,061712.90,3713.89576597,N,13701.43732216,E,1,14,0.8,94.468,M,36.770,M,,*51
[2021-02-22 15:17:13.307] $GPVTG,320.60,T,329.05,M,0.05,N,0.10,K,A*2D
[2021-02-22 15:17:13.401] $GPGGA,061713.00,3713.89575999,N,13701.43732642,E,1,14,0.8,94.452,M,36.770,M,,*54
[2021-02-22 15:17:13.417] $GPVTG,1.62,T,10.07,M,0.07,N,0.14,K,A*12
[2021-02-22 15:17:13.495] $GPGGA,061713.10,3713.89576172,N,13701.43732438,E,1,14,0.8,94.449,M,36.770,M,,*5E
[2021-02-22 15:17:13.510] $GPVTG,342.10,T,350.55,M,0.08,N,0.14,K,A*2C
[2021-02-22 15:17:13.604] $GPGGA,061713.20,3713.89575433,N,13701.43732441,E,1,14,0.8,94.442,M,36.770,M,,*5B
[2021-02-22 15:17:13.620] $GPVTG,335.50,T,343.95,M,0.07,N,0.14,K,A*29
[2021-02-22 15:17:13.698] $GPGGA,061713.30,3713.89654091,N,13701.43664152,E,5,07,1.8,89.111,M,36.770,M,2.3,0000*74
[2021-02-22 15:17:13.713] $GPVTG,347.45,T,355.90,M,0.05,N,0.10,K,D*29
[2021-02-22 15:17:13.807] $GPGGA,061713.40,3713.89654041,N,13701.43664688,E,5,07,1.8,89.124,M,36.770,M,2.4,0000*7F
[2021-02-22 15:17:13.823] $GPVTG,21.08,T,29.53,M,0.03,N,0.06,K,D*25
[2021-02-22 15:17:13.901] $GPGGA,061713.50,3713.89654248,N,13701.43663995,E,5,07,1.8,89.116,M,36.770,M,2.5,0000*71
[2021-02-22 15:17:13.917] $GPVTG,353.98,T,2.42,M,0.03,N,0.06,K,D*23
[2021-02-22 15:17:14.010] $GPGGA,061713.60,3713.89654049,N,13701.43664413,E,5,07,1.8,89.109,M,36.770,M,2.6,0000*78
[2021-02-22 15:17:14.026] $GPVTG,56.77,T,65.22,M,0.01,N,0.02,K,D*25
[2021-02-22 15:17:14.104] $GPGGA,061713.70,3713.89654181,N,13701.43664144,E,5,07,1.8,89.109,M,36.770,M,2.7,0000*7A
[2021-02-22 15:17:14.120] $GPVTG,6.32,T,14.77,M,0.03,N,0.06,K,D*11
[2021-02-22 15:17:14.213] $GPGGA,061713.80,3713.89654096,N,13701.43664144,E,5,07,1.8,89.112,M,36.770,M,2.8,0000*77
[2021-02-22 15:17:14.213] $GPVTG,333.69,T,342.14,M,0.04,N,0.07,K,D*29
[2021-02-22 15:17:14.307] $GPGGA,061713.90,3713.89654587,N,13701.43663966,E,5,07,1.8,89.108,M,36.770,M,2.9,0000*76
[2021-02-22 15:17:14.323] $GPVTG,356.23,T,4.68,M,0.06,N,0.10,K,D*2A
[2021-02-22 15:17:14.401] $GPGGA,061714.00,3713.89654243,N,13701.43663991,E,5,07,1.8,89.118,M,36.770,M,3.0,0000*76
[2021-02-22 15:17:14.416] $GPVTG,348.57,T,357.01,M,0.06,N,0.10,K,D*2C
[2021-02-22 15:17:14.495] $GPGGA,061714.10,3713.89654110,N,13701.43663801,E,5,07,1.8,89.115,M,36.770,M,3.1,0000*76
[2021-02-22 15:17:14.510] $GPVTG,347.98,T,356.43,M,0.06,N,0.11,K,D*26
[2021-02-22 15:17:14.604] $GPGGA,061714.20,3713.89654247,N,13701.43663809,E,5,07,1.8,89.115,M,36.770,M,3.2,0000*7F
[2021-02-22 15:17:14.620] $GPVTG,338.79,T,347.24,M,0.07,N,0.13,K,D*23
[2021-02-22 15:17:14.698] $GPGGA,061714.30,3713.89656526,N,13701.43662820,E,5,07,1.8,89.057,M,36.770,M,2.3,0000*71
[2021-02-22 15:17:14.713] $GPVTG,335.18,T,343.63,M,0.02,N,0.04,K,D*2D
[2021-02-22 15:17:14.807] $GPGGA,061714.40,3713.89657233,N,13701.43662596,E,5,07,1.8,89.055,M,36.770,M,2.4,0000*71
[2021-02-22 15:17:14.823] $GPVTG,343.17,T,351.62,M,0.03,N,0.06,K,D*22
[2021-02-22 15:17:14.901] $GPGGA,061714.50,3713.89656729,N,13701.43663109,E,5,07,1.8,89.052,M,36.770,M,2.5,0000*7A
[2021-02-22 15:17:14.916] $GPVTG,38.96,T,47.41,M,0.01,N,0.02,K,D*27
[2021-02-22 15:17:15.010] $GPGGA,061714.60,3713.89656722,N,13701.43662257,E,5,07,1.8,89.058,M,36.770,M,2.6,0000*72
[2021-02-22 15:17:15.026] $GPVTG,313.84,T,322.29,M,0.01,N,0.02,K,D*20
[2021-02-22 15:17:15.104] $GPGGA,061714.70,3713.89657204,N,13701.43662754,E,5,07,1.8,89.050,M,36.770,M,2.7,0000*7C
[2021-02-22 15:17:15.120] $GPVTG,32.31,T,40.76,M,0.02,N,0.04,K,D*26
[2021-02-22 15:17:15.198] $GPGGA,061714.80,3713.89656972,N,13701.43662783,E,5,07,1.8,89.049,M,36.770,M,2.8,0000*75
[2021-02-22 15:17:15.213] $GPVTG,69.87,T,78.32,M,0.03,N,0.05,K,D*2E
[2021-02-22 15:17:15.291] $GPGGA,061714.90,3713.89656994,N,13701.43662392,E,5,07,1.8,89.062,M,36.770,M,2.9,0000*70
[2021-02-22 15:17:15.307] $GPVTG,334.11,T,342.56,M,0.06,N,0.10,K,D*23
[2021-02-22 15:17:15.416] $GPGGA,061715.00,3713.89657324,N,13701.43662869,E,5,07,1.8,89.054,M,36.770,M,3.0,0000*7A
[2021-02-22 15:17:15.416] $GPVTG,348.85,T,357.30,M,0.07,N,0.14,K,D*24
[2021-02-22 15:17:15.495] $GPGGA,061715.10,3713.89657571,N,13701.43662639,E,5,07,1.8,89.050,M,36.770,M,3.1,0000*73
[2021-02-22 15:17:15.510] $GPVTG,340.01,T,348.46,M,0.09,N,0.17,K,D*22
[2021-02-22 15:17:15.620] $GPGGA,061715.20,3713.89657628,N,13701.43662683,E,5,07,1.8,89.039,M,36.770,M,3.2,0000*72
[2021-02-22 15:17:15.620] $GPVTG,333.98,T,342.43,M,0.09,N,0.17,K,D*29
[2021-02-22 15:17:15.698] $GPGGA,061715.30,3713.89657592,N,13701.43662574,E,5,07,1.8,89.043,M,36.770,M,2.3,0000*77
[2021-02-22 15:17:15.713] $GPVTG,338.56,T,347.00,M,0.07,N,0.13,K,D*28
[2021-02-22 15:17:15.807] $GPGGA,061715.40,3713.89657227,N,13701.43662646,E,5,07,1.8,89.046,M,36.770,M,2.4,0000*79
[2021-02-22 15:17:15.823] $GPVTG,345.08,T,353.53,M,0.06,N,0.11,K,D*29
[2021-02-22 15:17:15.901] $GPGGA,061715.50,3713.89657317,N,13701.43662966,E,5,07,1.8,89.038,M,36.770,M,2.5,0000*7F
[2021-02-22 15:17:15.916] $GPVTG,1.12,T,9.57,M,0.05,N,0.08,K,D*22
[2021-02-22 15:17:16.010] $GPGGA,061715.60,3713.89657289,N,13701.43662331,E,5,07,1.8,89.041,M,36.770,M,2.6,0000*7F
[2021-02-22 15:17:16.026] $GPVTG,304.29,T,312.74,M,0.03,N,0.06,K,D*2C
[2021-02-22 15:17:16.104] $GPGGA,061715.70,3713.89657308,N,13701.43662803,E,5,07,1.8,89.037,M,36.770,M,2.7,0000*7C
[2021-02-22 15:17:16.119] $GPVTG,9.45,T,17.90,M,0.03,N,0.05,K,D*17
[2021-02-22 15:17:16.198] $GPGGA,061715.80,3713.89657711,N,13701.43662474,E,5,07,1.8,89.046,M,36.770,M,2.8,0000*7A
[2021-02-22 15:17:16.229] $GPVTG,357.62,T,6.07,M,0.04,N,0.08,K,D*2E
[2021-02-22 15:17:16.307] $GPGGA,061715.90,3713.89657453,N,13701.43662863,E,5,07,1.8,89.033,M,36.770,M,2.9,0000*77
[2021-02-22 15:17:16.307] $GPVTG,48.45,T,56.90,M,0.03,N,0.05,K,D*27
[2021-02-22 15:17:16.401] $GPGGA,061716.00,3713.89657374,N,13701.43662670,E,5,07,1.8,89.056,M,36.770,M,3.0,0000*78
[2021-02-22 15:17:16.416] $GPVTG,70.32,T,78.77,M,0.04,N,0.07,K,D*2C
[2021-02-22 15:17:16.495] $GPGGA,061716.10,3713.89657492,N,13701.43663060,E,5,07,1.8,89.038,M,36.770,M,3.1,0000*79
[2021-02-22 15:17:16.526] $GPVTG,77.06,T,85.51,M,0.06,N,0.11,K,D*2F
[2021-02-22 15:17:16.604] $GPGGA,061716.20,3713.89657283,N,13701.43662497,E,5,07,1.8,89.061,M,36.770,M,3.2,0000*7E
[2021-02-22 15:17:16.619] $GPVTG,84.98,T,93.43,M,0.04,N,0.08,K,D*2A
[2021-02-22 15:17:16.698] $GPGGA,061716.30,3713.89657714,N,13701.43662497,E,5,07,1.8,89.046,M,36.770,M,2.3,0000*71
[2021-02-22 15:17:16.713] $GPVTG,57.45,T,65.90,M,0.06,N,0.11,K,D*29
[2021-02-22 15:17:16.807] $GPGGA,061716.40,3713.89657538,N,13701.43662468,E,5,07,1.8,89.048,M,36.770,M,2.4,0000*73
[2021-02-22 15:17:16.823] $GPVTG,61.83,T,70.28,M,0.04,N,0.08,K,D*2B
[2021-02-22 15:17:16.901] $GPGGA,061716.50,3713.89658107,N,13701.43663091,E,5,07,1.8,89.046,M,36.770,M,2.5,0000*79
[2021-02-22 15:17:16.916] $GPVTG,37.78,T,46.23,M,0.07,N,0.12,K,D*2A
[2021-02-22 15:17:17.010] $GPGGA,061716.60,3713.89657620,N,13701.43662732,E,5,07,1.8,89.045,M,36.770,M,2.6,0000*78
[2021-02-22 15:17:17.026] $GPVTG,48.60,T,57.05,M,0.06,N,0.11,K,D*2D
[2021-02-22 15:17:17.104] $GPGGA,061716.70,3713.89657995,N,13701.43662578,E,5,07,1.8,89.033,M,36.770,M,2.7,0000*74
[2021-02-22 15:17:17.119] $GPVTG,13.64,T,22.09,M,0.04,N,0.07,K,D*2C
[2021-02-22 15:17:17.213] $GPGGA,061716.80,3713.89657922,N,13701.43662366,E,5,07,1.8,89.045,M,36.770,M,2.8,0000*70
[2021-02-22 15:17:17.213] $GPVTG,20.60,T,29.05,M,0.06,N,0.11,K,D*2A
[2021-02-22 15:17:17.291] $GPGGA,061716.90,3713.89657800,N,13701.43662858,E,5,07,1.8,89.037,M,36.770,M,2.9,0000*72
[2021-02-22 15:17:17.323] $GPVTG,47.86,T,56.31,M,0.06,N,0.11,K,D*2C
[2021-02-22 15:17:17.401] $GPGGA,061717.00,3713.89657906,N,13701.43663141,E,5,07,1.8,89.038,M,36.770,M,3.0,0000*7A
[2021-02-22 15:17:17.432] $GPVTG,80.28,T,88.73,M,0.08,N,0.15,K,D*2C
[2021-02-22 15:17:17.494] $GPGGA,061717.10,3713.89657837,N,13701.43662869,E,5,07,1.8,89.045,M,36.770,M,3.1,0000*71
[2021-02-22 15:17:17.510] $GPVTG,81.28,T,89.73,M,0.05,N,0.09,K,D*2C
[2021-02-22 15:17:17.619] $GPGGA,061717.20,3713.89657632,N,13701.43663419,E,5,07,1.8,89.036,M,36.770,M,3.2,0000*74
[2021-02-22 15:17:17.635] $GPVTG,98.26,T,106.71,M,0.06,N,0.12,K,D*17
[2021-02-22 15:17:17.697] $GPGGA,061717.30,3713.89658052,N,13701.43663518,E,5,07,1.8,89.030,M,36.770,M,2.3,0000*7C
[2021-02-22 15:17:17.713] $GPVTG,87.75,T,96.20,M,0.04,N,0.07,K,D*25
[2021-02-22 15:17:17.807] $GPGGA,061717.40,3713.89658057,N,13701.43663889,E,5,07,1.8,89.046,M,36.770,M,2.4,0000*7D
[2021-02-22 15:17:17.822] $GPVTG,78.63,T,87.08,M,0.04,N,0.07,K,D*28
[2021-02-22 15:17:17.901] $GPGGA,061717.50,3713.89657865,N,13701.43663985,E,5,07,1.8,89.052,M,36.770,M,2.5,0000*73
[2021-02-22 15:17:17.916] $GPVTG,178.76,T,187.21,M,0.01,N,0.01,K,D*24
[2021-02-22 15:17:18.010] $GPGGA,061717.60,3713.89658147,N,13701.43663515,E,5,07,1.8,89.041,M,36.770,M,2.6,0000*72
[2021-02-22 15:17:18.026] $GPVTG,316.08,T,324.53,M,0.02,N,0.04,K,D*2F
[2021-02-22 15:17:18.104] $GPGGA,061717.70,3713.89658211,N,13701.43663597,E,5,07,1.8,89.045,M,36.770,M,2.7,0000*7C
[2021-02-22 15:17:18.119] $GPVTG,330.42,T,338.87,M,0.03,N,0.06,K,D*22
[2021-02-22 15:17:18.197] $GPGGA,061717.80,3713.89658173,N,13701.43663808,E,5,07,1.8,89.041,M,36.770,M,2.8,0000*74
