
[2021-02-22 15:27:28.888] $GPGGA,,,,,,,,,,M,,M,,*56
[2021-02-22 15:27:28.919] $GPGGA,,,,,,,,,,M,,M,,*56
[2021-02-22 15:27:28.919] $GPGGA,,,,,,,,,,M,,M,,*56
[2021-02-22 15:27:28.919] $GPGGA,,,,,,,,,,M,,M,,*56
[2021-02-22 15:27:28.919] $GPGGA,,,,,,,,,,M,,M,,*56
[2021-02-22 15:27:28.919] $GPGGA,,,,,,,,,,M,,M,,*56
[2021-02-22 15:27:28.919] $GPGGA,,,,,,,,,,M,,M,,*56
[2021-02-22 15:27:28.919] $GPGGA,,,,,,,,,,M,,M,,*56
[2021-02-22 15:27:28.919] $GPGGA,,,,,,,,,,M,,M,,*56
[2021-02-22 15:27:28.919] $GPGGA,,,,,,,,,,M,,M,,*56
[2021-02-22 15:27:28.919] $GPGGA,,,,,,,,,,M,,M,,*56
[2021-02-22 15:27:28.919] $GPGGA,,,,,,,,,,M,,M,,*56
[2021-02-22 15:27:28.919] $GPGGA,,,,,,,,,,M,,M,,*56
[2021-02-22 15:27:28.919] $GPGGA,,,,,,,,,,M,,M,,*56
[2021-02-22 15:27:28.919] $GPGGA,,,,,,,,,,M,,M,,*56
[2021-02-22 15:27:28.919] $GPGGA,,,,,,,,,,M,,M,,*56
[2021-02-22 15:27:28.919] $GPGGA,,,,,,,,,,M,,M,,*56
[2021-02-22 15:27:28.919] $GPGGA,,,,,,,,,,M,,M,,*56
[2021-02-22 15:27:28.919] $GPGGA,,,,,,,,,,M,,M,,*56
[2021-02-22 15:27:28.919] $GPGGA,,,,,,,,,,M,,M,,*56
[2021-02-22 15:27:28.919] $GPGGA,,,,,,,,,,M,,M,,*56
[2021-02-22 15:27:28.919] $GPGGA,,,,,,,,,,M,,M,,*56
[2021-02-22 15:27:28.919] $GPGGA,,,,,,,,,,M,,M,,*56
[2021-02-22 15:27:28.919] $GPGGA,,,,,,,,,,M,,M,,*56
[2021-02-22 15:27:28.919] $GPGGA,,,,,,,,,,M,,M,,*56
[2021-02-22 15:27:28.919] $GPGGA,,,,,,,,,,M,,M,,*56
[2021-02-22 15:27:28.919] $GPGGA,,,,,,,,,,M,,M,,*56
[2021-02-22 15:27:28.919] $GPGGA,,,,,,,,,,M,,M,,*56
[2021-02-22 15:27:28.919] $GPGGA,,,,,,,,,,M,,M,,*56
[2021-02-22 15:27:28.919] $GPGGA,,,,,,,,,,M,,M,,*56
[2021-02-22 15:27:28.919] $GPGGA,,,,,,,,,,M,,M,,*56
[2021-02-22 15:27:28.919] $GPGGA,,,,,,,,,,M,,M,,*56
[2021-02-22 15:27:28.919] $GPGGA,,,,,,,,,,M,,M,,*56
[2021-02-22 15:27:28.919] $GPGGA,,,,,,,,,,M,,M,,*56
[2021-02-22 15:27:28.919] $GPGGA,,,,,,,,,,M,,M,,*56
[2021-02-22 15:27:28.919] $GPGGA,,,,,,,,,,M,,M,,*56
[2021-02-22 15:27:28.919] $GPGGA,,,,,,,,,,M,,M,,*56
[2021-02-22 15:27:28.919] $GPGGA,,,,,,,,,,M,,M,,*56
[2021-02-22 15:27:28.919] $GPGGA,,,,,,,,,,M,,M,,*56
[2021-02-22 15:27:28.919] $GPGGA,,,,,,,,,,M,,M,,*56
[2021-02-22 15:27:28.919] $GPGGA,,,,,,,,,,M,,M,,*56
[2021-02-22 15:27:28.919] $GPGGA,,,,,,,,,,M,,M,,*56
[2021-02-22 15:27:28.919] $GPGGA,,,,,,,,,,M,,M,,*56
[2021-02-22 15:27:28.919] $GPGGA,,,,,,,,,,M,,M,,*56
[2021-02-22 15:27:28.919] $GPGGA,,,,,,,,,,M,,M,,*56
[2021-02-22 15:27:28.919] $GPGGA,,,,,,,,,,M,,M,,*56
[2021-02-22 15:27:28.919] $GPGGA,,,,,,,,,,M,,M,,*56
[2021-02-22 15:27:28.919] $GPGGA,,,,,,,,,,M,,M,,*56
[2021-02-22 15:27:28.919] $GPGGA,,,,,,,,,,M,,M,,*56
[2021-02-22 15:27:28.919] $GPGGA,,,,,,,,,,M,,M,,*56
[2021-02-22 15:27:28.919] $GPGGA,,,,,,,,,,M,,M,,*56
[2021-02-22 15:27:29.013] $GPGGA,,,,,,,,,,M,,M,,*56
[2021-02-22 15:27:29.201] $GPGGA,,,,,,,,,,M,,M,,*56
[2021-02-22 15:27:29.419] $GPGGA,,,,,,,,,,M,,M,,*56
[2021-02-22 15:27:29.607] $GPGGA,,,,,,,,,,M,,M,,*56
[2021-02-22 15:27:29.826] $GPGGA,,,,,,,,,,M,,M,,*56
[2021-02-22 15:27:30.013] $GPGGA,,,,,,,,,,M,,M,,*56
[2021-02-22 15:27:30.216] $GPGGA,,,,,,,,,,M,,M,,*56
[2021-02-22 15:27:30.404] $GPGGA,,,,,,,,,,M,,M,,*56
[2021-02-22 15:27:30.607] $GPGGA,,,,,,,,,,M,,M,,*56
[2021-02-22 15:27:30.810] $GPGGA,,,,,,,,,,M,,M,,*56
[2021-02-22 15:27:31.013] $GPGGA,,,,,,,,,,M,,M,,*56
[2021-02-22 15:27:31.201] $GPGGA,,,,,,,,,,M,,M,,*56
[2021-02-22 15:27:31.419] $GPGGA,,,,,,,,,,M,,M,,*56
[2021-02-22 15:27:31.607] $GPGGA,,,,,,,,,,M,,M,,*56
[2021-02-22 15:27:31.810] $GPGGA,,,,,,,,,,M,,M,,*56
[2021-02-22 15:27:31.997] $GPGGA,,,,,,,,,,M,,M,,*56
[2021-02-22 15:27:32.216] $GPGGA,,,,,,,,,,M,,M,,*56
[2021-02-22 15:27:32.404] $GPGGA,,,,,,,,,,M,,M,,*56
[2021-02-22 15:27:32.607] $GPGGA,,,,,,,,,,M,,M,,*56
[2021-02-22 15:27:32.810] $GPGGA,,,,,,,,,,M,,M,,*56
[2021-02-22 15:27:33.013] $GPGGA,,,,,,,,,,M,,M,,*56
[2021-02-22 15:27:33.200] $GPGGA,,,,,,,,,,M,,M,,*56
[2021-02-22 15:27:33.403] $GPGGA,,,,,,,,,,M,,M,,*56
[2021-02-22 15:27:33.607] $GPGGA,,,,,,,,,,M,,M,,*56
[2021-02-22 15:27:33.810] $GPGGA,,,,,,,,,,M,,M,,*56
[2021-02-22 15:27:33.997] $GPGGA,,,,,,,,,,M,,M,,*56
[2021-02-22 15:27:34.216] $GPGGA,,,,,,,,,,M,,M,,*56
[2021-02-22 15:27:34.403] $GPGGA,,,,,,,,,,M,,M,,*56
[2021-02-22 15:27:34.606] $GPGGA,,,,,,,,,,M,,M,,*56
[2021-02-22 15:27:34.810] $GPGGA,,,,,,,,,,M,,M,,*56
[2021-02-22 15:27:35.013] $GPGGA,,,,,,,,,,M,,M,,*56
[2021-02-22 15:27:35.200] $GPGGA,,,,,,,,,,M,,M,,*56
[2021-02-22 15:27:35.403] $GPGGA,,,,,,,,,,M,,M,,*56
[2021-02-22 15:27:35.606] $GPGGA,,,,,,,,,,M,,M,,*56
[2021-02-22 15:27:35.810] $GPGGA,,,,,,,,,,M,,M,,*56
[2021-02-22 15:27:35.997] $GPGGA,,,,,,,,,,M,,M,,*56
[2021-02-22 15:27:36.216] $GPGGA,,,,,,,,,,M,,M,,*56
[2021-02-22 15:27:36.403] $GPGGA,,,,,,,,,,M,,M,,*56
[2021-02-22 15:27:36.606] $GPGGA,,,,,,,,,,M,,M,,*56
[2021-02-22 15:27:36.794] $GPGGA,,,,,,,,,,M,,M,,*56
[2021-02-22 15:27:37.013] $GPGGA,,,,,,,,,,M,,M,,*56
[2021-02-22 15:27:37.200] $GPGGA,,,,,,,,,,M,,M,,*56
[2021-02-22 15:27:37.403] $GPGGA,,,,,,,,,,M,,M,,*56
[2021-02-22 15:27:37.606] $GPGGA,,,,,,,,,,M,,M,,*56
[2021-02-22 15:27:37.809] $GPGGA,,,,,,,,,,M,,M,,*56
[2021-02-22 15:27:37.997] $GPGGA,,,,,,,,,,M,,M,,*56
[2021-02-22 15:27:38.216] $GPGGA,,,,,,,,,,M,,M,,*56
[2021-02-22 15:27:38.403] $GPGGA,,,,,,,,,,M,,M,,*56
[2021-02-22 15:27:38.606] $GPGGA,,,,,,,,,,M,,M,,*56
[2021-02-22 15:27:38.794] $GPGGA,,,,,,,,,,M,,M,,*56
[2021-02-22 15:27:39.012] $GPGGA,,,,,,,,,,M,,M,,*56
[2021-02-22 15:27:39.200] $GPGGA,,,,,,,,,,M,,M,,*56
[2021-02-22 15:27:39.403] $GPGGA,,,,,,,,,,M,,M,,*56
[2021-02-22 15:27:39.606] $GPGGA,,,,,,,,,,M,,M,,*56
[2021-02-22 15:27:39.809] $GPGGA,,,,,,,,,,M,,M,,*56
[2021-02-22 15:27:39.997] $GPGGA,,,,,,,,,,M,,M,,*56
[2021-02-22 15:27:40.215] $GPGGA,,,,,,,,,,M,,M,,*56
[2021-02-22 15:27:40.403] $GPGGA,,,,,,,,,,M,,M,,*56
[2021-02-22 15:27:40.606] $GPGGA,,,,,,,,,,M,,M,,*56
[2021-02-22 15:27:40.794] $GPGGA,,,,,,,,,,M,,M,,*56
[2021-02-22 15:27:41.012] $GPGGA,,,,,,,,,,M,,M,,*56
[2021-02-22 15:27:41.200] $GPGGA,,,,,,,,,,M,,M,,*56
[2021-02-22 15:27:41.403] $GPGGA,,,,,,,,,,M,,M,,*56
[2021-02-22 15:27:41.606] $GPGGA,,,,,,,,,,M,,M,,*56
[2021-02-22 15:27:41.809] $GPGGA,,,,,,,,,,M,,M,,*56
[2021-02-22 15:27:41.997] $GPGGA,,,,,,,,,,M,,M,,*56
[2021-02-22 15:27:42.215] $GPGGA,,,,,,,,,,M,,M,,*56
[2021-02-22 15:27:42.403] $GPGGA,,,,,,,,,,M,,M,,*56
[2021-02-22 15:27:42.606] $GPGGA,,,,,,,,,,M,,M,,*56
[2021-02-22 15:27:42.793] $GPGGA,,,,,,,,,,M,,M,,*56
[2021-02-22 15:27:43.012] $GPGGA,,,,,,,,,,M,,M,,*56
[2021-02-22 15:27:43.200] $GPGGA,,,,,,,,,,M,,M,,*56
[2021-02-22 15:27:43.403] $GPGGA,,,,,,,,,,M,,M,,*56
[2021-02-22 15:27:43.590] $GPGGA,,,,,,,,,,M,,M,,*56
[2021-02-22 15:27:43.809] $GPGGA,,,,,,,,,,M,,M,,*56
[2021-02-22 15:27:43.996] $GPGGA,,,,,,,,,,M,,M,,*56
[2021-02-22 15:27:44.215] $GPGGA,,,,,,,,,,M,,M,,*56
[2021-02-22 15:27:44.403] $GPGGA,,,,,,,,,,M,,M,,*56
[2021-02-22 15:27:44.606] $GPGGA,,,,,,,,,,M,,M,,*56
[2021-02-22 15:27:44.793] $GPGGA,,,,,,,,,,M,,M,,*56
[2021-02-22 15:27:45.012] $GPGGA,,,,,,,,,,M,,M,,*56
[2021-02-22 15:27:45.215] $GPGGA,,,,,,,,,,M,,M,,*56
[2021-02-22 15:27:45.403] $GPGGA,,,,,,,,,,M,,M,,*56
[2021-02-22 15:27:45.590] $GPGGA,,,,,,,,,,M,,M,,*56
[2021-02-22 15:27:45.809] $GPGGA,,,,,,,,,,M,,M,,*56
[2021-02-22 15:27:45.996] $GPGGA,,,,,,,,,,M,,M,,*56
[2021-02-22 15:27:46.199] $GPGGA,,,,,,,,,,M,,M,,*56
[2021-02-22 15:27:46.418] $GPGGA,,,,,,,,,,M,,M,,*56
[2021-02-22 15:27:46.606] $GPGGA,,,,,,,,,,M,,M,,*56
[2021-02-22 15:27:46.793] $GPGGA,,,,,,,,,,M,,M,,*56
[2021-02-22 15:27:47.012] $GPGGA,,,,,,,,,,M,,M,,*56
[2021-02-22 15:27:47.215] $GPGGA,,,,,,,,,,M,,M,,*56
[2021-02-22 15:27:47.403] $GPGGA,,,,,,,,,,M,,M,,*56
[2021-02-22 15:27:47.621] $GPGGA,,,,,,,,,,M,,M,,*56
[2021-02-22 15:27:47.809] $GPGGA,,,,,,,,,,M,,M,,*56
[2021-02-22 15:27:48.012] $GPGGA,,,,,,,,,,M,,M,,*56
[2021-02-22 15:27:48.215] $GPGGA,,,,,,,,,,M,,M,,*56
[2021-02-22 15:27:48.402] $GPGGA,,,,,,,,,,M,,M,,*56
[2021-02-22 15:27:48.606] $GPGGA,,,,,,,,,,M,,M,,*56
[2021-02-22 15:27:48.809] $GPGGA,,,,,,,,,,M,,M,,*56
[2021-02-22 15:27:49.027] $GPGGA,,,,,,,,,,M,,M,,*56
[2021-02-22 15:27:49.215] $GPGGA,,,,,,,,,,M,,M,,*56
[2021-02-22 15:27:49.402] $GPGGA,,,,,,,,,,M,,M,,*56
[2021-02-22 15:27:49.621] $GPGGA,,,,,,,,,,M,,M,,*56
[2021-02-22 15:27:49.809] $GPGGA,,,,,,,,,,M,,M,,*56
[2021-02-22 15:27:50.012] $GPGGA,,,,,,,,,,M,,M,,*56
[2021-02-22 15:27:50.199] $GPGGA,,,,,,,,,,M,,M,,*56
[2021-02-22 15:27:50.418] $GPGGA,,,,,,,,,,M,,M,,*56
[2021-02-22 15:27:50.605] $GPGGA,,,,,,,,,,M,,M,,*56
[2021-02-22 15:27:50.809] $GPGGA,,,,,,,,,,M,,M,,*56
[2021-02-22 15:27:51.012] $GPGGA,,,,,,,,,,M,,M,,*56
[2021-02-22 15:27:51.215] $GPGGA,,,,,,,,,,M,,M,,*56
[2021-02-22 15:27:51.402] $GPGGA,,,,,,,,,,M,,M,,*56
[2021-02-22 15:27:51.621] $GPGGA,,,,,,,,,,M,,M,,*56
[2021-02-22 15:27:51.808] $GPGGA,,,,,,,,,,M,,M,,*56
[2021-02-22 15:27:52.012] $GPGGA,,,,,,,,,,M,,M,,*56
[2021-02-22 15:27:52.199] $GPGGA,,,,,,,,,,M,,M,,*56
[2021-02-22 15:27:52.418] $GPGGA,,,,,,,,,,M,,M,,*56
[2021-02-22 15:27:52.621] $GPGGA,,,,,,,,,,M,,M,,*56
[2021-02-22 15:27:52.808] $GPGGA,,,,,,,,,,M,,M,,*56
[2021-02-22 15:27:53.011] $GPGGA,,,,,,,,,,M,,M,,*56
[2021-02-22 15:27:53.215] $GPGGA,,,,,,,,,,M,,M,,*56
[2021-02-22 15:27:53.402] $GPGGA,,,,,,,,,,M,,M,,*56
[2021-02-22 15:27:53.621] $GPGGA,,,,,,,,,,M,,M,,*56
[2021-02-22 15:27:53.808] $GPGGA,,,,,,,,,,M,,M,,*56
[2021-02-22 15:27:54.011] $GPGGA,,,,,,,,,,M,,M,,*56
[2021-02-22 15:27:54.199] $GPGGA,,,,,,,,,,M,,M,,*56
[2021-02-22 15:27:54.418] $GPGGA,,,,,,,,,,M,,M,,*56
[2021-02-22 15:27:54.605] $GPGGA,,,,,,,,,,M,,M,,*56
[2021-02-22 15:27:54.808] $GPGGA,,,,,,,,,,M,,M,,*56
[2021-02-22 15:27:55.011] $GPGGA,,,,,,,,,,M,,M,,*56
[2021-02-22 15:27:55.214] $GPGGA,,,,,,,,,,M,,M,,*56
[2021-02-22 15:27:55.402] $GPGGA,,,,,,,,,,M,,M,,*56
[2021-02-22 15:27:55.621] $GPGGA,,,,,,,,,,M,,M,,*56
[2021-02-22 15:27:55.808] $GPGGA,,,,,,,,,,M,,M,,*56
[2021-02-22 15:27:56.011] $GPGGA,,,,,,,,,,M,,M,,*56
[2021-02-22 15:27:56.199] $GPGGA,,,,,,,,,,M,,M,,*56
[2021-02-22 15:27:56.418] $GPGGA,,,,,,,,,,M,,M,,*56
[2021-02-22 15:27:56.605] $GPGGA,,,,,,,,,,M,,M,,*56
[2021-02-22 15:27:56.808] $GPGGA,,,,,,,,,,M,,M,,*56
[2021-02-22 15:27:57.011] $GPGGA,,,,,,,,,,M,,M,,*56
[2021-02-22 15:27:57.214] $GPGGA,,,,,,,,,,M,,M,,*56
[2021-02-22 15:27:57.402] $GPGGA,,,,,,,,,,M,,M,,*56
[2021-02-22 15:27:57.605] $GPGGA,,,,,,,,,,M,,M,,*56
[2021-02-22 15:27:57.808] $GPGGA,,,,,,,,,,M,,M,,*56
[2021-02-22 15:27:58.011] $GPGGA,,,,,,,,,,M,,M,,*56
[2021-02-22 15:27:58.199] $GPGGA,,,,,,,,,,M,,M,,*56
[2021-02-22 15:27:58.417] $GPGGA,,,,,,,,,,M,,M,,*56
[2021-02-22 15:27:58.605] $GPGGA,,,,,,,,,,M,,M,,*56
[2021-02-22 15:27:58.808] $GPGGA,,,,,,,,,,M,,M,,*56
[2021-02-22 15:27:59.011] $GPGGA,,,,,,,,,,M,,M,,*56
[2021-02-22 15:27:59.214] $GPGGA,,,,,,,,,,M,,M,,*56
[2021-02-22 15:27:59.402] $GPGGA,,,,,,,,,,M,,M,,*56
[2021-02-22 15:27:59.605] $GPGGA,,,,,,,,,,M,,M,,*56
[2021-02-22 15:27:59.808] $GPGGA,,,,,,,,,,M,,M,,*56
[2021-02-22 15:28:00.011] $GPGGA,,,,,,,,,,M,,M,,*56
[2021-02-22 15:28:00.199] $GPGGA,,,,,,,,,,M,,M,,*56
[2021-02-22 15:28:00.417] $GPGGA,,,,,,,,,,M,,M,,*56
[2021-02-22 15:28:00.605] $GPGGA,,,,,,,,,,M,,M,,*56
[2021-02-22 15:28:00.808] $GPGGA,,,,,,,,,,M,,M,,*56
[2021-02-22 15:28:01.011] $GPGGA,,,,,,,,,,M,,M,,*56
[2021-02-22 15:28:01.214] $GPGGA,,,,,,,,,,M,,M,,*56
[2021-02-22 15:28:01.402] $GPGGA,,,,,,,,,,M,,M,,*56
[2021-02-22 15:28:01.620] $GPGGA,,,,,,,,,,M,,M,,*56
[2021-02-22 15:28:01.808] $GPGGA,,,,,,,,,,M,,M,,*56
[2021-02-22 15:28:02.011] $GPGGA,,,,,,,,,,M,,M,,*56
[2021-02-22 15:28:02.198] $GPGGA,,,,,,,,,,M,,M,,*56
[2021-02-22 15:28:02.417] $GPGGA,,,,,,,,,,M,,M,,*56
[2021-02-22 15:28:02.605] $GPGGA,,,,,,,,,,M,,M,,*56
[2021-02-22 15:28:02.808] $GPGGA,,,,,,,,,,M,,M,,*56
[2021-02-22 15:28:03.011] $GPGGA,,,,,,,,,,M,,M,,*56
[2021-02-22 15:28:03.214] $GPGGA,,,,,,,,,,M,,M,,*56
[2021-02-22 15:28:03.401] $GPGGA,,,,,,,,,,M,,M,,*56
[2021-02-22 15:28:03.604] $GPGGA,,,,,,,,,,M,,M,,*56
[2021-02-22 15:28:03.808] $GPGGA,,,,,,,,,,M,,M,,*56
[2021-02-22 15:28:04.011] $GPGGA,,,,,,,,,,M,,M,,*56
[2021-02-22 15:28:04.198] $GPGGA,,,,,,,,,,M,,M,,*56
[2021-02-22 15:28:04.417] $GPGGA,,,,,,,,,,M,,M,,*56
[2021-02-22 15:28:04.604] $GPGGA,,,,,,,,,,M,,M,,*56
[2021-02-22 15:28:04.808] $GPGGA,,,,,,,,,,M,,M,,*56
[2021-02-22 15:28:04.995] $GPGGA,,,,,,,,,,M,,M,,*56
[2021-02-22 15:28:05.214] $GPGGA,,,,,,,,,,M,,M,,*56
[2021-02-22 15:28:05.401] $GPGGA,,,,,,,,,,M,,M,,*56
[2021-02-22 15:28:05.604] $GPGGA,,,,,,,,,,M,,M,,*56
[2021-02-22 15:28:05.807] $GPGGA,,,,,,,,,,M,,M,,*56
[2021-02-22 15:28:06.011] $GPGGA,,,,,,,,,,M,,M,,*56
[2021-02-22 15:28:06.198] $GPGGA,,,,,,,,,,M,,M,,*56
[2021-02-22 15:28:06.417] $GPGGA,,,,,,,,,,M,,M,,*56
[2021-02-22 15:28:06.604] $GPGGA,,,,,,,,,,M,,M,,*56
[2021-02-22 15:28:06.807] $GPGGA,,,,,,,,,,M,,M,,*56
[2021-02-22 15:28:07.011] $GPGGA,,,,,,,,,,M,,M,,*56
[2021-02-22 15:28:07.214] $GPGGA,,,,,,,,,,M,,M,,*56
[2021-02-22 15:28:07.401] $GPGGA,,,,,,,,,,M,,M,,*56
[2021-02-22 15:28:07.604] $GPGGA,,,,,,,,,,M,,M,,*56
[2021-02-22 15:28:07.807] $GPGGA,,,,,,,,,,M,,M,,*56
[2021-02-22 15:28:08.010] $GPGGA,,,,,,,,,,M,,M,,*56
[2021-02-22 15:28:08.198] $GPGGA,,,,,,,,,,M,,M,,*56
[2021-02-22 15:28:08.417] $GPGGA,,,,,,,,,,M,,M,,*56
[2021-02-22 15:28:08.604] $GPGGA,,,,,,,,,,M,,M,,*56
[2021-02-22 15:28:08.807] $GPGGA,,,,,,,,,,M,,M,,*56
[2021-02-22 15:28:08.995] $GPGGA,,,,,,,,,,M,,M,,*56
[2021-02-22 15:28:09.213] $GPGGA,,,,,,,,,,M,,M,,*56
[2021-02-22 15:28:09.401] $GPGGA,,,,,,,,,,M,,M,,*56
[2021-02-22 15:28:09.604] $GPGGA,,,,,,,,,,M,,M,,*56
[2021-02-22 15:28:09.807] $GPGGA,,,,,,,,,,M,,M,,*56
[2021-02-22 15:28:10.010] $GPGGA,,,,,,,,,,M,,M,,*56
[2021-02-22 15:28:10.198] $GPGGA,,,,,,,,,,M,,M,,*56
[2021-02-22 15:28:10.416] $GPGGA,,,,,,,,,,M,,M,,*56
[2021-02-22 15:28:10.604] $GPGGA,,,,,,,,,,M,,M,,*56
[2021-02-22 15:28:10.807] $GPGGA,,,,,,,,,,M,,M,,*56
[2021-02-22 15:28:10.995] $GPGGA,,,,,,,,,,M,,M,,*56
[2021-02-22 15:28:11.213] $GPGGA,,,,,,,,,,M,,M,,*56
[2021-02-22 15:28:11.401] $GPGGA,,,,,,,,,,M,,M,,*56
[2021-02-22 15:28:11.604] $GPGGA,,,,,,,,,,M,,M,,*56
[2021-02-22 15:28:11.807] $GPGGA,,,,,,,,,,M,,M,,*56
[2021-02-22 15:28:12.010] $GPGGA,,,,,,,,,,M,,M,,*56
[2021-02-22 15:28:12.198] $GPGGA,,,,,,,,,,M,,M,,*56
[2021-02-22 15:28:12.416] $GPGGA,,,,,,,,,,M,,M,,*56
[2021-02-22 15:28:12.604] $GPGGA,,,,,,,,,,M,,M,,*56
[2021-02-22 15:28:12.807] $GPGGA,,,,,,,,,,M,,M,,*56
[2021-02-22 15:28:12.994] $GPGGA,,,,,,,,,,M,,M,,*56
[2021-02-22 15:28:13.213] $GPGGA,,,,,,,,,,M,,M,,*56
[2021-02-22 15:28:13.401] $GPGGA,,,,,,,,,,M,,M,,*56
[2021-02-22 15:28:13.604] $GPGGA,,,,,,,,,,M,,M,,*56
[2021-02-22 15:28:13.807] $GPGGA,,,,,,,,,,M,,M,,*56
[2021-02-22 15:28:14.010] $GPGGA,,,,,,,,,,M,,M,,*56
[2021-02-22 15:28:14.198] $GPGGA,,,,,,,,,,M,,M,,*56
[2021-02-22 15:28:14.416] $GPGGA,,,,,,,,,,M,,M,,*56
[2021-02-22 15:28:14.604] $GPGGA,,,,,,,,,,M,,M,,*56
[2021-02-22 15:28:14.807] $GPGGA,,,,,,,,,,M,,M,,*56
[2021-02-22 15:28:14.994] $GPGGA,,,,,,,,,,M,,M,,*56
[2021-02-22 15:28:15.213] $GPGGA,,,,,,,,,,M,,M,,*56
[2021-02-22 15:28:15.401] $GPGGA,,,,,,,,,,M,,M,,*56
[2021-02-22 15:28:15.604] $GPGGA,,,,,,,,,,M,,M,,*56
[2021-02-22 15:28:15.791] $GPGGA,,,,,,,,,,M,,M,,*56
[2021-02-22 15:28:16.010] $GPGGA,,,,,,,,,,M,,M,,*56
[2021-02-22 15:28:16.197] $GPGGA,,,,,,,,,,M,,M,,*56
[2021-02-22 15:28:16.400] $GPGGA,,,,,,,,,,M,,M,,*56
[2021-02-22 15:28:16.604] $GPGGA,,,,,,,,,,M,,M,,*56
[2021-02-22 15:28:16.807] $GPGGA,,,,,,,,,,M,,M,,*56
[2021-02-22 15:28:16.994] $GPGGA,,,,,,,,,,M,,M,,*56
[2021-02-22 15:28:17.213] $GPGGA,,,,,,,,,,M,,M,,*56
[2021-02-22 15:28:17.400] $GPGGA,,,,,,,,,,M,,M,,*56
[2021-02-22 15:28:17.604] $GPGGA,,,,,,,,,,M,,M,,*56
[2021-02-22 15:28:17.791] $GPGGA,,,,,,,,,,M,,M,,*56
[2021-02-22 15:28:18.010] $GPGGA,,,,,,,,,,M,,M,,*56
[2021-02-22 15:28:18.197] $GPGGA,,,,,,,,,,M,,M,,*56
[2021-02-22 15:28:18.416] $GPGGA,,,,,,,,,,M,,M,,*56
[2021-02-22 15:28:18.603] $GPGGA,,,,,,,,,,M,,M,,*56
[2021-02-22 15:28:18.807] $GPGGA,,,,,,,,,,M,,M,,*56
[2021-02-22 15:28:18.994] $GPGGA,,,,,,,,,,M,,M,,*56
[2021-02-22 15:28:19.213] $GPGGA,,,,,,,,,,M,,M,,*56
[2021-02-22 15:28:19.400] $GPGGA,,,,,,,,,,M,,M,,*56
[2021-02-22 15:28:19.603] $GPGGA,,,,,,,,,,M,,M,,*56
[2021-02-22 15:28:19.791] $GPGGA,,,,,,,,,,M,,M,,*56
[2021-02-22 15:28:20.010] $GPGGA,,,,,,,,,,M,,M,,*56
[2021-02-22 15:28:20.197] $GPGGA,,,,,,,,,,M,,M,,*56
[2021-02-22 15:28:20.416] $GPGGA,,,,,,,,,,M,,M,,*56
[2021-02-22 15:28:20.603] $GPGGA,,,,,,,,,,M,,M,,*56
[2021-02-22 15:28:20.806] $GPGGA,,,,,,,,,,M,,M,,*56
[2021-02-22 15:28:20.994] $GPGGA,,,,,,,,,,M,,M,,*56
[2021-02-22 15:28:21.213] $GPGGA,,,,,,,,,,M,,M,,*56
[2021-02-22 15:28:21.400] $GPGGA,,,,,,,,,,M,,M,,*56
[2021-02-22 15:28:21.603] $GPGGA,,,,,,,,,,M,,M,,*56
[2021-02-22 15:28:21.791] $GPGGA,,,,,,,,,,M,,M,,*56
[2021-02-22 15:28:22.009] $GPGGA,,,,,,,,,,M,,M,,*56
[2021-02-22 15:28:22.213] $GPGGA,,,,,,,,,,M,,M,,*56
[2021-02-22 15:28:22.416] $GPGGA,,,,,,,,,,M,,M,,*56
[2021-02-22 15:28:22.619] $GPGGA,,,,,,,,,,M,,M,,*56
[2021-02-22 15:28:22.806] $GPGGA,,,,,,,,,,M,,M,,*56
[2021-02-22 15:28:23.009] $GPGGA,,,,,,,,,,M,,M,,*56
[2021-02-22 15:28:23.212] $GPGGA,,,,,,,,,,M,,M,,*56
[2021-02-22 15:28:23.416] $GPGGA,,,,,,,,,,M,,M,,*56
[2021-02-22 15:28:23.603] $GPGGA,,,,,,,,,,M,,M,,*56
[2021-02-22 15:28:23.822] $GPGGA,,,,,,,,,,M,,M,,*56
[2021-02-22 15:28:24.009] $GPGGA,,,,,,,,,,M,,M,,*56
[2021-02-22 15:28:24.212] $GPGGA,,,,,,,,,,M,,M,,*56
[2021-02-22 15:28:24.400] $GPGGA,,,,,,,,,,M,,M,,*56
[2021-02-22 15:28:24.619] $GPGGA,,,,,,,,,,M,,M,,*56
[2021-02-22 15:28:24.806] $GPGGA,,,,,,,,,,M,,M,,*56
[2021-02-22 15:28:25.025] $GPGGA,,,,,,,,,,M,,M,,*56
[2021-02-22 15:28:25.212] $GPGGA,,,,,,,,,,M,,M,,*56
[2021-02-22 15:28:25.415] $GPGGA,,,,,,,,,,M,,M,,*56
[2021-02-22 15:28:25.603] $GPGGA,,,,,,,,,,M,,M,,*56
[2021-02-22 15:28:25.822] $GPGGA,,,,,,,,,,M,,M,,*56
[2021-02-22 15:28:26.009] $GPGGA,,,,,,,,,,M,,M,,*56
[2021-02-22 15:28:26.212] $GPGGA,,,,,,,,,,M,,M,,*56
[2021-02-22 15:28:26.415] $GPGGA,,,,,,,,,,M,,M,,*56
[2021-02-22 15:28:26.619] $GPGGA,,,,,,,,,,M,,M,,*56
[2021-02-22 15:28:26.806] $GPGGA,,,,,,,,,,M,,M,,*56
[2021-02-22 15:28:26.994] $GPGGA,,,,,,,,,,M,,M,,*56
[2021-02-22 15:28:27.212] $GPGGA,,,,,,,,,,M,,M,,*56
[2021-02-22 15:28:27.400] $GPGGA,,,,,,,,,,M,,M,,*56
[2021-02-22 15:28:27.603] $GPGGA,,,,,,,,,,M,,M,,*56
[2021-02-22 15:28:27.790] $GPGGA,,,,,,,,,,M,,M,,*56
[2021-02-22 15:28:28.009] $GPGGA,,,,,,,,,,M,,M,,*56
[2021-02-22 15:28:28.197] $GPGGA,,,,,,,,,,M,,M,,*56
[2021-02-22 15:28:28.400] $GPGGA,,,,,,,,,,M,,M,,*56
[2021-02-22 15:28:28.603] $GPGGA,,,,,,,,,,M,,M,,*56
[2021-02-22 15:28:28.806] $GPGGA,,,,,,,,,,M,,M,,*56
[2021-02-22 15:28:28.993] $GPGGA,,,,,,,,,,M,,M,,*56
[2021-02-22 15:28:29.212] $GPGGA,,,,,,,,,,M,,M,,*56
[2021-02-22 15:28:29.400] $GPGGA,,,,,,,,,,M,,M,,*56
[2021-02-22 15:28:29.603] $GPGGA,,,,,,,,,,M,,M,,*56
[2021-02-22 15:28:29.790] $GPGGA,,,,,,,,,,M,,M,,*56
[2021-02-22 15:28:30.009] $GPGGA,,,,,,,,,,M,,M,,*56
[2021-02-22 15:28:30.196] $GPGGA,,,,,,,,,,M,,M,,*56
[2021-02-22 15:28:30.399] $GPGGA,,,,,,,,,,M,,M,,*56
[2021-02-22 15:28:30.603] $GPGGA,,,,,,,,,,M,,M,,*56
[2021-02-22 15:28:30.806] $GPGGA,,,,,,,,,,M,,M,,*56
[2021-02-22 15:28:30.993] $GPGGA,,,,,,,,,,M,,M,,*56
[2021-02-22 15:28:31.212] $GPGGA,,,,,,,,,,M,,M,,*56
[2021-02-22 15:28:31.399] $GPGGA,,,,,,,,,,M,,M,,*56
[2021-02-22 15:28:31.603] $GPGGA,,,,,,,,,,M,,M,,*56
[2021-02-22 15:28:31.790] $GPGGA,,,,,,,,,,M,,M,,*56
[2021-02-22 15:28:32.009] $GPGGA,,,,,,,,,,M,,M,,*56
[2021-02-22 15:28:32.196] $GPGGA,,,,,,,,,,M,,M,,*56
[2021-02-22 15:28:32.399] $GPGGA,,,,,,,,,,M,,M,,*56
[2021-02-22 15:28:32.602] $GPGGA,,,,,,,,,,M,,M,,*56
[2021-02-22 15:28:32.806] $GPGGA,,,,,,,,,,M,,M,,*56
[2021-02-22 15:28:32.993] $GPGGA,,,,,,,,,,M,,M,,*56
[2021-02-22 15:28:33.212] $GPGGA,062832.80,3713.89801961,N,13701.40965747,E,2,04,4.2,94.012,M,36.770,M,0.8,0979*7C
[2021-02-22 15:28:33.431] $GPGGA,062833.00,3713.89873380,N,13701.40948454,E,1,05,4.1,95.516,M,36.770,M,,*5B
[2021-02-22 15:28:33.509] $GPGGA,062833.10,3713.89873399,N,13701.40948416,E,1,05,4.1,95.517,M,36.770,M,,*55
[2021-02-22 15:28:33.618] $GPGGA,062833.20,3713.89814858,N,13701.40961904,E,2,04,4.2,94.242,M,36.770,M,1.2,0979*79
[2021-02-22 15:28:33.712] $GPGGA,062833.30,3713.89814959,N,13701.40961756,E,2,04,4.2,94.245,M,36.770,M,1.3,0979*77
[2021-02-22 15:28:33.821] $GPGGA,062833.40,3713.89809809,N,13701.40966632,E,2,04,4.2,94.057,M,36.770,M,1.4,0979*7A
[2021-02-22 15:28:33.915] $GPGGA,062833.50,3713.89809963,N,13701.40966658,E,2,04,4.2,94.053,M,36.770,M,1.5,0979*7F
[2021-02-22 15:28:34.024] $GPGGA,062833.60,3713.89809866,N,13701.40967440,E,2,04,4.2,93.998,M,36.770,M,1.6,0979*78
[2021-02-22 15:28:34.118] $GPGGA,062833.70,3713.89810223,N,13701.40966800,E,2,04,4.2,94.009,M,36.770,M,1.7,0979*74
[2021-02-22 15:28:34.227] $GPGGA,062833.80,3713.89812029,N,13701.40965991,E,2,04,4.2,94.010,M,36.770,M,1.8,0979*7C
[2021-02-22 15:28:34.321] $GPGGA,062833.90,3713.89812139,N,13701.40965735,E,2,04,4.2,94.011,M,36.770,M,1.9,0979*7D
[2021-02-22 15:28:34.415] $GPGGA,062834.00,3713.89815140,N,13701.40964230,E,2,04,4.2,94.041,M,36.770,M,2.0,0979*74
[2021-02-22 15:28:34.509] $GPGGA,062834.10,3713.89815043,N,13701.40964046,E,2,04,4.2,94.049,M,36.770,M,1.1,0979*7E
[2021-02-22 15:28:34.618] $GPGGA,062834.20,3713.89818742,N,13701.40962407,E,2,04,4.2,94.103,M,36.770,M,1.2,0979*7D
[2021-02-22 15:28:34.712] $GPGGA,062834.30,3713.89818891,N,13701.40962545,E,2,04,4.2,94.116,M,36.770,M,1.3,0979*7F
[2021-02-22 15:28:34.821] $GPGGA,062834.40,3713.89822249,N,13701.40961113,E,2,04,4.2,94.181,M,36.770,M,1.4,0979*73
[2021-02-22 15:28:34.915] $GPGGA,062834.50,3713.89822199,N,13701.40961396,E,2,04,4.2,94.183,M,36.770,M,1.5,0979*70
[2021-02-22 15:28:35.024] $GPGGA,062834.60,3713.89825481,N,13701.40960062,E,2,04,4.2,94.252,M,36.770,M,1.6,0979*7D
[2021-02-22 15:28:35.118] $GPGGA,062834.70,3713.89825518,N,13701.40959862,E,2,04,4.2,94.255,M,36.770,M,1.7,0979*79
[2021-02-22 15:28:35.227] $GPGGA,062834.80,3713.89828094,N,13701.40959182,E,2,04,4.2,94.313,M,36.770,M,1.8,0979*71
[2021-02-22 15:28:35.321] $GPGGA,062834.90,3713.89828162,N,13701.40958805,E,2,04,4.2,94.318,M,36.770,M,1.9,0979*75
[2021-02-22 15:28:35.415] $GNGGA,062835.00,3713.89825602,N,13701.40967379,E,1,07,1.6,94.241,M,36.770,M,,*4E
[2021-02-22 15:28:35.524] $GPGGA,062835.10,3713.89825710,N,13701.40967812,E,1,04,1.6,94.247,M,36.770,M,,*50
[2021-02-22 15:28:35.618] $GNGGA,062835.20,3713.89817678,N,13701.40985272,E,1,08,1.2,94.008,M,36.770,M,,*42
[2021-02-22 15:28:35.712] $GNGGA,062835.30,3713.89817441,N,13701.40986076,E,1,07,1.2,93.998,M,36.770,M,,*46
[2021-02-22 15:28:35.821] $GNGGA,062835.40,3713.89812789,N,13701.40995358,E,1,09,1.1,93.890,M,36.770,M,,*4A
[2021-02-22 15:28:35.915] $GNGGA,062835.50,3713.89812916,N,13701.40994848,E,1,08,1.1,93.899,M,36.770,M,,*40
[2021-02-22 15:28:36.024] $GNGGA,062835.60,3713.89809712,N,13701.41001667,E,1,10,1.0,93.840,M,36.770,M,,*48
[2021-02-22 15:28:36.118] $GNGGA,062835.70,3713.89809767,N,13701.41001767,E,1,09,1.0,93.839,M,36.770,M,,*4C
[2021-02-22 15:28:36.227] $GNGGA,062835.80,3713.89807167,N,13701.41008488,E,1,10,1.0,93.777,M,36.770,M,,*4D
[2021-02-22 15:28:36.321] $GNGGA,062835.90,3713.89807239,N,13701.41008530,E,1,10,1.0,93.778,M,36.770,M,,*49
[2021-02-22 15:28:36.430] $GNGGA,062836.00,3713.89804517,N,13701.41013587,E,1,11,0.9,93.764,M,36.770,M,,*49
[2021-02-22 15:28:36.508] $GNGGA,062836.10,3713.89804638,N,13701.41013493,E,1,10,0.9,93.771,M,36.770,M,,*47
[2021-02-22 15:28:36.618] $GNGGA,062836.20,3713.89802698,N,13701.41017103,E,1,11,0.9,93.781,M,36.770,M,,*4E
[2021-02-22 15:28:36.712] $GNGGA,062836.30,3713.89802598,N,13701.41016986,E,1,11,0.9,93.783,M,36.770,M,,*4A
[2021-02-22 15:28:36.821] $GNGGA,062836.40,3713.89800877,N,13701.41020097,E,1,11,0.9,93.805,M,36.770,M,,*4E
[2021-02-22 15:28:36.915] $GNGGA,062836.50,3713.89800810,N,13701.41020025,E,1,11,0.9,93.814,M,36.770,M,,*47
[2021-02-22 15:28:37.024] $GNGGA,062836.60,3713.89798811,N,13701.41022466,E,1,11,0.9,93.850,M,36.770,M,,*4A
[2021-02-22 15:28:37.118] $GNGGA,062836.70,3713.89799250,N,13701.41022441,E,1,11,0.9,93.839,M,36.770,M,,*4F
[2021-02-22 15:28:37.227] $GNGGA,062836.80,3713.89797014,N,13701.41023624,E,1,11,0.9,93.856,M,36.770,M,,*45
[2021-02-22 15:28:37.321] $GNGGA,062836.90,3713.89797120,N,13701.41023494,E,1,11,0.9,93.848,M,36.770,M,,*44
[2021-02-22 15:28:37.430] $GNGGA,062837.00,3713.89795565,N,13701.41024901,E,1,11,0.9,93.874,M,36.770,M,,*42
[2021-02-22 15:28:37.508] $GNGGA,062837.10,3713.89795686,N,13701.41024725,E,1,11,0.9,93.876,M,36.770,M,,*47
[2021-02-22 15:28:37.618] $GNGGA,062837.20,3713.89793790,N,13701.41025240,E,1,11,0.9,93.902,M,36.770,M,,*41
[2021-02-22 15:28:37.727] $GNGGA,062837.30,3713.89793558,N,13701.41025294,E,1,11,0.9,93.914,M,36.770,M,,*48
[2021-02-22 15:28:37.821] $GNGGA,062837.40,3713.89791423,N,13701.41025909,E,1,11,0.9,93.939,M,36.770,M,,*40
[2021-02-22 15:28:37.915] $GNGGA,062837.50,3713.89791314,N,13701.41025727,E,1,11,0.9,93.945,M,36.770,M,,*4B
[2021-02-22 15:28:38.024] $GNGGA,062837.60,3713.89789750,N,13701.41027053,E,1,11,0.9,93.989,M,36.770,M,,*43
[2021-02-22 15:28:38.118] $GNGGA,062837.70,3713.89789920,N,13701.41026913,E,1,11,0.9,93.989,M,36.770,M,,*47
[2021-02-22 15:28:38.227] $GNGGA,062837.80,3713.89789175,N,13701.41027450,E,1,10,1.0,94.002,M,36.770,M,,*4F
[2021-02-22 15:28:38.321] $GNGGA,062837.90,3713.89789258,N,13701.41027574,E,1,10,1.0,94.002,M,36.770,M,,*45
[2021-02-22 15:28:38.430] $GPGGA,062838.00,3713.89797510,N,13701.41009386,E,2,06,1.4,94.043,M,36.770,M,1.0,0979*73
[2021-02-22 15:28:38.508] $GPGGA,062838.10,3713.89797490,N,13701.41009393,E,2,06,1.4,94.047,M,36.770,M,1.1,0979*7A
[2021-02-22 15:28:38.618] $GPGGA,062838.20,3713.89797119,N,13701.41005901,E,2,06,1.4,93.974,M,36.770,M,1.2,0979*7D
[2021-02-22 15:28:38.711] $GPGGA,062838.30,3713.89797271,N,13701.41005831,E,2,06,1.4,93.978,M,36.770,M,1.3,0979*7E
[2021-02-22 15:28:38.821] $GPGGA,062838.40,3713.89797197,N,13701.41003719,E,2,06,1.4,93.923,M,36.770,M,1.4,0979*78
[2021-02-22 15:28:38.915] $GPGGA,062838.50,3713.89797268,N,13701.41003670,E,2,06,1.4,93.920,M,36.770,M,1.5,0979*76
[2021-02-22 15:28:39.024] $GPGGA,062838.60,3713.89797422,N,13701.41002178,E,2,06,1.4,93.875,M,36.770,M,1.6,0979*71
[2021-02-22 15:28:39.118] $GPGGA,062838.70,3713.89797444,N,13701.41002322,E,2,06,1.4,93.875,M,36.770,M,1.7,0979*7C
[2021-02-22 15:28:39.227] $GPGGA,062838.80,3713.89800305,N,13701.40998110,E,2,06,1.4,93.881,M,36.770,M,1.8,0979*7C
[2021-02-22 15:28:39.321] $GNGGA,062838.90,3713.89800213,N,13701.40997997,E,2,08,1.4,93.883,M,36.770,M,0.9,0979*61
[2021-02-22 15:28:39.430] $GNGGA,062839.00,3713.89798818,N,13701.40997303,E,2,08,1.2,93.857,M,36.770,M,1.0,0979*66
[2021-02-22 15:28:39.524] $GNGGA,062839.10,3713.89798740,N,13701.40997243,E,2,08,1.2,93.861,M,36.770,M,1.1,0979*64
[2021-02-22 15:28:39.618] $GNGGA,062839.20,3713.89800988,N,13701.40993285,E,2,08,1.2,93.881,M,36.770,M,1.2,0979*60
[2021-02-22 15:28:39.711] $GNGGA,062839.30,3713.89800784,N,13701.40993295,E,2,08,1.2,93.890,M,36.770,M,1.3,0979*63
[2021-02-22 15:28:39.821] $GNGGA,062839.40,3713.89802188,N,13701.40990900,E,2,08,1.2,93.928,M,36.770,M,1.4,0979*6D
[2021-02-22 15:28:39.915] $GNGGA,062839.50,3713.89801992,N,13701.40991020,E,2,08,1.2,93.928,M,36.770,M,1.5,0979*67
[2021-02-22 15:28:40.024] $GNGGA,062839.60,3713.89804211,N,13701.40987367,E,2,08,1.2,93.958,M,36.770,M,1.6,0979*62
[2021-02-22 15:28:40.118] $GNGGA,062839.70,3713.89804176,N,13701.40987375,E,2,08,1.2,93.963,M,36.770,M,1.7,0979*6B
[2021-02-22 15:28:40.227] $GNGGA,062839.80,3713.89806108,N,13701.40983960,E,2,08,1.2,93.990,M,36.770,M,1.8,0979*66
[2021-02-22 15:28:40.321] $GNGGA,062839.90,3713.89806136,N,13701.40984101,E,2,08,1.2,93.986,M,36.770,M,0.9,0979*65
[2021-02-22 15:28:40.430] $GNGGA,062840.00,3713.89802592,N,13701.40985989,E,2,08,1.2,93.951,M,36.770,M,1.0,0979*67
[2021-02-22 15:28:40.524] $GNGGA,062840.10,3713.89802450,N,13701.40986033,E,2,08,1.2,93.954,M,36.770,M,1.1,0979*66
[2021-02-22 15:28:40.618] $GNGGA,062840.20,3713.89800216,N,13701.40987015,E,2,08,1.2,93.927,M,36.770,M,1.2,0979*61
[2021-02-22 15:28:40.711] $GNGGA,062840.30,3713.89800230,N,13701.40987219,E,2,08,1.2,93.926,M,36.770,M,1.3,0979*6A
[2021-02-22 15:28:40.821] $GNGGA,062840.40,3713.89798726,N,13701.40988072,E,2,08,1.2,93.906,M,36.770,M,1.4,0979*64
[2021-02-22 15:28:40.914] $GNGGA,062840.50,3713.89798705,N,13701.40988179,E,2,08,1.2,93.906,M,36.770,M,1.5,0979*6F
[2021-02-22 15:28:41.024] $GNGGA,062840.60,3713.89798306,N,13701.40988722,E,2,09,1.1,93.876,M,36.770,M,1.6,0979*64
[2021-02-22 15:28:41.118] $GNGGA,062840.70,3713.89798067,N,13701.40988839,E,2,09,1.1,93.874,M,36.770,M,1.7,0979*67
[2021-02-22 15:28:41.227] $GNGGA,062840.80,3713.89797491,N,13701.40989094,E,2,09,1.1,93.844,M,36.770,M,1.8,0979*68
[2021-02-22 15:28:41.321] $GNGGA,062840.90,3713.89797547,N,13701.40988860,E,2,09,1.1,93.848,M,36.770,M,1.9,0979*6C
[2021-02-22 15:28:41.430] $GNGGA,062841.00,3713.89797138,N,13701.40988844,E,2,09,1.1,93.826,M,36.770,M,1.0,0979*6F
[2021-02-22 15:28:41.524] $GNGGA,062841.10,3713.89797401,N,13701.40988729,E,2,09,1.1,93.819,M,36.770,M,1.1,0979*68
[2021-02-22 15:28:41.617] $GNGGA,062841.20,3713.89797501,N,13701.40988650,E,2,09,1.1,93.801,M,36.770,M,1.2,0979*6F
[2021-02-22 15:28:41.711] $GNGGA,062841.30,3713.89797515,N,13701.40988500,E,2,09,1.1,93.805,M,36.770,M,1.3,0979*68
[2021-02-22 15:28:41.821] $GNGGA,062841.40,3713.89797637,N,13701.40988370,E,2,09,1.1,93.788,M,36.770,M,1.4,0979*60
[2021-02-22 15:28:41.914] $GNGGA,062841.50,3713.89797643,N,13701.40988459,E,2,09,1.1,93.787,M,36.770,M,1.5,0979*60
[2021-02-22 15:28:42.024] $GNGGA,062841.60,3713.89797513,N,13701.40988638,E,2,09,1.1,93.769,M,36.770,M,1.6,0979*63
[2021-02-22 15:28:42.117] $GNGGA,062841.70,3713.89797489,N,13701.40988561,E,2,09,1.1,93.769,M,36.770,M,1.7,0979*6E
[2021-02-22 15:28:42.227] $GNGGA,062841.80,3713.89797455,N,13701.40989018,E,2,09,1.1,93.754,M,36.770,M,1.8,0979*6B
[2021-02-22 15:28:42.321] $GNGGA,062841.90,3713.89797488,N,13701.40988881,E,2,09,1.1,93.751,M,36.770,M,1.9,0979*67
[2021-02-22 15:28:42.414] $GNGGA,062842.00,3713.89797562,N,13701.40989115,E,2,09,1.1,93.746,M,36.770,M,1.0,0979*62
[2021-02-22 15:28:42.524] $GNGGA,062842.10,3713.89797477,N,13701.40989136,E,2,09,1.1,93.741,M,36.770,M,1.1,0979*61
[2021-02-22 15:28:42.617] $GNGGA,062842.20,3713.89797434,N,13701.40989227,E,2,09,1.1,93.737,M,36.770,M,1.2,0979*64
[2021-02-22 15:28:42.727] $GNGGA,062842.30,3713.89797486,N,13701.40989249,E,2,09,1.1,93.741,M,36.770,M,1.3,0979*64
[2021-02-22 15:28:42.821] $GNGGA,062842.40,3713.89797107,N,13701.40989735,E,2,09,1.1,93.738,M,36.770,M,1.4,0979*68
[2021-02-22 15:28:42.914] $GNGGA,062842.50,3713.89796926,N,13701.40989849,E,2,09,1.1,93.739,M,36.770,M,1.5,0979*67
[2021-02-22 15:28:43.024] $GNGGA,062842.60,3713.89796402,N,13701.40990404,E,2,09,1.1,93.740,M,36.770,M,1.6,0979*6F
[2021-02-22 15:28:43.117] $GNGGA,062842.70,3713.89796101,N,13701.40990866,E,2,09,1.1,93.739,M,36.770,M,1.7,0979*6F
[2021-02-22 15:28:43.227] $GNGGA,062842.80,3713.89795547,N,13701.40991312,E,2,09,1.1,93.742,M,36.770,M,1.8,0979*6F
[2021-02-22 15:28:43.320] $GNGGA,062842.90,3713.89795701,N,13701.40991428,E,2,09,1.1,93.739,M,36.770,M,0.9,0979*6C
[2021-02-22 15:28:43.430] $GPGGA,062843.00,3713.89808810,N,13701.40976139,E,5,05,2.0,93.157,M,36.770,M,1.0,0979*7D
[2021-02-22 15:28:43.524] $GPGGA,062843.10,3713.89808494,N,13701.40976661,E,5,05,2.0,93.157,M,36.770,M,1.1,0979*77
[2021-02-22 15:28:43.617] $GPGGA,062843.20,3713.89808317,N,13701.40976366,E,5,05,2.0,93.166,M,36.770,M,1.2,0979*7B
[2021-02-22 15:28:43.727] $GPGGA,062843.30,3713.89808574,N,13701.40976319,E,5,05,2.0,93.163,M,36.770,M,1.3,0979*75
[2021-02-22 15:28:43.820] $GPGGA,062843.40,3713.89808518,N,13701.40976531,E,5,05,2.0,93.158,M,36.770,M,1.4,0979*7B
[2021-02-22 15:28:43.914] $GPGGA,062843.50,3713.89808649,N,13701.40976429,E,5,05,2.0,93.159,M,36.770,M,1.5,0979*75
[2021-02-22 15:28:44.024] $GPGGA,062843.60,3713.89808157,N,13701.40976684,E,5,05,2.0,93.166,M,36.770,M,1.6,0979*74
[2021-02-22 15:28:44.117] $GPGGA,062843.70,3713.89807807,N,13701.40976749,E,5,05,2.0,93.156,M,36.770,M,1.7,0979*74
[2021-02-22 15:28:44.227] $GPGGA,062843.80,3713.89807909,N,13701.40976703,E,5,05,2.0,93.163,M,36.770,M,1.8,0979*73
[2021-02-22 15:28:44.320] $GPGGA,062843.90,3713.89808132,N,13701.40976728,E,5,05,2.0,93.167,M,36.770,M,1.9,0979*71
[2021-02-22 15:28:44.430] $GPGGA,062844.00,3713.89807174,N,13701.40977380,E,4,06,1.4,93.158,M,36.770,M,1.0,0979*75
[2021-02-22 15:28:44.524] $GPGGA,062844.10,3713.89807651,N,13701.40977474,E,4,06,1.4,93.156,M,36.770,M,1.1,0979*77
[2021-02-22 15:28:44.617] $GPGGA,062844.20,3713.89807750,N,13701.40977538,E,4,06,1.4,93.150,M,36.770,M,1.2,0979*78
[2021-02-22 15:28:44.711] $GPGGA,062844.30,3713.89807767,N,13701.40977272,E,4,06,1.4,93.152,M,36.770,M,1.3,0979*77
[2021-02-22 15:28:44.820] $GPGGA,062844.40,3713.89807805,N,13701.40977563,E,4,06,1.4,93.148,M,36.770,M,1.4,0979*70
[2021-02-22 15:28:44.914] $GPGGA,062844.50,3713.89807523,N,13701.40976959,E,4,06,1.4,93.152,M,36.770,M,1.5,0979*76
[2021-02-22 15:28:45.024] $GPGGA,062844.60,3713.89807493,N,13701.40977074,E,4,06,1.4,93.150,M,36.770,M,1.6,0979*79
[2021-02-22 15:28:45.117] $GPGGA,062844.70,3713.89807295,N,13701.40976875,E,4,06,1.4,93.154,M,36.770,M,1.7,0979*75
[2021-02-22 15:28:45.227] $GPGGA,062844.80,3713.89807314,N,13701.40976643,E,4,06,1.4,93.152,M,36.770,M,1.8,0979*70
[2021-02-22 15:28:45.320] $GPGGA,062844.90,3713.89807226,N,13701.40976604,E,4,06,1.4,93.146,M,36.770,M,1.9,0979*76
[2021-02-22 15:28:45.430] $GPGGA,062845.00,3713.89806974,N,13701.40976993,E,4,06,1.4,93.157,M,36.770,M,1.0,0979*7B
[2021-02-22 15:28:45.523] $GPGGA,062845.10,3713.89807511,N,13701.40977010,E,4,06,1.4,93.137,M,36.770,M,1.1,0979*70
[2021-02-22 15:28:45.617] $GPGGA,062845.20,3713.89807729,N,13701.40976819,E,4,06,1.4,93.146,M,36.770,M,1.2,0979*7F
[2021-02-22 15:28:45.711] $GPGGA,062845.30,3713.89807291,N,13701.40977331,E,4,06,1.4,93.142,M,36.770,M,1.3,0979*7D
[2021-02-22 15:28:45.820] $GPGGA,062845.40,3713.89807311,N,13701.40977299,E,4,06,1.4,93.151,M,36.770,M,1.4,0979*75
[2021-02-22 15:28:45.914] $GPGGA,062845.50,3713.89806988,N,13701.40977176,E,4,06,1.4,93.141,M,36.770,M,1.5,0979*7D
[2021-02-22 15:28:46.023] $GPGGA,062845.60,3713.89806922,N,13701.40977289,E,4,06,1.4,93.149,M,36.770,M,1.6,0979*76
[2021-02-22 15:28:46.117] $GPGGA,062845.70,3713.89806869,N,13701.40977473,E,4,06,1.4,93.149,M,36.770,M,1.7,0979*7B
[2021-02-22 15:28:46.227] $GPGGA,062845.80,3713.89806858,N,13701.40977274,E,4,06,1.4,93.152,M,36.770,M,1.8,0979*72
[2021-02-22 15:28:46.320] $GPGGA,062845.90,3713.89806769,N,13701.40977304,E,4,06,1.4,93.150,M,36.770,M,1.9,0979*7B
[2021-02-22 15:28:46.430] $GPGGA,062846.00,3713.89806832,N,13701.40977387,E,4,06,1.4,93.144,M,36.770,M,2.0,0979*74
[2021-02-22 15:28:46.523] $GPGGA,062846.10,3713.89806678,N,13701.40977390,E,4,06,1.4,93.139,M,36.770,M,1.1,0979*7B
[2021-02-22 15:28:46.617] $GPGGA,062846.20,3713.89806894,N,13701.40977380,E,4,06,1.4,93.142,M,36.770,M,1.2,0979*7A
[2021-02-22 15:28:46.726] $GPGGA,062846.30,3713.89806390,N,13701.40977455,E,4,06,1.4,93.144,M,36.770,M,1.3,0979*7C
[2021-02-22 15:28:46.820] $GPGGA,062846.40,3713.89806705,N,13701.40977447,E,4,06,1.4,93.146,M,36.770,M,1.4,0979*75
[2021-02-22 15:28:46.914] $GPGGA,062846.50,3713.89806794,N,13701.40977416,E,4,06,1.4,93.138,M,36.770,M,1.5,0979*70
[2021-02-22 15:28:47.023] $GPGGA,062846.60,3713.89806686,N,13701.40977397,E,4,06,1.4,93.139,M,36.770,M,1.6,0979*7D
[2021-02-22 15:28:47.117] $GPGGA,062846.70,3713.89806111,N,13701.40977607,E,4,06,1.4,93.153,M,36.770,M,1.7,0979*74
[2021-02-22 15:28:47.226] $GPGGA,062846.80,3713.89806391,N,13701.40977260,E,4,06,1.4,93.139,M,36.770,M,1.8,0979*77
[2021-02-22 15:28:47.320] $GPGGA,062846.90,3713.89806338,N,13701.40977749,E,4,06,1.4,93.149,M,36.770,M,1.9,0979*7D
[2021-02-22 15:28:47.430] $GPGGA,062847.00,3713.89806434,N,13701.40977007,E,4,06,1.4,93.146,M,36.770,M,2.0,0979*76
[2021-02-22 15:28:47.523] $GPGGA,062847.10,3713.89806362,N,13701.40977336,E,4,06,1.4,93.138,M,36.770,M,1.1,0979*79
[2021-02-22 15:28:47.617] $GPGGA,062847.20,3713.89806275,N,13701.40977055,E,4,06,1.4,93.133,M,36.770,M,1.2,0979*73
[2021-02-22 15:28:47.726] $GPGGA,062847.30,3713.89806620,N,13701.40976920,E,4,06,1.4,93.149,M,36.770,M,1.3,0979*70
[2021-02-22 15:28:47.820] $GPGGA,062847.40,3713.89806475,N,13701.40977071,E,4,06,1.4,93.143,M,36.770,M,1.4,0979*74
[2021-02-22 15:28:47.914] $GPGGA,062847.50,3713.89806574,N,13701.40976946,E,4,06,1.4,93.136,M,36.770,M,1.5,0979*7A
[2021-02-22 15:28:48.023] $GPGGA,062847.60,3713.89806259,N,13701.40976811,E,4,06,1.4,93.153,M,36.770,M,1.6,0979*72
[2021-02-22 15:28:48.117] $GPGGA,062847.70,3713.89806823,N,13701.40976710,E,4,06,1.4,93.128,M,36.770,M,1.7,0979*77
[2021-02-22 15:28:48.226] $GPGGA,062847.80,3713.89806568,N,13701.40976589,E,4,06,1.4,93.138,M,36.770,M,1.8,0979*76
[2021-02-22 15:28:48.320] $GPGGA,062847.90,3713.89806761,N,13701.40976748,E,4,06,1.4,93.151,M,36.770,M,0.9,0979*7C
[2021-02-22 15:28:48.429] $GPGGA,062848.00,3713.89806453,N,13701.40976925,E,4,06,1.4,93.145,M,36.770,M,1.0,0979*70
[2021-02-22 15:28:48.523] $GPGGA,062848.10,3713.89806876,N,13701.40976747,E,4,06,1.4,93.140,M,36.770,M,1.1,0979*74
[2021-02-22 15:28:48.633] $GPGGA,062848.20,3713.89806737,N,13701.40977149,E,4,06,1.4,93.139,M,36.770,M,1.2,0979*79
[2021-02-22 15:28:48.726] $GPGGA,062848.30,3713.89806576,N,13701.40976801,E,4,06,1.4,93.151,M,36.770,M,1.3,0979*74
[2021-02-22 15:28:48.820] $GPGGA,062848.40,3713.89807021,N,13701.40976779,E,4,06,1.4,93.140,M,36.770,M,1.4,0979*72
[2021-02-22 15:28:48.914] $GPGGA,062848.50,3713.89806679,N,13701.40976475,E,4,06,1.4,93.147,M,36.770,M,1.5,0979*70
[2021-02-22 15:28:49.023] $GPGGA,062848.60,3713.89807233,N,13701.40976474,E,4,06,1.4,93.124,M,36.770,M,1.6,0979*7F
[2021-02-22 15:28:49.117] $GPGGA,062848.70,3713.89806938,N,13701.40976527,E,4,06,1.4,93.145,M,36.770,M,1.7,0979*7E
[2021-02-22 15:28:49.226] $GPGGA,062848.80,3713.89806986,N,13701.40976379,E,4,06,1.4,93.140,M,36.770,M,1.8,0979*73
[2021-02-22 15:28:49.320] $GPGGA,062848.90,3713.89807074,N,13701.40976546,E,4,06,1.4,93.145,M,36.770,M,1.9,0979*79
[2021-02-22 15:28:49.429] $GNGGA,062849.00,3713.89807479,N,13701.40976807,E,4,09,1.1,93.128,M,36.770,M,1.0,0979*66
[2021-02-22 15:28:49.523] $GNGGA,062849.10,3713.89807259,N,13701.40976924,E,4,09,1.1,93.141,M,36.770,M,1.1,0979*6D
[2021-02-22 15:28:49.633] $GNGGA,062849.20,3713.89807365,N,13701.40977219,E,4,09,1.1,93.126,M,36.770,M,1.2,0979*66
[2021-02-22 15:28:49.726] $GNGGA,062849.30,3713.89807089,N,13701.40977147,E,4,09,1.1,93.128,M,36.770,M,1.3,0979*61
[2021-02-22 15:28:49.820] $GNGGA,062849.40,3713.89806834,N,13701.40977006,E,4,09,1.1,93.138,M,36.770,M,1.4,0979*6B
[2021-02-22 15:28:49.914] $GNGGA,062849.50,3713.89806942,N,13701.40976925,E,4,09,1.1,93.138,M,36.770,M,1.5,0979*62
[2021-02-22 15:28:50.023] $GNGGA,062849.60,3713.89806683,N,13701.40977284,E,4,09,1.1,93.131,M,36.770,M,1.6,0979*68
[2021-02-22 15:28:50.117] $GNGGA,062849.70,3713.89806563,N,13701.40977092,E,4,09,1.1,93.133,M,36.770,M,1.7,0979*62
[2021-02-22 15:28:50.226] $GNGGA,062849.80,3713.89806729,N,13701.40976945,E,4,09,1.1,93.134,M,36.770,M,1.8,0979*6B
[2021-02-22 15:28:50.320] $GNGGA,062849.90,3713.89806929,N,13701.40976930,E,4,09,1.1,93.134,M,36.770,M,1.9,0979*67
[2021-02-22 15:28:50.429] $GNGGA,062850.00,3713.89806436,N,13701.40976734,E,4,09,1.1,93.143,M,36.770,M,1.0,0979*66
[2021-02-22 15:28:50.523] $GNGGA,062850.10,3713.89806582,N,13701.40977085,E,4,09,1.1,93.145,M,36.770,M,1.1,0979*62
[2021-02-22 15:28:50.632] $GNGGA,062850.20,3713.89806525,N,13701.40977090,E,4,09,1.1,93.148,M,36.770,M,1.2,0979*66
[2021-02-22 15:28:50.711] $GNGGA,062850.30,3713.89806848,N,13701.40977058,E,4,09,1.1,93.138,M,36.770,M,1.3,0979*63
[2021-02-22 15:28:50.820] $GNGGA,062850.40,3713.89806454,N,13701.40977157,E,4,09,1.1,93.160,M,36.770,M,1.4,0979*61
[2021-02-22 15:28:50.914] $GNGGA,062850.50,3713.89806943,N,13701.40977417,E,4,09,1.1,93.141,M,36.770,M,1.5,0979*68
[2021-02-22 15:28:51.023] $GNGGA,062850.60,3713.89806651,N,13701.40977000,E,4,09,1.1,93.142,M,36.770,M,1.6,0979*65
[2021-02-22 15:28:51.117] $GNGGA,062850.70,3713.89806512,N,13701.40977183,E,4,09,1.1,93.149,M,36.770,M,1.7,0979*60
[2021-02-22 15:28:51.226] $GNGGA,062850.80,3713.89806342,N,13701.40977039,E,4,09,1.1,93.149,M,36.770,M,1.8,0979*63
[2021-02-22 15:28:51.320] $GNGGA,062850.90,3713.89806475,N,13701.40977707,E,4,09,1.1,93.138,M,36.770,M,0.9,0979*6D
[2021-02-22 15:28:51.429] $GNGGA,062851.00,3713.89806772,N,13701.40977616,E,4,09,1.1,93.141,M,36.770,M,1.0,0979*66
[2021-02-22 15:28:51.523] $GNGGA,062851.10,3713.89806924,N,13701.40977521,E,4,09,1.1,93.133,M,36.770,M,1.1,0979*69
[2021-02-22 15:28:51.632] $GNGGA,062851.20,3713.89806867,N,13701.40977562,E,4,09,1.1,93.136,M,36.770,M,1.2,0979*6D
[2021-02-22 15:28:51.726] $GNGGA,062851.30,3713.89806697,N,13701.40977801,E,4,09,1.1,93.143,M,36.770,M,1.3,0979*66
[2021-02-22 15:28:51.835] $GNGGA,062851.40,3713.89807058,N,13701.40977659,E,4,09,1.1,93.126,M,36.770,M,1.4,0979*62
[2021-02-22 15:28:51.914] $GNGGA,062851.50,3713.89807250,N,13701.40977725,E,4,09,1.1,93.133,M,36.770,M,1.5,0979*66
[2021-02-22 15:28:52.023] $GNGGA,062851.60,3713.89806494,N,13701.40977959,E,4,09,1.1,93.139,M,36.770,M,1.6,0979*66
[2021-02-22 15:28:52.117] $GNGGA,062851.70,3713.89807028,N,13701.40977429,E,4,09,1.1,93.142,M,36.770,M,1.7,0979*62
[2021-02-22 15:28:52.226] $GNGGA,062851.80,3713.89806689,N,13701.40977598,E,4,09,1.1,93.138,M,36.770,M,1.8,0979*68
[2021-02-22 15:28:52.320] $GNGGA,062851.90,3713.89806616,N,13701.40977401,E,4,09,1.1,93.137,M,36.770,M,1.9,0979*60
[2021-02-22 15:28:52.414] $GNGGA,062852.00,3713.89806489,N,13701.40977595,E,4,09,1.1,93.127,M,36.770,M,1.0,0979*6A
[2021-02-22 15:28:52.492] $GNGGA,062852.10,3713.89806407,N,13701.40977617,E,4,09,1.1,93.135,M,36.770,M,1.1,0979*66
[2021-02-22 15:28:52.632] $GNGGA,062852.20,3713.89806617,N,13701.40977625,E,4,09,1.1,93.134,M,36.770,M,1.2,0979*65
[2021-02-22 15:28:52.726] $GNGGA,062852.30,3713.89806219,N,13701.40977421,E,4,09,1.1,93.139,M,36.770,M,1.3,0979*64
[2021-02-22 15:28:52.835] $GNGGA,062852.40,3713.89806549,N,13701.40977804,E,4,09,1.1,93.125,M,36.770,M,1.4,0979*60
[2021-02-22 15:28:52.929] $GNGGA,062852.50,3713.89806281,N,13701.40977669,E,4,09,1.1,93.130,M,36.770,M,1.5,0979*62
[2021-02-22 15:28:53.023] $GNGGA,062852.60,3713.89806233,N,13701.40977893,E,4,09,1.1,93.135,M,36.770,M,1.6,0979*65
[2021-02-22 15:28:53.117] $GNGGA,062852.70,3713.89806312,N,13701.40977602,E,4,09,1.1,93.129,M,36.770,M,1.7,0979*6C
[2021-02-22 15:28:53.226] $GNGGA,062852.80,3713.89806533,N,13701.40977652,E,4,09,1.1,93.132,M,36.770,M,0.8,0979*67
[2021-02-22 15:28:53.320] $GNGGA,062852.90,3713.89806596,N,13701.40977922,E,4,09,1.1,93.133,M,36.770,M,0.9,0979*61
[2021-02-22 15:28:53.429] $GNGGA,062853.00,3713.89806606,N,13701.40977796,E,4,09,1.1,93.139,M,36.770,M,1.0,0979*60
[2021-02-22 15:28:53.523] $GNGGA,062853.10,3713.89806830,N,13701.40977476,E,4,09,1.1,93.140,M,36.770,M,1.1,0979*68
[2021-02-22 15:28:53.617] $GNGGA,062853.20,3713.89806740,N,13701.40977604,E,4,09,1.1,93.138,M,36.770,M,1.2,0979*68
[2021-02-22 15:28:53.710] $GNGGA,062853.30,3713.89806746,N,13701.40977404,E,4,09,1.1,93.139,M,36.770,M,1.3,0979*6D
[2021-02-22 15:28:53.820] $GNGGA,062853.40,3713.89807027,N,13701.40977496,E,4,09,1.1,93.135,M,36.770,M,1.4,0979*6B
[2021-02-22 15:28:53.914] $GNGGA,062853.50,3713.89807083,N,13701.40977528,E,4,09,1.1,93.146,M,36.770,M,1.5,0979*65
[2021-02-22 15:28:54.023] $GNGGA,062853.60,3713.89807301,N,13701.40977249,E,4,09,1.1,93.133,M,36.770,M,1.6,0979*6E
[2021-02-22 15:28:54.117] $GNGGA,062853.70,3713.89807104,N,13701.40977037,E,4,09,1.1,93.144,M,36.770,M,1.7,0979*62
[2021-02-22 15:28:54.226] $GNGGA,062853.80,3713.89807121,N,13701.40977114,E,4,09,1.1,93.129,M,36.770,M,1.8,0979*6E
[2021-02-22 15:28:54.320] $GNGGA,062853.90,3713.89807067,N,13701.40976781,E,4,09,1.1,93.137,M,36.770,M,0.9,0979*68
[2021-02-22 15:28:54.429] $GNGGA,062854.00,3713.89806781,N,13701.40976953,E,4,09,1.1,93.134,M,36.770,M,1.0,0979*62
[2021-02-22 15:28:54.523] $GNGGA,062854.10,3713.89806932,N,13701.40976927,E,4,09,1.1,93.132,M,36.770,M,1.1,0979*61
[2021-02-22 15:28:54.632] $GNGGA,062854.20,3713.89806983,N,13701.40976631,E,4,09,1.1,93.128,M,36.770,M,1.2,0979*68
[2021-02-22 15:28:54.710] $GNGGA,062854.30,3713.89807042,N,13701.40977017,E,4,09,1.1,93.131,M,36.770,M,1.3,0979*66
[2021-02-22 15:28:54.820] $GNGGA,062854.40,3713.89806915,N,13701.40976985,E,4,09,1.1,93.136,M,36.770,M,1.4,0979*68
[2021-02-22 15:28:54.913] $GNGGA,062854.50,3713.89806914,N,13701.40976855,E,4,09,1.1,93.133,M,36.770,M,1.5,0979*60
[2021-02-22 15:28:55.023] $GNGGA,062854.60,3713.89806816,N,13701.40976964,E,4,09,1.1,93.138,M,36.770,M,1.6,0979*6B
[2021-02-22 15:28:55.117] $GNGGA,062854.70,3713.89806638,N,13701.40976966,E,4,09,1.1,93.132,M,36.770,M,1.7,0979*61
[2021-02-22 15:28:55.226] $GNGGA,062854.80,3713.89807035,N,13701.40976754,E,4,09,1.1,93.133,M,36.770,M,1.8,0979*65
[2021-02-22 15:28:55.320] $GNGGA,062854.90,3713.89806649,N,13701.40977001,E,4,09,1.1,93.126,M,36.770,M,1.9,0979*6B
[2021-02-22 15:28:55.429] $GNGGA,062855.00,3713.89807164,N,13701.40977005,E,4,09,1.1,93.133,M,36.770,M,1.0,0979*63
[2021-02-22 15:28:55.523] $GNGGA,062855.10,3713.89807166,N,13701.40976496,E,4,09,1.1,93.132,M,36.770,M,1.1,0979*6F
[2021-02-22 15:28:55.632] $GNGGA,062855.20,3713.89807070,N,13701.40976511,E,4,09,1.1,93.130,M,36.770,M,1.2,0979*65
[2021-02-22 15:28:55.726] $GNGGA,062855.30,3713.89806854,N,13701.40976304,E,4,09,1.1,93.133,M,36.770,M,1.3,0979*6B
[2021-02-22 15:28:55.835] $GNGGA,062855.40,3713.89807095,N,13701.40975848,E,4,09,1.1,93.133,M,36.770,M,1.4,0979*6F
[2021-02-22 15:28:55.913] $GNGGA,062855.50,3713.89807261,N,13701.40976198,E,4,09,1.1,93.136,M,36.770,M,1.5,0979*64
[2021-02-22 15:28:56.023] $GNGGA,062855.60,3713.89807462,N,13701.40976447,E,4,09,1.1,93.132,M,36.770,M,1.6,0979*62
[2021-02-22 15:28:56.116] $GNGGA,062855.70,3713.89807116,N,13701.40976812,E,4,09,1.1,93.128,M,36.770,M,1.7,0979*63
[2021-02-22 15:28:56.226] $GNGGA,062855.80,3713.89806997,N,13701.40976905,E,4,09,1.1,93.142,M,36.770,M,1.8,0979*68
[2021-02-22 15:28:56.320] $GNGGA,062855.90,3713.89806963,N,13701.40976847,E,4,09,1.1,93.135,M,36.770,M,1.9,0979*64
[2021-02-22 15:28:56.429] $GNGGA,062856.00,3713.89806636,N,13701.40976996,E,4,09,1.1,93.131,M,36.770,M,1.0,0979*61
[2021-02-22 15:28:56.523] $GNGGA,062856.10,3713.89806546,N,13701.40976777,E,4,09,1.1,93.133,M,36.770,M,1.1,0979*66
[2021-02-22 15:28:56.632] $GNGGA,062856.20,3713.89806547,N,13701.40977274,E,4,09,1.1,93.138,M,36.770,M,1.2,0979*6B
[2021-02-22 15:28:56.726] $GNGGA,062856.30,3713.89806533,N,13701.40977244,E,4,09,1.1,93.123,M,36.770,M,1.3,0979*61
[2021-02-22 15:28:56.835] $GNGGA,062856.40,3713.89806773,N,13701.40976840,E,4,09,1.1,93.134,M,36.770,M,1.4,0979*6E
[2021-02-22 15:28:56.913] $GNGGA,062856.50,3713.89806606,N,13701.40977023,E,4,09,1.1,93.132,M,36.770,M,1.5,0979*67
[2021-02-22 15:28:57.023] $GNGGA,062856.60,3713.89806685,N,13701.40977182,E,4,09,1.1,93.139,M,36.770,M,1.6,0979*6D
[2021-02-22 15:28:57.116] $GNGGA,062856.70,3713.89807144,N,13701.40976695,E,4,09,1.1,93.133,M,36.770,M,1.7,0979*6C
[2021-02-22 15:28:57.226] $GNGGA,062856.80,3713.89806838,N,13701.40977071,E,4,09,1.1,93.136,M,36.770,M,1.8,0979*67
[2021-02-22 15:28:57.320] $GNGGA,062856.90,3713.89806382,N,13701.40977295,E,4,09,1.1,93.138,M,36.770,M,1.9,0979*6B
[2021-02-22 15:28:57.429] $GNGGA,062857.00,3713.89806469,N,13701.40977162,E,4,09,1.1,93.135,M,36.770,M,1.0,0979*6E
[2021-02-22 15:28:57.523] $GNGGA,062857.10,3713.89806855,N,13701.40976541,E,4,09,1.1,93.158,M,36.770,M,1.1,0979*62
[2021-02-22 15:28:57.632] $GNGGA,062857.20,3713.89806223,N,13701.40977570,E,4,09,1.1,93.135,M,36.770,M,1.2,0979*61
[2021-02-22 15:28:57.726] $GNGGA,062857.30,3713.89806637,N,13701.40976974,E,4,09,1.1,93.152,M,36.770,M,1.3,0979*68
[2021-02-22 15:28:57.819] $GNGGA,062857.40,3713.89806209,N,13701.40977517,E,4,09,1.1,93.137,M,36.770,M,1.4,0979*6A
[2021-02-22 15:28:57.913] $GNGGA,062857.50,3713.89806352,N,13701.40977382,E,4,09,1.1,93.147,M,36.770,M,1.5,0979*68
[2021-02-22 15:28:58.023] $GNGGA,062857.60,3713.89806217,N,13701.40977602,E,4,09,1.1,93.141,M,36.770,M,1.6,0979*63
[2021-02-22 15:28:58.116] $GNGGA,062857.70,3713.89806790,N,13701.40977253,E,4,09,1.1,93.135,M,36.770,M,1.7,0979*6A
[2021-02-22 15:28:58.226] $GNGGA,062857.80,3713.89806550,N,13701.40977414,E,4,09,1.1,93.133,M,36.770,M,1.8,0979*67
[2021-02-22 15:28:58.319] $GNGGA,062857.90,3713.89806374,N,13701.40977202,E,4,09,1.1,93.128,M,36.770,M,1.9,0979*6C
[2021-02-22 15:28:58.429] $GNGGA,062858.00,3713.89807380,N,13701.40976829,E,4,09,1.1,93.142,M,36.770,M,1.0,0979*67
[2021-02-22 15:28:58.523] $GNGGA,062858.10,3713.89807056,N,13701.40976881,E,4,09,1.1,93.147,M,36.770,M,1.1,0979*68
[2021-02-22 15:28:58.632] $GNGGA,062858.20,3713.89807288,N,13701.40976556,E,4,09,1.1,93.140,M,36.770,M,1.2,0979*69
[2021-02-22 15:28:58.726] $GNGGA,062858.30,3713.89807147,N,13701.40977086,E,4,09,1.1,93.138,M,36.770,M,1.3,0979*6F
[2021-02-22 15:28:58.819] $GNGGA,062858.40,3713.89807116,N,13701.40976909,E,4,09,1.1,93.155,M,36.770,M,1.4,0979*6F
[2021-02-22 15:28:58.913] $GNGGA,062858.50,3713.89807175,N,13701.40977218,E,4,09,1.1,93.145,M,36.770,M,1.5,0979*61
[2021-02-22 15:28:59.023] $GNGGA,062858.60,3713.89807280,N,13701.40977261,E,4,09,1.1,93.143,M,36.770,M,1.6,0979*60
[2021-02-22 15:28:59.116] $GNGGA,062858.70,3713.89807308,N,13701.40977362,E,4,09,1.1,93.144,M,36.770,M,1.7,0979*64
[2021-02-22 15:28:59.226] $GNGGA,062858.80,3713.89807255,N,13701.40977508,E,4,09,1.1,93.139,M,36.770,M,1.8,0979*6D
[2021-02-22 15:28:59.319] $GNGGA,062858.90,3713.89807034,N,13701.40977211,E,4,09,1.1,93.149,M,36.770,M,1.9,0979*60
[2021-02-22 15:28:59.429] $GNGGA,062859.00,3713.89806520,N,13701.40977781,E,4,09,1.1,93.115,M,36.770,M,1.0,0979*65
[2021-02-22 15:28:59.522] $GNGGA,062859.10,3713.89806350,N,13701.40977903,E,4,09,1.1,93.126,M,36.770,M,1.1,0979*60
[2021-02-22 15:28:59.632] $GNGGA,062859.20,3713.89805690,N,13701.40977389,E,4,09,1.1,93.136,M,36.770,M,1.2,0979*63
[2021-02-22 15:28:59.710] $GNGGA,062859.30,3713.89806184,N,13701.40977401,E,4,09,1.1,93.115,M,36.770,M,1.3,0979*64
[2021-02-22 15:28:59.819] $GNGGA,062859.40,3713.89806359,N,13701.40977563,E,4,09,1.1,93.128,M,36.770,M,1.4,0979*6D
[2021-02-22 15:28:59.913] $GNGGA,062859.50,3713.89806553,N,13701.40977797,E,4,09,1.1,93.123,M,36.770,M,1.5,0979*63
[2021-02-22 15:29:00.022] $GNGGA,062859.60,3713.89806336,N,13701.40977559,E,4,09,1.1,93.121,M,36.770,M,1.6,0979*64
[2021-02-22 15:29:00.116] $GNGGA,062859.70,3713.89806689,N,13701.40977586,E,4,09,1.1,93.127,M,36.770,M,1.7,0979*61
[2021-02-22 15:29:00.226] $GNGGA,062859.80,3713.89806567,N,13701.40977383,E,4,09,1.1,93.123,M,36.770,M,1.8,0979*65
[2021-02-22 15:29:00.319] $GNGGA,062859.90,3713.89806503,N,13701.40977103,E,4,09,1.1,93.126,M,36.770,M,0.9,0979*69
[2021-02-22 15:29:00.429] $GNGGA,062900.00,3713.89806612,N,13701.40977593,E,4,09,1.1,93.127,M,36.770,M,1.0,0979*6A
[2021-02-22 15:29:00.522] $GNGGA,062900.10,3713.89806759,N,13701.40977480,E,4,09,1.1,93.122,M,36.770,M,1.1,0979*62
[2021-02-22 15:29:00.632] $GNGGA,062900.20,3713.89806607,N,13701.40977088,E,4,09,1.1,93.132,M,36.770,M,1.2,0979*65
[2021-02-22 15:29:00.710] $GNGGA,062900.30,3713.89806272,N,13701.40977182,E,4,09,1.1,93.124,M,36.770,M,1.3,0979*6F
[2021-02-22 15:29:00.835] $GNGGA,062900.40,3713.89806664,N,13701.40976804,E,4,09,1.1,93.120,M,36.770,M,1.4,0979*6E
[2021-02-22 15:29:00.913] $GNGGA,062900.50,3713.89806046,N,13701.40976470,E,4,09,1.1,93.134,M,36.770,M,1.5,0979*62
[2021-02-22 15:29:01.022] $GNGGA,062900.60,3713.89806175,N,13701.40976706,E,4,09,1.1,93.126,M,36.770,M,1.6,0979*62
[2021-02-22 15:29:01.116] $GNGGA,062900.70,3713.89806436,N,13701.40976538,E,4,09,1.1,93.122,M,36.770,M,1.7,0979*6B
[2021-02-22 15:29:01.226] $GNGGA,062900.80,3713.89806414,N,13701.40976707,E,4,09,1.1,93.126,M,36.770,M,1.8,0979*61
[2021-02-22 15:29:01.319] $GNGGA,062900.90,3713.89806761,N,13701.40977156,E,4,09,1.1,93.116,M,36.770,M,0.9,0979*61
[2021-02-22 15:29:01.429] $GNGGA,062901.00,3713.89806761,N,13701.40977108,E,4,09,1.1,93.120,M,36.770,M,1.0,0979*6F
[2021-02-22 15:29:01.522] $GNGGA,062901.10,3713.89806209,N,13701.40977227,E,4,09,1.1,93.133,M,36.770,M,1.1,0979*68
[2021-02-22 15:29:01.632] $GNGGA,062901.20,3713.89806830,N,13701.40976820,E,4,09,1.1,93.122,M,36.770,M,1.2,0979*64
[2021-02-22 15:29:01.725] $GNGGA,062901.30,3713.89806953,N,13701.40976709,E,4,09,1.1,93.119,M,36.770,M,1.3,0979*6C
[2021-02-22 15:29:01.835] $GNGGA,062901.40,3713.89806617,N,13701.40976383,E,4,09,1.1,93.118,M,36.770,M,1.4,0979*64
[2021-02-22 15:29:01.913] $GNGGA,062901.50,3713.89806637,N,13701.40976661,E,4,09,1.1,93.123,M,36.770,M,1.5,0979*67
[2021-02-22 15:29:02.022] $GNGGA,062901.60,3713.89806959,N,13701.40976653,E,4,09,1.1,93.121,M,36.770,M,1.6,0979*63
[2021-02-22 15:29:02.116] $GNGGA,062901.70,3713.89806557,N,13701.40976973,E,4,09,1.1,93.130,M,36.770,M,1.7,0979*6C
[2021-02-22 15:29:02.225] $GNGGA,062901.80,3713.89807040,N,13701.40976899,E,4,09,1.1,93.112,M,36.770,M,1.8,0979*6B
[2021-02-22 15:29:02.319] $GNGGA,062901.90,3713.89806775,N,13701.40976813,E,4,09,1.1,93.132,M,36.770,M,0.9,0979*6A
[2021-02-22 15:29:02.413] $GNGGA,062902.00,3713.89807245,N,13701.40976186,E,4,09,1.1,93.135,M,36.770,M,1.0,0979*6D
[2021-02-22 15:29:02.522] $GNGGA,062902.10,3713.89807368,N,13701.40975719,E,4,09,1.1,93.133,M,36.770,M,1.1,0979*66
[2021-02-22 15:29:02.632] $GNGGA,062902.20,3713.89807111,N,13701.40976080,E,4,09,1.1,93.142,M,36.770,M,1.2,0979*68
[2021-02-22 15:29:02.725] $GNGGA,062902.30,3713.89807210,N,13701.40976228,E,4,09,1.1,93.142,M,36.770,M,1.3,0979*6A
[2021-02-22 15:29:02.819] $GNGGA,062902.40,3713.89807418,N,13701.40976269,E,4,09,1.1,93.137,M,36.770,M,1.4,0979*63
[2021-02-22 15:29:02.913] $GNGGA,062902.50,3713.89806955,N,13701.40976575,E,4,09,1.1,93.126,M,36.770,M,1.5,0979*6C
[2021-02-22 15:29:03.022] $GNGGA,062902.60,3713.89807519,N,13701.40975760,E,4,09,1.1,93.141,M,36.770,M,1.6,0979*6D
[2021-02-22 15:29:03.116] $GNGGA,062902.70,3713.89807405,N,13701.40976075,E,4,09,1.1,93.143,M,36.770,M,1.7,0979*63
[2021-02-22 15:29:03.225] $GNGGA,062902.80,3713.89806653,N,13701.40977110,E,4,09,1.1,93.125,M,36.770,M,0.8,0979*61
[2021-02-22 15:29:03.319] $GNGGA,062902.90,3713.89806708,N,13701.40976799,E,4,09,1.1,93.139,M,36.770,M,0.9,0979*65
[2021-02-22 15:29:03.429] $GNGGA,062903.00,3713.89806883,N,13701.40977143,E,4,09,1.1,93.128,M,36.770,M,1.0,0979*69
[2021-02-22 15:29:03.522] $GNGGA,062903.10,3713.89806337,N,13701.40977339,E,4,09,1.1,93.125,M,36.770,M,1.1,0979*6F
[2021-02-22 15:29:03.632] $GNGGA,062903.20,3713.89806751,N,13701.40977024,E,4,09,1.1,93.128,M,36.770,M,1.2,0979*69
[2021-02-22 15:29:03.725] $GNGGA,062903.30,3713.89806882,N,13701.40976920,E,4,09,1.1,93.130,M,36.770,M,1.3,0979*6D
[2021-02-22 15:29:03.819] $GNGGA,062903.40,3713.89806904,N,13701.40977016,E,4,09,1.1,93.122,M,36.770,M,1.4,0979*6C
[2021-02-22 15:29:03.913] $GNGGA,062903.50,3713.89806654,N,13701.40977235,E,4,09,1.1,93.129,M,36.770,M,1.5,0979*6E
[2021-02-22 15:29:04.022] $GNGGA,062903.60,3713.89806886,N,13701.40976916,E,4,09,1.1,93.126,M,36.770,M,1.6,0979*6B
[2021-02-22 15:29:04.116] $GNGGA,062903.70,3713.89806733,N,13701.40977166,E,4,09,1.1,93.127,M,36.770,M,1.7,0979*65
[2021-02-22 15:29:04.225] $GNGGA,062903.80,3713.89806690,N,13701.40977213,E,4,09,1.1,93.129,M,36.770,M,1.8,0979*62
[2021-02-22 15:29:04.319] $GNGGA,062903.90,3713.89806836,N,13701.40977393,E,4,09,1.1,93.117,M,36.770,M,1.9,0979*64
[2021-02-22 15:29:04.428] $GNGGA,062904.00,3713.89807308,N,13701.40976840,E,4,09,1.1,93.136,M,36.770,M,1.0,0979*63
[2021-02-22 15:29:04.522] $GNGGA,062904.10,3713.89807301,N,13701.40976672,E,4,09,1.1,93.138,M,36.770,M,1.1,0979*6B
[2021-02-22 15:29:04.632] $GNGGA,062904.20,3713.89806997,N,13701.40976548,E,4,09,1.1,93.139,M,36.770,M,1.2,0979*64
[2021-02-22 15:29:04.725] $GNGGA,062904.30,3713.89807186,N,13701.40976557,E,4,09,1.1,93.144,M,36.770,M,1.3,0979*69
[2021-02-22 15:29:04.819] $GNGGA,062904.40,3713.89807094,N,13701.40976916,E,4,09,1.1,93.137,M,36.770,M,1.4,0979*66
[2021-02-22 15:29:04.913] $GNGGA,062904.50,3713.89807105,N,13701.40976596,E,4,09,1.1,93.140,M,36.770,M,1.5,0979*6B
[2021-02-22 15:29:05.022] $GNGGA,062904.60,3713.89807226,N,13701.40976925,E,4,09,1.1,93.137,M,36.770,M,1.6,0979*6D
[2021-02-22 15:29:05.116] $GNGGA,062904.70,3713.89806928,N,13701.40976807,E,4,09,1.1,93.150,M,36.770,M,1.7,0979*69
[2021-02-22 15:29:05.225] $GNGGA,062904.80,3713.89807283,N,13701.40976537,E,4,09,1.1,93.132,M,36.770,M,1.8,0979*68
[2021-02-22 15:29:05.319] $GNGGA,062904.90,3713.89807492,N,13701.40976488,E,4,09,1.1,93.129,M,36.770,M,0.9,0979*60
[2021-02-22 15:29:05.428] $GNGGA,062905.00,3713.89806912,N,13701.40976631,E,4,09,1.1,93.129,M,36.770,M,1.0,0979*64
[2021-02-22 15:29:05.522] $GNGGA,062905.10,3713.89807425,N,13701.40976133,E,4,09,1.1,93.139,M,36.770,M,1.1,0979*68
[2021-02-22 15:29:05.631] $GNGGA,062905.20,3713.89807478,N,13701.40976455,E,4,09,1.1,93.128,M,36.770,M,1.2,0979*65
[2021-02-22 15:29:05.710] $GNGGA,062905.30,3713.89807673,N,13701.40976450,E,4,09,1.1,93.128,M,36.770,M,1.3,0979*69
[2021-02-22 15:29:05.819] $GNGGA,062905.40,3713.89807734,N,13701.40976219,E,4,09,1.1,93.135,M,36.770,M,1.4,0979*6C
[2021-02-22 15:29:05.913] $GNGGA,062905.50,3713.89807624,N,13701.40976215,E,4,09,1.1,93.138,M,36.770,M,1.5,0979*6D
[2021-02-22 15:29:06.022] $GNGGA,062905.60,3713.89807658,N,13701.40976140,E,4,09,1.1,93.134,M,36.770,M,1.6,0979*69
[2021-02-22 15:29:06.116] $GNGGA,062905.70,3713.89807645,N,13701.40975901,E,4,09,1.1,93.137,M,36.770,M,1.7,0979*68
[2021-02-22 15:29:06.225] $GNGGA,062905.80,3713.89807532,N,13701.40976094,E,4,09,1.1,93.132,M,36.770,M,1.8,0979*68
[2021-02-22 15:29:06.319] $GNGGA,062905.90,3713.89807474,N,13701.40975858,E,4,09,1.1,93.139,M,36.770,M,1.9,0979*6B
[2021-02-22 15:29:06.428] $GNGGA,062906.00,3713.89807361,N,13701.40975835,E,4,09,1.1,93.139,M,36.770,M,1.0,0979*60
[2021-02-22 15:29:06.522] $GNGGA,062906.10,3713.89807409,N,13701.40976053,E,4,09,1.1,93.140,M,36.770,M,1.1,0979*6C
[2021-02-22 15:29:06.631] $GNGGA,062906.20,3713.89807734,N,13701.40975986,E,4,09,1.1,93.134,M,36.770,M,1.2,0979*60
[2021-02-22 15:29:06.725] $GNGGA,062906.30,3713.89807609,N,13701.40976423,E,4,09,1.1,93.137,M,36.770,M,1.3,0979*6D
[2021-02-22 15:29:06.819] $GNGGA,062906.40,3713.89807835,N,13701.40976042,E,4,09,1.1,93.133,M,36.770,M,1.4,0979*6B
[2021-02-22 15:29:06.928] $GNGGA,062906.50,3713.89807413,N,13701.40976253,E,4,09,1.1,93.138,M,36.770,M,1.5,0979*6A
[2021-02-22 15:29:07.022] $GNGGA,062906.60,3713.89808123,N,13701.40975851,E,4,09,1.1,93.129,M,36.770,M,1.6,0979*68
[2021-02-22 15:29:07.116] $GNGGA,062906.70,3713.89807777,N,13701.40976041,E,4,09,1.1,93.135,M,36.770,M,1.7,0979*67
[2021-02-22 15:29:07.225] $GNGGA,062906.80,3713.89807839,N,13701.40975753,E,4,09,1.1,93.134,M,36.770,M,1.8,0979*64
[2021-02-22 15:29:07.319] $GNGGA,062906.90,3713.89807748,N,13701.40976097,E,4,09,1.1,93.137,M,36.770,M,0.9,0979*63
[2021-02-22 15:29:07.428] $GNGGA,062907.00,3713.89807561,N,13701.40976184,E,4,09,1.1,93.139,M,36.770,M,1.0,0979*67
[2021-02-22 15:29:07.522] $GNGGA,062907.10,3713.89807992,N,13701.40975958,E,4,09,1.1,93.140,M,36.770,M,1.1,0979*63
[2021-02-22 15:29:07.631] $GNGGA,062907.20,3713.89807740,N,13701.40975942,E,4,09,1.1,93.143,M,36.770,M,1.2,0979*6A
[2021-02-22 15:29:07.725] $GNGGA,062907.30,3713.89807951,N,13701.40975751,E,4,09,1.1,93.142,M,36.770,M,1.3,0979*69
[2021-02-22 15:29:07.819] $GNGGA,062907.40,3713.89808091,N,13701.40975632,E,4,09,1.1,93.141,M,36.770,M,1.4,0979*64
[2021-02-22 15:29:07.913] $GNGGA,062907.50,3713.89807923,N,13701.40975460,E,4,09,1.1,93.131,M,36.770,M,1.5,0979*69
[2021-02-22 15:29:08.022] $GNGGA,062907.60,3713.89807963,N,13701.40975628,E,4,09,1.1,93.140,M,36.770,M,1.6,0979*65
[2021-02-22 15:29:08.116] $GNGGA,062907.70,3713.89807810,N,13701.40975756,E,4,09,1.1,93.133,M,36.770,M,1.7,0979*6C
[2021-02-22 15:29:08.225] $GNGGA,062907.80,3713.89808103,N,13701.40975722,E,4,09,1.1,93.136,M,36.770,M,1.8,0979*6E
[2021-02-22 15:29:08.319] $GNGGA,062907.90,3713.89808045,N,13701.40976147,E,4,09,1.1,93.129,M,36.770,M,0.9,0979*64
[2021-02-22 15:29:08.428] $GNGGA,062908.00,3713.89808126,N,13701.40976357,E,4,09,1.1,93.118,M,36.770,M,1.0,0979*6F
[2021-02-22 15:29:08.522] $GNGGA,062908.10,3713.89808087,N,13701.40975961,E,4,09,1.1,93.116,M,36.770,M,1.1,0979*67
[2021-02-22 15:29:08.631] $GNGGA,062908.20,3713.89807832,N,13701.40976302,E,4,09,1.1,93.122,M,36.770,M,1.2,0979*65
[2021-02-22 15:29:08.725] $GNGGA,062908.30,3713.89807748,N,13701.40976453,E,4,09,1.1,93.126,M,36.770,M,1.3,0979*60
