
[2021-02-22 16:08:07.569] $GNGGA,070758.40,,,,,0,00,99.99,,,,,26.4,*6F
[2021-02-22 16:08:07.585] $GNGGA,070758.50,,,,,0,00,99.99,,,,,26.5,*6F
[2021-02-22 16:08:07.585] $GNGGA,070758.60,,,,,0,00,99.99,,,,,26.6,*6F
[2021-02-22 16:08:07.585] $GNGGA,070758.70,,,,,0,00,99.99,,,,,26.7,*6F
[2021-02-22 16:08:07.585] $GNGGA,070758.80,,,,,0,00,99.99,,,,,26.8,*6F
[2021-02-22 16:08:07.585] $GNGGA,070758.90,,,,,0,00,99.99,,,,,26.9,*6F
[2021-02-22 16:08:07.585] $GNGGA,070759.00,,,,,0,00,99.99,,,,,27.0,*6F
[2021-02-22 16:08:07.585] $GNGGA,070759.10,,,,,0,00,99.99,,,,,27.1,*6F
[2021-02-22 16:08:07.585] $GNGGA,070759.20,,,,,0,00,99.99,,,,,27.2,*6F
[2021-02-22 16:08:07.585] $GNGGA,070759.30,,,,,0,00,99.99,,,,,27.3,*6F
[2021-02-22 16:08:07.585] $GNGGA,070759.40,,,,,0,00,99.99,,,,,27.4,*6F
[2021-02-22 16:08:07.585] $GNGGA,070759.50,,,,,0,00,99.99,,,,,27.5,*6F
[2021-02-22 16:08:07.585] $GNGGA,070759.60,,,,,0,00,99.99,,,,,27.6,*6F
[2021-02-22 16:08:07.585] $GNGGA,070759.70,,,,,0,00,99.99,,,,,27.7,*6F
[2021-02-22 16:08:07.585] $GNGGA,070759.80,,,,,0,00,99.99,,,,,27.8,*6F
[2021-02-22 16:08:07.585] $GNGGA,070759.90,,,,,0,00,99.99,,,,,27.9,*6F
[2021-02-22 16:08:07.585] $GNGGA,070800.00,,,,,0,00,99.99,,,,,28.0,*63
[2021-02-22 16:08:07.585] $GNGGA,070800.10,,,,,0,00,99.99,,,,,28.1,*63
[2021-02-22 16:08:07.585] $GNGGA,070800.20,,,,,0,00,99.99,,,,,28.2,*63
[2021-02-22 16:08:07.585] $GNGGA,070800.30,,,,,0,00,99.99,,,,,28.3,*63
[2021-02-22 16:08:07.585] $GNGGA,070800.40,,,,,0,00,99.99,,,,,28.4,*63
[2021-02-22 16:08:07.585] $GNGGA,070800.50,,,,,0,00,99.99,,,,,28.5,*63
[2021-02-22 16:08:07.585] $GNGGA,070800.60,,,,,0,00,99.99,,,,,28.6,*63
[2021-02-22 16:08:07.600] $GNGGA,070800.70,,,,,0,00,99.99,,,,,28.7,*63
[2021-02-22 16:08:07.600] $GNGGA,070800.80,,,,,0,00,99.99,,,,,28.8,*63
[2021-02-22 16:08:07.600] $GNGGA,070800.90,,,,,0,00,99.99,,,,,28.9,*63
[2021-02-22 16:08:07.600] $GNGGA,070801.00,,,,,0,00,99.99,,,,,29.0,*63
[2021-02-22 16:08:07.600] $GNGGA,070801.10,,,,,0,00,99.99,,,,,29.1,*63
[2021-02-22 16:08:07.600] $GNGGA,070801.20,,,,,0,00,99.99,,,,,29.2,*63
[2021-02-22 16:08:07.600] $GNGGA,070801.30,,,,,0,00,99.99,,,,,29.3,*63
[2021-02-22 16:08:07.600] $GNGGA,070801.40,,,,,0,00,99.99,,,,,29.4,*63
[2021-02-22 16:08:07.600] $GNGGA,070801.50,,,,,0,00,99.99,,,,,29.5,*63
[2021-02-22 16:08:07.600] $GNGGA,070801.60,,,,,0,00,99.99,,,,,29.6,*63
[2021-02-22 16:08:07.600] $GNGGA,070801.70,,,,,0,00,99.99,,,,,29.7,*63
[2021-02-22 16:08:07.600] $GNGGA,070801.80,,,,,0,00,99.99,,,,,29.8,*63
[2021-02-22 16:08:07.600] $GNGGA,070801.90,,,,,0,00,99.99,,,,,29.9,*63
[2021-02-22 16:08:07.600] $GNGGA,070802.00,,,,,0,00,99.99,,,,,30.0,*68
[2021-02-22 16:08:07.600] $GNGGA,070802.10,,,,,0,00,99.99,,,,,30.1,*68
[2021-02-22 16:08:07.600] $GNGGA,070802.20,,,,,0,00,99.99,,,,,30.2,*68
[2021-02-22 16:08:07.600] $GNGGA,070802.30,,,,,0,00,99.99,,,,,30.3,*68
[2021-02-22 16:08:07.600] $GNGGA,070802.40,,,,,0,00,99.99,,,,,30.4,*68
[2021-02-22 16:08:07.600] $GNGGA,070802.50,,,,,0,00,99.99,,,,,30.5,*68
[2021-02-22 16:08:07.600] $GNGGA,070802.60,,,,,0,00,99.99,,,,,30.6,*68
[2021-02-22 16:08:07.600] $GNGGA,070802.70,,,,,0,00,99.99,,,,,30.7,*68
[2021-02-22 16:08:07.600] $GNGGA,070802.80,,,,,0,00,99.99,,,,,30.8,*68
[2021-02-22 16:08:07.616] $GNGGA,070802.90,,,,,0,00,99.99,,,,,30.9,*68
[2021-02-22 16:08:07.616] $GNGGA,070803.00,,,,,0,00,99.99,,,,,31.0,*68
[2021-02-22 16:08:07.616] $GNGGA,070803.10,,,,,0,00,99.99,,,,,31.1,*68
[2021-02-22 16:08:07.616] $GNGGA,070803.20,,,,,0,00,99.99,,,,,31.2,*68
[2021-02-22 16:08:07.616] $GNGGA,070803.30,,,,,0,00,99.99,,,,,31.3,*68
[2021-02-22 16:08:07.616] $GNGGA,070803.40,,,,,0,00,99.99,,,,,31.4,*68
[2021-02-22 16:08:07.616] $GNGGA,070803.50,,,,,0,00,99.99,,,,,31.5,*68
[2021-02-22 16:08:07.616] $GNGGA,070803.60,,,,,0,00,99.99,,,,,31.6,*68
[2021-02-22 16:08:07.616] $GNGGA,070803.70,,,,,0,00,99.99,,,,,31.7,*68
[2021-02-22 16:08:07.616] $GNGGA,070803.80,,,,,0,00,99.99,,,,,31.8,*68
[2021-02-22 16:08:07.616] $GNGGA,070803.90,,,,,0,00,99.99,,,,,31.9,*68
[2021-02-22 16:08:07.616] $GNGGA,070804.00,,,,,0,00,99.99,,,,,32.0,*6C
[2021-02-22 16:08:07.616] $GNGGA,070804.10,,,,,0,00,99.99,,,,,32.1,*6C
[2021-02-22 16:08:07.616] $GNGGA,070804.20,,,,,0,00,99.99,,,,,32.2,*6C
[2021-02-22 16:08:07.616] $GNGGA,070804.30,,,,,0,00,99.99,,,,,32.3,*6C
[2021-02-22 16:08:07.616] $GNGGA,070804.40,,,,,0,00,99.99,,,,,32.4,*6C
[2021-02-22 16:08:07.616] $GNGGA,070804.50,,,,,0,00,99.99,,,,,32.5,*6C
[2021-02-22 16:08:07.616] $GNGGA,070804.60,,,,,0,00,99.99,,,,,32.6,*6C
[2021-02-22 16:08:07.616] $GNGGA,070804.70,,,,,0,00,99.99,,,,,32.7,*6C
[2021-02-22 16:08:07.616] $GNGGA,070804.80,,,,,0,00,99.99,,,,,32.8,*6C
[2021-02-22 16:08:07.616] $GNGGA,070804.90,,,,,0,00,99.99,,,,,32.9,*6C
[2021-02-22 16:08:07.616] $GNGGA,070805.00,,,,,0,00,99.99,,,,,33.0,*6C
[2021-02-22 16:08:07.616] $GNGGA,070805.10,,,,,0,00,99.99,,,,,33.1,*6C
[2021-02-22 16:08:07.616] $GNGGA,070805.20,,,,,0,00,99.99,,,,,33.2,*6C
[2021-02-22 16:08:07.616] $GNGGA,070805.30,,,,,0,00,99.99,,,,,33.3,*6C
[2021-02-22 16:08:07.616] $GNGGA,070805.40,,,,,0,00,99.99,,,,,33.4,*6C
[2021-02-22 16:08:07.616] $GNGGA,070805.50,,,,,0,00,99.99,,,,,33.5,*6C
[2021-02-22 16:08:07.616] $GNGGA,070805.60,,,,,0,00,99.99,,,,,33.6,*6C
[2021-02-22 16:08:07.616] $GNGGA,070805.70,,,,,0,00,99.99,,,,,33.7,*6C
[2021-02-22 16:08:07.616] $GNGGA,070805.80,,,,,0,00,99.99,,,,,33.8,*6C
[2021-02-22 16:08:07.616] $GNGGA,070805.90,,,,,0,00,99.99,,,,,33.9,*6C
[2021-02-22 16:08:07.616] $GNGGA,070806.00,,,,,0,00,99.99,,,,,34.0,*68
[2021-02-22 16:08:07.616] $GNGGA,070806.10,,,,,0,00,99.99,,,,,34.1,*68
[2021-02-22 16:08:07.616] $GNGGA,070806.20,,,,,0,00,99.99,,,,,34.2,*68
[2021-02-22 16:08:07.616] $GNGGA,070806.30,,,,,0,00,99.99,,,,,34.3,*68
[2021-02-22 16:08:07.616] $GNGGA,070806.40,,,,,0,00,99.99,,,,,34.4,*68
[2021-02-22 16:08:07.616] $GNGGA,070806.50,,,,,0,00,99.99,,,,,34.5,*68
[2021-02-22 16:08:07.616] $GNGGA,070806.60,,,,,0,00,99.99,,,,,34.6,*68
[2021-02-22 16:08:07.616] $GNGGA,070806.70,,,,,0,00,99.99,,,,,34.7,*68
[2021-02-22 16:08:07.616] $GNGGA,070806.80,,,,,0,00,99.99,,,,,34.8,*68
[2021-02-22 16:08:07.616] $GNGGA,070806.90,,,,,0,00,99.99,,,,,34.9,*68
[2021-02-22 16:08:07.616] $GNGGA,070807.00,,,,,0,00,99.99,,,,,35.0,*68
[2021-02-22 16:08:07.678] $GNGGA,070807.10,,,,,0,00,99.99,,,,,35.1,*68
[2021-02-22 16:08:07.772] $GNGGA,070807.20,,,,,0,00,99.99,,,,,35.2,*68
[2021-02-22 16:08:07.897] $GNGGA,070807.30,,,,,0,00,99.99,,,,,35.3,*68
[2021-02-22 16:08:07.991] $GNGGA,070807.40,,,,,0,00,99.99,,,,,35.4,*68
[2021-02-22 16:08:08.085] $GNGGA,070807.50,,,,,0,00,99.99,,,,,35.5,*68
[2021-02-22 16:08:08.210] $GNGGA,070807.60,,,,,0,00,99.99,,,,,35.6,*68
[2021-02-22 16:08:08.288] $GNGGA,070807.70,,,,,0,00,99.99,,,,,35.7,*68
[2021-02-22 16:08:08.397] $GNGGA,070807.80,,,,,0,00,99.99,,,,,35.8,*68
[2021-02-22 16:08:08.491] $GNGGA,070807.90,,,,,0,00,99.99,,,,,35.9,*68
[2021-02-22 16:08:08.585] $GNGGA,070808.00,,,,,0,00,99.99,,,,,36.0,*64
[2021-02-22 16:08:08.694] $GNGGA,070808.10,,,,,0,00,99.99,,,,,36.1,*64
[2021-02-22 16:08:08.788] $GNGGA,070808.20,,,,,0,00,99.99,,,,,36.2,*64
[2021-02-22 16:08:08.881] $GNGGA,070808.30,,,,,0,00,99.99,,,,,36.3,*64
[2021-02-22 16:08:08.975] $GNGGA,070808.40,,,,,0,00,99.99,,,,,36.4,*64
[2021-02-22 16:08:09.100] $GNGGA,070808.50,,,,,0,00,99.99,,,,,36.5,*64
[2021-02-22 16:08:09.194] $GNGGA,070808.60,,,,,0,00,99.99,,,,,36.6,*64
[2021-02-22 16:08:09.288] $GNGGA,070808.70,,,,,0,00,99.99,,,,,36.7,*64
[2021-02-22 16:08:09.381] $GNGGA,070808.80,,,,,0,00,99.99,,,,,36.8,*64
[2021-02-22 16:08:09.491] $GNGGA,070808.90,,,,,0,00,99.99,,,,,36.9,*64
[2021-02-22 16:08:09.600] $GNGGA,070809.00,,,,,0,00,99.99,,,,,37.0,*64
[2021-02-22 16:08:09.678] $GNGGA,070809.10,,,,,0,00,99.99,,,,,37.1,*64
[2021-02-22 16:08:09.803] $GNGGA,070809.20,,,,,0,00,99.99,,,,,37.2,*64
[2021-02-22 16:08:09.897] $GNGGA,070809.30,,,,,0,00,99.99,,,,,37.3,*64
[2021-02-22 16:08:09.991] $GNGGA,070809.40,,,,,0,00,99.99,,,,,37.4,*64
[2021-02-22 16:08:10.084] $GNGGA,070809.50,,,,,0,00,99.99,,,,,37.5,*64
[2021-02-22 16:08:10.194] $GNGGA,070809.60,,,,,0,00,99.99,,,,,37.6,*64
[2021-02-22 16:08:10.288] $GNGGA,070809.70,,,,,0,00,99.99,,,,,37.7,*64
[2021-02-22 16:08:10.397] $GNGGA,070809.80,,,,,0,00,99.99,,,,,37.8,*64
[2021-02-22 16:08:10.491] $GNGGA,070809.90,,,,,0,00,99.99,,,,,37.9,*64
[2021-02-22 16:08:10.600] $GNGGA,070810.00,,,,,0,00,99.99,,,,,38.0,*63
[2021-02-22 16:08:10.694] $GNGGA,070810.10,,,,,0,00,99.99,,,,,38.1,*63
[2021-02-22 16:08:10.788] $GNGGA,070810.20,,,,,0,00,99.99,,,,,38.2,*63
[2021-02-22 16:08:10.881] $GNGGA,070810.30,,,,,0,00,99.99,,,,,38.3,*63
[2021-02-22 16:08:11.006] $GNGGA,070810.40,,,,,0,00,99.99,,,,,38.4,*63
[2021-02-22 16:08:11.100] $GNGGA,070810.50,,,,,0,00,99.99,,,,,38.5,*63
[2021-02-22 16:08:11.194] $GNGGA,070810.60,,,,,0,00,99.99,,,,,38.6,*63
[2021-02-22 16:08:11.288] $GNGGA,070810.70,,,,,0,00,99.99,,,,,38.7,*63
[2021-02-22 16:08:11.397] $GNGGA,070810.80,,,,,0,00,99.99,,,,,38.8,*63
[2021-02-22 16:08:11.491] $GNGGA,070810.90,,,,,0,00,99.99,,,,,38.9,*63
[2021-02-22 16:08:11.600] $GNGGA,070811.00,,,,,0,00,99.99,,,,,39.0,*63
[2021-02-22 16:08:11.678] $GNGGA,070811.10,,,,,0,00,99.99,,,,,39.1,*63
[2021-02-22 16:08:11.803] $GNGGA,070811.20,,,,,0,00,99.99,,,,,39.2,*63
[2021-02-22 16:08:11.897] $GNGGA,070811.30,,,,,0,00,99.99,,,,,39.3,*63
[2021-02-22 16:08:11.991] $GNGGA,070811.40,,,,,0,00,99.99,,,,,39.4,*63
[2021-02-22 16:08:12.084] $GNGGA,070811.50,,,,,0,00,99.99,,,,,39.5,*63
[2021-02-22 16:08:12.209] $GNGGA,070811.60,,,,,0,00,99.99,,,,,39.6,*63
[2021-02-22 16:08:12.287] $GNGGA,070811.70,,,,,0,00,99.99,,,,,39.7,*63
[2021-02-22 16:08:12.397] $GNGGA,070811.80,,,,,0,00,99.99,,,,,39.8,*63
[2021-02-22 16:08:12.491] $GNGGA,070811.90,,,,,0,00,99.99,,,,,39.9,*63
[2021-02-22 16:08:12.600] $GNGGA,070812.00,,,,,0,00,99.99,,,,,40.0,*6E
[2021-02-22 16:08:12.694] $GNGGA,070812.10,,,,,0,00,99.99,,,,,40.1,*6E
[2021-02-22 16:08:12.787] $GNGGA,070812.20,,,,,0,00,99.99,,,,,40.2,*6E
[2021-02-22 16:08:12.881] $GNGGA,070812.30,,,,,0,00,99.99,,,,,40.3,*6E
[2021-02-22 16:08:12.990] $GNGGA,070812.40,,,,,0,00,99.99,,,,,40.4,*6E
[2021-02-22 16:08:13.100] $GNGGA,070812.50,,,,,0,00,99.99,,,,,40.5,*6E
[2021-02-22 16:08:13.194] $GNGGA,070812.60,,,,,0,00,99.99,,,,,40.6,*6E
[2021-02-22 16:08:13.287] $GNGGA,070812.70,,,,,0,00,99.99,,,,,40.7,*6E
[2021-02-22 16:08:13.397] $GNGGA,070812.80,,,,,0,00,99.99,,,,,40.8,*6E
[2021-02-22 16:08:13.490] $GNGGA,070812.90,,,,,0,00,99.99,,,,,40.9,*6E
[2021-02-22 16:08:13.584] $GNGGA,070813.00,,,,,0,00,99.99,,,,,41.0,*6E
[2021-02-22 16:08:13.678] $GNGGA,070813.10,,,,,0,00,99.99,,,,,41.1,*6E
[2021-02-22 16:08:13.819] $GNGGA,070813.20,,,,,0,00,99.99,,,,,41.2,*6E
[2021-02-22 16:08:13.897] $GNGGA,070813.30,,,,,0,00,99.99,,,,,41.3,*6E
[2021-02-22 16:08:13.990] $GNGGA,070813.40,,,,,0,00,99.99,,,,,41.4,*6E
[2021-02-22 16:08:14.084] $GNGGA,070813.50,,,,,0,00,99.99,,,,,41.5,*6E
[2021-02-22 16:08:14.194] $GNGGA,070813.60,,,,,0,00,99.99,,,,,41.6,*6E
[2021-02-22 16:08:14.287] $GNGGA,070813.70,,,,,0,00,99.99,,,,,41.7,*6E
[2021-02-22 16:08:14.397] $GNGGA,070813.80,,,,,0,00,99.99,,,,,41.8,*6E
[2021-02-22 16:08:14.475] $GNGGA,070813.90,,,,,0,00,99.99,,,,,41.9,*6E
[2021-02-22 16:08:14.600] $GNGGA,070814.00,,,,,0,00,99.99,,,,,42.0,*6A
[2021-02-22 16:08:14.694] $GNGGA,070814.10,,,,,0,00,99.99,,,,,42.1,*6A
[2021-02-22 16:08:14.787] $GNGGA,070814.20,,,,,0,00,99.99,,,,,42.2,*6A
[2021-02-22 16:08:14.881] $GNGGA,070814.30,,,,,0,00,99.99,,,,,42.3,*6A
[2021-02-22 16:08:15.006] $GNGGA,070814.40,,,,,0,00,99.99,,,,,42.4,*6A
[2021-02-22 16:08:15.100] $GNGGA,070814.50,,,,,0,00,99.99,,,,,42.5,*6A
[2021-02-22 16:08:15.193] $GNGGA,070814.60,,,,,0,00,99.99,,,,,42.6,*6A
[2021-02-22 16:08:15.287] $GNGGA,070814.70,,,,,0,00,99.99,,,,,42.7,*6A
[2021-02-22 16:08:15.397] $GNGGA,070814.80,,,,,0,00,99.99,,,,,42.8,*6A
[2021-02-22 16:08:15.490] $GNGGA,070814.90,,,,,0,00,99.99,,,,,42.9,*6A
[2021-02-22 16:08:15.584] $GNGGA,070815.00,,,,,0,00,99.99,,,,,43.0,*6A
[2021-02-22 16:08:15.678] $GNGGA,070815.10,,,,,0,00,99.99,,,,,43.1,*6A
[2021-02-22 16:08:15.803] $GNGGA,070815.20,,,,,0,00,99.99,,,,,43.2,*6A
[2021-02-22 16:08:15.897] $GNGGA,070815.30,,,,,0,00,99.99,,,,,43.3,*6A
[2021-02-22 16:08:15.990] $GNGGA,070815.40,,,,,0,00,99.99,,,,,43.4,*6A
[2021-02-22 16:08:16.084] $GNGGA,070815.50,,,,,0,00,99.99,,,,,43.5,*6A
[2021-02-22 16:08:16.193] $GNGGA,070815.60,,,,,0,00,99.99,,,,,43.6,*6A
[2021-02-22 16:08:16.287] $GNGGA,070815.70,,,,,0,00,99.99,,,,,43.7,*6A
[2021-02-22 16:08:16.396] $GNGGA,070815.80,,,,,0,00,99.99,,,,,43.8,*6A
[2021-02-22 16:08:16.475] $GNGGA,070815.90,,,,,0,00,99.99,,,,,43.9,*6A
[2021-02-22 16:08:16.600] $GNGGA,070816.00,,,,,0,00,99.99,,,,,44.0,*6E
[2021-02-22 16:08:16.693] $GNGGA,070816.10,,,,,0,00,99.99,,,,,44.1,*6E
[2021-02-22 16:08:16.787] $GNGGA,070816.20,,,,,0,00,99.99,,,,,44.2,*6E
[2021-02-22 16:08:16.881] $GNGGA,070816.30,,,,,0,00,99.99,,,,,44.3,*6E
[2021-02-22 16:08:16.990] $GNGGA,070816.40,,,,,0,00,99.99,,,,,44.4,*6E
[2021-02-22 16:08:17.084] $GNGGA,070816.50,,,,,0,00,99.99,,,,,44.5,*6E
[2021-02-22 16:08:17.193] $GNGGA,070816.60,,,,,0,00,99.99,,,,,44.6,*6E
[2021-02-22 16:08:17.287] $GNGGA,070816.70,,,,,0,00,99.99,,,,,44.7,*6E
[2021-02-22 16:08:17.396] $GNGGA,070816.80,,,,,0,00,99.99,,,,,44.8,*6E
[2021-02-22 16:08:17.490] $GNGGA,070816.90,,,,,0,00,99.99,,,,,44.9,*6E
[2021-02-22 16:08:17.584] $GNGGA,070817.00,,,,,0,00,99.99,,,,,45.0,*6E
[2021-02-22 16:08:17.678] $GNGGA,070817.10,,,,,0,00,99.99,,,,,45.1,*6E
[2021-02-22 16:08:17.803] $GNGGA,070817.20,,,,,0,00,99.99,,,,,45.2,*6E
[2021-02-22 16:08:17.896] $GNGGA,070817.30,,,,,0,00,99.99,,,,,45.3,*6E
[2021-02-22 16:08:17.990] $GNGGA,070817.40,,,,,0,00,99.99,,,,,45.4,*6E
[2021-02-22 16:08:18.084] $GNGGA,070817.50,,,,,0,00,99.99,,,,,45.5,*6E
[2021-02-22 16:08:18.193] $GNGGA,070817.60,,,,,0,00,99.99,,,,,45.6,*6E
[2021-02-22 16:08:18.287] $GNGGA,070817.70,,,,,0,00,99.99,,,,,45.7,*6E
[2021-02-22 16:08:18.396] $GNGGA,070817.80,,,,,0,00,99.99,,,,,45.8,*6E
[2021-02-22 16:08:18.475] $GNGGA,070817.90,,,,,0,00,99.99,,,,,45.9,*6E
[2021-02-22 16:08:18.599] $GNGGA,070818.00,,,,,0,00,99.99,,,,,46.0,*62
[2021-02-22 16:08:18.693] $GNGGA,070818.10,,,,,0,00,99.99,,,,,46.1,*62
[2021-02-22 16:08:18.787] $GNGGA,070818.20,,,,,0,00,99.99,,,,,46.2,*62
[2021-02-22 16:08:18.881] $GNGGA,070818.30,,,,,0,00,99.99,,,,,46.3,*62
[2021-02-22 16:08:18.990] $GNGGA,070818.40,,,,,0,00,99.99,,,,,46.4,*62
[2021-02-22 16:08:19.099] $GNGGA,070818.50,,,,,0,00,99.99,,,,,46.5,*62
[2021-02-22 16:08:19.193] $GNGGA,070818.60,,,,,0,00,99.99,,,,,46.6,*62
[2021-02-22 16:08:19.287] $GNGGA,070818.70,,,,,0,00,99.99,,,,,46.7,*62
[2021-02-22 16:08:19.396] $GNGGA,070818.80,,,,,0,00,99.99,,,,,46.8,*62
[2021-02-22 16:08:19.490] $GNGGA,070818.90,,,,,0,00,99.99,,,,,46.9,*62
[2021-02-22 16:08:19.584] $GNGGA,070819.00,,,,,0,00,99.99,,,,,47.0,*62
[2021-02-22 16:08:19.678] $GNGGA,070819.10,,,,,0,00,99.99,,,,,47.1,*62
[2021-02-22 16:08:19.803] $GNGGA,070819.20,,,,,0,00,99.99,,,,,47.2,*62
[2021-02-22 16:08:19.896] $GNGGA,070819.30,,,,,0,00,99.99,,,,,47.3,*62
[2021-02-22 16:08:19.990] $GNGGA,070819.40,,,,,0,00,99.99,,,,,47.4,*62
[2021-02-22 16:08:20.084] $GNGGA,070819.50,,,,,0,00,99.99,,,,,47.5,*62
[2021-02-22 16:08:20.193] $GNGGA,070819.60,,,,,0,00,99.99,,,,,47.6,*62
[2021-02-22 16:08:20.287] $GNGGA,070819.70,,,,,0,00,99.99,,,,,47.7,*62
[2021-02-22 16:08:20.396] $GNGGA,070819.80,,,,,0,00,99.99,,,,,47.8,*62
[2021-02-22 16:08:20.474] $GNGGA,070819.90,,,,,0,00,99.99,,,,,47.9,*62
[2021-02-22 16:08:20.599] $GNGGA,070820.00,,,,,0,00,99.99,,,,,48.0,*67
[2021-02-22 16:08:20.693] $GNGGA,070820.10,,,,,0,00,99.99,,,,,48.1,*67
[2021-02-22 16:08:20.787] $GNGGA,070820.20,,,,,0,00,99.99,,,,,48.2,*67
[2021-02-22 16:08:20.881] $GNGGA,070820.30,,,,,0,00,99.99,,,,,48.3,*67
[2021-02-22 16:08:21.006] $GNGGA,070820.40,,,,,0,00,99.99,,,,,48.4,*67
[2021-02-22 16:08:21.099] $GNGGA,070820.50,,,,,0,00,99.99,,,,,48.5,*67
[2021-02-22 16:08:21.209] $GNGGA,070820.60,,,,,0,00,99.99,,,,,48.6,*67
[2021-02-22 16:08:21.302] $GNGGA,070820.70,,,,,0,00,99.99,,,,,48.7,*67
[2021-02-22 16:08:21.396] $GNGGA,070820.80,,,,,0,00,99.99,,,,,48.8,*67
[2021-02-22 16:08:21.490] $GNGGA,070820.90,,,,,0,00,99.99,,,,,48.9,*67
[2021-02-22 16:08:21.584] $GNGGA,070821.00,,,,,0,00,99.99,,,,,49.0,*67
[2021-02-22 16:08:21.677] $GNGGA,070821.10,,,,,0,00,99.99,,,,,49.1,*67
[2021-02-22 16:08:21.802] $GNGGA,070821.20,,,,,0,00,99.99,,,,,49.2,*67
[2021-02-22 16:08:21.896] $GNGGA,070821.30,,,,,0,00,99.99,,,,,49.3,*67
[2021-02-22 16:08:21.990] $GNGGA,070821.40,,,,,0,00,99.99,,,,,49.4,*67
[2021-02-22 16:08:22.084] $GNGGA,070821.50,,,,,0,00,99.99,,,,,49.5,*67
[2021-02-22 16:08:22.193] $GNGGA,070821.60,,,,,0,00,99.99,,,,,49.6,*67
[2021-02-22 16:08:22.287] $GNGGA,070821.70,,,,,0,00,99.99,,,,,49.7,*67
[2021-02-22 16:08:22.396] $GNGGA,070821.80,,,,,0,00,99.99,,,,,49.8,*67
[2021-02-22 16:08:22.474] $GNGGA,070821.90,,,,,0,00,99.99,,,,,49.9,*67
[2021-02-22 16:08:22.599] $GNGGA,070822.00,,,,,0,00,99.99,,,,,50.0,*6C
[2021-02-22 16:08:22.693] $GNGGA,070822.10,,,,,0,00,99.99,,,,,50.1,*6C
[2021-02-22 16:08:22.787] $GNGGA,070822.20,,,,,0,00,99.99,,,,,50.2,*6C
[2021-02-22 16:08:22.880] $GNGGA,070822.30,,,,,0,00,99.99,,,,,50.3,*6C
[2021-02-22 16:08:23.005] $GNGGA,070822.40,,,,,0,00,99.99,,,,,50.4,*6C
[2021-02-22 16:08:23.084] $GNGGA,070822.50,,,,,0,00,99.99,,,,,50.5,*6C
[2021-02-22 16:08:23.193] $GNGGA,070822.60,,,,,0,00,99.99,,,,,50.6,*6C
[2021-02-22 16:08:23.287] $GNGGA,070822.70,,,,,0,00,99.99,,,,,50.7,*6C
[2021-02-22 16:08:23.396] $GNGGA,070822.80,,,,,0,00,99.99,,,,,50.8,*6C
[2021-02-22 16:08:23.490] $GNGGA,070822.90,,,,,0,00,99.99,,,,,50.9,*6C
[2021-02-22 16:08:23.583] $GNGGA,070823.00,,,,,0,00,99.99,,,,,51.0,*6C
[2021-02-22 16:08:23.677] $GNGGA,070823.10,,,,,0,00,99.99,,,,,51.1,*6C
[2021-02-22 16:08:23.802] $GNGGA,070823.20,,,,,0,00,99.99,,,,,51.2,*6C
[2021-02-22 16:08:23.896] $GNGGA,070823.30,,,,,0,00,99.99,,,,,51.3,*6C
[2021-02-22 16:08:23.990] $GNGGA,070823.40,,,,,0,00,99.99,,,,,51.4,*6C
[2021-02-22 16:08:24.084] $GNGGA,070823.50,,,,,0,00,99.99,,,,,51.5,*6C
[2021-02-22 16:08:24.193] $GNGGA,070823.60,,,,,0,00,99.99,,,,,51.6,*6C
[2021-02-22 16:08:24.287] $GNGGA,070823.70,,,,,0,00,99.99,,,,,51.7,*6C
[2021-02-22 16:08:24.396] $GNGGA,070823.80,,,,,0,00,99.99,,,,,51.8,*6C
[2021-02-22 16:08:24.474] $GNGGA,070823.90,,,,,0,00,99.99,,,,,51.9,*6C
[2021-02-22 16:08:24.599] $GNGGA,070824.00,,,,,0,00,99.99,,,,,52.0,*68
[2021-02-22 16:08:24.708] $GNGGA,070824.10,3713.955694000,N,13701.425588000,E,5,00,99.90,95.466,M,37.566,M,52.1,3006*55
[2021-02-22 16:08:24.787] $GNGGA,070824.20,3713.955375603,N,13701.425751969,E,5,00,99.90,112.394,M,37.566,M,52.2,3006*6E
[2021-02-22 16:08:24.880] $GNGGA,070824.30,3713.955134621,N,13701.426150093,E,5,03,99.90,111.457,M,37.566,M,52.3,3006*69
[2021-02-22 16:08:24.990] $GNGGA,070824.40,3713.955174499,N,13701.426081467,E,5,04,2.29,111.814,M,37.566,M,52.4,3006*52
[2021-02-22 16:08:25.083] $GNGGA,070824.50,3713.955175320,N,13701.426076977,E,5,04,2.29,111.827,M,37.566,M,52.5,3006*52
[2021-02-22 16:08:25.208] $GNGGA,070824.60,3713.955177529,N,13701.426074228,E,5,04,2.29,111.833,M,37.566,M,52.6,3006*59
[2021-02-22 16:08:25.287] $GNGGA,070824.70,3713.955180495,N,13701.426070810,E,5,04,2.29,111.848,M,37.566,M,52.7,3006*5E
[2021-02-22 16:08:25.380] $GNGGA,070824.80,3713.955155211,N,13701.426124656,E,5,04,2.29,111.365,M,37.566,M,52.8,3006*54
[2021-02-22 16:08:25.490] $GNGGA,070824.90,3713.955127421,N,13701.426177018,E,5,04,2.29,110.945,M,37.566,M,52.9,3006*57
[2021-02-22 16:08:25.583] $GNGGA,070825.00,3713.955008350,N,13701.426290208,E,5,04,2.29,110.536,M,37.566,M,53.0,3006*5B
[2021-02-22 16:08:25.708] $GNGGA,070825.10,3713.955225993,N,13701.426121904,E,5,04,2.29,110.793,M,37.566,M,53.1,3006*50
[2021-02-22 16:08:25.786] $GNGGA,070825.20,3713.955229496,N,13701.426119016,E,5,04,2.29,110.801,M,37.566,M,53.2,3006*51
[2021-02-22 16:08:25.880] $GNGGA,070825.30,3713.955206843,N,13701.426170849,E,5,04,2.29,110.341,M,37.566,M,53.3,3006*5A
[2021-02-22 16:08:25.990] $GNGGA,070825.40,3713.955207043,N,13701.426169843,E,5,04,2.30,110.341,M,37.566,M,53.4,3006*59
[2021-02-22 16:08:26.099] $GNGGA,070825.50,3713.955289335,N,13701.426089557,E,5,04,2.30,110.630,M,37.566,M,53.5,3006*59
[2021-02-22 16:08:26.177] $GNGGA,070825.60,3713.955287107,N,13701.426092069,E,5,04,2.30,110.627,M,37.566,M,53.6,3006*50
[2021-02-22 16:08:26.286] $GNGGA,070825.70,3713.955289218,N,13701.426090242,E,5,02,99.90,110.636,M,37.566,M,53.7,3006*64
[2021-02-22 16:08:26.380] $GNGGA,070825.80,3713.955291531,N,13701.426088129,E,5,02,99.90,110.650,M,37.566,M,53.8,3006*66
[2021-02-22 16:08:26.505] $GNGGA,070825.90,3713.955243884,N,13701.426159657,E,5,02,99.90,110.587,M,37.566,M,53.9,3006*60
[2021-02-22 16:08:26.583] $GNGGA,070826.00,3713.955022436,N,13701.426509008,E,5,02,99.90,111.022,M,37.566,M,54.0,3006*62
[2021-02-22 16:08:26.677] $GNGGA,070826.10,3713.955030284,N,13701.426516425,E,5,02,99.90,111.001,M,37.566,M,54.1,3006*6A
[2021-02-22 16:08:26.786] $GNGGA,070826.20,3713.955030700,N,13701.426515391,E,5,02,99.90,111.009,M,37.566,M,54.2,3006*60
[2021-02-22 16:08:26.896] $GNGGA,070826.30,3713.955029649,N,13701.426515425,E,5,02,99.90,111.011,M,37.566,M,54.3,3006*65
[2021-02-22 16:08:26.974] $GNGGA,070826.40,3713.955033361,N,13701.426528670,E,5,02,99.90,110.855,M,37.566,M,54.4,3006*64
[2021-02-22 16:08:27.083] $GNGGA,070826.50,3713.955035333,N,13701.426527590,E,5,02,99.90,110.865,M,37.566,M,54.5,3006*64
[2021-02-22 16:08:27.177] $GNGGA,070826.60,3713.955035248,N,13701.426527365,E,5,00,99.90,110.861,M,37.566,M,54.6,3006*63
[2021-02-22 16:08:27.286] $GNGGA,070826.70,3713.955035214,N,13701.426526737,E,5,00,99.90,110.858,M,37.566,M,54.7,3006*62
[2021-02-22 16:08:27.411] $GNGGA,070826.80,3713.955034722,N,13701.426529319,E,5,00,99.90,110.860,M,37.566,M,54.8,3006*6F
[2021-02-22 16:08:27.474] $GNGGA,070826.90,3713.955036563,N,13701.426530164,E,5,00,99.90,110.859,M,37.566,M,54.9,3006*60
[2021-02-22 16:08:27.583] $GNGGA,070827.00,3713.955035549,N,13701.426531571,E,5,00,99.90,110.858,M,37.566,M,55.0,3006*6B
[2021-02-22 16:08:27.677] $GNGGA,070827.10,3713.955036267,N,13701.426533468,E,5,00,99.90,110.855,M,37.566,M,55.1,3006*65
[2021-02-22 16:08:27.786] $GNGGA,070827.20,3713.955037304,N,13701.426534127,E,5,00,99.90,110.853,M,37.566,M,55.2,3006*6F
[2021-02-22 16:08:27.911] $GNGGA,070827.30,3713.955030137,N,13701.426541372,E,5,02,99.90,110.832,M,37.566,M,55.3,3006*6F
[2021-02-22 16:08:27.974] $GNGGA,070827.40,3713.955031317,N,13701.426541319,E,5,02,99.90,110.825,M,37.566,M,55.4,3006*65
[2021-02-22 16:08:28.083] $GNGGA,070827.50,3713.955008683,N,13701.426565069,E,5,02,99.90,110.793,M,37.566,M,55.5,3006*67
[2021-02-22 16:08:28.177] $GNGGA,070827.60,3713.955009372,N,13701.426564456,E,5,02,99.90,110.787,M,37.566,M,55.6,3006*61
[2021-02-22 16:08:28.286] $GNGGA,070827.70,3713.954895248,N,13701.426705745,E,5,02,99.90,110.130,M,37.566,M,55.7,3006*6B
[2021-02-22 16:08:28.411] $GNGGA,070827.80,3713.954845528,N,13701.426768062,E,5,02,99.90,109.841,M,37.566,M,55.8,3006*69
[2021-02-22 16:08:28.474] $GNGGA,070827.90,3713.954803866,N,13701.426820209,E,5,02,99.90,109.593,M,37.566,M,55.9,3006*62
[2021-02-22 16:08:28.583] $GNGGA,070828.00,3713.954779361,N,13701.426850685,E,5,02,99.90,109.444,M,37.566,M,56.0,3006*6C
[2021-02-22 16:08:28.677] $GNGGA,070828.10,3713.954767884,N,13701.426867223,E,5,02,99.90,109.374,M,37.566,M,56.1,3006*6B
[2021-02-22 16:08:28.786] $GNGGA,070828.20,3713.954748119,N,13701.426893658,E,5,03,99.90,109.343,M,37.566,M,56.2,3006*6D
[2021-02-22 16:08:28.911] $GNGGA,070828.30,3713.954706839,N,13701.426894116,E,5,04,2.30,109.261,M,37.566,M,56.3,3006*58
[2021-02-22 16:08:28.974] $GNGGA,070828.40,3713.954760734,N,13701.426903488,E,5,04,2.30,109.245,M,37.566,M,56.4,3006*51
[2021-02-22 16:08:29.083] $GNGGA,070828.50,3713.954734713,N,13701.426909399,E,5,04,2.30,109.202,M,37.566,M,56.5,3006*5B
[2021-02-22 16:08:29.177] $GNGGA,070828.60,3713.954735099,N,13701.426917572,E,5,04,2.30,109.162,M,37.566,M,56.6,3006*56
[2021-02-22 16:08:29.286] $GNGGA,070828.70,3713.954723797,N,13701.426923614,E,5,04,2.30,109.131,M,37.566,M,56.7,3006*5A
[2021-02-22 16:08:29.411] $GNGGA,070828.80,3713.954736507,N,13701.426932023,E,5,04,2.30,109.105,M,37.566,M,56.8,3006*50
[2021-02-22 16:08:29.474] $GNGGA,070828.90,3713.954706351,N,13701.426934748,E,5,04,2.30,109.070,M,37.566,M,56.9,3006*59
[2021-02-22 16:08:29.583] $GNGGA,070829.00,3713.954743940,N,13701.426888999,E,5,04,2.30,108.823,M,37.566,M,57.0,3006*59
[2021-02-22 16:08:29.677] $GNGGA,070829.10,3713.954724275,N,13701.426890071,E,5,04,2.30,108.798,M,37.566,M,57.1,3006*5C
[2021-02-22 16:08:29.786] $GNGGA,070829.20,3713.954712513,N,13701.426890460,E,5,04,2.30,108.779,M,37.566,M,57.2,3006*55
[2021-02-22 16:08:29.911] $GNGGA,070829.30,3713.954698560,N,13701.426892896,E,5,04,2.30,108.762,M,37.566,M,57.3,3006*5F
[2021-02-22 16:08:29.974] $GNGGA,070829.40,3713.954671006,N,13701.426891009,E,5,04,2.30,108.742,M,37.566,M,57.4,3006*52
[2021-02-22 16:08:30.083] $GNGGA,070829.50,3713.954668415,N,13701.426893300,E,5,04,2.30,108.730,M,37.566,M,57.5,3006*51
[2021-02-22 16:08:30.192] $GNGGA,070829.60,3713.954652833,N,13701.426892840,E,5,04,2.30,108.719,M,37.566,M,57.6,3006*55
[2021-02-22 16:08:30.317] $GNGGA,070829.70,3713.954624638,N,13701.426888381,E,5,04,2.30,108.704,M,37.566,M,57.7,3006*50
[2021-02-22 16:08:30.380] $GNGGA,070829.80,3713.954607639,N,13701.426887428,E,5,04,2.30,108.690,M,37.566,M,57.8,3006*57
[2021-02-22 16:08:30.489] $GNGGA,070829.90,3713.954597498,N,13701.426887155,E,5,04,2.30,108.673,M,37.566,M,57.9,3006*56
[2021-02-22 16:08:30.583] $GNGGA,070830.00,3713.954589449,N,13701.426887432,E,5,04,2.30,108.660,M,37.566,M,58.0,3006*54
[2021-02-22 16:08:30.708] $GNGGA,070830.10,3713.954590289,N,13701.426888994,E,5,04,2.30,108.650,M,37.566,M,58.1,3006*5B
[2021-02-22 16:08:30.786] $GNGGA,070830.20,3713.954582338,N,13701.426888217,E,5,04,2.30,108.637,M,37.566,M,58.2,3006*52
[2021-02-22 16:08:30.880] $GNGGA,070830.30,3713.954569248,N,13701.426885318,E,5,04,2.30,108.623,M,37.566,M,58.3,3006*57
[2021-02-22 16:08:30.989] $GNGGA,070830.40,3713.954565875,N,13701.426886617,E,5,04,2.30,108.617,M,37.566,M,58.4,3006*51
[2021-02-22 16:08:31.114] $GNGGA,070830.50,3713.954560987,N,13701.426887281,E,5,04,2.30,108.606,M,37.566,M,58.5,3006*52
[2021-02-22 16:08:31.177] $GNGGA,070830.60,3713.954548566,N,13701.426885414,E,5,04,2.30,108.606,M,37.566,M,58.6,3006*53
[2021-02-22 16:08:31.286] $GNGGA,070830.70,3713.954527703,N,13701.426881098,E,5,04,2.30,108.595,M,37.566,M,58.7,3006*56
[2021-02-22 16:08:31.380] $GNGGA,070830.80,3713.954521225,N,13701.426880826,E,5,04,2.30,108.587,M,37.566,M,58.8,3006*5E
[2021-02-22 16:08:31.505] $GNGGA,070830.90,3713.954512968,N,13701.426880694,E,5,04,2.30,108.577,M,37.566,M,58.9,3006*54
[2021-02-22 16:08:31.583] $GNGGA,070831.00,3713.954506738,N,13701.426881437,E,5,04,2.30,108.567,M,37.566,M,59.0,3006*51
[2021-02-22 16:08:31.677] $GNGGA,070831.10,3713.954502497,N,13701.426881482,E,5,04,2.30,108.560,M,37.566,M,59.1,3006*5A
[2021-02-22 16:08:31.786] $GNGGA,070831.20,3713.954500934,N,13701.426882640,E,5,04,2.30,108.551,M,37.566,M,59.2,3006*51
[2021-02-22 16:08:31.880] $GNGGA,070831.30,3713.954497359,N,13701.426881329,E,5,04,2.30,108.549,M,37.566,M,59.3,3006*5F
[2021-02-22 16:08:32.005] $GNGGA,070831.40,3713.954493288,N,13701.426880157,E,5,04,2.30,108.548,M,37.566,M,59.4,3006*5D
[2021-02-22 16:08:32.083] $GNGGA,070831.50,3713.954489025,N,13701.426879801,E,5,04,2.30,108.546,M,37.566,M,59.5,3006*51
[2021-02-22 16:08:32.177] $GNGGA,070831.60,3713.954485689,N,13701.426878948,E,5,04,2.30,108.550,M,37.566,M,59.6,3006*57
[2021-02-22 16:08:32.286] $GNGGA,070831.70,3713.954480030,N,13701.426877833,E,5,04,2.30,108.549,M,37.566,M,59.7,3006*5C
[2021-02-22 16:08:32.380] $GNGGA,070831.80,3713.954476463,N,13701.426876595,E,5,04,2.30,108.553,M,37.566,M,59.8,3006*5C
[2021-02-22 16:08:32.505] $GNGGA,070831.90,3713.954474319,N,13701.426876026,E,5,04,2.30,108.549,M,37.566,M,59.9,3006*52
[2021-02-22 16:08:32.583] $GNGGA,070832.00,3713.954471717,N,13701.426874829,E,5,04,2.30,108.546,M,37.566,M,60.0,3006*5E
[2021-02-22 16:08:32.677] $GNGGA,070832.10,3713.954466863,N,13701.426873279,E,5,04,2.30,108.548,M,37.566,M,60.1,3006*52
[2021-02-22 16:08:32.786] $GNGGA,070832.20,3713.954462834,N,13701.426871096,E,5,04,2.30,108.548,M,37.566,M,60.2,3006*55
[2021-02-22 16:08:32.880] $GNGGA,070832.30,3713.954458901,N,13701.426869736,E,5,04,2.30,108.546,M,37.566,M,60.3,3006*51
[2021-02-22 16:08:33.020] $GNGGA,070832.40,3713.954454492,N,13701.426868054,E,5,04,2.30,108.546,M,37.566,M,60.4,3006*58
[2021-02-22 16:08:33.083] $GNGGA,070832.50,3713.954453118,N,13701.426866060,E,5,04,2.30,108.543,M,37.566,M,60.5,3006*54
[2021-02-22 16:08:33.177] $GNGGA,070832.60,3713.954452551,N,13701.426864408,E,5,04,2.30,108.541,M,37.566,M,60.6,3006*56
[2021-02-22 16:08:33.286] $GNGGA,070832.70,3713.954450989,N,13701.426862506,E,5,04,2.30,108.536,M,37.566,M,60.7,3006*54
[2021-02-22 16:08:33.380] $GNGGA,070832.80,3713.954446689,N,13701.426863233,E,5,06,1.79,108.545,M,37.566,M,60.8,3006*54
[2021-02-22 16:08:33.520] $GNGGA,070832.90,3713.954466814,N,13701.426862723,E,5,11,1.00,108.496,M,37.566,M,60.9,3006*5E
[2021-02-22 16:08:33.583] $GNGGA,070833.00,3713.954476291,N,13701.426870132,E,5,13,0.98,108.487,M,37.566,M,61.0,3006*5F
[2021-02-22 16:08:33.677] $GNGGA,070833.10,3713.954488916,N,13701.426879671,E,5,13,0.98,108.479,M,37.566,M,61.1,3006*52
[2021-02-22 16:08:33.786] $GNGGA,070833.20,3713.954499095,N,13701.426887341,E,5,13,0.98,108.472,M,37.566,M,61.2,3006*5C
[2021-02-22 16:08:33.880] $GNGGA,070833.30,3713.954505332,N,13701.426904417,E,5,13,0.98,108.466,M,37.566,M,61.3,3006*5D
[2021-02-22 16:08:34.005] $GNGGA,070833.40,3713.954513635,N,13701.426922444,E,5,13,0.98,108.448,M,37.566,M,61.4,3006*56
[2021-02-22 16:08:34.083] $GNGGA,070833.50,3713.954516419,N,13701.426941154,E,5,13,0.98,108.437,M,37.566,M,61.5,3006*56
[2021-02-22 16:08:34.177] $GNGGA,070833.60,3713.954525043,N,13701.426957891,E,5,13,0.98,108.426,M,37.566,M,61.6,3006*5A
[2021-02-22 16:08:34.286] $GNGGA,070833.70,3713.954527063,N,13701.426969730,E,5,13,0.98,108.423,M,37.566,M,61.7,3006*56
[2021-02-22 16:08:34.380] $GNGGA,070833.80,3713.954534165,N,13701.426981093,E,5,13,0.98,108.415,M,37.566,M,61.8,3006*5E
[2021-02-22 16:08:34.520] $GNGGA,070833.90,3713.954538717,N,13701.426991037,E,5,13,0.98,108.413,M,37.566,M,61.9,3006*58
[2021-02-22 16:08:34.583] $GNGGA,070834.00,3713.954544883,N,13701.426993110,E,5,13,0.98,108.411,M,37.566,M,62.0,3006*51
[2021-02-22 16:08:34.677] $GNGGA,070834.10,3713.954539990,N,13701.426994195,E,5,13,0.98,108.411,M,37.566,M,62.1,3006*52
[2021-02-22 16:08:34.786] $GNGGA,070834.20,3713.954543846,N,13701.427002211,E,5,13,0.98,108.409,M,37.566,M,62.2,3006*54
[2021-02-22 16:08:34.911] $GNGGA,070834.30,3713.954543447,N,13701.427004847,E,5,13,0.98,108.406,M,37.566,M,62.3,3006*59
[2021-02-22 16:08:34.973] $GNGGA,070834.40,3713.954544941,N,13701.427013343,E,5,13,0.98,108.405,M,37.566,M,62.4,3006*5F
[2021-02-22 16:08:35.083] $GNGGA,070834.50,3713.954539930,N,13701.427015610,E,5,13,0.98,108.402,M,37.566,M,62.5,3006*51
[2021-02-22 16:08:35.176] $GNGGA,070834.60,3713.954541659,N,13701.427024308,E,5,13,0.98,108.384,M,37.566,M,62.6,3006*59
[2021-02-22 16:08:35.317] $GNGGA,070834.70,3713.954541354,N,13701.427038054,E,5,12,1.05,108.374,M,37.566,M,62.7,3006*5D
[2021-02-22 16:08:35.380] $GNGGA,070834.80,3713.954546545,N,13701.427047596,E,5,12,1.05,108.336,M,37.566,M,62.8,3006*59
[2021-02-22 16:08:35.489] $GNGGA,070834.90,3713.954548849,N,13701.427058075,E,5,12,1.05,108.300,M,37.566,M,62.9,3006*55
[2021-02-22 16:08:35.583] $GNGGA,070835.00,3713.954552187,N,13701.427069218,E,5,12,1.05,108.254,M,37.566,M,63.0,3006*5E
[2021-02-22 16:08:35.708] $GNGGA,070835.10,3713.954551912,N,13701.427078534,E,5,12,1.05,108.206,M,37.566,M,63.1,3006*57
[2021-02-22 16:08:35.786] $GNGGA,070835.20,3713.954551336,N,13701.427084828,E,5,12,1.05,108.196,M,37.566,M,63.2,3006*52
[2021-02-22 16:08:35.880] $GNGGA,070835.30,3713.954550433,N,13701.427090740,E,5,12,1.05,108.170,M,37.566,M,63.3,3006*5D
[2021-02-22 16:08:35.989] $GNGGA,070835.40,3713.954549416,N,13701.427095610,E,5,12,1.05,108.164,M,37.566,M,63.4,3006*56
[2021-02-22 16:08:36.114] $GNGGA,070835.50,3713.954547749,N,13701.427101655,E,5,12,1.05,108.135,M,37.566,M,63.5,3006*58
[2021-02-22 16:08:36.176] $GNGGA,070835.60,3713.954545268,N,13701.427105543,E,5,12,1.05,108.124,M,37.566,M,63.6,3006*5C
[2021-02-22 16:08:36.286] $GNGGA,070835.70,3713.954546094,N,13701.427109715,E,5,13,0.98,108.102,M,37.566,M,63.7,3006*53
[2021-02-22 16:08:36.380] $GNGGA,070835.80,3713.954546740,N,13701.427113327,E,5,13,0.98,108.093,M,37.566,M,63.8,3006*5A
[2021-02-22 16:08:36.489] $GNGGA,070835.90,3713.954546652,N,13701.427116349,E,5,13,0.98,108.070,M,37.566,M,63.9,3006*58
[2021-02-22 16:08:36.614] $GNGGA,070836.00,3713.954548604,N,13701.427118056,E,5,13,0.98,108.063,M,37.566,M,64.0,3006*50
[2021-02-22 16:08:36.676] $GNGGA,070836.10,3713.954549425,N,13701.427119759,E,5,13,0.98,108.057,M,37.566,M,64.1,3006*5E
[2021-02-22 16:08:36.786] $GNGGA,070836.20,3713.954552532,N,13701.427121114,E,5,13,0.98,108.051,M,37.566,M,64.2,3006*51
[2021-02-22 16:08:36.879] $GNGGA,070836.30,3713.954555851,N,13701.427122989,E,5,13,0.98,108.047,M,37.566,M,64.3,3006*56
[2021-02-22 16:08:36.989] $GNGGA,070836.40,3713.954557138,N,13701.427124068,E,5,13,0.98,108.046,M,37.566,M,64.4,3006*53
[2021-02-22 16:08:37.114] $GNGGA,070836.50,3713.954560633,N,13701.427125823,E,5,13,0.98,108.040,M,37.566,M,64.5,3006*5B
[2021-02-22 16:08:37.176] $GNGGA,070836.60,3713.954561175,N,13701.427127433,E,5,13,0.98,108.040,M,37.566,M,64.6,3006*50
[2021-02-22 16:08:37.286] $GNGGA,070836.70,3713.954560241,N,13701.427130733,E,5,13,0.98,108.041,M,37.566,M,64.7,3006*51
[2021-02-22 16:08:37.379] $GNGGA,070836.80,3713.954558569,N,13701.427132024,E,5,13,0.98,108.043,M,37.566,M,64.8,3006*56
[2021-02-22 16:08:37.489] $GNGGA,070836.90,3713.954556949,N,13701.427133117,E,5,13,0.98,108.050,M,37.566,M,64.9,3006*54
[2021-02-22 16:08:37.614] $GNGGA,070837.00,3713.954551265,N,13701.427132191,E,5,13,0.98,108.053,M,37.566,M,65.0,3006*5A
[2021-02-22 16:08:37.676] $GNGGA,070837.10,3713.954543105,N,13701.427141241,E,5,12,1.05,108.083,M,37.566,M,65.1,3006*5F
[2021-02-22 16:08:37.786] $GNGGA,070837.20,3713.954536518,N,13701.427142659,E,5,12,1.05,108.090,M,37.566,M,65.2,3006*59
[2021-02-22 16:08:37.879] $GNGGA,070837.30,3713.954530277,N,13701.427144213,E,5,13,0.98,108.091,M,37.566,M,65.3,3006*58
[2021-02-22 16:08:37.989] $GNGGA,070837.40,3713.954523130,N,13701.427145176,E,5,13,0.98,108.093,M,37.566,M,65.4,3006*59
[2021-02-22 16:08:38.114] $GNGGA,070837.50,3713.954517502,N,13701.427145429,E,5,13,0.98,108.091,M,37.566,M,65.5,3006*56
[2021-02-22 16:08:38.176] $GNGGA,070837.60,3713.954511434,N,13701.427146442,E,5,13,0.98,108.094,M,37.566,M,65.6,3006*5F
[2021-02-22 16:08:38.286] $GNGGA,070837.70,3713.954502666,N,13701.427154619,E,5,12,1.05,108.129,M,37.566,M,65.7,3006*54
[2021-02-22 16:08:38.379] $GNGGA,070837.80,3713.954497268,N,13701.427155819,E,5,12,1.05,108.134,M,37.566,M,65.8,3006*50
[2021-02-22 16:08:38.489] $GNGGA,070837.90,3713.954492474,N,13701.427156628,E,5,12,1.05,108.141,M,37.566,M,65.9,3006*53
[2021-02-22 16:08:38.614] $GNGGA,070838.00,3713.954490336,N,13701.427157292,E,5,12,1.05,108.146,M,37.566,M,66.0,3006*5F
[2021-02-22 16:08:38.676] $GNGGA,070838.10,3713.954484953,N,13701.427158514,E,5,12,1.05,108.147,M,37.566,M,66.1,3006*54
[2021-02-22 16:08:38.786] $GNGGA,070838.20,3713.954481595,N,13701.427159599,E,5,12,1.05,108.153,M,37.566,M,66.2,3006*56
[2021-02-22 16:08:38.879] $GNGGA,070838.30,3713.954477392,N,13701.427160113,E,5,13,0.98,108.159,M,37.566,M,66.3,3006*5C
[2021-02-22 16:08:39.004] $GNGGA,070838.40,3713.954474653,N,13701.427160595,E,5,13,0.98,108.165,M,37.566,M,66.4,3006*52
[2021-02-22 16:08:39.082] $GNGGA,070838.50,3713.954469925,N,13701.427160380,E,5,13,0.98,108.168,M,37.566,M,66.5,3006*5F
[2021-02-22 16:08:39.176] $GNGGA,070838.60,3713.954465873,N,13701.427160111,E,5,13,0.98,108.173,M,37.566,M,66.6,3006*51
[2021-02-22 16:08:39.286] $GNGGA,070838.70,3713.954463804,N,13701.427160137,E,5,13,0.98,108.170,M,37.566,M,66.7,3006*50
[2021-02-22 16:08:39.411] $GNGGA,070838.80,3713.954462403,N,13701.427161276,E,5,13,0.98,108.168,M,37.566,M,66.8,3006*54
[2021-02-22 16:08:39.489] $GNGGA,070838.90,3713.954459817,N,13701.427162566,E,5,13,0.98,108.173,M,37.566,M,66.9,3006*5A
[2021-02-22 16:08:39.582] $GNGGA,070839.00,3713.954458903,N,13701.427162737,E,5,13,0.98,108.172,M,37.566,M,67.0,3006*58
[2021-02-22 16:08:39.676] $GNGGA,070839.10,3713.954458415,N,13701.427163927,E,5,13,0.98,108.170,M,37.566,M,67.1,3006*5E
[2021-02-22 16:08:39.817] $GNGGA,070839.20,3713.954453635,N,13701.427171770,E,5,12,1.05,108.207,M,37.566,M,67.2,3006*5D
[2021-02-22 16:08:39.879] $GNGGA,070839.30,3713.954453784,N,13701.427172190,E,5,13,0.98,108.207,M,37.566,M,67.3,3006*59
[2021-02-22 16:08:39.989] $GNGGA,070839.40,3713.954453422,N,13701.427172547,E,5,13,0.98,108.207,M,37.566,M,67.4,3006*58
[2021-02-22 16:08:40.082] $GNGGA,070839.50,3713.954455483,N,13701.427170972,E,5,13,0.98,108.207,M,37.566,M,67.5,3006*5D
[2021-02-22 16:08:40.207] $GNGGA,070839.60,3713.954458027,N,13701.427170421,E,5,13,0.98,108.207,M,37.566,M,67.6,3006*51
[2021-02-22 16:08:40.286] $GNGGA,070839.70,3713.954461670,N,13701.427169148,E,5,13,0.98,108.204,M,37.566,M,67.7,3006*5E
[2021-02-22 16:08:40.379] $GNGGA,070839.80,3713.954465124,N,13701.427167946,E,5,13,0.98,108.204,M,37.566,M,67.8,3006*54
[2021-02-22 16:08:40.489] $GNGGA,070839.90,3713.954467205,N,13701.427168286,E,5,13,0.98,108.203,M,37.566,M,67.9,3006*59
[2021-02-22 16:08:40.582] $GNGGA,070840.00,3713.954470036,N,13701.427168604,E,5,13,0.98,108.207,M,37.566,M,68.0,3006*56
[2021-02-22 16:08:40.707] $GNGGA,070840.10,3713.954472411,N,13701.427169161,E,5,13,0.98,108.206,M,37.566,M,68.1,3006*51
[2021-02-22 16:08:40.785] $GNGGA,070840.20,3713.954473929,N,13701.427170316,E,5,13,0.98,108.207,M,37.566,M,68.2,3006*5D
[2021-02-22 16:08:40.879] $GNGGA,070840.30,3713.954474424,N,13701.427172117,E,5,13,0.98,108.208,M,37.566,M,68.3,3006*54
[2021-02-22 16:08:40.989] $GNGGA,070840.40,3713.954475173,N,13701.427172511,E,5,13,0.98,108.206,M,37.566,M,68.4,3006*5E
[2021-02-22 16:08:41.082] $GNGGA,070840.50,3713.954475689,N,13701.427173069,E,5,13,0.98,108.211,M,37.566,M,68.5,3006*51
[2021-02-22 16:08:41.207] $GNGGA,070840.60,3713.954476260,N,13701.427174378,E,5,13,0.98,108.211,M,37.566,M,68.6,3006*55
[2021-02-22 16:08:41.285] $GNGGA,070840.70,3713.954476054,N,13701.427175617,E,5,13,0.98,108.212,M,37.566,M,68.7,3006*5E
[2021-02-22 16:08:41.379] $GNGGA,070840.80,3713.954477038,N,13701.427176974,E,5,13,0.98,108.221,M,37.566,M,68.8,3006*5C
[2021-02-22 16:08:41.489] $GNGGA,070840.90,3713.954476058,N,13701.427179089,E,5,13,0.98,108.230,M,37.566,M,68.9,3006*5F
[2021-02-22 16:08:41.582] $GNGGA,070841.00,3713.954476663,N,13701.427179432,E,5,13,0.98,108.233,M,37.566,M,69.0,3006*56
[2021-02-22 16:08:41.707] $GNGGA,070841.10,3713.954475472,N,13701.427180935,E,5,13,0.98,108.243,M,37.566,M,69.1,3006*5C
[2021-02-22 16:08:41.785] $GNGGA,070841.20,3713.954475543,N,13701.427180448,E,5,13,0.98,108.246,M,37.566,M,69.2,3006*5D
[2021-02-22 16:08:41.879] $GNGGA,070841.30,3713.954475172,N,13701.427181556,E,5,13,0.98,108.258,M,37.566,M,69.3,3006*5B
[2021-02-22 16:08:41.988] $GNGGA,070841.40,3713.954475368,N,13701.427181957,E,5,13,0.98,108.260,M,37.566,M,69.4,3006*54
[2021-02-22 16:08:42.082] $GNGGA,070841.50,3713.954473938,N,13701.427182387,E,5,13,0.98,108.264,M,37.566,M,69.5,3006*5D
[2021-02-22 16:08:42.207] $GNGGA,070841.60,3713.954472738,N,13701.427183312,E,5,13,0.98,108.273,M,37.566,M,69.6,3006*59
[2021-02-22 16:08:42.285] $GNGGA,070841.70,3713.954471960,N,13701.427183601,E,5,13,0.98,108.272,M,37.566,M,69.7,3006*5F
[2021-02-22 16:08:42.379] $GNGGA,070841.80,3713.954490067,N,13701.427163843,E,5,13,0.98,108.181,M,37.566,M,69.8,3006*57
[2021-02-22 16:08:42.488] $GNGGA,070841.90,3713.954488981,N,13701.427164730,E,5,13,0.98,108.195,M,37.566,M,69.9,3006*56
[2021-02-22 16:08:42.582] $GNGGA,070842.00,3713.954503208,N,13701.427146987,E,5,13,0.98,108.112,M,37.566,M,70.0,3006*58
[2021-02-22 16:08:42.707] $GNGGA,070842.10,3713.954516499,N,13701.427131704,E,5,13,0.98,108.044,M,37.566,M,70.1,3006*55
[2021-02-22 16:08:42.785] $GNGGA,070842.20,3713.954531863,N,13701.427112365,E,5,13,0.98,107.972,M,37.566,M,70.2,3006*58
[2021-02-22 16:08:42.879] $GNGGA,070842.30,3713.954547755,N,13701.427094817,E,5,13,0.98,107.893,M,37.566,M,70.3,3006*5C
[2021-02-22 16:08:42.988] $GNGGA,070842.40,3713.954562302,N,13701.427078509,E,5,14,0.83,107.831,M,37.566,M,70.4,3006*58
[2021-02-22 16:08:43.082] $GNGGA,070842.50,3713.954575333,N,13701.427061314,E,5,13,0.98,107.756,M,37.566,M,70.5,3006*5D
[2021-02-22 16:08:43.207] $GNGGA,070842.60,3713.954590091,N,13701.427043663,E,5,14,0.83,107.692,M,37.566,M,70.6,3006*5C
[2021-02-22 16:08:43.285] $GNGGA,070842.70,3713.954604369,N,13701.427025839,E,5,13,0.98,107.613,M,37.566,M,70.7,3006*53
[2021-02-22 16:08:43.379] $GNGGA,070842.80,3713.954602158,N,13701.427023216,E,5,13,0.98,107.625,M,37.566,M,70.8,3006*51
[2021-02-22 16:08:43.488] $GNGGA,070842.90,3713.954615927,N,13701.427007131,E,5,13,0.98,107.547,M,37.566,M,70.9,3006*50
[2021-02-22 16:08:43.613] $GNGGA,070843.00,3713.954612696,N,13701.427005999,E,5,13,0.98,107.555,M,37.566,M,71.0,3006*59
[2021-02-22 16:08:43.676] $GNGGA,070843.10,3713.954609413,N,13701.427004229,E,5,13,0.98,107.557,M,37.566,M,71.1,3006*5F
[2021-02-22 16:08:43.785] $GNGGA,070843.20,3713.954605912,N,13701.427002984,E,5,13,0.98,107.568,M,37.566,M,71.2,3006*59
[2021-02-22 16:08:43.879] $GNGGA,070843.30,3713.954603670,N,13701.427001998,E,5,13,0.98,107.570,M,37.566,M,71.3,3006*53
[2021-02-22 16:08:44.004] $GNGGA,070843.40,3713.954601952,N,13701.427002151,E,5,13,0.98,107.581,M,37.566,M,71.4,3006*5E
[2021-02-22 16:08:44.082] $GNGGA,070843.50,3713.954601179,N,13701.427002297,E,5,13,0.98,107.583,M,37.566,M,71.5,3006*54
[2021-02-22 16:08:44.176] $GNGGA,070843.60,3713.954600991,N,13701.427002079,E,5,13,0.98,107.598,M,37.566,M,71.6,3006*53
[2021-02-22 16:08:44.285] $GNGGA,070843.70,3713.954601542,N,13701.427002137,E,5,13,0.98,107.613,M,37.566,M,71.7,3006*5B
[2021-02-22 16:08:44.410] $GNGGA,070843.80,3713.954600434,N,13701.427002168,E,5,13,0.98,107.614,M,37.566,M,71.8,3006*57
[2021-02-22 16:08:44.473] $GNGGA,070843.90,3713.954598638,N,13701.427003262,E,5,13,0.98,107.626,M,37.566,M,71.9,3006*52
[2021-02-22 16:08:44.582] $GNGGA,070844.00,3713.954596873,N,13701.427003965,E,5,13,0.98,107.640,M,37.566,M,72.0,3006*55
[2021-02-22 16:08:44.676] $GNGGA,070844.10,3713.954596338,N,13701.427003965,E,5,13,0.98,107.652,M,37.566,M,72.1,3006*52
[2021-02-22 16:08:44.832] $GNGGA,070844.20,3713.954594914,N,13701.427004378,E,5,13,0.98,107.666,M,37.566,M,72.2,3006*52
[2021-02-22 16:08:44.895] $GNGGA,070844.30,3713.954595773,N,13701.427004008,E,5,13,0.98,107.678,M,37.566,M,72.3,3006*57
[2021-02-22 16:08:44.988] $GNGGA,070844.40,3713.954594471,N,13701.427004155,E,5,14,0.83,107.689,M,37.566,M,72.4,3006*5D
[2021-02-22 16:08:45.082] $GNGGA,070844.50,3713.954604395,N,13701.426993282,E,5,14,0.83,107.638,M,37.566,M,72.5,3006*5F
[2021-02-22 16:08:45.176] $GNGGA,070844.60,3713.954611107,N,13701.426985073,E,5,14,0.83,107.607,M,37.566,M,72.6,3006*55
[2021-02-22 16:08:45.316] $GNGGA,070844.70,3713.954620148,N,13701.426975114,E,5,14,0.83,107.566,M,37.566,M,72.7,3006*57
[2021-02-22 16:08:45.379] $GNGGA,070844.80,3713.954625847,N,13701.426969715,E,5,14,0.83,107.536,M,37.566,M,72.8,3006*5B
[2021-02-22 16:08:45.488] $GNGGA,070844.90,3713.954629368,N,13701.426964311,E,5,14,0.83,107.510,M,37.566,M,72.9,3006*58
[2021-02-22 16:08:45.582] $GNGGA,070845.00,3713.954635869,N,13701.426959201,E,5,14,0.83,107.484,M,37.566,M,73.0,3006*5D
[2021-02-22 16:08:45.691] $GNGGA,070845.10,3713.954630907,N,13701.426962452,E,5,13,0.98,107.500,M,37.566,M,73.1,3006*59
[2021-02-22 16:08:45.801] $GNGGA,070845.20,3713.954627494,N,13701.426963280,E,5,13,0.98,107.513,M,37.566,M,73.2,3006*52
[2021-02-22 16:08:45.879] $GNGGA,070845.30,3713.954621247,N,13701.426964859,E,5,13,0.98,107.527,M,37.566,M,73.3,3006*52
[2021-02-22 16:08:45.988] $GNGGA,070845.40,3713.954616940,N,13701.426965687,E,5,13,0.98,107.543,M,37.566,M,73.4,3006*54
[2021-02-22 16:08:46.082] $GNGGA,070845.50,3713.954615580,N,13701.426964790,E,5,13,0.98,107.537,M,37.566,M,73.5,3006*52
[2021-02-22 16:08:46.191] $GNGGA,070845.60,3713.954622501,N,13701.426955705,E,5,13,0.98,107.505,M,37.566,M,73.6,3006*50
[2021-02-22 16:08:46.301] $GNGGA,070845.70,3713.954628860,N,13701.426949542,E,5,13,0.98,107.469,M,37.566,M,73.7,3006*57
[2021-02-22 16:08:46.379] $GNGGA,070845.80,3713.954635616,N,13701.426943295,E,5,13,0.98,107.435,M,37.566,M,73.8,3006*5A
[2021-02-22 16:08:46.488] $GNGGA,070845.90,3713.954642133,N,13701.426935093,E,5,13,0.98,107.396,M,37.566,M,73.9,3006*51
[2021-02-22 16:08:46.582] $GNGGA,070846.00,3713.954648981,N,13701.426929047,E,5,13,0.98,107.361,M,37.566,M,74.0,3006*52
[2021-02-22 16:08:46.676] $GNGGA,070846.10,3713.954655280,N,13701.426921503,E,5,13,0.98,107.317,M,37.566,M,74.1,3006*58
[2021-02-22 16:08:46.801] $GNGGA,070846.20,3713.954662081,N,13701.426913847,E,5,13,0.98,107.289,M,37.566,M,74.2,3006*55
[2021-02-22 16:08:46.879] $GNGGA,070846.30,3713.954661561,N,13701.426914521,E,5,13,0.98,107.289,M,37.566,M,74.3,3006*57
[2021-02-22 16:08:46.988] $GNGGA,070846.40,3713.954662070,N,13701.426916211,E,5,13,0.98,107.289,M,37.566,M,74.4,3006*57
[2021-02-22 16:08:47.082] $GNGGA,070846.50,3713.954660981,N,13701.426917899,E,5,13,0.98,107.287,M,37.566,M,74.5,3006*57
[2021-02-22 16:08:47.176] $GNGGA,070846.60,3713.954659834,N,13701.426918611,E,5,13,0.98,107.287,M,37.566,M,74.6,3006*53
[2021-02-22 16:08:47.301] $GNGGA,070846.70,3713.954659934,N,13701.426919002,E,5,13,0.98,107.278,M,37.566,M,74.7,3006*57
[2021-02-22 16:08:47.379] $GNGGA,070846.80,3713.954660124,N,13701.426919346,E,5,13,0.98,107.275,M,37.566,M,74.8,3006*5A
[2021-02-22 16:08:47.488] $GNGGA,070846.90,3713.954660517,N,13701.426920469,E,5,13,0.98,107.273,M,37.566,M,74.9,3006*58
[2021-02-22 16:08:47.582] $GNGGA,070847.00,3713.954659246,N,13701.426922116,E,5,13,0.98,107.271,M,37.566,M,75.0,3006*5C
[2021-02-22 16:08:47.707] $GNGGA,070847.10,3713.954660371,N,13701.426923282,E,5,13,0.98,107.266,M,37.566,M,75.1,3006*5A
[2021-02-22 16:08:47.785] $GNGGA,070847.20,3713.954660052,N,13701.426923975,E,5,13,0.98,107.266,M,37.566,M,75.2,3006*5B
[2021-02-22 16:08:47.879] $GNGGA,070847.30,3713.954660162,N,13701.426924067,E,5,13,0.98,107.262,M,37.566,M,75.3,3006*50
[2021-02-22 16:08:47.988] $GNGGA,070847.40,3713.954658891,N,13701.426924608,E,5,13,0.98,107.263,M,37.566,M,75.4,3006*50
[2021-02-22 16:08:48.113] $GNGGA,070847.50,3713.954658497,N,13701.426925429,E,5,13,0.98,107.256,M,37.566,M,75.5,3006*5C
[2021-02-22 16:08:48.176] $GNGGA,070847.60,3713.954658651,N,13701.426926781,E,5,13,0.98,107.255,M,37.566,M,75.6,3006*55
[2021-02-22 16:08:48.285] $GNGGA,070847.70,3713.954657624,N,13701.426928159,E,5,13,0.98,107.248,M,37.566,M,75.7,3006*59
[2021-02-22 16:08:48.379] $GNGGA,070847.80,3713.954654935,N,13701.426926889,E,5,13,0.98,107.243,M,37.566,M,75.8,3006*54
[2021-02-22 16:08:48.504] $GNGGA,070847.90,3713.954653213,N,13701.426924325,E,5,13,0.98,107.229,M,37.566,M,75.9,3006*5F
[2021-02-22 16:08:48.582] $GNGGA,070848.00,3713.954648825,N,13701.426924542,E,5,13,0.98,107.226,M,37.566,M,76.0,3006*5E
[2021-02-22 16:08:48.676] $GNGGA,070848.10,3713.954645093,N,13701.426922385,E,5,13,0.98,107.210,M,37.566,M,76.1,3006*58
[2021-02-22 16:08:48.785] $GNGGA,070848.20,3713.954651768,N,13701.426913378,E,5,13,0.98,107.172,M,37.566,M,76.2,3006*59
[2021-02-22 16:08:48.910] $GNGGA,070848.30,3713.954657936,N,13701.426905137,E,5,13,0.98,107.127,M,37.566,M,76.3,3006*54
[2021-02-22 16:08:48.972] $GNGGA,070848.40,3713.954663342,N,13701.426896089,E,5,13,0.98,107.089,M,37.566,M,76.4,3006*50
[2021-02-22 16:08:49.082] $GNGGA,070848.50,3713.954663886,N,13701.426893473,E,5,13,0.98,107.079,M,37.566,M,76.5,3006*58
[2021-02-22 16:08:49.176] $GNGGA,070848.60,3713.954661925,N,13701.426894211,E,5,14,0.83,107.084,M,37.566,M,76.6,3006*58
[2021-02-22 16:08:49.285] $GNGGA,070848.70,3713.954661511,N,13701.426891798,E,5,14,0.83,107.071,M,37.566,M,76.7,3006*58
[2021-02-22 16:08:49.410] $GNGGA,070848.80,3713.954661532,N,13701.426889225,E,5,14,0.83,107.065,M,37.566,M,76.8,3006*56
[2021-02-22 16:08:49.472] $GNGGA,070848.90,3713.954662276,N,13701.426886620,E,5,14,0.83,107.055,M,37.566,M,76.9,3006*5F
[2021-02-22 16:08:49.582] $GNGGA,070849.00,3713.954661890,N,13701.426884356,E,5,14,0.83,107.053,M,37.566,M,77.0,3006*5E
[2021-02-22 16:08:49.675] $GNGGA,070849.10,3713.954670224,N,13701.426871302,E,5,14,0.83,106.998,M,37.566,M,77.1,3006*5F
[2021-02-22 16:08:49.785] $GNGGA,070849.20,3713.954667973,N,13701.426868456,E,5,14,0.83,106.997,M,37.566,M,77.2,3006*51
[2021-02-22 16:08:49.910] $GNGGA,070849.30,3713.954666896,N,13701.426865573,E,5,14,0.83,106.984,M,37.566,M,77.3,3006*53
[2021-02-22 16:08:49.972] $GNGGA,070849.40,3713.954664943,N,13701.426863951,E,5,14,0.83,106.982,M,37.566,M,77.4,3006*54
[2021-02-22 16:08:50.082] $GNGGA,070849.50,3713.954672360,N,13701.426851589,E,5,14,0.83,106.929,M,37.566,M,77.5,3006*51
[2021-02-22 16:08:50.175] $GNGGA,070849.60,3713.954678192,N,13701.426840857,E,5,14,0.83,106.879,M,37.566,M,77.6,3006*5E
[2021-02-22 16:08:50.285] $GNGGA,070849.70,3713.954677626,N,13701.426837208,E,5,14,0.83,106.868,M,37.566,M,77.7,3006*59
[2021-02-22 16:08:50.410] $GNGGA,070849.80,3713.954676464,N,13701.426833440,E,5,14,0.83,106.860,M,37.566,M,77.8,3006*5A
[2021-02-22 16:08:50.472] $GNGGA,070849.90,3713.954683253,N,13701.426821155,E,5,14,0.83,106.807,M,37.566,M,77.9,3006*51
[2021-02-22 16:08:50.582] $GNGGA,070850.00,3713.954692788,N,13701.426808578,E,5,14,0.83,106.752,M,37.566,M,78.0,3006*5A
[2021-02-22 16:08:50.675] $GNGGA,070850.10,3713.954703815,N,13701.426796005,E,5,14,0.83,106.702,M,37.566,M,78.1,3006*5A
[2021-02-22 16:08:50.785] $GNGGA,070850.20,3713.954714016,N,13701.426782770,E,5,14,0.83,106.644,M,37.566,M,78.2,3006*54
[2021-02-22 16:08:50.910] $GNGGA,070850.30,3713.954714515,N,13701.426782175,E,5,14,0.83,106.650,M,37.566,M,78.3,3006*54
[2021-02-22 16:08:50.972] $GNGGA,070850.40,3713.954716202,N,13701.426780874,E,5,14,0.83,106.647,M,37.566,M,78.4,3006*5B
[2021-02-22 16:08:51.082] $GNGGA,070850.50,3713.954715636,N,13701.426779081,E,5,14,0.83,106.648,M,37.566,M,78.5,3006*50
[2021-02-22 16:08:51.175] $GNGGA,070850.60,3713.954715344,N,13701.426778239,E,5,14,0.83,106.651,M,37.566,M,78.6,3006*58
[2021-02-22 16:08:51.285] $GNGGA,070850.70,3713.954715369,N,13701.426778937,E,5,14,0.83,106.655,M,37.566,M,78.7,3006*56
[2021-02-22 16:08:51.410] $GNGGA,070850.80,3713.954715351,N,13701.426775851,E,5,14,0.83,106.646,M,37.566,M,78.8,3006*53
[2021-02-22 16:08:51.472] $GNGGA,070850.90,3713.954716521,N,13701.426773300,E,5,14,0.83,106.641,M,37.566,M,78.9,3006*5F
[2021-02-22 16:08:51.582] $GNGGA,070851.00,3713.954716790,N,13701.426771131,E,5,14,0.83,106.638,M,37.566,M,79.0,3006*5B
[2021-02-22 16:08:51.675] $GNGGA,070851.10,3713.954717233,N,13701.426765749,E,5,14,0.83,106.628,M,37.566,M,79.1,3006*5B
[2021-02-22 16:08:51.785] $GNGGA,070851.20,3713.954718827,N,13701.426762101,E,5,14,0.83,106.622,M,37.566,M,79.2,3006*5C
[2021-02-22 16:08:51.910] $GNGGA,070851.30,3713.954720035,N,13701.426758080,E,5,14,0.83,106.616,M,37.566,M,79.3,3006*5A
[2021-02-22 16:08:51.988] $GNGGA,070851.40,3713.954721026,N,13701.426754305,E,5,14,0.83,106.607,M,37.566,M,79.4,3006*5B
[2021-02-22 16:08:52.082] $GNGGA,070851.50,3713.954722422,N,13701.426751299,E,5,14,0.83,106.598,M,37.566,M,79.5,3006*5C
[2021-02-22 16:08:52.191] $GNGGA,070851.60,3713.954722252,N,13701.426749857,E,5,13,0.98,106.585,M,37.566,M,79.6,3006*5D
[2021-02-22 16:08:52.300] $GNGGA,070851.70,3713.954721935,N,13701.426747664,E,5,13,0.98,106.577,M,37.566,M,79.7,3006*59
[2021-02-22 16:08:52.378] $GNGGA,070851.80,3713.954720951,N,13701.426747570,E,5,13,0.98,106.567,M,37.566,M,79.8,3006*5D
[2021-02-22 16:08:52.488] $GNGGA,070851.90,3713.954721044,N,13701.426747245,E,5,13,0.98,106.560,M,37.566,M,79.9,3006*57
[2021-02-22 16:08:52.582] $GNGGA,070852.00,3713.954720397,N,13701.426745079,E,5,13,0.98,106.548,M,37.566,M,80.0,3006*5B
[2021-02-22 16:08:52.722] $GNGGA,070852.10,3713.954720518,N,13701.426742332,E,5,13,0.98,106.538,M,37.566,M,80.1,3006*56
[2021-02-22 16:08:52.785] $GNGGA,070852.20,3713.954720365,N,13701.426739311,E,5,13,0.98,106.529,M,37.566,M,80.2,3006*57
[2021-02-22 16:08:52.878] $GNGGA,070852.30,3713.954722129,N,13701.426736002,E,5,13,0.98,106.519,M,37.566,M,80.3,3006*52
[2021-02-22 16:08:52.988] $GNGGA,070852.40,3713.954723804,N,13701.426733754,E,5,13,0.98,106.509,M,37.566,M,80.4,3006*55
[2021-02-22 16:08:53.113] $GNGGA,070852.50,3713.954725470,N,13701.426730230,E,5,13,0.98,106.500,M,37.566,M,80.5,3006*51
[2021-02-22 16:08:53.175] $GNGGA,070852.60,3713.954726468,N,13701.426726419,E,5,13,0.98,106.488,M,37.566,M,80.6,3006*50
[2021-02-22 16:08:53.285] $GNGGA,070852.70,3713.954727487,N,13701.426721777,E,5,13,0.98,106.480,M,37.566,M,80.7,3006*54
[2021-02-22 16:08:53.378] $GNGGA,070852.80,3713.954729515,N,13701.426718660,E,5,14,0.83,106.474,M,37.566,M,80.8,3006*5B
[2021-02-22 16:08:53.503] $GNGGA,070852.90,3713.954731925,N,13701.426714391,E,5,13,0.98,106.463,M,37.566,M,80.9,3006*51
[2021-02-22 16:08:53.581] $GNGGA,070853.00,3713.954734450,N,13701.426711047,E,5,13,0.98,106.455,M,37.566,M,81.0,3006*53
[2021-02-22 16:08:53.675] $GNGGA,070853.10,3713.954737835,N,13701.426708908,E,5,13,0.98,106.449,M,37.566,M,81.1,3006*58
[2021-02-22 16:08:53.785] $GNGGA,070853.20,3713.954740068,N,13701.426708379,E,5,13,0.98,106.444,M,37.566,M,81.2,3006*59
[2021-02-22 16:08:53.878] $GNGGA,070853.30,3713.954747942,N,13701.426697824,E,5,12,1.05,106.398,M,37.566,M,81.3,3006*59
[2021-02-22 16:08:54.003] $GNGGA,070853.40,3713.954755793,N,13701.426684279,E,5,12,1.05,106.344,M,37.566,M,81.4,3006*59
[2021-02-22 16:08:54.081] $GNGGA,070853.50,3713.954781305,N,13701.426641777,E,5,12,1.05,106.175,M,37.566,M,81.5,3006*59
[2021-02-22 16:08:54.175] $GNGGA,070853.60,3713.954783010,N,13701.426638188,E,5,12,1.05,106.157,M,37.566,M,81.6,3006*54
[2021-02-22 16:08:54.285] $GNGGA,070853.70,3713.954791948,N,13701.426622628,E,5,12,1.05,106.096,M,37.566,M,81.7,3006*59
[2021-02-22 16:08:54.378] $GNGGA,070853.80,3713.954794351,N,13701.426619280,E,5,12,1.05,106.083,M,37.566,M,81.8,3006*54
[2021-02-22 16:08:54.503] $GNGGA,070853.90,3713.954802053,N,13701.426607361,E,5,12,1.05,106.039,M,37.566,M,81.9,3006*55
[2021-02-22 16:08:54.581] $GNGGA,070854.00,3713.954803519,N,13701.426604900,E,5,12,1.05,106.032,M,37.566,M,82.0,3006*5E
[2021-02-22 16:08:54.675] $GNGGA,070854.10,3713.954810736,N,13701.426598324,E,5,12,1.05,106.004,M,37.566,M,82.1,3006*5C
[2021-02-22 16:08:54.785] $GNGGA,070854.20,3713.954814101,N,13701.426596976,E,5,12,1.05,105.992,M,37.566,M,82.2,3006*5C
[2021-02-22 16:08:54.878] $GNGGA,070854.30,3713.954819646,N,13701.426592024,E,5,12,1.05,105.970,M,37.566,M,82.3,3006*53
[2021-02-22 16:08:55.003] $GNGGA,070854.40,3713.954821222,N,13701.426591804,E,5,12,1.05,105.963,M,37.566,M,82.4,3006*55
[2021-02-22 16:08:55.081] $GNGGA,070854.50,3713.954827242,N,13701.426584846,E,5,12,1.05,105.932,M,37.566,M,82.5,3006*53
[2021-02-22 16:08:55.175] $GNGGA,070854.60,3713.954830343,N,13701.426584490,E,5,12,1.05,105.921,M,37.566,M,82.6,3006*50
[2021-02-22 16:08:55.284] $GNGGA,070854.70,3713.954836626,N,13701.426578361,E,5,12,1.05,105.889,M,37.566,M,82.7,3006*59
[2021-02-22 16:08:55.425] $GNGGA,070854.80,3713.954840515,N,13701.426579637,E,5,12,1.05,105.882,M,37.566,M,82.8,3006*57
[2021-02-22 16:08:55.503] $GNGGA,070854.90,3713.954845966,N,13701.426575866,E,5,12,1.05,105.857,M,37.566,M,82.9,3006*54
[2021-02-22 16:08:55.581] $GNGGA,070855.00,3713.954848611,N,13701.426576161,E,5,13,0.98,105.856,M,37.566,M,83.0,3006*5E
[2021-02-22 16:08:55.675] $GNGGA,070855.10,3713.954851222,N,13701.426576086,E,5,13,0.98,105.856,M,37.566,M,83.1,3006*5A
[2021-02-22 16:08:55.784] $GNGGA,070855.20,3713.954853249,N,13701.426575822,E,5,13,0.98,105.852,M,37.566,M,83.2,3006*54
[2021-02-22 16:08:55.878] $GNGGA,070855.30,3713.954856428,N,13701.426576819,E,5,13,0.98,105.848,M,37.566,M,83.3,3006*50
[2021-02-22 16:08:56.003] $GNGGA,070855.40,3713.954858208,N,13701.426575843,E,5,13,0.98,105.846,M,37.566,M,83.4,3006*58
[2021-02-22 16:08:56.081] $GNGGA,070855.50,3713.954860518,N,13701.426576547,E,5,13,0.98,105.841,M,37.566,M,83.5,3006*58
[2021-02-22 16:08:56.175] $GNGGA,070855.60,3713.954861987,N,13701.426576546,E,5,13,0.98,105.839,M,37.566,M,83.6,3006*5D
[2021-02-22 16:08:56.284] $GNGGA,070855.70,3713.954863578,N,13701.426576207,E,5,13,0.98,105.840,M,37.566,M,83.7,3006*5F
[2021-02-22 16:08:56.409] $GNGGA,070855.80,3713.954864363,N,13701.426577165,E,5,13,0.98,105.832,M,37.566,M,83.8,3006*57
[2021-02-22 16:08:56.784] $GNGGA,070855.90,3713.954865709,N,13701.426577118,E,5,13,0.98,105.829,M,37.566,M,83.9,3006*5E
[2021-02-22 16:08:56.784] $GNGGA,070856.00,3713.954867328,N,13701.426578293,E,5,13,0.98,105.827,M,37.566,M,84.0,3006*5E
[2021-02-22 16:08:56.784] $GNGGA,070856.10,3713.954869224,N,13701.426578725,E,5,13,0.98,105.820,M,37.566,M,84.1,3006*52
[2021-02-22 16:08:56.800] $GNGGA,070856.20,3713.954872706,N,13701.426578944,E,5,13,0.98,105.816,M,37.566,M,84.2,3006*51
[2021-02-22 16:08:56.878] $GNGGA,070856.30,3713.954876310,N,13701.426579419,E,5,13,0.98,105.815,M,37.566,M,84.3,3006*51
[2021-02-22 16:08:56.987] $GNGGA,070856.40,3713.954880103,N,13701.426578116,E,5,13,0.98,105.814,M,37.566,M,84.4,3006*52
[2021-02-22 16:08:57.081] $GNGGA,070856.50,3713.954883247,N,13701.426578626,E,5,13,0.98,105.814,M,37.566,M,84.5,3006*56
[2021-02-22 16:08:57.206] $GNGGA,070856.60,3713.954886316,N,13701.426577959,E,5,13,0.98,105.809,M,37.566,M,84.6,3006*52
[2021-02-22 16:08:57.284] $GNGGA,070856.70,3713.954888847,N,13701.426578167,E,5,13,0.98,105.810,M,37.566,M,84.7,3006*51
[2021-02-22 16:08:57.378] $GNGGA,070856.80,3713.954890995,N,13701.426577802,E,5,13,0.98,105.807,M,37.566,M,84.8,3006*55
[2021-02-22 16:08:57.487] $GNGGA,070856.90,3713.954892496,N,13701.426578513,E,5,13,0.98,105.809,M,37.566,M,84.9,3006*55
[2021-02-22 16:08:57.597] $GNGGA,070857.00,3713.954893811,N,13701.426578623,E,5,13,0.98,105.812,M,37.566,M,85.0,3006*5D
[2021-02-22 16:08:57.675] $GNGGA,070857.10,3713.954894424,N,13701.426578289,E,5,13,0.98,105.811,M,37.566,M,85.1,3006*57
[2021-02-22 16:08:57.784] $GNGGA,070857.20,3713.954897177,N,13701.426578594,E,5,13,0.98,105.808,M,37.566,M,85.2,3006*54
[2021-02-22 16:08:57.878] $GNGGA,070857.30,3713.954898899,N,13701.426578441,E,5,13,0.98,105.806,M,37.566,M,85.3,3006*55
[2021-02-22 16:08:57.987] $GNGGA,070857.40,3713.954899788,N,13701.426577776,E,5,13,0.98,105.810,M,37.566,M,85.4,3006*54
[2021-02-22 16:08:58.097] $GNGGA,070857.50,3713.954901222,N,13701.426577466,E,5,13,0.98,105.807,M,37.566,M,85.5,3006*55
[2021-02-22 16:08:58.175] $GNGGA,070857.60,3713.954902366,N,13701.426576810,E,5,13,0.98,105.808,M,37.566,M,85.6,3006*54
[2021-02-22 16:08:58.284] $GNGGA,070857.70,3713.954902974,N,13701.426575566,E,5,13,0.98,105.806,M,37.566,M,85.7,3006*5C
[2021-02-22 16:08:58.378] $GNGGA,070857.80,3713.954904913,N,13701.426575260,E,5,13,0.98,105.803,M,37.566,M,85.8,3006*5F
[2021-02-22 16:08:58.487] $GNGGA,070857.90,3713.954905691,N,13701.426575464,E,5,13,0.98,105.803,M,37.566,M,85.9,3006*59
[2021-02-22 16:08:58.597] $GNGGA,070858.00,3713.954906772,N,13701.426574873,E,5,13,0.98,105.803,M,37.566,M,86.0,3006*51
[2021-02-22 16:08:58.675] $GNGGA,070858.10,3713.954907313,N,13701.426574578,E,5,13,0.98,105.805,M,37.566,M,86.1,3006*53
[2021-02-22 16:08:58.784] $GNGGA,070858.20,3713.954908630,N,13701.426573388,E,5,13,0.98,105.806,M,37.566,M,86.2,3006*55
[2021-02-22 16:08:58.878] $GNGGA,070858.30,3713.954909560,N,13701.426571991,E,5,13,0.98,105.803,M,37.566,M,86.3,3006*57
[2021-02-22 16:08:58.987] $GNGGA,070858.40,3713.954911263,N,13701.426571822,E,5,13,0.98,105.802,M,37.566,M,86.4,3006*52
[2021-02-22 16:08:59.112] $GNGGA,070858.50,3713.954913509,N,13701.426572630,E,5,13,0.98,105.799,M,37.566,M,86.5,3006*58
[2021-02-22 16:08:59.175] $GNGGA,070858.60,3713.954913806,N,13701.426573533,E,5,13,0.98,105.798,M,37.566,M,86.6,3006*5A
[2021-02-22 16:08:59.284] $GNGGA,070858.70,3713.954914688,N,13701.426574503,E,5,13,0.98,105.797,M,37.566,M,86.7,3006*5E
