
[2021-02-22 15:40:52.813] $GNGGA,064038.10,,,,,0,00,99.99,,,,,86.1,*61
[2021-02-22 15:40:52.828] $GNGGA,064038.20,,,,,0,00,99.99,,,,,86.2,*61
[2021-02-22 15:40:52.828] $GNGGA,064038.30,,,,,0,00,99.99,,,,,86.3,*61
[2021-02-22 15:40:52.828] $GNGGA,064038.40,,,,,0,00,99.99,,,,,86.4,*61
[2021-02-22 15:40:52.828] $GNGGA,064038.50,,,,,0,00,99.99,,,,,86.5,*61
[2021-02-22 15:40:52.828] $GNGGA,064038.60,,,,,0,00,99.99,,,,,86.6,*61
[2021-02-22 15:40:52.828] $GNGGA,064038.70,,,,,0,00,99.99,,,,,86.7,*61
[2021-02-22 15:40:52.828] $GNGGA,064038.80,,,,,0,00,99.99,,,,,86.8,*61
[2021-02-22 15:40:52.828] $GNGGA,064038.90,,,,,0,00,99.99,,,,,86.9,*61
[2021-02-22 15:40:52.828] $GNGGA,064039.00,,,,,0,00,99.99,,,,,87.0,*61
[2021-02-22 15:40:52.828] $GNGGA,064039.10,,,,,0,00,99.99,,,,,87.1,*61
[2021-02-22 15:40:52.828] $GNGGA,064039.20,,,,,0,00,99.99,,,,,87.2,*61
[2021-02-22 15:40:52.828] $GNGGA,064039.30,,,,,0,00,99.99,,,,,87.3,*61
[2021-02-22 15:40:52.828] $GNGGA,064039.40,,,,,0,00,99.99,,,,,87.4,*61
[2021-02-22 15:40:52.828] $GNGGA,064039.50,,,,,0,00,99.99,,,,,87.5,*61
[2021-02-22 15:40:52.828] $GNGGA,064039.60,,,,,0,00,99.99,,,,,87.6,*61
[2021-02-22 15:40:52.828] $GNGGA,064039.70,,,,,0,00,99.99,,,,,87.7,*61
[2021-02-22 15:40:52.828] $GNGGA,064039.80,,,,,0,00,99.99,,,,,87.8,*61
[2021-02-22 15:40:52.828] $GNGGA,064039.90,,,,,0,00,99.99,,,,,87.9,*61
[2021-02-22 15:40:52.828] $GNGGA,064040.00,,,,,0,00,99.99,,,,,88.0,*60
[2021-02-22 15:40:52.828] $GNGGA,064040.10,,,,,0,00,99.99,,,,,88.1,*60
[2021-02-22 15:40:52.828] $GNGGA,064040.20,,,,,0,00,99.99,,,,,88.2,*60
[2021-02-22 15:40:52.828] $GNGGA,064040.30,,,,,0,00,99.99,,,,,88.3,*60
[2021-02-22 15:40:52.828] $GNGGA,064040.40,,,,,0,00,99.99,,,,,88.4,*60
[2021-02-22 15:40:52.844] $GNGGA,064040.50,,,,,0,00,99.99,,,,,88.5,*60
[2021-02-22 15:40:52.844] $GNGGA,064040.60,,,,,0,00,99.99,,,,,88.6,*60
[2021-02-22 15:40:52.844] $GNGGA,064040.70,,,,,0,00,99.99,,,,,88.7,*60
[2021-02-22 15:40:52.844] $GNGGA,064040.80,,,,,0,00,99.99,,,,,88.8,*60
[2021-02-22 15:40:52.844] $GNGGA,064040.90,,,,,0,00,99.99,,,,,88.9,*60
[2021-02-22 15:40:52.844] $GNGGA,064041.00,,,,,0,00,99.99,,,,,89.0,*60
[2021-02-22 15:40:52.844] $GNGGA,064041.10,,,,,0,00,99.99,,,,,89.1,*60
[2021-02-22 15:40:52.844] $GNGGA,064041.20,,,,,0,00,99.99,,,,,89.2,*60
[2021-02-22 15:40:52.844] $GNGGA,064041.30,,,,,0,00,99.99,,,,,89.3,*60
[2021-02-22 15:40:52.844] $GNGGA,064041.40,,,,,0,00,99.99,,,,,89.4,*60
[2021-02-22 15:40:52.844] $GNGGA,064041.50,,,,,0,00,99.99,,,,,89.5,*60
[2021-02-22 15:40:52.844] $GNGGA,064041.60,,,,,0,00,99.99,,,,,89.6,*60
[2021-02-22 15:40:52.844] $GNGGA,064041.70,,,,,0,00,99.99,,,,,89.7,*60
[2021-02-22 15:40:52.844] $GNGGA,064041.80,,,,,0,00,99.99,,,,,89.8,*60
[2021-02-22 15:40:52.844] $GNGGA,064041.90,,,,,0,00,99.99,,,,,89.9,*60
[2021-02-22 15:40:52.844] $GNGGA,064042.00,,,,,0,00,99.99,,,,,90.0,*6B
[2021-02-22 15:40:52.844] $GNGGA,064042.10,,,,,0,00,99.99,,,,,90.1,*6B
[2021-02-22 15:40:52.844] $GNGGA,064042.20,,,,,0,00,99.99,,,,,90.2,*6B
[2021-02-22 15:40:52.844] $GNGGA,064042.30,,,,,0,00,99.99,,,,,90.3,*6B
[2021-02-22 15:40:52.844] $GNGGA,064042.40,,,,,0,00,99.99,,,,,90.4,*6B
[2021-02-22 15:40:52.844] $GNGGA,064042.50,,,,,0,00,99.99,,,,,90.5,*6B
[2021-02-22 15:40:52.844] $GNGGA,064042.60,,,,,0,00,99.99,,,,,90.6,*6B
[2021-02-22 15:40:52.859] $GNGGA,064042.70,,,,,0,00,99.99,,,,,90.7,*6B
[2021-02-22 15:40:52.859] $GNGGA,064042.80,,,,,0,00,99.99,,,,,90.8,*6B
[2021-02-22 15:40:52.859] $GNGGA,064042.90,,,,,0,00,99.99,,,,,90.9,*6B
[2021-02-22 15:40:52.859] $GNGGA,064043.00,,,,,0,00,99.99,,,,,91.0,*6B
[2021-02-22 15:40:52.859] $GNGGA,064043.10,,,,,0,00,99.99,,,,,91.1,*6B
[2021-02-22 15:40:52.859] $GNGGA,064043.20,,,,,0,00,99.99,,,,,91.2,*6B
[2021-02-22 15:40:52.859] $GNGGA,064043.30,,,,,0,00,99.99,,,,,91.3,*6B
[2021-02-22 15:40:52.859] $GNGGA,064043.40,,,,,0,00,99.99,,,,,91.4,*6B
[2021-02-22 15:40:52.859] $GNGGA,064043.50,,,,,0,00,99.99,,,,,91.5,*6B
[2021-02-22 15:40:52.859] $GNGGA,064043.60,,,,,0,00,99.99,,,,,91.6,*6B
[2021-02-22 15:40:52.859] $GNGGA,064043.70,,,,,0,00,99.99,,,,,91.7,*6B
[2021-02-22 15:40:52.859] $GNGGA,064043.80,,,,,0,00,99.99,,,,,91.8,*6B
[2021-02-22 15:40:52.859] $GNGGA,064043.90,,,,,0,00,99.99,,,,,91.9,*6B
[2021-02-22 15:40:52.859] $GNGGA,064044.00,,,,,0,00,99.99,,,,,92.0,*6F
[2021-02-22 15:40:52.859] $GNGGA,064044.10,,,,,0,00,99.99,,,,,92.1,*6F
[2021-02-22 15:40:52.859] $GNGGA,064044.20,,,,,0,00,99.99,,,,,92.2,*6F
[2021-02-22 15:40:52.859] $GNGGA,064044.30,,,,,0,00,99.99,,,,,92.3,*6F
[2021-02-22 15:40:52.859] $GNGGA,064044.40,,,,,0,00,99.99,,,,,92.4,*6F
[2021-02-22 15:40:52.859] $GNGGA,064044.50,,,,,0,00,99.99,,,,,92.5,*6F
[2021-02-22 15:40:52.859] $GNGGA,064044.60,,,,,0,00,99.99,,,,,92.6,*6F
[2021-02-22 15:40:52.859] $GNGGA,064044.70,,,,,0,00,99.99,,,,,92.7,*6F
[2021-02-22 15:40:52.859] $GNGGA,064044.80,,,,,0,00,99.99,,,,,92.8,*6F
[2021-02-22 15:40:52.875] $GNGGA,064044.90,,,,,0,00,99.99,,,,,92.9,*6F
[2021-02-22 15:40:52.875] $GNGGA,064045.00,,,,,0,00,99.99,,,,,93.0,*6F
[2021-02-22 15:40:52.875] $GNGGA,064045.10,,,,,0,00,99.99,,,,,93.1,*6F
[2021-02-22 15:40:52.875] $GNGGA,064045.20,,,,,0,00,99.99,,,,,93.2,*6F
[2021-02-22 15:40:52.875] $GNGGA,064045.30,,,,,0,00,99.99,,,,,93.3,*6F
[2021-02-22 15:40:52.875] $GNGGA,064045.40,,,,,0,00,99.99,,,,,93.4,*6F
[2021-02-22 15:40:52.875] $GNGGA,064045.50,,,,,0,00,99.99,,,,,93.5,*6F
[2021-02-22 15:40:52.875] $GNGGA,064045.60,,,,,0,00,99.99,,,,,93.6,*6F
[2021-02-22 15:40:52.875] $GNGGA,064045.70,,,,,0,00,99.99,,,,,93.7,*6F
[2021-02-22 15:40:52.875] $GNGGA,064045.80,,,,,0,00,99.99,,,,,93.8,*6F
[2021-02-22 15:40:52.875] $GNGGA,064045.90,,,,,0,00,99.99,,,,,93.9,*6F
[2021-02-22 15:40:52.875] $GNGGA,064046.00,,,,,0,00,99.99,,,,,94.0,*6B
[2021-02-22 15:40:52.875] $GNGGA,064046.10,,,,,0,00,99.99,,,,,94.1,*6B
[2021-02-22 15:40:52.875] $GNGGA,064046.20,,,,,0,00,99.99,,,,,94.2,*6B
[2021-02-22 15:40:52.875] $GNGGA,064046.30,,,,,0,00,99.99,,,,,94.3,*6B
[2021-02-22 15:40:52.875] $GNGGA,064046.40,,,,,0,00,99.99,,,,,94.4,*6B
[2021-02-22 15:40:52.875] $GNGGA,064046.50,,,,,0,00,99.99,,,,,94.5,*6B
[2021-02-22 15:40:52.875] $GNGGA,064046.60,,,,,0,00,99.99,,,,,94.6,*6B
[2021-02-22 15:40:52.875] $GNGGA,064046.70,,,,,0,00,99.99,,,,,94.7,*6B
[2021-02-22 15:40:52.875] $GNGGA,064046.80,,,,,0,00,99.99,,,,,94.8,*6B
[2021-02-22 15:40:52.875] $GNGGA,064046.90,,,,,0,00,99.99,,,,,94.9,*6B
[2021-02-22 15:40:52.875] $GNGGA,064047.00,,,,,0,00,99.99,,,,,95.0,*6B
[2021-02-22 15:40:52.891] $GNGGA,064047.10,,,,,0,00,99.99,,,,,95.1,*6B
[2021-02-22 15:40:52.891] $GNGGA,064047.20,,,,,0,00,99.99,,,,,95.2,*6B
[2021-02-22 15:40:52.891] $GNGGA,064047.30,,,,,0,00,99.99,,,,,95.3,*6B
[2021-02-22 15:40:52.891] $GNGGA,064047.40,,,,,0,00,99.99,,,,,95.4,*6B
[2021-02-22 15:40:52.891] $GNGGA,064047.50,,,,,0,00,99.99,,,,,95.5,*6B
[2021-02-22 15:40:52.891] $GNGGA,064047.60,,,,,0,00,99.99,,,,,95.6,*6B
[2021-02-22 15:40:52.891] $GNGGA,064047.70,,,,,0,00,99.99,,,,,95.7,*6B
[2021-02-22 15:40:52.891] $GNGGA,064047.80,,,,,0,00,99.99,,,,,95.8,*6B
[2021-02-22 15:40:52.891] $GNGGA,064047.90,,,,,0,00,99.99,,,,,95.9,*6B
[2021-02-22 15:40:52.891] $GNGGA,064048.00,,,,,0,00,99.99,,,,,96.0,*67
[2021-02-22 15:40:52.891] $GNGGA,064048.10,,,,,0,00,99.99,,,,,96.1,*67
[2021-02-22 15:40:52.891] $GNGGA,064048.20,,,,,0,00,99.99,,,,,96.2,*67
[2021-02-22 15:40:52.891] $GNGGA,064048.30,,,,,0,00,99.99,,,,,96.3,*67
[2021-02-22 15:40:52.891] $GNGGA,064048.40,,,,,0,00,99.99,,,,,96.4,*67
[2021-02-22 15:40:52.891] $GNGGA,064048.50,,,,,0,00,99.99,,,,,96.5,*67
[2021-02-22 15:40:52.891] $GNGGA,064048.60,,,,,0,00,99.99,,,,,96.6,*67
[2021-02-22 15:40:52.891] $GNGGA,064048.70,,,,,0,00,99.99,,,,,96.7,*67
[2021-02-22 15:40:52.891] $GNGGA,064048.80,,,,,0,00,99.99,,,,,96.8,*67
[2021-02-22 15:40:52.891] $GNGGA,064048.90,,,,,0,00,99.99,,,,,96.9,*67
[2021-02-22 15:40:52.891] $GNGGA,064049.00,,,,,0,00,99.99,,,,,97.0,*67
[2021-02-22 15:40:52.891] $GNGGA,064049.10,,,,,0,00,99.99,,,,,97.1,*67
[2021-02-22 15:40:52.891] $GNGGA,064049.20,,,,,0,00,99.99,,,,,97.2,*67
[2021-02-22 15:40:52.906] $GNGGA,064049.30,,,,,0,00,99.99,,,,,97.3,*67
[2021-02-22 15:40:52.906] $GNGGA,064049.40,,,,,0,00,99.99,,,,,97.4,*67
[2021-02-22 15:40:52.906] $GNGGA,064049.50,,,,,0,00,99.99,,,,,97.5,*67
[2021-02-22 15:40:52.906] $GNGGA,064049.60,,,,,0,00,99.99,,,,,97.6,*67
[2021-02-22 15:40:52.906] $GNGGA,064049.70,,,,,0,00,99.99,,,,,97.7,*67
[2021-02-22 15:40:52.906] $GNGGA,064049.80,,,,,0,00,99.99,,,,,97.8,*67
[2021-02-22 15:40:52.906] $GNGGA,064049.90,,,,,0,00,99.99,,,,,97.9,*67
[2021-02-22 15:40:52.906] $GNGGA,064050.00,,,,,0,00,99.99,,,,,98.0,*60
[2021-02-22 15:40:52.906] $GNGGA,064050.10,,,,,0,00,99.99,,,,,98.1,*60
[2021-02-22 15:40:52.906] $GNGGA,064050.20,,,,,0,00,99.99,,,,,98.2,*60
[2021-02-22 15:40:52.906] $GNGGA,064050.30,,,,,0,00,99.99,,,,,98.3,*60
[2021-02-22 15:40:52.906] $GNGGA,064050.40,,,,,0,00,99.99,,,,,98.4,*60
[2021-02-22 15:40:52.906] $GNGGA,064050.50,,,,,0,00,99.99,,,,,98.5,*60
[2021-02-22 15:40:52.906] $GNGGA,064050.60,,,,,0,00,99.99,,,,,98.6,*60
[2021-02-22 15:40:52.906] $GNGGA,064050.70,,,,,0,00,99.99,,,,,98.7,*60
[2021-02-22 15:40:52.906] $GNGGA,064050.80,,,,,0,00,99.99,,,,,98.8,*60
[2021-02-22 15:40:52.906] $GNGGA,064050.90,,,,,0,00,99.99,,,,,98.9,*60
[2021-02-22 15:40:52.906] $GNGGA,064051.00,,,,,0,00,99.99,,,,,99.0,*60
[2021-02-22 15:40:52.906] $GNGGA,064051.10,,,,,0,00,99.99,,,,,99.1,*60
[2021-02-22 15:40:52.906] $GNGGA,064051.20,,,,,0,00,99.99,,,,,99.2,*60
[2021-02-22 15:40:52.906] $GNGGA,064051.30,,,,,0,00,99.99,,,,,99.3,*60
[2021-02-22 15:40:52.906] $GNGGA,064051.40,,,,,0,00,99.99,,,,,99.4,*60
[2021-02-22 15:40:52.906] $GNGGA,064051.50,,,,,0,00,99.99,,,,,99.5,*60
[2021-02-22 15:40:52.906] $GNGGA,064051.60,,,,,0,00,99.99,,,,,99.6,*60
[2021-02-22 15:40:52.906] $GNGGA,064051.70,,,,,0,00,99.99,,,,,99.7,*60
[2021-02-22 15:40:52.906] $GNGGA,064051.80,,,,,0,00,99.99,,,,,99.8,*60
[2021-02-22 15:40:52.906] $GNGGA,064051.90,,,,,0,00,99.99,,,,,99.9,*60
[2021-02-22 15:40:52.906] $GNGGA,064052.00,,,,,0,00,99.99,,,,,100.0,*52
[2021-02-22 15:40:52.906] $GNGGA,064052.10,,,,,0,00,99.99,,,,,100.1,*52
[2021-02-22 15:40:52.906] $GNGGA,064052.20,,,,,0,00,99.99,,,,,100.2,*52
[2021-02-22 15:40:52.906] $GNGGA,064052.30,,,,,0,00,99.99,,,,,100.3,*52
[2021-02-22 15:40:53.000] $GNGGA,064052.40,,,,,0,00,99.99,,,,,100.4,*52
[2021-02-22 15:40:53.094] $GNGGA,064052.50,,,,,0,00,99.99,,,,,100.5,*52
[2021-02-22 15:40:53.188] $GNGGA,064052.60,,,,,0,00,99.99,,,,,100.6,*52
[2021-02-22 15:40:53.297] $GNGGA,064052.70,,,,,0,00,99.99,,,,,100.7,*52
[2021-02-22 15:40:53.406] $GNGGA,064052.80,,,,,0,00,99.99,,,,,100.8,*52
[2021-02-22 15:40:53.500] $GNGGA,064052.90,,,,,0,00,99.99,,,,,100.9,*52
[2021-02-22 15:40:53.594] $GNGGA,064053.00,,,,,0,00,99.99,,,,,101.0,*52
[2021-02-22 15:40:53.703] $GNGGA,064053.10,,,,,0,00,99.99,,,,,101.1,*52
[2021-02-22 15:40:53.797] $GNGGA,064053.20,,,,,0,00,99.99,,,,,101.2,*52
[2021-02-22 15:40:53.891] $GNGGA,064053.30,,,,,0,00,99.99,,,,,101.3,*52
[2021-02-22 15:40:53.984] $GNGGA,064053.40,,,,,0,00,99.99,,,,,101.4,*52
[2021-02-22 15:40:54.109] $GNGGA,064053.50,,,,,0,00,99.99,,,,,101.5,*52
[2021-02-22 15:40:54.203] $GNGGA,064053.60,,,,,0,00,99.99,,,,,101.6,*52
[2021-02-22 15:40:54.297] $GNGGA,064053.70,,,,,0,00,99.99,,,,,101.7,*52
[2021-02-22 15:40:54.391] $GNGGA,064053.80,,,,,0,00,99.99,,,,,101.8,*52
[2021-02-22 15:40:54.500] $GNGGA,064053.90,,,,,0,00,99.99,,,,,101.9,*52
[2021-02-22 15:40:54.594] $GNGGA,064054.00,,,,,0,00,99.99,,,,,102.0,*56
[2021-02-22 15:40:54.688] $GNGGA,064054.10,,,,,0,00,99.99,,,,,102.1,*56
[2021-02-22 15:40:54.781] $GNGGA,064054.20,,,,,0,00,99.99,,,,,102.2,*56
[2021-02-22 15:40:54.906] $GNGGA,064054.30,,,,,0,00,99.99,,,,,102.3,*56
[2021-02-22 15:40:55.000] $GNGGA,064054.40,,,,,0,00,99.99,,,,,102.4,*56
[2021-02-22 15:40:55.094] $GNGGA,064054.50,,,,,0,00,99.99,,,,,102.5,*56
[2021-02-22 15:40:55.187] $GNGGA,064054.60,,,,,0,00,99.99,,,,,102.6,*56
[2021-02-22 15:40:55.297] $GNGGA,064054.70,,,,,0,00,99.99,,,,,102.7,*56
[2021-02-22 15:40:55.391] $GNGGA,064054.80,,,,,0,00,99.99,,,,,102.8,*56
[2021-02-22 15:40:55.484] $GNGGA,064054.90,,,,,0,00,99.99,,,,,102.9,*56
[2021-02-22 15:40:55.594] $GNGGA,064055.00,,,,,0,00,99.99,,,,,103.0,*56
[2021-02-22 15:40:55.703] $GNGGA,064055.10,,,,,0,00,99.99,,,,,103.1,*56
[2021-02-22 15:40:55.797] $GNGGA,064055.20,,,,,0,00,99.99,,,,,103.2,*56
[2021-02-22 15:40:55.891] $GNGGA,064055.30,,,,,0,00,99.99,,,,,103.3,*56
[2021-02-22 15:40:55.984] $GNGGA,064055.40,,,,,0,00,99.99,,,,,103.4,*56
[2021-02-22 15:40:56.094] $GNGGA,064055.50,,,,,0,00,99.99,,,,,103.5,*56
[2021-02-22 15:40:56.203] $GNGGA,064055.60,,,,,0,00,99.99,,,,,103.6,*56
[2021-02-22 15:40:56.297] $GNGGA,064055.70,,,,,0,00,99.99,,,,,103.7,*56
[2021-02-22 15:40:56.391] $GNGGA,064055.80,,,,,0,00,99.99,,,,,103.8,*56
[2021-02-22 15:40:56.500] $GNGGA,064055.90,,,,,0,00,99.99,,,,,103.9,*56
[2021-02-22 15:40:56.594] $GNGGA,064056.00,,,,,0,00,99.99,,,,,104.0,*52
[2021-02-22 15:40:56.687] $GNGGA,064056.10,,,,,0,00,99.99,,,,,104.1,*52
[2021-02-22 15:40:56.781] $GNGGA,064056.20,,,,,0,00,99.99,,,,,104.2,*52
[2021-02-22 15:40:56.906] $GNGGA,064056.30,,,,,0,00,99.99,,,,,104.3,*52
[2021-02-22 15:40:57.000] $GNGGA,064056.40,,,,,0,00,99.99,,,,,104.4,*52
[2021-02-22 15:40:57.094] $GNGGA,064056.50,,,,,0,00,99.99,,,,,104.5,*52
[2021-02-22 15:40:57.187] $GNGGA,064056.60,,,,,0,00,99.99,,,,,104.6,*52
[2021-02-22 15:40:57.297] $GNGGA,064056.70,,,,,0,00,99.99,,,,,104.7,*52
[2021-02-22 15:40:57.390] $GNGGA,064056.80,,,,,0,00,99.99,,,,,104.8,*52
[2021-02-22 15:40:57.484] $GNGGA,064056.90,,,,,0,00,99.99,,,,,104.9,*52
[2021-02-22 15:40:57.578] $GNGGA,064057.00,,,,,0,00,99.99,,,,,105.0,*52
[2021-02-22 15:40:57.703] $GNGGA,064057.10,,,,,0,00,99.99,,,,,105.1,*52
[2021-02-22 15:40:57.797] $GNGGA,064057.20,,,,,0,00,99.99,,,,,105.2,*52
[2021-02-22 15:40:57.890] $GNGGA,064057.30,,,,,0,00,99.99,,,,,105.3,*52
[2021-02-22 15:40:57.984] $GNGGA,064057.40,,,,,0,00,99.99,,,,,105.4,*52
[2021-02-22 15:40:58.094] $GNGGA,064057.50,,,,,0,00,99.99,,,,,105.5,*52
[2021-02-22 15:40:58.203] $GNGGA,064057.60,,,,,0,00,99.99,,,,,105.6,*52
[2021-02-22 15:40:58.297] $GNGGA,064057.70,,,,,0,00,99.99,,,,,105.7,*52
[2021-02-22 15:40:58.390] $GNGGA,064057.80,,,,,0,00,99.99,,,,,105.8,*52
[2021-02-22 15:40:58.500] $GNGGA,064057.90,,,,,0,00,99.99,,,,,105.9,*52
[2021-02-22 15:40:58.594] $GNGGA,064058.00,,,,,0,00,99.99,,,,,106.0,*5E
[2021-02-22 15:40:58.687] $GNGGA,064058.10,,,,,0,00,99.99,,,,,106.1,*5E
[2021-02-22 15:40:58.781] $GNGGA,064058.20,,,,,0,00,99.99,,,,,106.2,*5E
[2021-02-22 15:40:58.906] $GNGGA,064058.30,,,,,0,00,99.99,,,,,106.3,*5E
[2021-02-22 15:40:59.000] $GNGGA,064058.40,,,,,0,00,99.99,,,,,106.4,*5E
[2021-02-22 15:40:59.093] $GNGGA,064058.50,,,,,0,00,99.99,,,,,106.5,*5E
[2021-02-22 15:40:59.187] $GNGGA,064058.60,,,,,0,00,99.99,,,,,106.6,*5E
[2021-02-22 15:40:59.297] $GNGGA,064058.70,,,,,0,00,99.99,,,,,106.7,*5E
[2021-02-22 15:40:59.390] $GNGGA,064058.80,,,,,0,00,99.99,,,,,106.8,*5E
[2021-02-22 15:40:59.484] $GNGGA,064058.90,,,,,0,00,99.99,,,,,106.9,*5E
[2021-02-22 15:40:59.593] $GNGGA,064059.00,,,,,0,00,99.99,,,,,107.0,*5E
[2021-02-22 15:40:59.703] $GNGGA,064059.10,,,,,0,00,99.99,,,,,107.1,*5E
[2021-02-22 15:40:59.797] $GNGGA,064059.20,,,,,0,00,99.99,,,,,107.2,*5E
[2021-02-22 15:40:59.890] $GNGGA,064059.30,,,,,0,00,99.99,,,,,107.3,*5E
[2021-02-22 15:40:59.984] $GNGGA,064059.40,,,,,0,00,99.99,,,,,107.4,*5E
[2021-02-22 15:41:00.093] $GNGGA,064059.50,,,,,0,00,99.99,,,,,107.5,*5E
[2021-02-22 15:41:00.203] $GNGGA,064059.60,,,,,0,00,99.99,,,,,107.6,*5E
[2021-02-22 15:41:00.296] $GNGGA,064059.70,,,,,0,00,99.99,,,,,107.7,*5E
[2021-02-22 15:41:00.390] $GNGGA,064059.80,,,,,0,00,99.99,,,,,107.8,*5E
[2021-02-22 15:41:00.500] $GNGGA,064059.90,,,,,0,00,99.99,,,,,107.9,*5E
[2021-02-22 15:41:00.593] $GNGGA,064100.00,,,,,0,00,99.99,,,,,108.0,*5C
[2021-02-22 15:41:00.687] $GNGGA,064100.10,,,,,0,00,99.99,,,,,108.1,*5C
[2021-02-22 15:41:00.781] $GNGGA,064100.20,,,,,0,00,99.99,,,,,108.2,*5C
[2021-02-22 15:41:00.906] $GNGGA,064100.30,,,,,0,00,99.99,,,,,108.3,*5C
[2021-02-22 15:41:01.000] $GNGGA,064100.40,,,,,0,00,99.99,,,,,108.4,*5C
[2021-02-22 15:41:01.093] $GNGGA,064100.50,,,,,0,00,99.99,,,,,108.5,*5C
[2021-02-22 15:41:01.187] $GNGGA,064100.60,,,,,0,00,99.99,,,,,108.6,*5C
[2021-02-22 15:41:01.296] $GNGGA,064100.70,,,,,0,00,99.99,,,,,108.7,*5C
[2021-02-22 15:41:01.390] $GNGGA,064100.80,,,,,0,00,99.99,,,,,108.8,*5C
[2021-02-22 15:41:01.484] $GNGGA,064100.90,,,,,0,00,99.99,,,,,108.9,*5C
[2021-02-22 15:41:01.578] $GNGGA,064101.00,,,,,0,00,99.99,,,,,109.0,*5C
[2021-02-22 15:41:01.703] $GNGGA,064101.10,,,,,0,00,99.99,,,,,109.1,*5C
[2021-02-22 15:41:01.796] $GNGGA,064101.20,,,,,0,00,99.99,,,,,109.2,*5C
[2021-02-22 15:41:01.890] $GNGGA,064101.30,,,,,0,00,99.99,,,,,109.3,*5C
[2021-02-22 15:41:01.984] $GNGGA,064101.40,,,,,0,00,99.99,,,,,109.4,*5C
[2021-02-22 15:41:02.093] $GNGGA,064101.50,,,,,0,00,99.99,,,,,109.5,*5C
[2021-02-22 15:41:02.203] $GNGGA,064101.60,,,,,0,00,99.99,,,,,109.6,*5C
[2021-02-22 15:41:02.296] $GNGGA,064101.70,,,,,0,00,99.99,,,,,109.7,*5C
[2021-02-22 15:41:02.390] $GNGGA,064101.80,,,,,0,00,99.99,,,,,109.8,*5C
[2021-02-22 15:41:02.499] $GNGGA,064101.90,,,,,0,00,99.99,,,,,109.9,*5C
[2021-02-22 15:41:02.593] $GNGGA,064102.00,,,,,0,00,99.99,,,,,110.0,*57
[2021-02-22 15:41:02.687] $GNGGA,064102.10,,,,,0,00,99.99,,,,,110.1,*57
[2021-02-22 15:41:02.781] $GNGGA,064102.20,,,,,0,00,99.99,,,,,110.2,*57
[2021-02-22 15:41:02.890] $GNGGA,064102.30,,,,,0,00,99.99,,,,,110.3,*57
[2021-02-22 15:41:02.999] $GNGGA,064102.40,,,,,0,00,99.99,,,,,110.4,*57
[2021-02-22 15:41:03.093] $GNGGA,064102.50,,,,,0,00,99.99,,,,,110.5,*57
[2021-02-22 15:41:03.187] $GNGGA,064102.60,,,,,0,00,99.99,,,,,110.6,*57
[2021-02-22 15:41:03.296] $GNGGA,064102.70,,,,,0,00,99.99,,,,,110.7,*57
[2021-02-22 15:41:03.390] $GNGGA,064102.80,,,,,0,00,99.99,,,,,110.8,*57
[2021-02-22 15:41:03.484] $GNGGA,064102.90,,,,,0,00,99.99,,,,,110.9,*57
[2021-02-22 15:41:03.577] $GNGGA,064103.00,,,,,0,00,99.99,,,,,111.0,*57
[2021-02-22 15:41:03.703] $GNGGA,064103.10,,,,,0,00,99.99,,,,,111.1,*57
[2021-02-22 15:41:03.796] $GNGGA,064103.20,,,,,0,00,99.99,,,,,111.2,*57
[2021-02-22 15:41:03.890] $GNGGA,064103.30,,,,,0,00,99.99,,,,,111.3,*57
[2021-02-22 15:41:03.984] $GNGGA,064103.40,,,,,0,00,99.99,,,,,111.4,*57
[2021-02-22 15:41:04.093] $GNGGA,064103.50,,,,,0,00,99.99,,,,,111.5,*57
[2021-02-22 15:41:04.187] $GNGGA,064103.60,,,,,0,00,99.99,,,,,111.6,*57
[2021-02-22 15:41:04.296] $GNGGA,064103.70,,,,,0,00,99.99,,,,,111.7,*57
[2021-02-22 15:41:04.390] $GNGGA,064103.80,,,,,0,00,99.99,,,,,111.8,*57
[2021-02-22 15:41:04.499] $GNGGA,064103.90,,,,,0,00,99.99,,,,,111.9,*57
[2021-02-22 15:41:04.593] $GNGGA,064104.00,,,,,0,00,99.99,,,,,112.0,*53
[2021-02-22 15:41:04.687] $GNGGA,064104.10,,,,,0,00,99.99,,,,,112.1,*53
[2021-02-22 15:41:04.781] $GNGGA,064104.20,,,,,0,00,99.99,,,,,112.2,*53
[2021-02-22 15:41:04.890] $GNGGA,064104.30,,,,,0,00,99.99,,,,,112.3,*53
[2021-02-22 15:41:04.999] $GNGGA,064104.40,,,,,0,00,99.99,,,,,112.4,*53
[2021-02-22 15:41:05.093] $GNGGA,064104.50,,,,,0,00,99.99,,,,,112.5,*53
[2021-02-22 15:41:05.187] $GNGGA,064104.60,,,,,0,00,99.99,,,,,112.6,*53
[2021-02-22 15:41:05.296] $GNGGA,064104.70,,,,,0,00,99.99,,,,,112.7,*53
[2021-02-22 15:41:05.390] $GNGGA,064104.80,,,,,0,00,99.99,,,,,112.8,*53
[2021-02-22 15:41:05.484] $GNGGA,064104.90,,,,,0,00,99.99,,,,,112.9,*53
[2021-02-22 15:41:05.577] $GNGGA,064105.00,,,,,0,00,99.99,,,,,113.0,*53
[2021-02-22 15:41:05.702] $GNGGA,064105.10,,,,,0,00,99.99,,,,,113.1,*53
[2021-02-22 15:41:05.796] $GNGGA,064105.20,,,,,0,00,99.99,,,,,113.2,*53
[2021-02-22 15:41:05.890] $GNGGA,064105.30,,,,,0,00,99.99,,,,,113.3,*53
[2021-02-22 15:41:05.984] $GNGGA,064105.40,,,,,0,00,99.99,,,,,113.4,*53
[2021-02-22 15:41:06.093] $GNGGA,064105.50,,,,,0,00,99.99,,,,,113.5,*53
[2021-02-22 15:41:06.187] $GNGGA,064105.60,,,,,0,00,99.99,,,,,113.6,*53
[2021-02-22 15:41:06.296] $GNGGA,064105.70,,,,,0,00,99.99,,,,,113.7,*53
[2021-02-22 15:41:06.390] $GNGGA,064105.80,,,,,0,00,99.99,,,,,113.8,*53
[2021-02-22 15:41:06.499] $GNGGA,064105.90,,,,,0,00,99.99,,,,,113.9,*53
[2021-02-22 15:41:06.593] $GNGGA,064106.00,,,,,0,00,99.99,,,,,114.0,*57
[2021-02-22 15:41:06.687] $GNGGA,064106.10,,,,,0,00,99.99,,,,,114.1,*57
[2021-02-22 15:41:06.780] $GNGGA,064106.20,,,,,0,00,99.99,,,,,114.2,*57
[2021-02-22 15:41:06.890] $GNGGA,064106.30,,,,,0,00,99.99,,,,,114.3,*57
[2021-02-22 15:41:06.999] $GNGGA,064106.40,,,,,0,00,99.99,,,,,114.4,*57
[2021-02-22 15:41:07.093] $GNGGA,064106.50,,,,,0,00,99.99,,,,,114.5,*57
[2021-02-22 15:41:07.187] $GNGGA,064106.60,,,,,0,00,99.99,,,,,114.6,*57
[2021-02-22 15:41:07.296] $GNGGA,064106.70,,,,,0,00,99.99,,,,,114.7,*57
[2021-02-22 15:41:07.390] $GNGGA,064106.80,,,,,0,00,99.99,,,,,114.8,*57
[2021-02-22 15:41:07.484] $GNGGA,064106.90,,,,,0,00,99.99,,,,,114.9,*57
[2021-02-22 15:41:07.577] $GNGGA,064107.00,,,,,0,00,99.99,,,,,115.0,*57
[2021-02-22 15:41:07.702] $GNGGA,064107.10,,,,,0,00,99.99,,,,,115.1,*57
[2021-02-22 15:41:07.796] $GNGGA,064107.20,,,,,0,00,99.99,,,,,115.2,*57
[2021-02-22 15:41:07.890] $GNGGA,064107.30,,,,,0,00,99.99,,,,,115.3,*57
[2021-02-22 15:41:07.999] $GNGGA,064107.40,,,,,0,00,99.99,,,,,115.4,*57
[2021-02-22 15:41:08.093] $GNGGA,064107.50,,,,,0,00,99.99,,,,,115.5,*57
[2021-02-22 15:41:08.187] $GNGGA,064107.60,,,,,0,00,99.99,,,,,115.6,*57
[2021-02-22 15:41:08.280] $GNGGA,064107.70,,,,,0,00,99.99,,,,,115.7,*57
[2021-02-22 15:41:08.405] $GNGGA,064107.80,,,,,0,00,99.99,,,,,115.8,*57
[2021-02-22 15:41:08.499] $GNGGA,064107.90,,,,,0,00,99.99,,,,,115.9,*57
[2021-02-22 15:41:08.593] $GNGGA,064108.00,,,,,0,00,99.99,,,,,116.0,*5B
[2021-02-22 15:41:08.687] $GNGGA,064108.10,,,,,0,00,99.99,,,,,116.1,*5B
[2021-02-22 15:41:08.796] $GNGGA,064108.20,,,,,0,00,99.99,,,,,116.2,*5B
[2021-02-22 15:41:08.890] $GNGGA,064108.30,,,,,0,00,99.99,,,,,116.3,*5B
[2021-02-22 15:41:08.999] $GNGGA,064108.40,,,,,0,00,99.99,,,,,116.4,*5B
[2021-02-22 15:41:09.093] $GNGGA,064108.50,,,,,0,00,99.99,,,,,116.5,*5B
[2021-02-22 15:41:09.202] $GNGGA,064108.60,,,,,0,00,99.99,,,,,116.6,*5B
[2021-02-22 15:41:09.296] $GNGGA,064108.70,,,,,0,00,99.99,,,,,116.7,*5B
[2021-02-22 15:41:09.390] $GNGGA,064108.80,,,,,0,00,99.99,,,,,116.8,*5B
[2021-02-22 15:41:09.483] $GNGGA,064108.90,,,,,0,00,99.99,,,,,116.9,*5B
[2021-02-22 15:41:09.608] $GNGGA,064109.00,,,,,0,00,99.99,,,,,117.0,*5B
[2021-02-22 15:41:09.702] $GNGGA,064109.10,,,,,0,00,99.99,,,,,117.1,*5B
[2021-02-22 15:41:09.796] $GNGGA,064109.20,,,,,0,00,99.99,,,,,117.2,*5B
[2021-02-22 15:41:09.890] $GNGGA,064109.30,,,,,0,00,99.99,,,,,117.3,*5B
[2021-02-22 15:41:09.999] $GNGGA,064109.40,,,,,0,00,99.99,,,,,117.4,*5B
[2021-02-22 15:41:10.093] $GNGGA,064109.50,,,,,0,00,99.99,,,,,117.5,*5B
[2021-02-22 15:41:10.202] $GNGGA,064109.60,,,,,0,00,99.99,,,,,117.6,*5B
[2021-02-22 15:41:10.296] $GNGGA,064109.70,,,,,0,00,99.99,,,,,117.7,*5B
[2021-02-22 15:41:10.405] $GNGGA,064109.80,,,,,0,00,99.99,,,,,117.8,*5B
[2021-02-22 15:41:10.499] $GNGGA,064109.90,,,,,0,00,99.99,,,,,117.9,*5B
[2021-02-22 15:41:10.593] $GNGGA,064110.00,,,,,0,00,99.99,,,,,118.0,*5C
[2021-02-22 15:41:10.686] $GNGGA,064110.10,,,,,0,00,99.99,,,,,118.1,*5C
[2021-02-22 15:41:10.796] $GNGGA,064110.20,,,,,0,00,99.99,,,,,118.2,*5C
[2021-02-22 15:41:10.890] $GNGGA,064110.30,,,,,0,00,99.99,,,,,118.3,*5C
[2021-02-22 15:41:10.999] $GNGGA,064110.40,,,,,0,00,99.99,,,,,118.4,*5C
[2021-02-22 15:41:11.093] $GNGGA,064110.50,,,,,0,00,99.99,,,,,118.5,*5C
[2021-02-22 15:41:11.202] $GNGGA,064110.60,,,,,0,00,99.99,,,,,118.6,*5C
[2021-02-22 15:41:11.296] $GNGGA,064110.70,,,,,0,00,99.99,,,,,118.7,*5C
[2021-02-22 15:41:11.390] $GNGGA,064110.80,,,,,0,00,99.99,,,,,118.8,*5C
[2021-02-22 15:41:11.483] $GNGGA,064110.90,,,,,0,00,99.99,,,,,118.9,*5C
[2021-02-22 15:41:11.608] $GNGGA,064111.00,,,,,0,00,99.99,,,,,119.0,*5C
[2021-02-22 15:41:11.702] $GNGGA,064111.10,,,,,0,00,99.99,,,,,119.1,*5C
[2021-02-22 15:41:11.796] $GNGGA,064111.20,,,,,0,00,99.99,,,,,119.2,*5C
[2021-02-22 15:41:11.889] $GNGGA,064111.30,,,,,0,00,99.99,,,,,119.3,*5C
[2021-02-22 15:41:11.999] $GNGGA,064111.40,,,,,0,00,99.99,,,,,119.4,*5C
[2021-02-22 15:41:12.093] $GNGGA,064111.50,,,,,0,00,99.99,,,,,119.5,*5C
[2021-02-22 15:41:12.202] $GNGGA,064111.60,,,,,0,00,99.99,,,,,119.6,*5C
[2021-02-22 15:41:12.296] $GNGGA,064111.70,,,,,0,00,99.99,,,,,119.7,*5C
[2021-02-22 15:41:12.405] $GNGGA,064111.80,,,,,0,00,99.99,,,,,119.8,*5C
[2021-02-22 15:41:12.499] $GNGGA,064111.90,,,,,0,00,99.99,,,,,119.9,*5C
[2021-02-22 15:41:12.593] $GNGGA,064112.00,,,,,0,00,99.99,,,,,120.0,*55
[2021-02-22 15:41:12.686] $GNGGA,064112.10,,,,,0,00,99.99,,,,,120.1,*55
[2021-02-22 15:41:12.811] $GNGGA,064112.20,,,,,0,00,99.99,,,,,120.2,*55
[2021-02-22 15:41:12.889] $GNGGA,064112.30,,,,,0,00,99.99,,,,,120.3,*55
[2021-02-22 15:41:12.999] $GNGGA,064112.40,,,,,0,00,99.99,,,,,120.4,*55
[2021-02-22 15:41:13.092] $GNGGA,064112.50,,,,,0,00,99.99,,,,,120.5,*55
[2021-02-22 15:41:13.202] $GNGGA,064112.60,,,,,0,00,99.99,,,,,120.6,*55
[2021-02-22 15:41:13.296] $GNGGA,064112.70,,,,,0,00,99.99,,,,,120.7,*55
[2021-02-22 15:41:13.389] $GNGGA,064112.80,,,,,0,00,99.99,,,,,120.8,*55
[2021-02-22 15:41:13.483] $GNGGA,064112.90,,,,,0,00,99.99,,,,,120.9,*55
[2021-02-22 15:41:13.608] $GNGGA,064113.00,,,,,0,00,99.99,,,,,121.0,*55
[2021-02-22 15:41:13.702] $GNGGA,064113.10,,,,,0,00,99.99,,,,,121.1,*55
[2021-02-22 15:41:13.796] $GNGGA,064113.20,,,,,0,00,99.99,,,,,121.2,*55
[2021-02-22 15:41:13.889] $GNGGA,064113.30,,,,,0,00,99.99,,,,,121.3,*55
[2021-02-22 15:41:13.999] $GNGGA,064113.40,,,,,0,00,99.99,,,,,121.4,*55
[2021-02-22 15:41:14.092] $GNGGA,064113.50,,,,,0,00,99.99,,,,,121.5,*55
[2021-02-22 15:41:14.186] $GNGGA,064113.60,,,,,0,00,99.99,,,,,121.6,*55
[2021-02-22 15:41:14.296] $GNGGA,064113.70,,,,,0,00,99.99,,,,,121.7,*55
[2021-02-22 15:41:14.405] $GNGGA,064113.80,,,,,0,00,99.99,,,,,121.8,*55
[2021-02-22 15:41:14.499] $GNGGA,064113.90,,,,,0,00,99.99,,,,,121.9,*55
[2021-02-22 15:41:14.592] $GNGGA,064114.00,,,,,0,00,99.99,,,,,122.0,*51
[2021-02-22 15:41:14.686] $GNGGA,064114.10,,,,,0,00,99.99,,,,,122.1,*51
[2021-02-22 15:41:14.795] $GNGGA,064114.20,,,,,0,00,99.99,,,,,122.2,*51
[2021-02-22 15:41:14.889] $GNGGA,064114.30,,,,,0,00,99.99,,,,,122.3,*51
[2021-02-22 15:41:14.999] $GNGGA,064114.40,3713.955964000,N,13701.424394000,E,5,00,99.90,87.643,M,37.566,M,122.4,3006*60
[2021-02-22 15:41:15.077] $GNGGA,064114.50,3713.955996730,N,13701.424599094,E,5,02,99.90,89.798,M,37.566,M,122.5,3006*64
[2021-02-22 15:41:15.186] $GNGGA,064114.60,3713.955994141,N,13701.424604520,E,5,00,99.90,89.814,M,37.566,M,122.6,3006*62
[2021-02-22 15:41:15.280] $GNGGA,064114.70,3713.955992587,N,13701.424610868,E,5,00,99.90,89.824,M,37.566,M,122.7,3006*6D
[2021-02-22 15:41:15.389] $GNGGA,064114.80,3713.955993512,N,13701.424610645,E,5,00,99.90,89.821,M,37.566,M,122.8,3006*64
[2021-02-22 15:41:15.499] $GNGGA,064114.90,3713.955993841,N,13701.424612547,E,5,00,99.90,89.823,M,37.566,M,122.9,3006*6E
[2021-02-22 15:41:15.592] $GNGGA,064115.00,3713.955994070,N,13701.424612993,E,5,00,99.90,89.827,M,37.566,M,123.0,3006*62
[2021-02-22 15:41:15.686] $GNGGA,064115.10,3713.955993613,N,13701.424614136,E,5,00,99.90,89.831,M,37.566,M,123.1,3006*60
[2021-02-22 15:41:15.795] $GNGGA,064115.20,3713.955994077,N,13701.424614426,E,5,00,99.90,89.827,M,37.566,M,123.2,3006*60
[2021-02-22 15:41:15.905] $GNGGA,064115.30,3713.955995141,N,13701.424614832,E,5,00,99.90,89.828,M,37.566,M,123.3,3006*63
[2021-02-22 15:41:15.983] $GNGGA,064115.40,3713.955996715,N,13701.424614919,E,5,00,99.90,89.827,M,37.566,M,123.4,3006*60
[2021-02-22 15:41:16.092] $GNGGA,064115.50,3713.955996800,N,13701.424614926,E,5,00,99.90,89.829,M,37.566,M,123.5,3006*69
[2021-02-22 15:41:16.186] $GNGGA,064115.60,3713.955996443,N,13701.424613485,E,5,00,99.90,89.827,M,37.566,M,123.6,3006*6F
[2021-02-22 15:41:16.311] $GNGGA,064115.70,3713.955994995,N,13701.424614522,E,5,00,99.90,89.831,M,37.566,M,123.7,3006*67
[2021-02-22 15:41:16.389] $GNGGA,064115.80,3713.955994220,N,13701.424613705,E,5,00,99.90,89.833,M,37.566,M,123.8,3006*60
[2021-02-22 15:41:16.483] $GNGGA,064115.90,3713.955993536,N,13701.424613968,E,5,00,99.90,89.833,M,37.566,M,123.9,3006*62
[2021-02-22 15:41:16.592] $GNGGA,064116.00,3713.955993074,N,13701.424613198,E,5,00,99.90,89.833,M,37.566,M,124.0,3006*62
[2021-02-22 15:41:16.702] $GNGGA,064116.10,3713.955992629,N,13701.424612367,E,5,00,99.90,89.833,M,37.566,M,124.1,3006*6E
[2021-02-22 15:41:16.780] $GNGGA,064116.20,3713.956019770,N,13701.424776267,E,5,03,99.90,90.294,M,37.566,M,124.2,3006*64
[2021-02-22 15:41:16.889] $GNGGA,064116.30,3713.956085264,N,13701.424835808,E,5,04,3.33,90.503,M,37.566,M,124.3,3006*5E
[2021-02-22 15:41:16.983] $GNGGA,064116.40,3713.956103988,N,13701.424844094,E,5,04,3.33,90.571,M,37.566,M,124.4,3006*56
[2021-02-22 15:41:17.108] $GNGGA,064116.50,3713.956108763,N,13701.424981460,E,5,04,3.33,90.877,M,37.566,M,124.5,3006*5A
[2021-02-22 15:41:17.186] $GNGGA,064116.60,3713.956136193,N,13701.425033536,E,5,04,3.33,91.127,M,37.566,M,124.6,3006*50
[2021-02-22 15:41:17.280] $GNGGA,064116.70,3713.956124254,N,13701.425037695,E,5,04,3.33,91.242,M,37.566,M,124.7,3006*55
[2021-02-22 15:41:17.389] $GNGGA,064116.80,3713.956115586,N,13701.425060089,E,5,04,3.33,91.191,M,37.566,M,124.8,3006*5B
[2021-02-22 15:41:17.483] $GNGGA,064116.90,3713.956113278,N,13701.425071304,E,5,04,3.33,91.131,M,37.566,M,124.9,3006*57
[2021-02-22 15:41:17.608] $GNGGA,064117.00,3713.956104793,N,13701.425067072,E,5,04,3.33,91.104,M,37.566,M,125.0,3006*52
[2021-02-22 15:41:17.686] $GNGGA,064117.10,3713.956104697,N,13701.425077175,E,5,04,3.33,91.061,M,37.566,M,125.1,3006*52
[2021-02-22 15:41:17.780] $GNGGA,064117.20,3713.956099014,N,13701.425069051,E,5,04,3.33,91.129,M,37.566,M,125.2,3006*5F
[2021-02-22 15:41:17.889] $GNGGA,064117.30,3713.956093987,N,13701.425089108,E,5,04,3.33,91.203,M,37.566,M,125.3,3006*5E
[2021-02-22 15:41:17.983] $GNGGA,064117.40,3713.956086386,N,13701.425141526,E,5,04,3.33,91.160,M,37.566,M,125.4,3006*5A
[2021-02-22 15:41:18.108] $GNGGA,064117.50,3713.956097117,N,13701.425135578,E,5,03,99.90,91.284,M,37.566,M,125.5,3006*6C
[2021-02-22 15:41:18.186] $GNGGA,064117.60,3713.956095008,N,13701.425136407,E,5,04,3.33,91.316,M,37.566,M,125.6,3006*5C
[2021-02-22 15:41:18.280] $GNGGA,064117.70,3713.956087331,N,13701.425124231,E,5,04,3.33,91.395,M,37.566,M,125.7,3006*5D
[2021-02-22 15:41:18.389] $GNGGA,064117.80,3713.956093717,N,13701.425102191,E,5,04,3.33,91.470,M,37.566,M,125.8,3006*59
[2021-02-22 15:41:18.483] $GNGGA,064117.90,3713.956094759,N,13701.425107477,E,5,04,3.33,91.581,M,37.566,M,125.9,3006*53
[2021-02-22 15:41:18.608] $GNGGA,064118.00,3713.956079744,N,13701.425119334,E,5,04,3.33,91.649,M,37.566,M,126.0,3006*58
[2021-02-22 15:41:18.686] $GNGGA,064118.10,3713.956067435,N,13701.425183735,E,5,04,3.33,91.650,M,37.566,M,126.1,3006*5C
[2021-02-22 15:41:18.780] $GNGGA,064118.20,3713.956097790,N,13701.425221916,E,5,04,3.33,91.808,M,37.566,M,126.2,3006*58
[2021-02-22 15:41:18.889] $GNGGA,064118.30,3713.956030605,N,13701.425226648,E,5,04,3.33,92.120,M,37.566,M,126.3,3006*5B
[2021-02-22 15:41:18.983] $GNGGA,064118.40,3713.956029573,N,13701.425218181,E,5,04,3.33,92.240,M,37.566,M,126.4,3006*5B
[2021-02-22 15:41:19.108] $GNGGA,064118.50,3713.956037198,N,13701.425251368,E,5,04,3.33,92.270,M,37.566,M,126.5,3006*5E
[2021-02-22 15:41:19.186] $GNGGA,064118.60,3713.956075576,N,13701.425524843,E,5,04,3.33,91.813,M,37.566,M,126.6,3006*57
[2021-02-22 15:41:19.280] $GNGGA,064118.70,3713.956071623,N,13701.425523384,E,5,04,3.33,91.964,M,37.566,M,126.7,3006*56
[2021-02-22 15:41:19.389] $GNGGA,064118.80,3713.956069860,N,13701.425539060,E,5,04,3.33,92.016,M,37.566,M,126.8,3006*5B
[2021-02-22 15:41:19.483] $GNGGA,064118.90,3713.956056700,N,13701.425528988,E,5,04,3.33,92.206,M,37.566,M,126.9,3006*52
[2021-02-22 15:41:19.608] $GNGGA,064119.00,3713.956041540,N,13701.425520103,E,5,04,3.33,92.351,M,37.566,M,127.0,3006*52
[2021-02-22 15:41:19.686] $GNGGA,064119.10,3713.956032754,N,13701.425511265,E,5,04,3.33,92.433,M,37.566,M,127.1,3006*53
[2021-02-22 15:41:19.780] $GNGGA,064119.20,3713.956021422,N,13701.425504283,E,5,04,3.33,92.513,M,37.566,M,127.2,3006*5C
[2021-02-22 15:41:19.889] $GNGGA,064119.30,3713.956005144,N,13701.425501285,E,5,04,3.33,92.589,M,37.566,M,127.3,3006*5F
[2021-02-22 15:41:20.014] $GNGGA,064119.40,3713.956020201,N,13701.425528831,E,5,04,3.33,92.452,M,37.566,M,127.4,3006*53
[2021-02-22 15:41:20.092] $GNGGA,064119.50,3713.956028449,N,13701.425543126,E,5,04,3.33,92.375,M,37.566,M,127.5,3006*51
[2021-02-22 15:41:20.186] $GNGGA,064119.60,3713.956041190,N,13701.425561910,E,5,04,3.33,92.275,M,37.566,M,127.6,3006*53
[2021-02-22 15:41:20.295] $GNGGA,064119.70,3713.956058397,N,13701.425591048,E,5,04,3.33,92.147,M,37.566,M,127.7,3006*57
[2021-02-22 15:41:20.404] $GNGGA,064119.80,3713.956074963,N,13701.425621476,E,5,04,3.33,92.013,M,37.566,M,127.8,3006*59
[2021-02-22 15:41:20.483] $GNGGA,064119.90,3713.956095175,N,13701.425640087,E,5,04,3.33,91.978,M,37.566,M,127.9,3006*53
[2021-02-22 15:41:20.592] $GNGGA,064120.00,3713.956111868,N,13701.425667266,E,5,04,3.33,91.861,M,37.566,M,128.0,3006*5F
[2021-02-22 15:41:20.686] $GNGGA,064120.10,3713.956127894,N,13701.425684157,E,5,04,3.33,91.828,M,37.566,M,128.1,3006*58
[2021-02-22 15:41:20.811] $GNGGA,064120.20,3713.956142193,N,13701.425708879,E,5,04,3.33,91.729,M,37.566,M,128.2,3006*5B
[2021-02-22 15:41:20.889] $GNGGA,064120.30,3713.956155107,N,13701.425722369,E,5,04,3.33,91.692,M,37.566,M,128.3,3006*53
[2021-02-22 15:41:20.983] $GNGGA,064120.40,3713.956160100,N,13701.425730648,E,5,04,3.33,91.664,M,37.566,M,128.4,3006*5E
[2021-02-22 15:41:21.092] $GNGGA,064120.50,3713.956208238,N,13701.425802210,E,5,04,3.33,91.417,M,37.566,M,128.5,3006*5A
[2021-02-22 15:41:21.201] $GNGGA,064120.60,3713.956222166,N,13701.425816865,E,5,04,3.33,91.389,M,37.566,M,128.6,3006*57
[2021-02-22 15:41:21.279] $GNGGA,064120.70,3713.956297991,N,13701.425931050,E,5,04,3.33,91.008,M,37.566,M,128.7,3006*59
[2021-02-22 15:41:21.389] $GNGGA,064120.80,3713.956310621,N,13701.425941664,E,5,04,3.33,90.990,M,37.566,M,128.8,3006*5C
[2021-02-22 15:41:21.483] $GNGGA,064120.90,3713.956308694,N,13701.425949130,E,5,12,1.07,90.938,M,37.566,M,128.9,3006*55
[2021-02-22 15:41:21.592] $GNGGA,064121.00,3713.956325753,N,13701.425982882,E,5,12,1.07,90.750,M,37.566,M,129.0,3006*57
[2021-02-22 15:41:21.701] $GNGGA,064121.10,3713.956344209,N,13701.426008330,E,5,12,1.07,90.593,M,37.566,M,129.1,3006*5D
[2021-02-22 15:41:21.779] $GNGGA,064121.20,3713.956350389,N,13701.426013348,E,5,12,1.07,90.554,M,37.566,M,129.2,3006*5F
[2021-02-22 15:41:21.889] $GNGGA,064121.30,3713.956361695,N,13701.426026301,E,5,12,1.07,90.453,M,37.566,M,129.3,3006*58
[2021-02-22 15:41:21.983] $GNGGA,064121.40,3713.956365224,N,13701.426028794,E,5,12,1.07,90.429,M,37.566,M,129.4,3006*59
[2021-02-22 15:41:22.092] $GNGGA,064121.50,3713.956375533,N,13701.426033455,E,5,12,1.07,90.393,M,37.566,M,129.5,3006*5B
[2021-02-22 15:41:22.201] $GNGGA,064121.60,3713.956381026,N,13701.426032492,E,5,12,1.07,90.384,M,37.566,M,129.6,3006*5D
[2021-02-22 15:41:22.279] $GNGGA,064121.70,3713.956368979,N,13701.426008261,E,5,12,1.07,90.331,M,37.566,M,129.7,3006*54
[2021-02-22 15:41:22.389] $GNGGA,064121.80,3713.956372739,N,13701.426007719,E,5,12,1.07,90.344,M,37.566,M,129.8,3006*52
[2021-02-22 15:41:22.482] $GNGGA,064121.90,3713.956384711,N,13701.426021080,E,5,12,1.07,90.303,M,37.566,M,129.9,3006*51
[2021-02-22 15:41:22.592] $GNGGA,064122.00,3713.956387329,N,13701.426018758,E,5,12,1.07,90.344,M,37.566,M,130.0,3006*5D
[2021-02-22 15:41:22.701] $GNGGA,064122.10,3713.956384978,N,13701.426015653,E,5,12,1.07,90.359,M,37.566,M,130.1,3006*5B
[2021-02-22 15:41:22.779] $GNGGA,064122.20,3713.956389258,N,13701.426013734,E,5,12,1.07,90.392,M,37.566,M,130.2,3006*5E
[2021-02-22 15:41:22.889] $GNGGA,064122.30,3713.956389831,N,13701.426012742,E,5,12,1.07,90.411,M,37.566,M,130.3,3006*57
[2021-02-22 15:41:22.982] $GNGGA,064122.40,3713.956394262,N,13701.426009895,E,5,12,1.07,90.439,M,37.566,M,130.4,3006*52
[2021-02-22 15:41:23.092] $GNGGA,064122.50,3713.956393166,N,13701.426004968,E,5,12,1.07,90.447,M,37.566,M,130.5,3006*55
[2021-02-22 15:41:23.201] $GNGGA,064122.60,3713.956392611,N,13701.425997119,E,5,13,0.91,90.490,M,37.566,M,130.6,3006*58
[2021-02-22 15:41:23.279] $GNGGA,064122.70,3713.956389182,N,13701.425991209,E,5,12,1.07,90.496,M,37.566,M,130.7,3006*52
[2021-02-22 15:41:23.389] $GNGGA,064122.80,3713.956388985,N,13701.425987883,E,5,12,1.07,90.516,M,37.566,M,130.8,3006*5A
[2021-02-22 15:41:23.482] $GNGGA,064122.90,3713.956385641,N,13701.425982367,E,5,12,1.07,90.522,M,37.566,M,130.9,3006*53
[2021-02-22 15:41:23.592] $GNGGA,064123.00,3713.956384256,N,13701.425976015,E,5,12,1.07,90.551,M,37.566,M,131.0,3006*59
[2021-02-22 15:41:23.717] $GNGGA,064123.10,3713.956380851,N,13701.425970491,E,5,12,1.07,90.570,M,37.566,M,131.1,3006*5D
[2021-02-22 15:41:23.779] $GNGGA,064123.20,3713.956378928,N,13701.425966404,E,5,12,1.07,90.593,M,37.566,M,131.2,3006*53
[2021-02-22 15:41:23.889] $GNGGA,064123.30,3713.956377213,N,13701.425962016,E,5,12,1.07,90.613,M,37.566,M,131.3,3006*57
[2021-02-22 15:41:23.982] $GNGGA,064123.40,3713.956375152,N,13701.425959121,E,5,12,1.07,90.638,M,37.566,M,131.4,3006*57
[2021-02-22 15:41:24.092] $GNGGA,064123.50,3713.956372144,N,13701.425954110,E,5,12,1.07,90.653,M,37.566,M,131.5,3006*55
[2021-02-22 15:41:24.217] $GNGGA,064123.60,3713.956370133,N,13701.425952343,E,5,12,1.07,90.680,M,37.566,M,131.6,3006*5B
[2021-02-22 15:41:24.279] $GNGGA,064123.70,3713.956367869,N,13701.425948956,E,5,12,1.07,90.691,M,37.566,M,131.7,3006*5E
[2021-02-22 15:41:24.389] $GNGGA,064123.80,3713.956365380,N,13701.425947237,E,5,12,1.07,90.716,M,37.566,M,131.8,3006*5D
[2021-02-22 15:41:24.482] $GNGGA,064123.90,3713.956362091,N,13701.425944903,E,5,12,1.07,90.722,M,37.566,M,131.9,3006*51
[2021-02-22 15:41:24.607] $GNGGA,064124.00,3713.956360536,N,13701.425944251,E,5,12,1.07,90.747,M,37.566,M,132.0,3006*50
[2021-02-22 15:41:24.685] $GNGGA,064124.10,3713.956357531,N,13701.425945312,E,5,12,1.07,90.752,M,37.566,M,132.1,3006*50
[2021-02-22 15:41:24.779] $GNGGA,064124.20,3713.956355824,N,13701.425946933,E,5,12,1.07,90.783,M,37.566,M,132.2,3006*5D
[2021-02-22 15:41:24.889] $GNGGA,064124.30,3713.956357723,N,13701.425953161,E,5,12,1.07,90.793,M,37.566,M,132.3,3006*5D
[2021-02-22 15:41:25.014] $GNGGA,064124.40,3713.956361539,N,13701.425959447,E,5,13,0.91,90.807,M,37.566,M,132.4,3006*57
[2021-02-22 15:41:25.092] $GNGGA,064124.50,3713.956353773,N,13701.425959199,E,5,13,0.91,90.827,M,37.566,M,132.5,3006*5E
[2021-02-22 15:41:25.185] $GNGGA,064124.60,3713.956344062,N,13701.425960133,E,5,13,0.91,90.850,M,37.566,M,132.6,3006*55
[2021-02-22 15:41:25.295] $GNGGA,064124.70,3713.956341232,N,13701.425968908,E,5,13,0.91,90.857,M,37.566,M,132.7,3006*58
[2021-02-22 15:41:25.404] $GNGGA,064124.80,3713.956334197,N,13701.425988018,E,5,13,0.91,90.888,M,37.566,M,132.8,3006*52
[2021-02-22 15:41:25.482] $GNGGA,064124.90,3713.956328463,N,13701.426006349,E,5,13,0.91,90.910,M,37.566,M,132.9,3006*5A
[2021-02-22 15:41:25.592] $GNGGA,064125.00,3713.956323610,N,13701.426008724,E,5,13,0.91,90.943,M,37.566,M,133.0,3006*50
[2021-02-22 15:41:25.685] $GNGGA,064125.10,3713.956324271,N,13701.426005000,E,5,13,0.91,90.958,M,37.566,M,133.1,3006*52
[2021-02-22 15:41:25.795] $GNGGA,064125.20,3713.956331573,N,13701.425996593,E,5,13,0.91,90.972,M,37.566,M,133.2,3006*54
[2021-02-22 15:41:25.904] $GNGGA,064125.30,3713.956334866,N,13701.425989651,E,5,13,0.91,90.988,M,37.566,M,133.3,3006*5E
[2021-02-22 15:41:25.982] $GNGGA,064125.40,3713.956339107,N,13701.425985077,E,5,13,0.91,91.001,M,37.566,M,133.4,3006*5A
[2021-02-22 15:41:26.092] $GNGGA,064125.50,3713.956341468,N,13701.425984641,E,5,13,0.91,91.007,M,37.566,M,133.5,3006*5D
[2021-02-22 15:41:26.185] $GNGGA,064125.60,3713.956341376,N,13701.425980252,E,5,13,0.91,91.028,M,37.566,M,133.6,3006*5A
[2021-02-22 15:41:26.295] $GNGGA,064125.70,3713.956336220,N,13701.425978844,E,5,13,0.91,91.048,M,37.566,M,133.7,3006*54
[2021-02-22 15:41:26.404] $GNGGA,064125.80,3713.956334866,N,13701.425976159,E,5,13,0.91,91.065,M,37.566,M,133.8,3006*5A
[2021-02-22 15:41:26.482] $GNGGA,064125.90,3713.956330747,N,13701.425977122,E,5,13,0.91,91.081,M,37.566,M,133.9,3006*55
[2021-02-22 15:41:26.592] $GNGGA,064126.00,3713.956329915,N,13701.425981476,E,5,13,0.91,91.091,M,37.566,M,134.0,3006*5C
[2021-02-22 15:41:26.685] $GNGGA,064126.10,3713.956325477,N,13701.425982208,E,5,13,0.91,91.109,M,37.566,M,134.1,3006*55
[2021-02-22 15:41:26.795] $GNGGA,064126.20,3713.956332560,N,13701.425988330,E,5,13,0.91,91.107,M,37.566,M,134.2,3006*5A
[2021-02-22 15:41:26.904] $GNGGA,064126.30,3713.956328913,N,13701.425986689,E,5,13,0.91,91.131,M,37.566,M,134.3,3006*55
[2021-02-22 15:41:26.982] $GNGGA,064126.40,3713.956331918,N,13701.425994450,E,5,13,0.91,91.140,M,37.566,M,134.4,3006*55
[2021-02-22 15:41:27.091] $GNGGA,064126.50,3713.956326648,N,13701.425995860,E,5,13,0.91,91.164,M,37.566,M,134.5,3006*51
[2021-02-22 15:41:27.185] $GNGGA,064126.60,3713.956331420,N,13701.425997609,E,5,13,0.91,91.187,M,37.566,M,134.6,3006*55
[2021-02-22 15:41:27.295] $GNGGA,064126.70,3713.956329475,N,13701.425992707,E,5,13,0.91,91.214,M,37.566,M,134.7,3006*5F
[2021-02-22 15:41:27.420] $GNGGA,064126.80,3713.956329368,N,13701.425991839,E,5,13,0.91,91.241,M,37.566,M,134.8,3006*55
[2021-02-22 15:41:27.482] $GNGGA,064126.90,3713.956329281,N,13701.425985148,E,5,13,0.91,91.269,M,37.566,M,134.9,3006*53
[2021-02-22 15:41:27.591] $GNGGA,064127.00,3713.956330065,N,13701.425979037,E,5,13,0.91,91.295,M,37.566,M,135.0,3006*5A
[2021-02-22 15:41:27.685] $GNGGA,064127.10,3713.956326997,N,13701.425974608,E,5,13,0.91,91.324,M,37.566,M,135.1,3006*55
[2021-02-22 15:41:27.795] $GNGGA,064127.20,3713.956325810,N,13701.425970851,E,5,13,0.91,91.342,M,37.566,M,135.2,3006*5E
[2021-02-22 15:41:27.904] $GNGGA,064127.30,3713.956323524,N,13701.425965813,E,5,13,0.91,91.361,M,37.566,M,135.3,3006*51
[2021-02-22 15:41:27.982] $GNGGA,064127.40,3713.956323242,N,13701.425961677,E,5,13,0.91,91.387,M,37.566,M,135.4,3006*56
[2021-02-22 15:41:28.091] $GNGGA,064127.50,3713.956318864,N,13701.425958321,E,5,13,0.91,91.402,M,37.566,M,135.5,3006*56
[2021-02-22 15:41:28.185] $GNGGA,064127.60,3713.956318284,N,13701.425951837,E,5,13,0.91,91.416,M,37.566,M,135.6,3006*52
[2021-02-22 15:41:28.295] $GNGGA,064127.70,3713.956318221,N,13701.425947496,E,5,13,0.91,91.431,M,37.566,M,135.7,3006*58
[2021-02-22 15:41:28.404] $GNGGA,064127.80,3713.956314597,N,13701.425945147,E,5,12,1.07,91.447,M,37.566,M,135.8,3006*5B
[2021-02-22 15:41:28.482] $GNGGA,064127.90,3713.956307736,N,13701.425942442,E,5,12,1.07,91.475,M,37.566,M,135.9,3006*56
[2021-02-22 15:41:28.591] $GNGGA,064128.00,3713.956305875,N,13701.425941348,E,5,12,1.07,91.497,M,37.566,M,136.0,3006*52
[2021-02-22 15:41:28.685] $GNGGA,064128.10,3713.956301571,N,13701.425940749,E,5,12,1.07,91.525,M,37.566,M,136.1,3006*53
[2021-02-22 15:41:28.810] $GNGGA,064128.20,3713.956298119,N,13701.425940445,E,5,12,1.07,91.551,M,37.566,M,136.2,3006*54
[2021-02-22 15:41:28.888] $GNGGA,064128.30,3713.956294668,N,13701.425941173,E,5,12,1.07,91.564,M,37.566,M,136.3,3006*5E
[2021-02-22 15:41:28.982] $GNGGA,064128.40,3713.956290456,N,13701.425944524,E,5,12,1.07,91.593,M,37.566,M,136.4,3006*5E
[2021-02-22 15:41:29.091] $GNGGA,064128.50,3713.956286167,N,13701.425945981,E,5,12,1.07,91.611,M,37.566,M,136.5,3006*55
[2021-02-22 15:41:29.216] $GNGGA,064128.60,3713.956282969,N,13701.425947495,E,5,12,1.07,91.625,M,37.566,M,136.6,3006*5A
[2021-02-22 15:41:29.279] $GNGGA,064128.70,3713.956280234,N,13701.425948871,E,5,12,1.07,91.643,M,37.566,M,136.7,3006*52
[2021-02-22 15:41:29.388] $GNGGA,064128.80,3713.956277531,N,13701.425949355,E,5,12,1.07,91.667,M,37.566,M,136.8,3006*52
[2021-02-22 15:41:29.482] $GNGGA,064128.90,3713.956275906,N,13701.425949555,E,5,12,1.07,91.686,M,37.566,M,136.9,3006*51
[2021-02-22 15:41:29.607] $GNGGA,064129.00,3713.956273586,N,13701.425949755,E,5,12,1.07,91.704,M,37.566,M,137.0,3006*5A
[2021-02-22 15:41:29.685] $GNGGA,064129.10,3713.956273306,N,13701.425946618,E,5,12,1.07,91.716,M,37.566,M,137.1,3006*50
[2021-02-22 15:41:29.794] $GNGGA,064129.20,3713.956270924,N,13701.425948033,E,5,12,1.07,91.735,M,37.566,M,137.2,3006*59
[2021-02-22 15:41:29.888] $GNGGA,064129.30,3713.956266968,N,13701.425949459,E,5,12,1.07,91.755,M,37.566,M,137.3,3006*59
[2021-02-22 15:41:30.013] $GNGGA,064129.40,3713.956262785,N,13701.425950235,E,5,13,0.91,91.772,M,37.566,M,137.4,3006*5E
[2021-02-22 15:41:30.091] $GNGGA,064129.50,3713.956257576,N,13701.425953063,E,5,13,0.91,91.792,M,37.566,M,137.5,3006*5A
[2021-02-22 15:41:30.185] $GNGGA,064129.60,3713.956251889,N,13701.425953330,E,5,13,0.91,91.814,M,37.566,M,137.6,3006*55
[2021-02-22 15:41:30.294] $GNGGA,064129.70,3713.956248424,N,13701.425953330,E,5,13,0.91,91.828,M,37.566,M,137.7,3006*59
[2021-02-22 15:41:30.388] $GNGGA,064129.80,3713.956245450,N,13701.425955046,E,5,13,0.91,91.848,M,37.566,M,137.8,3006*55
[2021-02-22 15:41:30.513] $GNGGA,064129.90,3713.956243074,N,13701.425954667,E,5,13,0.91,91.863,M,37.566,M,137.9,3006*5C
[2021-02-22 15:41:30.591] $GNGGA,064130.00,3713.956240296,N,13701.425956392,E,5,13,0.91,91.879,M,37.566,M,138.0,3006*50
[2021-02-22 15:41:30.685] $GNGGA,064130.10,3713.956237557,N,13701.425958562,E,5,13,0.91,91.895,M,37.566,M,138.1,3006*5F
[2021-02-22 15:41:30.779] $GNGGA,064130.20,3713.956234718,N,13701.425959472,E,5,13,0.91,91.904,M,37.566,M,138.2,3006*5D
[2021-02-22 15:41:30.888] $GNGGA,064130.30,3713.956230894,N,13701.425960717,E,5,13,0.91,91.918,M,37.566,M,138.3,3006*55
[2021-02-22 15:41:31.013] $GNGGA,064130.40,3713.956229718,N,13701.425962013,E,5,13,0.91,91.920,M,37.566,M,138.4,3006*5C
[2021-02-22 15:41:31.091] $GNGGA,064130.50,3713.956227282,N,13701.425962168,E,5,13,0.91,91.928,M,37.566,M,138.5,3006*51
[2021-02-22 15:41:31.185] $GNGGA,064130.60,3713.956226378,N,13701.425963132,E,5,13,0.91,91.936,M,37.566,M,138.6,3006*55
[2021-02-22 15:41:31.294] $GNGGA,064130.70,3713.956225173,N,13701.425963718,E,5,13,0.91,91.943,M,37.566,M,138.7,3006*53
[2021-02-22 15:41:31.388] $GNGGA,064130.80,3713.956228551,N,13701.425962483,E,5,13,0.91,91.942,M,37.566,M,138.8,3006*5B
[2021-02-22 15:41:31.513] $GNGGA,064130.90,3713.956227805,N,13701.425962295,E,5,13,0.91,91.949,M,37.566,M,138.9,3006*52
[2021-02-22 15:41:31.591] $GNGGA,064131.00,3713.956226181,N,13701.425963778,E,5,13,0.91,91.950,M,37.566,M,139.0,3006*59
[2021-02-22 15:41:31.685] $GNGGA,064131.10,3713.956225995,N,13701.425964588,E,5,13,0.91,91.953,M,37.566,M,139.1,3006*5E
[2021-02-22 15:41:31.779] $GNGGA,064131.20,3713.956224214,N,13701.425965766,E,5,13,0.91,91.965,M,37.566,M,139.2,3006*5B
[2021-02-22 15:41:31.888] $GNGGA,064131.30,3713.956222222,N,13701.425966737,E,5,13,0.91,91.970,M,37.566,M,139.3,3006*5B
[2021-02-22 15:41:32.013] $GNGGA,064131.40,3713.956222828,N,13701.425966963,E,5,13,0.91,91.980,M,37.566,M,139.4,3006*5B
[2021-02-22 15:41:32.091] $GNGGA,064131.50,3713.956222305,N,13701.425967160,E,5,13,0.91,91.991,M,37.566,M,139.5,3006*55
[2021-02-22 15:41:32.185] $GNGGA,064131.60,3713.956222168,N,13701.425967568,E,5,13,0.91,92.002,M,37.566,M,139.6,3006*50
[2021-02-22 15:41:32.279] $GNGGA,064131.70,3713.956222474,N,13701.425967026,E,5,13,0.91,92.010,M,37.566,M,139.7,3006*54
[2021-02-22 15:41:32.388] $GNGGA,064131.80,3713.956222947,N,13701.425968001,E,5,13,0.91,92.018,M,37.566,M,139.8,3006*5B
[2021-02-22 15:41:32.513] $GNGGA,064131.90,3713.956225105,N,13701.425968570,E,5,13,0.91,92.023,M,37.566,M,139.9,3006*59
[2021-02-22 15:41:32.591] $GNGGA,064132.00,3713.956226057,N,13701.425969697,E,5,13,0.91,92.030,M,37.566,M,140.0,3006*58
[2021-02-22 15:41:32.685] $GNGGA,064132.10,3713.956227050,N,13701.425969955,E,5,13,0.91,92.038,M,37.566,M,140.1,3006*57
[2021-02-22 15:41:32.794] $GNGGA,064132.20,3713.956227785,N,13701.425970888,E,5,13,0.91,92.046,M,37.566,M,140.2,3006*58
[2021-02-22 15:41:32.904] $GNGGA,064132.30,3713.956228911,N,13701.425970209,E,5,13,0.91,92.051,M,37.566,M,140.3,3006*51
[2021-02-22 15:41:32.982] $GNGGA,064132.40,3713.956227683,N,13701.425970923,E,5,13,0.91,92.063,M,37.566,M,140.4,3006*58
[2021-02-22 15:41:33.091] $GNGGA,064132.50,3713.956228451,N,13701.425971369,E,5,13,0.91,92.072,M,37.566,M,140.5,3006*5F
[2021-02-22 15:41:33.185] $GNGGA,064132.60,3713.956226582,N,13701.425972336,E,5,13,0.91,92.082,M,37.566,M,140.6,3006*58
[2021-02-22 15:41:33.310] $GNGGA,064132.70,3713.956226915,N,13701.425971621,E,5,13,0.91,92.086,M,37.566,M,140.7,3006*5E
[2021-02-22 15:41:33.388] $GNGGA,064132.80,3713.956225739,N,13701.425969501,E,5,13,0.91,92.093,M,37.566,M,140.8,3006*51
[2021-02-22 15:41:33.482] $GNGGA,064132.90,3713.956223377,N,13701.425969684,E,5,13,0.91,92.102,M,37.566,M,140.9,3006*5E
[2021-02-22 15:41:33.591] $GNGGA,064133.00,3713.956222461,N,13701.425968031,E,5,13,0.91,92.108,M,37.566,M,141.0,3006*5C
[2021-02-22 15:41:33.716] $GNGGA,064133.10,3713.956221627,N,13701.425966521,E,5,13,0.91,92.115,M,37.566,M,141.1,3006*59
[2021-02-22 15:41:33.779] $GNGGA,064133.20,3713.956220282,N,13701.425966545,E,5,13,0.91,92.122,M,37.566,M,141.2,3006*55
[2021-02-22 15:41:33.888] $GNGGA,064133.30,3713.956220379,N,13701.425965467,E,5,13,0.91,92.125,M,37.566,M,141.3,3006*55
[2021-02-22 15:41:33.982] $GNGGA,064133.40,3713.956219385,N,13701.425964682,E,5,13,0.91,92.131,M,37.566,M,141.4,3006*51
[2021-02-22 15:41:34.107] $GNGGA,064133.50,3713.956218919,N,13701.425963791,E,5,13,0.91,92.135,M,37.566,M,141.5,3006*5F
[2021-02-22 15:41:34.185] $GNGGA,064133.60,3713.956217534,N,13701.425962071,E,5,13,0.91,92.142,M,37.566,M,141.6,3006*5B
[2021-02-22 15:41:34.279] $GNGGA,064133.70,3713.956216193,N,13701.425962262,E,5,13,0.91,92.150,M,37.566,M,141.7,3006*50
[2021-02-22 15:41:34.388] $GNGGA,064133.80,3713.956216414,N,13701.425960951,E,5,13,0.91,92.154,M,37.566,M,141.8,3006*57
[2021-02-22 15:41:34.497] $GNGGA,064133.90,3713.956215692,N,13701.425960915,E,5,13,0.91,92.162,M,37.566,M,141.9,3006*5D
[2021-02-22 15:41:34.607] $GNGGA,064134.00,3713.956214404,N,13701.425960478,E,5,13,0.91,92.165,M,37.566,M,142.0,3006*54
[2021-02-22 15:41:34.685] $GNGGA,064134.10,3713.956215255,N,13701.425961129,E,5,13,0.91,92.166,M,37.566,M,142.1,3006*54
[2021-02-22 15:41:34.779] $GNGGA,064134.20,3713.956214828,N,13701.425961624,E,5,13,0.91,92.166,M,37.566,M,142.2,3006*5F
[2021-02-22 15:41:34.888] $GNGGA,064134.30,3713.956215971,N,13701.425962490,E,5,13,0.91,92.165,M,37.566,M,142.3,3006*5E
[2021-02-22 15:41:34.982] $GNGGA,064134.40,3713.956215877,N,13701.425962491,E,5,13,0.91,92.161,M,37.566,M,142.4,3006*5C
[2021-02-22 15:41:35.107] $GNGGA,064134.50,3713.956216909,N,13701.425963468,E,5,13,0.91,92.159,M,37.566,M,142.5,3006*5B
[2021-02-22 15:41:35.185] $GNGGA,064134.60,3713.956216911,N,13701.425964906,E,5,13,0.91,92.161,M,37.566,M,142.6,3006*5B
[2021-02-22 15:41:35.294] $GNGGA,064134.70,3713.956218222,N,13701.425965302,E,5,13,0.91,92.161,M,37.566,M,142.7,3006*51
[2021-02-22 15:41:35.388] $GNGGA,064134.80,3713.956219002,N,13701.425966508,E,5,13,0.91,92.160,M,37.566,M,142.8,3006*5E
[2021-02-22 15:41:35.482] $GNGGA,064134.90,3713.956220033,N,13701.425967727,E,5,13,0.91,92.159,M,37.566,M,142.9,3006*52
[2021-02-22 15:41:35.607] $GNGGA,064135.00,3713.956218619,N,13701.425967820,E,5,13,0.91,92.162,M,37.566,M,143.0,3006*57
[2021-02-22 15:41:35.685] $GNGGA,064135.10,3713.956218589,N,13701.425967954,E,5,13,0.91,92.158,M,37.566,M,143.1,3006*56
[2021-02-22 15:41:35.778] $GNGGA,064135.20,3713.956220733,N,13701.425965211,E,5,13,0.91,92.155,M,37.566,M,143.2,3006*5B
[2021-02-22 15:41:35.888] $GNGGA,064135.30,3713.956220369,N,13701.425962274,E,5,13,0.91,92.153,M,37.566,M,143.3,3006*52
[2021-02-22 15:41:35.982] $GNGGA,064135.40,3713.956221174,N,13701.425958998,E,5,13,0.91,92.149,M,37.566,M,143.4,3006*56
[2021-02-22 15:41:36.106] $GNGGA,064135.50,3713.956221851,N,13701.425955850,E,5,13,0.91,92.146,M,37.566,M,143.5,3006*5F
[2021-02-22 15:41:36.185] $GNGGA,064135.60,3713.956223388,N,13701.425951586,E,5,13,0.91,92.145,M,37.566,M,143.6,3006*53
[2021-02-22 15:41:36.278] $GNGGA,064135.70,3713.956223264,N,13701.425948477,E,5,13,0.91,92.145,M,37.566,M,143.7,3006*57
[2021-02-22 15:41:36.388] $GNGGA,064135.80,3713.956224152,N,13701.425944879,E,5,13,0.91,92.143,M,37.566,M,143.8,3006*5E
[2021-02-22 15:41:36.482] $GNGGA,064135.90,3713.956225612,N,13701.425943323,E,5,13,0.91,92.139,M,37.566,M,143.9,3006*52
[2021-02-22 15:41:36.606] $GNGGA,064136.00,3713.956225558,N,13701.425941699,E,5,13,0.91,92.142,M,37.566,M,144.0,3006*51
[2021-02-22 15:41:36.685] $GNGGA,064136.10,3713.956226013,N,13701.425939683,E,5,13,0.91,92.141,M,37.566,M,144.1,3006*5F
[2021-02-22 15:41:36.778] $GNGGA,064136.20,3713.956228230,N,13701.425937833,E,5,13,0.91,92.139,M,37.566,M,144.2,3006*56
[2021-02-22 15:41:36.888] $GNGGA,064136.30,3713.956229565,N,13701.425935198,E,5,13,0.91,92.138,M,37.566,M,144.3,3006*5B
[2021-02-22 15:41:36.981] $GNGGA,064136.40,3713.956231843,N,13701.425931057,E,5,13,0.91,92.135,M,37.566,M,144.4,3006*50
[2021-02-22 15:41:37.106] $GNGGA,064136.50,3713.956234654,N,13701.425923670,E,5,13,0.91,92.133,M,37.566,M,144.5,3006*5B
[2021-02-22 15:41:37.185] $GNGGA,064136.60,3713.956239453,N,13701.425914957,E,5,13,0.91,92.129,M,37.566,M,144.6,3006*56
[2021-02-22 15:41:37.294] $GNGGA,064136.70,3713.956244356,N,13701.425906277,E,5,12,1.07,92.130,M,37.566,M,144.7,3006*53
[2021-02-22 15:41:37.388] $GNGGA,064136.80,3713.956249562,N,13701.425900597,E,5,12,1.07,92.130,M,37.566,M,144.8,3006*50
[2021-02-22 15:41:37.513] $GNGGA,064136.90,3713.956251029,N,13701.425896804,E,5,12,1.07,92.131,M,37.566,M,144.9,3006*5B
[2021-02-22 15:41:37.591] $GNGGA,064137.00,3713.956253488,N,13701.425895304,E,5,12,1.07,92.130,M,37.566,M,145.0,3006*5F
[2021-02-22 15:41:37.685] $GNGGA,064137.10,3713.956252287,N,13701.425896317,E,5,12,1.07,92.137,M,37.566,M,145.1,3006*51
[2021-02-22 15:41:37.794] $GNGGA,064137.20,3713.956254105,N,13701.425894374,E,5,12,1.07,92.134,M,37.566,M,145.2,3006*5A
[2021-02-22 15:41:37.903] $GNGGA,064137.30,3713.956252727,N,13701.425892784,E,5,12,1.07,92.149,M,37.566,M,145.3,3006*5D
[2021-02-22 15:41:37.981] $GNGGA,064137.40,3713.956253175,N,13701.425888862,E,5,12,1.07,92.153,M,37.566,M,145.4,3006*5A
[2021-02-22 15:41:38.091] $GNGGA,064137.50,3713.956253092,N,13701.425886229,E,5,12,1.07,92.159,M,37.566,M,145.5,3006*53
[2021-02-22 15:41:38.185] $GNGGA,064137.60,3713.956252032,N,13701.425886427,E,5,12,1.07,92.168,M,37.566,M,145.6,3006*52
[2021-02-22 15:41:38.309] $GNGGA,064137.70,3713.956251743,N,13701.425885005,E,5,12,1.07,92.176,M,37.566,M,145.7,3006*58
[2021-02-22 15:41:38.388] $GNGGA,064137.80,3713.956248617,N,13701.425885916,E,5,12,1.07,92.189,M,37.566,M,145.8,3006*5B
[2021-02-22 15:41:38.481] $GNGGA,064137.90,3713.956246540,N,13701.425885554,E,5,12,1.07,92.199,M,37.566,M,145.9,3006*5F
[2021-02-22 15:41:38.591] $GNGGA,064138.00,3713.956244488,N,13701.425885606,E,5,12,1.07,92.210,M,37.566,M,146.0,3006*52
[2021-02-22 15:41:38.716] $GNGGA,064138.10,3713.956243817,N,13701.425883681,E,5,12,1.07,92.220,M,37.566,M,146.1,3006*55
[2021-02-22 15:41:38.778] $GNGGA,064138.20,3713.956244802,N,13701.425881107,E,5,12,1.07,92.224,M,37.566,M,146.2,3006*59
[2021-02-22 15:41:38.888] $GNGGA,064138.30,3713.956243424,N,13701.425881403,E,5,12,1.07,92.237,M,37.566,M,146.3,3006*55
[2021-02-22 15:41:38.981] $GNGGA,064138.40,3713.956242073,N,13701.425880140,E,5,12,1.07,92.240,M,37.566,M,146.4,3006*51
[2021-02-22 15:41:39.091] $GNGGA,064138.50,3713.956239646,N,13701.425879912,E,5,12,1.07,92.252,M,37.566,M,146.5,3006*57
[2021-02-22 15:41:39.216] $GNGGA,064138.60,3713.956239562,N,13701.425877139,E,5,12,1.07,92.255,M,37.566,M,146.6,3006*5A
[2021-02-22 15:41:39.278] $GNGGA,064138.70,3713.956238899,N,13701.425875353,E,5,12,1.07,92.264,M,37.566,M,146.7,3006*5C
[2021-02-22 15:41:39.388] $GNGGA,064138.80,3713.956236349,N,13701.425874262,E,5,12,1.07,92.272,M,37.566,M,146.8,3006*51
[2021-02-22 15:41:39.481] $GNGGA,064138.90,3713.956236804,N,13701.425870689,E,5,12,1.07,92.281,M,37.566,M,146.9,3006*5A
[2021-02-22 15:41:39.591] $GNGGA,064139.00,3713.956235612,N,13701.425867900,E,5,12,1.07,92.289,M,37.566,M,147.0,3006*50
[2021-02-22 15:41:39.700] $GNGGA,064139.10,3713.956235161,N,13701.425863796,E,5,12,1.07,92.297,M,37.566,M,147.1,3006*59
[2021-02-22 15:41:39.778] $GNGGA,064139.20,3713.956235079,N,13701.425861038,E,5,12,1.07,92.304,M,37.566,M,147.2,3006*5B
[2021-02-22 15:41:39.888] $GNGGA,064139.30,3713.956234178,N,13701.425858973,E,5,12,1.07,92.311,M,37.566,M,147.3,3006*52
[2021-02-22 15:41:39.981] $GNGGA,064139.40,3713.956235252,N,13701.425854858,E,5,12,1.07,92.322,M,37.566,M,147.4,3006*5C
[2021-02-22 15:41:40.091] $GNGGA,064139.50,3713.956234616,N,13701.425852639,E,5,12,1.07,92.333,M,37.566,M,147.5,3006*56
[2021-02-22 15:41:40.216] $GNGGA,064139.60,3713.956234471,N,13701.425851050,E,5,12,1.07,92.336,M,37.566,M,147.6,3006*5A
[2021-02-22 15:41:40.278] $GNGGA,064139.70,3713.956234018,N,13701.425848838,E,5,12,1.07,92.350,M,37.566,M,147.7,3006*5F
[2021-02-22 15:41:40.387] $GNGGA,064139.80,3713.956232778,N,13701.425847597,E,5,12,1.07,92.358,M,37.566,M,147.8,3006*57
[2021-02-22 15:41:40.481] $GNGGA,064139.90,3713.956233240,N,13701.425846213,E,5,12,1.07,92.365,M,37.566,M,147.9,3006*5C
[2021-02-22 15:41:40.591] $GNGGA,064140.00,3713.956232884,N,13701.425843445,E,5,12,1.07,92.375,M,37.566,M,148.0,3006*5F
[2021-02-22 15:41:40.700] $GNGGA,064140.10,3713.956233598,N,13701.425840823,E,5,12,1.07,92.380,M,37.566,M,148.1,3006*5B
[2021-02-22 15:41:40.778] $GNGGA,064140.20,3713.956232452,N,13701.425837727,E,5,12,1.07,92.386,M,37.566,M,148.2,3006*50
[2021-02-22 15:41:40.887] $GNGGA,064140.30,3713.956231188,N,13701.425836551,E,5,12,1.07,92.396,M,37.566,M,148.3,3006*52
[2021-02-22 15:41:40.981] $GNGGA,064140.40,3713.956230021,N,13701.425835666,E,5,12,1.07,92.402,M,37.566,M,148.4,3006*5F
[2021-02-22 15:41:41.091] $GNGGA,064140.50,3713.956228093,N,13701.425833841,E,5,12,1.07,92.416,M,37.566,M,148.5,3006*57
[2021-02-22 15:41:41.216] $GNGGA,064140.60,3713.956228169,N,13701.425831366,E,5,12,1.07,92.416,M,37.566,M,148.6,3006*5F
[2021-02-22 15:41:41.278] $GNGGA,064140.70,3713.956226331,N,13701.425829830,E,5,12,1.07,92.427,M,37.566,M,148.7,3006*5D
[2021-02-22 15:41:41.387] $GNGGA,064140.80,3713.956225987,N,13701.425827602,E,5,12,1.07,92.436,M,37.566,M,148.8,3006*58
[2021-02-22 15:41:41.481] $GNGGA,064140.90,3713.956223446,N,13701.425825764,E,5,12,1.07,92.445,M,37.566,M,148.9,3006*59
[2021-02-22 15:41:41.606] $GNGGA,064141.00,3713.956222951,N,13701.425823057,E,5,12,1.07,92.453,M,37.566,M,149.0,3006*55
[2021-02-22 15:41:41.684] $GNGGA,064141.10,3713.956222534,N,13701.425819898,E,5,12,1.07,92.468,M,37.566,M,149.1,3006*50
[2021-02-22 15:41:41.794] $GNGGA,064141.20,3713.956221095,N,13701.425816375,E,5,12,1.07,92.478,M,37.566,M,149.2,3006*5B
[2021-02-22 15:41:41.887] $GNGGA,064141.30,3713.956218802,N,13701.425813799,E,5,12,1.07,92.495,M,37.566,M,149.3,3006*57
[2021-02-22 15:41:42.012] $GNGGA,064141.40,3713.956218005,N,13701.425811032,E,5,12,1.07,92.504,M,37.566,M,149.4,3006*55
[2021-02-22 15:41:42.090] $GNGGA,064141.50,3713.956215321,N,13701.425808192,E,5,12,1.07,92.516,M,37.566,M,149.5,3006*5D
[2021-02-22 15:41:42.184] $GNGGA,064141.60,3713.956217608,N,13701.425805960,E,5,12,1.07,92.524,M,37.566,M,149.6,3006*58
[2021-02-22 15:41:42.294] $GNGGA,064141.70,3713.956216355,N,13701.425805933,E,5,12,1.07,92.537,M,37.566,M,149.7,3006*50
[2021-02-22 15:41:42.403] $GNGGA,064141.80,3713.956215311,N,13701.425802489,E,5,12,1.07,92.550,M,37.566,M,149.8,3006*59
[2021-02-22 15:41:42.481] $GNGGA,064141.90,3713.956214903,N,13701.425800812,E,5,12,1.07,92.558,M,37.566,M,149.9,3006*55
[2021-02-22 15:41:42.590] $GNGGA,064142.00,3713.956215509,N,13701.425800072,E,5,12,1.07,92.567,M,37.566,M,150.0,3006*5B
[2021-02-22 15:41:42.684] $GNGGA,064142.10,3713.956216738,N,13701.425796242,E,5,12,1.07,92.571,M,37.566,M,150.1,3006*5E
[2021-02-22 15:41:42.809] $GNGGA,064142.20,3713.956217213,N,13701.425795029,E,5,12,1.07,92.579,M,37.566,M,150.2,3006*57
[2021-02-22 15:41:42.887] $GNGGA,064142.30,3713.956216536,N,13701.425796766,E,5,12,1.07,92.587,M,37.566,M,150.3,3006*58
[2021-02-22 15:41:42.981] $GNGGA,064142.40,3713.956215647,N,13701.425795404,E,5,12,1.07,92.598,M,37.566,M,150.4,3006*54
[2021-02-22 15:41:43.090] $GNGGA,064142.50,3713.956215301,N,13701.425795581,E,5,12,1.07,92.599,M,37.566,M,150.5,3006*5E
[2021-02-22 15:41:43.184] $GNGGA,064142.60,3713.956213692,N,13701.425796580,E,5,12,1.07,92.608,M,37.566,M,150.6,3006*5E
