
[2021-02-22 15:34:54.059] $GNGGA,063443.10,,,,,0,00,99.99,,,,,21.1,*63
[2021-02-22 15:34:54.075] $GNGGA,063443.20,,,,,0,00,99.99,,,,,21.2,*63
[2021-02-22 15:34:54.075] $GNGGA,063443.30,,,,,0,00,99.99,,,,,21.3,*63
[2021-02-22 15:34:54.075] $GNGGA,063443.40,,,,,0,00,99.99,,,,,21.4,*63
[2021-02-22 15:34:54.075] $GNGGA,063443.50,,,,,0,00,99.99,,,,,21.5,*63
[2021-02-22 15:34:54.075] $GNGGA,063443.60,,,,,0,00,99.99,,,,,21.6,*63
[2021-02-22 15:34:54.075] $GNGGA,063443.70,,,,,0,00,99.99,,,,,21.7,*63
[2021-02-22 15:34:54.075] $GNGGA,063443.80,,,,,0,00,99.99,,,,,21.8,*63
[2021-02-22 15:34:54.075] $GNGGA,063443.90,,,,,0,00,99.99,,,,,21.9,*63
[2021-02-22 15:34:54.075] $GNGGA,063444.00,,,,,0,00,99.99,,,,,22.0,*67
[2021-02-22 15:34:54.075] $GNGGA,063444.10,,,,,0,00,99.99,,,,,22.1,*67
[2021-02-22 15:34:54.075] $GNGGA,063444.20,,,,,0,00,99.99,,,,,22.2,*67
[2021-02-22 15:34:54.075] $GNGGA,063444.30,,,,,0,00,99.99,,,,,22.3,*67
[2021-02-22 15:34:54.075] $GNGGA,063444.40,,,,,0,00,99.99,,,,,22.4,*67
[2021-02-22 15:34:54.075] $GNGGA,063444.50,,,,,0,00,99.99,,,,,22.5,*67
[2021-02-22 15:34:54.075] $GNGGA,063444.60,,,,,0,00,99.99,,,,,22.6,*67
[2021-02-22 15:34:54.075] $GNGGA,063444.70,,,,,0,00,99.99,,,,,22.7,*67
[2021-02-22 15:34:54.075] $GNGGA,063444.80,,,,,0,00,99.99,,,,,22.8,*67
[2021-02-22 15:34:54.075] $GNGGA,063444.90,,,,,0,00,99.99,,,,,22.9,*67
[2021-02-22 15:34:54.075] $GNGGA,063445.00,,,,,0,00,99.99,,,,,23.0,*67
[2021-02-22 15:34:54.075] $GNGGA,063445.10,,,,,0,00,99.99,,,,,23.1,*67
[2021-02-22 15:34:54.075] $GNGGA,063445.20,,,,,0,00,99.99,,,,,23.2,*67
[2021-02-22 15:34:54.075] $GNGGA,063445.30,,,,,0,00,99.99,,,,,23.3,*67
[2021-02-22 15:34:54.075] $GNGGA,063445.40,,,,,0,00,99.99,,,,,23.4,*67
[2021-02-22 15:34:54.090] $GNGGA,063445.50,,,,,0,00,99.99,,,,,23.5,*67
[2021-02-22 15:34:54.090] $GNGGA,063445.60,,,,,0,00,99.99,,,,,23.6,*67
[2021-02-22 15:34:54.090] $GNGGA,063445.70,,,,,0,00,99.99,,,,,23.7,*67
[2021-02-22 15:34:54.090] $GNGGA,063445.80,,,,,0,00,99.99,,,,,23.8,*67
[2021-02-22 15:34:54.090] $GNGGA,063445.90,,,,,0,00,99.99,,,,,23.9,*67
[2021-02-22 15:34:54.090] $GNGGA,063446.00,,,,,0,00,99.99,,,,,24.0,*63
[2021-02-22 15:34:54.090] $GNGGA,063446.10,,,,,0,00,99.99,,,,,24.1,*63
[2021-02-22 15:34:54.090] $GNGGA,063446.20,,,,,0,00,99.99,,,,,24.2,*63
[2021-02-22 15:34:54.090] $GNGGA,063446.30,,,,,0,00,99.99,,,,,24.3,*63
[2021-02-22 15:34:54.090] $GNGGA,063446.40,,,,,0,00,99.99,,,,,24.4,*63
[2021-02-22 15:34:54.090] $GNGGA,063446.50,,,,,0,00,99.99,,,,,24.5,*63
[2021-02-22 15:34:54.090] $GNGGA,063446.60,,,,,0,00,99.99,,,,,24.6,*63
[2021-02-22 15:34:54.090] $GNGGA,063446.70,,,,,0,00,99.99,,,,,24.7,*63
[2021-02-22 15:34:54.090] $GNGGA,063446.80,,,,,0,00,99.99,,,,,24.8,*63
[2021-02-22 15:34:54.090] $GNGGA,063446.90,,,,,0,00,99.99,,,,,24.9,*63
[2021-02-22 15:34:54.090] $GNGGA,063447.00,,,,,0,00,99.99,,,,,25.0,*63
[2021-02-22 15:34:54.090] $GNGGA,063447.10,,,,,0,00,99.99,,,,,25.1,*63
[2021-02-22 15:34:54.090] $GNGGA,063447.20,,,,,0,00,99.99,,,,,25.2,*63
[2021-02-22 15:34:54.090] $GNGGA,063447.30,,,,,0,00,99.99,,,,,25.3,*63
[2021-02-22 15:34:54.090] $GNGGA,063447.40,,,,,0,00,99.99,,,,,25.4,*63
[2021-02-22 15:34:54.090] $GNGGA,063447.50,,,,,0,00,99.99,,,,,25.5,*63
[2021-02-22 15:34:54.090] $GNGGA,063447.60,,,,,0,00,99.99,,,,,25.6,*63
[2021-02-22 15:34:54.106] $GNGGA,063447.70,,,,,0,00,99.99,,,,,25.7,*63
[2021-02-22 15:34:54.106] $GNGGA,063447.80,,,,,0,00,99.99,,,,,25.8,*63
[2021-02-22 15:34:54.106] $GNGGA,063447.90,,,,,0,00,99.99,,,,,25.9,*63
[2021-02-22 15:34:54.106] $GNGGA,063448.00,,,,,0,00,99.99,,,,,26.0,*6F
[2021-02-22 15:34:54.106] $GNGGA,063448.10,,,,,0,00,99.99,,,,,26.1,*6F
[2021-02-22 15:34:54.106] $GNGGA,063448.20,,,,,0,00,99.99,,,,,26.2,*6F
[2021-02-22 15:34:54.106] $GNGGA,063448.30,,,,,0,00,99.99,,,,,26.3,*6F
[2021-02-22 15:34:54.106] $GNGGA,063448.40,,,,,0,00,99.99,,,,,26.4,*6F
[2021-02-22 15:34:54.106] $GNGGA,063448.50,,,,,0,00,99.99,,,,,26.5,*6F
[2021-02-22 15:34:54.106] $GNGGA,063448.60,,,,,0,00,99.99,,,,,26.6,*6F
[2021-02-22 15:34:54.106] $GNGGA,063448.70,,,,,0,00,99.99,,,,,26.7,*6F
[2021-02-22 15:34:54.106] $GNGGA,063448.80,,,,,0,00,99.99,,,,,26.8,*6F
[2021-02-22 15:34:54.106] $GNGGA,063448.90,,,,,0,00,99.99,,,,,26.9,*6F
[2021-02-22 15:34:54.106] $GNGGA,063449.00,,,,,0,00,99.99,,,,,27.0,*6F
[2021-02-22 15:34:54.106] $GNGGA,063449.10,,,,,0,00,99.99,,,,,27.1,*6F
[2021-02-22 15:34:54.106] $GNGGA,063449.20,,,,,0,00,99.99,,,,,27.2,*6F
[2021-02-22 15:34:54.106] $GNGGA,063449.30,,,,,0,00,99.99,,,,,27.3,*6F
[2021-02-22 15:34:54.106] $GNGGA,063449.40,,,,,0,00,99.99,,,,,27.4,*6F
[2021-02-22 15:34:54.106] $GNGGA,063449.50,,,,,0,00,99.99,,,,,27.5,*6F
[2021-02-22 15:34:54.106] $GNGGA,063449.60,,,,,0,00,99.99,,,,,27.6,*6F
[2021-02-22 15:34:54.106] $GNGGA,063449.70,,,,,0,00,99.99,,,,,27.7,*6F
[2021-02-22 15:34:54.106] $GNGGA,063449.80,,,,,0,00,99.99,,,,,27.8,*6F
[2021-02-22 15:34:54.122] $GNGGA,063449.90,,,,,0,00,99.99,,,,,27.9,*6F
[2021-02-22 15:34:54.122] $GNGGA,063450.00,,,,,0,00,99.99,,,,,28.0,*68
[2021-02-22 15:34:54.122] $GNGGA,063450.10,,,,,0,00,99.99,,,,,28.1,*68
[2021-02-22 15:34:54.122] $GNGGA,063450.20,,,,,0,00,99.99,,,,,28.2,*68
[2021-02-22 15:34:54.122] $GNGGA,063450.30,,,,,0,00,99.99,,,,,28.3,*68
[2021-02-22 15:34:54.122] $GNGGA,063450.40,,,,,0,00,99.99,,,,,28.4,*68
[2021-02-22 15:34:54.122] $GNGGA,063450.50,,,,,0,00,99.99,,,,,28.5,*68
[2021-02-22 15:34:54.122] $GNGGA,063450.60,,,,,0,00,99.99,,,,,28.6,*68
[2021-02-22 15:34:54.122] $GNGGA,063450.70,,,,,0,00,99.99,,,,,28.7,*68
[2021-02-22 15:34:54.122] $GNGGA,063450.80,,,,,0,00,99.99,,,,,28.8,*68
[2021-02-22 15:34:54.122] $GNGGA,063450.90,,,,,0,00,99.99,,,,,28.9,*68
[2021-02-22 15:34:54.122] $GNGGA,063451.00,,,,,0,00,99.99,,,,,29.0,*68
[2021-02-22 15:34:54.122] $GNGGA,063451.10,,,,,0,00,99.99,,,,,29.1,*68
[2021-02-22 15:34:54.122] $GNGGA,063451.20,,,,,0,00,99.99,,,,,29.2,*68
[2021-02-22 15:34:54.122] $GNGGA,063451.30,,,,,0,00,99.99,,,,,29.3,*68
[2021-02-22 15:34:54.122] $GNGGA,063451.40,,,,,0,00,99.99,,,,,29.4,*68
[2021-02-22 15:34:54.122] $GNGGA,063451.50,,,,,0,00,99.99,,,,,29.5,*68
[2021-02-22 15:34:54.122] $GNGGA,063451.60,,,,,0,00,99.99,,,,,29.6,*68
[2021-02-22 15:34:54.122] $GNGGA,063451.70,,,,,0,00,99.99,,,,,29.7,*68
[2021-02-22 15:34:54.122] $GNGGA,063451.80,,,,,0,00,99.99,,,,,29.8,*68
[2021-02-22 15:34:54.122] $GNGGA,063451.90,,,,,0,00,99.99,,,,,29.9,*68
[2021-02-22 15:34:54.122] $GNGGA,063452.00,,,,,0,00,99.99,,,,,30.0,*63
[2021-02-22 15:34:54.122] $GNGGA,063452.10,,,,,0,00,99.99,,,,,30.1,*63
[2021-02-22 15:34:54.122] $GNGGA,063452.20,,,,,0,00,99.99,,,,,30.2,*63
[2021-02-22 15:34:54.122] $GNGGA,063452.30,,,,,0,00,99.99,,,,,30.3,*63
[2021-02-22 15:34:54.122] $GNGGA,063452.40,,,,,0,00,99.99,,,,,30.4,*63
[2021-02-22 15:34:54.122] $GNGGA,063452.50,,,,,0,00,99.99,,,,,30.5,*63
[2021-02-22 15:34:54.122] $GNGGA,063452.60,,,,,0,00,99.99,,,,,30.6,*63
[2021-02-22 15:34:54.122] $GNGGA,063452.70,,,,,0,00,99.99,,,,,30.7,*63
[2021-02-22 15:34:54.122] $GNGGA,063452.80,,,,,0,00,99.99,,,,,30.8,*63
[2021-02-22 15:34:54.122] $GNGGA,063452.90,,,,,0,00,99.99,,,,,30.9,*63
[2021-02-22 15:34:54.122] $GNGGA,063453.00,,,,,0,00,99.99,,,,,31.0,*63
[2021-02-22 15:34:54.122] $GNGGA,063453.10,,,,,0,00,99.99,,,,,31.1,*63
[2021-02-22 15:34:54.122] $GNGGA,063453.20,,,,,0,00,99.99,,,,,31.2,*63
[2021-02-22 15:34:54.122] $GNGGA,063453.30,,,,,0,00,99.99,,,,,31.3,*63
[2021-02-22 15:34:54.122] $GNGGA,063453.40,,,,,0,00,99.99,,,,,31.4,*63
[2021-02-22 15:34:54.122] $GNGGA,063453.50,,,,,0,00,99.99,,,,,31.5,*63
[2021-02-22 15:34:54.184] $GNGGA,063453.60,,,,,0,00,99.99,,,,,31.6,*63
[2021-02-22 15:34:54.293] $GNGGA,063453.70,,,,,0,00,99.99,,,,,31.7,*63
[2021-02-22 15:34:54.403] $GNGGA,063453.80,,,,,0,00,99.99,,,,,31.8,*63
[2021-02-22 15:34:54.497] $GNGGA,063453.90,,,,,0,00,99.99,,,,,31.9,*63
[2021-02-22 15:34:54.590] $GNGGA,063454.00,,,,,0,00,99.99,,,,,32.0,*67
[2021-02-22 15:34:54.684] $GNGGA,063454.10,,,,,0,00,99.99,,,,,32.1,*67
[2021-02-22 15:34:54.793] $GNGGA,063454.20,,,,,0,00,99.99,,,,,32.2,*67
[2021-02-22 15:34:54.887] $GNGGA,063454.30,,,,,0,00,99.99,,,,,32.3,*67
[2021-02-22 15:34:54.997] $GNGGA,063454.40,,,,,0,00,99.99,,,,,32.4,*67
[2021-02-22 15:34:55.090] $GNGGA,063454.50,,,,,0,00,99.99,,,,,32.5,*67
[2021-02-22 15:34:55.200] $GNGGA,063454.60,,,,,0,00,99.99,,,,,32.6,*67
[2021-02-22 15:34:55.293] $GNGGA,063454.70,,,,,0,00,99.99,,,,,32.7,*67
[2021-02-22 15:34:55.387] $GNGGA,063454.80,,,,,0,00,99.99,,,,,32.8,*67
[2021-02-22 15:34:55.481] $GNGGA,063454.90,,,,,0,00,99.99,,,,,32.9,*67
[2021-02-22 15:34:55.606] $GNGGA,063455.00,,,,,0,00,99.99,,,,,33.0,*67
[2021-02-22 15:34:55.700] $GNGGA,063455.10,,,,,0,00,99.99,,,,,33.1,*67
[2021-02-22 15:34:55.793] $GNGGA,063455.20,,,,,0,00,99.99,,,,,33.2,*67
[2021-02-22 15:34:55.887] $GNGGA,063455.30,,,,,0,00,99.99,,,,,33.3,*67
[2021-02-22 15:34:55.996] $GNGGA,063455.40,,,,,0,00,99.99,,,,,33.4,*67
[2021-02-22 15:34:56.090] $GNGGA,063455.50,,,,,0,00,99.99,,,,,33.5,*67
[2021-02-22 15:34:56.184] $GNGGA,063455.60,,,,,0,00,99.99,,,,,33.6,*67
[2021-02-22 15:34:56.278] $GNGGA,063455.70,,,,,0,00,99.99,,,,,33.7,*67
[2021-02-22 15:34:56.403] $GNGGA,063455.80,,,,,0,00,99.99,,,,,33.8,*67
[2021-02-22 15:34:56.496] $GNGGA,063455.90,,,,,0,00,99.99,,,,,33.9,*67
[2021-02-22 15:34:56.590] $GNGGA,063456.00,,,,,0,00,99.99,,,,,34.0,*63
[2021-02-22 15:34:56.684] $GNGGA,063456.10,,,,,0,00,99.99,,,,,34.1,*63
[2021-02-22 15:34:56.793] $GNGGA,063456.20,,,,,0,00,99.99,,,,,34.2,*63
[2021-02-22 15:34:56.887] $GNGGA,063456.30,,,,,0,00,99.99,,,,,34.3,*63
[2021-02-22 15:34:56.996] $GNGGA,063456.40,,,,,0,00,99.99,,,,,34.4,*63
[2021-02-22 15:34:57.090] $GNGGA,063456.50,,,,,0,00,99.99,,,,,34.5,*63
[2021-02-22 15:34:57.200] $GNGGA,063456.60,,,,,0,00,99.99,,,,,34.6,*63
[2021-02-22 15:34:57.293] $GNGGA,063456.70,,,,,0,00,99.99,,,,,34.7,*63
[2021-02-22 15:34:57.387] $GNGGA,063456.80,,,,,0,00,99.99,,,,,34.8,*63
[2021-02-22 15:34:57.481] $GNGGA,063456.90,,,,,0,00,99.99,,,,,34.9,*63
[2021-02-22 15:34:57.606] $GNGGA,063457.00,,,,,0,00,99.99,,,,,35.0,*63
[2021-02-22 15:34:57.700] $GNGGA,063457.10,,,,,0,00,99.99,,,,,35.1,*63
[2021-02-22 15:34:57.793] $GNGGA,063457.20,,,,,0,00,99.99,,,,,35.2,*63
[2021-02-22 15:34:57.887] $GNGGA,063457.30,,,,,0,00,99.99,,,,,35.3,*63
[2021-02-22 15:34:57.996] $GNGGA,063457.40,,,,,0,00,99.99,,,,,35.4,*63
[2021-02-22 15:34:58.090] $GNGGA,063457.50,,,,,0,00,99.99,,,,,35.5,*63
[2021-02-22 15:34:58.184] $GNGGA,063457.60,,,,,0,00,99.99,,,,,35.6,*63
[2021-02-22 15:34:58.309] $GNGGA,063457.70,,,,,0,00,99.99,,,,,35.7,*63
[2021-02-22 15:34:58.403] $GNGGA,063457.80,,,,,0,00,99.99,,,,,35.8,*63
[2021-02-22 15:34:58.496] $GNGGA,063457.90,,,,,0,00,99.99,,,,,35.9,*63
[2021-02-22 15:34:58.590] $GNGGA,063458.00,,,,,0,00,99.99,,,,,36.0,*6F
[2021-02-22 15:34:58.699] $GNGGA,063458.10,,,,,0,00,99.99,,,,,36.1,*6F
[2021-02-22 15:34:58.793] $GNGGA,063458.20,,,,,0,00,99.99,,,,,36.2,*6F
[2021-02-22 15:34:58.887] $GNGGA,063458.30,,,,,0,00,99.99,,,,,36.3,*6F
[2021-02-22 15:34:58.996] $GNGGA,063458.40,,,,,0,00,99.99,,,,,36.4,*6F
[2021-02-22 15:34:59.106] $GNGGA,063458.50,,,,,0,00,99.99,,,,,36.5,*6F
[2021-02-22 15:34:59.199] $GNGGA,063458.60,,,,,0,00,99.99,,,,,36.6,*6F
[2021-02-22 15:34:59.293] $GNGGA,063458.70,,,,,0,00,99.99,,,,,36.7,*6F
[2021-02-22 15:34:59.387] $GNGGA,063458.80,,,,,0,00,99.99,,,,,36.8,*6F
[2021-02-22 15:34:59.496] $GNGGA,063458.90,,,,,0,00,99.99,,,,,36.9,*6F
[2021-02-22 15:34:59.590] $GNGGA,063459.00,,,,,0,00,99.99,,,,,37.0,*6F
[2021-02-22 15:34:59.699] $GNGGA,063459.10,,,,,0,00,99.99,,,,,37.1,*6F
[2021-02-22 15:34:59.793] $GNGGA,063459.20,,,,,0,00,99.99,,,,,37.2,*6F
[2021-02-22 15:34:59.903] $GNGGA,063459.30,,,,,0,00,99.99,,,,,37.3,*6F
[2021-02-22 15:34:59.996] $GNGGA,063459.40,,,,,0,00,99.99,,,,,37.4,*6F
[2021-02-22 15:35:00.090] $GNGGA,063459.50,,,,,0,00,99.99,,,,,37.5,*6F
[2021-02-22 15:35:00.184] $GNGGA,063459.60,,,,,0,00,99.99,,,,,37.6,*6F
[2021-02-22 15:35:00.309] $GNGGA,063459.70,,,,,0,00,99.99,,,,,37.7,*6F
[2021-02-22 15:35:00.402] $GNGGA,063459.80,,,,,0,00,99.99,,,,,37.8,*6F
[2021-02-22 15:35:00.496] $GNGGA,063459.90,,,,,0,00,99.99,,,,,37.9,*6F
[2021-02-22 15:35:00.590] $GNGGA,063500.00,,,,,0,00,99.99,,,,,38.0,*6D
[2021-02-22 15:35:00.699] $GNGGA,063500.10,,,,,0,00,99.99,,,,,38.1,*6D
[2021-02-22 15:35:00.793] $GNGGA,063500.20,,,,,0,00,99.99,,,,,38.2,*6D
[2021-02-22 15:35:00.887] $GNGGA,063500.30,,,,,0,00,99.99,,,,,38.3,*6D
[2021-02-22 15:35:00.996] $GNGGA,063500.40,,,,,0,00,99.99,,,,,38.4,*6D
[2021-02-22 15:35:01.106] $GNGGA,063500.50,,,,,0,00,99.99,,,,,38.5,*6D
[2021-02-22 15:35:01.199] $GNGGA,063500.60,,,,,0,00,99.99,,,,,38.6,*6D
[2021-02-22 15:35:01.293] $GNGGA,063500.70,,,,,0,00,99.99,,,,,38.7,*6D
[2021-02-22 15:35:01.387] $GNGGA,063500.80,,,,,0,00,99.99,,,,,38.8,*6D
[2021-02-22 15:35:01.496] $GNGGA,063500.90,,,,,0,00,99.99,,,,,38.9,*6D
[2021-02-22 15:35:01.605] $GNGGA,063501.00,,,,,0,00,99.99,,,,,39.0,*6D
[2021-02-22 15:35:01.699] $GNGGA,063501.10,,,,,0,00,99.99,,,,,39.1,*6D
[2021-02-22 15:35:01.793] $GNGGA,063501.20,,,,,0,00,99.99,,,,,39.2,*6D
[2021-02-22 15:35:01.902] $GNGGA,063501.30,,,,,0,00,99.99,,,,,39.3,*6D
[2021-02-22 15:35:01.996] $GNGGA,063501.40,,,,,0,00,99.99,,,,,39.4,*6D
[2021-02-22 15:35:02.090] $GNGGA,063501.50,,,,,0,00,99.99,,,,,39.5,*6D
[2021-02-22 15:35:02.184] $GNGGA,063501.60,,,,,0,00,99.99,,,,,39.6,*6D
[2021-02-22 15:35:02.293] $GNGGA,063501.70,,,,,0,00,99.99,,,,,39.7,*6D
[2021-02-22 15:35:02.402] $GNGGA,063501.80,,,,,0,00,99.99,,,,,39.8,*6D
[2021-02-22 15:35:02.496] $GNGGA,063501.90,,,,,0,00,99.99,,,,,39.9,*6D
[2021-02-22 15:35:02.590] $GNGGA,063502.00,,,,,0,00,99.99,,,,,40.0,*60
[2021-02-22 15:35:02.699] $GNGGA,063502.10,,,,,0,00,99.99,,,,,40.1,*60
[2021-02-22 15:35:02.793] $GNGGA,063502.20,,,,,0,00,99.99,,,,,40.2,*60
[2021-02-22 15:35:02.887] $GNGGA,063502.30,,,,,0,00,99.99,,,,,40.3,*60
[2021-02-22 15:35:02.980] $GNGGA,063502.40,,,,,0,00,99.99,,,,,40.4,*60
[2021-02-22 15:35:03.105] $GNGGA,063502.50,,,,,0,00,99.99,,,,,40.5,*60
[2021-02-22 15:35:03.199] $GNGGA,063502.60,,,,,0,00,99.99,,,,,40.6,*60
[2021-02-22 15:35:03.293] $GNGGA,063502.70,,,,,0,00,99.99,,,,,40.7,*60
[2021-02-22 15:35:03.387] $GNGGA,063502.80,,,,,0,00,99.99,,,,,40.8,*60
[2021-02-22 15:35:03.496] $GNGGA,063502.90,,,,,0,00,99.99,,,,,40.9,*60
[2021-02-22 15:35:03.590] $GNGGA,063503.00,,,,,0,00,99.99,,,,,41.0,*60
[2021-02-22 15:35:03.699] $GNGGA,063503.10,,,,,0,00,99.99,,,,,41.1,*60
[2021-02-22 15:35:03.793] $GNGGA,063503.20,,,,,0,00,99.99,,,,,41.2,*60
[2021-02-22 15:35:03.902] $GNGGA,063503.30,,,,,0,00,99.99,,,,,41.3,*60
[2021-02-22 15:35:03.996] $GNGGA,063503.40,,,,,0,00,99.99,,,,,41.4,*60
[2021-02-22 15:35:04.090] $GNGGA,063503.50,,,,,0,00,99.99,,,,,41.5,*60
[2021-02-22 15:35:04.183] $GNGGA,063503.60,,,,,0,00,99.99,,,,,41.6,*60
[2021-02-22 15:35:04.293] $GNGGA,063503.70,,,,,0,00,99.99,,,,,41.7,*60
[2021-02-22 15:35:04.402] $GNGGA,063503.80,,,,,0,00,99.99,,,,,41.8,*60
[2021-02-22 15:35:04.496] $GNGGA,063503.90,,,,,0,00,99.99,,,,,41.9,*60
[2021-02-22 15:35:04.590] $GNGGA,063504.00,,,,,0,00,99.99,,,,,42.0,*64
[2021-02-22 15:35:04.699] $GNGGA,063504.10,,,,,0,00,99.99,,,,,42.1,*64
[2021-02-22 15:35:04.793] $GNGGA,063504.20,,,,,0,00,99.99,,,,,42.2,*64
[2021-02-22 15:35:04.887] $GNGGA,063504.30,,,,,0,00,99.99,,,,,42.3,*64
[2021-02-22 15:35:04.980] $GNGGA,063504.40,,,,,0,00,99.99,,,,,42.4,*64
[2021-02-22 15:35:05.105] $GNGGA,063504.50,,,,,0,00,99.99,,,,,42.5,*64
[2021-02-22 15:35:05.199] $GNGGA,063504.60,,,,,0,00,99.99,,,,,42.6,*64
[2021-02-22 15:35:05.293] $GNGGA,063504.70,,,,,0,00,99.99,,,,,42.7,*64
[2021-02-22 15:35:05.386] $GNGGA,063504.80,,,,,0,00,99.99,,,,,42.8,*64
[2021-02-22 15:35:05.496] $GNGGA,063504.90,,,,,0,00,99.99,,,,,42.9,*64
[2021-02-22 15:35:05.590] $GNGGA,063505.00,,,,,0,00,99.99,,,,,43.0,*64
[2021-02-22 15:35:05.699] $GNGGA,063505.10,,,,,0,00,99.99,,,,,43.1,*64
[2021-02-22 15:35:05.793] $GNGGA,063505.20,,,,,0,00,99.99,,,,,43.2,*64
[2021-02-22 15:35:05.902] $GNGGA,063505.30,,,,,0,00,99.99,,,,,43.3,*64
[2021-02-22 15:35:05.996] $GNGGA,063505.40,,,,,0,00,99.99,,,,,43.4,*64
[2021-02-22 15:35:06.090] $GNGGA,063505.50,,,,,0,00,99.99,,,,,43.5,*64
[2021-02-22 15:35:06.183] $GNGGA,063505.60,,,,,0,00,99.99,,,,,43.6,*64
[2021-02-22 15:35:06.293] $GNGGA,063505.70,,,,,0,00,99.99,,,,,43.7,*64
[2021-02-22 15:35:06.402] $GNGGA,063505.80,,,,,0,00,99.99,,,,,43.8,*64
[2021-02-22 15:35:06.496] $GNGGA,063505.90,,,,,0,00,99.99,,,,,43.9,*64
[2021-02-22 15:35:06.590] $GNGGA,063506.00,,,,,0,00,99.99,,,,,44.0,*60
[2021-02-22 15:35:06.699] $GNGGA,063506.10,,,,,0,00,99.99,,,,,44.1,*60
[2021-02-22 15:35:06.793] $GNGGA,063506.20,,,,,0,00,99.99,,,,,44.2,*60
[2021-02-22 15:35:06.886] $GNGGA,063506.30,,,,,0,00,99.99,,,,,44.3,*60
[2021-02-22 15:35:06.996] $GNGGA,063506.40,,,,,0,00,99.99,,,,,44.4,*60
[2021-02-22 15:35:07.105] $GNGGA,063506.50,,,,,0,00,99.99,,,,,44.5,*60
[2021-02-22 15:35:07.199] $GNGGA,063506.60,,,,,0,00,99.99,,,,,44.6,*60
[2021-02-22 15:35:07.293] $GNGGA,063506.70,,,,,0,00,99.99,,,,,44.7,*60
[2021-02-22 15:35:07.386] $GNGGA,063506.80,,,,,0,00,99.99,,,,,44.8,*60
[2021-02-22 15:35:07.496] $GNGGA,063506.90,,,,,0,00,99.99,,,,,44.9,*60
[2021-02-22 15:35:07.605] $GNGGA,063507.00,,,,,0,00,99.99,,,,,45.0,*60
[2021-02-22 15:35:07.699] $GNGGA,063507.10,,,,,0,00,99.99,,,,,45.1,*60
[2021-02-22 15:35:07.793] $GNGGA,063507.20,,,,,0,00,99.99,,,,,45.2,*60
[2021-02-22 15:35:07.902] $GNGGA,063507.30,,,,,0,00,99.99,,,,,45.3,*60
[2021-02-22 15:35:07.996] $GNGGA,063507.40,,,,,0,00,99.99,,,,,45.4,*60
[2021-02-22 15:35:08.089] $GNGGA,063507.50,,,,,0,00,99.99,,,,,45.5,*60
[2021-02-22 15:35:08.183] $GNGGA,063507.60,,,,,0,00,99.99,,,,,45.6,*60
[2021-02-22 15:35:08.308] $GNGGA,063507.70,,,,,0,00,99.99,,,,,45.7,*60
[2021-02-22 15:35:08.402] $GNGGA,063507.80,,,,,0,00,99.99,,,,,45.8,*60
[2021-02-22 15:35:08.496] $GNGGA,063507.90,,,,,0,00,99.99,,,,,45.9,*60
[2021-02-22 15:35:08.589] $GNGGA,063508.00,,,,,0,00,99.99,,,,,46.0,*6C
[2021-02-22 15:35:08.699] $GNGGA,063508.10,,,,,0,00,99.99,,,,,46.1,*6C
[2021-02-22 15:35:08.793] $GNGGA,063508.20,,,,,0,00,99.99,,,,,46.2,*6C
[2021-02-22 15:35:08.886] $GNGGA,063508.30,,,,,0,00,99.99,,,,,46.3,*6C
[2021-02-22 15:35:08.980] $GNGGA,063508.40,,,,,0,00,99.99,,,,,46.4,*6C
[2021-02-22 15:35:09.105] $GNGGA,063508.50,,,,,0,00,99.99,,,,,46.5,*6C
[2021-02-22 15:35:09.199] $GNGGA,063508.60,,,,,0,00,99.99,,,,,46.6,*6C
[2021-02-22 15:35:09.292] $GNGGA,063508.70,,,,,0,00,99.99,,,,,46.7,*6C
[2021-02-22 15:35:09.386] $GNGGA,063508.80,,,,,0,00,99.99,,,,,46.8,*6C
[2021-02-22 15:35:09.496] $GNGGA,063508.90,,,,,0,00,99.99,,,,,46.9,*6C
[2021-02-22 15:35:09.589] $GNGGA,063509.00,,,,,0,00,99.99,,,,,47.0,*6C
[2021-02-22 15:35:09.699] $GNGGA,063509.10,,,,,0,00,99.99,,,,,47.1,*6C
[2021-02-22 15:35:09.792] $GNGGA,063509.20,,,,,0,00,99.99,,,,,47.2,*6C
[2021-02-22 15:35:09.902] $GNGGA,063509.30,,,,,0,00,99.99,,,,,47.3,*6C
[2021-02-22 15:35:09.996] $GNGGA,063509.40,,,,,0,00,99.99,,,,,47.4,*6C
[2021-02-22 15:35:10.089] $GNGGA,063509.50,,,,,0,00,99.99,,,,,47.5,*6C
[2021-02-22 15:35:10.183] $GNGGA,063509.60,,,,,0,00,99.99,,,,,47.6,*6C
[2021-02-22 15:35:10.308] $GNGGA,063509.70,,,,,0,00,99.99,,,,,47.7,*6C
[2021-02-22 15:35:10.402] $GNGGA,063509.80,,,,,0,00,99.99,,,,,47.8,*6C
[2021-02-22 15:35:10.495] $GNGGA,063509.90,,,,,0,00,99.99,,,,,47.9,*6C
[2021-02-22 15:35:10.589] $GNGGA,063510.00,,,,,0,00,99.99,,,,,48.0,*6B
[2021-02-22 15:35:10.699] $GNGGA,063510.10,,,,,0,00,99.99,,,,,48.1,*6B
[2021-02-22 15:35:10.792] $GNGGA,063510.20,,,,,0,00,99.99,,,,,48.2,*6B
[2021-02-22 15:35:10.886] $GNGGA,063510.30,,,,,0,00,99.99,,,,,48.3,*6B
[2021-02-22 15:35:10.980] $GNGGA,063510.40,,,,,0,00,99.99,,,,,48.4,*6B
[2021-02-22 15:35:11.105] $GNGGA,063510.50,,,,,0,00,99.99,,,,,48.5,*6B
[2021-02-22 15:35:11.199] $GNGGA,063510.60,,,,,0,00,99.99,,,,,48.6,*6B
[2021-02-22 15:35:11.292] $GNGGA,063510.70,,,,,0,00,99.99,,,,,48.7,*6B
[2021-02-22 15:35:11.386] $GNGGA,063510.80,,,,,0,00,99.99,,,,,48.8,*6B
[2021-02-22 15:35:11.495] $GNGGA,063510.90,,,,,0,00,99.99,,,,,48.9,*6B
[2021-02-22 15:35:11.589] $GNGGA,063511.00,,,,,0,00,99.99,,,,,49.0,*6B
[2021-02-22 15:35:11.699] $GNGGA,063511.10,,,,,0,00,99.99,,,,,49.1,*6B
[2021-02-22 15:35:11.792] $GNGGA,063511.20,,,,,0,00,99.99,,,,,49.2,*6B
[2021-02-22 15:35:11.902] $GNGGA,063511.30,,,,,0,00,99.99,,,,,49.3,*6B
[2021-02-22 15:35:11.995] $GNGGA,063511.40,,,,,0,00,99.99,,,,,49.4,*6B
[2021-02-22 15:35:12.089] $GNGGA,063511.50,,,,,0,00,99.99,,,,,49.5,*6B
[2021-02-22 15:35:12.183] $GNGGA,063511.60,,,,,0,00,99.99,,,,,49.6,*6B
[2021-02-22 15:35:12.292] $GNGGA,063511.70,,,,,0,00,99.99,,,,,49.7,*6B
[2021-02-22 15:35:12.402] $GNGGA,063511.80,,,,,0,00,99.99,,,,,49.8,*6B
[2021-02-22 15:35:12.495] $GNGGA,063511.90,,,,,0,00,99.99,,,,,49.9,*6B
[2021-02-22 15:35:12.589] $GNGGA,063512.00,,,,,0,00,99.99,,,,,50.0,*60
[2021-02-22 15:35:12.698] $GNGGA,063512.10,,,,,0,00,99.99,,,,,50.1,*60
[2021-02-22 15:35:12.792] $GNGGA,063512.20,,,,,0,00,99.99,,,,,50.2,*60
[2021-02-22 15:35:12.886] $GNGGA,063512.30,,,,,0,00,99.99,,,,,50.3,*60
[2021-02-22 15:35:12.980] $GNGGA,063512.40,,,,,0,00,99.99,,,,,50.4,*60
[2021-02-22 15:35:13.105] $GNGGA,063512.50,,,,,0,00,99.99,,,,,50.5,*60
[2021-02-22 15:35:13.198] $GNGGA,063512.60,,,,,0,00,99.99,,,,,50.6,*60
[2021-02-22 15:35:13.292] $GNGGA,063512.70,,,,,0,00,99.99,,,,,50.7,*60
[2021-02-22 15:35:13.386] $GNGGA,063512.80,,,,,0,00,99.99,,,,,50.8,*60
[2021-02-22 15:35:13.495] $GNGGA,063512.90,,,,,0,00,99.99,,,,,50.9,*60
[2021-02-22 15:35:13.605] $GNGGA,063513.00,3713.956162000,N,13701.424628000,E,5,00,99.90,94.545,M,37.566,M,51.0,2006*58
[2021-02-22 15:35:13.683] $GNGGA,063513.10,3713.952010000,N,13701.427880000,E,5,00,99.90,92.485,M,37.566,M,51.1,2006*5C
[2021-02-22 15:35:13.792] $GNGGA,063513.20,3713.956156000,N,13701.426104000,E,5,00,99.90,93.949,M,37.566,M,51.2,2006*53
[2021-02-22 15:35:13.886] $GNGGA,063513.30,3713.956461023,N,13701.426316369,E,5,02,99.90,93.967,M,37.566,M,51.3,2006*50
[2021-02-22 15:35:13.995] $GNGGA,063513.40,3713.956459907,N,13701.426313263,E,5,02,99.90,93.960,M,37.566,M,51.4,2006*5D
[2021-02-22 15:35:14.105] $GNGGA,063513.50,3713.956745253,N,13701.426515641,E,5,02,99.90,93.971,M,37.566,M,51.5,2006*5D
[2021-02-22 15:35:14.183] $GNGGA,063513.60,3713.956744815,N,13701.426513907,E,5,02,99.90,93.968,M,37.566,M,51.6,2006*57
[2021-02-22 15:35:14.292] $GNGGA,063513.70,3713.956744276,N,13701.426514893,E,5,00,99.90,93.972,M,37.566,M,51.7,2006*5A
[2021-02-22 15:35:14.386] $GNGGA,063513.80,3713.956743065,N,13701.426515245,E,5,00,99.90,93.975,M,37.566,M,51.8,2006*5A
[2021-02-22 15:35:14.495] $GNGGA,063513.90,3713.956739781,N,13701.426516836,E,5,00,99.90,93.974,M,37.566,M,51.9,2006*56
[2021-02-22 15:35:14.605] $GNGGA,063514.00,3713.956739647,N,13701.426518177,E,5,00,99.90,93.976,M,37.566,M,52.0,2006*59
[2021-02-22 15:35:14.683] $GNGGA,063514.10,3713.956740683,N,13701.426517778,E,5,00,99.90,93.976,M,37.566,M,52.1,2006*59
[2021-02-22 15:35:14.792] $GNGGA,063514.20,3713.956742205,N,13701.426517158,E,5,00,99.90,93.977,M,37.566,M,52.2,2006*54
[2021-02-22 15:35:14.886] $GNGGA,063514.30,3713.956743324,N,13701.426516671,E,5,00,99.90,93.980,M,37.566,M,52.3,2006*52
[2021-02-22 15:35:15.011] $GNGGA,063514.40,3713.956744090,N,13701.426515809,E,5,00,99.90,93.979,M,37.566,M,52.4,2006*5D
[2021-02-22 15:35:15.089] $GNGGA,063514.50,3713.956745870,N,13701.426514027,E,5,00,99.90,93.980,M,37.566,M,52.5,2006*59
[2021-02-22 15:35:15.183] $GNGGA,063514.60,3713.956746975,N,13701.426513716,E,5,00,99.90,93.980,M,37.566,M,52.6,2006*5C
[2021-02-22 15:35:15.292] $GNGGA,063514.70,3713.956746261,N,13701.426514244,E,5,00,99.90,93.982,M,37.566,M,52.7,2006*55
[2021-02-22 15:35:15.401] $GNGGA,063514.80,3713.956745358,N,13701.426515650,E,5,00,99.90,93.985,M,37.566,M,52.8,2006*5A
[2021-02-22 15:35:15.480] $GNGGA,063514.90,3713.956745343,N,13701.426517147,E,5,00,99.90,93.988,M,37.566,M,52.9,2006*5E
[2021-02-22 15:35:15.589] $GNGGA,063515.00,3713.956743936,N,13701.426520525,E,5,00,99.90,93.985,M,37.566,M,53.0,2006*59
[2021-02-22 15:35:15.683] $GNGGA,063515.10,3713.956744446,N,13701.426523604,E,5,00,99.90,93.986,M,37.566,M,53.1,2006*54
[2021-02-22 15:35:15.808] $GNGGA,063515.20,3713.956745612,N,13701.426536776,E,5,00,99.90,94.055,M,37.566,M,53.2,2006*56
[2021-02-22 15:35:15.886] $GNGGA,063515.30,3713.956600783,N,13701.426696125,E,5,03,99.90,93.684,M,37.566,M,53.3,2006*58
[2021-02-22 15:35:15.979] $GNGGA,063515.40,3713.956315003,N,13701.427308568,E,5,03,99.90,93.610,M,37.566,M,53.4,2006*55
[2021-02-22 15:35:16.089] $GNGGA,063515.50,3713.956343282,N,13701.427186869,E,5,04,3.64,93.426,M,37.566,M,53.5,2006*6D
[2021-02-22 15:35:16.214] $GNGGA,063515.60,3713.956315485,N,13701.427207305,E,5,03,99.90,93.636,M,37.566,M,53.6,2006*58
[2021-02-22 15:35:16.292] $GNGGA,063515.70,3713.956326797,N,13701.427189155,E,5,03,99.90,93.707,M,37.566,M,53.7,2006*59
[2021-02-22 15:35:16.386] $GNGGA,063515.80,3713.956338006,N,13701.427154367,E,5,03,99.90,93.816,M,37.566,M,53.8,2006*55
[2021-02-22 15:35:16.495] $GNGGA,063515.90,3713.956298197,N,13701.427161920,E,5,03,99.90,94.079,M,37.566,M,53.9,2006*5E
[2021-02-22 15:35:16.589] $GNGGA,063516.00,3713.956265764,N,13701.427178569,E,5,03,99.90,94.078,M,37.566,M,54.0,2006*5A
[2021-02-22 15:35:16.714] $GNGGA,063516.10,3713.956205782,N,13701.427138954,E,5,03,99.90,94.121,M,37.566,M,54.1,2006*5F
[2021-02-22 15:35:16.792] $GNGGA,063516.20,3713.956180473,N,13701.427179650,E,5,03,99.90,93.978,M,37.566,M,54.2,2006*51
[2021-02-22 15:35:16.886] $GNGGA,063516.30,3713.956100685,N,13701.427095455,E,5,03,99.90,94.115,M,37.566,M,54.3,2006*52
[2021-02-22 15:35:16.995] $GNGGA,063516.40,3713.955972955,N,13701.426969721,E,5,04,5.42,94.446,M,37.566,M,54.4,2006*6B
[2021-02-22 15:35:17.089] $GNGGA,063516.50,3713.955966757,N,13701.426988571,E,5,04,5.42,94.335,M,37.566,M,54.5,2006*69
[2021-02-22 15:35:17.214] $GNGGA,063516.60,3713.955952133,N,13701.426896264,E,5,04,5.42,94.290,M,37.566,M,54.6,2006*69
[2021-02-22 15:35:17.292] $GNGGA,063516.70,3713.955931388,N,13701.426878502,E,5,04,5.42,94.342,M,37.566,M,54.7,2006*67
[2021-02-22 15:35:17.386] $GNGGA,063516.80,3713.955948055,N,13701.426789867,E,5,04,5.42,94.348,M,37.566,M,54.8,2006*6F
[2021-02-22 15:35:17.495] $GNGGA,063516.90,3713.955901979,N,13701.426776360,E,5,04,5.42,94.397,M,37.566,M,54.9,2006*6B
[2021-02-22 15:35:17.589] $GNGGA,063517.00,3713.955825835,N,13701.426741356,E,5,04,5.42,94.597,M,37.566,M,55.0,2006*62
[2021-02-22 15:35:17.714] $GNGGA,063517.10,3713.955778984,N,13701.426714377,E,5,04,5.42,94.870,M,37.566,M,55.1,2006*69
[2021-02-22 15:35:17.792] $GNGGA,063517.20,3713.955748284,N,13701.426695737,E,5,04,5.42,94.932,M,37.566,M,55.2,2006*6E
[2021-02-22 15:35:17.886] $GNGGA,063517.30,3713.955679204,N,13701.426618474,E,5,04,5.42,95.144,M,37.566,M,55.3,2006*6C
[2021-02-22 15:35:17.995] $GNGGA,063517.40,3713.955655594,N,13701.426589843,E,5,04,5.42,95.222,M,37.566,M,55.4,2006*6C
[2021-02-22 15:35:18.089] $GNGGA,063517.50,3713.955639069,N,13701.426533925,E,5,04,5.42,95.361,M,37.566,M,55.5,2006*67
[2021-02-22 15:35:18.214] $GNGGA,063517.60,3713.955619026,N,13701.426487275,E,5,04,5.42,95.476,M,37.566,M,55.6,2006*6F
[2021-02-22 15:35:18.292] $GNGGA,063517.70,3713.955596460,N,13701.426361237,E,5,04,5.42,95.633,M,37.566,M,55.7,2006*67
[2021-02-22 15:35:18.386] $GNGGA,063517.80,3713.955615791,N,13701.426251691,E,5,04,5.42,95.709,M,37.566,M,55.8,2006*60
[2021-02-22 15:35:18.495] $GNGGA,063517.90,3713.955609884,N,13701.426211874,E,5,04,5.43,95.761,M,37.566,M,55.9,2006*68
[2021-02-22 15:35:18.589] $GNGGA,063518.00,3713.955600521,N,13701.426188550,E,5,04,5.43,95.804,M,37.566,M,56.0,2006*6B
[2021-02-22 15:35:18.714] $GNGGA,063518.10,3713.955570421,N,13701.426163158,E,5,04,5.43,96.049,M,37.566,M,56.1,2006*65
[2021-02-22 15:35:18.792] $GNGGA,063518.20,3713.955520210,N,13701.426137468,E,5,04,5.43,96.288,M,37.566,M,56.2,2006*6C
[2021-02-22 15:35:18.886] $GNGGA,063518.30,3713.955423994,N,13701.426026661,E,5,04,5.43,96.904,M,37.566,M,56.3,2006*6C
[2021-02-22 15:35:18.995] $GNGGA,063518.40,3713.955392267,N,13701.426002546,E,5,04,5.43,97.042,M,37.566,M,56.4,2006*6C
[2021-02-22 15:35:19.104] $GNGGA,063518.50,3713.955361861,N,13701.425973651,E,5,04,5.43,97.239,M,37.566,M,56.5,2006*6B
[2021-02-22 15:35:19.182] $GNGGA,063518.60,3713.955354870,N,13701.425971542,E,5,04,5.43,97.275,M,37.566,M,56.6,2006*66
[2021-02-22 15:35:19.292] $GNGGA,063518.70,3713.955348596,N,13701.425965237,E,5,04,5.43,97.324,M,37.566,M,56.7,2006*6B
[2021-02-22 15:35:19.386] $GNGGA,063518.80,3713.955346924,N,13701.425961828,E,5,04,5.43,97.337,M,37.566,M,56.8,2006*62
[2021-02-22 15:35:19.511] $GNGGA,063518.90,3713.955342360,N,13701.425951568,E,5,04,5.43,97.363,M,37.566,M,56.9,2006*67
[2021-02-22 15:35:19.589] $GNGGA,063519.00,3713.955341944,N,13701.425946754,E,5,04,5.43,97.371,M,37.566,M,57.0,2006*60
[2021-02-22 15:35:19.682] $GNGGA,063519.10,3713.955338995,N,13701.425939656,E,5,04,5.43,97.393,M,37.566,M,57.1,2006*65
[2021-02-22 15:35:19.792] $GNGGA,063519.20,3713.955338289,N,13701.425936977,E,5,04,5.43,97.400,M,37.566,M,57.2,2006*6D
[2021-02-22 15:35:19.901] $GNGGA,063519.30,3713.955337734,N,13701.425932264,E,5,04,5.43,97.408,M,37.566,M,57.3,2006*64
[2021-02-22 15:35:19.979] $GNGGA,063519.40,3713.955336990,N,13701.425926189,E,5,04,5.43,97.409,M,37.566,M,57.4,2006*61
[2021-02-22 15:35:20.089] $GNGGA,063519.50,3713.955335846,N,13701.425918694,E,5,05,1.46,97.416,M,37.566,M,57.5,2006*60
[2021-02-22 15:35:20.182] $GNGGA,063519.60,3713.955292662,N,13701.426071121,E,4,05,1.46,96.512,M,37.566,M,57.6,2006*6D
[2021-02-22 15:35:20.307] $GNGGA,063519.70,3713.955361541,N,13701.426178159,E,4,05,1.46,96.665,M,37.566,M,57.7,2006*66
[2021-02-22 15:35:20.385] $GNGGA,063519.80,3713.955362250,N,13701.426175195,E,4,05,1.46,96.659,M,37.566,M,57.8,2006*60
[2021-02-22 15:35:20.495] $GNGGA,063519.90,3713.955357871,N,13701.426169888,E,4,05,1.46,96.651,M,37.566,M,57.9,2006*6F
[2021-02-22 15:35:20.589] $GNGGA,063520.00,3713.955359056,N,13701.426172277,E,4,05,1.46,96.644,M,37.566,M,58.0,2006*6D
[2021-02-22 15:35:20.713] $GNGGA,063520.10,3713.955357416,N,13701.426169344,E,4,05,1.46,96.637,M,37.566,M,58.1,2006*6C
[2021-02-22 15:35:20.792] $GNGGA,063520.20,3713.955351729,N,13701.426164181,E,4,05,1.46,96.628,M,37.566,M,58.2,2006*6D
[2021-02-22 15:35:20.885] $GNGGA,063520.30,3713.955346483,N,13701.426153639,E,4,05,1.46,96.622,M,37.566,M,58.3,2006*62
[2021-02-22 15:35:20.995] $GNGGA,063520.40,3713.955340595,N,13701.426145816,E,4,05,1.46,96.615,M,37.566,M,58.4,2006*62
[2021-02-22 15:35:21.089] $GNGGA,063520.50,3713.955339631,N,13701.426141797,E,4,05,1.46,96.602,M,37.566,M,58.5,2006*65
[2021-02-22 15:35:21.213] $GNGGA,063520.60,3713.955335690,N,13701.426135263,E,4,05,1.46,96.596,M,37.566,M,58.6,2006*61
[2021-02-22 15:35:21.292] $GNGGA,063520.70,3713.955332438,N,13701.426131206,E,4,05,1.46,96.590,M,37.566,M,58.7,2006*67
[2021-02-22 15:35:21.385] $GNGGA,063520.80,3713.955332393,N,13701.426134256,E,4,10,0.92,96.585,M,37.566,M,58.8,2006*69
[2021-02-22 15:35:21.495] $GNGGA,063520.90,3713.955262064,N,13701.425934449,E,4,12,0.85,96.063,M,37.566,M,58.9,2006*6C
[2021-02-22 15:35:21.588] $GNGGA,063521.00,3713.955268984,N,13701.425935404,E,4,14,0.84,96.054,M,37.566,M,59.0,2006*6A
[2021-02-22 15:35:21.713] $GNGGA,063521.10,3713.955239385,N,13701.425915016,E,4,14,0.84,96.089,M,37.566,M,59.1,2006*60
[2021-02-22 15:35:21.792] $GNGGA,063521.20,3713.955206244,N,13701.425893018,E,4,14,0.84,96.129,M,37.566,M,59.2,2006*6A
[2021-02-22 15:35:21.885] $GNGGA,063521.30,3713.955197622,N,13701.425887759,E,4,14,0.84,96.137,M,37.566,M,59.3,2006*6D
[2021-02-22 15:35:21.995] $GNGGA,063521.40,3713.955194140,N,13701.425882805,E,4,14,0.84,96.137,M,37.566,M,59.4,2006*6E
[2021-02-22 15:35:22.088] $GNGGA,063521.50,3713.955188623,N,13701.425876743,E,4,14,0.84,96.142,M,37.566,M,59.5,2006*65
[2021-02-22 15:35:22.213] $GNGGA,063521.60,3713.955184921,N,13701.425875364,E,4,14,0.84,96.149,M,37.566,M,59.6,2006*6D
[2021-02-22 15:35:22.292] $GNGGA,063521.70,3713.955181919,N,13701.425874057,E,4,14,0.84,96.149,M,37.566,M,59.7,2006*61
[2021-02-22 15:35:22.385] $GNGGA,063521.80,3713.955177949,N,13701.425873196,E,4,14,0.84,96.152,M,37.566,M,59.8,2006*6C
[2021-02-22 15:35:22.495] $GNGGA,063521.90,3713.955025499,N,13701.425786350,E,4,12,0.87,96.346,M,37.566,M,59.9,2006*65
[2021-02-22 15:35:22.588] $GNGGA,063522.00,3713.955027383,N,13701.425786296,E,4,12,0.87,96.347,M,37.566,M,60.0,2006*68
[2021-02-22 15:35:22.713] $GNGGA,063522.10,3713.955027656,N,13701.425786174,E,4,12,0.87,96.346,M,37.566,M,60.1,2006*6B
[2021-02-22 15:35:22.792] $GNGGA,063522.20,3713.955029651,N,13701.425785155,E,4,12,0.87,96.343,M,37.566,M,60.2,2006*67
[2021-02-22 15:35:22.885] $GNGGA,063522.30,3713.955031867,N,13701.425786115,E,4,12,0.87,96.342,M,37.566,M,60.3,2006*63
[2021-02-22 15:35:22.995] $GNGGA,063522.40,3713.955032148,N,13701.425787508,E,4,12,0.87,96.343,M,37.566,M,60.4,2006*6C
[2021-02-22 15:35:23.104] $GNGGA,063522.50,3713.955034274,N,13701.425789628,E,4,12,0.87,96.344,M,37.566,M,60.5,2006*6E
[2021-02-22 15:35:23.182] $GNGGA,063522.60,3713.955034513,N,13701.425790365,E,4,12,0.87,96.344,M,37.566,M,60.6,2006*6C
[2021-02-22 15:35:23.292] $GNGGA,063522.70,3713.955034060,N,13701.425789304,E,4,12,0.87,96.343,M,37.566,M,60.7,2006*65
[2021-02-22 15:35:23.385] $GNGGA,063522.80,3713.955033390,N,13701.425789797,E,4,12,0.87,96.344,M,37.566,M,60.8,2006*67
[2021-02-22 15:35:23.510] $GNGGA,063522.90,3713.955033083,N,13701.425790114,E,4,12,0.87,96.345,M,37.566,M,60.9,2006*62
[2021-02-22 15:35:23.588] $GNGGA,063523.00,3713.955032112,N,13701.425789096,E,4,12,0.87,96.341,M,37.566,M,61.0,2006*6D
[2021-02-22 15:35:23.682] $GNGGA,063523.10,3713.955032166,N,13701.425789128,E,4,12,0.87,96.341,M,37.566,M,61.1,2006*6A
[2021-02-22 15:35:23.791] $GNGGA,063523.20,3713.955032583,N,13701.425788435,E,4,13,0.85,96.340,M,37.566,M,61.2,2006*6F
[2021-02-22 15:35:23.901] $GNGGA,063523.30,3713.955032607,N,13701.425787059,E,4,12,0.87,96.337,M,37.566,M,61.3,2006*62
[2021-02-22 15:35:23.979] $GNGGA,063523.40,3713.955032713,N,13701.425788966,E,4,12,0.87,96.343,M,37.566,M,61.4,2006*6F
[2021-02-22 15:35:24.088] $GNGGA,063523.50,3713.955033039,N,13701.425791361,E,4,13,0.85,96.344,M,37.566,M,61.5,2006*60
[2021-02-22 15:35:24.182] $GNGGA,063523.60,3713.955032248,N,13701.425793822,E,4,13,0.85,96.341,M,37.566,M,61.6,2006*6E
[2021-02-22 15:35:24.307] $GNGGA,063523.70,3713.955032009,N,13701.425796008,E,4,12,0.87,96.343,M,37.566,M,61.7,2006*6D
[2021-02-22 15:35:24.385] $GNGGA,063523.80,3713.955033502,N,13701.425809418,E,4,14,0.84,96.377,M,37.566,M,61.8,2006*6C
[2021-02-22 15:35:24.494] $GNGGA,063523.90,3713.955037400,N,13701.425811314,E,4,14,0.84,96.361,M,37.566,M,61.9,2006*6E
[2021-02-22 15:35:24.588] $GNGGA,063524.00,3713.955027883,N,13701.425803226,E,4,14,0.84,96.347,M,37.566,M,62.0,2006*6B
[2021-02-22 15:35:24.713] $GNGGA,063524.10,3713.955031276,N,13701.425806570,E,4,14,0.84,96.377,M,37.566,M,62.1,2006*6E
[2021-02-22 15:35:24.791] $GNGGA,063524.20,3713.955029481,N,13701.425792799,E,4,13,0.85,96.335,M,37.566,M,62.2,2006*6E
[2021-02-22 15:35:24.885] $GNGGA,063524.30,3713.955029883,N,13701.425791974,E,4,12,0.87,96.338,M,37.566,M,62.3,2006*60
[2021-02-22 15:35:24.994] $GNGGA,063524.40,3713.955028552,N,13701.425791621,E,4,12,0.87,96.336,M,37.566,M,62.4,2006*61
[2021-02-22 15:35:25.088] $GNGGA,063524.50,3713.955028604,N,13701.425791453,E,4,12,0.87,96.338,M,37.566,M,62.5,2006*68
[2021-02-22 15:35:25.213] $GNGGA,063524.60,3713.955030094,N,13701.425790629,E,4,12,0.87,96.337,M,37.566,M,62.6,2006*6F
[2021-02-22 15:35:25.291] $GNGGA,063524.70,3713.955030498,N,13701.425790406,E,4,12,0.87,96.338,M,37.566,M,62.7,2006*67
[2021-02-22 15:35:25.385] $GNGGA,063524.80,3713.955031651,N,13701.425789523,E,4,12,0.87,96.337,M,37.566,M,62.8,2006*60
[2021-02-22 15:35:25.494] $GNGGA,063524.90,3713.955032087,N,13701.425788854,E,4,12,0.87,96.335,M,37.566,M,62.9,2006*60
[2021-02-22 15:35:25.588] $GNGGA,063525.00,3713.955032336,N,13701.425788613,E,4,12,0.87,96.331,M,37.566,M,63.0,2006*60
[2021-02-22 15:35:25.713] $GNGGA,063525.10,3713.955033619,N,13701.425788470,E,4,12,0.87,96.332,M,37.566,M,63.1,2006*6D
[2021-02-22 15:35:25.791] $GNGGA,063525.20,3713.955033704,N,13701.425788343,E,4,12,0.87,96.332,M,37.566,M,63.2,2006*67
[2021-02-22 15:35:25.885] $GNGGA,063525.30,3713.955033086,N,13701.425788268,E,4,12,0.87,96.335,M,37.566,M,63.3,2006*65
[2021-02-22 15:35:25.994] $GNGGA,063525.40,3713.955033358,N,13701.425787718,E,4,12,0.87,96.335,M,37.566,M,63.4,2006*68
[2021-02-22 15:35:26.088] $GNGGA,063525.50,3713.955033063,N,13701.425788299,E,4,12,0.87,96.334,M,37.566,M,63.5,2006*61
[2021-02-22 15:35:26.213] $GNGGA,063525.60,3713.955031933,N,13701.425789382,E,4,10,1.38,96.333,M,37.566,M,63.6,2006*65
[2021-02-22 15:35:26.291] $GNGGA,063525.70,3713.955034433,N,13701.425791975,E,4,11,1.33,96.332,M,37.566,M,63.7,2006*6D
[2021-02-22 15:35:26.385] $GNGGA,063525.80,3713.955033727,N,13701.425790916,E,4,10,1.36,96.336,M,37.566,M,63.8,2006*68
[2021-02-22 15:35:26.494] $GNGGA,063525.90,3713.955034089,N,13701.425789845,E,4,10,2.02,96.334,M,37.566,M,63.9,2006*65
[2021-02-22 15:35:26.588] $GNGGA,063526.00,3713.955035387,N,13701.425787958,E,4,11,1.82,96.338,M,37.566,M,64.0,2006*68
[2021-02-22 15:35:26.713] $GNGGA,063526.10,3713.955036380,N,13701.425787297,E,4,11,1.82,96.331,M,37.566,M,64.1,2006*6D
[2021-02-22 15:35:26.791] $GNGGA,063526.20,3713.955038148,N,13701.425782819,E,4,11,1.82,96.339,M,37.566,M,64.2,2006*64
[2021-02-22 15:35:26.885] $GNGGA,063526.30,3713.955041169,N,13701.425787148,E,4,10,2.02,96.330,M,37.566,M,64.3,2006*62
[2021-02-22 15:35:26.994] $GNGGA,063526.40,3713.955042589,N,13701.425785025,E,4,09,2.10,96.331,M,37.566,M,64.4,2006*69
[2021-02-22 15:35:27.088] $GNGGA,063526.50,3713.955045279,N,13701.425784760,E,4,08,2.13,96.334,M,37.566,M,64.5,2006*66
[2021-02-22 15:35:27.213] $GNGGA,063526.60,3713.955047329,N,13701.425784573,E,4,08,2.13,96.333,M,37.566,M,64.6,2006*67
[2021-02-22 15:35:27.291] $GNGGA,063526.70,3713.955048917,N,13701.425784542,E,4,08,2.13,96.334,M,37.566,M,64.7,2006*6A
[2021-02-22 15:35:27.385] $GNGGA,063526.80,3713.955049902,N,13701.425785325,E,4,08,2.13,96.331,M,37.566,M,64.8,2006*6C
[2021-02-22 15:35:27.494] $GNGGA,063526.90,3713.955051381,N,13701.425786055,E,4,08,2.13,96.333,M,37.566,M,64.9,2006*61
[2021-02-22 15:35:27.604] $GNGGA,063527.00,3713.955051524,N,13701.425786591,E,4,08,2.13,96.335,M,37.566,M,65.0,2006*63
[2021-02-22 15:35:27.682] $GNGGA,063527.10,3713.955050088,N,13701.425787269,E,4,08,2.13,96.330,M,37.566,M,65.1,2006*65
[2021-02-22 15:35:27.791] $GNGGA,063527.20,3713.955050287,N,13701.425787416,E,4,08,2.13,96.329,M,37.566,M,65.2,2006*6E
[2021-02-22 15:35:27.885] $GNGGA,063527.30,3713.955050710,N,13701.425787933,E,4,08,2.13,96.329,M,37.566,M,65.3,2006*6F
[2021-02-22 15:35:28.010] $GNGGA,063527.40,3713.955045852,N,13701.425782505,E,4,09,1.98,96.336,M,37.566,M,65.4,2006*61
[2021-02-22 15:35:28.088] $GNGGA,063527.50,3713.955049280,N,13701.425782910,E,4,09,1.98,96.339,M,37.566,M,65.5,2006*6F
[2021-02-22 15:35:28.182] $GNGGA,063527.60,3713.955051106,N,13701.425781237,E,4,09,1.98,96.337,M,37.566,M,65.6,2006*68
[2021-02-22 15:35:28.291] $GNGGA,063527.70,3713.955048877,N,13701.425780719,E,4,09,1.98,96.335,M,37.566,M,65.7,2006*65
[2021-02-22 15:35:28.416] $GNGGA,063527.80,3713.955048719,N,13701.425780055,E,4,09,1.98,96.335,M,37.566,M,65.8,2006*6D
[2021-02-22 15:35:28.479] $GNGGA,063527.90,3713.955051592,N,13701.425780127,E,4,09,1.98,96.334,M,37.566,M,65.9,2006*61
[2021-02-22 15:35:28.588] $GNGGA,063528.00,3713.955053121,N,13701.425779484,E,4,09,1.98,96.335,M,37.566,M,66.0,2006*68
[2021-02-22 15:35:28.682] $GNGGA,063528.10,3713.955048071,N,13701.425779809,E,4,09,1.98,96.331,M,37.566,M,66.1,2006*6B
[2021-02-22 15:35:28.807] $GNGGA,063528.20,3713.955051289,N,13701.425780620,E,4,09,1.98,96.330,M,37.566,M,66.2,2006*64
[2021-02-22 15:35:28.885] $GNGGA,063528.30,3713.955051594,N,13701.425779739,E,4,09,1.98,96.331,M,37.566,M,66.3,2006*61
[2021-02-22 15:35:28.994] $GNGGA,063528.40,3713.955047840,N,13701.425780105,E,4,09,1.98,96.328,M,37.566,M,66.4,2006*65
[2021-02-22 15:35:29.088] $GNGGA,063528.50,3713.955050561,N,13701.425779572,E,4,09,1.98,96.332,M,37.566,M,66.5,2006*64
[2021-02-22 15:35:29.213] $GNGGA,063528.60,3713.955050583,N,13701.425778134,E,4,09,1.98,96.329,M,37.566,M,66.6,2006*65
[2021-02-22 15:35:29.291] $GNGGA,063528.70,3713.955050574,N,13701.425777161,E,4,09,1.98,96.331,M,37.566,M,66.7,2006*6B
[2021-02-22 15:35:29.385] $GNGGA,063528.80,3713.955046509,N,13701.425774972,E,4,09,1.98,96.330,M,37.566,M,66.8,2006*6E
[2021-02-22 15:35:29.494] $GNGGA,063528.90,3713.955045385,N,13701.425775641,E,4,09,1.98,96.331,M,37.566,M,66.9,2006*60
[2021-02-22 15:35:29.588] $GNGGA,063529.00,3713.955048772,N,13701.425773694,E,4,09,1.98,96.332,M,37.566,M,67.0,2006*6C
[2021-02-22 15:35:29.713] $GNGGA,063529.10,3713.955045657,N,13701.425772662,E,4,09,1.98,96.327,M,37.566,M,67.1,2006*6B
[2021-02-22 15:35:29.791] $GNGGA,063529.20,3713.955044775,N,13701.425773373,E,4,09,1.98,96.329,M,37.566,M,67.2,2006*61
[2021-02-22 15:35:29.885] $GNGGA,063529.30,3713.955048661,N,13701.425771512,E,4,09,1.98,96.332,M,37.566,M,67.3,2006*60
[2021-02-22 15:35:29.994] $GNGGA,063529.40,3713.955045837,N,13701.425770344,E,4,09,1.98,96.323,M,37.566,M,67.4,2006*64
[2021-02-22 15:35:30.088] $GNGGA,063529.50,3713.955044894,N,13701.425771627,E,4,09,1.98,96.329,M,37.566,M,67.5,2006*67
[2021-02-22 15:35:30.213] $GNGGA,063529.60,3713.955044960,N,13701.425770287,E,4,09,1.98,96.329,M,37.566,M,67.6,2006*62
[2021-02-22 15:35:30.291] $GNGGA,063529.70,3713.955046000,N,13701.425769616,E,4,09,1.98,96.327,M,37.566,M,67.7,2006*65
[2021-02-22 15:35:30.385] $GNGGA,063529.80,3713.955046890,N,13701.425769086,E,4,09,1.98,96.330,M,37.566,M,67.8,2006*6D
[2021-02-22 15:35:30.494] $GNGGA,063529.90,3713.955046047,N,13701.425768812,E,4,09,1.98,96.331,M,37.566,M,67.9,2006*6A
[2021-02-22 15:35:30.588] $GNGGA,063530.00,3713.955047786,N,13701.425768148,E,4,09,1.98,96.335,M,37.566,M,68.0,2006*64
[2021-02-22 15:35:30.713] $GNGGA,063530.10,3713.955047639,N,13701.425769118,E,4,09,1.98,96.333,M,37.566,M,68.1,2006*63
[2021-02-22 15:35:30.791] $GNGGA,063530.20,3713.955049535,N,13701.425767963,E,4,09,1.98,96.334,M,37.566,M,68.2,2006*6F
[2021-02-22 15:35:30.885] $GNGGA,063530.30,3713.955049990,N,13701.425769419,E,4,09,1.98,96.333,M,37.566,M,68.3,2006*65
[2021-02-22 15:35:30.994] $GNGGA,063530.40,3713.955053027,N,13701.425776457,E,4,08,2.14,96.319,M,37.566,M,68.4,2006*61
[2021-02-22 15:35:31.088] $GNGGA,063530.50,3713.955052809,N,13701.425777075,E,4,08,2.14,96.321,M,37.566,M,68.5,2006*6A
[2021-02-22 15:35:31.213] $GNGGA,063530.60,3713.955051698,N,13701.425778581,E,4,08,2.14,96.319,M,37.566,M,68.6,2006*65
[2021-02-22 15:35:31.291] $GNGGA,063530.70,3713.955052571,N,13701.425777661,E,4,08,2.14,96.318,M,37.566,M,68.7,2006*61
[2021-02-22 15:35:31.385] $GNGGA,063530.80,3713.955053699,N,13701.425776558,E,4,08,2.14,96.320,M,37.566,M,68.8,2006*66
[2021-02-22 15:35:31.494] $GNGGA,063530.90,3713.955052279,N,13701.425778056,E,4,08,2.14,96.323,M,37.566,M,68.9,2006*6B
[2021-02-22 15:35:31.588] $GNGGA,063531.00,3713.955052961,N,13701.425778494,E,4,08,2.14,96.318,M,37.566,M,69.0,2006*6B
[2021-02-22 15:35:31.713] $GNGGA,063531.10,3713.955054538,N,13701.425777587,E,4,08,2.14,96.319,M,37.566,M,69.1,2006*60
[2021-02-22 15:35:31.791] $GNGGA,063531.20,3713.955049659,N,13701.425774368,E,4,09,1.98,96.331,M,37.566,M,69.2,2006*60
[2021-02-22 15:35:31.885] $GNGGA,063531.30,3713.955050630,N,13701.425773234,E,4,09,1.98,96.331,M,37.566,M,69.3,2006*68
[2021-02-22 15:35:31.994] $GNGGA,063531.40,3713.955049714,N,13701.425773858,E,4,09,1.98,96.332,M,37.566,M,69.4,2006*64
[2021-02-22 15:35:32.103] $GNGGA,063531.50,3713.955055855,N,13701.425772075,E,4,09,1.98,96.333,M,37.566,M,69.5,2006*64
[2021-02-22 15:35:32.182] $GNGGA,063531.60,3713.955051647,N,13701.425772710,E,4,09,1.98,96.328,M,37.566,M,69.6,2006*63
[2021-02-22 15:35:32.291] $GNGGA,063531.70,3713.955056500,N,13701.425772930,E,4,09,1.98,96.330,M,37.566,M,69.7,2006*61
[2021-02-22 15:35:32.385] $GNGGA,063531.80,3713.955049733,N,13701.425775810,E,4,09,1.98,96.326,M,37.566,M,69.8,2006*6E
[2021-02-22 15:35:32.510] $GNGGA,063531.90,3713.955055471,N,13701.425781575,E,4,08,2.14,96.322,M,37.566,M,69.9,2006*61
[2021-02-22 15:35:32.588] $GNGGA,063532.00,3713.955055755,N,13701.425781328,E,4,08,2.14,96.320,M,37.566,M,70.0,2006*63
[2021-02-22 15:35:32.681] $GNGGA,063532.10,3713.955056731,N,13701.425780434,E,4,08,2.14,96.321,M,37.566,M,70.1,2006*68
[2021-02-22 15:35:32.791] $GNGGA,063532.20,3713.955056188,N,13701.425782052,E,4,08,2.14,96.320,M,37.566,M,70.2,2006*6B
[2021-02-22 15:35:32.916] $GNGGA,063532.30,3713.955056472,N,13701.425783747,E,4,08,2.14,96.324,M,37.566,M,70.3,2006*6D
[2021-02-22 15:35:32.978] $GNGGA,063532.40,3713.955056703,N,13701.425785723,E,4,08,2.14,96.327,M,37.566,M,70.4,2006*6F
[2021-02-22 15:35:33.088] $GNGGA,063532.50,3713.955056915,N,13701.425785882,E,4,08,2.14,96.324,M,37.566,M,70.5,2006*61
[2021-02-22 15:35:33.181] $GNGGA,063532.60,3713.955057615,N,13701.425786679,E,4,08,2.14,96.324,M,37.566,M,70.6,2006*66
[2021-02-22 15:35:33.306] $GNGGA,063532.70,3713.955058441,N,13701.425786451,E,4,08,2.14,96.328,M,37.566,M,70.7,2006*6E
[2021-02-22 15:35:33.385] $GNGGA,063532.80,3713.955058035,N,13701.425786876,E,4,08,2.14,96.325,M,37.566,M,70.8,2006*6D
[2021-02-22 15:35:33.494] $GNGGA,063532.90,3713.955058194,N,13701.425786557,E,4,08,2.14,96.325,M,37.566,M,70.9,2006*69
[2021-02-22 15:35:33.588] $GNGGA,063533.00,3713.955056576,N,13701.425786726,E,4,08,2.14,96.325,M,37.566,M,71.0,2006*6B
[2021-02-22 15:35:33.713] $GNGGA,063533.10,3713.955055093,N,13701.425786344,E,4,08,2.14,96.321,M,37.566,M,71.1,2006*62
[2021-02-22 15:35:33.791] $GNGGA,063533.20,3713.955055833,N,13701.425786821,E,4,08,2.14,96.323,M,37.566,M,71.2,2006*6A
[2021-02-22 15:35:33.885] $GNGGA,063533.30,3713.955057656,N,13701.425784226,E,4,08,2.14,96.320,M,37.566,M,71.3,2006*69
[2021-02-22 15:35:33.994] $GNGGA,063533.40,3713.955057880,N,13701.425783097,E,4,08,2.14,96.324,M,37.566,M,71.4,2006*67
[2021-02-22 15:35:34.088] $GNGGA,063533.50,3713.955056692,N,13701.425783029,E,4,08,2.14,96.322,M,37.566,M,71.5,2006*68
[2021-02-22 15:35:34.213] $GNGGA,063533.60,3713.955056654,N,13701.425782246,E,4,08,2.14,96.323,M,37.566,M,71.6,2006*69
[2021-02-22 15:35:34.291] $GNGGA,063533.70,3713.955057811,N,13701.425778294,E,4,08,2.14,96.322,M,37.566,M,71.7,2006*6C
[2021-02-22 15:35:34.384] $GNGGA,063533.80,3713.955056127,N,13701.425779380,E,4,09,1.98,96.327,M,37.566,M,71.8,2006*67
[2021-02-22 15:35:34.494] $GNGGA,063533.90,3713.955054005,N,13701.425779476,E,4,08,2.14,96.327,M,37.566,M,71.9,2006*6C
[2021-02-22 15:35:34.588] $GNGGA,063534.00,3713.955053237,N,13701.425779156,E,4,09,1.98,96.325,M,37.566,M,72.0,2006*6F
[2021-02-22 15:35:34.713] $GNGGA,063534.10,3713.955053451,N,13701.425779208,E,4,09,1.98,96.324,M,37.566,M,72.1,2006*60
[2021-02-22 15:35:34.791] $GNGGA,063534.20,3713.955053218,N,13701.425780095,E,4,09,1.98,96.320,M,37.566,M,72.2,2006*6F
[2021-02-22 15:35:34.884] $GNGGA,063534.30,3713.955055876,N,13701.425777372,E,4,09,1.98,96.319,M,37.566,M,72.3,2006*63
[2021-02-22 15:35:34.994] $GNGGA,063534.40,3713.955055310,N,13701.425777761,E,4,09,1.98,96.320,M,37.566,M,72.4,2006*64
[2021-02-22 15:35:35.088] $GNGGA,063534.50,3713.955056447,N,13701.425777419,E,4,09,1.98,96.322,M,37.566,M,72.5,2006*6C
[2021-02-22 15:35:35.212] $GNGGA,063534.60,3713.955057934,N,13701.425777820,E,4,09,1.98,96.325,M,37.566,M,72.6,2006*65
[2021-02-22 15:35:35.291] $GNGGA,063534.70,3713.955057205,N,13701.425778575,E,4,09,1.98,96.322,M,37.566,M,72.7,2006*69
[2021-02-22 15:35:35.384] $GNGGA,063534.80,3713.955056619,N,13701.425779461,E,4,09,1.98,96.324,M,37.566,M,72.8,2006*62
[2021-02-22 15:35:35.494] $GNGGA,063534.90,3713.955057546,N,13701.425779216,E,4,09,1.98,96.319,M,37.566,M,72.9,2006*62
[2021-02-22 15:35:35.588] $GNGGA,063535.00,3713.955057322,N,13701.425779551,E,4,09,1.98,96.318,M,37.566,M,73.0,2006*63
[2021-02-22 15:35:35.712] $GNGGA,063535.10,3713.955057878,N,13701.425779183,E,4,09,1.98,96.321,M,37.566,M,73.1,2006*66
[2021-02-22 15:35:35.791] $GNGGA,063535.20,3713.955057345,N,13701.425778796,E,4,09,1.98,96.321,M,37.566,M,73.2,2006*60
[2021-02-22 15:35:35.884] $GNGGA,063535.30,3713.955057469,N,13701.425778359,E,4,09,1.98,96.319,M,37.566,M,73.3,2006*65
[2021-02-22 15:35:35.994] $GNGGA,063535.40,3713.955059320,N,13701.425778363,E,4,09,1.98,96.322,M,37.566,M,73.4,2006*60
[2021-02-22 15:35:36.087] $GNGGA,063535.50,3713.955057650,N,13701.425777296,E,4,08,2.14,96.316,M,37.566,M,73.5,2006*69
[2021-02-22 15:35:36.212] $GNGGA,063535.60,3713.955056552,N,13701.425777839,E,4,09,1.98,96.319,M,37.566,M,73.6,2006*6F
[2021-02-22 15:35:36.291] $GNGGA,063535.70,3713.955056808,N,13701.425778201,E,4,09,1.98,96.322,M,37.566,M,73.7,2006*6B
[2021-02-22 15:35:36.384] $GNGGA,063535.80,3713.955057838,N,13701.425776120,E,4,08,2.14,96.315,M,37.566,M,73.8,2006*65
[2021-02-22 15:35:36.494] $GNGGA,063535.90,3713.955058205,N,13701.425776604,E,4,09,1.98,96.316,M,37.566,M,73.9,2006*6A
[2021-02-22 15:35:36.603] $GNGGA,063536.00,3713.955057071,N,13701.425775602,E,4,09,1.98,96.313,M,37.566,M,74.0,2006*60
[2021-02-22 15:35:36.681] $GNGGA,063536.10,3713.955057386,N,13701.425775203,E,4,08,2.14,96.317,M,37.566,M,74.1,2006*6C
[2021-02-22 15:35:36.791] $GNGGA,063536.20,3713.955057631,N,13701.425774001,E,4,09,1.98,96.320,M,37.566,M,74.2,2006*66
[2021-02-22 15:35:36.884] $GNGGA,063536.30,3713.955058297,N,13701.425775242,E,4,09,1.98,96.322,M,37.566,M,74.3,2006*67
[2021-02-22 15:35:37.009] $GNGGA,063536.40,3713.955057294,N,13701.425775939,E,4,08,2.14,96.323,M,37.566,M,74.4,2006*6B
[2021-02-22 15:35:37.087] $GNGGA,063536.50,3713.955057600,N,13701.425776920,E,4,09,1.98,96.327,M,37.566,M,74.5,2006*6B
[2021-02-22 15:35:37.181] $GNGGA,063536.60,3713.955057562,N,13701.425775719,E,4,08,2.14,96.325,M,37.566,M,74.6,2006*6F
[2021-02-22 15:35:37.291] $GNGGA,063536.70,3713.955057352,N,13701.425775428,E,4,09,1.98,96.325,M,37.566,M,74.7,2006*6D
[2021-02-22 15:35:37.400] $GNGGA,063536.80,3713.955057354,N,13701.425775778,E,4,09,1.98,96.325,M,37.566,M,74.8,2006*6D
[2021-02-22 15:35:37.494] $GNGGA,063536.90,3713.955057493,N,13701.425775431,E,4,08,2.14,96.319,M,37.566,M,74.9,2006*66
[2021-02-22 15:35:37.587] $GNGGA,063537.00,3713.955057764,N,13701.425776546,E,4,09,1.98,96.323,M,37.566,M,75.0,2006*60
[2021-02-22 15:35:37.681] $GNGGA,063537.10,3713.955058224,N,13701.425774930,E,4,08,2.14,96.318,M,37.566,M,75.1,2006*6F
[2021-02-22 15:35:37.806] $GNGGA,063537.20,3713.955057320,N,13701.425777171,E,4,09,1.98,96.322,M,37.566,M,75.2,2006*64
[2021-02-22 15:35:37.884] $GNGGA,063537.30,3713.955058354,N,13701.425777858,E,4,09,1.98,96.323,M,37.566,M,75.3,2006*6B
[2021-02-22 15:35:37.994] $GNGGA,063537.40,3713.955049058,N,13701.425778244,E,4,09,1.98,96.326,M,37.566,M,75.4,2006*69
[2021-02-22 15:35:38.087] $GNGGA,063537.50,3713.955061949,N,13701.425776918,E,4,09,1.98,96.335,M,37.566,M,75.5,2006*64
[2021-02-22 15:35:38.197] $GNGGA,063537.60,3713.955050697,N,13701.425776847,E,4,09,1.98,96.326,M,37.566,M,75.6,2006*63
[2021-02-22 15:35:38.306] $GNGGA,063537.70,3713.955060154,N,13701.425775883,E,4,09,1.98,96.337,M,37.566,M,75.7,2006*63
[2021-02-22 15:35:38.384] $GNGGA,063537.80,3713.955047566,N,13701.425776354,E,4,09,1.98,96.329,M,37.566,M,75.8,2006*6E
[2021-02-22 15:35:38.494] $GNGGA,063537.90,3713.955058150,N,13701.425774673,E,4,09,1.98,96.338,M,37.566,M,75.9,2006*63
[2021-02-22 15:35:38.587] $GNGGA,063538.00,3713.955044834,N,13701.425775707,E,4,09,1.98,96.330,M,37.566,M,76.0,2006*62
[2021-02-22 15:35:38.681] $GNGGA,063538.10,3713.955044400,N,13701.425773814,E,4,09,1.98,96.328,M,37.566,M,76.1,2006*6B
[2021-02-22 15:35:38.806] $GNGGA,063538.20,3713.955058436,N,13701.425769573,E,4,09,1.98,96.340,M,37.566,M,76.2,2006*6A
[2021-02-22 15:35:38.884] $GNGGA,063538.30,3713.955047530,N,13701.425767840,E,4,09,1.98,96.329,M,37.566,M,76.3,2006*6F
[2021-02-22 15:35:38.994] $GNGGA,063538.40,3713.955062023,N,13701.425764090,E,4,09,1.98,96.335,M,37.566,M,76.4,2006*64
[2021-02-22 15:35:39.087] $GNGGA,063538.50,3713.955053241,N,13701.425764459,E,4,09,1.98,96.326,M,37.566,M,76.5,2006*63
[2021-02-22 15:35:39.197] $GNGGA,063538.60,3713.955066437,N,13701.425761731,E,4,09,1.98,96.321,M,37.566,M,76.6,2006*6D
[2021-02-22 15:35:39.306] $GNGGA,063538.70,3713.955071181,N,13701.425761545,E,4,08,2.14,96.322,M,37.566,M,76.7,2006*67
[2021-02-22 15:35:39.384] $GNGGA,063538.80,3713.955074704,N,13701.425763166,E,4,08,2.14,96.323,M,37.566,M,76.8,2006*6F
[2021-02-22 15:35:39.493] $GNGGA,063538.90,3713.955076249,N,13701.425763153,E,4,08,2.14,96.327,M,37.566,M,76.9,2006*63
[2021-02-22 15:35:39.587] $GNGGA,063539.00,3713.955076463,N,13701.425763762,E,4,09,1.98,96.324,M,37.566,M,77.0,2006*6C
[2021-02-22 15:35:39.697] $GNGGA,063539.10,3713.955078064,N,13701.425766742,E,4,08,2.14,96.325,M,37.566,M,77.1,2006*61
[2021-02-22 15:35:39.806] $GNGGA,063539.20,3713.955075641,N,13701.425769457,E,4,09,1.98,96.327,M,37.566,M,77.2,2006*61
[2021-02-22 15:35:39.884] $GNGGA,063539.30,3713.955074238,N,13701.425772812,E,4,08,2.14,96.326,M,37.566,M,77.3,2006*6A
[2021-02-22 15:35:39.993] $GNGGA,063539.40,3713.955073081,N,13701.425777786,E,4,09,1.98,96.323,M,37.566,M,77.4,2006*69
[2021-02-22 15:35:40.087] $GNGGA,063539.50,3713.955069440,N,13701.425782862,E,4,08,2.14,96.322,M,37.566,M,77.5,2006*63
[2021-02-22 15:35:40.181] $GNGGA,063539.60,3713.955064801,N,13701.425788281,E,4,09,1.98,96.324,M,37.566,M,77.6,2006*6A
[2021-02-22 15:35:40.306] $GNGGA,063539.70,3713.955063544,N,13701.425793158,E,4,09,1.98,96.321,M,37.566,M,77.7,2006*69
[2021-02-22 15:35:40.384] $GNGGA,063539.80,3713.955061394,N,13701.425794465,E,4,08,2.14,96.328,M,37.566,M,77.8,2006*63
[2021-02-22 15:35:40.493] $GNGGA,063539.90,3713.955060125,N,13701.425794281,E,4,09,1.98,96.330,M,37.566,M,77.9,2006*69
[2021-02-22 15:35:40.587] $GNGGA,063540.00,3713.955059318,N,13701.425793499,E,4,09,1.98,96.326,M,37.566,M,78.0,2006*61
[2021-02-22 15:35:40.712] $GNGGA,063540.10,3713.955059205,N,13701.425793001,E,4,09,1.98,96.328,M,37.566,M,78.1,2006*67
[2021-02-22 15:35:40.790] $GNGGA,063540.20,3713.955048679,N,13701.425793919,E,4,09,1.98,96.326,M,37.566,M,78.2,2006*66
[2021-02-22 15:35:40.884] $GNGGA,063540.30,3713.955048522,N,13701.425793370,E,4,09,1.98,96.328,M,37.566,M,78.3,2006*60
[2021-02-22 15:35:40.993] $GNGGA,063540.40,3713.955047618,N,13701.425793311,E,4,07,2.49,96.318,M,37.566,M,78.4,2006*60
[2021-02-22 15:35:41.103] $GNGGA,063540.50,3713.955047946,N,13701.425793494,E,4,07,2.49,96.322,M,37.566,M,78.5,2006*67
[2021-02-22 15:35:41.181] $GNGGA,063540.60,3713.955046525,N,13701.425793086,E,4,07,2.49,96.319,M,37.566,M,78.6,2006*60
[2021-02-22 15:35:41.290] $GNGGA,063540.70,3713.955046646,N,13701.425792369,E,4,07,2.49,96.320,M,37.566,M,78.7,2006*6F
[2021-02-22 15:35:41.384] $GNGGA,063540.80,3713.955047467,N,13701.425792501,E,4,07,2.49,96.321,M,37.566,M,78.8,2006*66
[2021-02-22 15:35:41.509] $GNGGA,063540.90,3713.955046946,N,13701.425792537,E,4,07,2.49,96.319,M,37.566,M,78.9,2006*67
[2021-02-22 15:35:41.587] $GNGGA,063541.00,3713.955046457,N,13701.425794308,E,4,07,2.49,96.321,M,37.566,M,79.0,2006*6D
[2021-02-22 15:35:41.681] $GNGGA,063541.10,3713.955046357,N,13701.425794382,E,4,07,2.49,96.319,M,37.566,M,79.1,2006*63
[2021-02-22 15:35:41.790] $GNGGA,063541.20,3713.955045914,N,13701.425794774,E,4,07,2.49,96.316,M,37.566,M,79.2,2006*6F
[2021-02-22 15:35:41.900] $GNGGA,063541.30,3713.955045370,N,13701.425794988,E,4,07,2.49,96.319,M,37.566,M,79.3,2006*65
[2021-02-22 15:35:41.993] $GNGGA,063541.40,3713.955046697,N,13701.425793177,E,4,07,2.49,96.317,M,37.566,M,79.4,2006*6B
[2021-02-22 15:35:42.087] $GNGGA,063541.50,3713.955046434,N,13701.425792083,E,4,07,2.49,96.313,M,37.566,M,79.5,2006*6F
[2021-02-22 15:35:42.196] $GNGGA,063541.60,3713.955045223,N,13701.425793212,E,4,07,2.49,96.314,M,37.566,M,79.6,2006*60
[2021-02-22 15:35:42.306] $GNGGA,063541.70,3713.955046198,N,13701.425792305,E,4,07,2.49,96.315,M,37.566,M,79.7,2006*67
[2021-02-22 15:35:42.384] $GNGGA,063541.80,3713.955047258,N,13701.425793061,E,4,07,2.49,96.313,M,37.566,M,79.8,2006*6F
[2021-02-22 15:35:42.493] $GNGGA,063541.90,3713.955048792,N,13701.425793568,E,4,07,2.49,96.315,M,37.566,M,79.9,2006*69
[2021-02-22 15:35:42.587] $GNGGA,063542.00,3713.955049161,N,13701.425793204,E,4,07,2.49,96.317,M,37.566,M,80.0,2006*68
[2021-02-22 15:35:42.696] $GNGGA,063542.10,3713.955048273,N,13701.425795449,E,4,07,2.49,96.319,M,37.566,M,80.1,2006*6E
[2021-02-22 15:35:42.806] $GNGGA,063542.20,3713.955048622,N,13701.425794185,E,4,07,2.49,96.324,M,37.566,M,80.2,2006*64
[2021-02-22 15:35:42.884] $GNGGA,063542.30,3713.955048316,N,13701.425794947,E,4,07,2.49,96.325,M,37.566,M,80.3,2006*61
[2021-02-22 15:35:42.993] $GNGGA,063542.40,3713.955048203,N,13701.425793947,E,4,07,2.49,96.321,M,37.566,M,80.4,2006*67
[2021-02-22 15:35:43.087] $GNGGA,063542.50,3713.955047715,N,13701.425792173,E,4,06,3.49,96.315,M,37.566,M,80.5,2006*63
[2021-02-22 15:35:43.196] $GNGGA,063542.60,3713.955047522,N,13701.425793731,E,4,06,3.49,96.313,M,37.566,M,80.6,2006*62
[2021-02-22 15:35:43.306] $GNGGA,063542.70,3713.955047788,N,13701.425795154,E,4,06,3.49,96.315,M,37.566,M,80.7,2006*65
[2021-02-22 15:35:43.384] $GNGGA,063542.80,3713.955047740,N,13701.425795631,E,4,06,3.49,96.317,M,37.566,M,80.8,2006*67
[2021-02-22 15:35:43.493] $GNGGA,063542.90,3713.955050212,N,13701.425795314,E,4,06,3.49,96.319,M,37.566,M,80.9,2006*6F
[2021-02-22 15:35:43.587] $GNGGA,063543.00,3713.955049796,N,13701.425794249,E,4,06,3.49,96.314,M,37.566,M,81.0,2006*6B
[2021-02-22 15:35:43.696] $GNGGA,063543.10,3713.955051058,N,13701.425793958,E,4,06,3.49,96.318,M,37.566,M,81.1,2006*67
[2021-02-22 15:35:43.806] $GNGGA,063543.20,3713.955049854,N,13701.425795049,E,4,06,3.49,96.318,M,37.566,M,81.2,2006*65
[2021-02-22 15:35:43.884] $GNGGA,063543.30,3713.955049006,N,13701.425795096,E,4,06,3.49,96.316,M,37.566,M,81.3,2006*66
[2021-02-22 15:35:43.993] $GNGGA,063543.40,3713.955050039,N,13701.425795703,E,4,06,3.49,96.318,M,37.566,M,81.4,2006*67
[2021-02-22 15:35:44.087] $GNGGA,063543.50,3713.955049186,N,13701.425794628,E,4,06,3.49,96.314,M,37.566,M,81.5,2006*6F
[2021-02-22 15:35:44.196] $GNGGA,063543.60,3713.955048985,N,13701.425795099,E,4,06,3.49,96.313,M,37.566,M,81.6,2006*6F
[2021-02-22 15:35:44.306] $GNGGA,063543.70,3713.955048441,N,13701.425796762,E,4,06,3.49,96.317,M,37.566,M,81.7,2006*6E
[2021-02-22 15:35:44.384] $GNGGA,063543.80,3713.955047503,N,13701.425796324,E,4,06,3.49,96.314,M,37.566,M,81.8,2006*63
[2021-02-22 15:35:44.493] $GNGGA,063543.90,3713.955047655,N,13701.425796667,E,4,06,3.49,96.314,M,37.566,M,81.9,2006*61
[2021-02-22 15:35:44.587] $GNGGA,063544.00,3713.955045784,N,13701.425795889,E,4,06,3.49,96.314,M,37.566,M,82.0,2006*67
[2021-02-22 15:35:44.696] $GNGGA,063544.10,3713.955047146,N,13701.425795060,E,4,06,3.49,96.315,M,37.566,M,82.1,2006*63
[2021-02-22 15:35:44.806] $GNGGA,063544.20,3713.955046572,N,13701.425794716,E,4,06,3.49,96.313,M,37.566,M,82.2,2006*60
[2021-02-22 15:35:44.884] $GNGGA,063544.30,3713.955046866,N,13701.425795353,E,4,06,3.49,96.313,M,37.566,M,82.3,2006*6C
[2021-02-22 15:35:44.993] $GNGGA,063544.40,3713.955048157,N,13701.425796040,E,4,06,3.49,96.315,M,37.566,M,82.4,2006*6D
[2021-02-22 15:35:45.087] $GNGGA,063544.50,3713.955049365,N,13701.425793745,E,4,06,3.49,96.314,M,37.566,M,82.5,2006*69
[2021-02-22 15:35:45.212] $GNGGA,063544.60,3713.955047618,N,13701.425795845,E,4,06,3.49,96.314,M,37.566,M,82.6,2006*61
[2021-02-22 15:35:45.290] $GNGGA,063544.70,3713.955048572,N,13701.425795422,E,4,06,3.49,96.315,M,37.566,M,82.7,2006*6D
[2021-02-22 15:35:45.384] $GNGGA,063544.80,3713.955048211,N,13701.425795260,E,4,06,3.49,96.314,M,37.566,M,82.8,2006*6E
[2021-02-22 15:35:45.493] $GNGGA,063544.90,3713.955048683,N,13701.425796259,E,4,06,3.49,96.319,M,37.566,M,82.9,2006*65
[2021-02-22 15:35:45.602] $GNGGA,063545.00,3713.955047150,N,13701.425797038,E,4,06,3.49,96.319,M,37.566,M,83.0,2006*67
[2021-02-22 15:35:45.681] $GNGGA,063545.10,3713.955045770,N,13701.425797034,E,4,06,3.49,96.317,M,37.566,M,83.1,2006*63
[2021-02-22 15:35:45.790] $GNGGA,063545.20,3713.955045413,N,13701.425797865,E,4,06,3.49,96.316,M,37.566,M,83.2,2006*68
[2021-02-22 15:35:45.884] $GNGGA,063545.30,3713.955045267,N,13701.425796814,E,4,06,3.49,96.319,M,37.566,M,83.3,2006*65
[2021-02-22 15:35:46.009] $GNGGA,063545.40,3713.955044677,N,13701.425797075,E,4,06,3.49,96.322,M,37.566,M,83.4,2006*67
