
[2021-02-22 16:03:50.524] $GNGGA,070337.30,,,,,0,00,99.99,,,,,45.3,*67
[2021-02-22 16:03:50.556] $GNGGA,070337.40,,,,,0,00,99.99,,,,,45.4,*67
[2021-02-22 16:03:50.556] $GNGGA,070337.50,,,,,0,00,99.99,,,,,45.5,*67
[2021-02-22 16:03:50.556] $GNGGA,070337.60,,,,,0,00,99.99,,,,,45.6,*67
[2021-02-22 16:03:50.556] $GNGGA,070337.70,,,,,0,00,99.99,,,,,45.7,*67
[2021-02-22 16:03:50.556] $GNGGA,070337.80,,,,,0,00,99.99,,,,,45.8,*67
[2021-02-22 16:03:50.556] $GNGGA,070337.90,,,,,0,00,99.99,,,,,45.9,*67
[2021-02-22 16:03:50.556] $GNGGA,070338.00,,,,,0,00,99.99,,,,,46.0,*6B
[2021-02-22 16:03:50.556] $GNGGA,070338.10,,,,,0,00,99.99,,,,,46.1,*6B
[2021-02-22 16:03:50.556] $GNGGA,070338.20,,,,,0,00,99.99,,,,,46.2,*6B
[2021-02-22 16:03:50.556] $GNGGA,070338.30,,,,,0,00,99.99,,,,,46.3,*6B
[2021-02-22 16:03:50.556] $GNGGA,070338.40,,,,,0,00,99.99,,,,,46.4,*6B
[2021-02-22 16:03:50.556] $GNGGA,070338.50,,,,,0,00,99.99,,,,,46.5,*6B
[2021-02-22 16:03:50.556] $GNGGA,070338.60,,,,,0,00,99.99,,,,,46.6,*6B
[2021-02-22 16:03:50.556] $GNGGA,070338.70,,,,,0,00,99.99,,,,,46.7,*6B
[2021-02-22 16:03:50.556] $GNGGA,070338.80,,,,,0,00,99.99,,,,,46.8,*6B
[2021-02-22 16:03:50.556] $GNGGA,070338.90,,,,,0,00,99.99,,,,,46.9,*6B
[2021-02-22 16:03:50.556] $GNGGA,070339.00,,,,,0,00,99.99,,,,,47.0,*6B
[2021-02-22 16:03:50.556] $GNGGA,070339.10,,,,,0,00,99.99,,,,,47.1,*6B
[2021-02-22 16:03:50.556] $GNGGA,070339.20,,,,,0,00,99.99,,,,,47.2,*6B
[2021-02-22 16:03:50.556] $GNGGA,070339.30,,,,,0,00,99.99,,,,,47.3,*6B
[2021-02-22 16:03:50.556] $GNGGA,070339.40,,,,,0,00,99.99,,,,,47.4,*6B
[2021-02-22 16:03:50.556] $GNGGA,070339.50,,,,,0,00,99.99,,,,,47.5,*6B
[2021-02-22 16:03:50.556] $GNGGA,070339.60,,,,,0,00,99.99,,,,,47.6,*6B
[2021-02-22 16:03:50.571] $GNGGA,070339.70,,,,,0,00,99.99,,,,,47.7,*6B
[2021-02-22 16:03:50.571] $GNGGA,070339.80,,,,,0,00,99.99,,,,,47.8,*6B
[2021-02-22 16:03:50.571] $GNGGA,070339.90,,,,,0,00,99.99,,,,,47.9,*6B
[2021-02-22 16:03:50.571] $GNGGA,070340.00,,,,,0,00,99.99,,,,,48.0,*6A
[2021-02-22 16:03:50.571] $GNGGA,070340.10,,,,,0,00,99.99,,,,,48.1,*6A
[2021-02-22 16:03:50.571] $GNGGA,070340.20,,,,,0,00,99.99,,,,,48.2,*6A
[2021-02-22 16:03:50.571] $GNGGA,070340.30,,,,,0,00,99.99,,,,,48.3,*6A
[2021-02-22 16:03:50.571] $GNGGA,070340.40,,,,,0,00,99.99,,,,,48.4,*6A
[2021-02-22 16:03:50.571] $GNGGA,070340.50,,,,,0,00,99.99,,,,,48.5,*6A
[2021-02-22 16:03:50.571] $GNGGA,070340.60,,,,,0,00,99.99,,,,,48.6,*6A
[2021-02-22 16:03:50.571] $GNGGA,070340.70,,,,,0,00,99.99,,,,,48.7,*6A
[2021-02-22 16:03:50.571] $GNGGA,070340.80,,,,,0,00,99.99,,,,,48.8,*6A
[2021-02-22 16:03:50.571] $GNGGA,070340.90,,,,,0,00,99.99,,,,,48.9,*6A
[2021-02-22 16:03:50.571] $GNGGA,070341.00,,,,,0,00,99.99,,,,,49.0,*6A
[2021-02-22 16:03:50.571] $GNGGA,070341.10,,,,,0,00,99.99,,,,,49.1,*6A
[2021-02-22 16:03:50.571] $GNGGA,070341.20,,,,,0,00,99.99,,,,,49.2,*6A
[2021-02-22 16:03:50.571] $GNGGA,070341.30,,,,,0,00,99.99,,,,,49.3,*6A
[2021-02-22 16:03:50.571] $GNGGA,070341.40,,,,,0,00,99.99,,,,,49.4,*6A
[2021-02-22 16:03:50.571] $GNGGA,070341.50,,,,,0,00,99.99,,,,,49.5,*6A
[2021-02-22 16:03:50.571] $GNGGA,070341.60,,,,,0,00,99.99,,,,,49.6,*6A
[2021-02-22 16:03:50.571] $GNGGA,070341.70,,,,,0,00,99.99,,,,,49.7,*6A
[2021-02-22 16:03:50.571] $GNGGA,070341.80,,,,,0,00,99.99,,,,,49.8,*6A
[2021-02-22 16:03:50.587] $GNGGA,070341.90,,,,,0,00,99.99,,,,,49.9,*6A
[2021-02-22 16:03:50.587] $GNGGA,070342.00,,,,,0,00,99.99,,,,,50.0,*61
[2021-02-22 16:03:50.587] $GNGGA,070342.10,,,,,0,00,99.99,,,,,50.1,*61
[2021-02-22 16:03:50.587] $GNGGA,070342.20,,,,,0,00,99.99,,,,,50.2,*61
[2021-02-22 16:03:50.587] $GNGGA,070342.30,,,,,0,00,99.99,,,,,50.3,*61
[2021-02-22 16:03:50.587] $GNGGA,070342.40,,,,,0,00,99.99,,,,,50.4,*61
[2021-02-22 16:03:50.587] $GNGGA,070342.50,,,,,0,00,99.99,,,,,50.5,*61
[2021-02-22 16:03:50.587] $GNGGA,070342.60,,,,,0,00,99.99,,,,,50.6,*61
[2021-02-22 16:03:50.587] $GNGGA,070342.70,,,,,0,00,99.99,,,,,50.7,*61
[2021-02-22 16:03:50.587] $GNGGA,070342.80,,,,,0,00,99.99,,,,,50.8,*61
[2021-02-22 16:03:50.587] $GNGGA,070342.90,,,,,0,00,99.99,,,,,50.9,*61
[2021-02-22 16:03:50.587] $GNGGA,070343.00,,,,,0,00,99.99,,,,,51.0,*61
[2021-02-22 16:03:50.587] $GNGGA,070343.10,,,,,0,00,99.99,,,,,51.1,*61
[2021-02-22 16:03:50.587] $GNGGA,070343.20,,,,,0,00,99.99,,,,,51.2,*61
[2021-02-22 16:03:50.587] $GNGGA,070343.30,,,,,0,00,99.99,,,,,51.3,*61
[2021-02-22 16:03:50.587] $GNGGA,070343.40,,,,,0,00,99.99,,,,,51.4,*61
[2021-02-22 16:03:50.587] $GNGGA,070343.50,,,,,0,00,99.99,,,,,51.5,*61
[2021-02-22 16:03:50.587] $GNGGA,070343.60,,,,,0,00,99.99,,,,,51.6,*61
[2021-02-22 16:03:50.587] $GNGGA,070343.70,,,,,0,00,99.99,,,,,51.7,*61
[2021-02-22 16:03:50.587] $GNGGA,070343.80,,,,,0,00,99.99,,,,,51.8,*61
[2021-02-22 16:03:50.587] $GNGGA,070343.90,,,,,0,00,99.99,,,,,51.9,*61
[2021-02-22 16:03:50.587] $GNGGA,070344.00,,,,,0,00,99.99,,,,,52.0,*65
[2021-02-22 16:03:50.602] $GNGGA,070344.10,,,,,0,00,99.99,,,,,52.1,*65
[2021-02-22 16:03:50.602] $GNGGA,070344.20,,,,,0,00,99.99,,,,,52.2,*65
[2021-02-22 16:03:50.602] $GNGGA,070344.30,,,,,0,00,99.99,,,,,52.3,*65
[2021-02-22 16:03:50.602] $GNGGA,070344.40,,,,,0,00,99.99,,,,,52.4,*65
[2021-02-22 16:03:50.602] $GNGGA,070344.50,,,,,0,00,99.99,,,,,52.5,*65
[2021-02-22 16:03:50.602] $GNGGA,070344.60,,,,,0,00,99.99,,,,,52.6,*65
[2021-02-22 16:03:50.602] $GNGGA,070344.70,,,,,0,00,99.99,,,,,52.7,*65
[2021-02-22 16:03:50.602] $GNGGA,070344.80,,,,,0,00,99.99,,,,,52.8,*65
[2021-02-22 16:03:50.602] $GNGGA,070344.90,,,,,0,00,99.99,,,,,52.9,*65
[2021-02-22 16:03:50.602] $GNGGA,070345.00,,,,,0,00,99.99,,,,,53.0,*65
[2021-02-22 16:03:50.602] $GNGGA,070345.10,,,,,0,00,99.99,,,,,53.1,*65
[2021-02-22 16:03:50.602] $GNGGA,070345.20,,,,,0,00,99.99,,,,,53.2,*65
[2021-02-22 16:03:50.602] $GNGGA,070345.30,,,,,0,00,99.99,,,,,53.3,*65
[2021-02-22 16:03:50.602] $GNGGA,070345.40,,,,,0,00,99.99,,,,,53.4,*65
[2021-02-22 16:03:50.602] $GNGGA,070345.50,,,,,0,00,99.99,,,,,53.5,*65
[2021-02-22 16:03:50.602] $GNGGA,070345.60,,,,,0,00,99.99,,,,,53.6,*65
[2021-02-22 16:03:50.602] $GNGGA,070345.70,,,,,0,00,99.99,,,,,53.7,*65
[2021-02-22 16:03:50.602] $GNGGA,070345.80,,,,,0,00,99.99,,,,,53.8,*65
[2021-02-22 16:03:50.602] $GNGGA,070345.90,,,,,0,00,99.99,,,,,53.9,*65
[2021-02-22 16:03:50.602] $GNGGA,070346.00,,,,,0,00,99.99,,,,,54.0,*61
[2021-02-22 16:03:50.602] $GNGGA,070346.10,,,,,0,00,99.99,,,,,54.1,*61
[2021-02-22 16:03:50.602] $GNGGA,070346.20,,,,,0,00,99.99,,,,,54.2,*61
[2021-02-22 16:03:50.618] $GNGGA,070346.30,,,,,0,00,99.99,,,,,54.3,*61
[2021-02-22 16:03:50.618] $GNGGA,070346.40,,,,,0,00,99.99,,,,,54.4,*61
[2021-02-22 16:03:50.618] $GNGGA,070346.50,,,,,0,00,99.99,,,,,54.5,*61
[2021-02-22 16:03:50.618] $GNGGA,070346.60,,,,,0,00,99.99,,,,,54.6,*61
[2021-02-22 16:03:50.618] $GNGGA,070346.70,,,,,0,00,99.99,,,,,54.7,*61
[2021-02-22 16:03:50.618] $GNGGA,070346.80,,,,,0,00,99.99,,,,,54.8,*61
[2021-02-22 16:03:50.618] $GNGGA,070346.90,,,,,0,00,99.99,,,,,54.9,*61
[2021-02-22 16:03:50.618] $GNGGA,070347.00,,,,,0,00,99.99,,,,,55.0,*61
[2021-02-22 16:03:50.618] $GNGGA,070347.10,,,,,0,00,99.99,,,,,55.1,*61
[2021-02-22 16:03:50.618] $GNGGA,070347.20,,,,,0,00,99.99,,,,,55.2,*61
[2021-02-22 16:03:50.618] $GNGGA,070347.30,,,,,0,00,99.99,,,,,55.3,*61
[2021-02-22 16:03:50.618] $GNGGA,070347.40,,,,,0,00,99.99,,,,,55.4,*61
[2021-02-22 16:03:50.618] $GNGGA,070347.50,,,,,0,00,99.99,,,,,55.5,*61
[2021-02-22 16:03:50.618] $GNGGA,070347.60,,,,,0,00,99.99,,,,,55.6,*61
[2021-02-22 16:03:50.618] $GNGGA,070347.70,,,,,0,00,99.99,,,,,55.7,*61
[2021-02-22 16:03:50.618] $GNGGA,070347.80,,,,,0,00,99.99,,,,,55.8,*61
[2021-02-22 16:03:50.618] $GNGGA,070347.90,,,,,0,00,99.99,,,,,55.9,*61
[2021-02-22 16:03:50.618] $GNGGA,070348.00,,,,,0,00,99.99,,,,,56.0,*6D
[2021-02-22 16:03:50.618] $GNGGA,070348.10,,,,,0,00,99.99,,,,,56.1,*6D
[2021-02-22 16:03:50.618] $GNGGA,070348.20,,,,,0,00,99.99,,,,,56.2,*6D
[2021-02-22 16:03:50.618] $GNGGA,070348.30,,,,,0,00,99.99,,,,,56.3,*6D
[2021-02-22 16:03:50.618] $GNGGA,070348.40,,,,,0,00,99.99,,,,,56.4,*6D
[2021-02-22 16:03:50.618] $GNGGA,070348.50,,,,,0,00,99.99,,,,,56.5,*6D
[2021-02-22 16:03:50.618] $GNGGA,070348.60,,,,,0,00,99.99,,,,,56.6,*6D
[2021-02-22 16:03:50.618] $GNGGA,070348.70,,,,,0,00,99.99,,,,,56.7,*6D
[2021-02-22 16:03:50.618] $GNGGA,070348.80,,,,,0,00,99.99,,,,,56.8,*6D
[2021-02-22 16:03:50.618] $GNGGA,070348.90,,,,,0,00,99.99,,,,,56.9,*6D
[2021-02-22 16:03:50.618] $GNGGA,070349.00,,,,,0,00,99.99,,,,,57.0,*6D
[2021-02-22 16:03:50.618] $GNGGA,070349.10,,,,,0,00,99.99,,,,,57.1,*6D
[2021-02-22 16:03:50.618] $GNGGA,070349.20,,,,,0,00,99.99,,,,,57.2,*6D
[2021-02-22 16:03:50.618] $GNGGA,070349.30,,,,,0,00,99.99,,,,,57.3,*6D
[2021-02-22 16:03:50.618] $GNGGA,070349.40,,,,,0,00,99.99,,,,,57.4,*6D
[2021-02-22 16:03:50.618] $GNGGA,070349.50,,,,,0,00,99.99,,,,,57.5,*6D
[2021-02-22 16:03:50.618] $GNGGA,070349.60,,,,,0,00,99.99,,,,,57.6,*6D
[2021-02-22 16:03:50.618] $GNGGA,070349.70,,,,,0,00,99.99,,,,,57.7,*6D
[2021-02-22 16:03:50.618] $GNGGA,070349.80,,,,,0,00,99.99,,,,,57.8,*6D
[2021-02-22 16:03:50.618] $GNGGA,070349.90,,,,,0,00,99.99,,,,,57.9,*6D
[2021-02-22 16:03:50.618] $GNGGA,070350.00,,,,,0,00,99.99,,,,,58.0,*6A
[2021-02-22 16:03:50.696] $GNGGA,070350.10,,,,,0,00,99.99,,,,,58.1,*6A
[2021-02-22 16:03:50.790] $GNGGA,070350.20,,,,,0,00,99.99,,,,,58.2,*6A
[2021-02-22 16:03:50.884] $GNGGA,070350.30,,,,,0,00,99.99,,,,,58.3,*6A
[2021-02-22 16:03:51.009] $GNGGA,070350.40,,,,,0,00,99.99,,,,,58.4,*6A
[2021-02-22 16:03:51.087] $GNGGA,070350.50,,,,,0,00,99.99,,,,,58.5,*6A
[2021-02-22 16:03:51.196] $GNGGA,070350.60,,,,,0,00,99.99,,,,,58.6,*6A
[2021-02-22 16:03:51.274] $GNGGA,070350.70,,,,,0,00,99.99,,,,,58.7,*6A
[2021-02-22 16:03:51.399] $GNGGA,070350.80,,,,,0,00,99.99,,,,,58.8,*6A
[2021-02-22 16:03:51.493] $GNGGA,070350.90,,,,,0,00,99.99,,,,,58.9,*6A
[2021-02-22 16:03:51.587] $GNGGA,070351.00,,,,,0,00,99.99,,,,,59.0,*6A
[2021-02-22 16:03:51.681] $GNGGA,070351.10,,,,,0,00,99.99,,,,,59.1,*6A
[2021-02-22 16:03:51.805] $GNGGA,070351.20,,,,,0,00,99.99,,,,,59.2,*6A
[2021-02-22 16:03:51.884] $GNGGA,070351.30,,,,,0,00,99.99,,,,,59.3,*6A
[2021-02-22 16:03:51.993] $GNGGA,070351.40,,,,,0,00,99.99,,,,,59.4,*6A
[2021-02-22 16:03:52.087] $GNGGA,070351.50,,,,,0,00,99.99,,,,,59.5,*6A
[2021-02-22 16:03:52.196] $GNGGA,070351.60,,,,,0,00,99.99,,,,,59.6,*6A
[2021-02-22 16:03:52.290] $GNGGA,070351.70,,,,,0,00,99.99,,,,,59.7,*6A
[2021-02-22 16:03:52.399] $GNGGA,070351.80,,,,,0,00,99.99,,,,,59.8,*6A
[2021-02-22 16:03:52.477] $GNGGA,070351.90,,,,,0,00,99.99,,,,,59.9,*6A
[2021-02-22 16:03:52.602] $GNGGA,070352.00,,,,,0,00,99.99,,,,,60.0,*63
[2021-02-22 16:03:52.696] $GNGGA,070352.10,,,,,0,00,99.99,,,,,60.1,*63
[2021-02-22 16:03:52.790] $GNGGA,070352.20,,,,,0,00,99.99,,,,,60.2,*63
[2021-02-22 16:03:52.884] $GNGGA,070352.30,,,,,0,00,99.99,,,,,60.3,*63
[2021-02-22 16:03:52.993] $GNGGA,070352.40,,,,,0,00,99.99,,,,,60.4,*63
[2021-02-22 16:03:53.087] $GNGGA,070352.50,,,,,0,00,99.99,,,,,60.5,*63
[2021-02-22 16:03:53.196] $GNGGA,070352.60,,,,,0,00,99.99,,,,,60.6,*63
[2021-02-22 16:03:53.305] $GNGGA,070352.70,,,,,0,00,99.99,,,,,60.7,*63
[2021-02-22 16:03:53.399] $GNGGA,070352.80,,,,,0,00,99.99,,,,,60.8,*63
[2021-02-22 16:03:53.493] $GNGGA,070352.90,,,,,0,00,99.99,,,,,60.9,*63
[2021-02-22 16:03:53.587] $GNGGA,070353.00,,,,,0,00,99.99,,,,,61.0,*63
[2021-02-22 16:03:53.696] $GNGGA,070353.10,,,,,0,00,99.99,,,,,61.1,*63
[2021-02-22 16:03:53.790] $GNGGA,070353.20,,,,,0,00,99.99,,,,,61.2,*63
[2021-02-22 16:03:53.899] $GNGGA,070353.30,,,,,0,00,99.99,,,,,61.3,*63
[2021-02-22 16:03:53.977] $GNGGA,070353.40,,,,,0,00,99.99,,,,,61.4,*63
[2021-02-22 16:03:54.102] $GNGGA,070353.50,,,,,0,00,99.99,,,,,61.5,*63
[2021-02-22 16:03:54.196] $GNGGA,070353.60,,,,,0,00,99.99,,,,,61.6,*63
[2021-02-22 16:03:54.290] $GNGGA,070353.70,,,,,0,00,99.99,,,,,61.7,*63
[2021-02-22 16:03:54.383] $GNGGA,070353.80,,,,,0,00,99.99,,,,,61.8,*63
[2021-02-22 16:03:54.493] $GNGGA,070353.90,,,,,0,00,99.99,,,,,61.9,*63
[2021-02-22 16:03:54.587] $GNGGA,070354.00,,,,,0,00,99.99,,,,,62.0,*67
[2021-02-22 16:03:54.696] $GNGGA,070354.10,,,,,0,00,99.99,,,,,62.1,*67
[2021-02-22 16:03:54.790] $GNGGA,070354.20,,,,,0,00,99.99,,,,,62.2,*67
[2021-02-22 16:03:54.899] $GNGGA,070354.30,,,,,0,00,99.99,,,,,62.3,*67
[2021-02-22 16:03:54.993] $GNGGA,070354.40,,,,,0,00,99.99,,,,,62.4,*67
[2021-02-22 16:03:55.087] $GNGGA,070354.50,,,,,0,00,99.99,,,,,62.5,*67
[2021-02-22 16:03:55.180] $GNGGA,070354.60,,,,,0,00,99.99,,,,,62.6,*67
[2021-02-22 16:03:55.305] $GNGGA,070354.70,,,,,0,00,99.99,,,,,62.7,*67
[2021-02-22 16:03:55.399] $GNGGA,070354.80,,,,,0,00,99.99,,,,,62.8,*67
[2021-02-22 16:03:55.493] $GNGGA,070354.90,,,,,0,00,99.99,,,,,62.9,*67
[2021-02-22 16:03:55.587] $GNGGA,070355.00,,,,,0,00,99.99,,,,,63.0,*67
[2021-02-22 16:03:55.696] $GNGGA,070355.10,,,,,0,00,99.99,,,,,63.1,*67
[2021-02-22 16:03:55.790] $GNGGA,070355.20,,,,,0,00,99.99,,,,,63.2,*67
[2021-02-22 16:03:55.883] $GNGGA,070355.30,,,,,0,00,99.99,,,,,63.3,*67
[2021-02-22 16:03:55.977] $GNGGA,070355.40,,,,,0,00,99.99,,,,,63.4,*67
[2021-02-22 16:03:56.102] $GNGGA,070355.50,,,,,0,00,99.99,,,,,63.5,*67
[2021-02-22 16:03:56.196] $GNGGA,070355.60,,,,,0,00,99.99,,,,,63.6,*67
[2021-02-22 16:03:56.290] $GNGGA,070355.70,,,,,0,00,99.99,,,,,63.7,*67
[2021-02-22 16:03:56.383] $GNGGA,070355.80,,,,,0,00,99.99,,,,,63.8,*67
[2021-02-22 16:03:56.493] $GNGGA,070355.90,,,,,0,00,99.99,,,,,63.9,*67
[2021-02-22 16:03:56.602] $GNGGA,070356.00,,,,,0,00,99.99,,,,,64.0,*63
[2021-02-22 16:03:56.696] $GNGGA,070356.10,,,,,0,00,99.99,,,,,64.1,*63
[2021-02-22 16:03:56.790] $GNGGA,070356.20,,,,,0,00,99.99,,,,,64.2,*63
[2021-02-22 16:03:56.899] $GNGGA,070356.30,,,,,0,00,99.99,,,,,64.3,*63
[2021-02-22 16:03:56.993] $GNGGA,070356.40,,,,,0,00,99.99,,,,,64.4,*63
[2021-02-22 16:03:57.086] $GNGGA,070356.50,,,,,0,00,99.99,,,,,64.5,*63
[2021-02-22 16:03:57.180] $GNGGA,070356.60,,,,,0,00,99.99,,,,,64.6,*63
[2021-02-22 16:03:57.290] $GNGGA,070356.70,,,,,0,00,99.99,,,,,64.7,*63
[2021-02-22 16:03:57.399] $GNGGA,070356.80,,,,,0,00,99.99,,,,,64.8,*63
[2021-02-22 16:03:57.493] $GNGGA,070356.90,,,,,0,00,99.99,,,,,64.9,*63
[2021-02-22 16:03:57.586] $GNGGA,070357.00,,,,,0,00,99.99,,,,,65.0,*63
[2021-02-22 16:03:57.696] $GNGGA,070357.10,,,,,0,00,99.99,,,,,65.1,*63
[2021-02-22 16:03:57.790] $GNGGA,070357.20,,,,,0,00,99.99,,,,,65.2,*63
[2021-02-22 16:03:57.883] $GNGGA,070357.30,,,,,0,00,99.99,,,,,65.3,*63
[2021-02-22 16:03:57.977] $GNGGA,070357.40,,,,,0,00,99.99,,,,,65.4,*63
[2021-02-22 16:03:58.102] $GNGGA,070357.50,,,,,0,00,99.99,,,,,65.5,*63
[2021-02-22 16:03:58.196] $GNGGA,070357.60,,,,,0,00,99.99,,,,,65.6,*63
[2021-02-22 16:03:58.289] $GNGGA,070357.70,,,,,0,00,99.99,,,,,65.7,*63
[2021-02-22 16:03:58.383] $GNGGA,070357.80,,,,,0,00,99.99,,,,,65.8,*63
[2021-02-22 16:03:58.493] $GNGGA,070357.90,,,,,0,00,99.99,,,,,65.9,*63
[2021-02-22 16:03:58.602] $GNGGA,070358.00,,,,,0,00,99.99,,,,,66.0,*6F
[2021-02-22 16:03:58.696] $GNGGA,070358.10,,,,,0,00,99.99,,,,,66.1,*6F
[2021-02-22 16:03:58.789] $GNGGA,070358.20,,,,,0,00,99.99,,,,,66.2,*6F
[2021-02-22 16:03:58.899] $GNGGA,070358.30,,,,,0,00,99.99,,,,,66.3,*6F
[2021-02-22 16:03:58.992] $GNGGA,070358.40,,,,,0,00,99.99,,,,,66.4,*6F
[2021-02-22 16:03:59.086] $GNGGA,070358.50,,,,,0,00,99.99,,,,,66.5,*6F
[2021-02-22 16:03:59.180] $GNGGA,070358.60,,,,,0,00,99.99,,,,,66.6,*6F
[2021-02-22 16:03:59.289] $GNGGA,070358.70,,,,,0,00,99.99,,,,,66.7,*6F
[2021-02-22 16:03:59.399] $GNGGA,070358.80,,,,,0,00,99.99,,,,,66.8,*6F
[2021-02-22 16:03:59.492] $GNGGA,070358.90,,,,,0,00,99.99,,,,,66.9,*6F
[2021-02-22 16:03:59.586] $GNGGA,070359.00,,,,,0,00,99.99,,,,,67.0,*6F
[2021-02-22 16:03:59.696] $GNGGA,070359.10,,,,,0,00,99.99,,,,,67.1,*6F
[2021-02-22 16:03:59.789] $GNGGA,070359.20,,,,,0,00,99.99,,,,,67.2,*6F
[2021-02-22 16:03:59.883] $GNGGA,070359.30,,,,,0,00,99.99,,,,,67.3,*6F
[2021-02-22 16:03:59.977] $GNGGA,070359.40,,,,,0,00,99.99,,,,,67.4,*6F
[2021-02-22 16:04:00.102] $GNGGA,070359.50,,,,,0,00,99.99,,,,,67.5,*6F
[2021-02-22 16:04:00.196] $GNGGA,070359.60,,,,,0,00,99.99,,,,,67.6,*6F
[2021-02-22 16:04:00.289] $GNGGA,070359.70,,,,,0,00,99.99,,,,,67.7,*6F
[2021-02-22 16:04:00.383] $GNGGA,070359.80,,,,,0,00,99.99,,,,,67.8,*6F
[2021-02-22 16:04:00.492] $GNGGA,070359.90,,,,,0,00,99.99,,,,,67.9,*6F
[2021-02-22 16:04:00.602] $GNGGA,070400.00,,,,,0,00,99.99,,,,,68.0,*6B
[2021-02-22 16:04:00.696] $GNGGA,070400.10,,,,,0,00,99.99,,,,,68.1,*6B
[2021-02-22 16:04:00.789] $GNGGA,070400.20,,,,,0,00,99.99,,,,,68.2,*6B
[2021-02-22 16:04:00.899] $GNGGA,070400.30,,,,,0,00,99.99,,,,,68.3,*6B
[2021-02-22 16:04:00.992] $GNGGA,070400.40,,,,,0,00,99.99,,,,,68.4,*6B
[2021-02-22 16:04:01.086] $GNGGA,070400.50,,,,,0,00,99.99,,,,,68.5,*6B
[2021-02-22 16:04:01.180] $GNGGA,070400.60,,,,,0,00,99.99,,,,,68.6,*6B
[2021-02-22 16:04:01.289] $GNGGA,070400.70,,,,,0,00,99.99,,,,,68.7,*6B
[2021-02-22 16:04:01.399] $GNGGA,070400.80,,,,,0,00,99.99,,,,,68.8,*6B
[2021-02-22 16:04:01.492] $GNGGA,070400.90,,,,,0,00,99.99,,,,,68.9,*6B
[2021-02-22 16:04:01.586] $GNGGA,070401.00,,,,,0,00,99.99,,,,,69.0,*6B
[2021-02-22 16:04:01.695] $GNGGA,070401.10,,,,,0,00,99.99,,,,,69.1,*6B
[2021-02-22 16:04:01.789] $GNGGA,070401.20,,,,,0,00,99.99,,,,,69.2,*6B
[2021-02-22 16:04:01.883] $GNGGA,070401.30,,,,,0,00,99.99,,,,,69.3,*6B
[2021-02-22 16:04:01.977] $GNGGA,070401.40,,,,,0,00,99.99,,,,,69.4,*6B
[2021-02-22 16:04:02.102] $GNGGA,070401.50,,,,,0,00,99.99,,,,,69.5,*6B
[2021-02-22 16:04:02.195] $GNGGA,070401.60,,,,,0,00,99.99,,,,,69.6,*6B
[2021-02-22 16:04:02.289] $GNGGA,070401.70,,,,,0,00,99.99,,,,,69.7,*6B
[2021-02-22 16:04:02.383] $GNGGA,070401.80,,,,,0,00,99.99,,,,,69.8,*6B
[2021-02-22 16:04:02.492] $GNGGA,070401.90,,,,,0,00,99.99,,,,,69.9,*6B
[2021-02-22 16:04:02.602] $GNGGA,070402.00,,,,,0,00,99.99,,,,,70.0,*60
[2021-02-22 16:04:02.695] $GNGGA,070402.10,,,,,0,00,99.99,,,,,70.1,*60
[2021-02-22 16:04:02.789] $GNGGA,070402.20,,,,,0,00,99.99,,,,,70.2,*60
[2021-02-22 16:04:02.899] $GNGGA,070402.30,,,,,0,00,99.99,,,,,70.3,*60
[2021-02-22 16:04:02.992] $GNGGA,070402.40,,,,,0,00,99.99,,,,,70.4,*60
[2021-02-22 16:04:03.086] $GNGGA,070402.50,,,,,0,00,99.99,,,,,70.5,*60
[2021-02-22 16:04:03.180] $GNGGA,070402.60,,,,,0,00,99.99,,,,,70.6,*60
[2021-02-22 16:04:03.289] $GNGGA,070402.70,,,,,0,00,99.99,,,,,70.7,*60
[2021-02-22 16:04:03.398] $GNGGA,070402.80,,,,,0,00,99.99,,,,,70.8,*60
[2021-02-22 16:04:03.492] $GNGGA,070402.90,,,,,0,00,99.99,,,,,70.9,*60
[2021-02-22 16:04:03.586] $GNGGA,070403.00,,,,,0,00,99.99,,,,,71.0,*60
[2021-02-22 16:04:03.695] $GNGGA,070403.10,,,,,0,00,99.99,,,,,71.1,*60
[2021-02-22 16:04:03.789] $GNGGA,070403.20,,,,,0,00,99.99,,,,,71.2,*60
[2021-02-22 16:04:03.883] $GNGGA,070403.30,,,,,0,00,99.99,,,,,71.3,*60
[2021-02-22 16:04:03.977] $GNGGA,070403.40,,,,,0,00,99.99,,,,,71.4,*60
[2021-02-22 16:04:04.102] $GNGGA,070403.50,,,,,0,00,99.99,,,,,71.5,*60
[2021-02-22 16:04:04.195] $GNGGA,070403.60,,,,,0,00,99.99,,,,,71.6,*60
[2021-02-22 16:04:04.289] $GNGGA,070403.70,,,,,0,00,99.99,,,,,71.7,*60
[2021-02-22 16:04:04.383] $GNGGA,070403.80,,,,,0,00,99.99,,,,,71.8,*60
[2021-02-22 16:04:04.492] $GNGGA,070403.90,,,,,0,00,99.99,,,,,71.9,*60
[2021-02-22 16:04:04.601] $GNGGA,070404.00,,,,,0,00,99.99,,,,,72.0,*64
[2021-02-22 16:04:04.680] $GNGGA,070404.10,,,,,0,00,99.99,,,,,72.1,*64
[2021-02-22 16:04:04.789] $GNGGA,070404.20,,,,,0,00,99.99,,,,,72.2,*64
[2021-02-22 16:04:04.898] $GNGGA,070404.30,,,,,0,00,99.99,,,,,72.3,*64
[2021-02-22 16:04:04.992] $GNGGA,070404.40,,,,,0,00,99.99,,,,,72.4,*64
[2021-02-22 16:04:05.086] $GNGGA,070404.50,,,,,0,00,99.99,,,,,72.5,*64
[2021-02-22 16:04:05.180] $GNGGA,070404.60,,,,,0,00,99.99,,,,,72.6,*64
[2021-02-22 16:04:05.289] $GNGGA,070404.70,,,,,0,00,99.99,,,,,72.7,*64
[2021-02-22 16:04:05.398] $GNGGA,070404.80,,,,,0,00,99.99,,,,,72.8,*64
[2021-02-22 16:04:05.492] $GNGGA,070404.90,,,,,0,00,99.99,,,,,72.9,*64
[2021-02-22 16:04:05.586] $GNGGA,070405.00,,,,,0,00,99.99,,,,,73.0,*64
[2021-02-22 16:04:05.695] $GNGGA,070405.10,,,,,0,00,99.99,,,,,73.1,*64
[2021-02-22 16:04:05.789] $GNGGA,070405.20,,,,,0,00,99.99,,,,,73.2,*64
[2021-02-22 16:04:05.883] $GNGGA,070405.30,,,,,0,00,99.99,,,,,73.3,*64
[2021-02-22 16:04:05.976] $GNGGA,070405.40,,,,,0,00,99.99,,,,,73.4,*64
[2021-02-22 16:04:06.101] $GNGGA,070405.50,,,,,0,00,99.99,,,,,73.5,*64
[2021-02-22 16:04:06.195] $GNGGA,070405.60,,,,,0,00,99.99,,,,,73.6,*64
[2021-02-22 16:04:06.289] $GNGGA,070405.70,,,,,0,00,99.99,,,,,73.7,*64
[2021-02-22 16:04:06.383] $GNGGA,070405.80,,,,,0,00,99.99,,,,,73.8,*64
[2021-02-22 16:04:06.492] $GNGGA,070405.90,,,,,0,00,99.99,,,,,73.9,*64
[2021-02-22 16:04:06.601] $GNGGA,070406.00,,,,,0,00,99.99,,,,,74.0,*60
[2021-02-22 16:04:06.695] $GNGGA,070406.10,,,,,0,00,99.99,,,,,74.1,*60
[2021-02-22 16:04:06.773] $GNGGA,070406.20,,,,,0,00,99.99,,,,,74.2,*60
[2021-02-22 16:04:06.898] $GNGGA,070406.30,,,,,0,00,99.99,,,,,74.3,*60
[2021-02-22 16:04:06.992] $GNGGA,070406.40,,,,,0,00,99.99,,,,,74.4,*60
[2021-02-22 16:04:07.086] $GNGGA,070406.50,,,,,0,00,99.99,,,,,74.5,*60
[2021-02-22 16:04:07.179] $GNGGA,070406.60,,,,,0,00,99.99,,,,,74.6,*60
[2021-02-22 16:04:07.304] $GNGGA,070406.70,,,,,0,00,99.99,,,,,74.7,*60
[2021-02-22 16:04:07.398] $GNGGA,070406.80,,,,,0,00,99.99,,,,,74.8,*60
[2021-02-22 16:04:07.492] $GNGGA,070406.90,,,,,0,00,99.99,,,,,74.9,*60
[2021-02-22 16:04:07.586] $GNGGA,070407.00,,,,,0,00,99.99,,,,,75.0,*60
[2021-02-22 16:04:07.695] $GNGGA,070407.10,,,,,0,00,99.99,,,,,75.1,*60
[2021-02-22 16:04:07.789] $GNGGA,070407.20,,,,,0,00,99.99,,,,,75.2,*60
[2021-02-22 16:04:07.883] $GNGGA,070407.30,,,,,0,00,99.99,,,,,75.3,*60
[2021-02-22 16:04:07.976] $GNGGA,070407.40,,,,,0,00,99.99,,,,,75.4,*60
[2021-02-22 16:04:08.101] $GNGGA,070407.50,,,,,0,00,99.99,,,,,75.5,*60
[2021-02-22 16:04:08.195] $GNGGA,070407.60,,,,,0,00,99.99,,,,,75.6,*60
[2021-02-22 16:04:08.289] $GNGGA,070407.70,,,,,0,00,99.99,,,,,75.7,*60
[2021-02-22 16:04:08.383] $GNGGA,070407.80,,,,,0,00,99.99,,,,,75.8,*60
[2021-02-22 16:04:08.492] $GNGGA,070407.90,,,,,0,00,99.99,,,,,75.9,*60
[2021-02-22 16:04:08.601] $GNGGA,070408.00,,,,,0,00,99.99,,,,,76.0,*6C
[2021-02-22 16:04:08.679] $GNGGA,070408.10,,,,,0,00,99.99,,,,,76.1,*6C
[2021-02-22 16:04:08.773] $GNGGA,070408.20,,,,,0,00,99.99,,,,,76.2,*6C
[2021-02-22 16:04:08.898] $GNGGA,070408.30,,,,,0,00,99.99,,,,,76.3,*6C
[2021-02-22 16:04:08.992] $GNGGA,070408.40,,,,,0,00,99.99,,,,,76.4,*6C
[2021-02-22 16:04:09.086] $GNGGA,070408.50,,,,,0,00,99.99,,,,,76.5,*6C
[2021-02-22 16:04:09.179] $GNGGA,070408.60,,,,,0,00,99.99,,,,,76.6,*6C
[2021-02-22 16:04:09.289] $GNGGA,070408.70,,,,,0,00,99.99,,,,,76.7,*6C
[2021-02-22 16:04:09.398] $GNGGA,070408.80,,,,,0,00,99.99,,,,,76.8,*6C
[2021-02-22 16:04:09.492] $GNGGA,070408.90,,,,,0,00,99.99,,,,,76.9,*6C
[2021-02-22 16:04:09.586] $GNGGA,070409.00,,,,,0,00,99.99,,,,,77.0,*6C
[2021-02-22 16:04:09.695] $GNGGA,070409.10,,,,,0,00,99.99,,,,,77.1,*6C
[2021-02-22 16:04:09.789] $GNGGA,070409.20,,,,,0,00,99.99,,,,,77.2,*6C
[2021-02-22 16:04:09.882] $GNGGA,070409.30,,,,,0,00,99.99,,,,,77.3,*6C
[2021-02-22 16:04:09.976] $GNGGA,070409.40,,,,,0,00,99.99,,,,,77.4,*6C
[2021-02-22 16:04:10.101] $GNGGA,070409.50,,,,,0,00,99.99,,,,,77.5,*6C
[2021-02-22 16:04:10.195] $GNGGA,070409.60,,,,,0,00,99.99,,,,,77.6,*6C
[2021-02-22 16:04:10.289] $GNGGA,070409.70,,,,,0,00,99.99,,,,,77.7,*6C
[2021-02-22 16:04:10.382] $GNGGA,070409.80,,,,,0,00,99.99,,,,,77.8,*6C
[2021-02-22 16:04:10.492] $GNGGA,070409.90,,,,,0,00,99.99,,,,,77.9,*6C
[2021-02-22 16:04:10.601] $GNGGA,070410.00,,,,,0,00,99.99,,,,,78.0,*6B
[2021-02-22 16:04:10.679] $GNGGA,070410.10,,,,,0,00,99.99,,,,,78.1,*6B
[2021-02-22 16:04:10.804] $GNGGA,070410.20,,,,,0,00,99.99,,,,,78.2,*6B
[2021-02-22 16:04:10.898] $GNGGA,070410.30,,,,,0,00,99.99,,,,,78.3,*6B
[2021-02-22 16:04:10.992] $GNGGA,070410.40,,,,,0,00,99.99,,,,,78.4,*6B
[2021-02-22 16:04:11.085] $GNGGA,070410.50,,,,,0,00,99.99,,,,,78.5,*6B
[2021-02-22 16:04:11.195] $GNGGA,070410.60,,,,,0,00,99.99,,,,,78.6,*6B
[2021-02-22 16:04:11.289] $GNGGA,070410.70,,,,,0,00,99.99,,,,,78.7,*6B
[2021-02-22 16:04:11.398] $GNGGA,070410.80,,,,,0,00,99.99,,,,,78.8,*6B
[2021-02-22 16:04:11.492] $GNGGA,070410.90,,,,,0,00,99.99,,,,,78.9,*6B
[2021-02-22 16:04:11.601] $GNGGA,070411.00,,,,,0,00,99.99,,,,,79.0,*6B
[2021-02-22 16:04:11.695] $GNGGA,070411.10,,,,,0,00,99.99,,,,,79.1,*6B
[2021-02-22 16:04:11.788] $GNGGA,070411.20,,,,,0,00,99.99,,,,,79.2,*6B
[2021-02-22 16:04:11.882] $GNGGA,070411.30,,,,,0,00,99.99,,,,,79.3,*6B
[2021-02-22 16:04:12.007] $GNGGA,070411.40,,,,,0,00,99.99,,,,,79.4,*6B
[2021-02-22 16:04:12.101] $GNGGA,070411.50,,,,,0,00,99.99,,,,,79.5,*6B
[2021-02-22 16:04:12.195] $GNGGA,070411.60,,,,,0,00,99.99,,,,,79.6,*6B
[2021-02-22 16:04:12.288] $GNGGA,070411.70,,,,,0,00,99.99,,,,,79.7,*6B
[2021-02-22 16:04:12.398] $GNGGA,070411.80,,,,,0,00,99.99,,,,,79.8,*6B
[2021-02-22 16:04:12.492] $GNGGA,070411.90,,,,,0,00,99.99,,,,,79.9,*6B
[2021-02-22 16:04:12.601] $GNGGA,070412.00,,,,,0,00,99.99,,,,,80.0,*6E
[2021-02-22 16:04:12.679] $GNGGA,070412.10,,,,,0,00,99.99,,,,,80.1,*6E
[2021-02-22 16:04:12.804] $GNGGA,070412.20,,,,,0,00,99.99,,,,,80.2,*6E
[2021-02-22 16:04:12.898] $GNGGA,070412.30,,,,,0,00,99.99,,,,,80.3,*6E
[2021-02-22 16:04:12.992] $GNGGA,070412.40,,,,,0,00,99.99,,,,,80.4,*6E
[2021-02-22 16:04:13.085] $GNGGA,070412.50,,,,,0,00,99.99,,,,,80.5,*6E
[2021-02-22 16:04:13.210] $GNGGA,070412.60,3713.959870000,N,13701.422240000,E,1,11,0.90,94.278,M,37.566,M,80.6,*66
[2021-02-22 16:04:13.273] $GNGGA,070412.70,3713.958712000,N,13701.423680000,E,1,12,0.82,92.115,M,37.566,M,80.7,*6B
[2021-02-22 16:04:13.382] $GNGGA,070412.80,3713.958436000,N,13701.424148000,E,1,12,0.75,91.745,M,37.566,M,80.8,*62
[2021-02-22 16:04:13.476] $GNGGA,070412.90,3713.958106000,N,13701.424268000,E,1,14,0.61,91.924,M,37.566,M,80.9,*6F
[2021-02-22 16:04:13.585] $GNGGA,070413.00,3713.957890000,N,13701.424436000,E,1,14,0.58,92.273,M,37.566,M,81.0,*6B
[2021-02-22 16:04:13.710] $GNGGA,070413.10,3713.957698000,N,13701.424484000,E,1,14,0.57,92.580,M,37.566,M,81.1,*60
[2021-02-22 16:04:13.788] $GNGGA,070413.20,3713.957554000,N,13701.424460000,E,1,13,0.57,92.840,M,37.566,M,81.2,*6F
[2021-02-22 16:04:13.882] $GNGGA,070413.30,3713.957470000,N,13701.424418000,E,1,14,0.57,93.104,M,37.566,M,81.3,*68
[2021-02-22 16:04:13.991] $GNGGA,070413.40,3713.957362000,N,13701.424472000,E,1,13,0.57,93.360,M,37.566,M,81.4,*67
[2021-02-22 16:04:14.101] $GNGGA,070413.50,3713.957266000,N,13701.424490000,E,1,13,0.57,93.591,M,37.566,M,81.5,*66
[2021-02-22 16:04:14.179] $GNGGA,070413.60,3713.957182000,N,13701.424460000,E,1,13,0.56,93.771,M,37.566,M,81.6,*6D
[2021-02-22 16:04:14.288] $GNGGA,070413.70,3713.957086000,N,13701.424502000,E,1,13,0.56,93.921,M,37.566,M,81.7,*66
[2021-02-22 16:04:14.382] $GNGGA,070413.80,3713.957020000,N,13701.424532000,E,1,12,0.56,93.963,M,37.566,M,81.8,*6E
[2021-02-22 16:04:14.507] $GNGGA,070413.90,3713.956972000,N,13701.424562000,E,1,12,0.56,94.061,M,37.566,M,81.9,*68
[2021-02-22 16:04:14.585] $GNGGA,070414.00,3713.956948000,N,13701.424610000,E,1,12,0.56,94.186,M,37.566,M,82.0,*6B
[2021-02-22 16:04:14.679] $GNGGA,070414.10,3713.956918000,N,13701.424652000,E,1,11,0.56,94.333,M,37.566,M,82.1,*67
[2021-02-22 16:04:14.788] $GNGGA,070414.20,3713.956882000,N,13701.424682000,E,1,12,0.56,94.371,M,37.566,M,82.2,*6D
[2021-02-22 16:04:14.898] $GNGGA,070414.30,3713.956846000,N,13701.424712000,E,1,12,0.56,94.350,M,37.566,M,82.3,*6E
[2021-02-22 16:04:14.976] $GNGGA,070414.40,3713.956828000,N,13701.424706000,E,1,13,0.56,94.262,M,37.566,M,82.4,*62
[2021-02-22 16:04:15.085] $GNGGA,070414.50,3713.956834000,N,13701.424700000,E,1,13,0.56,94.163,M,37.566,M,82.5,*6B
[2021-02-22 16:04:15.179] $GNGGA,070414.60,3713.956840000,N,13701.424700000,E,1,13,0.56,94.091,M,37.566,M,82.6,*64
[2021-02-22 16:04:15.304] $GNGGA,070414.70,3713.956852000,N,13701.424706000,E,1,12,0.56,94.036,M,37.566,M,82.7,*6D
[2021-02-22 16:04:15.382] $GNGGA,070414.80,3713.956840000,N,13701.424718000,E,1,12,0.56,93.994,M,37.566,M,82.8,*67
[2021-02-22 16:04:15.476] $GNGGA,070414.90,3713.956828000,N,13701.424730000,E,1,11,0.56,93.978,M,37.566,M,82.9,*62
[2021-02-22 16:04:15.585] $GNGGA,070415.00,3713.956816000,N,13701.424742000,E,1,11,0.56,93.999,M,37.566,M,83.0,*65
[2021-02-22 16:04:15.710] $GNGGA,070415.10,3713.956798000,N,13701.424760000,E,1,11,0.56,94.024,M,37.566,M,83.1,*64
[2021-02-22 16:04:15.788] $GNGGA,070415.20,3713.956798000,N,13701.424760000,E,1,11,0.56,94.059,M,37.566,M,83.2,*6E
[2021-02-22 16:04:15.882] $GNGGA,070415.30,3713.956792000,N,13701.424772000,E,1,11,0.56,94.112,M,37.566,M,83.3,*69
[2021-02-22 16:04:15.976] $GNGGA,070415.40,3713.956786000,N,13701.424778000,E,1,11,0.56,94.153,M,37.566,M,83.4,*63
[2021-02-22 16:04:16.101] $GNGGA,070415.50,3713.956774000,N,13701.424778000,E,1,11,0.56,94.185,M,37.566,M,83.5,*65
[2021-02-22 16:04:16.179] $GNGGA,070415.60,3713.956762000,N,13701.424784000,E,1,12,0.54,94.230,M,37.566,M,83.6,*6D
[2021-02-22 16:04:16.288] $GNGGA,070415.70,3713.956744000,N,13701.424790000,E,1,12,0.54,94.274,M,37.566,M,83.7,*6C
[2021-02-22 16:04:16.382] $GNGGA,070415.80,3713.956726000,N,13701.424790000,E,1,12,0.54,94.310,M,37.566,M,83.8,*6B
[2021-02-22 16:04:16.507] $GNGGA,070415.90,3713.956720000,N,13701.424796000,E,1,12,0.54,94.347,M,37.566,M,83.9,*69
[2021-02-22 16:04:16.585] $GNGGA,070416.00,3713.956702000,N,13701.424802000,E,1,12,0.54,94.389,M,37.566,M,84.0,*6D
[2021-02-22 16:04:16.679] $GNGGA,070416.10,3713.956696000,N,13701.424802000,E,1,13,0.54,94.409,M,37.566,M,84.1,*6F
[2021-02-22 16:04:16.788] $GNGGA,070416.20,3713.956684000,N,13701.424820000,E,1,13,0.54,94.440,M,37.566,M,84.2,*61
[2021-02-22 16:04:16.913] $GNGGA,070416.30,3713.956672000,N,13701.424826000,E,1,12,0.54,94.470,M,37.566,M,84.3,*6C
[2021-02-22 16:04:16.976] $GNGGA,070416.40,3713.956660000,N,13701.424832000,E,1,12,0.54,94.487,M,37.566,M,84.4,*62
[2021-02-22 16:04:17.085] $GNGGA,070416.50,3713.956648000,N,13701.424838000,E,1,12,0.54,94.508,M,37.566,M,84.5,*64
[2021-02-22 16:04:17.179] $GNGGA,070416.60,3713.956642000,N,13701.424838000,E,1,12,0.54,94.526,M,37.566,M,84.6,*62
[2021-02-22 16:04:17.288] $GNGGA,070416.70,3713.956630000,N,13701.424838000,E,1,12,0.54,94.546,M,37.566,M,84.7,*61
[2021-02-22 16:04:17.413] $GNGGA,070416.80,3713.956624000,N,13701.424838000,E,1,12,0.54,94.574,M,37.566,M,84.8,*65
[2021-02-22 16:04:17.476] $GNGGA,070416.90,3713.956612000,N,13701.424838000,E,1,12,0.54,94.606,M,37.566,M,84.9,*66
[2021-02-22 16:04:17.585] $GNGGA,070417.00,3713.956606000,N,13701.424832000,E,1,12,0.54,94.625,M,37.566,M,85.0,*68
[2021-02-22 16:04:17.679] $GNGGA,070417.10,3713.956600000,N,13701.424832000,E,1,12,0.54,94.650,M,37.566,M,85.1,*6C
[2021-02-22 16:04:17.788] $GNGGA,070417.20,3713.956588000,N,13701.424832000,E,1,12,0.54,94.675,M,37.566,M,85.2,*68
[2021-02-22 16:04:17.913] $GNGGA,070417.30,3713.956576000,N,13701.424832000,E,1,12,0.54,94.692,M,37.566,M,85.3,*60
[2021-02-22 16:04:17.976] $GNGGA,070417.40,3713.956570000,N,13701.424832000,E,1,12,0.54,94.713,M,37.566,M,85.4,*6E
[2021-02-22 16:04:18.085] $GNGGA,070417.50,3713.956564000,N,13701.424838000,E,1,12,0.54,94.726,M,37.566,M,85.5,*67
[2021-02-22 16:04:18.179] $GNGGA,070417.60,3713.956552000,N,13701.424838000,E,1,12,0.54,94.736,M,37.566,M,85.6,*63
[2021-02-22 16:04:18.304] $GNGGA,070417.70,3713.956546000,N,13701.424832000,E,1,12,0.54,94.746,M,37.566,M,85.7,*6B
[2021-02-22 16:04:18.382] $GNGGA,070417.80,3713.956540000,N,13701.424832000,E,1,12,0.54,94.747,M,37.566,M,85.8,*6C
[2021-02-22 16:04:18.491] $GNGGA,070417.90,3713.956534000,N,13701.424826000,E,1,12,0.54,94.748,M,37.566,M,85.9,*65
[2021-02-22 16:04:18.585] $GNGGA,070418.00,3713.956528000,N,13701.424826000,E,1,12,0.54,94.751,M,37.566,M,86.0,*6C
[2021-02-22 16:04:18.710] $GNGGA,070418.10,3713.956516000,N,13701.424826000,E,1,12,0.54,94.743,M,37.566,M,86.1,*62
[2021-02-22 16:04:18.788] $GNGGA,070418.20,3713.956510000,N,13701.424826000,E,1,12,0.54,94.741,M,37.566,M,86.2,*66
[2021-02-22 16:04:18.882] $GNGGA,070418.30,3713.956498000,N,13701.424832000,E,1,12,0.54,94.737,M,37.566,M,86.3,*63
[2021-02-22 16:04:18.991] $GNGGA,070418.40,3713.956492000,N,13701.424832000,E,1,12,0.54,94.735,M,37.566,M,86.4,*6B
[2021-02-22 16:04:19.100] $GNGGA,070418.50,3713.956486000,N,13701.424838000,E,1,12,0.54,94.736,M,37.566,M,86.5,*67
[2021-02-22 16:04:19.179] $GNGGA,070418.60,3713.956480000,N,13701.424838000,E,1,12,0.54,94.738,M,37.566,M,86.6,*6F
[2021-02-22 16:04:19.288] $GNGGA,070418.70,3713.956480000,N,13701.424844000,E,1,12,0.54,94.737,M,37.566,M,86.7,*6B
[2021-02-22 16:04:19.382] $GNGGA,070418.80,3713.956474000,N,13701.424844000,E,1,12,0.54,94.745,M,37.566,M,86.8,*65
[2021-02-22 16:04:19.507] $GNGGA,070418.90,3713.956468000,N,13701.424844000,E,1,12,0.54,94.749,M,37.566,M,86.9,*64
[2021-02-22 16:04:19.585] $GNGGA,070419.00,3713.956468000,N,13701.424850000,E,1,12,0.54,94.754,M,37.566,M,87.0,*6D
[2021-02-22 16:04:19.679] $GNGGA,070419.10,3713.956462000,N,13701.424850000,E,1,12,0.54,94.757,M,37.566,M,87.1,*64
[2021-02-22 16:04:19.788] $GNGGA,070419.20,3713.956456000,N,13701.424850000,E,1,12,0.54,94.758,M,37.566,M,87.2,*6C
[2021-02-22 16:04:19.913] $GNGGA,070419.30,3713.956456000,N,13701.424844000,E,1,12,0.54,94.763,M,37.566,M,87.3,*61
[2021-02-22 16:04:19.975] $GNGGA,070419.40,3713.956444000,N,13701.424844000,E,1,12,0.54,94.765,M,37.566,M,87.4,*64
[2021-02-22 16:04:20.085] $GNGGA,070419.50,3713.956438000,N,13701.424844000,E,1,12,0.54,94.769,M,37.566,M,87.5,*63
[2021-02-22 16:04:20.179] $GNGGA,070419.60,3713.956432000,N,13701.424838000,E,1,12,0.54,94.772,M,37.566,M,87.6,*68
[2021-02-22 16:04:20.304] $GNGGA,070419.70,3713.956426000,N,13701.424838000,E,1,12,0.54,94.779,M,37.566,M,87.7,*66
[2021-02-22 16:04:20.382] $GNGGA,070419.80,3713.956414000,N,13701.424838000,E,1,12,0.54,94.782,M,37.566,M,87.8,*63
[2021-02-22 16:04:20.475] $GNGGA,070419.90,3713.956414000,N,13701.424838000,E,1,12,0.54,94.784,M,37.566,M,87.9,*65
[2021-02-22 16:04:20.585] $GNGGA,070420.00,3713.956402000,N,13701.424838000,E,1,12,0.54,94.787,M,37.566,M,88.0,*64
[2021-02-22 16:04:20.710] $GNGGA,070420.10,3713.956402000,N,13701.424838000,E,1,12,0.54,94.788,M,37.566,M,88.1,*6B
[2021-02-22 16:04:20.788] $GNGGA,070420.20,3713.956396000,N,13701.424838000,E,1,12,0.54,94.793,M,37.566,M,88.2,*6B
[2021-02-22 16:04:20.882] $GNGGA,070420.30,3713.956396000,N,13701.424844000,E,1,12,0.54,94.796,M,37.566,M,88.3,*65
[2021-02-22 16:04:20.975] $GNGGA,070420.40,3713.956396000,N,13701.424844000,E,1,12,0.54,94.803,M,37.566,M,88.4,*66
[2021-02-22 16:04:21.100] $GNGGA,070420.50,3713.956390000,N,13701.424844000,E,1,12,0.54,94.810,M,37.566,M,88.5,*62
[2021-02-22 16:04:21.179] $GNGGA,070420.60,3713.956390000,N,13701.424844000,E,1,12,0.54,94.813,M,37.566,M,88.6,*61
[2021-02-22 16:04:21.288] $GNGGA,070420.70,3713.956384000,N,13701.424850000,E,1,12,0.54,94.819,M,37.566,M,88.7,*6B
[2021-02-22 16:04:21.382] $GNGGA,070420.80,3713.956408092,N,13701.424858738,E,5,07,1.40,95.353,M,37.566,M,88.8,3006*62
[2021-02-22 16:04:21.491] $GNGGA,070420.90,3713.956512354,N,13701.424894480,E,5,11,1.00,95.577,M,37.566,M,88.9,3006*62
[2021-02-22 16:04:21.600] $GNGGA,070421.00,3713.956577261,N,13701.424838436,E,5,12,1.10,95.814,M,37.566,M,89.0,3006*67
[2021-02-22 16:04:21.678] $GNGGA,070421.10,3713.956723488,N,13701.424861731,E,5,12,1.10,96.436,M,37.566,M,89.1,3006*62
[2021-02-22 16:04:21.788] $GNGGA,070421.20,3713.956754247,N,13701.424887512,E,5,12,1.10,96.708,M,37.566,M,89.2,3006*62
[2021-02-22 16:04:21.882] $GNGGA,070421.30,3713.956688627,N,13701.424888257,E,5,12,1.10,96.926,M,37.566,M,89.3,3006*6B
[2021-02-22 16:04:21.991] $GNGGA,070421.40,3713.956703766,N,13701.424916994,E,5,12,1.10,96.951,M,37.566,M,89.4,3006*6F
[2021-02-22 16:04:22.100] $GNGGA,070421.50,3713.956668897,N,13701.424914509,E,5,13,0.98,97.044,M,37.566,M,89.5,3006*64
[2021-02-22 16:04:22.178] $GNGGA,070421.60,3713.956625442,N,13701.424896225,E,5,13,0.98,97.154,M,37.566,M,89.6,3006*6B
[2021-02-22 16:04:22.288] $GNGGA,070421.70,3713.956601563,N,13701.424895021,E,5,12,1.10,97.211,M,37.566,M,89.7,3006*68
[2021-02-22 16:04:22.382] $GNGGA,070421.80,3713.956618841,N,13701.424904449,E,5,12,1.10,97.201,M,37.566,M,89.8,3006*6F
[2021-02-22 16:04:22.506] $GNGGA,070421.90,3713.956620736,N,13701.424901245,E,5,12,1.10,97.210,M,37.566,M,89.9,3006*64
[2021-02-22 16:04:22.585] $GNGGA,070422.00,3713.956655040,N,13701.424903628,E,5,12,1.10,97.301,M,37.566,M,90.0,3006*67
[2021-02-22 16:04:22.678] $GNGGA,070422.10,3713.956655365,N,13701.424909977,E,5,12,1.10,97.291,M,37.566,M,90.1,3006*64
[2021-02-22 16:04:22.788] $GNGGA,070422.20,3713.956680419,N,13701.424921561,E,5,12,1.10,97.325,M,37.566,M,90.2,3006*6F
[2021-02-22 16:04:22.913] $GNGGA,070422.30,3713.956677371,N,13701.424924152,E,5,12,1.10,97.327,M,37.566,M,90.3,3006*6D
[2021-02-22 16:04:22.975] $GNGGA,070422.40,3713.956687055,N,13701.424919268,E,5,12,1.10,97.360,M,37.566,M,90.4,3006*60
[2021-02-22 16:04:23.085] $GNGGA,070422.50,3713.956679278,N,13701.424920696,E,5,12,1.10,97.357,M,37.566,M,90.5,3006*67
[2021-02-22 16:04:23.178] $GNGGA,070422.60,3713.956688456,N,13701.424917910,E,5,12,1.10,97.334,M,37.566,M,90.6,3006*63
[2021-02-22 16:04:23.319] $GNGGA,070422.70,3713.956682586,N,13701.424924301,E,5,13,0.98,97.331,M,37.566,M,90.7,3006*6A
[2021-02-22 16:04:23.381] $GNGGA,070422.80,3713.956689609,N,13701.424924604,E,5,13,0.98,97.306,M,37.566,M,90.8,3006*61
[2021-02-22 16:04:23.475] $GNGGA,070422.90,3713.956642247,N,13701.424938595,E,5,13,0.98,97.417,M,37.566,M,90.9,3006*69
[2021-02-22 16:04:23.585] $GNGGA,070423.00,3713.956651911,N,13701.424936607,E,5,13,0.98,97.402,M,37.566,M,91.0,3006*61
[2021-02-22 16:04:23.710] $GNGGA,070423.10,3713.956612764,N,13701.424943662,E,5,13,0.98,97.507,M,37.566,M,91.1,3006*6F
[2021-02-22 16:04:23.788] $GNGGA,070423.20,3713.956604365,N,13701.424941576,E,5,13,0.98,97.523,M,37.566,M,91.2,3006*6F
[2021-02-22 16:04:23.881] $GNGGA,070423.30,3713.956570869,N,13701.424941385,E,5,13,0.98,97.587,M,37.566,M,91.3,3006*6C
[2021-02-22 16:04:23.991] $GNGGA,070423.40,3713.956545518,N,13701.424937164,E,5,13,0.98,97.625,M,37.566,M,91.4,3006*66
[2021-02-22 16:04:24.100] $GNGGA,070423.50,3713.956512703,N,13701.424934239,E,5,13,0.98,97.678,M,37.566,M,91.5,3006*6C
[2021-02-22 16:04:24.178] $GNGGA,070423.60,3713.956489509,N,13701.424929641,E,5,12,1.10,97.712,M,37.566,M,91.6,3006*6D
[2021-02-22 16:04:24.288] $GNGGA,070423.70,3713.956478811,N,13701.424925658,E,5,12,1.10,97.737,M,37.566,M,91.7,3006*64
[2021-02-22 16:04:24.381] $GNGGA,070423.80,3713.956462467,N,13701.424919470,E,5,13,0.98,97.760,M,37.566,M,91.8,3006*67
[2021-02-22 16:04:24.491] $GNGGA,070423.90,3713.956436301,N,13701.424917446,E,5,13,0.98,97.801,M,37.566,M,91.9,3006*62
[2021-02-22 16:04:24.616] $GNGGA,070424.00,3713.956304609,N,13701.424922393,E,5,13,0.98,97.971,M,37.566,M,92.0,3006*62
[2021-02-22 16:04:24.678] $GNGGA,070424.10,3713.956282511,N,13701.424926526,E,5,13,0.98,98.003,M,37.566,M,92.1,3006*68
[2021-02-22 16:04:24.788] $GNGGA,070424.20,3713.956276299,N,13701.424923439,E,5,13,0.98,98.008,M,37.566,M,92.2,3006*65
[2021-02-22 16:04:24.881] $GNGGA,070424.30,3713.956185666,N,13701.424932900,E,5,13,0.98,98.116,M,37.566,M,92.3,3006*67
[2021-02-22 16:04:24.991] $GNGGA,070424.40,3713.956146285,N,13701.424924350,E,5,13,0.98,98.194,M,37.566,M,92.4,3006*63
[2021-02-22 16:04:25.116] $GNGGA,070424.50,3713.956076846,N,13701.424932544,E,5,14,0.83,98.271,M,37.566,M,92.5,3006*65
[2021-02-22 16:04:25.178] $GNGGA,070424.60,3713.956059225,N,13701.424926383,E,5,14,0.83,98.309,M,37.566,M,92.6,3006*61
[2021-02-22 16:04:25.288] $GNGGA,070424.70,3713.955994879,N,13701.424933717,E,5,14,0.83,98.376,M,37.566,M,92.7,3006*6C
[2021-02-22 16:04:25.381] $GNGGA,070424.80,3713.955975971,N,13701.424926661,E,5,14,0.83,98.429,M,37.566,M,92.8,3006*63
[2021-02-22 16:04:25.491] $GNGGA,070424.90,3713.955958660,N,13701.424924752,E,5,14,0.83,98.447,M,37.566,M,92.9,3006*68
[2021-02-22 16:04:25.616] $GNGGA,070425.00,3713.955940472,N,13701.424919547,E,5,14,0.83,98.497,M,37.566,M,93.0,3006*65
[2021-02-22 16:04:25.678] $GNGGA,070425.10,3713.955877813,N,13701.424935057,E,5,14,0.83,98.559,M,37.566,M,93.1,3006*62
[2021-02-22 16:04:25.788] $GNGGA,070425.20,3713.955864562,N,13701.424932345,E,5,14,0.83,98.603,M,37.566,M,93.2,3006*60
[2021-02-22 16:04:25.881] $GNGGA,070425.30,3713.955854388,N,13701.424932280,E,5,14,0.83,98.613,M,37.566,M,93.3,3006*68
[2021-02-22 16:04:25.991] $GNGGA,070425.40,3713.955832742,N,13701.424932970,E,5,14,0.83,98.668,M,37.566,M,93.4,3006*62
[2021-02-22 16:04:26.116] $GNGGA,070425.50,3713.955820967,N,13701.424931520,E,5,13,0.95,98.679,M,37.566,M,93.5,3006*62
[2021-02-22 16:04:26.178] $GNGGA,070425.60,3713.955803215,N,13701.424928451,E,5,13,0.95,98.726,M,37.566,M,93.6,3006*69
[2021-02-22 16:04:26.287] $GNGGA,070425.70,3713.955787198,N,13701.424928606,E,5,13,0.95,98.754,M,37.566,M,93.7,3006*69
[2021-02-22 16:04:26.381] $GNGGA,070425.80,3713.955763503,N,13701.424921207,E,5,13,0.95,98.816,M,37.566,M,93.8,3006*60
[2021-02-22 16:04:26.491] $GNGGA,070425.90,3713.955749206,N,13701.424920555,E,5,13,0.95,98.846,M,37.566,M,93.9,3006*6E
[2021-02-22 16:04:26.616] $GNGGA,070426.00,3713.955725265,N,13701.424911983,E,5,13,0.95,98.907,M,37.566,M,94.0,3006*64
[2021-02-22 16:04:26.678] $GNGGA,070426.10,3713.955715437,N,13701.424906852,E,5,13,0.95,98.931,M,37.566,M,94.1,3006*68
[2021-02-22 16:04:26.787] $GNGGA,070426.20,3713.955704099,N,13701.424903991,E,5,13,0.95,98.961,M,37.566,M,94.2,3006*66
[2021-02-22 16:04:26.881] $GNGGA,070426.30,3713.955687271,N,13701.424900813,E,5,13,0.95,98.993,M,37.566,M,94.3,3006*6D
[2021-02-22 16:04:27.006] $GNGGA,070426.40,3713.955675374,N,13701.424900545,E,5,13,0.95,99.011,M,37.566,M,94.4,3006*68
[2021-02-22 16:04:27.084] $GNGGA,070426.50,3713.955663632,N,13701.424896869,E,5,13,0.95,99.031,M,37.566,M,94.5,3006*67
[2021-02-22 16:04:27.178] $GNGGA,070426.60,3713.955653888,N,13701.424894312,E,5,13,0.95,99.058,M,37.566,M,94.6,3006*61
[2021-02-22 16:04:27.287] $GNGGA,070426.70,3713.955649335,N,13701.424892774,E,5,13,0.95,99.062,M,37.566,M,94.7,3006*6C
[2021-02-22 16:04:27.412] $GNGGA,070426.80,3713.955642495,N,13701.424892352,E,5,14,0.83,99.081,M,37.566,M,94.8,3006*67
[2021-02-22 16:04:27.475] $GNGGA,070426.90,3713.955631793,N,13701.424889555,E,5,14,0.83,99.105,M,37.566,M,94.9,3006*60
[2021-02-22 16:04:27.584] $GNGGA,070427.00,3713.955626045,N,13701.424891646,E,5,14,0.83,99.111,M,37.566,M,95.0,3006*67
[2021-02-22 16:04:27.678] $GNGGA,070427.10,3713.955620825,N,13701.424889192,E,5,14,0.83,99.125,M,37.566,M,95.1,3006*6F
[2021-02-22 16:04:27.803] $GNGGA,070427.20,3713.955616423,N,13701.424889998,E,5,14,0.83,99.127,M,37.566,M,95.2,3006*60
[2021-02-22 16:04:27.881] $GNGGA,070427.30,3713.955595924,N,13701.424901527,E,5,14,0.83,99.143,M,37.566,M,95.3,3006*69
[2021-02-22 16:04:27.975] $GNGGA,070427.40,3713.955589198,N,13701.424902412,E,5,14,0.83,99.147,M,37.566,M,95.4,3006*6B
[2021-02-22 16:04:28.084] $GNGGA,070427.50,3713.955579983,N,13701.424902004,E,5,14,0.83,99.161,M,37.566,M,95.5,3006*61
[2021-02-22 16:04:28.209] $GNGGA,070427.60,3713.955574499,N,13701.424903335,E,5,14,0.83,99.167,M,37.566,M,95.6,3006*6C
[2021-02-22 16:04:28.287] $GNGGA,070427.70,3713.955570466,N,13701.424902641,E,5,13,0.95,99.169,M,37.566,M,95.7,3006*61
[2021-02-22 16:04:28.381] $GNGGA,070427.80,3713.955551047,N,13701.424917325,E,5,13,0.95,99.176,M,37.566,M,95.8,3006*68
[2021-02-22 16:04:28.490] $GNGGA,070427.90,3713.955548925,N,13701.424915925,E,5,13,0.95,99.177,M,37.566,M,95.9,3006*64
[2021-02-22 16:04:28.615] $GNGGA,070428.00,3713.955541193,N,13701.424921652,E,5,13,0.95,99.180,M,37.566,M,96.0,3006*64
[2021-02-22 16:04:28.678] $GNGGA,070428.10,3713.955540396,N,13701.424919437,E,5,13,0.95,99.180,M,37.566,M,96.1,3006*68
[2021-02-22 16:04:28.787] $GNGGA,070428.20,3713.955536455,N,13701.424919416,E,5,13,0.95,99.182,M,37.566,M,96.2,3006*60
[2021-02-22 16:04:28.881] $GNGGA,070428.30,3713.955537606,N,13701.424915711,E,5,13,0.95,99.180,M,37.566,M,96.3,3006*6F
[2021-02-22 16:04:28.990] $GNGGA,070428.40,3713.955535273,N,13701.424914868,E,5,13,0.95,99.181,M,37.566,M,96.4,3006*6A
[2021-02-22 16:04:29.100] $GNGGA,070428.50,3713.955532386,N,13701.424914565,E,5,13,0.95,99.181,M,37.566,M,96.5,3006*66
[2021-02-22 16:04:29.178] $GNGGA,070428.60,3713.955532047,N,13701.424914557,E,5,13,0.95,99.180,M,37.566,M,96.6,3006*68
[2021-02-22 16:04:29.287] $GNGGA,070428.70,3713.955533177,N,13701.424911666,E,5,13,0.95,99.180,M,37.566,M,96.7,3006*6F
[2021-02-22 16:04:29.381] $GNGGA,070428.80,3713.955533395,N,13701.424910356,E,5,13,0.95,99.182,M,37.566,M,96.8,3006*64
[2021-02-22 16:04:29.490] $GNGGA,070428.90,3713.955534727,N,13701.424905531,E,5,13,0.95,99.180,M,37.566,M,96.9,3006*6F
[2021-02-22 16:04:29.600] $GNGGA,070429.00,3713.955534463,N,13701.424904326,E,5,13,0.95,99.180,M,37.566,M,97.0,3006*6D
[2021-02-22 16:04:29.678] $GNGGA,070429.10,3713.955537099,N,13701.424900303,E,5,13,0.95,99.177,M,37.566,M,97.1,3006*64
[2021-02-22 16:04:29.787] $GNGGA,070429.20,3713.955538731,N,13701.424899656,E,5,13,0.95,99.175,M,37.566,M,97.2,3006*68
[2021-02-22 16:04:29.881] $GNGGA,070429.30,3713.955542207,N,13701.424896675,E,5,12,0.96,99.171,M,37.566,M,97.3,3006*6D
[2021-02-22 16:04:29.990] $GNGGA,070429.40,3713.955542874,N,13701.424896607,E,5,12,0.96,99.179,M,37.566,M,97.4,3006*6E
[2021-02-22 16:04:30.100] $GNGGA,070429.50,3713.955546133,N,13701.424893432,E,5,12,0.96,99.174,M,37.566,M,97.5,3006*6C
[2021-02-22 16:04:30.178] $GNGGA,070429.60,3713.955548147,N,13701.424893080,E,5,12,0.96,99.178,M,37.566,M,97.6,3006*60
[2021-02-22 16:04:30.287] $GNGGA,070429.70,3713.955550874,N,13701.424890040,E,5,12,0.96,99.175,M,37.566,M,97.7,3006*62
[2021-02-22 16:04:30.381] $GNGGA,070429.80,3713.955550164,N,13701.424891217,E,5,12,1.10,99.178,M,37.566,M,97.8,3006*69
[2021-02-22 16:04:30.490] $GNGGA,070429.90,3713.955551346,N,13701.424891046,E,5,12,1.10,99.176,M,37.566,M,97.9,3006*62
[2021-02-22 16:04:30.600] $GNGGA,070430.00,3713.955550413,N,13701.424893804,E,5,12,1.10,99.181,M,37.566,M,98.0,3006*67
[2021-02-22 16:04:30.678] $GNGGA,070430.10,3713.955550514,N,13701.424894671,E,5,12,1.10,99.178,M,37.566,M,98.1,3006*6C
[2021-02-22 16:04:30.787] $GNGGA,070430.20,3713.955550797,N,13701.424896693,E,5,12,1.10,99.185,M,37.566,M,98.2,3006*69
[2021-02-22 16:04:30.881] $GNGGA,070430.30,3713.955551966,N,13701.424895357,E,5,12,1.10,99.181,M,37.566,M,98.3,3006*62
[2021-02-22 16:04:30.990] $GNGGA,070430.40,3713.955551173,N,13701.424894750,E,5,12,1.10,99.183,M,37.566,M,98.4,3006*6E
[2021-02-22 16:04:31.115] $GNGGA,070430.50,3713.955551294,N,13701.424893974,E,5,12,1.10,99.180,M,37.566,M,98.5,3006*68
[2021-02-22 16:04:31.178] $GNGGA,070430.60,3713.955551047,N,13701.424891578,E,5,12,1.10,99.182,M,37.566,M,98.6,3006*64
[2021-02-22 16:04:31.287] $GNGGA,070430.70,3713.955550050,N,13701.424889709,E,5,12,1.10,99.183,M,37.566,M,98.7,3006*6F
[2021-02-22 16:04:31.381] $GNGGA,070430.80,3713.955548469,N,13701.424889560,E,5,12,1.10,99.185,M,37.566,M,98.8,3006*63
[2021-02-22 16:04:31.506] $GNGGA,070430.90,3713.955549290,N,13701.424888272,E,5,12,1.10,99.184,M,37.566,M,98.9,3006*66
[2021-02-22 16:04:31.584] $GNGGA,070431.00,3713.955550715,N,13701.424887172,E,5,12,1.10,99.186,M,37.566,M,99.0,3006*68
[2021-02-22 16:04:31.678] $GNGGA,070431.10,3713.955551085,N,13701.424885822,E,5,12,1.10,99.183,M,37.566,M,99.1,3006*6C
[2021-02-22 16:04:31.787] $GNGGA,070431.20,3713.955551544,N,13701.424885184,E,5,12,1.10,99.187,M,37.566,M,99.2,3006*65
[2021-02-22 16:04:31.912] $GNGGA,070431.30,3713.955552984,N,13701.424884268,E,5,12,1.10,99.185,M,37.566,M,99.3,3006*64
[2021-02-22 16:04:31.975] $GNGGA,070431.40,3713.955553537,N,13701.424883243,E,5,12,1.10,99.194,M,37.566,M,99.4,3006*6F
[2021-02-22 16:04:32.084] $GNGGA,070431.50,3713.955553021,N,13701.424883191,E,5,12,1.10,99.192,M,37.566,M,99.5,3006*67
[2021-02-22 16:04:32.178] $GNGGA,070431.60,3713.955553889,N,13701.424883214,E,5,12,1.10,99.194,M,37.566,M,99.6,3006*65
[2021-02-22 16:04:32.318] $GNGGA,070431.70,3713.955556710,N,13701.424882309,E,5,12,1.10,99.192,M,37.566,M,99.7,3006*65
[2021-02-22 16:04:32.381] $GNGGA,070431.80,3713.955558762,N,13701.424882126,E,5,12,1.10,99.193,M,37.566,M,99.8,3006*60
[2021-02-22 16:04:32.490] $GNGGA,070431.90,3713.955560785,N,13701.424881559,E,5,12,1.10,99.191,M,37.566,M,99.9,3006*6F
[2021-02-22 16:04:32.584] $GNGGA,070432.00,3713.955558778,N,13701.424880855,E,5,12,1.10,99.193,M,37.566,M,100.0,3006*56
[2021-02-22 16:04:32.678] $GNGGA,070432.10,3713.955559418,N,13701.424880037,E,5,12,1.10,99.192,M,37.566,M,100.1,3006*5F
[2021-02-22 16:04:32.818] $GNGGA,070432.20,3713.955557735,N,13701.424879105,E,5,12,1.10,99.195,M,37.566,M,100.2,3006*5C
[2021-02-22 16:04:32.881] $GNGGA,070432.30,3713.955557216,N,13701.424878325,E,5,12,1.10,99.192,M,37.566,M,100.3,3006*5E
[2021-02-22 16:04:32.975] $GNGGA,070432.40,3713.955556797,N,13701.424878950,E,5,12,1.10,99.197,M,37.566,M,100.4,3006*5E
[2021-02-22 16:04:33.084] $GNGGA,070432.50,3713.955556807,N,13701.424879657,E,5,12,1.10,99.193,M,37.566,M,100.5,3006*55
[2021-02-22 16:04:33.178] $GNGGA,070432.60,3713.955556017,N,13701.424879890,E,5,12,1.10,99.195,M,37.566,M,100.6,3006*5F
[2021-02-22 16:04:33.303] $GNGGA,070432.70,3713.955556499,N,13701.424880047,E,5,12,1.10,99.188,M,37.566,M,100.7,3006*55
[2021-02-22 16:04:33.381] $GNGGA,070432.80,3713.955556487,N,13701.424878865,E,5,12,1.10,99.190,M,37.566,M,100.8,3006*5C
[2021-02-22 16:04:33.490] $GNGGA,070432.90,3713.955557152,N,13701.424880477,E,5,12,1.10,99.185,M,37.566,M,100.9,3006*5C
[2021-02-22 16:04:33.584] $GNGGA,070433.00,3713.955557046,N,13701.424880191,E,5,12,1.10,99.186,M,37.566,M,101.0,3006*56
[2021-02-22 16:04:33.678] $GNGGA,070433.10,3713.955555492,N,13701.424880059,E,5,13,0.98,99.185,M,37.566,M,101.1,3006*5F
[2021-02-22 16:04:33.818] $GNGGA,070433.20,3713.955557321,N,13701.424877633,E,5,13,0.98,99.184,M,37.566,M,101.2,3006*51
[2021-02-22 16:04:33.881] $GNGGA,070433.30,3713.955556375,N,13701.424878044,E,5,12,1.10,99.180,M,37.566,M,101.3,3006*5C
[2021-02-22 16:04:33.974] $GNGGA,070433.40,3713.955555748,N,13701.424875476,E,5,12,1.10,99.181,M,37.566,M,101.4,3006*5C
[2021-02-22 16:04:34.084] $GNGGA,070433.50,3713.955555090,N,13701.424875635,E,5,12,1.10,99.177,M,37.566,M,101.5,3006*52
[2021-02-22 16:04:34.178] $GNGGA,070433.60,3713.955554420,N,13701.424875525,E,5,12,1.10,99.173,M,37.566,M,101.6,3006*5A
[2021-02-22 16:04:34.318] $GNGGA,070433.70,3713.955550855,N,13701.424877057,E,5,12,1.10,99.171,M,37.566,M,101.7,3006*50
[2021-02-22 16:04:34.381] $GNGGA,070433.80,3713.955552114,N,13701.424877146,E,5,12,1.10,99.169,M,37.566,M,101.8,3006*56
[2021-02-22 16:04:34.474] $GNGGA,070433.90,3713.955550646,N,13701.424877307,E,5,12,1.10,99.167,M,37.566,M,101.9,3006*5D
[2021-02-22 16:04:34.584] $GNGGA,070434.00,3713.955550147,N,13701.424875909,E,5,12,1.10,99.169,M,37.566,M,102.0,3006*57
[2021-02-22 16:04:34.678] $GNGGA,070434.10,3713.955548868,N,13701.424877787,E,5,12,1.10,99.163,M,37.566,M,102.1,3006*5A
[2021-02-22 16:04:34.803] $GNGGA,070434.20,3713.955548971,N,13701.424878038,E,5,12,1.10,99.161,M,37.566,M,102.2,3006*5D
[2021-02-22 16:04:34.881] $GNGGA,070434.30,3713.955547416,N,13701.424879712,E,5,12,1.10,99.160,M,37.566,M,102.3,3006*51
[2021-02-22 16:04:34.974] $GNGGA,070434.40,3713.955548263,N,13701.424880103,E,5,12,1.10,99.159,M,37.566,M,102.4,3006*50
[2021-02-22 16:04:35.084] $GNGGA,070434.50,3713.955546227,N,13701.424884250,E,5,12,1.05,99.159,M,37.566,M,102.5,3006*5B
[2021-02-22 16:04:35.178] $GNGGA,070434.60,3713.955544018,N,13701.424886185,E,5,12,1.05,99.156,M,37.566,M,102.6,3006*51
[2021-02-22 16:04:35.318] $GNGGA,070434.70,3713.955540492,N,13701.424887361,E,5,12,1.05,99.163,M,37.566,M,102.7,3006*5C
[2021-02-22 16:04:35.381] $GNGGA,070434.80,3713.955537602,N,13701.424887987,E,5,12,1.05,99.161,M,37.566,M,102.8,3006*57
[2021-02-22 16:04:35.490] $GNGGA,070434.90,3713.955534433,N,13701.424887966,E,5,12,1.05,99.158,M,37.566,M,102.9,3006*51
[2021-02-22 16:04:35.584] $GNGGA,070435.00,3713.955531653,N,13701.424884974,E,5,12,1.05,99.155,M,37.566,M,103.0,3006*5D
[2021-02-22 16:04:35.709] $GNGGA,070435.10,3713.955527983,N,13701.424884457,E,5,12,1.10,99.152,M,37.566,M,103.1,3006*57
[2021-02-22 16:04:35.787] $GNGGA,070435.20,3713.955525570,N,13701.424883931,E,5,12,1.10,99.148,M,37.566,M,103.2,3006*54
[2021-02-22 16:04:35.881] $GNGGA,070435.30,3713.955522614,N,13701.424884612,E,5,12,1.10,99.143,M,37.566,M,103.3,3006*50
[2021-02-22 16:04:35.990] $GNGGA,070435.40,3713.955521991,N,13701.424885258,E,5,12,1.10,99.138,M,37.566,M,103.4,3006*56
[2021-02-22 16:04:36.115] $GNGGA,070435.50,3713.955520385,N,13701.424886035,E,5,12,1.10,99.137,M,37.566,M,103.5,3006*5D
[2021-02-22 16:04:36.177] $GNGGA,070435.60,3713.955519027,N,13701.424887128,E,5,12,1.10,99.136,M,37.566,M,103.6,3006*51
[2021-02-22 16:04:36.287] $GNGGA,070435.70,3713.955517086,N,13701.424888940,E,5,12,1.10,99.129,M,37.566,M,103.7,3006*53
[2021-02-22 16:04:36.381] $GNGGA,070435.80,3713.955516147,N,13701.424890464,E,5,12,1.10,99.129,M,37.566,M,103.8,3006*5C
[2021-02-22 16:04:36.506] $GNGGA,070435.90,3713.955514139,N,13701.424890340,E,5,13,0.98,99.128,M,37.566,M,103.9,3006*57
[2021-02-22 16:04:36.584] $GNGGA,070436.00,3713.955512842,N,13701.424891086,E,5,13,0.98,99.129,M,37.566,M,104.0,3006*59
[2021-02-22 16:04:36.677] $GNGGA,070436.10,3713.955510601,N,13701.424891637,E,5,13,0.98,99.125,M,37.566,M,104.1,3006*52
[2021-02-22 16:04:36.787] $GNGGA,070436.20,3713.955509116,N,13701.424892953,E,5,13,0.98,99.122,M,37.566,M,104.2,3006*52
[2021-02-22 16:04:36.912] $GNGGA,070436.30,3713.955506393,N,13701.424895100,E,5,13,0.98,99.122,M,37.566,M,104.3,3006*5B
[2021-02-22 16:04:36.974] $GNGGA,070436.40,3713.955505042,N,13701.424897429,E,5,13,0.98,99.123,M,37.566,M,104.4,3006*5A
[2021-02-22 16:04:37.084] $GNGGA,070436.50,3713.955502046,N,13701.424898956,E,5,13,0.98,99.120,M,37.566,M,104.5,3006*50
[2021-02-22 16:04:37.177] $GNGGA,070436.60,3713.955495332,N,13701.424905857,E,5,13,0.98,99.121,M,37.566,M,104.6,3006*5B
[2021-02-22 16:04:37.287] $GNGGA,070436.70,3713.955493139,N,13701.424906880,E,5,13,0.98,99.117,M,37.566,M,104.7,3006*58
[2021-02-22 16:04:37.412] $GNGGA,070436.80,3713.955488666,N,13701.424909614,E,5,13,0.98,99.115,M,37.566,M,104.8,3006*51
[2021-02-22 16:04:37.474] $GNGGA,070436.90,3713.955487122,N,13701.424909406,E,5,13,0.98,99.105,M,37.566,M,104.9,3006*59
[2021-02-22 16:04:37.584] $GNGGA,070437.00,3713.955488206,N,13701.424910486,E,5,13,0.98,99.105,M,37.566,M,105.0,3006*53
[2021-02-22 16:04:37.677] $GNGGA,070437.10,3713.955486756,N,13701.424912193,E,5,13,0.98,99.101,M,37.566,M,105.1,3006*5A
[2021-02-22 16:04:37.787] $GNGGA,070437.20,3713.955485682,N,13701.424911538,E,5,13,0.98,99.097,M,37.566,M,105.2,3006*59
[2021-02-22 16:04:37.912] $GNGGA,070437.30,3713.955485157,N,13701.424912351,E,5,13,0.98,99.095,M,37.566,M,105.3,3006*5E
[2021-02-22 16:04:37.974] $GNGGA,070437.40,3713.955483558,N,13701.424912273,E,5,13,0.98,99.093,M,37.566,M,105.4,3006*54
[2021-02-22 16:04:38.084] $GNGGA,070437.50,3713.955484179,N,13701.424913215,E,5,13,0.98,99.088,M,37.566,M,105.5,3006*5F
[2021-02-22 16:04:38.177] $GNGGA,070437.60,3713.955483756,N,13701.424913394,E,5,13,0.98,99.088,M,37.566,M,105.6,3006*5B
[2021-02-22 16:04:38.287] $GNGGA,070437.70,3713.955483502,N,13701.424912661,E,5,13,0.98,99.083,M,37.566,M,105.7,3006*5D
[2021-02-22 16:04:38.412] $GNGGA,070437.80,3713.955484144,N,13701.424912105,E,5,13,0.98,99.082,M,37.566,M,105.8,3006*58
[2021-02-22 16:04:38.474] $GNGGA,070437.90,3713.955483811,N,13701.424912274,E,5,13,0.98,99.078,M,37.566,M,105.9,3006*56
[2021-02-22 16:04:38.584] $GNGGA,070438.00,3713.955481766,N,13701.424911915,E,5,13,0.98,99.075,M,37.566,M,106.0,3006*55
[2021-02-22 16:04:38.677] $GNGGA,070438.10,3713.955479066,N,13701.424912727,E,5,13,0.98,99.070,M,37.566,M,106.1,3006*5C
[2021-02-22 16:04:38.787] $GNGGA,070438.20,3713.955477017,N,13701.424912602,E,5,13,0.98,99.068,M,37.566,M,106.2,3006*5B
[2021-02-22 16:04:38.912] $GNGGA,070438.30,3713.955470675,N,13701.424917903,E,5,13,0.98,99.065,M,37.566,M,106.3,3006*58
[2021-02-22 16:04:38.974] $GNGGA,070438.40,3713.955469055,N,13701.424917290,E,5,13,0.98,99.060,M,37.566,M,106.4,3006*50
[2021-02-22 16:04:39.084] $GNGGA,070438.50,3713.955466248,N,13701.424917058,E,5,13,0.98,99.059,M,37.566,M,106.5,3006*5D
[2021-02-22 16:04:39.177] $GNGGA,070438.60,3713.955465667,N,13701.424915735,E,5,13,0.98,99.057,M,37.566,M,106.6,3006*57
[2021-02-22 16:04:39.287] $GNGGA,070438.70,3713.955462177,N,13701.424915134,E,5,13,0.98,99.053,M,37.566,M,106.7,3006*55
[2021-02-22 16:04:39.412] $GNGGA,070438.80,3713.955461573,N,13701.424913680,E,5,13,0.98,99.048,M,37.566,M,106.8,3006*52
[2021-02-22 16:04:39.474] $GNGGA,070438.90,3713.955458056,N,13701.424912523,E,5,13,0.98,99.049,M,37.566,M,106.9,3006*50
[2021-02-22 16:04:39.583] $GNGGA,070439.00,3713.955455164,N,13701.424913501,E,5,13,0.98,99.046,M,37.566,M,107.0,3006*53
[2021-02-22 16:04:39.677] $GNGGA,070439.10,3713.955453766,N,13701.424913977,E,5,13,0.98,99.042,M,37.566,M,107.1,3006*58
[2021-02-22 16:04:39.818] $GNGGA,070439.20,3713.955452666,N,13701.424914715,E,5,13,0.98,99.044,M,37.566,M,107.2,3006*53
[2021-02-22 16:04:39.880] $GNGGA,070439.30,3713.955453150,N,13701.424914782,E,5,13,0.98,99.041,M,37.566,M,107.3,3006*5B
[2021-02-22 16:04:39.990] $GNGGA,070439.40,3713.955454095,N,13701.424913221,E,5,13,0.98,99.039,M,37.566,M,107.4,3006*50
[2021-02-22 16:04:40.083] $GNGGA,070439.50,3713.955454367,N,13701.424914229,E,5,13,0.98,99.036,M,37.566,M,107.5,3006*5E
[2021-02-22 16:04:40.208] $GNGGA,070439.60,3713.955454347,N,13701.424913762,E,5,13,0.98,99.035,M,37.566,M,107.6,3006*52
[2021-02-22 16:04:40.287] $GNGGA,070439.70,3713.955454492,N,13701.424913389,E,5,13,0.98,99.033,M,37.566,M,107.7,3006*5A
[2021-02-22 16:04:40.380] $GNGGA,070439.80,3713.955455824,N,13701.424912697,E,5,13,0.98,99.026,M,37.566,M,107.8,3006*55
[2021-02-22 16:04:40.490] $GNGGA,070439.90,3713.955456632,N,13701.424913942,E,5,14,0.83,99.023,M,37.566,M,107.9,3006*51
[2021-02-22 16:04:40.615] $GNGGA,070440.00,3713.955455905,N,13701.424913672,E,5,13,0.98,99.025,M,37.566,M,108.0,3006*5F
[2021-02-22 16:04:40.677] $GNGGA,070440.10,3713.955455339,N,13701.424912803,E,5,13,0.98,99.022,M,37.566,M,108.1,3006*54
[2021-02-22 16:04:40.787] $GNGGA,070440.20,3713.955454842,N,13701.424913151,E,5,13,0.98,99.021,M,37.566,M,108.2,3006*5E
[2021-02-22 16:04:40.880] $GNGGA,070440.30,3713.955453443,N,13701.424914012,E,5,13,0.98,99.021,M,37.566,M,108.3,3006*55
[2021-02-22 16:04:41.021] $GNGGA,070440.40,3713.955452064,N,13701.424913005,E,5,13,0.98,99.024,M,37.566,M,108.4,3006*51
[2021-02-22 16:04:41.083] $GNGGA,070440.50,3713.955451730,N,13701.424913081,E,5,13,0.98,99.023,M,37.566,M,108.5,3006*5F
[2021-02-22 16:04:41.177] $GNGGA,070440.60,3713.955450780,N,13701.424911434,E,5,13,0.98,99.025,M,37.566,M,108.6,3006*5B
[2021-02-22 16:04:41.286] $GNGGA,070440.70,3713.955450803,N,13701.424909759,E,5,13,0.98,99.020,M,37.566,M,108.7,3006*5B
[2021-02-22 16:04:41.380] $GNGGA,070440.80,3713.955450686,N,13701.424907975,E,5,13,0.98,99.022,M,37.566,M,108.8,3006*54
[2021-02-22 16:04:41.505] $GNGGA,070440.90,3713.955451361,N,13701.424907431,E,5,13,0.98,99.023,M,37.566,M,108.9,3006*55
[2021-02-22 16:04:41.583] $GNGGA,070441.00,3713.955452350,N,13701.424906781,E,5,13,0.98,99.024,M,37.566,M,109.0,3006*5A
[2021-02-22 16:04:41.677] $GNGGA,070441.10,3713.955454075,N,13701.424907949,E,5,13,0.98,99.017,M,37.566,M,109.1,3006*53
[2021-02-22 16:04:41.786] $GNGGA,070441.20,3713.955457565,N,13701.424908240,E,5,13,0.98,99.021,M,37.566,M,109.2,3006*5C
[2021-02-22 16:04:41.880] $GNGGA,070441.30,3713.955459679,N,13701.424908501,E,5,13,0.98,99.019,M,37.566,M,109.3,3006*55
[2021-02-22 16:04:42.005] $GNGGA,070441.40,3713.955460347,N,13701.424906101,E,5,13,0.98,99.024,M,37.566,M,109.4,3006*53
[2021-02-22 16:04:42.083] $GNGGA,070441.50,3713.955462219,N,13701.424905296,E,5,13,0.98,99.022,M,37.566,M,109.5,3006*53
[2021-02-22 16:04:42.177] $GNGGA,070441.60,3713.955464726,N,13701.424905305,E,5,13,0.98,99.023,M,37.566,M,109.6,3006*56
[2021-02-22 16:04:42.286] $GNGGA,070441.70,3713.955467098,N,13701.424906348,E,5,13,0.98,99.020,M,37.566,M,109.7,3006*5E
[2021-02-22 16:04:42.380] $GNGGA,070441.80,3713.955469993,N,13701.424907355,E,5,13,0.98,99.020,M,37.566,M,109.8,3006*5F
[2021-02-22 16:04:42.505] $GNGGA,070441.90,3713.955470163,N,13701.424908250,E,5,13,0.98,99.018,M,37.566,M,109.9,3006*50
[2021-02-22 16:04:42.583] $GNGGA,070442.00,3713.955471883,N,13701.424908992,E,5,13,0.98,99.020,M,37.566,M,110.0,3006*53
