
[2021-02-22 16:08:21.302] $GPGGA,070809.00,,,,,0,00,0.0,,M,,M,0,0000*50
[2021-02-22 16:08:21.349] $GPGGA,070809.10,,,,,0,00,0.0,,M,,M,0,0000*51
[2021-02-22 16:08:21.349] $GPGGA,070809.20,,,,,0,00,0.0,,M,,M,0,0000*52
[2021-02-22 16:08:21.349] $GPGGA,070809.30,,,,,0,00,0.0,,M,,M,0,0000*53
[2021-02-22 16:08:21.349] $GPGGA,070809.40,,,,,0,00,0.0,,M,,M,0,0000*54
[2021-02-22 16:08:21.349] $GPGGA,070809.50,,,,,0,00,0.0,,M,,M,0,0000*55
[2021-02-22 16:08:21.349] $GPGGA,070809.60,,,,,0,00,0.0,,M,,M,0,0000*56
[2021-02-22 16:08:21.349] $GPGGA,070809.70,,,,,0,00,0.0,,M,,M,0,0000*57
[2021-02-22 16:08:21.349] $GPGGA,070809.80,,,,,0,00,0.0,,M,,M,0,0000*58
[2021-02-22 16:08:21.349] $GPGGA,070809.90,,,,,0,00,0.0,,M,,M,0,0000*59
[2021-02-22 16:08:21.349] $GPGGA,070810.00,,,,,0,00,0.0,,M,,M,0,0000*58
[2021-02-22 16:08:21.349] $GPGGA,070810.10,,,,,0,00,0.0,,M,,M,0,0000*59
[2021-02-22 16:08:21.349] $GPGGA,070810.20,,,,,0,00,0.0,,M,,M,0,0000*5A
[2021-02-22 16:08:21.349] $GPGGA,070810.30,,,,,0,00,0.0,,M,,M,0,0000*5B
[2021-02-22 16:08:21.349] $GPGGA,070810.40,,,,,0,00,0.0,,M,,M,0,0000*5C
[2021-02-22 16:08:21.349] $GPGGA,070810.50,,,,,0,00,0.0,,M,,M,0,0000*5D
[2021-02-22 16:08:21.349] $GPGGA,070810.60,,,,,0,00,0.0,,M,,M,0,0000*5E
[2021-02-22 16:08:21.349] $GPGGA,070810.70,,,,,0,00,0.0,,M,,M,0,0000*5F
[2021-02-22 16:08:21.349] $GPGGA,070810.80,,,,,0,00,0.0,,M,,M,0,0000*50
[2021-02-22 16:08:21.349] $GPGGA,070810.90,,,,,0,00,0.0,,M,,M,0,0000*51
[2021-02-22 16:08:21.349] $GPGGA,070811.00,,,,,0,00,0.0,,M,,M,0,0000*59
[2021-02-22 16:08:21.349] $GPGGA,070811.10,,,,,0,00,0.0,,M,,M,0,0000*58
[2021-02-22 16:08:21.349] $GPGGA,070811.20,,,,,0,00,0.0,,M,,M,0,0000*5B
[2021-02-22 16:08:21.396] $GPGGA,070811.30,,,,,0,00,0.0,,M,,M,0,0000*5A
[2021-02-22 16:08:21.396] $GPGGA,070811.40,,,,,0,00,0.0,,M,,M,0,0000*5D
[2021-02-22 16:08:21.396] $GPGGA,070811.50,,,,,0,00,0.0,,M,,M,0,0000*5C
[2021-02-22 16:08:21.396] $GPGGA,070811.60,,,,,0,00,0.0,,M,,M,0,0000*5F
[2021-02-22 16:08:21.396] $GPGGA,070811.70,,,,,0,00,0.0,,M,,M,0,0000*5E
[2021-02-22 16:08:21.396] $GPGGA,070811.80,,,,,0,00,0.0,,M,,M,0,0000*51
[2021-02-22 16:08:21.396] $GPGGA,070811.90,,,,,0,00,0.0,,M,,M,0,0000*50
[2021-02-22 16:08:21.396] $GPGGA,070812.00,,,,,0,00,0.0,,M,,M,0,0000*5A
[2021-02-22 16:08:21.396] $GPGGA,070812.10,,,,,0,00,0.0,,M,,M,0,0000*5B
[2021-02-22 16:08:21.396] $GPGGA,070812.20,,,,,0,00,0.0,,M,,M,0,0000*58
[2021-02-22 16:08:21.396] $GPGGA,070812.30,,,,,0,00,0.0,,M,,M,0,0000*59
[2021-02-22 16:08:21.396] $GPGGA,070812.40,,,,,0,00,0.0,,M,,M,0,0000*5E
[2021-02-22 16:08:21.396] $GPGGA,070812.50,,,,,0,00,0.0,,M,,M,0,0000*5F
[2021-02-22 16:08:21.396] $GPGGA,070812.60,,,,,0,00,0.0,,M,,M,0,0000*5C
[2021-02-22 16:08:21.396] $GPGGA,070812.70,,,,,0,00,0.0,,M,,M,0,0000*5D
[2021-02-22 16:08:21.396] $GPGGA,070812.80,,,,,0,00,0.0,,M,,M,0,0000*52
[2021-02-22 16:08:21.396] $GPGGA,070812.90,,,,,0,00,0.0,,M,,M,0,0000*53
[2021-02-22 16:08:21.396] $GPGGA,070813.00,,,,,0,00,0.0,,M,,M,0,0000*5B
[2021-02-22 16:08:21.396] $GPGGA,070813.10,,,,,0,00,0.0,,M,,M,0,0000*5A
[2021-02-22 16:08:21.396] $GPGGA,070813.20,,,,,0,00,0.0,,M,,M,0,0000*59
[2021-02-22 16:08:21.396] $GPGGA,070813.30,,,,,0,00,0.0,,M,,M,0,0000*58
[2021-02-22 16:08:21.396] $GPGGA,070813.40,,,,,0,00,0.0,,M,,M,0,0000*5F
[2021-02-22 16:08:21.443] $GPGGA,070813.50,,,,,0,00,0.0,,M,,M,0,0000*5E
[2021-02-22 16:08:21.443] $GPGGA,070813.60,,,,,0,00,0.0,,M,,M,0,0000*5D
[2021-02-22 16:08:21.443] $GPGGA,070813.70,,,,,0,00,0.0,,M,,M,0,0000*5C
[2021-02-22 16:08:21.443] $GPGGA,070813.80,,,,,0,00,0.0,,M,,M,0,0000*53
[2021-02-22 16:08:21.443] $GPGGA,070813.90,,,,,0,00,0.0,,M,,M,0,0000*52
[2021-02-22 16:08:21.443] $GPGGA,070814.00,,,,,0,00,0.0,,M,,M,0,0000*5C
[2021-02-22 16:08:21.443] $GPGGA,070814.10,,,,,0,00,0.0,,M,,M,0,0000*5D
[2021-02-22 16:08:21.443] $GPGGA,070814.20,,,,,0,00,0.0,,M,,M,0,0000*5E
[2021-02-22 16:08:21.443] $GPGGA,070814.30,,,,,0,00,0.0,,M,,M,0,0000*5F
[2021-02-22 16:08:21.443] $GPGGA,070814.40,,,,,0,00,0.0,,M,,M,0,0000*58
[2021-02-22 16:08:21.443] $GPGGA,070814.50,,,,,0,00,0.0,,M,,M,0,0000*59
[2021-02-22 16:08:21.443] $GPGGA,070814.60,,,,,0,00,0.0,,M,,M,0,0000*5A
[2021-02-22 16:08:21.443] $GPGGA,070814.70,,,,,0,00,0.0,,M,,M,0,0000*5B
[2021-02-22 16:08:21.443] $GPGGA,070814.80,,,,,0,00,0.0,,M,,M,0,0000*54
[2021-02-22 16:08:21.443] $GPGGA,070814.90,,,,,0,00,0.0,,M,,M,0,0000*55
[2021-02-22 16:08:21.443] $GPGGA,070815.00,,,,,0,00,0.0,,M,,M,0,0000*5D
[2021-02-22 16:08:21.443] $GPGGA,070815.10,,,,,0,00,0.0,,M,,M,0,0000*5C
[2021-02-22 16:08:21.443] $GPGGA,070815.20,,,,,0,00,0.0,,M,,M,0,0000*5F
[2021-02-22 16:08:21.443] $GPGGA,070815.30,,,,,0,00,0.0,,M,,M,0,0000*5E
[2021-02-22 16:08:21.443] $GPGGA,070815.40,,,,,0,00,0.0,,M,,M,0,0000*59
[2021-02-22 16:08:21.443] $GPGGA,070815.50,,,,,0,00,0.0,,M,,M,0,0000*58
[2021-02-22 16:08:21.474] $GPGGA,070815.60,,,,,0,00,0.0,,M,,M,0,0000*5B
[2021-02-22 16:08:21.474] $GPGGA,070815.70,,,,,0,00,0.0,,M,,M,0,0000*5A
[2021-02-22 16:08:21.474] $GPGGA,070815.80,,,,,0,00,0.0,,M,,M,0,0000*55
[2021-02-22 16:08:21.474] $GPGGA,070815.90,,,,,0,00,0.0,,M,,M,0,0000*54
[2021-02-22 16:08:21.474] $GPGGA,070816.00,,,,,0,00,0.0,,M,,M,0,0000*5E
[2021-02-22 16:08:21.474] $GPGGA,070816.10,,,,,0,00,0.0,,M,,M,0,0000*5F
[2021-02-22 16:08:21.474] $GPGGA,070816.20,,,,,0,00,0.0,,M,,M,0,0000*5C
[2021-02-22 16:08:21.474] $GPGGA,070816.30,,,,,0,00,0.0,,M,,M,0,0000*5D
[2021-02-22 16:08:21.474] $GPGGA,070816.40,,,,,0,00,0.0,,M,,M,0,0000*5A
[2021-02-22 16:08:21.474] $GPGGA,070816.50,,,,,0,00,0.0,,M,,M,0,0000*5B
[2021-02-22 16:08:21.474] $GPGGA,070816.60,,,,,0,00,0.0,,M,,M,0,0000*58
[2021-02-22 16:08:21.474] $GPGGA,070816.70,,,,,0,00,0.0,,M,,M,0,0000*59
[2021-02-22 16:08:21.474] $GPGGA,070816.80,,,,,0,00,0.0,,M,,M,0,0000*56
[2021-02-22 16:08:21.474] $GPGGA,070816.90,,,,,0,00,0.0,,M,,M,0,0000*57
[2021-02-22 16:08:21.474] $GPGGA,070817.00,,,,,0,00,0.0,,M,,M,0,0000*5F
[2021-02-22 16:08:21.474] $GPGGA,070817.10,,,,,0,00,0.0,,M,,M,0,0000*5E
[2021-02-22 16:08:21.474] $GPGGA,070817.20,,,,,0,00,0.0,,M,,M,0,0000*5D
[2021-02-22 16:08:21.474] $GPGGA,070817.30,,,,,0,00,0.0,,M,,M,0,0000*5C
[2021-02-22 16:08:21.474] $GPGGA,070817.40,,,,,0,00,0.0,,M,,M,0,0000*5B
[2021-02-22 16:08:21.474] $GPGGA,070817.50,,,,,0,00,0.0,,M,,M,0,0000*5A
[2021-02-22 16:08:21.474] $GPGGA,070817.60,,,,,0,00,0.0,,M,,M,0,0000*59
[2021-02-22 16:08:21.474] $GPGGA,070817.70,,,,,0,00,0.0,,M,,M,0,0000*58
[2021-02-22 16:08:21.521] $GPGGA,070817.80,,,,,0,00,0.0,,M,,M,0,0000*57
[2021-02-22 16:08:21.521] $GPGGA,070817.90,,,,,0,00,0.0,,M,,M,0,0000*56
[2021-02-22 16:08:21.521] $GPGGA,070818.00,,,,,0,00,0.0,,M,,M,0,0000*50
[2021-02-22 16:08:21.521] $GPGGA,070818.10,,,,,0,00,0.0,,M,,M,0,0000*51
[2021-02-22 16:08:21.521] $GPGGA,070818.20,,,,,0,00,0.0,,M,,M,0,0000*52
[2021-02-22 16:08:21.521] $GPGGA,070818.30,,,,,0,00,0.0,,M,,M,0,0000*53
[2021-02-22 16:08:21.521] $GPGGA,070818.40,,,,,0,00,0.0,,M,,M,0,0000*54
[2021-02-22 16:08:21.521] $GPGGA,070818.50,,,,,0,00,0.0,,M,,M,0,0000*55
[2021-02-22 16:08:21.521] $GPGGA,070818.60,,,,,0,00,0.0,,M,,M,0,0000*56
[2021-02-22 16:08:21.521] $GPGGA,070818.70,,,,,0,00,0.0,,M,,M,0,0000*57
[2021-02-22 16:08:21.521] $GPGGA,070818.80,,,,,0,00,0.0,,M,,M,0,0000*58
[2021-02-22 16:08:21.521] $GPGGA,070818.90,,,,,0,00,0.0,,M,,M,0,0000*59
[2021-02-22 16:08:21.521] $GPGGA,070819.00,,,,,0,00,0.0,,M,,M,0,0000*51
[2021-02-22 16:08:21.521] $GPGGA,070819.10,,,,,0,00,0.0,,M,,M,0,0000*50
[2021-02-22 16:08:21.521] $GPGGA,070819.20,,,,,0,00,0.0,,M,,M,0,0000*53
[2021-02-22 16:08:21.521] $GPGGA,070819.30,,,,,0,00,0.0,,M,,M,0,0000*52
[2021-02-22 16:08:21.521] $GPGGA,070819.40,,,,,0,00,0.0,,M,,M,0,0000*55
[2021-02-22 16:08:21.521] $GPGGA,070819.50,,,,,0,00,0.0,,M,,M,0,0000*54
[2021-02-22 16:08:21.521] $GPGGA,070819.60,,,,,0,00,0.0,,M,,M,0,0000*57
[2021-02-22 16:08:21.521] $GPGGA,070819.70,,,,,0,00,0.0,,M,,M,0,0000*56
[2021-02-22 16:08:21.521] $GPGGA,070819.80,,,,,0,00,0.0,,M,,M,0,0000*59
[2021-02-22 16:08:21.537] $GPGGA,070819.90,,,,,0,00,0.0,,M,,M,0,0000*58
[2021-02-22 16:08:21.537] $GPGGA,070820.00,,,,,0,00,0.0,,M,,M,0,0000*5B
[2021-02-22 16:08:21.537] $GPGGA,070820.10,,,,,0,00,0.0,,M,,M,0,0000*5A
[2021-02-22 16:08:21.537] $GPGGA,070820.20,,,,,0,00,0.0,,M,,M,0,0000*59
[2021-02-22 16:08:21.537] $GPGGA,070820.30,,,,,0,00,0.0,,M,,M,0,0000*58
[2021-02-22 16:08:21.537] $GPGGA,070820.40,,,,,0,00,0.0,,M,,M,0,0000*5F
[2021-02-22 16:08:21.537] $GPGGA,070820.50,,,,,0,00,0.0,,M,,M,0,0000*5E
[2021-02-22 16:08:21.537] $GPGGA,070820.60,,,,,0,00,0.0,,M,,M,0,0000*5D
[2021-02-22 16:08:21.537] $GPGGA,070820.70,,,,,0,00,0.0,,M,,M,0,0000*5C
[2021-02-22 16:08:21.537] $GPGGA,070820.80,,,,,0,00,0.0,,M,,M,0,0000*53
[2021-02-22 16:08:21.537] $GPGGA,070820.90,,,,,0,00,0.0,,M,,M,0,0000*52
[2021-02-22 16:08:21.537] $GPGGA,070821.00,,,,,0,00,0.0,,M,,M,0,0000*5A
[2021-02-22 16:08:21.537] $GPGGA,070821.10,,,,,0,00,0.0,,M,,M,0,0000*5B
[2021-02-22 16:08:21.599] $GPGGA,070821.20,,,,,0,00,0.0,,M,,M,0,0000*58
[2021-02-22 16:08:21.693] $GPGGA,070821.30,,,,,0,00,0.0,,M,,M,0,0000*59
[2021-02-22 16:08:21.787] $GPGGA,070821.40,,,,,0,00,0.0,,M,,M,0,0000*5E
[2021-02-22 16:08:21.881] $GPGGA,070821.50,,,,,0,00,0.0,,M,,M,0,0000*5F
[2021-02-22 16:08:21.974] $GPGGA,070821.60,,,,,0,00,0.0,,M,,M,0,0000*5C
[2021-02-22 16:08:22.084] $GPGGA,070821.70,,,,,0,00,0.0,,M,,M,0,0000*5D
[2021-02-22 16:08:22.193] $GPGGA,070821.80,,,,,0,00,0.0,,M,,M,0,0000*52
[2021-02-22 16:08:22.287] $GPGGA,070821.90,,,,,0,00,0.0,,M,,M,0,0000*53
[2021-02-22 16:08:22.381] $GPGGA,070822.00,,,,,0,00,0.0,,M,,M,0,0000*59
[2021-02-22 16:08:22.490] $GPGGA,070822.10,,,,,0,00,0.0,,M,,M,0,0000*58
[2021-02-22 16:08:22.584] $GPGGA,070822.20,,,,,0,00,0.0,,M,,M,0,0000*5B
[2021-02-22 16:08:22.677] $GPGGA,070822.30,,,,,0,00,0.0,,M,,M,0,0000*5A
[2021-02-22 16:08:22.771] $GPGGA,070822.40,,,,,0,00,0.0,,M,,M,0,0000*5D
[2021-02-22 16:08:22.896] $GPGGA,070822.50,,,,,0,00,0.0,,M,,M,0,0000*5C
[2021-02-22 16:08:22.990] $GPGGA,070822.60,,,,,0,00,0.0,,M,,M,0,0000*5F
[2021-02-22 16:08:23.084] $GPGGA,070822.70,,,,,0,00,0.0,,M,,M,0,0000*5E
[2021-02-22 16:08:23.177] $GPGGA,070822.80,,,,,0,00,0.0,,M,,M,0,0000*51
[2021-02-22 16:08:23.287] $GPGGA,070822.90,,,,,0,00,0.0,,M,,M,0,0000*50
[2021-02-22 16:08:23.396] $GPGGA,070823.00,,,,,0,00,0.0,,M,,M,0,0000*58
[2021-02-22 16:08:23.474] $GPGGA,070823.10,,,,,0,00,0.0,,M,,M,0,0000*59
[2021-02-22 16:08:23.583] $GPGGA,070823.20,,,,,0,00,0.0,,M,,M,0,0000*5A
[2021-02-22 16:08:23.693] $GPGGA,070823.30,,,,,0,00,0.0,,M,,M,0,0000*5B
[2021-02-22 16:08:23.787] $GPGGA,070823.40,,,,,0,00,0.0,,M,,M,0,0000*5C
[2021-02-22 16:08:23.880] $GPGGA,070823.50,,,,,0,00,0.0,,M,,M,0,0000*5D
[2021-02-22 16:08:24.005] $GPGGA,070823.60,,,,,0,00,0.0,,M,,M,0,0000*5E
[2021-02-22 16:08:24.084] $GPGGA,070823.70,,,,,0,00,0.0,,M,,M,0,0000*5F
[2021-02-22 16:08:24.193] $GPGGA,070823.80,,,,,0,00,0.0,,M,,M,0,0000*50
[2021-02-22 16:08:24.287] $GPGGA,070823.90,,,,,0,00,0.0,,M,,M,0,0000*51
[2021-02-22 16:08:24.396] $GPGGA,070824.00,,,,,0,00,0.0,,M,,M,0,0000*5F
[2021-02-22 16:08:24.490] $GPGGA,070824.10,,,,,0,00,0.0,,M,,M,0,0000*5E
[2021-02-22 16:08:24.583] $GPGGA,070824.20,,,,,0,00,0.0,,M,,M,0,0000*5D
[2021-02-22 16:08:24.677] $GPGGA,070824.30,,,,,0,00,0.0,,M,,M,0,0000*5C
[2021-02-22 16:08:24.802] $GPGGA,070824.40,,,,,0,00,0.0,,M,,M,0,0000*5B
[2021-02-22 16:08:24.896] $GPGGA,070824.50,,,,,0,00,0.0,,M,,M,0,0000*5A
[2021-02-22 16:08:24.990] $GPGGA,070824.60,,,,,0,00,0.0,,M,,M,0,0000*59
[2021-02-22 16:08:25.083] $GPGGA,070824.70,,,,,0,00,0.0,,M,,M,0,0000*58
[2021-02-22 16:08:25.193] $GPGGA,070824.80,,,,,0,00,0.0,,M,,M,0,0000*57
[2021-02-22 16:08:25.287] $GPGGA,070824.90,,,,,0,00,0.0,,M,,M,0,0000*56
[2021-02-22 16:08:25.396] $GPGGA,070825.00,,,,,0,00,0.0,,M,,M,0,0000*5E
[2021-02-22 16:08:25.505] $GPGGA,070825.10,,,,,0,00,0.0,,M,,M,0,0000*5F
[2021-02-22 16:08:25.599] $GPGGA,070825.20,,,,,0,00,0.0,,M,,M,0,0000*5C
[2021-02-22 16:08:25.693] $GPGGA,070825.30,,,,,0,00,0.0,,M,,M,0,0000*5D
[2021-02-22 16:08:25.786] $GPGGA,070825.40,,,,,0,00,0.0,,M,,M,0,0000*5A
[2021-02-22 16:08:25.880] $GPGGA,070825.50,,,,,0,00,0.0,,M,,M,0,0000*5B
[2021-02-22 16:08:25.990] $GPGGA,070825.60,,,,,0,00,0.0,,M,,M,0,0000*58
[2021-02-22 16:08:26.083] $GPGGA,070825.70,,,,,0,00,0.0,,M,,M,0,0000*59
[2021-02-22 16:08:26.193] $GPGGA,070825.80,,,,,0,00,0.0,,M,,M,0,0000*56
[2021-02-22 16:08:26.286] $GPGGA,070825.90,,,,,0,00,0.0,,M,,M,0,0000*57
[2021-02-22 16:08:26.380] $GPGGA,070826.00,,,,,0,00,0.0,,M,,M,0,0000*5D
[2021-02-22 16:08:26.490] $GPGGA,070826.10,,,,,0,00,0.0,,M,,M,0,0000*5C
[2021-02-22 16:08:26.583] $GPGGA,070826.20,,,,,0,00,0.0,,M,,M,0,0000*5F
[2021-02-22 16:08:26.677] $GPGGA,070826.30,,,,,0,00,0.0,,M,,M,0,0000*5E
[2021-02-22 16:08:26.771] $GPGGA,070826.40,,,,,0,00,0.0,,M,,M,0,0000*59
[2021-02-22 16:08:26.896] $GPGGA,070826.50,,,,,0,00,0.0,,M,,M,0,0000*58
[2021-02-22 16:08:26.989] $GPGGA,070826.60,,,,,0,00,0.0,,M,,M,0,0000*5B
[2021-02-22 16:08:27.083] $GPGGA,070826.70,,,,,0,00,0.0,,M,,M,0,0000*5A
[2021-02-22 16:08:27.177] $GPGGA,070826.80,,,,,0,00,0.0,,M,,M,0,0000*55
[2021-02-22 16:08:27.302] $GPGGA,070826.90,,,,,0,00,0.0,,M,,M,0,0000*54
[2021-02-22 16:08:27.380] $GPGGA,070827.00,,,,,0,00,0.0,,M,,M,0,0000*5C
[2021-02-22 16:08:27.474] $GPGGA,070827.10,,,,,0,00,0.0,,M,,M,0,0000*5D
[2021-02-22 16:08:27.599] $GPGGA,070827.20,,,,,0,00,0.0,,M,,M,0,0000*5E
[2021-02-22 16:08:27.693] $GPGGA,070827.30,,,,,0,00,0.0,,M,,M,0,0000*5F
[2021-02-22 16:08:27.786] $GPGGA,070827.40,,,,,0,00,0.0,,M,,M,0,0000*58
[2021-02-22 16:08:27.880] $GPGGA,070827.50,,,,,0,00,0.0,,M,,M,0,0000*59
[2021-02-22 16:08:28.005] $GPGGA,070827.60,,,,,0,00,0.0,,M,,M,0,0000*5A
[2021-02-22 16:08:28.099] $GPGGA,070827.70,,,,,0,00,0.0,,M,,M,0,0000*5B
[2021-02-22 16:08:28.193] $GPGGA,070827.80,,,,,0,00,0.0,,M,,M,0,0000*54
[2021-02-22 16:08:28.286] $GPGGA,070827.90,,,,,0,00,0.0,,M,,M,0,0000*55
[2021-02-22 16:08:28.396] $GPGGA,070828.00,,,,,0,00,0.0,,M,,M,0,0000*53
[2021-02-22 16:08:28.489] $GPGGA,070828.10,,,,,0,00,0.0,,M,,M,0,0000*52
[2021-02-22 16:08:28.583] $GPGGA,070828.20,,,,,0,00,0.0,,M,,M,0,0000*51
[2021-02-22 16:08:28.677] $GPGGA,070828.30,,,,,0,00,0.0,,M,,M,0,0000*50
[2021-02-22 16:08:28.802] $GPGGA,070828.40,,,,,0,00,0.0,,M,,M,0,0000*57
[2021-02-22 16:08:28.896] $GPGGA,070828.50,,,,,0,00,0.0,,M,,M,0,0000*56
[2021-02-22 16:08:28.989] $GPGGA,070828.60,,,,,0,00,0.0,,M,,M,0,0000*55
[2021-02-22 16:08:29.099] $GPGGA,070828.70,,,,,0,00,0.0,,M,,M,0,0000*54
[2021-02-22 16:08:29.208] $GPGGA,070828.80,,,,,0,00,0.0,,M,,M,0,0000*5B
[2021-02-22 16:08:29.286] $GPGGA,070828.90,,,,,0,00,0.0,,M,,M,0,0000*5A
[2021-02-22 16:08:29.380] $GPGGA,070829.00,,,,,0,00,0.0,,M,,M,0,0000*52
[2021-02-22 16:08:29.505] $GPGGA,070829.10,,,,,0,00,0.0,,M,,M,0,0000*53
[2021-02-22 16:08:29.599] $GPGGA,070829.20,,,,,0,00,0.0,,M,,M,0,0000*50
[2021-02-22 16:08:29.692] $GPGGA,070829.30,,,,,0,00,0.0,,M,,M,0,0000*51
[2021-02-22 16:08:29.786] $GPGGA,070829.40,,,,,0,00,0.0,,M,,M,0,0000*56
[2021-02-22 16:08:29.896] $GPGGA,070829.50,,,,,0,00,0.0,,M,,M,0,0000*57
[2021-02-22 16:08:29.989] $GPGGA,070829.60,,,,,0,00,0.0,,M,,M,0,0000*54
[2021-02-22 16:08:30.099] $GPGGA,070829.70,,,,,0,00,0.0,,M,,M,0,0000*55
[2021-02-22 16:08:30.192] $GPGGA,070829.80,,,,,0,00,0.0,,M,,M,0,0000*5A
[2021-02-22 16:08:30.286] $GPGGA,070829.90,,,,,0,00,0.0,,M,,M,0,0000*5B
[2021-02-22 16:08:30.396] $GPGGA,070830.00,,,,,0,00,0.0,,M,,M,0,0000*5A
[2021-02-22 16:08:30.489] $GPGGA,070830.10,,,,,0,00,0.0,,M,,M,0,0000*5B
[2021-02-22 16:08:30.583] $GPGGA,070830.20,,,,,0,00,0.0,,M,,M,0,0000*58
[2021-02-22 16:08:30.677] $GPGGA,070830.30,,,,,0,00,0.0,,M,,M,0,0000*59
[2021-02-22 16:08:30.771] $GPGGA,070830.40,,,,,0,00,0.0,,M,,M,0,0000*5E
[2021-02-22 16:08:30.895] $GPGGA,070830.50,,,,,0,00,0.0,,M,,M,0,0000*5F
[2021-02-22 16:08:30.989] $GPGGA,070830.60,,,,,0,00,0.0,,M,,M,0,0000*5C
[2021-02-22 16:08:31.083] $GPGGA,070830.70,,,,,0,00,0.0,,M,,M,0,0000*5D
[2021-02-22 16:08:31.192] $GPGGA,070830.80,,,,,0,00,0.0,,M,,M,0,0000*52
[2021-02-22 16:08:31.286] $GPGGA,070830.90,,,,,0,00,0.0,,M,,M,0,0000*53
[2021-02-22 16:08:31.380] $GPGGA,070831.00,,,,,0,00,0.0,,M,,M,0,0000*5B
[2021-02-22 16:08:31.474] $GPGGA,070831.10,,,,,0,00,0.0,,M,,M,0,0000*5A
[2021-02-22 16:08:31.599] $GPGGA,070831.20,,,,,0,00,0.0,,M,,M,0,0000*59
[2021-02-22 16:08:31.692] $GPGGA,070831.30,,,,,0,00,0.0,,M,,M,0,0000*58
[2021-02-22 16:08:31.786] $GPGGA,070831.40,,,,,0,00,0.0,,M,,M,0,0000*5F
[2021-02-22 16:08:31.880] $GPGGA,070831.50,,,,,0,00,0.0,,M,,M,0,0000*5E
[2021-02-22 16:08:31.989] $GPGGA,070831.60,,,,,0,00,0.0,,M,,M,0,0000*5D
[2021-02-22 16:08:32.099] $GPGGA,070831.70,,,,,0,00,0.0,,M,,M,0,0000*5C
[2021-02-22 16:08:32.177] $GPGGA,070831.80,,,,,0,00,0.0,,M,,M,0,0000*53
[2021-02-22 16:08:32.286] $GPGGA,070831.90,3713.9813277,N,13701.4175761,E,1,06,9.5,44.6406,M,37.55,M,,*56
[2021-02-22 16:08:32.411] $GPGGA,070832.00,3713.9816218,N,13701.4174336,E,1,06,9.5,43.8863,M,37.55,M,,*51
[2021-02-22 16:08:32.489] $GPGGA,070832.10,3713.9818743,N,13701.4172765,E,1,06,9.5,43.1827,M,37.55,M,,*58
[2021-02-22 16:08:32.614] $GPGGA,070832.20,3713.9823832,N,13701.4168970,E,1,06,9.5,42.3396,M,37.55,M,,*59
[2021-02-22 16:08:32.723] $GPGGA,070832.30,3713.9812464,N,13701.4172863,E,1,06,9.5,45.2088,M,37.55,M,,*57
[2021-02-22 16:08:32.786] $GPGGA,070832.40,3713.9796736,N,13701.4177722,E,1,06,9.5,49.5533,M,37.55,M,,*56
[2021-02-22 16:08:32.911] $GPGGA,070832.50,3713.9570647,N,13701.4232917,E,1,07,1.8,90.1868,M,37.55,M,,*57
[2021-02-22 16:08:32.989] $GPGGA,070832.60,3713.9572495,N,13701.4235434,E,1,07,1.8,91.2458,M,37.55,M,,*5D
[2021-02-22 16:08:33.114] $GPGGA,070832.70,3713.9571015,N,13701.4237169,E,1,07,1.8,91.9106,M,37.55,M,,*59
[2021-02-22 16:08:33.177] $GPGGA,070832.80,3713.9572242,N,13701.4237384,E,1,07,1.8,91.1840,M,37.55,M,,*57
[2021-02-22 16:08:33.317] $GPGGA,070832.90,3713.9573511,N,13701.4236360,E,1,07,1.8,90.6346,M,37.55,M,,*56
[2021-02-22 16:08:33.380] $GPGGA,070833.00,3713.9581018,N,13701.4234742,E,1,07,1.8,90.2637,M,37.55,M,,*5E
[2021-02-22 16:08:33.520] $GPGGA,070833.10,3713.9580658,N,13701.4236343,E,1,07,1.8,91.3300,M,37.55,M,,*5A
[2021-02-22 16:08:33.583] $GPGGA,070833.20,3713.9576587,N,13701.4236064,E,1,07,1.8,90.9709,M,37.55,M,,*51
[2021-02-22 16:08:33.708] $GPGGA,070833.30,3713.9579927,N,13701.4236969,E,1,07,1.8,91.4056,M,37.55,M,,*5C
[2021-02-22 16:08:33.786] $GPGGA,070833.40,3713.9578312,N,13701.4233824,E,1,07,1.8,90.7185,M,37.55,M,,*56
[2021-02-22 16:08:33.911] $GPGGA,070833.50,3713.9585587,N,13701.4234778,E,1,08,1.7,91.7242,M,37.55,M,,*57
[2021-02-22 16:08:33.989] $GPGGA,070833.60,3713.9581469,N,13701.4237442,E,1,08,1.7,93.4736,M,37.55,M,,*5F
[2021-02-22 16:08:34.114] $GPGGA,070833.70,3713.9584148,N,13701.4236148,E,1,08,1.7,91.8470,M,37.55,M,,*5C
[2021-02-22 16:08:34.177] $GPGGA,070833.80,3713.9583829,N,13701.4235308,E,1,08,1.7,91.4927,M,37.55,M,,*5C
[2021-02-22 16:08:34.301] $GPGGA,070833.90,3713.9586064,N,13701.4235867,E,1,08,1.7,91.1521,M,37.55,M,,*54
[2021-02-22 16:08:34.411] $GPGGA,070834.00,3713.9583872,N,13701.4237404,E,1,08,1.7,91.8163,M,37.55,M,,*50
[2021-02-22 16:08:34.489] $GPGGA,070834.10,3713.9580683,N,13701.4235829,E,1,08,1.7,90.4077,M,37.55,M,,*5A
[2021-02-22 16:08:34.614] $GPGGA,070834.20,3713.9581317,N,13701.4234373,E,1,08,1.7,89.8806,M,37.55,M,,*5F
[2021-02-22 16:08:34.692] $GPGGA,070834.30,3713.9576020,N,13701.4234298,E,1,08,1.7,89.6030,M,37.55,M,,*56
[2021-02-22 16:08:34.817] $GPGGA,070834.40,3713.9573445,N,13701.4234283,E,1,08,1.7,89.3136,M,37.55,M,,*5B
[2021-02-22 16:08:34.880] $GPGGA,070834.50,3713.9574298,N,13701.4234432,E,1,08,1.7,89.6779,M,37.55,M,,*5F
[2021-02-22 16:08:35.020] $GPGGA,070834.60,3713.9574128,N,13701.4234110,E,1,08,1.7,89.5672,M,37.55,M,,*58
[2021-02-22 16:08:35.083] $GPGGA,070834.70,3713.9577126,N,13701.4234758,E,1,08,1.7,89.4322,M,37.55,M,,*5F
[2021-02-22 16:08:35.208] $GPGGA,070834.80,3713.9577483,N,13701.4233910,E,1,08,1.7,89.3792,M,37.55,M,,*57
[2021-02-22 16:08:35.286] $GPGGA,070834.90,3713.9577989,N,13701.4234388,E,1,08,1.7,89.4652,M,37.55,M,,*57
[2021-02-22 16:08:35.411] $GPGGA,070835.00,3713.9578452,N,13701.4234439,E,1,08,1.7,89.2683,M,37.55,M,,*5C
[2021-02-22 16:08:35.489] $GPGGA,070835.10,3713.9578943,N,13701.4233820,E,1,08,1.7,88.7460,M,37.55,M,,*58
[2021-02-22 16:08:35.614] $GPGGA,070835.20,3713.9577516,N,13701.4234521,E,1,08,1.7,88.8116,M,37.55,M,,*58
[2021-02-22 16:08:35.676] $GPGGA,070835.30,3713.9577806,N,13701.4234269,E,1,08,1.7,88.7961,M,37.55,M,,*59
[2021-02-22 16:08:35.817] $GPGGA,070835.40,3713.9579029,N,13701.4234008,E,1,08,1.7,88.8190,M,37.55,M,,*59
[2021-02-22 16:08:35.880] $GPGGA,070835.50,3713.9579582,N,13701.4234821,E,1,08,1.7,89.1333,M,37.55,M,,*5C
[2021-02-22 16:08:36.020] $GPGGA,070835.60,3713.9579629,N,13701.4235982,E,1,08,1.7,89.4403,M,37.55,M,,*55
[2021-02-22 16:08:36.083] $GPGGA,070835.70,3713.9579281,N,13701.4236331,E,1,08,1.7,89.7763,M,37.55,M,,*55
[2021-02-22 16:08:36.223] $GPGGA,070835.80,3713.9580460,N,13701.4234944,E,1,08,1.7,89.4219,M,37.55,M,,*54
[2021-02-22 16:08:36.317] $GPGGA,070835.90,3713.9579502,N,13701.4235190,E,1,08,1.7,89.7486,M,37.55,M,,*55
[2021-02-22 16:08:36.380] $GPGGA,070836.00,3713.9579923,N,13701.4233372,E,1,08,1.7,89.7820,M,37.55,M,,*58
[2021-02-22 16:08:36.520] $GPGGA,070836.10,3713.9579526,N,13701.4232111,E,1,08,1.7,89.7909,M,37.55,M,,*5C
[2021-02-22 16:08:36.583] $GPGGA,070836.20,3713.9578025,N,13701.4232915,E,1,08,1.7,89.4461,M,37.55,M,,*54
[2021-02-22 16:08:36.708] $GPGGA,070836.30,3713.9578382,N,13701.4233090,E,1,08,1.7,89.6176,M,37.55,M,,*5F
[2021-02-22 16:08:36.786] $GPGGA,070836.40,3713.9579794,N,13701.4232564,E,1,08,1.7,89.6347,M,37.55,M,,*55
[2021-02-22 16:08:36.911] $GPGGA,070836.50,3713.9579441,N,13701.4232827,E,1,08,1.7,89.6092,M,37.55,M,,*5E
[2021-02-22 16:08:36.989] $GPGGA,070836.60,3713.9579550,N,13701.4232539,E,1,08,1.7,89.3297,M,37.55,M,,*5C
[2021-02-22 16:08:37.114] $GPGGA,070836.70,3713.9579429,N,13701.4232843,E,1,08,1.7,89.3032,M,37.55,M,,*5F
[2021-02-22 16:08:37.176] $GPGGA,070836.80,3713.9579260,N,13701.4233552,E,1,08,1.7,89.4572,M,37.55,M,,*51
[2021-02-22 16:08:37.317] $GPGGA,070836.90,3713.9579318,N,13701.4233458,E,1,08,1.7,89.5018,M,37.55,M,,*5D
[2021-02-22 16:08:37.379] $GPGGA,070837.00,3713.9580087,N,13701.4234286,E,1,08,1.7,89.7420,M,37.55,M,,*59
[2021-02-22 16:08:37.520] $GPGGA,070837.10,3713.9580039,N,13701.4234825,E,1,08,1.7,90.2288,M,37.55,M,,*57
[2021-02-22 16:08:37.583] $GPGGA,070837.20,3713.9579581,N,13701.4234805,E,1,08,1.7,90.6067,M,37.55,M,,*51
[2021-02-22 16:08:37.708] $GPGGA,070837.30,3713.9579476,N,13701.4235577,E,1,08,1.7,90.4323,M,37.55,M,,*51
[2021-02-22 16:08:37.786] $GPGGA,070837.40,3713.9578661,N,13701.4234969,E,1,08,1.7,90.5750,M,37.55,M,,*50
[2021-02-22 16:08:37.911] $GPGGA,070837.50,3713.9578011,N,13701.4234858,E,1,08,1.7,90.4726,M,37.55,M,,*53
[2021-02-22 16:08:38.020] $GPGGA,070837.60,3713.9578855,N,13701.4234711,E,1,08,1.7,90.5886,M,37.55,M,,*5E
[2021-02-22 16:08:38.083] $GPGGA,070837.70,3713.9578771,N,13701.4234754,E,1,08,1.7,90.1730,M,37.55,M,,*51
[2021-02-22 16:08:38.207] $GPGGA,070837.80,3713.9578420,N,13701.4234744,E,1,08,1.7,90.1110,M,37.55,M,,*5C
[2021-02-22 16:08:38.286] $GPGGA,070837.90,3713.9578270,N,13701.4233796,E,1,08,1.7,89.8748,M,37.55,M,,*5C
[2021-02-22 16:08:38.411] $GPGGA,070838.00,3713.9578997,N,13701.4233698,E,1,08,1.7,89.9831,M,37.55,M,,*57
[2021-02-22 16:08:38.489] $GPGGA,070838.10,3713.9578158,N,13701.4234896,E,1,08,1.7,90.1904,M,37.55,M,,*5D
[2021-02-22 16:08:38.614] $GPGGA,070838.20,3713.9577911,N,13701.4235149,E,1,08,1.7,89.9212,M,37.55,M,,*52
[2021-02-22 16:08:38.676] $GPGGA,070838.30,3713.9578246,N,13701.4235788,E,1,08,1.7,89.9763,M,37.55,M,,*5D
[2021-02-22 16:08:38.817] $GPGGA,070838.40,3713.9577884,N,13701.4235753,E,1,08,1.7,89.8587,M,37.55,M,,*5E
[2021-02-22 16:08:38.879] $GPGGA,070838.50,3713.9577592,N,13701.4235202,E,1,08,1.7,89.9030,M,37.55,M,,*5C
[2021-02-22 16:08:39.020] $GPGGA,070838.60,3713.9578726,N,13701.4234872,E,1,08,1.7,90.1482,M,37.55,M,,*5C
[2021-02-22 16:08:39.082] $GPGGA,070838.70,3713.9580058,N,13701.4234648,E,1,08,1.7,89.9461,M,37.55,M,,*5E
[2021-02-22 16:08:39.207] $GPGGA,070838.80,3713.9579108,N,13701.4233450,E,1,08,1.7,89.7101,M,37.55,M,,*52
[2021-02-22 16:08:39.286] $GPGGA,070838.90,3713.9578281,N,13701.4233874,E,1,08,1.7,89.6829,M,37.55,M,,*58
[2021-02-22 16:08:39.411] $GPGGA,070839.00,3713.9579001,N,13701.4232319,E,1,08,1.7,89.6802,M,37.55,M,,*53
[2021-02-22 16:08:39.489] $GPGGA,070839.10,3713.9578825,N,13701.4231823,E,1,08,1.7,89.7179,M,37.55,M,,*58
[2021-02-22 16:08:39.614] $GPGGA,070839.20,3713.9567600,N,13701.4237358,E,1,09,1.3,88.8422,M,37.55,M,,*5D
[2021-02-22 16:08:39.692] $GPGGA,070839.30,3713.9568305,N,13701.4237166,E,1,09,1.3,88.6950,M,37.55,M,,*5A
[2021-02-22 16:08:39.817] $GPGGA,070839.40,3713.9567616,N,13701.4239106,E,1,09,1.3,88.6288,M,37.55,M,,*53
[2021-02-22 16:08:39.910] $GPGGA,070839.50,3713.9568035,N,13701.4238843,E,1,09,1.3,88.7175,M,37.55,M,,*53
[2021-02-22 16:08:39.989] $GPGGA,070839.60,3713.9568809,N,13701.4239631,E,1,09,1.3,88.7360,M,37.55,M,,*5B
[2021-02-22 16:08:40.114] $GPGGA,070839.70,3713.9569616,N,13701.4238721,E,1,09,1.3,88.4755,M,37.55,M,,*5B
[2021-02-22 16:08:40.192] $GPGGA,070839.80,3713.9570350,N,13701.4237689,E,1,09,1.3,88.3963,M,37.55,M,,*5B
[2021-02-22 16:08:40.317] $GPGGA,070839.90,3713.9571086,N,13701.4237276,E,1,09,1.3,88.4506,M,37.55,M,,*5F
[2021-02-22 16:08:40.379] $GPGGA,070840.00,3713.9570611,N,13701.4237634,E,1,09,1.3,88.6276,M,37.55,M,,*51
[2021-02-22 16:08:40.520] $GPGGA,070840.10,3713.9571366,N,13701.4236634,E,1,09,1.3,88.6183,M,37.55,M,,*5C
[2021-02-22 16:08:40.582] $GPGGA,070840.20,3713.9569798,N,13701.4237840,E,1,09,1.3,89.0360,M,37.55,M,,*57
[2021-02-22 16:08:40.707] $GPGGA,070840.30,3713.9571532,N,13701.4236661,E,1,09,1.3,88.8988,M,37.55,M,,*54
[2021-02-22 16:08:40.785] $GPGGA,070840.40,3713.9570064,N,13701.4237392,E,1,09,1.3,89.2940,M,37.55,M,,*53
[2021-02-22 16:08:40.926] $GPGGA,070840.50,3713.9569009,N,13701.4237556,E,1,09,1.3,89.5087,M,37.55,M,,*5A
[2021-02-22 16:08:40.989] $GPGGA,070840.60,3713.9570327,N,13701.4235587,E,1,09,1.3,89.2386,M,37.55,M,,*55
[2021-02-22 16:08:41.114] $GPGGA,070840.70,3713.9572056,N,13701.4234751,E,1,09,1.3,89.1179,M,37.55,M,,*5A
[2021-02-22 16:08:41.176] $GPGGA,070840.80,3713.9572229,N,13701.4234534,E,1,09,1.3,89.2821,M,37.55,M,,*59
[2021-02-22 16:08:41.317] $GPGGA,070840.90,3713.9572287,N,13701.4234976,E,1,09,1.3,89.1857,M,37.55,M,,*54
[2021-02-22 16:08:41.379] $GPGGA,070841.00,3713.9571818,N,13701.4236268,E,1,09,1.3,89.3093,M,37.55,M,,*57
[2021-02-22 16:08:41.504] $GPGGA,070841.10,3713.9572860,N,13701.4235378,E,1,09,1.3,89.4208,M,37.55,M,,*5E
[2021-02-22 16:08:41.613] $GPGGA,070841.20,3713.9573323,N,13701.4234065,E,1,09,1.3,89.1025,M,37.55,M,,*56
[2021-02-22 16:08:41.692] $GPGGA,070841.30,3713.9572496,N,13701.4234689,E,1,09,1.3,89.2509,M,37.55,M,,*53
[2021-02-22 16:08:41.817] $GPGGA,070841.40,3713.9571505,N,13701.4235154,E,1,09,1.3,89.3305,M,37.55,M,,*51
[2021-02-22 16:08:41.879] $GPGGA,070841.50,3713.9571382,N,13701.4235779,E,1,09,1.3,89.4779,M,37.55,M,,*58
[2021-02-22 16:08:42.020] $GPGGA,070841.60,3713.9570694,N,13701.4236131,E,1,09,1.3,89.5997,M,37.55,M,,*5E
[2021-02-22 16:08:42.082] $GPGGA,070841.70,3713.9569912,N,13701.4236393,E,1,09,1.3,89.6591,M,37.55,M,,*55
[2021-02-22 16:08:42.223] $GPGGA,070841.80,3713.9570052,N,13701.4236187,E,1,09,1.3,89.8669,M,37.55,M,,*52
[2021-02-22 16:08:42.285] $GPGGA,070841.90,3713.9568504,N,13701.4237358,E,1,09,1.3,89.7817,M,37.55,M,,*55
[2021-02-22 16:08:42.410] $GPGGA,070842.00,3713.9567520,N,13701.4237701,E,1,10,1.3,89.8426,M,37.55,M,,*57
[2021-02-22 16:08:42.488] $GPGGA,070842.10,3713.9568352,N,13701.4237602,E,1,10,1.3,89.8311,M,37.55,M,,*5B
[2021-02-22 16:08:42.613] $GPGGA,070842.20,3713.9568718,N,13701.4237624,E,1,10,1.3,89.6437,M,37.55,M,,*5B
[2021-02-22 16:08:42.692] $GPGGA,070842.30,3713.9561062,N,13701.4244632,E,1,11,1.0,90.6090,M,37.55,M,,*59
[2021-02-22 16:08:42.817] $GPGGA,070842.40,3713.9560684,N,13701.4245180,E,1,12,1.0,90.6431,M,37.55,M,,*52
[2021-02-22 16:08:42.879] $GPGGA,070842.50,3713.9560180,N,13701.4245846,E,1,12,1.0,90.6330,M,37.55,M,,*55
[2021-02-22 16:08:43.020] $GPGGA,070842.60,3713.9560348,N,13701.4244846,E,1,12,1.0,90.8795,M,37.55,M,,*54
[2021-02-22 16:08:43.082] $GPGGA,070842.70,3713.9560516,N,13701.4244440,E,1,12,1.0,90.8450,M,37.55,M,,*58
[2021-02-22 16:08:43.223] $GPGGA,070842.80,3713.9560351,N,13701.4245059,E,1,12,1.0,90.9192,M,37.55,M,,*55
[2021-02-22 16:08:43.285] $GPGGA,070842.90,3713.9560477,N,13701.4245337,E,1,12,1.0,90.6900,M,37.55,M,,*50
[2021-02-22 16:08:43.410] $GPGGA,070843.00,3713.9559886,N,13701.4246328,E,1,12,1.0,90.7127,M,37.55,M,,*51
[2021-02-22 16:08:43.520] $GPGGA,070843.10,3713.9559842,N,13701.4246383,E,1,12,1.0,90.5559,M,37.55,M,,*56
[2021-02-22 16:08:43.629] $GPGGA,070843.20,3713.9561003,N,13701.4245456,E,5,09,1.4,99.3156,M,37.55,M,1,0000*60
[2021-02-22 16:08:43.723] $GPGGA,070843.30,3713.9561203,N,13701.4244968,E,5,09,1.4,99.2625,M,37.55,M,1,0000*60
[2021-02-22 16:08:43.801] $GPGGA,070843.40,3713.9561238,N,13701.4244950,E,5,09,1.4,99.2800,M,37.55,M,1,0000*6D
[2021-02-22 16:08:43.926] $GPGGA,070843.50,3713.9561338,N,13701.4245046,E,5,09,1.4,99.3369,M,37.55,M,1,0000*67
[2021-02-22 16:08:43.988] $GPGGA,070843.60,3713.9561289,N,13701.4245167,E,5,09,1.4,99.2730,M,37.55,M,1,0000*64
[2021-02-22 16:08:44.113] $GPGGA,070843.70,3713.9561183,N,13701.4245201,E,5,09,1.4,99.2975,M,37.55,M,1,0000*60
[2021-02-22 16:08:44.191] $GPGGA,070843.80,3713.9561053,N,13701.4245312,E,5,09,1.4,99.2893,M,37.55,M,1,0000*69
[2021-02-22 16:08:44.316] $GPGGA,070843.90,3713.9560934,N,13701.4245442,E,5,09,1.4,99.2966,M,37.55,M,1,0000*68
[2021-02-22 16:08:44.395] $GPGGA,070844.00,3713.9560856,N,13701.4245548,E,5,09,1.4,99.3175,M,37.55,M,2,0000*60
[2021-02-22 16:08:44.504] $GPGGA,070844.10,3713.9560803,N,13701.4245720,E,5,09,1.4,99.2441,M,37.55,M,2,0000*6E
[2021-02-22 16:08:44.629] $GPGGA,070844.20,3713.9560721,N,13701.4245761,E,5,09,1.4,99.1842,M,37.55,M,2,0000*6B
[2021-02-22 16:08:45.160] $GPGGA,070844.30,3713.9560706,N,13701.4245763,E,5,09,1.4,99.1967,M,37.55,M,2,0000*6B
[2021-02-22 16:08:45.160] $GPGGA,070844.40,3713.9560639,N,13701.4245750,E,5,09,1.4,99.1531,M,37.55,M,2,0000*6E
[2021-02-22 16:08:45.160] $GPGGA,070844.50,3713.9560541,N,13701.4245674,E,5,09,1.4,99.0894,M,37.55,M,2,0000*67
[2021-02-22 16:08:45.160] $GPGGA,070844.60,3713.9560379,N,13701.4245507,E,5,09,1.4,99.0588,M,37.55,M,2,0000*6E
[2021-02-22 16:08:45.160] $GPGGA,070844.70,3713.9560190,N,13701.4245295,E,5,10,1.4,99.0490,M,37.55,M,2,0000*66
[2021-02-22 16:08:45.223] $GPGGA,070844.80,3713.9560005,N,13701.4245162,E,5,10,1.4,99.0344,M,37.55,M,2,0000*61
[2021-02-22 16:08:45.301] $GPGGA,070844.90,3713.9559855,N,13701.4245131,E,5,10,1.4,99.0557,M,37.55,M,2,0000*65
[2021-02-22 16:08:45.426] $GPGGA,070845.00,3713.9559732,N,13701.4245085,E,5,10,1.4,99.0915,M,37.55,M,3,0000*66
[2021-02-22 16:08:45.519] $GPGGA,070845.10,3713.9559584,N,13701.4245136,E,5,10,1.4,99.1304,M,37.55,M,3,0000*6A
[2021-02-22 16:08:45.629] $GPGGA,070845.20,3713.9559396,N,13701.4245183,E,5,10,1.4,99.1500,M,37.55,M,3,0000*60
[2021-02-22 16:08:45.707] $GPGGA,070845.30,3713.9559232,N,13701.4245168,E,5,10,1.4,99.1759,M,37.55,M,3,0000*65
[2021-02-22 16:08:45.816] $GPGGA,070845.40,3713.9559086,N,13701.4245163,E,5,10,1.4,99.1791,M,37.55,M,3,0000*60
[2021-02-22 16:08:45.894] $GPGGA,070845.50,3713.9558996,N,13701.4245190,E,5,10,1.4,99.1906,M,37.55,M,3,0000*64
[2021-02-22 16:08:46.019] $GPGGA,070845.60,3713.9558883,N,13701.4245147,E,5,10,1.4,99.1792,M,37.55,M,3,0000*6B
[2021-02-22 16:08:46.098] $GPGGA,070845.70,3713.9558810,N,13701.4245141,E,5,10,1.4,99.1802,M,37.55,M,3,0000*60
[2021-02-22 16:08:46.223] $GPGGA,070845.80,3713.9558777,N,13701.4245097,E,5,10,1.4,99.1871,M,37.55,M,3,0000*6F
[2021-02-22 16:08:46.301] $GPGGA,070845.90,3713.9558759,N,13701.4245050,E,5,10,1.4,99.2105,M,37.55,M,3,0000*60
[2021-02-22 16:08:46.426] $GPGGA,070846.00,3713.9558731,N,13701.4244999,E,5,10,1.4,99.2211,M,37.55,M,4,0000*68
[2021-02-22 16:08:46.519] $GPGGA,070846.10,3713.9558700,N,13701.4244937,E,5,10,1.4,99.2485,M,37.55,M,4,0000*64
[2021-02-22 16:08:46.629] $GPGGA,070846.20,3713.9558675,N,13701.4244889,E,5,10,1.4,99.2720,M,37.55,M,4,0000*6C
[2021-02-22 16:08:46.707] $GPGGA,070846.30,3713.9558649,N,13701.4244801,E,5,10,1.4,99.2727,M,37.55,M,4,0000*65
[2021-02-22 16:08:46.816] $GPGGA,070846.40,3713.9558631,N,13701.4244738,E,5,10,1.4,99.2558,M,37.55,M,4,0000*62
[2021-02-22 16:08:46.894] $GPGGA,070846.50,3713.9558598,N,13701.4244679,E,5,10,1.4,99.2489,M,37.55,M,4,0000*6A
[2021-02-22 16:08:47.019] $GPGGA,070846.60,3713.9558525,N,13701.4244620,E,5,10,1.4,99.2570,M,37.55,M,4,0000*64
[2021-02-22 16:08:47.113] $GPGGA,070846.70,3713.9558444,N,13701.4244547,E,5,10,1.4,99.2440,M,37.55,M,4,0000*63
[2021-02-22 16:08:47.207] $GPGGA,070846.80,3713.9558409,N,13701.4244505,E,5,10,1.4,99.2331,M,37.55,M,4,0000*62
[2021-02-22 16:08:47.316] $GPGGA,070846.90,3713.9558379,N,13701.4244483,E,5,10,1.4,99.2380,M,37.55,M,4,0000*66
[2021-02-22 16:08:47.394] $GPGGA,070847.00,3713.9558348,N,13701.4244467,E,5,10,1.4,99.2486,M,37.55,M,5,0000*66
[2021-02-22 16:08:47.504] $GPGGA,070847.10,3713.9558345,N,13701.4244468,E,5,10,1.4,99.2585,M,37.55,M,5,0000*67
[2021-02-22 16:08:47.598] $GPGGA,070847.20,3713.9558324,N,13701.4244453,E,5,10,1.4,99.2641,M,37.55,M,5,0000*60
[2021-02-22 16:08:47.722] $GPGGA,070847.30,3713.9558310,N,13701.4244453,E,5,10,1.4,99.2648,M,37.55,M,5,0000*6F
[2021-02-22 16:08:47.801] $GPGGA,070847.40,3713.9558288,N,13701.4244457,E,5,10,1.4,99.2694,M,37.55,M,5,0000*6D
[2021-02-22 16:08:47.926] $GPGGA,070847.50,3713.9558275,N,13701.4244446,E,5,10,1.4,99.2758,M,37.55,M,5,0000*6F
[2021-02-22 16:08:48.457] $GPGGA,070847.60,3713.9558281,N,13701.4244483,E,5,10,1.4,99.2692,M,37.55,M,5,0000*69
[2021-02-22 16:08:48.457] $GPGGA,070847.70,3713.9558271,N,13701.4244515,E,5,10,1.4,99.2755,M,37.55,M,5,0000*63
[2021-02-22 16:08:48.457] $GPGGA,070847.80,3713.9558278,N,13701.4244514,E,5,10,1.4,99.2779,M,37.55,M,5,0000*6A
[2021-02-22 16:08:48.457] $GPGGA,070847.90,3713.9558292,N,13701.4244537,E,5,10,1.4,99.2975,M,37.55,M,5,0000*6C
[2021-02-22 16:08:48.457] $GPGGA,070848.00,3713.9558328,N,13701.4244542,E,5,10,1.4,99.2945,M,37.55,M,6,0000*68
[2021-02-22 16:08:48.488] $GPGGA,070848.10,3713.9558349,N,13701.4244565,E,5,10,1.4,99.2979,M,37.55,M,6,0000*64
[2021-02-22 16:08:48.613] $GPGGA,070848.20,3713.9558376,N,13701.4244602,E,5,10,1.4,99.3007,M,37.55,M,1,0000*6F
[2021-02-22 16:08:48.722] $GPGGA,070848.30,3713.9558413,N,13701.4244628,E,5,10,1.4,99.2979,M,37.55,M,1,0000*63
[2021-02-22 16:08:48.816] $GPGGA,070848.40,3713.9558456,N,13701.4244656,E,5,10,1.4,99.2924,M,37.55,M,1,0000*64
[2021-02-22 16:08:48.894] $GPGGA,070848.50,3713.9558503,N,13701.4244675,E,5,10,1.4,99.2864,M,37.55,M,1,0000*60
[2021-02-22 16:08:49.019] $GPGGA,070848.60,3713.9558554,N,13701.4244710,E,5,10,1.4,99.2816,M,37.55,M,1,0000*66
[2021-02-22 16:08:49.097] $GPGGA,070848.70,3713.9558596,N,13701.4244730,E,5,10,1.4,99.2770,M,37.55,M,1,0000*64
[2021-02-22 16:08:49.222] $GPGGA,070848.80,3713.9558624,N,13701.4244757,E,5,10,1.4,99.2578,M,37.55,M,1,0000*6A
[2021-02-22 16:08:49.300] $GPGGA,070848.90,3713.9558665,N,13701.4244767,E,5,10,1.4,99.2501,M,37.55,M,1,0000*63
[2021-02-22 16:08:49.425] $GPGGA,070849.00,3713.9558693,N,13701.4244780,E,5,10,1.4,99.2443,M,37.55,M,2,0000*6F
[2021-02-22 16:08:49.519] $GPGGA,070849.10,3713.9558702,N,13701.4244793,E,5,10,1.4,99.2392,M,37.55,M,2,0000*6E
[2021-02-22 16:08:49.613] $GPGGA,070849.20,3713.9558698,N,13701.4244818,E,5,10,1.4,99.2354,M,37.55,M,2,0000*69
[2021-02-22 16:08:49.691] $GPGGA,070849.30,3713.9558695,N,13701.4244835,E,5,10,1.4,99.2367,M,37.55,M,2,0000*6A
[2021-02-22 16:08:49.816] $GPGGA,070849.40,3713.9558680,N,13701.4244854,E,5,10,1.4,99.2366,M,37.55,M,2,0000*6F
[2021-02-22 16:08:49.894] $GPGGA,070849.50,3713.9558672,N,13701.4244895,E,5,10,1.4,99.2439,M,37.55,M,2,0000*63
[2021-02-22 16:08:50.019] $GPGGA,070849.60,3713.9558661,N,13701.4244919,E,5,10,1.4,99.2557,M,37.55,M,2,0000*6E
[2021-02-22 16:08:50.097] $GPGGA,070849.70,3713.9558670,N,13701.4244939,E,5,10,1.4,99.2555,M,37.55,M,2,0000*6F
[2021-02-22 16:08:50.222] $GPGGA,070849.80,3713.9558690,N,13701.4244933,E,5,10,1.4,99.2545,M,37.55,M,2,0000*65
[2021-02-22 16:08:50.300] $GPGGA,070849.90,3713.9558707,N,13701.4244963,E,5,10,1.4,99.2541,M,37.55,M,2,0000*6A
[2021-02-22 16:08:50.425] $GPGGA,070850.00,3713.9558742,N,13701.4244989,E,5,10,1.4,99.2547,M,37.55,M,3,0000*69
[2021-02-22 16:08:50.504] $GPGGA,070850.10,3713.9558779,N,13701.4245027,E,5,10,1.4,99.2608,M,37.55,M,3,0000*64
[2021-02-22 16:08:50.597] $GPGGA,070850.20,3713.9558886,N,13701.4245053,E,5,11,1.3,99.2099,M,37.55,M,3,0000*63
[2021-02-22 16:08:50.722] $GPGGA,070850.30,3713.9558985,N,13701.4245094,E,5,11,1.3,99.1538,M,37.55,M,3,0000*66
[2021-02-22 16:08:50.800] $GPGGA,070850.40,3713.9559084,N,13701.4245134,E,5,11,1.3,99.1016,M,37.55,M,3,0000*6A
[2021-02-22 16:08:50.925] $GPGGA,070850.50,3713.9559180,N,13701.4245151,E,5,11,1.3,99.0251,M,37.55,M,3,0000*6D
[2021-02-22 16:08:51.003] $GPGGA,070850.60,3713.9559263,N,13701.4245185,E,5,11,1.3,98.9579,M,37.55,M,3,0000*6C
[2021-02-22 16:08:51.128] $GPGGA,070850.70,3713.9559349,N,13701.4245198,E,5,11,1.3,98.8983,M,37.55,M,3,0000*60
[2021-02-22 16:08:51.207] $GPGGA,070850.80,3713.9559405,N,13701.4245233,E,5,11,1.3,98.8489,M,37.55,M,3,0000*65
[2021-02-22 16:08:51.316] $GPGGA,070850.90,3713.9559442,N,13701.4245260,E,5,11,1.3,98.8244,M,37.55,M,3,0000*66
[2021-02-22 16:08:51.410] $GPGGA,070851.00,3713.9559476,N,13701.4245273,E,5,11,1.3,98.7979,M,37.55,M,4,0000*66
[2021-02-22 16:08:51.503] $GPGGA,070851.10,3713.9559514,N,13701.4245290,E,5,11,1.3,98.7641,M,37.55,M,4,0000*6B
[2021-02-22 16:08:51.613] $GPGGA,070851.20,3713.9559545,N,13701.4245293,E,5,11,1.3,98.7320,M,37.55,M,4,0000*6D
[2021-02-22 16:08:51.722] $GPGGA,070851.30,3713.9559609,N,13701.4245289,E,5,11,1.3,98.6901,M,37.55,M,4,0000*64
[2021-02-22 16:08:51.800] $GPGGA,070851.40,3713.9559660,N,13701.4245319,E,5,11,1.3,98.6499,M,37.55,M,4,0000*68
[2021-02-22 16:08:51.925] $GPGGA,070851.50,3713.9559723,N,13701.4245364,E,5,11,1.3,98.5958,M,37.55,M,4,0000*66
[2021-02-22 16:08:52.003] $GPGGA,070851.60,3713.9559762,N,13701.4245404,E,5,11,1.3,98.5513,M,37.55,M,4,0000*62
[2021-02-22 16:08:52.128] $GPGGA,070851.70,3713.9559784,N,13701.4245447,E,5,11,1.3,98.5188,M,37.55,M,4,0000*6A
[2021-02-22 16:08:52.207] $GPGGA,070851.80,3713.9559801,N,13701.4245483,E,5,11,1.3,98.4815,M,37.55,M,4,0000*63
[2021-02-22 16:08:52.316] $GPGGA,070851.90,3713.9559825,N,13701.4245527,E,5,11,1.3,98.4494,M,37.55,M,4,0000*6E
[2021-02-22 16:08:52.441] $GPGGA,070852.00,3713.9559851,N,13701.4245547,E,5,11,1.3,98.4156,M,37.55,M,5,0000*6B
[2021-02-22 16:08:52.535] $GPGGA,070852.10,3713.9559885,N,13701.4245555,E,5,11,1.3,98.3804,M,37.55,M,5,0000*69
[2021-02-22 16:08:52.628] $GPGGA,070852.20,3713.9559908,N,13701.4245582,E,5,11,1.3,98.3502,M,37.55,M,5,0000*6F
[2021-02-22 16:08:52.706] $GPGGA,070852.30,3713.9559938,N,13701.4245602,E,5,11,1.3,98.3174,M,37.55,M,5,0000*63
[2021-02-22 16:08:52.816] $GPGGA,070852.40,3713.9559975,N,13701.4245623,E,5,11,1.3,98.2832,M,37.55,M,5,0000*64
[2021-02-22 16:08:52.910] $GPGGA,070852.50,3713.9559991,N,13701.4245657,E,5,11,1.3,98.2608,M,37.55,M,5,0000*6B
[2021-02-22 16:08:53.019] $GPGGA,070852.60,3713.9560003,N,13701.4245676,E,5,11,1.3,98.2455,M,37.55,M,5,0000*69
[2021-02-22 16:08:53.097] $GPGGA,070852.70,3713.9560015,N,13701.4245686,E,5,11,1.3,98.2239,M,37.55,M,5,0000*6C
[2021-02-22 16:08:53.222] $GPGGA,070852.80,3713.9560039,N,13701.4245672,E,5,11,1.3,98.1997,M,37.55,M,5,0000*6A
[2021-02-22 16:08:53.300] $GPGGA,070852.90,3713.9560067,N,13701.4245667,E,5,11,1.3,98.1737,M,37.55,M,5,0000*60
[2021-02-22 16:08:53.425] $GPGGA,070853.00,3713.9560094,N,13701.4245679,E,5,11,1.3,98.1529,M,37.55,M,6,0000*65
[2021-02-22 16:08:53.519] $GPGGA,070853.10,3713.9560136,N,13701.4245696,E,5,11,1.3,98.1286,M,37.55,M,6,0000*6E
[2021-02-22 16:08:53.628] $GPGGA,070853.20,3713.9560157,N,13701.4245695,E,5,11,1.3,98.1136,M,37.55,M,1,0000*66
[2021-02-22 16:08:53.706] $GPGGA,070853.30,3713.9560178,N,13701.4245700,E,5,11,1.3,98.0927,M,37.55,M,1,0000*6E
[2021-02-22 16:08:53.816] $GPGGA,070853.40,3713.9560194,N,13701.4245706,E,5,11,1.3,98.0679,M,37.55,M,1,0000*69
[2021-02-22 16:08:53.910] $GPGGA,070853.50,3713.9560214,N,13701.4245724,E,5,11,1.3,98.0610,M,37.55,M,1,0000*6C
[2021-02-22 16:08:54.034] $GPGGA,070853.60,3713.9560222,N,13701.4245744,E,5,11,1.3,98.0551,M,37.55,M,1,0000*6A
[2021-02-22 16:08:54.128] $GPGGA,070853.70,3713.9560248,N,13701.4245784,E,5,11,1.3,98.0477,M,37.55,M,1,0000*6E
[2021-02-22 16:08:54.206] $GPGGA,070853.80,3713.9560286,N,13701.4245813,E,5,11,1.3,98.0342,M,37.55,M,1,0000*63
[2021-02-22 16:08:54.331] $GPGGA,070853.90,3713.9560312,N,13701.4245831,E,5,11,1.3,98.0258,M,37.55,M,1,0000*64
[2021-02-22 16:08:54.409] $GPGGA,070854.00,3713.9560348,N,13701.4245841,E,5,11,1.3,98.0207,M,37.55,M,2,0000*6B
[2021-02-22 16:08:54.503] $GPGGA,070854.10,3713.9560379,N,13701.4245878,E,5,11,1.3,98.0222,M,37.55,M,2,0000*65
[2021-02-22 16:08:54.613] $GPGGA,070854.20,3713.9560421,N,13701.4245911,E,5,11,1.3,98.0217,M,37.55,M,2,0000*64
[2021-02-22 16:08:54.722] $GPGGA,070854.30,3713.9560450,N,13701.4245942,E,5,11,1.3,98.0203,M,37.55,M,2,0000*60
[2021-02-22 16:08:54.800] $GPGGA,070854.40,3713.9560487,N,13701.4245976,E,5,11,1.3,98.0139,M,37.55,M,2,0000*60
[2021-02-22 16:08:54.925] $GPGGA,070854.50,3713.9560516,N,13701.4246012,E,5,11,1.3,98.0134,M,37.55,M,2,0000*6D
[2021-02-22 16:08:55.003] $GPGGA,070854.60,3713.9560551,N,13701.4246049,E,5,11,1.3,98.0165,M,37.55,M,2,0000*67
[2021-02-22 16:08:55.128] $GPGGA,070854.70,3713.9560584,N,13701.4246087,E,5,11,1.3,98.0104,M,37.55,M,2,0000*6B
[2021-02-22 16:08:55.206] $GPGGA,070854.80,3713.9560610,N,13701.4246138,E,5,11,1.3,97.9993,M,37.55,M,2,0000*6F
[2021-02-22 16:08:55.316] $GPGGA,070854.90,3713.9560635,N,13701.4246189,E,5,11,1.3,97.9957,M,37.55,M,2,0000*6B
[2021-02-22 16:08:55.394] $GPGGA,070855.00,3713.9560673,N,13701.4246223,E,5,11,1.3,97.9897,M,37.55,M,3,0000*6E
[2021-02-22 16:08:55.503] $GPGGA,070855.10,3713.9560710,N,13701.4246243,E,5,11,1.3,97.9832,M,37.55,M,3,0000*62
[2021-02-22 16:08:55.628] $GPGGA,070855.20,3713.9560754,N,13701.4246276,E,5,11,1.3,97.9672,M,37.55,M,3,0000*6D
[2021-02-22 16:08:55.722] $GPGGA,070855.30,3713.9560806,N,13701.4246295,E,5,11,1.3,97.9604,M,37.55,M,3,0000*68
[2021-02-22 16:08:55.800] $GPGGA,070855.40,3713.9560870,N,13701.4246326,E,5,11,1.3,97.9610,M,37.55,M,3,0000*62
[2021-02-22 16:08:55.925] $GPGGA,070855.50,3713.9560921,N,13701.4246369,E,5,11,1.3,97.9629,M,37.55,M,3,0000*67
[2021-02-22 16:08:56.019] $GPGGA,070855.60,3713.9560964,N,13701.4246404,E,5,11,1.3,97.9643,M,37.55,M,3,0000*65
[2021-02-22 16:08:56.112] $GPGGA,070855.70,3713.9560995,N,13701.4246452,E,5,11,1.3,97.9678,M,37.55,M,3,0000*61
[2021-02-22 16:08:56.222] $GPGGA,070855.80,3713.9561028,N,13701.4246477,E,5,11,1.3,97.9630,M,37.55,M,3,0000*6B
[2021-02-22 16:08:56.300] $GPGGA,070855.90,3713.9561050,N,13701.4246510,E,5,11,1.3,97.9562,M,37.55,M,3,0000*61
[2021-02-22 16:08:56.425] $GPGGA,070856.00,3713.9561071,N,13701.4246557,E,5,11,1.3,97.9494,M,37.55,M,4,0000*64
[2021-02-22 16:08:56.519] $GPGGA,070856.10,3713.9561098,N,13701.4246585,E,5,11,1.3,97.9524,M,37.55,M,4,0000*67
[2021-02-22 16:08:56.628] $GPGGA,070856.20,3713.9561133,N,13701.4246602,E,5,11,1.3,97.9488,M,37.55,M,4,0000*6F
[2021-02-22 16:08:56.706] $GPGGA,070856.30,3713.9561165,N,13701.4246624,E,5,11,1.3,97.9450,M,37.55,M,4,0000*6C
[2021-02-22 16:08:56.816] $GPGGA,070856.40,3713.9561189,N,13701.4246641,E,5,11,1.3,97.9385,M,37.55,M,4,0000*65
[2021-02-22 16:08:56.894] $GPGGA,070856.50,3713.9561225,N,13701.4246659,E,5,11,1.3,97.9298,M,37.55,M,4,0000*65
[2021-02-22 16:08:57.019] $GPGGA,070856.60,3713.9561266,N,13701.4246680,E,5,11,1.3,97.9150,M,37.55,M,4,0000*62
[2021-02-22 16:08:57.097] $GPGGA,070856.70,3713.9561281,N,13701.4246710,E,5,11,1.3,97.9111,M,37.55,M,4,0000*67
[2021-02-22 16:08:57.222] $GPGGA,070856.80,3713.9561302,N,13701.4246726,E,5,11,1.3,97.9094,M,37.55,M,4,0000*6B
[2021-02-22 16:08:57.300] $GPGGA,070856.90,3713.9561320,N,13701.4246763,E,5,11,1.3,97.9060,M,37.55,M,4,0000*60
[2021-02-22 16:08:57.425] $GPGGA,070857.00,3713.9561344,N,13701.4246786,E,5,11,1.3,97.8922,M,37.55,M,5,0000*6E
[2021-02-22 16:08:57.519] $GPGGA,070857.10,3713.9561373,N,13701.4246804,E,5,11,1.3,97.8832,M,37.55,M,5,0000*6E
[2021-02-22 16:08:57.628] $GPGGA,070857.20,3713.9561256,N,13701.4246684,E,5,11,1.3,97.8771,M,37.55,M,5,0000*65
[2021-02-22 16:08:57.722] $GPGGA,070857.30,3713.9561210,N,13701.4246636,E,5,11,1.3,97.8730,M,37.55,M,5,0000*6A
[2021-02-22 16:08:57.800] $GPGGA,070857.40,3713.9561201,N,13701.4246639,E,5,11,1.3,97.8741,M,37.55,M,5,0000*64
[2021-02-22 16:08:57.925] $GPGGA,070857.50,3713.9561212,N,13701.4246662,E,5,11,1.3,97.8669,M,37.55,M,5,0000*62
[2021-02-22 16:08:58.003] $GPGGA,070857.60,3713.9561233,N,13701.4246687,E,5,11,1.3,97.8555,M,37.55,M,5,0000*65
[2021-02-22 16:08:58.128] $GPGGA,070857.70,3713.9561242,N,13701.4246706,E,5,11,1.3,97.8542,M,37.55,M,5,0000*6C
[2021-02-22 16:08:58.206] $GPGGA,070857.80,3713.9561252,N,13701.4246716,E,5,11,1.3,97.8572,M,37.55,M,5,0000*60
[2021-02-22 16:08:58.315] $GPGGA,070857.90,3713.9561250,N,13701.4246728,E,5,11,1.3,97.8546,M,37.55,M,5,0000*69
[2021-02-22 16:08:58.409] $GPGGA,070858.00,3713.9561257,N,13701.4246748,E,5,11,1.3,97.8538,M,37.55,M,6,0000*64
[2021-02-22 16:08:58.503] $GPGGA,070858.10,3713.9561251,N,13701.4246765,E,5,11,1.3,97.8576,M,37.55,M,6,0000*66
[2021-02-22 16:08:58.612] $GPGGA,070858.20,3713.9561250,N,13701.4246755,E,5,11,1.3,97.8546,M,37.55,M,1,0000*63
[2021-02-22 16:08:58.722] $GPGGA,070858.30,3713.9561241,N,13701.4246753,E,5,11,1.3,97.8644,M,37.55,M,1,0000*65
[2021-02-22 16:08:58.800] $GPGGA,070858.40,3713.9561246,N,13701.4246757,E,5,11,1.3,97.8665,M,37.55,M,1,0000*62
[2021-02-22 16:08:58.925] $GPGGA,070858.50,3713.9561251,N,13701.4246764,E,5,11,1.3,97.8759,M,37.55,M,1,0000*6B
[2021-02-22 16:08:59.003] $GPGGA,070858.60,3713.9561252,N,13701.4246779,E,5,11,1.3,97.8820,M,37.55,M,1,0000*66
[2021-02-22 16:08:59.128] $GPGGA,070858.70,3713.9561255,N,13701.4246812,E,5,11,1.3,97.8885,M,37.55,M,1,0000*6D
[2021-02-22 16:08:59.206] $GPGGA,070858.80,3713.9561266,N,13701.4246841,E,5,11,1.3,97.8918,M,37.55,M,1,0000*61
[2021-02-22 16:08:59.315] $GPGGA,070858.90,3713.9561279,N,13701.4246855,E,5,11,1.3,97.8938,M,37.55,M,1,0000*69
[2021-02-22 16:08:59.394] $GPGGA,070859.00,3713.9561289,N,13701.4246869,E,5,11,1.3,97.8945,M,37.55,M,2,0000*68
[2021-02-22 16:08:59.503] $GPGGA,070859.10,3713.9561297,N,13701.4246889,E,5,11,1.3,97.8993,M,37.55,M,2,0000*63
[2021-02-22 16:08:59.628] $GPGGA,070859.20,3713.9561317,N,13701.4246915,E,5,11,1.3,97.8964,M,37.55,M,2,0000*65
[2021-02-22 16:08:59.706] $GPGGA,070859.30,3713.9561337,N,13701.4246934,E,5,11,1.3,97.8990,M,37.55,M,2,0000*6E
[2021-02-22 16:08:59.815] $GPGGA,070859.40,3713.9561345,N,13701.4246940,E,5,11,1.3,97.9067,M,37.55,M,2,0000*6F
[2021-02-22 16:08:59.909] $GPGGA,070859.50,3713.9561361,N,13701.4246953,E,5,11,1.3,97.9104,M,37.55,M,2,0000*6E
[2021-02-22 16:09:00.018] $GPGGA,070859.60,3713.9561387,N,13701.4246963,E,5,11,1.3,97.9161,M,37.55,M,2,0000*65
[2021-02-22 16:09:00.097] $GPGGA,070859.70,3713.9561404,N,13701.4246969,E,5,11,1.3,97.9223,M,37.55,M,2,0000*67
[2021-02-22 16:09:00.222] $GPGGA,070859.80,3713.9561411,N,13701.4246983,E,5,11,1.3,97.9270,M,37.55,M,2,0000*6E
[2021-02-22 16:09:00.300] $GPGGA,070859.90,3713.9561423,N,13701.4247001,E,5,11,1.3,97.9302,M,37.55,M,2,0000*68
[2021-02-22 16:09:00.425] $GPGGA,070900.00,3713.9561430,N,13701.4247024,E,5,11,1.3,97.9302,M,37.55,M,3,0000*68
[2021-02-22 16:09:00.518] $GPGGA,070900.10,3713.9561422,N,13701.4247058,E,5,11,1.3,97.9294,M,37.55,M,3,0000*6F
[2021-02-22 16:09:00.628] $GPGGA,070900.20,3713.9561432,N,13701.4247079,E,5,11,1.3,97.9328,M,37.55,M,3,0000*68
[2021-02-22 16:09:00.706] $GPGGA,070900.30,3713.9561433,N,13701.4247101,E,5,11,1.3,97.9329,M,37.55,M,3,0000*67
[2021-02-22 16:09:00.815] $GPGGA,070900.40,3713.9561445,N,13701.4247108,E,5,11,1.3,97.9358,M,37.55,M,3,0000*6E
[2021-02-22 16:09:00.893] $GPGGA,070900.50,3713.9561456,N,13701.4247119,E,5,11,1.3,97.9403,M,37.55,M,3,0000*64
[2021-02-22 16:09:01.018] $GPGGA,070900.60,3713.9561472,N,13701.4247121,E,5,11,1.3,97.9431,M,37.55,M,3,0000*6B
[2021-02-22 16:09:01.097] $GPGGA,070900.70,3713.9561497,N,13701.4247130,E,5,11,1.3,97.9505,M,37.55,M,3,0000*67
[2021-02-22 16:09:01.222] $GPGGA,070900.80,3713.9561529,N,13701.4247139,E,5,11,1.3,97.9548,M,37.55,M,3,0000*6C
[2021-02-22 16:09:01.315] $GPGGA,070900.90,3713.9561591,N,13701.4247149,E,5,11,1.3,97.9524,M,37.55,M,3,0000*63
[2021-02-22 16:09:01.409] $GPGGA,070901.00,3713.9561632,N,13701.4247156,E,5,11,1.3,97.9483,M,37.55,M,4,0000*64
[2021-02-22 16:09:01.503] $GPGGA,070901.10,3713.9561670,N,13701.4247172,E,5,11,1.3,97.9459,M,37.55,M,4,0000*62
[2021-02-22 16:09:01.612] $GPGGA,070901.20,3713.9561692,N,13701.4247185,E,5,11,1.3,97.9472,M,37.55,M,4,0000*6C
[2021-02-22 16:09:01.721] $GPGGA,070901.30,3713.9561726,N,13701.4247200,E,5,11,1.3,97.9500,M,37.55,M,4,0000*69
[2021-02-22 16:09:01.800] $GPGGA,070901.40,3713.9561747,N,13701.4247216,E,5,11,1.3,97.9486,M,37.55,M,4,0000*61
[2021-02-22 16:09:01.956] $GPGGA,070901.50,3713.9561770,N,13701.4247242,E,5,11,1.3,97.9476,M,37.55,M,4,0000*6A
[2021-02-22 16:09:02.003] $GPGGA,070901.60,3713.9561800,N,13701.4247283,E,5,11,1.3,97.9432,M,37.55,M,4,0000*6C
[2021-02-22 16:09:02.128] $GPGGA,070901.70,3713.9561814,N,13701.4247319,E,5,11,1.3,97.9440,M,37.55,M,4,0000*6F
[2021-02-22 16:09:02.206] $GPGGA,070901.80,3713.9561831,N,13701.4247346,E,5,11,1.3,97.9427,M,37.55,M,4,0000*6C
[2021-02-22 16:09:02.315] $GPGGA,070901.90,3713.9561837,N,13701.4247381,E,5,11,1.3,97.9434,M,37.55,M,4,0000*62
[2021-02-22 16:09:02.393] $GPGGA,070902.00,3713.9561845,N,13701.4247405,E,5,11,1.3,97.9394,M,37.55,M,5,0000*6A
[2021-02-22 16:09:02.503] $GPGGA,070902.10,3713.9561847,N,13701.4247434,E,5,11,1.3,97.9402,M,37.55,M,5,0000*63
[2021-02-22 16:09:02.596] $GPGGA,070902.20,3713.9561855,N,13701.4247429,E,5,11,1.3,97.9457,M,37.55,M,5,0000*6F
[2021-02-22 16:09:02.721] $GPGGA,070902.30,3713.9561863,N,13701.4247429,E,5,11,1.3,97.9501,M,37.55,M,5,0000*69
[2021-02-22 16:09:02.800] $GPGGA,070902.40,3713.9561866,N,13701.4247435,E,5,11,1.3,97.9546,M,37.55,M,5,0000*65
[2021-02-22 16:09:02.925] $GPGGA,070902.50,3713.9561880,N,13701.4247445,E,5,11,1.3,97.9550,M,37.55,M,5,0000*6C
[2021-02-22 16:09:03.003] $GPGGA,070902.60,3713.9561902,N,13701.4247456,E,5,11,1.3,97.9550,M,37.55,M,5,0000*66
[2021-02-22 16:09:03.128] $GPGGA,070902.70,3713.9561907,N,13701.4247470,E,5,11,1.3,97.9574,M,37.55,M,5,0000*60
[2021-02-22 16:09:03.221] $GPGGA,070902.80,3713.9561926,N,13701.4247483,E,5,11,1.3,97.9593,M,37.55,M,5,0000*69
[2021-02-22 16:09:03.784] $GPGGA,070902.90,3713.9561924,N,13701.4247499,E,5,11,1.3,97.9534,M,37.55,M,5,0000*6C
[2021-02-22 16:09:03.784] $GPGGA,070903.00,3713.9561926,N,13701.4247515,E,5,11,1.3,97.9504,M,37.55,M,6,0000*63
[2021-02-22 16:09:03.784] $GPGGA,070903.10,3713.9561940,N,13701.4247542,E,5,11,1.3,97.9485,M,37.55,M,6,0000*68
[2021-02-22 16:09:03.784] $GPGGA,070903.20,3713.9561935,N,13701.4247529,E,5,11,1.3,97.9476,M,37.55,M,1,0000*6F
[2021-02-22 16:09:03.784] $GPGGA,070903.30,3713.9561939,N,13701.4247529,E,5,11,1.3,97.9477,M,37.55,M,1,0000*63
[2021-02-22 16:09:03.815] $GPGGA,070903.40,3713.9561937,N,13701.4247543,E,5,11,1.3,97.9505,M,37.55,M,1,0000*62
[2021-02-22 16:09:03.909] $GPGGA,070903.50,3713.9561942,N,13701.4247568,E,5,11,1.3,97.9497,M,37.55,M,1,0000*62
[2021-02-22 16:09:04.018] $GPGGA,070903.60,3713.9561944,N,13701.4247593,E,5,11,1.3,97.9409,M,37.55,M,1,0000*64
[2021-02-22 16:09:04.096] $GPGGA,070903.70,3713.9561939,N,13701.4247615,E,5,11,1.3,97.9352,M,37.55,M,1,0000*6B
[2021-02-22 16:09:04.221] $GPGGA,070903.80,3713.9561951,N,13701.4247625,E,5,11,1.3,97.9274,M,37.55,M,1,0000*6C
[2021-02-22 16:09:04.299] $GPGGA,070903.90,3713.9561963,N,13701.4247636,E,5,11,1.3,97.9203,M,37.55,M,1,0000*6E
[2021-02-22 16:09:04.424] $GPGGA,070904.00,3713.9561961,N,13701.4247642,E,5,11,1.3,97.9141,M,37.55,M,2,0000*67
[2021-02-22 16:09:04.518] $GPGGA,070904.10,3713.9561966,N,13701.4247647,E,5,11,1.3,97.9096,M,37.55,M,2,0000*6F
[2021-02-22 16:09:04.628] $GPGGA,070904.20,3713.9561967,N,13701.4247656,E,5,11,1.3,97.9058,M,37.55,M,2,0000*6F
[2021-02-22 16:09:04.706] $GPGGA,070904.30,3713.9561970,N,13701.4247654,E,5,11,1.3,97.9022,M,37.55,M,2,0000*67
[2021-02-22 16:09:04.831] $GPGGA,070904.40,3713.9561973,N,13701.4247662,E,5,11,1.3,97.9018,M,37.55,M,2,0000*6F
[2021-02-22 16:09:04.924] $GPGGA,070904.50,3713.9561985,N,13701.4247668,E,5,11,1.3,97.8998,M,37.55,M,2,0000*6D
[2021-02-22 16:09:05.003] $GPGGA,070904.60,3713.9561990,N,13701.4247683,E,5,11,1.3,97.8960,M,37.55,M,2,0000*68
[2021-02-22 16:09:05.128] $GPGGA,070904.70,3713.9561991,N,13701.4247702,E,5,11,1.3,97.8948,M,37.55,M,2,0000*6A
[2021-02-22 16:09:05.206] $GPGGA,070904.80,3713.9561990,N,13701.4247722,E,5,11,1.3,97.8915,M,37.55,M,2,0000*6E
[2021-02-22 16:09:05.331] $GPGGA,070904.90,3713.9561994,N,13701.4247750,E,5,11,1.3,97.8913,M,37.55,M,2,0000*68
[2021-02-22 16:09:05.409] $GPGGA,070905.00,3713.9562006,N,13701.4247773,E,5,11,1.3,97.8901,M,37.55,M,3,0000*62
[2021-02-22 16:09:05.502] $GPGGA,070905.10,3713.9562020,N,13701.4247782,E,5,11,1.3,97.8853,M,37.55,M,3,0000*6F
[2021-02-22 16:09:05.627] $GPGGA,070905.20,3713.9562037,N,13701.4247797,E,5,11,1.3,97.8850,M,37.55,M,3,0000*6D
[2021-02-22 16:09:05.721] $GPGGA,070905.30,3713.9562058,N,13701.4247796,E,5,11,1.3,97.8881,M,37.55,M,3,0000*68
[2021-02-22 16:09:05.799] $GPGGA,070905.40,3713.9562073,N,13701.4247806,E,5,11,1.3,97.8906,M,37.55,M,3,0000*6E
[2021-02-22 16:09:05.924] $GPGGA,070905.50,3713.9562081,N,13701.4247811,E,5,11,1.3,97.8945,M,37.55,M,3,0000*63
[2021-02-22 16:09:06.002] $GPGGA,070905.60,3713.9562082,N,13701.4247822,E,5,11,1.3,97.8946,M,37.55,M,3,0000*60
[2021-02-22 16:09:06.127] $GPGGA,070905.70,3713.9562083,N,13701.4247833,E,5,11,1.3,97.8985,M,37.55,M,3,0000*6F
[2021-02-22 16:09:06.206] $GPGGA,070905.80,3713.9562091,N,13701.4247845,E,5,11,1.3,97.9013,M,37.55,M,3,0000*65
[2021-02-22 16:09:06.315] $GPGGA,070905.90,3713.9562091,N,13701.4247839,E,5,11,1.3,97.8999,M,37.55,M,3,0000*65
[2021-02-22 16:09:06.409] $GPGGA,070906.00,3713.9562094,N,13701.4247843,E,5,11,1.3,97.8972,M,37.55,M,4,0000*65
[2021-02-22 16:09:06.502] $GPGGA,070906.10,3713.9562081,N,13701.4247841,E,5,11,1.3,97.8975,M,37.55,M,4,0000*65
[2021-02-22 16:09:06.627] $GPGGA,070906.20,3713.9562061,N,13701.4247849,E,5,11,1.3,97.8949,M,37.55,M,4,0000*6F
[2021-02-22 16:09:06.705] $GPGGA,070906.30,3713.9562062,N,13701.4247852,E,5,11,1.3,97.8872,M,37.55,M,4,0000*6E
[2021-02-22 16:09:06.830] $GPGGA,070906.40,3713.9562042,N,13701.4247854,E,5,11,1.3,97.8783,M,37.55,M,4,0000*6C
[2021-02-22 16:09:06.909] $GPGGA,070906.50,3713.9562030,N,13701.4247854,E,5,11,1.3,97.8758,M,37.55,M,4,0000*6E
[2021-02-22 16:09:07.034] $GPGGA,070906.60,3713.9562014,N,13701.4247856,E,5,11,1.3,97.8720,M,37.55,M,4,0000*66
[2021-02-22 16:09:07.096] $GPGGA,070906.70,3713.9562010,N,13701.4247861,E,5,11,1.3,97.8747,M,37.55,M,4,0000*66
[2021-02-22 16:09:07.221] $GPGGA,070906.80,3713.9562009,N,13701.4247860,E,5,11,1.3,97.8729,M,37.55,M,4,0000*68
[2021-02-22 16:09:07.299] $GPGGA,070906.90,3713.9562009,N,13701.4247868,E,5,11,1.3,97.8695,M,37.55,M,4,0000*67
[2021-02-22 16:09:07.424] $GPGGA,070907.00,3713.9562010,N,13701.4247887,E,5,11,1.3,97.8617,M,37.55,M,5,0000*6D
[2021-02-22 16:09:07.518] $GPGGA,070907.10,3713.9562013,N,13701.4247913,E,5,11,1.3,97.8602,M,37.55,M,5,0000*67
[2021-02-22 16:09:07.627] $GPGGA,070907.20,3713.9562011,N,13701.4247943,E,5,11,1.3,97.8594,M,37.55,M,5,0000*6F
[2021-02-22 16:09:07.705] $GPGGA,070907.30,3713.9562007,N,13701.4247964,E,5,11,1.3,97.8608,M,37.55,M,5,0000*6A
[2021-02-22 16:09:07.830] $GPGGA,070907.40,3713.9562005,N,13701.4247992,E,5,11,1.3,97.8599,M,37.55,M,5,0000*6D
[2021-02-22 16:09:07.909] $GPGGA,070907.50,3713.9562003,N,13701.4248019,E,5,11,1.3,97.8576,M,37.55,M,5,0000*6E
[2021-02-22 16:09:08.034] $GPGGA,070907.60,3713.9562003,N,13701.4248033,E,5,11,1.3,97.8567,M,37.55,M,5,0000*65
[2021-02-22 16:09:08.096] $GPGGA,070907.70,3713.9562009,N,13701.4248046,E,5,11,1.3,97.8542,M,37.55,M,5,0000*6B
[2021-02-22 16:09:08.221] $GPGGA,070907.80,3713.9562002,N,13701.4248050,E,5,11,1.3,97.8478,M,37.55,M,5,0000*60
[2021-02-22 16:09:08.299] $GPGGA,070907.90,3713.9561989,N,13701.4248047,E,5,11,1.3,97.8440,M,37.55,M,5,0000*65
[2021-02-22 16:09:08.424] $GPGGA,070908.00,3713.9561985,N,13701.4248057,E,5,11,1.3,97.8385,M,37.55,M,6,0000*63
[2021-02-22 16:09:08.533] $GPGGA,070908.10,3713.9561980,N,13701.4248059,E,5,11,1.3,97.8366,M,37.55,M,6,0000*64
[2021-02-22 16:09:08.612] $GPGGA,070908.20,3713.9561975,N,13701.4248057,E,5,11,1.3,97.8338,M,37.55,M,1,0000*6F
[2021-02-22 16:09:08.721] $GPGGA,070908.30,3713.9561983,N,13701.4248065,E,5,11,1.3,97.8334,M,37.55,M,1,0000*6A
[2021-02-22 16:09:08.815] $GPGGA,070908.40,3713.9561990,N,13701.4248072,E,5,11,1.3,97.8295,M,37.55,M,1,0000*63
[2021-02-22 16:09:08.924] $GPGGA,070908.50,3713.9562000,N,13701.4248092,E,5,11,1.3,97.8272,M,37.55,M,1,0000*66
[2021-02-22 16:09:09.002] $GPGGA,070908.60,3713.9562020,N,13701.4248096,E,5,11,1.3,97.8261,M,37.55,M,1,0000*61
[2021-02-22 16:09:09.127] $GPGGA,070908.70,3713.9562031,N,13701.4248094,E,5,11,1.3,97.8250,M,37.55,M,1,0000*60
[2021-02-22 16:09:09.205] $GPGGA,070908.80,3713.9562052,N,13701.4248085,E,5,11,1.3,97.8236,M,37.55,M,1,0000*6A
[2021-02-22 16:09:09.315] $GPGGA,070908.90,3713.9562062,N,13701.4248079,E,5,11,1.3,97.8203,M,37.55,M,1,0000*6D
[2021-02-22 16:09:09.408] $GPGGA,070909.00,3713.9562077,N,13701.4248065,E,5,11,1.3,97.8157,M,37.55,M,2,0000*6D
[2021-02-22 16:09:09.502] $GPGGA,070909.10,3713.9562087,N,13701.4248067,E,5,11,1.3,97.8177,M,37.55,M,2,0000*63
[2021-02-22 16:09:09.612] $GPGGA,070909.20,3713.9562083,N,13701.4248077,E,5,11,1.3,97.8201,M,37.55,M,2,0000*67
[2021-02-22 16:09:09.721] $GPGGA,070909.30,3713.9562087,N,13701.4248081,E,5,11,1.3,97.8175,M,37.55,M,2,0000*6B
[2021-02-22 16:09:09.799] $GPGGA,070909.40,3713.9562082,N,13701.4248092,E,5,11,1.3,97.8150,M,37.55,M,2,0000*6C
[2021-02-22 16:09:09.924] $GPGGA,070909.50,3713.9562077,N,13701.4248096,E,5,11,1.3,97.8123,M,37.55,M,2,0000*67
[2021-02-22 16:09:10.002] $GPGGA,070909.60,3713.9562084,N,13701.4248094,E,5,11,1.3,97.8109,M,37.55,M,2,0000*62
[2021-02-22 16:09:10.127] $GPGGA,070909.70,3713.9562099,N,13701.4248099,E,5,11,1.3,97.8150,M,37.55,M,2,0000*6E
[2021-02-22 16:09:10.221] $GPGGA,070909.80,3713.9562112,N,13701.4248094,E,5,11,1.3,97.8169,M,37.55,M,2,0000*64
[2021-02-22 16:09:10.299] $GPGGA,070909.90,3713.9562121,N,13701.4248100,E,5,11,1.3,97.8176,M,37.55,M,2,0000*67
[2021-02-22 16:09:10.424] $GPGGA,070910.00,3713.9562136,N,13701.4248110,E,5,11,1.3,97.8162,M,37.55,M,3,0000*65
[2021-02-22 16:09:10.518] $GPGGA,070910.10,3713.9562135,N,13701.4248112,E,5,11,1.3,97.8162,M,37.55,M,3,0000*65
[2021-02-22 16:09:10.627] $GPGGA,070910.20,3713.9562150,N,13701.4248109,E,5,11,1.3,97.8190,M,37.55,M,3,0000*62
[2021-02-22 16:09:10.705] $GPGGA,070910.30,3713.9562156,N,13701.4248101,E,5,11,1.3,97.8223,M,37.55,M,3,0000*66
[2021-02-22 16:09:10.815] $GPGGA,070910.40,3713.9562162,N,13701.4248100,E,5,11,1.3,97.8254,M,37.55,M,3,0000*67
[2021-02-22 16:09:10.908] $GPGGA,070910.50,3713.9562179,N,13701.4248109,E,5,11,1.3,97.8281,M,37.55,M,3,0000*6D
[2021-02-22 16:09:11.018] $GPGGA,070910.60,3713.9562186,N,13701.4248111,E,5,11,1.3,97.8315,M,37.55,M,3,0000*6B
[2021-02-22 16:09:11.096] $GPGGA,070910.70,3713.9562183,N,13701.4248123,E,5,11,1.3,97.8341,M,37.55,M,3,0000*6F
[2021-02-22 16:09:11.221] $GPGGA,070910.80,3713.9562187,N,13701.4248121,E,5,11,1.3,97.8335,M,37.55,M,3,0000*65
[2021-02-22 16:09:11.299] $GPGGA,070910.90,3713.9562181,N,13701.4248129,E,5,11,1.3,97.8378,M,37.55,M,3,0000*63
[2021-02-22 16:09:11.424] $GPGGA,070911.00,3713.9562179,N,13701.4248133,E,5,11,1.3,97.8399,M,37.55,M,4,0000*6F
[2021-02-22 16:09:11.518] $GPGGA,070911.10,3713.9562174,N,13701.4248122,E,5,11,1.3,97.8395,M,37.55,M,4,0000*6F
[2021-02-22 16:09:11.627] $GPGGA,070911.20,3713.9562152,N,13701.4248129,E,5,11,1.3,97.8401,M,37.55,M,4,0000*69
[2021-02-22 16:09:11.705] $GPGGA,070911.30,3713.9562151,N,13701.4248120,E,5,11,1.3,97.8394,M,37.55,M,4,0000*69
[2021-02-22 16:09:11.815] $GPGGA,070911.40,3713.9562148,N,13701.4248115,E,5,11,1.3,97.8411,M,37.55,M,4,0000*6A
[2021-02-22 16:09:11.908] $GPGGA,070911.50,3713.9562143,N,13701.4248116,E,5,11,1.3,97.8450,M,37.55,M,4,0000*66
