
[2021-02-22 15:41:09.718] ,M,,M,0,0000*55
[2021-02-22 15:41:09.749] $GPGGA,064054.10,,,,,0,00,0.0,,M,,M,0,0000*54
[2021-02-22 15:41:09.749] $GPGGA,064054.20,,,,,0,00,0.0,,M,,M,0,0000*57
[2021-02-22 15:41:09.749] $GPGGA,064054.30,,,,,0,00,0.0,,M,,M,0,0000*56
[2021-02-22 15:41:09.749] $GPGGA,064054.40,,,,,0,00,0.0,,M,,M,0,0000*51
[2021-02-22 15:41:09.749] $GPGGA,064054.50,,,,,0,00,0.0,,M,,M,0,0000*50
[2021-02-22 15:41:09.749] $GPGGA,064054.60,,,,,0,00,0.0,,M,,M,0,0000*53
[2021-02-22 15:41:09.749] $GPGGA,064054.70,,,,,0,00,0.0,,M,,M,0,0000*52
[2021-02-22 15:41:09.749] $GPGGA,064054.80,,,,,0,00,0.0,,M,,M,0,0000*5D
[2021-02-22 15:41:09.749] $GPGGA,064054.90,,,,,0,00,0.0,,M,,M,0,0000*5C
[2021-02-22 15:41:09.749] $GPGGA,064055.00,,,,,0,00,0.0,,M,,M,0,0000*54
[2021-02-22 15:41:09.749] $GPGGA,064055.10,,,,,0,00,0.0,,M,,M,0,0000*55
[2021-02-22 15:41:09.749] $GPGGA,064055.20,,,,,0,00,0.0,,M,,M,0,0000*56
[2021-02-22 15:41:09.749] $GPGGA,064055.30,,,,,0,00,0.0,,M,,M,0,0000*57
[2021-02-22 15:41:09.749] $GPGGA,064055.40,,,,,0,00,0.0,,M,,M,0,0000*50
[2021-02-22 15:41:09.749] $GPGGA,064055.50,,,,,0,00,0.0,,M,,M,0,0000*51
[2021-02-22 15:41:09.749] $GPGGA,064055.60,,,,,0,00,0.0,,M,,M,0,0000*52
[2021-02-22 15:41:09.749] $GPGGA,064055.70,,,,,0,00,0.0,,M,,M,0,0000*53
[2021-02-22 15:41:09.749] $GPGGA,064055.80,,,,,0,00,0.0,,M,,M,0,0000*5C
[2021-02-22 15:41:09.749] $GPGGA,064055.90,,,,,0,00,0.0,,M,,M,0,0000*5D
[2021-02-22 15:41:09.749] $GPGGA,064056.00,,,,,0,00,0.0,,M,,M,0,0000*57
[2021-02-22 15:41:09.749] $GPGGA,064056.10,,,,,0,00,0.0,,M,,M,0,0000*56
[2021-02-22 15:41:09.749] $GPGGA,064056.20,,,,,0,00,0.0,,M,,M,0,0000*55
[2021-02-22 15:41:09.765] $GPGGA,064056.30,,,,,0,00,0.0,,M,,M,0,0000*54
[2021-02-22 15:41:09.765] $GPGGA,064056.40,,,,,0,00,0.0,,M,,M,0,0000*53
[2021-02-22 15:41:09.765] $GPGGA,064056.50,,,,,0,00,0.0,,M,,M,0,0000*52
[2021-02-22 15:41:09.765] $GPGGA,064056.60,,,,,0,00,0.0,,M,,M,0,0000*51
[2021-02-22 15:41:09.765] $GPGGA,064056.70,,,,,0,00,0.0,,M,,M,0,0000*50
[2021-02-22 15:41:09.765] $GPGGA,064056.80,,,,,0,00,0.0,,M,,M,0,0000*5F
[2021-02-22 15:41:09.765] $GPGGA,064056.90,,,,,0,00,0.0,,M,,M,0,0000*5E
[2021-02-22 15:41:09.765] $GPGGA,064057.00,,,,,0,00,0.0,,M,,M,0,0000*56
[2021-02-22 15:41:09.765] $GPGGA,064057.10,,,,,0,00,0.0,,M,,M,0,0000*57
[2021-02-22 15:41:09.765] $GPGGA,064057.20,,,,,0,00,0.0,,M,,M,0,0000*54
[2021-02-22 15:41:09.765] $GPGGA,064057.30,,,,,0,00,0.0,,M,,M,0,0000*55
[2021-02-22 15:41:09.765] $GPGGA,064057.40,,,,,0,00,0.0,,M,,M,0,0000*52
[2021-02-22 15:41:09.765] $GPGGA,064057.50,,,,,0,00,0.0,,M,,M,0,0000*53
[2021-02-22 15:41:09.765] $GPGGA,064057.60,,,,,0,00,0.0,,M,,M,0,0000*50
[2021-02-22 15:41:09.765] $GPGGA,064057.70,,,,,0,00,0.0,,M,,M,0,0000*51
[2021-02-22 15:41:09.765] $GPGGA,064057.80,,,,,0,00,0.0,,M,,M,0,0000*5E
[2021-02-22 15:41:09.765] $GPGGA,064057.90,,,,,0,00,0.0,,M,,M,0,0000*5F
[2021-02-22 15:41:09.765] $GPGGA,064058.00,,,,,0,00,0.0,,M,,M,0,0000*59
[2021-02-22 15:41:09.765] $GPGGA,064058.10,,,,,0,00,0.0,,M,,M,0,0000*58
[2021-02-22 15:41:09.765] $GPGGA,064058.20,,,,,0,00,0.0,,M,,M,0,0000*5B
[2021-02-22 15:41:09.765] $GPGGA,064058.30,,,,,0,00,0.0,,M,,M,0,0000*5A
[2021-02-22 15:41:09.765] $GPGGA,064058.40,,,,,0,00,0.0,,M,,M,0,0000*5D
[2021-02-22 15:41:09.780] $GPGGA,064058.50,,,,,0,00,0.0,,M,,M,0,0000*5C
[2021-02-22 15:41:09.780] $GPGGA,064058.60,,,,,0,00,0.0,,M,,M,0,0000*5F
[2021-02-22 15:41:09.780] $GPGGA,064058.70,,,,,0,00,0.0,,M,,M,0,0000*5E
[2021-02-22 15:41:09.780] $GPGGA,064058.80,,,,,0,00,0.0,,M,,M,0,0000*51
[2021-02-22 15:41:09.780] $GPGGA,064058.90,,,,,0,00,0.0,,M,,M,0,0000*50
[2021-02-22 15:41:09.780] $GPGGA,064059.00,,,,,0,00,0.0,,M,,M,0,0000*58
[2021-02-22 15:41:09.780] $GPGGA,064059.10,,,,,0,00,0.0,,M,,M,0,0000*59
[2021-02-22 15:41:09.780] $GPGGA,064059.20,,,,,0,00,0.0,,M,,M,0,0000*5A
[2021-02-22 15:41:09.780] $GPGGA,064059.30,,,,,0,00,0.0,,M,,M,0,0000*5B
[2021-02-22 15:41:09.780] $GPGGA,064059.40,,,,,0,00,0.0,,M,,M,0,0000*5C
[2021-02-22 15:41:09.780] $GPGGA,064059.50,,,,,0,00,0.0,,M,,M,0,0000*5D
[2021-02-22 15:41:09.780] $GPGGA,064059.60,,,,,0,00,0.0,,M,,M,0,0000*5E
[2021-02-22 15:41:09.780] $GPGGA,064059.70,,,,,0,00,0.0,,M,,M,0,0000*5F
[2021-02-22 15:41:09.780] $GPGGA,064059.80,,,,,0,00,0.0,,M,,M,0,0000*50
[2021-02-22 15:41:09.780] $GPGGA,064059.90,,,,,0,00,0.0,,M,,M,0,0000*51
[2021-02-22 15:41:09.780] $GPGGA,064100.00,,,,,0,00,0.0,,M,,M,0,0000*55
[2021-02-22 15:41:09.780] $GPGGA,064100.10,,,,,0,00,0.0,,M,,M,0,0000*54
[2021-02-22 15:41:09.780] $GPGGA,064100.20,,,,,0,00,0.0,,M,,M,0,0000*57
[2021-02-22 15:41:09.780] $GPGGA,064100.30,,,,,0,00,0.0,,M,,M,0,0000*56
[2021-02-22 15:41:09.780] $GPGGA,064100.40,,,,,0,00,0.0,,M,,M,0,0000*51
[2021-02-22 15:41:09.780] $GPGGA,064100.50,,,,,0,00,0.0,,M,,M,0,0000*50
[2021-02-22 15:41:09.796] $GPGGA,064100.60,,,,,0,00,0.0,,M,,M,0,0000*53
[2021-02-22 15:41:09.796] $GPGGA,064100.70,,,,,0,00,0.0,,M,,M,0,0000*52
[2021-02-22 15:41:09.796] $GPGGA,064100.80,,,,,0,00,0.0,,M,,M,0,0000*5D
[2021-02-22 15:41:09.796] $GPGGA,064100.90,,,,,0,00,0.0,,M,,M,0,0000*5C
[2021-02-22 15:41:09.796] $GPGGA,064101.00,,,,,0,00,0.0,,M,,M,0,0000*54
[2021-02-22 15:41:09.796] $GPGGA,064101.10,,,,,0,00,0.0,,M,,M,0,0000*55
[2021-02-22 15:41:09.796] $GPGGA,064101.20,,,,,0,00,0.0,,M,,M,0,0000*56
[2021-02-22 15:41:09.796] $GPGGA,064101.30,,,,,0,00,0.0,,M,,M,0,0000*57
[2021-02-22 15:41:09.796] $GPGGA,064101.40,,,,,0,00,0.0,,M,,M,0,0000*50
[2021-02-22 15:41:09.796] $GPGGA,064101.50,,,,,0,00,0.0,,M,,M,0,0000*51
[2021-02-22 15:41:09.796] $GPGGA,064101.60,,,,,0,00,0.0,,M,,M,0,0000*52
[2021-02-22 15:41:09.796] $GPGGA,064101.70,,,,,0,00,0.0,,M,,M,0,0000*53
[2021-02-22 15:41:09.796] $GPGGA,064101.80,,,,,0,00,0.0,,M,,M,0,0000*5C
[2021-02-22 15:41:09.796] $GPGGA,064101.90,,,,,0,00,0.0,,M,,M,0,0000*5D
[2021-02-22 15:41:09.796] $GPGGA,064102.00,,,,,0,00,0.0,,M,,M,0,0000*57
[2021-02-22 15:41:09.796] $GPGGA,064102.10,,,,,0,00,0.0,,M,,M,0,0000*56
[2021-02-22 15:41:09.796] $GPGGA,064102.20,,,,,0,00,0.0,,M,,M,0,0000*55
[2021-02-22 15:41:09.796] $GPGGA,064102.30,,,,,0,00,0.0,,M,,M,0,0000*54
[2021-02-22 15:41:09.796] $GPGGA,064102.40,,,,,0,00,0.0,,M,,M,0,0000*53
[2021-02-22 15:41:09.796] $GPGGA,064102.50,,,,,0,00,0.0,,M,,M,0,0000*52
[2021-02-22 15:41:09.796] $GPGGA,064102.60,,,,,0,00,0.0,,M,,M,0,0000*51
[2021-02-22 15:41:09.796] $GPGGA,064102.70,,,,,0,00,0.0,,M,,M,0,0000*50
[2021-02-22 15:41:09.811] $GPGGA,064102.80,,,,,0,00,0.0,,M,,M,0,0000*5F
[2021-02-22 15:41:09.811] $GPGGA,064102.90,,,,,0,00,0.0,,M,,M,0,0000*5E
[2021-02-22 15:41:09.811] $GPGGA,064103.00,,,,,0,00,0.0,,M,,M,0,0000*56
[2021-02-22 15:41:09.811] $GPGGA,064103.10,,,,,0,00,0.0,,M,,M,0,0000*57
[2021-02-22 15:41:09.811] $GPGGA,064103.20,,,,,0,00,0.0,,M,,M,0,0000*54
[2021-02-22 15:41:09.811] $GPGGA,064103.30,,,,,0,00,0.0,,M,,M,0,0000*55
[2021-02-22 15:41:09.811] $GPGGA,064103.40,,,,,0,00,0.0,,M,,M,0,0000*52
[2021-02-22 15:41:09.811] $GPGGA,064103.50,,,,,0,00,0.0,,M,,M,0,0000*53
[2021-02-22 15:41:09.811] $GPGGA,064103.60,,,,,0,00,0.0,,M,,M,0,0000*50
[2021-02-22 15:41:09.811] $GPGGA,064103.70,,,,,0,00,0.0,,M,,M,0,0000*51
[2021-02-22 15:41:09.811] $GPGGA,064103.80,,,,,0,00,0.0,,M,,M,0,0000*5E
[2021-02-22 15:41:09.811] $GPGGA,064103.90,,,,,0,00,0.0,,M,,M,0,0000*5F
[2021-02-22 15:41:09.811] $GPGGA,064104.00,,,,,0,00,0.0,,M,,M,0,0000*51
[2021-02-22 15:41:09.811] $GPGGA,064104.10,,,,,0,00,0.0,,M,,M,0,0000*50
[2021-02-22 15:41:09.811] $GPGGA,064104.20,,,,,0,00,0.0,,M,,M,0,0000*53
[2021-02-22 15:41:09.811] $GPGGA,064104.30,,,,,0,00,0.0,,M,,M,0,0000*52
[2021-02-22 15:41:09.811] $GPGGA,064104.40,,,,,0,00,0.0,,M,,M,0,0000*55
[2021-02-22 15:41:09.811] $GPGGA,064104.50,,,,,0,00,0.0,,M,,M,0,0000*54
[2021-02-22 15:41:09.811] $GPGGA,064104.60,,,,,0,00,0.0,,M,,M,0,0000*57
[2021-02-22 15:41:09.811] $GPGGA,064104.70,,,,,0,00,0.0,,M,,M,0,0000*56
[2021-02-22 15:41:09.811] $GPGGA,064104.80,,,,,0,00,0.0,,M,,M,0,0000*59
[2021-02-22 15:41:09.827] $GPGGA,064104.90,,,,,0,00,0.0,,M,,M,0,0000*58
[2021-02-22 15:41:09.827] $GPGGA,064105.00,,,,,0,00,0.0,,M,,M,0,0000*50
[2021-02-22 15:41:09.827] $GPGGA,064105.10,,,,,0,00,0.0,,M,,M,0,0000*51
[2021-02-22 15:41:09.827] $GPGGA,064105.20,,,,,0,00,0.0,,M,,M,0,0000*52
[2021-02-22 15:41:09.827] $GPGGA,064105.30,,,,,0,00,0.0,,M,,M,0,0000*53
[2021-02-22 15:41:09.827] $GPGGA,064105.40,,,,,0,00,0.0,,M,,M,0,0000*54
[2021-02-22 15:41:09.827] $GPGGA,064105.50,,,,,0,00,0.0,,M,,M,0,0000*55
[2021-02-22 15:41:09.827] $GPGGA,064105.60,,,,,0,00,0.0,,M,,M,0,0000*56
[2021-02-22 15:41:09.827] $GPGGA,064105.70,,,,,0,00,0.0,,M,,M,0,0000*57
[2021-02-22 15:41:09.827] $GPGGA,064105.80,,,,,0,00,0.0,,M,,M,0,0000*58
[2021-02-22 15:41:09.827] $GPGGA,064105.90,,,,,0,00,0.0,,M,,M,0,0000*59
[2021-02-22 15:41:09.827] $GPGGA,064106.00,,,,,0,00,0.0,,M,,M,0,0000*53
[2021-02-22 15:41:09.827] $GPGGA,064106.10,,,,,0,00,0.0,,M,,M,0,0000*52
[2021-02-22 15:41:09.827] $GPGGA,064106.20,,,,,0,00,0.0,,M,,M,0,0000*51
[2021-02-22 15:41:09.827] $GPGGA,064106.30,,,,,0,00,0.0,,M,,M,0,0000*50
[2021-02-22 15:41:09.827] $GPGGA,064106.40,,,,,0,00,0.0,,M,,M,0,0000*57
[2021-02-22 15:41:09.827] $GPGGA,064106.50,,,,,0,00,0.0,,M,,M,0,0000*56
[2021-02-22 15:41:09.827] $GPGGA,064106.60,,,,,0,00,0.0,,M,,M,0,0000*55
[2021-02-22 15:41:09.827] $GPGGA,064106.70,,,,,0,00,0.0,,M,,M,0,0000*54
[2021-02-22 15:41:09.827] $GPGGA,064106.80,,,,,0,00,0.0,,M,,M,0,0000*5B
[2021-02-22 15:41:09.827] $GPGGA,064106.90,,,,,0,00,0.0,,M,,M,0,0000*5A
[2021-02-22 15:41:09.827] $GPGGA,064107.00,,,,,0,00,0.0,,M,,M,0,0000*52
[2021-02-22 15:41:09.843] $GPGGA,064107.10,,,,,0,00,0.0,,M,,M,0,0000*53
[2021-02-22 15:41:09.843] $GPGGA,064107.20,,,,,0,00,0.0,,M,,M,0,0000*50
[2021-02-22 15:41:09.843] $GPGGA,064107.30,,,,,0,00,0.0,,M,,M,0,0000*51
[2021-02-22 15:41:09.843] $GPGGA,064107.40,,,,,0,00,0.0,,M,,M,0,0000*56
[2021-02-22 15:41:09.843] $GPGGA,064107.50,,,,,0,00,0.0,,M,,M,0,0000*57
[2021-02-22 15:41:09.843] $GPGGA,064107.60,,,,,0,00,0.0,,M,,M,0,0000*54
[2021-02-22 15:41:09.843] $GPGGA,064107.70,,,,,0,00,0.0,,M,,M,0,0000*55
[2021-02-22 15:41:09.843] $GPGGA,064107.80,,,,,0,00,0.0,,M,,M,0,0000*5A
[2021-02-22 15:41:09.843] $GPGGA,064107.90,,,,,0,00,0.0,,M,,M,0,0000*5B
[2021-02-22 15:41:09.843] $GPGGA,064108.00,,,,,0,00,0.0,,M,,M,0,0000*5D
[2021-02-22 15:41:09.843] $GPGGA,064108.10,,,,,0,00,0.0,,M,,M,0,0000*5C
[2021-02-22 15:41:09.843] $GPGGA,064108.20,,,,,0,00,0.0,,M,,M,0,0000*5F
[2021-02-22 15:41:09.843] $GPGGA,064108.30,,,,,0,00,0.0,,M,,M,0,0000*5E
[2021-02-22 15:41:09.843] $GPGGA,064108.40,,,,,0,00,0.0,,M,,M,0,0000*59
[2021-02-22 15:41:09.843] $GPGGA,064108.50,,,,,0,00,0.0,,M,,M,0,0000*58
[2021-02-22 15:41:09.843] $GPGGA,064108.60,,,,,0,00,0.0,,M,,M,0,0000*5B
[2021-02-22 15:41:09.843] $GPGGA,064108.70,,,,,0,00,0.0,,M,,M,0,0000*5A
[2021-02-22 15:41:09.843] $GPGGA,064108.80,,,,,0,00,0.0,,M,,M,0,0000*55
[2021-02-22 15:41:09.843] $GPGGA,064108.90,,,,,0,00,0.0,,M,,M,0,0000*54
[2021-02-22 15:41:09.843] $GPGGA,064109.00,,,,,0,00,0.0,,M,,M,0,0000*5C
[2021-02-22 15:41:09.843] $GPGGA,064109.10,,,,,0,00,0.0,,M,,M,0,0000*5D
[2021-02-22 15:41:09.843] $GPGGA,064109.20,,,,,0,00,0.0,,M,,M,0,0000*5E
[2021-02-22 15:41:09.843] $GPGGA,064109.30,,,,,0,00,0.0,,M,,M,0,0000*5F
[2021-02-22 15:41:09.843] $GPGGA,064109.40,,,,,0,00,0.0,,M,,M,0,0000*58
[2021-02-22 15:41:09.890] $GPGGA,064109.50,,,,,0,00,0.0,,M,,M,0,0000*59
[2021-02-22 15:41:09.983] $GPGGA,064109.60,,,,,0,00,0.0,,M,,M,0,0000*5A
[2021-02-22 15:41:10.077] $GPGGA,064109.70,,,,,0,00,0.0,,M,,M,0,0000*5B
[2021-02-22 15:41:10.202] $GPGGA,064109.80,,,,,0,00,0.0,,M,,M,0,0000*54
[2021-02-22 15:41:10.296] $GPGGA,064109.90,,,,,0,00,0.0,,M,,M,0,0000*55
[2021-02-22 15:41:10.390] $GPGGA,064110.00,,,,,0,00,0.0,,M,,M,0,0000*54
[2021-02-22 15:41:10.499] $GPGGA,064110.10,,,,,0,00,0.0,,M,,M,0,0000*55
[2021-02-22 15:41:10.593] $GPGGA,064110.20,,,,,0,00,0.0,,M,,M,0,0000*56
[2021-02-22 15:41:10.686] $GPGGA,064110.30,,,,,0,00,0.0,,M,,M,0,0000*57
[2021-02-22 15:41:10.780] $GPGGA,064110.40,,,,,0,00,0.0,,M,,M,0,0000*50
[2021-02-22 15:41:10.905] $GPGGA,064110.50,,,,,0,00,0.0,,M,,M,0,0000*51
[2021-02-22 15:41:10.999] $GPGGA,064110.60,,,,,0,00,0.0,,M,,M,0,0000*52
[2021-02-22 15:41:11.093] $GPGGA,064110.70,,,,,0,00,0.0,,M,,M,0,0000*53
[2021-02-22 15:41:11.186] $GPGGA,064110.80,,,,,0,00,0.0,,M,,M,0,0000*5C
[2021-02-22 15:41:11.296] $GPGGA,064110.90,,,,,0,00,0.0,,M,,M,0,0000*5D
[2021-02-22 15:41:11.390] $GPGGA,064111.00,,,,,0,00,0.0,,M,,M,0,0000*55
[2021-02-22 15:41:11.483] $GPGGA,064111.10,,,,,0,00,0.0,,M,,M,0,0000*54
[2021-02-22 15:41:11.577] $GPGGA,064111.20,,,,,0,00,0.0,,M,,M,0,0000*57
[2021-02-22 15:41:11.702] $GPGGA,064111.30,,,,,0,00,0.0,,M,,M,0,0000*56
[2021-02-22 15:41:11.796] $GPGGA,064111.40,,,,,0,00,0.0,,M,,M,0,0000*51
[2021-02-22 15:41:11.889] $GPGGA,064111.50,,,,,0,00,0.0,,M,,M,0,0000*50
[2021-02-22 15:41:11.983] $GPGGA,064111.60,,,,,0,00,0.0,,M,,M,0,0000*53
[2021-02-22 15:41:12.093] $GPGGA,064111.70,,,,,0,00,0.0,,M,,M,0,0000*52
[2021-02-22 15:41:12.202] $GPGGA,064111.80,,,,,0,00,0.0,,M,,M,0,0000*5D
[2021-02-22 15:41:12.296] $GPGGA,064111.90,,,,,0,00,0.0,,M,,M,0,0000*5C
[2021-02-22 15:41:12.405] $GPGGA,064112.00,,,,,0,00,0.0,,M,,M,0,0000*56
[2021-02-22 15:41:12.499] $GPGGA,064112.10,,,,,0,00,0.0,,M,,M,0,0000*57
[2021-02-22 15:41:12.593] $GPGGA,064112.20,,,,,0,00,0.0,,M,,M,0,0000*54
[2021-02-22 15:41:12.686] $GPGGA,064112.30,,,,,0,00,0.0,,M,,M,0,0000*55
[2021-02-22 15:41:12.811] $GPGGA,064112.40,,,,,0,00,0.0,,M,,M,0,0000*52
[2021-02-22 15:41:12.889] $GPGGA,064112.50,,,,,0,00,0.0,,M,,M,0,0000*53
[2021-02-22 15:41:12.999] $GPGGA,064112.60,,,,,0,00,0.0,,M,,M,0,0000*50
[2021-02-22 15:41:13.092] $GPGGA,064112.70,,,,,0,00,0.0,,M,,M,0,0000*51
[2021-02-22 15:41:13.202] $GPGGA,064112.80,,,,,0,00,0.0,,M,,M,0,0000*5E
[2021-02-22 15:41:13.296] $GPGGA,064112.90,,,,,0,00,0.0,,M,,M,0,0000*5F
[2021-02-22 15:41:13.389] $GPGGA,064113.00,,,,,0,00,0.0,,M,,M,0,0000*57
[2021-02-22 15:41:13.483] $GPGGA,064113.10,,,,,0,00,0.0,,M,,M,0,0000*56
[2021-02-22 15:41:13.577] $GPGGA,064113.20,,,,,0,00,0.0,,M,,M,0,0000*55
[2021-02-22 15:41:13.702] $GPGGA,064113.30,,,,,0,00,0.0,,M,,M,0,0000*54
[2021-02-22 15:41:13.796] $GPGGA,064113.40,,,,,0,00,0.0,,M,,M,0,0000*53
[2021-02-22 15:41:13.889] $GPGGA,064113.50,,,,,0,00,0.0,,M,,M,0,0000*52
[2021-02-22 15:41:13.983] $GPGGA,064113.60,,,,,0,00,0.0,,M,,M,0,0000*51
[2021-02-22 15:41:14.092] $GPGGA,064113.70,,,,,0,00,0.0,,M,,M,0,0000*50
[2021-02-22 15:41:14.202] $GPGGA,064113.80,,,,,0,00,0.0,,M,,M,0,0000*5F
[2021-02-22 15:41:14.296] $GPGGA,064113.90,,,,,0,00,0.0,,M,,M,0,0000*5E
[2021-02-22 15:41:14.389] $GPGGA,064114.00,,,,,0,00,0.0,,M,,M,0,0000*50
[2021-02-22 15:41:14.499] $GPGGA,064114.10,,,,,0,00,0.0,,M,,M,0,0000*51
[2021-02-22 15:41:14.592] $GPGGA,064114.20,,,,,0,00,0.0,,M,,M,0,0000*52
[2021-02-22 15:41:14.686] $GPGGA,064114.30,,,,,0,00,0.0,,M,,M,0,0000*53
[2021-02-22 15:41:14.780] $GPGGA,064114.40,,,,,0,00,0.0,,M,,M,0,0000*54
[2021-02-22 15:41:14.889] $GPGGA,064114.50,,,,,0,00,0.0,,M,,M,0,0000*55
[2021-02-22 15:41:14.999] $GPGGA,064114.60,,,,,0,00,0.0,,M,,M,0,0000*56
[2021-02-22 15:41:15.092] $GPGGA,064114.70,,,,,0,00,0.0,,M,,M,0,0000*57
[2021-02-22 15:41:15.186] $GPGGA,064114.80,,,,,0,00,0.0,,M,,M,0,0000*58
[2021-02-22 15:41:15.295] $GPGGA,064114.90,,,,,0,00,0.0,,M,,M,0,0000*59
[2021-02-22 15:41:15.389] $GPGGA,064115.00,,,,,0,00,0.0,,M,,M,0,0000*51
[2021-02-22 15:41:15.483] $GPGGA,064115.10,,,,,0,00,0.0,,M,,M,0,0000*50
[2021-02-22 15:41:15.577] $GPGGA,064115.20,,,,,0,00,0.0,,M,,M,0,0000*53
[2021-02-22 15:41:15.702] $GPGGA,064115.30,,,,,0,00,0.0,,M,,M,0,0000*52
[2021-02-22 15:41:15.795] $GPGGA,064115.40,,,,,0,00,0.0,,M,,M,0,0000*55
[2021-02-22 15:41:15.889] $GPGGA,064115.50,,,,,0,00,0.0,,M,,M,0,0000*54
[2021-02-22 15:41:15.999] $GPGGA,064115.60,,,,,0,00,0.0,,M,,M,0,0000*57
[2021-02-22 15:41:16.092] $GPGGA,064115.70,,,,,0,00,0.0,,M,,M,0,0000*56
[2021-02-22 15:41:16.202] $GPGGA,064115.80,,,,,0,00,0.0,,M,,M,0,0000*59
[2021-02-22 15:41:16.280] $GPGGA,064115.90,,,,,0,00,0.0,,M,,M,0,0000*58
[2021-02-22 15:41:16.405] $GPGGA,064116.00,,,,,0,00,0.0,,M,,M,0,0000*52
[2021-02-22 15:41:16.498] $GPGGA,064116.10,,,,,0,00,0.0,,M,,M,0,0000*53
[2021-02-22 15:41:16.592] $GPGGA,064116.20,,,,,0,00,0.0,,M,,M,0,0000*50
[2021-02-22 15:41:16.686] $GPGGA,064116.30,,,,,0,00,0.0,,M,,M,0,0000*51
[2021-02-22 15:41:16.795] $GPGGA,064116.40,,,,,0,00,0.0,,M,,M,0,0000*56
[2021-02-22 15:41:16.889] $GPGGA,064116.50,,,,,0,00,0.0,,M,,M,0,0000*57
[2021-02-22 15:41:16.983] $GPGGA,064116.60,,,,,0,00,0.0,,M,,M,0,0000*54
[2021-02-22 15:41:17.092] $GPGGA,064116.70,,,,,0,00,0.0,,M,,M,0,0000*55
[2021-02-22 15:41:17.202] $GPGGA,064116.80,,,,,0,00,0.0,,M,,M,0,0000*5A
[2021-02-22 15:41:17.295] $GPGGA,064116.90,,,,,0,00,0.0,,M,,M,0,0000*5B
[2021-02-22 15:41:17.389] $GPGGA,064117.00,,,,,0,00,0.0,,M,,M,0,0000*53
[2021-02-22 15:41:17.483] $GPGGA,064117.10,,,,,0,00,0.0,,M,,M,0,0000*52
[2021-02-22 15:41:17.608] $GPGGA,064117.20,,,,,0,00,0.0,,M,,M,0,0000*51
[2021-02-22 15:41:17.702] $GPGGA,064117.30,,,,,0,00,0.0,,M,,M,0,0000*50
[2021-02-22 15:41:17.795] $GPGGA,064117.40,,,,,0,00,0.0,,M,,M,0,0000*57
[2021-02-22 15:41:17.889] $GPGGA,064117.50,,,,,0,00,0.0,,M,,M,0,0000*56
[2021-02-22 15:41:17.983] $GPGGA,064117.60,,,,,0,00,0.0,,M,,M,0,0000*55
[2021-02-22 15:41:18.092] $GPGGA,064117.70,,,,,0,00,0.0,,M,,M,0,0000*54
[2021-02-22 15:41:18.186] $GPGGA,064117.80,,,,,0,00,0.0,,M,,M,0,0000*5B
[2021-02-22 15:41:18.295] $GPGGA,064117.90,,,,,0,00,0.0,,M,,M,0,0000*5A
[2021-02-22 15:41:18.389] $GPGGA,064118.00,,,,,0,00,0.0,,M,,M,0,0000*5C
[2021-02-22 15:41:18.498] $GPGGA,064118.10,,,,,0,00,0.0,,M,,M,0,0000*5D
[2021-02-22 15:41:18.592] $GPGGA,064118.20,,,,,0,00,0.0,,M,,M,0,0000*5E
[2021-02-22 15:41:18.686] $GPGGA,064118.30,,,,,0,00,0.0,,M,,M,0,0000*5F
[2021-02-22 15:41:18.780] $GPGGA,064118.40,,,,,0,00,0.0,,M,,M,0,0000*58
[2021-02-22 15:41:18.889] $GPGGA,064118.50,,,,,0,00,0.0,,M,,M,0,0000*59
[2021-02-22 15:41:18.998] $GPGGA,064118.60,,,,,0,00,0.0,,M,,M,0,0000*5A
[2021-02-22 15:41:19.092] $GPGGA,064118.70,,,,,0,00,0.0,,M,,M,0,0000*5B
[2021-02-22 15:41:19.186] $GPGGA,064118.80,,,,,0,00,0.0,,M,,M,0,0000*54
[2021-02-22 15:41:19.295] $GPGGA,064118.90,,,,,0,00,0.0,,M,,M,0,0000*55
[2021-02-22 15:41:19.389] $GPGGA,064119.00,,,,,0,00,0.0,,M,,M,0,0000*5D
[2021-02-22 15:41:19.483] $GPGGA,064119.10,,,,,0,00,0.0,,M,,M,0,0000*5C
[2021-02-22 15:41:19.592] $GPGGA,064119.20,,,,,0,00,0.0,,M,,M,0,0000*5F
[2021-02-22 15:41:19.701] $GPGGA,064119.30,3713.9540601,N,13701.4276623,E,1,07,6.1,92.6688,M,37.55,M,,*56
[2021-02-22 15:41:19.811] $GPGGA,064119.40,3713.9608046,N,13701.4216854,E,1,07,6.1,91.5039,M,37.55,M,,*5F
[2021-02-22 15:41:19.889] $GPGGA,064119.50,3713.9612586,N,13701.4211027,E,1,07,6.1,91.7522,M,37.55,M,,*5A
[2021-02-22 15:41:20.014] $GPGGA,064119.60,3713.9586977,N,13701.4240034,E,1,07,6.1,91.6650,M,37.55,M,,*54
[2021-02-22 15:41:20.092] $GPGGA,064119.70,3713.9577863,N,13701.4248060,E,1,07,6.1,91.5479,M,37.55,M,,*5C
[2021-02-22 15:41:20.217] $GPGGA,064119.80,3713.9576262,N,13701.4247574,E,1,07,6.1,90.9042,M,37.55,M,,*57
[2021-02-22 15:41:20.295] $GPGGA,064119.90,3713.9583075,N,13701.4243676,E,1,07,6.1,91.1701,M,37.55,M,,*54
[2021-02-22 15:41:20.404] $GPGGA,064120.00,3713.9569157,N,13701.4256901,E,1,07,6.1,91.4396,M,37.55,M,,*56
[2021-02-22 15:41:20.483] $GPGGA,064120.10,3713.9564634,N,13701.4259580,E,1,07,6.1,90.5519,M,37.55,M,,*53
[2021-02-22 15:41:20.608] $GPGGA,064120.20,3713.9577008,N,13701.4247855,E,1,07,6.1,90.2222,M,37.55,M,,*59
[2021-02-22 15:41:20.686] $GPGGA,064120.30,3713.9571896,N,13701.4251133,E,1,07,6.1,90.7926,M,37.55,M,,*55
[2021-02-22 15:41:20.811] $GPGGA,064120.40,3713.9578150,N,13701.4243585,E,1,07,6.1,91.2781,M,37.55,M,,*55
[2021-02-22 15:41:20.889] $GPGGA,064120.50,3713.9567039,N,13701.4254492,E,1,07,6.1,91.7501,M,37.55,M,,*5A
[2021-02-22 15:41:21.014] $GPGGA,064120.60,3713.9589425,N,13701.4233799,E,1,07,6.1,91.4764,M,37.55,M,,*5B
[2021-02-22 15:41:21.092] $GPGGA,064120.70,3713.9601660,N,13701.4223066,E,1,07,6.1,90.9083,M,37.55,M,,*5E
[2021-02-22 15:41:21.201] $GPGGA,064120.80,3713.9605965,N,13701.4216691,E,1,07,6.1,90.5702,M,37.55,M,,*55
[2021-02-22 15:41:21.311] $GPGGA,064120.90,3713.9591147,N,13701.4229351,E,1,07,6.1,91.0499,M,37.55,M,,*52
[2021-02-22 15:41:21.389] $GPGGA,064121.00,3713.9589226,N,13701.4232434,E,1,07,6.1,91.1284,M,37.55,M,,*52
[2021-02-22 15:41:21.514] $GPGGA,064121.10,3713.9590924,N,13701.4228085,E,1,07,6.1,91.0728,M,37.55,M,,*55
[2021-02-22 15:41:21.592] $GPGGA,064121.20,3713.9598455,N,13701.4221981,E,1,07,6.1,91.5624,M,37.55,M,,*59
[2021-02-22 15:41:21.717] $GPGGA,064121.30,3713.9594396,N,13701.4226315,E,1,07,6.1,91.5498,M,37.55,M,,*59
[2021-02-22 15:41:21.795] $GPGGA,064121.40,3713.9595648,N,13701.4225725,E,1,07,6.1,91.4999,M,37.55,M,,*50
[2021-02-22 15:41:21.904] $GPGGA,064121.50,3713.9595546,N,13701.4225616,E,1,07,6.1,91.7334,M,37.55,M,,*53
[2021-02-22 15:41:21.998] $GPGGA,064121.60,3713.9597974,N,13701.4223619,E,1,07,6.1,91.7217,M,37.55,M,,*56
[2021-02-22 15:41:22.107] $GPGGA,064121.70,3713.9594321,N,13701.4227024,E,1,07,6.1,91.8996,M,37.55,M,,*5F
[2021-02-22 15:41:22.186] $GPGGA,064121.80,3713.9583567,N,13701.4237351,E,1,07,6.1,91.9642,M,37.55,M,,*55
[2021-02-22 15:41:22.311] $GPGGA,064121.90,3713.9577338,N,13701.4242110,E,1,07,6.1,91.7132,M,37.55,M,,*58
[2021-02-22 15:41:22.389] $GPGGA,064122.00,3713.9585636,N,13701.4233254,E,1,07,6.1,91.5334,M,37.55,M,,*57
[2021-02-22 15:41:22.514] $GPGGA,064122.10,3713.9585833,N,13701.4232997,E,1,07,6.1,91.3950,M,37.55,M,,*56
[2021-02-22 15:41:22.592] $GPGGA,064122.20,3713.9585135,N,13701.4234105,E,1,07,6.1,91.7901,M,37.55,M,,*5F
[2021-02-22 15:41:22.717] $GPGGA,064122.30,3713.9585672,N,13701.4234074,E,1,07,6.1,91.8152,M,37.55,M,,*5C
[2021-02-22 15:41:22.795] $GPGGA,064122.40,3713.9578052,N,13701.4242418,E,1,07,6.1,91.7757,M,37.55,M,,*5E
[2021-02-22 15:41:22.904] $GPGGA,064122.50,3713.9581579,N,13701.4239632,E,1,07,6.1,91.6209,M,37.55,M,,*5C
[2021-02-22 15:41:23.014] $GPGGA,064122.60,3713.9582832,N,13701.4239009,E,1,07,6.1,91.6662,M,37.55,M,,*59
[2021-02-22 15:41:23.092] $GPGGA,064122.70,3713.9589234,N,13701.4233027,E,1,07,6.1,91.5210,M,37.55,M,,*5B
[2021-02-22 15:41:23.217] $GPGGA,064122.80,3713.9586349,N,13701.4234653,E,1,07,6.1,91.5074,M,37.55,M,,*52
[2021-02-22 15:41:23.295] $GPGGA,064122.90,3713.9587077,N,13701.4234295,E,1,07,6.1,91.6635,M,37.55,M,,*52
[2021-02-22 15:41:23.420] $GPGGA,064123.00,3713.9585872,N,13701.4236133,E,1,07,6.1,91.8795,M,37.55,M,,*5D
[2021-02-22 15:41:23.498] $GPGGA,064123.10,3713.9583063,N,13701.4239831,E,1,07,6.1,92.2242,M,37.55,M,,*50
[2021-02-22 15:41:23.607] $GPGGA,064123.20,3713.9586600,N,13701.4235316,E,1,07,6.1,92.3780,M,37.55,M,,*5D
[2021-02-22 15:41:23.686] $GPGGA,064123.30,3713.9587129,N,13701.4236395,E,1,07,6.1,91.9049,M,37.55,M,,*52
[2021-02-22 15:41:23.810] $GPGGA,064123.40,3713.9595398,N,13701.4228820,E,1,07,6.1,91.6279,M,37.55,M,,*5A
[2021-02-22 15:41:23.889] $GPGGA,064123.50,3713.9592212,N,13701.4230503,E,1,07,6.1,91.8396,M,37.55,M,,*54
[2021-02-22 15:41:24.014] $GPGGA,064123.60,3713.9593029,N,13701.4229171,E,1,07,6.1,91.7344,M,37.55,M,,*55
[2021-02-22 15:41:24.092] $GPGGA,064123.70,3713.9596117,N,13701.4227188,E,1,07,6.1,91.7051,M,37.55,M,,*52
[2021-02-22 15:41:24.217] $GPGGA,064123.80,3713.9590579,N,13701.4232845,E,1,07,6.1,91.7817,M,37.55,M,,*51
[2021-02-22 15:41:24.295] $GPGGA,064123.90,3713.9584550,N,13701.4239616,E,1,07,6.1,91.9000,M,37.55,M,,*5D
[2021-02-22 15:41:24.420] $GPGGA,064124.00,3713.9585328,N,13701.4238214,E,1,07,6.1,91.9592,M,37.55,M,,*52
[2021-02-22 15:41:24.498] $GPGGA,064124.10,3713.9588564,N,13701.4233240,E,1,07,6.1,91.8788,M,37.55,M,,*52
[2021-02-22 15:41:24.607] $GPGGA,064124.20,3713.9591272,N,13701.4230662,E,1,07,6.1,91.4015,M,37.55,M,,*51
[2021-02-22 15:41:24.685] $GPGGA,064124.30,3713.9591890,N,13701.4229688,E,1,07,6.1,91.4984,M,37.55,M,,*5B
[2021-02-22 15:41:24.810] $GPGGA,064124.40,3713.9590560,N,13701.4231753,E,1,07,6.1,91.5721,M,37.55,M,,*51
[2021-02-22 15:41:24.920] $GPGGA,064124.50,3713.9590354,N,13701.4233214,E,1,07,6.1,91.9445,M,37.55,M,,*58
[2021-02-22 15:41:24.982] $GPGGA,064124.60,3713.9589546,N,13701.4235508,E,1,07,6.1,92.2064,M,37.55,M,,*55
[2021-02-22 15:41:25.107] $GPGGA,064124.70,3713.9583641,N,13701.4241446,E,1,07,6.1,92.6304,M,37.55,M,,*53
[2021-02-22 15:41:25.185] $GPGGA,064124.80,3713.9584323,N,13701.4239532,E,1,07,6.1,92.8990,M,37.55,M,,*5E
[2021-02-22 15:41:25.310] $GPGGA,064124.90,3713.9598221,N,13701.4225406,E,1,08,2.6,92.4970,M,37.55,M,,*54
[2021-02-22 15:41:25.388] $GPGGA,064125.00,3713.9598729,N,13701.4225655,E,1,08,2.6,92.0188,M,37.55,M,,*5E
[2021-02-22 15:41:25.513] $GPGGA,064125.10,3713.9601244,N,13701.4224575,E,1,08,2.6,91.7978,M,37.55,M,,*51
[2021-02-22 15:41:25.592] $GPGGA,064125.20,3713.9599832,N,13701.4226065,E,1,08,2.6,91.4913,M,37.55,M,,*53
[2021-02-22 15:41:25.717] $GPGGA,064125.30,3713.9598137,N,13701.4228662,E,1,08,2.6,91.5412,M,37.55,M,,*5D
[2021-02-22 15:41:25.795] $GPGGA,064125.40,3713.9597219,N,13701.4228886,E,1,08,2.6,91.5718,M,37.55,M,,*57
[2021-02-22 15:41:25.920] $GPGGA,064125.50,3713.9595668,N,13701.4231218,E,1,08,2.6,91.8573,M,37.55,M,,*51
[2021-02-22 15:41:25.982] $GPGGA,064125.60,3713.9591573,N,13701.4235316,E,1,08,2.6,91.9566,M,37.55,M,,*51
[2021-02-22 15:41:26.107] $GPGGA,064125.70,3713.9591354,N,13701.4234098,E,1,08,2.6,92.1320,M,37.55,M,,*58
[2021-02-22 15:41:26.185] $GPGGA,064125.80,3713.9592873,N,13701.4233652,E,1,08,2.6,92.0534,M,37.55,M,,*5F
[2021-02-22 15:41:26.310] $GPGGA,064125.90,3713.9587575,N,13701.4239625,E,1,08,2.6,92.3860,M,37.55,M,,*54
[2021-02-22 15:41:26.388] $GPGGA,064126.00,3713.9585705,N,13701.4241371,E,1,08,2.6,92.7436,M,37.55,M,,*59
[2021-02-22 15:41:26.513] $GPGGA,064126.10,3713.9585933,N,13701.4242209,E,1,08,2.6,92.8183,M,37.55,M,,*5A
[2021-02-22 15:41:26.607] $GPGGA,064126.20,3713.9592085,N,13701.4237495,E,1,08,2.6,92.5980,M,37.55,M,,*5C
[2021-02-22 15:41:26.685] $GPGGA,064126.30,3713.9592261,N,13701.4237015,E,1,08,2.6,92.9177,M,37.55,M,,*55
[2021-02-22 15:41:26.810] $GPGGA,064126.40,3713.9590314,N,13701.4238773,E,1,08,2.6,93.1869,M,37.55,M,,*54
[2021-02-22 15:41:26.888] $GPGGA,064126.50,3713.9588770,N,13701.4239212,E,1,08,2.6,93.1035,M,37.55,M,,*58
[2021-02-22 15:41:27.013] $GPGGA,064126.60,3713.9587707,N,13701.4239700,E,1,08,2.6,92.8960,M,37.55,M,,*53
[2021-02-22 15:41:27.091] $GPGGA,064126.70,3713.9592159,N,13701.4235748,E,1,08,2.6,92.4087,M,37.55,M,,*57
[2021-02-22 15:41:27.216] $GPGGA,064126.80,3713.9589648,N,13701.4237421,E,1,08,2.6,92.1803,M,37.55,M,,*5A
[2021-02-22 15:41:27.295] $GPGGA,064126.90,3713.9591193,N,13701.4236640,E,1,08,2.6,92.1042,M,37.55,M,,*5A
[2021-02-22 15:41:27.420] $GPGGA,064127.00,3713.9593891,N,13701.4233776,E,1,08,2.6,91.7863,M,37.55,M,,*54
[2021-02-22 15:41:27.498] $GPGGA,064127.10,3713.9591996,N,13701.4235739,E,1,08,2.6,92.0271,M,37.55,M,,*51
[2021-02-22 15:41:27.607] $GPGGA,064127.20,3713.9591943,N,13701.4234927,E,1,08,2.6,92.1676,M,37.55,M,,*58
[2021-02-22 15:41:27.685] $GPGGA,064127.30,3713.9589684,N,13701.4237219,E,1,08,2.6,91.9311,M,37.55,M,,*5E
[2021-02-22 15:41:27.810] $GPGGA,064127.40,3713.9591433,N,13701.4236626,E,1,08,2.6,91.9337,M,37.55,M,,*53
[2021-02-22 15:41:27.888] $GPGGA,064127.50,3713.9592346,N,13701.4236308,E,1,08,2.6,91.9498,M,37.55,M,,*5F
[2021-02-22 15:41:28.013] $GPGGA,064127.60,3713.9590414,N,13701.4236724,E,1,08,2.6,92.2665,M,37.55,M,,*5C
[2021-02-22 15:41:28.091] $GPGGA,064127.70,3713.9593602,N,13701.4234588,E,1,08,2.6,92.5164,M,37.55,M,,*5C
[2021-02-22 15:41:28.216] $GPGGA,064127.80,3713.9596200,N,13701.4232557,E,1,08,2.6,92.3839,M,37.55,M,,*53
[2021-02-22 15:41:28.310] $GPGGA,064127.90,3713.9598056,N,13701.4230490,E,1,08,2.6,92.2247,M,37.55,M,,*57
[2021-02-22 15:41:28.388] $GPGGA,064128.00,3713.9596211,N,13701.4232327,E,1,08,2.6,92.1953,M,37.55,M,,*5A
[2021-02-22 15:41:28.513] $GPGGA,064128.10,3713.9598200,N,13701.4230058,E,1,08,2.6,91.9230,M,37.55,M,,*59
[2021-02-22 15:41:28.591] $GPGGA,064128.20,3713.9598576,N,13701.4230688,E,1,08,2.6,92.2828,M,37.55,M,,*5C
[2021-02-22 15:41:28.716] $GPGGA,064128.30,3713.9595995,N,13701.4232098,E,1,08,2.6,92.1378,M,37.55,M,,*59
[2021-02-22 15:41:28.795] $GPGGA,064128.40,3713.9598411,N,13701.4230724,E,1,08,2.6,91.9497,M,37.55,M,,*5D
[2021-02-22 15:41:28.904] $GPGGA,064128.50,3713.9602469,N,13701.4228160,E,1,08,2.6,91.6184,M,37.55,M,,*54
[2021-02-22 15:41:28.982] $GPGGA,064128.60,3713.9603642,N,13701.4227153,E,1,08,2.6,91.9104,M,37.55,M,,*55
[2021-02-22 15:41:29.107] $GPGGA,064128.70,3713.9606865,N,13701.4225243,E,1,08,2.6,91.6086,M,37.55,M,,*5E
[2021-02-22 15:41:29.185] $GPGGA,064128.80,3713.9604941,N,13701.4226073,E,1,08,2.6,92.0092,M,37.55,M,,*56
[2021-02-22 15:41:29.310] $GPGGA,064128.90,3713.9604586,N,13701.4226875,E,1,08,2.6,92.2844,M,37.55,M,,*5F
[2021-02-22 15:41:29.388] $GPGGA,064129.00,3713.9604295,N,13701.4227052,E,1,08,2.6,92.2495,M,37.55,M,,*5E
[2021-02-22 15:41:29.513] $GPGGA,064129.10,3713.9605504,N,13701.4225632,E,1,08,2.6,92.4414,M,37.55,M,,*5C
[2021-02-22 15:41:29.591] $GPGGA,064129.20,3713.9603121,N,13701.4226606,E,1,08,2.6,92.6424,M,37.55,M,,*5F
[2021-02-22 15:41:29.716] $GPGGA,064129.30,3713.9603443,N,13701.4226255,E,1,08,2.6,92.8745,M,37.55,M,,*57
[2021-02-22 15:41:29.794] $GPGGA,064129.40,3713.9599977,N,13701.4229445,E,1,08,2.6,93.0680,M,37.55,M,,*53
[2021-02-22 15:41:29.919] $GPGGA,064129.50,3713.9600150,N,13701.4230202,E,1,08,2.6,92.8676,M,37.55,M,,*51
[2021-02-22 15:41:29.982] $GPGGA,064129.60,3713.9600279,N,13701.4229647,E,1,08,2.6,92.8404,M,37.55,M,,*50
[2021-02-22 15:41:30.107] $GPGGA,064129.70,3713.9601599,N,13701.4228980,E,1,08,2.6,92.8797,M,37.55,M,,*55
[2021-02-22 15:41:30.216] $GPGGA,064129.80,3713.9601485,N,13701.4228860,E,1,08,2.6,92.9962,M,37.55,M,,*5C
[2021-02-22 15:41:30.294] $GPGGA,064129.90,3713.9601630,N,13701.4228793,E,1,08,2.6,93.0992,M,37.55,M,,*55
[2021-02-22 15:41:30.419] $GPGGA,064130.00,3713.9604052,N,13701.4226138,E,1,08,2.6,92.9775,M,37.55,M,,*55
[2021-02-22 15:41:30.497] $GPGGA,064130.10,3713.9605500,N,13701.4226156,E,1,08,2.6,92.9609,M,37.55,M,,*55
[2021-02-22 15:41:30.607] $GPGGA,064130.20,3713.9603852,N,13701.4227156,E,1,08,2.6,92.7137,M,37.55,M,,*5F
[2021-02-22 15:41:30.685] $GPGGA,064130.30,3713.9606844,N,13701.4226317,E,1,08,2.6,92.6682,M,37.55,M,,*52
[2021-02-22 15:41:30.810] $GPGGA,064130.40,3713.9603645,N,13701.4228322,E,1,08,2.6,92.8500,M,37.55,M,,*50
[2021-02-22 15:41:30.888] $GPGGA,064130.50,3713.9604209,N,13701.4227102,E,1,08,2.6,93.0613,M,37.55,M,,*5D
[2021-02-22 15:41:31.013] $GPGGA,064130.60,3713.9602366,N,13701.4229415,E,1,08,2.6,92.9569,M,37.55,M,,*5B
[2021-02-22 15:41:31.091] $GPGGA,064130.70,3713.9601542,N,13701.4230489,E,1,08,2.6,92.9680,M,37.55,M,,*50
[2021-02-22 15:41:31.216] $GPGGA,064130.80,3713.9601077,N,13701.4230725,E,1,08,2.6,93.3655,M,37.55,M,,*5A
[2021-02-22 15:41:31.294] $GPGGA,064130.90,3713.9601594,N,13701.4229246,E,1,08,2.6,92.9429,M,37.55,M,,*59
[2021-02-22 15:41:31.419] $GPGGA,064131.00,3713.9602244,N,13701.4228110,E,1,08,2.6,93.0974,M,37.55,M,,*54
[2021-02-22 15:41:31.482] $GPGGA,064131.10,3713.9602705,N,13701.4226784,E,1,08,2.6,92.7927,M,37.55,M,,*50
[2021-02-22 15:41:31.607] $GPGGA,064131.20,3713.9603365,N,13701.4226441,E,1,08,2.6,92.9480,M,37.55,M,,*54
[2021-02-22 15:41:31.685] $GPGGA,064131.30,3713.9562774,N,13701.4256308,E,1,09,1.3,91.6394,M,37.55,M,,*51
[2021-02-22 15:41:31.810] $GPGGA,064131.40,3713.9560731,N,13701.4256518,E,1,09,1.3,91.3794,M,37.55,M,,*53
[2021-02-22 15:41:31.919] $GPGGA,064131.50,3713.9560800,N,13701.4255549,E,1,09,1.3,91.4250,M,37.55,M,,*52
[2021-02-22 15:41:31.997] $GPGGA,064131.60,3713.9559992,N,13701.4255572,E,1,09,1.3,91.4937,M,37.55,M,,*53
[2021-02-22 15:41:32.107] $GPGGA,064131.70,3713.9560377,N,13701.4256098,E,1,09,1.3,91.5934,M,37.55,M,,*59
[2021-02-22 15:41:32.185] $GPGGA,064131.80,3713.9559271,N,13701.4256897,E,1,09,1.3,91.3994,M,37.55,M,,*50
[2021-02-22 15:41:32.310] $GPGGA,064131.90,3713.9559492,N,13701.4257151,E,1,09,1.3,91.1965,M,37.55,M,,*54
[2021-02-22 15:41:32.388] $GPGGA,064132.00,3713.9559019,N,13701.4257757,E,1,09,1.3,91.2210,M,37.55,M,,*53
[2021-02-22 15:41:32.513] $GPGGA,064132.10,3713.9559077,N,13701.4258728,E,1,09,1.3,91.1534,M,37.55,M,,*5F
[2021-02-22 15:41:32.591] $GPGGA,064132.20,3713.9559225,N,13701.4260082,E,1,09,1.3,90.8941,M,37.55,M,,*53
[2021-02-22 15:41:32.716] $GPGGA,064132.30,3713.9561295,N,13701.4258356,E,1,09,1.3,91.1162,M,37.55,M,,*52
[2021-02-22 15:41:32.794] $GPGGA,064132.40,3713.9561874,N,13701.4258955,E,1,09,1.3,91.1773,M,37.55,M,,*5F
[2021-02-22 15:41:32.919] $GPGGA,064132.50,3713.9563883,N,13701.4257760,E,1,09,1.3,91.3591,M,37.55,M,,*5F
[2021-02-22 15:41:32.982] $GPGGA,064132.60,3713.9565344,N,13701.4257506,E,1,09,1.3,90.7954,M,37.55,M,,*58
[2021-02-22 15:41:33.107] $GPGGA,064132.70,3713.9567971,N,13701.4255510,E,1,09,1.3,90.9465,M,37.55,M,,*53
[2021-02-22 15:41:33.185] $GPGGA,064132.80,3713.9566260,N,13701.4256547,E,1,09,1.3,91.2109,M,37.55,M,,*52
[2021-02-22 15:41:33.310] $GPGGA,064132.90,3713.9565444,N,13701.4257120,E,1,09,1.3,91.5144,M,37.55,M,,*5A
[2021-02-22 15:41:33.388] $GPGGA,064133.00,3713.9564137,N,13701.4257045,E,1,09,1.3,91.6558,M,37.55,M,,*5A
[2021-02-22 15:41:33.513] $GPGGA,064133.10,3713.9565577,N,13701.4255901,E,1,09,1.3,91.7449,M,37.55,M,,*51
[2021-02-22 15:41:33.591] $GPGGA,064133.20,3713.9564966,N,13701.4255684,E,1,09,1.3,91.7474,M,37.55,M,,*53
[2021-02-22 15:41:33.716] $GPGGA,064133.30,3713.9565648,N,13701.4255012,E,1,09,1.3,91.4061,M,37.55,M,,*5A
[2021-02-22 15:41:33.810] $GPGGA,064133.40,3713.9565580,N,13701.4255146,E,1,09,1.3,91.0058,M,37.55,M,,*54
[2021-02-22 15:41:33.888] $GPGGA,064133.50,3713.9564118,N,13701.4256988,E,1,09,1.3,90.8785,M,37.55,M,,*56
[2021-02-22 15:41:34.013] $GPGGA,064133.60,3713.9564499,N,13701.4256654,E,1,09,1.3,91.1183,M,37.55,M,,*5F
[2021-02-22 15:41:34.091] $GPGGA,064133.70,3713.9563770,N,13701.4256276,E,1,09,1.3,91.1976,M,37.55,M,,*5B
[2021-02-22 15:41:34.216] $GPGGA,064133.80,3713.9565365,N,13701.4254999,E,1,09,1.3,91.1377,M,37.55,M,,*51
[2021-02-22 15:41:34.294] $GPGGA,064133.90,3713.9564433,N,13701.4254676,E,1,09,1.3,91.1113,M,37.55,M,,*5B
[2021-02-22 15:41:34.419] $GPGGA,064134.00,3713.9562759,N,13701.4256573,E,1,09,1.3,91.4970,M,37.55,M,,*50
[2021-02-22 15:41:34.497] $GPGGA,064134.10,3713.9563592,N,13701.4255646,E,1,09,1.3,91.3119,M,37.55,M,,*53
[2021-02-22 15:41:34.607] $GPGGA,064134.20,3713.9562731,N,13701.4256376,E,1,09,1.3,91.6642,M,37.55,M,,*53
[2021-02-22 15:41:34.685] $GPGGA,064134.30,3713.9562389,N,13701.4257450,E,1,09,1.3,91.5498,M,37.55,M,,*51
[2021-02-22 15:41:34.810] $GPGGA,064134.40,3713.9562785,N,13701.4257378,E,1,09,1.3,91.3799,M,37.55,M,,*57
[2021-02-22 15:41:34.888] $GPGGA,064134.50,3713.9564073,N,13701.4256629,E,1,09,1.3,91.3143,M,37.55,M,,*5F
[2021-02-22 15:41:35.013] $GPGGA,064134.60,3713.9564188,N,13701.4256222,E,1,09,1.3,90.9506,M,37.55,M,,*58
[2021-02-22 15:41:35.091] $GPGGA,064134.70,3713.9563179,N,13701.4255008,E,1,09,1.3,90.7525,M,37.55,M,,*56
[2021-02-22 15:41:35.216] $GPGGA,064134.80,3713.9559140,N,13701.4256432,E,1,09,1.3,91.0532,M,37.55,M,,*54
[2021-02-22 15:41:35.294] $GPGGA,064134.90,3713.9556271,N,13701.4259214,E,1,09,1.3,91.1270,M,37.55,M,,*56
[2021-02-22 15:41:35.419] $GPGGA,064135.00,3713.9558188,N,13701.4256205,E,1,09,1.3,90.5360,M,37.55,M,,*5F
[2021-02-22 15:41:35.513] $GPGGA,064135.10,3713.9557250,N,13701.4257908,E,1,09,1.3,90.7770,M,37.55,M,,*57
[2021-02-22 15:41:35.591] $GPGGA,064135.20,3713.9557760,N,13701.4256388,E,1,09,1.3,91.2313,M,37.55,M,,*54
[2021-02-22 15:41:35.716] $GPGGA,064135.30,3713.9560795,N,13701.4254785,E,1,09,1.3,90.8530,M,37.55,M,,*5C
[2021-02-22 15:41:35.794] $GPGGA,064135.40,3713.9563363,N,13701.4253637,E,1,09,1.3,90.8318,M,37.55,M,,*56
[2021-02-22 15:41:35.919] $GPGGA,064135.50,3713.9561269,N,13701.4255780,E,1,09,1.3,91.1690,M,37.55,M,,*58
[2021-02-22 15:41:35.997] $GPGGA,064135.60,3713.9561711,N,13701.4256953,E,1,09,1.3,90.8726,M,37.55,M,,*56
[2021-02-22 15:41:36.122] $GPGGA,064135.70,3713.9562928,N,13701.4256538,E,1,09,1.3,90.8061,M,37.55,M,,*55
[2021-02-22 15:41:36.185] $GPGGA,064135.80,3713.9561317,N,13701.4258253,E,1,09,1.3,90.9019,M,37.55,M,,*55
[2021-02-22 15:41:36.310] $GPGGA,064135.90,3713.9561327,N,13701.4259712,E,1,09,1.3,91.0906,M,37.55,M,,*59
[2021-02-22 15:41:36.388] $GPGGA,064136.00,3713.9561216,N,13701.4260295,E,1,10,1.3,90.9761,M,37.55,M,,*5F
[2021-02-22 15:41:36.513] $GPGGA,064136.10,3713.9560428,N,13701.4260800,E,1,10,1.3,91.1876,M,37.55,M,,*52
[2021-02-22 15:41:36.591] $GPGGA,064136.20,3713.9559272,N,13701.4260262,E,1,10,1.3,91.5267,M,37.55,M,,*52
[2021-02-22 15:41:36.716] $GPGGA,064136.30,3713.9560217,N,13701.4259380,E,1,10,1.3,91.4621,M,37.55,M,,*5A
[2021-02-22 15:41:36.794] $GPGGA,064136.40,3713.9559389,N,13701.4259819,E,1,10,1.3,91.4295,M,37.55,M,,*51
[2021-02-22 15:41:36.919] $GPGGA,064136.50,3713.9560476,N,13701.4259554,E,1,10,1.3,91.8212,M,37.55,M,,*5A
[2021-02-22 15:41:36.981] $GPGGA,064136.60,3713.9560890,N,13701.4259352,E,1,10,1.3,91.8788,M,37.55,M,,*5B
[2021-02-22 15:41:37.106] $GPGGA,064136.70,3713.9557642,N,13701.4262119,E,1,10,1.3,92.2482,M,37.55,M,,*5A
[2021-02-22 15:41:37.185] $GPGGA,064136.80,3713.9559627,N,13701.4259985,E,1,10,1.3,91.8288,M,37.55,M,,*58
[2021-02-22 15:41:37.310] $GPGGA,064136.90,3713.9559732,N,13701.4260466,E,1,10,1.3,91.5322,M,37.55,M,,*5A
[2021-02-22 15:41:37.419] $GPGGA,064137.00,3713.9559375,N,13701.4261441,E,1,10,1.3,91.4805,M,37.55,M,,*5E
[2021-02-22 15:41:37.497] $GPGGA,064137.10,3713.9560747,N,13701.4261148,E,1,10,1.3,91.3079,M,37.55,M,,*58
[2021-02-22 15:41:37.622] $GPGGA,064137.20,3713.9561735,N,13701.4259290,E,1,10,1.3,90.6821,M,37.55,M,,*53
[2021-02-22 15:41:37.685] $GPGGA,064137.30,3713.9560449,N,13701.4260872,E,1,10,1.3,90.3907,M,37.55,M,,*57
[2021-02-22 15:41:37.809] $GPGGA,064137.40,3713.9561473,N,13701.4260692,E,1,10,1.3,90.0823,M,37.55,M,,*5C
[2021-02-22 15:41:37.888] $GPGGA,064137.50,3713.9562626,N,13701.4258387,E,1,10,1.3,89.8987,M,37.55,M,,*59
[2021-02-22 15:41:38.013] $GPGGA,064137.60,3713.9560827,N,13701.4261378,E,1,10,1.3,89.7203,M,37.55,M,,*55
[2021-02-22 15:41:38.091] $GPGGA,064137.70,3713.9561564,N,13701.4259822,E,1,10,1.3,89.6077,M,37.55,M,,*50
[2021-02-22 15:41:38.216] $GPGGA,064137.80,3713.9556168,N,13701.4261542,E,1,11,1.3,90.2930,M,37.55,M,,*54
[2021-02-22 15:41:38.294] $GPGGA,064137.90,3713.9553313,N,13701.4264575,E,1,11,1.3,90.0810,M,37.55,M,,*5E
[2021-02-22 15:41:38.419] $GPGGA,064138.00,3713.9552652,N,13701.4265634,E,1,11,1.3,89.7442,M,37.55,M,,*5A
[2021-02-22 15:41:38.497] $GPGGA,064138.10,3713.9551850,N,13701.4262105,E,1,12,1.3,92.6447,M,37.55,M,,*5B
[2021-02-22 15:41:38.606] $GPGGA,064138.20,3713.9549106,N,13701.4266070,E,1,12,1.3,92.8480,M,37.55,M,,*59
[2021-02-22 15:41:38.684] $GPGGA,064138.30,3713.9548582,N,13701.4266879,E,1,12,1.3,92.6310,M,37.55,M,,*50
[2021-02-22 15:41:38.809] $GPGGA,064138.40,3713.9548224,N,13701.4266050,E,1,12,1.3,92.9954,M,37.55,M,,*5A
[2021-02-22 15:41:38.888] $GPGGA,064138.50,3713.9548629,N,13701.4265439,E,1,12,1.3,93.4432,M,37.55,M,,*5B
[2021-02-22 15:41:39.013] $GPGGA,064138.60,3713.9547212,N,13701.4267007,E,1,12,1.3,93.3819,M,37.55,M,,*52
[2021-02-22 15:41:39.106] $GPGGA,064138.70,3713.9548459,N,13701.4266161,E,1,12,1.3,92.9706,M,37.55,M,,*5F
[2021-02-22 15:41:39.184] $GPGGA,064138.80,3713.9546575,N,13701.4267538,E,1,12,1.3,93.0327,M,37.55,M,,*57
[2021-02-22 15:41:39.309] $GPGGA,064138.90,3713.9547319,N,13701.4267064,E,1,12,1.3,93.0921,M,37.55,M,,*5B
[2021-02-22 15:41:39.388] $GPGGA,064139.00,3713.9549990,N,13701.4265690,E,1,12,1.3,92.6757,M,37.55,M,,*51
[2021-02-22 15:41:39.513] $GPGGA,064139.10,3713.9548526,N,13701.4266358,E,1,12,1.3,92.7184,M,37.55,M,,*5B
[2021-02-22 15:41:39.591] $GPGGA,064139.20,3713.9547962,N,13701.4265630,E,1,12,1.3,92.8030,M,37.55,M,,*52
[2021-02-22 15:41:39.716] $GPGGA,064139.30,3713.9546429,N,13701.4267151,E,1,12,1.3,93.1596,M,37.55,M,,*53
[2021-02-22 15:41:39.794] $GPGGA,064139.40,3713.9546531,N,13701.4266566,E,1,12,1.3,93.5404,M,37.55,M,,*53
[2021-02-22 15:41:39.919] $GPGGA,064139.50,3713.9548926,N,13701.4265054,E,1,12,1.3,93.3474,M,37.55,M,,*50
[2021-02-22 15:41:39.997] $GPGGA,064139.60,3713.9549044,N,13701.4266335,E,1,12,1.3,93.0554,M,37.55,M,,*58
[2021-02-22 15:41:40.106] $GPGGA,064139.70,3713.9547734,N,13701.4267059,E,1,12,1.3,92.9449,M,37.55,M,,*5A
[2021-02-22 15:41:40.184] $GPGGA,064139.80,3713.9546864,N,13701.4267619,E,1,12,1.3,92.9231,M,37.55,M,,*55
[2021-02-22 15:41:40.309] $GPGGA,064139.90,3713.9549703,N,13701.4265550,E,1,12,1.3,93.0996,M,37.55,M,,*57
[2021-02-22 15:41:40.387] $GPGGA,064140.00,3713.9548275,N,13701.4266192,E,1,12,1.3,93.5466,M,37.55,M,,*5B
[2021-02-22 15:41:40.512] $GPGGA,064140.10,3713.9547921,N,13701.4266645,E,1,12,1.3,93.7268,M,37.55,M,,*58
[2021-02-22 15:41:40.591] $GPGGA,064140.20,3713.9549261,N,13701.4264703,E,1,12,1.3,93.2876,M,37.55,M,,*5B
[2021-02-22 15:41:40.716] $GPGGA,064140.30,3713.9548169,N,13701.4264865,E,1,12,1.3,92.8738,M,37.55,M,,*51
[2021-02-22 15:41:40.794] $GPGGA,064140.40,3713.9549361,N,13701.4263423,E,1,12,1.3,92.2586,M,37.55,M,,*59
[2021-02-22 15:41:40.919] $GPGGA,064140.50,3713.9549910,N,13701.4262012,E,1,12,1.3,92.1565,M,37.55,M,,*5D
[2021-02-22 15:41:41.012] $GPGGA,064140.60,3713.9551973,N,13701.4259369,E,1,12,1.3,92.0228,M,37.55,M,,*5A
[2021-02-22 15:41:41.091] $GPGGA,064140.70,3713.9550428,N,13701.4261191,E,1,12,1.3,92.0313,M,37.55,M,,*5E
[2021-02-22 15:41:41.216] $GPGGA,064140.80,3713.9548711,N,13701.4263742,E,1,12,1.3,91.9289,M,37.55,M,,*53
[2021-02-22 15:41:41.294] $GPGGA,064140.90,3713.9550895,N,13701.4261320,E,1,12,1.3,92.0333,M,37.55,M,,*50
[2021-02-22 15:41:41.419] $GPGGA,064141.00,3713.9550793,N,13701.4261092,E,1,12,1.3,92.0518,M,37.55,M,,*54
[2021-02-22 15:41:41.497] $GPGGA,064141.10,3713.9548956,N,13701.4262730,E,1,12,1.3,91.9337,M,37.55,M,,*56
[2021-02-22 15:41:41.606] $GPGGA,064141.20,3713.9548294,N,13701.4263372,E,1,12,1.3,92.0289,M,37.55,M,,*5D
[2021-02-22 15:41:41.684] $GPGGA,064141.30,3713.9550448,N,13701.4262816,E,1,13,1.2,92.6971,M,37.55,M,,*50
[2021-02-22 15:41:41.809] $GPGGA,064141.40,3713.9551632,N,13701.4262029,E,1,13,1.2,92.2492,M,37.55,M,,*59
[2021-02-22 15:41:41.887] $GPGGA,064141.50,3713.9552340,N,13701.4262325,E,1,13,1.2,92.0271,M,37.55,M,,*5D
[2021-02-22 15:41:42.012] $GPGGA,064141.60,3713.9551500,N,13701.4262252,E,1,13,1.2,92.2233,M,37.55,M,,*5A
[2021-02-22 15:41:42.090] $GPGGA,064141.70,3713.9550258,N,13701.4263438,E,1,13,1.2,92.3513,M,37.55,M,,*5F
[2021-02-22 15:41:42.215] $GPGGA,064141.80,3713.9547815,N,13701.4265026,E,1,13,1.2,92.8902,M,37.55,M,,*5F
[2021-02-22 15:41:42.294] $GPGGA,064141.90,3713.9547856,N,13701.4263744,E,1,13,1.2,93.0078,M,37.55,M,,*51
[2021-02-22 15:41:42.419] $GPGGA,064142.00,3713.9547830,N,13701.4264905,E,1,13,1.2,92.9977,M,37.55,M,,*59
[2021-02-22 15:41:42.497] $GPGGA,064142.10,3713.9549721,N,13701.4263932,E,1,13,1.2,92.9524,M,37.55,M,,*50
[2021-02-22 15:41:42.606] $GPGGA,064142.20,3713.9550139,N,13701.4264001,E,1,13,1.2,92.9695,M,37.55,M,,*53
[2021-02-22 15:41:42.715] $GPGGA,064142.30,3713.9551404,N,13701.4262574,E,1,13,1.2,93.0193,M,37.55,M,,*50
[2021-02-22 15:41:42.794] $GPGGA,064142.40,3713.9552848,N,13701.4261779,E,1,13,1.2,93.5660,M,37.55,M,,*52
[2021-02-22 15:41:42.919] $GPGGA,064142.50,3713.9554392,N,13701.4260051,E,1,13,1.2,93.5600,M,37.55,M,,*53
[2021-02-22 15:41:42.997] $GPGGA,064142.60,3713.9556322,N,13701.4259026,E,1,13,1.2,93.2599,M,37.55,M,,*57
[2021-02-22 15:41:43.122] $GPGGA,064142.70,3713.9557392,N,13701.4257593,E,1,13,1.2,92.9666,M,37.55,M,,*50
[2021-02-22 15:41:43.184] $GPGGA,064142.80,3713.9556575,N,13701.4258318,E,1,13,1.2,93.0343,M,37.55,M,,*51
[2021-02-22 15:41:43.309] $GPGGA,064142.90,3713.9556806,N,13701.4256806,E,1,13,1.2,92.5984,M,37.55,M,,*56
[2021-02-22 15:41:43.387] $GPGGA,064143.00,3713.9557007,N,13701.4255974,E,1,13,1.2,92.5780,M,37.55,M,,*5B
[2021-02-22 15:41:43.512] $GPGGA,064143.10,3713.9557134,N,13701.4256828,E,1,13,1.2,93.0496,M,37.55,M,,*50
[2021-02-22 15:41:43.590] $GPGGA,064143.20,3713.9558065,N,13701.4257915,E,1,13,1.2,92.9286,M,37.55,M,,*58
[2021-02-22 15:41:43.715] $GPGGA,064143.30,3713.9557186,N,13701.4258484,E,1,13,1.2,93.0430,M,37.55,M,,*53
[2021-02-22 15:41:43.794] $GPGGA,064143.40,3713.9554968,N,13701.4261212,E,1,13,1.2,93.3418,M,37.55,M,,*55
[2021-02-22 15:41:43.918] $GPGGA,064143.50,3713.9554140,N,13701.4263275,E,1,13,1.2,93.3964,M,37.55,M,,*53
[2021-02-22 15:41:43.997] $GPGGA,064143.60,3713.9554889,N,13701.4262175,E,1,13,1.2,93.4270,M,37.55,M,,*57
[2021-02-22 15:41:44.106] $GPGGA,064143.70,3713.9555148,N,13701.4261413,E,1,13,1.2,93.5957,M,37.55,M,,*5A
[2021-02-22 15:41:44.184] $GPGGA,064143.80,3713.9556409,N,13701.4259823,E,1,13,1.2,93.0876,M,37.55,M,,*55
[2021-02-22 15:41:44.309] $GPGGA,064143.90,3713.9554931,N,13701.4259243,E,1,13,1.2,93.0758,M,37.55,M,,*5F
[2021-02-22 15:41:44.418] $GPGGA,064144.00,3713.9554714,N,13701.4257761,E,1,13,1.2,92.9546,M,37.55,M,,*56
[2021-02-22 15:41:44.497] $GPGGA,064144.10,3713.9554077,N,13701.4260148,E,1,13,1.2,92.7680,M,37.55,M,,*5B
[2021-02-22 15:41:44.622] $GPGGA,064144.20,3713.9553080,N,13701.4260963,E,1,13,1.2,92.8476,M,37.55,M,,*52
[2021-02-22 15:41:44.700] $GPGGA,064144.30,3713.9553477,N,13701.4260574,E,1,13,1.2,92.5795,M,37.55,M,,*56
[2021-02-22 15:41:44.809] $GPGGA,064144.40,3713.9556398,N,13701.4259184,E,1,13,1.2,92.5360,M,37.55,M,,*5D
[2021-02-22 15:41:44.887] $GPGGA,064144.50,3713.9554165,N,13701.4259825,E,1,13,1.2,92.6568,M,37.55,M,,*51
[2021-02-22 15:41:45.012] $GPGGA,064144.60,3713.9552932,N,13701.4259714,E,1,13,1.2,92.7182,M,37.55,M,,*52
[2021-02-22 15:41:45.090] $GPGGA,064144.70,3713.9549737,N,13701.4262939,E,1,13,1.2,92.6114,M,37.55,M,,*55
[2021-02-22 15:41:45.215] $GPGGA,064144.80,3713.9549849,N,13701.4262728,E,1,13,1.2,92.7967,M,37.55,M,,*5F
[2021-02-22 15:41:45.293] $GPGGA,064144.90,3713.9549344,N,13701.4262557,E,1,13,1.2,92.8653,M,37.55,M,,*55
[2021-02-22 15:41:45.418] $GPGGA,064145.00,3713.9548765,N,13701.4262839,E,1,13,1.2,92.5645,M,37.55,M,,*54
[2021-02-22 15:41:45.496] $GPGGA,064145.10,3713.9547967,N,13701.4262901,E,1,13,1.2,92.6807,M,37.55,M,,*57
[2021-02-22 15:41:45.621] $GPGGA,064145.20,3713.9548078,N,13701.4263778,E,1,13,1.2,92.8263,M,37.55,M,,*5B
[2021-02-22 15:41:45.700] $GPGGA,064145.30,3713.9548145,N,13701.4262624,E,1,13,1.2,92.6492,M,37.55,M,,*5A
[2021-02-22 15:41:45.809] $GPGGA,064145.40,3713.9549085,N,13701.4261485,E,1,13,1.2,92.5864,M,37.55,M,,*5D
[2021-02-22 15:41:45.887] $GPGGA,064145.50,3713.9550701,N,13701.4259937,E,1,13,1.2,92.4294,M,37.55,M,,*54
[2021-02-22 15:41:46.012] $GPGGA,064145.60,3713.9553008,N,13701.4258263,E,1,13,1.2,92.1697,M,37.55,M,,*53
[2021-02-22 15:41:46.090] $GPGGA,064145.70,3713.9555128,N,13701.4256448,E,1,13,1.2,91.4768,M,37.55,M,,*51
[2021-02-22 15:41:46.215] $GPGGA,064145.80,3713.9555866,N,13701.4254801,E,1,13,1.2,91.5403,M,37.55,M,,*51
[2021-02-22 15:41:46.309] $GPGGA,064145.90,3713.9555608,N,13701.4255356,E,1,13,1.2,92.0107,M,37.55,M,,*59
[2021-02-22 15:41:46.387] $GPGGA,064146.00,3713.9556254,N,13701.4254688,E,1,13,1.2,91.6929,M,37.55,M,,*5B
[2021-02-22 15:41:46.512] $GPGGA,064146.10,3713.9556859,N,13701.4254210,E,1,13,1.2,91.5476,M,37.55,M,,*5C
[2021-02-22 15:41:46.590] $GPGGA,064146.20,3713.9555076,N,13701.4256393,E,1,13,1.2,91.6623,M,37.55,M,,*50
[2021-02-22 15:41:46.715] $GPGGA,064146.30,3713.9554704,N,13701.4256886,E,1,13,1.2,91.5946,M,37.55,M,,*52
[2021-02-22 15:41:46.793] $GPGGA,064146.40,3713.9553962,N,13701.4258096,E,1,13,1.2,91.5704,M,37.55,M,,*53
[2021-02-22 15:41:46.917] $GPGGA,064146.50,3713.9553874,N,13701.4257648,E,1,13,1.2,91.7628,M,37.55,M,,*53
[2021-02-22 15:41:46.995] $GPGGA,064146.60,3713.9559258,N,13701.4254045,E,1,14,1.0,90.0216,M,37.55,M,,*5C
[2021-02-22 15:41:47.120] $GPGGA,064146.70,3713.9559031,N,13701.4254593,E,1,14,1.0,90.0704,M,37.55,M,,*58
[2021-02-22 15:41:47.183] $GPGGA,064146.80,3713.9558498,N,13701.4255003,E,1,14,1.0,90.0263,M,37.55,M,,*58
[2021-02-22 15:41:47.323] $GPGGA,064146.90,3713.9558700,N,13701.4255114,E,1,14,1.0,90.1431,M,37.55,M,,*5C
[2021-02-22 15:41:47.386] $GPGGA,064147.00,3713.9557857,N,13701.4256114,E,1,14,1.0,90.2343,M,37.55,M,,*54
[2021-02-22 15:41:47.511] $GPGGA,064147.10,3713.9559497,N,13701.4256008,E,1,14,1.0,90.2978,M,37.55,M,,*55
[2021-02-22 15:41:47.620] $GPGGA,064147.20,3713.9571433,N,13701.4244321,E,5,08,2.3,95.1273,M,37.55,M,5,0000*63
[2021-02-22 15:41:47.714] $GPGGA,064147.30,3713.9571993,N,13701.4246124,E,5,08,2.3,94.0309,M,37.55,M,5,0000*6C
[2021-02-22 15:41:47.792] $GPGGA,064147.40,3713.9569282,N,13701.4249171,E,5,08,2.3,94.1963,M,37.55,M,5,0000*61
[2021-02-22 15:41:47.917] $GPGGA,064147.50,3713.9568468,N,13701.4250332,E,5,08,2.3,94.1061,M,37.55,M,5,0000*65
[2021-02-22 15:41:48.011] $GPGGA,064147.60,3713.9567303,N,13701.4251686,E,5,08,2.3,94.3940,M,37.55,M,5,0000*60
[2021-02-22 15:41:48.105] $GPGGA,064147.70,3713.9566586,N,13701.4251986,E,5,08,2.3,94.5524,M,37.55,M,5,0000*6C
[2021-02-22 15:41:48.214] $GPGGA,064147.80,3713.9566231,N,13701.4252097,E,5,08,2.3,94.5468,M,37.55,M,5,0000*6B
[2021-02-22 15:41:48.292] $GPGGA,064147.90,3713.9565487,N,13701.4252954,E,5,08,2.3,94.4138,M,37.55,M,5,0000*65
[2021-02-22 15:41:48.417] $GPGGA,064148.00,3713.9565377,N,13701.4253092,E,5,08,2.3,94.3558,M,37.55,M,6,0000*6F
[2021-02-22 15:41:48.526] $GPGGA,064148.10,3713.9565609,N,13701.4253294,E,5,08,2.3,94.2341,M,37.55,M,6,0000*69
[2021-02-22 15:41:48.620] $GPGGA,064148.20,3713.9566524,N,13701.4252548,E,5,08,2.3,94.2766,M,37.55,M,1,0000*64
[2021-02-22 15:41:48.698] $GPGGA,064148.30,3713.9567251,N,13701.4251992,E,5,08,2.3,94.2833,M,37.55,M,1,0000*66
[2021-02-22 15:41:48.823] $GPGGA,064148.40,3713.9567592,N,13701.4252012,E,5,08,2.3,94.2534,M,37.55,M,1,0000*61
[2021-02-22 15:41:48.901] $GPGGA,064148.50,3713.9568365,N,13701.4251617,E,5,08,2.3,94.0822,M,37.55,M,1,0000*69
[2021-02-22 15:41:49.011] $GPGGA,064148.60,3713.9568895,N,13701.4251339,E,5,08,2.3,93.9319,M,37.55,M,1,0000*6A
[2021-02-22 15:41:49.104] $GPGGA,064148.70,3713.9569359,N,13701.4251029,E,5,08,2.3,93.8796,M,37.55,M,1,0000*61
[2021-02-22 15:41:49.214] $GPGGA,064148.80,3713.9569878,N,13701.4250636,E,5,08,2.3,93.8691,M,37.55,M,1,0000*69
[2021-02-22 15:41:49.292] $GPGGA,064148.90,3713.9570301,N,13701.4250331,E,5,08,2.3,93.8724,M,37.55,M,1,0000*68
[2021-02-22 15:41:49.417] $GPGGA,064149.00,3713.9570713,N,13701.4250091,E,5,08,2.3,93.7910,M,37.55,M,2,0000*6B
[2021-02-22 15:41:49.495] $GPGGA,064149.10,3713.9570343,N,13701.4249927,E,5,10,1.6,93.8633,M,37.55,M,2,0000*69
[2021-02-22 15:41:49.620] $GPGGA,064149.20,3713.9570118,N,13701.4249790,E,5,10,1.6,93.9081,M,37.55,M,2,0000*6A
[2021-02-22 15:41:49.698] $GPGGA,064149.30,3713.9569894,N,13701.4249607,E,5,10,1.6,93.9287,M,37.55,M,2,0000*65
[2021-02-22 15:41:49.823] $GPGGA,064149.40,3713.9569431,N,13701.4249819,E,5,10,1.6,93.9997,M,37.55,M,2,0000*6A
[2021-02-22 15:41:49.917] $GPGGA,064149.50,3713.9569185,N,13701.4250045,E,5,10,1.6,93.9683,M,37.55,M,2,0000*62
[2021-02-22 15:41:50.011] $GPGGA,064149.60,3713.9568946,N,13701.4250209,E,5,10,1.6,93.9972,M,37.55,M,2,0000*6C
[2021-02-22 15:41:50.120] $GPGGA,064149.70,3713.9568935,N,13701.4250155,E,5,10,1.6,93.9841,M,37.55,M,2,0000*62
[2021-02-22 15:41:50.214] $GPGGA,064149.80,3713.9569050,N,13701.4249943,E,5,10,1.6,93.9551,M,37.55,M,2,0000*6D
[2021-02-22 15:41:50.323] $GPGGA,064149.90,3713.9569128,N,13701.4249648,E,5,10,1.6,93.9533,M,37.55,M,2,0000*62
[2021-02-22 15:41:50.401] $GPGGA,064150.00,3713.9569185,N,13701.4249338,E,5,10,1.6,93.9693,M,37.55,M,3,0000*6E
[2021-02-22 15:41:50.511] $GPGGA,064150.10,3713.9569118,N,13701.4249368,E,5,10,1.6,93.9755,M,37.55,M,3,0000*65
[2021-02-22 15:41:50.604] $GPGGA,064150.20,3713.9569201,N,13701.4249140,E,5,10,1.6,93.9657,M,37.55,M,3,0000*66
[2021-02-22 15:41:50.729] $GPGGA,064150.30,3713.9569191,N,13701.4249034,E,5,10,1.6,94.0103,M,37.55,M,3,0000*67
[2021-02-22 15:41:50.807] $GPGGA,064150.40,3713.9569180,N,13701.4248936,E,5,10,1.6,94.0412,M,37.55,M,3,0000*6F
[2021-02-22 15:41:50.917] $GPGGA,064150.50,3713.9569237,N,13701.4248804,E,5,10,1.6,94.0451,M,37.55,M,3,0000*66
[2021-02-22 15:41:51.011] $GPGGA,064150.60,3713.9569353,N,13701.4248455,E,5,10,1.6,94.0613,M,37.55,M,3,0000*6A
[2021-02-22 15:41:51.120] $GPGGA,064150.70,3713.9569337,N,13701.4248356,E,5,10,1.6,94.0825,M,37.55,M,3,0000*66
[2021-02-22 15:41:51.198] $GPGGA,064150.80,3713.9569249,N,13701.4248315,E,5,10,1.6,94.0977,M,37.55,M,3,0000*60
[2021-02-22 15:41:51.323] $GPGGA,064150.90,3713.9569197,N,13701.4248247,E,5,10,1.6,94.1090,M,37.55,M,3,0000*66
[2021-02-22 15:41:51.401] $GPGGA,064151.00,3713.9569103,N,13701.4248162,E,5,10,1.6,94.1653,M,37.55,M,4,0000*69
[2021-02-22 15:41:51.495] $GPGGA,064151.10,3713.9569039,N,13701.4248109,E,5,10,1.6,94.1932,M,37.55,M,4,0000*65
[2021-02-22 15:41:51.620] $GPGGA,064151.20,3713.9569032,N,13701.4247998,E,5,10,1.6,94.2166,M,37.55,M,4,0000*68
[2021-02-22 15:41:51.698] $GPGGA,064151.30,3713.9568940,N,13701.4248119,E,5,10,1.6,94.2383,M,37.55,M,4,0000*63
[2021-02-22 15:41:51.823] $GPGGA,064151.40,3713.9568951,N,13701.4248039,E,5,10,1.6,94.2780,M,37.55,M,4,0000*60
[2021-02-22 15:41:51.901] $GPGGA,064151.50,3713.9569046,N,13701.4247881,E,5,10,1.6,94.2840,M,37.55,M,4,0000*68
[2021-02-22 15:41:52.026] $GPGGA,064151.60,3713.9569183,N,13701.4247662,E,5,10,1.6,94.2978,M,37.55,M,4,0000*6A
[2021-02-22 15:41:52.104] $GPGGA,064151.70,3713.9569292,N,13701.4247529,E,5,10,1.6,94.3132,M,37.55,M,4,0000*63
[2021-02-22 15:41:52.229] $GPGGA,064151.80,3713.9569293,N,13701.4247541,E,5,10,1.6,94.3110,M,37.55,M,4,0000*63
[2021-02-22 15:41:52.307] $GPGGA,064151.90,3713.9569304,N,13701.4247476,E,5,10,1.6,94.3207,M,37.55,M,4,0000*6D
[2021-02-22 15:41:52.432] $GPGGA,064152.00,3713.9569387,N,13701.4247416,E,5,10,1.6,94.2923,M,37.55,M,5,0000*67
[2021-02-22 15:41:52.526] $GPGGA,064152.10,3713.9569532,N,13701.4247190,E,5,10,1.6,94.3070,M,37.55,M,5,0000*6B
[2021-02-22 15:41:52.620] $GPGGA,064152.20,3713.9569629,N,13701.4247204,E,5,10,1.6,94.2569,M,37.55,M,5,0000*63
[2021-02-22 15:41:52.698] $GPGGA,064152.30,3713.9569630,N,13701.4247356,E,5,10,1.6,94.2063,M,37.55,M,5,0000*63
[2021-02-22 15:41:52.823] $GPGGA,064152.40,3713.9569717,N,13701.4247179,E,5,10,1.6,94.2182,M,37.55,M,5,0000*61
[2021-02-22 15:41:52.901] $GPGGA,064152.50,3713.9569729,N,13701.4247158,E,5,10,1.6,94.2305,M,37.55,M,5,0000*63
[2021-02-22 15:41:53.026] $GPGGA,064152.60,3713.9569727,N,13701.4247166,E,5,10,1.6,94.2411,M,37.55,M,5,0000*61
[2021-02-22 15:41:53.104] $GPGGA,064152.70,3713.9569735,N,13701.4247225,E,5,10,1.6,94.2193,M,37.55,M,5,0000*68
[2021-02-22 15:41:53.229] $GPGGA,064152.80,3713.9569778,N,13701.4247231,E,5,10,1.6,94.1958,M,37.55,M,5,0000*67
[2021-02-22 15:41:53.307] $GPGGA,064152.90,3713.9569798,N,13701.4247231,E,5,10,1.6,94.1804,M,37.55,M,5,0000*60
[2021-02-22 15:41:53.417] $GPGGA,064153.00,3713.9569768,N,13701.4247254,E,5,10,1.6,94.1852,M,37.55,M,6,0000*64
[2021-02-22 15:41:53.510] $GPGGA,064153.10,3713.9569846,N,13701.4247125,E,5,10,1.6,94.1565,M,37.55,M,6,0000*6A
[2021-02-22 15:41:53.604] $GPGGA,064153.20,3713.9569905,N,13701.4247041,E,5,10,1.6,94.1251,M,37.55,M,1,0000*6B
[2021-02-22 15:41:53.729] $GPGGA,064153.30,3713.9569928,N,13701.4246975,E,5,10,1.6,94.1213,M,37.55,M,1,0000*6C
[2021-02-22 15:41:53.807] $GPGGA,064153.40,3713.9569945,N,13701.4246926,E,5,10,1.6,94.1263,M,37.55,M,1,0000*61
[2021-02-22 15:41:53.917] $GPGGA,064153.50,3713.9569941,N,13701.4246895,E,5,10,1.6,94.1263,M,37.55,M,1,0000*6D
[2021-02-22 15:41:54.010] $GPGGA,064153.60,3713.9569992,N,13701.4246815,E,5,10,1.6,94.1044,M,37.55,M,1,0000*6F
[2021-02-22 15:41:54.120] $GPGGA,064153.70,3713.9570044,N,13701.4246710,E,5,10,1.6,94.0842,M,37.55,M,1,0000*61
[2021-02-22 15:41:54.198] $GPGGA,064153.80,3713.9570120,N,13701.4246608,E,5,10,1.6,94.0537,M,37.55,M,1,0000*6A
[2021-02-22 15:41:54.323] $GPGGA,064153.90,3713.9570146,N,13701.4246569,E,5,10,1.6,94.0275,M,37.55,M,1,0000*6E
[2021-02-22 15:41:54.401] $GPGGA,064154.00,3713.9570176,N,13701.4246504,E,5,10,1.6,94.0210,M,37.55,M,2,0000*68
[2021-02-22 15:41:54.510] $GPGGA,064154.10,3713.9570220,N,13701.4246447,E,5,10,1.6,94.0096,M,37.55,M,2,0000*63
[2021-02-22 15:41:54.604] $GPGGA,064154.20,3713.9570264,N,13701.4246380,E,5,10,1.6,94.0022,M,37.55,M,2,0000*63
[2021-02-22 15:41:54.729] $GPGGA,064154.30,3713.9570307,N,13701.4246319,E,5,10,1.6,93.9826,M,37.55,M,2,0000*64
[2021-02-22 15:41:54.807] $GPGGA,064154.40,3713.9570318,N,13701.4246384,E,5,10,1.6,93.9450,M,37.55,M,2,0000*64
[2021-02-22 15:41:54.917] $GPGGA,064154.50,3713.9570374,N,13701.4246336,E,5,10,1.6,93.9114,M,37.55,M,2,0000*63
[2021-02-22 15:41:54.995] $GPGGA,064154.60,3713.9570372,N,13701.4246331,E,5,10,1.6,93.9076,M,37.55,M,2,0000*64
[2021-02-22 15:41:55.120] $GPGGA,064154.70,3713.9570361,N,13701.4246288,E,5,10,1.6,93.9225,M,37.55,M,2,0000*60
[2021-02-22 15:41:55.229] $GPGGA,064154.80,3713.9570347,N,13701.4246239,E,5,10,1.6,93.9431,M,37.55,M,2,0000*62
[2021-02-22 15:41:55.307] $GPGGA,064154.90,3713.9570318,N,13701.4246224,E,5,10,1.6,93.9389,M,37.55,M,2,0000*61
[2021-02-22 15:41:55.432] $GPGGA,064155.00,3713.9570270,N,13701.4246295,E,5,10,1.6,93.9343,M,37.55,M,3,0000*6B
[2021-02-22 15:41:55.526] $GPGGA,064155.10,3713.9570280,N,13701.4246232,E,5,10,1.6,93.9523,M,37.55,M,3,0000*68
[2021-02-22 15:41:55.620] $GPGGA,064155.20,3713.9570295,N,13701.4246160,E,5,10,1.6,93.9505,M,37.55,M,3,0000*6F
[2021-02-22 15:41:55.698] $GPGGA,064155.30,3713.9570315,N,13701.4246091,E,5,10,1.6,93.9631,M,37.55,M,3,0000*6C
[2021-02-22 15:41:55.838] $GPGGA,064155.40,3713.9570290,N,13701.4246098,E,5,10,1.6,93.9665,M,37.55,M,3,0000*6F
[2021-02-22 15:41:55.901] $GPGGA,064155.50,3713.9570270,N,13701.4246147,E,5,10,1.6,93.9512,M,37.55,M,3,0000*60
[2021-02-22 15:41:56.026] $GPGGA,064155.60,3713.9570264,N,13701.4246117,E,5,10,1.6,93.9563,M,37.55,M,3,0000*65
[2021-02-22 15:41:56.104] $GPGGA,064155.70,3713.9570274,N,13701.4246051,E,5,10,1.6,93.9516,M,37.55,M,3,0000*64
[2021-02-22 15:41:56.229] $GPGGA,064155.80,3713.9570233,N,13701.4246109,E,5,10,1.6,93.9531,M,37.55,M,3,0000*61
[2021-02-22 15:41:56.307] $GPGGA,064155.90,3713.9570186,N,13701.4246147,E,5,10,1.6,93.9546,M,37.55,M,3,0000*67
[2021-02-22 15:41:56.432] $GPGGA,064156.00,3713.9570163,N,13701.4246156,E,5,10,1.6,93.9536,M,37.55,M,4,0000*66
[2021-02-22 15:41:56.526] $GPGGA,064156.10,3713.9570147,N,13701.4246155,E,5,10,1.6,93.9576,M,37.55,M,4,0000*66
[2021-02-22 15:41:56.620] $GPGGA,064156.20,3713.9570118,N,13701.4246175,E,5,10,1.6,93.9692,M,37.55,M,4,0000*64
[2021-02-22 15:41:56.698] $GPGGA,064156.30,3713.9570095,N,13701.4246209,E,5,10,1.6,93.9654,M,37.55,M,4,0000*63
[2021-02-22 15:41:56.823] $GPGGA,064156.40,3713.9570084,N,13701.4246224,E,5,10,1.6,93.9674,M,37.55,M,4,0000*69
[2021-02-22 15:41:56.901] $GPGGA,064156.50,3713.9570082,N,13701.4246225,E,5,10,1.6,93.9776,M,37.55,M,4,0000*6C
[2021-02-22 15:41:57.026] $GPGGA,064156.60,3713.9570098,N,13701.4246227,E,5,10,1.6,93.9758,M,37.55,M,4,0000*6A
[2021-02-22 15:41:57.120] $GPGGA,064156.70,3713.9570132,N,13701.4246207,E,5,10,1.6,93.9795,M,37.55,M,4,0000*69
[2021-02-22 15:41:57.198] $GPGGA,064156.80,3713.9570176,N,13701.4246182,E,5,10,1.6,93.9705,M,37.55,M,4,0000*61
[2021-02-22 15:41:57.323] $GPGGA,064156.90,3713.9570203,N,13701.4246217,E,5,10,1.6,93.9550,M,37.55,M,4,0000*6C
[2021-02-22 15:41:57.401] $GPGGA,064157.00,3713.9570208,N,13701.4246319,E,5,10,1.6,93.9330,M,37.55,M,5,0000*61
[2021-02-22 15:41:57.510] $GPGGA,064157.10,3713.9570238,N,13701.4246370,E,5,10,1.6,93.9115,M,37.55,M,5,0000*69
[2021-02-22 15:41:57.604] $GPGGA,064157.20,3713.9570024,N,13701.4246544,E,5,10,1.6,93.9099,M,37.55,M,5,0000*61
[2021-02-22 15:41:57.729] $GPGGA,064157.30,3713.9569904,N,13701.4246688,E,5,10,1.6,93.9153,M,37.55,M,5,0000*67
[2021-02-22 15:41:57.807] $GPGGA,064157.40,3713.9569845,N,13701.4246773,E,5,10,1.6,93.9372,M,37.55,M,5,0000*60
[2021-02-22 15:41:57.916] $GPGGA,064157.50,3713.9569806,N,13701.4246833,E,5,10,1.6,93.9703,M,37.55,M,5,0000*6F
[2021-02-22 15:41:58.010] $GPGGA,064157.60,3713.9569796,N,13701.4246821,E,5,10,1.6,94.0147,M,37.55,M,5,0000*61
[2021-02-22 15:41:58.119] $GPGGA,064157.70,3713.9569862,N,13701.4246759,E,5,10,1.6,94.0241,M,37.55,M,5,0000*61
[2021-02-22 15:41:58.198] $GPGGA,064157.80,3713.9569936,N,13701.4246691,E,5,10,1.6,94.0146,M,37.55,M,5,0000*6F
[2021-02-22 15:41:58.323] $GPGGA,064157.90,3713.9569974,N,13701.4246661,E,5,10,1.6,94.0255,M,37.55,M,5,0000*66
[2021-02-22 15:41:58.401] $GPGGA,064158.00,3713.9570018,N,13701.4246640,E,5,10,1.6,94.0202,M,37.55,M,6,0000*69
[2021-02-22 15:41:58.510] $GPGGA,064158.10,3713.9570051,N,13701.4246595,E,5,10,1.6,94.0430,M,37.55,M,6,0000*69
