
[2021-02-22 15:35:07.183] $GPGGA,063455.30,,,,,0,00,0.0,,M,,M,0,0000*54
[2021-02-22 15:35:07.214] $GPGGA,063455.40,,,,,0,00,0.0,,M,,M,0,0000*53
[2021-02-22 15:35:07.214] $GPGGA,063455.50,,,,,0,00,0.0,,M,,M,0,0000*52
[2021-02-22 15:35:07.214] $GPGGA,063455.60,,,,,0,00,0.0,,M,,M,0,0000*51
[2021-02-22 15:35:07.214] $GPGGA,063455.70,,,,,0,00,0.0,,M,,M,0,0000*50
[2021-02-22 15:35:07.214] $GPGGA,063455.80,,,,,0,00,0.0,,M,,M,0,0000*5F
[2021-02-22 15:35:07.214] $GPGGA,063455.90,,,,,0,00,0.0,,M,,M,0,0000*5E
[2021-02-22 15:35:07.214] $GPGGA,063456.00,,,,,0,00,0.0,,M,,M,0,0000*54
[2021-02-22 15:35:07.214] $GPGGA,063456.10,,,,,0,00,0.0,,M,,M,0,0000*55
[2021-02-22 15:35:07.214] $GPGGA,063456.20,,,,,0,00,0.0,,M,,M,0,0000*56
[2021-02-22 15:35:07.214] $GPGGA,063456.30,,,,,0,00,0.0,,M,,M,0,0000*57
[2021-02-22 15:35:07.214] $GPGGA,063456.40,,,,,0,00,0.0,,M,,M,0,0000*50
[2021-02-22 15:35:07.214] $GPGGA,063456.50,,,,,0,00,0.0,,M,,M,0,0000*51
[2021-02-22 15:35:07.214] $GPGGA,063456.60,,,,,0,00,0.0,,M,,M,0,0000*52
[2021-02-22 15:35:07.214] $GPGGA,063456.70,,,,,0,00,0.0,,M,,M,0,0000*53
[2021-02-22 15:35:07.214] $GPGGA,063456.80,,,,,0,00,0.0,,M,,M,0,0000*5C
[2021-02-22 15:35:07.214] $GPGGA,063456.90,,,,,0,00,0.0,,M,,M,0,0000*5D
[2021-02-22 15:35:07.214] $GPGGA,063457.00,,,,,0,00,0.0,,M,,M,0,0000*55
[2021-02-22 15:35:07.214] $GPGGA,063457.10,,,,,0,00,0.0,,M,,M,0,0000*54
[2021-02-22 15:35:07.214] $GPGGA,063457.20,,,,,0,00,0.0,,M,,M,0,0000*57
[2021-02-22 15:35:07.214] $GPGGA,063457.30,,,,,0,00,0.0,,M,,M,0,0000*56
[2021-02-22 15:35:07.214] $GPGGA,063457.40,,,,,0,00,0.0,,M,,M,0,0000*51
[2021-02-22 15:35:07.214] $GPGGA,063457.50,,,,,0,00,0.0,,M,,M,0,0000*50
[2021-02-22 15:35:07.230] $GPGGA,063457.60,,,,,0,00,0.0,,M,,M,0,0000*53
[2021-02-22 15:35:07.230] $GPGGA,063457.70,,,,,0,00,0.0,,M,,M,0,0000*52
[2021-02-22 15:35:07.230] $GPGGA,063457.80,,,,,0,00,0.0,,M,,M,0,0000*5D
[2021-02-22 15:35:07.230] $GPGGA,063457.90,,,,,0,00,0.0,,M,,M,0,0000*5C
[2021-02-22 15:35:07.230] $GPGGA,063458.00,,,,,0,00,0.0,,M,,M,0,0000*5A
[2021-02-22 15:35:07.230] $GPGGA,063458.10,,,,,0,00,0.0,,M,,M,0,0000*5B
[2021-02-22 15:35:07.230] $GPGGA,063458.20,,,,,0,00,0.0,,M,,M,0,0000*58
[2021-02-22 15:35:07.230] $GPGGA,063458.30,,,,,0,00,0.0,,M,,M,0,0000*59
[2021-02-22 15:35:07.230] $GPGGA,063458.40,,,,,0,00,0.0,,M,,M,0,0000*5E
[2021-02-22 15:35:07.230] $GPGGA,063458.50,,,,,0,00,0.0,,M,,M,0,0000*5F
[2021-02-22 15:35:07.230] $GPGGA,063458.60,,,,,0,00,0.0,,M,,M,0,0000*5C
[2021-02-22 15:35:07.230] $GPGGA,063458.70,,,,,0,00,0.0,,M,,M,0,0000*5D
[2021-02-22 15:35:07.230] $GPGGA,063458.80,,,,,0,00,0.0,,M,,M,0,0000*52
[2021-02-22 15:35:07.230] $GPGGA,063458.90,,,,,0,00,0.0,,M,,M,0,0000*53
[2021-02-22 15:35:07.230] $GPGGA,063459.00,,,,,0,00,0.0,,M,,M,0,0000*5B
[2021-02-22 15:35:07.230] $GPGGA,063459.10,,,,,0,00,0.0,,M,,M,0,0000*5A
[2021-02-22 15:35:07.230] $GPGGA,063459.20,,,,,0,00,0.0,,M,,M,0,0000*59
[2021-02-22 15:35:07.230] $GPGGA,063459.30,,,,,0,00,0.0,,M,,M,0,0000*58
[2021-02-22 15:35:07.230] $GPGGA,063459.40,,,,,0,00,0.0,,M,,M,0,0000*5F
[2021-02-22 15:35:07.230] $GPGGA,063459.50,,,,,0,00,0.0,,M,,M,0,0000*5E
[2021-02-22 15:35:07.230] $GPGGA,063459.60,,,,,0,00,0.0,,M,,M,0,0000*5D
[2021-02-22 15:35:07.230] $GPGGA,063459.70,,,,,0,00,0.0,,M,,M,0,0000*5C
[2021-02-22 15:35:07.246] $GPGGA,063459.80,,,,,0,00,0.0,,M,,M,0,0000*53
[2021-02-22 15:35:07.246] $GPGGA,063459.90,,,,,0,00,0.0,,M,,M,0,0000*52
[2021-02-22 15:35:07.246] $GPGGA,063500.00,,,,,0,00,0.0,,M,,M,0,0000*56
[2021-02-22 15:35:07.246] $GPGGA,063500.10,,,,,0,00,0.0,,M,,M,0,0000*57
[2021-02-22 15:35:07.246] $GPGGA,063500.20,,,,,0,00,0.0,,M,,M,0,0000*54
[2021-02-22 15:35:07.246] $GPGGA,063500.30,,,,,0,00,0.0,,M,,M,0,0000*55
[2021-02-22 15:35:07.246] $GPGGA,063500.40,,,,,0,00,0.0,,M,,M,0,0000*52
[2021-02-22 15:35:07.246] $GPGGA,063500.50,,,,,0,00,0.0,,M,,M,0,0000*53
[2021-02-22 15:35:07.246] $GPGGA,063500.60,,,,,0,00,0.0,,M,,M,0,0000*50
[2021-02-22 15:35:07.246] $GPGGA,063500.70,,,,,0,00,0.0,,M,,M,0,0000*51
[2021-02-22 15:35:07.246] $GPGGA,063500.80,,,,,0,00,0.0,,M,,M,0,0000*5E
[2021-02-22 15:35:07.246] $GPGGA,063500.90,,,,,0,00,0.0,,M,,M,0,0000*5F
[2021-02-22 15:35:07.246] $GPGGA,063501.00,,,,,0,00,0.0,,M,,M,0,0000*57
[2021-02-22 15:35:07.246] $GPGGA,063501.10,,,,,0,00,0.0,,M,,M,0,0000*56
[2021-02-22 15:35:07.246] $GPGGA,063501.20,,,,,0,00,0.0,,M,,M,0,0000*55
[2021-02-22 15:35:07.246] $GPGGA,063501.30,,,,,0,00,0.0,,M,,M,0,0000*54
[2021-02-22 15:35:07.246] $GPGGA,063501.40,,,,,0,00,0.0,,M,,M,0,0000*53
[2021-02-22 15:35:07.246] $GPGGA,063501.50,,,,,0,00,0.0,,M,,M,0,0000*52
[2021-02-22 15:35:07.246] $GPGGA,063501.60,,,,,0,00,0.0,,M,,M,0,0000*51
[2021-02-22 15:35:07.246] $GPGGA,063501.70,,,,,0,00,0.0,,M,,M,0,0000*50
[2021-02-22 15:35:07.246] $GPGGA,063501.80,,,,,0,00,0.0,,M,,M,0,0000*5F
[2021-02-22 15:35:07.261] $GPGGA,063501.90,,,,,0,00,0.0,,M,,M,0,0000*5E
[2021-02-22 15:35:07.261] $GPGGA,063502.00,,,,,0,00,0.0,,M,,M,0,0000*54
[2021-02-22 15:35:07.261] $GPGGA,063502.10,,,,,0,00,0.0,,M,,M,0,0000*55
[2021-02-22 15:35:07.261] $GPGGA,063502.20,,,,,0,00,0.0,,M,,M,0,0000*56
[2021-02-22 15:35:07.261] $GPGGA,063502.30,,,,,0,00,0.0,,M,,M,0,0000*57
[2021-02-22 15:35:07.261] $GPGGA,063502.40,,,,,0,00,0.0,,M,,M,0,0000*50
[2021-02-22 15:35:07.261] $GPGGA,063502.50,,,,,0,00,0.0,,M,,M,0,0000*51
[2021-02-22 15:35:07.261] $GPGGA,063502.60,,,,,0,00,0.0,,M,,M,0,0000*52
[2021-02-22 15:35:07.261] $GPGGA,063502.70,,,,,0,00,0.0,,M,,M,0,0000*53
[2021-02-22 15:35:07.261] $GPGGA,063502.80,,,,,0,00,0.0,,M,,M,0,0000*5C
[2021-02-22 15:35:07.261] $GPGGA,063502.90,,,,,0,00,0.0,,M,,M,0,0000*5D
[2021-02-22 15:35:07.261] $GPGGA,063503.00,,,,,0,00,0.0,,M,,M,0,0000*55
[2021-02-22 15:35:07.261] $GPGGA,063503.10,,,,,0,00,0.0,,M,,M,0,0000*54
[2021-02-22 15:35:07.261] $GPGGA,063503.20,,,,,0,00,0.0,,M,,M,0,0000*57
[2021-02-22 15:35:07.261] $GPGGA,063503.30,,,,,0,00,0.0,,M,,M,0,0000*56
[2021-02-22 15:35:07.261] $GPGGA,063503.40,,,,,0,00,0.0,,M,,M,0,0000*51
[2021-02-22 15:35:07.261] $GPGGA,063503.50,,,,,0,00,0.0,,M,,M,0,0000*50
[2021-02-22 15:35:07.261] $GPGGA,063503.60,,,,,0,00,0.0,,M,,M,0,0000*53
[2021-02-22 15:35:07.261] $GPGGA,063503.70,,,,,0,00,0.0,,M,,M,0,0000*52
[2021-02-22 15:35:07.261] $GPGGA,063503.80,,,,,0,00,0.0,,M,,M,0,0000*5D
[2021-02-22 15:35:07.261] $GPGGA,063503.90,,,,,0,00,0.0,,M,,M,0,0000*5C
[2021-02-22 15:35:07.261] $GPGGA,063504.00,,,,,0,00,0.0,,M,,M,0,0000*52
[2021-02-22 15:35:07.277] $GPGGA,063504.10,,,,,0,00,0.0,,M,,M,0,0000*53
[2021-02-22 15:35:07.277] $GPGGA,063504.20,,,,,0,00,0.0,,M,,M,0,0000*50
[2021-02-22 15:35:07.277] $GPGGA,063504.30,,,,,0,00,0.0,,M,,M,0,0000*51
[2021-02-22 15:35:07.277] $GPGGA,063504.40,,,,,0,00,0.0,,M,,M,0,0000*56
[2021-02-22 15:35:07.277] $GPGGA,063504.50,,,,,0,00,0.0,,M,,M,0,0000*57
[2021-02-22 15:35:07.277] $GPGGA,063504.60,,,,,0,00,0.0,,M,,M,0,0000*54
[2021-02-22 15:35:07.277] $GPGGA,063504.70,,,,,0,00,0.0,,M,,M,0,0000*55
[2021-02-22 15:35:07.277] $GPGGA,063504.80,,,,,0,00,0.0,,M,,M,0,0000*5A
[2021-02-22 15:35:07.277] $GPGGA,063504.90,,,,,0,00,0.0,,M,,M,0,0000*5B
[2021-02-22 15:35:07.277] $GPGGA,063505.00,,,,,0,00,0.0,,M,,M,0,0000*53
[2021-02-22 15:35:07.277] $GPGGA,063505.10,,,,,0,00,0.0,,M,,M,0,0000*52
[2021-02-22 15:35:07.277] $GPGGA,063505.20,,,,,0,00,0.0,,M,,M,0,0000*51
[2021-02-22 15:35:07.277] $GPGGA,063505.30,,,,,0,00,0.0,,M,,M,0,0000*50
[2021-02-22 15:35:07.277] $GPGGA,063505.40,,,,,0,00,0.0,,M,,M,0,0000*57
[2021-02-22 15:35:07.277] $GPGGA,063505.50,,,,,0,00,0.0,,M,,M,0,0000*56
[2021-02-22 15:35:07.277] $GPGGA,063505.60,,,,,0,00,0.0,,M,,M,0,0000*55
[2021-02-22 15:35:07.277] $GPGGA,063505.70,,,,,0,00,0.0,,M,,M,0,0000*54
[2021-02-22 15:35:07.277] $GPGGA,063505.80,,,,,0,00,0.0,,M,,M,0,0000*5B
[2021-02-22 15:35:07.277] $GPGGA,063505.90,,,,,0,00,0.0,,M,,M,0,0000*5A
[2021-02-22 15:35:07.277] $GPGGA,063506.00,,,,,0,00,0.0,,M,,M,0,0000*50
[2021-02-22 15:35:07.277] $GPGGA,063506.10,,,,,0,00,0.0,,M,,M,0,0000*51
[2021-02-22 15:35:07.277] $GPGGA,063506.20,,,,,0,00,0.0,,M,,M,0,0000*52
[2021-02-22 15:35:07.277] $GPGGA,063506.30,,,,,0,00,0.0,,M,,M,0,0000*53
[2021-02-22 15:35:07.277] $GPGGA,063506.40,,,,,0,00,0.0,,M,,M,0,0000*54
[2021-02-22 15:35:07.277] $GPGGA,063506.50,,,,,0,00,0.0,,M,,M,0,0000*55
[2021-02-22 15:35:07.277] $GPGGA,063506.60,,,,,0,00,0.0,,M,,M,0,0000*56
[2021-02-22 15:35:07.277] $GPGGA,063506.70,,,,,0,00,0.0,,M,,M,0,0000*57
[2021-02-22 15:35:07.277] $GPGGA,063506.80,,,,,0,00,0.0,,M,,M,0,0000*58
[2021-02-22 15:35:07.293] $GPGGA,063506.90,,,,,0,00,0.0,,M,,M,0,0000*59
[2021-02-22 15:35:07.402] $GPGGA,063507.00,,,,,0,00,0.0,,M,,M,0,0000*51
[2021-02-22 15:35:07.496] $GPGGA,063507.10,,,,,0,00,0.0,,M,,M,0,0000*50
[2021-02-22 15:35:07.589] $GPGGA,063507.20,,,,,0,00,0.0,,M,,M,0,0000*53
[2021-02-22 15:35:07.683] $GPGGA,063507.30,,,,,0,00,0.0,,M,,M,0,0000*52
[2021-02-22 15:35:07.793] $GPGGA,063507.40,,,,,0,00,0.0,,M,,M,0,0000*55
[2021-02-22 15:35:07.902] $GPGGA,063507.50,,,,,0,00,0.0,,M,,M,0,0000*54
[2021-02-22 15:35:07.996] $GPGGA,063507.60,,,,,0,00,0.0,,M,,M,0,0000*57
[2021-02-22 15:35:08.089] $GPGGA,063507.70,,,,,0,00,0.0,,M,,M,0,0000*56
[2021-02-22 15:35:08.183] $GPGGA,063507.80,,,,,0,00,0.0,,M,,M,0,0000*59
[2021-02-22 15:35:08.277] $GPGGA,063507.90,,,,,0,00,0.0,,M,,M,0,0000*58
[2021-02-22 15:35:08.386] $GPGGA,063508.00,,,,,0,00,0.0,,M,,M,0,0000*5E
[2021-02-22 15:35:08.496] $GPGGA,063508.10,,,,,0,00,0.0,,M,,M,0,0000*5F
[2021-02-22 15:35:08.589] $GPGGA,063508.20,,,,,0,00,0.0,,M,,M,0,0000*5C
[2021-02-22 15:35:08.683] $GPGGA,063508.30,,,,,0,00,0.0,,M,,M,0,0000*5D
[2021-02-22 15:35:08.793] $GPGGA,063508.40,,,,,0,00,0.0,,M,,M,0,0000*5A
[2021-02-22 15:35:08.886] $GPGGA,063508.50,,,,,0,00,0.0,,M,,M,0,0000*5B
[2021-02-22 15:35:08.980] $GPGGA,063508.60,,,,,0,00,0.0,,M,,M,0,0000*58
[2021-02-22 15:35:09.105] $GPGGA,063508.70,,,,,0,00,0.0,,M,,M,0,0000*59
[2021-02-22 15:35:09.199] $GPGGA,063508.80,,,,,0,00,0.0,,M,,M,0,0000*56
[2021-02-22 15:35:09.292] $GPGGA,063508.90,,,,,0,00,0.0,,M,,M,0,0000*57
[2021-02-22 15:35:09.386] $GPGGA,063509.00,,,,,0,00,0.0,,M,,M,0,0000*5F
[2021-02-22 15:35:09.496] $GPGGA,063509.10,,,,,0,00,0.0,,M,,M,0,0000*5E
[2021-02-22 15:35:09.589] $GPGGA,063509.20,,,,,0,00,0.0,,M,,M,0,0000*5D
[2021-02-22 15:35:09.683] $GPGGA,063509.30,,,,,0,00,0.0,,M,,M,0,0000*5C
[2021-02-22 15:35:09.792] $GPGGA,063509.40,,,,,0,00,0.0,,M,,M,0,0000*5B
[2021-02-22 15:35:09.902] $GPGGA,063509.50,,,,,0,00,0.0,,M,,M,0,0000*5A
[2021-02-22 15:35:09.996] $GPGGA,063509.60,,,,,0,00,0.0,,M,,M,0,0000*59
[2021-02-22 15:35:10.089] $GPGGA,063509.70,,,,,0,00,0.0,,M,,M,0,0000*58
[2021-02-22 15:35:10.183] $GPGGA,063509.80,,,,,0,00,0.0,,M,,M,0,0000*57
[2021-02-22 15:35:10.292] $GPGGA,063509.90,,,,,0,00,0.0,,M,,M,0,0000*56
[2021-02-22 15:35:10.386] $GPGGA,063510.00,,,,,0,00,0.0,,M,,M,0,0000*57
[2021-02-22 15:35:10.495] $GPGGA,063510.10,,,,,0,00,0.0,,M,,M,0,0000*56
[2021-02-22 15:35:10.589] $GPGGA,063510.20,,,,,0,00,0.0,,M,,M,0,0000*55
[2021-02-22 15:35:10.699] $GPGGA,063510.30,,,,,0,00,0.0,,M,,M,0,0000*54
[2021-02-22 15:35:10.792] $GPGGA,063510.40,,,,,0,00,0.0,,M,,M,0,0000*53
[2021-02-22 15:35:10.886] $GPGGA,063510.50,,,,,0,00,0.0,,M,,M,0,0000*52
[2021-02-22 15:35:10.995] $GPGGA,063510.60,,,,,0,00,0.0,,M,,M,0,0000*51
[2021-02-22 15:35:11.105] $GPGGA,063510.70,,,,,0,00,0.0,,M,,M,0,0000*50
[2021-02-22 15:35:11.199] $GPGGA,063510.80,,,,,0,00,0.0,,M,,M,0,0000*5F
[2021-02-22 15:35:11.292] $GPGGA,063510.90,,,,,0,00,0.0,,M,,M,0,0000*5E
[2021-02-22 15:35:11.402] $GPGGA,063511.00,,,,,0,00,0.0,,M,,M,0,0000*56
[2021-02-22 15:35:11.495] $GPGGA,063511.10,,,,,0,00,0.0,,M,,M,0,0000*57
[2021-02-22 15:35:11.589] $GPGGA,063511.20,,,,,0,00,0.0,,M,,M,0,0000*54
[2021-02-22 15:35:11.683] $GPGGA,063511.30,,,,,0,00,0.0,,M,,M,0,0000*55
[2021-02-22 15:35:11.808] $GPGGA,063511.40,,,,,0,00,0.0,,M,,M,0,0000*52
[2021-02-22 15:35:11.902] $GPGGA,063511.50,,,,,0,00,0.0,,M,,M,0,0000*53
[2021-02-22 15:35:11.995] $GPGGA,063511.60,,,,,0,00,0.0,,M,,M,0,0000*50
[2021-02-22 15:35:12.089] $GPGGA,063511.70,,,,,0,00,0.0,,M,,M,0,0000*51
[2021-02-22 15:35:12.183] $GPGGA,063511.80,,,,,0,00,0.0,,M,,M,0,0000*5E
[2021-02-22 15:35:12.292] $GPGGA,063511.90,,,,,0,00,0.0,,M,,M,0,0000*5F
[2021-02-22 15:35:12.386] $GPGGA,063512.00,,,,,0,00,0.0,,M,,M,0,0000*55
[2021-02-22 15:35:12.495] $GPGGA,063512.10,,,,,0,00,0.0,,M,,M,0,0000*54
[2021-02-22 15:35:12.589] $GPGGA,063512.20,,,,,0,00,0.0,,M,,M,0,0000*57
[2021-02-22 15:35:12.698] $GPGGA,063512.30,,,,,0,00,0.0,,M,,M,0,0000*56
[2021-02-22 15:35:12.792] $GPGGA,063512.40,,,,,0,00,0.0,,M,,M,0,0000*51
[2021-02-22 15:35:12.886] $GPGGA,063512.50,,,,,0,00,0.0,,M,,M,0,0000*50
[2021-02-22 15:35:12.980] $GPGGA,063512.60,,,,,0,00,0.0,,M,,M,0,0000*53
[2021-02-22 15:35:13.105] $GPGGA,063512.70,,,,,0,00,0.0,,M,,M,0,0000*52
[2021-02-22 15:35:13.198] $GPGGA,063512.80,,,,,0,00,0.0,,M,,M,0,0000*5D
[2021-02-22 15:35:13.292] $GPGGA,063512.90,,,,,0,00,0.0,,M,,M,0,0000*5C
[2021-02-22 15:35:13.386] $GPGGA,063513.00,,,,,0,00,0.0,,M,,M,0,0000*54
[2021-02-22 15:35:13.495] $GPGGA,063513.10,,,,,0,00,0.0,,M,,M,0,0000*55
[2021-02-22 15:35:13.589] $GPGGA,063513.20,,,,,0,00,0.0,,M,,M,0,0000*56
[2021-02-22 15:35:13.683] $GPGGA,063513.30,,,,,0,00,0.0,,M,,M,0,0000*57
[2021-02-22 15:35:13.777] $GPGGA,063513.40,,,,,0,00,0.0,,M,,M,0,0000*50
[2021-02-22 15:35:13.901] $GPGGA,063513.50,,,,,0,00,0.0,,M,,M,0,0000*51
[2021-02-22 15:35:13.995] $GPGGA,063513.60,,,,,0,00,0.0,,M,,M,0,0000*52
[2021-02-22 15:35:14.089] $GPGGA,063513.70,,,,,0,00,0.0,,M,,M,0,0000*53
[2021-02-22 15:35:14.183] $GPGGA,063513.80,,,,,0,00,0.0,,M,,M,0,0000*5C
[2021-02-22 15:35:14.292] $GPGGA,063513.90,,,,,0,00,0.0,,M,,M,0,0000*5D
[2021-02-22 15:35:14.386] $GPGGA,063514.00,,,,,0,00,0.0,,M,,M,0,0000*53
[2021-02-22 15:35:14.495] $GPGGA,063514.10,,,,,0,00,0.0,,M,,M,0,0000*52
[2021-02-22 15:35:14.605] $GPGGA,063514.20,,,,,0,00,0.0,,M,,M,0,0000*51
[2021-02-22 15:35:14.698] $GPGGA,063514.30,,,,,0,00,0.0,,M,,M,0,0000*50
[2021-02-22 15:35:14.792] $GPGGA,063514.40,,,,,0,00,0.0,,M,,M,0,0000*57
[2021-02-22 15:35:14.886] $GPGGA,063514.50,,,,,0,00,0.0,,M,,M,0,0000*56
[2021-02-22 15:35:14.995] $GPGGA,063514.60,,,,,0,00,0.0,,M,,M,0,0000*55
[2021-02-22 15:35:15.089] $GPGGA,063514.70,,,,,0,00,0.0,,M,,M,0,0000*54
[2021-02-22 15:35:15.198] $GPGGA,063514.80,,,,,0,00,0.0,,M,,M,0,0000*5B
[2021-02-22 15:35:15.292] $GPGGA,063514.90,,,,,0,00,0.0,,M,,M,0,0000*5A
[2021-02-22 15:35:15.401] $GPGGA,063515.00,,,,,0,00,0.0,,M,,M,0,0000*52
[2021-02-22 15:35:15.495] $GPGGA,063515.10,,,,,0,00,0.0,,M,,M,0,0000*53
[2021-02-22 15:35:15.589] $GPGGA,063515.20,,,,,0,00,0.0,,M,,M,0,0000*50
[2021-02-22 15:35:15.683] $GPGGA,063515.30,,,,,0,00,0.0,,M,,M,0,0000*51
[2021-02-22 15:35:15.808] $GPGGA,063515.40,,,,,0,00,0.0,,M,,M,0,0000*56
[2021-02-22 15:35:15.901] $GPGGA,063515.50,,,,,0,00,0.0,,M,,M,0,0000*57
[2021-02-22 15:35:15.995] $GPGGA,063515.60,,,,,0,00,0.0,,M,,M,0,0000*54
[2021-02-22 15:35:16.089] $GPGGA,063515.70,,,,,0,00,0.0,,M,,M,0,0000*55
[2021-02-22 15:35:16.183] $GPGGA,063515.80,,,,,0,00,0.0,,M,,M,0,0000*5A
[2021-02-22 15:35:16.292] $GPGGA,063515.90,,,,,0,00,0.0,,M,,M,0,0000*5B
[2021-02-22 15:35:16.386] $GPGGA,063516.00,,,,,0,00,0.0,,M,,M,0,0000*51
[2021-02-22 15:35:16.495] $GPGGA,063516.10,,,,,0,00,0.0,,M,,M,0,0000*50
[2021-02-22 15:35:16.589] $GPGGA,063516.20,,,,,0,00,0.0,,M,,M,0,0000*53
[2021-02-22 15:35:16.698] $GPGGA,063516.30,,,,,0,00,0.0,,M,,M,0,0000*52
[2021-02-22 15:35:16.792] $GPGGA,063516.40,,,,,0,00,0.0,,M,,M,0,0000*55
[2021-02-22 15:35:16.886] $GPGGA,063516.50,,,,,0,00,0.0,,M,,M,0,0000*54
[2021-02-22 15:35:16.979] $GPGGA,063516.60,,,,,0,00,0.0,,M,,M,0,0000*57
[2021-02-22 15:35:17.089] $GPGGA,063516.70,,,,,0,00,0.0,,M,,M,0,0000*56
[2021-02-22 15:35:17.198] $GPGGA,063516.80,,,,,0,00,0.0,,M,,M,0,0000*59
[2021-02-22 15:35:17.292] $GPGGA,063516.90,,,,,0,00,0.0,,M,,M,0,0000*58
[2021-02-22 15:35:17.386] $GPGGA,063517.00,,,,,0,00,0.0,,M,,M,0,0000*50
[2021-02-22 15:35:17.495] $GPGGA,063517.10,,,,,0,00,0.0,,M,,M,0,0000*51
[2021-02-22 15:35:17.589] $GPGGA,063517.20,,,,,0,00,0.0,,M,,M,0,0000*52
[2021-02-22 15:35:17.683] $GPGGA,063517.30,,,,,0,00,0.0,,M,,M,0,0000*53
[2021-02-22 15:35:17.776] $GPGGA,063517.40,,,,,0,00,0.0,,M,,M,0,0000*54
[2021-02-22 15:35:17.901] $GPGGA,063517.50,,,,,0,00,0.0,,M,,M,0,0000*55
[2021-02-22 15:35:17.995] $GPGGA,063517.60,,,,,0,00,0.0,,M,,M,0,0000*56
[2021-02-22 15:35:18.089] $GPGGA,063517.70,,,,,0,00,0.0,,M,,M,0,0000*57
[2021-02-22 15:35:18.198] $GPGGA,063517.80,,,,,0,00,0.0,,M,,M,0,0000*58
[2021-02-22 15:35:18.292] $GPGGA,063517.90,,,,,0,00,0.0,,M,,M,0,0000*59
[2021-02-22 15:35:18.386] $GPGGA,063518.00,,,,,0,00,0.0,,M,,M,0,0000*5F
[2021-02-22 15:35:18.495] $GPGGA,063518.10,,,,,0,00,0.0,,M,,M,0,0000*5E
[2021-02-22 15:35:18.604] $GPGGA,063518.20,,,,,0,00,0.0,,M,,M,0,0000*5D
[2021-02-22 15:35:18.698] $GPGGA,063518.30,,,,,0,00,0.0,,M,,M,0,0000*5C
[2021-02-22 15:35:18.792] $GPGGA,063518.40,,,,,0,00,0.0,,M,,M,0,0000*5B
[2021-02-22 15:35:18.886] $GPGGA,063518.50,,,,,0,00,0.0,,M,,M,0,0000*5A
[2021-02-22 15:35:18.995] $GPGGA,063518.60,,,,,0,00,0.0,,M,,M,0,0000*59
[2021-02-22 15:35:19.089] $GPGGA,063518.70,,,,,0,00,0.0,,M,,M,0,0000*58
[2021-02-22 15:35:19.198] $GPGGA,063518.80,,,,,0,00,0.0,,M,,M,0,0000*57
[2021-02-22 15:35:19.292] $GPGGA,063518.90,,,,,0,00,0.0,,M,,M,0,0000*56
[2021-02-22 15:35:19.401] $GPGGA,063519.00,,,,,0,00,0.0,,M,,M,0,0000*5E
[2021-02-22 15:35:19.495] $GPGGA,063519.10,,,,,0,00,0.0,,M,,M,0,0000*5F
[2021-02-22 15:35:19.589] $GPGGA,063519.20,,,,,0,00,0.0,,M,,M,0,0000*5C
[2021-02-22 15:35:19.682] $GPGGA,063519.30,,,,,0,00,0.0,,M,,M,0,0000*5D
[2021-02-22 15:35:19.792] $GPGGA,063519.40,,,,,0,00,0.0,,M,,M,0,0000*5A
[2021-02-22 15:35:19.901] $GPGGA,063519.50,,,,,0,00,0.0,,M,,M,0,0000*5B
[2021-02-22 15:35:19.995] $GPGGA,063519.60,,,,,0,00,0.0,,M,,M,0,0000*58
[2021-02-22 15:35:20.089] $GPGGA,063519.70,,,,,0,00,0.0,,M,,M,0,0000*59
[2021-02-22 15:35:20.198] $GPGGA,063519.80,,,,,0,00,0.0,,M,,M,0,0000*56
[2021-02-22 15:35:20.292] $GPGGA,063519.90,,,,,0,00,0.0,,M,,M,0,0000*57
[2021-02-22 15:35:20.385] $GPGGA,063520.00,,,,,0,00,0.0,,M,,M,0,0000*54
[2021-02-22 15:35:20.495] $GPGGA,063520.10,,,,,0,00,0.0,,M,,M,0,0000*55
[2021-02-22 15:35:20.589] $GPGGA,063520.20,,,,,0,00,0.0,,M,,M,0,0000*56
[2021-02-22 15:35:20.698] $GPGGA,063520.30,,,,,0,00,0.0,,M,,M,0,0000*57
[2021-02-22 15:35:20.792] $GPGGA,063520.40,,,,,0,00,0.0,,M,,M,0,0000*50
[2021-02-22 15:35:20.885] $GPGGA,063520.50,,,,,0,00,0.0,,M,,M,0,0000*51
[2021-02-22 15:35:20.979] $GPGGA,063520.60,,,,,0,00,0.0,,M,,M,0,0000*52
[2021-02-22 15:35:21.089] $GPGGA,063520.70,,,,,0,00,0.0,,M,,M,0,0000*53
[2021-02-22 15:35:21.198] $GPGGA,063520.80,,,,,0,00,0.0,,M,,M,0,0000*5C
[2021-02-22 15:35:21.292] $GPGGA,063520.90,,,,,0,00,0.0,,M,,M,0,0000*5D
[2021-02-22 15:35:21.385] $GPGGA,063521.00,,,,,0,00,0.0,,M,,M,0,0000*55
[2021-02-22 15:35:21.495] $GPGGA,063521.10,,,,,0,00,0.0,,M,,M,0,0000*54
[2021-02-22 15:35:21.588] $GPGGA,063521.20,,,,,0,00,0.0,,M,,M,0,0000*57
[2021-02-22 15:35:21.682] $GPGGA,063521.30,3713.9585657,N,13701.4227694,E,1,06,3.2,88.5267,M,37.55,M,,*56
[2021-02-22 15:35:21.807] $GPGGA,063521.40,3713.9590420,N,13701.4223473,E,1,06,3.2,88.1001,M,37.55,M,,*5E
[2021-02-22 15:35:21.885] $GPGGA,063521.50,3713.9590422,N,13701.4225089,E,1,06,3.2,88.4512,M,37.55,M,,*58
[2021-02-22 15:35:22.010] $GPGGA,063521.60,3713.9591108,N,13701.4228366,E,1,06,3.2,89.2804,M,37.55,M,,*55
[2021-02-22 15:35:22.088] $GPGGA,063521.70,3713.9596722,N,13701.4223788,E,1,06,3.2,88.5548,M,37.55,M,,*51
[2021-02-22 15:35:22.213] $GPGGA,063521.80,3713.9594433,N,13701.4228093,E,1,06,3.2,89.2398,M,37.55,M,,*54
[2021-02-22 15:35:22.292] $GPGGA,063521.90,3713.9587347,N,13701.4229480,E,1,06,3.2,88.0785,M,37.55,M,,*5F
[2021-02-22 15:35:22.417] $GPGGA,063522.00,3713.9589548,N,13701.4228012,E,1,06,3.2,87.8634,M,37.55,M,,*50
[2021-02-22 15:35:22.495] $GPGGA,063522.10,3713.9588078,N,13701.4225921,E,1,06,3.2,87.5802,M,37.55,M,,*54
[2021-02-22 15:35:22.604] $GPGGA,063522.20,3713.9591939,N,13701.4226460,E,1,06,3.2,88.1827,M,37.55,M,,*54
[2021-02-22 15:35:22.682] $GPGGA,063522.30,3713.9581927,N,13701.4232010,E,1,06,3.2,87.8438,M,37.55,M,,*59
[2021-02-22 15:35:22.807] $GPGGA,063522.40,3713.9579813,N,13701.4233259,E,1,06,3.2,87.5702,M,37.55,M,,*56
[2021-02-22 15:35:22.885] $GPGGA,063522.50,3713.9582754,N,13701.4232957,E,1,06,3.2,88.2863,M,37.55,M,,*5B
[2021-02-22 15:35:23.010] $GPGGA,063522.60,3713.9589579,N,13701.4229660,E,1,06,3.2,88.5932,M,37.55,M,,*5D
[2021-02-22 15:35:23.088] $GPGGA,063522.70,3713.9587629,N,13701.4229727,E,1,06,3.2,88.4300,M,37.55,M,,*5C
[2021-02-22 15:35:23.213] $GPGGA,063522.80,3713.9584509,N,13701.4231688,E,1,06,3.2,88.1065,M,37.55,M,,*59
[2021-02-22 15:35:23.292] $GPGGA,063522.90,3713.9577704,N,13701.4237239,E,1,06,3.2,88.4840,M,37.55,M,,*59
[2021-02-22 15:35:23.416] $GPGGA,063523.00,3713.9576449,N,13701.4236759,E,1,06,3.2,88.1957,M,37.55,M,,*5A
[2021-02-22 15:35:23.510] $GPGGA,063523.10,3713.9581127,N,13701.4233469,E,1,06,3.2,88.2351,M,37.55,M,,*54
[2021-02-22 15:35:23.588] $GPGGA,063523.20,3713.9587304,N,13701.4231579,E,1,06,3.2,88.7290,M,37.55,M,,*59
[2021-02-22 15:35:23.713] $GPGGA,063523.30,3713.9592520,N,13701.4227627,E,1,07,2.8,89.9686,M,37.55,M,,*55
[2021-02-22 15:35:23.791] $GPGGA,063523.40,3713.9597134,N,13701.4225972,E,1,07,2.8,91.0236,M,37.55,M,,*54
[2021-02-22 15:35:23.916] $GPGGA,063523.50,3713.9595703,N,13701.4225213,E,1,07,2.8,89.9895,M,37.55,M,,*5A
[2021-02-22 15:35:23.995] $GPGGA,063523.60,3713.9593615,N,13701.4225322,E,1,07,2.8,89.7060,M,37.55,M,,*56
[2021-02-22 15:35:24.120] $GPGGA,063523.70,3713.9593368,N,13701.4225238,E,1,07,2.8,89.9451,M,37.55,M,,*5A
[2021-02-22 15:35:24.198] $GPGGA,063523.80,3713.9593738,N,13701.4224686,E,1,07,2.8,89.9364,M,37.55,M,,*55
[2021-02-22 15:35:24.307] $GPGGA,063523.90,3713.9591906,N,13701.4228073,E,1,07,2.8,90.6632,M,37.55,M,,*54
[2021-02-22 15:35:24.385] $GPGGA,063524.00,3713.9592076,N,13701.4228113,E,1,07,2.8,91.0983,M,37.55,M,,*52
[2021-02-22 15:35:24.510] $GPGGA,063524.10,3713.9596795,N,13701.4225140,E,1,07,2.8,91.1806,M,37.55,M,,*5B
[2021-02-22 15:35:24.588] $GPGGA,063524.20,3713.9598821,N,13701.4223581,E,1,07,2.8,90.9265,M,37.55,M,,*5F
[2021-02-22 15:35:24.713] $GPGGA,063524.30,3713.9596978,N,13701.4224142,E,1,07,2.8,90.7940,M,37.55,M,,*53
[2021-02-22 15:35:24.791] $GPGGA,063524.40,3713.9597563,N,13701.4222866,E,1,07,2.8,90.5035,M,37.55,M,,*53
[2021-02-22 15:35:24.916] $GPGGA,063524.50,3713.9597462,N,13701.4223180,E,1,07,2.8,90.6802,M,37.55,M,,*5D
[2021-02-22 15:35:24.994] $GPGGA,063524.60,3713.9595260,N,13701.4223932,E,1,07,2.8,90.7342,M,37.55,M,,*57
[2021-02-22 15:35:25.104] $GPGGA,063524.70,3713.9597679,N,13701.4221535,E,1,07,2.8,90.6423,M,37.55,M,,*50
[2021-02-22 15:35:25.213] $GPGGA,063524.80,3713.9598744,N,13701.4221281,E,1,07,2.8,90.6538,M,37.55,M,,*5C
[2021-02-22 15:35:25.291] $GPGGA,063524.90,3713.9600156,N,13701.4220606,E,1,07,2.8,90.8534,M,37.55,M,,*52
[2021-02-22 15:35:25.416] $GPGGA,063525.00,3713.9600156,N,13701.4220430,E,1,07,2.8,90.7792,M,37.55,M,,*5C
[2021-02-22 15:35:25.494] $GPGGA,063525.10,3713.9598191,N,13701.4221850,E,1,07,2.8,90.8603,M,37.55,M,,*59
[2021-02-22 15:35:25.604] $GPGGA,063525.20,3713.9599085,N,13701.4221972,E,1,07,2.8,91.1081,M,37.55,M,,*5A
[2021-02-22 15:35:25.682] $GPGGA,063525.30,3713.9598702,N,13701.4222025,E,1,07,2.8,91.0352,M,37.55,M,,*56
[2021-02-22 15:35:25.807] $GPGGA,063525.40,3713.9597151,N,13701.4223237,E,1,07,2.8,90.8926,M,37.55,M,,*5E
[2021-02-22 15:35:25.885] $GPGGA,063525.50,3713.9597063,N,13701.4223194,E,1,07,2.8,90.9842,M,37.55,M,,*57
[2021-02-22 15:35:26.010] $GPGGA,063525.60,3713.9597733,N,13701.4222928,E,1,07,2.8,91.0665,M,37.55,M,,*5B
[2021-02-22 15:35:26.088] $GPGGA,063525.70,3713.9596743,N,13701.4223323,E,1,07,2.8,90.8526,M,37.55,M,,*51
[2021-02-22 15:35:26.213] $GPGGA,063525.80,3713.9597152,N,13701.4222188,E,1,07,2.8,90.5304,M,37.55,M,,*50
[2021-02-22 15:35:26.291] $GPGGA,063525.90,3713.9600193,N,13701.4219586,E,1,07,2.8,90.3724,M,37.55,M,,*53
[2021-02-22 15:35:26.416] $GPGGA,063526.00,3713.9598834,N,13701.4221124,E,1,07,2.8,90.3196,M,37.55,M,,*57
[2021-02-22 15:35:26.494] $GPGGA,063526.10,3713.9600089,N,13701.4220638,E,1,07,2.8,90.2664,M,37.55,M,,*5A
[2021-02-22 15:35:26.604] $GPGGA,063526.20,3713.9598034,N,13701.4221430,E,1,07,2.8,90.3475,M,37.55,M,,*55
[2021-02-22 15:35:26.682] $GPGGA,063526.30,3713.9594433,N,13701.4224854,E,1,07,2.8,90.5134,M,37.55,M,,*56
[2021-02-22 15:35:26.807] $GPGGA,063526.40,3713.9595488,N,13701.4225234,E,1,07,2.8,90.2433,M,37.55,M,,*58
[2021-02-22 15:35:26.885] $GPGGA,063526.50,3713.9599303,N,13701.4222782,E,1,07,2.8,90.7345,M,37.55,M,,*5D
[2021-02-22 15:35:27.010] $GPGGA,063526.60,3713.9600601,N,13701.4222154,E,1,07,2.8,90.4326,M,37.55,M,,*51
[2021-02-22 15:35:27.119] $GPGGA,063526.70,3713.9602943,N,13701.4220644,E,1,07,2.8,90.5598,M,37.55,M,,*5D
[2021-02-22 15:35:27.197] $GPGGA,063526.80,3713.9604002,N,13701.4221761,E,1,07,2.8,90.1963,M,37.55,M,,*53
[2021-02-22 15:35:27.307] $GPGGA,063526.90,3713.9599075,N,13701.4224998,E,1,07,2.8,89.6840,M,37.55,M,,*57
[2021-02-22 15:35:27.385] $GPGGA,063527.00,3713.9602139,N,13701.4222434,E,1,07,2.8,89.4475,M,37.55,M,,*52
[2021-02-22 15:35:27.510] $GPGGA,063527.10,3713.9601874,N,13701.4221375,E,1,07,2.8,89.5897,M,37.55,M,,*50
[2021-02-22 15:35:27.588] $GPGGA,063527.20,3713.9599287,N,13701.4223393,E,1,07,2.8,89.6885,M,37.55,M,,*5D
[2021-02-22 15:35:27.713] $GPGGA,063527.30,3713.9595839,N,13701.4227018,E,1,07,2.8,90.0923,M,37.55,M,,*58
[2021-02-22 15:35:27.791] $GPGGA,063527.40,3713.9596274,N,13701.4227530,E,1,07,2.8,90.1485,M,37.55,M,,*50
[2021-02-22 15:35:27.916] $GPGGA,063527.50,3713.9598628,N,13701.4223494,E,1,07,2.8,90.1343,M,37.55,M,,*54
[2021-02-22 15:35:27.994] $GPGGA,063527.60,3713.9597296,N,13701.4223532,E,1,07,2.8,90.5062,M,37.55,M,,*50
[2021-02-22 15:35:28.104] $GPGGA,063527.70,3713.9596711,N,13701.4222484,E,1,07,2.8,90.2202,M,37.55,M,,*54
[2021-02-22 15:35:28.197] $GPGGA,063527.80,3713.9599692,N,13701.4221742,E,1,07,2.8,90.2621,M,37.55,M,,*51
[2021-02-22 15:35:28.307] $GPGGA,063527.90,3713.9603424,N,13701.4220266,E,1,07,2.8,90.4844,M,37.55,M,,*56
[2021-02-22 15:35:28.385] $GPGGA,063528.00,3713.9607959,N,13701.4215416,E,1,07,2.8,90.0310,M,37.55,M,,*5A
[2021-02-22 15:35:28.510] $GPGGA,063528.10,3713.9606128,N,13701.4215659,E,1,07,2.8,90.1586,M,37.55,M,,*55
[2021-02-22 15:35:28.588] $GPGGA,063528.20,3713.9602526,N,13701.4217850,E,1,07,2.8,89.7651,M,37.55,M,,*5A
[2021-02-22 15:35:28.713] $GPGGA,063528.30,3713.9604049,N,13701.4218044,E,1,07,2.8,89.7099,M,37.55,M,,*51
[2021-02-22 15:35:28.807] $GPGGA,063528.40,3713.9602703,N,13701.4217900,E,1,07,2.8,89.3523,M,37.55,M,,*5F
[2021-02-22 15:35:28.885] $GPGGA,063528.50,3713.9606680,N,13701.4214418,E,1,07,2.8,89.3851,M,37.55,M,,*5F
[2021-02-22 15:35:29.010] $GPGGA,063528.60,3713.9605642,N,13701.4215629,E,1,07,2.8,89.0732,M,37.55,M,,*59
[2021-02-22 15:35:29.088] $GPGGA,063528.70,3713.9606590,N,13701.4214344,E,1,07,2.8,89.4949,M,37.55,M,,*5E
[2021-02-22 15:35:29.213] $GPGGA,063528.80,3713.9610802,N,13701.4211395,E,1,07,2.8,88.8425,M,37.55,M,,*53
[2021-02-22 15:35:29.291] $GPGGA,063528.90,3713.9613402,N,13701.4210660,E,1,07,2.8,89.2664,M,37.55,M,,*5F
[2021-02-22 15:35:29.416] $GPGGA,063529.00,3713.9613640,N,13701.4209647,E,1,07,2.8,89.4653,M,37.55,M,,*5C
[2021-02-22 15:35:29.494] $GPGGA,063529.10,3713.9614567,N,13701.4208130,E,1,07,2.8,89.3599,M,37.55,M,,*58
[2021-02-22 15:35:29.604] $GPGGA,063529.20,3713.9614112,N,13701.4209279,E,1,07,2.8,89.3741,M,37.55,M,,*55
[2021-02-22 15:35:29.697] $GPGGA,063529.30,3713.9612106,N,13701.4210585,E,1,07,2.8,89.6520,M,37.55,M,,*5B
[2021-02-22 15:35:29.807] $GPGGA,063529.40,3713.9611675,N,13701.4210298,E,1,07,2.8,89.7868,M,37.55,M,,*57
[2021-02-22 15:35:29.885] $GPGGA,063529.50,3713.9607928,N,13701.4212610,E,1,07,2.8,89.8260,M,37.55,M,,*5D
[2021-02-22 15:35:30.010] $GPGGA,063529.60,3713.9608524,N,13701.4212397,E,1,07,2.8,90.2917,M,37.55,M,,*52
[2021-02-22 15:35:30.088] $GPGGA,063529.70,3713.9604315,N,13701.4216914,E,1,07,2.8,90.5119,M,37.55,M,,*5F
[2021-02-22 15:35:30.213] $GPGGA,063529.80,3713.9608137,N,13701.4214075,E,1,07,2.8,90.5874,M,37.55,M,,*50
[2021-02-22 15:35:30.291] $GPGGA,063529.90,3713.9607538,N,13701.4215494,E,1,07,2.8,90.4405,M,37.55,M,,*54
[2021-02-22 15:35:30.416] $GPGGA,063530.00,3713.9609841,N,13701.4215174,E,1,07,2.8,90.0229,M,37.55,M,,*5F
[2021-02-22 15:35:30.494] $GPGGA,063530.10,3713.9606709,N,13701.4218093,E,1,07,2.8,90.0949,M,37.55,M,,*5A
[2021-02-22 15:35:30.603] $GPGGA,063530.20,3713.9610588,N,13701.4214701,E,1,07,2.8,89.8169,M,37.55,M,,*5F
[2021-02-22 15:35:30.713] $GPGGA,063530.30,3713.9606927,N,13701.4218079,E,1,07,2.8,90.2338,M,37.55,M,,*50
[2021-02-22 15:35:30.791] $GPGGA,063530.40,3713.9606014,N,13701.4217514,E,1,07,2.8,89.8559,M,37.55,M,,*5C
[2021-02-22 15:35:30.916] $GPGGA,063530.50,3713.9605181,N,13701.4217518,E,1,07,2.8,89.7248,M,37.55,M,,*57
[2021-02-22 15:35:30.994] $GPGGA,063530.60,3713.9606818,N,13701.4217390,E,1,07,2.8,90.1823,M,37.55,M,,*51
[2021-02-22 15:35:31.103] $GPGGA,063530.70,3713.9606150,N,13701.4218246,E,1,07,2.8,89.9285,M,37.55,M,,*56
[2021-02-22 15:35:31.197] $GPGGA,063530.80,3713.9606362,N,13701.4217799,E,1,07,2.8,89.9223,M,37.55,M,,*5E
[2021-02-22 15:35:31.307] $GPGGA,063530.90,3713.9611909,N,13701.4212375,E,1,07,2.8,89.4098,M,37.55,M,,*52
[2021-02-22 15:35:31.385] $GPGGA,063531.00,3713.9612245,N,13701.4210524,E,1,07,2.8,89.6004,M,37.55,M,,*5D
[2021-02-22 15:35:31.510] $GPGGA,063531.10,3713.9611302,N,13701.4211276,E,1,07,2.8,90.2406,M,37.55,M,,*56
[2021-02-22 15:35:31.588] $GPGGA,063531.20,3713.9610355,N,13701.4212700,E,1,07,2.8,90.2907,M,37.55,M,,*5D
[2021-02-22 15:35:31.713] $GPGGA,063531.30,3713.9604299,N,13701.4217273,E,1,07,2.8,90.4915,M,37.55,M,,*59
[2021-02-22 15:35:31.791] $GPGGA,063531.40,3713.9605204,N,13701.4215378,E,1,07,2.8,90.2633,M,37.55,M,,*5E
[2021-02-22 15:35:31.916] $GPGGA,063531.50,3713.9603771,N,13701.4216988,E,1,07,2.8,90.2933,M,37.55,M,,*57
[2021-02-22 15:35:31.994] $GPGGA,063531.60,3713.9608326,N,13701.4213722,E,1,07,2.8,89.8713,M,37.55,M,,*5C
[2021-02-22 15:35:32.103] $GPGGA,063531.70,3713.9604765,N,13701.4217546,E,1,07,2.8,90.4874,M,37.55,M,,*5C
[2021-02-22 15:35:32.182] $GPGGA,063531.80,3713.9605779,N,13701.4214223,E,1,07,2.8,91.3664,M,37.55,M,,*51
[2021-02-22 15:35:32.307] $GPGGA,063531.90,3713.9605600,N,13701.4214390,E,1,07,2.8,91.2188,M,37.55,M,,*52
[2021-02-22 15:35:32.416] $GPGGA,063532.00,3713.9604318,N,13701.4214467,E,1,07,2.8,90.6017,M,37.55,M,,*58
[2021-02-22 15:35:32.494] $GPGGA,063532.10,3713.9600813,N,13701.4218532,E,1,07,2.8,90.6905,M,37.55,M,,*5A
[2021-02-22 15:35:32.619] $GPGGA,063532.20,3713.9604702,N,13701.4216364,E,1,07,2.8,90.2237,M,37.55,M,,*57
[2021-02-22 15:35:32.697] $GPGGA,063532.30,3713.9607854,N,13701.4212517,E,1,07,2.8,89.4718,M,37.55,M,,*59
[2021-02-22 15:35:32.806] $GPGGA,063532.40,3713.9606487,N,13701.4213690,E,1,07,2.8,89.0830,M,37.55,M,,*51
[2021-02-22 15:35:32.885] $GPGGA,063532.50,3713.9606334,N,13701.4213892,E,1,07,2.8,89.1436,M,37.55,M,,*58
[2021-02-22 15:35:33.010] $GPGGA,063532.60,3713.9601540,N,13701.4216189,E,1,07,2.8,88.1739,M,37.55,M,,*52
[2021-02-22 15:35:33.088] $GPGGA,063532.70,3713.9605304,N,13701.4213849,E,1,07,2.8,88.3451,M,37.55,M,,*5E
[2021-02-22 15:35:33.213] $GPGGA,063532.80,3713.9609075,N,13701.4212078,E,1,07,2.8,88.4349,M,37.55,M,,*5A
[2021-02-22 15:35:33.291] $GPGGA,063532.90,3713.9606702,N,13701.4215597,E,1,07,2.8,88.2554,M,37.55,M,,*5C
[2021-02-22 15:35:33.416] $GPGGA,063533.00,3713.9608740,N,13701.4214550,E,1,07,2.8,88.2776,M,37.55,M,,*54
[2021-02-22 15:35:33.494] $GPGGA,063533.10,3713.9609922,N,13701.4213739,E,1,08,2.8,88.2825,M,37.55,M,,*52
[2021-02-22 15:35:33.603] $GPGGA,063533.20,3713.9608710,N,13701.4214319,E,1,08,2.8,88.7937,M,37.55,M,,*59
[2021-02-22 15:35:33.697] $GPGGA,063533.30,3713.9609926,N,13701.4213304,E,1,08,2.8,89.3573,M,37.55,M,,*50
[2021-02-22 15:35:33.806] $GPGGA,063533.40,3713.9608652,N,13701.4214809,E,1,08,2.8,89.3990,M,37.55,M,,*5A
[2021-02-22 15:35:33.885] $GPGGA,063533.50,3713.9608323,N,13701.4216601,E,1,08,2.8,89.6969,M,37.55,M,,*5F
[2021-02-22 15:35:34.010] $GPGGA,063533.60,3713.9606537,N,13701.4217536,E,1,08,2.8,89.8439,M,37.55,M,,*51
[2021-02-22 15:35:34.119] $GPGGA,063533.70,3713.9607469,N,13701.4217121,E,1,08,2.8,89.6778,M,37.55,M,,*51
[2021-02-22 15:35:34.197] $GPGGA,063533.80,3713.9607168,N,13701.4217221,E,1,08,2.8,90.0165,M,37.55,M,,*5D
[2021-02-22 15:35:34.322] $GPGGA,063533.90,3713.9608438,N,13701.4215285,E,1,08,2.8,89.2953,M,37.55,M,,*58
[2021-02-22 15:35:34.384] $GPGGA,063534.00,3713.9609313,N,13701.4215215,E,1,09,2.4,90.2204,M,37.55,M,,*5C
[2021-02-22 15:35:34.509] $GPGGA,063534.10,3713.9608976,N,13701.4213987,E,1,09,2.4,89.7500,M,37.55,M,,*5D
[2021-02-22 15:35:34.588] $GPGGA,063534.20,3713.9611626,N,13701.4213437,E,1,09,2.4,89.6241,M,37.55,M,,*59
[2021-02-22 15:35:34.713] $GPGGA,063534.30,3713.9611185,N,13701.4212738,E,1,09,2.4,89.0401,M,37.55,M,,*5F
[2021-02-22 15:35:34.791] $GPGGA,063534.40,3713.9609909,N,13701.4212853,E,1,09,2.4,88.8231,M,37.55,M,,*53
[2021-02-22 15:35:34.916] $GPGGA,063534.50,3713.9609500,N,13701.4215208,E,1,09,2.4,89.2625,M,37.55,M,,*5E
[2021-02-22 15:35:34.994] $GPGGA,063534.60,3713.9610926,N,13701.4212834,E,1,09,2.4,88.6773,M,37.55,M,,*58
[2021-02-22 15:35:35.119] $GPGGA,063534.70,3713.9612435,N,13701.4210958,E,1,09,2.4,88.6073,M,37.55,M,,*5A
[2021-02-22 15:35:35.197] $GPGGA,063534.80,3713.9610784,N,13701.4211593,E,1,09,2.4,88.2803,M,37.55,M,,*5F
[2021-02-22 15:35:35.322] $GPGGA,063534.90,3713.9610835,N,13701.4212420,E,1,09,2.4,89.0494,M,37.55,M,,*50
[2021-02-22 15:35:35.384] $GPGGA,063535.00,3713.9611518,N,13701.4212489,E,1,09,2.4,89.0505,M,37.55,M,,*51
[2021-02-22 15:35:35.509] $GPGGA,063535.10,3713.9612126,N,13701.4211113,E,1,09,2.4,88.3607,M,37.55,M,,*5C
[2021-02-22 15:35:35.588] $GPGGA,063535.20,3713.9610123,N,13701.4212885,E,1,09,2.4,88.8889,M,37.55,M,,*5E
[2021-02-22 15:35:35.712] $GPGGA,063535.30,3713.9609553,N,13701.4213125,E,1,09,2.4,89.0421,M,37.55,M,,*51
[2021-02-22 15:35:35.791] $GPGGA,063535.40,3713.9608343,N,13701.4214952,E,1,09,2.4,89.8854,M,37.55,M,,*59
[2021-02-22 15:35:35.916] $GPGGA,063535.50,3713.9603944,N,13701.4220223,E,1,09,2.4,90.3838,M,37.55,M,,*5D
[2021-02-22 15:35:36.009] $GPGGA,063535.60,3713.9602339,N,13701.4219923,E,1,09,2.4,90.5700,M,37.55,M,,*5C
[2021-02-22 15:35:36.087] $GPGGA,063535.70,3713.9601482,N,13701.4221575,E,1,09,2.4,90.1341,M,37.55,M,,*58
[2021-02-22 15:35:36.212] $GPGGA,063535.80,3713.9603856,N,13701.4218491,E,1,09,2.4,89.8129,M,37.55,M,,*5C
[2021-02-22 15:35:36.291] $GPGGA,063535.90,3713.9606032,N,13701.4215393,E,1,09,2.4,89.6625,M,37.55,M,,*5F
[2021-02-22 15:35:36.416] $GPGGA,063536.00,3713.9604929,N,13701.4218941,E,1,09,2.4,89.5964,M,37.55,M,,*55
[2021-02-22 15:35:36.494] $GPGGA,063536.10,3713.9603676,N,13701.4219943,E,1,09,2.4,89.4349,M,37.55,M,,*51
[2021-02-22 15:35:36.619] $GPGGA,063536.20,3713.9606196,N,13701.4218128,E,1,09,2.4,89.1296,M,37.55,M,,*5C
[2021-02-22 15:35:36.697] $GPGGA,063536.30,3713.9604874,N,13701.4217992,E,1,09,2.4,89.0668,M,37.55,M,,*58
[2021-02-22 15:35:36.806] $GPGGA,063536.40,3713.9601019,N,13701.4220133,E,1,09,2.4,88.8160,M,37.55,M,,*58
[2021-02-22 15:35:36.884] $GPGGA,063536.50,3713.9601335,N,13701.4219631,E,1,09,2.4,88.9074,M,37.55,M,,*5E
[2021-02-22 15:35:37.009] $GPGGA,063536.60,3713.9602477,N,13701.4219704,E,1,09,2.4,88.2989,M,37.55,M,,*58
[2021-02-22 15:35:37.087] $GPGGA,063536.70,3713.9604267,N,13701.4218595,E,1,09,2.4,88.5538,M,37.55,M,,*52
[2021-02-22 15:35:37.212] $GPGGA,063536.80,3713.9602905,N,13701.4218211,E,1,09,2.4,88.9054,M,37.55,M,,*5C
[2021-02-22 15:35:37.291] $GPGGA,063536.90,3713.9606299,N,13701.4214597,E,1,09,2.4,89.0268,M,37.55,M,,*57
[2021-02-22 15:35:37.415] $GPGGA,063537.00,3713.9605840,N,13701.4214069,E,1,09,2.4,89.3241,M,37.55,M,,*5E
[2021-02-22 15:35:37.494] $GPGGA,063537.10,3713.9606604,N,13701.4214154,E,1,09,2.4,89.1493,M,37.55,M,,*56
[2021-02-22 15:35:37.619] $GPGGA,063537.20,3713.9606312,N,13701.4213971,E,1,09,2.4,88.9603,M,37.55,M,,*5D
[2021-02-22 15:35:37.712] $GPGGA,063537.30,3713.9608214,N,13701.4211484,E,1,09,2.4,88.8226,M,37.55,M,,*52
[2021-02-22 15:35:37.790] $GPGGA,063537.40,3713.9604182,N,13701.4215511,E,1,09,2.4,89.3549,M,37.55,M,,*58
[2021-02-22 15:35:37.915] $GPGGA,063537.50,3713.9610021,N,13701.4211106,E,1,09,2.4,88.8547,M,37.55,M,,*56
[2021-02-22 15:35:37.994] $GPGGA,063537.60,3713.9609027,N,13701.4211595,E,1,09,2.4,89.0655,M,37.55,M,,*5C
[2021-02-22 15:35:38.119] $GPGGA,063537.70,3713.9611495,N,13701.4212221,E,1,09,2.4,89.1339,M,37.55,M,,*5C
[2021-02-22 15:35:38.197] $GPGGA,063537.80,3713.9612934,N,13701.4211670,E,1,09,2.4,89.2420,M,37.55,M,,*59
[2021-02-22 15:35:38.306] $GPGGA,063537.90,3713.9610010,N,13701.4212594,E,1,09,2.4,89.1658,M,37.55,M,,*51
[2021-02-22 15:35:38.384] $GPGGA,063538.00,3713.9605528,N,13701.4214203,E,1,09,2.4,88.9669,M,37.55,M,,*59
[2021-02-22 15:35:38.509] $GPGGA,063538.10,3713.9605369,N,13701.4213280,E,1,09,2.4,88.8759,M,37.55,M,,*54
[2021-02-22 15:35:38.587] $GPGGA,063538.20,3713.9605042,N,13701.4214253,E,1,09,2.4,88.9235,M,37.55,M,,*5A
[2021-02-22 15:35:38.712] $GPGGA,063538.30,3713.9606923,N,13701.4214669,E,1,09,2.4,89.4003,M,37.55,M,,*50
[2021-02-22 15:35:38.790] $GPGGA,063538.40,3713.9604193,N,13701.4217990,E,1,09,2.4,89.9060,M,37.55,M,,*54
[2021-02-22 15:35:38.915] $GPGGA,063538.50,3713.9606217,N,13701.4216489,E,1,09,2.4,88.9187,M,37.55,M,,*55
[2021-02-22 15:35:38.994] $GPGGA,063538.60,3713.9607506,N,13701.4216906,E,1,09,2.4,89.0688,M,37.55,M,,*5A
[2021-02-22 15:35:39.118] $GPGGA,063538.70,3713.9609407,N,13701.4215756,E,1,09,2.4,88.9574,M,37.55,M,,*55
[2021-02-22 15:35:39.197] $GPGGA,063538.80,3713.9607087,N,13701.4217985,E,1,09,2.4,88.8332,M,37.55,M,,*5F
[2021-02-22 15:35:39.306] $GPGGA,063538.90,3713.9610169,N,13701.4216427,E,1,09,2.4,87.8738,M,37.55,M,,*5C
[2021-02-22 15:35:39.384] $GPGGA,063539.00,3713.9614312,N,13701.4212169,E,1,09,2.4,86.5885,M,37.55,M,,*50
[2021-02-22 15:35:39.509] $GPGGA,063539.10,3713.9612871,N,13701.4214927,E,1,09,2.4,86.6471,M,37.55,M,,*59
[2021-02-22 15:35:39.618] $GPGGA,063539.20,3713.9611357,N,13701.4216437,E,1,09,2.4,86.6999,M,37.55,M,,*53
[2021-02-22 15:35:39.697] $GPGGA,063539.30,3713.9610093,N,13701.4218053,E,1,09,2.4,86.7423,M,37.55,M,,*5D
[2021-02-22 15:35:39.806] $GPGGA,063539.40,3713.9611552,N,13701.4219232,E,1,09,2.4,86.6856,M,37.55,M,,*58
[2021-02-22 15:35:39.884] $GPGGA,063539.50,3713.9608727,N,13701.4221572,E,1,09,2.4,86.9300,M,37.55,M,,*5E
[2021-02-22 15:35:40.009] $GPGGA,063539.60,3713.9607435,N,13701.4221313,E,1,09,2.4,87.1143,M,37.55,M,,*5F
[2021-02-22 15:35:40.087] $GPGGA,063539.70,3713.9611880,N,13701.4219325,E,1,09,2.4,87.4487,M,37.55,M,,*5D
[2021-02-22 15:35:40.212] $GPGGA,063539.80,3713.9611513,N,13701.4220267,E,1,09,2.4,87.3302,M,37.55,M,,*55
[2021-02-22 15:35:40.290] $GPGGA,063539.90,3713.9608339,N,13701.4221295,E,1,09,2.4,87.1486,M,37.55,M,,*57
[2021-02-22 15:35:40.415] $GPGGA,063540.00,3713.9606262,N,13701.4219423,E,1,09,2.4,86.7131,M,37.55,M,,*5F
[2021-02-22 15:35:40.493] $GPGGA,063540.10,3713.9605582,N,13701.4219773,E,1,09,2.4,86.3412,M,37.55,M,,*52
[2021-02-22 15:35:40.603] $GPGGA,063540.20,3713.9600224,N,13701.4222781,E,1,09,2.4,86.3980,M,37.55,M,,*5C
[2021-02-22 15:35:40.696] $GPGGA,063540.30,3713.9603027,N,13701.4218043,E,1,09,2.4,86.1716,M,37.55,M,,*5C
[2021-02-22 15:35:40.806] $GPGGA,063540.40,3713.9604652,N,13701.4216068,E,1,09,2.4,86.2401,M,37.55,M,,*59
[2021-02-22 15:35:40.884] $GPGGA,063540.50,3713.9598160,N,13701.4221949,E,1,09,2.4,87.3342,M,37.55,M,,*56
[2021-02-22 15:35:41.009] $GPGGA,063540.60,3713.9597231,N,13701.4220884,E,1,09,2.4,87.2869,M,37.55,M,,*5F
[2021-02-22 15:35:41.087] $GPGGA,063540.70,3713.9593546,N,13701.4222117,E,1,09,2.4,87.2060,M,37.55,M,,*5D
[2021-02-22 15:35:41.212] $GPGGA,063540.80,3713.9595844,N,13701.4220657,E,1,09,2.4,86.9770,M,37.55,M,,*56
[2021-02-22 15:35:41.306] $GPGGA,063540.90,3713.9600990,N,13701.4215399,E,1,09,2.4,86.8660,M,37.55,M,,*50
[2021-02-22 15:35:41.384] $GPGGA,063541.00,3713.9606102,N,13701.4212526,E,1,09,2.4,87.1802,M,37.55,M,,*5A
[2021-02-22 15:35:41.509] $GPGGA,063541.10,3713.9608059,N,13701.4211217,E,1,09,2.4,87.9207,M,37.55,M,,*5B
[2021-02-22 15:35:41.587] $GPGGA,063541.20,3713.9608703,N,13701.4211132,E,1,09,2.4,87.6960,M,37.55,M,,*51
[2021-02-22 15:35:41.712] $GPGGA,063541.30,3713.9607253,N,13701.4212695,E,1,09,2.4,87.9466,M,37.55,M,,*52
[2021-02-22 15:35:41.790] $GPGGA,063541.40,3713.9607947,N,13701.4211396,E,1,09,2.4,86.8064,M,37.55,M,,*58
[2021-02-22 15:35:41.915] $GPGGA,063541.50,3713.9610689,N,13701.4209148,E,1,09,2.4,87.0261,M,37.55,M,,*54
[2021-02-22 15:35:41.993] $GPGGA,063541.60,3713.9611265,N,13701.4209343,E,1,09,2.4,87.4811,M,37.55,M,,*50
[2021-02-22 15:35:42.118] $GPGGA,063541.70,3713.9608856,N,13701.4209633,E,1,09,2.4,86.9757,M,37.55,M,,*50
[2021-02-22 15:35:42.196] $GPGGA,063541.80,3713.9607704,N,13701.4213330,E,1,09,2.4,86.6780,M,37.55,M,,*50
[2021-02-22 15:35:42.306] $GPGGA,063541.90,3713.9604118,N,13701.4217800,E,1,09,2.4,86.9492,M,37.55,M,,*5A
[2021-02-22 15:35:42.384] $GPGGA,063542.00,3713.9606474,N,13701.4216263,E,1,09,2.4,86.4348,M,37.55,M,,*5E
[2021-02-22 15:35:42.509] $GPGGA,063542.10,3713.9608071,N,13701.4216395,E,1,09,2.4,86.3328,M,37.55,M,,*59
[2021-02-22 15:35:42.587] $GPGGA,063542.20,3713.9604746,N,13701.4217830,E,1,09,2.4,86.7318,M,37.55,M,,*57
[2021-02-22 15:35:42.712] $GPGGA,063542.30,3713.9605471,N,13701.4218695,E,1,09,2.4,86.6238,M,37.55,M,,*5C
[2021-02-22 15:35:42.790] $GPGGA,063542.40,3713.9607053,N,13701.4216430,E,1,09,2.4,85.9299,M,37.55,M,,*59
[2021-02-22 15:35:42.915] $GPGGA,063542.50,3713.9608357,N,13701.4218495,E,1,09,2.4,86.7317,M,37.55,M,,*5B
[2021-02-22 15:35:42.993] $GPGGA,063542.60,3713.9608833,N,13701.4215856,E,1,09,2.4,86.5256,M,37.55,M,,*59
[2021-02-22 15:35:43.118] $GPGGA,063542.70,3713.9606931,N,13701.4216391,E,1,09,2.4,86.7137,M,37.55,M,,*50
[2021-02-22 15:35:43.212] $GPGGA,063542.80,3713.9603680,N,13701.4218872,E,1,09,2.4,86.5676,M,37.55,M,,*57
[2021-02-22 15:35:43.290] $GPGGA,063542.90,3713.9610081,N,13701.4215226,E,1,09,2.4,86.5300,M,37.55,M,,*51
[2021-02-22 15:35:43.415] $GPGGA,063543.00,3713.9610139,N,13701.4213806,E,1,09,2.4,86.7330,M,37.55,M,,*54
[2021-02-22 15:35:43.493] $GPGGA,063543.10,3713.9604940,N,13701.4216706,E,1,09,2.4,87.0013,M,37.55,M,,*58
[2021-02-22 15:35:43.618] $GPGGA,063543.20,3713.9574537,N,13701.4265562,E,5,07,3.4,101.4733,M,37.55,M,1,0000*53
[2021-02-22 15:35:43.712] $GPGGA,063543.30,3713.9578054,N,13701.4256962,E,5,07,3.4,99.3434,M,37.55,M,1,0000*61
[2021-02-22 15:35:43.806] $GPGGA,063543.40,3713.9580047,N,13701.4252769,E,5,07,3.4,97.8119,M,37.55,M,1,0000*6D
[2021-02-22 15:35:43.899] $GPGGA,063543.50,3713.9581877,N,13701.4249575,E,5,07,3.4,96.5808,M,37.55,M,1,0000*66
[2021-02-22 15:35:44.009] $GPGGA,063543.60,3713.9583957,N,13701.4246059,E,5,07,3.4,95.1800,M,37.55,M,1,0000*6F
[2021-02-22 15:35:44.087] $GPGGA,063543.70,3713.9586273,N,13701.4242926,E,5,07,3.4,93.9593,M,37.55,M,1,0000*6A
[2021-02-22 15:35:44.212] $GPGGA,063543.80,3713.9588200,N,13701.4240789,E,5,07,3.4,92.8789,M,37.55,M,1,0000*6F
[2021-02-22 15:35:44.290] $GPGGA,063543.90,3713.9589438,N,13701.4239866,E,5,07,3.4,92.7319,M,37.55,M,1,0000*60
[2021-02-22 15:35:44.415] $GPGGA,063544.00,3713.9590945,N,13701.4238366,E,5,07,3.4,92.2049,M,37.55,M,2,0000*6B
[2021-02-22 15:35:44.509] $GPGGA,063544.10,3713.9591775,N,13701.4236206,E,5,07,3.4,91.2815,M,37.55,M,2,0000*6D
[2021-02-22 15:35:44.618] $GPGGA,063544.20,3713.9592305,N,13701.4234539,E,5,07,3.4,90.4660,M,37.55,M,2,0000*6C
[2021-02-22 15:35:44.696] $GPGGA,063544.30,3713.9593333,N,13701.4231949,E,5,07,3.4,89.4339,M,37.55,M,2,0000*66
[2021-02-22 15:35:44.806] $GPGGA,063544.40,3713.9594254,N,13701.4230120,E,5,07,3.4,88.3432,M,37.55,M,2,0000*6A
[2021-02-22 15:35:44.915] $GPGGA,063544.50,3713.9595338,N,13701.4227678,E,5,07,3.4,87.1758,M,37.55,M,2,0000*6F
[2021-02-22 15:35:44.993] $GPGGA,063544.60,3713.9596005,N,13701.4225500,E,5,07,3.4,85.9549,M,37.55,M,2,0000*64
[2021-02-22 15:35:45.118] $GPGGA,063544.70,3713.9596522,N,13701.4224010,E,5,07,3.4,85.0699,M,37.55,M,2,0000*67
[2021-02-22 15:35:45.196] $GPGGA,063544.80,3713.9597062,N,13701.4222984,E,5,07,3.4,84.4525,M,37.55,M,2,0000*6B
[2021-02-22 15:35:45.306] $GPGGA,063544.90,3713.9597739,N,13701.4221918,E,5,07,3.4,83.9978,M,37.55,M,2,0000*6B
[2021-02-22 15:35:45.399] $GPGGA,063545.00,3713.9598508,N,13701.4220723,E,5,07,3.4,83.4901,M,37.55,M,3,0000*69
[2021-02-22 15:35:45.493] $GPGGA,063545.10,3713.9599150,N,13701.4219739,E,5,07,3.4,83.1126,M,37.55,M,3,0000*69
[2021-02-22 15:35:45.618] $GPGGA,063545.20,3713.9599197,N,13701.4219407,E,5,07,3.4,83.0424,M,37.55,M,3,0000*69
[2021-02-22 15:35:45.712] $GPGGA,063545.30,3713.9599504,N,13701.4219116,E,5,07,3.4,82.8204,M,37.55,M,3,0000*6E
[2021-02-22 15:35:45.790] $GPGGA,063545.40,3713.9599817,N,13701.4218393,E,5,07,3.4,82.5646,M,37.55,M,3,0000*67
[2021-02-22 15:35:45.915] $GPGGA,063545.50,3713.9600449,N,13701.4217400,E,5,07,3.4,82.0426,M,37.55,M,3,0000*61
[2021-02-22 15:35:45.993] $GPGGA,063545.60,3713.9600804,N,13701.4216720,E,5,07,3.4,81.6410,M,37.55,M,3,0000*67
[2021-02-22 15:35:46.118] $GPGGA,063545.70,3713.9600561,N,13701.4216784,E,5,07,3.4,81.5625,M,37.55,M,3,0000*61
[2021-02-22 15:35:46.196] $GPGGA,063545.80,3713.9600527,N,13701.4216943,E,5,07,3.4,81.5223,M,37.55,M,3,0000*6B
[2021-02-22 15:35:46.306] $GPGGA,063545.90,3713.9600166,N,13701.4217392,E,5,07,3.4,81.7308,M,37.55,M,3,0000*66
[2021-02-22 15:35:46.384] $GPGGA,063546.00,3713.9599623,N,13701.4218215,E,5,07,3.4,82.2010,M,37.55,M,4,0000*63
[2021-02-22 15:35:46.493] $GPGGA,063546.10,3713.9599123,N,13701.4219057,E,5,07,3.4,82.6531,M,37.55,M,4,0000*62
[2021-02-22 15:35:46.602] $GPGGA,063546.20,3713.9598872,N,13701.4219517,E,5,07,3.4,82.9766,M,37.55,M,4,0000*63
[2021-02-22 15:35:46.712] $GPGGA,063546.30,3713.9598826,N,13701.4219933,E,5,07,3.4,83.2380,M,37.55,M,4,0000*6F
[2021-02-22 15:35:46.821] $GPGGA,063546.40,3713.9598864,N,13701.4219888,E,5,07,3.4,83.2482,M,37.55,M,4,0000*6A
[2021-02-22 15:35:46.899] $GPGGA,063546.50,3713.9598819,N,13701.4219790,E,5,07,3.4,83.2674,M,37.55,M,4,0000*6C
[2021-02-22 15:35:47.009] $GPGGA,063546.60,3713.9598987,N,13701.4219291,E,5,07,3.4,83.0521,M,37.55,M,4,0000*6C
[2021-02-22 15:35:47.087] $GPGGA,063546.70,3713.9598707,N,13701.4219567,E,5,07,3.4,83.1575,M,37.55,M,4,0000*65
[2021-02-22 15:35:47.212] $GPGGA,063546.80,3713.9598643,N,13701.4219402,E,5,07,3.4,83.1013,M,37.55,M,4,0000*6C
[2021-02-22 15:35:47.290] $GPGGA,063546.90,3713.9598589,N,13701.4219322,E,5,07,3.4,83.1308,M,37.55,M,4,0000*64
[2021-02-22 15:35:47.415] $GPGGA,063547.00,3713.9598814,N,13701.4219280,E,5,07,3.4,83.1200,M,37.55,M,5,0000*64
[2021-02-22 15:35:47.509] $GPGGA,063547.10,3713.9598687,N,13701.4219464,E,5,07,3.4,83.1259,M,37.55,M,5,0000*61
[2021-02-22 15:35:47.618] $GPGGA,063547.20,3713.9598585,N,13701.4219911,E,5,07,3.4,83.2311,M,37.55,M,5,0000*62
[2021-02-22 15:35:47.696] $GPGGA,063547.30,3713.9598114,N,13701.4220763,E,5,07,3.4,83.6119,M,37.55,M,5,0000*60
[2021-02-22 15:35:47.821] $GPGGA,063547.40,3713.9597571,N,13701.4221817,E,5,07,3.4,84.1027,M,37.55,M,5,0000*6E
[2021-02-22 15:35:47.899] $GPGGA,063547.50,3713.9597009,N,13701.4223186,E,5,07,3.4,84.6965,M,37.55,M,5,0000*6E
[2021-02-22 15:35:48.009] $GPGGA,063547.60,3713.9596821,N,13701.4223680,E,5,07,3.4,84.8911,M,37.55,M,5,0000*62
[2021-02-22 15:35:48.087] $GPGGA,063547.70,3713.9596553,N,13701.4224050,E,5,07,3.4,85.0576,M,37.55,M,5,0000*63
[2021-02-22 15:35:48.212] $GPGGA,063547.80,3713.9596289,N,13701.4224475,E,5,07,3.4,85.2575,M,37.55,M,5,0000*6E
[2021-02-22 15:35:48.290] $GPGGA,063547.90,3713.9596192,N,13701.4224703,E,5,07,3.4,85.3634,M,37.55,M,5,0000*63
[2021-02-22 15:35:48.415] $GPGGA,063548.00,3713.9596007,N,13701.4224965,E,5,07,3.4,85.4431,M,37.55,M,6,0000*65
[2021-02-22 15:35:48.493] $GPGGA,063548.10,3713.9595662,N,13701.4225425,E,5,07,3.4,85.6752,M,37.55,M,6,0000*6E
[2021-02-22 15:35:48.602] $GPGGA,063548.20,3713.9595671,N,13701.4225467,E,5,07,3.4,85.6287,M,37.55,M,1,0000*63
[2021-02-22 15:35:48.727] $GPGGA,063548.30,3713.9595499,N,13701.4225544,E,5,07,3.4,85.5848,M,37.55,M,1,0000*6C
[2021-02-22 15:35:48.790] $GPGGA,063548.40,3713.9595508,N,13701.4225426,E,5,07,3.4,85.4386,M,37.55,M,1,0000*6F
[2021-02-22 15:35:48.915] $GPGGA,063548.50,3713.9595797,N,13701.4224775,E,5,07,3.4,85.1366,M,37.55,M,1,0000*65
[2021-02-22 15:35:48.993] $GPGGA,063548.60,3713.9595883,N,13701.4224430,E,5,07,3.4,85.0012,M,37.55,M,1,0000*6F
[2021-02-22 15:35:49.118] $GPGGA,063548.70,3713.9596080,N,13701.4223872,E,5,07,3.4,84.7087,M,37.55,M,1,0000*61
[2021-02-22 15:35:49.196] $GPGGA,063548.80,3713.9596206,N,13701.4223508,E,5,07,3.4,84.5252,M,37.55,M,1,0000*6A
[2021-02-22 15:35:49.321] $GPGGA,063548.90,3713.9596314,N,13701.4223347,E,5,07,3.4,84.4036,M,37.55,M,1,0000*65
[2021-02-22 15:35:49.399] $GPGGA,063549.00,3713.9596540,N,13701.4222792,E,5,07,3.4,84.0914,M,37.55,M,2,0000*69
[2021-02-22 15:35:49.493] $GPGGA,063549.10,3713.9596560,N,13701.4222556,E,5,07,3.4,83.9051,M,37.55,M,2,0000*66
[2021-02-22 15:35:49.618] $GPGGA,063549.20,3713.9596700,N,13701.4222374,E,5,07,3.4,83.8055,M,37.55,M,2,0000*62
[2021-02-22 15:35:49.712] $GPGGA,063549.30,3713.9596631,N,13701.4222313,E,5,07,3.4,83.8308,M,37.55,M,2,0000*6A
[2021-02-22 15:35:49.790] $GPGGA,063549.40,3713.9596578,N,13701.4222389,E,5,07,3.4,83.9132,M,37.55,M,2,0000*6A
[2021-02-22 15:35:49.915] $GPGGA,063549.50,3713.9596622,N,13701.4222294,E,5,07,3.4,83.8965,M,37.55,M,2,0000*61
[2021-02-22 15:35:49.993] $GPGGA,063549.60,3713.9596773,N,13701.4222126,E,5,07,3.4,83.8413,M,37.55,M,2,0000*61
[2021-02-22 15:35:50.118] $GPGGA,063549.70,3713.9596832,N,13701.4222194,E,5,07,3.4,83.8370,M,37.55,M,2,0000*61
[2021-02-22 15:35:50.227] $GPGGA,063549.80,3713.9596975,N,13701.4221855,E,5,07,3.4,83.6694,M,37.55,M,2,0000*6A
[2021-02-22 15:35:50.290] $GPGGA,063549.90,3713.9597186,N,13701.4221360,E,5,07,3.4,83.4366,M,37.55,M,2,0000*69
[2021-02-22 15:35:50.415] $GPGGA,063550.00,3713.9597357,N,13701.4220923,E,5,07,3.4,83.2298,M,37.55,M,3,0000*6D
[2021-02-22 15:35:50.524] $GPGGA,063550.10,3713.9597473,N,13701.4220813,E,5,07,3.4,83.2247,M,37.55,M,3,0000*6D
[2021-02-22 15:35:50.618] $GPGGA,063550.20,3713.9597531,N,13701.4220728,E,5,07,3.4,83.2320,M,37.55,M,3,0000*6E
[2021-02-22 15:35:50.696] $GPGGA,063550.30,3713.9597816,N,13701.4220317,E,5,07,3.4,83.0556,M,37.55,M,3,0000*6A
[2021-02-22 15:35:50.821] $GPGGA,063550.40,3713.9598004,N,13701.4219995,E,5,07,3.4,82.9156,M,37.55,M,3,0000*6F
[2021-02-22 15:35:50.899] $GPGGA,063550.50,3713.9598117,N,13701.4219625,E,5,07,3.4,82.7202,M,37.55,M,3,0000*65
[2021-02-22 15:35:51.024] $GPGGA,063550.60,3713.9598051,N,13701.4219566,E,5,07,3.4,82.7046,M,37.55,M,3,0000*63
[2021-02-22 15:35:51.102] $GPGGA,063550.70,3713.9598080,N,13701.4219439,E,5,07,3.4,82.6426,M,37.55,M,3,0000*66
[2021-02-22 15:35:51.211] $GPGGA,063550.80,3713.9598098,N,13701.4219115,E,5,07,3.4,82.4803,M,37.55,M,3,0000*62
[2021-02-22 15:35:51.290] $GPGGA,063550.90,3713.9598061,N,13701.4219023,E,5,07,3.4,82.4270,M,37.55,M,3,0000*6F
[2021-02-22 15:35:51.415] $GPGGA,063551.00,3713.9597970,N,13701.4219211,E,5,07,3.4,82.5047,M,37.55,M,4,0000*62
[2021-02-22 15:35:51.508] $GPGGA,063551.10,3713.9597787,N,13701.4219460,E,5,07,3.4,82.6208,M,37.55,M,4,0000*6F
[2021-02-22 15:35:51.618] $GPGGA,063551.20,3713.9597752,N,13701.4219437,E,5,07,3.4,82.6046,M,37.55,M,4,0000*6E
[2021-02-22 15:35:51.696] $GPGGA,063551.30,3713.9597732,N,13701.4219372,E,5,07,3.4,82.5445,M,37.55,M,4,0000*6B
[2021-02-22 15:35:51.821] $GPGGA,063551.40,3713.9597744,N,13701.4219224,E,5,07,3.4,82.4740,M,37.55,M,4,0000*68
[2021-02-22 15:35:51.899] $GPGGA,063551.50,3713.9597778,N,13701.4218935,E,5,07,3.4,82.3379,M,37.55,M,4,0000*65
[2021-02-22 15:35:52.008] $GPGGA,063551.60,3713.9597771,N,13701.4218597,E,5,07,3.4,82.1711,M,37.55,M,4,0000*63
[2021-02-22 15:35:52.118] $GPGGA,063551.70,3713.9597763,N,13701.4218244,E,5,07,3.4,82.0272,M,37.55,M,4,0000*69
[2021-02-22 15:35:52.196] $GPGGA,063551.80,3713.9597842,N,13701.4217963,E,5,07,3.4,81.9173,M,37.55,M,4,0000*63
[2021-02-22 15:35:52.321] $GPGGA,063551.90,3713.9597830,N,13701.4217790,E,5,07,3.4,81.8417,M,37.55,M,4,0000*63
[2021-02-22 15:35:52.399] $GPGGA,063552.00,3713.9597860,N,13701.4217532,E,5,07,3.4,81.7183,M,37.55,M,5,0000*60
[2021-02-22 15:35:52.493] $GPGGA,063552.10,3713.9597831,N,13701.4217465,E,5,07,3.4,81.6970,M,37.55,M,5,0000*63
[2021-02-22 15:35:52.618] $GPGGA,063552.20,3713.9597881,N,13701.4217277,E,5,07,3.4,81.6710,M,37.55,M,5,0000*66
[2021-02-22 15:35:52.711] $GPGGA,063552.30,3713.9597863,N,13701.4217139,E,5,07,3.4,81.6522,M,37.55,M,5,0000*61
[2021-02-22 15:35:52.789] $GPGGA,063552.40,3713.9598075,N,13701.4216773,E,5,07,3.4,81.5056,M,37.55,M,5,0000*6A
[2021-02-22 15:35:52.914] $GPGGA,063552.50,3713.9598070,N,13701.4216604,E,5,07,3.4,81.4788,M,37.55,M,5,0000*6A
[2021-02-22 15:35:52.993] $GPGGA,063552.60,3713.9598037,N,13701.4216529,E,5,07,3.4,81.4552,M,37.55,M,5,0000*63
[2021-02-22 15:35:53.118] $GPGGA,063552.70,3713.9597944,N,13701.4216493,E,5,07,3.4,81.4556,M,37.55,M,5,0000*64
[2021-02-22 15:35:53.196] $GPGGA,063552.80,3713.9597924,N,13701.4216232,E,5,07,3.4,81.3145,M,37.55,M,5,0000*61
[2021-02-22 15:35:53.321] $GPGGA,063552.90,3713.9597941,N,13701.4215842,E,5,07,3.4,81.0813,M,37.55,M,5,0000*64
[2021-02-22 15:35:53.399] $GPGGA,063553.00,3713.9597976,N,13701.4215471,E,5,07,3.4,80.8609,M,37.55,M,6,0000*6B
[2021-02-22 15:35:53.524] $GPGGA,063553.10,3713.9598044,N,13701.4215157,E,5,07,3.4,80.6686,M,37.55,M,6,0000*65
[2021-02-22 15:35:53.602] $GPGGA,063553.20,3713.9598196,N,13701.4214793,E,5,07,3.4,80.4326,M,37.55,M,1,0000*6D
[2021-02-22 15:35:53.711] $GPGGA,063553.30,3713.9598257,N,13701.4214555,E,5,07,3.4,80.2988,M,37.55,M,1,0000*62
[2021-02-22 15:35:53.821] $GPGGA,063553.40,3713.9598374,N,13701.4214277,E,5,07,3.4,80.1797,M,37.55,M,1,0000*61
[2021-02-22 15:35:53.899] $GPGGA,063553.50,3713.9598501,N,13701.4213970,E,5,07,3.4,80.0867,M,37.55,M,1,0000*6E
[2021-02-22 15:35:54.024] $GPGGA,063553.60,3713.9598560,N,13701.4213903,E,5,07,3.4,80.0881,M,37.55,M,1,0000*66
[2021-02-22 15:35:54.102] $GPGGA,063553.70,3713.9598557,N,13701.4213905,E,5,07,3.4,80.1216,M,37.55,M,1,0000*60
[2021-02-22 15:35:54.211] $GPGGA,063553.80,3713.9598609,N,13701.4213837,E,5,07,3.4,80.0753,M,37.55,M,1,0000*62
[2021-02-22 15:35:54.289] $GPGGA,063553.90,3713.9598667,N,13701.4213612,E,5,07,3.4,79.9823,M,37.55,M,1,0000*65
[2021-02-22 15:35:54.414] $GPGGA,063554.00,3713.9598782,N,13701.4213262,E,5,07,3.4,79.7822,M,37.55,M,2,0000*6E
[2021-02-22 15:35:54.508] $GPGGA,063554.10,3713.9598810,N,13701.4213224,E,5,07,3.4,79.7070,M,37.55,M,2,0000*66
[2021-02-22 15:35:54.617] $GPGGA,063554.20,3713.9598871,N,13701.4213031,E,5,07,3.4,79.6156,M,37.55,M,2,0000*60
[2021-02-22 15:35:54.696] $GPGGA,063554.30,3713.9598941,N,13701.4212856,E,5,07,3.4,79.5000,M,37.55,M,2,0000*6A
[2021-02-22 15:35:54.821] $GPGGA,063554.40,3713.9598988,N,13701.4212660,E,5,07,3.4,79.3972,M,37.55,M,2,0000*69
[2021-02-22 15:35:54.899] $GPGGA,063554.50,3713.9599027,N,13701.4212463,E,5,07,3.4,79.3203,M,37.55,M,2,0000*69
[2021-02-22 15:35:55.008] $GPGGA,063554.60,3713.9599060,N,13701.4212309,E,5,07,3.4,79.2728,M,37.55,M,2,0000*6F
[2021-02-22 15:35:55.102] $GPGGA,063554.70,3713.9599249,N,13701.4211973,E,5,07,3.4,79.1577,M,37.55,M,2,0000*68
[2021-02-22 15:35:55.211] $GPGGA,063554.80,3713.9599382,N,13701.4211636,E,5,07,3.4,78.9837,M,37.55,M,2,0000*6F
[2021-02-22 15:35:55.289] $GPGGA,063554.90,3713.9599319,N,13701.4211679,E,5,07,3.4,78.9872,M,37.55,M,2,0000*66
[2021-02-22 15:35:55.414] $GPGGA,063555.00,3713.9599323,N,13701.4211612,E,5,07,3.4,78.9965,M,37.55,M,3,0000*6C
[2021-02-22 15:35:55.508] $GPGGA,063555.10,3713.9599394,N,13701.4211408,E,5,07,3.4,78.9545,M,37.55,M,3,0000*66
[2021-02-22 15:35:55.617] $GPGGA,063555.20,3713.9599356,N,13701.4211471,E,5,07,3.4,79.0231,M,37.55,M,3,0000*69
[2021-02-22 15:35:55.727] $GPGGA,063555.30,3713.9599240,N,13701.4211757,E,5,07,3.4,79.2042,M,37.55,M,3,0000*6D
[2021-02-22 15:35:55.805] $GPGGA,063555.40,3713.9599057,N,13701.4212037,E,5,07,3.4,79.3786,M,37.55,M,3,0000*62
[2021-02-22 15:35:55.914] $GPGGA,063555.50,3713.9598958,N,13701.4212296,E,5,07,3.4,79.5430,M,37.55,M,3,0000*65
[2021-02-22 15:35:55.992] $GPGGA,063555.60,3713.9598879,N,13701.4212496,E,5,07,3.4,79.6474,M,37.55,M,3,0000*61
[2021-02-22 15:35:56.117] $GPGGA,063555.70,3713.9598863,N,13701.4212559,E,5,07,3.4,79.6781,M,37.55,M,3,0000*60
[2021-02-22 15:35:56.195] $GPGGA,063555.80,3713.9598859,N,13701.4212499,E,5,07,3.4,79.6464,M,37.55,M,3,0000*63
[2021-02-22 15:35:56.320] $GPGGA,063555.90,3713.9598923,N,13701.4212400,E,5,07,3.4,79.5994,M,37.55,M,3,0000*6F
[2021-02-22 15:35:56.399] $GPGGA,063556.00,3713.9598889,N,13701.4212583,E,5,07,3.4,79.6834,M,37.55,M,4,0000*61
[2021-02-22 15:35:56.492] $GPGGA,063556.10,3713.9598931,N,13701.4212458,E,5,07,3.4,79.6274,M,37.55,M,4,0000*6B
[2021-02-22 15:35:56.617] $GPGGA,063556.20,3713.9598881,N,13701.4212543,E,5,07,3.4,79.6890,M,37.55,M,4,0000*69
[2021-02-22 15:35:56.711] $GPGGA,063556.30,3713.9598747,N,13701.4212753,E,5,07,3.4,79.8265,M,37.55,M,4,0000*60
[2021-02-22 15:35:56.789] $GPGGA,063556.40,3713.9598677,N,13701.4212820,E,5,07,3.4,79.8962,M,37.55,M,4,0000*62
[2021-02-22 15:35:56.914] $GPGGA,063556.50,3713.9598674,N,13701.4212742,E,5,07,3.4,79.8678,M,37.55,M,4,0000*6F
[2021-02-22 15:35:56.992] $GPGGA,063556.60,3713.9598724,N,13701.4212659,E,5,07,3.4,79.8457,M,37.55,M,4,0000*6C
[2021-02-22 15:35:57.117] $GPGGA,063556.70,3713.9598743,N,13701.4212643,E,5,07,3.4,79.8652,M,37.55,M,4,0000*60
[2021-02-22 15:35:57.195] $GPGGA,063556.80,3713.9598768,N,13701.4212531,E,5,07,3.4,79.8300,M,37.55,M,4,0000*62
[2021-02-22 15:35:57.320] $GPGGA,063556.90,3713.9598824,N,13701.4212370,E,5,07,3.4,79.7524,M,37.55,M,4,0000*68
[2021-02-22 15:35:57.414] $GPGGA,063557.00,3713.9598793,N,13701.4212541,E,5,07,3.4,79.8319,M,37.55,M,5,0000*61
[2021-02-22 15:35:57.523] $GPGGA,063557.10,3713.9598696,N,13701.4212779,E,5,07,3.4,79.9367,M,37.55,M,5,0000*65
[2021-02-22 15:35:57.617] $GPGGA,063557.20,3713.9598487,N,13701.4212990,E,5,07,3.4,80.0200,M,37.55,M,5,0000*62
[2021-02-22 15:35:57.695] $GPGGA,063557.30,3713.9598348,N,13701.4213191,E,5,07,3.4,80.0821,M,37.55,M,5,0000*66
[2021-02-22 15:35:57.820] $GPGGA,063557.40,3713.9598291,N,13701.4213222,E,5,07,3.4,80.0866,M,37.55,M,5,0000*6C
[2021-02-22 15:35:57.898] $GPGGA,063557.50,3713.9598359,N,13701.4213119,E,5,07,3.4,80.0324,M,37.55,M,5,0000*6E
[2021-02-22 15:35:58.023] $GPGGA,063557.60,3713.9598339,N,13701.4213176,E,5,07,3.4,80.0248,M,37.55,M,5,0000*69
[2021-02-22 15:35:58.102] $GPGGA,063557.70,3713.9598464,N,13701.4213023,E,5,07,3.4,79.9508,M,37.55,M,5,0000*6A
[2021-02-22 15:35:58.211] $GPGGA,063557.80,3713.9598558,N,13701.4212967,E,5,07,3.4,79.9150,M,37.55,M,5,0000*6A
[2021-02-22 15:35:58.289] $GPGGA,063557.90,3713.9598591,N,13701.4213100,E,5,07,3.4,79.9724,M,37.55,M,5,0000*63
[2021-02-22 15:35:58.414] $GPGGA,063558.00,3713.9598615,N,13701.4213286,E,5,07,3.4,80.0465,M,37.55,M,6,0000*6D
[2021-02-22 15:35:58.508] $GPGGA,063558.10,3713.9598585,N,13701.4213492,E,5,07,3.4,80.1393,M,37.55,M,6,0000*6A
[2021-02-22 15:35:58.617] $GPGGA,063558.20,3713.9598579,N,13701.4213738,E,5,07,3.4,80.2600,M,37.55,M,1,0000*62
[2021-02-22 15:35:58.695] $GPGGA,063558.30,3713.9598487,N,13701.4214016,E,5,07,3.4,80.3893,M,37.55,M,1,0000*6A
[2021-02-22 15:35:58.820] $GPGGA,063558.40,3713.9598425,N,13701.4214250,E,5,07,3.4,80.5023,M,37.55,M,1,0000*60
[2021-02-22 15:35:58.898] $GPGGA,063558.50,3713.9598349,N,13701.4214518,E,5,07,3.4,80.6359,M,37.55,M,1,0000*6A
[2021-02-22 15:35:59.023] $GPGGA,063558.60,3713.9598338,N,13701.4214639,E,5,07,3.4,80.7089,M,37.55,M,1,0000*60
[2021-02-22 15:35:59.086] $GPGGA,063558.70,3713.9598388,N,13701.4214700,E,5,07,3.4,80.7525,M,37.55,M,1,0000*62
[2021-02-22 15:35:59.211] $GPGGA,063558.80,3713.9598414,N,13701.4214748,E,5,07,3.4,80.7756,M,37.55,M,1,0000*65
[2021-02-22 15:35:59.320] $GPGGA,063558.90,3713.9598448,N,13701.4214795,E,5,07,3.4,80.7859,M,37.55,M,1,0000*6D
[2021-02-22 15:35:59.398] $GPGGA,063559.00,3713.9598355,N,13701.4215030,E,5,07,3.4,80.8928,M,37.55,M,2,0000*6C
[2021-02-22 15:35:59.492] $GPGGA,063559.10,3713.9598360,N,13701.4215232,E,5,07,3.4,80.9935,M,37.55,M,2,0000*66
[2021-02-22 15:35:59.617] $GPGGA,063559.20,3713.9598342,N,13701.4215474,E,5,07,3.4,81.1018,M,37.55,M,2,0000*6E
[2021-02-22 15:35:59.726] $GPGGA,063559.30,3713.9598358,N,13701.4215585,E,5,07,3.4,81.1826,M,37.55,M,2,0000*6E
