
[2021-02-22 15:34:42.091] $GLGGA,063430.70,3713.95588200,N,13701.42646151,E,1,01,1412.8,101.877,M,36.771,M,,*48
[2021-02-22 15:34:42.107] $GLGGA,063430.80,3713.95577331,N,13701.42658239,E,1,01,1412.8,102.208,M,36.771,M,,*47
[2021-02-22 15:34:42.107] $GLGGA,063430.90,3713.95571590,N,13701.42669631,E,1,01,1412.8,102.385,M,36.771,M,,*47
[2021-02-22 15:34:42.107] $GLGGA,063431.00,3713.95561698,N,13701.42682002,E,1,01,1412.8,102.649,M,36.771,M,,*43
[2021-02-22 15:34:42.107] $GLGGA,063431.10,3713.95556270,N,13701.42694215,E,1,01,1412.8,102.805,M,36.771,M,,*41
[2021-02-22 15:34:42.107] $GLGGA,063431.20,3713.95545708,N,13701.42708104,E,1,01,1412.8,103.080,M,36.771,M,,*49
[2021-02-22 15:34:42.107] $GLGGA,063431.30,3713.95540331,N,13701.42721282,E,1,01,1412.8,103.222,M,36.771,M,,*4F
[2021-02-22 15:34:42.107] $GLGGA,063431.40,3713.95528354,N,13701.42737157,E,1,01,1412.8,103.527,M,36.771,M,,*4B
[2021-02-22 15:34:42.107] $GLGGA,063431.50,3713.95522420,N,13701.42752028,E,1,01,1412.8,103.685,M,36.771,M,,*45
[2021-02-22 15:34:42.107] $GLGGA,063431.60,3713.95509868,N,13701.42768964,E,1,01,1412.8,103.959,M,36.771,M,,*49
[2021-02-22 15:34:42.107] $GLGGA,063431.70,3713.95503927,N,13701.42784730,E,1,01,1412.8,104.087,M,36.771,M,,*48
[2021-02-22 15:34:42.107] $GLGGA,063431.80,3713.95490739,N,13701.42802721,E,1,01,1412.8,104.327,M,36.771,M,,*45
[2021-02-22 15:34:42.107] $GLGGA,063431.90,3713.95484822,N,13701.42819083,E,1,01,1412.8,104.411,M,36.771,M,,*43
[2021-02-22 15:34:42.138] $GLGGA,063432.00,3713.95470427,N,13701.42838886,E,1,01,1412.8,104.645,M,36.771,M,,*46
[2021-02-22 15:34:42.138] $GPGGA,,,,,,,,,,M,,M,,*56
[2021-02-22 15:34:42.138] $GPGGA,,,,,,,,,,M,,M,,*56
[2021-02-22 15:34:42.138] $GPGGA,,,,,,,,,,M,,M,,*56
[2021-02-22 15:34:42.138] $GPGGA,,,,,,,,,,M,,M,,*56
[2021-02-22 15:34:42.138] $GPGGA,,,,,,,,,,M,,M,,*56
[2021-02-22 15:34:42.138] $GPGGA,,,,,,,,,,M,,M,,*56
[2021-02-22 15:34:42.138] $GPGGA,,,,,,,,,,M,,M,,*56
[2021-02-22 15:34:42.138] $GPGGA,,,,,,,,,,M,,M,,*56
[2021-02-22 15:34:42.138] $GPGGA,,,,,,,,,,M,,M,,*56
[2021-02-22 15:34:42.138] $GPGGA,,,,,,,,,,M,,M,,*56
[2021-02-22 15:34:42.138] $GPGGA,,,,,,,,,,M,,M,,*56
[2021-02-22 15:34:42.138] $GPGGA,,,,,,,,,,M,,M,,*56
[2021-02-22 15:34:42.138] $GPGGA,,,,,,,,,,M,,M,,*56
[2021-02-22 15:34:42.138] $GPGGA,,,,,,,,,,M,,M,,*56
[2021-02-22 15:34:42.138] $GPGGA,,,,,,,,,,M,,M,,*56
[2021-02-22 15:34:42.138] $GPGGA,,,,,,,,,,M,,M,,*56
[2021-02-22 15:34:42.138] $GPGGA,,,,,,,,,,M,,M,,*56
[2021-02-22 15:34:42.138] $GPGGA,,,,,,,,,,M,,M,,*56
[2021-02-22 15:34:42.138] $GPGGA,,,,,,,,,,M,,M,,*56
[2021-02-22 15:34:42.138] $GPGGA,,,,,,,,,,M,,M,,*56
[2021-02-22 15:34:42.138] $GPGGA,,,,,,,,,,M,,M,,*56
[2021-02-22 15:34:42.138] $GPGGA,,,,,,,,,,M,,M,,*56
[2021-02-22 15:34:42.138] $GPGGA,,,,,,,,,,M,,M,,*56
[2021-02-22 15:34:42.138] $GPGGA,,,,,,,,,,M,,M,,*56
[2021-02-22 15:34:42.138] $GPGGA,,,,,,,,,,M,,M,,*56
[2021-02-22 15:34:42.138] $GPGGA,,,,,,,,,,M,,M,,*56
[2021-02-22 15:34:42.138] $GPGGA,,,,,,,,,,M,,M,,*56
[2021-02-22 15:34:42.138] $GPGGA,,,,,,,,,,M,,M,,*56
[2021-02-22 15:34:42.138] $GPGGA,,,,,,,,,,M,,M,,*56
[2021-02-22 15:34:42.138] $GPGGA,,,,,,,,,,M,,M,,*56
[2021-02-22 15:34:42.138] $GPGGA,,,,,,,,,,M,,M,,*56
[2021-02-22 15:34:42.138] $GPGGA,,,,,,,,,,M,,M,,*56
[2021-02-22 15:34:42.138] $GPGGA,,,,,,,,,,M,,M,,*56
[2021-02-22 15:34:42.138] $GPGGA,,,,,,,,,,M,,M,,*56
[2021-02-22 15:34:42.138] $GPGGA,,,,,,,,,,M,,M,,*56
[2021-02-22 15:34:42.138] $GPGGA,,,,,,,,,,M,,M,,*56
[2021-02-22 15:34:42.138] $GPGGA,,,,,,,,,,M,,M,,*56
[2021-02-22 15:34:42.138] $GPGGA,,,,,,,,,,M,,M,,*56
[2021-02-22 15:34:42.138] $GPGGA,,,,,,,,,,M,,M,,*56
[2021-02-22 15:34:42.138] $GPGGA,,,,,,,,,,M,,M,,*56
[2021-02-22 15:34:42.138] $GPGGA,,,,,,,,,,M,,M,,*56
[2021-02-22 15:34:42.138] $GPGGA,,,,,,,,,,M,,M,,*56
[2021-02-22 15:34:42.138] $GPGGA,,,,,,,,,,M,,M,,*56
[2021-02-22 15:34:42.138] $GPGGA,,,,,,,,,,M,,M,,*56
[2021-02-22 15:34:42.138] $GPGGA,,,,,,,,,,M,,M,,*56
[2021-02-22 15:34:42.138] $GPGGA,,,,,,,,,,M,,M,,*56
[2021-02-22 15:34:42.138] $GPGGA,,,,,,,,,,M,,M,,*56
[2021-02-22 15:34:42.138] $GPGGA,,,,,,,,,,M,,M,,*56
[2021-02-22 15:34:42.216] $GPGGA,,,,,,,,,,M,,M,,*56
[2021-02-22 15:34:42.404] $GPGGA,,,,,,,,,,M,,M,,*56
[2021-02-22 15:34:42.607] $GPGGA,,,,,,,,,,M,,M,,*56
[2021-02-22 15:34:42.810] $GPGGA,,,,,,,,,,M,,M,,*56
[2021-02-22 15:34:43.013] $GPGGA,,,,,,,,,,M,,M,,*56
[2021-02-22 15:34:43.201] $GPGGA,,,,,,,,,,M,,M,,*56
[2021-02-22 15:34:43.404] $GPGGA,,,,,,,,,,M,,M,,*56
[2021-02-22 15:34:43.607] $GPGGA,,,,,,,,,,M,,M,,*56
[2021-02-22 15:34:43.810] $GPGGA,,,,,,,,,,M,,M,,*56
[2021-02-22 15:34:43.997] $GPGGA,,,,,,,,,,M,,M,,*56
[2021-02-22 15:34:44.216] $GPGGA,,,,,,,,,,M,,M,,*56
[2021-02-22 15:34:44.404] $GPGGA,,,,,,,,,,M,,M,,*56
[2021-02-22 15:34:44.607] $GPGGA,,,,,,,,,,M,,M,,*56
[2021-02-22 15:34:44.794] $GPGGA,,,,,,,,,,M,,M,,*56
[2021-02-22 15:34:45.013] $GPGGA,,,,,,,,,,M,,M,,*56
[2021-02-22 15:34:45.200] $GPGGA,,,,,,,,,,M,,M,,*56
[2021-02-22 15:34:45.404] $GPGGA,,,,,,,,,,M,,M,,*56
[2021-02-22 15:34:45.607] $GPGGA,,,,,,,,,,M,,M,,*56
[2021-02-22 15:34:45.810] $GPGGA,,,,,,,,,,M,,M,,*56
[2021-02-22 15:34:45.997] $GPGGA,,,,,,,,,,M,,M,,*56
[2021-02-22 15:34:46.216] $GPGGA,,,,,,,,,,M,,M,,*56
[2021-02-22 15:34:46.403] $GPGGA,,,,,,,,,,M,,M,,*56
[2021-02-22 15:34:46.607] $GPGGA,,,,,,,,,,M,,M,,*56
[2021-02-22 15:34:46.810] $GPGGA,,,,,,,,,,M,,M,,*56
[2021-02-22 15:34:47.013] $GPGGA,,,,,,,,,,M,,M,,*56
[2021-02-22 15:34:47.200] $GPGGA,,,,,,,,,,M,,M,,*56
[2021-02-22 15:34:47.403] $GPGGA,,,,,,,,,,M,,M,,*56
[2021-02-22 15:34:47.606] $GPGGA,,,,,,,,,,M,,M,,*56
[2021-02-22 15:34:47.810] $GPGGA,,,,,,,,,,M,,M,,*56
[2021-02-22 15:34:47.997] $GPGGA,,,,,,,,,,M,,M,,*56
[2021-02-22 15:34:48.216] $GPGGA,,,,,,,,,,M,,M,,*56
[2021-02-22 15:34:48.403] $GPGGA,,,,,,,,,,M,,M,,*56
[2021-02-22 15:34:48.606] $GPGGA,,,,,,,,,,M,,M,,*56
[2021-02-22 15:34:48.809] $GPGGA,,,,,,,,,,M,,M,,*56
[2021-02-22 15:34:49.013] $GPGGA,,,,,,,,,,M,,M,,*56
[2021-02-22 15:34:49.200] $GPGGA,,,,,,,,,,M,,M,,*56
[2021-02-22 15:34:49.403] $GPGGA,,,,,,,,,,M,,M,,*56
[2021-02-22 15:34:49.606] $GPGGA,,,,,,,,,,M,,M,,*56
[2021-02-22 15:34:49.809] $GPGGA,,,,,,,,,,M,,M,,*56
[2021-02-22 15:34:49.997] $GPGGA,,,,,,,,,,M,,M,,*56
[2021-02-22 15:34:50.216] $GPGGA,,,,,,,,,,M,,M,,*56
[2021-02-22 15:34:50.403] $GPGGA,,,,,,,,,,M,,M,,*56
[2021-02-22 15:34:50.606] $GPGGA,,,,,,,,,,M,,M,,*56
[2021-02-22 15:34:50.809] $GPGGA,,,,,,,,,,M,,M,,*56
[2021-02-22 15:34:51.012] $GPGGA,,,,,,,,,,M,,M,,*56
[2021-02-22 15:34:51.200] $GPGGA,,,,,,,,,,M,,M,,*56
[2021-02-22 15:34:51.403] $GPGGA,,,,,,,,,,M,,M,,*56
[2021-02-22 15:34:51.606] $GPGGA,,,,,,,,,,M,,M,,*56
[2021-02-22 15:34:51.809] $GPGGA,,,,,,,,,,M,,M,,*56
[2021-02-22 15:34:51.997] $GPGGA,,,,,,,,,,M,,M,,*56
[2021-02-22 15:34:52.215] $GPGGA,,,,,,,,,,M,,M,,*56
[2021-02-22 15:34:52.403] $GPGGA,,,,,,,,,,M,,M,,*56
[2021-02-22 15:34:52.606] $GPGGA,,,,,,,,,,M,,M,,*56
[2021-02-22 15:34:52.809] $GPGGA,,,,,,,,,,M,,M,,*56
[2021-02-22 15:34:53.012] $GPGGA,,,,,,,,,,M,,M,,*56
[2021-02-22 15:34:53.200] $GPGGA,,,,,,,,,,M,,M,,*56
[2021-02-22 15:34:53.403] $GPGGA,,,,,,,,,,M,,M,,*56
[2021-02-22 15:34:53.606] $GPGGA,,,,,,,,,,M,,M,,*56
[2021-02-22 15:34:53.809] $GPGGA,,,,,,,,,,M,,M,,*56
[2021-02-22 15:34:53.997] $GPGGA,,,,,,,,,,M,,M,,*56
[2021-02-22 15:34:54.215] $GPGGA,,,,,,,,,,M,,M,,*56
[2021-02-22 15:34:54.403] $GPGGA,,,,,,,,,,M,,M,,*56
[2021-02-22 15:34:54.606] $GPGGA,,,,,,,,,,M,,M,,*56
[2021-02-22 15:34:54.793] $GPGGA,,,,,,,,,,M,,M,,*56
[2021-02-22 15:34:55.012] $GPGGA,,,,,,,,,,M,,M,,*56
[2021-02-22 15:34:55.200] $GPGGA,,,,,,,,,,M,,M,,*56
[2021-02-22 15:34:55.403] $GPGGA,,,,,,,,,,M,,M,,*56
[2021-02-22 15:34:55.606] $GPGGA,,,,,,,,,,M,,M,,*56
[2021-02-22 15:34:55.809] $GPGGA,,,,,,,,,,M,,M,,*56
[2021-02-22 15:34:55.996] $GPGGA,,,,,,,,,,M,,M,,*56
[2021-02-22 15:34:56.200] $GPGGA,,,,,,,,,,M,,M,,*56
[2021-02-22 15:34:56.403] $GPGGA,,,,,,,,,,M,,M,,*56
[2021-02-22 15:34:56.606] $GPGGA,,,,,,,,,,M,,M,,*56
[2021-02-22 15:34:56.793] $GPGGA,,,,,,,,,,M,,M,,*56
[2021-02-22 15:34:57.012] $GPGGA,,,,,,,,,,M,,M,,*56
[2021-02-22 15:34:57.200] $GPGGA,,,,,,,,,,M,,M,,*56
[2021-02-22 15:34:57.403] $GPGGA,,,,,,,,,,M,,M,,*56
[2021-02-22 15:34:57.606] $GPGGA,,,,,,,,,,M,,M,,*56
[2021-02-22 15:34:57.809] $GPGGA,,,,,,,,,,M,,M,,*56
[2021-02-22 15:34:57.996] $GPGGA,,,,,,,,,,M,,M,,*56
[2021-02-22 15:34:58.215] $GPGGA,,,,,,,,,,M,,M,,*56
[2021-02-22 15:34:58.403] $GPGGA,,,,,,,,,,M,,M,,*56
[2021-02-22 15:34:58.606] $GPGGA,,,,,,,,,,M,,M,,*56
[2021-02-22 15:34:58.793] $GPGGA,,,,,,,,,,M,,M,,*56
[2021-02-22 15:34:59.012] $GPGGA,,,,,,,,,,M,,M,,*56
[2021-02-22 15:34:59.199] $GPGGA,,,,,,,,,,M,,M,,*56
[2021-02-22 15:34:59.418] $GPGGA,,,,,,,,,,M,,M,,*56
[2021-02-22 15:34:59.606] $GPGGA,,,,,,,,,,M,,M,,*56
[2021-02-22 15:34:59.809] $GPGGA,,,,,,,,,,M,,M,,*56
[2021-02-22 15:34:59.996] $GPGGA,,,,,,,,,,M,,M,,*56
[2021-02-22 15:35:00.215] $GPGGA,,,,,,,,,,M,,M,,*56
[2021-02-22 15:35:00.402] $GPGGA,,,,,,,,,,M,,M,,*56
[2021-02-22 15:35:00.606] $GPGGA,,,,,,,,,,M,,M,,*56
[2021-02-22 15:35:00.793] $GPGGA,,,,,,,,,,M,,M,,*56
[2021-02-22 15:35:01.012] $GPGGA,,,,,,,,,,M,,M,,*56
[2021-02-22 15:35:01.199] $GPGGA,,,,,,,,,,M,,M,,*56
[2021-02-22 15:35:01.402] $GPGGA,,,,,,,,,,M,,M,,*56
[2021-02-22 15:35:01.590] $GPGGA,,,,,,,,,,M,,M,,*56
[2021-02-22 15:35:01.809] $GPGGA,,,,,,,,,,M,,M,,*56
[2021-02-22 15:35:01.996] $GPGGA,,,,,,,,,,M,,M,,*56
[2021-02-22 15:35:02.215] $GPGGA,,,,,,,,,,M,,M,,*56
[2021-02-22 15:35:02.402] $GPGGA,,,,,,,,,,M,,M,,*56
[2021-02-22 15:35:02.605] $GPGGA,,,,,,,,,,M,,M,,*56
[2021-02-22 15:35:02.793] $GPGGA,,,,,,,,,,M,,M,,*56
[2021-02-22 15:35:03.012] $GPGGA,,,,,,,,,,M,,M,,*56
[2021-02-22 15:35:03.199] $GPGGA,,,,,,,,,,M,,M,,*56
[2021-02-22 15:35:03.402] $GPGGA,,,,,,,,,,M,,M,,*56
[2021-02-22 15:35:03.590] $GPGGA,,,,,,,,,,M,,M,,*56
[2021-02-22 15:35:03.808] $GPGGA,,,,,,,,,,M,,M,,*56
[2021-02-22 15:35:04.012] $GPGGA,,,,,,,,,,M,,M,,*56
[2021-02-22 15:35:04.215] $GPGGA,,,,,,,,,,M,,M,,*56
[2021-02-22 15:35:04.418] $GPGGA,,,,,,,,,,M,,M,,*56
[2021-02-22 15:35:04.605] $GPGGA,,,,,,,,,,M,,M,,*56
[2021-02-22 15:35:04.808] $GPGGA,,,,,,,,,,M,,M,,*56
[2021-02-22 15:35:05.011] $GPGGA,,,,,,,,,,M,,M,,*56
[2021-02-22 15:35:05.215] $GPGGA,,,,,,,,,,M,,M,,*56
[2021-02-22 15:35:05.402] $GPGGA,,,,,,,,,,M,,M,,*56
[2021-02-22 15:35:05.621] $GPGGA,,,,,,,,,,M,,M,,*56
[2021-02-22 15:35:05.808] $GPGGA,,,,,,,,,,M,,M,,*56
[2021-02-22 15:35:06.011] $GPGGA,,,,,,,,,,M,,M,,*56
[2021-02-22 15:35:06.215] $GPGGA,,,,,,,,,,M,,M,,*56
[2021-02-22 15:35:06.418] $GPGGA,,,,,,,,,,M,,M,,*56
[2021-02-22 15:35:06.605] $GPGGA,,,,,,,,,,M,,M,,*56
[2021-02-22 15:35:06.808] $GPGGA,,,,,,,,,,M,,M,,*56
[2021-02-22 15:35:07.011] $GPGGA,,,,,,,,,,M,,M,,*56
[2021-02-22 15:35:07.214] $GPGGA,,,,,,,,,,M,,M,,*56
[2021-02-22 15:35:07.418] $GPGGA,,,,,,,,,,M,,M,,*56
[2021-02-22 15:35:07.605] $GPGGA,,,,,,,,,,M,,M,,*56
[2021-02-22 15:35:07.808] $GPGGA,,,,,,,,,,M,,M,,*56
[2021-02-22 15:35:08.011] $GPGGA,,,,,,,,,,M,,M,,*56
[2021-02-22 15:35:08.214] $GPGGA,,,,,,,,,,M,,M,,*56
[2021-02-22 15:35:08.417] $GPGGA,,,,,,,,,,M,,M,,*56
[2021-02-22 15:35:08.605] $GPGGA,,,,,,,,,,M,,M,,*56
[2021-02-22 15:35:08.808] $GPGGA,,,,,,,,,,M,,M,,*56
[2021-02-22 15:35:09.011] $GPGGA,,,,,,,,,,M,,M,,*56
[2021-02-22 15:35:09.214] $GPGGA,,,,,,,,,,M,,M,,*56
[2021-02-22 15:35:09.417] $GPGGA,,,,,,,,,,M,,M,,*56
[2021-02-22 15:35:09.605] $GPGGA,,,,,,,,,,M,,M,,*56
[2021-02-22 15:35:09.808] $GPGGA,,,,,,,,,,M,,M,,*56
[2021-02-22 15:35:10.011] $GPGGA,,,,,,,,,,M,,M,,*56
[2021-02-22 15:35:10.214] $GPGGA,,,,,,,,,,M,,M,,*56
[2021-02-22 15:35:10.417] $GPGGA,,,,,,,,,,M,,M,,*56
[2021-02-22 15:35:10.605] $GPGGA,,,,,,,,,,M,,M,,*56
[2021-02-22 15:35:10.808] $GPGGA,,,,,,,,,,M,,M,,*56
[2021-02-22 15:35:11.011] $GPGGA,,,,,,,,,,M,,M,,*56
[2021-02-22 15:35:11.214] $GPGGA,,,,,,,,,,M,,M,,*56
[2021-02-22 15:35:11.417] $GPGGA,,,,,,,,,,M,,M,,*56
[2021-02-22 15:35:11.605] $GPGGA,,,,,,,,,,M,,M,,*56
[2021-02-22 15:35:11.808] $GPGGA,,,,,,,,,,M,,M,,*56
[2021-02-22 15:35:12.011] $GPGGA,,,,,,,,,,M,,M,,*56
[2021-02-22 15:35:12.214] $GPGGA,,,,,,,,,,M,,M,,*56
[2021-02-22 15:35:12.417] $GPGGA,,,,,,,,,,M,,M,,*56
[2021-02-22 15:35:12.605] $GPGGA,,,,,,,,,,M,,M,,*56
[2021-02-22 15:35:12.808] $GPGGA,,,,,,,,,,M,,M,,*56
[2021-02-22 15:35:13.011] $GPGGA,,,,,,,,,,M,,M,,*56
[2021-02-22 15:35:13.214] $GPGGA,,,,,,,,,,M,,M,,*56
[2021-02-22 15:35:13.417] $GPGGA,,,,,,,,,,M,,M,,*56
[2021-02-22 15:35:13.620] $GPGGA,,,,,,,,,,M,,M,,*56
[2021-02-22 15:35:13.808] $GPGGA,,,,,,,,,,M,,M,,*56
[2021-02-22 15:35:14.011] $GPGGA,,,,,,,,,,M,,M,,*56
[2021-02-22 15:35:14.214] $GPGGA,,,,,,,,,,M,,M,,*56
[2021-02-22 15:35:14.417] $GPGGA,,,,,,,,,,M,,M,,*56
[2021-02-22 15:35:14.605] $GPGGA,,,,,,,,,,M,,M,,*56
[2021-02-22 15:35:14.808] $GPGGA,,,,,,,,,,M,,M,,*56
[2021-02-22 15:35:15.011] $GPGGA,,,,,,,,,,M,,M,,*56
[2021-02-22 15:35:15.214] $GPGGA,,,,,,,,,,M,,M,,*56
[2021-02-22 15:35:15.401] $GPGGA,,,,,,,,,,M,,M,,*56
[2021-02-22 15:35:15.620] $GPGGA,,,,,,,,,,M,,M,,*56
[2021-02-22 15:35:15.808] $GPGGA,063515.40,3713.95345064,N,13701.42659107,E,1,03,4.2,100.954,M,36.771,M,,*60
[2021-02-22 15:35:15.917] $GPGGA,063515.50,3713.95344914,N,13701.42659310,E,1,03,4.2,100.954,M,36.771,M,,*6A
[2021-02-22 15:35:16.026] $GPGGA,063515.60,3713.95357216,N,13701.42669292,E,1,03,4.2,100.949,M,36.771,M,,*66
[2021-02-22 15:35:16.120] $GPGGA,063515.70,3713.95355929,N,13701.42670405,E,1,03,4.2,100.949,M,36.771,M,,*62
[2021-02-22 15:35:16.214] $GPGGA,063515.80,3713.95390985,N,13701.42653154,E,1,03,4.2,100.950,M,36.771,M,,*6A
[2021-02-22 15:35:16.308] $GPGGA,063515.90,3713.95391277,N,13701.42652987,E,1,03,4.2,100.951,M,36.771,M,,*6A
[2021-02-22 15:35:16.417] $GPGGA,063516.00,3713.95426640,N,13701.42634001,E,1,03,4.2,100.951,M,36.771,M,,*6C
[2021-02-22 15:35:16.511] $GPGGA,063516.10,3713.95426938,N,13701.42634047,E,1,03,4.2,100.951,M,36.771,M,,*6F
[2021-02-22 15:35:16.620] $GPGGA,063516.20,3713.95445858,N,13701.42622207,E,1,03,4.2,100.950,M,36.771,M,,*6E
[2021-02-22 15:35:16.714] $GPGGA,063516.30,3713.95447151,N,13701.42621473,E,1,03,4.2,100.950,M,36.771,M,,*6B
[2021-02-22 15:35:16.823] $GPGGA,063516.40,3713.95457381,N,13701.42610292,E,1,03,4.2,100.949,M,36.771,M,,*61
[2021-02-22 15:35:16.917] $GPGGA,063516.50,3713.95457515,N,13701.42610140,E,1,03,4.2,100.949,M,36.771,M,,*67
[2021-02-22 15:35:17.026] $GNGGA,063516.60,3713.95527125,N,13701.42636096,E,1,05,2.7,103.622,M,36.771,M,,*71
[2021-02-22 15:35:17.120] $GNGGA,063516.70,3713.95527139,N,13701.42635681,E,1,05,2.7,103.620,M,36.771,M,,*7C
[2021-02-22 15:35:17.229] $GNGGA,063516.80,3713.95514534,N,13701.42627279,E,1,05,2.7,103.332,M,36.771,M,,*7C
[2021-02-22 15:35:17.308] $GNGGA,063516.90,3713.95514530,N,13701.42627338,E,1,05,2.7,103.342,M,36.771,M,,*7A
[2021-02-22 15:35:17.417] $GNGGA,063517.00,3713.95511021,N,13701.42626653,E,1,05,2.7,103.411,M,36.771,M,,*7A
[2021-02-22 15:35:17.511] $GNGGA,063517.10,3713.95511184,N,13701.42626319,E,1,05,2.7,103.409,M,36.771,M,,*77
[2021-02-22 15:35:17.620] $GNGGA,063517.20,3713.95527684,N,13701.42556504,E,1,06,1.4,102.079,M,36.771,M,,*79
[2021-02-22 15:35:17.714] $GNGGA,063517.30,3713.95528050,N,13701.42555924,E,1,06,1.4,102.071,M,36.771,M,,*7D
[2021-02-22 15:35:17.823] $GNGGA,063517.40,3713.95530931,N,13701.42541844,E,1,06,1.4,101.784,M,36.771,M,,*71
[2021-02-22 15:35:17.917] $GNGGA,063517.50,3713.95530774,N,13701.42542135,E,1,06,1.4,101.783,M,36.771,M,,*74
[2021-02-22 15:35:18.026] $GNGGA,063517.60,3713.95525479,N,13701.42538427,E,1,06,1.4,101.652,M,36.771,M,,*7B
[2021-02-22 15:35:18.120] $GNGGA,063517.70,3713.95525232,N,13701.42538653,E,1,06,1.4,101.658,M,36.771,M,,*78
[2021-02-22 15:35:18.229] $GNGGA,063517.80,3713.95519358,N,13701.42535525,E,1,06,1.4,101.558,M,36.771,M,,*79
[2021-02-22 15:35:18.307] $GNGGA,063517.90,3713.95519310,N,13701.42535444,E,1,06,1.4,101.561,M,36.771,M,,*78
[2021-02-22 15:35:18.417] $GNGGA,063518.00,3713.95515682,N,13701.42532087,E,1,06,1.4,101.462,M,36.771,M,,*72
[2021-02-22 15:35:18.511] $GNGGA,063518.10,3713.95515558,N,13701.42532529,E,1,06,1.4,101.461,M,36.771,M,,*75
[2021-02-22 15:35:18.620] $GNGGA,063518.20,3713.95511793,N,13701.42532490,E,1,06,1.4,101.410,M,36.771,M,,*72
[2021-02-22 15:35:18.714] $GNGGA,063518.30,3713.95511642,N,13701.42533170,E,1,06,1.4,101.413,M,36.771,M,,*77
[2021-02-22 15:35:18.807] $GNGGA,063518.40,3713.95519578,N,13701.42529658,E,2,06,2.5,101.199,M,36.771,M,1.4,0979*5E
[2021-02-22 15:35:18.917] $GNGGA,063518.50,3713.95519754,N,13701.42530124,E,2,06,2.5,101.200,M,36.771,M,1.5,0979*55
[2021-02-22 15:35:19.026] $GNGGA,063518.60,3713.95514554,N,13701.42534806,E,2,06,2.5,101.064,M,36.771,M,1.6,0979*57
[2021-02-22 15:35:19.120] $GNGGA,063518.70,3713.95514412,N,13701.42535214,E,2,06,2.5,101.071,M,36.771,M,1.7,0979*58
[2021-02-22 15:35:19.214] $GNGGA,063518.80,3713.95516081,N,13701.42544992,E,2,06,5.1,100.875,M,36.771,M,1.8,0979*59
[2021-02-22 15:35:19.307] $GNGGA,063518.90,3713.95516076,N,13701.42545080,E,2,06,5.1,100.873,M,36.771,M,0.9,0979*5D
[2021-02-22 15:35:19.417] $GNGGA,063519.00,3713.95516241,N,13701.42548888,E,2,06,5.1,100.813,M,36.771,M,1.0,0979*50
[2021-02-22 15:35:19.511] $GNGGA,063519.10,3713.95516281,N,13701.42548970,E,2,06,5.1,100.819,M,36.771,M,1.1,0979*50
[2021-02-22 15:35:19.620] $GNGGA,063519.20,3713.95515515,N,13701.42551253,E,2,06,5.1,100.799,M,36.771,M,1.2,0979*5C
[2021-02-22 15:35:19.714] $GNGGA,063519.30,3713.95515292,N,13701.42551491,E,2,06,5.1,100.795,M,36.771,M,1.3,0979*50
[2021-02-22 15:35:19.823] $GNGGA,063519.40,3713.95510285,N,13701.42555960,E,2,07,1.9,100.863,M,36.771,M,1.4,0979*5F
[2021-02-22 15:35:19.917] $GNGGA,063519.50,3713.95510123,N,13701.42555972,E,2,07,1.9,100.867,M,36.771,M,1.5,0979*57
[2021-02-22 15:35:20.026] $GNGGA,063519.60,3713.95509178,N,13701.42555988,E,2,07,1.9,100.829,M,36.771,M,1.6,0979*5E
[2021-02-22 15:35:20.120] $GNGGA,063519.70,3713.95509482,N,13701.42555777,E,2,07,1.9,100.833,M,36.771,M,1.7,0979*5B
[2021-02-22 15:35:20.214] $GNGGA,063519.80,3713.95507709,N,13701.42550979,E,2,07,1.6,100.644,M,36.771,M,1.8,0979*51
[2021-02-22 15:35:20.307] $GNGGA,063519.90,3713.95507845,N,13701.42551150,E,2,07,1.6,100.648,M,36.771,M,1.9,0979*58
[2021-02-22 15:35:20.417] $GNGGA,063520.00,3713.95507573,N,13701.42545279,E,2,07,1.6,100.432,M,36.771,M,2.0,0979*5B
[2021-02-22 15:35:20.510] $GNGGA,063520.10,3713.95507599,N,13701.42545460,E,2,07,1.6,100.432,M,36.771,M,2.1,0979*51
[2021-02-22 15:35:20.620] $GNGGA,063520.20,3713.95507856,N,13701.42546681,E,2,07,1.9,100.445,M,36.771,M,1.2,0979*5D
[2021-02-22 15:35:20.713] $GNGGA,063520.30,3713.95507839,N,13701.42546699,E,2,07,1.9,100.448,M,36.771,M,1.3,0979*50
[2021-02-22 15:35:20.823] $GNGGA,063520.40,3713.95507711,N,13701.42542722,E,2,07,1.6,100.290,M,36.771,M,1.4,0979*5C
[2021-02-22 15:35:20.917] $GNGGA,063520.50,3713.95507790,N,13701.42542533,E,2,07,1.6,100.289,M,36.771,M,1.5,0979*5F
[2021-02-22 15:35:21.026] $GNGGA,063520.60,3713.95507195,N,13701.42540374,E,2,07,1.6,100.174,M,36.771,M,1.6,0979*5A
[2021-02-22 15:35:21.120] $GNGGA,063520.70,3713.95507559,N,13701.42540242,E,2,07,1.6,100.172,M,36.771,M,1.7,0979*5C
[2021-02-22 15:35:21.229] $GNGGA,063520.80,3713.95509103,N,13701.42541433,E,2,07,1.9,100.174,M,36.771,M,1.8,0979*51
[2021-02-22 15:35:21.307] $GNGGA,063520.90,3713.95509314,N,13701.42541405,E,2,07,1.9,100.178,M,36.771,M,1.9,0979*5C
[2021-02-22 15:35:21.417] $GNGGA,063521.00,3713.95510147,N,13701.42537161,E,2,07,1.6,99.999,M,36.771,M,2.0,0979*6D
[2021-02-22 15:35:21.510] $GNGGA,063521.10,3713.95510140,N,13701.42537117,E,2,07,1.6,99.999,M,36.771,M,1.1,0979*68
[2021-02-22 15:35:21.620] $GNGGA,063521.20,3713.95512419,N,13701.42538103,E,2,07,1.9,99.984,M,36.771,M,1.2,0979*6A
[2021-02-22 15:35:21.713] $GNGGA,063521.30,3713.95512198,N,13701.42538297,E,2,07,1.9,99.983,M,36.771,M,1.3,0979*6F
[2021-02-22 15:35:21.823] $GNGGA,063521.40,3713.95514394,N,13701.42538982,E,2,07,1.9,99.971,M,36.771,M,1.4,0979*65
[2021-02-22 15:35:21.917] $GNGGA,063521.50,3713.95514312,N,13701.42538805,E,2,07,1.9,99.972,M,36.771,M,1.5,0979*66
[2021-02-22 15:35:22.026] $GNGGA,063521.60,3713.95516542,N,13701.42539234,E,2,07,1.9,99.962,M,36.771,M,1.6,0979*6F
[2021-02-22 15:35:22.120] $GNGGA,063521.70,3713.95516237,N,13701.42539454,E,2,07,1.9,99.965,M,36.771,M,1.7,0979*6D
[2021-02-22 15:35:22.213] $GNGGA,063521.80,3713.95517721,N,13701.42534981,E,2,07,1.6,99.807,M,36.771,M,1.8,0979*6C
[2021-02-22 15:35:22.307] $GNGGA,063521.90,3713.95517730,N,13701.42534903,E,2,07,1.6,99.804,M,36.771,M,1.9,0979*65
[2021-02-22 15:35:22.417] $GNGGA,063522.00,3713.95519526,N,13701.42531869,E,2,07,1.6,99.676,M,36.771,M,1.0,0979*6E
[2021-02-22 15:35:22.510] $GNGGA,063522.10,3713.95519569,N,13701.42531857,E,2,07,1.6,99.675,M,36.771,M,1.1,0979*6B
[2021-02-22 15:35:22.620] $GNGGA,063522.20,3713.95522143,N,13701.42533344,E,2,07,1.9,99.668,M,36.771,M,1.2,0979*67
[2021-02-22 15:35:22.713] $GNGGA,063522.30,3713.95521998,N,13701.42533698,E,2,07,1.9,99.674,M,36.771,M,1.3,0979*63
[2021-02-22 15:35:22.823] $GNGGA,063522.40,3713.95524521,N,13701.42531855,E,2,07,1.6,99.573,M,36.771,M,1.4,0979*6E
[2021-02-22 15:35:22.916] $GNGGA,063522.50,3713.95524396,N,13701.42532116,E,2,07,1.6,99.571,M,36.771,M,1.5,0979*6B
[2021-02-22 15:35:23.026] $GNGGA,063522.60,3713.95526883,N,13701.42529752,E,2,07,1.6,99.456,M,36.771,M,1.6,0979*6E
[2021-02-22 15:35:23.120] $GNGGA,063522.70,3713.95527104,N,13701.42529641,E,2,07,1.6,99.464,M,36.771,M,1.7,0979*6B
[2021-02-22 15:35:23.229] $GNGGA,063522.80,3713.95529281,N,13701.42527120,E,2,07,1.6,99.349,M,36.771,M,1.8,0979*6D
[2021-02-22 15:35:23.307] $GNGGA,063522.90,3713.95529395,N,13701.42526919,E,2,07,1.6,99.348,M,36.771,M,1.9,0979*6B
[2021-02-22 15:35:23.416] $GNGGA,063523.00,3713.95531996,N,13701.42524010,E,2,07,1.6,99.201,M,36.771,M,1.0,0979*64
[2021-02-22 15:35:23.510] $GNGGA,063523.10,3713.95532233,N,13701.42523777,E,2,07,1.6,99.204,M,36.771,M,1.1,0979*67
[2021-02-22 15:35:23.620] $GNGGA,063523.20,3713.95534568,N,13701.42521807,E,2,07,1.6,99.090,M,36.771,M,1.2,0979*6D
[2021-02-22 15:35:23.713] $GNGGA,063523.30,3713.95534565,N,13701.42521823,E,2,07,1.6,99.093,M,36.771,M,1.3,0979*65
[2021-02-22 15:35:23.823] $GNGGA,063523.40,3713.95536908,N,13701.42520587,E,2,07,1.6,99.003,M,36.771,M,1.4,0979*6B
[2021-02-22 15:35:23.916] $GNGGA,063523.50,3713.95536664,N,13701.42520864,E,2,07,1.6,99.001,M,36.771,M,1.5,0979*6C
[2021-02-22 15:35:24.026] $GNGGA,063523.60,3713.95539279,N,13701.42519982,E,2,08,1.3,98.932,M,36.771,M,1.6,0979*6A
[2021-02-22 15:35:24.120] $GNGGA,063523.70,3713.95539182,N,13701.42520281,E,2,07,1.3,98.934,M,36.771,M,1.7,0979*66
[2021-02-22 15:35:24.213] $GNGGA,063523.80,3713.95541117,N,13701.42519114,E,2,08,1.3,98.861,M,36.771,M,1.8,0979*6E
[2021-02-22 15:35:24.323] $GNGGA,063523.90,3713.95540825,N,13701.42519405,E,2,08,1.3,98.861,M,36.771,M,1.9,0979*62
[2021-02-22 15:35:24.416] $GNGGA,063524.00,3713.95542079,N,13701.42517241,E,2,08,1.3,98.773,M,36.771,M,1.0,0979*62
[2021-02-22 15:35:24.526] $GNGGA,063524.10,3713.95542018,N,13701.42517026,E,2,08,1.3,98.770,M,36.771,M,1.1,0979*65
[2021-02-22 15:35:24.620] $GNGGA,063524.20,3713.95543828,N,13701.42517026,E,2,08,1.7,98.755,M,36.771,M,1.2,0979*6C
[2021-02-22 15:35:24.713] $GNGGA,063524.30,3713.95543448,N,13701.42517282,E,2,08,1.7,98.756,M,36.771,M,1.3,0979*69
[2021-02-22 15:35:24.823] $GNGGA,063524.40,3713.95544013,N,13701.42515504,E,2,08,1.3,98.695,M,36.771,M,1.4,0979*65
[2021-02-22 15:35:24.916] $GNGGA,063524.50,3713.95544105,N,13701.42515296,E,2,08,1.3,98.696,M,36.771,M,1.5,0979*6C
[2021-02-22 15:35:25.026] $GNGGA,063524.60,3713.95544812,N,13701.42513679,E,2,08,1.3,98.638,M,36.771,M,1.6,0979*64
[2021-02-22 15:35:25.119] $GNGGA,063524.70,3713.95544643,N,13701.42513818,E,2,08,1.3,98.645,M,36.771,M,1.7,0979*6D
[2021-02-22 15:35:25.213] $GNGGA,063524.80,3713.95546434,N,13701.42514320,E,2,08,1.7,98.644,M,36.771,M,1.8,0979*6F
[2021-02-22 15:35:25.323] $GNGGA,063524.90,3713.95546728,N,13701.42514140,E,2,08,1.7,98.649,M,36.771,M,1.9,0979*68
[2021-02-22 15:35:25.416] $GNGGA,063525.00,3713.95547145,N,13701.42513058,E,2,08,1.3,98.639,M,36.771,M,1.0,0979*69
[2021-02-22 15:35:25.510] $GNGGA,063525.10,3713.95547399,N,13701.42512666,E,2,08,1.3,98.636,M,36.771,M,1.1,0979*6F
[2021-02-22 15:35:25.619] $GNGGA,063525.20,3713.95547825,N,13701.42511774,E,2,08,1.3,98.617,M,36.771,M,1.2,0979*61
[2021-02-22 15:35:25.713] $GNGGA,063525.30,3713.95547796,N,13701.42511557,E,2,08,1.3,98.618,M,36.771,M,1.3,0979*6A
[2021-02-22 15:35:25.823] $GNGGA,063525.40,3713.95548236,N,13701.42510952,E,2,08,1.3,98.597,M,36.771,M,1.4,0979*66
[2021-02-22 15:35:25.916] $GNGGA,063525.50,3713.95548316,N,13701.42510899,E,2,08,1.3,98.598,M,36.771,M,1.5,0979*6C
[2021-02-22 15:35:26.026] $GNGGA,063525.60,3713.95549266,N,13701.42510055,E,2,08,1.3,98.570,M,36.771,M,1.6,0979*65
[2021-02-22 15:35:26.119] $GNGGA,063525.70,3713.95549220,N,13701.42510175,E,2,08,1.3,98.577,M,36.771,M,1.7,0979*63
[2021-02-22 15:35:26.213] $GNGGA,063525.80,3713.95550056,N,13701.42510069,E,2,08,1.3,98.563,M,36.771,M,1.8,0979*61
[2021-02-22 15:35:26.323] $GNGGA,063525.90,3713.95550098,N,13701.42510046,E,2,08,1.3,98.570,M,36.771,M,1.9,0979*6C
[2021-02-22 15:35:26.416] $GNGGA,063526.00,3713.95551071,N,13701.42509794,E,2,08,1.3,98.558,M,36.771,M,1.0,0979*63
[2021-02-22 15:35:26.526] $GPGGA,063526.10,3713.95668508,N,13701.42431994,E,5,04,3.7,95.284,M,36.771,M,1.1,0979*7D
[2021-02-22 15:35:26.619] $GPGGA,063526.20,3713.95668052,N,13701.42432591,E,5,04,3.7,95.280,M,36.771,M,1.2,0979*79
[2021-02-22 15:35:26.713] $GPGGA,063526.30,3713.95668490,N,13701.42432226,E,5,04,3.7,95.281,M,36.771,M,1.3,0979*79
[2021-02-22 15:35:26.822] $GPGGA,063526.40,3713.95668648,N,13701.42432086,E,5,04,3.7,95.282,M,36.771,M,1.4,0979*75
[2021-02-22 15:35:26.916] $GPGGA,063526.50,3713.95668661,N,13701.42432170,E,5,04,3.7,95.278,M,36.771,M,1.5,0979*73
[2021-02-22 15:35:27.026] $GPGGA,063526.60,3713.95669523,N,13701.42431826,E,5,04,3.7,95.277,M,36.771,M,1.6,0979*71
[2021-02-22 15:35:27.119] $GPGGA,063526.70,3713.95668681,N,13701.42432520,E,5,04,3.7,95.288,M,36.771,M,1.7,0979*73
[2021-02-22 15:35:27.229] $GPGGA,063526.80,3713.95668939,N,13701.42432426,E,5,04,3.7,95.288,M,36.771,M,1.8,0979*78
[2021-02-22 15:35:27.322] $GPGGA,063526.90,3713.95669012,N,13701.42432287,E,5,04,3.7,95.283,M,36.771,M,1.9,0979*7F
[2021-02-22 15:35:27.432] $GPGGA,063527.00,3713.95602278,N,13701.42443111,E,5,05,3.1,97.779,M,36.771,M,1.0,0979*72
[2021-02-22 15:35:27.510] $GPGGA,063527.10,3713.95602463,N,13701.42442844,E,5,05,3.1,97.778,M,36.771,M,1.1,0979*77
[2021-02-22 15:35:27.619] $GPGGA,063527.20,3713.95602876,N,13701.42441878,E,5,05,3.1,97.762,M,36.771,M,1.2,0979*78
[2021-02-22 15:35:27.713] $GPGGA,063527.30,3713.95602755,N,13701.42442796,E,5,05,3.1,97.765,M,36.771,M,1.3,0979*7D
[2021-02-22 15:35:27.822] $GPGGA,063527.40,3713.95602855,N,13701.42442197,E,5,05,3.1,97.757,M,36.771,M,1.4,0979*74
[2021-02-22 15:35:27.916] $GPGGA,063527.50,3713.95602442,N,13701.42442786,E,5,05,3.1,97.770,M,36.771,M,1.5,0979*7D
[2021-02-22 15:35:28.026] $GPGGA,063527.60,3713.95602245,N,13701.42442786,E,5,05,3.1,97.773,M,36.771,M,1.6,0979*7F
[2021-02-22 15:35:28.119] $GPGGA,063527.70,3713.95602700,N,13701.42442393,E,5,05,3.1,97.763,M,36.771,M,1.7,0979*7A
[2021-02-22 15:35:28.229] $GPGGA,063527.80,3713.95602699,N,13701.42442483,E,5,05,3.1,97.764,M,36.771,M,1.8,0979*7A
[2021-02-22 15:35:28.322] $GPGGA,063527.90,3713.95602746,N,13701.42442255,E,5,05,3.1,97.760,M,36.771,M,1.9,0979*70
[2021-02-22 15:35:28.432] $GPGGA,063528.00,3713.95602674,N,13701.42442352,E,5,05,3.1,97.756,M,36.771,M,2.0,0979*7F
[2021-02-22 15:35:28.525] $GPGGA,063528.10,3713.95602604,N,13701.42442271,E,5,05,3.1,97.761,M,36.771,M,2.1,0979*7C
[2021-02-22 15:35:28.619] $GPGGA,063528.20,3713.95622701,N,13701.42455673,E,5,05,3.1,96.986,M,36.771,M,1.2,0979*7F
[2021-02-22 15:35:28.713] $GPGGA,063528.30,3713.95622808,N,13701.42455395,E,5,05,3.1,96.994,M,36.771,M,1.3,0979*77
[2021-02-22 15:35:28.822] $GPGGA,063528.40,3713.95623079,N,13701.42455704,E,5,05,3.1,96.982,M,36.771,M,1.4,0979*73
[2021-02-22 15:35:28.916] $GPGGA,063528.50,3713.95623135,N,13701.42455095,E,5,05,3.1,96.981,M,36.771,M,1.5,0979*76
[2021-02-22 15:35:29.025] $GPGGA,063528.60,3713.95622864,N,13701.42455161,E,5,05,3.1,96.985,M,36.771,M,1.6,0979*74
[2021-02-22 15:35:29.119] $GPGGA,063528.70,3713.95623103,N,13701.42455049,E,5,05,3.1,96.978,M,36.771,M,1.7,0979*74
[2021-02-22 15:35:29.229] $GPGGA,063528.80,3713.95622797,N,13701.42455216,E,5,05,3.1,96.986,M,36.771,M,1.8,0979*77
[2021-02-22 15:35:29.322] $GPGGA,063528.90,3713.95623069,N,13701.42455140,E,5,05,3.1,96.990,M,36.771,M,1.9,0979*77
[2021-02-22 15:35:29.432] $GPGGA,063529.00,3713.95602064,N,13701.42442130,E,5,05,3.1,97.778,M,36.771,M,1.0,0979*70
[2021-02-22 15:35:29.510] $GPGGA,063529.10,3713.95602469,N,13701.42441875,E,5,05,3.1,97.778,M,36.771,M,1.1,0979*72
[2021-02-22 15:35:29.619] $GPGGA,063529.20,3713.95602350,N,13701.42441593,E,5,05,3.1,97.771,M,36.771,M,1.2,0979*73
[2021-02-22 15:35:29.713] $GPGGA,063529.30,3713.95601784,N,13701.42442350,E,5,05,3.1,97.783,M,36.771,M,1.3,0979*7A
[2021-02-22 15:35:29.822] $GPGGA,063529.40,3713.95602085,N,13701.42441661,E,5,05,3.1,97.777,M,36.771,M,1.4,0979*70
[2021-02-22 15:35:29.916] $GPGGA,063529.50,3713.95602656,N,13701.42441195,E,5,05,3.1,97.779,M,36.771,M,1.5,0979*7A
[2021-02-22 15:35:30.025] $GPGGA,063529.60,3713.95602444,N,13701.42441670,E,5,05,3.1,97.787,M,36.771,M,1.6,0979*76
[2021-02-22 15:35:30.119] $GPGGA,063529.70,3713.95601803,N,13701.42441233,E,5,05,3.1,97.762,M,36.771,M,1.7,0979*72
[2021-02-22 15:35:30.228] $GPGGA,063529.80,3713.95602454,N,13701.42441504,E,5,05,3.1,97.776,M,36.771,M,1.8,0979*79
[2021-02-22 15:35:30.322] $GPGGA,063529.90,3713.95600991,N,13701.42442158,E,5,05,3.1,97.792,M,36.771,M,0.9,0979*7A
[2021-02-22 15:35:30.432] $GPGGA,063530.00,3713.95601397,N,13701.42442047,E,5,05,3.1,97.777,M,36.771,M,1.0,0979*7A
[2021-02-22 15:35:30.510] $GPGGA,063530.10,3713.95601627,N,13701.42441816,E,5,05,3.1,97.795,M,36.771,M,1.1,0979*77
[2021-02-22 15:35:30.619] $GPGGA,063530.20,3713.95601342,N,13701.42442167,E,5,05,3.1,97.790,M,36.771,M,1.2,0979*78
[2021-02-22 15:35:30.713] $GPGGA,063530.30,3713.95602928,N,13701.42441328,E,5,05,3.1,97.786,M,36.771,M,1.3,0979*70
[2021-02-22 15:35:30.822] $GPGGA,063530.40,3713.95601932,N,13701.42442037,E,5,05,3.1,97.784,M,36.771,M,1.4,0979*74
[2021-02-22 15:35:30.916] $GPGGA,063530.50,3713.95601177,N,13701.42442606,E,5,05,3.1,97.797,M,36.771,M,1.5,0979*7B
[2021-02-22 15:35:31.025] $GPGGA,063530.60,3713.95602019,N,13701.42441969,E,5,05,3.1,97.788,M,36.771,M,1.6,0979*7A
[2021-02-22 15:35:31.119] $GPGGA,063530.70,3713.95601125,N,13701.42442390,E,5,05,3.1,97.790,M,36.771,M,1.7,0979*71
[2021-02-22 15:35:31.228] $GPGGA,063530.80,3713.95601390,N,13701.42442463,E,5,05,3.1,97.791,M,36.771,M,1.8,0979*77
[2021-02-22 15:35:31.322] $GPGGA,063530.90,3713.95602191,N,13701.42441523,E,5,05,3.1,97.782,M,36.771,M,1.9,0979*73
[2021-02-22 15:35:31.432] $GPGGA,063531.00,3713.95601401,N,13701.42442660,E,5,05,3.1,97.791,M,36.771,M,2.0,0979*7B
[2021-02-22 15:35:31.525] $GPGGA,063531.10,3713.95614822,N,13701.42442901,E,5,04,4.8,97.154,M,36.771,M,1.1,0979*79
[2021-02-22 15:35:31.619] $GPGGA,063531.20,3713.95615434,N,13701.42442595,E,5,04,4.8,97.138,M,36.771,M,1.2,0979*78
[2021-02-22 15:35:31.713] $GPGGA,063531.30,3713.95615952,N,13701.42442671,E,5,04,4.8,97.142,M,36.771,M,1.3,0979*71
[2021-02-22 15:35:31.822] $GPGGA,063531.40,3713.95615014,N,13701.42442781,E,5,04,4.8,97.149,M,36.771,M,1.4,0979*7F
[2021-02-22 15:35:31.916] $GPGGA,063531.50,3713.95614295,N,13701.42443454,E,5,04,4.8,97.152,M,36.771,M,1.5,0979*75
[2021-02-22 15:35:32.025] $GPGGA,063531.60,3713.95615758,N,13701.42443007,E,5,04,4.8,97.128,M,36.771,M,1.6,0979*7F
[2021-02-22 15:35:32.119] $GPGGA,063531.70,3713.95614174,N,13701.42443955,E,5,04,4.8,97.168,M,36.771,M,1.7,0979*7C
[2021-02-22 15:35:32.228] $GPGGA,063531.80,3713.95615608,N,13701.42442699,E,5,04,4.8,97.139,M,36.771,M,1.8,0979*7B
[2021-02-22 15:35:32.322] $GPGGA,063531.90,3713.95616445,N,13701.42442436,E,5,04,4.8,97.148,M,36.771,M,1.9,0979*72
[2021-02-22 15:35:32.416] $GPGGA,063532.00,3713.95614873,N,13701.42443349,E,5,04,4.8,97.140,M,36.771,M,2.0,0979*7F
[2021-02-22 15:35:32.510] $GPGGA,063532.10,3713.95633374,N,13701.42432279,E,5,04,4.8,96.316,M,36.771,M,1.1,0979*71
[2021-02-22 15:35:32.619] $GPGGA,063532.20,3713.95633647,N,13701.42432426,E,5,04,4.8,96.299,M,36.771,M,1.2,0979*7E
[2021-02-22 15:35:32.713] $GPGGA,063532.30,3713.95633276,N,13701.42432664,E,5,04,4.8,96.301,M,36.771,M,1.3,0979*7C
[2021-02-22 15:35:32.822] $GPGGA,063532.40,3713.95633319,N,13701.42432598,E,5,04,4.8,96.299,M,36.771,M,1.4,0979*74
[2021-02-22 15:35:32.916] $GPGGA,063532.50,3713.95633399,N,13701.42432646,E,5,04,4.8,96.300,M,36.771,M,1.5,0979*7D
[2021-02-22 15:35:33.025] $GPGGA,063532.60,3713.95633105,N,13701.42432785,E,5,04,4.8,96.307,M,36.771,M,1.6,0979*73
[2021-02-22 15:35:33.119] $GPGGA,063532.70,3713.95633415,N,13701.42433044,E,5,04,4.8,96.309,M,36.771,M,1.7,0979*72
[2021-02-22 15:35:33.228] $GPGGA,063532.80,3713.95633315,N,13701.42432493,E,5,04,4.8,96.301,M,36.771,M,1.8,0979*72
[2021-02-22 15:35:33.322] $GNGGA,063532.90,3713.95575765,N,13701.42491371,E,2,08,1.3,98.033,M,36.771,M,0.9,0979*64
[2021-02-22 15:35:33.431] $GNGGA,063533.00,3713.95576572,N,13701.42490612,E,2,08,1.3,98.007,M,36.771,M,1.0,0979*65
[2021-02-22 15:35:33.510] $GNGGA,063533.10,3713.95576317,N,13701.42490786,E,2,08,1.3,98.010,M,36.771,M,1.1,0979*6A
[2021-02-22 15:35:33.619] $GNGGA,063533.20,3713.95577252,N,13701.42490136,E,2,08,1.3,97.987,M,36.771,M,1.2,0979*6E
[2021-02-22 15:35:33.713] $GNGGA,063533.30,3713.95577031,N,13701.42490106,E,2,08,1.3,97.983,M,36.771,M,1.3,0979*6E
[2021-02-22 15:35:33.822] $GNGGA,063533.40,3713.95577912,N,13701.42489460,E,2,08,1.3,97.957,M,36.771,M,1.4,0979*62
[2021-02-22 15:35:33.916] $GNGGA,063533.50,3713.95577818,N,13701.42489543,E,2,08,1.3,97.950,M,36.771,M,1.5,0979*6E
[2021-02-22 15:35:34.025] $GNGGA,063533.60,3713.95578556,N,13701.42488750,E,2,08,1.3,97.922,M,36.771,M,1.6,0979*62
[2021-02-22 15:35:34.119] $GNGGA,063533.70,3713.95578779,N,13701.42488406,E,2,08,1.3,97.914,M,36.771,M,1.7,0979*68
[2021-02-22 15:35:34.213] $GNGGA,063533.80,3713.95579549,N,13701.42487644,E,2,08,1.3,97.882,M,36.771,M,1.8,0979*6D
[2021-02-22 15:35:34.322] $GNGGA,063533.90,3713.95579771,N,13701.42487290,E,2,08,1.3,97.884,M,36.771,M,1.9,0979*6F
[2021-02-22 15:35:34.416] $GNGGA,063534.00,3713.95580328,N,13701.42486427,E,2,08,1.3,97.856,M,36.771,M,1.0,0979*62
[2021-02-22 15:35:34.525] $GNGGA,063534.10,3713.95580707,N,13701.42486472,E,2,08,1.3,97.851,M,36.771,M,1.1,0979*6C
[2021-02-22 15:35:34.619] $GNGGA,063534.20,3713.95581197,N,13701.42485703,E,2,08,1.3,97.830,M,36.771,M,1.2,0979*63
[2021-02-22 15:35:34.713] $GNGGA,063534.30,3713.95581144,N,13701.42485906,E,2,08,1.3,97.834,M,36.771,M,1.3,0979*62
[2021-02-22 15:35:34.822] $GNGGA,063534.40,3713.95581580,N,13701.42485204,E,2,08,1.3,97.808,M,36.771,M,1.4,0979*68
[2021-02-22 15:35:34.916] $GNGGA,063534.50,3713.95582027,N,13701.42484825,E,2,08,1.3,97.801,M,36.771,M,1.5,0979*62
[2021-02-22 15:35:35.025] $GNGGA,063534.60,3713.95582323,N,13701.42484094,E,2,08,1.3,97.777,M,36.771,M,1.6,0979*69
[2021-02-22 15:35:35.119] $GNGGA,063534.70,3713.95582324,N,13701.42483942,E,2,08,1.3,97.771,M,36.771,M,1.7,0979*6D
[2021-02-22 15:35:35.228] $GNGGA,063534.80,3713.95582480,N,13701.42482846,E,2,08,1.3,97.745,M,36.771,M,1.8,0979*67
[2021-02-22 15:35:35.322] $GNGGA,063534.90,3713.95581933,N,13701.42483281,E,2,08,1.3,97.742,M,36.771,M,1.9,0979*66
[2021-02-22 15:35:35.416] $GNGGA,063535.00,3713.95582035,N,13701.42482146,E,2,08,1.3,97.709,M,36.771,M,1.0,0979*6D
[2021-02-22 15:35:35.525] $GPGGA,063535.10,3713.95632533,N,13701.42389337,E,5,04,4.8,93.886,M,36.771,M,1.1,0979*79
[2021-02-22 15:35:35.619] $GPGGA,063535.20,3713.95632632,N,13701.42389264,E,5,04,4.8,93.892,M,36.771,M,1.2,0979*79
[2021-02-22 15:35:35.712] $GPGGA,063535.30,3713.95632625,N,13701.42388830,E,5,04,4.8,93.876,M,36.771,M,1.3,0979*7F
[2021-02-22 15:35:35.822] $GPGGA,063535.40,3713.95631950,N,13701.42389711,E,5,04,4.8,93.904,M,36.771,M,1.4,0979*78
[2021-02-22 15:35:35.916] $GPGGA,063535.50,3713.95632610,N,13701.42389746,E,5,04,4.8,93.897,M,36.771,M,1.5,0979*79
[2021-02-22 15:35:36.025] $GPGGA,063535.60,3713.95632427,N,13701.42388827,E,5,04,4.8,93.878,M,36.771,M,1.6,0979*77
[2021-02-22 15:35:36.119] $GPGGA,063535.70,3713.95631973,N,13701.42389450,E,5,04,4.8,93.896,M,36.771,M,1.7,0979*75
[2021-02-22 15:35:36.228] $GPGGA,063535.80,3713.95632255,N,13701.42389839,E,5,04,4.8,93.898,M,36.771,M,1.8,0979*74
[2021-02-22 15:35:36.322] $GPGGA,063535.90,3713.95632479,N,13701.42389176,E,5,04,4.8,93.884,M,36.771,M,1.9,0979*73
[2021-02-22 15:35:36.431] $GPGGA,063536.00,3713.95610291,N,13701.42400404,E,5,05,3.1,93.255,M,36.771,M,1.0,0979*7F
[2021-02-22 15:35:36.509] $GPGGA,063536.10,3713.95609533,N,13701.42401088,E,5,05,3.1,93.272,M,36.771,M,1.1,0979*7C
[2021-02-22 15:35:36.619] $GPGGA,063536.20,3713.95608820,N,13701.42400527,E,5,05,3.1,93.285,M,36.771,M,1.2,0979*7B
[2021-02-22 15:35:36.712] $GPGGA,063536.30,3713.95610170,N,13701.42400328,E,5,05,3.1,93.261,M,36.771,M,1.3,0979*7D
[2021-02-22 15:35:36.822] $GPGGA,063536.40,3713.95609994,N,13701.42400565,E,5,05,3.1,93.262,M,36.771,M,1.4,0979*7B
[2021-02-22 15:35:36.916] $GPGGA,063536.50,3713.95610360,N,13701.42400128,E,5,05,3.1,93.263,M,36.771,M,1.5,0979*7E
[2021-02-22 15:35:37.025] $GPGGA,063536.60,3713.95609897,N,13701.42400469,E,5,05,3.1,93.253,M,36.771,M,1.6,0979*76
[2021-02-22 15:35:37.119] $GPGGA,063536.70,3713.95610270,N,13701.42400210,E,5,05,3.1,93.254,M,36.771,M,1.7,0979*72
[2021-02-22 15:35:37.228] $GPGGA,063536.80,3713.95609818,N,13701.42400676,E,5,05,3.1,93.259,M,36.771,M,1.8,0979*77
[2021-02-22 15:35:37.322] $GPGGA,063536.90,3713.95610182,N,13701.42400309,E,5,05,3.1,93.257,M,36.771,M,1.9,0979*76
[2021-02-22 15:35:37.431] $GPGGA,063537.00,3713.95610369,N,13701.42400723,E,5,05,3.1,93.268,M,36.771,M,2.0,0979*73
[2021-02-22 15:35:37.509] $GPGGA,063537.10,3713.95610066,N,13701.42400467,E,5,05,3.1,93.256,M,36.771,M,2.1,0979*71
[2021-02-22 15:35:37.619] $GPGGA,063537.20,3713.95654486,N,13701.42380286,E,5,05,3.1,92.403,M,36.771,M,1.2,0979*79
[2021-02-22 15:35:37.712] $GPGGA,063537.30,3713.95653486,N,13701.42380771,E,5,05,3.1,92.427,M,36.771,M,1.3,0979*75
[2021-02-22 15:35:37.822] $GPGGA,063537.40,3713.95653992,N,13701.42380706,E,5,05,3.1,92.420,M,36.771,M,1.4,0979*7A
[2021-02-22 15:35:37.915] $GPGGA,063537.50,3713.95653746,N,13701.42380655,E,5,05,3.1,92.421,M,36.771,M,1.5,0979*7B
[2021-02-22 15:35:38.025] $GPGGA,063537.60,3713.95653516,N,13701.42380557,E,5,05,3.1,92.425,M,36.771,M,1.6,0979*79
[2021-02-22 15:35:38.119] $GPGGA,063537.70,3713.95653925,N,13701.42380478,E,5,05,3.1,92.423,M,36.771,M,1.7,0979*7F
[2021-02-22 15:35:38.228] $GPGGA,063537.80,3713.95653552,N,13701.42380502,E,5,05,3.1,92.424,M,36.771,M,1.8,0979*78
[2021-02-22 15:35:38.322] $GPGGA,063537.90,3713.95653246,N,13701.42380444,E,5,05,3.1,92.419,M,36.771,M,1.9,0979*77
[2021-02-22 15:35:38.431] $GPGGA,063538.00,3713.95653563,N,13701.42380265,E,5,05,3.1,92.418,M,36.771,M,2.0,0979*7F
[2021-02-22 15:35:38.525] $GPGGA,063538.10,3713.95641452,N,13701.42407174,E,5,05,3.1,94.905,M,36.771,M,1.1,0979*70
[2021-02-22 15:35:38.619] $GPGGA,063538.20,3713.95641336,N,13701.42406994,E,5,05,3.1,94.910,M,36.771,M,1.2,0979*76
[2021-02-22 15:35:38.712] $GPGGA,063538.30,3713.95641508,N,13701.42406628,E,5,05,3.1,94.896,M,36.771,M,1.3,0979*7A
[2021-02-22 15:35:38.822] $GPGGA,063538.40,3713.95641575,N,13701.42406775,E,5,05,3.1,94.920,M,36.771,M,1.4,0979*75
[2021-02-22 15:35:38.915] $GPGGA,063538.50,3713.95642122,N,13701.42406712,E,5,05,3.1,94.911,M,36.771,M,1.5,0979*73
[2021-02-22 15:35:39.025] $GPGGA,063538.60,3713.95642568,N,13701.42406378,E,5,05,3.1,94.900,M,36.771,M,1.6,0979*71
[2021-02-22 15:35:39.118] $GPGGA,063538.70,3713.95642757,N,13701.42406283,E,5,05,3.1,94.915,M,36.771,M,1.7,0979*7E
[2021-02-22 15:35:39.228] $GPGGA,063538.80,3713.95642456,N,13701.42407210,E,5,05,3.1,94.914,M,36.771,M,1.8,0979*76
[2021-02-22 15:35:39.322] $GPGGA,063538.90,3713.95634948,N,13701.42413695,E,5,04,7.7,95.635,M,36.771,M,0.9,0979*76
[2021-02-22 15:35:39.431] $GPGGA,063539.00,3713.95636380,N,13701.42412668,E,5,04,7.7,95.622,M,36.771,M,1.0,0979*7F
[2021-02-22 15:35:39.525] $GPGGA,063539.10,3713.95635590,N,13701.42413446,E,5,04,7.7,95.636,M,36.771,M,1.1,0979*71
[2021-02-22 15:35:39.618] $GPGGA,063539.20,3713.95635023,N,13701.42415617,E,5,04,7.7,95.657,M,36.771,M,1.2,0979*7B
[2021-02-22 15:35:39.712] $GPGGA,063539.30,3713.95634904,N,13701.42414601,E,5,04,7.7,95.637,M,36.771,M,1.3,0979*76
[2021-02-22 15:35:39.822] $GPGGA,063539.40,3713.95635164,N,13701.42415466,E,5,04,7.7,95.651,M,36.771,M,1.4,0979*7B
[2021-02-22 15:35:39.915] $GPGGA,063539.50,3713.95634452,N,13701.42415461,E,5,04,7.7,95.630,M,36.771,M,1.5,0979*7A
[2021-02-22 15:35:40.025] $GPGGA,063539.60,3713.95634332,N,13701.42416467,E,5,04,7.7,95.661,M,36.771,M,1.6,0979*7A
[2021-02-22 15:35:40.118] $GPGGA,063539.70,3713.95633897,N,13701.42417403,E,5,04,7.7,95.661,M,36.771,M,1.7,0979*7A
[2021-02-22 15:35:40.228] $GPGGA,063539.80,3713.95634566,N,13701.42416222,E,5,04,7.7,95.634,M,36.771,M,1.8,0979*7A
[2021-02-22 15:35:40.322] $GPGGA,063539.90,3713.95633746,N,13701.42416175,E,5,04,7.7,95.644,M,36.771,M,1.9,0979*7B
[2021-02-22 15:35:40.431] $GPGGA,063540.00,3713.95634428,N,13701.42416757,E,5,04,7.7,95.652,M,36.771,M,2.0,0979*7B
[2021-02-22 15:35:40.509] $GPGGA,063540.10,3713.95625836,N,13701.42434227,E,5,04,4.9,96.800,M,36.771,M,1.1,0979*7E
[2021-02-22 15:35:40.618] $GPGGA,063540.20,3713.95626157,N,13701.42433995,E,5,04,4.9,96.820,M,36.771,M,1.2,0979*74
[2021-02-22 15:35:40.712] $GPGGA,063540.30,3713.95626190,N,13701.42433718,E,5,04,4.9,96.818,M,36.771,M,1.3,0979*7F
[2021-02-22 15:35:40.822] $GPGGA,063540.40,3713.95626591,N,13701.42433233,E,5,04,4.9,96.814,M,36.771,M,1.4,0979*7A
[2021-02-22 15:35:40.915] $GPGGA,063540.50,3713.95626456,N,13701.42433295,E,5,04,4.9,96.811,M,36.771,M,1.5,0979*79
[2021-02-22 15:35:41.025] $GPGGA,063540.60,3713.95627059,N,13701.42432887,E,5,04,4.9,96.809,M,36.771,M,1.6,0979*72
[2021-02-22 15:35:41.118] $GPGGA,063540.70,3713.95626733,N,13701.42433008,E,5,04,4.9,96.810,M,36.771,M,1.7,0979*7E
[2021-02-22 15:35:41.228] $GPGGA,063540.80,3713.95626084,N,13701.42433664,E,5,04,4.9,96.819,M,36.771,M,1.8,0979*70
[2021-02-22 15:35:41.321] $GPGGA,063540.90,3713.95625849,N,13701.42432914,E,5,04,4.9,96.790,M,36.771,M,1.9,0979*7D
[2021-02-22 15:35:41.431] $GPGGA,063541.00,3713.95603796,N,13701.42469235,E,5,04,4.9,98.094,M,36.771,M,1.0,0979*7E
[2021-02-22 15:35:41.525] $GPGGA,063541.10,3713.95603851,N,13701.42468871,E,5,04,4.9,98.095,M,36.771,M,1.1,0979*70
[2021-02-22 15:35:41.618] $GPGGA,063541.20,3713.95603007,N,13701.42469957,E,5,04,4.9,98.096,M,36.771,M,1.2,0979*7C
[2021-02-22 15:35:41.712] $GPGGA,063541.30,3713.95604087,N,13701.42469174,E,5,04,4.9,98.111,M,36.771,M,1.3,0979*74
[2021-02-22 15:35:41.821] $GPGGA,063541.40,3713.95603251,N,13701.42469712,E,5,04,4.9,98.111,M,36.771,M,1.4,0979*7C
[2021-02-22 15:35:41.915] $GPGGA,063541.50,3713.95603615,N,13701.42468888,E,5,04,4.9,98.082,M,36.771,M,1.5,0979*7E
[2021-02-22 15:35:42.025] $GPGGA,063541.60,3713.95603976,N,13701.42469565,E,5,04,4.9,98.115,M,36.771,M,1.6,0979*74
[2021-02-22 15:35:42.118] $GPGGA,063541.70,3713.95603549,N,13701.42469570,E,5,04,4.9,98.089,M,36.771,M,1.7,0979*74
[2021-02-22 15:35:42.228] $GPGGA,063541.80,3713.95604727,N,13701.42468871,E,5,04,4.9,98.100,M,36.771,M,1.8,0979*74
[2021-02-22 15:35:42.321] $GPGGA,063541.90,3713.95603161,N,13701.42470097,E,5,04,4.9,98.098,M,36.771,M,1.9,0979*7E
[2021-02-22 15:35:42.415] $GPGGA,063542.00,3713.95599065,N,13701.42457000,E,5,04,4.9,97.197,M,36.771,M,1.0,0979*72
[2021-02-22 15:35:42.524] $GPGGA,063542.10,3713.95600900,N,13701.42456483,E,5,04,4.9,97.212,M,36.771,M,1.1,0979*7B
[2021-02-22 15:35:42.618] $GPGGA,063542.20,3713.95599286,N,13701.42456997,E,5,04,4.9,97.226,M,36.771,M,1.2,0979*72
[2021-02-22 15:35:42.712] $GPGGA,063542.30,3713.95598224,N,13701.42457455,E,5,04,4.9,97.180,M,36.771,M,1.3,0979*76
[2021-02-22 15:35:42.821] $GPGGA,063542.40,3713.95600049,N,13701.42456574,E,5,04,4.9,97.205,M,36.771,M,1.4,0979*70
[2021-02-22 15:35:42.915] $GPGGA,063542.50,3713.95600009,N,13701.42457379,E,5,04,4.9,97.203,M,36.771,M,1.5,0979*78
[2021-02-22 15:35:43.025] $GPGGA,063542.60,3713.95598646,N,13701.42456942,E,5,04,4.9,97.215,M,36.771,M,1.6,0979*73
[2021-02-22 15:35:43.118] $GPGGA,063542.70,3713.95599320,N,13701.42457660,E,5,04,4.9,97.200,M,36.771,M,1.7,0979*7D
[2021-02-22 15:35:43.228] $GPGGA,063542.80,3713.95584264,N,13701.42465797,E,5,04,4.9,97.196,M,36.771,M,0.8,0979*75
[2021-02-22 15:35:43.321] $GPGGA,063542.90,3713.95584240,N,13701.42466358,E,5,04,4.9,97.186,M,36.771,M,0.9,0979*76
[2021-02-22 15:35:43.431] $GPGGA,063543.00,3713.95585798,N,13701.42465126,E,5,04,4.9,97.179,M,36.771,M,1.0,0979*7F
[2021-02-22 15:35:43.509] $GPGGA,063543.10,3713.95584564,N,13701.42465783,E,5,04,4.9,97.186,M,36.771,M,1.1,0979*76
[2021-02-22 15:35:43.618] $GPGGA,063543.20,3713.95591817,N,13701.42459909,E,5,04,4.9,97.172,M,36.771,M,1.2,0979*73
[2021-02-22 15:35:43.712] $GPGGA,063543.30,3713.95584737,N,13701.42465962,E,5,04,4.9,97.178,M,36.771,M,1.3,0979*72
[2021-02-22 15:35:43.821] $GPGGA,063543.40,3713.95586177,N,13701.42465393,E,5,04,4.9,97.189,M,36.771,M,1.4,0979*78
[2021-02-22 15:35:43.915] $GPGGA,063543.50,3713.95584469,N,13701.42466099,E,5,04,4.9,97.191,M,36.771,M,1.5,0979*73
[2021-02-22 15:35:44.024] $GPGGA,063543.60,3713.95585234,N,13701.42465837,E,5,04,4.9,97.179,M,36.771,M,1.6,0979*75
[2021-02-22 15:35:44.118] $GPGGA,063543.70,3713.95584447,N,13701.42466357,E,5,04,4.9,97.187,M,36.771,M,1.7,0979*79
[2021-02-22 15:35:44.228] $GPGGA,063543.80,3713.95584965,N,13701.42466035,E,5,04,4.9,97.183,M,36.771,M,1.8,0979*77
[2021-02-22 15:35:44.321] $GPGGA,063543.90,3713.95600144,N,13701.42446486,E,5,04,4.9,96.653,M,36.771,M,0.9,0979*77
[2021-02-22 15:35:44.431] $GPGGA,063544.00,3713.95601896,N,13701.42445316,E,5,04,4.9,96.643,M,36.771,M,1.0,0979*7A
[2021-02-22 15:35:44.524] $GPGGA,063544.10,3713.95601392,N,13701.42445559,E,5,04,4.9,96.642,M,36.771,M,1.1,0979*79
[2021-02-22 15:35:44.618] $GPGGA,063544.20,3713.95601704,N,13701.42445082,E,5,04,4.9,96.636,M,36.771,M,1.2,0979*72
[2021-02-22 15:35:44.712] $GPGGA,063544.30,3713.95601236,N,13701.42445830,E,5,04,4.9,96.648,M,36.771,M,1.3,0979*7E
[2021-02-22 15:35:44.821] $GPGGA,063544.40,3713.95601384,N,13701.42445550,E,5,04,4.9,96.658,M,36.771,M,1.4,0979*7C
[2021-02-22 15:35:44.915] $GPGGA,063544.50,3713.95601643,N,13701.42445550,E,5,04,4.9,96.635,M,36.771,M,1.5,0979*79
[2021-02-22 15:35:45.024] $GPGGA,063544.60,3713.95601732,N,13701.42445541,E,5,04,4.9,96.646,M,36.771,M,1.6,0979*7A
[2021-02-22 15:35:45.118] $GPGGA,063544.70,3713.95601676,N,13701.42445067,E,5,04,4.9,96.641,M,36.771,M,1.7,0979*7D
[2021-02-22 15:35:45.227] $GPGGA,063544.80,3713.95601378,N,13701.42445495,E,5,04,4.9,96.640,M,36.771,M,1.8,0979*7E
[2021-02-22 15:35:45.321] $GPGGA,063544.90,3713.95601374,N,13701.42445354,E,5,04,4.9,96.648,M,36.771,M,1.9,0979*70
[2021-02-22 15:35:45.431] $GPGGA,063545.00,3713.95621611,N,13701.42437088,E,5,05,3.1,97.536,M,36.771,M,1.0,0979*77
[2021-02-22 15:35:45.524] $GPGGA,063545.10,3713.95620501,N,13701.42438024,E,5,05,3.1,97.538,M,36.771,M,1.1,0979*73
[2021-02-22 15:35:45.618] $GPGGA,063545.20,3713.95621305,N,13701.42437494,E,5,05,3.1,97.540,M,36.771,M,1.2,0979*7F
[2021-02-22 15:35:45.712] $GPGGA,063545.30,3713.95620970,N,13701.42437294,E,5,05,3.1,97.537,M,36.771,M,1.3,0979*70
[2021-02-22 15:35:45.821] $GPGGA,063545.40,3713.95620841,N,13701.42437452,E,5,05,3.1,97.527,M,36.771,M,1.4,0979*7E
[2021-02-22 15:35:45.915] $GPGGA,063545.50,3713.95620224,N,13701.42438499,E,5,05,3.1,97.556,M,36.771,M,1.5,0979*79
[2021-02-22 15:35:46.024] $GPGGA,063545.60,3713.95621491,N,13701.42437449,E,5,05,3.1,97.543,M,36.771,M,1.6,0979*76
[2021-02-22 15:35:46.118] $GPGGA,063545.70,3713.95620519,N,13701.42437900,E,5,05,3.1,97.542,M,36.771,M,1.7,0979*77
[2021-02-22 15:35:46.227] $GPGGA,063545.80,3713.95621425,N,13701.42437277,E,5,05,3.1,97.526,M,36.771,M,1.8,0979*71
[2021-02-22 15:35:46.321] $GPGGA,063545.90,3713.95616559,N,13701.42440199,E,5,05,3.1,97.643,M,36.771,M,0.9,0979*7D
[2021-02-22 15:35:46.430] $GPGGA,063546.00,3713.95615930,N,13701.42440111,E,5,05,3.1,97.649,M,36.771,M,1.0,0979*75
[2021-02-22 15:35:46.524] $GPGGA,063546.10,3713.95615066,N,13701.42441001,E,5,05,3.1,97.647,M,36.771,M,1.1,0979*70
[2021-02-22 15:35:46.618] $GPGGA,063546.20,3713.95616234,N,13701.42440126,E,5,05,3.1,97.639,M,36.771,M,1.2,0979*7A
[2021-02-22 15:35:46.712] $GPGGA,063546.30,3713.95616355,N,13701.42440023,E,5,05,3.1,97.654,M,36.771,M,1.3,0979*73
[2021-02-22 15:35:46.821] $GPGGA,063546.40,3713.95616893,N,13701.42439767,E,5,05,3.1,97.639,M,36.771,M,1.4,0979*70
[2021-02-22 15:35:46.915] $GPGGA,063546.50,3713.95616163,N,13701.42439873,E,5,05,3.1,97.647,M,36.771,M,1.5,0979*75
[2021-02-22 15:35:47.024] $GPGGA,063546.60,3713.95616677,N,13701.42439814,E,5,05,3.1,97.639,M,36.771,M,1.6,0979*7F
[2021-02-22 15:35:47.118] $GPGGA,063546.70,3713.95615891,N,13701.42440826,E,5,05,3.1,97.665,M,36.771,M,1.7,0979*7C
[2021-02-22 15:35:47.227] $GPGGA,063546.80,3713.95617213,N,13701.42439274,E,5,05,3.1,97.639,M,36.771,M,1.8,0979*74
[2021-02-22 15:35:47.321] $GPGGA,063546.90,3713.95626051,N,13701.42433157,E,5,05,3.1,97.547,M,36.771,M,0.9,0979*71
[2021-02-22 15:35:47.430] $GPGGA,063547.00,3713.95626336,N,13701.42433063,E,5,05,3.1,97.543,M,36.771,M,1.0,0979*71
[2021-02-22 15:35:47.524] $GPGGA,063547.10,3713.95625572,N,13701.42433231,E,5,05,3.1,97.543,M,36.771,M,1.1,0979*71
[2021-02-22 15:35:47.618] $GPGGA,063547.20,3713.95626990,N,13701.42432016,E,5,05,3.1,97.543,M,36.771,M,1.2,0979*74
[2021-02-22 15:35:47.712] $GPGGA,063547.30,3713.95626766,N,13701.42432758,E,5,05,3.1,97.556,M,36.771,M,1.3,0979*7A
[2021-02-22 15:35:47.821] $GPGGA,063547.40,3713.95626035,N,13701.42433046,E,5,05,3.1,97.533,M,36.771,M,1.4,0979*71
[2021-02-22 15:35:47.915] $GPGGA,063547.50,3713.95626173,N,13701.42433285,E,5,05,3.1,97.553,M,36.771,M,1.5,0979*79
[2021-02-22 15:35:48.024] $GPGGA,063547.60,3713.95626226,N,13701.42433377,E,5,05,3.1,97.544,M,36.771,M,1.6,0979*70
[2021-02-22 15:35:48.118] $GPGGA,063547.70,3713.95626375,N,13701.42432838,E,5,05,3.1,97.535,M,36.771,M,1.7,0979*70
[2021-02-22 15:35:48.227] $GPGGA,063547.80,3713.95625798,N,13701.42432774,E,5,05,3.1,97.550,M,36.771,M,1.8,0979*70
[2021-02-22 15:35:48.321] $GPGGA,063547.90,3713.95635415,N,13701.42429935,E,5,04,4.9,97.401,M,36.771,M,0.9,0979*7C
[2021-02-22 15:35:48.430] $GPGGA,063548.00,3713.95635019,N,13701.42430416,E,5,04,4.9,97.399,M,36.771,M,1.0,0979*78
[2021-02-22 15:35:48.524] $GPGGA,063548.10,3713.95635184,N,13701.42430463,E,5,04,4.9,97.404,M,36.771,M,1.1,0979*7C
[2021-02-22 15:35:48.618] $GPGGA,063548.20,3713.95636018,N,13701.42429491,E,5,04,4.9,97.402,M,36.771,M,1.2,0979*78
[2021-02-22 15:35:48.727] $GPGGA,063548.30,3713.95635226,N,13701.42430232,E,5,04,4.9,97.402,M,36.771,M,1.3,0979*73
[2021-02-22 15:35:48.821] $GPGGA,063548.40,3713.95635784,N,13701.42429676,E,5,04,4.9,97.404,M,36.771,M,1.4,0979*74
[2021-02-22 15:35:48.915] $GPGGA,063548.50,3713.95634969,N,13701.42430406,E,5,04,4.9,97.415,M,36.771,M,1.5,0979*75
[2021-02-22 15:35:49.024] $GPGGA,063548.60,3713.95635252,N,13701.42429245,E,5,04,4.9,97.405,M,36.771,M,1.6,0979*7F
[2021-02-22 15:35:49.118] $GPGGA,063548.70,3713.95635373,N,13701.42429176,E,5,04,4.9,97.403,M,36.771,M,1.7,0979*78
[2021-02-22 15:35:49.227] $GPGGA,063548.80,3713.95635712,N,13701.42428509,E,5,04,4.9,97.388,M,36.771,M,1.8,0979*72
[2021-02-22 15:35:49.321] $GPGGA,063548.90,3713.95636185,N,13701.42428489,E,5,04,4.9,97.409,M,36.771,M,1.9,0979*7E
[2021-02-22 15:35:49.430] $GPGGA,063549.00,3713.95635972,N,13701.42429037,E,5,04,4.9,97.396,M,36.771,M,2.0,0979*7E
[2021-02-22 15:35:49.524] $GPGGA,063549.10,3713.95630708,N,13701.42430873,E,5,04,4.9,97.452,M,36.771,M,1.1,0979*74
[2021-02-22 15:35:49.618] $GPGGA,063549.20,3713.95630001,N,13701.42431352,E,5,04,4.9,97.464,M,36.771,M,1.2,0979*76
[2021-02-22 15:35:49.727] $GPGGA,063549.30,3713.95630191,N,13701.42431048,E,5,04,4.9,97.464,M,36.771,M,1.3,0979*76
[2021-02-22 15:35:49.821] $GPGGA,063549.40,3713.95629969,N,13701.42431258,E,5,04,4.9,97.464,M,36.771,M,1.4,0979*72
[2021-02-22 15:35:49.915] $GPGGA,063549.50,3713.95629071,N,13701.42431510,E,5,04,4.9,97.460,M,36.771,M,1.5,0979*7D
[2021-02-22 15:35:50.024] $GPGGA,063549.60,3713.95630734,N,13701.42430819,E,5,04,4.9,97.451,M,36.771,M,1.6,0979*74
[2021-02-22 15:35:50.118] $GPGGA,063549.70,3713.95630381,N,13701.42431549,E,5,04,4.9,97.457,M,36.771,M,1.7,0979*71
[2021-02-22 15:35:50.227] $GPGGA,063549.80,3713.95630523,N,13701.42431321,E,5,04,4.9,97.456,M,36.771,M,1.8,0979*76
[2021-02-22 15:35:50.321] $GPGGA,063549.90,3713.95631040,N,13701.42431532,E,5,04,4.9,97.450,M,36.771,M,1.9,0979*75
[2021-02-22 15:35:50.430] $GPGGA,063550.00,3713.95634689,N,13701.42434439,E,5,04,4.9,97.369,M,36.771,M,1.0,0979*79
[2021-02-22 15:35:50.524] $GPGGA,063550.10,3713.95635601,N,13701.42434327,E,5,04,4.9,97.346,M,36.771,M,1.1,0979*7D
[2021-02-22 15:35:50.633] $GPGGA,063550.20,3713.95635336,N,13701.42434251,E,5,04,4.9,97.355,M,36.771,M,1.2,0979*7E
[2021-02-22 15:35:50.727] $GPGGA,063550.30,3713.95634949,N,13701.42434347,E,5,04,4.9,97.357,M,36.771,M,1.3,0979*79
[2021-02-22 15:35:50.821] $GPGGA,063550.40,3713.95635689,N,13701.42434375,E,5,04,4.9,97.344,M,36.771,M,1.4,0979*78
[2021-02-22 15:35:50.915] $GPGGA,063550.50,3713.95635260,N,13701.42434116,E,5,04,4.9,97.358,M,36.771,M,1.5,0979*71
[2021-02-22 15:35:51.024] $GPGGA,063550.60,3713.95635096,N,13701.42434893,E,5,04,4.9,97.361,M,36.771,M,1.6,0979*74
[2021-02-22 15:35:51.118] $GPGGA,063550.70,3713.95635355,N,13701.42434406,E,5,04,4.9,97.352,M,36.771,M,1.7,0979*78
[2021-02-22 15:35:51.227] $GPGGA,063550.80,3713.95635405,N,13701.42434792,E,5,04,4.9,97.355,M,36.771,M,1.8,0979*73
[2021-02-22 15:35:51.321] $GPGGA,063550.90,3713.95600669,N,13701.42442862,E,5,05,3.1,97.812,M,36.771,M,0.9,0979*7B
[2021-02-22 15:35:51.430] $GPGGA,063551.00,3713.95600714,N,13701.42442858,E,5,05,3.1,97.818,M,36.771,M,1.0,0979*73
[2021-02-22 15:35:51.524] $GPGGA,063551.10,3713.95601341,N,13701.42441927,E,5,05,3.1,97.794,M,36.771,M,1.1,0979*77
[2021-02-22 15:35:51.618] $GPGGA,063551.20,3713.95601124,N,13701.42442730,E,5,05,3.1,97.824,M,36.771,M,1.2,0979*79
[2021-02-22 15:35:51.711] $GPGGA,063551.30,3713.95601909,N,13701.42441984,E,5,05,3.1,97.809,M,36.771,M,1.3,0979*73
[2021-02-22 15:35:51.821] $GPGGA,063551.40,3713.95601086,N,13701.42442295,E,5,05,3.1,97.801,M,36.771,M,1.4,0979*7D
[2021-02-22 15:35:51.914] $GPGGA,063551.50,3713.95600749,N,13701.42442851,E,5,05,3.1,97.819,M,36.771,M,1.5,0979*73
[2021-02-22 15:35:52.024] $GPGGA,063551.60,3713.95601297,N,13701.42442387,E,5,05,3.1,97.809,M,36.771,M,1.6,0979*75
[2021-02-22 15:35:52.118] $GPGGA,063551.70,3713.95600961,N,13701.42442345,E,5,05,3.1,97.805,M,36.771,M,1.7,0979*74
[2021-02-22 15:35:52.227] $GPGGA,063551.80,3713.95600942,N,13701.42442282,E,5,05,3.1,97.818,M,36.771,M,1.8,0979*73
[2021-02-22 15:35:52.321] $GPGGA,063551.90,3713.95601192,N,13701.42442734,E,5,05,3.1,97.810,M,36.771,M,1.9,0979*77
[2021-02-22 15:35:52.414] $GPGGA,063552.00,3713.95599195,N,13701.42444933,E,5,04,7.7,97.884,M,36.771,M,1.0,0979*70
[2021-02-22 15:35:52.524] $GPGGA,063552.10,3713.95598823,N,13701.42444938,E,5,04,7.7,97.896,M,36.771,M,1.1,0979*7D
[2021-02-22 15:35:52.618] $GPGGA,063552.20,3713.95598871,N,13701.42444837,E,5,04,7.7,97.896,M,36.771,M,1.2,0979*74
[2021-02-22 15:35:52.711] $GPGGA,063552.30,3713.95599439,N,13701.42444386,E,5,04,7.7,97.902,M,36.771,M,1.3,0979*78
[2021-02-22 15:35:52.821] $GPGGA,063552.40,3713.95599215,N,13701.42444494,E,5,04,7.7,97.888,M,36.771,M,1.4,0979*77
[2021-02-22 15:35:52.914] $GPGGA,063552.50,3713.95598744,N,13701.42444795,E,5,04,7.7,97.894,M,36.771,M,1.5,0979*78
[2021-02-22 15:35:53.024] $GPGGA,063552.60,3713.95599005,N,13701.42444364,E,5,04,7.7,97.905,M,36.771,M,1.6,0979*78
[2021-02-22 15:35:53.118] $GPGGA,063552.70,3713.95599369,N,13701.42444060,E,5,04,7.7,97.893,M,36.771,M,1.7,0979*78
[2021-02-22 15:35:53.227] $GPGGA,063552.80,3713.95599325,N,13701.42444254,E,5,04,7.7,97.898,M,36.771,M,1.8,0979*7E
[2021-02-22 15:35:53.321] $GPGGA,063552.90,3713.95598937,N,13701.42444655,E,5,04,7.7,97.901,M,36.771,M,1.9,0979*72
[2021-02-22 15:35:53.430] $GPGGA,063553.00,3713.95599542,N,13701.42444773,E,5,04,7.7,97.892,M,36.771,M,2.0,0979*71
[2021-02-22 15:35:53.524] $GPGGA,063553.10,3713.95600844,N,13701.42441847,E,5,04,7.7,97.804,M,36.771,M,1.1,0979*78
[2021-02-22 15:35:53.617] $GPGGA,063553.20,3713.95602568,N,13701.42440635,E,5,04,7.7,97.827,M,36.771,M,1.2,0979*72
[2021-02-22 15:35:53.727] $GPGGA,063553.30,3713.95600927,N,13701.42442335,E,5,04,7.7,97.819,M,36.771,M,1.3,0979*7D
[2021-02-22 15:35:53.821] $GPGGA,063553.40,3713.95602528,N,13701.42441083,E,5,04,7.7,97.819,M,36.771,M,1.4,0979*71
[2021-02-22 15:35:53.914] $GPGGA,063553.50,3713.95601077,N,13701.42442140,E,5,04,7.7,97.810,M,36.771,M,1.5,0979*79
[2021-02-22 15:35:54.024] $GPGGA,063553.60,3713.95600778,N,13701.42441918,E,5,04,7.7,97.821,M,36.771,M,1.6,0979*74
[2021-02-22 15:35:54.117] $GPGGA,063553.70,3713.95600989,N,13701.42442553,E,5,04,7.7,97.817,M,36.771,M,1.7,0979*71
[2021-02-22 15:35:54.227] $GPGGA,063553.80,3713.95601082,N,13701.42441627,E,5,04,7.7,97.816,M,36.771,M,1.8,0979*70
[2021-02-22 15:35:54.321] $GPGGA,063553.90,3713.95601009,N,13701.42443229,E,5,04,7.7,97.873,M,36.771,M,0.9,0979*79
[2021-02-22 15:35:54.430] $GPGGA,063554.00,3713.95601021,N,13701.42443018,E,5,04,7.7,97.866,M,36.771,M,1.0,0979*71
[2021-02-22 15:35:54.524] $GPGGA,063554.10,3713.95601056,N,13701.42443459,E,5,04,7.7,97.884,M,36.771,M,1.1,0979*7C
[2021-02-22 15:35:54.617] $GPGGA,063554.20,3713.95600731,N,13701.42443482,E,5,04,7.7,97.884,M,36.771,M,1.2,0979*7D
[2021-02-22 15:35:54.711] $GPGGA,063554.30,3713.95600655,N,13701.42443540,E,5,04,7.7,97.879,M,36.771,M,1.3,0979*73
[2021-02-22 15:35:54.821] $GPGGA,063554.40,3713.95601258,N,13701.42443362,E,5,04,7.7,97.882,M,36.771,M,1.4,0979*79
[2021-02-22 15:35:54.914] $GPGGA,063554.50,3713.95601982,N,13701.42442900,E,5,04,7.7,97.872,M,36.771,M,1.5,0979*75
[2021-02-22 15:35:55.024] $GPGGA,063554.60,3713.95600932,N,13701.42443643,E,5,04,7.7,97.869,M,36.771,M,1.6,0979*7C
[2021-02-22 15:35:55.117] $GPGGA,063554.70,3713.95602165,N,13701.42442866,E,5,04,7.7,97.882,M,36.771,M,1.7,0979*79
[2021-02-22 15:35:55.227] $GPGGA,063554.80,3713.95600729,N,13701.42443262,E,5,04,7.7,97.878,M,36.771,M,1.8,0979*7F
[2021-02-22 15:35:55.320] $GPGGA,063554.90,3713.95601283,N,13701.42442966,E,5,04,7.7,97.876,M,36.771,M,1.9,0979*7B
[2021-02-22 15:35:55.430] $GPGGA,063555.00,3713.95601662,N,13701.42443025,E,5,04,7.7,97.886,M,36.771,M,2.0,0979*72
[2021-02-22 15:35:55.524] $GPGGA,063555.10,3713.95577889,N,13701.42506976,E,5,04,4.9,100.636,M,36.771,M,1.1,0979*40
[2021-02-22 15:35:55.617] $GPGGA,063555.20,3713.95577948,N,13701.42507340,E,5,04,4.9,100.605,M,36.771,M,1.2,0979*42
[2021-02-22 15:35:55.711] $GPGGA,063555.30,3713.95577101,N,13701.42506751,E,5,04,4.9,100.630,M,36.771,M,1.3,0979*44
[2021-02-22 15:35:55.820] $GPGGA,063555.40,3713.95578896,N,13701.42506422,E,5,04,4.9,100.625,M,36.771,M,1.4,0979*4F
[2021-02-22 15:35:55.914] $GPGGA,063555.50,3713.95577677,N,13701.42507658,E,5,04,4.9,100.623,M,36.771,M,1.5,0979*49
[2021-02-22 15:35:56.024] $GPGGA,063555.60,3713.95578672,N,13701.42506764,E,5,04,4.9,100.633,M,36.771,M,1.6,0979*4D
[2021-02-22 15:35:56.117] $GPGGA,063555.70,3713.95571601,N,13701.42512244,E,5,04,4.9,100.634,M,36.771,M,1.7,0979*45
[2021-02-22 15:35:56.227] $GPGGA,063555.80,3713.95578097,N,13701.42507059,E,5,04,4.9,100.637,M,36.771,M,1.8,0979*4C
[2021-02-22 15:35:56.320] $GPGGA,063555.90,3713.95577137,N,13701.42507711,E,5,04,4.9,100.649,M,36.771,M,1.9,0979*4A
[2021-02-22 15:35:56.430] $GPGGA,063556.00,3713.95567371,N,13701.42515835,E,5,04,4.9,100.595,M,36.771,M,1.0,0979*40
[2021-02-22 15:35:56.524] $GPGGA,063556.10,3713.95566624,N,13701.42516048,E,5,04,4.9,100.604,M,36.771,M,1.1,0979*4E
[2021-02-22 15:35:56.617] $GPGGA,063556.20,3713.95565261,N,13701.42516946,E,5,04,4.9,100.606,M,36.771,M,1.2,0979*4D
[2021-02-22 15:35:56.727] $GPGGA,063556.30,3713.95567183,N,13701.42514934,E,5,04,4.9,100.585,M,36.771,M,1.3,0979*4F
[2021-02-22 15:35:56.820] $GPGGA,063556.40,3713.95565062,N,13701.42516598,E,5,04,4.9,100.601,M,36.771,M,1.4,0979*44
