
[2021-02-22 16:03:36.682] $GPGGA,,,,,,,,,,M,,M,,*56
[2021-02-22 16:03:36.713] $GPVTG,,T,,M,,N,,K,N*2C
[2021-02-22 16:03:36.713] $GPGGA,,,,,,,,,,M,,M,,*56
[2021-02-22 16:03:36.713] $GPVTG,,T,,M,,N,,K,N*2C
[2021-02-22 16:03:36.713] $GPGGA,,,,,,,,,,M,,M,,*56
[2021-02-22 16:03:36.713] $GPVTG,,T,,M,,N,,K,N*2C
[2021-02-22 16:03:36.713] $GPGGA,,,,,,,,,,M,,M,,*56
[2021-02-22 16:03:36.713] $GPVTG,,T,,M,,N,,K,N*2C
[2021-02-22 16:03:36.713] $GPGGA,,,,,,,,,,M,,M,,*56
[2021-02-22 16:03:36.713] $GPVTG,,T,,M,,N,,K,N*2C
[2021-02-22 16:03:36.713] $GPGGA,,,,,,,,,,M,,M,,*56
[2021-02-22 16:03:36.713] $GPVTG,,T,,M,,N,,K,N*2C
[2021-02-22 16:03:36.713] $GPGGA,,,,,,,,,,M,,M,,*56
[2021-02-22 16:03:36.713] $GPVTG,,T,,M,,N,,K,N*2C
[2021-02-22 16:03:36.713] $GPGGA,,,,,,,,,,M,,M,,*56
[2021-02-22 16:03:36.713] $GPVTG,,T,,M,,N,,K,N*2C
[2021-02-22 16:03:36.713] $GPGGA,,,,,,,,,,M,,M,,*56
[2021-02-22 16:03:36.713] $GPVTG,,T,,M,,N,,K,N*2C
[2021-02-22 16:03:36.713] $GPGGA,,,,,,,,,,M,,M,,*56
[2021-02-22 16:03:36.713] $GPVTG,,T,,M,,N,,K,N*2C
[2021-02-22 16:03:36.713] $GPGGA,,,,,,,,,,M,,M,,*56
[2021-02-22 16:03:36.713] $GPVTG,,T,,M,,N,,K,N*2C
[2021-02-22 16:03:36.713] $GPGGA,,,,,,,,,,M,,M,,*56
[2021-02-22 16:03:36.713] $GPVTG,,T,,M,,N,,K,N*2C
[2021-02-22 16:03:36.713] $GPGGA,,,,,,,,,,M,,M,,*56
[2021-02-22 16:03:36.713] $GPVTG,,T,,M,,N,,K,N*2C
[2021-02-22 16:03:36.713] $GPGGA,,,,,,,,,,M,,M,,*56
[2021-02-22 16:03:36.713] $GPVTG,,T,,M,,N,,K,N*2C
[2021-02-22 16:03:36.713] $GPGGA,,,,,,,,,,M,,M,,*56
[2021-02-22 16:03:36.713] $GPVTG,,T,,M,,N,,K,N*2C
[2021-02-22 16:03:36.713] $GPGGA,,,,,,,,,,M,,M,,*56
[2021-02-22 16:03:36.713] $GPVTG,,T,,M,,N,,K,N*2C
[2021-02-22 16:03:36.713] $GPGGA,,,,,,,,,,M,,M,,*56
[2021-02-22 16:03:36.713] $GPVTG,,T,,M,,N,,K,N*2C
[2021-02-22 16:03:36.713] $GPGGA,,,,,,,,,,M,,M,,*56
[2021-02-22 16:03:36.713] $GPVTG,,T,,M,,N,,K,N*2C
[2021-02-22 16:03:36.713] $GPGGA,,,,,,,,,,M,,M,,*56
[2021-02-22 16:03:36.713] $GPVTG,,T,,M,,N,,K,N*2C
[2021-02-22 16:03:36.713] $GPGGA,,,,,,,,,,M,,M,,*56
[2021-02-22 16:03:36.713] $GPVTG,,T,,M,,N,,K,N*2C
[2021-02-22 16:03:36.728] $GPGGA,,,,,,,,,,M,,M,,*56
[2021-02-22 16:03:36.728] $GPVTG,,T,,M,,N,,K,N*2C
[2021-02-22 16:03:36.728] $GPGGA,,,,,,,,,,M,,M,,*56
[2021-02-22 16:03:36.728] $GPVTG,,T,,M,,N,,K,N*2C
[2021-02-22 16:03:36.728] $GPGGA,,,,,,,,,,M,,M,,*56
[2021-02-22 16:03:36.728] $GPVTG,,T,,M,,N,,K,N*2C
[2021-02-22 16:03:36.728] $GPGGA,,,,,,,,,,M,,M,,*56
[2021-02-22 16:03:36.728] $GPVTG,,T,,M,,N,,K,N*2C
[2021-02-22 16:03:36.728] $GPGGA,,,,,,,,,,M,,M,,*56
[2021-02-22 16:03:36.728] $GPVTG,,T,,M,,N,,K,N*2C
[2021-02-22 16:03:36.728] $GPGGA,,,,,,,,,,M,,M,,*56
[2021-02-22 16:03:36.728] $GPVTG,,T,,M,,N,,K,N*2C
[2021-02-22 16:03:36.728] $GPGGA,,,,,,,,,,M,,M,,*56
[2021-02-22 16:03:36.728] $GPVTG,,T,,M,,N,,K,N*2C
[2021-02-22 16:03:36.728] $GPGGA,,,,,,,,,,M,,M,,*56
[2021-02-22 16:03:36.728] $GPVTG,,T,,M,,N,,K,N*2C
[2021-02-22 16:03:36.728] $GPGGA,,,,,,,,,,M,,M,,*56
[2021-02-22 16:03:36.728] $GPVTG,,T,,M,,N,,K,N*2C
[2021-02-22 16:03:36.728] $GPGGA,,,,,,,,,,M,,M,,*56
[2021-02-22 16:03:36.728] $GPVTG,,T,,M,,N,,K,N*2C
[2021-02-22 16:03:36.728] $GPGGA,,,,,,,,,,M,,M,,*56
[2021-02-22 16:03:36.728] $GPVTG,,T,,M,,N,,K,N*2C
[2021-02-22 16:03:36.728] $GPGGA,,,,,,,,,,M,,M,,*56
[2021-02-22 16:03:36.728] $GPVTG,,T,,M,,N,,K,N*2C
[2021-02-22 16:03:36.728] $GPGGA,,,,,,,,,,M,,M,,*56
[2021-02-22 16:03:36.728] $GPVTG,,T,,M,,N,,K,N*2C
[2021-02-22 16:03:36.728] $GPGGA,,,,,,,,,,M,,M,,*56
[2021-02-22 16:03:36.728] $GPVTG,,T,,M,,N,,K,N*2C
[2021-02-22 16:03:36.728] $GPGGA,,,,,,,,,,M,,M,,*56
[2021-02-22 16:03:36.728] $GPVTG,,T,,M,,N,,K,N*2C
[2021-02-22 16:03:36.728] $GPGGA,,,,,,,,,,M,,M,,*56
[2021-02-22 16:03:36.728] $GPVTG,,T,,M,,N,,K,N*2C
[2021-02-22 16:03:36.728] $GPGGA,,,,,,,,,,M,,M,,*56
[2021-02-22 16:03:36.728] $GPVTG,,T,,M,,N,,K,N*2C
[2021-02-22 16:03:36.728] $GPGGA,,,,,,,,,,M,,M,,*56
[2021-02-22 16:03:36.728] $GPVTG,,T,,M,,N,,K,N*2C
[2021-02-22 16:03:36.728] $GPGGA,,,,,,,,,,M,,M,,*56
[2021-02-22 16:03:36.728] $GPVTG,,T,,M,,N,,K,N*2C
[2021-02-22 16:03:36.728] $GPGGA,,,,,,,,,,M,,M,,*56
[2021-02-22 16:03:36.744] $GPVTG,,T,,M,,N,,K,N*2C
[2021-02-22 16:03:36.744] $GPGGA,,,,,,,,,,M,,M,,*56
[2021-02-22 16:03:36.744] $GPVTG,,T,,M,,N,,K,N*2C
[2021-02-22 16:03:36.744] $GPGGA,,,,,,,,,,M,,M,,*56
[2021-02-22 16:03:36.744] $GPVTG,,T,,M,,N,,K,N*2C
[2021-02-22 16:03:36.744] $GPGGA,,,,,,,,,,M,,M,,*56
[2021-02-22 16:03:36.744] $GPVTG,,T,,M,,N,,K,N*2C
[2021-02-22 16:03:36.744] $GPGGA,,,,,,,,,,M,,M,,*56
[2021-02-22 16:03:36.744] $GPVTG,,T,,M,,N,,K,N*2C
[2021-02-22 16:03:36.744] $GPGGA,,,,,,,,,,M,,M,,*56
[2021-02-22 16:03:36.744] $GPVTG,,T,,M,,N,,K,N*2C
[2021-02-22 16:03:36.744] $GPGGA,,,,,,,,,,M,,M,,*56
[2021-02-22 16:03:36.744] $GPVTG,,T,,M,,N,,K,N*2C
[2021-02-22 16:03:36.744] $GPGGA,,,,,,,,,,M,,M,,*56
[2021-02-22 16:03:36.744] $GPVTG,,T,,M,,N,,K,N*2C
[2021-02-22 16:03:36.744] $GPGGA,,,,,,,,,,M,,M,,*56
[2021-02-22 16:03:36.744] $GPVTG,,T,,M,,N,,K,N*2C
[2021-02-22 16:03:36.744] $GPGGA,,,,,,,,,,M,,M,,*56
[2021-02-22 16:03:36.744] $GPVTG,,T,,M,,N,,K,N*2C
[2021-02-22 16:03:36.744] $GPGGA,,,,,,,,,,M,,M,,*56
[2021-02-22 16:03:36.744] $GPVTG,,T,,M,,N,,K,N*2C
[2021-02-22 16:03:36.744] $GPGGA,,,,,,,,,,M,,M,,*56
[2021-02-22 16:03:36.744] $GPVTG,,T,,M,,N,,K,N*2C
[2021-02-22 16:03:36.744] $GPGGA,,,,,,,,,,M,,M,,*56
[2021-02-22 16:03:36.744] $GPVTG,,T,,M,,N,,K,N*2C
[2021-02-22 16:03:36.744] $GPGGA,,,,,,,,,,M,,M,,*56
[2021-02-22 16:03:36.744] $GPVTG,,T,,M,,N,,K,N*2C
[2021-02-22 16:03:36.744] $GPGGA,,,,,,,,,,M,,M,,*56
[2021-02-22 16:03:36.744] $GPVTG,,T,,M,,N,,K,N*2C
[2021-02-22 16:03:36.744] $GPGGA,,,,,,,,,,M,,M,,*56
[2021-02-22 16:03:36.744] $GPVTG,,T,,M,,N,,K,N*2C
[2021-02-22 16:03:36.744] $GPGGA,,,,,,,,,,M,,M,,*56
[2021-02-22 16:03:36.744] $GPVTG,,T,,M,,N,,K,N*2C
[2021-02-22 16:03:36.744] $GPGGA,,,,,,,,,,M,,M,,*56
[2021-02-22 16:03:36.744] $GPVTG,,T,,M,,N,,K,N*2C
[2021-02-22 16:03:36.744] $GPGGA,,,,,,,,,,M,,M,,*56
[2021-02-22 16:03:36.744] $GPVTG,,T,,M,,N,,K,N*2C
[2021-02-22 16:03:36.744] $GPGGA,,,,,,,,,,M,,M,,*56
[2021-02-22 16:03:36.744] $GPVTG,,T,,M,,N,,K,N*2C
[2021-02-22 16:03:36.760] $GPGGA,,,,,,,,,,M,,M,,*56
[2021-02-22 16:03:36.760] $GPVTG,,T,,M,,N,,K,N*2C
[2021-02-22 16:03:36.760] $GPGGA,,,,,,,,,,M,,M,,*56
[2021-02-22 16:03:36.760] $GPVTG,,T,,M,,N,,K,N*2C
[2021-02-22 16:03:36.760] $GPGGA,,,,,,,,,,M,,M,,*56
[2021-02-22 16:03:36.760] $GPVTG,,T,,M,,N,,K,N*2C
[2021-02-22 16:03:36.760] $GPGGA,,,,,,,,,,M,,M,,*56
[2021-02-22 16:03:36.760] $GPVTG,,T,,M,,N,,K,N*2C
[2021-02-22 16:03:36.760] $GPGGA,,,,,,,,,,M,,M,,*56
[2021-02-22 16:03:36.760] $GPVTG,,T,,M,,N,,K,N*2C
[2021-02-22 16:03:36.760] $GPGGA,,,,,,,,,,M,,M,,*56
[2021-02-22 16:03:36.760] $GPVTG,,T,,M,,N,,K,N*2C
[2021-02-22 16:03:36.760] $GPGGA,,,,,,,,,,M,,M,,*56
[2021-02-22 16:03:36.760] $GPVTG,,T,,M,,N,,K,N*2C
[2021-02-22 16:03:36.760] $GPGGA,,,,,,,,,,M,,M,,*56
[2021-02-22 16:03:36.760] $GPVTG,,T,,M,,N,,K,N*2C
[2021-02-22 16:03:36.760] $GPGGA,,,,,,,,,,M,,M,,*56
[2021-02-22 16:03:36.760] $GPVTG,,T,,M,,N,,K,N*2C
[2021-02-22 16:03:36.760] $GPGGA,,,,,,,,,,M,,M,,*56
[2021-02-22 16:03:36.760] $GPVTG,,T,,M,,N,,K,N*2C
[2021-02-22 16:03:36.760] $GPGGA,,,,,,,,,,M,,M,,*56
[2021-02-22 16:03:36.760] $GPVTG,,T,,M,,N,,K,N*2C
[2021-02-22 16:03:36.760] $GPGGA,,,,,,,,,,M,,M,,*56
[2021-02-22 16:03:36.760] $GPVTG,,T,,M,,N,,K,N*2C
[2021-02-22 16:03:36.760] $GPGGA,,,,,,,,,,M,,M,,*56
[2021-02-22 16:03:36.760] $GPVTG,,T,,M,,N,,K,N*2C
[2021-02-22 16:03:36.760] $GPGGA,,,,,,,,,,M,,M,,*56
[2021-02-22 16:03:36.760] $GPVTG,,T,,M,,N,,K,N*2C
[2021-02-22 16:03:36.760] $GPGGA,,,,,,,,,,M,,M,,*56
[2021-02-22 16:03:36.760] $GPVTG,,T,,M,,N,,K,N*2C
[2021-02-22 16:03:36.760] $GPGGA,,,,,,,,,,M,,M,,*56
[2021-02-22 16:03:36.760] $GPVTG,,T,,M,,N,,K,N*2C
[2021-02-22 16:03:36.760] $GPGGA,,,,,,,,,,M,,M,,*56
[2021-02-22 16:03:36.760] $GPVTG,,T,,M,,N,,K,N*2C
[2021-02-22 16:03:36.760] $GPGGA,,,,,,,,,,M,,M,,*56
[2021-02-22 16:03:36.760] $GPVTG,,T,,M,,N,,K,N*2C
[2021-02-22 16:03:36.760] $GPGGA,,,,,,,,,,M,,M,,*56
[2021-02-22 16:03:36.760] $GPVTG,,T,,M,,N,,K,N*2C
[2021-02-22 16:03:36.760] $GPGGA,,,,,,,,,,M,,M,,*56
[2021-02-22 16:03:36.775] $GPVTG,,T,,M,,N,,K,N*2C
[2021-02-22 16:03:36.775] $GPGGA,,,,,,,,,,M,,M,,*56
[2021-02-22 16:03:36.775] $GPVTG,,T,,M,,N,,K,N*2C
[2021-02-22 16:03:36.775] $GPGGA,,,,,,,,,,M,,M,,*56
[2021-02-22 16:03:36.775] $GPVTG,,T,,M,,N,,K,N*2C
[2021-02-22 16:03:36.775] $GPGGA,,,,,,,,,,M,,M,,*56
[2021-02-22 16:03:36.775] $GPVTG,,T,,M,,N,,K,N*2C
[2021-02-22 16:03:36.775] $GPGGA,,,,,,,,,,M,,M,,*56
[2021-02-22 16:03:36.775] $GPVTG,,T,,M,,N,,K,N*2C
[2021-02-22 16:03:36.775] $GPGGA,,,,,,,,,,M,,M,,*56
[2021-02-22 16:03:36.775] $GPVTG,,T,,M,,N,,K,N*2C
[2021-02-22 16:03:36.775] $GPGGA,,,,,,,,,,M,,M,,*56
[2021-02-22 16:03:36.775] $GPVTG,,T,,M,,N,,K,N*2C
[2021-02-22 16:03:36.775] $GPGGA,,,,,,,,,,M,,M,,*56
[2021-02-22 16:03:36.775] $GPVTG,,T,,M,,N,,K,N*2C
[2021-02-22 16:03:36.775] $GPGGA,,,,,,,,,,M,,M,,*56
[2021-02-22 16:03:36.775] $GPVTG,,T,,M,,N,,K,N*2C
[2021-02-22 16:03:36.775] $GPGGA,,,,,,,,,,M,,M,,*56
[2021-02-22 16:03:36.775] $GPVTG,,T,,M,,N,,K,N*2C
[2021-02-22 16:03:36.775] $GPGGA,,,,,,,,,,M,,M,,*56
[2021-02-22 16:03:36.775] $GPVTG,,T,,M,,N,,K,N*2C
[2021-02-22 16:03:36.775] $GPGGA,,,,,,,,,,M,,M,,*56
[2021-02-22 16:03:36.775] $GPVTG,,T,,M,,N,,K,N*2C
[2021-02-22 16:03:36.775] $GPGGA,,,,,,,,,,M,,M,,*56
[2021-02-22 16:03:36.775] $GPVTG,,T,,M,,N,,K,N*2C
[2021-02-22 16:03:36.775] $GPGGA,,,,,,,,,,M,,M,,*56
[2021-02-22 16:03:36.775] $GPVTG,,T,,M,,N,,K,N*2C
[2021-02-22 16:03:36.775] $GPGGA,,,,,,,,,,M,,M,,*56
[2021-02-22 16:03:36.775] $GPVTG,,T,,M,,N,,K,N*2C
[2021-02-22 16:03:36.775] $GPGGA,,,,,,,,,,M,,M,,*56
[2021-02-22 16:03:36.775] $GPVTG,,T,,M,,N,,K,N*2C
[2021-02-22 16:03:36.775] $GPGGA,,,,,,,,,,M,,M,,*56
[2021-02-22 16:03:36.775] $GPVTG,,T,,M,,N,,K,N*2C
[2021-02-22 16:03:36.775] $GPGGA,,,,,,,,,,M,,M,,*56
[2021-02-22 16:03:36.775] $GPVTG,,T,,M,,N,,K,N*2C
[2021-02-22 16:03:36.775] $GPGGA,,,,,,,,,,M,,M,,*56
[2021-02-22 16:03:36.775] $GPVTG,,T,,M,,N,,K,N*2C
[2021-02-22 16:03:36.775] $GPGGA,,,,,,,,,,M,,M,,*56
[2021-02-22 16:03:36.775] $GPVTG,,T,,M,,N,,K,N*2C
[2021-02-22 16:03:36.791] $GPGGA,,,,,,,,,,M,,M,,*56
[2021-02-22 16:03:36.791] $GPVTG,,T,,M,,N,,K,N*2C
[2021-02-22 16:03:36.791] $GPGGA,,,,,,,,,,M,,M,,*56
[2021-02-22 16:03:36.791] $GPVTG,,T,,M,,N,,K,N*2C
[2021-02-22 16:03:36.791] $GPGGA,,,,,,,,,,M,,M,,*56
[2021-02-22 16:03:36.791] $GPVTG,,T,,M,,N,,K,N*2C
[2021-02-22 16:03:36.791] $GPGGA,,,,,,,,,,M,,M,,*56
[2021-02-22 16:03:36.791] $GPVTG,,T,,M,,N,,K,N*2C
[2021-02-22 16:03:36.791] $GPGGA,,,,,,,,,,M,,M,,*56
[2021-02-22 16:03:36.791] $GPVTG,,T,,M,,N,,K,N*2C
[2021-02-22 16:03:36.791] $GPGGA,,,,,,,,,,M,,M,,*56
[2021-02-22 16:03:36.791] $GPVTG,,T,,M,,N,,K,N*2C
[2021-02-22 16:03:36.791] $GPGGA,,,,,,,,,,M,,M,,*56
[2021-02-22 16:03:36.791] $GPVTG,,T,,M,,N,,K,N*2C
[2021-02-22 16:03:36.791] $GPGGA,,,,,,,,,,M,,M,,*56
[2021-02-22 16:03:36.791] $GPVTG,,T,,M,,N,,K,N*2C
[2021-02-22 16:03:36.791] $GPGGA,,,,,,,,,,M,,M,,*56
[2021-02-22 16:03:36.791] $GPVTG,,T,,M,,N,,K,N*2C
[2021-02-22 16:03:36.791] $GPGGA,,,,,,,,,,M,,M,,*56
[2021-02-22 16:03:36.791] $GPVTG,,T,,M,,N,,K,N*2C
[2021-02-22 16:03:36.791] $GPGGA,,,,,,,,,,M,,M,,*56
[2021-02-22 16:03:36.791] $GPVTG,,T,,M,,N,,K,N*2C
[2021-02-22 16:03:36.791] $GPGGA,,,,,,,,,,M,,M,,*56
[2021-02-22 16:03:36.791] $GPVTG,,T,,M,,N,,K,N*2C
[2021-02-22 16:03:36.791] $GPGGA,,,,,,,,,,M,,M,,*56
[2021-02-22 16:03:36.791] $GPVTG,,T,,M,,N,,K,N*2C
[2021-02-22 16:03:36.791] $GPGGA,,,,,,,,,,M,,M,,*56
[2021-02-22 16:03:36.791] $GPVTG,,T,,M,,N,,K,N*2C
[2021-02-22 16:03:36.791] $GPGGA,,,,,,,,,,M,,M,,*56
[2021-02-22 16:03:36.791] $GPVTG,,T,,M,,N,,K,N*2C
[2021-02-22 16:03:36.791] $GPGGA,,,,,,,,,,M,,M,,*56
[2021-02-22 16:03:36.791] $GPVTG,,T,,M,,N,,K,N*2C
[2021-02-22 16:03:36.791] $GPGGA,,,,,,,,,,M,,M,,*56
[2021-02-22 16:03:36.791] $GPVTG,,T,,M,,N,,K,N*2C
[2021-02-22 16:03:36.791] $GPGGA,,,,,,,,,,M,,M,,*56
[2021-02-22 16:03:36.791] $GPVTG,,T,,M,,N,,K,N*2C
[2021-02-22 16:03:36.791] $GPGGA,,,,,,,,,,M,,M,,*56
[2021-02-22 16:03:36.791] $GPVTG,,T,,M,,N,,K,N*2C
[2021-02-22 16:03:36.791] $GPGGA,,,,,,,,,,M,,M,,*56
[2021-02-22 16:03:36.807] $GPVTG,,T,,M,,N,,K,N*2C
[2021-02-22 16:03:36.807] $GPGGA,,,,,,,,,,M,,M,,*56
[2021-02-22 16:03:36.807] $GPVTG,,T,,M,,N,,K,N*2C
[2021-02-22 16:03:36.807] $GPGGA,,,,,,,,,,M,,M,,*56
[2021-02-22 16:03:36.807] $GPVTG,,T,,M,,N,,K,N*2C
[2021-02-22 16:03:36.807] $GPGGA,,,,,,,,,,M,,M,,*56
[2021-02-22 16:03:36.807] $GPVTG,,T,,M,,N,,K,N*2C
[2021-02-22 16:03:36.807] $GPGGA,,,,,,,,,,M,,M,,*56
[2021-02-22 16:03:36.807] $GPVTG,,T,,M,,N,,K,N*2C
[2021-02-22 16:03:36.807] $GPGGA,,,,,,,,,,M,,M,,*56
[2021-02-22 16:03:36.807] $GPVTG,,T,,M,,N,,K,N*2C
[2021-02-22 16:03:36.807] $GPGGA,,,,,,,,,,M,,M,,*56
[2021-02-22 16:03:36.807] $GPVTG,,T,,M,,N,,K,N*2C
[2021-02-22 16:03:36.807] $GPGGA,,,,,,,,,,M,,M,,*56
[2021-02-22 16:03:36.807] $GPVTG,,T,,M,,N,,K,N*2C
[2021-02-22 16:03:36.807] $GPGGA,,,,,,,,,,M,,M,,*56
[2021-02-22 16:03:36.807] $GPVTG,,T,,M,,N,,K,N*2C
[2021-02-22 16:03:36.807] $GPGGA,,,,,,,,,,M,,M,,*56
[2021-02-22 16:03:36.807] $GPVTG,,T,,M,,N,,K,N*2C
[2021-02-22 16:03:36.807] $GPGGA,,,,,,,,,,M,,M,,*56
[2021-02-22 16:03:36.807] $GPVTG,,T,,M,,N,,K,N*2C
[2021-02-22 16:03:36.807] $GPGGA,,,,,,,,,,M,,M,,*56
[2021-02-22 16:03:36.807] $GPVTG,,T,,M,,N,,K,N*2C
[2021-02-22 16:03:36.807] $GPGGA,,,,,,,,,,M,,M,,*56
[2021-02-22 16:03:36.807] $GPVTG,,T,,M,,N,,K,N*2C
[2021-02-22 16:03:36.807] $GPGGA,,,,,,,,,,M,,M,,*56
[2021-02-22 16:03:36.807] $GPVTG,,T,,M,,N,,K,N*2C
[2021-02-22 16:03:36.807] $GPGGA,,,,,,,,,,M,,M,,*56
[2021-02-22 16:03:36.807] $GPVTG,,T,,M,,N,,K,N*2C
[2021-02-22 16:03:36.807] $GPGGA,,,,,,,,,,M,,M,,*56
[2021-02-22 16:03:36.807] $GPVTG,,T,,M,,N,,K,N*2C
[2021-02-22 16:03:36.807] $GPGGA,,,,,,,,,,M,,M,,*56
[2021-02-22 16:03:36.807] $GPVTG,,T,,M,,N,,K,N*2C
[2021-02-22 16:03:36.807] $GPGGA,,,,,,,,,,M,,M,,*56
[2021-02-22 16:03:36.807] $GPVTG,,T,,M,,N,,K,N*2C
[2021-02-22 16:03:36.807] $GPGGA,,,,,,,,,,M,,M,,*56
[2021-02-22 16:03:36.807] $GPVTG,,T,,M,,N,,K,N*2C
[2021-02-22 16:03:36.807] $GPGGA,,,,,,,,,,M,,M,,*56
[2021-02-22 16:03:36.807] $GPVTG,,T,,M,,N,,K,N*2C
[2021-02-22 16:03:36.807] $GPGGA,,,,,,,,,,M,,M,,*56
[2021-02-22 16:03:36.807] $GPVTG,,T,,M,,N,,K,N*2C
[2021-02-22 16:03:36.807] $GPGGA,,,,,,,,,,M,,M,,*56
[2021-02-22 16:03:36.807] $GPVTG,,T,,M,,N,,K,N*2C
[2021-02-22 16:03:36.807] $GPGGA,,,,,,,,,,M,,M,,*56
[2021-02-22 16:03:36.807] $GPVTG,,T,,M,,N,,K,N*2C
[2021-02-22 16:03:36.807] $GPGGA,,,,,,,,,,M,,M,,*56
[2021-02-22 16:03:36.807] $GPVTG,,T,,M,,N,,K,N*2C
[2021-02-22 16:03:36.807] $GPGGA,,,,,,,,,,M,,M,,*56
[2021-02-22 16:03:36.807] $GPVTG,,T,,M,,N,,K,N*2C
[2021-02-22 16:03:36.807] $GPGGA,,,,,,,,,,M,,M,,*56
[2021-02-22 16:03:36.807] $GPVTG,,T,,M,,N,,K,N*2C
[2021-02-22 16:03:36.807] $GPGGA,,,,,,,,,,M,,M,,*56
[2021-02-22 16:03:36.807] $GPVTG,,T,,M,,N,,K,N*2C
[2021-02-22 16:03:36.807] $GPGGA,,,,,,,,,,M,,M,,*56
[2021-02-22 16:03:36.807] $GPVTG,,T,,M,,N,,K,N*2C
[2021-02-22 16:03:36.807] $GPGGA,,,,,,,,,,M,,M,,*56
[2021-02-22 16:03:36.807] $GPVTG,,T,,M,,N,,K,N*2C
[2021-02-22 16:03:36.807] $GPGGA,,,,,,,,,,M,,M,,*56
[2021-02-22 16:03:36.807] $GPVTG,,T,,M,,N,,K,N*2C
[2021-02-22 16:03:36.807] $GPGGA,,,,,,,,,,M,,M,,*56
[2021-02-22 16:03:36.807] $GPVTG,,T,,M,,N,,K,N*2C
[2021-02-22 16:03:36.807] $GPGGA,,,,,,,,,,M,,M,,*56
[2021-02-22 16:03:36.807] $GPVTG,,T,,M,,N,,K,N*2C
[2021-02-22 16:03:36.807] $GPGGA,,,,,,,,,,M,,M,,*56
[2021-02-22 16:03:36.807] $GPVTG,,T,,M,,N,,K,N*2C
[2021-02-22 16:03:36.978] $GPGGA,,,,,,,,,,M,,M,,*56
[2021-02-22 16:03:36.994] $GPVTG,,T,,M,,N,,K,N*2C
[2021-02-22 16:03:37.182] $GPGGA,,,,,,,,,,M,,M,,*56
[2021-02-22 16:03:37.197] $GPVTG,,T,,M,,N,,K,N*2C
[2021-02-22 16:03:37.385] $GPGGA,,,,,,,,,,M,,M,,*56
[2021-02-22 16:03:37.385] $GPVTG,,T,,M,,N,,K,N*2C
[2021-02-22 16:03:37.588] $GPGGA,,,,,,,,,,M,,M,,*56
[2021-02-22 16:03:37.588] $GPVTG,,T,,M,,N,,K,N*2C
[2021-02-22 16:03:37.791] $GPGGA,,,,,,,,,,M,,M,,*56
[2021-02-22 16:03:37.791] $GPVTG,,T,,M,,N,,K,N*2C
[2021-02-22 16:03:37.978] $GPGGA,,,,,,,,,,M,,M,,*56
[2021-02-22 16:03:37.994] $GPVTG,,T,,M,,N,,K,N*2C
[2021-02-22 16:03:38.181] $GPGGA,,,,,,,,,,M,,M,,*56
[2021-02-22 16:03:38.197] $GPVTG,,T,,M,,N,,K,N*2C
[2021-02-22 16:03:38.385] $GPGGA,,,,,,,,,,M,,M,,*56
[2021-02-22 16:03:38.385] $GPVTG,,T,,M,,N,,K,N*2C
[2021-02-22 16:03:38.588] $GPGGA,,,,,,,,,,M,,M,,*56
[2021-02-22 16:03:38.588] $GPVTG,,T,,M,,N,,K,N*2C
[2021-02-22 16:03:38.791] $GPGGA,,,,,,,,,,M,,M,,*56
[2021-02-22 16:03:38.791] $GPVTG,,T,,M,,N,,K,N*2C
[2021-02-22 16:03:38.978] $GPGGA,,,,,,,,,,M,,M,,*56
[2021-02-22 16:03:38.994] $GPVTG,,T,,M,,N,,K,N*2C
[2021-02-22 16:03:39.197] $GPGGA,,,,,,,,,,M,,M,,*56
[2021-02-22 16:03:39.259] $GPVTG,,T,,M,,N,,K,N*2C
[2021-02-22 16:03:39.400] $GPGGA,,,,,,,,,,M,,M,,*56
[2021-02-22 16:03:39.400] $GPVTG,,T,,M,,N,,K,N*2C
[2021-02-22 16:03:39.588] $GPGGA,,,,,,,,,,M,,M,,*56
[2021-02-22 16:03:39.619] $GPVTG,,T,,M,,N,,K,N*2C
[2021-02-22 16:03:39.791] $GPGGA,,,,,,,,,,M,,M,,*56
[2021-02-22 16:03:39.791] $GPVTG,,T,,M,,N,,K,N*2C
[2021-02-22 16:03:39.978] $GPGGA,,,,,,,,,,M,,M,,*56
[2021-02-22 16:03:39.994] $GPVTG,,T,,M,,N,,K,N*2C
[2021-02-22 16:03:40.181] $GPGGA,,,,,,,,,,M,,M,,*56
[2021-02-22 16:03:40.181] $GPVTG,,T,,M,,N,,K,N*2C
[2021-02-22 16:03:40.384] $GPGGA,,,,,,,,,,M,,M,,*56
[2021-02-22 16:03:40.384] $GPVTG,,T,,M,,N,,K,N*2C
[2021-02-22 16:03:40.588] $GPGGA,,,,,,,,,,M,,M,,*56
[2021-02-22 16:03:40.588] $GPVTG,,T,,M,,N,,K,N*2C
[2021-02-22 16:03:40.791] $GPGGA,,,,,,,,,,M,,M,,*56
[2021-02-22 16:03:40.791] $GPVTG,,T,,M,,N,,K,N*2C
[2021-02-22 16:03:40.978] $GPGGA,,,,,,,,,,M,,M,,*56
[2021-02-22 16:03:40.994] $GPVTG,,T,,M,,N,,K,N*2C
[2021-02-22 16:03:41.181] $GPGGA,,,,,,,,,,M,,M,,*56
[2021-02-22 16:03:41.197] $GPVTG,,T,,M,,N,,K,N*2C
[2021-02-22 16:03:41.384] $GPGGA,,,,,,,,,,M,,M,,*56
[2021-02-22 16:03:41.400] $GPVTG,,T,,M,,N,,K,N*2C
[2021-02-22 16:03:41.587] $GPGGA,,,,,,,,,,M,,M,,*56
[2021-02-22 16:03:41.587] $GPVTG,,T,,M,,N,,K,N*2C
[2021-02-22 16:03:41.791] $GPGGA,,,,,,,,,,M,,M,,*56
[2021-02-22 16:03:41.791] $GPVTG,,T,,M,,N,,K,N*2C
[2021-02-22 16:03:41.994] $GPGGA,,,,,,,,,,M,,M,,*56
[2021-02-22 16:03:41.994] $GPVTG,,T,,M,,N,,K,N*2C
[2021-02-22 16:03:42.181] $GPGGA,,,,,,,,,,M,,M,,*56
[2021-02-22 16:03:42.197] $GPVTG,,T,,M,,N,,K,N*2C
[2021-02-22 16:03:42.384] $GPGGA,,,,,,,,,,M,,M,,*56
[2021-02-22 16:03:42.384] $GPVTG,,T,,M,,N,,K,N*2C
[2021-02-22 16:03:42.587] $GPGGA,,,,,,,,,,M,,M,,*56
[2021-02-22 16:03:42.587] $GPVTG,,T,,M,,N,,K,N*2C
[2021-02-22 16:03:42.790] $GPGGA,,,,,,,,,,M,,M,,*56
[2021-02-22 16:03:42.790] $GPVTG,,T,,M,,N,,K,N*2C
[2021-02-22 16:03:42.994] $GPGGA,,,,,,,,,,M,,M,,*56
[2021-02-22 16:03:42.994] $GPVTG,,T,,M,,N,,K,N*2C
[2021-02-22 16:03:43.181] $GPGGA,,,,,,,,,,M,,M,,*56
[2021-02-22 16:03:43.181] $GPVTG,,T,,M,,N,,K,N*2C
[2021-02-22 16:03:43.384] $GPGGA,,,,,,,,,,M,,M,,*56
[2021-02-22 16:03:43.384] $GPVTG,,T,,M,,N,,K,N*2C
[2021-02-22 16:03:43.587] $GPGGA,,,,,,,,,,M,,M,,*56
[2021-02-22 16:03:43.587] $GPVTG,,T,,M,,N,,K,N*2C
[2021-02-22 16:03:43.790] $GPGGA,,,,,,,,,,M,,M,,*56
[2021-02-22 16:03:43.790] $GPVTG,,T,,M,,N,,K,N*2C
[2021-02-22 16:03:43.994] $GPGGA,,,,,,,,,,M,,M,,*56
[2021-02-22 16:03:43.994] $GPVTG,,T,,M,,N,,K,N*2C
[2021-02-22 16:03:44.181] $GPGGA,,,,,,,,,,M,,M,,*56
[2021-02-22 16:03:44.197] $GPVTG,,T,,M,,N,,K,N*2C
[2021-02-22 16:03:44.384] $GPGGA,,,,,,,,,,M,,M,,*56
[2021-02-22 16:03:44.384] $GPVTG,,T,,M,,N,,K,N*2C
[2021-02-22 16:03:44.587] $GPGGA,,,,,,,,,,M,,M,,*56
[2021-02-22 16:03:44.587] $GPVTG,,T,,M,,N,,K,N*2C
[2021-02-22 16:03:44.790] $GPGGA,,,,,,,,,,M,,M,,*56
[2021-02-22 16:03:44.790] $GPVTG,,T,,M,,N,,K,N*2C
[2021-02-22 16:03:44.993] $GPGGA,,,,,,,,,,M,,M,,*56
[2021-02-22 16:03:44.993] $GPVTG,,T,,M,,N,,K,N*2C
[2021-02-22 16:03:45.181] $GPGGA,,,,,,,,,,M,,M,,*56
[2021-02-22 16:03:45.197] $GPVTG,,T,,M,,N,,K,N*2C
[2021-02-22 16:03:45.384] $GPGGA,,,,,,,,,,M,,M,,*56
[2021-02-22 16:03:45.400] $GPVTG,,T,,M,,N,,K,N*2C
[2021-02-22 16:03:45.587] $GPGGA,,,,,,,,,,M,,M,,*56
[2021-02-22 16:03:45.587] $GPVTG,,T,,M,,N,,K,N*2C
[2021-02-22 16:03:45.790] $GPGGA,,,,,,,,,,M,,M,,*56
[2021-02-22 16:03:45.790] $GPVTG,,T,,M,,N,,K,N*2C
[2021-02-22 16:03:45.993] $GPGGA,,,,,,,,,,M,,M,,*56
[2021-02-22 16:03:45.993] $GPVTG,,T,,M,,N,,K,N*2C
[2021-02-22 16:03:46.181] $GPGGA,,,,,,,,,,M,,M,,*56
[2021-02-22 16:03:46.196] $GPVTG,,T,,M,,N,,K,N*2C
[2021-02-22 16:03:46.384] $GPGGA,,,,,,,,,,M,,M,,*56
[2021-02-22 16:03:46.384] $GPVTG,,T,,M,,N,,K,N*2C
[2021-02-22 16:03:46.587] $GPGGA,,,,,,,,,,M,,M,,*56
[2021-02-22 16:03:46.587] $GPVTG,,T,,M,,N,,K,N*2C
[2021-02-22 16:03:46.790] $GPGGA,,,,,,,,,,M,,M,,*56
[2021-02-22 16:03:46.790] $GPVTG,,T,,M,,N,,K,N*2C
[2021-02-22 16:03:46.993] $GPGGA,,,,,,,,,,M,,M,,*56
[2021-02-22 16:03:46.993] $GPVTG,,T,,M,,N,,K,N*2C
[2021-02-22 16:03:47.181] $GPGGA,,,,,,,,,,M,,M,,*56
[2021-02-22 16:03:47.196] $GPVTG,,T,,M,,N,,K,N*2C
[2021-02-22 16:03:47.384] $GPGGA,,,,,,,,,,M,,M,,*56
[2021-02-22 16:03:47.400] $GPVTG,,T,,M,,N,,K,N*2C
[2021-02-22 16:03:47.587] $GPGGA,,,,,,,,,,M,,M,,*56
[2021-02-22 16:03:47.587] $GPVTG,,T,,M,,N,,K,N*2C
[2021-02-22 16:03:47.790] $GPGGA,,,,,,,,,,M,,M,,*56
[2021-02-22 16:03:47.790] $GPVTG,,T,,M,,N,,K,N*2C
[2021-02-22 16:03:47.978] $GPGGA,,,,,,,,,,M,,M,,*56
[2021-02-22 16:03:47.993] $GPVTG,,T,,M,,N,,K,N*2C
[2021-02-22 16:03:48.181] $GPGGA,,,,,,,,,,M,,M,,*56
[2021-02-22 16:03:48.196] $GPVTG,,T,,M,,N,,K,N*2C
[2021-02-22 16:03:48.384] $GPGGA,,,,,,,,,,M,,M,,*56
[2021-02-22 16:03:48.399] $GPVTG,,T,,M,,N,,K,N*2C
[2021-02-22 16:03:48.587] $GPGGA,,,,,,,,,,M,,M,,*56
[2021-02-22 16:03:48.587] $GPVTG,,T,,M,,N,,K,N*2C
[2021-02-22 16:03:48.790] $GPGGA,,,,,,,,,,M,,M,,*56
[2021-02-22 16:03:48.790] $GPVTG,,T,,M,,N,,K,N*2C
[2021-02-22 16:03:48.993] $GPGGA,,,,,,,,,,M,,M,,*56
[2021-02-22 16:03:48.993] $GPVTG,,T,,M,,N,,K,N*2C
[2021-02-22 16:03:49.181] $GPGGA,,,,,,,,,,M,,M,,*56
[2021-02-22 16:03:49.196] $GPVTG,,T,,M,,N,,K,N*2C
[2021-02-22 16:03:49.384] $GPGGA,,,,,,,,,,M,,M,,*56
[2021-02-22 16:03:49.399] $GPVTG,,T,,M,,N,,K,N*2C
[2021-02-22 16:03:49.587] $GPGGA,,,,,,,,,,M,,M,,*56
[2021-02-22 16:03:49.587] $GPVTG,,T,,M,,N,,K,N*2C
[2021-02-22 16:03:49.790] $GPGGA,,,,,,,,,,M,,M,,*56
[2021-02-22 16:03:49.790] $GPVTG,,T,,M,,N,,K,N*2C
[2021-02-22 16:03:49.993] $GPGGA,,,,,,,,,,M,,M,,*56
[2021-02-22 16:03:49.993] $GPVTG,,T,,M,,N,,K,N*2C
[2021-02-22 16:03:50.181] $GPGGA,,,,,,,,,,M,,M,,*56
[2021-02-22 16:03:50.196] $GPVTG,,T,,M,,N,,K,N*2C
[2021-02-22 16:03:50.384] $GPGGA,,,,,,,,,,M,,M,,*56
[2021-02-22 16:03:50.384] $GPVTG,,T,,M,,N,,K,N*2C
[2021-02-22 16:03:50.587] $GPGGA,,,,,,,,,,M,,M,,*56
[2021-02-22 16:03:50.587] $GPVTG,,T,,M,,N,,K,N*2C
[2021-02-22 16:03:50.790] $GPGGA,,,,,,,,,,M,,M,,*56
[2021-02-22 16:03:50.806] $GPVTG,,T,,M,,N,,K,N*2C
[2021-02-22 16:03:50.993] $GPGGA,,,,,,,,,,M,,M,,*56
[2021-02-22 16:03:50.993] $GPVTG,,T,,M,,N,,K,N*2C
[2021-02-22 16:03:51.181] $GPGGA,,,,,,,,,,M,,M,,*56
[2021-02-22 16:03:51.196] $GPVTG,,T,,M,,N,,K,N*2C
[2021-02-22 16:03:51.384] $GPGGA,,,,,,,,,,M,,M,,*56
[2021-02-22 16:03:51.384] $GPVTG,,T,,M,,N,,K,N*2C
[2021-02-22 16:03:51.587] $GPGGA,,,,,,,,,,M,,M,,*56
[2021-02-22 16:03:51.602] $GPVTG,,T,,M,,N,,K,N*2C
[2021-02-22 16:03:51.790] $GPGGA,,,,,,,,,,M,,M,,*56
[2021-02-22 16:03:51.805] $GPVTG,,T,,M,,N,,K,N*2C
[2021-02-22 16:03:51.993] $GPGGA,,,,,,,,,,M,,M,,*56
[2021-02-22 16:03:51.993] $GPVTG,,T,,M,,N,,K,N*2C
[2021-02-22 16:03:52.181] $GPGGA,,,,,,,,,,M,,M,,*56
[2021-02-22 16:03:52.196] $GPVTG,,T,,M,,N,,K,N*2C
[2021-02-22 16:03:52.384] $GPGGA,,,,,,,,,,M,,M,,*56
[2021-02-22 16:03:52.399] $GPVTG,,T,,M,,N,,K,N*2C
[2021-02-22 16:03:52.587] $GPGGA,,,,,,,,,,M,,M,,*56
[2021-02-22 16:03:52.587] $GPVTG,,T,,M,,N,,K,N*2C
[2021-02-22 16:03:52.790] $GPGGA,,,,,,,,,,M,,M,,*56
[2021-02-22 16:03:52.790] $GPVTG,,T,,M,,N,,K,N*2C
[2021-02-22 16:03:52.993] $GPGGA,,,,,,,,,,M,,M,,*56
[2021-02-22 16:03:52.993] $GPVTG,,T,,M,,N,,K,N*2C
[2021-02-22 16:03:53.180] $GPGGA,,,,,,,,,,M,,M,,*56
[2021-02-22 16:03:53.196] $GPVTG,,T,,M,,N,,K,N*2C
[2021-02-22 16:03:53.384] $GPGGA,,,,,,,,,,M,,M,,*56
[2021-02-22 16:03:53.384] $GPVTG,,T,,M,,N,,K,N*2C
[2021-02-22 16:03:53.587] $GPGGA,,,,,,,,,,M,,M,,*56
[2021-02-22 16:03:53.587] $GPVTG,,T,,M,,N,,K,N*2C
[2021-02-22 16:03:53.790] $GPGGA,,,,,,,,,,M,,M,,*56
[2021-02-22 16:03:53.790] $GPVTG,,T,,M,,N,,K,N*2C
[2021-02-22 16:03:53.977] $GPGGA,,,,,,,,,,M,,M,,*56
[2021-02-22 16:03:53.993] $GPVTG,,T,,M,,N,,K,N*2C
[2021-02-22 16:03:54.180] $GPGGA,,,,,,,,,,M,,M,,*56
[2021-02-22 16:03:54.196] $GPVTG,,T,,M,,N,,K,N*2C
[2021-02-22 16:03:54.383] $GPGGA,,,,,,,,,,M,,M,,*56
[2021-02-22 16:03:54.383] $GPVTG,,T,,M,,N,,K,N*2C
[2021-02-22 16:03:54.587] $GPGGA,,,,,,,,,,M,,M,,*56
[2021-02-22 16:03:54.587] $GPVTG,,T,,M,,N,,K,N*2C
[2021-02-22 16:03:54.790] $GPGGA,,,,,,,,,,M,,M,,*56
[2021-02-22 16:03:54.790] $GPVTG,,T,,M,,N,,K,N*2C
[2021-02-22 16:03:54.977] $GPGGA,,,,,,,,,,M,,M,,*56
[2021-02-22 16:03:54.993] $GPVTG,,T,,M,,N,,K,N*2C
[2021-02-22 16:03:55.180] $GPGGA,,,,,,,,,,M,,M,,*56
[2021-02-22 16:03:55.196] $GPVTG,,T,,M,,N,,K,N*2C
[2021-02-22 16:03:55.383] $GPGGA,,,,,,,,,,M,,M,,*56
[2021-02-22 16:03:55.383] $GPVTG,,T,,M,,N,,K,N*2C
[2021-02-22 16:03:55.587] $GPGGA,,,,,,,,,,M,,M,,*56
[2021-02-22 16:03:55.587] $GPVTG,,T,,M,,N,,K,N*2C
[2021-02-22 16:03:55.790] $GPGGA,,,,,,,,,,M,,M,,*56
[2021-02-22 16:03:55.790] $GPVTG,,T,,M,,N,,K,N*2C
[2021-02-22 16:03:55.993] $GPGGA,,,,,,,,,,M,,M,,*56
[2021-02-22 16:03:55.993] $GPVTG,,T,,M,,N,,K,N*2C
[2021-02-22 16:03:56.180] $GPGGA,,,,,,,,,,M,,M,,*56
[2021-02-22 16:03:56.196] $GPVTG,,T,,M,,N,,K,N*2C
[2021-02-22 16:03:56.383] $GPGGA,,,,,,,,,,M,,M,,*56
[2021-02-22 16:03:56.383] $GPVTG,,T,,M,,N,,K,N*2C
[2021-02-22 16:03:56.586] $GPGGA,,,,,,,,,,M,,M,,*56
[2021-02-22 16:03:56.586] $GPVTG,,T,,M,,N,,K,N*2C
[2021-02-22 16:03:56.790] $GPGGA,,,,,,,,,,M,,M,,*56
[2021-02-22 16:03:56.790] $GPVTG,,T,,M,,N,,K,N*2C
[2021-02-22 16:03:56.993] $GPGGA,,,,,,,,,,M,,M,,*56
[2021-02-22 16:03:56.993] $GPVTG,,T,,M,,N,,K,N*2C
[2021-02-22 16:03:57.180] $GPGGA,,,,,,,,,,M,,M,,*56
[2021-02-22 16:03:57.196] $GPVTG,,T,,M,,N,,K,N*2C
[2021-02-22 16:03:57.383] $GPGGA,,,,,,,,,,M,,M,,*56
[2021-02-22 16:03:57.399] $GPVTG,,T,,M,,N,,K,N*2C
[2021-02-22 16:03:57.586] $GPGGA,,,,,,,,,,M,,M,,*56
[2021-02-22 16:03:57.586] $GPVTG,,T,,M,,N,,K,N*2C
[2021-02-22 16:03:57.790] $GPGGA,,,,,,,,,,M,,M,,*56
[2021-02-22 16:03:57.790] $GPVTG,,T,,M,,N,,K,N*2C
[2021-02-22 16:03:57.993] $GPGGA,,,,,,,,,,M,,M,,*56
[2021-02-22 16:03:57.993] $GPVTG,,T,,M,,N,,K,N*2C
[2021-02-22 16:03:58.180] $GPGGA,,,,,,,,,,M,,M,,*56
[2021-02-22 16:03:58.196] $GPVTG,,T,,M,,N,,K,N*2C
[2021-02-22 16:03:58.383] $GPGGA,,,,,,,,,,M,,M,,*56
[2021-02-22 16:03:58.383] $GPVTG,,T,,M,,N,,K,N*2C
[2021-02-22 16:03:58.586] $GPGGA,,,,,,,,,,M,,M,,*56
[2021-02-22 16:03:58.586] $GPVTG,,T,,M,,N,,K,N*2C
[2021-02-22 16:03:58.789] $GPGGA,,,,,,,,,,M,,M,,*56
[2021-02-22 16:03:58.789] $GPVTG,,T,,M,,N,,K,N*2C
[2021-02-22 16:03:58.992] $GPGGA,,,,,,,,,,M,,M,,*56
[2021-02-22 16:03:58.992] $GPVTG,,T,,M,,N,,K,N*2C
[2021-02-22 16:03:59.180] $GPGGA,,,,,,,,,,M,,M,,*56
[2021-02-22 16:03:59.196] $GPVTG,,T,,M,,N,,K,N*2C
[2021-02-22 16:03:59.383] $GPGGA,,,,,,,,,,M,,M,,*56
[2021-02-22 16:03:59.383] $GPVTG,,T,,M,,N,,K,N*2C
[2021-02-22 16:03:59.586] $GPGGA,,,,,,,,,,M,,M,,*56
[2021-02-22 16:03:59.586] $GPVTG,,T,,M,,N,,K,N*2C
[2021-02-22 16:03:59.789] $GPGGA,,,,,,,,,,M,,M,,*56
[2021-02-22 16:03:59.789] $GPVTG,,T,,M,,N,,K,N*2C
[2021-02-22 16:03:59.992] $GPGGA,,,,,,,,,,M,,M,,*56
[2021-02-22 16:03:59.992] $GPVTG,,T,,M,,N,,K,N*2C
[2021-02-22 16:04:00.180] $GPGGA,,,,,,,,,,M,,M,,*56
[2021-02-22 16:04:00.196] $GPVTG,,T,,M,,N,,K,N*2C
[2021-02-22 16:04:00.383] $GPGGA,,,,,,,,,,M,,M,,*56
[2021-02-22 16:04:00.383] $GPVTG,,T,,M,,N,,K,N*2C
[2021-02-22 16:04:00.586] $GPGGA,,,,,,,,,,M,,M,,*56
[2021-02-22 16:04:00.586] $GPVTG,,T,,M,,N,,K,N*2C
[2021-02-22 16:04:00.789] $GPGGA,,,,,,,,,,M,,M,,*56
[2021-02-22 16:04:00.805] $GPVTG,,T,,M,,N,,K,N*2C
[2021-02-22 16:04:00.992] $GPGGA,,,,,,,,,,M,,M,,*56
[2021-02-22 16:04:00.992] $GPVTG,,T,,M,,N,,K,N*2C
[2021-02-22 16:04:01.180] $GPGGA,,,,,,,,,,M,,M,,*56
[2021-02-22 16:04:01.195] $GPVTG,,T,,M,,N,,K,N*2C
[2021-02-22 16:04:01.383] $GPGGA,,,,,,,,,,M,,M,,*56
[2021-02-22 16:04:01.399] $GPVTG,,T,,M,,N,,K,N*2C
[2021-02-22 16:04:01.586] $GPGGA,,,,,,,,,,M,,M,,*56
[2021-02-22 16:04:01.586] $GPVTG,,T,,M,,N,,K,N*2C
[2021-02-22 16:04:01.789] $GPGGA,,,,,,,,,,M,,M,,*56
[2021-02-22 16:04:01.789] $GPVTG,,T,,M,,N,,K,N*2C
[2021-02-22 16:04:01.992] $GPGGA,,,,,,,,,,M,,M,,*56
[2021-02-22 16:04:01.992] $GPVTG,,T,,M,,N,,K,N*2C
[2021-02-22 16:04:02.180] $GPGGA,,,,,,,,,,M,,M,,*56
[2021-02-22 16:04:02.195] $GPVTG,,T,,M,,N,,K,N*2C
[2021-02-22 16:04:02.383] $GPGGA,,,,,,,,,,M,,M,,*56
[2021-02-22 16:04:02.383] $GPVTG,,T,,M,,N,,K,N*2C
[2021-02-22 16:04:02.586] $GPGGA,,,,,,,,,,M,,M,,*56
[2021-02-22 16:04:02.602] $GPVTG,,T,,M,,N,,K,N*2C
[2021-02-22 16:04:02.789] $GPGGA,,,,,,,,,,M,,M,,*56
[2021-02-22 16:04:02.789] $GPVTG,,T,,M,,N,,K,N*2C
[2021-02-22 16:04:02.992] $GPGGA,,,,,,,,,,M,,M,,*56
[2021-02-22 16:04:02.992] $GPVTG,,T,,M,,N,,K,N*2C
[2021-02-22 16:04:03.180] $GPGGA,,,,,,,,,,M,,M,,*56
[2021-02-22 16:04:03.195] $GPVTG,,T,,M,,N,,K,N*2C
[2021-02-22 16:04:03.383] $GPGGA,,,,,,,,,,M,,M,,*56
[2021-02-22 16:04:03.398] $GPVTG,,T,,M,,N,,K,N*2C
[2021-02-22 16:04:03.586] $GPGGA,,,,,,,,,,M,,M,,*56
[2021-02-22 16:04:03.586] $GPVTG,,T,,M,,N,,K,N*2C
[2021-02-22 16:04:03.789] $GPGGA,,,,,,,,,,M,,M,,*56
[2021-02-22 16:04:03.789] $GPVTG,,T,,M,,N,,K,N*2C
[2021-02-22 16:04:03.992] $GPGGA,,,,,,,,,,M,,M,,*56
[2021-02-22 16:04:03.992] $GPVTG,,T,,M,,N,,K,N*2C
[2021-02-22 16:04:04.180] $GPGGA,,,,,,,,,,M,,M,,*56
[2021-02-22 16:04:04.195] $GPVTG,,T,,M,,N,,K,N*2C
[2021-02-22 16:04:04.383] $GPGGA,,,,,,,,,,M,,M,,*56
[2021-02-22 16:04:04.383] $GPVTG,,T,,M,,N,,K,N*2C
[2021-02-22 16:04:04.586] $GPGGA,,,,,,,,,,M,,M,,*56
[2021-02-22 16:04:04.586] $GPVTG,,T,,M,,N,,K,N*2C
[2021-02-22 16:04:04.789] $GPGGA,,,,,,,,,,M,,M,,*56
[2021-02-22 16:04:04.789] $GPVTG,,T,,M,,N,,K,N*2C
[2021-02-22 16:04:04.992] $GPGGA,,,,,,,,,,M,,M,,*56
[2021-02-22 16:04:04.992] $GPVTG,,T,,M,,N,,K,N*2C
[2021-02-22 16:04:05.180] $GPGGA,,,,,,,,,,M,,M,,*56
[2021-02-22 16:04:05.195] $GPVTG,,T,,M,,N,,K,N*2C
[2021-02-22 16:04:05.383] $GPGGA,,,,,,,,,,M,,M,,*56
[2021-02-22 16:04:05.398] $GPVTG,,T,,M,,N,,K,N*2C
[2021-02-22 16:04:05.586] $GPGGA,,,,,,,,,,M,,M,,*56
[2021-02-22 16:04:05.586] $GPVTG,,T,,M,,N,,K,N*2C
[2021-02-22 16:04:05.789] $GPGGA,,,,,,,,,,M,,M,,*56
[2021-02-22 16:04:05.789] $GPVTG,,T,,M,,N,,K,N*2C
[2021-02-22 16:04:05.992] $GPGGA,,,,,,,,,,M,,M,,*56
[2021-02-22 16:04:05.992] $GPVTG,,T,,M,,N,,K,N*2C
[2021-02-22 16:04:06.180] $GPGGA,,,,,,,,,,M,,M,,*56
[2021-02-22 16:04:06.195] $GPVTG,,T,,M,,N,,K,N*2C
[2021-02-22 16:04:06.383] $GPGGA,,,,,,,,,,M,,M,,*56
[2021-02-22 16:04:06.383] $GPVTG,,T,,M,,N,,K,N*2C
[2021-02-22 16:04:06.586] $GPGGA,,,,,,,,,,M,,M,,*56
[2021-02-22 16:04:06.601] $GPVTG,,T,,M,,N,,K,N*2C
[2021-02-22 16:04:06.789] $GPGGA,,,,,,,,,,M,,M,,*56
[2021-02-22 16:04:06.789] $GPVTG,,T,,M,,N,,K,N*2C
[2021-02-22 16:04:06.992] $GPGGA,,,,,,,,,,M,,M,,*56
[2021-02-22 16:04:06.992] $GPVTG,,T,,M,,N,,K,N*2C
[2021-02-22 16:04:07.179] $GPGGA,,,,,,,,,,M,,M,,*56
[2021-02-22 16:04:07.195] $GPVTG,,T,,M,,N,,K,N*2C
[2021-02-22 16:04:07.383] $GPGGA,,,,,,,,,,M,,M,,*56
[2021-02-22 16:04:07.398] $GPVTG,,T,,M,,N,,K,N*2C
[2021-02-22 16:04:07.586] $GPGGA,,,,,,,,,,M,,M,,*56
[2021-02-22 16:04:07.586] $GPVTG,,T,,M,,N,,K,N*2C
[2021-02-22 16:04:07.789] $GPGGA,,,,,,,,,,M,,M,,*56
[2021-02-22 16:04:07.789] $GPVTG,,T,,M,,N,,K,N*2C
[2021-02-22 16:04:07.992] $GPGGA,,,,,,,,,,M,,M,,*56
[2021-02-22 16:04:07.992] $GPVTG,,T,,M,,N,,K,N*2C
[2021-02-22 16:04:08.195] $GPGGA,,,,,,,,,,M,,M,,*56
[2021-02-22 16:04:08.195] $GPVTG,,T,,M,,N,,K,N*2C
[2021-02-22 16:04:08.383] $GPGGA,,,,,,,,,,M,,M,,*56
[2021-02-22 16:04:08.383] $GPVTG,,T,,M,,N,,K,N*2C
[2021-02-22 16:04:08.586] $GPGGA,,,,,,,,,,M,,M,,*56
[2021-02-22 16:04:08.601] $GPVTG,,T,,M,,N,,K,N*2C
[2021-02-22 16:04:08.789] $GPGGA,,,,,,,,,,M,,M,,*56
[2021-02-22 16:04:08.789] $GPVTG,,T,,M,,N,,K,N*2C
[2021-02-22 16:04:08.992] $GPGGA,,,,,,,,,,M,,M,,*56
[2021-02-22 16:04:08.992] $GPVTG,,T,,M,,N,,K,N*2C
[2021-02-22 16:04:09.179] $GPGGA,,,,,,,,,,M,,M,,*56
[2021-02-22 16:04:09.195] $GPVTG,,T,,M,,N,,K,N*2C
[2021-02-22 16:04:09.382] $GPGGA,,,,,,,,,,M,,M,,*56
[2021-02-22 16:04:09.398] $GPVTG,,T,,M,,N,,K,N*2C
[2021-02-22 16:04:09.586] $GPGGA,,,,,,,,,,M,,M,,*56
[2021-02-22 16:04:09.586] $GPVTG,,T,,M,,N,,K,N*2C
[2021-02-22 16:04:09.789] $GPGGA,,,,,,,,,,M,,M,,*56
[2021-02-22 16:04:09.789] $GPVTG,,T,,M,,N,,K,N*2C
[2021-02-22 16:04:09.992] $GPGGA,,,,,,,,,,M,,M,,*56
[2021-02-22 16:04:09.992] $GPVTG,,T,,M,,N,,K,N*2C
[2021-02-22 16:04:10.179] $GPGGA,,,,,,,,,,M,,M,,*56
[2021-02-22 16:04:10.195] $GPVTG,,T,,M,,N,,K,N*2C
[2021-02-22 16:04:10.382] $GPGGA,,,,,,,,,,M,,M,,*56
[2021-02-22 16:04:10.398] $GPVTG,,T,,M,,N,,K,N*2C
[2021-02-22 16:04:10.585] $GPGGA,,,,,,,,,,M,,M,,*56
[2021-02-22 16:04:10.585] $GPVTG,,T,,M,,N,,K,N*2C
[2021-02-22 16:04:10.789] $GPGGA,,,,,,,,,,M,,M,,*56
[2021-02-22 16:04:10.789] $GPVTG,,T,,M,,N,,K,N*2C
[2021-02-22 16:04:10.992] $GPGGA,,,,,,,,,,M,,M,,*56
[2021-02-22 16:04:10.992] $GPVTG,,T,,M,,N,,K,N*2C
[2021-02-22 16:04:11.179] $GPGGA,,,,,,,,,,M,,M,,*56
[2021-02-22 16:04:11.195] $GPVTG,,T,,M,,N,,K,N*2C
[2021-02-22 16:04:11.382] $GPGGA,,,,,,,,,,M,,M,,*56
[2021-02-22 16:04:11.398] $GPVTG,,T,,M,,N,,K,N*2C
[2021-02-22 16:04:11.585] $GPGGA,,,,,,,,,,M,,M,,*56
[2021-02-22 16:04:11.601] $GPVTG,,T,,M,,N,,K,N*2C
[2021-02-22 16:04:11.788] $GPGGA,,,,,,,,,,M,,M,,*56
[2021-02-22 16:04:11.788] $GPVTG,,T,,M,,N,,K,N*2C
[2021-02-22 16:04:11.992] $GPGGA,,,,,,,,,,M,,M,,*56
[2021-02-22 16:04:11.992] $GPVTG,,T,,M,,N,,K,N*2C
[2021-02-22 16:04:12.179] $GPGGA,,,,,,,,,,M,,M,,*56
[2021-02-22 16:04:12.195] $GPVTG,,T,,M,,N,,K,N*2C
[2021-02-22 16:04:12.382] $GPGGA,,,,,,,,,,M,,M,,*56
[2021-02-22 16:04:12.398] $GPVTG,,T,,M,,N,,K,N*2C
[2021-02-22 16:04:12.585] $GPGGA,,,,,,,,,,M,,M,,*56
[2021-02-22 16:04:12.601] $GPVTG,,T,,M,,N,,K,N*2C
[2021-02-22 16:04:12.788] $GPGGA,,,,,,,,,,M,,M,,*56
[2021-02-22 16:04:12.788] $GPVTG,,T,,M,,N,,K,N*2C
[2021-02-22 16:04:12.992] $GPGGA,,,,,,,,,,M,,M,,*56
[2021-02-22 16:04:12.992] $GPVTG,,T,,M,,N,,K,N*2C
[2021-02-22 16:04:13.179] $GPGGA,,,,,,,,,,M,,M,,*56
[2021-02-22 16:04:13.195] $GPVTG,,T,,M,,N,,K,N*2C
[2021-02-22 16:04:13.382] $GPGGA,,,,,,,,,,M,,M,,*56
[2021-02-22 16:04:13.382] $GPVTG,,T,,M,,N,,K,N*2C
[2021-02-22 16:04:13.585] $GPGGA,,,,,,,,,,M,,M,,*56
[2021-02-22 16:04:13.601] $GPVTG,,T,,M,,N,,K,N*2C
[2021-02-22 16:04:13.788] $GPGGA,,,,,,,,,,M,,M,,*56
[2021-02-22 16:04:13.788] $GPVTG,,T,,M,,N,,K,N*2C
[2021-02-22 16:04:13.991] $GPGGA,,,,,,,,,,M,,M,,*56
[2021-02-22 16:04:13.991] $GPVTG,,T,,M,,N,,K,N*2C
[2021-02-22 16:04:14.179] $GPGGA,,,,,,,,,,M,,M,,*56
[2021-02-22 16:04:14.195] $GPVTG,,T,,M,,N,,K,N*2C
[2021-02-22 16:04:14.382] $GPGGA,,,,,,,,,,M,,M,,*56
[2021-02-22 16:04:14.398] $GPVTG,,T,,M,,N,,K,N*2C
[2021-02-22 16:04:14.585] $GPGGA,,,,,,,,,,M,,M,,*56
[2021-02-22 16:04:14.601] $GPVTG,,T,,M,,N,,K,N*2C
[2021-02-22 16:04:14.788] $GPGGA,,,,,,,,,,M,,M,,*56
[2021-02-22 16:04:14.788] $GPVTG,,T,,M,,N,,K,N*2C
[2021-02-22 16:04:14.991] $GPGGA,,,,,,,,,,M,,M,,*56
[2021-02-22 16:04:14.991] $GPVTG,,T,,M,,N,,K,N*2C
[2021-02-22 16:04:15.194] $GPGGA,,,,,,,,,,M,,M,,*56
[2021-02-22 16:04:15.194] $GPVTG,,T,,M,,N,,K,N*2C
[2021-02-22 16:04:15.382] $GPGGA,,,,,,,,,,M,,M,,*56
[2021-02-22 16:04:15.398] $GPVTG,,T,,M,,N,,K,N*2C
[2021-02-22 16:04:15.585] $GPGGA,070415.20,3713.95248139,N,13701.42467525,E,1,05,4.3,102.627,M,36.771,M,,*65
[2021-02-22 16:04:15.601] $GPVTG,157.72,T,166.17,M,0.22,N,0.42,K,A*24
[2021-02-22 16:04:15.788] $GPGGA,070415.40,3713.95195892,N,13701.42566759,E,1,07,1.8,105.939,M,36.771,M,,*6A
[2021-02-22 16:04:15.819] $GPVTG,327.22,T,335.67,M,0.04,N,0.08,K,A*2D
[2021-02-22 16:04:15.882] $GPGGA,070415.50,3713.95196023,N,13701.42566952,E,1,07,1.8,105.931,M,36.771,M,,*67
[2021-02-22 16:04:15.898] $GPVTG,49.67,T,58.12,M,0.07,N,0.13,K,A*24
[2021-02-22 16:04:15.991] $GPGGA,070415.60,3713.95197668,N,13701.42563602,E,1,07,1.8,105.711,M,36.771,M,,*6F
[2021-02-22 16:04:16.007] $GPVTG,79.77,T,88.22,M,0.09,N,0.17,K,A*22
[2021-02-22 16:04:16.085] $GPGGA,070415.70,3713.95197725,N,13701.42563577,E,1,07,1.8,105.710,M,36.771,M,,*66
[2021-02-22 16:04:16.101] $GPVTG,41.15,T,49.60,M,0.03,N,0.06,K,A*2C
[2021-02-22 16:04:16.194] $GPGGA,070415.80,3713.95196828,N,13701.42565738,E,1,07,1.8,105.787,M,36.771,M,,*6B
[2021-02-22 16:04:16.210] $GPVTG,29.28,T,37.73,M,0.02,N,0.05,K,A*25
[2021-02-22 16:04:16.288] $GPGGA,070415.90,3713.95197012,N,13701.42565918,E,1,07,1.8,105.781,M,36.771,M,,*60
[2021-02-22 16:04:16.304] $GPVTG,32.08,T,40.53,M,0.05,N,0.10,K,A*2C
[2021-02-22 16:04:16.398] $GPGGA,070416.00,3713.95196834,N,13701.42567107,E,1,07,1.8,105.878,M,36.771,M,,*6A
[2021-02-22 16:04:16.413] $GPVTG,343.14,T,351.59,M,0.08,N,0.15,K,A*25
[2021-02-22 16:04:16.491] $GPGGA,070416.10,3713.95196810,N,13701.42566532,E,1,07,1.8,105.882,M,36.771,M,,*6B
[2021-02-22 16:04:16.491] $GPVTG,296.63,T,305.08,M,0.12,N,0.23,K,A*27
[2021-02-22 16:04:16.601] $GPGGA,070416.20,3713.95247861,N,13701.42574818,E,1,10,1.3,104.628,M,36.771,M,,*65
[2021-02-22 16:04:16.616] $GPVTG,309.95,T,318.40,M,0.13,N,0.23,K,A*28
[2021-02-22 16:04:16.679] $GPGGA,070416.30,3713.95247821,N,13701.42574916,E,1,10,1.3,104.625,M,36.771,M,,*62
[2021-02-22 16:04:16.694] $GPVTG,309.55,T,318.00,M,0.07,N,0.14,K,A*21
[2021-02-22 16:04:16.788] $GPGGA,070416.40,3713.95250033,N,13701.42577359,E,1,10,1.3,104.637,M,36.771,M,,*69
[2021-02-22 16:04:16.804] $GPVTG,298.77,T,307.22,M,0.06,N,0.10,K,A*23
[2021-02-22 16:04:16.882] $GPGGA,070416.50,3713.95250072,N,13701.42577646,E,1,10,1.3,104.634,M,36.771,M,,*65
[2021-02-22 16:04:16.897] $GPVTG,5.85,T,14.30,M,0.02,N,0.04,K,A*1B
[2021-02-22 16:04:16.991] $GPGGA,070416.60,3713.95283412,N,13701.42577045,E,1,10,1.3,103.852,M,36.771,M,,*66
[2021-02-22 16:04:17.007] $GPVTG,85.82,T,94.27,M,0.01,N,0.03,K,A*2E
[2021-02-22 16:04:17.085] $GPGGA,070416.70,3713.95283499,N,13701.42576927,E,1,10,1.3,103.848,M,36.771,M,,*63
[2021-02-22 16:04:17.101] $GPVTG,2.59,T,11.04,M,0.00,N,0.01,K,A*18
[2021-02-22 16:04:17.194] $GPGGA,070416.80,3713.95303642,N,13701.42574929,E,1,10,1.3,103.401,M,36.771,M,,*6C
[2021-02-22 16:04:17.210] $GPVTG,334.13,T,342.58,M,0.02,N,0.04,K,A*2B
[2021-02-22 16:04:17.288] $GPGGA,070416.90,3713.95303822,N,13701.42574743,E,1,10,1.3,103.397,M,36.771,M,,*6F
[2021-02-22 16:04:17.304] $GPVTG,323.49,T,331.94,M,0.04,N,0.08,K,A*2C
[2021-02-22 16:04:17.398] $GPGGA,070417.00,3713.95316121,N,13701.42572666,E,1,10,1.3,103.141,M,36.771,M,,*60
[2021-02-22 16:04:17.413] $GPVTG,340.20,T,348.65,M,0.04,N,0.07,K,A*29
[2021-02-22 16:04:17.491] $GPGGA,070417.10,3713.95316160,N,13701.42572579,E,1,10,1.3,103.137,M,36.771,M,,*68
[2021-02-22 16:04:17.507] $GPVTG,326.01,T,334.46,M,0.03,N,0.06,K,A*26
[2021-02-22 16:04:17.601] $GPGGA,070417.20,3713.95326033,N,13701.42570336,E,1,11,1.2,102.924,M,36.771,M,,*6B
[2021-02-22 16:04:17.601] $GPVTG,323.85,T,332.30,M,0.04,N,0.08,K,A*21
[2021-02-22 16:04:17.694] $GPGGA,070417.30,3713.95326000,N,13701.42570292,E,1,10,1.2,102.920,M,36.771,M,,*60
[2021-02-22 16:04:17.694] $GPVTG,307.76,T,316.20,M,0.03,N,0.06,K,A*25
[2021-02-22 16:04:17.788] $GPGGA,070417.40,3713.95332592,N,13701.42568744,E,1,11,1.2,102.792,M,36.771,M,,*6D
[2021-02-22 16:04:17.804] $GPVTG,302.33,T,310.78,M,0.03,N,0.06,K,A*2A
[2021-02-22 16:04:17.882] $GPGGA,070417.50,3713.95332643,N,13701.42568555,E,1,11,1.2,102.788,M,36.771,M,,*6A
[2021-02-22 16:04:17.897] $GPVTG,289.99,T,298.44,M,0.04,N,0.07,K,A*20
[2021-02-22 16:04:17.991] $GPGGA,070417.60,3713.95338766,N,13701.42568154,E,1,11,1.2,102.669,M,36.771,M,,*6E
[2021-02-22 16:04:18.007] $GPVTG,324.96,T,333.41,M,0.01,N,0.02,K,A*2C
[2021-02-22 16:04:18.085] $GPGGA,070417.70,3713.95338697,N,13701.42568043,E,1,11,1.2,102.668,M,36.771,M,,*66
[2021-02-22 16:04:18.101] $GPVTG,242.23,T,250.68,M,0.02,N,0.03,K,A*2E
[2021-02-22 16:04:18.194] $GPGGA,070417.80,3713.95346980,N,13701.42570567,E,1,11,1.2,102.554,M,36.771,M,,*6F
[2021-02-22 16:04:18.210] $GPVTG,266.34,T,274.78,M,0.03,N,0.05,K,A*2E
[2021-02-22 16:04:18.288] $GPGGA,070417.90,3713.95346931,N,13701.42570319,E,1,11,1.2,102.552,M,36.771,M,,*6D
[2021-02-22 16:04:18.304] $GPVTG,254.74,T,263.19,M,0.05,N,0.09,K,A*20
[2021-02-22 16:04:18.397] $GPGGA,070418.00,3713.95354128,N,13701.42573023,E,1,12,1.1,102.469,M,36.771,M,,*68
[2021-02-22 16:04:18.413] $GPVTG,234.22,T,242.67,M,0.06,N,0.11,K,A*25
[2021-02-22 16:04:18.491] $GPGGA,070418.10,3713.95354318,N,13701.42572835,E,1,11,1.1,102.468,M,36.771,M,,*64
[2021-02-22 16:04:18.491] $GPVTG,268.40,T,276.85,M,0.05,N,0.09,K,A*29
[2021-02-22 16:04:18.600] $GPGGA,070418.20,3713.95360761,N,13701.42575236,E,1,12,1.1,102.405,M,36.771,M,,*6C
[2021-02-22 16:04:18.616] $GPVTG,281.21,T,289.66,M,0.03,N,0.05,K,A*2E
[2021-02-22 16:04:18.694] $GPGGA,070418.30,3713.95360789,N,13701.42575331,E,1,11,1.1,102.399,M,36.771,M,,*6C
[2021-02-22 16:04:18.710] $GPVTG,338.69,T,347.14,M,0.01,N,0.02,K,A*22
[2021-02-22 16:04:18.788] $GPGGA,070418.40,3713.95368148,N,13701.42576670,E,1,14,0.9,102.345,M,36.771,M,,*66
[2021-02-22 16:04:18.804] $GPVTG,51.33,T,59.78,M,0.07,N,0.13,K,A*21
[2021-02-22 16:04:18.882] $GPGGA,070418.50,3713.95368120,N,13701.42576828,E,1,11,0.9,102.346,M,36.771,M,,*6C
[2021-02-22 16:04:18.897] $GPVTG,61.52,T,69.96,M,0.06,N,0.12,K,A*26
[2021-02-22 16:04:18.991] $GPGGA,070418.60,3713.95373442,N,13701.42578304,E,1,14,0.9,102.297,M,36.771,M,,*67
[2021-02-22 16:04:19.007] $GPVTG,64.65,T,73.10,M,0.08,N,0.14,K,A*2A
[2021-02-22 16:04:19.085] $GPGGA,070418.70,3713.95373473,N,13701.42578405,E,1,13,0.9,102.298,M,36.771,M,,*6A
[2021-02-22 16:04:19.100] $GPVTG,67.62,T,76.07,M,0.07,N,0.12,K,A*24
[2021-02-22 16:04:19.194] $GPGGA,070418.80,3713.95378365,N,13701.42579757,E,1,14,0.9,102.246,M,36.771,M,,*6F
[2021-02-22 16:04:19.210] $GPVTG,66.55,T,75.00,M,0.06,N,0.12,K,A*24
[2021-02-22 16:04:19.288] $GPGGA,070418.90,3713.95378276,N,13701.42579911,E,1,14,0.9,102.250,M,36.771,M,,*66
[2021-02-22 16:04:19.304] $GPVTG,83.99,T,92.44,M,0.05,N,0.10,K,A*27
[2021-02-22 16:04:19.397] $GPGGA,070419.00,3713.95382594,N,13701.42580846,E,1,14,0.9,102.202,M,36.771,M,,*62
[2021-02-22 16:04:19.413] $GPVTG,124.06,T,132.51,M,0.04,N,0.07,K,A*25
[2021-02-22 16:04:19.491] $GPGGA,070419.10,3713.95382826,N,13701.42580742,E,1,14,0.9,102.198,M,36.771,M,,*6C
[2021-02-22 16:04:19.507] $GPVTG,58.65,T,67.10,M,0.01,N,0.03,K,A*2F
[2021-02-22 16:04:19.600] $GPGGA,070419.20,3713.95386914,N,13701.42581456,E,1,14,0.9,102.157,M,36.771,M,,*6F
[2021-02-22 16:04:19.616] $GPVTG,110.02,T,118.47,M,0.01,N,0.02,K,A*29
[2021-02-22 16:04:19.694] $GPGGA,070419.30,3713.95387213,N,13701.42581390,E,1,14,0.9,102.157,M,36.771,M,,*6E
[2021-02-22 16:04:19.694] $GPVTG,359.80,T,8.25,M,0.04,N,0.07,K,A*28
[2021-02-22 16:04:19.804] $GPGGA,070419.40,3713.95391383,N,13701.42581640,E,1,14,0.9,102.114,M,36.771,M,,*69
[2021-02-22 16:04:19.819] $GPVTG,351.07,T,359.52,M,0.06,N,0.11,K,A*2D
[2021-02-22 16:04:19.882] $GPGGA,070419.50,3713.95391318,N,13701.42581476,E,1,14,0.9,102.122,M,36.771,M,,*68
[2021-02-22 16:04:19.897] $GPVTG,320.47,T,328.92,M,0.05,N,0.09,K,A*2F
[2021-02-22 16:04:19.991] $GPGGA,070419.60,3713.95394801,N,13701.42581726,E,1,14,0.9,102.082,M,36.771,M,,*60
[2021-02-22 16:04:20.007] $GPVTG,332.90,T,341.35,M,0.03,N,0.06,K,A*2D
[2021-02-22 16:04:20.100] $GPGGA,070419.70,3713.95394677,N,13701.42581783,E,1,14,0.9,102.084,M,36.771,M,,*67
[2021-02-22 16:04:20.100] $GPVTG,279.83,T,288.28,M,0.01,N,0.01,K,A*2C
[2021-02-22 16:04:20.194] $GPGGA,070419.80,3713.95397721,N,13701.42582440,E,1,14,0.9,102.048,M,36.771,M,,*66
[2021-02-22 16:04:20.210] $GPVTG,181.47,T,189.92,M,0.03,N,0.05,K,A*25
[2021-02-22 16:04:20.288] $GPGGA,070419.90,3713.95397573,N,13701.42582522,E,1,14,0.9,102.049,M,36.771,M,,*66
[2021-02-22 16:04:20.304] $GPVTG,169.32,T,177.77,M,0.05,N,0.09,K,A*21
[2021-02-22 16:04:20.397] $GPGGA,070420.00,3713.95400762,N,13701.42582673,E,1,14,0.9,102.020,M,36.771,M,,*66
[2021-02-22 16:04:20.413] $GPVTG,134.64,T,143.09,M,0.04,N,0.08,K,A*24
[2021-02-22 16:04:20.491] $GPGGA,070420.10,3713.95400585,N,13701.42582560,E,1,14,0.9,102.021,M,36.771,M,,*6C
[2021-02-22 16:04:20.491] $GPVTG,169.42,T,177.86,M,0.05,N,0.10,K,A*20
[2021-02-22 16:04:20.600] $GPGGA,070420.20,3713.95403542,N,13701.42582374,E,1,14,0.9,101.988,M,36.771,M,,*6D
[2021-02-22 16:04:20.616] $GPVTG,161.15,T,169.60,M,0.03,N,0.06,K,A*2C
[2021-02-22 16:04:20.694] $GPGGA,070420.30,3713.95403535,N,13701.42582351,E,1,14,0.9,101.990,M,36.771,M,,*62
[2021-02-22 16:04:20.710] $GPVTG,165.78,T,174.23,M,0.02,N,0.05,K,A*2A
[2021-02-22 16:04:20.788] $GPGGA,070420.40,3713.95405878,N,13701.42582084,E,1,14,0.9,101.961,M,36.771,M,,*62
[2021-02-22 16:04:20.803] $GPVTG,189.74,T,198.19,M,0.03,N,0.06,K,A*2D
[2021-02-22 16:04:20.882] $GPGGA,070420.50,3713.95406070,N,13701.42582204,E,1,14,0.9,101.956,M,36.771,M,,*6E
[2021-02-22 16:04:20.897] $GPVTG,106.70,T,115.15,M,0.02,N,0.03,K,A*23
[2021-02-22 16:04:21.007] $GPGGA,070420.60,3713.95408191,N,13701.42582068,E,1,14,0.9,101.928,M,36.771,M,,*6C
[2021-02-22 16:04:21.007] $GPVTG,110.26,T,118.71,M,0.02,N,0.04,K,A*2F
[2021-02-22 16:04:21.085] $GPGGA,070420.70,3713.95408033,N,13701.42582208,E,1,14,0.9,101.932,M,36.771,M,,*6B
[2021-02-22 16:04:21.100] $GPVTG,128.99,T,137.44,M,0.04,N,0.07,K,A*2E
[2021-02-22 16:04:21.194] $GPGGA,070420.80,3713.95410117,N,13701.42582144,E,1,14,0.9,101.900,M,36.771,M,,*60
[2021-02-22 16:04:21.210] $GPVTG,97.60,T,106.05,M,0.04,N,0.08,K,A*15
[2021-02-22 16:04:21.288] $GPGGA,070420.90,3713.95409821,N,13701.42582307,E,1,14,0.9,101.909,M,36.771,M,,*69
[2021-02-22 16:04:21.303] $GPVTG,129.97,T,138.42,M,0.05,N,0.10,K,A*2F
[2021-02-22 16:04:21.397] $GPGGA,070421.00,3713.95411499,N,13701.42582389,E,1,14,0.9,101.879,M,36.771,M,,*67
[2021-02-22 16:04:21.413] $GPVTG,125.36,T,133.81,M,0.07,N,0.13,K,A*2D
[2021-02-22 16:04:21.491] $GPGGA,070421.10,3713.95411503,N,13701.42582710,E,1,14,0.9,101.880,M,36.771,M,,*66
[2021-02-22 16:04:21.507] $GPVTG,108.62,T,117.07,M,0.08,N,0.15,K,A*22
[2021-02-22 16:04:21.600] $GPGGA,070421.20,3713.95413041,N,13701.42582226,E,1,14,0.9,101.849,M,36.771,M,,*61
[2021-02-22 16:04:21.616] $GPVTG,131.12,T,139.57,M,0.05,N,0.09,K,A*26
[2021-02-22 16:04:21.694] $GPGGA,070421.30,3713.95412846,N,13701.42582374,E,1,14,0.9,101.852,M,36.771,M,,*62
[2021-02-22 16:04:21.694] $GPVTG,141.80,T,150.25,M,0.06,N,0.11,K,A*2A
[2021-02-22 16:04:21.803] $GPGGA,070421.40,3713.95414072,N,13701.42581971,E,1,14,0.9,101.830,M,36.771,M,,*64
[2021-02-22 16:04:21.819] $GPVTG,165.74,T,174.19,M,0.04,N,0.07,K,A*2B
[2021-02-22 16:04:21.882] $GPGGA,070421.50,3713.95414173,N,13701.42581962,E,1,14,0.9,101.828,M,36.771,M,,*6E
[2021-02-22 16:04:21.897] $GPVTG,156.94,T,165.39,M,0.01,N,0.03,K,A*26
[2021-02-22 16:04:21.991] $GPGGA,070421.60,3713.95415252,N,13701.42581457,E,1,14,0.9,101.807,M,36.771,M,,*6A
[2021-02-22 16:04:22.007] $GPVTG,264.96,T,273.41,M,0.03,N,0.05,K,A*29
[2021-02-22 16:04:22.085] $GPGGA,070421.70,3713.95415414,N,13701.42581594,E,1,14,0.9,101.799,M,36.771,M,,*69
[2021-02-22 16:04:22.100] $GPVTG,357.06,T,5.51,M,0.02,N,0.03,K,A*24
[2021-02-22 16:04:22.194] $GPGGA,070421.80,3713.95416663,N,13701.42581282,E,1,14,0.9,101.773,M,36.771,M,,*63
[2021-02-22 16:04:22.210] $GPVTG,351.36,T,359.81,M,0.05,N,0.08,K,A*2A
[2021-02-22 16:04:22.288] $GPGGA,070421.90,3713.95416926,N,13701.42581111,E,1,14,0.9,101.769,M,36.771,M,,*6E
[2021-02-22 16:04:22.303] $GPVTG,342.55,T,351.00,M,0.07,N,0.13,K,A*24
[2021-02-22 16:04:22.397] $GPGGA,070422.00,3713.95418265,N,13701.42580870,E,1,14,0.9,101.744,M,36.771,M,,*66
[2021-02-22 16:04:22.413] $GPVTG,352.78,T,1.23,M,0.11,N,0.20,K,A*2A
[2021-02-22 16:04:22.491] $GPGGA,070422.10,3713.95418546,N,13701.42581307,E,1,14,0.9,101.739,M,36.771,M,,*61
[2021-02-22 16:04:22.506] $GPVTG,19.31,T,27.76,M,0.13,N,0.23,K,A*2E
[2021-02-22 16:04:22.600] $GPGGA,070422.20,3713.95419743,N,13701.42581619,E,1,14,0.9,101.718,M,36.771,M,,*6D
[2021-02-22 16:04:22.616] $GPVTG,32.99,T,41.44,M,0.15,N,0.27,K,A*26
[2021-02-22 16:04:22.694] $GPGGA,070422.30,3713.95419387,N,13701.42582087,E,1,14,0.9,101.719,M,36.771,M,,*63
[2021-02-22 16:04:22.710] $GPVTG,66.87,T,75.32,M,0.11,N,0.20,K,A*2D
[2021-02-22 16:04:22.803] $GPGGA,070422.40,3713.95419855,N,13701.42582439,E,1,14,0.9,101.707,M,36.771,M,,*6E
[2021-02-22 16:04:22.803] $GPVTG,110.63,T,119.08,M,0.13,N,0.24,K,A*23
[2021-02-22 16:04:22.882] $GPGGA,070422.50,3713.95419293,N,13701.42582673,E,1,14,0.9,101.707,M,36.771,M,,*63
[2021-02-22 16:04:22.897] $GPVTG,139.02,T,147.47,M,0.16,N,0.30,K,A*2F
[2021-02-22 16:04:22.991] $GPGGA,070422.60,3713.95419976,N,13701.42582647,E,1,14,0.9,101.690,M,36.771,M,,*68
[2021-02-22 16:04:23.006] $GPVTG,151.55,T,160.00,M,0.20,N,0.37,K,A*27
[2021-02-22 16:04:23.085] $GPGGA,070422.70,3713.95419794,N,13701.42582908,E,1,14,0.9,101.688,M,36.771,M,,*66
[2021-02-22 16:04:23.100] $GPVTG,148.82,T,157.27,M,0.19,N,0.35,K,A*2C
[2021-02-22 16:04:23.194] $GPGGA,070422.80,3713.95421086,N,13701.42583365,E,1,14,0.9,101.670,M,36.771,M,,*61
[2021-02-22 16:04:23.210] $GPVTG,131.38,T,139.83,M,0.19,N,0.36,K,A*26
[2021-02-22 16:04:23.288] $GPGGA,070422.90,3713.95420657,N,13701.42583875,E,1,14,0.9,101.672,M,36.771,M,,*63
[2021-02-22 16:04:23.303] $GPVTG,133.23,T,141.68,M,0.21,N,0.40,K,A*2E
[2021-02-22 16:04:23.397] $GPGGA,070423.00,3713.95422248,N,13701.42584308,E,1,14,0.9,101.650,M,36.771,M,,*65
[2021-02-22 16:04:23.413] $GPVTG,119.90,T,128.35,M,0.20,N,0.36,K,A*29
[2021-02-22 16:04:23.491] $GPGGA,070423.10,3713.95422372,N,13701.42584494,E,1,14,0.9,101.648,M,36.771,M,,*67
[2021-02-22 16:04:23.506] $GPVTG,109.57,T,118.02,M,0.16,N,0.29,K,A*2F
[2021-02-22 16:04:23.600] $GPGGA,070423.20,3713.95424439,N,13701.42584871,E,1,14,0.9,101.631,M,36.771,M,,*63
[2021-02-22 16:04:23.616] $GPVTG,82.90,T,91.35,M,0.16,N,0.30,K,A*2A
[2021-02-22 16:04:23.694] $GPGGA,070423.30,3713.95424764,N,13701.42584541,E,1,14,0.9,101.622,M,36.771,M,,*65
[2021-02-22 16:04:23.694] $GPVTG,61.64,T,70.09,M,0.10,N,0.18,K,A*20
[2021-02-22 16:04:23.803] $GPGGA,070423.40,3713.95427111,N,13701.42583979,E,1,14,0.9,101.590,M,36.771,M,,*6F
[2021-02-22 16:04:23.803] $GPVTG,13.59,T,22.04,M,0.11,N,0.20,K,A*2B
[2021-02-22 16:04:23.881] $GPGGA,070423.50,3713.95427513,N,13701.42583483,E,1,14,0.9,101.588,M,36.771,M,,*69
[2021-02-22 16:04:23.913] $GPVTG,341.13,T,349.58,M,0.14,N,0.26,K,A*25
[2021-02-22 16:04:23.991] $GPGGA,070423.60,3713.95429958,N,13701.42582536,E,1,14,0.9,101.561,M,36.771,M,,*6E
[2021-02-22 16:04:24.006] $GPVTG,321.95,T,330.40,M,0.20,N,0.36,K,A*2C
[2021-02-22 16:04:24.084] $GPGGA,070423.70,3713.95430562,N,13701.42582086,E,1,14,0.9,101.550,M,36.771,M,,*6E
[2021-02-22 16:04:24.100] $GPVTG,322.85,T,331.30,M,0.24,N,0.44,K,A*29
[2021-02-22 16:04:24.194] $GPGGA,070423.80,3713.95432743,N,13701.42581270,E,1,14,0.9,101.526,M,36.771,M,,*6B
[2021-02-22 16:04:24.225] $GPVTG,309.93,T,318.38,M,0.22,N,0.40,K,A*26
[2021-02-22 16:04:24.288] $GPGGA,070423.90,3713.95432738,N,13701.42580879,E,1,14,0.9,101.527,M,36.771,M,,*65
[2021-02-22 16:04:24.303] $GPVTG,299.11,T,307.56,M,0.20,N,0.38,K,A*2F
[2021-02-22 16:04:24.397] $GPGGA,070424.00,3713.95435488,N,13701.42580365,E,1,14,0.9,101.503,M,36.771,M,,*64
[2021-02-22 16:04:24.413] $GPVTG,302.97,T,311.42,M,0.18,N,0.33,K,A*20
[2021-02-22 16:04:24.491] $GPGGA,070424.10,3713.95435680,N,13701.42580201,E,1,14,0.9,101.503,M,36.771,M,,*6C
[2021-02-22 16:04:24.506] $GPVTG,306.88,T,315.33,M,0.15,N,0.28,K,A*2F
[2021-02-22 16:04:24.600] $GPGGA,070424.20,3713.95438960,N,13701.42579837,E,1,14,0.9,101.474,M,36.771,M,,*6B
[2021-02-22 16:04:24.616] $GPVTG,316.55,T,325.00,M,0.12,N,0.21,K,A*23
[2021-02-22 16:04:24.694] $GPGGA,070424.30,3713.95574992,N,13701.42443505,E,5,05,3.0,98.151,M,36.771,M,2.3,0000*78
[2021-02-22 16:04:24.709] $GPVTG,306.31,T,314.76,M,0.13,N,0.25,K,D*23
[2021-02-22 16:04:24.803] $GPGGA,070424.40,3713.95575426,N,13701.42442971,E,5,05,3.0,98.151,M,36.771,M,2.4,0000*75
[2021-02-22 16:04:24.803] $GPVTG,304.51,T,312.96,M,0.14,N,0.27,K,D*2A
[2021-02-22 16:04:24.897] $GPGGA,070424.50,3713.95575422,N,13701.42442571,E,5,05,3.0,98.152,M,36.771,M,2.5,0000*7E
[2021-02-22 16:04:24.913] $GPVTG,309.66,T,318.11,M,0.15,N,0.28,K,D*28
[2021-02-22 16:04:25.006] $GPGGA,070424.60,3713.95575644,N,13701.42442152,E,5,05,3.0,98.152,M,36.771,M,2.6,0000*79
[2021-02-22 16:04:25.022] $GPVTG,305.06,T,313.51,M,0.15,N,0.27,K,D*22
[2021-02-22 16:04:25.084] $GPGGA,070424.70,3713.95575487,N,13701.42442024,E,5,05,3.0,98.152,M,36.771,M,2.7,0000*74
[2021-02-22 16:04:25.116] $GPVTG,295.84,T,304.29,M,0.14,N,0.26,K,D*29
[2021-02-22 16:04:25.194] $GPGGA,070424.80,3713.95575199,N,13701.42441955,E,5,05,3.0,98.154,M,36.771,M,2.8,0000*74
[2021-02-22 16:04:25.209] $GPVTG,284.66,T,293.11,M,0.12,N,0.22,K,D*23
[2021-02-22 16:04:25.288] $GPGGA,070424.90,3713.95575479,N,13701.42441642,E,5,05,3.0,98.151,M,36.771,M,2.9,0000*73
[2021-02-22 16:04:25.303] $GPVTG,288.39,T,296.84,M,0.10,N,0.19,K,D*26
[2021-02-22 16:04:25.397] $GPGGA,070425.00,3713.95575103,N,13701.42441994,E,5,05,3.0,98.156,M,36.771,M,3.0,0000*78
[2021-02-22 16:04:25.413] $GPVTG,278.29,T,286.74,M,0.05,N,0.08,K,D*22
[2021-02-22 16:04:25.491] $GPGGA,070425.10,3713.95575573,N,13701.42441900,E,5,05,3.0,98.153,M,36.771,M,3.1,0000*73
[2021-02-22 16:04:25.506] $GPVTG,317.69,T,326.14,M,0.03,N,0.05,K,D*28
[2021-02-22 16:04:25.600] $GPGGA,070425.20,3713.95575076,N,13701.42442295,E,5,05,3.0,98.155,M,36.771,M,3.2,0000*71
[2021-02-22 16:04:25.616] $GPVTG,55.08,T,63.53,M,0.02,N,0.04,K,D*2B
[2021-02-22 16:04:25.694] $GPGGA,070425.30,3713.95522206,N,13701.42390539,E,5,07,1.7,98.957,M,36.771,M,2.3,0000*73
[2021-02-22 16:04:25.709] $GPVTG,39.18,T,47.62,M,0.04,N,0.07,K,D*21
[2021-02-22 16:04:25.803] $GPGGA,070425.40,3713.95521892,N,13701.42390687,E,5,07,1.7,98.960,M,36.771,M,2.4,0000*75
[2021-02-22 16:04:25.819] $GPVTG,58.04,T,66.49,M,0.05,N,0.09,K,D*2E
[2021-02-22 16:04:25.897] $GPGGA,070425.50,3713.95521768,N,13701.42390838,E,5,07,1.7,98.957,M,36.771,M,2.5,0000*71
[2021-02-22 16:04:25.897] $GPVTG,70.63,T,79.07,M,0.05,N,0.10,K,D*29
[2021-02-22 16:04:25.991] $GPGGA,070425.60,3713.95522487,N,13701.42390261,E,5,07,1.7,98.953,M,36.771,M,2.6,0000*72
[2021-02-22 16:04:26.022] $GPVTG,29.22,T,37.67,M,0.05,N,0.09,K,D*24
[2021-02-22 16:04:26.084] $GPGGA,070425.70,3713.95522091,N,13701.42390676,E,5,07,1.7,98.955,M,36.771,M,2.7,0000*75
[2021-02-22 16:04:26.116] $GPVTG,65.46,T,73.91,M,0.05,N,0.10,K,D*2F
[2021-02-22 16:04:26.194] $GPGGA,070425.80,3713.95521986,N,13701.42391149,E,5,07,1.7,98.954,M,36.771,M,2.8,0000*72
[2021-02-22 16:04:26.225] $GPVTG,71.95,T,80.40,M,0.06,N,0.11,K,D*26
[2021-02-22 16:04:26.287] $GPGGA,070425.90,3713.95521876,N,13701.42390608,E,5,07,1.7,98.955,M,36.771,M,2.9,0000*7E
[2021-02-22 16:04:26.303] $GPVTG,87.90,T,96.35,M,0.02,N,0.03,K,D*28
[2021-02-22 16:04:26.397] $GPGGA,070426.00,3713.95522058,N,13701.42390748,E,5,07,1.7,98.949,M,36.771,M,3.0,0000*73
[2021-02-22 16:04:26.428] $GPVTG,98.64,T,107.09,M,0.03,N,0.05,K,D*1C
[2021-02-22 16:04:26.491] $GPGGA,070426.10,3713.95522187,N,13701.42390062,E,5,07,1.7,98.959,M,36.771,M,3.1,0000*7E
[2021-02-22 16:04:26.506] $GPVTG,229.76,T,238.21,M,0.03,N,0.05,K,D*22
[2021-02-22 16:04:26.600] $GPGGA,070426.20,3713.95521950,N,13701.42390094,E,5,07,1.7,98.957,M,36.771,M,3.2,0000*78
[2021-02-22 16:04:26.616] $GPVTG,229.37,T,237.82,M,0.04,N,0.08,K,D*2B
[2021-02-22 16:04:26.694] $GPGGA,070426.30,3713.95612651,N,13701.42413606,E,5,07,1.7,97.620,M,36.771,M,2.3,0000*75
[2021-02-22 16:04:26.694] $GPVTG,225.14,T,233.59,M,0.02,N,0.03,K,D*29
[2021-02-22 16:04:26.803] $GPGGA,070426.40,3713.95612560,N,13701.42413412,E,5,07,1.7,97.620,M,36.771,M,2.4,0000*73
[2021-02-22 16:04:26.803] $GPVTG,239.16,T,247.60,M,0.03,N,0.06,K,D*2B
[2021-02-22 16:04:26.897] $GPGGA,070426.50,3713.95612608,N,13701.42413535,E,5,07,1.7,97.622,M,36.771,M,2.5,0000*78
[2021-02-22 16:04:26.912] $GPVTG,186.70,T,195.15,M,0.02,N,0.04,K,D*21
[2021-02-22 16:04:26.991] $GPGGA,070426.60,3713.95613068,N,13701.42413096,E,5,07,1.7,97.620,M,36.771,M,2.6,0000*77
[2021-02-22 16:04:27.006] $GPVTG,348.14,T,356.59,M,0.03,N,0.05,K,D*26
[2021-02-22 16:04:27.084] $GPGGA,070426.70,3713.95612341,N,13701.42413934,E,5,07,1.7,97.617,M,36.771,M,2.7,0000*7B
[2021-02-22 16:04:27.100] $GPVTG,137.93,T,146.38,M,0.03,N,0.06,K,D*24
[2021-02-22 16:04:27.194] $GPGGA,070426.80,3713.95612774,N,13701.42413533,E,5,07,1.7,97.612,M,36.771,M,2.8,0000*77
[2021-02-22 16:04:27.209] $GPVTG,127.31,T,135.76,M,0.02,N,0.03,K,D*27
[2021-02-22 16:04:27.287] $GPGGA,070426.90,3713.95612214,N,13701.42414080,E,5,07,1.7,97.624,M,36.771,M,2.9,0000*7B
[2021-02-22 16:04:27.303] $GPVTG,142.70,T,151.15,M,0.05,N,0.10,K,D*23
[2021-02-22 16:04:27.397] $GPGGA,070427.00,3713.95612905,N,13701.42412739,E,5,07,1.7,97.621,M,36.771,M,3.0,0000*76
[2021-02-22 16:04:27.412] $GPVTG,160.45,T,168.90,M,0.06,N,0.10,K,D*21
[2021-02-22 16:04:27.491] $GPGGA,070427.10,3713.95612679,N,13701.42412817,E,5,07,1.7,97.624,M,36.771,M,3.1,0000*74
[2021-02-22 16:04:27.506] $GPVTG,150.86,T,159.31,M,0.06,N,0.11,K,D*25
[2021-02-22 16:04:27.600] $GPGGA,070427.20,3713.95612979,N,13701.42412710,E,5,07,1.7,97.625,M,36.771,M,3.2,0000*72
[2021-02-22 16:04:27.616] $GPVTG,247.80,T,256.25,M,0.02,N,0.04,K,D*2F
[2021-02-22 16:04:27.694] $GPGGA,070427.30,3713.95612987,N,13701.42412494,E,5,07,1.7,97.614,M,36.771,M,3.3,0000*7E
[2021-02-22 16:04:27.709] $GPVTG,275.05,T,283.50,M,0.03,N,0.05,K,D*29
[2021-02-22 16:04:27.803] $GPGGA,070427.40,3713.95612925,N,13701.42412476,E,5,07,1.7,97.621,M,36.771,M,3.4,0000*7C
[2021-02-22 16:04:27.819] $GPVTG,290.10,T,298.55,M,0.04,N,0.08,K,D*23
[2021-02-22 16:04:27.897] $GPGGA,070427.50,3713.95612734,N,13701.42412786,E,5,07,1.7,97.618,M,36.771,M,3.5,0000*74
[2021-02-22 16:04:27.897] $GPVTG,327.12,T,335.57,M,0.04,N,0.08,K,D*28
[2021-02-22 16:04:27.990] $GPGGA,070427.60,3713.95612823,N,13701.42412626,E,5,07,1.7,97.621,M,36.771,M,3.6,0000*7C
[2021-02-22 16:04:28.006] $GPVTG,345.00,T,353.45,M,0.03,N,0.05,K,D*26
[2021-02-22 16:04:28.084] $GPGGA,070427.70,3713.95612889,N,13701.42412643,E,5,07,1.7,97.622,M,36.771,M,3.7,0000*7C
[2021-02-22 16:04:28.100] $GPVTG,343.93,T,352.38,M,0.05,N,0.10,K,D*23
[2021-02-22 16:04:28.194] $GPGGA,070427.80,3713.95613227,N,13701.42412599,E,5,07,1.7,97.621,M,36.771,M,3.8,0000*74
[2021-02-22 16:04:28.209] $GPVTG,348.12,T,356.57,M,0.03,N,0.06,K,D*2D
[2021-02-22 16:04:28.287] $GPGGA,070427.90,3713.95612976,N,13701.42412151,E,5,07,1.7,97.615,M,36.771,M,3.9,0000*7D
[2021-02-22 16:04:28.303] $GPVTG,324.87,T,333.32,M,0.03,N,0.06,K,D*2B
[2021-02-22 16:04:28.397] $GPGGA,070428.00,3713.95612596,N,13701.42412640,E,5,07,1.7,97.623,M,36.771,M,4.0,0000*75
[2021-02-22 16:04:28.412] $GPVTG,339.09,T,347.54,M,0.03,N,0.06,K,D*22
[2021-02-22 16:04:28.490] $GPGGA,070428.10,3713.95612921,N,13701.42412557,E,5,07,1.7,97.622,M,36.771,M,4.1,0000*71
[2021-02-22 16:04:28.506] $GPVTG,348.47,T,356.92,M,0.03,N,0.05,K,D*27
[2021-02-22 16:04:28.600] $GPGGA,070428.20,3713.95612916,N,13701.42412245,E,5,07,1.7,97.620,M,36.771,M,4.2,0000*73
[2021-02-22 16:04:28.615] $GPVTG,298.00,T,306.45,M,0.03,N,0.06,K,D*24
[2021-02-22 16:04:28.694] $GPGGA,070428.30,3713.95613000,N,13701.42412203,E,5,07,1.7,97.616,M,36.771,M,4.3,0000*7B
[2021-02-22 16:04:28.694] $GPVTG,324.98,T,333.43,M,0.05,N,0.09,K,D*2A
[2021-02-22 16:04:28.803] $GPGGA,070428.40,3713.95612875,N,13701.42412394,E,5,07,1.7,97.621,M,36.771,M,4.4,0000*7B
[2021-02-22 16:04:28.819] $GPVTG,339.75,T,348.20,M,0.05,N,0.10,K,D*24
[2021-02-22 16:04:28.897] $GPGGA,070428.50,3713.95612752,N,13701.42412476,E,5,07,1.7,97.622,M,36.771,M,4.5,0000*79
[2021-02-22 16:04:28.897] $GPVTG,352.92,T,1.37,M,0.04,N,0.07,K,D*2F
[2021-02-22 16:04:28.990] $GPGGA,070428.60,3713.95612714,N,13701.42412714,E,5,07,1.7,97.616,M,36.771,M,4.6,0000*7B
[2021-02-22 16:04:29.006] $GPVTG,30.60,T,39.04,M,0.04,N,0.08,K,D*21
[2021-02-22 16:04:29.084] $GPGGA,070428.70,3713.95612576,N,13701.42412724,E,5,07,1.7,97.615,M,36.771,M,4.7,0000*7D
[2021-02-22 16:04:29.100] $GPVTG,359.37,T,7.82,M,0.03,N,0.06,K,D*25
[2021-02-22 16:04:29.194] $GPGGA,070428.80,3713.95612478,N,13701.42412753,E,5,07,1.7,97.620,M,36.771,M,4.8,0000*74
[2021-02-22 16:04:29.209] $GPVTG,100.26,T,108.71,M,0.01,N,0.02,K,D*2F
[2021-02-22 16:04:29.287] $GPGGA,070428.90,3713.95614535,N,13701.42413764,E,5,08,1.7,97.727,M,36.771,M,2.9,0000*70
[2021-02-22 16:04:29.303] $GPVTG,303.68,T,312.13,M,0.03,N,0.05,K,D*2C
[2021-02-22 16:04:29.397] $GPGGA,070429.00,3713.95614091,N,13701.42414192,E,5,08,1.7,97.731,M,36.771,M,3.0,0000*74
[2021-02-22 16:04:29.412] $GPVTG,249.06,T,257.51,M,0.02,N,0.03,K,D*2A
