
[2021-02-22 16:07:55.867] $GPGGA,,,,,,,,,,M,,M,,*56
[2021-02-22 16:07:55.898] $GPVTG,,T,,M,,N,,K,N*2C
[2021-02-22 16:07:55.898] $GPGGA,,,,,,,,,,M,,M,,*56
[2021-02-22 16:07:55.898] $GPVTG,,T,,M,,N,,K,N*2C
[2021-02-22 16:07:55.898] $GPGGA,,,,,,,,,,M,,M,,*56
[2021-02-22 16:07:55.898] $GPVTG,,T,,M,,N,,K,N*2C
[2021-02-22 16:07:55.898] $GPGGA,,,,,,,,,,M,,M,,*56
[2021-02-22 16:07:55.898] $GPVTG,,T,,M,,N,,K,N*2C
[2021-02-22 16:07:55.898] $GPGGA,,,,,,,,,,M,,M,,*56
[2021-02-22 16:07:55.898] $GPVTG,,T,,M,,N,,K,N*2C
[2021-02-22 16:07:55.898] $GPGGA,,,,,,,,,,M,,M,,*56
[2021-02-22 16:07:55.898] $GPVTG,,T,,M,,N,,K,N*2C
[2021-02-22 16:07:55.898] $GPGGA,,,,,,,,,,M,,M,,*56
[2021-02-22 16:07:55.898] $GPVTG,,T,,M,,N,,K,N*2C
[2021-02-22 16:07:55.898] $GPGGA,,,,,,,,,,M,,M,,*56
[2021-02-22 16:07:55.898] $GPVTG,,T,,M,,N,,K,N*2C
[2021-02-22 16:07:55.898] $GPGGA,,,,,,,,,,M,,M,,*56
[2021-02-22 16:07:55.898] $GPVTG,,T,,M,,N,,K,N*2C
[2021-02-22 16:07:55.898] $GPGGA,,,,,,,,,,M,,M,,*56
[2021-02-22 16:07:55.898] $GPVTG,,T,,M,,N,,K,N*2C
[2021-02-22 16:07:55.898] $GPGGA,,,,,,,,,,M,,M,,*56
[2021-02-22 16:07:55.898] $GPVTG,,T,,M,,N,,K,N*2C
[2021-02-22 16:07:55.898] $GPGGA,,,,,,,,,,M,,M,,*56
[2021-02-22 16:07:55.898] $GPVTG,,T,,M,,N,,K,N*2C
[2021-02-22 16:07:55.898] $GPGGA,,,,,,,,,,M,,M,,*56
[2021-02-22 16:07:55.898] $GPVTG,,T,,M,,N,,K,N*2C
[2021-02-22 16:07:55.898] $GPGGA,,,,,,,,,,M,,M,,*56
[2021-02-22 16:07:55.898] $GPVTG,,T,,M,,N,,K,N*2C
[2021-02-22 16:07:55.898] $GPGGA,,,,,,,,,,M,,M,,*56
[2021-02-22 16:07:55.898] $GPVTG,,T,,M,,N,,K,N*2C
[2021-02-22 16:07:55.898] $GPGGA,,,,,,,,,,M,,M,,*56
[2021-02-22 16:07:55.898] $GPVTG,,T,,M,,N,,K,N*2C
[2021-02-22 16:07:55.898] $GPGGA,,,,,,,,,,M,,M,,*56
[2021-02-22 16:07:55.898] $GPVTG,,T,,M,,N,,K,N*2C
[2021-02-22 16:07:55.898] $GPGGA,,,,,,,,,,M,,M,,*56
[2021-02-22 16:07:55.898] $GPVTG,,T,,M,,N,,K,N*2C
[2021-02-22 16:07:55.898] $GPGGA,,,,,,,,,,M,,M,,*56
[2021-02-22 16:07:55.898] $GPVTG,,T,,M,,N,,K,N*2C
[2021-02-22 16:07:55.898] $GPGGA,,,,,,,,,,M,,M,,*56
[2021-02-22 16:07:55.898] $GPVTG,,T,,M,,N,,K,N*2C
[2021-02-22 16:07:55.914] $GPGGA,,,,,,,,,,M,,M,,*56
[2021-02-22 16:07:55.914] $GPVTG,,T,,M,,N,,K,N*2C
[2021-02-22 16:07:55.914] $GPGGA,,,,,,,,,,M,,M,,*56
[2021-02-22 16:07:55.914] $GPVTG,,T,,M,,N,,K,N*2C
[2021-02-22 16:07:55.914] $GPGGA,,,,,,,,,,M,,M,,*56
[2021-02-22 16:07:55.914] $GPVTG,,T,,M,,N,,K,N*2C
[2021-02-22 16:07:55.914] $GPGGA,,,,,,,,,,M,,M,,*56
[2021-02-22 16:07:55.914] $GPVTG,,T,,M,,N,,K,N*2C
[2021-02-22 16:07:55.914] $GPGGA,,,,,,,,,,M,,M,,*56
[2021-02-22 16:07:55.914] $GPVTG,,T,,M,,N,,K,N*2C
[2021-02-22 16:07:55.914] $GPGGA,,,,,,,,,,M,,M,,*56
[2021-02-22 16:07:55.914] $GPVTG,,T,,M,,N,,K,N*2C
[2021-02-22 16:07:55.914] $GPGGA,,,,,,,,,,M,,M,,*56
[2021-02-22 16:07:55.914] $GPVTG,,T,,M,,N,,K,N*2C
[2021-02-22 16:07:55.914] $GPGGA,,,,,,,,,,M,,M,,*56
[2021-02-22 16:07:55.914] $GPVTG,,T,,M,,N,,K,N*2C
[2021-02-22 16:07:55.914] $GPGGA,,,,,,,,,,M,,M,,*56
[2021-02-22 16:07:55.914] $GPVTG,,T,,M,,N,,K,N*2C
[2021-02-22 16:07:55.914] $GPGGA,,,,,,,,,,M,,M,,*56
[2021-02-22 16:07:55.914] $GPVTG,,T,,M,,N,,K,N*2C
[2021-02-22 16:07:55.914] $GPGGA,,,,,,,,,,M,,M,,*56
[2021-02-22 16:07:55.914] $GPVTG,,T,,M,,N,,K,N*2C
[2021-02-22 16:07:55.914] $GPGGA,,,,,,,,,,M,,M,,*56
[2021-02-22 16:07:55.914] $GPVTG,,T,,M,,N,,K,N*2C
[2021-02-22 16:07:55.914] $GPGGA,,,,,,,,,,M,,M,,*56
[2021-02-22 16:07:55.914] $GPVTG,,T,,M,,N,,K,N*2C
[2021-02-22 16:07:55.914] $GPGGA,,,,,,,,,,M,,M,,*56
[2021-02-22 16:07:55.914] $GPVTG,,T,,M,,N,,K,N*2C
[2021-02-22 16:07:55.914] $GPGGA,,,,,,,,,,M,,M,,*56
[2021-02-22 16:07:55.914] $GPVTG,,T,,M,,N,,K,N*2C
[2021-02-22 16:07:55.914] $GPGGA,,,,,,,,,,M,,M,,*56
[2021-02-22 16:07:55.914] $GPVTG,,T,,M,,N,,K,N*2C
[2021-02-22 16:07:55.914] $GPGGA,,,,,,,,,,M,,M,,*56
[2021-02-22 16:07:55.914] $GPVTG,,T,,M,,N,,K,N*2C
[2021-02-22 16:07:55.914] $GPGGA,,,,,,,,,,M,,M,,*56
[2021-02-22 16:07:55.914] $GPVTG,,T,,M,,N,,K,N*2C
[2021-02-22 16:07:55.914] $GPGGA,,,,,,,,,,M,,M,,*56
[2021-02-22 16:07:55.914] $GPVTG,,T,,M,,N,,K,N*2C
[2021-02-22 16:07:55.914] $GPGGA,,,,,,,,,,M,,M,,*56
[2021-02-22 16:07:55.929] $GPVTG,,T,,M,,N,,K,N*2C
[2021-02-22 16:07:55.929] $GPGGA,,,,,,,,,,M,,M,,*56
[2021-02-22 16:07:55.929] $GPVTG,,T,,M,,N,,K,N*2C
[2021-02-22 16:07:55.929] $GPGGA,,,,,,,,,,M,,M,,*56
[2021-02-22 16:07:55.929] $GPVTG,,T,,M,,N,,K,N*2C
[2021-02-22 16:07:55.929] $GPGGA,,,,,,,,,,M,,M,,*56
[2021-02-22 16:07:55.929] $GPVTG,,T,,M,,N,,K,N*2C
[2021-02-22 16:07:55.929] $GPGGA,,,,,,,,,,M,,M,,*56
[2021-02-22 16:07:55.929] $GPVTG,,T,,M,,N,,K,N*2C
[2021-02-22 16:07:55.929] $GPGGA,,,,,,,,,,M,,M,,*56
[2021-02-22 16:07:55.929] $GPVTG,,T,,M,,N,,K,N*2C
[2021-02-22 16:07:55.929] $GPGGA,,,,,,,,,,M,,M,,*56
[2021-02-22 16:07:55.929] $GPVTG,,T,,M,,N,,K,N*2C
[2021-02-22 16:07:55.929] $GPGGA,,,,,,,,,,M,,M,,*56
[2021-02-22 16:07:55.929] $GPVTG,,T,,M,,N,,K,N*2C
[2021-02-22 16:07:55.929] $GPGGA,,,,,,,,,,M,,M,,*56
[2021-02-22 16:07:55.929] $GPVTG,,T,,M,,N,,K,N*2C
[2021-02-22 16:07:55.929] $GPGGA,,,,,,,,,,M,,M,,*56
[2021-02-22 16:07:55.929] $GPVTG,,T,,M,,N,,K,N*2C
[2021-02-22 16:07:55.929] $GPGGA,,,,,,,,,,M,,M,,*56
[2021-02-22 16:07:55.929] $GPVTG,,T,,M,,N,,K,N*2C
[2021-02-22 16:07:55.929] $GPGGA,,,,,,,,,,M,,M,,*56
[2021-02-22 16:07:55.929] $GPVTG,,T,,M,,N,,K,N*2C
[2021-02-22 16:07:55.929] $GPGGA,,,,,,,,,,M,,M,,*56
[2021-02-22 16:07:55.929] $GPVTG,,T,,M,,N,,K,N*2C
[2021-02-22 16:07:55.929] $GPGGA,,,,,,,,,,M,,M,,*56
[2021-02-22 16:07:55.929] $GPVTG,,T,,M,,N,,K,N*2C
[2021-02-22 16:07:55.929] $GPGGA,,,,,,,,,,M,,M,,*56
[2021-02-22 16:07:55.929] $GPVTG,,T,,M,,N,,K,N*2C
[2021-02-22 16:07:55.929] $GPGGA,,,,,,,,,,M,,M,,*56
[2021-02-22 16:07:55.929] $GPVTG,,T,,M,,N,,K,N*2C
[2021-02-22 16:07:55.929] $GPGGA,,,,,,,,,,M,,M,,*56
[2021-02-22 16:07:55.929] $GPVTG,,T,,M,,N,,K,N*2C
[2021-02-22 16:07:55.929] $GPGGA,,,,,,,,,,M,,M,,*56
[2021-02-22 16:07:55.929] $GPVTG,,T,,M,,N,,K,N*2C
[2021-02-22 16:07:55.929] $GPGGA,,,,,,,,,,M,,M,,*56
[2021-02-22 16:07:55.929] $GPVTG,,T,,M,,N,,K,N*2C
[2021-02-22 16:07:55.929] $GPGGA,,,,,,,,,,M,,M,,*56
[2021-02-22 16:07:55.929] $GPVTG,,T,,M,,N,,K,N*2C
[2021-02-22 16:07:55.929] $GPGGA,,,,,,,,,,M,,M,,*56
[2021-02-22 16:07:55.929] $GPVTG,,T,,M,,N,,K,N*2C
[2021-02-22 16:07:55.929] $GPGGA,,,,,,,,,,M,,M,,*56
[2021-02-22 16:07:55.929] $GPVTG,,T,,M,,N,,K,N*2C
[2021-02-22 16:07:55.929] $GPGGA,,,,,,,,,,M,,M,,*56
[2021-02-22 16:07:55.929] $GPVTG,,T,,M,,N,,K,N*2C
[2021-02-22 16:07:55.929] $GPGGA,,,,,,,,,,M,,M,,*56
[2021-02-22 16:07:55.929] $GPVTG,,T,,M,,N,,K,N*2C
[2021-02-22 16:07:55.929] $GPGGA,,,,,,,,,,M,,M,,*56
[2021-02-22 16:07:55.929] $GPVTG,,T,,M,,N,,K,N*2C
[2021-02-22 16:07:55.929] $GPGGA,,,,,,,,,,M,,M,,*56
[2021-02-22 16:07:55.929] $GPVTG,,T,,M,,N,,K,N*2C
[2021-02-22 16:07:55.929] $GPGGA,,,,,,,,,,M,,M,,*56
[2021-02-22 16:07:55.929] $GPVTG,,T,,M,,N,,K,N*2C
[2021-02-22 16:07:55.929] $GPGGA,,,,,,,,,,M,,M,,*56
[2021-02-22 16:07:55.929] $GPVTG,,T,,M,,N,,K,N*2C
[2021-02-22 16:07:55.929] $GPGGA,,,,,,,,,,M,,M,,*56
[2021-02-22 16:07:55.929] $GPVTG,,T,,M,,N,,K,N*2C
[2021-02-22 16:07:55.929] $GPGGA,,,,,,,,,,M,,M,,*56
[2021-02-22 16:07:55.929] $GPVTG,,T,,M,,N,,K,N*2C
[2021-02-22 16:07:55.976] $GPGGA,,,,,,,,,,M,,M,,*56
[2021-02-22 16:07:55.992] $GPVTG,,T,,M,,N,,K,N*2C
[2021-02-22 16:07:56.179] $GPGGA,,,,,,,,,,M,,M,,*56
[2021-02-22 16:07:56.195] $GPVTG,,T,,M,,N,,K,N*2C
[2021-02-22 16:07:56.382] $GPGGA,,,,,,,,,,M,,M,,*56
[2021-02-22 16:07:56.398] $GPVTG,,T,,M,,N,,K,N*2C
[2021-02-22 16:07:56.585] $GPGGA,,,,,,,,,,M,,M,,*56
[2021-02-22 16:07:56.585] $GPVTG,,T,,M,,N,,K,N*2C
[2021-02-22 16:07:56.788] $GPGGA,,,,,,,,,,M,,M,,*56
[2021-02-22 16:07:56.788] $GPVTG,,T,,M,,N,,K,N*2C
[2021-02-22 16:07:56.992] $GPGGA,,,,,,,,,,M,,M,,*56
[2021-02-22 16:07:56.992] $GPVTG,,T,,M,,N,,K,N*2C
[2021-02-22 16:07:57.179] $GPGGA,,,,,,,,,,M,,M,,*56
[2021-02-22 16:07:57.195] $GPVTG,,T,,M,,N,,K,N*2C
[2021-02-22 16:07:57.382] $GPGGA,,,,,,,,,,M,,M,,*56
[2021-02-22 16:07:57.382] $GPVTG,,T,,M,,N,,K,N*2C
[2021-02-22 16:07:57.585] $GPGGA,,,,,,,,,,M,,M,,*56
[2021-02-22 16:07:57.601] $GPVTG,,T,,M,,N,,K,N*2C
[2021-02-22 16:07:57.788] $GPGGA,,,,,,,,,,M,,M,,*56
[2021-02-22 16:07:57.788] $GPVTG,,T,,M,,N,,K,N*2C
[2021-02-22 16:07:57.992] $GPGGA,,,,,,,,,,M,,M,,*56
[2021-02-22 16:07:57.992] $GPVTG,,T,,M,,N,,K,N*2C
[2021-02-22 16:07:58.179] $GPGGA,,,,,,,,,,M,,M,,*56
[2021-02-22 16:07:58.195] $GPVTG,,T,,M,,N,,K,N*2C
[2021-02-22 16:07:58.382] $GPGGA,,,,,,,,,,M,,M,,*56
[2021-02-22 16:07:58.398] $GPVTG,,T,,M,,N,,K,N*2C
[2021-02-22 16:07:58.585] $GPGGA,,,,,,,,,,M,,M,,*56
[2021-02-22 16:07:58.585] $GPVTG,,T,,M,,N,,K,N*2C
[2021-02-22 16:07:58.788] $GPGGA,,,,,,,,,,M,,M,,*56
[2021-02-22 16:07:58.788] $GPVTG,,T,,M,,N,,K,N*2C
[2021-02-22 16:07:58.976] $GPGGA,,,,,,,,,,M,,M,,*56
[2021-02-22 16:07:58.991] $GPVTG,,T,,M,,N,,K,N*2C
[2021-02-22 16:07:59.179] $GPGGA,,,,,,,,,,M,,M,,*56
[2021-02-22 16:07:59.195] $GPVTG,,T,,M,,N,,K,N*2C
[2021-02-22 16:07:59.382] $GPGGA,,,,,,,,,,M,,M,,*56
[2021-02-22 16:07:59.398] $GPVTG,,T,,M,,N,,K,N*2C
[2021-02-22 16:07:59.585] $GPGGA,,,,,,,,,,M,,M,,*56
[2021-02-22 16:07:59.585] $GPVTG,,T,,M,,N,,K,N*2C
[2021-02-22 16:07:59.788] $GPGGA,,,,,,,,,,M,,M,,*56
[2021-02-22 16:07:59.788] $GPVTG,,T,,M,,N,,K,N*2C
[2021-02-22 16:07:59.991] $GPGGA,,,,,,,,,,M,,M,,*56
[2021-02-22 16:07:59.991] $GPVTG,,T,,M,,N,,K,N*2C
[2021-02-22 16:08:00.179] $GPGGA,,,,,,,,,,M,,M,,*56
[2021-02-22 16:08:00.194] $GPVTG,,T,,M,,N,,K,N*2C
[2021-02-22 16:08:00.382] $GPGGA,,,,,,,,,,M,,M,,*56
[2021-02-22 16:08:00.398] $GPVTG,,T,,M,,N,,K,N*2C
[2021-02-22 16:08:00.585] $GPGGA,,,,,,,,,,M,,M,,*56
[2021-02-22 16:08:00.585] $GPVTG,,T,,M,,N,,K,N*2C
[2021-02-22 16:08:00.788] $GPGGA,,,,,,,,,,M,,M,,*56
[2021-02-22 16:08:00.788] $GPVTG,,T,,M,,N,,K,N*2C
[2021-02-22 16:08:00.991] $GPGGA,,,,,,,,,,M,,M,,*56
[2021-02-22 16:08:00.991] $GPVTG,,T,,M,,N,,K,N*2C
[2021-02-22 16:08:01.194] $GPGGA,,,,,,,,,,M,,M,,*56
[2021-02-22 16:08:01.194] $GPVTG,,T,,M,,N,,K,N*2C
[2021-02-22 16:08:01.382] $GPGGA,,,,,,,,,,M,,M,,*56
[2021-02-22 16:08:01.398] $GPVTG,,T,,M,,N,,K,N*2C
[2021-02-22 16:08:01.585] $GPGGA,,,,,,,,,,M,,M,,*56
[2021-02-22 16:08:01.585] $GPVTG,,T,,M,,N,,K,N*2C
[2021-02-22 16:08:01.788] $GPGGA,,,,,,,,,,M,,M,,*56
[2021-02-22 16:08:01.788] $GPVTG,,T,,M,,N,,K,N*2C
[2021-02-22 16:08:01.991] $GPGGA,,,,,,,,,,M,,M,,*56
[2021-02-22 16:08:01.991] $GPVTG,,T,,M,,N,,K,N*2C
[2021-02-22 16:08:02.179] $GPGGA,,,,,,,,,,M,,M,,*56
[2021-02-22 16:08:02.194] $GPVTG,,T,,M,,N,,K,N*2C
[2021-02-22 16:08:02.382] $GPGGA,,,,,,,,,,M,,M,,*56
[2021-02-22 16:08:02.382] $GPVTG,,T,,M,,N,,K,N*2C
[2021-02-22 16:08:02.585] $GPGGA,,,,,,,,,,M,,M,,*56
[2021-02-22 16:08:02.585] $GPVTG,,T,,M,,N,,K,N*2C
[2021-02-22 16:08:02.788] $GPGGA,,,,,,,,,,M,,M,,*56
[2021-02-22 16:08:02.788] $GPVTG,,T,,M,,N,,K,N*2C
[2021-02-22 16:08:02.991] $GPGGA,,,,,,,,,,M,,M,,*56
[2021-02-22 16:08:02.991] $GPVTG,,T,,M,,N,,K,N*2C
[2021-02-22 16:08:03.179] $GPGGA,,,,,,,,,,M,,M,,*56
[2021-02-22 16:08:03.194] $GPVTG,,T,,M,,N,,K,N*2C
[2021-02-22 16:08:03.382] $GPGGA,,,,,,,,,,M,,M,,*56
[2021-02-22 16:08:03.397] $GPVTG,,T,,M,,N,,K,N*2C
[2021-02-22 16:08:03.585] $GPGGA,,,,,,,,,,M,,M,,*56
[2021-02-22 16:08:03.585] $GPVTG,,T,,M,,N,,K,N*2C
[2021-02-22 16:08:03.788] $GPGGA,,,,,,,,,,M,,M,,*56
[2021-02-22 16:08:03.788] $GPVTG,,T,,M,,N,,K,N*2C
[2021-02-22 16:08:03.991] $GPGGA,,,,,,,,,,M,,M,,*56
[2021-02-22 16:08:03.991] $GPVTG,,T,,M,,N,,K,N*2C
[2021-02-22 16:08:04.179] $GPGGA,,,,,,,,,,M,,M,,*56
[2021-02-22 16:08:04.194] $GPVTG,,T,,M,,N,,K,N*2C
[2021-02-22 16:08:04.382] $GPGGA,,,,,,,,,,M,,M,,*56
[2021-02-22 16:08:04.397] $GPVTG,,T,,M,,N,,K,N*2C
[2021-02-22 16:08:04.585] $GPGGA,,,,,,,,,,M,,M,,*56
[2021-02-22 16:08:04.585] $GPVTG,,T,,M,,N,,K,N*2C
[2021-02-22 16:08:04.788] $GPGGA,,,,,,,,,,M,,M,,*56
[2021-02-22 16:08:04.788] $GPVTG,,T,,M,,N,,K,N*2C
[2021-02-22 16:08:04.991] $GPGGA,,,,,,,,,,M,,M,,*56
[2021-02-22 16:08:04.991] $GPVTG,,T,,M,,N,,K,N*2C
[2021-02-22 16:08:05.194] $GPGGA,,,,,,,,,,M,,M,,*56
[2021-02-22 16:08:05.194] $GPVTG,,T,,M,,N,,K,N*2C
[2021-02-22 16:08:05.382] $GPGGA,,,,,,,,,,M,,M,,*56
[2021-02-22 16:08:05.397] $GPVTG,,T,,M,,N,,K,N*2C
[2021-02-22 16:08:05.585] $GPGGA,,,,,,,,,,M,,M,,*56
[2021-02-22 16:08:05.585] $GPVTG,,T,,M,,N,,K,N*2C
[2021-02-22 16:08:05.788] $GPGGA,,,,,,,,,,M,,M,,*56
[2021-02-22 16:08:05.788] $GPVTG,,T,,M,,N,,K,N*2C
[2021-02-22 16:08:05.991] $GPGGA,,,,,,,,,,M,,M,,*56
[2021-02-22 16:08:05.991] $GPVTG,,T,,M,,N,,K,N*2C
[2021-02-22 16:08:06.178] $GPGGA,,,,,,,,,,M,,M,,*56
[2021-02-22 16:08:06.194] $GPVTG,,T,,M,,N,,K,N*2C
[2021-02-22 16:08:06.382] $GPGGA,,,,,,,,,,M,,M,,*56
[2021-02-22 16:08:06.397] $GPVTG,,T,,M,,N,,K,N*2C
[2021-02-22 16:08:06.585] $GPGGA,,,,,,,,,,M,,M,,*56
[2021-02-22 16:08:06.585] $GPVTG,,T,,M,,N,,K,N*2C
[2021-02-22 16:08:06.788] $GPGGA,,,,,,,,,,M,,M,,*56
[2021-02-22 16:08:06.788] $GPVTG,,T,,M,,N,,K,N*2C
[2021-02-22 16:08:06.991] $GPGGA,,,,,,,,,,M,,M,,*56
[2021-02-22 16:08:06.991] $GPVTG,,T,,M,,N,,K,N*2C
[2021-02-22 16:08:07.178] $GPGGA,,,,,,,,,,M,,M,,*56
[2021-02-22 16:08:07.194] $GPVTG,,T,,M,,N,,K,N*2C
[2021-02-22 16:08:07.381] $GPGGA,,,,,,,,,,M,,M,,*56
[2021-02-22 16:08:07.397] $GPVTG,,T,,M,,N,,K,N*2C
[2021-02-22 16:08:07.585] $GPGGA,,,,,,,,,,M,,M,,*56
[2021-02-22 16:08:07.585] $GPVTG,,T,,M,,N,,K,N*2C
[2021-02-22 16:08:07.788] $GPGGA,,,,,,,,,,M,,M,,*56
[2021-02-22 16:08:07.788] $GPVTG,,T,,M,,N,,K,N*2C
[2021-02-22 16:08:07.991] $GPGGA,,,,,,,,,,M,,M,,*56
[2021-02-22 16:08:07.991] $GPVTG,,T,,M,,N,,K,N*2C
[2021-02-22 16:08:08.210] $GPGGA,,,,,,,,,,M,,M,,*56
[2021-02-22 16:08:08.241] $GPVTG,,T,,M,,N,,K,N*2C
[2021-02-22 16:08:08.381] $GPGGA,,,,,,,,,,M,,M,,*56
[2021-02-22 16:08:08.397] $GPVTG,,T,,M,,N,,K,N*2C
[2021-02-22 16:08:08.585] $GPGGA,,,,,,,,,,M,,M,,*56
[2021-02-22 16:08:08.585] $GPVTG,,T,,M,,N,,K,N*2C
[2021-02-22 16:08:08.788] $GPGGA,,,,,,,,,,M,,M,,*56
[2021-02-22 16:08:08.788] $GPVTG,,T,,M,,N,,K,N*2C
[2021-02-22 16:08:08.991] $GPGGA,,,,,,,,,,M,,M,,*56
[2021-02-22 16:08:08.991] $GPVTG,,T,,M,,N,,K,N*2C
[2021-02-22 16:08:09.178] $GPGGA,,,,,,,,,,M,,M,,*56
[2021-02-22 16:08:09.194] $GPVTG,,T,,M,,N,,K,N*2C
[2021-02-22 16:08:09.381] $GPGGA,,,,,,,,,,M,,M,,*56
[2021-02-22 16:08:09.397] $GPVTG,,T,,M,,N,,K,N*2C
[2021-02-22 16:08:09.585] $GPGGA,,,,,,,,,,M,,M,,*56
[2021-02-22 16:08:09.600] $GPVTG,,T,,M,,N,,K,N*2C
[2021-02-22 16:08:09.788] $GPGGA,,,,,,,,,,M,,M,,*56
[2021-02-22 16:08:09.788] $GPVTG,,T,,M,,N,,K,N*2C
[2021-02-22 16:08:09.991] $GPGGA,,,,,,,,,,M,,M,,*56
[2021-02-22 16:08:09.991] $GPVTG,,T,,M,,N,,K,N*2C
[2021-02-22 16:08:10.178] $GPGGA,,,,,,,,,,M,,M,,*56
[2021-02-22 16:08:10.194] $GPVTG,,T,,M,,N,,K,N*2C
[2021-02-22 16:08:10.381] $GPGGA,,,,,,,,,,M,,M,,*56
[2021-02-22 16:08:10.397] $GPVTG,,T,,M,,N,,K,N*2C
[2021-02-22 16:08:10.584] $GPGGA,,,,,,,,,,M,,M,,*56
[2021-02-22 16:08:10.584] $GPVTG,,T,,M,,N,,K,N*2C
[2021-02-22 16:08:10.788] $GPGGA,,,,,,,,,,M,,M,,*56
[2021-02-22 16:08:10.788] $GPVTG,,T,,M,,N,,K,N*2C
[2021-02-22 16:08:10.991] $GPGGA,,,,,,,,,,M,,M,,*56
[2021-02-22 16:08:10.991] $GPVTG,,T,,M,,N,,K,N*2C
[2021-02-22 16:08:11.178] $GPGGA,,,,,,,,,,M,,M,,*56
[2021-02-22 16:08:11.194] $GPVTG,,T,,M,,N,,K,N*2C
[2021-02-22 16:08:11.381] $GPGGA,,,,,,,,,,M,,M,,*56
[2021-02-22 16:08:11.397] $GPVTG,,T,,M,,N,,K,N*2C
[2021-02-22 16:08:11.584] $GPGGA,,,,,,,,,,M,,M,,*56
[2021-02-22 16:08:11.584] $GPVTG,,T,,M,,N,,K,N*2C
[2021-02-22 16:08:11.787] $GPGGA,,,,,,,,,,M,,M,,*56
[2021-02-22 16:08:11.787] $GPVTG,,T,,M,,N,,K,N*2C
[2021-02-22 16:08:11.991] $GPGGA,,,,,,,,,,M,,M,,*56
[2021-02-22 16:08:11.991] $GPVTG,,T,,M,,N,,K,N*2C
[2021-02-22 16:08:12.178] $GPGGA,,,,,,,,,,M,,M,,*56
[2021-02-22 16:08:12.194] $GPVTG,,T,,M,,N,,K,N*2C
[2021-02-22 16:08:12.381] $GPGGA,,,,,,,,,,M,,M,,*56
[2021-02-22 16:08:12.397] $GPVTG,,T,,M,,N,,K,N*2C
[2021-02-22 16:08:12.584] $GPGGA,,,,,,,,,,M,,M,,*56
[2021-02-22 16:08:12.584] $GPVTG,,T,,M,,N,,K,N*2C
[2021-02-22 16:08:12.787] $GPGGA,,,,,,,,,,M,,M,,*56
[2021-02-22 16:08:12.787] $GPVTG,,T,,M,,N,,K,N*2C
[2021-02-22 16:08:12.990] $GPGGA,,,,,,,,,,M,,M,,*56
[2021-02-22 16:08:12.990] $GPVTG,,T,,M,,N,,K,N*2C
[2021-02-22 16:08:13.178] $GPGGA,,,,,,,,,,M,,M,,*56
[2021-02-22 16:08:13.194] $GPVTG,,T,,M,,N,,K,N*2C
[2021-02-22 16:08:13.381] $GPGGA,,,,,,,,,,M,,M,,*56
[2021-02-22 16:08:13.397] $GPVTG,,T,,M,,N,,K,N*2C
[2021-02-22 16:08:13.584] $GPGGA,,,,,,,,,,M,,M,,*56
[2021-02-22 16:08:13.600] $GPVTG,,T,,M,,N,,K,N*2C
[2021-02-22 16:08:13.787] $GPGGA,,,,,,,,,,M,,M,,*56
[2021-02-22 16:08:13.803] $GPVTG,,T,,M,,N,,K,N*2C
[2021-02-22 16:08:13.990] $GPGGA,,,,,,,,,,M,,M,,*56
[2021-02-22 16:08:13.990] $GPVTG,,T,,M,,N,,K,N*2C
[2021-02-22 16:08:14.178] $GPGGA,,,,,,,,,,M,,M,,*56
[2021-02-22 16:08:14.194] $GPVTG,,T,,M,,N,,K,N*2C
[2021-02-22 16:08:14.381] $GPGGA,,,,,,,,,,M,,M,,*56
[2021-02-22 16:08:14.397] $GPVTG,,T,,M,,N,,K,N*2C
[2021-02-22 16:08:14.584] $GPGGA,,,,,,,,,,M,,M,,*56
[2021-02-22 16:08:14.584] $GPVTG,,T,,M,,N,,K,N*2C
[2021-02-22 16:08:14.787] $GPGGA,,,,,,,,,,M,,M,,*56
[2021-02-22 16:08:14.787] $GPVTG,,T,,M,,N,,K,N*2C
[2021-02-22 16:08:14.990] $GPGGA,,,,,,,,,,M,,M,,*56
[2021-02-22 16:08:14.990] $GPVTG,,T,,M,,N,,K,N*2C
[2021-02-22 16:08:15.193] $GPGGA,,,,,,,,,,M,,M,,*56
[2021-02-22 16:08:15.193] $GPVTG,,T,,M,,N,,K,N*2C
[2021-02-22 16:08:15.381] $GPGGA,,,,,,,,,,M,,M,,*56
[2021-02-22 16:08:15.397] $GPVTG,,T,,M,,N,,K,N*2C
[2021-02-22 16:08:15.584] $GPGGA,,,,,,,,,,M,,M,,*56
[2021-02-22 16:08:15.600] $GPVTG,,T,,M,,N,,K,N*2C
[2021-02-22 16:08:15.787] $GPGGA,,,,,,,,,,M,,M,,*56
[2021-02-22 16:08:15.787] $GPVTG,,T,,M,,N,,K,N*2C
[2021-02-22 16:08:15.990] $GPGGA,,,,,,,,,,M,,M,,*56
[2021-02-22 16:08:15.990] $GPVTG,,T,,M,,N,,K,N*2C
[2021-02-22 16:08:16.193] $GPGGA,,,,,,,,,,M,,M,,*56
[2021-02-22 16:08:16.193] $GPVTG,,T,,M,,N,,K,N*2C
[2021-02-22 16:08:16.381] $GPGGA,,,,,,,,,,M,,M,,*56
[2021-02-22 16:08:16.396] $GPVTG,,T,,M,,N,,K,N*2C
[2021-02-22 16:08:16.584] $GPGGA,,,,,,,,,,M,,M,,*56
[2021-02-22 16:08:16.584] $GPVTG,,T,,M,,N,,K,N*2C
[2021-02-22 16:08:16.787] $GPGGA,,,,,,,,,,M,,M,,*56
[2021-02-22 16:08:16.787] $GPVTG,,T,,M,,N,,K,N*2C
[2021-02-22 16:08:16.990] $GPGGA,,,,,,,,,,M,,M,,*56
[2021-02-22 16:08:16.990] $GPVTG,,T,,M,,N,,K,N*2C
[2021-02-22 16:08:17.193] $GPGGA,,,,,,,,,,M,,M,,*56
[2021-02-22 16:08:17.193] $GPVTG,,T,,M,,N,,K,N*2C
[2021-02-22 16:08:17.381] $GPGGA,,,,,,,,,,M,,M,,*56
[2021-02-22 16:08:17.396] $GPVTG,,T,,M,,N,,K,N*2C
[2021-02-22 16:08:17.584] $GPGGA,,,,,,,,,,M,,M,,*56
[2021-02-22 16:08:17.600] $GPVTG,,T,,M,,N,,K,N*2C
[2021-02-22 16:08:17.787] $GPGGA,,,,,,,,,,M,,M,,*56
[2021-02-22 16:08:17.787] $GPVTG,,T,,M,,N,,K,N*2C
[2021-02-22 16:08:17.990] $GPGGA,,,,,,,,,,M,,M,,*56
[2021-02-22 16:08:17.990] $GPVTG,,T,,M,,N,,K,N*2C
[2021-02-22 16:08:18.193] $GPGGA,,,,,,,,,,M,,M,,*56
[2021-02-22 16:08:18.193] $GPVTG,,T,,M,,N,,K,N*2C
[2021-02-22 16:08:18.381] $GPGGA,,,,,,,,,,M,,M,,*56
[2021-02-22 16:08:18.396] $GPVTG,,T,,M,,N,,K,N*2C
[2021-02-22 16:08:18.584] $GPGGA,,,,,,,,,,M,,M,,*56
[2021-02-22 16:08:18.584] $GPVTG,,T,,M,,N,,K,N*2C
[2021-02-22 16:08:18.787] $GPGGA,,,,,,,,,,M,,M,,*56
[2021-02-22 16:08:18.803] $GPVTG,,T,,M,,N,,K,N*2C
[2021-02-22 16:08:18.990] $GPGGA,,,,,,,,,,M,,M,,*56
[2021-02-22 16:08:18.990] $GPVTG,,T,,M,,N,,K,N*2C
[2021-02-22 16:08:19.178] $GPGGA,,,,,,,,,,M,,M,,*56
[2021-02-22 16:08:19.193] $GPVTG,,T,,M,,N,,K,N*2C
[2021-02-22 16:08:19.381] $GPGGA,,,,,,,,,,M,,M,,*56
[2021-02-22 16:08:19.396] $GPVTG,,T,,M,,N,,K,N*2C
[2021-02-22 16:08:19.584] $GPGGA,,,,,,,,,,M,,M,,*56
[2021-02-22 16:08:19.584] $GPVTG,,T,,M,,N,,K,N*2C
[2021-02-22 16:08:19.787] $GPGGA,,,,,,,,,,M,,M,,*56
[2021-02-22 16:08:19.787] $GPVTG,,T,,M,,N,,K,N*2C
[2021-02-22 16:08:19.990] $GPGGA,,,,,,,,,,M,,M,,*56
[2021-02-22 16:08:19.990] $GPVTG,,T,,M,,N,,K,N*2C
[2021-02-22 16:08:20.178] $GPGGA,,,,,,,,,,M,,M,,*56
[2021-02-22 16:08:20.193] $GPVTG,,T,,M,,N,,K,N*2C
[2021-02-22 16:08:20.381] $GPGGA,,,,,,,,,,M,,M,,*56
[2021-02-22 16:08:20.396] $GPVTG,,T,,M,,N,,K,N*2C
[2021-02-22 16:08:20.584] $GPGGA,,,,,,,,,,M,,M,,*56
[2021-02-22 16:08:20.584] $GPVTG,,T,,M,,N,,K,N*2C
[2021-02-22 16:08:20.787] $GPGGA,,,,,,,,,,M,,M,,*56
[2021-02-22 16:08:20.787] $GPVTG,,T,,M,,N,,K,N*2C
[2021-02-22 16:08:20.990] $GPGGA,,,,,,,,,,M,,M,,*56
[2021-02-22 16:08:20.990] $GPVTG,,T,,M,,N,,K,N*2C
[2021-02-22 16:08:21.209] $GPGGA,,,,,,,,,,M,,M,,*56
[2021-02-22 16:08:21.209] $GPVTG,,T,,M,,N,,K,N*2C
[2021-02-22 16:08:21.381] $GPGGA,,,,,,,,,,M,,M,,*56
[2021-02-22 16:08:21.396] $GPVTG,,T,,M,,N,,K,N*2C
[2021-02-22 16:08:21.584] $GPGGA,,,,,,,,,,M,,M,,*56
[2021-02-22 16:08:21.599] $GPVTG,,T,,M,,N,,K,N*2C
[2021-02-22 16:08:21.787] $GPGGA,,,,,,,,,,M,,M,,*56
[2021-02-22 16:08:21.802] $GPVTG,,T,,M,,N,,K,N*2C
[2021-02-22 16:08:21.990] $GPGGA,,,,,,,,,,M,,M,,*56
[2021-02-22 16:08:21.990] $GPVTG,,T,,M,,N,,K,N*2C
[2021-02-22 16:08:22.177] $GPGGA,,,,,,,,,,M,,M,,*56
[2021-02-22 16:08:22.193] $GPVTG,,T,,M,,N,,K,N*2C
[2021-02-22 16:08:22.381] $GPGGA,,,,,,,,,,M,,M,,*56
[2021-02-22 16:08:22.396] $GPVTG,,T,,M,,N,,K,N*2C
[2021-02-22 16:08:22.584] $GPGGA,,,,,,,,,,M,,M,,*56
[2021-02-22 16:08:22.599] $GPVTG,,T,,M,,N,,K,N*2C
[2021-02-22 16:08:22.787] $GPGGA,,,,,,,,,,M,,M,,*56
[2021-02-22 16:08:22.787] $GPVTG,,T,,M,,N,,K,N*2C
[2021-02-22 16:08:22.990] $GPGGA,,,,,,,,,,M,,M,,*56
[2021-02-22 16:08:22.990] $GPVTG,,T,,M,,N,,K,N*2C
[2021-02-22 16:08:23.193] $GPGGA,,,,,,,,,,M,,M,,*56
[2021-02-22 16:08:23.193] $GPVTG,,T,,M,,N,,K,N*2C
[2021-02-22 16:08:23.380] $GPGGA,,,,,,,,,,M,,M,,*56
[2021-02-22 16:08:23.396] $GPVTG,,T,,M,,N,,K,N*2C
[2021-02-22 16:08:23.583] $GPGGA,,,,,,,,,,M,,M,,*56
[2021-02-22 16:08:23.599] $GPVTG,,T,,M,,N,,K,N*2C
[2021-02-22 16:08:23.787] $GPGGA,,,,,,,,,,M,,M,,*56
[2021-02-22 16:08:23.802] $GPVTG,,T,,M,,N,,K,N*2C
[2021-02-22 16:08:23.990] $GPGGA,,,,,,,,,,M,,M,,*56
[2021-02-22 16:08:23.990] $GPVTG,,T,,M,,N,,K,N*2C
[2021-02-22 16:08:24.177] $GPGGA,,,,,,,,,,M,,M,,*56
[2021-02-22 16:08:24.193] $GPVTG,,T,,M,,N,,K,N*2C
[2021-02-22 16:08:24.380] $GPGGA,,,,,,,,,,M,,M,,*56
[2021-02-22 16:08:24.396] $GPVTG,,T,,M,,N,,K,N*2C
[2021-02-22 16:08:24.583] $GPGGA,,,,,,,,,,M,,M,,*56
[2021-02-22 16:08:24.599] $GPVTG,,T,,M,,N,,K,N*2C
[2021-02-22 16:08:24.787] $GPGGA,,,,,,,,,,M,,M,,*56
[2021-02-22 16:08:24.787] $GPVTG,,T,,M,,N,,K,N*2C
[2021-02-22 16:08:24.990] $GPGGA,,,,,,,,,,M,,M,,*56
[2021-02-22 16:08:24.990] $GPVTG,,T,,M,,N,,K,N*2C
[2021-02-22 16:08:25.193] $GPGGA,,,,,,,,,,M,,M,,*56
[2021-02-22 16:08:25.193] $GPVTG,,T,,M,,N,,K,N*2C
[2021-02-22 16:08:25.380] $GPGGA,,,,,,,,,,M,,M,,*56
[2021-02-22 16:08:25.396] $GPVTG,,T,,M,,N,,K,N*2C
[2021-02-22 16:08:25.583] $GPGGA,,,,,,,,,,M,,M,,*56
[2021-02-22 16:08:25.583] $GPVTG,,T,,M,,N,,K,N*2C
[2021-02-22 16:08:25.786] $GPGGA,,,,,,,,,,M,,M,,*56
[2021-02-22 16:08:25.786] $GPVTG,,T,,M,,N,,K,N*2C
[2021-02-22 16:08:25.990] $GPGGA,,,,,,,,,,M,,M,,*56
[2021-02-22 16:08:26.005] $GPVTG,,T,,M,,N,,K,N*2C
[2021-02-22 16:08:26.193] $GPGGA,,,,,,,,,,M,,M,,*56
[2021-02-22 16:08:26.193] $GPVTG,,T,,M,,N,,K,N*2C
[2021-02-22 16:08:26.380] $GPGGA,,,,,,,,,,M,,M,,*56
[2021-02-22 16:08:26.396] $GPVTG,,T,,M,,N,,K,N*2C
[2021-02-22 16:08:26.583] $GPGGA,,,,,,,,,,M,,M,,*56
[2021-02-22 16:08:26.599] $GPVTG,,T,,M,,N,,K,N*2C
[2021-02-22 16:08:26.786] $GPGGA,,,,,,,,,,M,,M,,*56
[2021-02-22 16:08:26.802] $GPVTG,,T,,M,,N,,K,N*2C
[2021-02-22 16:08:26.989] $GPGGA,,,,,,,,,,M,,M,,*56
[2021-02-22 16:08:26.989] $GPVTG,,T,,M,,N,,K,N*2C
[2021-02-22 16:08:27.193] $GPGGA,070826.80,3713.95612182,N,13701.42377853,E,1,05,1.9,93.437,M,36.771,M,,*57
[2021-02-22 16:08:27.208] $GPVTG,143.19,T,151.64,M,0.04,N,0.07,K,A*29
[2021-02-22 16:08:27.286] $GPGGA,070826.90,3713.95612244,N,13701.42377994,E,1,05,1.9,93.434,M,36.771,M,,*56
[2021-02-22 16:08:27.302] $GPVTG,60.84,T,69.29,M,0.05,N,0.09,K,A*21
[2021-02-22 16:08:27.396] $GPGGA,070827.00,3713.95680579,N,13701.42288326,E,2,05,1.9,92.776,M,36.771,M,33.0,0000*47
[2021-02-22 16:08:27.411] $GPVTG,327.50,T,335.95,M,0.06,N,0.12,K,D*29
[2021-02-22 16:08:27.489] $GPGGA,070827.10,3713.95680603,N,13701.42288535,E,2,05,1.9,92.776,M,36.771,M,33.0,0000*4C
[2021-02-22 16:08:27.505] $GPVTG,65.51,T,73.96,M,0.05,N,0.09,K,D*26
[2021-02-22 16:08:27.599] $GPGGA,070827.20,3713.95683546,N,13701.42314569,E,2,06,1.8,93.647,M,36.771,M,33.2,0000*41
[2021-02-22 16:08:27.614] $GPVTG,344.65,T,353.10,M,0.06,N,0.11,K,D*24
[2021-02-22 16:08:27.693] $GPGGA,070827.30,3713.95683692,N,13701.42314619,E,2,06,1.8,93.645,M,36.771,M,33.2,0000*4C
[2021-02-22 16:08:27.693] $GPVTG,3.44,T,11.89,M,0.06,N,0.11,K,D*12
[2021-02-22 16:08:27.786] $GPGGA,070827.40,3713.95682911,N,13701.42317159,E,2,06,1.8,93.701,M,36.771,M,33.4,0000*49
[2021-02-22 16:08:27.802] $GPVTG,340.26,T,348.71,M,0.06,N,0.12,K,D*29
[2021-02-22 16:08:27.880] $GPGGA,070827.50,3713.95683199,N,13701.42316956,E,2,06,1.8,93.695,M,36.771,M,33.4,0000*4B
[2021-02-22 16:08:27.911] $GPVTG,335.61,T,344.06,M,0.09,N,0.17,K,D*2E
[2021-02-22 16:08:27.989] $GPGGA,070827.60,3713.95684252,N,13701.42319806,E,2,06,1.8,93.684,M,36.771,M,33.6,0000*42
[2021-02-22 16:08:28.005] $GPVTG,355.58,T,4.03,M,0.13,N,0.24,K,D*2B
[2021-02-22 16:08:28.083] $GPGGA,070827.70,3713.95684479,N,13701.42319667,E,2,06,1.8,93.683,M,36.771,M,33.6,0000*42
[2021-02-22 16:08:28.099] $GPVTG,347.18,T,355.63,M,0.12,N,0.22,K,D*2A
[2021-02-22 16:08:28.193] $GPGGA,070827.80,3713.95687670,N,13701.42329378,E,2,06,1.8,93.845,M,36.771,M,33.8,0000*47
[2021-02-22 16:08:28.208] $GPVTG,345.95,T,354.40,M,0.13,N,0.25,K,D*2B
[2021-02-22 16:08:28.286] $GPGGA,070827.90,3713.95687961,N,13701.42329341,E,2,06,1.8,93.846,M,36.771,M,33.8,0000*40
[2021-02-22 16:08:28.302] $GPVTG,346.73,T,355.18,M,0.13,N,0.24,K,D*2D
[2021-02-22 16:08:28.396] $GPGGA,070828.00,3713.95690873,N,13701.42333277,E,2,06,1.8,93.877,M,36.771,M,34.0,0000*40
[2021-02-22 16:08:28.411] $GPVTG,337.37,T,345.82,M,0.11,N,0.21,K,D*2E
[2021-02-22 16:08:28.489] $GPGGA,070828.10,3713.95690933,N,13701.42333427,E,2,06,1.8,93.875,M,36.771,M,34.0,0000*45
[2021-02-22 16:08:28.505] $GPVTG,349.25,T,357.70,M,0.08,N,0.14,K,D*24
[2021-02-22 16:08:28.599] $GPGGA,070828.20,3713.95694270,N,13701.42336101,E,2,06,1.8,93.808,M,36.771,M,34.2,0000*42
[2021-02-22 16:08:28.599] $GPVTG,347.50,T,355.95,M,0.05,N,0.10,K,D*28
[2021-02-22 16:08:28.693] $GPGGA,070828.30,3713.95694529,N,13701.42336021,E,2,06,1.8,93.800,M,36.771,M,34.2,0000*43
[2021-02-22 16:08:28.693] $GPVTG,350.18,T,358.63,M,0.06,N,0.11,K,D*24
[2021-02-22 16:08:28.786] $GPGGA,070828.40,3713.95698749,N,13701.42343184,E,2,06,1.8,93.861,M,36.771,M,34.4,0000*41
[2021-02-22 16:08:28.817] $GPVTG,9.45,T,17.90,M,0.06,N,0.11,K,D*17
[2021-02-22 16:08:28.880] $GPGGA,070828.50,3713.95698885,N,13701.42342929,E,2,06,1.8,93.856,M,36.771,M,34.4,0000*45
[2021-02-22 16:08:28.896] $GPVTG,344.30,T,352.75,M,0.05,N,0.09,K,D*2C
[2021-02-22 16:08:28.989] $GPGGA,070828.60,3713.95701512,N,13701.42347202,E,2,07,1.6,93.876,M,36.771,M,34.6,0000*4C
[2021-02-22 16:08:29.005] $GPVTG,347.94,T,356.39,M,0.02,N,0.05,K,D*26
[2021-02-22 16:08:29.083] $GPGGA,070828.70,3713.95701743,N,13701.42347224,E,2,07,1.6,93.875,M,36.771,M,34.6,0000*4C
[2021-02-22 16:08:29.099] $GPVTG,0.13,T,8.58,M,0.04,N,0.07,K,D*22
[2021-02-22 16:08:29.193] $GPGGA,070828.80,3713.95668606,N,13701.42363972,E,2,07,1.6,94.972,M,36.771,M,34.8,0000*4C
[2021-02-22 16:08:29.208] $GPVTG,308.87,T,317.32,M,0.02,N,0.05,K,D*21
[2021-02-22 16:08:29.286] $GPGGA,070828.90,3713.95668648,N,13701.42363684,E,2,07,1.6,94.967,M,36.771,M,34.8,0000*45
[2021-02-22 16:08:29.302] $GPVTG,279.41,T,287.86,M,0.04,N,0.07,K,D*2F
[2021-02-22 16:08:29.396] $GPGGA,070829.00,3713.95657691,N,13701.42370540,E,2,07,1.6,95.400,M,36.771,M,35.0,0000*48
[2021-02-22 16:08:29.411] $GPVTG,295.42,T,303.87,M,0.03,N,0.05,K,D*27
[2021-02-22 16:08:29.489] $GPGGA,070829.10,3713.95657641,N,13701.42370427,E,2,07,1.6,95.399,M,36.771,M,35.0,0000*43
[2021-02-22 16:08:29.505] $GPVTG,264.63,T,273.08,M,0.03,N,0.06,K,D*28
[2021-02-22 16:08:29.599] $GPGGA,070829.20,3713.95655928,N,13701.42374739,E,2,08,1.5,95.603,M,36.771,M,35.2,0000*42
[2021-02-22 16:08:29.614] $GPVTG,292.43,T,300.88,M,0.04,N,0.07,K,D*28
[2021-02-22 16:08:29.692] $GPGGA,070829.30,3713.95655956,N,13701.42375020,E,2,07,1.5,95.605,M,36.771,M,35.2,0000*4D
[2021-02-22 16:08:29.692] $GPVTG,4.48,T,12.93,M,0.02,N,0.03,K,D*16
[2021-02-22 16:08:29.786] $GPGGA,070829.40,3713.95656522,N,13701.42380585,E,2,09,1.3,95.776,M,36.771,M,35.4,0000*4D
[2021-02-22 16:08:29.802] $GPVTG,311.54,T,319.98,M,0.03,N,0.05,K,D*28
[2021-02-22 16:08:29.880] $GPGGA,070829.50,3713.95656562,N,13701.42380668,E,2,09,1.3,95.777,M,36.771,M,35.4,0000*49
[2021-02-22 16:08:29.896] $GPVTG,349.88,T,358.33,M,0.02,N,0.04,K,D*20
[2021-02-22 16:08:29.989] $GPGGA,070829.60,3713.95654344,N,13701.42379999,E,2,10,1.2,95.918,M,36.771,M,35.6,0000*41
[2021-02-22 16:08:30.005] $GPVTG,110.46,T,118.91,M,0.02,N,0.04,K,D*22
[2021-02-22 16:08:30.083] $GPGGA,070829.70,3713.95654454,N,13701.42380100,E,2,10,1.2,95.916,M,36.771,M,35.6,0000*46
[2021-02-22 16:08:30.099] $GPVTG,76.56,T,85.01,M,0.04,N,0.07,K,D*2B
[2021-02-22 16:08:30.192] $GPGGA,070829.80,3713.95651835,N,13701.42375448,E,2,11,0.9,96.059,M,36.771,M,35.8,0000*40
[2021-02-22 16:08:30.208] $GPVTG,87.87,T,96.32,M,0.02,N,0.04,K,D*2E
[2021-02-22 16:08:30.286] $GPGGA,070829.90,3713.95651866,N,13701.42375521,E,2,10,0.9,96.054,M,36.771,M,35.8,0000*45
[2021-02-22 16:08:30.302] $GPVTG,90.89,T,99.34,M,0.03,N,0.05,K,D*2F
[2021-02-22 16:08:30.396] $GPGGA,070830.00,3713.95650010,N,13701.42371206,E,2,11,0.9,96.163,M,36.771,M,36.0,0000*45
[2021-02-22 16:08:30.411] $GPVTG,90.59,T,99.04,M,0.03,N,0.05,K,D*21
[2021-02-22 16:08:30.489] $GPGGA,070830.10,3713.95649952,N,13701.42371266,E,2,11,0.9,96.166,M,36.771,M,36.0,0000*40
[2021-02-22 16:08:30.505] $GPVTG,110.08,T,118.53,M,0.03,N,0.05,K,D*26
[2021-02-22 16:08:30.599] $GPGGA,070830.20,3713.95648881,N,13701.42369087,E,2,11,0.9,96.246,M,36.771,M,36.2,0000*4A
[2021-02-22 16:08:30.599] $GPVTG,119.58,T,128.03,M,0.04,N,0.08,K,D*26
[2021-02-22 16:08:30.692] $GPGGA,070830.30,3713.95648879,N,13701.42369253,E,2,11,0.9,96.246,M,36.771,M,36.2,0000*47
[2021-02-22 16:08:30.708] $GPVTG,110.26,T,118.71,M,0.05,N,0.10,K,D*28
[2021-02-22 16:08:30.802] $GPGGA,070830.40,3713.95648587,N,13701.42367652,E,2,12,0.9,96.300,M,36.771,M,36.4,0000*41
[2021-02-22 16:08:30.817] $GPVTG,127.04,T,135.49,M,0.03,N,0.05,K,D*2A
[2021-02-22 16:08:30.895] $GPGGA,070830.50,3713.95648583,N,13701.42367740,E,2,12,0.9,96.300,M,36.771,M,36.4,0000*46
[2021-02-22 16:08:30.895] $GPVTG,119.92,T,128.37,M,0.03,N,0.05,K,D*2D
[2021-02-22 16:08:31.005] $GPGGA,070830.60,3713.95649218,N,13701.42371032,E,2,12,0.9,96.316,M,36.771,M,36.6,0000*41
[2021-02-22 16:08:31.005] $GPVTG,108.55,T,117.00,M,0.04,N,0.07,K,D*2B
[2021-02-22 16:08:31.083] $GPGGA,070830.70,3713.95649258,N,13701.42370960,E,2,12,0.9,96.314,M,36.771,M,36.6,0000*49
[2021-02-22 16:08:31.114] $GPVTG,115.68,T,124.13,M,0.02,N,0.04,K,D*2E
[2021-02-22 16:08:31.192] $GPGGA,070830.80,3713.95649601,N,13701.42370914,E,2,12,0.9,96.348,M,36.771,M,36.8,0000*4A
[2021-02-22 16:08:31.224] $GPVTG,84.48,T,92.93,M,0.03,N,0.05,K,D*21
[2021-02-22 16:08:31.286] $GPGGA,070830.90,3713.95649686,N,13701.42370618,E,2,12,0.9,96.345,M,36.771,M,36.8,0000*4A
[2021-02-22 16:08:31.302] $GPVTG,292.18,T,300.63,M,0.01,N,0.03,K,D*22
[2021-02-22 16:08:31.396] $GPGGA,070831.00,3713.95648998,N,13701.42369304,E,2,12,0.9,96.358,M,36.771,M,37.0,0000*46
[2021-02-22 16:08:31.411] $GPVTG,35.56,T,44.01,M,0.01,N,0.02,K,D*21
[2021-02-22 16:08:31.489] $GPGGA,070831.10,3713.95649046,N,13701.42369069,E,2,12,0.9,96.357,M,36.771,M,37.0,0000*4B
[2021-02-22 16:08:31.505] $GPVTG,296.67,T,305.12,M,0.02,N,0.04,K,D*29
[2021-02-22 16:08:31.599] $GPGGA,070831.20,3713.95646895,N,13701.42367633,E,2,12,0.9,96.385,M,36.771,M,37.2,0000*4B
[2021-02-22 16:08:31.614] $GPVTG,332.14,T,340.59,M,0.03,N,0.06,K,D*2F
[2021-02-22 16:08:31.692] $GPGGA,070831.30,3713.95646896,N,13701.42367534,E,2,12,0.9,96.383,M,36.771,M,37.2,0000*4B
[2021-02-22 16:08:31.708] $GPVTG,316.77,T,325.22,M,0.03,N,0.05,K,D*20
[2021-02-22 16:08:31.802] $GPGGA,070831.40,3713.95645374,N,13701.42367202,E,2,12,0.9,96.400,M,36.771,M,37.4,0000*40
[2021-02-22 16:08:31.817] $GPVTG,321.08,T,329.53,M,0.02,N,0.04,K,D*26
[2021-02-22 16:08:31.895] $GPGGA,070831.50,3713.95645568,N,13701.42366818,E,2,12,0.9,96.399,M,36.771,M,37.4,0000*4D
[2021-02-22 16:08:31.911] $GPVTG,303.51,T,311.96,M,0.06,N,0.11,K,D*28
[2021-02-22 16:08:31.989] $GPGGA,070831.60,3713.95644662,N,13701.42367340,E,2,12,0.9,96.415,M,36.771,M,37.6,0000*40
[2021-02-22 16:08:32.005] $GPVTG,313.98,T,322.43,M,0.04,N,0.07,K,D*21
[2021-02-22 16:08:32.083] $GPGGA,070831.70,3713.95644600,N,13701.42367506,E,2,12,0.9,96.410,M,36.771,M,37.6,0000*44
[2021-02-22 16:08:32.099] $GPVTG,359.90,T,8.35,M,0.01,N,0.03,K,D*2C
[2021-02-22 16:08:32.192] $GPGGA,070831.80,3713.95644764,N,13701.42369082,E,2,12,0.9,96.437,M,36.771,M,37.8,0000*44
[2021-02-22 16:08:32.224] $GPVTG,337.63,T,346.08,M,0.02,N,0.04,K,D*2B
[2021-02-22 16:08:32.286] $GPGGA,070831.90,3713.95644996,N,13701.42369213,E,2,12,0.9,96.435,M,36.771,M,37.8,0000*4E
[2021-02-22 16:08:32.302] $GPVTG,17.55,T,26.00,M,0.05,N,0.09,K,D*28
[2021-02-22 16:08:32.411] $GPGGA,070832.00,3713.95645745,N,13701.42371463,E,2,12,0.9,96.462,M,36.771,M,38.0,0000*48
[2021-02-22 16:08:32.427] $GPVTG,20.78,T,29.23,M,0.07,N,0.13,K,D*24
[2021-02-22 16:08:32.489] $GPGGA,070832.10,3713.95645716,N,13701.42371597,E,2,12,0.9,96.462,M,36.771,M,38.0,0000*45
[2021-02-22 16:08:32.489] $GPVTG,33.93,T,42.38,M,0.06,N,0.10,K,D*26
[2021-02-22 16:08:32.599] $GPGGA,070832.20,3713.95645958,N,13701.42372061,E,2,12,0.9,96.497,M,36.771,M,38.2,0000*45
[2021-02-22 16:08:32.614] $GPVTG,346.33,T,354.78,M,0.05,N,0.09,K,D*26
[2021-02-22 16:08:32.692] $GPGGA,070832.30,3713.95645927,N,13701.42372357,E,2,12,0.9,96.496,M,36.771,M,38.2,0000*4B
[2021-02-22 16:08:32.692] $GPVTG,36.80,T,45.24,M,0.04,N,0.08,K,D*20
[2021-02-22 16:08:32.802] $GPGGA,070832.40,3713.95645882,N,13701.42372879,E,2,12,0.9,96.524,M,36.771,M,38.4,0000*4B
[2021-02-22 16:08:32.817] $GPVTG,4.64,T,13.09,M,0.02,N,0.04,K,D*1D
[2021-02-22 16:08:32.895] $GPGGA,070832.50,3713.95646257,N,13701.42372694,E,2,12,0.9,96.520,M,36.771,M,38.4,0000*42
[2021-02-22 16:08:32.895] $GPVTG,347.47,T,355.92,M,0.05,N,0.10,K,D*29
[2021-02-22 16:08:32.989] $GPGGA,070832.60,3713.95646095,N,13701.42373519,E,2,12,0.9,96.541,M,36.771,M,38.6,0000*4F
[2021-02-22 16:08:33.020] $GPVTG,352.51,T,0.96,M,0.03,N,0.06,K,D*2C
[2021-02-22 16:08:33.083] $GPGGA,070832.70,3713.95646326,N,13701.42373327,E,2,12,0.9,96.544,M,36.771,M,38.6,0000*4B
[2021-02-22 16:08:33.098] $GPVTG,332.77,T,341.22,M,0.05,N,0.10,K,D*26
[2021-02-22 16:08:33.192] $GPGGA,070832.80,3713.95646315,N,13701.42373850,E,2,12,0.9,96.561,M,36.771,M,38.8,0000*46
[2021-02-22 16:08:33.208] $GPVTG,333.04,T,341.49,M,0.06,N,0.12,K,D*2F
[2021-02-22 16:08:33.286] $GPGGA,070832.90,3713.95646531,N,13701.42373626,E,2,12,0.9,96.555,M,36.771,M,38.8,0000*4F
[2021-02-22 16:08:33.302] $GPVTG,324.67,T,333.12,M,0.07,N,0.14,K,D*20
[2021-02-22 16:08:33.395] $GPGGA,070833.00,3713.95646309,N,13701.42374343,E,2,12,0.9,96.583,M,36.771,M,39.0,0000*49
[2021-02-22 16:08:33.411] $GPVTG,350.09,T,358.54,M,0.08,N,0.15,K,D*2A
[2021-02-22 16:08:33.489] $GPGGA,070833.10,3713.95646240,N,13701.42374794,E,2,12,0.9,96.585,M,36.771,M,39.0,0000*4C
[2021-02-22 16:08:33.505] $GPVTG,35.34,T,43.79,M,0.07,N,0.12,K,D*2A
[2021-02-22 16:08:33.598] $GPGGA,070833.20,3713.95645546,N,13701.42375745,E,2,12,0.9,96.614,M,36.771,M,39.2,0000*49
[2021-02-22 16:08:33.614] $GPVTG,47.22,T,55.67,M,0.06,N,0.11,K,D*22
[2021-02-22 16:08:33.692] $GPGGA,070833.30,3713.95645647,N,13701.42376350,E,2,12,0.9,96.614,M,36.771,M,39.2,0000*49
[2021-02-22 16:08:33.708] $GPVTG,65.86,T,74.31,M,0.11,N,0.21,K,D*29
[2021-02-22 16:08:33.802] $GPGGA,070833.40,3713.95644994,N,13701.42377930,E,2,12,0.9,96.641,M,36.771,M,39.4,0000*45
[2021-02-22 16:08:33.817] $GPVTG,63.77,T,72.22,M,0.14,N,0.26,K,D*27
[2021-02-22 16:08:33.880] $GPGGA,070833.50,3713.95645026,N,13701.42378260,E,2,12,0.9,96.642,M,36.771,M,39.4,0000*47
[2021-02-22 16:08:33.895] $GPVTG,71.65,T,80.10,M,0.13,N,0.24,K,D*2E
[2021-02-22 16:08:33.989] $GPGGA,070833.60,3713.95644225,N,13701.42379890,E,2,12,0.9,96.673,M,36.771,M,39.6,0000*40
[2021-02-22 16:08:34.020] $GPVTG,74.12,T,82.57,M,0.16,N,0.30,K,D*2A
[2021-02-22 16:08:34.083] $GPGGA,070833.70,3713.95643773,N,13701.42379929,E,2,12,0.9,96.672,M,36.771,M,39.6,0000*42
[2021-02-22 16:08:34.098] $GPVTG,117.26,T,125.71,M,0.11,N,0.20,K,D*27
[2021-02-22 16:08:34.192] $GPGGA,070833.80,3713.95642757,N,13701.42380521,E,2,12,0.9,96.703,M,36.771,M,39.8,0000*41
[2021-02-22 16:08:34.223] $GPVTG,156.96,T,165.41,M,0.07,N,0.14,K,D*2E
[2021-02-22 16:08:34.286] $GPGGA,070833.90,3713.95643011,N,13701.42380346,E,2,12,0.9,96.703,M,36.771,M,39.8,0000*43
[2021-02-22 16:08:34.301] $GPVTG,178.93,T,187.38,M,0.03,N,0.05,K,D*21
[2021-02-22 16:08:34.395] $GPGGA,070834.00,3713.95641758,N,13701.42380783,E,2,12,0.9,96.731,M,36.771,M,40.0,0000*4F
[2021-02-22 16:08:34.411] $GPVTG,245.31,T,253.76,M,0.08,N,0.14,K,D*2F
[2021-02-22 16:08:34.489] $GPGGA,070834.10,3713.95641682,N,13701.42379848,E,2,12,0.9,96.728,M,36.771,M,40.0,0000*4E
[2021-02-22 16:08:34.489] $GPVTG,250.78,T,259.23,M,0.18,N,0.33,K,D*28
[2021-02-22 16:08:34.598] $GPGGA,070834.20,3713.95640615,N,13701.42379458,E,2,12,0.9,96.754,M,36.771,M,40.2,0000*46
[2021-02-22 16:08:34.614] $GPVTG,251.60,T,260.05,M,0.23,N,0.43,K,D*21
[2021-02-22 16:08:34.692] $GPGGA,070834.30,3713.95640862,N,13701.42378947,E,2,05,0.9,96.751,M,36.771,M,40.2,0000*48
[2021-02-22 16:08:34.692] $GPVTG,266.83,T,275.28,M,0.21,N,0.38,K,D*2D
[2021-02-22 16:08:34.801] $GPGGA,070834.40,3713.95639343,N,13701.42381850,E,2,05,1.9,96.827,M,36.771,M,2.4,0000*77
[2021-02-22 16:08:34.817] $GPVTG,261.44,T,269.89,M,0.18,N,0.33,K,D*26
[2021-02-22 16:08:34.880] $GPGGA,070834.50,3713.95638835,N,13701.42381734,E,2,05,1.9,96.829,M,36.771,M,2.4,0000*7E
[2021-02-22 16:08:34.895] $GPVTG,240.91,T,249.36,M,0.16,N,0.30,K,D*26
[2021-02-22 16:08:34.989] $GPGGA,070834.60,3713.95637467,N,13701.42384674,E,2,05,1.9,96.895,M,36.771,M,2.6,0000*7C
[2021-02-22 16:08:35.020] $GPVTG,239.71,T,248.16,M,0.12,N,0.23,K,D*23
[2021-02-22 16:08:35.083] $GPGGA,070834.70,3713.95637444,N,13701.42384482,E,2,05,1.9,96.894,M,36.771,M,2.6,0000*76
[2021-02-22 16:08:35.098] $GPVTG,241.78,T,250.23,M,0.09,N,0.17,K,D*27
[2021-02-22 16:08:35.192] $GPGGA,070834.80,3713.95635902,N,13701.42387964,E,2,05,1.9,96.959,M,36.771,M,2.8,0000*7C
[2021-02-22 16:08:35.208] $GPVTG,159.02,T,167.47,M,0.05,N,0.09,K,D*26
[2021-02-22 16:08:35.286] $GPGGA,070834.90,3713.95636600,N,13701.42387753,E,2,05,1.9,96.952,M,36.771,M,2.8,0000*72
[2021-02-22 16:08:35.301] $GPVTG,22.84,T,31.29,M,0.06,N,0.11,K,D*25
[2021-02-22 16:08:35.395] $GPGGA,070835.00,3713.95635624,N,13701.42390488,E,2,05,1.9,96.995,M,36.771,M,3.0,0000*7E
[2021-02-22 16:08:35.411] $GPVTG,36.04,T,44.49,M,0.12,N,0.22,K,D*29
[2021-02-22 16:08:35.489] $GPGGA,070835.10,3713.95635786,N,13701.42390760,E,2,05,1.9,96.998,M,36.771,M,3.0,0000*7E
[2021-02-22 16:08:35.505] $GPVTG,39.90,T,48.35,M,0.14,N,0.26,K,D*2E
[2021-02-22 16:08:35.598] $GPGGA,070835.20,3713.95634426,N,13701.42392996,E,2,05,1.9,97.039,M,36.771,M,3.2,0000*71
[2021-02-22 16:08:35.614] $GPVTG,46.27,T,54.72,M,0.14,N,0.25,K,D*27
[2021-02-22 16:08:35.692] $GPGGA,070835.30,3713.95634377,N,13701.42392739,E,2,05,1.9,97.034,M,36.771,M,3.2,0000*75
[2021-02-22 16:08:35.708] $GPVTG,42.70,T,51.15,M,0.07,N,0.13,K,D*22
[2021-02-22 16:08:35.801] $GPGGA,070835.40,3713.95633103,N,13701.42394183,E,2,05,1.9,97.058,M,36.771,M,3.4,0000*79
[2021-02-22 16:08:35.817] $GPVTG,30.64,T,39.09,M,0.04,N,0.08,K,D*28
[2021-02-22 16:08:35.895] $GPGGA,070835.50,3713.95633039,N,13701.42394368,E,2,05,1.9,97.056,M,36.771,M,3.4,0000*79
[2021-02-22 16:08:35.895] $GPVTG,68.24,T,76.69,M,0.04,N,0.07,K,D*23
[2021-02-22 16:08:35.989] $GPGGA,070835.60,3713.95631707,N,13701.42395854,E,2,05,1.9,97.080,M,36.771,M,3.6,0000*7E
[2021-02-22 16:08:36.020] $GPVTG,89.32,T,97.77,M,0.05,N,0.10,K,D*2C
[2021-02-22 16:08:36.083] $GPGGA,070835.70,3713.95631699,N,13701.42395889,E,2,05,1.9,97.080,M,36.771,M,3.6,0000*79
[2021-02-22 16:08:36.114] $GPVTG,101.78,T,110.23,M,0.04,N,0.08,K,D*24
[2021-02-22 16:08:36.192] $GPGGA,070835.80,3713.95630371,N,13701.42397058,E,2,05,1.9,97.098,M,36.771,M,3.8,0000*75
[2021-02-22 16:08:36.208] $GPVTG,110.73,T,119.18,M,0.05,N,0.10,K,D*26
[2021-02-22 16:08:36.286] $GPGGA,070835.90,3713.95630386,N,13701.42397019,E,2,05,1.9,97.091,M,36.771,M,3.8,0000*70
[2021-02-22 16:08:36.301] $GPVTG,124.62,T,133.07,M,0.04,N,0.07,K,D*20
[2021-02-22 16:08:36.395] $GPGGA,070836.00,3713.95629154,N,13701.42397807,E,2,05,1.9,97.107,M,36.771,M,4.0,0000*79
[2021-02-22 16:08:36.411] $GPVTG,114.32,T,122.77,M,0.04,N,0.08,K,D*2E
[2021-02-22 16:08:36.489] $GPGGA,070836.10,3713.95629087,N,13701.42397787,E,2,05,1.9,97.108,M,36.771,M,4.0,0000*7F
[2021-02-22 16:08:36.504] $GPVTG,136.67,T,145.12,M,0.03,N,0.06,K,D*25
[2021-02-22 16:08:36.598] $GPGGA,070836.20,3713.95627914,N,13701.42398143,E,2,05,1.9,97.119,M,36.771,M,4.2,0000*72
[2021-02-22 16:08:36.614] $GPVTG,139.16,T,147.61,M,0.02,N,0.04,K,D*29
[2021-02-22 16:08:36.692] $GPGGA,070836.30,3713.95628109,N,13701.42398278,E,2,05,1.9,97.122,M,36.771,M,4.2,0000*7B
[2021-02-22 16:08:36.692] $GPVTG,49.47,T,57.92,M,0.03,N,0.05,K,D*27
[2021-02-22 16:08:36.801] $GPGGA,070836.40,3713.95627211,N,13701.42398321,E,2,05,1.9,97.135,M,36.771,M,4.4,0000*74
[2021-02-22 16:08:36.817] $GPVTG,4.90,T,13.35,M,0.05,N,0.09,K,D*13
[2021-02-22 16:08:36.879] $GPGGA,070836.50,3713.95627390,N,13701.42398298,E,2,05,1.9,97.132,M,36.771,M,4.4,0000*79
[2021-02-22 16:08:36.895] $GPVTG,359.63,T,8.08,M,0.06,N,0.11,K,D*2A
[2021-02-22 16:08:36.989] $GPGGA,070836.60,3713.95626490,N,13701.42398266,E,2,05,1.9,97.140,M,36.771,M,4.6,0000*7A
[2021-02-22 16:08:37.020] $GPVTG,353.22,T,1.67,M,0.07,N,0.13,K,D*26
[2021-02-22 16:08:37.083] $GPGGA,070836.70,3713.95626558,N,13701.42398482,E,2,05,1.9,97.136,M,36.771,M,4.6,0000*73
[2021-02-22 16:08:37.098] $GPVTG,12.99,T,21.44,M,0.06,N,0.12,K,D*23
[2021-02-22 16:08:37.192] $GPGGA,070836.80,3713.95625713,N,13701.42398333,E,2,05,1.9,97.142,M,36.771,M,4.8,0000*72
[2021-02-22 16:08:37.208] $GPVTG,0.41,T,8.86,M,0.06,N,0.12,K,D*20
[2021-02-22 16:08:37.286] $GPGGA,070836.90,3713.95625844,N,13701.42398521,E,2,05,1.9,97.142,M,36.771,M,4.8,0000*7B
[2021-02-22 16:08:37.301] $GPVTG,13.58,T,22.03,M,0.07,N,0.12,K,D*2E
[2021-02-22 16:08:37.395] $GPGGA,070837.00,3713.95625504,N,13701.42398028,E,2,05,1.9,97.146,M,36.771,M,3.0,0000*7D
[2021-02-22 16:08:37.411] $GPVTG,343.76,T,352.21,M,0.05,N,0.09,K,D*28
[2021-02-22 16:08:37.489] $GPGGA,070837.10,3713.95625566,N,13701.42398196,E,2,05,1.9,97.145,M,36.771,M,3.0,0000*7F
[2021-02-22 16:08:37.504] $GPVTG,9.52,T,17.97,M,0.04,N,0.07,K,D*13
[2021-02-22 16:08:37.598] $GPGGA,070837.20,3713.95625427,N,13701.42397879,E,2,05,1.9,97.148,M,36.771,M,3.2,0000*70
[2021-02-22 16:08:37.614] $GPVTG,356.72,T,5.17,M,0.05,N,0.09,K,D*2C
[2021-02-22 16:08:37.692] $GPGGA,070837.30,3713.95625397,N,13701.42398000,E,2,05,1.9,97.142,M,36.771,M,3.2,0000*7E
[2021-02-22 16:08:37.692] $GPVTG,30.42,T,38.87,M,0.02,N,0.05,K,D*20
[2021-02-22 16:08:37.801] $GPGGA,070837.40,3713.95625153,N,13701.42397817,E,2,05,1.9,97.151,M,36.771,M,3.4,0000*76
[2021-02-22 16:08:37.817] $GPVTG,4.68,T,13.13,M,0.01,N,0.02,K,D*1F
[2021-02-22 16:08:37.895] $GPGGA,070837.50,3713.95625135,N,13701.42397852,E,2,05,1.9,97.151,M,36.771,M,3.4,0000*76
[2021-02-22 16:08:37.895] $GPVTG,30.79,T,39.24,M,0.00,N,0.00,K,D*27
[2021-02-22 16:08:37.989] $GPGGA,070837.60,3713.95618684,N,13701.42388348,E,2,10,1.2,97.069,M,36.771,M,2.6,0000*7E
[2021-02-22 16:08:38.020] $GPVTG,211.28,T,219.73,M,0.02,N,0.03,K,D*21
[2021-02-22 16:08:38.083] $GPGGA,070837.70,3713.95618643,N,13701.42388316,E,2,10,1.2,97.070,M,36.771,M,2.6,0000*77
[2021-02-22 16:08:38.098] $GPVTG,207.76,T,216.21,M,0.02,N,0.04,K,D*22
[2021-02-22 16:08:38.192] $GPGGA,070837.80,3713.95615468,N,13701.42383488,E,2,10,1.2,97.031,M,36.771,M,2.8,0000*7E
[2021-02-22 16:08:38.207] $GPVTG,186.86,T,195.30,M,0.01,N,0.03,K,D*2B
[2021-02-22 16:08:38.286] $GPGGA,070837.90,3713.95615567,N,13701.42383382,E,2,10,1.2,97.021,M,36.771,M,2.8,0000*7D
[2021-02-22 16:08:38.301] $GPVTG,223.58,T,232.03,M,0.01,N,0.02,K,D*2B
[2021-02-22 16:08:38.395] $GPGGA,070838.00,3713.95613798,N,13701.42380439,E,2,10,1.2,97.001,M,36.771,M,3.0,0000*70
[2021-02-22 16:08:38.411] $GPVTG,256.67,T,265.12,M,0.01,N,0.02,K,D*27
[2021-02-22 16:08:38.489] $GPGGA,070838.10,3713.95613683,N,13701.42380469,E,2,10,1.2,97.000,M,36.771,M,3.0,0000*7E
[2021-02-22 16:08:38.504] $GPVTG,186.74,T,195.19,M,0.02,N,0.04,K,D*29
[2021-02-22 16:08:38.598] $GPGGA,070838.20,3713.95612594,N,13701.42378731,E,2,10,1.2,96.982,M,36.771,M,3.2,0000*70
[2021-02-22 16:08:38.614] $GPVTG,135.74,T,144.19,M,0.03,N,0.06,K,D*2E
[2021-02-22 16:08:38.692] $GPGGA,070838.30,3713.95612529,N,13701.42378724,E,2,10,1.2,96.988,M,36.771,M,3.2,0000*79
[2021-02-22 16:08:38.692] $GPVTG,142.51,T,150.96,M,0.03,N,0.05,K,D*28
[2021-02-22 16:08:38.801] $GPGGA,070838.40,3713.95613698,N,13701.42377745,E,2,11,1.2,96.970,M,36.771,M,2.4,0000*7F
[2021-02-22 16:08:38.817] $GPVTG,151.96,T,160.41,M,0.06,N,0.10,K,D*29
[2021-02-22 16:08:38.895] $GPGGA,070838.50,3713.95614619,N,13701.42415898,E,5,08,1.6,97.754,M,36.771,M,2.5,0000*7F
[2021-02-22 16:08:38.911] $GPVTG,212.76,T,221.21,M,0.03,N,0.06,K,D*21
[2021-02-22 16:08:39.004] $GPGGA,070838.60,3713.95614664,N,13701.42415852,E,5,08,1.6,97.752,M,36.771,M,2.6,0000*75
[2021-02-22 16:08:39.020] $GPVTG,249.11,T,257.56,M,0.03,N,0.05,K,D*2C
[2021-02-22 16:08:39.098] $GPGGA,070838.70,3713.95614710,N,13701.42415649,E,5,08,1.6,97.750,M,36.771,M,2.7,0000*71
[2021-02-22 16:08:39.114] $GPVTG,266.19,T,274.64,M,0.03,N,0.05,K,D*29
[2021-02-22 16:08:39.192] $GPGGA,070838.80,3713.95614693,N,13701.42416015,E,5,08,1.6,97.746,M,36.771,M,2.8,0000*70
[2021-02-22 16:08:39.223] $GPVTG,272.81,T,281.26,M,0.03,N,0.05,K,D*21
[2021-02-22 16:08:39.286] $GPGGA,070838.90,3713.95614650,N,13701.42416199,E,5,08,1.6,97.745,M,36.771,M,2.9,0000*79
[2021-02-22 16:08:39.317] $GPVTG,100.70,T,109.15,M,0.01,N,0.02,K,D*2F
[2021-02-22 16:08:39.395] $GPGGA,070839.00,3713.95614269,N,13701.42416456,E,5,08,1.6,97.750,M,36.771,M,3.0,0000*75
[2021-02-22 16:08:39.426] $GPVTG,60.75,T,69.20,M,0.01,N,0.02,K,D*2C
[2021-02-22 16:08:39.489] $GPGGA,070839.10,3713.95614240,N,13701.42416424,E,5,08,1.6,97.754,M,36.771,M,3.1,0000*7F
[2021-02-22 16:08:39.504] $GPVTG,224.97,T,233.42,M,0.00,N,0.00,K,D*28
[2021-02-22 16:08:39.598] $GPGGA,070839.20,3713.95614184,N,13701.42416603,E,5,08,1.6,97.755,M,36.771,M,3.2,0000*72
[2021-02-22 16:08:39.614] $GPVTG,151.70,T,160.15,M,0.01,N,0.01,K,D*27
[2021-02-22 16:08:39.692] $GPGGA,070839.30,3713.95614314,N,13701.42416463,E,5,08,1.6,97.754,M,36.771,M,3.3,0000*7C
[2021-02-22 16:08:39.707] $GPVTG,297.07,T,305.52,M,0.02,N,0.05,K,D*2B
[2021-02-22 16:08:39.801] $GPGGA,070839.40,3713.95614316,N,13701.42416287,E,5,08,1.6,97.750,M,36.771,M,3.4,0000*76
[2021-02-22 16:08:39.817] $GPVTG,282.24,T,290.69,M,0.02,N,0.04,K,D*2A
[2021-02-22 16:08:39.895] $GPGGA,070839.50,3713.95614208,N,13701.42416467,E,5,08,1.6,97.749,M,36.771,M,3.5,0000*78
[2021-02-22 16:08:39.895] $GPVTG,280.91,T,289.36,M,0.01,N,0.02,K,D*21
[2021-02-22 16:08:40.004] $GPGGA,070839.60,3713.95614252,N,13701.42416433,E,5,08,1.6,97.752,M,36.771,M,3.6,0000*7C
[2021-02-22 16:08:40.020] $GPVTG,289.20,T,297.65,M,0.03,N,0.05,K,D*2E
[2021-02-22 16:08:40.082] $GPGGA,070839.70,3713.95614110,N,13701.42416366,E,5,08,1.6,97.749,M,36.771,M,3.7,0000*74
[2021-02-22 16:08:40.098] $GPVTG,271.80,T,280.25,M,0.01,N,0.03,K,D*25
[2021-02-22 16:08:40.192] $GPGGA,070839.80,3713.95614301,N,13701.42416174,E,5,08,1.6,97.749,M,36.771,M,3.8,0000*77
[2021-02-22 16:08:40.223] $GPVTG,307.56,T,316.01,M,0.03,N,0.05,K,D*22
[2021-02-22 16:08:40.286] $GPGGA,070839.90,3713.95614400,N,13701.42415896,E,5,08,1.6,97.745,M,36.771,M,3.9,0000*7B
[2021-02-22 16:08:40.317] $GPVTG,325.87,T,334.32,M,0.03,N,0.06,K,D*2D
[2021-02-22 16:08:40.395] $GPGGA,070840.00,3713.95614632,N,13701.42416009,E,5,08,1.6,97.754,M,36.771,M,4.0,0000*7C
[2021-02-22 16:08:40.426] $GPVTG,358.29,T,6.74,M,0.06,N,0.11,K,D*20
[2021-02-22 16:08:40.489] $GPGGA,070840.10,3713.95614438,N,13701.42416266,E,5,08,1.6,97.752,M,36.771,M,4.1,0000*79
[2021-02-22 16:08:40.504] $GPVTG,2.31,T,10.76,M,0.03,N,0.05,K,D*10
[2021-02-22 16:08:40.598] $GPGGA,070840.20,3713.95614688,N,13701.42415943,E,5,08,1.6,97.740,M,36.771,M,4.2,0000*7C
[2021-02-22 16:08:40.614] $GPVTG,346.17,T,354.62,M,0.05,N,0.09,K,D*2B
[2021-02-22 16:08:40.692] $GPGGA,070840.30,3713.95614798,N,13701.42416429,E,4,11,1.5,97.732,M,36.771,M,2.3,0000*77
[2021-02-22 16:08:40.707] $GPVTG,353.30,T,1.75,M,0.03,N,0.06,K,D*26
[2021-02-22 16:08:40.801] $GPGGA,070840.40,3713.95614550,N,13701.42416995,E,4,11,1.5,97.748,M,36.771,M,2.4,0000*76
[2021-02-22 16:08:40.817] $GPVTG,9.21,T,17.66,M,0.01,N,0.03,K,D*18
[2021-02-22 16:08:40.895] $GPGGA,070840.50,3713.95614339,N,13701.42416693,E,4,11,1.5,97.746,M,36.771,M,2.5,0000*78
[2021-02-22 16:08:40.895] $GPVTG,328.15,T,336.60,M,0.01,N,0.02,K,D*28
[2021-02-22 16:08:41.004] $GPGGA,070840.60,3713.95614471,N,13701.42416972,E,4,11,1.5,97.746,M,36.771,M,2.6,0000*73
[2021-02-22 16:08:41.020] $GPVTG,351.03,T,359.48,M,0.02,N,0.04,K,D*27
[2021-02-22 16:08:41.082] $GPGGA,070840.70,3713.95614279,N,13701.42416897,E,4,11,1.5,97.756,M,36.771,M,2.7,0000*76
[2021-02-22 16:08:41.114] $GPVTG,9.76,T,18.21,M,0.02,N,0.03,K,D*15
[2021-02-22 16:08:41.207] $GPGGA,070840.80,3713.95614835,N,13701.42416931,E,4,11,1.5,97.740,M,36.771,M,2.8,0000*7E
[2021-02-22 16:08:41.223] $GPVTG,352.81,T,1.26,M,0.05,N,0.10,K,D*2A
[2021-02-22 16:08:41.285] $GPGGA,070840.90,3713.95614933,N,13701.42417347,E,4,11,1.5,97.738,M,36.771,M,2.9,0000*7C
[2021-02-22 16:08:41.301] $GPVTG,24.84,T,33.29,M,0.06,N,0.11,K,D*21
[2021-02-22 16:08:41.395] $GPGGA,070841.00,3713.95614820,N,13701.42417328,E,4,11,1.5,97.738,M,36.771,M,3.0,0000*76
[2021-02-22 16:08:41.410] $GPVTG,12.42,T,20.87,M,0.04,N,0.08,K,D*22
[2021-02-22 16:08:41.489] $GPGGA,070841.10,3713.95614984,N,13701.42417330,E,4,11,1.5,97.738,M,36.771,M,3.1,0000*70
[2021-02-22 16:08:41.504] $GPVTG,15.90,T,24.35,M,0.05,N,0.09,K,D*27
[2021-02-22 16:08:41.598] $GPGGA,070841.20,3713.95615202,N,13701.42417379,E,4,11,1.5,97.730,M,36.771,M,3.2,0000*71
[2021-02-22 16:08:41.613] $GPVTG,342.87,T,351.32,M,0.04,N,0.07,K,D*29
[2021-02-22 16:08:41.692] $GPGGA,070841.30,3713.95614993,N,13701.42416929,E,4,11,1.5,97.746,M,36.771,M,2.3,0000*7D
[2021-02-22 16:08:41.707] $GPVTG,346.69,T,355.14,M,0.03,N,0.06,K,D*2B
[2021-02-22 16:08:41.801] $GPGGA,070841.40,3713.95615152,N,13701.42416855,E,4,11,1.5,97.750,M,36.771,M,2.4,0000*74
[2021-02-22 16:08:41.817] $GPVTG,346.92,T,355.37,M,0.04,N,0.06,K,D*29
[2021-02-22 16:08:41.895] $GPGGA,070841.50,3713.95615068,N,13701.42417015,E,4,11,1.5,97.749,M,36.771,M,2.5,0000*79
[2021-02-22 16:08:41.895] $GPVTG,22.80,T,31.25,M,0.02,N,0.03,K,D*2A
[2021-02-22 16:08:41.988] $GPGGA,070841.60,3713.95615057,N,13701.42416985,E,4,11,1.5,97.754,M,36.771,M,2.6,0000*78
[2021-02-22 16:08:42.020] $GPVTG,9.04,T,17.49,M,0.03,N,0.05,K,D*16
[2021-02-22 16:08:42.098] $GPGGA,070841.70,3713.95615263,N,13701.42416888,E,4,11,1.5,97.746,M,36.771,M,2.7,0000*72
[2021-02-22 16:08:42.113] $GPVTG,57.04,T,65.48,M,0.02,N,0.05,K,D*28
[2021-02-22 16:08:42.192] $GPGGA,070841.80,3713.95615040,N,13701.42417322,E,4,11,1.5,97.754,M,36.771,M,2.8,0000*78
[2021-02-22 16:08:42.223] $GPVTG,99.41,T,107.86,M,0.03,N,0.06,K,D*1E
[2021-02-22 16:08:42.285] $GPGGA,070841.90,3713.95615119,N,13701.42417228,E,4,11,1.5,97.747,M,36.771,M,2.9,0000*7C
[2021-02-22 16:08:42.301] $GPVTG,51.36,T,59.81,M,0.02,N,0.04,K,D*24
[2021-02-22 16:08:42.410] $GPGGA,070842.00,3713.95615050,N,13701.42417111,E,4,11,1.5,97.753,M,36.771,M,3.0,0000*7E
[2021-02-22 16:08:42.426] $GPVTG,90.83,T,99.28,M,0.02,N,0.04,K,D*28
[2021-02-22 16:08:42.488] $GPGGA,070842.10,3713.95614983,N,13701.42417324,E,4,11,1.5,97.753,M,36.771,M,3.1,0000*7C
[2021-02-22 16:08:42.504] $GPVTG,84.99,T,93.44,M,0.03,N,0.06,K,D*25
[2021-02-22 16:08:42.598] $GPGGA,070842.20,3713.95614916,N,13701.42416781,E,4,11,1.5,97.752,M,36.771,M,3.2,0000*7B
[2021-02-22 16:08:42.613] $GPVTG,98.33,T,106.78,M,0.02,N,0.04,K,D*19
[2021-02-22 16:08:42.692] $GPGGA,070842.30,3713.95614753,N,13701.42417266,E,4,11,1.5,97.745,M,36.771,M,2.3,0000*7E
[2021-02-22 16:08:42.707] $GPVTG,127.39,T,135.84,M,0.03,N,0.05,K,D*25
[2021-02-22 16:08:42.801] $GPGGA,070842.40,3713.95614874,N,13701.42417126,E,4,11,1.5,97.739,M,36.771,M,2.4,0000*78
[2021-02-22 16:08:42.817] $GPVTG,73.28,T,81.73,M,0.01,N,0.02,K,D*26
[2021-02-22 16:08:42.895] $GPGGA,070842.50,3713.95614597,N,13701.42417323,E,4,11,1.5,97.739,M,36.771,M,2.5,0000*7F
[2021-02-22 16:08:42.910] $GPVTG,21.13,T,29.58,M,0.02,N,0.03,K,D*20
[2021-02-22 16:08:43.004] $GPGGA,070842.60,3713.95614988,N,13701.42416817,E,4,11,1.5,97.738,M,36.771,M,2.6,0000*71
[2021-02-22 16:08:43.020] $GPVTG,306.11,T,314.56,M,0.02,N,0.04,K,D*20
[2021-02-22 16:08:43.082] $GPGGA,070842.70,3713.95615002,N,13701.42416793,E,4,11,1.5,97.737,M,36.771,M,2.7,0000*77
[2021-02-22 16:08:43.098] $GPVTG,301.86,T,310.31,M,0.02,N,0.04,K,D*2C
[2021-02-22 16:08:43.192] $GPGGA,070842.80,3713.95614816,N,13701.42416851,E,4,11,1.5,97.738,M,36.771,M,2.8,0000*75
[2021-02-22 16:08:43.207] $GPVTG,295.78,T,304.23,M,0.01,N,0.03,K,D*23
[2021-02-22 16:08:43.285] $GPGGA,070842.90,3713.95614976,N,13701.42416601,E,4,11,1.5,97.736,M,36.771,M,2.9,0000*77
[2021-02-22 16:08:43.316] $GPVTG,339.15,T,347.60,M,0.04,N,0.07,K,D*2E
[2021-02-22 16:08:43.410] $GPGGA,070843.00,3713.95614714,N,13701.42416878,E,4,11,1.5,97.742,M,36.771,M,3.0,0000*7E
[2021-02-22 16:08:43.410] $GPVTG,9.77,T,18.22,M,0.02,N,0.04,K,D*10
[2021-02-22 16:08:43.488] $GPGGA,070843.10,3713.95614618,N,13701.42416828,E,4,11,1.5,97.743,M,36.771,M,3.1,0000*77
[2021-02-22 16:08:43.504] $GPVTG,318.17,T,326.62,M,0.04,N,0.07,K,D*2A
[2021-02-22 16:08:43.598] $GPGGA,070843.20,3713.95614481,N,13701.42417044,E,4,11,1.5,97.742,M,36.771,M,3.2,0000*77
[2021-02-22 16:08:43.613] $GPVTG,323.98,T,332.43,M,0.04,N,0.07,K,D*23
[2021-02-22 16:08:43.692] $GPGGA,070843.30,3713.95614657,N,13701.42416148,E,4,11,1.5,97.752,M,36.771,M,2.3,0000*72
[2021-02-22 16:08:43.692] $GPVTG,338.70,T,347.15,M,0.07,N,0.13,K,D*28
[2021-02-22 16:08:43.801] $GPGGA,070843.40,3713.95614701,N,13701.42416251,E,4,11,1.5,97.752,M,36.771,M,2.4,0000*7B
[2021-02-22 16:08:43.816] $GPVTG,343.04,T,351.49,M,0.08,N,0.15,K,D*20
[2021-02-22 16:08:43.895] $GPGGA,070843.50,3713.95615134,N,13701.42416308,E,4,11,1.5,97.758,M,36.771,M,2.5,0000*7D
[2021-02-22 16:08:43.910] $GPVTG,343.68,T,352.13,M,0.08,N,0.15,K,D*26
[2021-02-22 16:08:44.004] $GPGGA,070843.60,3713.95614879,N,13701.42416293,E,4,11,1.5,97.752,M,36.771,M,2.6,0000*75
[2021-02-22 16:08:44.020] $GPVTG,342.64,T,351.09,M,0.08,N,0.15,K,D*23
[2021-02-22 16:08:44.098] $GPGGA,070843.70,3713.95615070,N,13701.42416368,E,4,11,1.5,97.754,M,36.771,M,2.7,0000*76
[2021-02-22 16:08:44.098] $GPVTG,338.95,T,347.39,M,0.07,N,0.12,K,D*2C
[2021-02-22 16:08:44.207] $GPGGA,070843.80,3713.95614962,N,13701.42416417,E,4,11,1.5,97.752,M,36.771,M,2.8,0000*74
[2021-02-22 16:08:44.207] $GPVTG,344.17,T,352.62,M,0.06,N,0.11,K,D*25
[2021-02-22 16:08:44.285] $GPGGA,070843.90,3713.95615349,N,13701.42416547,E,4,11,1.5,97.753,M,36.771,M,2.9,0000*73
[2021-02-22 16:08:44.301] $GPVTG,354.22,T,2.67,M,0.09,N,0.16,K,D*29
[2021-02-22 16:08:44.395] $GPGGA,070844.00,3713.95615075,N,13701.42416545,E,4,11,1.5,97.757,M,36.771,M,3.0,0000*7F
[2021-02-22 16:08:44.410] $GPVTG,0.28,T,8.73,M,0.06,N,0.11,K,D*26
[2021-02-22 16:08:44.488] $GPGGA,070844.10,3713.95615442,N,13701.42416158,E,4,11,1.5,97.759,M,36.771,M,3.1,0000*79
[2021-02-22 16:08:44.504] $GPVTG,340.87,T,349.32,M,0.06,N,0.12,K,D*24
[2021-02-22 16:08:44.598] $GPGGA,070844.20,3713.95615240,N,13701.42416341,E,4,11,1.5,97.756,M,36.771,M,3.2,0000*78
[2021-02-22 16:08:44.613] $GPVTG,341.94,T,350.39,M,0.04,N,0.07,K,D*22
[2021-02-22 16:08:44.691] $GPGGA,070844.30,3713.95616268,N,13701.42415689,E,4,11,1.5,97.742,M,36.771,M,2.3,0000*77
[2021-02-22 16:08:44.707] $GPVTG,333.09,T,341.54,M,0.04,N,0.07,K,D*28
[2021-02-22 16:08:44.801] $GPGGA,070844.40,3713.95616623,N,13701.42415872,E,4,11,1.5,97.742,M,36.771,M,2.4,0000*76
[2021-02-22 16:08:44.816] $GPVTG,344.86,T,353.31,M,0.03,N,0.05,K,D*2A
[2021-02-22 16:08:44.895] $GPGGA,070844.50,3713.95616391,N,13701.42415748,E,4,11,1.5,97.740,M,36.771,M,2.5,0000*7E
[2021-02-22 16:08:44.910] $GPVTG,307.52,T,315.97,M,0.03,N,0.06,K,D*29
[2021-02-22 16:08:45.004] $GPGGA,070844.60,3713.95616479,N,13701.42416026,E,4,11,1.5,97.744,M,36.771,M,2.6,0000*77
[2021-02-22 16:08:45.004] $GPVTG,314.52,T,322.97,M,0.02,N,0.04,K,D*2C
[2021-02-22 16:08:45.098] $GPGGA,070844.70,3713.95616488,N,13701.42415635,E,4,11,1.5,97.740,M,36.771,M,2.7,0000*7A
[2021-02-22 16:08:45.098] $GPVTG,290.84,T,299.29,M,0.05,N,0.09,K,D*24
[2021-02-22 16:08:45.191] $GPGGA,070844.80,3713.95616549,N,13701.42415801,E,4,11,1.5,97.742,M,36.771,M,2.8,0000*7D
[2021-02-22 16:08:45.207] $GPVTG,295.67,T,304.12,M,0.04,N,0.08,K,D*21
[2021-02-22 16:08:45.285] $GPGGA,070844.90,3713.95616277,N,13701.42415687,E,4,11,1.5,97.745,M,36.771,M,2.9,0000*70
[2021-02-22 16:08:45.301] $GPVTG,276.56,T,285.01,M,0.06,N,0.11,K,D*2E
[2021-02-22 16:08:45.395] $GPGGA,070845.00,3713.95616422,N,13701.42415718,E,4,11,1.5,97.735,M,36.771,M,3.0,0000*76
[2021-02-22 16:08:45.410] $GPVTG,287.48,T,295.93,M,0.06,N,0.10,K,D*24
[2021-02-22 16:08:45.488] $GPGGA,070845.10,3713.95616476,N,13701.42415681,E,4,11,1.5,97.738,M,36.771,M,3.1,0000*7B
[2021-02-22 16:08:45.504] $GPVTG,298.38,T,306.83,M,0.07,N,0.13,K,D*25
[2021-02-22 16:08:45.598] $GPGGA,070845.20,3713.95616745,N,13701.42415106,E,4,11,1.5,97.740,M,36.771,M,3.2,0000*7F
[2021-02-22 16:08:45.613] $GPVTG,298.02,T,306.47,M,0.07,N,0.13,K,D*24
[2021-02-22 16:08:45.691] $GPGGA,070845.30,3713.95616139,N,13701.42415427,E,4,11,1.5,97.740,M,36.771,M,2.3,0000*75
[2021-02-22 16:08:45.707] $GPVTG,273.00,T,281.45,M,0.04,N,0.07,K,D*29
[2021-02-22 16:08:45.801] $GPGGA,070845.40,3713.95616045,N,13701.42415403,E,4,11,1.5,97.736,M,36.771,M,2.4,0000*78
[2021-02-22 16:08:45.816] $GPVTG,283.18,T,291.63,M,0.02,N,0.04,K,D*2F
[2021-02-22 16:08:45.894] $GPGGA,070845.50,3713.95616428,N,13701.42415027,E,4,11,1.5,97.732,M,36.771,M,2.5,0000*71
[2021-02-22 16:08:45.910] $GPVTG,274.52,T,282.97,M,0.04,N,0.07,K,D*25
[2021-02-22 16:08:46.004] $GPGGA,070845.60,3713.95616295,N,13701.42415119,E,4,11,1.5,97.743,M,36.771,M,2.6,0000*7B
[2021-02-22 16:08:46.004] $GPVTG,291.87,T,300.32,M,0.01,N,0.02,K,D*22
[2021-02-22 16:08:46.082] $GPGGA,070845.70,3713.95615769,N,13701.42415787,E,4,11,1.5,97.742,M,36.771,M,2.7,0000*7E
[2021-02-22 16:08:46.113] $GPVTG,115.85,T,124.30,M,0.01,N,0.03,K,D*28
[2021-02-22 16:08:46.191] $GPGGA,070845.80,3713.95616362,N,13701.42415212,E,4,11,1.5,97.738,M,36.771,M,2.8,0000*76
[2021-02-22 16:08:46.207] $GPVTG,67.71,T,76.16,M,0.02,N,0.03,K,D*26
[2021-02-22 16:08:46.285] $GPGGA,070845.90,3713.95615973,N,13701.42415690,E,4,11,1.5,97.740,M,36.771,M,2.9,0000*7E
[2021-02-22 16:08:46.316] $GPVTG,106.44,T,114.89,M,0.03,N,0.05,K,D*22
[2021-02-22 16:08:46.394] $GPGGA,070846.00,3713.95616131,N,13701.42415600,E,4,11,1.5,97.740,M,36.771,M,3.0,0000*78
[2021-02-22 16:08:46.410] $GPVTG,76.45,T,84.90,M,0.02,N,0.04,K,D*25
[2021-02-22 16:08:46.488] $GPGGA,070846.10,3713.95615977,N,13701.42415864,E,4,11,1.5,97.732,M,36.771,M,3.1,0000*78
[2021-02-22 16:08:46.504] $GPVTG,93.42,T,101.87,M,0.04,N,0.08,K,D*19
[2021-02-22 16:08:46.598] $GPGGA,070846.20,3713.95615891,N,13701.42416141,E,4,11,1.5,97.741,M,36.771,M,3.2,0000*78
[2021-02-22 16:08:46.613] $GPVTG,83.95,T,92.40,M,0.04,N,0.07,K,D*2D
[2021-02-22 16:08:46.691] $GPGGA,070846.30,3713.95616169,N,13701.42415761,E,4,11,1.5,97.742,M,36.771,M,3.3,0000*71
[2021-02-22 16:08:46.707] $GPVTG,39.32,T,47.77,M,0.03,N,0.06,K,D*2B
[2021-02-22 16:08:46.801] $GPGGA,070846.40,3713.95615876,N,13701.42415960,E,4,11,1.5,97.742,M,36.771,M,3.4,0000*7A
[2021-02-22 16:08:46.816] $GPVTG,81.71,T,90.16,M,0.03,N,0.05,K,D*21
[2021-02-22 16:08:46.894] $GPGGA,070846.50,3713.95615812,N,13701.42416023,E,4,11,1.5,97.735,M,36.771,M,3.5,0000*75
[2021-02-22 16:08:46.910] $GPVTG,78.19,T,86.64,M,0.03,N,0.05,K,D*2B
[2021-02-22 16:08:47.004] $GPGGA,070846.60,3713.95615461,N,13701.42416133,E,4,11,1.5,97.736,M,36.771,M,3.6,0000*7E
[2021-02-22 16:08:47.019] $GPVTG,125.41,T,133.86,M,0.02,N,0.03,K,D*2B
[2021-02-22 16:08:47.097] $GPGGA,070846.70,3713.95615768,N,13701.42415986,E,4,11,1.5,97.746,M,36.771,M,3.7,0000*76
[2021-02-22 16:08:47.097] $GPVTG,153.29,T,161.74,M,0.01,N,0.02,K,D*2C
[2021-02-22 16:08:47.207] $GPGGA,070846.80,3713.95615433,N,13701.42415866,E,4,11,1.5,97.738,M,36.771,M,3.8,0000*7D
