
[2021-02-22 15:40:36.876] $GPGGA,,,,,,,,,,M,,M,,*56
[2021-02-22 15:40:36.907] $GPVTG,,T,,M,,N,,K,N*2C
[2021-02-22 15:40:36.907] $GPGGA,,,,,,,,,,M,,M,,*56
[2021-02-22 15:40:36.907] $GPVTG,,T,,M,,N,,K,N*2C
[2021-02-22 15:40:36.907] $GPGGA,,,,,,,,,,M,,M,,*56
[2021-02-22 15:40:36.907] $GPVTG,,T,,M,,N,,K,N*2C
[2021-02-22 15:40:36.907] $GPGGA,,,,,,,,,,M,,M,,*56
[2021-02-22 15:40:36.907] $GPVTG,,T,,M,,N,,K,N*2C
[2021-02-22 15:40:36.907] $GPGGA,,,,,,,,,,M,,M,,*56
[2021-02-22 15:40:36.907] $GPVTG,,T,,M,,N,,K,N*2C
[2021-02-22 15:40:36.907] $GPGGA,,,,,,,,,,M,,M,,*56
[2021-02-22 15:40:36.907] $GPVTG,,T,,M,,N,,K,N*2C
[2021-02-22 15:40:36.907] $GPGGA,,,,,,,,,,M,,M,,*56
[2021-02-22 15:40:36.907] $GPVTG,,T,,M,,N,,K,N*2C
[2021-02-22 15:40:36.907] $GPGGA,,,,,,,,,,M,,M,,*56
[2021-02-22 15:40:36.907] $GPVTG,,T,,M,,N,,K,N*2C
[2021-02-22 15:40:36.907] $GPGGA,,,,,,,,,,M,,M,,*56
[2021-02-22 15:40:36.907] $GPVTG,,T,,M,,N,,K,N*2C
[2021-02-22 15:40:36.907] $GPGGA,,,,,,,,,,M,,M,,*56
[2021-02-22 15:40:36.907] $GPVTG,,T,,M,,N,,K,N*2C
[2021-02-22 15:40:36.907] $GPGGA,,,,,,,,,,M,,M,,*56
[2021-02-22 15:40:36.907] $GPVTG,,T,,M,,N,,K,N*2C
[2021-02-22 15:40:36.907] $GPGGA,,,,,,,,,,M,,M,,*56
[2021-02-22 15:40:36.907] $GPVTG,,T,,M,,N,,K,N*2C
[2021-02-22 15:40:36.907] $GPGGA,,,,,,,,,,M,,M,,*56
[2021-02-22 15:40:36.907] $GPVTG,,T,,M,,N,,K,N*2C
[2021-02-22 15:40:36.907] $GPGGA,,,,,,,,,,M,,M,,*56
[2021-02-22 15:40:36.907] $GPVTG,,T,,M,,N,,K,N*2C
[2021-02-22 15:40:36.907] $GPGGA,,,,,,,,,,M,,M,,*56
[2021-02-22 15:40:36.907] $GPVTG,,T,,M,,N,,K,N*2C
[2021-02-22 15:40:36.907] $GPGGA,,,,,,,,,,M,,M,,*56
[2021-02-22 15:40:36.907] $GPVTG,,T,,M,,N,,K,N*2C
[2021-02-22 15:40:36.907] $GPGGA,,,,,,,,,,M,,M,,*56
[2021-02-22 15:40:36.907] $GPVTG,,T,,M,,N,,K,N*2C
[2021-02-22 15:40:36.907] $GPGGA,,,,,,,,,,M,,M,,*56
[2021-02-22 15:40:36.907] $GPVTG,,T,,M,,N,,K,N*2C
[2021-02-22 15:40:36.907] $GPGGA,,,,,,,,,,M,,M,,*56
[2021-02-22 15:40:36.907] $GPVTG,,T,,M,,N,,K,N*2C
[2021-02-22 15:40:36.907] $GPGGA,,,,,,,,,,M,,M,,*56
[2021-02-22 15:40:36.907] $GPVTG,,T,,M,,N,,K,N*2C
[2021-02-22 15:40:36.923] $GPGGA,,,,,,,,,,M,,M,,*56
[2021-02-22 15:40:36.923] $GPVTG,,T,,M,,N,,K,N*2C
[2021-02-22 15:40:36.923] $GPGGA,,,,,,,,,,M,,M,,*56
[2021-02-22 15:40:36.923] $GPVTG,,T,,M,,N,,K,N*2C
[2021-02-22 15:40:36.923] $GPGGA,,,,,,,,,,M,,M,,*56
[2021-02-22 15:40:36.923] $GPVTG,,T,,M,,N,,K,N*2C
[2021-02-22 15:40:36.923] $GPGGA,,,,,,,,,,M,,M,,*56
[2021-02-22 15:40:36.923] $GPVTG,,T,,M,,N,,K,N*2C
[2021-02-22 15:40:36.923] $GPGGA,,,,,,,,,,M,,M,,*56
[2021-02-22 15:40:36.923] $GPVTG,,T,,M,,N,,K,N*2C
[2021-02-22 15:40:36.923] $GPGGA,,,,,,,,,,M,,M,,*56
[2021-02-22 15:40:36.923] $GPVTG,,T,,M,,N,,K,N*2C
[2021-02-22 15:40:36.923] $GPGGA,,,,,,,,,,M,,M,,*56
[2021-02-22 15:40:36.923] $GPVTG,,T,,M,,N,,K,N*2C
[2021-02-22 15:40:36.923] $GPGGA,,,,,,,,,,M,,M,,*56
[2021-02-22 15:40:36.923] $GPVTG,,T,,M,,N,,K,N*2C
[2021-02-22 15:40:36.923] $GPGGA,,,,,,,,,,M,,M,,*56
[2021-02-22 15:40:36.923] $GPVTG,,T,,M,,N,,K,N*2C
[2021-02-22 15:40:36.923] $GPGGA,,,,,,,,,,M,,M,,*56
[2021-02-22 15:40:36.923] $GPVTG,,T,,M,,N,,K,N*2C
[2021-02-22 15:40:36.923] $GPGGA,,,,,,,,,,M,,M,,*56
[2021-02-22 15:40:36.923] $GPVTG,,T,,M,,N,,K,N*2C
[2021-02-22 15:40:36.923] $GPGGA,,,,,,,,,,M,,M,,*56
[2021-02-22 15:40:36.923] $GPVTG,,T,,M,,N,,K,N*2C
[2021-02-22 15:40:36.923] $GPGGA,,,,,,,,,,M,,M,,*56
[2021-02-22 15:40:36.923] $GPVTG,,T,,M,,N,,K,N*2C
[2021-02-22 15:40:36.923] $GPGGA,,,,,,,,,,M,,M,,*56
[2021-02-22 15:40:36.923] $GPVTG,,T,,M,,N,,K,N*2C
[2021-02-22 15:40:36.923] $GPGGA,,,,,,,,,,M,,M,,*56
[2021-02-22 15:40:36.923] $GPVTG,,T,,M,,N,,K,N*2C
[2021-02-22 15:40:36.923] $GPGGA,,,,,,,,,,M,,M,,*56
[2021-02-22 15:40:36.923] $GPVTG,,T,,M,,N,,K,N*2C
[2021-02-22 15:40:36.923] $GPGGA,,,,,,,,,,M,,M,,*56
[2021-02-22 15:40:36.923] $GPVTG,,T,,M,,N,,K,N*2C
[2021-02-22 15:40:36.923] $GPGGA,,,,,,,,,,M,,M,,*56
[2021-02-22 15:40:36.923] $GPVTG,,T,,M,,N,,K,N*2C
[2021-02-22 15:40:36.923] $GPGGA,,,,,,,,,,M,,M,,*56
[2021-02-22 15:40:36.923] $GPVTG,,T,,M,,N,,K,N*2C
[2021-02-22 15:40:36.923] $GPGGA,,,,,,,,,,M,,M,,*56
[2021-02-22 15:40:36.939] $GPVTG,,T,,M,,N,,K,N*2C
[2021-02-22 15:40:36.939] $GPGGA,,,,,,,,,,M,,M,,*56
[2021-02-22 15:40:36.939] $GPVTG,,T,,M,,N,,K,N*2C
[2021-02-22 15:40:36.939] $GPGGA,,,,,,,,,,M,,M,,*56
[2021-02-22 15:40:36.939] $GPVTG,,T,,M,,N,,K,N*2C
[2021-02-22 15:40:36.939] $GPGGA,,,,,,,,,,M,,M,,*56
[2021-02-22 15:40:36.939] $GPVTG,,T,,M,,N,,K,N*2C
[2021-02-22 15:40:36.939] $GPGGA,,,,,,,,,,M,,M,,*56
[2021-02-22 15:40:36.939] $GPVTG,,T,,M,,N,,K,N*2C
[2021-02-22 15:40:36.939] $GPGGA,,,,,,,,,,M,,M,,*56
[2021-02-22 15:40:36.939] $GPVTG,,T,,M,,N,,K,N*2C
[2021-02-22 15:40:36.939] $GPGGA,,,,,,,,,,M,,M,,*56
[2021-02-22 15:40:36.939] $GPVTG,,T,,M,,N,,K,N*2C
[2021-02-22 15:40:36.939] $GPGGA,,,,,,,,,,M,,M,,*56
[2021-02-22 15:40:36.939] $GPVTG,,T,,M,,N,,K,N*2C
[2021-02-22 15:40:36.939] $GPGGA,,,,,,,,,,M,,M,,*56
[2021-02-22 15:40:36.939] $GPVTG,,T,,M,,N,,K,N*2C
[2021-02-22 15:40:36.939] $GPGGA,,,,,,,,,,M,,M,,*56
[2021-02-22 15:40:36.939] $GPVTG,,T,,M,,N,,K,N*2C
[2021-02-22 15:40:36.939] $GPGGA,,,,,,,,,,M,,M,,*56
[2021-02-22 15:40:36.939] $GPVTG,,T,,M,,N,,K,N*2C
[2021-02-22 15:40:36.939] $GPGGA,,,,,,,,,,M,,M,,*56
[2021-02-22 15:40:36.939] $GPVTG,,T,,M,,N,,K,N*2C
[2021-02-22 15:40:36.939] $GPGGA,,,,,,,,,,M,,M,,*56
[2021-02-22 15:40:36.939] $GPVTG,,T,,M,,N,,K,N*2C
[2021-02-22 15:40:36.939] $GPGGA,,,,,,,,,,M,,M,,*56
[2021-02-22 15:40:36.939] $GPVTG,,T,,M,,N,,K,N*2C
[2021-02-22 15:40:36.939] $GPGGA,,,,,,,,,,M,,M,,*56
[2021-02-22 15:40:36.939] $GPVTG,,T,,M,,N,,K,N*2C
[2021-02-22 15:40:36.939] $GPGGA,,,,,,,,,,M,,M,,*56
[2021-02-22 15:40:36.939] $GPVTG,,T,,M,,N,,K,N*2C
[2021-02-22 15:40:36.939] $GPGGA,,,,,,,,,,M,,M,,*56
[2021-02-22 15:40:36.939] $GPVTG,,T,,M,,N,,K,N*2C
[2021-02-22 15:40:36.939] $GPGGA,,,,,,,,,,M,,M,,*56
[2021-02-22 15:40:36.939] $GPVTG,,T,,M,,N,,K,N*2C
[2021-02-22 15:40:36.939] $GPGGA,,,,,,,,,,M,,M,,*56
[2021-02-22 15:40:36.939] $GPVTG,,T,,M,,N,,K,N*2C
[2021-02-22 15:40:36.939] $GPGGA,,,,,,,,,,M,,M,,*56
[2021-02-22 15:40:36.939] $GPVTG,,T,,M,,N,,K,N*2C
[2021-02-22 15:40:36.939] $GPGGA,,,,,,,,,,M,,M,,*56
[2021-02-22 15:40:36.939] $GPVTG,,T,,M,,N,,K,N*2C
[2021-02-22 15:40:36.939] $GPGGA,,,,,,,,,,M,,M,,*56
[2021-02-22 15:40:36.939] $GPVTG,,T,,M,,N,,K,N*2C
[2021-02-22 15:40:36.939] $GPGGA,,,,,,,,,,M,,M,,*56
[2021-02-22 15:40:36.939] $GPVTG,,T,,M,,N,,K,N*2C
[2021-02-22 15:40:36.939] $GPGGA,,,,,,,,,,M,,M,,*56
[2021-02-22 15:40:36.939] $GPVTG,,T,,M,,N,,K,N*2C
[2021-02-22 15:40:36.939] $GPGGA,,,,,,,,,,M,,M,,*56
[2021-02-22 15:40:36.939] $GPVTG,,T,,M,,N,,K,N*2C
[2021-02-22 15:40:36.939] $GPGGA,,,,,,,,,,M,,M,,*56
[2021-02-22 15:40:36.939] $GPVTG,,T,,M,,N,,K,N*2C
[2021-02-22 15:40:36.939] $GPGGA,,,,,,,,,,M,,M,,*56
[2021-02-22 15:40:36.939] $GPVTG,,T,,M,,N,,K,N*2C
[2021-02-22 15:40:36.939] $GPGGA,,,,,,,,,,M,,M,,*56
[2021-02-22 15:40:36.939] $GPVTG,,T,,M,,N,,K,N*2C
[2021-02-22 15:40:36.939] $GPGGA,,,,,,,,,,M,,M,,*56
[2021-02-22 15:40:36.939] $GPVTG,,T,,M,,N,,K,N*2C
[2021-02-22 15:40:36.939] $GPGGA,,,,,,,,,,M,,M,,*56
[2021-02-22 15:40:36.939] $GPVTG,,T,,M,,N,,K,N*2C
[2021-02-22 15:40:36.939] $GPGGA,,,,,,,,,,M,,M,,*56
[2021-02-22 15:40:36.939] $GPVTG,,T,,M,,N,,K,N*2C
[2021-02-22 15:40:36.939] $GPGGA,,,,,,,,,,M,,M,,*56
[2021-02-22 15:40:36.939] $GPVTG,,T,,M,,N,,K,N*2C
[2021-02-22 15:40:36.939] $GPGGA,,,,,,,,,,M,,M,,*56
[2021-02-22 15:40:36.939] $GPVTG,,T,,M,,N,,K,N*2C
[2021-02-22 15:40:36.939] $GPGGA,,,,,,,,,,M,,M,,*56
[2021-02-22 15:40:36.939] $GPVTG,,T,,M,,N,,K,N*2C
[2021-02-22 15:40:36.939] $GPGGA,,,,,,,,,,M,,M,,*56
[2021-02-22 15:40:36.939] $GPVTG,,T,,M,,N,,K,N*2C
[2021-02-22 15:40:36.939] $GPGGA,,,,,,,,,,M,,M,,*56
[2021-02-22 15:40:36.939] $GPVTG,,T,,M,,N,,K,N*2C
[2021-02-22 15:40:36.939] $GPGGA,,,,,,,,,,M,,M,,*56
[2021-02-22 15:40:36.939] $GPVTG,,T,,M,,N,,K,N*2C
[2021-02-22 15:40:36.986] $GPGGA,,,,,,,,,,M,,M,,*56
[2021-02-22 15:40:36.986] $GPVTG,,T,,M,,N,,K,N*2C
[2021-02-22 15:40:37.189] $GPGGA,,,,,,,,,,M,,M,,*56
[2021-02-22 15:40:37.204] $GPVTG,,T,,M,,N,,K,N*2C
[2021-02-22 15:40:37.392] $GPGGA,,,,,,,,,,M,,M,,*56
[2021-02-22 15:40:37.392] $GPVTG,,T,,M,,N,,K,N*2C
[2021-02-22 15:40:37.595] $GPGGA,,,,,,,,,,M,,M,,*56
[2021-02-22 15:40:37.595] $GPVTG,,T,,M,,N,,K,N*2C
[2021-02-22 15:40:37.782] $GPGGA,,,,,,,,,,M,,M,,*56
[2021-02-22 15:40:37.798] $GPVTG,,T,,M,,N,,K,N*2C
[2021-02-22 15:40:37.986] $GPGGA,,,,,,,,,,M,,M,,*56
[2021-02-22 15:40:38.001] $GPVTG,,T,,M,,N,,K,N*2C
[2021-02-22 15:40:38.189] $GPGGA,,,,,,,,,,M,,M,,*56
[2021-02-22 15:40:38.189] $GPVTG,,T,,M,,N,,K,N*2C
[2021-02-22 15:40:38.392] $GPGGA,,,,,,,,,,M,,M,,*56
[2021-02-22 15:40:38.407] $GPVTG,,T,,M,,N,,K,N*2C
[2021-02-22 15:40:38.595] $GPGGA,,,,,,,,,,M,,M,,*56
[2021-02-22 15:40:38.595] $GPVTG,,T,,M,,N,,K,N*2C
[2021-02-22 15:40:38.782] $GPGGA,,,,,,,,,,M,,M,,*56
[2021-02-22 15:40:38.798] $GPVTG,,T,,M,,N,,K,N*2C
[2021-02-22 15:40:38.986] $GPGGA,,,,,,,,,,M,,M,,*56
[2021-02-22 15:40:39.001] $GPVTG,,T,,M,,N,,K,N*2C
[2021-02-22 15:40:39.189] $GPGGA,,,,,,,,,,M,,M,,*56
[2021-02-22 15:40:39.204] $GPVTG,,T,,M,,N,,K,N*2C
[2021-02-22 15:40:39.392] $GPGGA,,,,,,,,,,M,,M,,*56
[2021-02-22 15:40:39.392] $GPVTG,,T,,M,,N,,K,N*2C
[2021-02-22 15:40:39.595] $GPGGA,,,,,,,,,,M,,M,,*56
[2021-02-22 15:40:39.595] $GPVTG,,T,,M,,N,,K,N*2C
[2021-02-22 15:40:39.782] $GPGGA,,,,,,,,,,M,,M,,*56
[2021-02-22 15:40:39.798] $GPVTG,,T,,M,,N,,K,N*2C
[2021-02-22 15:40:39.985] $GPGGA,,,,,,,,,,M,,M,,*56
[2021-02-22 15:40:40.001] $GPVTG,,T,,M,,N,,K,N*2C
[2021-02-22 15:40:40.188] $GPGGA,,,,,,,,,,M,,M,,*56
[2021-02-22 15:40:40.188] $GPVTG,,T,,M,,N,,K,N*2C
[2021-02-22 15:40:40.392] $GPGGA,,,,,,,,,,M,,M,,*56
[2021-02-22 15:40:40.392] $GPVTG,,T,,M,,N,,K,N*2C
[2021-02-22 15:40:40.595] $GPGGA,,,,,,,,,,M,,M,,*56
[2021-02-22 15:40:40.595] $GPVTG,,T,,M,,N,,K,N*2C
[2021-02-22 15:40:40.782] $GPGGA,,,,,,,,,,M,,M,,*56
[2021-02-22 15:40:40.798] $GPVTG,,T,,M,,N,,K,N*2C
[2021-02-22 15:40:40.985] $GPGGA,,,,,,,,,,M,,M,,*56
[2021-02-22 15:40:41.001] $GPVTG,,T,,M,,N,,K,N*2C
[2021-02-22 15:40:41.188] $GPGGA,,,,,,,,,,M,,M,,*56
[2021-02-22 15:40:41.204] $GPVTG,,T,,M,,N,,K,N*2C
[2021-02-22 15:40:41.392] $GPGGA,,,,,,,,,,M,,M,,*56
[2021-02-22 15:40:41.392] $GPVTG,,T,,M,,N,,K,N*2C
[2021-02-22 15:40:41.595] $GPGGA,,,,,,,,,,M,,M,,*56
[2021-02-22 15:40:41.595] $GPVTG,,T,,M,,N,,K,N*2C
[2021-02-22 15:40:41.782] $GPGGA,,,,,,,,,,M,,M,,*56
[2021-02-22 15:40:41.798] $GPVTG,,T,,M,,N,,K,N*2C
[2021-02-22 15:40:41.985] $GPGGA,,,,,,,,,,M,,M,,*56
[2021-02-22 15:40:42.001] $GPVTG,,T,,M,,N,,K,N*2C
[2021-02-22 15:40:42.188] $GPGGA,,,,,,,,,,M,,M,,*56
[2021-02-22 15:40:42.188] $GPVTG,,T,,M,,N,,K,N*2C
[2021-02-22 15:40:42.392] $GPGGA,,,,,,,,,,M,,M,,*56
[2021-02-22 15:40:42.392] $GPVTG,,T,,M,,N,,K,N*2C
[2021-02-22 15:40:42.595] $GPGGA,,,,,,,,,,M,,M,,*56
[2021-02-22 15:40:42.595] $GPVTG,,T,,M,,N,,K,N*2C
[2021-02-22 15:40:42.782] $GPGGA,,,,,,,,,,M,,M,,*56
[2021-02-22 15:40:42.798] $GPVTG,,T,,M,,N,,K,N*2C
[2021-02-22 15:40:42.985] $GPGGA,,,,,,,,,,M,,M,,*56
[2021-02-22 15:40:43.001] $GPVTG,,T,,M,,N,,K,N*2C
[2021-02-22 15:40:43.188] $GPGGA,,,,,,,,,,M,,M,,*56
[2021-02-22 15:40:43.204] $GPVTG,,T,,M,,N,,K,N*2C
[2021-02-22 15:40:43.391] $GPGGA,,,,,,,,,,M,,M,,*56
[2021-02-22 15:40:43.391] $GPVTG,,T,,M,,N,,K,N*2C
[2021-02-22 15:40:43.595] $GPGGA,,,,,,,,,,M,,M,,*56
[2021-02-22 15:40:43.595] $GPVTG,,T,,M,,N,,K,N*2C
[2021-02-22 15:40:43.798] $GPGGA,,,,,,,,,,M,,M,,*56
[2021-02-22 15:40:43.798] $GPVTG,,T,,M,,N,,K,N*2C
[2021-02-22 15:40:43.985] $GPGGA,,,,,,,,,,M,,M,,*56
[2021-02-22 15:40:44.001] $GPVTG,,T,,M,,N,,K,N*2C
[2021-02-22 15:40:44.188] $GPGGA,,,,,,,,,,M,,M,,*56
[2021-02-22 15:40:44.188] $GPVTG,,T,,M,,N,,K,N*2C
[2021-02-22 15:40:44.391] $GPGGA,,,,,,,,,,M,,M,,*56
[2021-02-22 15:40:44.391] $GPVTG,,T,,M,,N,,K,N*2C
[2021-02-22 15:40:44.594] $GPGGA,,,,,,,,,,M,,M,,*56
[2021-02-22 15:40:44.594] $GPVTG,,T,,M,,N,,K,N*2C
[2021-02-22 15:40:44.798] $GPGGA,,,,,,,,,,M,,M,,*56
[2021-02-22 15:40:44.798] $GPVTG,,T,,M,,N,,K,N*2C
[2021-02-22 15:40:44.985] $GPGGA,,,,,,,,,,M,,M,,*56
[2021-02-22 15:40:45.001] $GPVTG,,T,,M,,N,,K,N*2C
[2021-02-22 15:40:45.188] $GPGGA,,,,,,,,,,M,,M,,*56
[2021-02-22 15:40:45.204] $GPVTG,,T,,M,,N,,K,N*2C
[2021-02-22 15:40:45.391] $GPGGA,,,,,,,,,,M,,M,,*56
[2021-02-22 15:40:45.391] $GPVTG,,T,,M,,N,,K,N*2C
[2021-02-22 15:40:45.594] $GPGGA,,,,,,,,,,M,,M,,*56
[2021-02-22 15:40:45.594] $GPVTG,,T,,M,,N,,K,N*2C
[2021-02-22 15:40:45.782] $GPGGA,,,,,,,,,,M,,M,,*56
[2021-02-22 15:40:45.797] $GPVTG,,T,,M,,N,,K,N*2C
[2021-02-22 15:40:45.985] $GPGGA,,,,,,,,,,M,,M,,*56
[2021-02-22 15:40:46.001] $GPVTG,,T,,M,,N,,K,N*2C
[2021-02-22 15:40:46.188] $GPGGA,,,,,,,,,,M,,M,,*56
[2021-02-22 15:40:46.204] $GPVTG,,T,,M,,N,,K,N*2C
[2021-02-22 15:40:46.391] $GPGGA,,,,,,,,,,M,,M,,*56
[2021-02-22 15:40:46.391] $GPVTG,,T,,M,,N,,K,N*2C
[2021-02-22 15:40:46.594] $GPGGA,,,,,,,,,,M,,M,,*56
[2021-02-22 15:40:46.594] $GPVTG,,T,,M,,N,,K,N*2C
[2021-02-22 15:40:46.797] $GPGGA,,,,,,,,,,M,,M,,*56
[2021-02-22 15:40:46.797] $GPVTG,,T,,M,,N,,K,N*2C
[2021-02-22 15:40:46.985] $GPGGA,,,,,,,,,,M,,M,,*56
[2021-02-22 15:40:47.001] $GPVTG,,T,,M,,N,,K,N*2C
[2021-02-22 15:40:47.188] $GPGGA,,,,,,,,,,M,,M,,*56
[2021-02-22 15:40:47.204] $GPVTG,,T,,M,,N,,K,N*2C
[2021-02-22 15:40:47.391] $GPGGA,,,,,,,,,,M,,M,,*56
[2021-02-22 15:40:47.391] $GPVTG,,T,,M,,N,,K,N*2C
[2021-02-22 15:40:47.594] $GPGGA,,,,,,,,,,M,,M,,*56
[2021-02-22 15:40:47.594] $GPVTG,,T,,M,,N,,K,N*2C
[2021-02-22 15:40:47.782] $GPGGA,,,,,,,,,,M,,M,,*56
[2021-02-22 15:40:47.797] $GPVTG,,T,,M,,N,,K,N*2C
[2021-02-22 15:40:47.985] $GPGGA,,,,,,,,,,M,,M,,*56
[2021-02-22 15:40:48.000] $GPVTG,,T,,M,,N,,K,N*2C
[2021-02-22 15:40:48.188] $GPGGA,,,,,,,,,,M,,M,,*56
[2021-02-22 15:40:48.204] $GPVTG,,T,,M,,N,,K,N*2C
[2021-02-22 15:40:48.391] $GPGGA,,,,,,,,,,M,,M,,*56
[2021-02-22 15:40:48.391] $GPVTG,,T,,M,,N,,K,N*2C
[2021-02-22 15:40:48.594] $GPGGA,,,,,,,,,,M,,M,,*56
[2021-02-22 15:40:48.594] $GPVTG,,T,,M,,N,,K,N*2C
[2021-02-22 15:40:48.797] $GPGGA,,,,,,,,,,M,,M,,*56
[2021-02-22 15:40:48.797] $GPVTG,,T,,M,,N,,K,N*2C
[2021-02-22 15:40:48.985] $GPGGA,,,,,,,,,,M,,M,,*56
[2021-02-22 15:40:49.000] $GPVTG,,T,,M,,N,,K,N*2C
[2021-02-22 15:40:49.188] $GPGGA,,,,,,,,,,M,,M,,*56
[2021-02-22 15:40:49.203] $GPVTG,,T,,M,,N,,K,N*2C
[2021-02-22 15:40:49.391] $GPGGA,,,,,,,,,,M,,M,,*56
[2021-02-22 15:40:49.391] $GPVTG,,T,,M,,N,,K,N*2C
[2021-02-22 15:40:49.594] $GPGGA,,,,,,,,,,M,,M,,*56
[2021-02-22 15:40:49.594] $GPVTG,,T,,M,,N,,K,N*2C
[2021-02-22 15:40:49.782] $GPGGA,,,,,,,,,,M,,M,,*56
[2021-02-22 15:40:49.797] $GPVTG,,T,,M,,N,,K,N*2C
[2021-02-22 15:40:49.985] $GPGGA,,,,,,,,,,M,,M,,*56
[2021-02-22 15:40:50.000] $GPVTG,,T,,M,,N,,K,N*2C
[2021-02-22 15:40:50.188] $GPGGA,,,,,,,,,,M,,M,,*56
[2021-02-22 15:40:50.203] $GPVTG,,T,,M,,N,,K,N*2C
[2021-02-22 15:40:50.391] $GPGGA,,,,,,,,,,M,,M,,*56
[2021-02-22 15:40:50.391] $GPVTG,,T,,M,,N,,K,N*2C
[2021-02-22 15:40:50.594] $GPGGA,,,,,,,,,,M,,M,,*56
[2021-02-22 15:40:50.594] $GPVTG,,T,,M,,N,,K,N*2C
[2021-02-22 15:40:50.782] $GPGGA,,,,,,,,,,M,,M,,*56
[2021-02-22 15:40:50.797] $GPVTG,,T,,M,,N,,K,N*2C
[2021-02-22 15:40:50.985] $GPGGA,,,,,,,,,,M,,M,,*56
[2021-02-22 15:40:51.000] $GPVTG,,T,,M,,N,,K,N*2C
[2021-02-22 15:40:51.188] $GPGGA,,,,,,,,,,M,,M,,*56
[2021-02-22 15:40:51.203] $GPVTG,,T,,M,,N,,K,N*2C
[2021-02-22 15:40:51.391] $GPGGA,,,,,,,,,,M,,M,,*56
[2021-02-22 15:40:51.391] $GPVTG,,T,,M,,N,,K,N*2C
[2021-02-22 15:40:51.594] $GPGGA,,,,,,,,,,M,,M,,*56
[2021-02-22 15:40:51.594] $GPVTG,,T,,M,,N,,K,N*2C
[2021-02-22 15:40:51.797] $GPGGA,,,,,,,,,,M,,M,,*56
[2021-02-22 15:40:51.797] $GPVTG,,T,,M,,N,,K,N*2C
[2021-02-22 15:40:51.985] $GPGGA,,,,,,,,,,M,,M,,*56
[2021-02-22 15:40:52.000] $GPVTG,,T,,M,,N,,K,N*2C
[2021-02-22 15:40:52.188] $GPGGA,,,,,,,,,,M,,M,,*56
[2021-02-22 15:40:52.188] $GPVTG,,T,,M,,N,,K,N*2C
[2021-02-22 15:40:52.391] $GPGGA,,,,,,,,,,M,,M,,*56
[2021-02-22 15:40:52.391] $GPVTG,,T,,M,,N,,K,N*2C
[2021-02-22 15:40:52.594] $GPGGA,,,,,,,,,,M,,M,,*56
[2021-02-22 15:40:52.594] $GPVTG,,T,,M,,N,,K,N*2C
[2021-02-22 15:40:52.781] $GPGGA,,,,,,,,,,M,,M,,*56
[2021-02-22 15:40:52.797] $GPVTG,,T,,M,,N,,K,N*2C
[2021-02-22 15:40:52.984] $GPGGA,,,,,,,,,,M,,M,,*56
[2021-02-22 15:40:53.000] $GPVTG,,T,,M,,N,,K,N*2C
[2021-02-22 15:40:53.188] $GPGGA,,,,,,,,,,M,,M,,*56
[2021-02-22 15:40:53.203] $GPVTG,,T,,M,,N,,K,N*2C
[2021-02-22 15:40:53.391] $GPGGA,,,,,,,,,,M,,M,,*56
[2021-02-22 15:40:53.406] $GPVTG,,T,,M,,N,,K,N*2C
[2021-02-22 15:40:53.594] $GPGGA,,,,,,,,,,M,,M,,*56
[2021-02-22 15:40:53.594] $GPVTG,,T,,M,,N,,K,N*2C
[2021-02-22 15:40:53.797] $GPGGA,,,,,,,,,,M,,M,,*56
[2021-02-22 15:40:53.813] $GPVTG,,T,,M,,N,,K,N*2C
[2021-02-22 15:40:53.984] $GPGGA,,,,,,,,,,M,,M,,*56
[2021-02-22 15:40:54.000] $GPVTG,,T,,M,,N,,K,N*2C
[2021-02-22 15:40:54.188] $GPGGA,,,,,,,,,,M,,M,,*56
[2021-02-22 15:40:54.203] $GPVTG,,T,,M,,N,,K,N*2C
[2021-02-22 15:40:54.391] $GPGGA,,,,,,,,,,M,,M,,*56
[2021-02-22 15:40:54.406] $GPVTG,,T,,M,,N,,K,N*2C
[2021-02-22 15:40:54.594] $GPGGA,,,,,,,,,,M,,M,,*56
[2021-02-22 15:40:54.594] $GPVTG,,T,,M,,N,,K,N*2C
[2021-02-22 15:40:54.797] $GPGGA,,,,,,,,,,M,,M,,*56
[2021-02-22 15:40:54.797] $GPVTG,,T,,M,,N,,K,N*2C
[2021-02-22 15:40:54.984] $GPGGA,,,,,,,,,,M,,M,,*56
[2021-02-22 15:40:55.000] $GPVTG,,T,,M,,N,,K,N*2C
[2021-02-22 15:40:55.187] $GPGGA,,,,,,,,,,M,,M,,*56
[2021-02-22 15:40:55.203] $GPVTG,,T,,M,,N,,K,N*2C
[2021-02-22 15:40:55.391] $GPGGA,,,,,,,,,,M,,M,,*56
[2021-02-22 15:40:55.406] $GPVTG,,T,,M,,N,,K,N*2C
[2021-02-22 15:40:55.594] $GPGGA,,,,,,,,,,M,,M,,*56
[2021-02-22 15:40:55.594] $GPVTG,,T,,M,,N,,K,N*2C
[2021-02-22 15:40:55.781] $GPGGA,,,,,,,,,,M,,M,,*56
[2021-02-22 15:40:55.797] $GPVTG,,T,,M,,N,,K,N*2C
[2021-02-22 15:40:55.984] $GPGGA,,,,,,,,,,M,,M,,*56
[2021-02-22 15:40:56.000] $GPVTG,,T,,M,,N,,K,N*2C
[2021-02-22 15:40:56.187] $GPGGA,,,,,,,,,,M,,M,,*56
[2021-02-22 15:40:56.203] $GPVTG,,T,,M,,N,,K,N*2C
[2021-02-22 15:40:56.391] $GPGGA,,,,,,,,,,M,,M,,*56
[2021-02-22 15:40:56.391] $GPVTG,,T,,M,,N,,K,N*2C
[2021-02-22 15:40:56.594] $GPGGA,,,,,,,,,,M,,M,,*56
[2021-02-22 15:40:56.594] $GPVTG,,T,,M,,N,,K,N*2C
[2021-02-22 15:40:56.797] $GPGGA,,,,,,,,,,M,,M,,*56
[2021-02-22 15:40:56.797] $GPVTG,,T,,M,,N,,K,N*2C
[2021-02-22 15:40:56.984] $GPGGA,,,,,,,,,,M,,M,,*56
[2021-02-22 15:40:57.000] $GPVTG,,T,,M,,N,,K,N*2C
[2021-02-22 15:40:57.187] $GPGGA,,,,,,,,,,M,,M,,*56
[2021-02-22 15:40:57.203] $GPVTG,,T,,M,,N,,K,N*2C
[2021-02-22 15:40:57.390] $GPGGA,,,,,,,,,,M,,M,,*56
[2021-02-22 15:40:57.406] $GPVTG,,T,,M,,N,,K,N*2C
[2021-02-22 15:40:57.594] $GPGGA,,,,,,,,,,M,,M,,*56
[2021-02-22 15:40:57.594] $GPVTG,,T,,M,,N,,K,N*2C
[2021-02-22 15:40:57.781] $GPGGA,,,,,,,,,,M,,M,,*56
[2021-02-22 15:40:57.797] $GPVTG,,T,,M,,N,,K,N*2C
[2021-02-22 15:40:57.984] $GPGGA,,,,,,,,,,M,,M,,*56
[2021-02-22 15:40:58.000] $GPVTG,,T,,M,,N,,K,N*2C
[2021-02-22 15:40:58.187] $GPGGA,,,,,,,,,,M,,M,,*56
[2021-02-22 15:40:58.203] $GPVTG,,T,,M,,N,,K,N*2C
[2021-02-22 15:40:58.390] $GPGGA,,,,,,,,,,M,,M,,*56
[2021-02-22 15:40:58.390] $GPVTG,,T,,M,,N,,K,N*2C
[2021-02-22 15:40:58.594] $GPGGA,,,,,,,,,,M,,M,,*56
[2021-02-22 15:40:58.594] $GPVTG,,T,,M,,N,,K,N*2C
[2021-02-22 15:40:58.797] $GPGGA,,,,,,,,,,M,,M,,*56
[2021-02-22 15:40:58.797] $GPVTG,,T,,M,,N,,K,N*2C
[2021-02-22 15:40:58.984] $GPGGA,,,,,,,,,,M,,M,,*56
[2021-02-22 15:40:59.000] $GPVTG,,T,,M,,N,,K,N*2C
[2021-02-22 15:40:59.187] $GPGGA,,,,,,,,,,M,,M,,*56
[2021-02-22 15:40:59.187] $GPVTG,,T,,M,,N,,K,N*2C
[2021-02-22 15:40:59.390] $GPGGA,,,,,,,,,,M,,M,,*56
[2021-02-22 15:40:59.406] $GPVTG,,T,,M,,N,,K,N*2C
[2021-02-22 15:40:59.593] $GPGGA,,,,,,,,,,M,,M,,*56
[2021-02-22 15:40:59.593] $GPVTG,,T,,M,,N,,K,N*2C
[2021-02-22 15:40:59.797] $GPGGA,,,,,,,,,,M,,M,,*56
[2021-02-22 15:40:59.797] $GPVTG,,T,,M,,N,,K,N*2C
[2021-02-22 15:40:59.984] $GPGGA,,,,,,,,,,M,,M,,*56
[2021-02-22 15:41:00.000] $GPVTG,,T,,M,,N,,K,N*2C
[2021-02-22 15:41:00.187] $GPGGA,,,,,,,,,,M,,M,,*56
[2021-02-22 15:41:00.203] $GPVTG,,T,,M,,N,,K,N*2C
[2021-02-22 15:41:00.390] $GPGGA,,,,,,,,,,M,,M,,*56
[2021-02-22 15:41:00.390] $GPVTG,,T,,M,,N,,K,N*2C
[2021-02-22 15:41:00.593] $GPGGA,,,,,,,,,,M,,M,,*56
[2021-02-22 15:41:00.593] $GPVTG,,T,,M,,N,,K,N*2C
[2021-02-22 15:41:00.796] $GPGGA,,,,,,,,,,M,,M,,*56
[2021-02-22 15:41:00.796] $GPVTG,,T,,M,,N,,K,N*2C
[2021-02-22 15:41:00.984] $GPGGA,,,,,,,,,,M,,M,,*56
[2021-02-22 15:41:01.000] $GPVTG,,T,,M,,N,,K,N*2C
[2021-02-22 15:41:01.187] $GPGGA,,,,,,,,,,M,,M,,*56
[2021-02-22 15:41:01.187] $GPVTG,,T,,M,,N,,K,N*2C
[2021-02-22 15:41:01.390] $GPGGA,,,,,,,,,,M,,M,,*56
[2021-02-22 15:41:01.390] $GPVTG,,T,,M,,N,,K,N*2C
[2021-02-22 15:41:01.593] $GPGGA,,,,,,,,,,M,,M,,*56
[2021-02-22 15:41:01.593] $GPVTG,,T,,M,,N,,K,N*2C
[2021-02-22 15:41:01.796] $GPGGA,,,,,,,,,,M,,M,,*56
[2021-02-22 15:41:01.796] $GPVTG,,T,,M,,N,,K,N*2C
[2021-02-22 15:41:01.984] $GPGGA,,,,,,,,,,M,,M,,*56
[2021-02-22 15:41:01.999] $GPVTG,,T,,M,,N,,K,N*2C
[2021-02-22 15:41:02.187] $GPGGA,,,,,,,,,,M,,M,,*56
[2021-02-22 15:41:02.203] $GPVTG,,T,,M,,N,,K,N*2C
[2021-02-22 15:41:02.390] $GPGGA,,,,,,,,,,M,,M,,*56
[2021-02-22 15:41:02.390] $GPVTG,,T,,M,,N,,K,N*2C
[2021-02-22 15:41:02.593] $GPGGA,,,,,,,,,,M,,M,,*56
[2021-02-22 15:41:02.593] $GPVTG,,T,,M,,N,,K,N*2C
[2021-02-22 15:41:02.781] $GPGGA,,,,,,,,,,M,,M,,*56
[2021-02-22 15:41:02.796] $GPVTG,,T,,M,,N,,K,N*2C
[2021-02-22 15:41:02.984] $GPGGA,,,,,,,,,,M,,M,,*56
[2021-02-22 15:41:02.999] $GPVTG,,T,,M,,N,,K,N*2C
[2021-02-22 15:41:03.187] $GPGGA,,,,,,,,,,M,,M,,*56
[2021-02-22 15:41:03.187] $GPVTG,,T,,M,,N,,K,N*2C
[2021-02-22 15:41:03.390] $GPGGA,,,,,,,,,,M,,M,,*56
[2021-02-22 15:41:03.406] $GPVTG,,T,,M,,N,,K,N*2C
[2021-02-22 15:41:03.593] $GPGGA,,,,,,,,,,M,,M,,*56
[2021-02-22 15:41:03.593] $GPVTG,,T,,M,,N,,K,N*2C
[2021-02-22 15:41:03.796] $GPGGA,,,,,,,,,,M,,M,,*56
[2021-02-22 15:41:03.796] $GPVTG,,T,,M,,N,,K,N*2C
[2021-02-22 15:41:03.984] $GPGGA,,,,,,,,,,M,,M,,*56
[2021-02-22 15:41:03.999] $GPVTG,,T,,M,,N,,K,N*2C
[2021-02-22 15:41:04.187] $GPGGA,,,,,,,,,,M,,M,,*56
[2021-02-22 15:41:04.202] $GPVTG,,T,,M,,N,,K,N*2C
[2021-02-22 15:41:04.390] $GPGGA,,,,,,,,,,M,,M,,*56
[2021-02-22 15:41:04.390] $GPVTG,,T,,M,,N,,K,N*2C
[2021-02-22 15:41:04.593] $GPGGA,,,,,,,,,,M,,M,,*56
[2021-02-22 15:41:04.593] $GPVTG,,T,,M,,N,,K,N*2C
[2021-02-22 15:41:04.796] $GPGGA,,,,,,,,,,M,,M,,*56
[2021-02-22 15:41:04.796] $GPVTG,,T,,M,,N,,K,N*2C
[2021-02-22 15:41:04.984] $GPGGA,,,,,,,,,,M,,M,,*56
[2021-02-22 15:41:04.999] $GPVTG,,T,,M,,N,,K,N*2C
[2021-02-22 15:41:05.187] $GPGGA,,,,,,,,,,M,,M,,*56
[2021-02-22 15:41:05.202] $GPVTG,,T,,M,,N,,K,N*2C
[2021-02-22 15:41:05.390] $GPGGA,,,,,,,,,,M,,M,,*56
[2021-02-22 15:41:05.406] $GPVTG,,T,,M,,N,,K,N*2C
[2021-02-22 15:41:05.593] $GPGGA,,,,,,,,,,M,,M,,*56
[2021-02-22 15:41:05.593] $GPVTG,,T,,M,,N,,K,N*2C
[2021-02-22 15:41:05.796] $GPGGA,,,,,,,,,,M,,M,,*56
[2021-02-22 15:41:05.796] $GPVTG,,T,,M,,N,,K,N*2C
[2021-02-22 15:41:05.984] $GPGGA,,,,,,,,,,M,,M,,*56
[2021-02-22 15:41:05.999] $GPVTG,,T,,M,,N,,K,N*2C
[2021-02-22 15:41:06.187] $GPGGA,,,,,,,,,,M,,M,,*56
[2021-02-22 15:41:06.202] $GPVTG,,T,,M,,N,,K,N*2C
[2021-02-22 15:41:06.390] $GPGGA,,,,,,,,,,M,,M,,*56
[2021-02-22 15:41:06.390] $GPVTG,,T,,M,,N,,K,N*2C
[2021-02-22 15:41:06.593] $GPGGA,,,,,,,,,,M,,M,,*56
[2021-02-22 15:41:06.593] $GPVTG,,T,,M,,N,,K,N*2C
[2021-02-22 15:41:06.796] $GPGGA,,,,,,,,,,M,,M,,*56
[2021-02-22 15:41:06.796] $GPVTG,,T,,M,,N,,K,N*2C
[2021-02-22 15:41:06.984] $GPGGA,,,,,,,,,,M,,M,,*56
[2021-02-22 15:41:06.999] $GPVTG,,T,,M,,N,,K,N*2C
[2021-02-22 15:41:07.187] $GPGGA,,,,,,,,,,M,,M,,*56
[2021-02-22 15:41:07.202] $GPVTG,,T,,M,,N,,K,N*2C
[2021-02-22 15:41:07.390] $GPGGA,,,,,,,,,,M,,M,,*56
[2021-02-22 15:41:07.405] $GPVTG,,T,,M,,N,,K,N*2C
[2021-02-22 15:41:07.593] $GPGGA,,,,,,,,,,M,,M,,*56
[2021-02-22 15:41:07.593] $GPVTG,,T,,M,,N,,K,N*2C
[2021-02-22 15:41:07.796] $GPGGA,,,,,,,,,,M,,M,,*56
[2021-02-22 15:41:07.796] $GPVTG,,T,,M,,N,,K,N*2C
[2021-02-22 15:41:07.983] $GPGGA,,,,,,,,,,M,,M,,*56
[2021-02-22 15:41:07.999] $GPVTG,,T,,M,,N,,K,N*2C
[2021-02-22 15:41:08.187] $GPGGA,,,,,,,,,,M,,M,,*56
[2021-02-22 15:41:08.202] $GPVTG,,T,,M,,N,,K,N*2C
[2021-02-22 15:41:08.390] $GPGGA,,,,,,,,,,M,,M,,*56
[2021-02-22 15:41:08.390] $GPVTG,,T,,M,,N,,K,N*2C
[2021-02-22 15:41:08.593] $GPGGA,,,,,,,,,,M,,M,,*56
[2021-02-22 15:41:08.608] $GPVTG,,T,,M,,N,,K,N*2C
[2021-02-22 15:41:08.796] $GPGGA,,,,,,,,,,M,,M,,*56
[2021-02-22 15:41:08.796] $GPVTG,,T,,M,,N,,K,N*2C
[2021-02-22 15:41:08.983] $GPGGA,,,,,,,,,,M,,M,,*56
[2021-02-22 15:41:08.999] $GPVTG,,T,,M,,N,,K,N*2C
[2021-02-22 15:41:09.186] $GPGGA,,,,,,,,,,M,,M,,*56
[2021-02-22 15:41:09.186] $GPVTG,,T,,M,,N,,K,N*2C
[2021-02-22 15:41:09.390] $GPGGA,,,,,,,,,,M,,M,,*56
[2021-02-22 15:41:09.405] $GPVTG,,T,,M,,N,,K,N*2C
[2021-02-22 15:41:09.593] $GPGGA,,,,,,,,,,M,,M,,*56
[2021-02-22 15:41:09.593] $GPVTG,,T,,M,,N,,K,N*2C
[2021-02-22 15:41:09.780] $GPGGA,,,,,,,,,,M,,M,,*56
[2021-02-22 15:41:09.796] $GPVTG,,T,,M,,N,,K,N*2C
[2021-02-22 15:41:09.983] $GPGGA,,,,,,,,,,M,,M,,*56
[2021-02-22 15:41:09.999] $GPVTG,,T,,M,,N,,K,N*2C
[2021-02-22 15:41:10.186] $GPGGA,,,,,,,,,,M,,M,,*56
[2021-02-22 15:41:10.202] $GPVTG,,T,,M,,N,,K,N*2C
[2021-02-22 15:41:10.390] $GPGGA,,,,,,,,,,M,,M,,*56
[2021-02-22 15:41:10.390] $GPVTG,,T,,M,,N,,K,N*2C
[2021-02-22 15:41:10.593] $GPGGA,,,,,,,,,,M,,M,,*56
[2021-02-22 15:41:10.593] $GPVTG,,T,,M,,N,,K,N*2C
[2021-02-22 15:41:10.796] $GPGGA,,,,,,,,,,M,,M,,*56
[2021-02-22 15:41:10.796] $GPVTG,,T,,M,,N,,K,N*2C
[2021-02-22 15:41:10.983] $GPGGA,,,,,,,,,,M,,M,,*56
[2021-02-22 15:41:10.999] $GPVTG,,T,,M,,N,,K,N*2C
[2021-02-22 15:41:11.186] $GPGGA,,,,,,,,,,M,,M,,*56
[2021-02-22 15:41:11.202] $GPVTG,,T,,M,,N,,K,N*2C
[2021-02-22 15:41:11.390] $GPGGA,,,,,,,,,,M,,M,,*56
[2021-02-22 15:41:11.405] $GPVTG,,T,,M,,N,,K,N*2C
[2021-02-22 15:41:11.593] $GPGGA,,,,,,,,,,M,,M,,*56
[2021-02-22 15:41:11.593] $GPVTG,,T,,M,,N,,K,N*2C
[2021-02-22 15:41:11.796] $GPGGA,,,,,,,,,,M,,M,,*56
[2021-02-22 15:41:11.796] $GPVTG,,T,,M,,N,,K,N*2C
[2021-02-22 15:41:11.983] $GPGGA,,,,,,,,,,M,,M,,*56
[2021-02-22 15:41:11.999] $GPVTG,,T,,M,,N,,K,N*2C
[2021-02-22 15:41:12.186] $GPGGA,,,,,,,,,,M,,M,,*56
[2021-02-22 15:41:12.202] $GPVTG,,T,,M,,N,,K,N*2C
[2021-02-22 15:41:12.389] $GPGGA,,,,,,,,,,M,,M,,*56
[2021-02-22 15:41:12.405] $GPVTG,,T,,M,,N,,K,N*2C
[2021-02-22 15:41:12.593] $GPGGA,,,,,,,,,,M,,M,,*56
[2021-02-22 15:41:12.608] $GPVTG,,T,,M,,N,,K,N*2C
[2021-02-22 15:41:12.796] $GPGGA,,,,,,,,,,M,,M,,*56
[2021-02-22 15:41:12.796] $GPVTG,,T,,M,,N,,K,N*2C
[2021-02-22 15:41:12.999] $GPGGA,,,,,,,,,,M,,M,,*56
[2021-02-22 15:41:12.999] $GPVTG,,T,,M,,N,,K,N*2C
[2021-02-22 15:41:13.186] $GPGGA,,,,,,,,,,M,,M,,*56
[2021-02-22 15:41:13.202] $GPVTG,,T,,M,,N,,K,N*2C
[2021-02-22 15:41:13.389] $GPGGA,,,,,,,,,,M,,M,,*56
[2021-02-22 15:41:13.405] $GPVTG,,T,,M,,N,,K,N*2C
[2021-02-22 15:41:13.592] $GPGGA,,,,,,,,,,M,,M,,*56
[2021-02-22 15:41:13.592] $GPVTG,,T,,M,,N,,K,N*2C
[2021-02-22 15:41:13.796] $GPGGA,,,,,,,,,,M,,M,,*56
[2021-02-22 15:41:13.796] $GPVTG,,T,,M,,N,,K,N*2C
[2021-02-22 15:41:13.983] $GPGGA,,,,,,,,,,M,,M,,*56
[2021-02-22 15:41:13.999] $GPVTG,,T,,M,,N,,K,N*2C
[2021-02-22 15:41:14.186] $GPGGA,,,,,,,,,,M,,M,,*56
[2021-02-22 15:41:14.202] $GPVTG,,T,,M,,N,,K,N*2C
[2021-02-22 15:41:14.389] $GPGGA,,,,,,,,,,M,,M,,*56
[2021-02-22 15:41:14.389] $GPVTG,,T,,M,,N,,K,N*2C
[2021-02-22 15:41:14.592] $GPGGA,,,,,,,,,,M,,M,,*56
[2021-02-22 15:41:14.608] $GPVTG,,T,,M,,N,,K,N*2C
[2021-02-22 15:41:14.795] $GPGGA,,,,,,,,,,M,,M,,*56
[2021-02-22 15:41:14.795] $GPVTG,,T,,M,,N,,K,N*2C
[2021-02-22 15:41:14.999] $GPGGA,,,,,,,,,,M,,M,,*56
[2021-02-22 15:41:14.999] $GPVTG,,T,,M,,N,,K,N*2C
[2021-02-22 15:41:15.186] $GPGGA,,,,,,,,,,M,,M,,*56
[2021-02-22 15:41:15.186] $GPVTG,,T,,M,,N,,K,N*2C
[2021-02-22 15:41:15.389] $GPGGA,,,,,,,,,,M,,M,,*56
[2021-02-22 15:41:15.405] $GPVTG,,T,,M,,N,,K,N*2C
[2021-02-22 15:41:15.592] $GPGGA,,,,,,,,,,M,,M,,*56
[2021-02-22 15:41:15.592] $GPVTG,,T,,M,,N,,K,N*2C
[2021-02-22 15:41:15.795] $GPGGA,,,,,,,,,,M,,M,,*56
[2021-02-22 15:41:15.795] $GPVTG,,T,,M,,N,,K,N*2C
[2021-02-22 15:41:15.983] $GPGGA,,,,,,,,,,M,,M,,*56
[2021-02-22 15:41:15.999] $GPVTG,,T,,M,,N,,K,N*2C
[2021-02-22 15:41:16.186] $GPGGA,,,,,,,,,,M,,M,,*56
[2021-02-22 15:41:16.202] $GPVTG,,T,,M,,N,,K,N*2C
[2021-02-22 15:41:16.389] $GPGGA,,,,,,,,,,M,,M,,*56
[2021-02-22 15:41:16.389] $GPVTG,,T,,M,,N,,K,N*2C
[2021-02-22 15:41:16.592] $GPGGA,,,,,,,,,,M,,M,,*56
[2021-02-22 15:41:16.592] $GPVTG,,T,,M,,N,,K,N*2C
[2021-02-22 15:41:16.795] $GPGGA,,,,,,,,,,M,,M,,*56
[2021-02-22 15:41:16.795] $GPVTG,,T,,M,,N,,K,N*2C
[2021-02-22 15:41:16.998] $GPGGA,,,,,,,,,,M,,M,,*56
[2021-02-22 15:41:16.998] $GPVTG,,T,,M,,N,,K,N*2C
[2021-02-22 15:41:17.186] $GPGGA,,,,,,,,,,M,,M,,*56
[2021-02-22 15:41:17.202] $GPVTG,,T,,M,,N,,K,N*2C
[2021-02-22 15:41:17.389] $GPGGA,,,,,,,,,,M,,M,,*56
[2021-02-22 15:41:17.405] $GPVTG,,T,,M,,N,,K,N*2C
[2021-02-22 15:41:17.592] $GPGGA,,,,,,,,,,M,,M,,*56
[2021-02-22 15:41:17.592] $GPVTG,,T,,M,,N,,K,N*2C
[2021-02-22 15:41:17.795] $GPGGA,,,,,,,,,,M,,M,,*56
[2021-02-22 15:41:17.795] $GPVTG,,T,,M,,N,,K,N*2C
[2021-02-22 15:41:17.998] $GPGGA,,,,,,,,,,M,,M,,*56
[2021-02-22 15:41:17.998] $GPVTG,,T,,M,,N,,K,N*2C
[2021-02-22 15:41:18.186] $GPGGA,,,,,,,,,,M,,M,,*56
[2021-02-22 15:41:18.201] $GPVTG,,T,,M,,N,,K,N*2C
[2021-02-22 15:41:18.389] $GPGGA,,,,,,,,,,M,,M,,*56
[2021-02-22 15:41:18.389] $GPVTG,,T,,M,,N,,K,N*2C
[2021-02-22 15:41:18.592] $GPGGA,,,,,,,,,,M,,M,,*56
[2021-02-22 15:41:18.592] $GPVTG,,T,,M,,N,,K,N*2C
[2021-02-22 15:41:18.795] $GPGGA,,,,,,,,,,M,,M,,*56
[2021-02-22 15:41:18.795] $GPVTG,,T,,M,,N,,K,N*2C
[2021-02-22 15:41:18.998] $GPGGA,,,,,,,,,,M,,M,,*56
[2021-02-22 15:41:18.998] $GPVTG,,T,,M,,N,,K,N*2C
[2021-02-22 15:41:19.186] $GPGGA,,,,,,,,,,M,,M,,*56
[2021-02-22 15:41:19.201] $GPVTG,,T,,M,,N,,K,N*2C
[2021-02-22 15:41:19.389] $GPGGA,,,,,,,,,,M,,M,,*56
[2021-02-22 15:41:19.405] $GPVTG,,T,,M,,N,,K,N*2C
[2021-02-22 15:41:19.592] $GPGGA,,,,,,,,,,M,,M,,*56
[2021-02-22 15:41:19.592] $GPVTG,,T,,M,,N,,K,N*2C
[2021-02-22 15:41:19.795] $GPGGA,,,,,,,,,,M,,M,,*56
[2021-02-22 15:41:19.795] $GPVTG,,T,,M,,N,,K,N*2C
[2021-02-22 15:41:19.998] $GPGGA,,,,,,,,,,M,,M,,*56
[2021-02-22 15:41:19.998] $GPVTG,,T,,M,,N,,K,N*2C
[2021-02-22 15:41:20.186] $GPGGA,,,,,,,,,,M,,M,,*56
[2021-02-22 15:41:20.201] $GPVTG,,T,,M,,N,,K,N*2C
[2021-02-22 15:41:20.389] $GPGGA,,,,,,,,,,M,,M,,*56
[2021-02-22 15:41:20.404] $GPVTG,,T,,M,,N,,K,N*2C
[2021-02-22 15:41:20.592] $GPGGA,,,,,,,,,,M,,M,,*56
[2021-02-22 15:41:20.592] $GPVTG,,T,,M,,N,,K,N*2C
[2021-02-22 15:41:20.795] $GPGGA,,,,,,,,,,M,,M,,*56
[2021-02-22 15:41:20.795] $GPVTG,,T,,M,,N,,K,N*2C
[2021-02-22 15:41:20.998] $GPGGA,,,,,,,,,,M,,M,,*56
[2021-02-22 15:41:20.998] $GPVTG,,T,,M,,N,,K,N*2C
[2021-02-22 15:41:21.186] $GPGGA,,,,,,,,,,M,,M,,*56
[2021-02-22 15:41:21.201] $GPVTG,,T,,M,,N,,K,N*2C
[2021-02-22 15:41:21.389] $GPGGA,,,,,,,,,,M,,M,,*56
[2021-02-22 15:41:21.404] $GPVTG,,T,,M,,N,,K,N*2C
[2021-02-22 15:41:21.592] $GPGGA,,,,,,,,,,M,,M,,*56
[2021-02-22 15:41:21.592] $GPVTG,,T,,M,,N,,K,N*2C
[2021-02-22 15:41:21.795] $GPGGA,,,,,,,,,,M,,M,,*56
[2021-02-22 15:41:21.795] $GPVTG,,T,,M,,N,,K,N*2C
[2021-02-22 15:41:21.998] $GPGGA,064121.60,3713.95244829,N,13701.42794971,E,1,06,3.5,98.732,M,36.771,M,,*55
[2021-02-22 15:41:22.014] $GPVTG,343.76,T,352.21,M,0.42,N,0.78,K,A*28
[2021-02-22 15:41:22.201] $GPGGA,064121.80,3713.95344302,N,13701.42734613,E,1,06,2.5,97.784,M,36.771,M,,*5A
[2021-02-22 15:41:22.217] $GPVTG,352.09,T,0.54,M,0.08,N,0.15,K,A*23
[2021-02-22 15:41:22.295] $GPGGA,064121.90,3713.95344962,N,13701.42734061,E,1,06,2.5,97.778,M,36.771,M,,*57
[2021-02-22 15:41:22.295] $GPVTG,326.28,T,334.73,M,0.29,N,0.53,K,A*23
[2021-02-22 15:41:22.404] $GPGGA,064122.00,3713.95351395,N,13701.42729038,E,1,06,2.5,97.786,M,36.771,M,,*5A
[2021-02-22 15:41:22.420] $GPVTG,329.47,T,337.92,M,0.26,N,0.48,K,A*2C
[2021-02-22 15:41:22.482] $GPGGA,064122.10,3713.95351482,N,13701.42728839,E,1,06,2.5,97.787,M,36.771,M,,*53
[2021-02-22 15:41:22.498] $GPVTG,319.65,T,328.09,M,0.14,N,0.26,K,A*2A
[2021-02-22 15:41:22.592] $GPGGA,064122.20,3713.95347963,N,13701.42732495,E,1,06,2.5,97.762,M,36.771,M,,*5F
[2021-02-22 15:41:22.623] $GPVTG,318.32,T,326.77,M,0.23,N,0.42,K,A*28
[2021-02-22 15:41:22.686] $GPGGA,064122.30,3713.95347882,N,13701.42732591,E,1,06,2.5,97.764,M,36.771,M,,*53
[2021-02-22 15:41:22.701] $GPVTG,316.91,T,325.36,M,0.12,N,0.22,K,A*2D
[2021-02-22 15:41:22.795] $GPGGA,064122.40,3713.95346035,N,13701.42735521,E,1,06,2.5,97.753,M,36.771,M,,*59
[2021-02-22 15:41:22.811] $GPVTG,326.95,T,335.40,M,0.11,N,0.20,K,A*2B
[2021-02-22 15:41:22.889] $GPGGA,064122.50,3713.95346349,N,13701.42735510,E,1,06,2.5,97.746,M,36.771,M,,*56
[2021-02-22 15:41:22.904] $GPVTG,341.41,T,349.86,M,0.11,N,0.20,K,A*22
[2021-02-22 15:41:22.998] $GPGGA,064122.60,3713.95347494,N,13701.42735299,E,1,06,2.5,97.765,M,36.771,M,,*54
[2021-02-22 15:41:23.014] $GPVTG,18.34,T,26.79,M,0.03,N,0.06,K,A*22
[2021-02-22 15:41:23.092] $GPGGA,064122.70,3713.95347518,N,13701.42735563,E,1,06,2.5,97.758,M,36.771,M,,*5C
[2021-02-22 15:41:23.107] $GPVTG,59.25,T,67.70,M,0.04,N,0.08,K,A*22
[2021-02-22 15:41:23.201] $GPGGA,064122.80,3713.95348932,N,13701.42735471,E,1,06,2.5,97.770,M,36.771,M,,*50
[2021-02-22 15:41:23.217] $GPVTG,65.14,T,73.59,M,0.05,N,0.10,K,A*29
[2021-02-22 15:41:23.295] $GPGGA,064122.90,3713.95348613,N,13701.42735427,E,1,06,2.5,97.773,M,36.771,M,,*5D
[2021-02-22 15:41:23.295] $GPVTG,133.95,T,142.40,M,0.05,N,0.09,K,A*21
[2021-02-22 15:41:23.404] $GPGGA,064123.00,3713.95349076,N,13701.42735547,E,1,06,2.5,97.799,M,36.771,M,,*52
[2021-02-22 15:41:23.404] $GPVTG,148.16,T,156.61,M,0.09,N,0.17,K,A*23
[2021-02-22 15:41:23.498] $GPGGA,064123.10,3713.95349302,N,13701.42735547,E,1,06,2.5,97.798,M,36.771,M,,*52
[2021-02-22 15:41:23.498] $GPVTG,136.33,T,144.78,M,0.06,N,0.12,K,A*2C
[2021-02-22 15:41:23.592] $GPGGA,064123.20,3713.95349238,N,13701.42735977,E,1,06,2.5,97.809,M,36.771,M,,*51
[2021-02-22 15:41:23.623] $GPVTG,143.94,T,152.39,M,0.09,N,0.17,K,A*2B
[2021-02-22 15:41:23.686] $GPGGA,064123.30,3713.95349128,N,13701.42735801,E,1,06,2.5,97.820,M,36.771,M,,*59
[2021-02-22 15:41:23.701] $GPVTG,156.32,T,164.77,M,0.09,N,0.17,K,A*2C
[2021-02-22 15:41:23.795] $GPGGA,064123.40,3713.95350137,N,13701.42735875,E,1,06,2.5,97.843,M,36.771,M,,*5E
[2021-02-22 15:41:23.810] $GPVTG,154.21,T,162.66,M,0.10,N,0.18,K,A*2D
[2021-02-22 15:41:23.889] $GPGGA,064123.50,3713.95350295,N,13701.42735823,E,1,06,2.5,97.836,M,36.771,M,,*55
[2021-02-22 15:41:23.904] $GPVTG,151.51,T,159.95,M,0.06,N,0.12,K,A*26
[2021-02-22 15:41:23.998] $GPGGA,064123.60,3713.95352034,N,13701.42735780,E,1,06,2.5,97.870,M,36.771,M,,*59
[2021-02-22 15:41:24.014] $GPVTG,71.55,T,80.00,M,0.03,N,0.05,K,A*2B
[2021-02-22 15:41:24.092] $GPGGA,064123.70,3713.95351703,N,13701.42735872,E,1,06,2.5,97.853,M,36.771,M,,*5B
[2021-02-22 15:41:24.107] $GPVTG,140.79,T,149.24,M,0.02,N,0.04,K,A*24
[2021-02-22 15:41:24.201] $GPGGA,064123.80,3713.95357168,N,13701.42702683,E,1,07,2.1,98.707,M,36.771,M,,*59
[2021-02-22 15:41:24.217] $GPVTG,83.41,T,91.86,M,0.03,N,0.05,K,A*2D
[2021-02-22 15:41:24.295] $GPGGA,064123.90,3713.95357194,N,13701.42702408,E,1,06,2.1,98.698,M,36.771,M,,*5C
[2021-02-22 15:41:24.295] $GPVTG,235.23,T,243.68,M,0.00,N,0.01,K,A*2C
[2021-02-22 15:41:24.404] $GPGGA,064124.00,3713.95365180,N,13701.42678277,E,1,08,1.7,99.200,M,36.771,M,,*5B
[2021-02-22 15:41:24.420] $GPVTG,176.57,T,185.02,M,0.03,N,0.05,K,A*29
[2021-02-22 15:41:24.498] $GPGGA,064124.10,3713.95364422,N,13701.42678934,E,1,08,1.7,99.202,M,36.771,M,,*58
[2021-02-22 15:41:24.514] $GPVTG,154.68,T,163.13,M,0.09,N,0.18,K,A*2B
[2021-02-22 15:41:24.592] $GPGGA,064124.20,3713.95371407,N,13701.42664714,E,1,09,1.4,99.462,M,36.771,M,,*5B
[2021-02-22 15:41:24.623] $GPVTG,162.91,T,171.36,M,0.09,N,0.16,K,A*22
[2021-02-22 15:41:24.685] $GPGGA,064124.30,3713.95371126,N,13701.42665205,E,1,08,1.4,99.463,M,36.771,M,,*58
[2021-02-22 15:41:24.701] $GPVTG,145.63,T,154.08,M,0.11,N,0.20,K,A*2C
[2021-02-22 15:41:24.795] $GPGGA,064124.40,3713.95376958,N,13701.42658253,E,1,09,1.4,99.554,M,36.771,M,,*50
[2021-02-22 15:41:24.810] $GPVTG,151.31,T,159.76,M,0.11,N,0.20,K,A*2A
[2021-02-22 15:41:24.889] $GPGGA,064124.50,3713.95376918,N,13701.42658192,E,1,09,1.4,99.561,M,36.771,M,,*5D
[2021-02-22 15:41:24.904] $GPVTG,156.25,T,164.70,M,0.09,N,0.17,K,A*2D
[2021-02-22 15:41:24.998] $GPGGA,064124.60,3713.95379422,N,13701.42658235,E,1,09,1.4,99.571,M,36.771,M,,*5A
[2021-02-22 15:41:25.014] $GPVTG,168.81,T,177.26,M,0.09,N,0.17,K,A*2F
[2021-02-22 15:41:25.092] $GPGGA,064124.70,3713.95379028,N,13701.42658678,E,1,09,1.4,99.573,M,36.771,M,,*5A
[2021-02-22 15:41:25.107] $GPVTG,153.43,T,161.88,M,0.12,N,0.22,K,A*26
[2021-02-22 15:41:25.201] $GPGGA,064124.80,3713.95386059,N,13701.42660446,E,1,10,1.4,99.695,M,36.771,M,,*54
[2021-02-22 15:41:25.217] $GPVTG,131.53,T,139.98,M,0.14,N,0.27,K,A*2C
[2021-02-22 15:41:25.295] $GPGGA,064124.90,3713.95386199,N,13701.42660998,E,1,08,1.4,99.693,M,36.771,M,,*59
[2021-02-22 15:41:25.310] $GPVTG,101.80,T,110.25,M,0.15,N,0.28,K,A*22
[2021-02-22 15:41:25.404] $GPGGA,064125.00,3713.95394273,N,13701.42661183,E,1,09,1.4,99.771,M,36.771,M,,*5A
[2021-02-22 15:41:25.420] $GPVTG,86.29,T,94.74,M,0.16,N,0.29,K,A*24
[2021-02-22 15:41:25.498] $GPGGA,064125.10,3713.95394514,N,13701.42661008,E,1,09,1.4,99.775,M,36.771,M,,*5B
[2021-02-22 15:41:25.498] $GPVTG,65.41,T,73.86,M,0.10,N,0.19,K,A*26
[2021-02-22 15:41:25.592] $GPGGA,064125.20,3713.95400730,N,13701.42658735,E,1,09,1.4,99.829,M,36.771,M,,*53
[2021-02-22 15:41:25.623] $GPVTG,25.40,T,33.85,M,0.07,N,0.13,K,A*28
[2021-02-22 15:41:25.685] $GPGGA,064125.30,3713.95401652,N,13701.42658350,E,1,09,1.4,99.824,M,36.771,M,,*5C
[2021-02-22 15:41:25.701] $GPVTG,355.49,T,3.94,M,0.15,N,0.28,K,A*2D
[2021-02-22 15:41:25.795] $GPGGA,064125.40,3713.95407446,N,13701.42655299,E,1,09,1.4,99.870,M,36.771,M,,*52
[2021-02-22 15:41:25.810] $GPVTG,343.53,T,351.98,M,0.20,N,0.37,K,A*21
[2021-02-22 15:41:25.888] $GPGGA,064125.50,3713.95407916,N,13701.42655345,E,1,09,1.4,99.875,M,36.771,M,,*5E
[2021-02-22 15:41:25.904] $GPVTG,347.80,T,356.25,M,0.21,N,0.40,K,A*2B
[2021-02-22 15:41:25.998] $GPGGA,064125.60,3713.95411905,N,13701.42654868,E,1,09,1.4,99.896,M,36.771,M,,*50
[2021-02-22 15:41:26.013] $GPVTG,339.42,T,347.87,M,0.25,N,0.47,K,A*27
[2021-02-22 15:41:26.092] $GPGGA,064125.70,3713.95411477,N,13701.42655483,E,1,09,1.4,99.896,M,36.771,M,,*51
[2021-02-22 15:41:26.107] $GPVTG,346.45,T,354.90,M,0.16,N,0.29,K,A*24
[2021-02-22 15:41:26.201] $GPGGA,064125.80,3713.95414193,N,13701.42655877,E,1,09,1.4,99.917,M,36.771,M,,*5B
[2021-02-22 15:41:26.217] $GPVTG,349.56,T,358.01,M,0.11,N,0.20,K,A*23
[2021-02-22 15:41:26.295] $GPGGA,064125.90,3713.95414418,N,13701.42655641,E,1,09,1.4,99.925,M,36.771,M,,*56
[2021-02-22 15:41:26.295] $GPVTG,336.72,T,345.17,M,0.10,N,0.19,K,A*2D
[2021-02-22 15:41:26.404] $GPGGA,064126.00,3713.95416712,N,13701.42656368,E,1,09,1.4,99.934,M,36.771,M,,*5A
[2021-02-22 15:41:26.420] $GPVTG,18.00,T,26.45,M,0.04,N,0.07,K,A*2C
[2021-02-22 15:41:26.498] $GPGGA,064126.10,3713.95416839,N,13701.42656261,E,1,09,1.4,99.936,M,36.771,M,,*57
[2021-02-22 15:41:26.498] $GPVTG,355.87,T,4.32,M,0.03,N,0.05,K,A*2C
[2021-02-22 15:41:26.592] $GPGGA,064126.20,3713.95419054,N,13701.42656227,E,1,09,1.4,99.947,M,36.771,M,,*5C
[2021-02-22 15:41:26.607] $GPVTG,242.39,T,250.84,M,0.04,N,0.07,K,A*25
[2021-02-22 15:41:26.685] $GPGGA,064126.30,3713.95419137,N,13701.42656474,E,1,09,1.4,99.952,M,36.771,M,,*5D
[2021-02-22 15:41:26.701] $GPVTG,198.37,T,206.82,M,0.00,N,0.00,K,A*29
[2021-02-22 15:41:26.795] $GPGGA,064126.40,3713.95423080,N,13701.42654087,E,1,10,1.1,99.974,M,36.771,M,,*5D
[2021-02-22 15:41:26.810] $GPVTG,5.35,T,13.80,M,0.02,N,0.04,K,A*1C
[2021-02-22 15:41:26.888] $GPGGA,064126.50,3713.95422936,N,13701.42654483,E,1,10,1.1,99.982,M,36.771,M,,*50
[2021-02-22 15:41:26.904] $GPVTG,88.86,T,97.31,M,0.04,N,0.08,K,A*2D
[2021-02-22 15:41:26.998] $GPGGA,064126.60,3713.95425799,N,13701.42653252,E,1,10,1.1,99.998,M,36.771,M,,*59
[2021-02-22 15:41:27.013] $GPVTG,84.09,T,92.54,M,0.06,N,0.11,K,A*2A
[2021-02-22 15:41:27.091] $GPGGA,064126.70,3713.95426058,N,13701.42653217,E,1,10,1.1,99.998,M,36.771,M,,*50
[2021-02-22 15:41:27.107] $GPVTG,55.11,T,63.56,M,0.06,N,0.10,K,A*22
[2021-02-22 15:41:27.201] $GPGGA,064126.80,3713.95429468,N,13701.42651174,E,1,10,1.1,100.026,M,36.771,M,,*6E
[2021-02-22 15:41:27.216] $GPVTG,57.63,T,66.08,M,0.05,N,0.10,K,A*28
[2021-02-22 15:41:27.295] $GPGGA,064126.90,3713.95429718,N,13701.42651048,E,1,10,1.1,100.027,M,36.771,M,,*64
[2021-02-22 15:41:27.310] $GPVTG,22.22,T,30.67,M,0.05,N,0.10,K,A*25
[2021-02-22 15:41:27.404] $GPGGA,064127.00,3713.95432875,N,13701.42648995,E,1,10,1.1,100.047,M,36.771,M,,*65
[2021-02-22 15:41:27.420] $GPVTG,4.77,T,13.22,M,0.05,N,0.08,K,A*18
[2021-02-22 15:41:27.498] $GPGGA,064127.10,3713.95432888,N,13701.42648951,E,1,10,1.1,100.050,M,36.771,M,,*68
[2021-02-22 15:41:27.498] $GPVTG,348.92,T,357.37,M,0.03,N,0.06,K,A*27
[2021-02-22 15:41:27.591] $GPGGA,064127.20,3713.95438926,N,13701.42644018,E,1,10,1.1,100.098,M,36.771,M,,*68
[2021-02-22 15:41:27.623] $GPVTG,303.99,T,312.44,M,0.05,N,0.09,K,A*2F
[2021-02-22 15:41:27.701] $GPGGA,064127.30,3713.95439010,N,13701.42643429,E,1,10,1.1,100.090,M,36.771,M,,*6D
[2021-02-22 15:41:27.701] $GPVTG,281.01,T,289.46,M,0.10,N,0.18,K,A*20
[2021-02-22 15:41:27.795] $GPGGA,064127.40,3713.95445262,N,13701.42638720,E,1,11,1.0,100.204,M,36.771,M,,*6F
[2021-02-22 15:41:27.810] $GPVTG,264.70,T,273.15,M,0.08,N,0.15,K,A*2A
[2021-02-22 15:41:27.888] $GPGGA,064127.50,3713.95445314,N,13701.42638656,E,1,10,1.0,100.206,M,36.771,M,,*6D
[2021-02-22 15:41:27.904] $GPVTG,269.14,T,277.59,M,0.07,N,0.12,K,A*21
[2021-02-22 15:41:27.998] $GPGGA,064127.60,3713.95451563,N,13701.42633830,E,1,11,1.0,100.298,M,36.771,M,,*6E
[2021-02-22 15:41:28.013] $GPVTG,269.09,T,277.54,M,0.08,N,0.14,K,A*29
[2021-02-22 15:41:28.091] $GPGGA,064127.70,3713.95451609,N,13701.42633437,E,1,11,1.0,100.292,M,36.771,M,,*61
[2021-02-22 15:41:28.107] $GPVTG,270.01,T,278.46,M,0.09,N,0.17,K,A*27
[2021-02-22 15:41:28.201] $GPGGA,064127.80,3713.95453674,N,13701.42632266,E,1,11,1.0,100.343,M,36.771,M,,*68
[2021-02-22 15:41:28.216] $GPVTG,243.01,T,251.46,M,0.08,N,0.15,K,A*2F
[2021-02-22 15:41:28.295] $GPGGA,064127.90,3713.95453758,N,13701.42632026,E,1,11,1.0,100.349,M,36.771,M,,*6A
[2021-02-22 15:41:28.295] $GPVTG,257.57,T,266.02,M,0.07,N,0.13,K,A*24
[2021-02-22 15:41:28.404] $GPGGA,064128.00,3713.95453818,N,13701.42632934,E,1,11,1.0,100.377,M,36.771,M,,*60
[2021-02-22 15:41:28.420] $GPVTG,275.00,T,283.45,M,0.05,N,0.09,K,A*27
[2021-02-22 15:41:28.498] $GPGGA,064128.10,3713.95454091,N,13701.42632773,E,1,11,1.0,100.368,M,36.771,M,,*6C
[2021-02-22 15:41:28.498] $GPVTG,314.71,T,323.16,M,0.06,N,0.10,K,A*21
[2021-02-22 15:41:28.591] $GPGGA,064128.20,3713.95454152,N,13701.42633705,E,1,11,1.0,100.402,M,36.771,M,,*6A
[2021-02-22 15:41:28.607] $GPVTG,341.93,T,350.37,M,0.06,N,0.11,K,A*2B
[2021-02-22 15:41:28.685] $GPGGA,064128.30,3713.95454096,N,13701.42633927,E,1,11,1.0,100.399,M,36.771,M,,*69
[2021-02-22 15:41:28.701] $GPVTG,22.95,T,31.40,M,0.04,N,0.08,K,A*25
[2021-02-22 15:41:28.795] $GPGGA,064128.40,3713.95454072,N,13701.42635036,E,1,11,1.0,100.440,M,36.771,M,,*68
[2021-02-22 15:41:28.810] $GPVTG,37.41,T,45.86,M,0.08,N,0.14,K,A*20
[2021-02-22 15:41:28.888] $GPGGA,064128.50,3713.95454067,N,13701.42635221,E,1,11,1.0,100.440,M,36.771,M,,*69
[2021-02-22 15:41:28.904] $GPVTG,51.79,T,60.24,M,0.07,N,0.14,K,A*2B
[2021-02-22 15:41:28.998] $GPGGA,064128.60,3713.95453949,N,13701.42636008,E,1,11,1.0,100.465,M,36.771,M,,*65
[2021-02-22 15:41:29.013] $GPVTG,52.61,T,61.06,M,0.07,N,0.14,K,A*20
[2021-02-22 15:41:29.091] $GPGGA,064128.70,3713.95454074,N,13701.42635810,E,1,11,1.0,100.464,M,36.771,M,,*67
[2021-02-22 15:41:29.107] $GPVTG,27.29,T,35.74,M,0.05,N,0.09,K,A*24
[2021-02-22 15:41:29.201] $GPGGA,064128.80,3713.95453813,N,13701.42636423,E,1,11,1.0,100.496,M,36.771,M,,*64
[2021-02-22 15:41:29.216] $GPVTG,16.23,T,24.68,M,0.04,N,0.07,K,A*2E
[2021-02-22 15:41:29.294] $GPGGA,064128.90,3713.95453881,N,13701.42636231,E,1,11,1.0,100.499,M,36.771,M,,*64
[2021-02-22 15:41:29.310] $GPVTG,331.22,T,339.67,M,0.03,N,0.06,K,A*2F
[2021-02-22 15:41:29.404] $GPGGA,064129.00,3713.95456313,N,13701.42634194,E,1,11,1.0,100.546,M,36.771,M,,*64
[2021-02-22 15:41:29.419] $GPVTG,307.43,T,315.88,M,0.07,N,0.13,K,A*22
[2021-02-22 15:41:29.498] $GPGGA,064129.10,3713.95456523,N,13701.42633808,E,1,11,1.0,100.548,M,36.771,M,,*65
[2021-02-22 15:41:29.498] $GPVTG,301.67,T,310.12,M,0.10,N,0.19,K,A*28
[2021-02-22 15:41:29.591] $GPGGA,064129.20,3713.95461277,N,13701.42629952,E,1,11,1.0,100.616,M,36.771,M,,*69
[2021-02-22 15:41:29.607] $GPVTG,302.89,T,311.34,M,0.10,N,0.18,K,A*2F
[2021-02-22 15:41:29.685] $GPGGA,064129.30,3713.95461134,N,13701.42630020,E,1,11,1.0,100.621,M,36.771,M,,*6C
[2021-02-22 15:41:29.701] $GPVTG,290.41,T,298.86,M,0.06,N,0.11,K,A*26
[2021-02-22 15:41:29.794] $GPGGA,064129.40,3713.95464953,N,13701.42626861,E,1,11,1.0,100.684,M,36.771,M,,*62
[2021-02-22 15:41:29.810] $GPVTG,285.35,T,293.80,M,0.06,N,0.10,K,A*2D
[2021-02-22 15:41:29.888] $GPGGA,064129.50,3713.95464883,N,13701.42626816,E,1,11,1.0,100.676,M,36.771,M,,*62
[2021-02-22 15:41:29.919] $GPVTG,264.19,T,272.64,M,0.04,N,0.08,K,A*22
[2021-02-22 15:41:29.998] $GPGGA,064129.60,3713.95469404,N,13701.42623275,E,1,11,1.0,100.748,M,36.771,M,,*69
[2021-02-22 15:41:30.013] $GPVTG,276.91,T,285.36,M,0.02,N,0.04,K,A*24
[2021-02-22 15:41:30.091] $GPGGA,064129.70,3713.95469552,N,13701.42622957,E,1,11,1.0,100.744,M,36.771,M,,*6C
[2021-02-22 15:41:30.107] $GPVTG,289.60,T,298.05,M,0.05,N,0.08,K,A*2D
[2021-02-22 15:41:30.201] $GPGGA,064129.80,3713.95469418,N,13701.42623206,E,1,11,1.0,100.768,M,36.771,M,,*6C
[2021-02-22 15:41:30.216] $GPVTG,297.66,T,306.11,M,0.05,N,0.09,K,A*26
[2021-02-22 15:41:30.294] $GPGGA,064129.90,3713.95469590,N,13701.42622995,E,1,11,1.0,100.765,M,36.771,M,,*61
[2021-02-22 15:41:30.310] $GPVTG,306.33,T,314.78,M,0.06,N,0.11,K,A*29
[2021-02-22 15:41:30.404] $GPGGA,064130.00,3713.95469842,N,13701.42622949,E,1,11,1.0,100.790,M,36.771,M,,*69
[2021-02-22 15:41:30.419] $GPVTG,314.12,T,322.57,M,0.08,N,0.15,K,A*2B
[2021-02-22 15:41:30.497] $GPGGA,064130.10,3713.95469951,N,13701.42623096,E,1,11,1.0,100.796,M,36.771,M,,*67
[2021-02-22 15:41:30.513] $GPVTG,339.21,T,347.66,M,0.07,N,0.13,K,A*2C
[2021-02-22 15:41:30.591] $GPGGA,064130.20,3713.95470500,N,13701.42622915,E,1,11,1.0,100.813,M,36.771,M,,*65
[2021-02-22 15:41:30.622] $GPVTG,349.75,T,358.20,M,0.06,N,0.12,K,A*26
[2021-02-22 15:41:30.685] $GPGGA,064130.30,3713.95470469,N,13701.42622913,E,1,11,1.0,100.814,M,36.771,M,,*6B
[2021-02-22 15:41:30.701] $GPVTG,353.18,T,1.63,M,0.04,N,0.08,K,A*27
[2021-02-22 15:41:30.794] $GPGGA,064130.40,3713.95471500,N,13701.42622319,E,1,11,1.0,100.830,M,36.771,M,,*65
[2021-02-22 15:41:30.826] $GPVTG,21.62,T,30.07,M,0.04,N,0.07,K,A*23
[2021-02-22 15:41:30.888] $GPGGA,064130.50,3713.95471577,N,13701.42622531,E,1,11,1.0,100.832,M,36.771,M,,*6A
[2021-02-22 15:41:30.904] $GPVTG,48.80,T,57.25,M,0.05,N,0.09,K,A*2E
[2021-02-22 15:41:30.998] $GPGGA,064130.60,3713.95473335,N,13701.42621156,E,1,11,1.0,100.837,M,36.771,M,,*68
[2021-02-22 15:41:31.013] $GPVTG,20.14,T,28.59,M,0.04,N,0.08,K,A*2E
[2021-02-22 15:41:31.091] $GPGGA,064130.70,3713.95473321,N,13701.42621236,E,1,11,1.0,100.838,M,36.771,M,,*66
[2021-02-22 15:41:31.107] $GPVTG,38.51,T,46.96,M,0.03,N,0.06,K,A*24
[2021-02-22 15:41:31.201] $GPGGA,064130.80,3713.95475485,N,13701.42619576,E,1,11,1.0,100.878,M,36.771,M,,*6A
[2021-02-22 15:41:31.216] $GPVTG,3.75,T,12.20,M,0.03,N,0.05,K,A*15
[2021-02-22 15:41:31.294] $GPGGA,064130.90,3713.95475724,N,13701.42619408,E,1,11,1.0,100.873,M,36.771,M,,*60
[2021-02-22 15:41:31.310] $GPVTG,340.47,T,348.92,M,0.04,N,0.08,K,A*2F
[2021-02-22 15:41:31.404] $GPGGA,064131.00,3713.95478939,N,13701.42617061,E,1,11,1.0,100.908,M,36.771,M,,*6F
[2021-02-22 15:41:31.419] $GPVTG,344.83,T,353.28,M,0.04,N,0.08,K,A*28
[2021-02-22 15:41:31.497] $GPGGA,064131.10,3713.95479087,N,13701.42616933,E,1,11,1.0,100.913,M,36.771,M,,*66
[2021-02-22 15:41:31.513] $GPVTG,333.98,T,342.43,M,0.05,N,0.09,K,A*2F
[2021-02-22 15:41:31.591] $GPGGA,064131.20,3713.95483588,N,13701.42613692,E,1,11,1.0,100.955,M,36.771,M,,*69
[2021-02-22 15:41:31.622] $GPVTG,351.73,T,0.18,M,0.04,N,0.08,K,A*25
[2021-02-22 15:41:31.685] $GPGGA,064131.30,3713.95483748,N,13701.42613700,E,1,11,1.0,100.952,M,36.771,M,,*6B
[2021-02-22 15:41:31.716] $GPVTG,358.79,T,7.24,M,0.05,N,0.08,K,A*2F
[2021-02-22 15:41:31.794] $GPGGA,064131.40,3713.95488399,N,13701.42610416,E,1,11,1.0,100.995,M,36.771,M,,*63
[2021-02-22 15:41:31.826] $GPVTG,25.58,T,34.03,M,0.04,N,0.07,K,A*2E
[2021-02-22 15:41:31.888] $GPGGA,064131.50,3713.95488547,N,13701.42610485,E,1,11,1.0,101.000,M,36.771,M,,*69
[2021-02-22 15:41:31.904] $GPVTG,28.13,T,36.58,M,0.05,N,0.09,K,A*2F
[2021-02-22 15:41:31.997] $GPGGA,064131.60,3713.95492713,N,13701.42607495,E,1,11,1.0,101.040,M,36.771,M,,*61
[2021-02-22 15:41:32.029] $GPVTG,23.05,T,31.50,M,0.04,N,0.08,K,A*2C
[2021-02-22 15:41:32.091] $GPGGA,064131.70,3713.95492748,N,13701.42607556,E,1,11,1.0,101.040,M,36.771,M,,*60
[2021-02-22 15:41:32.107] $GPVTG,33.41,T,41.86,M,0.03,N,0.06,K,A*28
[2021-02-22 15:41:32.201] $GPGGA,064131.80,3713.95496543,N,13701.42604800,E,1,11,1.0,101.076,M,36.771,M,,*6A
[2021-02-22 15:41:32.216] $GPVTG,359.96,T,8.41,M,0.04,N,0.08,K,A*22
[2021-02-22 15:41:32.294] $GPGGA,064131.90,3713.95496647,N,13701.42605033,E,1,11,1.0,101.080,M,36.771,M,,*6C
[2021-02-22 15:41:32.294] $GPVTG,28.55,T,37.00,M,0.05,N,0.09,K,A*21
[2021-02-22 15:41:32.404] $GPGGA,064132.00,3713.95500021,N,13701.42602803,E,1,11,1.0,101.111,M,36.771,M,,*6B
[2021-02-22 15:41:32.419] $GPVTG,21.09,T,29.54,M,0.06,N,0.11,K,A*25
[2021-02-22 15:41:32.497] $GPGGA,064132.10,3713.95500038,N,13701.42602816,E,1,11,1.0,101.111,M,36.771,M,,*66
[2021-02-22 15:41:32.497] $GPVTG,20.52,T,28.97,M,0.04,N,0.07,K,A*21
[2021-02-22 15:41:32.591] $GPGGA,064132.20,3713.95500934,N,13701.42602608,E,1,11,1.0,101.135,M,36.771,M,,*67
[2021-02-22 15:41:32.622] $GPVTG,13.26,T,21.71,M,0.05,N,0.09,K,A*2C
[2021-02-22 15:41:32.685] $GPGGA,064132.30,3713.95501000,N,13701.42602752,E,1,11,1.0,101.137,M,36.771,M,,*65
[2021-02-22 15:41:32.700] $GPVTG,26.24,T,34.68,M,0.05,N,0.09,K,A*24
[2021-02-22 15:41:32.794] $GPGGA,064132.40,3713.95501356,N,13701.42602764,E,1,11,1.0,101.162,M,36.771,M,,*67
[2021-02-22 15:41:32.810] $GPVTG,29.42,T,37.87,M,0.03,N,0.05,K,A*23
[2021-02-22 15:41:32.888] $GPGGA,064132.50,3713.95501629,N,13701.42602884,E,1,11,1.0,101.165,M,36.771,M,,*6D
[2021-02-22 15:41:32.904] $GPVTG,26.01,T,34.46,M,0.06,N,0.10,K,A*24
[2021-02-22 15:41:32.997] $GPGGA,064132.60,3713.95502361,N,13701.42602527,E,1,11,1.0,101.179,M,36.771,M,,*6D
[2021-02-22 15:41:33.013] $GPVTG,12.58,T,21.03,M,0.04,N,0.08,K,A*21
[2021-02-22 15:41:33.091] $GPGGA,064132.70,3713.95502533,N,13701.42602517,E,1,11,1.0,101.175,M,36.771,M,,*62
[2021-02-22 15:41:33.107] $GPVTG,4.64,T,13.09,M,0.05,N,0.09,K,A*12
[2021-02-22 15:41:33.200] $GPGGA,064132.80,3713.95505528,N,13701.42600256,E,1,11,1.0,101.201,M,36.771,M,,*60
[2021-02-22 15:41:33.216] $GPVTG,346.43,T,354.88,M,0.06,N,0.11,K,A*21
[2021-02-22 15:41:33.294] $GPGGA,064132.90,3713.95505442,N,13701.42600425,E,1,11,1.0,101.192,M,36.771,M,,*67
[2021-02-22 15:41:33.310] $GPVTG,4.39,T,12.84,M,0.03,N,0.05,K,A*14
[2021-02-22 15:41:33.404] $GPGGA,064133.00,3713.95507872,N,13701.42598345,E,1,11,1.0,101.219,M,36.771,M,,*61
[2021-02-22 15:41:33.419] $GPVTG,294.64,T,303.09,M,0.02,N,0.04,K,A*21
[2021-02-22 15:41:33.497] $GPGGA,064133.10,3713.95508093,N,13701.42598257,E,1,11,1.0,101.220,M,36.771,M,,*60
[2021-02-22 15:41:33.497] $GPVTG,324.71,T,333.16,M,0.04,N,0.07,K,A*27
[2021-02-22 15:41:33.591] $GPGGA,064133.20,3713.95510452,N,13701.42596525,E,1,11,1.0,101.241,M,36.771,M,,*68
[2021-02-22 15:41:33.622] $GPVTG,324.61,T,333.06,M,0.03,N,0.06,K,A*21
[2021-02-22 15:41:33.685] $GPGGA,064133.30,3713.95510408,N,13701.42596669,E,1,11,1.0,101.242,M,36.771,M,,*6E
[2021-02-22 15:41:33.700] $GPVTG,0.86,T,9.30,M,0.01,N,0.02,K,A*24
[2021-02-22 15:41:33.794] $GPGGA,064133.40,3713.95510737,N,13701.42596637,E,1,11,1.0,101.255,M,36.771,M,,*6B
[2021-02-22 15:41:33.810] $GPVTG,339.48,T,347.93,M,0.05,N,0.09,K,A*20
[2021-02-22 15:41:33.888] $GPGGA,064133.50,3713.95510717,N,13701.42596648,E,1,11,1.0,101.249,M,36.771,M,,*6D
[2021-02-22 15:41:33.904] $GPVTG,336.18,T,344.63,M,0.03,N,0.06,K,A*2F
[2021-02-22 15:41:33.997] $GPGGA,064133.60,3713.95510528,N,13701.42597035,E,1,11,1.0,101.273,M,36.771,M,,*64
[2021-02-22 15:41:34.013] $GPVTG,2.52,T,10.97,M,0.02,N,0.04,K,A*1F
[2021-02-22 15:41:34.091] $GPGGA,064133.70,3713.95510825,N,13701.42596960,E,1,11,1.0,101.265,M,36.771,M,,*6A
[2021-02-22 15:41:34.107] $GPVTG,358.09,T,6.54,M,0.05,N,0.09,K,A*2F
[2021-02-22 15:41:34.200] $GPGGA,064133.80,3713.95510822,N,13701.42597225,E,1,11,1.0,101.276,M,36.771,M,,*6B
[2021-02-22 15:41:34.216] $GPVTG,10.94,T,19.39,M,0.04,N,0.08,K,A*21
[2021-02-22 15:41:34.294] $GPGGA,064133.90,3713.95510990,N,13701.42597089,E,1,11,1.0,101.277,M,36.771,M,,*67
[2021-02-22 15:41:34.310] $GPVTG,351.56,T,0.01,M,0.05,N,0.09,K,A*2A
[2021-02-22 15:41:34.404] $GPGGA,064134.00,3713.95511155,N,13701.42597338,E,1,11,1.0,101.289,M,36.771,M,,*61
[2021-02-22 15:41:34.419] $GPVTG,12.13,T,20.58,M,0.06,N,0.10,K,A*2A
[2021-02-22 15:41:34.497] $GPGGA,064134.10,3713.95511281,N,13701.42597174,E,1,11,1.0,101.291,M,36.771,M,,*69
[2021-02-22 15:41:34.497] $GPVTG,350.07,T,358.51,M,0.05,N,0.10,K,A*2C
[2021-02-22 15:41:34.591] $GPGGA,064134.20,3713.95511166,N,13701.42597649,E,1,11,1.0,101.304,M,36.771,M,,*64
[2021-02-22 15:41:34.622] $GPVTG,3.11,T,11.56,M,0.08,N,0.15,K,A*1F
[2021-02-22 15:41:34.685] $GPGGA,064134.30,3713.95511097,N,13701.42597754,E,1,11,1.0,101.300,M,36.771,M,,*63
[2021-02-22 15:41:34.700] $GPVTG,12.10,T,20.55,M,0.05,N,0.09,K,A*2F
[2021-02-22 15:41:34.794] $GPGGA,064134.40,3713.95510615,N,13701.42598024,E,1,11,1.0,101.309,M,36.771,M,,*6F
[2021-02-22 15:41:34.825] $GPVTG,350.94,T,359.39,M,0.04,N,0.08,K,A*21
[2021-02-22 15:41:34.888] $GPGGA,064134.50,3713.95510622,N,13701.42598106,E,1,11,1.0,101.310,M,36.771,M,,*63
[2021-02-22 15:41:34.903] $GPVTG,1.72,T,10.17,M,0.03,N,0.05,K,A*16
[2021-02-22 15:41:34.997] $GPGGA,064134.60,3713.95509460,N,13701.42599229,E,1,11,1.0,101.314,M,36.771,M,,*67
[2021-02-22 15:41:35.013] $GPVTG,20.19,T,28.64,M,0.04,N,0.07,K,A*22
[2021-02-22 15:41:35.091] $GPGGA,064134.70,3713.95509704,N,13701.42599370,E,1,11,1.0,101.310,M,36.771,M,,*6E
[2021-02-22 15:41:35.107] $GPVTG,26.47,T,34.92,M,0.06,N,0.11,K,A*2E
[2021-02-22 15:41:35.200] $GPGGA,064134.80,3713.95508543,N,13701.42601979,E,1,11,1.0,101.322,M,36.771,M,,*61
[2021-02-22 15:41:35.216] $GPVTG,35.87,T,44.32,M,0.06,N,0.11,K,A*2D
[2021-02-22 15:41:35.294] $GPGGA,064134.90,3713.95508791,N,13701.42601872,E,1,11,1.0,101.321,M,36.771,M,,*64
[2021-02-22 15:41:35.294] $GPVTG,18.28,T,26.72,M,0.06,N,0.11,K,A*27
[2021-02-22 15:41:35.403] $GPGGA,064135.00,3713.95507262,N,13701.42604591,E,1,11,1.0,101.330,M,36.771,M,,*6F
[2021-02-22 15:41:35.419] $GPVTG,40.51,T,48.96,M,0.04,N,0.07,K,A*23
[2021-02-22 15:41:35.497] $GPGGA,064135.10,3713.95507719,N,13701.42604409,E,1,11,1.0,101.330,M,36.771,M,,*67
[2021-02-22 15:41:35.497] $GPVTG,7.55,T,16.00,M,0.06,N,0.12,K,A*16
[2021-02-22 15:41:35.591] $GPGGA,064135.20,3713.95506093,N,13701.42604707,E,1,11,1.0,101.334,M,36.771,M,,*69
[2021-02-22 15:41:35.622] $GPVTG,343.48,T,351.93,M,0.04,N,0.08,K,A*2A
[2021-02-22 15:41:35.700] $GPGGA,064135.30,3713.95506025,N,13701.42604666,E,1,11,1.0,101.334,M,36.771,M,,*63
[2021-02-22 15:41:35.700] $GPVTG,318.91,T,327.36,M,0.03,N,0.05,K,A*24
[2021-02-22 15:41:35.794] $GPGGA,064135.40,3713.95504549,N,13701.42604842,E,1,11,1.0,101.335,M,36.771,M,,*60
[2021-02-22 15:41:35.825] $GPVTG,264.38,T,272.83,M,0.04,N,0.07,K,A*27
[2021-02-22 15:41:35.888] $GPGGA,064135.50,3713.95504846,N,13701.42604595,E,1,11,1.0,101.337,M,36.771,M,,*66
[2021-02-22 15:41:35.903] $GPVTG,293.25,T,301.70,M,0.05,N,0.09,K,A*25
[2021-02-22 15:41:35.997] $GPGGA,064135.60,3713.95503719,N,13701.42604886,E,1,11,1.0,101.344,M,36.771,M,,*6C
[2021-02-22 15:41:36.013] $GPVTG,294.77,T,303.22,M,0.05,N,0.09,K,A*20
[2021-02-22 15:41:36.091] $GPGGA,064135.70,3713.95503710,N,13701.42604598,E,1,11,1.0,101.334,M,36.771,M,,*61
[2021-02-22 15:41:36.122] $GPVTG,278.42,T,286.87,M,0.06,N,0.12,K,A*2E
[2021-02-22 15:41:36.200] $GPGGA,064135.80,3713.95502867,N,13701.42604688,E,1,11,1.0,101.346,M,36.771,M,,*67
[2021-02-22 15:41:36.216] $GPVTG,289.19,T,297.64,M,0.10,N,0.18,K,A*2E
[2021-02-22 15:41:36.294] $GPGGA,064135.90,3713.95502753,N,13701.42605102,E,1,11,1.0,101.344,M,36.771,M,,*68
[2021-02-22 15:41:36.310] $GPVTG,303.58,T,312.03,M,0.04,N,0.08,K,A*21
[2021-02-22 15:41:36.403] $GPGGA,064136.00,3713.95501667,N,13701.42605739,E,1,11,1.0,101.346,M,36.771,M,,*6B
[2021-02-22 15:41:36.419] $GPVTG,300.22,T,308.67,M,0.04,N,0.08,K,A*26
[2021-02-22 15:41:36.497] $GPGGA,064136.10,3713.95502110,N,13701.42605519,E,1,11,1.0,101.347,M,36.771,M,,*6F
[2021-02-22 15:41:36.497] $GPVTG,330.94,T,339.39,M,0.07,N,0.13,K,A*28
[2021-02-22 15:41:36.591] $GPGGA,064136.20,3713.95501259,N,13701.42606407,E,1,11,1.0,101.351,M,36.771,M,,*6B
[2021-02-22 15:41:36.622] $GPVTG,2.15,T,10.60,M,0.06,N,0.11,K,A*14
[2021-02-22 15:41:36.685] $GPGGA,064136.30,3713.95501517,N,13701.42606024,E,1,11,1.0,101.349,M,36.771,M,,*6B
[2021-02-22 15:41:36.716] $GPVTG,338.47,T,346.92,M,0.08,N,0.14,K,A*2F
[2021-02-22 15:41:36.794] $GPGGA,064136.40,3713.95501348,N,13701.42605813,E,1,11,1.0,101.355,M,36.771,M,,*62
[2021-02-22 15:41:36.810] $GPVTG,343.19,T,351.64,M,0.11,N,0.20,K,A*28
[2021-02-22 15:41:36.888] $GPGGA,064136.50,3713.95501709,N,13701.42605383,E,1,11,1.0,101.345,M,36.771,M,,*61
[2021-02-22 15:41:36.903] $GPVTG,332.00,T,340.45,M,0.13,N,0.24,K,A*23
[2021-02-22 15:41:36.997] $GPGGA,064136.60,3713.95501209,N,13701.42604777,E,1,11,1.0,101.351,M,36.771,M,,*6C
[2021-02-22 15:41:37.013] $GPVTG,316.46,T,324.91,M,0.17,N,0.31,K,A*2C
[2021-02-22 15:41:37.091] $GPGGA,064136.70,3713.95501940,N,13701.42604102,E,1,11,1.0,101.340,M,36.771,M,,*6F
[2021-02-22 15:41:37.106] $GPVTG,318.87,T,327.32,M,0.22,N,0.40,K,A*25
[2021-02-22 15:41:37.200] $GPGGA,064136.80,3713.95501210,N,13701.42604573,E,1,11,1.0,101.349,M,36.771,M,,*65
[2021-02-22 15:41:37.216] $GPVTG,319.72,T,328.17,M,0.24,N,0.44,K,A*24
[2021-02-22 15:41:37.294] $GPGGA,064136.90,3713.95501435,N,13701.42604316,E,1,11,1.0,101.341,M,36.771,M,,*68
[2021-02-22 15:41:37.310] $GPVTG,319.12,T,327.57,M,0.22,N,0.41,K,A*2A
[2021-02-22 15:41:37.403] $GPGGA,064137.00,3713.95500335,N,13701.42605406,E,1,11,1.0,101.352,M,36.771,M,,*63
[2021-02-22 15:41:37.419] $GPVTG,325.84,T,334.29,M,0.22,N,0.41,K,A*21
[2021-02-22 15:41:37.497] $GPGGA,064137.10,3713.95500509,N,13701.42605358,E,1,11,1.0,101.352,M,36.771,M,,*67
[2021-02-22 15:41:37.497] $GPVTG,329.01,T,337.46,M,0.19,N,0.35,K,A*21
[2021-02-22 15:41:37.591] $GPGGA,064137.20,3713.95498800,N,13701.42606791,E,1,11,1.0,101.363,M,36.771,M,,*60
[2021-02-22 15:41:37.622] $GPVTG,328.82,T,337.27,M,0.12,N,0.23,K,A*20
[2021-02-22 15:41:37.685] $GPGGA,064137.30,3713.95499102,N,13701.42606834,E,1,11,1.0,101.356,M,36.771,M,,*6D
[2021-02-22 15:41:37.700] $GPVTG,341.79,T,350.24,M,0.12,N,0.21,K,A*2B
[2021-02-22 15:41:37.794] $GPGGA,064137.40,3713.95497638,N,13701.42608023,E,1,11,1.0,101.367,M,36.771,M,,*68
[2021-02-22 15:41:37.825] $GPVTG,338.11,T,346.56,M,0.09,N,0.16,K,A*27
[2021-02-22 15:41:37.888] $GPGGA,064137.50,3713.95497462,N,13701.42607958,E,1,11,1.0,101.367,M,36.771,M,,*6E
[2021-02-22 15:41:37.903] $GPVTG,318.97,T,327.42,M,0.05,N,0.09,K,A*2B
[2021-02-22 15:41:37.997] $GPGGA,064137.60,3713.95496478,N,13701.42609201,E,1,11,1.0,101.367,M,36.771,M,,*6E
[2021-02-22 15:41:38.013] $GPVTG,347.57,T,356.02,M,0.06,N,0.11,K,A*25
[2021-02-22 15:41:38.091] $GPGGA,064137.70,3713.95495892,N,13701.42609372,E,1,11,1.0,101.369,M,36.771,M,,*6F
[2021-02-22 15:41:38.106] $GPVTG,194.14,T,202.59,M,0.02,N,0.03,K,A*27
[2021-02-22 15:41:38.200] $GPGGA,064137.80,3713.95494569,N,13701.42610414,E,1,11,1.0,101.378,M,36.771,M,,*67
[2021-02-22 15:41:38.216] $GPVTG,177.34,T,185.79,M,0.03,N,0.06,K,A*22
[2021-02-22 15:41:38.294] $GPGGA,064137.90,3713.95494527,N,13701.42610378,E,1,11,1.0,101.374,M,36.771,M,,*6D
[2021-02-22 15:41:38.294] $GPVTG,173.92,T,182.37,M,0.04,N,0.08,K,A*2E
[2021-02-22 15:41:38.403] $GPGGA,064138.00,3713.95493263,N,13701.42611459,E,1,11,1.0,101.389,M,36.771,M,,*6C
[2021-02-22 15:41:38.419] $GPVTG,166.17,T,174.62,M,0.05,N,0.10,K,A*26
[2021-02-22 15:41:38.497] $GPGGA,064138.10,3713.95493497,N,13701.42611098,E,1,11,1.0,101.386,M,36.771,M,,*66
