$GPGGA,065932.00,3713.95617780,N,13701.42414563,E,4,09,1.5,97.764,M,36.771,M,3.0,0000*7B
$GPVTG,326.48,T,334.93,M,0.06,N,0.12,K,D*26
$GPGGA,065932.10,3713.95617682,N,13701.42414452,E,4,09,1.5,97.764,M,36.771,M,3.1,0000*7B
$GPVTG,319.27,T,327.72,M,0.07,N,0.13,K,D*2E
$GPGGA,065932.20,3713.95618099,N,13701.42414174,E,4,09,1.5,97.768,M,36.771,M,2.2,0000*74
$GPVTG,292.29,T,300.74,M,0.07,N,0.13,K,D*21
$GPGGA,065932.30,3713.95617876,N,13701.42414232,E,4,09,1.5,97.755,M,36.771,M,2.3,0000*7D
$GPVTG,279.19,T,287.64,M,0.06,N,0.11,K,D*2B
$GPGGA,065932.40,3713.95617510,N,13701.42414412,E,4,09,1.5,97.758,M,36.771,M,2.4,0000*79
$GPVTG,278.83,T,287.27,M,0.07,N,0.12,K,D*2C
$GPGGA,065932.50,3713.95617415,N,13701.42414300,E,4,09,1.5,97.757,M,36.771,M,2.5,0000*76
$GPVTG,268.37,T,276.82,M,0.06,N,0.11,K,D*21
$GPGGA,065932.60,3713.95617884,N,13701.42414086,E,4,09,1.5,97.759,M,36.771,M,2.6,0000*71
$GPVTG,283.35,T,291.80,M,0.06,N,0.11,K,D*2D
$GPGGA,065932.70,3713.95617476,N,13701.42414538,E,4,09,1.5,97.759,M,36.771,M,2.7,0000*70
$GPVTG,240.52,T,248.97,M,0.01,N,0.02,K,D*24
$GPGGA,065932.80,3713.95618063,N,13701.42414375,E,4,09,1.5,97.765,M,36.771,M,2.8,0000*7F
$GPVTG,34.86,T,43.31,M,0.02,N,0.03,K,D*2B
$GPGGA,065932.90,3713.95617575,N,13701.42414680,E,4,09,1.5,97.752,M,36.771,M,2.9,0000*79
$GPVTG,65.80,T,74.25,M,0.01,N,0.03,K,D*2B
$GPGGA,065933.00,3713.95617781,N,13701.42414637,E,4,09,1.5,97.759,M,36.771,M,3.0,0000*77
$GPVTG,37.64,T,46.09,M,0.04,N,0.08,K,D*27
$GPGGA,065933.10,3713.95617498,N,13701.42414915,E,4,09,1.5,97.759,M,36.771,M,3.1,0000*73
$GPVTG,58.69,T,67.14,M,0.05,N,0.09,K,D*2C
$GPGGA,065933.20,3713.95617394,N,13701.42414848,E,4,09,1.5,97.758,M,36.771,M,2.2,0000*71
$GPVTG,57.59,T,66.04,M,0.05,N,0.09,K,D*20
$GPGGA,065933.30,3713.95617284,N,13701.42415100,E,4,09,1.5,97.752,M,36.771,M,2.3,0000*7F
$GPVTG,46.22,T,54.67,M,0.06,N,0.11,K,D*22
$GPGGA,065933.40,3713.95617426,N,13701.42414938,E,4,09,1.5,97.761,M,36.771,M,2.4,0000*73
$GPVTG,32.67,T,41.12,M,0.04,N,0.08,K,D*2C
$GPGGA,065933.50,3713.95617338,N,13701.42414807,E,4,09,1.5,97.760,M,36.771,M,2.5,0000*77
$GPVTG,32.95,T,41.40,M,0.03,N,0.05,K,D*2C
$GPGGA,065933.60,3713.95617612,N,13701.42415162,E,4,09,1.5,97.763,M,36.771,M,2.6,0000*72
$GPVTG,13.19,T,21.64,M,0.06,N,0.12,K,D*28
$GPGGA,065933.70,3713.95617747,N,13701.42415373,E,4,09,1.5,97.761,M,36.771,M,2.7,0000*73
$GPVTG,36.41,T,44.86,M,0.05,N,0.10,K,D*2C
$GPGGA,065933.80,3713.95617816,N,13701.42415174,E,4,09,1.5,97.765,M,36.771,M,2.8,0000*79
$GPVTG,32.10,T,40.55,M,0.07,N,0.12,K,D*26
$GPGGA,065933.90,3713.95617489,N,13701.42415394,E,4,09,1.5,97.759,M,36.771,M,2.9,0000*70
$GPVTG,78.44,T,86.89,M,0.05,N,0.09,K,D*2A
$GPGGA,065934.00,3713.95617310,N,13701.42415665,E,4,09,1.5,97.762,M,36.771,M,3.0,0000*72
$GPVTG,96.00,T,104.45,M,0.06,N,0.12,K,D*18
$GPGGA,065934.10,3713.95617392,N,13701.42415652,E,4,09,1.5,97.762,M,36.771,M,3.1,0000*7C
$GPVTG,95.62,T,104.07,M,0.04,N,0.08,K,D*10
$GPGGA,065934.20,3713.95617967,N,13701.42415468,E,4,09,1.5,97.761,M,36.771,M,2.2,0000*75
$GPVTG,49.89,T,58.34,M,0.04,N,0.07,K,D*23
$GPGGA,065934.30,3713.95617971,N,13701.42415473,E,4,09,1.5,97.753,M,36.771,M,2.3,0000*79
$GPVTG,39.56,T,48.01,M,0.02,N,0.03,K,D*23
$GPGGA,065934.40,3713.95618045,N,13701.42415696,E,4,09,1.5,97.754,M,36.771,M,2.4,0000*76
$GPVTG,355.40,T,3.85,M,0.04,N,0.07,K,D*2C
$GPGGA,065934.50,3713.95618214,N,13701.42415398,E,4,09,1.5,97.751,M,36.771,M,2.5,0000*7E
$GPVTG,332.60,T,341.05,M,0.04,N,0.07,K,D*22
$GPGGA,065934.60,3713.95617858,N,13701.42415473,E,4,09,1.5,97.755,M,36.771,M,2.6,0000*75
$GPVTG,294.99,T,303.44,M,0.02,N,0.04,K,D*2F
$GPGGA,065934.70,3713.95617174,N,13701.42415297,E,4,09,1.5,97.741,M,36.771,M,2.7,0000*7B
$GPVTG,258.85,T,267.30,M,0.06,N,0.11,K,D*22
$GPGGA,065934.80,3713.95617243,N,13701.42414731,E,4,09,1.5,97.759,M,36.771,M,2.8,0000*7D
$GPVTG,254.93,T,263.38,M,0.10,N,0.19,K,D*2A
$GPGGA,065934.90,3713.95617288,N,13701.42414387,E,4,09,1.5,97.748,M,36.771,M,2.9,0000*73
$GPVTG,269.82,T,278.27,M,0.12,N,0.22,K,D*2A
$GPGGA,065935.00,3713.95617181,N,13701.42414376,E,4,09,1.5,97.756,M,36.771,M,3.0,0000*78
$GPVTG,266.55,T,275.00,M,0.12,N,0.22,K,D*27
$GPGGA,065935.10,3713.95616702,N,13701.42414211,E,4,09,1.5,97.748,M,36.771,M,3.1,0000*7B
$GPVTG,252.68,T,261.13,M,0.12,N,0.23,K,D*28
$GPGGA,065935.20,3713.95616549,N,13701.42414137,E,4,09,1.5,97.750,M,36.771,M,2.2,0000*79
$GPVTG,264.12,T,272.57,M,0.09,N,0.17,K,D*2F
$GPGGA,065935.30,3713.95616410,N,13701.42414716,E,4,09,1.5,97.747,M,36.771,M,2.3,0000*77
$GPVTG,174.71,T,183.16,M,0.03,N,0.06,K,D*2A
$GPGGA,065935.40,3713.95616521,N,13701.42414714,E,4,09,1.5,97.750,M,36.771,M,2.4,0000*70
$GPVTG,47.79,T,56.24,M,0.01,N,0.02,K,D*2D
$GPGGA,065935.50,3713.95616302,N,13701.42415222,E,4,09,1.5,97.746,M,36.771,M,2.5,0000*71
$GPVTG,91.97,T,100.42,M,0.05,N,0.10,K,D*13
$GPGGA,065935.60,3713.95616399,N,13701.42414591,E,4,09,1.5,97.749,M,36.771,M,2.6,0000*72
$GPVTG,77.13,T,85.58,M,0.03,N,0.06,K,D*21
$GPGGA,065935.70,3713.95616402,N,13701.42414746,E,4,09,1.5,97.745,M,36.771,M,2.7,0000*73
$GPVTG,73.30,T,81.74,M,0.06,N,0.10,K,D*2C
$GPGGA,065935.80,3713.95616678,N,13701.42414900,E,4,09,1.5,97.748,M,36.771,M,2.8,0000*7D
$GPVTG,45.82,T,54.27,M,0.06,N,0.12,K,D*2C
$GPGGA,065935.90,3713.95616632,N,13701.42414678,E,4,09,1.5,97.750,M,36.771,M,2.9,0000*7A
$GPVTG,64.71,T,73.15,M,0.04,N,0.07,K,D*21
$GPGGA,065936.00,3713.95616743,N,13701.42414330,E,4,09,1.5,97.748,M,36.771,M,3.0,0000*7F
$GPVTG,1.94,T,10.39,M,0.03,N,0.05,K,D*17
$GPGGA,065936.10,3713.95616826,N,13701.42414278,E,4,09,1.5,97.751,M,36.771,M,3.1,0000*76
$GPVTG,341.11,T,349.56,M,0.04,N,0.08,K,D*21
$GPGGA,065936.20,3713.95617564,N,13701.42413896,E,4,09,1.5,97.750,M,36.771,M,2.2,0000*71
$GPVTG,324.03,T,332.48,M,0.08,N,0.14,K,D*23
$GPGGA,065936.30,3713.95617786,N,13701.42413783,E,4,09,1.5,97.754,M,36.771,M,2.3,0000*70
$GPVTG,333.03,T,341.48,M,0.07,N,0.13,K,D*29
$GPGGA,065936.40,3713.95617901,N,13701.42414002,E,4,09,1.5,97.758,M,36.771,M,2.4,0000*74
$GPVTG,331.73,T,340.18,M,0.11,N,0.20,K,D*2F
$GPGGA,065936.50,3713.95617721,N,13701.42414422,E,4,09,1.5,97.756,M,36.771,M,2.5,0000*70
$GPVTG,348.91,T,357.36,M,0.07,N,0.12,K,D*21
$GPGGA,065936.60,3713.95617824,N,13701.42414302,E,4,09,1.5,97.753,M,36.771,M,2.6,0000*7A
$GPVTG,3.47,T,11.92,M,0.07,N,0.13,K,D*18
$GPGGA,065936.70,3713.95617920,N,13701.42414601,E,4,09,1.5,97.762,M,36.771,M,2.7,0000*7B
$GPVTG,29.79,T,38.24,M,0.06,N,0.11,K,D*28
$GPGGA,065936.80,3713.95617749,N,13701.42414632,E,4,09,1.5,97.754,M,36.771,M,2.8,0000*7F
$GPVTG,38.84,T,47.29,M,0.04,N,0.07,K,D*2A
$GPGGA,065936.90,3713.95617739,N,13701.42415063,E,4,09,1.5,97.753,M,36.771,M,2.9,0000*7C
$GPVTG,52.63,T,61.08,M,0.06,N,0.11,K,D*2D
$GPGGA,065937.00,3713.95617847,N,13701.42415142,E,4,09,1.5,97.755,M,36.771,M,3.0,0000*7E
$GPVTG,33.39,T,41.84,M,0.05,N,0.09,K,D*29
$GPGGA,065937.10,3713.95617885,N,13701.42414824,E,4,09,1.5,97.757,M,36.771,M,3.1,0000*7A
$GPVTG,333.83,T,342.28,M,0.04,N,0.07,K,D*22
$GPGGA,065937.20,3713.95617618,N,13701.42415240,E,4,09,1.5,97.748,M,36.771,M,2.2,0000*76
$GPVTG,344.61,T,353.06,M,0.07,N,0.13,K,D*24
$GPGGA,065937.30,3713.95617510,N,13701.42415180,E,4,09,1.5,97.763,M,36.771,M,2.3,0000*7B
$GPVTG,330.07,T,338.52,M,0.06,N,0.10,K,D*29
$GPGGA,065937.40,3713.95617896,N,13701.42415161,E,4,09,1.5,97.752,M,36.771,M,2.4,0000*75
$GPVTG,349.13,T,357.58,M,0.06,N,0.12,K,D*23
$GPGGA,065937.50,3713.95617906,N,13701.42415136,E,4,09,1.5,97.761,M,36.771,M,2.5,0000*7F
$GPVTG,339.64,T,348.09,M,0.10,N,0.18,K,D*23
$GPGGA,065937.60,3713.95618150,N,13701.42415215,E,4,09,1.5,97.756,M,36.771,M,2.6,0000*7D
$GPVTG,343.10,T,351.55,M,0.08,N,0.14,K,D*29
$GPGGA,065937.70,3713.95618148,N,13701.42415288,E,4,09,1.5,97.760,M,36.771,M,2.7,0000*75
$GPVTG,356.22,T,4.67,M,0.06,N,0.11,K,D*25
$GPGGA,065937.80,3713.95618158,N,13701.42415299,E,4,09,1.5,97.760,M,36.771,M,2.8,0000*74
$GPVTG,347.67,T,356.12,M,0.06,N,0.11,K,D*22
$GPGGA,065937.90,3713.95618269,N,13701.42415447,E,4,09,1.5,97.758,M,36.771,M,2.9,0000*7B
$GPVTG,8.07,T,16.52,M,0.05,N,0.09,K,D*15
$GPGGA,065938.00,3713.95618102,N,13701.42415348,E,4,09,1.5,97.754,M,36.771,M,3.0,0000*7F
$GPVTG,28.83,T,37.28,M,0.01,N,0.01,K,D*29
$GPGGA,065938.10,3713.9561$GPGGA,065947.20,3713.95616612,N,13701.42415461,E,4,09,1.5,97.740,M,36.771,M,2.2,0000*77
$GPVTG,163.43,T,171.88,M,0.04,N,0.08,K,D*2E
$GPGGA,065947.30,3713.95616840,N,13701.42415938,E,4,09,1.5,97.740,M,36.771,M,2.3,0000*7F
$GPVTG,82.09,T,90.54,M,0.06,N,0.10,K,D*2A
$GPGGA,065947.40,3713.95616780,N,13701.42415723,E,4,09,1.5,97.732,M,36.771,M,2.4,0000*7D
$GPVTG,69.90,T,78.35,M,0.05,N,0.09,K,D*25
$GPGGA,065947.50,3713.95617290,N,13701.42415534,E,4,09,1.5,97.734,M,36.771,M,2.5,0000*7A
$GPVTG,27.60,T,36.05,M,0.05,N,0.10,K,D*21
$GPGGA,065947.60,3713.95617299,N,13701.42415607,E,4,09,1.5,97.738,M,36.771,M,2.6,0000*7C
$GPVTG,16.94,T,25.39,M,0.08,N,0.15,K,D*2D
$GPGGA,065947.70,3713.95617904,N,13701.42415293,E,4,09,1.5,97.741,M,36.771,M,2.7,0000*74
$GPVTG,3.92,T,12.37,M,0.11,N,0.20,K,D*1B
$GPGGA,065947.80,3713.95618266,N,13701.42414783,E,4,09,1.5,97.742,M,36.771,M,2.8,0000*72
$GPVTG,344.37,T,352.82,M,0.11,N,0.21,K,D*2C
$GPGGA,065947.90,3713.95618012,N,13701.42414754,E,4,09,1.5,97.746,M,36.771,M,2.9,0000*7D
$GPVTG,332.73,T,341.18,M,0.07,N,0.14,K,D*2D
$GPGGA,065948.00,3713.95617534,N,13701.42415034,E,4,09,1.5,97.740,M,36.771,M,3.0,0000*7B
$GPVTG,332.99,T,341.44,M,0.07,N,0.13,K,D*27
$GPGGA,065948.10,3713.95617165,N,13701.42415263,E,4,09,1.5,97.736,M,36.771,M,3.1,0000*7A
$GPVTG,316.70,T,325.15,M,0.01,N,0.02,K,D*26
$GPGGA,065948.20,3713.95617101,N,13701.42415063,E,4,09,1.5,97.750,M,36.771,M,2.2,0000*7B
$GPVTG,223.79,T,232.24,M,0.03,N,0.06,K,D*2B
$GPGGA,065948.30,3713.95617470,N,13701.42414731,E,4,09,1.5,97.757,M,36.771,M,2.3,0000*7E
$GPVTG,251.51,T,259.96,M,0.04,N,0.07,K,D*26
$GPGGA,065948.40,3713.95617202,N,13701.42415532,E,4,09,1.5,97.743,M,36.771,M,2.4,0000*78
$GPVTG,186.75,T,195.19,M,0.02,N,0.03,K,D*2F
$GPGGA,065948.50,3713.95617596,N,13701.42415393,E,4,09,1.5,97.754,M,36.771,M,2.5,0000*79
$GPVTG,13.49,T,21.94,M,0.02,N,0.04,K,D*21
$GPGGA,065948.60,3713.95617735,N,13701.42415410,E,4,09,1.5,97.751,M,36.771,M,2.6,0000*7B
$GPVTG,40.19,T,48.64,M,0.05,N,0.09,K,D*28
$GPGGA,065948.70,3713.95617814,N,13701.42415420,E,4,09,1.5,97.750,M,36.771,M,2.7,0000*75
$GPVTG,46.72,T,55.17,M,0.04,N,0.08,K,D*2B
$GPGGA,065948.80,3713.95617615,N,13701.42415483,E,4,09,1.5,97.754,M,36.771,M,2.8,0000*77
$GPVTG,24.55,T,33.00,M,0.04,N,0.08,K,D*2C
$GPGGA,065948.90,3713.95617474,N,13701.42415223,E,4,09,1.5,97.745,M,36.771,M,2.9,0000*7E
$GPVTG,83.01,T,91.46,M,0.00,N,0.01,K,D*27
$GPGGA,065949.00,3713.95617544,N,13701.42415505,E,4,09,1.5,97.743,M,36.771,M,3.0,0000*79
$GPVTG,122.35,T,130.80,M,0.01,N,0.02,K,D*28
$GPGGA,065949.10,3713.95617295,N,13701.42415408,E,4,09,1.5,97.747,M,36.771,M,3.1,0000*7A
$GPVTG,184.73,T,193.18,M,0.02,N,0.04,K,D*2B
$GPGGA,065949.20,3713.95617457,N,13701.42415400,E,4,09,1.5,97.740,M,36.771,M,2.2,0000*7C
$GPVTG,178.82,T,187.27,M,0.01,N,0.02,K,D*2A
$GPGGA,065949.30,3713.95617554,N,13701.42415496,E,4,09,1.5,97.746,M,36.771,M,2.3,0000*77
$GPVTG,49.75,T,58.20,M,0.02,N,0.03,K,D*27
$GPGGA,065949.40,3713.95617540,N,13701.42415186,E,4,09,1.5,97.740,M,36.771,M,2.4,0000*70
$GPVTG,302.96,T,311.41,M,0.01,N,0.02,K,D*2D
$GPGGA,065949.50,3713.95617718,N,13701.42415416,E,4,09,1.5,97.739,M,36.771,M,2.5,0000*7D
$GPVTG,358.88,T,7.33,M,0.04,N,0.07,K,D*2C
$GPGGA,065949.60,3713.95617649,N,13701.42414865,E,4,09,1.5,97.748,M,36.771,M,2.6,0000*77
$GPVTG,301.35,T,309.80,M,0.02,N,0.04,K,D*26
$GPGGA,065949.70,3713.95617340,N,13701.42415325,E,4,09,1.5,97.742,M,36.771,M,2.7,0000*7F
$GPVTG,13.64,T,22.09,M,0.01,N,0.02,K,D*2C
$GPGGA,065949.80,3713.95617247,N,13701.42415279,E,4,09,1.5,97.748,M,36.771,M,2.8,0000*7B
$GPVTG,332.53,T,340.97,M,0.02,N,0.03,K,D*2A
$GPGGA,065949.90,3713.95617189,N,13701.42414955,E,4,09,1.5,97.749,M,36.771,M,2.9,0000*7F
$GPVTG,267.52,T,275.97,M,0.04,N,0.08,K,D*20
$GPGGA,065950.00,3713.95617582,N,13701.42414866,E,4,09,1.5,97.740,M,36.771,M,3.0,0000*71
$GPVTG,294.38,T,302.83,M,0.06,N,0.12,K,D*2D
$GPGGA,065950.10,3713.95617142,N,13701.42414837,E,4,09,1.5,97.747,M,36.771,M,3.1,0000*7A
$GPVTG,277.68,T,286.13,M,0.06,N,0.11,K,D*22
$GPGGA,065950.20,3713.95617493,N,13701.42415041,E,4,09,1.5,97.752,M,36.771,M,2.2,0000*7E
$GPVTG,286.82,T,295.27,M,0.06,N,0.10,K,D*2C
$GPGGA,065950.30,3713.95617697,N,13701.42414639,E,4,09,1.5,97.755,M,36.771,M,2.3,0000*77
$GPVTG,285.63,T,294.08,M,0.08,N,0.15,K,D*27
$GPGGA,065950.40,3713.95617384,N,13701.42414979,E,4,09,1.5,97.752,M,36.771,M,2.4,0000*7C
$GPVTG,263.73,T,272.18,M,0.04,N,0.08,K,D*27
$GPGGA,065950.50,3713.95617587,N,13701.42414309,E,4,09,1.5,97.756,M,36.771,M,2.5,0000*70
$GPVTG,280.02,T,288.47,M,0.08,N,0.15,K,D*23
$GPGGA,065950.60,3713.95617542,N,13701.42414104,E,4,09,1.5,97.754,M,36.771,M,2.6,0000*74
$GPVTG,272.49,T,280.94,M,0.10,N,0.18,K,D*23
$GPGGA,065950.70,3713.95617227,N,13701.42414070,E,4,09,1.5,97.757,M,36.771,M,2.7,0000*71
$GPVTG,268.56,T,277.00,M,0.09,N,0.16,K,D*25
$GPGGA,065950.80,3713.95617347,N,13701.42414232,E,4,09,1.5,97.750,M,36.771,M,2.8,0000*75
$GPVTG,277.67,T,286.12,M,0.09,N,0.16,K,D*24
$GPGGA,065950.90,3713.95617402,N,13701.42414125,E,4,09,1.5,97.751,M,36.771,M,2.9,0000*77
$GPVTG,288.60,T,297.05,M,0.07,N,0.12,K,D*2F
$GPGGA,065951.00,3713.95617252,N,13701.42414574,E,4,09,1.5,97.751,M,36.771,M,3.0,0000*74
$GPVTG,302.47,T,310.92,M,0.02,N,0.05,K,D*2A
$GPGGA,065951.10,3713.95617449,N,13701.42414437,E,4,09,1.5,97.758,M,36.771,M,3.1,0000*77
$GPVTG,337.76,T,346.21,M,0.05,N,0.08,K,D*2F
$GPGGA,065951.20,3713.95616891,N,13701.42414795,E,4,09,1.5,97.752,M,36.771,M,2.2,0000*7F
$GPVTG,16.61,T,25.06,M,0.05,N,0.09,K,D*2B
$GPGGA,065951.30,3713.95616899,N,13701.42414723,E,4,09,1.5,97.753,M,36.771,M,2.3,0000*7B
$GPVTG,14.47,T,22.92,M,0.05,N,0.09,K,D*27
$GPGGA,065951.40,3713.95616916,N,13701.42414774,E,4,09,1.5,97.750,M,36.771,M,2.4,0000*7C
$GPVTG,0.69,T,9.14,M,0.06,N,0.11,K,D*23
$GPGGA,065951.50,3713.95617107,N,13701.42414562,E,4,09,1.5,97.755,M,36.771,M,2.5,0000*75
$GPVTG,341.65,T,350.10,M,0.07,N,0.13,K,D*21
$GPGGA,065951.60,3713.95617413,N,13701.42414361,E,4,09,1.5,97.748,M,36.771,M,2.6,0000*7C
$GPVTG,338.67,T,347.12,M,0.08,N,0.14,K,D*21
$GPGGA,065951.70,3713.95617178,N,13701.42414661,E,4,09,1.5,97.756,M,36.771,M,2.7,0000*7E
$GPVTG,348.02,T,356.47,M,0.02,N,0.04,K,D*2E
$GPGGA,065951.80,3713.95617312,N,13701.42414448,E,4,09,1.5,97.753,M,36.771,M,2.8,0000*7C
$GPVTG,316.14,T,324.59,M,0.04,N,0.08,K,D*22
$GPGGA,065951.90,3713.95617314,N,13701.42414555,E,4,09,1.5,97.749,M,36.771,M,2.9,0000*7C
$GPVTG,36.38,T,44.83,M,0.03,N,0.06,K,D*26
$GPGGA,065952.00,3713.95617140,N,13701.42414930,E,4,09,1.5,97.749,M,36.771,M,3.0,0000*72
$GPVTG,81.03,T,89.48,M,0.04,N,0.08,K,D*2D
$GPGGA,065952.10,3713.95617084,N,13701.42414925,E,4,09,1.5,97.747,M,36.771,M,3.1,0000*71
$GPVTG,79.94,T,88.39,M,0.03,N,0.06,K,D*2A
$GPGGA,065952.20,3713.95616940,N,13701.42415073,E,4,09,1.5,97.748,M,36.771,M,2.2,0000*74
$GPVTG,77.70,T,86.15,M,0.05,N,0.09,K,D*27
$GPGGA,065952.30,3713.95616963,N,13701.42415563,E,4,09,1.5,97.747,M,36.771,M,2.3,0000*7E
$GPVTG,87.31,T,95.76,M,0.08,N,0.16,K,D*29
$GPGGA,065952.40,3713.95617653,N,13701.42415030,E,4,09,1.5,97.753,M,36.771,M,2.4,0000*75
$GPVTG,64.64,T,73.09,M,0.08,N,0.14,K,D*26
$GPGGA,065952.50,3713.95617593,N,13701.42415479,E,4,09,1.5,97.755,M,36.771,M,2.5,0000*75
$GPVTG,70.36,T,78.81,M,0.09,N,0.18,K,D*22
$GPGGA,065952.60,3713.95617671,N,13701.42415289,E,4,09,1.5,97.751,M,36.771,M,2.6,0000*77
$GPVTG,72.52,T,80.97,M,0.08,N,0.15,K,D*2E
$GPGGA,065952.70,3713.95618092,N,13701.42414996,E,4,09,1.5,97.754,M,36.771,M,2.7,0000*72
$GPVTG,46.76,T,55.21,M,0.07,N,0.12,K,D*22
$GPGGA,065952.80,3713.95617607,N,13701.42414858,E,4,09,1.5,97.751,M,36.771,M,2.8,0000*71
$GPVTG,48.39,T,56.84,M,0.01,N,0.02,K,D*2C
$GPGGA,065952.90,3713.95617027,N,13701.42415012,E,4,09,1.5,97.744,M,36.771,M,2.9,0000*76
$GPVTG,184.06,T,192.51,M,0.03,N,0.05,K,D*25
$GPGGA,065953.00,3713.95617194,N,13701.42415255,E,4,09,1.5,97.756,M,36.771,M,3.0,0000*7D
$GPVTG,211.86,T,220.31,M,0.03,N,0.05,K,D*2E
$GPGGA,065953.10,3713.95616961,N,13701.42415060,E,4,09,1.5,97.755,M,36.771,M,3.1,0000*79
$GPVTG,239.49,T,247.94,M,0.05,N,0.10,K,D*2B
$GPGGA,065953.20,3713.95617242,N,13701.42415108,E,4,09,1.5,97.751,M,36.771,M,2.2,0000*78
$GPVTG,223.98,T,232.43,M,0.04,N,0.07,K,D*23
$GPGGA,065953.30,3713.95617583,N,13701.42415107,E,4,09,1.5,97.757,M,36.771,M,2.3,0000*7B
$GPVTG,289.66,T,298.11,M,0.03,N,0.05,K,D*20
$GPGGA,065953.40,3713.95617630,N,13701.42415047,E,4,09,1.5,97.746,M,36.771,M,2.4,0000*75
$GPVTG,316.96,T,325.41,M,0.03,N,0.06,K,D*29
$GPGGA,065953.50,3713.95617201,N,13701.42414867,E,4,09,1.5,97.749,M,36.771,M,2.5,0000*77
$GPVTG,288.49,T,296.94,M,0.04,N,0.07,K,D*2A
$GPGGA,065953.60,3713.95617291,N,13701.42414910,E,4,09,1.5,97.751,M,36.771,M,2.6,0000*76
$GPVTG,316.95,T,325.40,M,0.02,N,0.03,K,D*2F
$GPGGA,065953.70,3713.95617291,N,13701.42414767,E,4,09,1.5,97.747,M,36.771,M,2.7,0000*7F
$GPVTG,305.09,T,313.54,M,0.03,N,0.05,K,D*2F
$GPGGA,065953.80,3713.95617145,N,13701.42415051,E,4,09,1.5,97.745,M,36.771,M,2.8,0000*74
$GPVTG,299.87,T,308.32,M,0.02,N,0.04,K,D*27
$GPGGA,065953.90,3713.95617256,N,13701.42414723,E,4,09,1.5,97.744,M,36.771,M,2.9,0000*77
$GPVTG,287.49,T,295.93,M,0.04,N,0.07,K,D*21
$GPGGA,065954.00,3713.95616966,N,13701.42414663,E,4,09,1.5,97.747,M,36.771,M,3.0,0000*7E
$GPVTG,290.23,T,298.68,M,0.04,N,0.08,K,D*2D
$GPGGA,065954.10,3713.95617520,N,13701.42414673,E,4,09,1.5,97.746,M,36.771,M,3.1,0000*71
$GPVTG,355.57,T,4.02,M,0.06,N,0.11,K,D*27
$GPGGA,065954.20,3713.95616887,N,13701.42414664,E,4,09,1.5,97.744,M,36.771,M,2.2,0000*75
$GPVTG,335.54,T,343.98,M,0.04,N,0.07,K,D*24
$GPGGA,065954.30,3713.95616980,N,13701.42414522,E,4,09,1.5,97.743,M,36.771,M,2.3,0000*75
$GPVTG,327.47,T,335.92,M,0.06,N,0.11,K,D*2B
$GPGGA,065954.40,3713.95616629,N,13701.42414773,E,4,09,1.5,97.737,M,36.771,M,2.4,0000*7C
$GPVTG,341.98,T,350.43,M,0.05,N,0.09,K,D*2C
$GPGGA,065954.50,3713.95616791,N,13701.42414638,E,4,09,1.5,97.748,M,36.771,M,2.5,0000*78
$GPVTG,295.10,T,303.55,M,0.03,N,0.05,K,D*2F
$GPGGA,065954.60,3713.95616914,N,13701.42414532,E,4,09,1.5,97.747,M,36.771,M,2.6,0000*7D
$GPVTG,302.53,T,310.98,M,0.03,N,0.06,K,D*27
$GPGGA,065954.70,3713.95616254,N,13701.42414811,E,4,09,1.5,97.740,M,36.771,M,2.7,0000*79
$GPVTG,285.76,T,294.21,M,0.04,N,0.06,K,D*26
$GPGGA,065954.80,3713.95616102,N,13701.42414823,E,4,09,1.5,97.741,M,36.771,M,2.8,0000*79
$GPVTG,234.01,T,242.46,M,0.04,N,0.07,K,D*27
$GPGGA,065954.90,3713.95615985,N,13701.42414505,E,4,09,1.5,97.734,M,36.771,M,2.9,0000*76
$GPVTG,267.95,T,276.40,M,0.07,N,0.13,K,D*2B
$GPGGA,065955.00,3713.95616574,N,13701.42414111,E,4,09,1.5,97.745,M,36.771,M,3.0,0000*70
$GPVTG,277.78,T,286.22,M,0.07,N,0.14,K,D*25
$GPGGA,065955.10,3713.95616510,N,13701.42414212,E,4,09,1.5,97.741,M,36.771,M,3.1,0000*76
$GPVTG,285.44,T,293.89,M,0.05,N,0.08,K,D*2D
$GPGGA,065955.20,3713.95616542,N,13701.42413659,E,4,09,1.5,97.748,M,36.771,M,2.2,0000*75
$GPVTG,301.26,T,309.71,M,0.05,N,0.09,K,D*20
$GPGGA,065955.30,3713.95616619,N,13701.42413811,E,4,09,1.5,97.746,M,36.771,M,2.3,0000*74
$GPVTG,327.37,T,335.82,M,0.04,N,0.07,K,D*28
$GPGGA,065955.40,3713.95616674,N,13701.42413713,E,4,09,1.5,97.747,M,36.771,M,2.4,0000*73
$GPVTG,337.25,T,345.69,M,0.05,N,0.09,K,D*27
$GPGGA,065955.50,3713.95616647,N,13701.42413798,E,4,09,1.5,97.747,M,36.771,M,2.5,0000*70
$GPVTG,342.77,T,351.22,M,0.02,N,0.05,K,D*23
$GPGGA,065955.60,3713.95616621,N,13701.42413761,E,4,09,1.5,97.743,M,36.771,M,2.6,0000*72
$GPVTG,351.72,T,0.17,M,0.07,N,0.13,K,D*27
$GPGGA,065955.70,3713.95616746,N,13701.42414171,E,4,09,1.5,97.745,M,36.771,M,2.7,0000*74
$GPVTG,37.95,T,46.40,M,0.05,N,0.10,K,D*2C
$GPGGA,065955.80,3713.95616502,N,13701.42414019,E,4,09,1.5,97.754,M,36.771,M,2.8,0000*79
$GPVTG,62.45,T,70.90,M,0.03,N,0.05,K,D*2B
$GPGGA,065955.90,3713.95617024,N,13701.42413963,E,4,09,1.5,97.747,M,36.771,M,2.9,0000*78
$GPVTG,39.13,T,47.58,M,0.07,N,0.13,K,D*25
$GPGGA,065956.00,3713.95616715,N,13701.42413845,E,4,09,1.5,97.749,M,36.771,M,3.0,0000*75
$GPVTG,24.20,T,32.65,M,0.04,N,0.08,K,D*2C
$GPGGA,065956.10,3713.95616803,N,13701.42414047,E,4,09,1.5,97.747,M,36.771,M,3.1,0000*7E
$GPVTG,28.85,T,37.30,M,0.05,N,0.09,K,D*2A
$GPGGA,065956.20,3713.95616901,N,13701.42414499,E,4,09,1.5,97.751,M,36.771,M,2.2,0000*7C
$GPVTG,21.80,T,30.25,M,0.06,N,0.12,K,D*2C
$GPGGA,065956.30,3713.95616782,N,13701.42414234,E,4,09,1.5,97.757,M,36.771,M,2.3,0000*7E
$GPVTG,339.51,T,347.96,M,0.03,N,0.06,K,D*21
$GPGGA,065956.40,3713.95616881,N,13701.42414151,E,4,09,1.5,97.747,M,36.771,M,2.4,0000*73
$GPVTG,320.06,T,328.51,M,0.04,N,0.07,K,D*2F
$GPGGA,065956.50,3713.95617089,N,13701.42413761,E,4,09,1.5,97.746,M,36.771,M,2.5,0000*71
$GPVTG,302.98,T,311.43,M,0.06,N,0.11,K,D*24
$GPGGA,065956.60,3713.95616836,N,13701.42414403,E,4,09,1.5,97.743,M,36.771,M,2.6,0000*79
$GPVTG,280.05,T,288.50,M,0.02,N,0.05,K,D*29
$GPGGA,065956.70,3713.95616861,N,13701.42414091,E,4,09,1.5,97.741,M,36.771,M,2.7,0000*76
$GPVTG,243.11,T,251.56,M,0.03,N,0.06,K,D*23
$GPGGA,065956.80,3713.95616457,N,13701.42414802,E,4,09,1.5,97.747,M,36.771,M,2.8,0000*7B
$GPVTG,278.86,T,287.31,M,0.03,N,0.06,K,D*2F
$GPGGA,065956.90,3713.95616643,N,13701.42414646,E,4,09,1.5,97.748,M,36.771,M,2.9,0000*7D
$GPVTG,1.93,T,10.38,M,0.01,N,0.02,K,D*14
$GPGGA,065957.00,3713.95617111,N,13701.42415035,E,4,09,1.5,97.756,M,36.771,M,3.0,0000*70
$GPVTG,31.24,T,39.69,M,0.06,N,0.11,K,D*21
$GPGGA,065957.10,3713.95616924,N,13701.42415287,E,4,09,1.5,97.753,M,36.771,M,3.1,0000*71
$GPVTG,50.69,T,59.14,M,0.06,N,0.12,K,D*20
$GPGGA,065957.20,3713.95616847,N,13701.42415084,E,4,09,1.5,97.751,M,36.771,M,2.2,0000*77
$GPVTG,43.02,T,51.47,M,0.06,N,0.11,K,D*22
$GPGGA,065957.30,3713.95617029,N,13701.42415249,E,4,09,1.5,97.760,M,36.771,M,2.3,0000*77
$GPVTG,39.11,T,47.56,M,0.07,N,0.14,K,D*2E
$GPGGA,065957.40,3713.95617178,N,13701.42415359,E,4,09,1.5,97.754,M,36.771,M,2.4,0000*75
$GPVTG,44.41,T,52.86,M,0.07,N,0.13,K,D*2F
$GPGGA,065957.50,3713.95616912,N,13701.42415430,E,4,09,1.5,97.748,M,36.771,M,2.5,0000*75
$GPVTG,71.70,T,80.15,M,0.04,N,0.08,K,D*27
$GPGGA,065957.60,3713.95616944,N,13701.42415542,E,4,09,1.5,97.757,M,36.771,M,2.6,0000*7C
$GPVTG,78.07,T,86.52,M,0.03,N,0.06,K,D*22
$GPGGA,065957.70,3713.95617107,N,13701.42415254,E,4,09,1.5,97.757,M,36.771,M,2.7,0000*72
$GPVTG,4.59,T,13.04,M,0.02,N,0.03,K,D*19
$GPGGA,065957.80,3713.95617266,N,13701.42415110,E,4,09,1.5,97.755,M,36.771,M,2.8,0000*77
$GPVTG,307.95,T,316.40,M,0.01,N,0.02,K,D*2D
$GPGGA,065957.90,3713.95617159,N,13701.42415198,E,4,09,1.5,97.748,M,36.771,M,2.9,0000*74
$GPVTG,199.16,T,207.61,M,0.01,N,0.03,K,D*20
$GPGGA,065958.00,3713.95617078,N,13701.42414917,E,4,09,1.5,97.748,M,36.771,M,3.0,0000*76
$GPVTG,224.10,T,232.55,M,0.04,N,0.07,K,D*23
$GPGGA,065958.10,3713.95617256,N,13701.42414974,E,4,09,1.5,97.751,M,36.771,M,3.1,0000*75
$GPVTG,235.95,T,244.40,M,0.03,N,0.05,K,D*2E
$GPGGA,065958.20,3713.95617039,N,13701.42415206,E,4,09,1.5,97.749,M,36.771,M,2.2,0000*79
$GPVTG,328.97,T,337.42,M,0.01,N,0.02,K,D*23
$GPGGA,065958.30,3713.95617011,N,13701.42415319,E,4,09,1.5,97.747,M,36.771,M,2.3,0000*72
$GPVTG,15.47,T,23.92,M,0.01,N,0.02,K,D*28
$GPGGA,065958.40,3713.95616981,N,13701.42415196,E,4,09,1.5,97.745,M,36.771,M,2.4,0000*74
$GPVTG,20.10,T,28.55,M,0.02,N,0.04,K,D*29
$GPGGA,065958.50,3713.95616775,N,13701.42415373,E,4,09,1.5,97.748,M,36.771,M,2.5,0000*75
$GPVTG,345.63,T,354.08,M,0.01,N,0.03,K,D*29
$GPGGA,065958.60,3713.95616980,N,13701.42415213,E,4,09,1.5,97.749,M,36.771,M,2.6,0000*77
$GPVTG,358.04,T,6.49,M,0.03,N,0.06,K,D*22
$GPGGA,065958.70,3713.95616917,N,13701.42415427,E,4,09,1.5,97.741,M,36.771,M,2.7,0000*70
$GPVTG,20.62,T,29.07,M,0.03,N,0.05,K,D*2A
$GPGGA,065958.80,3713.95616835,N,13701.42415620,E,4,09,1.5,97.743,M,36.771,M,2.8,0000*76
$GPVTG,71.97,T,80.42,M,0.03,N,0.06,K,D*25
$GPGGA,065958.90,3713.95616797,N,13701.42415609,E,4,09,1.5,97.744,M,36.771,M,2.9,0000*7D
$GPVTG,39.15,T,47.60,M,0.02,N,0.03,K,D*2C
$GPGGA,065959.00,3713.95617006,N,13701.42415418,E,4,09,1.5,97.743,M,36.771,M,3.0,0000*76
$GPVTG,36.78,T,45.23,M,0.03,N,0.05,K,D*2A
$GPGGA,065959.10,3713.95616845,N,13701.42415132,E,4,09,1.5,97.742,M,36.771,M,3.1,0000*74
$GPVTG,295.50,T,303.95,M,0.02,N,0.05,K,D*26
$GPGGA,065959.20,3713.95617173,N,13701.42414795,E,4,09,1.5,97.753,M,36.771,M,2.2,0000*72
$GPVTG,268.72,T,277.17,M,0.04,N,0.08,K,D*27
$GPGGA,065959.30,3713.95617115,N,13701.42414620,E,4,09,1.5,97.756,M,36.771,M,2.3,0000*78
$GPVTG,261.88,T,270.33,M,0.05,N,0.09,K,D*2A
$GPGGA,065959.40,3713.95616875,N,13701.42414681,E,4,09,1.5,97.751,M,36.771,M,2.4,0000*7A
$GPVTG,230.59,T,239.04,M,0.07,N,0.13,K,D*22
$GPGGA,065959.50,3713.95616832,N,13701.42414233,E,4,09,1.5,97.751,M,36.771,M,2.5,0000*74
$GPVTG,249.91,T,258.36,M,0.09,N,0.16,K,D*25
$GPGGA,065959.60,3713.95616833,N,13701.42414509,E,4,09,1.5,97.748,M,36.771,M,2.6,0000*73
$GPVTG,250.07,T,258.52,M,0.06,N,0.11,K,D*28
$GPGGA,065959.70,3713.95616561,N,13701.42414839,E,4,09,1.5,97.750,M,36.771,M,2.7,0000*7E
$GPVTG,173.28,T,181.73,M,0.05,N,0.10,K,D*21
$GPGGA,065959.80,3713.95616165,N,13701.42414723,E,4,09,1.5,97.759,M,36.771,M,2.8,0000*73
$GPVTG,179.31,T,187.76,M,0.02,N,0.04,K,D*22
$GPGGA,065959.90,3713.95616254,N,13701.42415096,E,4,09,1.5,97.749,M,36.771,M,2.9,0000*7B
$GPVTG,142.61,T,151.06,M,0.04,N,0.08,K,D*29
$GPGGA,070000.00,3713.95616144,N,13701.42414846,E,4,09,1.5,97.756,M,36.771,M,3.0,0000*73
$GPVTG,113.50,T,121.95,M,0.04,N,0.07,K,D*2D
$GPGGA,070000.10,3713.95615986,N,13701.42415119,E,4,09,1.5,97.755,M,36.771,M,3.1,0000*77
$GPVTG,119.24,T,127.69,M,0.05,N,0.10,K,D*26
$GPGGA,070000.20,3713.95616357,N,13701.42414782,E,4,09,1.5,97.754,M,36.771,M,2.2,0000*77
$GPVTG,123.80,T,132.25,M,0.03,N,0.05,K,D*2F
$GPGGA,070000.30,3713.95615916,N,13701.42415504,E,4,09,1.5,97.749,M,36.771,M,2.3,0000*7A
$GPVTG,95.68,T,104.13,M,0.06,N,0.11,K,D*15
$GPGGA,070000.40,3713.95616517,N,13701.42415227,E,4,09,1.5,97.753,M,36.771,M,2.4,0000*79
$GPVTG,65.54,T,73.99,M,0.07,N,0.14,K,D*22
$GPGGA,070000.50,3713.95616741,N,13701.42415225,E,4,09,1.5,97.757,M,36.771,M,2.5,0000*7E
$GPVTG,40.34,T,48.79,M,0.08,N,0.15,K,D*2B
$GPGGA,070000.60,3713.95616855,N,13701.42415194,E,4,09,1.5,97.756,M,36.771,M,2.6,0000*7C
$GPVTG,26.47,T,34.92,M,0.11,N,0.20,K,D*2F
$GPGGA,070000.70,3713.95617217,N,13701.42415211,E,4,09,1.5,97.759,M,36.771,M,2.7,0000*70
$GPVTG,26.28,T,34.73,M,0.13,N,0.23,K,D*28
$GPGGA,070000.80,3713.95617294,N,13701.42414838,E,4,09,1.5,97.753,M,36.771,M,2.8,0000*71
$GPVTG,359.02,T,7.47,M,0.14,N,0.26,K,D*2E
$GPGGA,070000.90,3713.95617419,N,13701.42415085,E,4,09,1.5,97.759,M,36.771,M,2.9,0000*77
$GPVTG,355.02,T,3.47,M,0.08,N,0.16,K,D*28
$GPGGA,070001.00,3713.95617728,N,13701.42414800,E,4,09,1.5,97.738,M,36.771,M,3.0,0000*75
$GPVTG,336.73,T,345.18,M,0.07,N,0.13,K,D*2A
$GPGGA,070001.10,3713.95617664,N,13701.42414633,E,4,09,1.5,97.744,M,36.771,M,3.1,0000*79
$GPVTG,314.24,T,322.69,M,0.09,N,0.16,K,D*24
$GPGGA,070001.20,3713.95617478,N,13701.42414709,E,4,09,1.5,97.746,M,36.771,M,2.2,0000*7D
$GPVTG,292.65,T,301.10,M,0.06,N,0.11,K,D*29
$GPGGA,070001.30,3713.95617682,N,13701.42414690,E,4,09,1.5,97.745,M,36.771,M,2.3,0000*78
$GPVTG,289.83,T,298.28,M,0.04,N,0.07,K,D*24
$GPGGA,070001.40,3713.95617411,N,13701.42414766,E,4,09,1.5,97.740,M,36.771,M,2.4,0000*7D
$GPVTG,232.65,T,241.10,M,0.01,N,0.02,K,D*23
$GPGGA,070001.50,3713.95617138,N,13701.42415371,E,4,09,1.5,97.740,M,36.771,M,2.5,0000*70
$GPVTG,269.05,T,277.50,M,0.02,N,0.03,K,D*28
$GPGGA,070001.60,3713.95617535,N,13701.42414664,E,4,09,1.5,97.738,M,36.771,M,2.6,0000*76
$GPVTG,278.24,T,286.69,M,0.02,N,0.03,K,D*2F
$GPGGA,070001.70,3713.95617226,N,13701.42415077,E,4,09,1.5,97.745,M,36.771,M,2.7,0000*7C
$GPVTG,149.09,T,157.54,M,0.02,N,0.03,K,D*20
$GPGGA,070001.80,3713.95617453,N,13701.42414855,E,4,09,1.5,97.743,M,36.771,M,2.8,0000*77
$GPVTG,322.11,T,330.56,M,0.02,N,0.03,K,D*27
$GPGGA,070001.90,3713.95617594,N,13701.42415203,E,4,09,1.5,97.743,M,36.771,M,2.9,0000*75
$GPVTG,34.26,T,42.71,M,0.04,N,0.07,K,D*26
$GPGGA,070002.00,3713.95617766,N,13701.42415196,E,4,09,1.5,97.749,M,36.771,M,3.0,0000*7D
$GPVTG,35.19,T,43.64,M,0.07,N,0.12,K,D*29
$GPGGA,070002.10,3713.95618479,N,13701.42414949,E,4,09,1.5,97.743,M,36.771,M,3.1,0000*7E
$GPVTG,16.65,T,25.10,M,0.11,N,0.20,K,D*26
$GPGGA,070002.20,3713.95617925,N,13701.42415138,E,4,09,1.5,97.743,M,36.771,M,2.2,0000*7B
$GPVTG,12.78,T,21.23,M,0.11,N,0.20,K,D*2A
$GPGGA,070002.30,3713.95617970,N,13701.42415378,E,4,09,1.5,97.742,M,36.771,M,2.3,0000*7C
$GPVTG,14.45,T,22.90,M,0.08,N,0.15,K,D*27
$GPGGA,070002.40,3713.95617894,N,13701.42415374,E,4,09,1.5,97.736,M,36.771,M,2.4,0000*78
$GPVTG,1.41,T,9.86,M,0.07,N,0.12,K,D*21
$GPGGA,070002.50,3713.95617854,N,13701.42415311,E,4,09,1.5,97.738,M,36.771,M,2.5,0000*79
$GPVTG,335.18,T,343.63,M,0.04,N,0.08,K,D*27
$GPGGA,070002.60,3713.95617720,N,13701.42415198,E,4,09,1.5,97.739,M,36.771,M,2.6,0000*77
$GPVTG,287.09,T,295.54,M,0.03,N,0.06,K,D*28
$GPGGA,070002.70,3713.95617441,N,13701.42415326,E,4,09,1.5,97.740,M,36.771,M,2.7,0000*7A
$GPVTG,257.09,T,265.54,M,0.02,N,0.04,K,D*29
$GPGGA,070002.80,3713.95617499,N,13701.42415283,E,4,09,1.5,97.742,M,36.771,M,2.8,0000*73
$GPVTG,170.51,T,178.96,M,0.03,N,0.05,K,D*23
$GPGGA,070002.90,3713.95617656,N,13701.42414968,E,4,09,1.5,97.743,M,36.771,M,2.9,0000*7C
$GPVTG,260.58,T,269.03,M,0.03,N,0.05,K,D*27
$GPGGA,070003.00,3713.95617466,N,13701.42415155,E,4,09,1.5,97.742,M,36.771,M,3.0,0000*7B
$GPVTG,242.08,T,250.53,M,0.01,N,0.02,K,D*28
$GPGGA,070003.10,3713.95617655,N,13701.42414980,E,4,09,1.5,97.747,M,36.771,M,3.1,0000*7D
$GPVTG,320.40,T,328.85,M,0.03,N,0.06,K,D*22
$GPGGA,070003.20,3713.95617684,N,13701.42414869,E,4,09,1.5,97.751,M,36.771,M,2.2,0000*71
$GPVTG,339.30,T,347.75,M,0.04,N,0.08,K,D*22
$GPGGA,070003.30,3713.95617548,N,13701.42415038,E,4,09,1.5,97.757,M,36.771,M,2.3,0000*79
$GPVTG,326.87,T,335.32,M,0.04,N,0.07,K,D*29
$GPGGA,070003.40,3713.95617263,N,13701.42415285,E,4,09,1.5,97.752,M,36.771,M,2.4,0000*76
$GPVTG,12.78,T,21.23,M,0.02,N,0.03,K,D*29
$GPGGA,070003.50,3713.95617407,N,13701.42414839,E,4,09,1.5,97.751,M,36.771,M,2.5,0000*7D
$GPVTG,307.23,T,315.68,M,0.06,N,0.11,K,D*2C
$GPGGA,070003.60,3713.95617563,N,13701.42414779,E,4,09,1.5,97.746,M,36.771,M,2.6,0000*73
$GPVTG,317.68,T,326.13,M,0.04,N,0.08,K,D*24
$GPGGA,070003.70,3713.95617463,N,13701.42414780,E,4,09,1.5,97.750,M,36.771,M,2.7,0000*73
$GPVTG,278.01,T,286.46,M,0.03,N,0.06,K,D*21
$GPGGA,070003.80,3713.95617139,N,13701.42414890,E,4,09,1.5,97.745,M,36.771,M,2.8,0000*73
$GPVTG,290.41,T,298.86,M,0.04,N,0.07,K,D*26
$GPGGA,070003.90,3713.95617432,N,13701.42414839,E,4,09,1.5,97.746,M,36.771,M,2.9,0000*7D
$GPVTG,312.25,T,320.70,M,0.04,N,0.08,K,D*2B
$GPGGA,070004.00,3713.95617213,N,13701.42414637,E,4,09,1.5,97.748,M,36.771,M,3.0,0000*70
$GPVTG,298.99,T,307.44,M,0.07,N,0.12,K,D*25
$GPGGA,070004.10,3713.95617409,N,13701.42414629,E,4,09,1.5,97.749,M,36.771,M,3.1,0000*73
$GPVTG,305.26,T,313.71,M,0.05,N,0.10,K,D*27
$GPGGA,070004.20,3713.95616847,N,13701.42414601,E,4,09,1.5,97.751,M,36.771,M,2.2,0000*76
$GPVTG,315.71,T,324.16,M,0.05,N,0.09,K,D*29
$GPGGA,070004.30,3713.95616986,N,13701.42414202,E,4,09,1.5,97.747,M,36.771,M,2.3,0000*7A
$GPVTG,266.89,T,275.34,M,0.04,N,0.07,K,D*21
$GPGGA,070004.40,3713.95616931,N,13701.42414157,E,4,09,1.5,97.751,M,36.771,M,2.4,0000*72
$GPVTG,252.74,T,261.19,M,0.06,N,0.11,K,D*2B
$GPGGA,070004.50,3713.95617131,N,13701.42414144,E,4,09,1.5,97.748,M,36.771,M,2.5,0000*71
$GPVTG,304.41,T,312.86,M,0.04,N,0.07,K,D*29
$GPGGA,070004.60,3713.95617118,N,13701.42414040,E,4,09,1.5,97.750,M,36.771,M,2.6,0000*76
$GPVTG,321.76,T,330.21,M,0.05,N,0.09,K,D*28
$GPGGA,070004.70,3713.95616555,N,13701.42413751,E,4,09,1.5,97.752,M,36.771,M,2.7,0000*78
$GPVTG,258.53,T,266.98,M,0.08,N,0.15,K,D*20
$GPGGA,070004.80,3713.95616328,N,13701.42413841,E,4,09,1.5,97.742,M,36.771,M,2.8,0000*7B
$GPVTG,238.33,T,246.78,M,0.08,N,0.15,K,D*2C
$GPGGA,070004.90,3713.95616280,N,13701.42413987,E,4,09,1.5,97.747,M,36.771,M,2.9,0000*76
$GPVTG,229.95,T,238.40,M,0.04,N,0.08,K,D*22
$GPGGA,070005.00,3713.95615904,N,13701.42414005,E,4,09,1.5,97.744,M,36.771,M,3.0,0000*75
$GPVTG,202.31,T,210.76,M,0.06,N,0.11,K,D*20
$GPGGA,070005.10,3713.95616080,N,13701.42413865,E,4,09,1.5,97.745,M,36.771,M,3.1,0000*7B
$GPVTG,203.74,T,212.19,M,0.04,N,0.07,K,D*2E
$GPGGA,070005.20,3713.95615996,N,13701.42413941,E,4,09,1.5,97.741,M,36.771,M,2.2,0000*74
$GPVTG,196.84,T,205.29,M,0.02,N,0.03,K,D*29
$GPGGA,070005.30,3713.95616567,N,13701.42413866,E,4,09,1.5,97.738,M,36.771,M,2.3,0000*7F
$GPVTG,21.56,T,30.01,M,0.03,N,0.06,K,D*21
$GPGGA,070005.40,3713.95616031,N,13701.42414174,E,4,09,1.5,97.743,M,36.771,M,2.4,0000*78
$GPVTG,36.91,T,45.36,M,0.03,N,0.06,K,D*2A
$GPGGA,070005.50,3713.95616618,N,13701.42414020,E,4,09,1.5,97.744,M,36.771,M,2.5,0000*72
$GPVTG,15.40,T,23.85,M,0.08,N,0.14,K,D*27
$GPGGA,070005.60,3713.95616527,N,13701.42414447,E,4,09,1.5,97.743,M,36.771,M,2.6,0000*7F
$GPVTG,30.68,T,39.13,M,0.10,N,0.19,K,D*2A
$GPGGA,070005.70,3713.95616790,N,13701.42414161,E,4,09,1.5,97.739,M,36.771,M,2.7,0000*7D
$GPVTG,2.66,T,11.11,M,0.11,N,0.20,K,D*16
$GPGGA,070005.80,3713.95616537,N,13701.42414392,E,4,09,1.5,97.744,M,36.771,M,2.8,0000*76
$GPVTG,353.99,T,2.44,M,0.10,N,0.19,K,D*28
$GPGGA,070005.90,3713.95616896,N,13701.42414193,E,4,09,1.5,97.747,M,36.771,M,2.9,0000*70
$GPVTG,350.08,T,358.53,M,0.08,N,0.16,K,D*2F
$GPGGA,070006.00,3713.95616981,N,13701.42414122,E,4,09,1.5,97.740,M,36.771,M,3.0,0000*78
$GPVTG,343.10,T,351.55,M,0.07,N,0.12,K,D*20
$GPGGA,070006.10,3713.95616824,N,13701.42414012,E,4,09,1.5,97.744,M,36.771,M,3.1,0000*70
$GPVTG,320.77,T,329.22,M,0.03,N,0.05,K,D*29
$GPGGA,070006.20,3713.95616555,N,13701.42414109,E,4,09,1.5,97.751,M,36.771,M,2.2,0000*75
$GPVTG,305.23,T,313.68,M,0.01,N,0.03,K,D*2C
$GPGGA,070006.30,3713.95616490,N,13701.42414061,E,4,09,1.5,97.749,M,36.771,M,2.3,0000*7B
$GPVTG,282.37,T,290.82,M,0.03,N,0.05,K,D*2D
$GPGGA,070006.40,3713.95616491,N,13701.42414248,E,4,09,1.5,97.751,M,36.771,M,2.4,0000*7A
$GPVTG,165.93,T,174.38,M,0.01,N,0.01,K,D*27
$GPGGA,070006.50,3713.95616229,N,13701.42414404,E,4,09,1.5,97.749,M,36.771,M,2.5,0000*78
$GPVTG,204.03,T,212.47,M,0.02,N,0.04,K,D*27
$GPGGA,070006.60,3713.95616242,N,13701.42414436,E,4,09,1.5,97.748,M,36.771,M,2.6,0000*75
$GPVTG,148.19,T,156.64,M,0.02,N,0.03,K,D*22
$GPGGA,070006.70,3713.95616250,N,13701.42414525,E,4,09,1.5,97.742,M,36.771,M,2.7,0000*7F
$GPVTG,122.28,T,130.73,M,0.02,N,0.03,K,D*2A
$GPGGA,070006.80,3713.95615980,N,13701.42414174,E,4,09,1.5,97.749,M,36.771,M,2.8,0000*71
$GPVTG,255.41,T,263.86,M,0.03,N,0.05,K,D*2E
$GPGGA,070006.90,3713.95616189,N,13701.42413751,E,4,09,1.5,97.743,M,36.771,M,2.9,0000*7F
$GPVTG,246.02,T,254.47,M,0.04,N,0.08,K,D*28
$GPGGA,070007.00,3713.95616123,N,13701.42413759,E,4,09,1.5,97.745,M,36.771,M,3.0,0000*71
$GPVTG,275.95,T,284.40,M,0.07,N,0.13,K,D*25
$GPGGA,070007.10,3713.95615984,N,13701.42413433,E,4,09,1.5,97.746,M,36.771,M,3.1,0000*7B
$GPVTG,259.55,T,268.00,M,0.08,N,0.15,K,D*28
$GPGGA,070007.20,3713.95616215,N,13701.42413256,E,4,09,1.5,97.749,M,36.771,M,2.2,0000*70
$GPVTG,276.14,T,284.59,M,0.08,N,0.16,K,D*2D
$GPGGA,070007.30,3713.95615595,N,13701.42413688,E,4,09,1.5,97.761,M,36.771,M,2.3,0000*71
$GPVTG,254.82,T,263.27,M,0.06,N,0.12,K,D*28
$GPGGA,070007.40,3713.95616137,N,13701.42413078,E,4,09,1.5,97.751,M,36.771,M,2.4,0000*74
$GPVTG,265.26,T,273.71,M,0.04,N,0.08,K,D*2F
$GPGGA,070007.50,3713.95615714,N,13701.42413077,E,4,09,1.5,97.750,M,36.771,M,2.5,0000*7E
$GPVTG,258.38,T,266.83,M,0.05,N,0.10,K,D*2F
$GPGGA,070007.60,3713.95615739,N,13701.42413163,E,4,09,1.5,97.756,M,36.771,M,2.6,0000*73
$GPVTG,236.23,T,244.68,M,0.04,N,0.08,K,D*20
$GPGGA,070007.70,3713.95615535,N,13701.42413190,E,4,09,1.5,97.745,M,36.771,M,2.7,0000*73
$GPVTG,225.91,T,234.36,M,0.04,N,0.07,K,D*28
$GPGGA,070007.80,3713.95615623,N,13701.42413113,E,4,09,1.5,97.749,M,36.771,M,2.8,0000*70
$GPVTG,270.24,T,278.69,M,0.04,N,0.07,K,D*24
$GPGGA,070007.90,3713.95615986,N,13701.42412899,E,4,09,1.5,97.751,M,36.771,M,2.9,0000*73
$GPVTG,326.88,T,335.33,M,0.05,N,0.09,K,D*28
$GPGGA,070008.00,3713.95615669,N,13701.42412730,E,4,09,1.5,97.743,M,36.771,M,3.0,0000*7C
$GPVTG,303.02,T,311.47,M,0.04,N,0.07,K,D*27
$GPGGA,070008.10,3713.95616028,N,13701.42412835,E,4,09,1.5,97.751,M,36.771,M,3.1,0000*75
$GPVTG,355.56,T,4.01,M,0.05,N,0.09,K,D*2F
$GPGGA,070008.20,3713.95615491,N,13701.42413122,E,4,09,1.5,97.748,M,36.771,M,2.2,0000*77
$GPVTG,349.73,T,358.18,M,0.07,N,0.12,K,D*2F
$GPGGA,070008.30,3713.95615718,N,13701.42413182,E,4,09,1.5,97.752,M,36.771,M,2.3,0000*74
$GPVTG,359.80,T,8.25,M,0.08,N,0.14,K,D*23
$GPGGA,070008.40,3713.95615582,N,13701.42412975,E,4,09,1.5,97.751,M,36.771,M,2.4,0000*77
$GPVTG,347.42,T,355.87,M,0.07,N,0.13,K,D*29
$GPGGA,070008.50,3713.95616057,N,13701.42412807,E,4,09,1.5,97.752,M,36.771,M,2.5,0000*7E
$GPVTG,351.42,T,359.87,M,0.08,N,0.15,K,D*2B
$GPGGA,070008.60,3713.95616089,N,13701.42412727,E,4,09,1.5,97.750,M,36.771,M,2.6,0000*72
$GPVTG,352.14,T,0.59,M,0.07,N,0.13,K,D*2E
$GPGGA,070008.70,3713.95616006,N,13701.42413189,E,4,09,1.5,97.757,M,36.771,M,2.7,0000*71
$GPVTG,10.67,T,19.12,M,0.06,N,0.11,K,D*2B
$GPGGA,070008.80,3713.95616064,N,13701.42412558,E,4,09,1.5,97.749,M,36.771,M,2.8,0000*73
$GPVTG,342.74,T,351.19,M,0.05,N,0.10,K,D*2B
$GPGGA,070008.90,3713.95615999,N,13701.42412617,E,4,09,1.5,97.753,M,36.771,M,2.9,0000*78
$GPVTG,331.98,T,340.43,M,0.06,N,0.11,K,D*20
$GPGGA,070009.00,3713.95616343,N,13701.42412695,E,4,09,1.5,97.751,M,36.771,M,3.0,0000*7E
$GPVTG,348.06,T,356.51,M,0.05,N,0.08,K,D*26
$GPGGA,070009.10,3713.95616739,N,13701.42412695,E,4,09,1.5,97.749,M,36.771,M,3.1,0000*7E
$GPVTG,2.82,T,11.27,M,0.08,N,0.15,K,D*17
$GPGGA,070009.20,3713.95617433,N,13701.42412476,E,4,09,1.5,97.749,M,36.771,M,2.2,0000*78
$GPVTG,350.58,T,359.03,M,0.10,N,0.18,K,D*29
$GPGGA,070009.30,3713.95617662,N,13701.42412003,E,4,09,1.5,97.748,M,36.771,M,2.3,0000*79
$GPVTG,331.21,T,339.66,M,0.10,N,0.19,K,D*24
$GPGGA,070009.40,3713.95617863,N,13701.42411655,E,4,09,1.5,97.742,M,36.771,M,2.4,0000*7A
$GPVTG,324.10,T,332.55,M,0.12,N,0.23,K,D*22
$GPGGA,070009.50,3713.95617824,N,13701.42412347,E,4,09,1.5,97.754,M,36.771,M,2.5,0000*7B
$GPVTG,351.30,T,359.75,M,0.09,N,0.18,K,D*2F
$GPGGA,070009.60,3713.95618134,N,13701.42412309,E,4,09,1.5,97.747,M,36.771,M,2.6,0000*74
$GPVTG,351.84,T,0.29,M,0.10,N,0.19,K,D*2F
$GPGGA,070009.70,3713.95618068,N,13701.42412130,E,4,09,1.5,97.752,M,36.771,M,2.7,0000*70
$GPVTG,329.46,T,337.91,M,0.08,N,0.16,K,D*2C
$GPGGA,070009.80,3713.95618340,N,13701.42411958,E,4,09,1.5,97.746,M,36.771,M,2.8,0000*79
$GPVTG,337.56,T,346.01,M,0.08,N,0.16,K,D*2D
$GPGGA,070009.90,3713.95617814,N,13701.42413261,E,4,09,1.5,97.759,M,36.771,M,2.9,0000*71
$GPVTG,52.73,T,61.18,M,0.05,N,0.10,K,D*2F
$GPGGA,070010.00,3713.95617825,N,13701.42412948,E,4,09,1.5,97.754,M,36.771,M,3.0,0000*76
$GPVTG,76.86,T,85.31,M,0.04,N,0.08,K,D*2A
$GPGGA,070010.10,3713.95617742,N,13701.42412862,E,4,09,1.5,97.753,M,36.771,M,3.1,0000*76
$GPVTG,78.93,T,87.38,M,0.01,N,0.02,K,D*24
$GPGGA,070010.20,3713.95616800,N,13701.42413341,E,4,09,1.5,97.757,M,36.771,M,2.2,0000*70
$GPVTG,96.10,T,104.55,M,0.01,N,0.02,K,D*1E
$GPGGA,070010.30,3713.95616810,N,13701.42412765,E,4,09,1.5,97.754,M,36.771,M,2.3,0000*71
$GPVTG,221.19,T,229.64,M,0.03,N,0.06,K,D*21
$GPGGA,070010.40,3713.95616756,N,13701.42412838,E,4,09,1.5,97.755,M,36.771,M,2.4,0000*7A
$GPVTG,214.40,T,222.85,M,0.05,N,0.09,K,D*26
$GPGGA,070010.50,3713.95616249,N,13701.42412922,E,4,09,1.5,97.751,M,36.771,M,2.5,0000*7F
$GPVTG,208.76,T,217.21,M,0.06,N,0.12,K,D*2F
$GPGGA,070010.60,3713.95615635,N,13701.42413425,E,4,09,1.5,97.752,M,36.771,M,2.6,0000*7B
$GPVTG,209.39,T,217.84,M,0.08,N,0.16,K,D*20
$GPGGA,070010.70,3713.95615605,N,13701.42413815,E,4,09,1.5,97.756,M,36.771,M,2.7,0000*73
$GPVTG,173.78,T,182.23,M,0.07,N,0.12,K,D*22
$GPGGA,070010.80,3713.95615491,N,13701.42413819,E,4,09,1.5,97.751,M,36.771,M,2.8,0000*77
$GPVTG,173.23,T,181.68,M,0.07,N,0.13,K,D*21
$GPGGA,070010.90,3713.95615685,N,13701.42413700,E,4,09,1.5,97.750,M,36.771,M,2.9,0000*76
$GPVTG,172.98,T,181.43,M,0.02,N,0.05,K,D*2B
$GPGGA,070011.00,3713.95615768,N,13701.42413462,E,4,09,1.5,97.755,M,36.771,M,3.0,0000*76
$GPVTG,188.34,T,196.79,M,0.01,N,0.02,K,D*23
$GPGGA,070011.10,3713.95615544,N,13701.42413611,E,4,09,1.5,97.752,M,36.771,M,3.1,0000*7B
$GPVTG,174.58,T,183.03,M,0.01,N,0.03,K,D*22
$GPGGA,070011.20,3713.95615569,N,13701.42413910,E,4,09,1.5,97.753,M,36.771,M,2.2,0000*7A
$GPVTG,20.86,T,29.31,M,0.04,N,0.07,K,D*20
$GPGGA,070011.30,3713.95615549,N,13701.42413796,E,4,09,1.5,97.757,M,36.771,M,2.3,0000*7C
$GPVTG,353.66,T,2.11,M,0.04,N,0.08,K,D*2D
$GPGGA,070011.40,3713.95615872,N,13701.42413417,E,4,09,1.5,97.754,M,36.771,M,2.4,0000*70
$GPVTG,327.23,T,335.67,M,0.09,N,0.16,K,D*2B
$GPGGA,070011.50,3713.95616202,N,13701.42413697,E,4,09,1.5,97.752,M,36.771,M,2.5,0000*72
$GPVTG,356.59,T,5.04,M,0.11,N,0.21,K,D*28
$GPGGA,070011.60,3713.95616647,N,13701.42413884,E,4,09,1.5,97.759,M,36.771,M,2.6,0000*70
$GPVTG,9.32,T,17.77,M,0.16,N,0.29,K,D*14
$GPGGA,070011.70,3713.95616986,N,13701.42414222,E,4,09,1.5,97.764,M,36.771,M,2.7,0000*7D
$GPVTG,13.13,T,21.58,M,0.16,N,0.29,K,D*24
$GPGGA,070011.80,3713.95617219,N,13701.42414379,E,4,09,1.5,97.757,M,36.771,M,2.8,0000*7E
$GPVTG,15.58,T,24.03,M,0.18,N,0.33,K,D*23
$GPGGA,070011.90,3713.95617010,N,13701.42414975,E,4,09,1.5,97.766,M,36.771,M,2.9,0000*71
$GPVTG,22.40,T,30.85,M,0.14,N,0.26,K,D*2D
$GPGGA,070012.00,3713.95617325,N,13701.42414524,E,4,09,1.5,97.761,M,36.771,M,3.0,0000*79
$GPVTG,26.17,T,34.62,M,0.10,N,0.18,K,D*2F
$GPGGA,070012.10,3713.95617345,N,13701.42414351,E,4,09,1.5,97.755,M,36.771,M,3.1,0000*7C
$GPVTG,5.48,T,13.93,M,0.08,N,0.15,K,D*1B
$GPGGA,070012.20,3713.95617296,N,13701.42414384,E,4,09,1.5,97.766,M,36.771,M,2.2,0000*7A
$GPVTG,338.24,T,346.69,M,0.03,N,0.06,K,D*23
$GPGGA,070012.30,3713.95617533,N,13701.42413925,E,4,09,1.5,97.756,M,36.771,M,2.3,0000*77
$GPVTG,298.46,T,306.90,M,0.04,N,0.07,K,D*28
$GPGGA,070012.40,3713.95617585,N,13701.42413771,E,4,09,1.5,97.764,M,36.771,M,2.4,0000*74
$GPVTG,276.15,T,284.60,M,0.06,N,0.11,K,D*2F
$GPGGA,070012.50,3713.95617291,N,13701.42414154,E,4,09,1.5,97.762,M,36.771,M,2.5,0000*76
$GPVTG,219.22,T,227.67,M,0.03,N,0.06,K,D*2F
$GPGGA,070012.60,3713.95617403,N,13701.42413979,E,4,09,1.5,97.763,M,36.771,M,2.6,0000*7A
$GPVTG,240.38,T,248.83,M,0.02,N,0.03,K,D*2F
$GPGGA,070012.70,3713.95617496,N,13701.42413766,E,4,09,1.5,97.759,M,36.771,M,2.7,0000*7F
$GPVTG,272.73,T,281.18,M,0.03,N,0.06,K,D*22
$GPGGA,070012.80,3713.95617438,N,13701.42413951,E,4,09,1.5,97.765,M,36.771,M,2.8,0000*7E
$GPVTG,293.47,T,301.92,M,0.02,N,0.03,K,D*25
$GPGGA,070012.90,3713.95617281,N,13701.42413451,E,4,09,1.5,97.758,M,36.771,M,2.9,0000*79
$GPVTG,259.64,T,268.09,M,0.06,N,0.11,K,D*29
$GPGGA,070013.00,3713.95617143,N,13701.42413763,E,4,09,1.5,97.764,M,36.771,M,3.0,0000*79
$GPVTG,255.90,T,264.35,M,0.06,N,0.10,K,D*2C
$GPGGA,070013.10,3713.95616769,N,13701.42414032,E,4,09,1.5,97.760,M,36.771,M,3.1,0000*76
$GPVTG,206.92,T,215.37,M,0.05,N,0.09,K,D*27
$GPGGA,070013.20,3713.95616614,N,13701.42414032,E,4,09,1.5,97.757,M,36.771,M,2.2,0000*78
$GPVTG,182.09,T,190.54,M,0.06,N,0.11,K,D*2B
$GPGGA,070013.30,3713.95616405,N,13701.42414178,E,4,09,1.5,97.758,M,36.771,M,2.3,0000*7A
$GPVTG,165.90,T,174.35,M,0.08,N,0.15,K,D*25
$GPGGA,070013.40,3713.95616516,N,13701.42414287,E,4,09,1.5,97.760,M,36.771,M,2.4,0000*71
$GPVTG,151.72,T,160.17,M,0.09,N,0.16,K,D*29
$GPGGA,070013.50,3713.95616504,N,13701.42414292,E,4,09,1.5,97.754,M,36.771,M,2.5,0000*71
$GPVTG,149.87,T,158.32,M,0.07,N,0.12,K,D*2C
$GPGGA,070013.60,3713.95616632,N,13701.42414193,E,4,09,1.5,97.757,M,36.771,M,2.6,0000*76
$GPVTG,124.14,T,132.59,M,0.03,N,0.06,K,D*2D
$GPGGA,070013.70,3713.95617155,N,13701.42414153,E,4,09,1.5,97.759,M,36.771,M,2.7,0000*73
$GPVTG,31.67,T,40.12,M,0.05,N,0.09,K,D*2E
$GPGGA,070013.80,3713.95616983,N,13701.42414032,E,4,09,1.5,97.754,M,36.771,M,2.8,0000*7A
$GPVTG,14.25,T,22.70,M,0.06,N,0.11,K,D*25
$GPGGA,070013.90,3713.95616987,N,13701.42414405,E,4,09,1.5,97.760,M,36.771,M,2.9,0000*79
$GPVTG,26.83,T,35.28,M,0.06,N,0.11,K,D*23
$GPGGA,070014.00,3713.95617114,N,13701.42414459,E,4,09,1.5,97.760,M,36.771,M,3.0,0000*75
$GPVTG,16.66,T,25.11,M,0.08,N,0.14,K,D*2B
$GPGGA,070014.10,3713.95616993,N,13701.42414396,E,4,09,1.5,97.757,M,36.771,M,3.1,0000*73
$GPVTG,15.05,T,23.50,M,0.05,N,0.08,K,D*2E
$GPGGA,070014.20,3713.95616843,N,13701.42414692,E,4,09,1.5,97.757,M,36.771,M,2.2,0000*7F
$GPVTG,31.00,T,39.45,M,0.05,N,0.08,K,D*22
$GPGGA,070014.30,3713.95617109,N,13701.42414656,E,4,09,1.5,97.761,M,36.771,M,2.3,0000*74
$GPVTG,10.04,T,18.49,M,0.05,N,0.09,K,D*2B
$GPGGA,070014.40,3713.95617042,N,13701.42414886,E,4,09,1.5,97.757,M,36.771,M,2.4,0000*7C
$GPVTG,35.94,T,44.39,M,0.04,N,0.06,K,D*25
$GPGGA,070014.50,3713.95617222,N,13701.42415261,E,4,09,1.5,97.759,M,36.771,M,2.5,0000*74
$GPVTG,43.08,T,51.53,M,0.06,N,0.10,K,D*2C
$GPGGA,070014.60,3713.95617412,N,13701.42415337,E,4,09,1.5,97.754,M,36.771,M,2.6,0000*7E
$GPVTG,55.14,T,63.59,M,0.07,N,0.13,K,D*2F
$GPGGA,070014.70,3713.95617240,N,13701.42415647,E,4,09,1.5,97.763,M,36.771,M,2.7,0000*79
$GPVTG,55.05,T,63.50,M,0.06,N,0.11,K,D*25
$GPGGA,070014.80,3713.95617599,N,13701.42415429,E,4,09,1.5,97.755,M,36.771,M,2.8,0000*75
$GPVTG,34.98,T,43.43,M,0.07,N,0.12,K,D*24
$GPGGA,070014.90,3713.95617550,N,13701.42415508,E,4,09,1.5,97.758,M,36.771,M,2.9,0000*7F
$GPVTG,32.76,T,41.21,M,0.05,N,0.09,K,D*2C
$GPGGA,070015.00,3713.95617540,N,13701.42416114,E,4,09,1.5,97.756,M,36.771,M,3.0,0000*7A
$GPVTG,56.52,T,64.97,M,0.07,N,0.12,K,D*2A
$GPGGA,070015.10,3713.95617759,N,13701.42415986,E,4,09,1.5,97.759,M,36.771,M,3.1,0000*7F
$GPVTG,9.07,T,17.51,M,0.07,N,0.13,K,D*1F
$GPGGA,070015.20,3713.95617663,N,13701.42415631,E,4,09,1.5,97.756,M,36.771,M,2.2,0000*7A
$GPVTG,347.74,T,356.19,M,0.06,N,0.12,K,D*28
$GPGGA,070015.30,3713.95617780,N,13701.42415607,E,4,09,1.5,97.760,M,36.771,M,2.3,0000*76
$GPVTG,339.16,T,347.61,M,0.06,N,0.11,K,D*29
$GPGGA,070015.40,3713.95617373,N,13701.42415620,E,4,09,1.5,97.758,M,36.771,M,2.4,0000*70
$GPVTG,286.63,T,295.08,M,0.06,N,0.11,K,D*2F
$GPGGA,070015.50,3713.95617655,N,13701.42415062,E,4,09,1.5,97.761,M,36.771,M,2.5,0000*7B
$GPVTG,296.30,T,304.75,M,0.09,N,0.17,K,D*22
$GPGGA,070015.60,3713.95617369,N,13701.42415037,E,4,09,1.5,97.764,M,36.771,M,2.6,0000*74
$GPVTG,280.24,T,288.69,M,0.10,N,0.19,K,D*2E
$GPGGA,070015.70,3713.95617458,N,13701.42415063,E,4,09,1.5,97.764,M,36.771,M,2.7,0000*70
$GPVTG,283.49,T,291.94,M,0.07,N,0.13,K,D*20
$GPGGA,070015.80,3713.95617556,N,13701.42414693,E,4,09,1.5,97.764,M,36.771,M,2.8,0000*77
$GPVTG,277.79,T,286.24,M,0.08,N,0.16,K,D*2F
$GPGGA,070015.90,3713.95617364,N,13701.42414583,E,4,09,1.5,97.760,M,36.771,M,2.9,0000*76
$GPVTG,253.76,T,262.21,M,0.06,N,0.10,K,D*21
$GPGGA,070016.00,3713.95617251,N,13701.42414539,E,4,09,1.5,97.759,M,36.771,M,3.0,0000*78
$GPVTG,257.56,T,266.01,M,0.04,N,0.08,K,D*2A
$GPGGA,070016.10,3713.95617287,N,13701.42414475,E,4,09,1.5,97.767,M,36.771,M,3.1,0000*77
$GPVTG,258.56,T,267.01,M,0.04,N,0.08,K,D*24
$GPGGA,070016.20,3713.95617329,N,13701.42414276,E,4,09,1.5,97.753,M,36.771,M,2.2,0000*71
$GPVTG,250.83,T,259.28,M,0.04,N,0.07,K,D*2D
$GPGGA,070016.30,3713.95617255,N,13701.42414266,E,4,09,1.5,97.755,M,36.771,M,2.3,0000*7C
$GPVTG,224.50,T,232.95,M,0.03,N,0.06,K,D*2D
$GPGGA,070016.40,3713.95617272,N,13701.42414191,E,4,09,1.5,97.758,M,36.771,M,2.4,0000*7F
$GPVTG,197.83,T,206.28,M,0.04,N,0.07,K,D*2F
$GPGGA,070016.50,3713.95617211,N,13701.42414098,E,4,09,1.5,97.759,M,36.771,M,2.5,0000*73
$GPVTG,244.12,T,252.56,M,0.02,N,0.04,K,D*27
$GPGGA,070016.60,3713.95617219,N,13701.42413865,E,4,09,1.5,97.757,M,36.771,M,2.6,0000*78
$GPVTG,281.60,T,290.05,M,0.02,N,0.03,K,D*24
$GPGGA,070016.70,3713.95616687,N,13701.42413883,E,4,09,1.5,97.754,M,36.771,M,2.7,0000*71
$GPVTG,217.99,T,226.44,M,0.04,N,0.08,K,D*28
$GPGGA,070016.80,3713.95616839,N,13701.42413992,E,4,09,1.5,97.761,M,36.771,M,2.8,0000*7D
$GPVTG,242.22,T,250.67,M,0.03,N,0.05,K,D*22
$GPGGA,070016.90,3713.95616898,N,13701.42413269,E,4,09,1.5,97.757,M,36.771,M,2.9,0000*7C
$GPVTG,256.08,T,264.53,M,0.08,N,0.15,K,D*25
$GPGGA,070017.00,3713.95616913,N,13701.42413316,E,4,09,1.5,97.764,M,36.771,M,3.0,0000*77
$GPVTG,258.70,T,267.15,M,0.06,N,0.12,K,D*2C
$GPGGA,070017.10,3713.95616827,N,13701.42413471,E,4,09,1.5,97.759,M,36.771,M,3.1,0000*79
$GPVTG,270.43,T,278.88,M,0.04,N,0.07,K,D*2A
$GPGGA,070017.20,3713.95616660,N,13701.42413718,E,4,09,1.5,97.762,M,36.771,M,2.2,0000*71
$GPVTG,216.43,T,224.88,M,0.03,N,0.05,K,D*26
$GPGGA,070017.30,3713.95616570,N,13701.42413471,E,4,09,1.5,97.760,M,36.771,M,2.3,0000*7D
$GPVTG,237.97,T,246.42,M,0.04,N,0.07,K,D*2B
$GPGGA,070017.40,3713.95616563,N,13701.42413683,E,4,09,1.5,97.754,M,36.771,M,2.4,0000*77
$GPVTG,174.98,T,183.43,M,0.00,N,0.00,K,D*28
$GPGGA,070017.50,3713.95616588,N,13701.42413688,E,4,09,1.5,97.755,M,36.771,M,2.5,0000*78
$GPVTG,340.49,T,348.94,M,0.01,N,0.02,K,D*2D
$GPGGA,070017.60,3713.95616571,N,13701.42413585,E,4,09,1.5,97.759,M,36.771,M,2.6,0000*7C
$GPVTG,307.98,T,316.43,M,0.00,N,0.01,K,D*21
$GPGGA,070017.70,3713.95616511,N,13701.42413896,E,4,09,1.5,97.754,M,36.771,M,2.7,0000*78
$GPVTG,63.50,T,71.95,M,0.04,N,0.07,K,D*2F
$GPGGA,070017.80,3713.95616652,N,13701.42413738,E,4,09,1.5,97.752,M,36.771,M,2.8,0000*71
$GPVTG,21.06,T,29.51,M,0.04,N,0.08,K,D*20
$GPGGA,070017.90,3713.95616744,N,13701.42413859,E,4,09,1.5,97.757,M,36.771,M,2.9,0000*7A
$GPVTG,357.88,T,6.32,M,0.07,N,0.13,K,D*25
$GPGGA,070018.00,3713.95616809,N,13701.42413783,E,4,09,1.5,97.759,M,36.771,M,3.0,0000*74
$GPVTG,3.82,T,12.27,M,0.07,N,0.12,K,D*1D
$GPGGA,070018.10,3713.95616740,N,13701.42413764,E,4,09,1.5,97.759,M,36.771,M,3.1,0000*7F
$GPVTG,20.91,T,29.36,M,0.06,N,0.11,K,D*24
$GPGGA,070018.20,3713.95617099,N,13701.42413680,E,4,09,1.5,97.761,M,36.771,M,2.2,0000*7C
$GPVTG,359.74,T,8.19,M,0.07,N,0.13,K,D*2F
$GPGGA,070018.30,3713.95617147,N,13701.42413868,E,4,09,1.5,97.762,M,36.771,M,2.3,0000*75
$GPVTG,357.44,T,5.89,M,0.06,N,0.11,K,D*25
$GPGGA,070018.40,3713.95616831,N,13701.42414133,E,4,09,1.5,97.765,M,36.771,M,2.4,0000*7B
$GPVTG,343.52,T,351.97,M,0.06,N,0.10,K,D*2B
$GPGGA,070018.50,3713.95617060,N,13701.42413804,E,4,09,1.5,97.760,M,36.771,M,2.5,0000*79
$GPVTG,335.32,T,343.77,M,0.03,N,0.06,K,D*23
$GPGGA,070018.60,3713.95616869,N,13701.42413775,E,4,09,1.5,97.761,M,36.771,M,2.6,0000*71
$GPVTG,268.41,T,276.86,M,0.02,N,0.04,K,D*24
$GPGGA,070018.70,3713.95616866,N,13701.42413746,E,4,09,1.5,97.753,M,36.771,M,2.7,0000*7F
$GPVTG,298.10,T,306.55,M,0.03,N,0.06,K,D*24
$GPGGA,070018.80,3713.95616702,N,13701.42413699,E,4,09,1.5,97.763,M,36.771,M,2.8,0000*72
$GPVTG,285.53,T,293.98,M,0.04,N,0.07,K,D*25
$GPGGA,070018.90,3713.95616994,N,13701.42413214,E,4,09,1.5,97.753,M,36.771,M,2.9,0000*71
$GPVTG,292.33,T,300.78,M,0.06,N,0.11,K,D*25
$GPGGA,070019.00,3713.95616748,N,13701.42413665,E,4,09,1.5,97.756,M,36.771,M,3.0,0000*79
$GPVTG,321.81,T,330.26,M,0.04,N,0.08,K,D*27
$GPGGA,070019.10,3713.95617006,N,13701.42413172,E,4,09,1.5,97.761,M,36.771,M,3.1,0000*70
$GPVTG,313.19,T,321.64,M,0.08,N,0.15,K,D*21
$GPGGA,070019.20,3713.95616726,N,13701.42413449,E,4,09,1.5,97.756,M,36.771,M,3.2,0000*7D
$GPVTG,312.87,T,321.32,M,0.07,N,0.12,K,D*2C
$GPGGA,070019.30,3713.95617052,N,13701.42413102,E,4,09,1.5,97.749,M,36.771,M,3.3,0000*7C
$GPVTG,319.89,T,328.34,M,0.08,N,0.14,K,D*2F
$GPGGA,070019.40,3713.95616871,N,13701.42413288,E,4,09,1.5,97.758,M,36.771,M,3.4,0000*75
$GPVTG,316.46,T,324.91,M,0.08,N,0.14,K,D*20
$GPGGA,070019.50,3713.95616547,N,13701.42413667,E,4,09,1.5,97.757,M,36.771,M,3.5,0000*77
$GPVTG,317.50,T,325.95,M,0.04,N,0.07,K,D*2D
$GPGGA,070019.60,3713.95616716,N,13701.42413386,E,4,09,1.5,97.759,M,36.771,M,3.6,0000*75
$GPVTG,308.00,T,316.45,M,0.03,N,0.05,K,D*2E
$GPGGA,070019.70,3713.95616770,N,13701.42413883,E,4,09,1.5,97.762,M,36.771,M,3.7,0000*73
$GPVTG,49.57,T,58.02,M,0.04,N,0.08,K,D*2A
$GPGGA,070019.80,3713.95616748,N,13701.42413732,E,4,09,1.5,97.759,M,36.771,M,3.8,0000*75
$GPVTG,47.12,T,55.57,M,0.04,N,0.07,K,D*27
$GPGGA,070019.90,3713.95616706,N,13701.42413813,E,4,09,1.5,97.760,M,36.771,M,3.9,0000*79
$GPVTG,73.36,T,81.81,M,0.03,N,0.06,K,D*22
$GPGGA,070020.00,3713.95616776,N,13701.42414089,E,4,09,1.5,97.757,M,36.771,M,4.0,0000*7B
$GPVTG,66.80,T,75.25,M,0.05,N,0.10,K,D*2F
$GPGGA,070020.10,3713.95616729,N,13701.42413766,E,4,09,1.5,97.761,M,36.771,M,4.1,0000*75
$GPVTG,112.07,T,120.52,M,0.02,N,0.03,K,D*26
$GPGGA,070020.20,3713.95616730,N,13701.42413867,E,4,09,1.5,97.760,M,36.771,M,4.2,0000*72
$GPVTG,26.51,T,34.96,M,0.01,N,0.01,K,D*2E
$GPGGA,070020.30,3713.95616469,N,13701.42413963,E,4,09,1.5,97.762,M,36.771,M,4.3,0000*7A
$GPVTG,243.61,T,252.06,M,0.01,N,0.01,K,D*27
$GPGGA,070020.40,3713.95616601,N,13701.42413797,E,4,09,1.5,97.760,M,36.771,M,4.4,0000*71
$GPVTG,228.52,T,236.97,M,0.03,N,0.06,K,D*25
$GPGGA,070020.50,3713.95616504,N,13701.42413770,E,4,09,1.5,97.756,M,36.771,M,4.5,0000*7B
$GPVTG,254.93,T,263.38,M,0.03,N,0.06,K,D*26
$GPGGA,070020.60,3713.95616311,N,13701.42413694,E,4,09,1.5,97.758,M,36.771,M,4.6,0000*7C
$GPVTG,246.06,T,254.51,M,0.04,N,0.07,K,D*24
$GPGGA,070020.70,3713.95616243,N,13701.42413524,E,4,09,1.5,97.751,M,36.771,M,4.7,0000*7B
$GPVTG,238.56,T,247.01,M,0.06,N,0.10,K,D*2B
$GPGGA,070020.80,3713.95616061,N,13701.42413332,E,4,09,1.5,97.751,M,36.771,M,2.8,0000*7E
$GPVTG,219.15,T,227.60,M,0.04,N,0.07,K,D*2A
$GPGGA,070020.90,3713.95615861,N,13701.42412987,E,4,09,1.5,97.753,M,36.771,M,2.9,0000*72
$GPVTG,255.20,T,263.65,M,0.06,N,0.12,K,D*27
$GPGGA,070021.00,3713.95615951,N,13701.42413135,E,4,09,1.5,97.758,M,36.771,M,3.0,0000*7B
$GPVTG,238.09,T,246.54,M,0.04,N,0.08,K,D*2B
$GPGGA,070021.10,3713.95615766,N,13701.42413159,E,4,09,1.5,97.741,M,36.771,M,3.1,0000*73
$GPVTG,226.62,T,235.07,M,0.03,N,0.06,K,D*22
$GPGGA,070021.20,3713.95615772,N,13701.42413117,E,4,09,1.5,97.747,M,36.771,M,3.2,0000*7A
$GPVTG,220.36,T,228.81,M,0.02,N,0.03,K,D*23
$GPGGA,070021.30,3713.95615870,N,13701.42413658,E,4,09,1.5,97.754,M,36.771,M,3.3,0000*79
$GPVTG,82.48,T,90.93,M,0.05,N,0.09,K,D*2F
$GPGGA,070021.40,3713.95616356,N,13701.42413204,E,4,09,1.5,97.750,M,36.771,M,3.4,0000*7C
$GPVTG,40.10,T,48.55,M,0.06,N,0.11,K,D*29
$GPGGA,070021.50,3713.95615796,N,13701.42413507,E,4,09,1.5,97.751,M,36.771,M,2.5,0000*73
$GPVTG,77.73,T,86.18,M,0.06,N,0.11,K,D*23
$GPGGA,070021.60,3713.95616103,N,13701.42413041,E,4,09,1.5,97.753,M,36.771,M,2.6,0000*7F
$GPVTG,44.49,T,52.94,M,0.06,N,0.11,K,D*27
$GPGGA,070021.70,3713.95616054,N,13701.42413305,E,4,09,1.5,97.756,M,36.771,M,2.7,0000*7A
$GPVTG,41.55,T,50.00,M,0.06,N,0.11,K,D*20
$GPGGA,070021.80,3713.95616249,N,13701.42412770,E,4,09,1.5,97.756,M,36.771,M,2.8,0000*73
$GPVTG,58.86,T,67.31,M,0.03,N,0.05,K,D*20
$GPGGA,070021.90,3713.95615882,N,13701.42413246,E,4,09,1.5,97.762,M,36.771,M,2.9,0000*7B
$GPVTG,105.17,T,113.62,M,0.04,N,0.07,K,D*20
$GPGGA,070022.00,3713.95615916,N,13701.42412968,E,4,09,1.5,97.748,M,36.771,M,3.0,0000*7B
$GPVTG,177.60,T,186.05,M,0.02,N,0.04,K,D*2D
$GPGGA,070022.10,3713.95615966,N,13701.42413000,E,4,09,1.5,97.760,M,36.771,M,3.1,0000*70
$GPVTG,314.87,T,323.32,M,0.01,N,0.01,K,D*2C
$GPGGA,070022.20,3713.95615819,N,13701.42413196,E,4,09,1.5,97.755,M,36.771,M,3.2,0000*71
$GPVTG,251.38,T,259.83,M,0.02,N,0.04,K,D*28
$GPGGA,070022.30,3713.95616101,N,13701.42412929,E,4,09,1.5,97.759,M,36.771,M,2.3,0000*72
$GPVTG,288.92,T,297.37,M,0.03,N,0.06,K,D*22
$GPGGA,070022.40,3713.95615804,N,13701.42413119,E,4,09,1.5,97.760,M,36.771,M,2.4,0000*7D
$GPVTG,294.71,T,303.16,M,0.06,N,0.11,K,D*2E
$GPGGA,070022.50,3713.95616064,N,13701.42412951,E,4,09,1.5,97.759,M,36.771,M,2.5,0000*7F
$GPVTG,304.64,T,313.09,M,0.07,N,0.13,K,D*2E
$GPGGA,070022.60,3713.95616117,N,13701.42412630,E,4,09,1.5,97.757,M,36.771,M,2.6,0000*7C
$GPVTG,310.86,T,319.30,M,0.09,N,0.17,K,D*2D
$GPGGA,070022.70,3713.95616053,N,13701.42412982,E,4,09,1.5,97.760,M,36.771,M,2.7,0000*7F
$GPVTG,336.18,T,344.63,M,0.04,N,0.07,K,D*2C
$GPGGA,070022.80,3713.95616163,N,13701.42412956,E,4,09,1.5,97.758,M,36.771,M,2.8,0000*7F
$GPVTG,340.71,T,349.16,M,0.06,N,0.11,K,D*28
$GPGGA,070022.90,3713.95616370,N,13701.42412546,E,4,09,1.5,97.757,M,36.771,M,2.9,0000*7D
$GPVTG,318.93,T,327.38,M,0.05,N,0.08,K,D*26
$GPGGA,070023.00,3713.95615741,N,13701.42412838,E,4,09,1.5,97.759,M,36.771,M,3.0,0000*72
$GPVTG,277.50,T,285.95,M,0.02,N,0.04,K,D*24
$GPGGA,070023.10,3713.95616079,N,13701.42412738,E,4,09,1.5,97.761,M,36.771,M,3.1,0000*79
$GPVTG,313.48,T,321.93,M,0.04,N,0.07,K,D*22
$GPGGA,070023.20,3713.95615760,N,13701.42413040,E,4,09,1.5,97.764,M,36.771,M,2.2,0000*78
$GPVTG,173.00,T,181.45,M,0.00,N,0.01,K,D*2B
$GPGGA,070023.30,3713.95616053,N,13701.42412948,E,4,09,1.5,97.763,M,36.771,M,2.3,0000*7B
$GPVTG,17.95,T,26.40,M,0.01,N,0.02,K,D*2F
$GPGGA,070023.40,3713.95615752,N,13701.42413231,E,4,09,1.5,97.769,M,36.771,M,2.4,0000*70
$GPVTG,349.79,T,358.24,M,0.03,N,0.06,K,D*2B
$GPGGA,070023.50,3713.95616044,N,13701.42412963,E,4,09,1.5,97.767,M,36.771,M,2.5,0000*70
$GPVTG,323.03,T,331.48,M,0.04,N,0.07,K,D*29
$GPGGA,070023.60,3713.95615976,N,13701.42413095,E,4,09,1.5,97.768,M,36.771,M,2.6,0000*75
$GPVTG,343.78,T,352.23,M,0.04,N,0.07,K,D*2B
$GPGGA,070023.70,3713.95615983,N,13701.42413177,E,4,09,1.5,97.763,M,36.771,M,2.7,0000*79
$GPVTG,13.97,T,22.42,M,0.04,N,0.07,K,D*2F
$GPGGA,070023.80,3713.95615973,N,13701.42413135,E,4,09,1.5,97.766,M,36.771,M,2.8,0000*75
$GPVTG,354.80,T,3.25,M,0.04,N,0.07,K,D*2B
$GPGGA,070023.90,3713.95616130,N,13701.42413088,E,4,09,1.5,97.762,M,36.771,M,2.9,0000*7A
$GPVTG,345.83,T,354.28,M,0.05,N,0.09,K,D*2B
$GPGGA,070024.00,3713.95616270,N,13701.42413028,E,4,09,1.5,97.767,M,36.771,M,3.0,0000*74
$GPVTG,334.86,T,343.31,M,0.06,N,0.12,K,D*2F
$GPGGA,070024.10,3713.95616231,N,13701.42413038,E,4,09,1.5,97.763,M,36.771,M,3.1,0000*74
$GPVTG,330.83,T,339.28,M,0.06,N,0.12,K,D*2B
$GPGGA,070024.20,3713.95616207,N,13701.42413284,E,4,09,1.5,97.759,M,36.771,M,2.2,0000*7C
$GPVTG,321.23,T,329.68,M,0.06,N,0.10,K,D*26
$GPGGA,070024.30,3713.95616023,N,13701.42413889,E,4,09,1.5,97.759,M,36.771,M,2.3,0000*7F
$GPVTG,1.56,T,10.01,M,0.05,N,0.09,K,D*18
$GPGGA,070024.40,3713.95616572,N,13701.42413311,E,4,09,1.5,97.757,M,36.771,M,2.4,0000*7A
$GPVTG,342.87,T,351.32,M,0.05,N,0.09,K,D*26
$GPGGA,070024.50,3713.95616388,N,13701.42413741,E,4,09,1.5,97.759,M,36.771,M,2.5,0000*76
$GPVTG,3.51,T,11.96,M,0.03,N,0.06,K,D*1B
$GPGGA,070024.60,3713.95616662,N,13701.42413551,E,4,09,1.5,97.760,M,36.771,M,2.6,0000*7E
$GPVTG,10.81,T,19.26,M,0.04,N,0.08,K,D*2E
$GPGGA,070024.70,3713.95616398,N,13701.42413965,E,4,09,1.5,97.760,M,36.771,M,2.7,0000*75
$GPVTG,48.69,T,57.14,M,0.04,N,0.08,K,D*2E
$GPGGA,070024.80,3713.95616484,N,13701.42413729,E,4,09,1.5,97.759,M,36.771,M,2.8,0000*73
$GPVTG,45.25,T,53.70,M,0.03,N,0.05,K,D*27
$GPGGA,070024.90,3713.95616457,N,13701.42414042,E,4,09,1.5,97.767,M,36.771,M,2.9,0000*7D
$GPVTG,50.67,T,59.11,M,0.04,N,0.07,K,D*2D
$GPGGA,070025.00,3713.95616642,N,13701.42414276,E,4,09,1.5,97.761,M,36.771,M,3.0,0000*78
$GPVTG,53.67,T,62.12,M,0.05,N,0.10,K,D*22
$GPGGA,070025.10,3713.95616881,N,13701.42414527,E,4,09,1.5,97.760,M,36.771,M,3.1,0000*7B
$GPVTG,50.44,T,58.89,M,0.09,N,0.17,K,D*20
$GPGGA,070025.20,3713.95617205,N,13701.42414464,E,4,09,1.5,97.761,M,36.771,M,2.2,0000*7A
$GPVTG,31.73,T,40.18,M,0.11,N,0.20,K,D*2F
$GPGGA,070025.30,3713.95616958,N,13701.42414607,E,4,09,1.5,97.767,M,36.771,M,2.3,0000*79
$GPVTG,44.64,T,53.09,M,0.06,N,0.12,K,D*2E
$GPGGA,070025.40,3713.95617366,N,13701.42414399,E,4,09,1.5,97.764,M,36.771,M,2.4,0000*7E
$GPVTG,22.91,T,31.36,M,0.05,N,0.08,K,D*24
$GPGGA,070025.50,3713.95617105,N,13701.42414602,E,4,09,1.5,97.764,M,36.771,M,2.5,0000*7E
$GPVTG,29.11,T,37.56,M,0.02,N,0.03,K,D*2B
$GPGGA,070025.60,3713.95617182,N,13701.42414523,E,4,09,1.5,97.767,M,36.771,M,2.6,0000*72
$GPVTG,322.79,T,331.24,M,0.01,N,0.01,K,D*2C
$GPGGA,070025.70,3713.95617139,N,13701.42414514,E,4,09,1.5,97.768,M,36.771,M,2.7,0000*79
$GPVTG,180.08,T,188.53,M,0.02,N,0.04,K,D*26
$GPGGA,070025.80,3713.95617445,N,13701.42414279,E,4,09,1.5,97.763,M,36.771,M,2.8,0000*70
$GPVTG,242.03,T,250.48,M,0.02,N,0.04,K,D*2C
$GPGGA,070025.90,3713.95616929,N,13701.42414602,E,4,09,1.5,97.769,M,36.771,M,2.9,0000*74
$GPVTG,167.51,T,175.96,M,0.03,N,0.06,K,D*2B
$GPGGA,070026.00,3713.95617487,N,13701.42414331,E,4,09,1.5,97.767,M,36.771,M,3.0,0000*75
$GPVTG,237.66,T,246.11,M,0.01,N,0.02,K,D*23
$GPGGA,070026.10,3713.95617143,N,13701.42414605,E,4,09,1.5,97.766,M,36.771,M,3.1,0000*7B
$GPVTG,195.27,T,203.72,M,0.02,N,0.03,K,D*2B
$GPGGA,070026.20,3713.95617464,N,13701.42414377,E,4,09,1.5,97.765,M,36.771,M,2.2,0000*79
$GPVTG,311.67,T,320.12,M,0.01,N,0.03,K,D*24
$GPGGA,070026.30,3713.95617412,N,13701.42414952,E,4,09,1.5,97.761,M,36.771,M,2.3,0000*71
$GPVTG,48.49,T,56.94,M,0.04,N,0.08,K,D*25
