
[2021-02-22 16:13:32.962] $GNGGA,071322.30,,,,,0,00,99.99,,,,,35.3,*65
[2021-02-22 16:13:32.993] $GNGGA,071322.40,,,,,0,00,99.99,,,,,35.4,*65
[2021-02-22 16:13:32.993] $GNGGA,071322.50,,,,,0,00,99.99,,,,,35.5,*65
[2021-02-22 16:13:32.993] $GNGGA,071322.60,,,,,0,00,99.99,,,,,35.6,*65
[2021-02-22 16:13:32.993] $GNGGA,071322.70,,,,,0,00,99.99,,,,,35.7,*65
[2021-02-22 16:13:32.993] $GNGGA,071322.80,,,,,0,00,99.99,,,,,35.8,*65
[2021-02-22 16:13:32.993] $GNGGA,071322.90,,,,,0,00,99.99,,,,,35.9,*65
[2021-02-22 16:13:32.993] $GNGGA,071323.00,,,,,0,00,99.99,,,,,36.0,*67
[2021-02-22 16:13:32.993] $GNGGA,071323.10,,,,,0,00,99.99,,,,,36.1,*67
[2021-02-22 16:13:32.993] $GNGGA,071323.20,,,,,0,00,99.99,,,,,36.2,*67
[2021-02-22 16:13:32.993] $GNGGA,071323.30,,,,,0,00,99.99,,,,,36.3,*67
[2021-02-22 16:13:32.993] $GNGGA,071323.40,,,,,0,00,99.99,,,,,36.4,*67
[2021-02-22 16:13:32.993] $GNGGA,071323.50,,,,,0,00,99.99,,,,,36.5,*67
[2021-02-22 16:13:32.993] $GNGGA,071323.60,,,,,0,00,99.99,,,,,36.6,*67
[2021-02-22 16:13:32.993] $GNGGA,071323.70,,,,,0,00,99.99,,,,,36.7,*67
[2021-02-22 16:13:32.993] $GNGGA,071323.80,,,,,0,00,99.99,,,,,36.8,*67
[2021-02-22 16:13:32.993] $GNGGA,071323.90,,,,,0,00,99.99,,,,,36.9,*67
[2021-02-22 16:13:32.993] $GNGGA,071324.00,,,,,0,00,99.99,,,,,37.0,*61
[2021-02-22 16:13:32.993] $GNGGA,071324.10,,,,,0,00,99.99,,,,,37.1,*61
[2021-02-22 16:13:32.993] $GNGGA,071324.20,,,,,0,00,99.99,,,,,37.2,*61
[2021-02-22 16:13:32.993] $GNGGA,071324.30,,,,,0,00,99.99,,,,,37.3,*61
[2021-02-22 16:13:32.993] $GNGGA,071324.40,,,,,0,00,99.99,,,,,37.4,*61
[2021-02-22 16:13:32.993] $GNGGA,071324.50,,,,,0,00,99.99,,,,,37.5,*61
[2021-02-22 16:13:32.993] $GNGGA,071324.60,,,,,0,00,99.99,,,,,37.6,*61
[2021-02-22 16:13:33.009] $GNGGA,071324.70,,,,,0,00,99.99,,,,,37.7,*61
[2021-02-22 16:13:33.009] $GNGGA,071324.80,,,,,0,00,99.99,,,,,37.8,*61
[2021-02-22 16:13:33.009] $GNGGA,071324.90,,,,,0,00,99.99,,,,,37.9,*61
[2021-02-22 16:13:33.009] $GNGGA,071325.00,,,,,0,00,99.99,,,,,38.0,*6F
[2021-02-22 16:13:33.009] $GNGGA,071325.10,,,,,0,00,99.99,,,,,38.1,*6F
[2021-02-22 16:13:33.009] $GNGGA,071325.20,,,,,0,00,99.99,,,,,38.2,*6F
[2021-02-22 16:13:33.009] $GNGGA,071325.30,,,,,0,00,99.99,,,,,38.3,*6F
[2021-02-22 16:13:33.009] $GNGGA,071325.40,,,,,0,00,99.99,,,,,38.4,*6F
[2021-02-22 16:13:33.009] $GNGGA,071325.50,,,,,0,00,99.99,,,,,38.5,*6F
[2021-02-22 16:13:33.009] $GNGGA,071325.60,,,,,0,00,99.99,,,,,38.6,*6F
[2021-02-22 16:13:33.009] $GNGGA,071325.70,,,,,0,00,99.99,,,,,38.7,*6F
[2021-02-22 16:13:33.009] $GNGGA,071325.80,,,,,0,00,99.99,,,,,38.8,*6F
[2021-02-22 16:13:33.009] $GNGGA,071325.90,,,,,0,00,99.99,,,,,38.9,*6F
[2021-02-22 16:13:33.009] $GNGGA,071326.00,,,,,0,00,99.99,,,,,39.0,*6D
[2021-02-22 16:13:33.009] $GNGGA,071326.10,,,,,0,00,99.99,,,,,39.1,*6D
[2021-02-22 16:13:33.009] $GNGGA,071326.20,,,,,0,00,99.99,,,,,39.2,*6D
[2021-02-22 16:13:33.009] $GNGGA,071326.30,,,,,0,00,99.99,,,,,39.3,*6D
[2021-02-22 16:13:33.009] $GNGGA,071326.40,,,,,0,00,99.99,,,,,39.4,*6D
[2021-02-22 16:13:33.009] $GNGGA,071326.50,,,,,0,00,99.99,,,,,39.5,*6D
[2021-02-22 16:13:33.009] $GNGGA,071326.60,,,,,0,00,99.99,,,,,39.6,*6D
[2021-02-22 16:13:33.009] $GNGGA,071326.70,,,,,0,00,99.99,,,,,39.7,*6D
[2021-02-22 16:13:33.009] $GNGGA,071326.80,,,,,0,00,99.99,,,,,39.8,*6D
[2021-02-22 16:13:33.025] $GNGGA,071326.90,,,,,0,00,99.99,,,,,39.9,*6D
[2021-02-22 16:13:33.025] $GNGGA,071327.00,,,,,0,00,99.99,,,,,40.0,*62
[2021-02-22 16:13:33.025] $GNGGA,071327.10,,,,,0,00,99.99,,,,,40.1,*62
[2021-02-22 16:13:33.025] $GNGGA,071327.20,,,,,0,00,99.99,,,,,40.2,*62
[2021-02-22 16:13:33.025] $GNGGA,071327.30,,,,,0,00,99.99,,,,,40.3,*62
[2021-02-22 16:13:33.025] $GNGGA,071327.40,,,,,0,00,99.99,,,,,40.4,*62
[2021-02-22 16:13:33.025] $GNGGA,071327.50,,,,,0,00,99.99,,,,,40.5,*62
[2021-02-22 16:13:33.025] $GNGGA,071327.60,,,,,0,00,99.99,,,,,40.6,*62
[2021-02-22 16:13:33.025] $GNGGA,071327.70,,,,,0,00,99.99,,,,,40.7,*62
[2021-02-22 16:13:33.025] $GNGGA,071327.80,,,,,0,00,99.99,,,,,40.8,*62
[2021-02-22 16:13:33.025] $GNGGA,071327.90,,,,,0,00,99.99,,,,,40.9,*62
[2021-02-22 16:13:33.025] $GNGGA,071328.00,,,,,0,00,99.99,,,,,41.0,*6C
[2021-02-22 16:13:33.025] $GNGGA,071328.10,,,,,0,00,99.99,,,,,41.1,*6C
[2021-02-22 16:13:33.025] $GNGGA,071328.20,,,,,0,00,99.99,,,,,41.2,*6C
[2021-02-22 16:13:33.025] $GNGGA,071328.30,,,,,0,00,99.99,,,,,41.3,*6C
[2021-02-22 16:13:33.025] $GNGGA,071328.40,,,,,0,00,99.99,,,,,41.4,*6C
[2021-02-22 16:13:33.025] $GNGGA,071328.50,,,,,0,00,99.99,,,,,41.5,*6C
[2021-02-22 16:13:33.025] $GNGGA,071328.60,,,,,0,00,99.99,,,,,41.6,*6C
[2021-02-22 16:13:33.025] $GNGGA,071328.70,,,,,0,00,99.99,,,,,41.7,*6C
[2021-02-22 16:13:33.025] $GNGGA,071328.80,,,,,0,00,99.99,,,,,41.8,*6C
[2021-02-22 16:13:33.025] $GNGGA,071328.90,,,,,0,00,99.99,,,,,41.9,*6C
[2021-02-22 16:13:33.025] $GNGGA,071329.00,,,,,0,00,99.99,,,,,42.0,*6E
[2021-02-22 16:13:33.040] $GNGGA,071329.10,,,,,0,00,99.99,,,,,42.1,*6E
[2021-02-22 16:13:33.040] $GNGGA,071329.20,,,,,0,00,99.99,,,,,42.2,*6E
[2021-02-22 16:13:33.040] $GNGGA,071329.30,,,,,0,00,99.99,,,,,42.3,*6E
[2021-02-22 16:13:33.040] $GNGGA,071329.40,,,,,0,00,99.99,,,,,42.4,*6E
[2021-02-22 16:13:33.040] $GNGGA,071329.50,,,,,0,00,99.99,,,,,42.5,*6E
[2021-02-22 16:13:33.040] $GNGGA,071329.60,,,,,0,00,99.99,,,,,42.6,*6E
[2021-02-22 16:13:33.040] $GNGGA,071329.70,,,,,0,00,99.99,,,,,42.7,*6E
[2021-02-22 16:13:33.040] $GNGGA,071329.80,,,,,0,00,99.99,,,,,42.8,*6E
[2021-02-22 16:13:33.040] $GNGGA,071329.90,,,,,0,00,99.99,,,,,42.9,*6E
[2021-02-22 16:13:33.040] $GNGGA,071330.00,,,,,0,00,99.99,,,,,43.0,*67
[2021-02-22 16:13:33.040] $GNGGA,071330.10,,,,,0,00,99.99,,,,,43.1,*67
[2021-02-22 16:13:33.040] $GNGGA,071330.20,,,,,0,00,99.99,,,,,43.2,*67
[2021-02-22 16:13:33.040] $GNGGA,071330.30,,,,,0,00,99.99,,,,,43.3,*67
[2021-02-22 16:13:33.040] $GNGGA,071330.40,,,,,0,00,99.99,,,,,43.4,*67
[2021-02-22 16:13:33.040] $GNGGA,071330.50,,,,,0,00,99.99,,,,,43.5,*67
[2021-02-22 16:13:33.040] $GNGGA,071330.60,,,,,0,00,99.99,,,,,43.6,*67
[2021-02-22 16:13:33.040] $GNGGA,071330.70,,,,,0,00,99.99,,,,,43.7,*67
[2021-02-22 16:13:33.040] $GNGGA,071330.80,,,,,0,00,99.99,,,,,43.8,*67
[2021-02-22 16:13:33.040] $GNGGA,071330.90,,,,,0,00,99.99,,,,,43.9,*67
[2021-02-22 16:13:33.040] $GNGGA,071331.00,,,,,0,00,99.99,,,,,44.0,*61
[2021-02-22 16:13:33.040] $GNGGA,071331.10,,,,,0,00,99.99,,,,,44.1,*61
[2021-02-22 16:13:33.040] $GNGGA,071331.20,,,,,0,00,99.99,,,,,44.2,*61
[2021-02-22 16:13:33.040] $GNGGA,071331.30,,,,,0,00,99.99,,,,,44.3,*61
[2021-02-22 16:13:33.040] $GNGGA,071331.40,,,,,0,00,99.99,,,,,44.4,*61
[2021-02-22 16:13:33.040] $GNGGA,071331.50,,,,,0,00,99.99,,,,,44.5,*61
[2021-02-22 16:13:33.040] $GNGGA,071331.60,,,,,0,00,99.99,,,,,44.6,*61
[2021-02-22 16:13:33.040] $GNGGA,071331.70,,,,,0,00,99.99,,,,,44.7,*61
[2021-02-22 16:13:33.040] $GNGGA,071331.80,,,,,0,00,99.99,,,,,44.8,*61
[2021-02-22 16:13:33.040] $GNGGA,071331.90,,,,,0,00,99.99,,,,,44.9,*61
[2021-02-22 16:13:33.040] $GNGGA,071332.00,,,,,0,00,99.99,,,,,45.0,*63
[2021-02-22 16:13:33.040] $GNGGA,071332.10,,,,,0,00,99.99,,,,,45.1,*63
[2021-02-22 16:13:33.040] $GNGGA,071332.20,,,,,0,00,99.99,,,,,45.2,*63
[2021-02-22 16:13:33.040] $GNGGA,071332.30,,,,,0,00,99.99,,,,,45.3,*63
[2021-02-22 16:13:33.040] $GNGGA,071332.40,,,,,0,00,99.99,,,,,45.4,*63
[2021-02-22 16:13:33.087] $GNGGA,071332.50,,,,,0,00,99.99,,,,,45.5,*63
[2021-02-22 16:13:33.196] $GNGGA,071332.60,,,,,0,00,99.99,,,,,45.6,*63
[2021-02-22 16:13:33.290] $GNGGA,071332.70,,,,,0,00,99.99,,,,,45.7,*63
[2021-02-22 16:13:33.384] $GNGGA,071332.80,,,,,0,00,99.99,,,,,45.8,*63
[2021-02-22 16:13:33.478] $GNGGA,071332.90,,,,,0,00,99.99,,,,,45.9,*63
[2021-02-22 16:13:33.587] $GNGGA,071333.00,,,,,0,00,99.99,,,,,46.0,*61
[2021-02-22 16:13:33.681] $GNGGA,071333.10,,,,,0,00,99.99,,,,,46.1,*61
[2021-02-22 16:13:33.790] $GNGGA,071333.20,,,,,0,00,99.99,,,,,46.2,*61
[2021-02-22 16:13:33.884] $GNGGA,071333.30,,,,,0,00,99.99,,,,,46.3,*61
[2021-02-22 16:13:33.993] $GNGGA,071333.40,,,,,0,00,99.99,,,,,46.4,*61
[2021-02-22 16:13:34.087] $GNGGA,071333.50,,,,,0,00,99.99,,,,,46.5,*61
[2021-02-22 16:13:34.181] $GNGGA,071333.60,,,,,0,00,99.99,,,,,46.6,*61
[2021-02-22 16:13:34.274] $GNGGA,071333.70,,,,,0,00,99.99,,,,,46.7,*61
[2021-02-22 16:13:34.399] $GNGGA,071333.80,,,,,0,00,99.99,,,,,46.8,*61
[2021-02-22 16:13:34.493] $GNGGA,071333.90,,,,,0,00,99.99,,,,,46.9,*61
[2021-02-22 16:13:34.587] $GNGGA,071334.00,,,,,0,00,99.99,,,,,47.0,*67
[2021-02-22 16:13:34.681] $GNGGA,071334.10,,,,,0,00,99.99,,,,,47.1,*67
[2021-02-22 16:13:34.790] $GNGGA,071334.20,,,,,0,00,99.99,,,,,47.2,*67
[2021-02-22 16:13:34.884] $GNGGA,071334.30,,,,,0,00,99.99,,,,,47.3,*67
[2021-02-22 16:13:34.993] $GNGGA,071334.40,,,,,0,00,99.99,,,,,47.4,*67
[2021-02-22 16:13:35.087] $GNGGA,071334.50,,,,,0,00,99.99,,,,,47.5,*67
[2021-02-22 16:13:35.196] $GNGGA,071334.60,,,,,0,00,99.99,,,,,47.6,*67
[2021-02-22 16:13:35.290] $GNGGA,071334.70,,,,,0,00,99.99,,,,,47.7,*67
[2021-02-22 16:13:35.384] $GNGGA,071334.80,,,,,0,00,99.99,,,,,47.8,*67
[2021-02-22 16:13:35.477] $GNGGA,071334.90,,,,,0,00,99.99,,,,,47.9,*67
[2021-02-22 16:13:35.587] $GNGGA,071335.00,,,,,0,00,99.99,,,,,48.0,*69
[2021-02-22 16:13:35.696] $GNGGA,071335.10,,,,,0,00,99.99,,,,,48.1,*69
[2021-02-22 16:13:35.790] $GNGGA,071335.20,,,,,0,00,99.99,,,,,48.2,*69
[2021-02-22 16:13:35.884] $GNGGA,071335.30,,,,,0,00,99.99,,,,,48.3,*69
[2021-02-22 16:13:35.993] $GNGGA,071335.40,,,,,0,00,99.99,,,,,48.4,*69
[2021-02-22 16:13:36.087] $GNGGA,071335.50,,,,,0,00,99.99,,,,,48.5,*69
[2021-02-22 16:13:36.181] $GNGGA,071335.60,,,,,0,00,99.99,,,,,48.6,*69
[2021-02-22 16:13:36.274] $GNGGA,071335.70,,,,,0,00,99.99,,,,,48.7,*69
[2021-02-22 16:13:36.399] $GNGGA,071335.80,,,,,0,00,99.99,,,,,48.8,*69
[2021-02-22 16:13:36.493] $GNGGA,071335.90,,,,,0,00,99.99,,,,,48.9,*69
[2021-02-22 16:13:36.587] $GNGGA,071336.00,,,,,0,00,99.99,,,,,49.0,*6B
[2021-02-22 16:13:36.681] $GNGGA,071336.10,,,,,0,00,99.99,,,,,49.1,*6B
[2021-02-22 16:13:36.790] $GNGGA,071336.20,,,,,0,00,99.99,,,,,49.2,*6B
[2021-02-22 16:13:36.884] $GNGGA,071336.30,,,,,0,00,99.99,,,,,49.3,*6B
[2021-02-22 16:13:36.993] $GNGGA,071336.40,,,,,0,00,99.99,,,,,49.4,*6B
[2021-02-22 16:13:37.087] $GNGGA,071336.50,,,,,0,00,99.99,,,,,49.5,*6B
[2021-02-22 16:13:37.196] $GNGGA,071336.60,,,,,0,00,99.99,,,,,49.6,*6B
[2021-02-22 16:13:37.290] $GNGGA,071336.70,,,,,0,00,99.99,,,,,49.7,*6B
[2021-02-22 16:13:37.384] $GNGGA,071336.80,,,,,0,00,99.99,,,,,49.8,*6B
[2021-02-22 16:13:37.477] $GNGGA,071336.90,,,,,0,00,99.99,,,,,49.9,*6B
[2021-02-22 16:13:37.587] $GNGGA,071337.00,,,,,0,00,99.99,,,,,50.0,*62
[2021-02-22 16:13:37.696] $GNGGA,071337.10,,,,,0,00,99.99,,,,,50.1,*62
[2021-02-22 16:13:37.790] $GNGGA,071337.20,,,,,0,00,99.99,,,,,50.2,*62
[2021-02-22 16:13:37.884] $GNGGA,071337.30,,,,,0,00,99.99,,,,,50.3,*62
[2021-02-22 16:13:37.993] $GNGGA,071337.40,,,,,0,00,99.99,,,,,50.4,*62
[2021-02-22 16:13:38.087] $GNGGA,071337.50,,,,,0,00,99.99,,,,,50.5,*62
[2021-02-22 16:13:38.180] $GNGGA,071337.60,,,,,0,00,99.99,,,,,50.6,*62
[2021-02-22 16:13:38.274] $GNGGA,071337.70,,,,,0,00,99.99,,,,,50.7,*62
[2021-02-22 16:13:38.399] $GNGGA,071337.80,,,,,0,00,99.99,,,,,50.8,*62
[2021-02-22 16:13:38.493] $GNGGA,071337.90,,,,,0,00,99.99,,,,,50.9,*62
[2021-02-22 16:13:38.587] $GNGGA,071338.00,,,,,0,00,99.99,,,,,51.0,*6C
[2021-02-22 16:13:38.680] $GNGGA,071338.10,,,,,0,00,99.99,,,,,51.1,*6C
[2021-02-22 16:13:38.790] $GNGGA,071338.20,,,,,0,00,99.99,,,,,51.2,*6C
[2021-02-22 16:13:38.884] $GNGGA,071338.30,,,,,0,00,99.99,,,,,51.3,*6C
[2021-02-22 16:13:38.993] $GNGGA,071338.40,,,,,0,00,99.99,,,,,51.4,*6C
[2021-02-22 16:13:39.087] $GNGGA,071338.50,,,,,0,00,99.99,,,,,51.5,*6C
[2021-02-22 16:13:39.196] $GNGGA,071338.60,,,,,0,00,99.99,,,,,51.6,*6C
[2021-02-22 16:13:39.290] $GNGGA,071338.70,,,,,0,00,99.99,,,,,51.7,*6C
[2021-02-22 16:13:39.384] $GNGGA,071338.80,,,,,0,00,99.99,,,,,51.8,*6C
[2021-02-22 16:13:39.477] $GNGGA,071338.90,,,,,0,00,99.99,,,,,51.9,*6C
[2021-02-22 16:13:39.587] $GNGGA,071339.00,,,,,0,00,99.99,,,,,52.0,*6E
[2021-02-22 16:13:39.696] $GNGGA,071339.10,,,,,0,00,99.99,,,,,52.1,*6E
[2021-02-22 16:13:39.790] $GNGGA,071339.20,,,,,0,00,99.99,,,,,52.2,*6E
[2021-02-22 16:13:39.883] $GNGGA,071339.30,,,,,0,00,99.99,,,,,52.3,*6E
[2021-02-22 16:13:39.993] $GNGGA,071339.40,,,,,0,00,99.99,,,,,52.4,*6E
[2021-02-22 16:13:40.087] $GNGGA,071339.50,,,,,0,00,99.99,,,,,52.5,*6E
[2021-02-22 16:13:40.180] $GNGGA,071339.60,,,,,0,00,99.99,,,,,52.6,*6E
[2021-02-22 16:13:40.274] $GNGGA,071339.70,,,,,0,00,99.99,,,,,52.7,*6E
[2021-02-22 16:13:40.399] $GNGGA,071339.80,,,,,0,00,99.99,,,,,52.8,*6E
[2021-02-22 16:13:40.493] $GNGGA,071339.90,,,,,0,00,99.99,,,,,52.9,*6E
[2021-02-22 16:13:40.587] $GNGGA,071340.00,,,,,0,00,99.99,,,,,53.0,*61
[2021-02-22 16:13:40.680] $GNGGA,071340.10,,,,,0,00,99.99,,,,,53.1,*61
[2021-02-22 16:13:40.790] $GNGGA,071340.20,,,,,0,00,99.99,,,,,53.2,*61
[2021-02-22 16:13:40.883] $GNGGA,071340.30,,,,,0,00,99.99,,,,,53.3,*61
[2021-02-22 16:13:40.977] $GNGGA,071340.40,,,,,0,00,99.99,,,,,53.4,*61
[2021-02-22 16:13:41.086] $GNGGA,071340.50,,,,,0,00,99.99,,,,,53.5,*61
[2021-02-22 16:13:41.196] $GNGGA,071340.60,,,,,0,00,99.99,,,,,53.6,*61
[2021-02-22 16:13:41.290] $GNGGA,071340.70,,,,,0,00,99.99,,,,,53.7,*61
[2021-02-22 16:13:41.383] $GNGGA,071340.80,,,,,0,00,99.99,,,,,53.8,*61
[2021-02-22 16:13:41.477] $GNGGA,071340.90,,,,,0,00,99.99,,,,,53.9,*61
[2021-02-22 16:13:41.586] $GNGGA,071341.00,,,,,0,00,99.99,,,,,54.0,*67
[2021-02-22 16:13:41.680] $GNGGA,071341.10,,,,,0,00,99.99,,,,,54.1,*67
[2021-02-22 16:13:41.790] $GNGGA,071341.20,,,,,0,00,99.99,,,,,54.2,*67
[2021-02-22 16:13:41.883] $GNGGA,071341.30,,,,,0,00,99.99,,,,,54.3,*67
[2021-02-22 16:13:41.993] $GNGGA,071341.40,,,,,0,00,99.99,,,,,54.4,*67
[2021-02-22 16:13:42.086] $GNGGA,071341.50,,,,,0,00,99.99,,,,,54.5,*67
[2021-02-22 16:13:42.180] $GNGGA,071341.60,,,,,0,00,99.99,,,,,54.6,*67
[2021-02-22 16:13:42.274] $GNGGA,071341.70,,,,,0,00,99.99,,,,,54.7,*67
[2021-02-22 16:13:42.399] $GNGGA,071341.80,,,,,0,00,99.99,,,,,54.8,*67
[2021-02-22 16:13:42.493] $GNGGA,071341.90,,,,,0,00,99.99,,,,,54.9,*67
[2021-02-22 16:13:42.586] $GNGGA,071342.00,,,,,0,00,99.99,,,,,55.0,*65
[2021-02-22 16:13:42.680] $GNGGA,071342.10,,,,,0,00,99.99,,,,,55.1,*65
[2021-02-22 16:13:42.789] $GNGGA,071342.20,,,,,0,00,99.99,,,,,55.2,*65
[2021-02-22 16:13:42.883] $GNGGA,071342.30,,,,,0,00,99.99,,,,,55.3,*65
[2021-02-22 16:13:42.993] $GNGGA,071342.40,,,,,0,00,99.99,,,,,55.4,*65
[2021-02-22 16:13:43.086] $GNGGA,071342.50,,,,,0,00,99.99,,,,,55.5,*65
[2021-02-22 16:13:43.196] $GNGGA,071342.60,,,,,0,00,99.99,,,,,55.6,*65
[2021-02-22 16:13:43.289] $GNGGA,071342.70,,,,,0,00,99.99,,,,,55.7,*65
[2021-02-22 16:13:43.383] $GNGGA,071342.80,,,,,0,00,99.99,,,,,55.8,*65
[2021-02-22 16:13:43.477] $GNGGA,071342.90,,,,,0,00,99.99,,,,,55.9,*65
[2021-02-22 16:13:43.586] $GNGGA,071343.00,,,,,0,00,99.99,,,,,56.0,*67
[2021-02-22 16:13:43.680] $GNGGA,071343.10,,,,,0,00,99.99,,,,,56.1,*67
[2021-02-22 16:13:43.789] $GNGGA,071343.20,,,,,0,00,99.99,,,,,56.2,*67
[2021-02-22 16:13:43.883] $GNGGA,071343.30,,,,,0,00,99.99,,,,,56.3,*67
[2021-02-22 16:13:43.993] $GNGGA,071343.40,,,,,0,00,99.99,,,,,56.4,*67
[2021-02-22 16:13:44.086] $GNGGA,071343.50,,,,,0,00,99.99,,,,,56.5,*67
[2021-02-22 16:13:44.180] $GNGGA,071343.60,,,,,0,00,99.99,,,,,56.6,*67
[2021-02-22 16:13:44.274] $GNGGA,071343.70,,,,,0,00,99.99,,,,,56.7,*67
[2021-02-22 16:13:44.399] $GNGGA,071343.80,,,,,0,00,99.99,,,,,56.8,*67
[2021-02-22 16:13:44.492] $GNGGA,071343.90,,,,,0,00,99.99,,,,,56.9,*67
[2021-02-22 16:13:44.586] $GNGGA,071344.00,,,,,0,00,99.99,,,,,57.0,*61
[2021-02-22 16:13:44.696] $GNGGA,071344.10,,,,,0,00,99.99,,,,,57.1,*61
[2021-02-22 16:13:44.789] $GNGGA,071344.20,,,,,0,00,99.99,,,,,57.2,*61
[2021-02-22 16:13:44.883] $GNGGA,071344.30,,,,,0,00,99.99,,,,,57.3,*61
[2021-02-22 16:13:44.977] $GNGGA,071344.40,,,,,0,00,99.99,,,,,57.4,*61
[2021-02-22 16:13:45.102] $GNGGA,071344.50,,,,,0,00,99.99,,,,,57.5,*61
[2021-02-22 16:13:45.196] $GNGGA,071344.60,,,,,0,00,99.99,,,,,57.6,*61
[2021-02-22 16:13:45.289] $GNGGA,071344.70,,,,,0,00,99.99,,,,,57.7,*61
[2021-02-22 16:13:45.383] $GNGGA,071344.80,,,,,0,00,99.99,,,,,57.8,*61
[2021-02-22 16:13:45.492] $GNGGA,071344.90,,,,,0,00,99.99,,,,,57.9,*61
[2021-02-22 16:13:45.586] $GNGGA,071345.00,,,,,0,00,99.99,,,,,58.0,*6F
[2021-02-22 16:13:45.696] $GNGGA,071345.10,,,,,0,00,99.99,,,,,58.1,*6F
[2021-02-22 16:13:45.789] $GNGGA,071345.20,,,,,0,00,99.99,,,,,58.2,*6F
[2021-02-22 16:13:45.899] $GNGGA,071345.30,,,,,0,00,99.99,,,,,58.3,*6F
[2021-02-22 16:13:45.992] $GNGGA,071345.40,,,,,0,00,99.99,,,,,58.4,*6F
[2021-02-22 16:13:46.086] $GNGGA,071345.50,,,,,0,00,99.99,,,,,58.5,*6F
[2021-02-22 16:13:46.180] $GNGGA,071345.60,,,,,0,00,99.99,,,,,58.6,*6F
[2021-02-22 16:13:46.289] $GNGGA,071345.70,,,,,0,00,99.99,,,,,58.7,*6F
[2021-02-22 16:13:46.399] $GNGGA,071345.80,,,,,0,00,99.99,,,,,58.8,*6F
[2021-02-22 16:13:46.492] $GNGGA,071345.90,,,,,0,00,99.99,,,,,58.9,*6F
[2021-02-22 16:13:46.586] $GNGGA,071346.00,,,,,0,00,99.99,,,,,59.0,*6D
[2021-02-22 16:13:46.695] $GNGGA,071346.10,,,,,0,00,99.99,,,,,59.1,*6D
[2021-02-22 16:13:46.789] $GNGGA,071346.20,,,,,0,00,99.99,,,,,59.2,*6D
[2021-02-22 16:13:46.883] $GNGGA,071346.30,,,,,0,00,99.99,,,,,59.3,*6D
[2021-02-22 16:13:46.977] $GNGGA,071346.40,,,,,0,00,99.99,,,,,59.4,*6D
[2021-02-22 16:13:47.102] $GNGGA,071346.50,,,,,0,00,99.99,,,,,59.5,*6D
[2021-02-22 16:13:47.195] $GNGGA,071346.60,,,,,0,00,99.99,,,,,59.6,*6D
[2021-02-22 16:13:47.289] $GNGGA,071346.70,,,,,0,00,99.99,,,,,59.7,*6D
[2021-02-22 16:13:47.383] $GNGGA,071346.80,,,,,0,00,99.99,,,,,59.8,*6D
[2021-02-22 16:13:47.492] $GNGGA,071346.90,,,,,0,00,99.99,,,,,59.9,*6D
[2021-02-22 16:13:47.586] $GNGGA,071347.00,,,,,0,00,99.99,,,,,60.0,*66
[2021-02-22 16:13:47.680] $GNGGA,071347.10,,,,,0,00,99.99,,,,,60.1,*66
[2021-02-22 16:13:47.789] $GNGGA,071347.20,,,,,0,00,99.99,,,,,60.2,*66
[2021-02-22 16:13:47.899] $GNGGA,071347.30,,,,,0,00,99.99,,,,,60.3,*66
[2021-02-22 16:13:47.992] $GNGGA,071347.40,,,,,0,00,99.99,,,,,60.4,*66
[2021-02-22 16:13:48.086] $GNGGA,071347.50,,,,,0,00,99.99,,,,,60.5,*66
[2021-02-22 16:13:48.180] $GNGGA,071347.60,,,,,0,00,99.99,,,,,60.6,*66
[2021-02-22 16:13:48.289] $GNGGA,071347.70,,,,,0,00,99.99,,,,,60.7,*66
[2021-02-22 16:13:48.398] $GNGGA,071347.80,,,,,0,00,99.99,,,,,60.8,*66
[2021-02-22 16:13:48.492] $GNGGA,071347.90,,,,,0,00,99.99,,,,,60.9,*66
[2021-02-22 16:13:48.586] $GNGGA,071348.00,,,,,0,00,99.99,,,,,61.0,*68
[2021-02-22 16:13:48.695] $GNGGA,071348.10,,,,,0,00,99.99,,,,,61.1,*68
[2021-02-22 16:13:48.789] $GNGGA,071348.20,,,,,0,00,99.99,,,,,61.2,*68
[2021-02-22 16:13:48.883] $GNGGA,071348.30,,,,,0,00,99.99,,,,,61.3,*68
[2021-02-22 16:13:48.977] $GNGGA,071348.40,,,,,0,00,99.99,,,,,61.4,*68
[2021-02-22 16:13:49.102] $GNGGA,071348.50,,,,,0,00,99.99,,,,,61.5,*68
[2021-02-22 16:13:49.195] $GNGGA,071348.60,,,,,0,00,99.99,,,,,61.6,*68
[2021-02-22 16:13:49.289] $GNGGA,071348.70,,,,,0,00,99.99,,,,,61.7,*68
[2021-02-22 16:13:49.383] $GNGGA,071348.80,,,,,0,00,99.99,,,,,61.8,*68
[2021-02-22 16:13:49.492] $GNGGA,071348.90,,,,,0,00,99.99,,,,,61.9,*68
[2021-02-22 16:13:49.586] $GNGGA,071349.00,,,,,0,00,99.99,,,,,62.0,*6A
[2021-02-22 16:13:49.680] $GNGGA,071349.10,,,,,0,00,99.99,,,,,62.1,*6A
[2021-02-22 16:13:49.789] $GNGGA,071349.20,,,,,0,00,99.99,,,,,62.2,*6A
[2021-02-22 16:13:49.898] $GNGGA,071349.30,,,,,0,00,99.99,,,,,62.3,*6A
[2021-02-22 16:13:49.992] $GNGGA,071349.40,,,,,0,00,99.99,,,,,62.4,*6A
[2021-02-22 16:13:50.101] $GNGGA,071349.50,3713.967565693,N,13701.454290939,E,5,03,99.90,96.747,M,37.566,M,62.5,2006*5D
[2021-02-22 16:13:50.180] $GNGGA,071349.60,3713.967567075,N,13701.454294368,E,5,03,99.90,96.755,M,37.566,M,62.6,2006*58
[2021-02-22 16:13:50.273] $GNGGA,071349.70,3713.967813805,N,13701.454276824,E,5,03,99.90,96.719,M,37.566,M,62.7,2006*5E
[2021-02-22 16:13:50.383] $GNGGA,071349.80,3713.967879503,N,13701.454223401,E,5,03,99.90,96.692,M,37.566,M,62.8,2006*50
[2021-02-22 16:13:50.476] $GNGGA,071349.90,3713.967879796,N,13701.454225430,E,5,03,99.90,96.691,M,37.566,M,62.9,2006*59
[2021-02-22 16:13:50.601] $GNGGA,071350.00,3713.967776252,N,13701.454248541,E,5,03,99.90,96.716,M,37.566,M,63.0,2006*5F
[2021-02-22 16:13:50.680] $GNGGA,071350.10,3713.967726148,N,13701.454326765,E,5,03,99.90,96.757,M,37.566,M,63.1,2006*5A
[2021-02-22 16:13:50.773] $GNGGA,071350.20,3713.967725455,N,13701.454360509,E,5,03,99.90,96.776,M,37.566,M,63.2,2006*59
[2021-02-22 16:13:50.883] $GNGGA,071350.30,3713.967725761,N,13701.454397374,E,5,03,99.90,96.793,M,37.566,M,63.3,2006*52
[2021-02-22 16:13:50.976] $GNGGA,071350.40,3713.967726687,N,13701.454377795,E,5,03,99.90,96.787,M,37.566,M,63.4,2006*58
[2021-02-22 16:13:51.101] $GNGGA,071350.50,3713.967785851,N,13701.454373952,E,5,03,99.90,96.777,M,37.566,M,63.5,2006*5A
[2021-02-22 16:13:51.180] $GNGGA,071350.60,3713.967784839,N,13701.454384682,E,5,03,99.90,96.781,M,37.566,M,63.6,2006*56
[2021-02-22 16:13:51.273] $GNGGA,071350.70,3713.967785976,N,13701.454382381,E,5,00,99.90,96.781,M,37.566,M,63.7,2006*5E
[2021-02-22 16:13:51.383] $GNGGA,071350.80,3713.967787815,N,13701.454381252,E,5,00,99.90,96.782,M,37.566,M,63.8,2006*57
[2021-02-22 16:13:51.476] $GNGGA,071350.90,3713.967789528,N,13701.454379308,E,5,00,99.90,96.783,M,37.566,M,63.9,2006*52
[2021-02-22 16:13:51.601] $GNGGA,071351.00,3713.967789827,N,13701.454378028,E,5,00,99.90,96.784,M,37.566,M,64.0,2006*51
[2021-02-22 16:13:51.679] $GNGGA,071351.10,3713.967789765,N,13701.454378833,E,5,00,99.90,96.784,M,37.566,M,64.1,2006*5A
[2021-02-22 16:13:51.773] $GNGGA,071351.20,3713.967856306,N,13701.454416140,E,5,00,99.90,97.488,M,37.566,M,64.2,2006*5A
[2021-02-22 16:13:51.883] $GNGGA,071351.30,3713.967862423,N,13701.454417861,E,5,00,99.90,97.481,M,37.566,M,64.3,2006*5F
[2021-02-22 16:13:51.976] $GNGGA,071351.40,3713.967885341,N,13701.454378766,E,5,00,99.90,97.996,M,37.566,M,64.4,2006*58
[2021-02-22 16:13:52.101] $GNGGA,071351.50,3713.967857594,N,13701.454331962,E,5,00,99.90,98.574,M,37.566,M,64.5,2006*51
[2021-02-22 16:13:52.179] $GNGGA,071351.60,3713.967846186,N,13701.454282883,E,5,00,99.90,98.729,M,37.566,M,64.6,2006*5B
[2021-02-22 16:13:52.289] $GNGGA,071351.70,3713.967841523,N,13701.454305759,E,5,00,99.90,99.006,M,37.566,M,64.7,2006*5A
[2021-02-22 16:13:52.383] $GNGGA,071351.80,3713.967795202,N,13701.454319911,E,5,00,99.90,99.131,M,37.566,M,64.8,2006*52
[2021-02-22 16:13:52.508] $GNGGA,071351.90,3713.967781448,N,13701.454307699,E,5,00,99.90,99.108,M,37.566,M,64.9,2006*55
[2021-02-22 16:13:52.586] $GNGGA,071352.00,3713.967777285,N,13701.454319669,E,5,00,99.90,99.068,M,37.566,M,65.0,2006*5E
[2021-02-22 16:13:52.679] $GNGGA,071352.10,3713.967775584,N,13701.454330852,E,5,00,99.90,99.005,M,37.566,M,65.1,2006*5C
[2021-02-22 16:13:52.789] $GNGGA,071352.20,3713.967744262,N,13701.454313145,E,5,00,99.90,98.909,M,37.566,M,65.2,2006*5B
[2021-02-22 16:13:52.898] $GNGGA,071352.30,3713.967767582,N,13701.454305787,E,5,04,2.46,98.832,M,37.566,M,65.3,2006*68
[2021-02-22 16:13:52.976] $GNGGA,071352.40,3713.967825432,N,13701.454350524,E,5,04,2.47,98.818,M,37.566,M,65.4,2006*69
[2021-02-22 16:13:53.086] $GNGGA,071352.50,3713.967838686,N,13701.454395681,E,5,04,2.47,98.686,M,37.566,M,65.5,2006*64
[2021-02-22 16:13:53.179] $GNGGA,071352.60,3713.967892900,N,13701.454437882,E,5,04,2.47,98.610,M,37.566,M,65.6,2006*68
[2021-02-22 16:13:53.304] $GNGGA,071352.70,3713.967953545,N,13701.454499062,E,5,04,2.47,98.555,M,37.566,M,65.7,2006*69
[2021-02-22 16:13:53.383] $GNGGA,071352.80,3713.967965783,N,13701.454547284,E,5,04,2.47,98.415,M,37.566,M,65.8,2006*69
[2021-02-22 16:13:53.476] $GNGGA,071352.90,3713.968020319,N,13701.454593165,E,5,04,2.47,98.395,M,37.566,M,65.9,2006*63
[2021-02-22 16:13:53.586] $GNGGA,071353.00,3713.968023846,N,13701.454609950,E,5,04,2.47,98.414,M,37.566,M,66.0,2006*63
[2021-02-22 16:13:53.695] $GNGGA,071353.10,3713.968051957,N,13701.454640604,E,5,04,2.47,98.458,M,37.566,M,66.1,2006*6C
[2021-02-22 16:13:53.773] $GNGGA,071353.20,3713.968069566,N,13701.454648466,E,5,04,2.47,98.470,M,37.566,M,66.2,2006*6D
[2021-02-22 16:13:53.882] $GNGGA,071353.30,3713.968075507,N,13701.454657596,E,5,04,2.47,98.457,M,37.566,M,66.3,2006*62
[2021-02-22 16:13:53.976] $GNGGA,071353.40,3713.968084386,N,13701.454664521,E,5,04,2.47,98.448,M,37.566,M,66.4,2006*61
[2021-02-22 16:13:54.086] $GNGGA,071353.50,3713.968086104,N,13701.454668562,E,5,04,2.47,98.438,M,37.566,M,66.5,2006*67
[2021-02-22 16:13:54.195] $GNGGA,071353.60,3713.968088163,N,13701.454672170,E,5,04,2.47,98.417,M,37.566,M,66.6,2006*69
[2021-02-22 16:13:54.273] $GNGGA,071353.70,3713.968092619,N,13701.454678256,E,5,04,2.47,98.391,M,37.566,M,66.7,2006*6C
[2021-02-22 16:13:54.382] $GNGGA,071353.80,3713.968095365,N,13701.454687053,E,5,04,2.47,98.374,M,37.566,M,66.8,2006*69
[2021-02-22 16:13:54.476] $GNGGA,071353.90,3713.968105853,N,13701.454693961,E,5,04,2.47,98.374,M,37.566,M,66.9,2006*62
[2021-02-22 16:13:54.586] $GNGGA,071354.00,3713.968108757,N,13701.454699335,E,5,04,2.47,98.350,M,37.566,M,67.0,2006*65
[2021-02-22 16:13:54.711] $GNGGA,071354.10,3713.968103553,N,13701.454691565,E,5,04,2.47,98.348,M,37.566,M,67.1,2006*6A
[2021-02-22 16:13:54.773] $GNGGA,071354.20,3713.968097574,N,13701.454694417,E,5,04,2.47,98.317,M,37.566,M,67.2,2006*68
[2021-02-22 16:13:54.882] $GNGGA,071354.30,3713.968106913,N,13701.454703106,E,5,04,2.47,98.316,M,37.566,M,67.3,2006*67
[2021-02-22 16:13:54.976] $GNGGA,071354.40,3713.968107655,N,13701.454705371,E,5,04,2.47,98.313,M,37.566,M,67.4,2006*6A
[2021-02-22 16:13:55.086] $GNGGA,071354.50,3713.968104963,N,13701.454715422,E,5,04,2.47,98.292,M,37.566,M,67.5,2006*6B
[2021-02-22 16:13:55.210] $GNGGA,071354.60,3713.968102840,N,13701.454719780,E,5,04,2.47,98.292,M,37.566,M,67.6,2006*6A
[2021-02-22 16:13:55.273] $GNGGA,071354.70,3713.968102949,N,13701.454722078,E,5,04,2.47,98.290,M,37.566,M,67.7,2006*68
[2021-02-22 16:13:55.382] $GNGGA,071354.80,3713.968105662,N,13701.454726285,E,5,04,2.47,98.285,M,37.566,M,67.8,2006*69
[2021-02-22 16:13:55.476] $GNGGA,071354.90,3713.968109277,N,13701.454725199,E,5,04,2.47,98.290,M,37.566,M,67.9,2006*6C
[2021-02-22 16:13:55.585] $GNGGA,071355.00,3713.968124279,N,13701.454727392,E,5,04,2.47,98.302,M,37.566,M,68.0,2006*62
[2021-02-22 16:13:55.710] $GNGGA,071355.10,3713.967957473,N,13701.454718708,E,4,04,2.47,98.195,M,37.566,M,68.1,2006*6B
[2021-02-22 16:13:55.773] $GNGGA,071355.20,3713.967948660,N,13701.454710694,E,4,04,2.47,98.250,M,37.566,M,68.2,2006*63
[2021-02-22 16:13:55.882] $GNGGA,071355.30,3713.967955559,N,13701.454712054,E,4,04,2.47,98.233,M,37.566,M,68.3,2006*6B
[2021-02-22 16:13:55.976] $GNGGA,071355.40,3713.967958935,N,13701.454714664,E,4,04,2.47,98.228,M,37.566,M,68.4,2006*69
[2021-02-22 16:13:56.085] $GNGGA,071355.50,3713.967961714,N,13701.454714791,E,4,04,2.47,98.220,M,37.566,M,68.5,2006*6D
[2021-02-22 16:13:56.195] $GNGGA,071355.60,3713.967965949,N,13701.454715462,E,4,04,2.47,98.212,M,37.566,M,68.6,2006*60
[2021-02-22 16:13:56.273] $GNGGA,071355.70,3713.967967815,N,13701.454714917,E,4,04,2.47,98.204,M,37.566,M,68.7,2006*63
[2021-02-22 16:13:56.382] $GNGGA,071355.80,3713.967969708,N,13701.454714844,E,4,04,2.47,98.197,M,37.566,M,68.8,2006*60
[2021-02-22 16:13:56.476] $GNGGA,071355.90,3713.967969614,N,13701.454713687,E,4,04,2.47,98.193,M,37.566,M,68.9,2006*6E
[2021-02-22 16:13:56.601] $GNGGA,071356.00,3713.967972289,N,13701.454713216,E,4,04,2.47,98.182,M,37.566,M,69.0,2006*6A
[2021-02-22 16:13:56.679] $GNGGA,071356.10,3713.967975539,N,13701.454713605,E,4,04,2.47,98.169,M,37.566,M,69.1,2006*62
[2021-02-22 16:13:56.788] $GNGGA,071356.20,3713.967977859,N,13701.454713838,E,4,04,2.47,98.160,M,37.566,M,69.2,2006*62
[2021-02-22 16:13:56.882] $GNGGA,071356.30,3713.967981493,N,13701.454713091,E,4,04,2.47,98.144,M,37.566,M,69.3,2006*6C
[2021-02-22 16:13:57.007] $GNGGA,071356.40,3713.967984227,N,13701.454712944,E,4,04,2.47,98.140,M,37.566,M,69.4,2006*64
[2021-02-22 16:13:57.085] $GNGGA,071356.50,3713.967986766,N,13701.454712116,E,4,04,2.47,98.133,M,37.566,M,69.5,2006*6D
[2021-02-22 16:13:57.179] $GNGGA,071356.60,3713.967987937,N,13701.454710061,E,4,04,2.47,98.132,M,37.566,M,69.6,2006*64
[2021-02-22 16:13:57.288] $GNGGA,071356.70,3713.967989595,N,13701.454708168,E,4,04,2.47,98.136,M,37.566,M,69.7,2006*6B
[2021-02-22 16:13:57.398] $GNGGA,071356.80,3713.967987668,N,13701.454705524,E,4,07,1.62,98.136,M,37.566,M,69.8,2006*62
[2021-02-22 16:13:57.476] $GNGGA,071356.90,3713.967993914,N,13701.454705975,E,4,12,0.97,98.119,M,37.566,M,69.9,2006*69
[2021-02-22 16:13:57.585] $GNGGA,071357.00,3713.968352067,N,13701.454804702,E,4,12,1.05,96.686,M,37.566,M,70.0,2006*60
[2021-02-22 16:13:57.679] $GNGGA,071357.10,3713.968351271,N,13701.454801832,E,4,13,1.02,96.682,M,37.566,M,70.1,2006*6D
[2021-02-22 16:13:57.804] $GNGGA,071357.20,3713.968349873,N,13701.454801254,E,4,13,1.02,96.680,M,37.566,M,70.2,2006*64
[2021-02-22 16:13:57.882] $GNGGA,071357.30,3713.968349754,N,13701.454799156,E,4,13,1.02,96.680,M,37.566,M,70.3,2006*61
[2021-02-22 16:13:57.976] $GNGGA,071357.40,3713.968351412,N,13701.454799501,E,4,11,1.20,96.677,M,37.566,M,70.4,2006*65
[2021-02-22 16:13:58.085] $GNGGA,071357.50,3713.968045089,N,13701.454721461,E,4,13,0.95,97.866,M,37.566,M,70.5,2006*63
[2021-02-22 16:13:58.195] $GNGGA,071357.60,3713.968052455,N,13701.454724775,E,4,13,0.95,97.840,M,37.566,M,70.6,2006*67
[2021-02-22 16:13:58.273] $GNGGA,071357.70,3713.968060730,N,13701.454730035,E,4,13,0.95,97.803,M,37.566,M,70.7,2006*67
[2021-02-22 16:13:58.382] $GNGGA,071357.80,3713.968352367,N,13701.454802835,E,4,13,0.95,96.703,M,37.566,M,70.8,2006*6B
[2021-02-22 16:13:58.476] $GNGGA,071357.90,3713.968075158,N,13701.454740481,E,4,13,0.95,97.756,M,37.566,M,70.9,2006*68
[2021-02-22 16:13:58.585] $GNGGA,071358.00,3713.968355079,N,13701.454813920,E,4,13,0.95,96.681,M,37.566,M,71.0,2006*60
[2021-02-22 16:13:58.710] $GNGGA,071358.10,3713.968354644,N,13701.454811842,E,4,13,0.95,96.697,M,37.566,M,71.1,2006*69
[2021-02-22 16:13:58.773] $GNGGA,071358.20,3713.968353693,N,13701.454814158,E,4,12,1.16,96.671,M,37.566,M,71.2,2006*60
[2021-02-22 16:13:58.882] $GNGGA,071358.30,3713.968354787,N,13701.454809514,E,4,12,1.16,96.671,M,37.566,M,71.3,2006*63
[2021-02-22 16:13:58.976] $GNGGA,071358.40,3713.968355343,N,13701.454808115,E,4,13,0.95,96.675,M,37.566,M,71.4,2006*65
[2021-02-22 16:13:59.085] $GNGGA,071358.50,3713.968356894,N,13701.454807400,E,4,13,0.95,96.698,M,37.566,M,71.5,2006*6A
[2021-02-22 16:13:59.210] $GNGGA,071358.60,3713.968354544,N,13701.454807129,E,4,12,1.16,96.662,M,37.566,M,71.6,2006*68
[2021-02-22 16:13:59.273] $GNGGA,071358.70,3713.968355265,N,13701.454810223,E,4,11,1.29,96.670,M,37.566,M,71.7,2006*6E
[2021-02-22 16:13:59.382] $GNGGA,071358.80,3713.968357434,N,13701.454812958,E,4,11,1.29,96.666,M,37.566,M,71.8,2006*6C
[2021-02-22 16:13:59.476] $GNGGA,071358.90,3713.968358939,N,13701.454815016,E,4,11,1.29,96.669,M,37.566,M,71.9,2006*68
[2021-02-22 16:13:59.585] $GNGGA,071359.00,3713.968359750,N,13701.454816143,E,4,11,1.29,96.675,M,37.566,M,72.0,2006*65
[2021-02-22 16:13:59.710] $GNGGA,071359.10,3713.968358587,N,13701.454814951,E,4,11,1.29,96.675,M,37.566,M,72.1,2006*65
[2021-02-22 16:13:59.773] $GNGGA,071359.20,3713.968358769,N,13701.454813856,E,4,11,1.29,96.670,M,37.566,M,72.2,2006*63
[2021-02-22 16:13:59.882] $GNGGA,071359.30,3713.968357531,N,13701.454811860,E,4,11,1.29,96.669,M,37.566,M,72.3,2006*6C
[2021-02-22 16:13:59.976] $GNGGA,071359.40,3713.968356858,N,13701.454810374,E,4,11,1.29,96.671,M,37.566,M,72.4,2006*69
[2021-02-22 16:14:00.085] $GNGGA,071359.50,3713.968356966,N,13701.454810391,E,4,11,1.29,96.664,M,37.566,M,72.5,2006*6A
[2021-02-22 16:14:00.195] $GNGGA,071359.60,3713.968356599,N,13701.454809943,E,4,11,1.29,96.662,M,37.566,M,72.6,2006*6D
[2021-02-22 16:14:00.273] $GNGGA,071359.70,3713.968356538,N,13701.454810092,E,4,11,1.29,96.661,M,37.566,M,72.7,2006*68
[2021-02-22 16:14:00.382] $GNGGA,071359.80,3713.968355663,N,13701.454811016,E,4,11,1.29,96.661,M,37.566,M,72.8,2006*6B
[2021-02-22 16:14:00.476] $GNGGA,071359.90,3713.968355934,N,13701.454809611,E,4,11,1.29,96.658,M,37.566,M,72.9,2006*64
[2021-02-22 16:14:00.585] $GNGGA,071400.00,3713.968356495,N,13701.454808895,E,4,11,1.29,96.655,M,37.566,M,73.0,2006*65
[2021-02-22 16:14:00.694] $GNGGA,071400.10,3713.968356667,N,13701.454809216,E,4,13,0.95,96.655,M,37.566,M,73.1,2006*6E
[2021-02-22 16:14:00.773] $GNGGA,071400.20,3713.968354688,N,13701.454809298,E,4,13,0.95,96.652,M,37.566,M,73.2,2006*6C
[2021-02-22 16:14:00.882] $GNGGA,071400.30,3713.968355079,N,13701.454808711,E,4,13,0.95,96.650,M,37.566,M,73.3,2006*62
[2021-02-22 16:14:00.976] $GNGGA,071400.40,3713.968355972,N,13701.454809034,E,4,13,0.95,96.650,M,37.566,M,73.4,2006*61
[2021-02-22 16:14:01.101] $GNGGA,071400.50,3713.968354347,N,13701.454808049,E,4,13,0.95,96.650,M,37.566,M,73.5,2006*67
[2021-02-22 16:14:01.179] $GNGGA,071400.60,3713.968353898,N,13701.454808747,E,4,13,0.95,96.651,M,37.566,M,73.6,2006*61
[2021-02-22 16:14:01.288] $GNGGA,071400.70,3713.968353376,N,13701.454809589,E,4,13,0.95,96.648,M,37.566,M,73.7,2006*63
[2021-02-22 16:14:01.382] $GNGGA,071400.80,3713.968353496,N,13701.454811271,E,4,13,0.95,96.646,M,37.566,M,73.8,2006*6D
[2021-02-22 16:14:01.507] $GNGGA,071400.90,3713.968353932,N,13701.454811711,E,4,13,0.95,96.648,M,37.566,M,73.9,2006*63
[2021-02-22 16:14:01.585] $GNGGA,071401.00,3713.968353313,N,13701.454812116,E,4,13,0.95,96.645,M,37.566,M,74.0,2006*63
[2021-02-22 16:14:01.679] $GNGGA,071401.10,3713.968353972,N,13701.454811665,E,4,13,0.95,96.648,M,37.566,M,74.1,2006*63
[2021-02-22 16:14:01.788] $GNGGA,071401.20,3713.968355363,N,13701.454813302,E,4,13,0.95,96.643,M,37.566,M,74.2,2006*62
[2021-02-22 16:14:01.898] $GNGGA,071401.30,3713.968356165,N,13701.454813795,E,4,13,0.95,96.645,M,37.566,M,74.3,2006*69
[2021-02-22 16:14:01.976] $GNGGA,071401.40,3713.968357745,N,13701.454815505,E,4,13,0.95,96.645,M,37.566,M,74.4,2006*61
[2021-02-22 16:14:02.085] $GNGGA,071401.50,3713.968358972,N,13701.454817112,E,4,13,0.95,96.645,M,37.566,M,74.5,2006*64
[2021-02-22 16:14:02.179] $GNGGA,071401.60,3713.968359727,N,13701.454816235,E,4,13,0.95,96.643,M,37.566,M,74.6,2006*6A
[2021-02-22 16:14:02.304] $GNGGA,071401.70,3713.968358279,N,13701.454815149,E,4,13,0.95,96.643,M,37.566,M,74.7,2006*6E
[2021-02-22 16:14:02.382] $GNGGA,071401.80,3713.968358703,N,13701.454814336,E,4,13,0.95,96.645,M,37.566,M,74.8,2006*6B
[2021-02-22 16:14:02.476] $GNGGA,071401.90,3713.968358533,N,13701.454815300,E,4,13,0.95,96.645,M,37.566,M,74.9,2006*6E
[2021-02-22 16:14:02.585] $GNGGA,071402.00,3713.968357027,N,13701.454816072,E,4,13,0.95,96.647,M,37.566,M,75.0,2006*64
[2021-02-22 16:14:02.679] $GNGGA,071402.10,3713.968355615,N,13701.454816766,E,4,13,0.95,96.648,M,37.566,M,75.1,2006*6C
[2021-02-22 16:14:02.804] $GNGGA,071402.20,3713.968355919,N,13701.454818106,E,4,13,0.95,96.649,M,37.566,M,75.2,2006*60
[2021-02-22 16:14:02.882] $GNGGA,071402.30,3713.968355635,N,13701.454817281,E,4,13,0.95,96.649,M,37.566,M,75.3,2006*62
[2021-02-22 16:14:02.976] $GNGGA,071402.40,3713.968354251,N,13701.454815535,E,4,13,0.95,96.651,M,37.566,M,75.4,2006*66
[2021-02-22 16:14:03.085] $GNGGA,071402.50,3713.968354407,N,13701.454813761,E,4,13,0.95,96.653,M,37.566,M,75.5,2006*64
[2021-02-22 16:14:03.179] $GNGGA,071402.60,3713.968354805,N,13701.454815133,E,4,13,0.95,96.651,M,37.566,M,75.6,2006*6F
[2021-02-22 16:14:03.304] $GNGGA,071402.70,3713.968354138,N,13701.454814016,E,4,13,0.95,96.649,M,37.566,M,75.7,2006*66
[2021-02-22 16:14:03.382] $GNGGA,071402.80,3713.968353429,N,13701.454814267,E,4,13,0.95,96.645,M,37.566,M,75.8,2006*6C
[2021-02-22 16:14:03.476] $GNGGA,071402.90,3713.968353628,N,13701.454813712,E,4,13,0.95,96.650,M,37.566,M,75.9,2006*6B
[2021-02-22 16:14:03.585] $GNGGA,071403.00,3713.968353398,N,13701.454813673,E,4,13,0.95,96.644,M,37.566,M,76.0,2006*64
[2021-02-22 16:14:03.679] $GNGGA,071403.10,3713.968353621,N,13701.454813602,E,4,13,0.95,96.644,M,37.566,M,76.1,2006*65
[2021-02-22 16:14:03.804] $GNGGA,071403.20,3713.968355346,N,13701.454812800,E,4,13,0.95,96.643,M,37.566,M,76.2,2006*6D
[2021-02-22 16:14:03.882] $GNGGA,071403.30,3713.968355451,N,13701.454812275,E,4,13,0.95,96.640,M,37.566,M,76.3,2006*67
[2021-02-22 16:14:03.976] $GNGGA,071403.40,3713.968357808,N,13701.454813979,E,4,13,0.95,96.640,M,37.566,M,76.4,2006*63
[2021-02-22 16:14:04.085] $GNGGA,071403.50,3713.968357823,N,13701.454814839,E,4,13,0.95,96.639,M,37.566,M,76.5,2006*66
[2021-02-22 16:14:04.179] $GNGGA,071403.60,3713.968358780,N,13701.454815388,E,4,13,0.95,96.639,M,37.566,M,76.6,2006*6F
[2021-02-22 16:14:04.304] $GNGGA,071403.70,3713.968357839,N,13701.454816542,E,4,13,0.95,96.640,M,37.566,M,76.7,2006*60
[2021-02-22 16:14:04.382] $GNGGA,071403.80,3713.968359186,N,13701.454816959,E,4,13,0.95,96.636,M,37.566,M,76.8,2006*64
[2021-02-22 16:14:04.476] $GNGGA,071403.90,3713.968359545,N,13701.454815430,E,4,13,0.95,96.631,M,37.566,M,76.9,2006*69
[2021-02-22 16:14:04.585] $GNGGA,071404.00,3713.968358266,N,13701.454814777,E,4,13,0.95,96.636,M,37.566,M,77.0,2006*6E
[2021-02-22 16:14:04.679] $GNGGA,071404.10,3713.968359236,N,13701.454815520,E,4,13,0.95,96.641,M,37.566,M,77.1,2006*6B
[2021-02-22 16:14:04.804] $GNGGA,071404.20,3713.968359171,N,13701.454818396,E,4,13,0.95,96.643,M,37.566,M,77.2,2006*6F
[2021-02-22 16:14:04.882] $GNGGA,071404.30,3713.968360682,N,13701.454818676,E,4,13,0.95,96.641,M,37.566,M,77.3,2006*67
[2021-02-22 16:14:04.975] $GNGGA,071404.40,3713.968359859,N,13701.454819491,E,4,13,0.95,96.647,M,37.566,M,77.4,2006*69
[2021-02-22 16:14:05.085] $GNGGA,071404.50,3713.968358785,N,13701.454818677,E,4,13,0.95,96.648,M,37.566,M,77.5,2006*62
[2021-02-22 16:14:05.210] $GNGGA,071404.60,3713.968356801,N,13701.454817306,E,4,13,0.95,96.648,M,37.566,M,77.6,2006*63
[2021-02-22 16:14:05.272] $GNGGA,071404.70,3713.968356006,N,13701.454817985,E,4,13,0.95,96.644,M,37.566,M,77.7,2006*61
[2021-02-22 16:14:05.382] $GNGGA,071404.80,3713.968354895,N,13701.454817789,E,4,13,0.95,96.644,M,37.566,M,77.8,2006*63
[2021-02-22 16:14:05.475] $GNGGA,071404.90,3713.968352928,N,13701.454817625,E,4,13,0.95,96.645,M,37.566,M,77.9,2006*64
[2021-02-22 16:14:05.600] $GNGGA,071405.00,3713.968351057,N,13701.454816169,E,4,13,0.95,96.646,M,37.566,M,78.0,2006*65
[2021-02-22 16:14:05.679] $GNGGA,071405.10,3713.968351338,N,13701.454816137,E,4,13,0.95,96.645,M,37.566,M,78.1,2006*67
[2021-02-22 16:14:05.788] $GNGGA,071405.20,3713.968349728,N,13701.454815425,E,4,13,0.95,96.646,M,37.566,M,78.2,2006*6D
[2021-02-22 16:14:05.882] $GNGGA,071405.30,3713.968351599,N,13701.454815100,E,4,13,0.95,96.647,M,37.566,M,78.3,2006*6F
[2021-02-22 16:14:06.007] $GNGGA,071405.40,3713.968353422,N,13701.454816341,E,4,13,0.95,96.646,M,37.566,M,78.4,2006*69
[2021-02-22 16:14:06.085] $GNGGA,071405.50,3713.968352425,N,13701.454816711,E,4,13,0.95,96.649,M,37.566,M,78.5,2006*61
[2021-02-22 16:14:06.179] $GNGGA,071405.60,3713.968353173,N,13701.454816927,E,4,13,0.95,96.646,M,37.566,M,78.6,2006*62
[2021-02-22 16:14:06.288] $GNGGA,071405.70,3713.968355841,N,13701.454815664,E,4,13,0.95,96.647,M,37.566,M,78.7,2006*66
[2021-02-22 16:14:06.397] $GNGGA,071405.80,3713.968354209,N,13701.454814069,E,4,13,0.95,96.647,M,37.566,M,78.8,2006*6B
[2021-02-22 16:14:06.475] $GNGGA,071405.90,3713.968354823,N,13701.454814796,E,4,13,0.95,96.648,M,37.566,M,78.9,2006*61
[2021-02-22 16:14:06.585] $GNGGA,071406.00,3713.968354968,N,13701.454815355,E,4,13,0.95,96.648,M,37.566,M,79.0,2006*67
[2021-02-22 16:14:06.678] $GNGGA,071406.10,3713.968352933,N,13701.454816185,E,4,13,0.95,96.646,M,37.566,M,79.1,2006*6D
[2021-02-22 16:14:06.803] $GNGGA,071406.20,3713.968353127,N,13701.454816254,E,4,13,0.95,96.646,M,37.566,M,79.2,2006*6E
[2021-02-22 16:14:06.882] $GNGGA,071406.30,3713.968351257,N,13701.454815664,E,4,13,0.95,96.645,M,37.566,M,79.3,2006*6F
[2021-02-22 16:14:06.975] $GNGGA,071406.40,3713.968349206,N,13701.454815383,E,4,13,0.95,96.651,M,37.566,M,79.4,2006*6B
[2021-02-22 16:14:07.085] $GNGGA,071406.50,3713.968349787,N,13701.454813764,E,4,13,0.95,96.649,M,37.566,M,79.5,2006*65
[2021-02-22 16:14:07.178] $GNGGA,071406.60,3713.968349537,N,13701.454812922,E,4,13,0.95,96.645,M,37.566,M,79.6,2006*6D
[2021-02-22 16:14:07.303] $GNGGA,071406.70,3713.968349476,N,13701.454811545,E,4,13,0.95,96.645,M,37.566,M,79.7,2006*67
[2021-02-22 16:14:07.382] $GNGGA,071406.80,3713.968348070,N,13701.454809824,E,4,13,0.95,96.650,M,37.566,M,79.8,2006*63
[2021-02-22 16:14:07.475] $GNGGA,071406.90,3713.968347532,N,13701.454810202,E,4,13,0.95,96.645,M,37.566,M,79.9,2006*6D
[2021-02-22 16:14:07.585] $GNGGA,071407.00,3713.968347054,N,13701.454811033,E,4,13,0.95,96.649,M,37.566,M,80.0,2006*62
[2021-02-22 16:14:07.678] $GNGGA,071407.10,3713.968345374,N,13701.454810492,E,4,13,0.95,96.648,M,37.566,M,80.1,2006*6E
[2021-02-22 16:14:07.803] $GNGGA,071407.20,3713.968345294,N,13701.454810056,E,4,13,0.95,96.645,M,37.566,M,80.2,2006*60
[2021-02-22 16:14:07.882] $GNGGA,071407.30,3713.968345459,N,13701.454808142,E,4,13,0.95,96.645,M,37.566,M,80.3,2006*6A
[2021-02-22 16:14:07.975] $GNGGA,071407.40,3713.968345374,N,13701.454805780,E,4,13,0.95,96.643,M,37.566,M,80.4,2006*61
[2021-02-22 16:14:08.085] $GNGGA,071407.50,3713.968345950,N,13701.454804080,E,4,13,0.95,96.644,M,37.566,M,80.5,2006*6C
[2021-02-22 16:14:08.178] $GNGGA,071407.60,3713.968346526,N,13701.454806022,E,4,13,0.95,96.641,M,37.566,M,80.6,2006*6D
[2021-02-22 16:14:08.303] $GNGGA,071407.70,3713.968346664,N,13701.454805297,E,4,13,0.95,96.644,M,37.566,M,80.7,2006*62
[2021-02-22 16:14:08.381] $GNGGA,071407.80,3713.968348085,N,13701.454808625,E,4,13,0.95,96.643,M,37.566,M,80.8,2006*62
[2021-02-22 16:14:08.475] $GNGGA,071407.90,3713.968347352,N,13701.454809351,E,4,13,0.95,96.644,M,37.566,M,80.9,2006*64
[2021-02-22 16:14:08.585] $GNGGA,071408.00,3713.968347599,N,13701.454808873,E,4,13,0.95,96.648,M,37.566,M,81.0,2006*6D
[2021-02-22 16:14:08.678] $GNGGA,071408.10,3713.968346679,N,13701.454809308,E,4,13,0.95,96.647,M,37.566,M,81.1,2006*68
[2021-02-22 16:14:08.803] $GNGGA,071408.20,3713.968346043,N,13701.454808400,E,4,13,0.95,96.648,M,37.566,M,81.2,2006*66
[2021-02-22 16:14:08.881] $GNGGA,071408.30,3713.968344631,N,13701.454809435,E,4,13,0.95,96.653,M,37.566,M,81.3,2006*6A
[2021-02-22 16:14:08.975] $GNGGA,071408.40,3713.968343692,N,13701.454809975,E,4,13,0.95,96.653,M,37.566,M,81.4,2006*6D
[2021-02-22 16:14:09.085] $GNGGA,071408.50,3713.968344953,N,13701.454809623,E,4,13,0.95,96.652,M,37.566,M,81.5,2006*65
[2021-02-22 16:14:09.178] $GNGGA,071408.60,3713.968343564,N,13701.454808128,E,4,13,0.95,96.654,M,37.566,M,81.6,2006*61
[2021-02-22 16:14:09.303] $GNGGA,071408.70,3713.968342822,N,13701.454806551,E,4,13,0.95,96.655,M,37.566,M,81.7,2006*6A
[2021-02-22 16:14:09.381] $GNGGA,071408.80,3713.968343292,N,13701.454806546,E,4,13,0.95,96.654,M,37.566,M,81.8,2006*6D
[2021-02-22 16:14:09.475] $GNGGA,071408.90,3713.968342763,N,13701.454806107,E,4,13,0.95,96.656,M,37.566,M,81.9,2006*64
[2021-02-22 16:14:09.585] $GNGGA,071409.00,3713.968342364,N,13701.454806998,E,4,13,0.95,96.656,M,37.566,M,82.0,2006*6B
[2021-02-22 16:14:09.694] $GNGGA,071409.10,3713.968343830,N,13701.454806395,E,4,13,0.95,96.656,M,37.566,M,82.1,2006*67
[2021-02-22 16:14:09.788] $GNGGA,071409.20,3713.968343111,N,13701.454807152,E,4,13,0.95,96.655,M,37.566,M,82.2,2006*66
[2021-02-22 16:14:09.881] $GNGGA,071409.30,3713.968343977,N,13701.454806572,E,4,13,0.95,96.650,M,37.566,M,82.3,2006*6C
[2021-02-22 16:14:09.975] $GNGGA,071409.40,3713.968343749,N,13701.454806738,E,4,13,0.95,96.652,M,37.566,M,82.4,2006*61
[2021-02-22 16:14:10.100] $GNGGA,071409.50,3713.968344180,N,13701.454807070,E,4,13,0.95,96.648,M,37.566,M,82.5,2006*64
[2021-02-22 16:14:10.178] $GNGGA,071409.60,3713.968342571,N,13701.454806442,E,4,13,0.95,96.650,M,37.566,M,82.6,2006*65
[2021-02-22 16:14:10.288] $GNGGA,071409.70,3713.968341693,N,13701.454806101,E,4,13,0.95,96.650,M,37.566,M,82.7,2006*6B
[2021-02-22 16:14:10.381] $GNGGA,071409.80,3713.968341058,N,13701.454804339,E,4,13,0.95,96.652,M,37.566,M,82.8,2006*63
[2021-02-22 16:14:10.506] $GNGGA,071409.90,3713.968341715,N,13701.454804803,E,4,13,0.95,96.653,M,37.566,M,82.9,2006*6E
[2021-02-22 16:14:10.584] $GNGGA,071410.00,3713.968342353,N,13701.454804881,E,4,13,0.95,96.655,M,37.566,M,83.0,2006*6E
[2021-02-22 16:14:10.678] $GNGGA,071410.10,3713.968340887,N,13701.454805199,E,4,13,0.95,96.656,M,37.566,M,83.1,2006*6C
[2021-02-22 16:14:10.788] $GNGGA,071410.20,3713.968341046,N,13701.454806222,E,4,13,0.95,96.655,M,37.566,M,83.2,2006*6B
[2021-02-22 16:14:10.897] $GNGGA,071410.30,3713.968340900,N,13701.454806770,E,4,13,0.95,96.652,M,37.566,M,83.3,2006*64
[2021-02-22 16:14:10.975] $GNGGA,071410.40,3713.968341573,N,13701.454805646,E,4,13,0.95,96.652,M,37.566,M,83.4,2006*6A
[2021-02-22 16:14:11.084] $GNGGA,071410.50,3713.968341324,N,13701.454805292,E,4,14,0.92,96.651,M,37.566,M,83.5,2006*60
[2021-02-22 16:14:11.178] $GNGGA,071410.60,3713.968344106,N,13701.454807168,E,4,14,0.92,96.656,M,37.566,M,83.6,2006*64
[2021-02-22 16:14:11.303] $GNGGA,071410.70,3713.968343687,N,13701.454807711,E,4,14,0.92,96.660,M,37.566,M,83.7,2006*60
[2021-02-22 16:14:11.381] $GNGGA,071410.80,3713.968345176,N,13701.454809178,E,4,13,0.95,96.660,M,37.566,M,83.8,2006*68
[2021-02-22 16:14:11.475] $GNGGA,071410.90,3713.968343370,N,13701.454808933,E,4,13,0.95,96.660,M,37.566,M,83.9,2006*6C
[2021-02-22 16:14:11.584] $GNGGA,071411.00,3713.968344725,N,13701.454806947,E,4,13,0.95,96.660,M,37.566,M,84.0,2006*64
[2021-02-22 16:14:11.678] $GNGGA,071411.10,3713.968343368,N,13701.454807345,E,4,13,0.95,96.661,M,37.566,M,84.1,2006*66
[2021-02-22 16:14:11.803] $GNGGA,071411.20,3713.968343185,N,13701.454808576,E,4,13,0.95,96.665,M,37.566,M,84.2,2006*6A
[2021-02-22 16:14:11.881] $GNGGA,071411.30,3713.968343848,N,13701.454807720,E,4,13,0.95,96.660,M,37.566,M,84.3,2006*69
[2021-02-22 16:14:11.975] $GNGGA,071411.40,3713.968344962,N,13701.454809463,E,4,13,0.95,96.663,M,37.566,M,84.4,2006*6E
[2021-02-22 16:14:12.084] $GNGGA,071411.50,3713.968345242,N,13701.454810547,E,4,14,0.92,96.662,M,37.566,M,84.5,2006*68
[2021-02-22 16:14:12.178] $GNGGA,071411.60,3713.968344315,N,13701.454811464,E,4,14,0.92,96.664,M,37.566,M,84.6,2006*6D
[2021-02-22 16:14:12.303] $GNGGA,071411.70,3713.968345412,N,13701.454811936,E,4,14,0.92,96.668,M,37.566,M,84.7,2006*6A
[2021-02-22 16:14:12.381] $GNGGA,071411.80,3713.968346760,N,13701.454813106,E,4,14,0.92,96.665,M,37.566,M,84.8,2006*6B
[2021-02-22 16:14:12.475] $GNGGA,071411.90,3713.968346697,N,13701.454815308,E,4,14,0.92,96.666,M,37.566,M,84.9,2006*6B
[2021-02-22 16:14:12.584] $GNGGA,071412.00,3713.968349697,N,13701.454818723,E,4,14,0.92,96.667,M,37.566,M,85.0,2006*67
[2021-02-22 16:14:12.678] $GNGGA,071412.10,3713.968350832,N,13701.454821066,E,4,14,0.92,96.666,M,37.566,M,85.1,2006*63
[2021-02-22 16:14:12.803] $GNGGA,071412.20,3713.968351931,N,13701.454824185,E,4,13,0.95,96.665,M,37.566,M,85.2,2006*6A
[2021-02-22 16:14:12.881] $GNGGA,071412.30,3713.968350003,N,13701.454823867,E,4,13,0.95,96.663,M,37.566,M,85.3,2006*67
[2021-02-22 16:14:12.975] $GNGGA,071412.40,3713.968350806,N,13701.454820009,E,4,13,0.95,96.665,M,37.566,M,85.4,2006*6F
[2021-02-22 16:14:13.084] $GNGGA,071412.50,3713.968351941,N,13701.454817059,E,4,13,0.95,96.667,M,37.566,M,85.5,2006*6F
[2021-02-22 16:14:13.178] $GNGGA,071412.60,3713.968350863,N,13701.454814072,E,4,13,0.95,96.667,M,37.566,M,85.6,2006*65
[2021-02-22 16:14:13.303] $GNGGA,071412.70,3713.968350812,N,13701.454811900,E,4,13,0.95,96.667,M,37.566,M,85.7,2006*6A
[2021-02-22 16:14:13.381] $GNGGA,071412.80,3713.968352221,N,13701.454811301,E,4,13,0.95,96.668,M,37.566,M,85.8,2006*66
[2021-02-22 16:14:13.475] $GNGGA,071412.90,3713.968354342,N,13701.454810418,E,4,13,0.95,96.667,M,37.566,M,85.9,2006*65
[2021-02-22 16:14:13.584] $GNGGA,071413.00,3713.968356069,N,13701.454811455,E,4,13,0.95,96.667,M,37.566,M,86.0,2006*67
[2021-02-22 16:14:13.709] $GNGGA,071413.10,3713.968357856,N,13701.454812857,E,4,13,0.95,96.667,M,37.566,M,86.1,2006*6F
[2021-02-22 16:14:13.787] $GNGGA,071413.20,3713.968358022,N,13701.454814183,E,4,13,0.95,96.668,M,37.566,M,86.2,2006*62
[2021-02-22 16:14:13.881] $GNGGA,071413.30,3713.968359902,N,13701.454816193,E,4,13,0.95,96.662,M,37.566,M,86.3,2006*61
[2021-02-22 16:14:13.990] $GNGGA,071413.40,3713.968360499,N,13701.454817842,E,4,13,0.95,96.669,M,37.566,M,86.4,2006*6B
[2021-02-22 16:14:14.100] $GNGGA,071413.50,3713.968359289,N,13701.454815924,E,4,13,0.95,96.668,M,37.566,M,86.5,2006*64
[2021-02-22 16:14:14.178] $GNGGA,071413.60,3713.968358745,N,13701.454814919,E,4,13,0.95,96.668,M,37.566,M,86.6,2006*6F
[2021-02-22 16:14:14.287] $GNGGA,071413.70,3713.968357714,N,13701.454814246,E,4,13,0.95,96.670,M,37.566,M,86.7,2006*6C
[2021-02-22 16:14:14.381] $GNGGA,071413.80,3713.968358063,N,13701.454812747,E,4,13,0.95,96.665,M,37.566,M,86.8,2006*62
[2021-02-22 16:14:14.506] $GNGGA,071413.90,3713.968357691,N,13701.454811094,E,4,13,0.95,96.667,M,37.566,M,86.9,2006*6E
[2021-02-22 16:14:14.584] $GNGGA,071414.00,3713.968357327,N,13701.454811330,E,4,13,0.95,96.668,M,37.566,M,87.0,2006*62
[2021-02-22 16:14:14.678] $GNGGA,071414.10,3713.968356146,N,13701.454811937,E,4,13,0.95,96.666,M,37.566,M,87.1,2006*65
[2021-02-22 16:14:14.787] $GNGGA,071414.20,3713.968356412,N,13701.454811669,E,4,13,0.95,96.667,M,37.566,M,87.2,2006*64
[2021-02-22 16:14:14.912] $GNGGA,071414.30,3713.968357354,N,13701.454812753,E,4,13,0.95,96.669,M,37.566,M,87.3,2006*65
[2021-02-22 16:14:14.975] $GNGGA,071414.40,3713.968358557,N,13701.454812637,E,4,13,0.95,96.664,M,37.566,M,87.4,2006*61
[2021-02-22 16:14:15.084] $GNGGA,071414.50,3713.968357591,N,13701.454811127,E,4,13,0.95,96.663,M,37.566,M,87.5,2006*66
[2021-02-22 16:14:15.178] $GNGGA,071414.60,3713.968355870,N,13701.454811027,E,4,13,0.95,96.669,M,37.566,M,87.6,2006*6D
[2021-02-22 16:14:15.303] $GNGGA,071414.70,3713.968355879,N,13701.454810840,E,4,13,0.95,96.667,M,37.566,M,87.7,2006*62
[2021-02-22 16:14:15.381] $GNGGA,071414.80,3713.968353286,N,13701.454808145,E,4,13,0.95,96.667,M,37.566,M,87.8,2006*6B
[2021-02-22 16:14:15.475] $GNGGA,071414.90,3713.968353110,N,13701.454806805,E,4,13,0.95,96.666,M,37.566,M,87.9,2006*65
[2021-02-22 16:14:15.584] $GNGGA,071415.00,3713.968351751,N,13701.454804809,E,4,13,0.95,96.667,M,37.566,M,88.0,2006*65
[2021-02-22 16:14:15.678] $GNGGA,071415.10,3713.968351675,N,13701.454804108,E,4,13,0.95,96.661,M,37.566,M,88.1,2006*6C
[2021-02-22 16:14:15.803] $GNGGA,071415.20,3713.968350709,N,13701.454803549,E,4,13,0.95,96.660,M,37.566,M,88.2,2006*60
[2021-02-22 16:14:15.881] $GNGGA,071415.30,3713.968350823,N,13701.454802875,E,4,13,0.95,96.661,M,37.566,M,88.3,2006*65
[2021-02-22 16:14:15.975] $GNGGA,071415.40,3713.968350351,N,13701.454802166,E,4,13,0.95,96.659,M,37.566,M,88.4,2006*6B
[2021-02-22 16:14:16.084] $GNGGA,071415.50,3713.968348083,N,13701.454801308,E,4,13,0.95,96.658,M,37.566,M,88.5,2006*66
[2021-02-22 16:14:16.178] $GNGGA,071415.60,3713.968348211,N,13701.454799091,E,4,13,0.95,96.660,M,37.566,M,88.6,2006*69
[2021-02-22 16:14:16.303] $GNGGA,071415.70,3713.968347784,N,13701.454799397,E,4,13,0.95,96.657,M,37.566,M,88.7,2006*6E
[2021-02-22 16:14:16.381] $GNGGA,071415.80,3713.968348279,N,13701.454799603,E,4,13,0.95,96.657,M,37.566,M,88.8,2006*6E
[2021-02-22 16:14:16.475] $GNGGA,071415.90,3713.968349018,N,13701.454799061,E,4,13,0.95,96.656,M,37.566,M,88.9,2006*69
[2021-02-22 16:14:16.584] $GNGGA,071416.00,3713.968347391,N,13701.454798678,E,4,13,0.95,96.662,M,37.566,M,89.0,2006*6F
[2021-02-22 16:14:16.678] $GNGGA,071416.10,3713.968348088,N,13701.454798141,E,4,13,0.95,96.662,M,37.566,M,89.1,2006*66
[2021-02-22 16:14:16.803] $GNGGA,071416.20,3713.968348006,N,13701.454797208,E,4,13,0.95,96.660,M,37.566,M,89.2,2006*63
[2021-02-22 16:14:16.881] $GNGGA,071416.30,3713.968348465,N,13701.454798168,E,4,13,0.95,96.659,M,37.566,M,89.3,2006*62
[2021-02-22 16:14:16.975] $GNGGA,071416.40,3713.968350256,N,13701.454797432,E,4,13,0.95,96.656,M,37.566,M,89.4,2006*67
[2021-02-22 16:14:17.084] $GNGGA,071416.50,3713.968349293,N,13701.454797356,E,4,13,0.95,96.662,M,37.566,M,89.5,2006*64
[2021-02-22 16:14:17.178] $GNGGA,071416.60,3713.968348465,N,13701.454797420,E,4,13,0.95,96.664,M,37.566,M,89.6,2006*6A
[2021-02-22 16:14:17.303] $GNGGA,071416.70,3713.968348340,N,13701.454795599,E,4,13,0.95,96.663,M,37.566,M,89.7,2006*6C
[2021-02-22 16:14:17.381] $GNGGA,071416.80,3713.968346213,N,13701.454796746,E,4,13,0.95,96.661,M,37.566,M,89.8,2006*64
[2021-02-22 16:14:17.475] $GNGGA,071416.90,3713.968344955,N,13701.454795089,E,4,13,0.95,96.663,M,37.566,M,89.9,2006*6A
[2021-02-22 16:14:17.584] $GNGGA,071417.00,3713.968345087,N,13701.454793758,E,4,13,0.95,96.662,M,37.566,M,90.0,2006*68
[2021-02-22 16:14:17.678] $GNGGA,071417.10,3713.968343929,N,13701.454793119,E,4,13,0.95,96.665,M,37.566,M,90.1,2006*67
[2021-02-22 16:14:17.803] $GNGGA,071417.20,3713.968343474,N,13701.454792210,E,4,13,0.95,96.662,M,37.566,M,90.2,2006*6E
[2021-02-22 16:14:17.881] $GNGGA,071417.30,3713.968343760,N,13701.454791249,E,4,13,0.95,96.661,M,37.566,M,90.3,2006*64
[2021-02-22 16:14:17.975] $GNGGA,071417.40,3713.968342894,N,13701.454791665,E,4,13,0.95,96.662,M,37.566,M,90.4,2006*68
[2021-02-22 16:14:18.084] $GNGGA,071417.50,3713.968341382,N,13701.454791540,E,4,13,0.95,96.662,M,37.566,M,90.5,2006*63
[2021-02-22 16:14:18.209] $GNGGA,071417.60,3713.968340049,N,13701.454790914,E,4,13,0.95,96.661,M,37.566,M,90.6,2006*69
[2021-02-22 16:14:18.287] $GNGGA,071417.70,3713.968341944,N,13701.454790774,E,4,13,0.95,96.661,M,37.566,M,90.7,2006*64
[2021-02-22 16:14:18.381] $GNGGA,071417.80,3713.968341778,N,13701.454790630,E,4,13,0.95,96.659,M,37.566,M,90.8,2006*6F
[2021-02-22 16:14:18.475] $GNGGA,071417.90,3713.968342217,N,13701.454791114,E,4,13,0.95,96.661,M,37.566,M,90.9,2006*6B
[2021-02-22 16:14:18.600] $GNGGA,071418.00,3713.968343405,N,13701.454790718,E,4,13,0.95,96.655,M,37.566,M,91.0,2006*6D
[2021-02-22 16:14:18.678] $GNGGA,071418.10,3713.968341085,N,13701.454791372,E,4,13,0.95,96.661,M,37.566,M,91.1,2006*6D
[2021-02-22 16:14:18.787] $GNGGA,071418.20,3713.968343074,N,13701.454790613,E,4,13,0.95,96.660,M,37.566,M,91.2,2006*63
[2021-02-22 16:14:18.881] $GNGGA,071418.30,3713.968341122,N,13701.454790716,E,4,13,0.95,96.658,M,37.566,M,91.3,2006*6C
[2021-02-22 16:14:19.006] $GNGGA,071418.40,3713.968342408,N,13701.454790982,E,4,13,0.95,96.662,M,37.566,M,91.4,2006*68
[2021-02-22 16:14:19.084] $GNGGA,071418.50,3713.968343298,N,13701.454792585,E,4,13,0.95,96.656,M,37.566,M,91.5,2006*68
[2021-02-22 16:14:19.178] $GNGGA,071418.60,3713.968342632,N,13701.454792423,E,4,13,0.95,96.660,M,37.566,M,91.6,2006*65
[2021-02-22 16:14:19.287] $GNGGA,071418.70,3713.968343657,N,13701.454793192,E,4,13,0.95,96.656,M,37.566,M,91.7,2006*6C
[2021-02-22 16:14:19.396] $GNGGA,071418.80,3713.968343976,N,13701.454792094,E,4,13,0.95,96.657,M,37.566,M,91.8,2006*67
[2021-02-22 16:14:19.474] $GNGGA,071418.90,3713.968342974,N,13701.454790901,E,4,13,0.95,96.660,M,37.566,M,91.9,2006*67
[2021-02-22 16:14:19.584] $GNGGA,071419.00,3713.968344000,N,13701.454789955,E,4,13,0.95,96.656,M,37.566,M,92.0,2006*65
[2021-02-22 16:14:19.678] $GNGGA,071419.10,3713.968344765,N,13701.454791917,E,4,13,0.95,96.655,M,37.566,M,92.1,2006*6D
[2021-02-22 16:14:19.803] $GNGGA,071419.20,3713.968343403,N,13701.454792515,E,4,13,0.95,96.660,M,37.566,M,92.2,2006*62
[2021-02-22 16:14:19.881] $GNGGA,071419.30,3713.968345387,N,13701.454792507,E,4,13,0.95,96.662,M,37.566,M,92.3,2006*6E
[2021-02-22 16:14:19.974] $GNGGA,071419.40,3713.968345297,N,13701.454791390,E,4,13,0.95,96.662,M,37.566,M,92.4,2006*65
[2021-02-22 16:14:20.084] $GNGGA,071419.50,3713.968344860,N,13701.454791818,E,4,13,0.95,96.658,M,37.566,M,92.5,2006*64
[2021-02-22 16:14:20.178] $GNGGA,071419.60,3713.968344886,N,13701.454790087,E,4,13,0.95,96.654,M,37.566,M,92.6,2006*6F
[2021-02-22 16:14:20.303] $GNGGA,071419.70,3713.968345384,N,13701.454789991,E,4,13,0.95,96.658,M,37.566,M,92.7,2006*6D
[2021-02-22 16:14:20.381] $GNGGA,071419.80,3713.968346403,N,13701.454789674,E,4,13,0.95,96.652,M,37.566,M,92.8,2006*68
[2021-02-22 16:14:20.474] $GNGGA,071419.90,3713.968347447,N,13701.454789468,E,4,13,0.95,96.653,M,37.566,M,92.9,2006*67
[2021-02-22 16:14:20.584] $GNGGA,071420.00,3713.968346657,N,13701.454789088,E,4,13,0.95,96.654,M,37.566,M,93.0,2006*63
[2021-02-22 16:14:20.678] $GNGGA,071420.10,3713.968344768,N,13701.454788990,E,4,13,0.95,96.651,M,37.566,M,93.1,2006*68
[2021-02-22 16:14:20.802] $GNGGA,071420.20,3713.968345662,N,13701.454787865,E,4,13,0.95,96.652,M,37.566,M,93.2,2006*65
[2021-02-22 16:14:20.881] $GNGGA,071420.30,3713.968345355,N,13701.454787702,E,4,13,0.95,96.652,M,37.566,M,93.3,2006*6A
[2021-02-22 16:14:20.974] $GNGGA,071420.40,3713.968346299,N,13701.454788380,E,4,13,0.95,96.645,M,37.566,M,93.4,2006*6F
[2021-02-22 16:14:21.084] $GNGGA,071420.50,3713.968346785,N,13701.454790092,E,4,13,0.95,96.654,M,37.566,M,93.5,2006*6E
[2021-02-22 16:14:21.177] $GNGGA,071420.60,3713.968347456,N,13701.454791352,E,4,13,0.95,96.653,M,37.566,M,93.6,2006*6B
[2021-02-22 16:14:21.302] $GNGGA,071420.70,3713.968347989,N,13701.454792983,E,4,13,0.95,96.653,M,37.566,M,93.7,2006*61
[2021-02-22 16:14:21.381] $GNGGA,071420.80,3713.968349645,N,13701.454795744,E,4,13,0.95,96.655,M,37.566,M,93.8,2006*64
[2021-02-22 16:14:21.474] $GNGGA,071420.90,3713.968350217,N,13701.454797424,E,4,13,0.95,96.657,M,37.566,M,93.9,2006*6A
[2021-02-22 16:14:21.584] $GNGGA,071421.00,3713.968348146,N,13701.454796602,E,4,13,0.95,96.660,M,37.566,M,94.0,2006*61
[2021-02-22 16:14:21.677] $GNGGA,071421.10,3713.968349923,N,13701.454796506,E,4,13,0.95,96.659,M,37.566,M,94.1,2006*66
[2021-02-22 16:14:21.802] $GNGGA,071421.20,3713.968350540,N,13701.454796478,E,4,13,0.95,96.658,M,37.566,M,94.2,2006*6E
[2021-02-22 16:14:21.881] $GNGGA,071421.30,3713.968350396,N,13701.454796638,E,4,13,0.95,96.655,M,37.566,M,94.3,2006*68
[2021-02-22 16:14:21.974] $GNGGA,071421.40,3713.968352157,N,13701.454798886,E,4,13,0.95,96.657,M,37.566,M,94.4,2006*62
[2021-02-22 16:14:22.084] $GNGGA,071421.50,3713.968355053,N,13701.454801202,E,4,13,0.95,96.652,M,37.566,M,94.5,2006*6C
[2021-02-22 16:14:22.177] $GNGGA,071421.60,3713.968355095,N,13701.454802455,E,4,13,0.95,96.654,M,37.566,M,94.6,2006*67
[2021-02-22 16:14:22.302] $GNGGA,071421.70,3713.968354223,N,13701.454801355,E,4,13,0.95,96.655,M,37.566,M,94.7,2006*6C
[2021-02-22 16:14:22.381] $GNGGA,071421.80,3713.968357377,N,13701.454800196,E,4,13,0.95,96.652,M,37.566,M,94.8,2006*64
[2021-02-22 16:14:22.474] $GNGGA,071421.90,3713.968357374,N,13701.454798791,E,4,13,0.95,96.653,M,37.566,M,94.9,2006*69
[2021-02-22 16:14:22.584] $GNGGA,071422.00,3713.968357379,N,13701.454796857,E,4,13,0.95,96.647,M,37.566,M,95.0,2006*68
[2021-02-22 16:14:22.709] $GNGGA,071422.10,3713.968357174,N,13701.454797723,E,4,13,0.95,96.653,M,37.566,M,95.1,2006*6F
[2021-02-22 16:14:22.787] $GNGGA,071422.20,3713.968357373,N,13701.454799340,E,4,13,0.95,96.649,M,37.566,M,95.2,2006*6E
[2021-02-22 16:14:22.880] $GNGGA,071422.30,3713.968357034,N,13701.454799687,E,4,13,0.95,96.650,M,37.566,M,95.3,2006*68
[2021-02-22 16:14:22.974] $GNGGA,071422.40,3713.968354199,N,13701.454799154,E,4,13,0.95,96.654,M,37.566,M,95.4,2006*60
[2021-02-22 16:14:23.099] $GNGGA,071422.50,3713.968355823,N,13701.454798424,E,4,13,0.95,96.653,M,37.566,M,95.5,2006*6D
[2021-02-22 16:14:23.177] $GNGGA,071422.60,3713.968354721,N,13701.454800216,E,4,13,0.95,96.654,M,37.566,M,95.6,2006*6F
[2021-02-22 16:14:23.287] $GNGGA,071422.70,3713.968354188,N,13701.454801309,E,4,13,0.95,96.656,M,37.566,M,95.7,2006*66
[2021-02-22 16:14:23.380] $GNGGA,071422.80,3713.968354590,N,13701.454802095,E,4,13,0.95,96.655,M,37.566,M,95.8,2006*6D
[2021-02-22 16:14:23.505] $GNGGA,071422.90,3713.968352410,N,13701.454804437,E,4,13,0.95,96.654,M,37.566,M,95.9,2006*69
[2021-02-22 16:14:23.584] $GNGGA,071423.00,3713.968352771,N,13701.454805585,E,4,13,0.95,96.648,M,37.566,M,96.0,2006*6B
[2021-02-22 16:14:23.677] $GNGGA,071423.10,3713.968350530,N,13701.454805072,E,4,13,0.95,96.654,M,37.566,M,96.1,2006*6E
[2021-02-22 16:14:23.787] $GNGGA,071423.20,3713.968351270,N,13701.454805406,E,4,13,0.95,96.652,M,37.566,M,96.2,2006*6D
[2021-02-22 16:14:23.896] $GNGGA,071423.30,3713.968350720,N,13701.454802742,E,4,13,0.95,96.649,M,37.566,M,96.3,2006*62
[2021-02-22 16:14:23.974] $GNGGA,071423.40,3713.968350400,N,13701.454801959,E,4,13,0.95,96.648,M,37.566,M,96.4,2006*65
[2021-02-22 16:14:24.084] $GNGGA,071423.50,3713.968349381,N,13701.454801711,E,4,13,0.95,96.650,M,37.566,M,96.5,2006*68
