
[2021-02-22 16:17:09.055] $GNGGA,071658.80,,,,,0,00,99.99,,,,,61.8,*6C
[2021-02-22 16:17:09.087] $GNGGA,071658.90,,,,,0,00,99.99,,,,,61.9,*6C
[2021-02-22 16:17:09.087] $GNGGA,071659.00,,,,,0,00,99.99,,,,,62.0,*6E
[2021-02-22 16:17:09.087] $GNGGA,071659.10,,,,,0,00,99.99,,,,,62.1,*6E
[2021-02-22 16:17:09.087] $GNGGA,071659.20,,,,,0,00,99.99,,,,,62.2,*6E
[2021-02-22 16:17:09.087] $GNGGA,071659.30,,,,,0,00,99.99,,,,,62.3,*6E
[2021-02-22 16:17:09.087] $GNGGA,071659.40,,,,,0,00,99.99,,,,,62.4,*6E
[2021-02-22 16:17:09.087] $GNGGA,071659.50,,,,,0,00,99.99,,,,,62.5,*6E
[2021-02-22 16:17:09.087] $GNGGA,071659.60,,,,,0,00,99.99,,,,,62.6,*6E
[2021-02-22 16:17:09.087] $GNGGA,071659.70,,,,,0,00,99.99,,,,,62.7,*6E
[2021-02-22 16:17:09.087] $GNGGA,071659.80,,,,,0,00,99.99,,,,,62.8,*6E
[2021-02-22 16:17:09.087] $GNGGA,071659.90,,,,,0,00,99.99,,,,,62.9,*6E
[2021-02-22 16:17:09.087] $GNGGA,071700.00,,,,,0,00,99.99,,,,,63.0,*62
[2021-02-22 16:17:09.087] $GNGGA,071700.10,,,,,0,00,99.99,,,,,63.1,*62
[2021-02-22 16:17:09.087] $GNGGA,071700.20,,,,,0,00,99.99,,,,,63.2,*62
[2021-02-22 16:17:09.087] $GNGGA,071700.30,,,,,0,00,99.99,,,,,63.3,*62
[2021-02-22 16:17:09.087] $GNGGA,071700.40,,,,,0,00,99.99,,,,,63.4,*62
[2021-02-22 16:17:09.087] $GNGGA,071700.50,,,,,0,00,99.99,,,,,63.5,*62
[2021-02-22 16:17:09.087] $GNGGA,071700.60,,,,,0,00,99.99,,,,,63.6,*62
[2021-02-22 16:17:09.087] $GNGGA,071700.70,,,,,0,00,99.99,,,,,63.7,*62
[2021-02-22 16:17:09.087] $GNGGA,071700.80,,,,,0,00,99.99,,,,,63.8,*62
[2021-02-22 16:17:09.087] $GNGGA,071700.90,,,,,0,00,99.99,,,,,63.9,*62
[2021-02-22 16:17:09.087] $GNGGA,071701.00,,,,,0,00,99.99,,,,,64.0,*64
[2021-02-22 16:17:09.087] $GNGGA,071701.10,,,,,0,00,99.99,,,,,64.1,*64
[2021-02-22 16:17:09.102] $GNGGA,071701.20,,,,,0,00,99.99,,,,,64.2,*64
[2021-02-22 16:17:09.102] $GNGGA,071701.30,,,,,0,00,99.99,,,,,64.3,*64
[2021-02-22 16:17:09.102] $GNGGA,071701.40,,,,,0,00,99.99,,,,,64.4,*64
[2021-02-22 16:17:09.102] $GNGGA,071701.50,,,,,0,00,99.99,,,,,64.5,*64
[2021-02-22 16:17:09.102] $GNGGA,071701.60,,,,,0,00,99.99,,,,,64.6,*64
[2021-02-22 16:17:09.102] $GNGGA,071701.70,,,,,0,00,99.99,,,,,64.7,*64
[2021-02-22 16:17:09.102] $GNGGA,071701.80,,,,,0,00,99.99,,,,,64.8,*64
[2021-02-22 16:17:09.102] $GNGGA,071701.90,,,,,0,00,99.99,,,,,64.9,*64
[2021-02-22 16:17:09.102] $GNGGA,071702.00,,,,,0,00,99.99,,,,,65.0,*66
[2021-02-22 16:17:09.102] $GNGGA,071702.10,,,,,0,00,99.99,,,,,65.1,*66
[2021-02-22 16:17:09.102] $GNGGA,071702.20,,,,,0,00,99.99,,,,,65.2,*66
[2021-02-22 16:17:09.102] $GNGGA,071702.30,,,,,0,00,99.99,,,,,65.3,*66
[2021-02-22 16:17:09.102] $GNGGA,071702.40,,,,,0,00,99.99,,,,,65.4,*66
[2021-02-22 16:17:09.102] $GNGGA,071702.50,,,,,0,00,99.99,,,,,65.5,*66
[2021-02-22 16:17:09.102] $GNGGA,071702.60,,,,,0,00,99.99,,,,,65.6,*66
[2021-02-22 16:17:09.102] $GNGGA,071702.70,,,,,0,00,99.99,,,,,65.7,*66
[2021-02-22 16:17:09.102] $GNGGA,071702.80,,,,,0,00,99.99,,,,,65.8,*66
[2021-02-22 16:17:09.102] $GNGGA,071702.90,,,,,0,00,99.99,,,,,65.9,*66
[2021-02-22 16:17:09.102] $GNGGA,071703.00,,,,,0,00,99.99,,,,,66.0,*64
[2021-02-22 16:17:09.102] $GNGGA,071703.10,,,,,0,00,99.99,,,,,66.1,*64
[2021-02-22 16:17:09.102] $GNGGA,071703.20,,,,,0,00,99.99,,,,,66.2,*64
[2021-02-22 16:17:09.102] $GNGGA,071703.30,,,,,0,00,99.99,,,,,66.3,*64
[2021-02-22 16:17:09.118] $GNGGA,071703.40,,,,,0,00,99.99,,,,,66.4,*64
[2021-02-22 16:17:09.118] $GNGGA,071703.50,,,,,0,00,99.99,,,,,66.5,*64
[2021-02-22 16:17:09.118] $GNGGA,071703.60,,,,,0,00,99.99,,,,,66.6,*64
[2021-02-22 16:17:09.118] $GNGGA,071703.70,,,,,0,00,99.99,,,,,66.7,*64
[2021-02-22 16:17:09.118] $GNGGA,071703.80,,,,,0,00,99.99,,,,,66.8,*64
[2021-02-22 16:17:09.118] $GNGGA,071703.90,,,,,0,00,99.99,,,,,66.9,*64
[2021-02-22 16:17:09.118] $GNGGA,071704.00,,,,,0,00,99.99,,,,,67.0,*62
[2021-02-22 16:17:09.118] $GNGGA,071704.10,,,,,0,00,99.99,,,,,67.1,*62
[2021-02-22 16:17:09.118] $GNGGA,071704.20,,,,,0,00,99.99,,,,,67.2,*62
[2021-02-22 16:17:09.118] $GNGGA,071704.30,,,,,0,00,99.99,,,,,67.3,*62
[2021-02-22 16:17:09.118] $GNGGA,071704.40,,,,,0,00,99.99,,,,,67.4,*62
[2021-02-22 16:17:09.118] $GNGGA,071704.50,,,,,0,00,99.99,,,,,67.5,*62
[2021-02-22 16:17:09.118] $GNGGA,071704.60,,,,,0,00,99.99,,,,,67.6,*62
[2021-02-22 16:17:09.118] $GNGGA,071704.70,,,,,0,00,99.99,,,,,67.7,*62
[2021-02-22 16:17:09.118] $GNGGA,071704.80,,,,,0,00,99.99,,,,,67.8,*62
[2021-02-22 16:17:09.118] $GNGGA,071704.90,,,,,0,00,99.99,,,,,67.9,*62
[2021-02-22 16:17:09.118] $GNGGA,071705.00,,,,,0,00,99.99,,,,,68.0,*6C
[2021-02-22 16:17:09.118] $GNGGA,071705.10,,,,,0,00,99.99,,,,,68.1,*6C
[2021-02-22 16:17:09.118] $GNGGA,071705.20,,,,,0,00,99.99,,,,,68.2,*6C
[2021-02-22 16:17:09.118] $GNGGA,071705.30,,,,,0,00,99.99,,,,,68.3,*6C
[2021-02-22 16:17:09.118] $GNGGA,071705.40,,,,,0,00,99.99,,,,,68.4,*6C
[2021-02-22 16:17:09.118] $GNGGA,071705.50,,,,,0,00,99.99,,,,,68.5,*6C
[2021-02-22 16:17:09.134] $GNGGA,071705.60,,,,,0,00,99.99,,,,,68.6,*6C
[2021-02-22 16:17:09.134] $GNGGA,071705.70,,,,,0,00,99.99,,,,,68.7,*6C
[2021-02-22 16:17:09.134] $GNGGA,071705.80,,,,,0,00,99.99,,,,,68.8,*6C
[2021-02-22 16:17:09.134] $GNGGA,071705.90,,,,,0,00,99.99,,,,,68.9,*6C
[2021-02-22 16:17:09.134] $GNGGA,071706.00,,,,,0,00,99.99,,,,,69.0,*6E
[2021-02-22 16:17:09.134] $GNGGA,071706.10,,,,,0,00,99.99,,,,,69.1,*6E
[2021-02-22 16:17:09.134] $GNGGA,071706.20,,,,,0,00,99.99,,,,,69.2,*6E
[2021-02-22 16:17:09.134] $GNGGA,071706.30,,,,,0,00,99.99,,,,,69.3,*6E
[2021-02-22 16:17:09.134] $GNGGA,071706.40,,,,,0,00,99.99,,,,,69.4,*6E
[2021-02-22 16:17:09.134] $GNGGA,071706.50,,,,,0,00,99.99,,,,,69.5,*6E
[2021-02-22 16:17:09.134] $GNGGA,071706.60,,,,,0,00,99.99,,,,,69.6,*6E
[2021-02-22 16:17:09.134] $GNGGA,071706.70,,,,,0,00,99.99,,,,,69.7,*6E
[2021-02-22 16:17:09.134] $GNGGA,071706.80,,,,,0,00,99.99,,,,,69.8,*6E
[2021-02-22 16:17:09.134] $GNGGA,071706.90,,,,,0,00,99.99,,,,,69.9,*6E
[2021-02-22 16:17:09.134] $GNGGA,071707.00,,,,,0,00,99.99,,,,,70.0,*67
[2021-02-22 16:17:09.134] $GNGGA,071707.10,,,,,0,00,99.99,,,,,70.1,*67
[2021-02-22 16:17:09.134] $GNGGA,071707.20,,,,,0,00,99.99,,,,,70.2,*67
[2021-02-22 16:17:09.134] $GNGGA,071707.30,,,,,0,00,99.99,,,,,70.3,*67
[2021-02-22 16:17:09.134] $GNGGA,071707.40,,,,,0,00,99.99,,,,,70.4,*67
[2021-02-22 16:17:09.134] $GNGGA,071707.50,,,,,0,00,99.99,,,,,70.5,*67
[2021-02-22 16:17:09.134] $GNGGA,071707.60,,,,,0,00,99.99,,,,,70.6,*67
[2021-02-22 16:17:09.134] $GNGGA,071707.70,,,,,0,00,99.99,,,,,70.7,*67
[2021-02-22 16:17:09.134] $GNGGA,071707.80,,,,,0,00,99.99,,,,,70.8,*67
[2021-02-22 16:17:09.134] $GNGGA,071707.90,,,,,0,00,99.99,,,,,70.9,*67
[2021-02-22 16:17:09.134] $GNGGA,071708.00,,,,,0,00,99.99,,,,,71.0,*69
[2021-02-22 16:17:09.134] $GNGGA,071708.10,,,,,0,00,99.99,,,,,71.1,*69
[2021-02-22 16:17:09.134] $GNGGA,071708.20,,,,,0,00,99.99,,,,,71.2,*69
[2021-02-22 16:17:09.134] $GNGGA,071708.30,,,,,0,00,99.99,,,,,71.3,*69
[2021-02-22 16:17:09.134] $GNGGA,071708.40,,,,,0,00,99.99,,,,,71.4,*69
[2021-02-22 16:17:09.134] $GNGGA,071708.50,,,,,0,00,99.99,,,,,71.5,*69
[2021-02-22 16:17:09.196] $GNGGA,071708.60,,,,,0,00,99.99,,,,,71.6,*69
[2021-02-22 16:17:09.290] $GNGGA,071708.70,,,,,0,00,99.99,,,,,71.7,*69
[2021-02-22 16:17:09.384] $GNGGA,071708.80,,,,,0,00,99.99,,,,,71.8,*69
[2021-02-22 16:17:09.477] $GNGGA,071708.90,,,,,0,00,99.99,,,,,71.9,*69
[2021-02-22 16:17:09.587] $GNGGA,071709.00,,,,,0,00,99.99,,,,,72.0,*6B
[2021-02-22 16:17:09.680] $GNGGA,071709.10,,,,,0,00,99.99,,,,,72.1,*6B
[2021-02-22 16:17:09.790] $GNGGA,071709.20,,,,,0,00,99.99,,,,,72.2,*6B
[2021-02-22 16:17:09.884] $GNGGA,071709.30,,,,,0,00,99.99,,,,,72.3,*6B
[2021-02-22 16:17:09.993] $GNGGA,071709.40,,,,,0,00,99.99,,,,,72.4,*6B
[2021-02-22 16:17:10.087] $GNGGA,071709.50,,,,,0,00,99.99,,,,,72.5,*6B
[2021-02-22 16:17:10.180] $GNGGA,071709.60,,,,,0,00,99.99,,,,,72.6,*6B
[2021-02-22 16:17:10.274] $GNGGA,071709.70,,,,,0,00,99.99,,,,,72.7,*6B
[2021-02-22 16:17:10.383] $GNGGA,071709.80,,,,,0,00,99.99,,,,,72.8,*6B
[2021-02-22 16:17:10.493] $GNGGA,071709.90,,,,,0,00,99.99,,,,,72.9,*6B
[2021-02-22 16:17:10.587] $GNGGA,071710.00,,,,,0,00,99.99,,,,,73.0,*62
[2021-02-22 16:17:10.680] $GNGGA,071710.10,,,,,0,00,99.99,,,,,73.1,*62
[2021-02-22 16:17:10.790] $GNGGA,071710.20,,,,,0,00,99.99,,,,,73.2,*62
[2021-02-22 16:17:10.883] $GNGGA,071710.30,,,,,0,00,99.99,,,,,73.3,*62
[2021-02-22 16:17:10.977] $GNGGA,071710.40,,,,,0,00,99.99,,,,,73.4,*62
[2021-02-22 16:17:11.071] $GNGGA,071710.50,,,,,0,00,99.99,,,,,73.5,*62
[2021-02-22 16:17:11.196] $GNGGA,071710.60,,,,,0,00,99.99,,,,,73.6,*62
[2021-02-22 16:17:11.290] $GNGGA,071710.70,,,,,0,00,99.99,,,,,73.7,*62
[2021-02-22 16:17:11.383] $GNGGA,071710.80,,,,,0,00,99.99,,,,,73.8,*62
[2021-02-22 16:17:11.477] $GNGGA,071710.90,,,,,0,00,99.99,,,,,73.9,*62
[2021-02-22 16:17:11.587] $GNGGA,071711.00,,,,,0,00,99.99,,,,,74.0,*64
[2021-02-22 16:17:11.680] $GNGGA,071711.10,,,,,0,00,99.99,,,,,74.1,*64
[2021-02-22 16:17:11.790] $GNGGA,071711.20,,,,,0,00,99.99,,,,,74.2,*64
[2021-02-22 16:17:11.883] $GNGGA,071711.30,,,,,0,00,99.99,,,,,74.3,*64
[2021-02-22 16:17:11.993] $GNGGA,071711.40,,,,,0,00,99.99,,,,,74.4,*64
[2021-02-22 16:17:12.086] $GNGGA,071711.50,,,,,0,00,99.99,,,,,74.5,*64
[2021-02-22 16:17:12.180] $GNGGA,071711.60,,,,,0,00,99.99,,,,,74.6,*64
[2021-02-22 16:17:12.274] $GNGGA,071711.70,,,,,0,00,99.99,,,,,74.7,*64
[2021-02-22 16:17:12.383] $GNGGA,071711.80,,,,,0,00,99.99,,,,,74.8,*64
[2021-02-22 16:17:12.493] $GNGGA,071711.90,,,,,0,00,99.99,,,,,74.9,*64
[2021-02-22 16:17:12.586] $GNGGA,071712.00,,,,,0,00,99.99,,,,,75.0,*66
[2021-02-22 16:17:12.680] $GNGGA,071712.10,,,,,0,00,99.99,,,,,75.1,*66
[2021-02-22 16:17:12.790] $GNGGA,071712.20,,,,,0,00,99.99,,,,,75.2,*66
[2021-02-22 16:17:12.883] $GNGGA,071712.30,,,,,0,00,99.99,,,,,75.3,*66
[2021-02-22 16:17:12.977] $GNGGA,071712.40,,,,,0,00,99.99,,,,,75.4,*66
[2021-02-22 16:17:13.071] $GNGGA,071712.50,,,,,0,00,99.99,,,,,75.5,*66
[2021-02-22 16:17:13.196] $GNGGA,071712.60,,,,,0,00,99.99,,,,,75.6,*66
[2021-02-22 16:17:13.290] $GNGGA,071712.70,,,,,0,00,99.99,,,,,75.7,*66
[2021-02-22 16:17:13.383] $GNGGA,071712.80,,,,,0,00,99.99,,,,,75.8,*66
[2021-02-22 16:17:13.477] $GNGGA,071712.90,,,,,0,00,99.99,,,,,75.9,*66
[2021-02-22 16:17:13.586] $GNGGA,071713.00,,,,,0,00,99.99,,,,,76.0,*64
[2021-02-22 16:17:13.680] $GNGGA,071713.10,,,,,0,00,99.99,,,,,76.1,*64
[2021-02-22 16:17:13.789] $GNGGA,071713.20,,,,,0,00,99.99,,,,,76.2,*64
[2021-02-22 16:17:13.883] $GNGGA,071713.30,,,,,0,00,99.99,,,,,76.3,*64
[2021-02-22 16:17:13.993] $GNGGA,071713.40,,,,,0,00,99.99,,,,,76.4,*64
[2021-02-22 16:17:14.086] $GNGGA,071713.50,,,,,0,00,99.99,,,,,76.5,*64
[2021-02-22 16:17:14.180] $GNGGA,071713.60,,,,,0,00,99.99,,,,,76.6,*64
[2021-02-22 16:17:14.274] $GNGGA,071713.70,,,,,0,00,99.99,,,,,76.7,*64
[2021-02-22 16:17:14.383] $GNGGA,071713.80,,,,,0,00,99.99,,,,,76.8,*64
[2021-02-22 16:17:14.493] $GNGGA,071713.90,,,,,0,00,99.99,,,,,76.9,*64
[2021-02-22 16:17:14.586] $GNGGA,071714.00,,,,,0,00,99.99,,,,,77.0,*62
[2021-02-22 16:17:14.680] $GNGGA,071714.10,,,,,0,00,99.99,,,,,77.1,*62
[2021-02-22 16:17:14.789] $GNGGA,071714.20,,,,,0,00,99.99,,,,,77.2,*62
[2021-02-22 16:17:14.883] $GNGGA,071714.30,,,,,0,00,99.99,,,,,77.3,*62
[2021-02-22 16:17:14.977] $GNGGA,071714.40,,,,,0,00,99.99,,,,,77.4,*62
[2021-02-22 16:17:15.071] $GNGGA,071714.50,,,,,0,00,99.99,,,,,77.5,*62
[2021-02-22 16:17:15.196] $GNGGA,071714.60,,,,,0,00,99.99,,,,,77.6,*62
[2021-02-22 16:17:15.289] $GNGGA,071714.70,,,,,0,00,99.99,,,,,77.7,*62
[2021-02-22 16:17:15.383] $GNGGA,071714.80,,,,,0,00,99.99,,,,,77.8,*62
[2021-02-22 16:17:15.477] $GNGGA,071714.90,,,,,0,00,99.99,,,,,77.9,*62
[2021-02-22 16:17:15.586] $GNGGA,071715.00,,,,,0,00,99.99,,,,,78.0,*6C
[2021-02-22 16:17:15.680] $GNGGA,071715.10,,,,,0,00,99.99,,,,,78.1,*6C
[2021-02-22 16:17:15.774] $GNGGA,071715.20,,,,,0,00,99.99,,,,,78.2,*6C
[2021-02-22 16:17:15.883] $GNGGA,071715.30,,,,,0,00,99.99,,,,,78.3,*6C
[2021-02-22 16:17:15.992] $GNGGA,071715.40,,,,,0,00,99.99,,,,,78.4,*6C
[2021-02-22 16:17:16.086] $GNGGA,071715.50,,,,,0,00,99.99,,,,,78.5,*6C
[2021-02-22 16:17:16.180] $GNGGA,071715.60,,,,,0,00,99.99,,,,,78.6,*6C
[2021-02-22 16:17:16.274] $GNGGA,071715.70,,,,,0,00,99.99,,,,,78.7,*6C
[2021-02-22 16:17:16.383] $GNGGA,071715.80,,,,,0,00,99.99,,,,,78.8,*6C
[2021-02-22 16:17:16.492] $GNGGA,071715.90,,,,,0,00,99.99,,,,,78.9,*6C
[2021-02-22 16:17:16.586] $GNGGA,071716.00,,,,,0,00,99.99,,,,,79.0,*6E
[2021-02-22 16:17:16.680] $GNGGA,071716.10,,,,,0,00,99.99,,,,,79.1,*6E
[2021-02-22 16:17:16.789] $GNGGA,071716.20,,,,,0,00,99.99,,,,,79.2,*6E
[2021-02-22 16:17:16.883] $GNGGA,071716.30,,,,,0,00,99.99,,,,,79.3,*6E
[2021-02-22 16:17:16.977] $GNGGA,071716.40,,,,,0,00,99.99,,,,,79.4,*6E
[2021-02-22 16:17:17.070] $GNGGA,071716.50,,,,,0,00,99.99,,,,,79.5,*6E
[2021-02-22 16:17:17.195] $GNGGA,071716.60,,,,,0,00,99.99,,,,,79.6,*6E
[2021-02-22 16:17:17.289] $GNGGA,071716.70,,,,,0,00,99.99,,,,,79.7,*6E
[2021-02-22 16:17:17.383] $GNGGA,071716.80,,,,,0,00,99.99,,,,,79.8,*6E
[2021-02-22 16:17:17.477] $GNGGA,071716.90,,,,,0,00,99.99,,,,,79.9,*6E
[2021-02-22 16:17:17.586] $GNGGA,071717.00,,,,,0,00,99.99,,,,,80.0,*69
[2021-02-22 16:17:17.680] $GNGGA,071717.10,,,,,0,00,99.99,,,,,80.1,*69
[2021-02-22 16:17:17.774] $GNGGA,071717.20,,,,,0,00,99.99,,,,,80.2,*69
[2021-02-22 16:17:17.899] $GNGGA,071717.30,,,,,0,00,99.99,,,,,80.3,*69
[2021-02-22 16:17:17.992] $GNGGA,071717.40,,,,,0,00,99.99,,,,,80.4,*69
[2021-02-22 16:17:18.086] $GNGGA,071717.50,,,,,0,00,99.99,,,,,80.5,*69
[2021-02-22 16:17:18.180] $GNGGA,071717.60,,,,,0,00,99.99,,,,,80.6,*69
[2021-02-22 16:17:18.289] $GNGGA,071717.70,,,,,0,00,99.99,,,,,80.7,*69
[2021-02-22 16:17:18.383] $GNGGA,071717.80,,,,,0,00,99.99,,,,,80.8,*69
[2021-02-22 16:17:18.492] $GNGGA,071717.90,,,,,0,00,99.99,,,,,80.9,*69
[2021-02-22 16:17:18.586] $GNGGA,071718.00,,,,,0,00,99.99,,,,,81.0,*67
[2021-02-22 16:17:18.695] $GNGGA,071718.10,,,,,0,00,99.99,,,,,81.1,*67
[2021-02-22 16:17:18.789] $GNGGA,071718.20,,,,,0,00,99.99,,,,,81.2,*67
[2021-02-22 16:17:18.883] $GNGGA,071718.30,,,,,0,00,99.99,,,,,81.3,*67
[2021-02-22 16:17:18.977] $GNGGA,071718.40,,,,,0,00,99.99,,,,,81.4,*67
[2021-02-22 16:17:19.086] $GNGGA,071718.50,,,,,0,00,99.99,,,,,81.5,*67
[2021-02-22 16:17:19.195] $GNGGA,071718.60,,,,,0,00,99.99,,,,,81.6,*67
[2021-02-22 16:17:19.289] $GNGGA,071718.70,,,,,0,00,99.99,,,,,81.7,*67
[2021-02-22 16:17:19.383] $GNGGA,071718.80,,,,,0,00,99.99,,,,,81.8,*67
[2021-02-22 16:17:19.492] $GNGGA,071718.90,,,,,0,00,99.99,,,,,81.9,*67
[2021-02-22 16:17:19.586] $GNGGA,071719.00,,,,,0,00,99.99,,,,,82.0,*65
[2021-02-22 16:17:19.680] $GNGGA,071719.10,,,,,0,00,99.99,,,,,82.1,*65
[2021-02-22 16:17:19.773] $GNGGA,071719.20,,,,,0,00,99.99,,,,,82.2,*65
[2021-02-22 16:17:19.898] $GNGGA,071719.30,,,,,0,00,99.99,,,,,82.3,*65
[2021-02-22 16:17:19.992] $GNGGA,071719.40,,,,,0,00,99.99,,,,,82.4,*65
[2021-02-22 16:17:20.086] $GNGGA,071719.50,,,,,0,00,99.99,,,,,82.5,*65
[2021-02-22 16:17:20.180] $GNGGA,071719.60,,,,,0,00,99.99,,,,,82.6,*65
[2021-02-22 16:17:20.289] $GNGGA,071719.70,,,,,0,00,99.99,,,,,82.7,*65
[2021-02-22 16:17:20.383] $GNGGA,071719.80,,,,,0,00,99.99,,,,,82.8,*65
[2021-02-22 16:17:20.477] $GNGGA,071719.90,,,,,0,00,99.99,,,,,82.9,*65
[2021-02-22 16:17:20.586] $GNGGA,071720.00,,,,,0,00,99.99,,,,,83.0,*6E
[2021-02-22 16:17:20.695] $GNGGA,071720.10,,,,,0,00,99.99,,,,,83.1,*6E
[2021-02-22 16:17:20.789] $GNGGA,071720.20,,,,,0,00,99.99,,,,,83.2,*6E
[2021-02-22 16:17:20.883] $GNGGA,071720.30,,,,,0,00,99.99,,,,,83.3,*6E
[2021-02-22 16:17:20.976] $GNGGA,071720.40,,,,,0,00,99.99,,,,,83.4,*6E
[2021-02-22 16:17:21.086] $GNGGA,071720.50,,,,,0,00,99.99,,,,,83.5,*6E
[2021-02-22 16:17:21.195] $GNGGA,071720.60,,,,,0,00,99.99,,,,,83.6,*6E
[2021-02-22 16:17:21.289] $GNGGA,071720.70,,,,,0,00,99.99,,,,,83.7,*6E
[2021-02-22 16:17:21.383] $GNGGA,071720.80,,,,,0,00,99.99,,,,,83.8,*6E
[2021-02-22 16:17:21.492] $GNGGA,071720.90,,,,,0,00,99.99,,,,,83.9,*6E
[2021-02-22 16:17:21.586] $GNGGA,071721.00,,,,,0,00,99.99,,,,,84.0,*68
[2021-02-22 16:17:21.680] $GNGGA,071721.10,,,,,0,00,99.99,,,,,84.1,*68
[2021-02-22 16:17:21.773] $GNGGA,071721.20,,,,,0,00,99.99,,,,,84.2,*68
[2021-02-22 16:17:21.898] $GNGGA,071721.30,,,,,0,00,99.99,,,,,84.3,*68
[2021-02-22 16:17:21.992] $GNGGA,071721.40,,,,,0,00,99.99,,,,,84.4,*68
[2021-02-22 16:17:22.086] $GNGGA,071721.50,,,,,0,00,99.99,,,,,84.5,*68
[2021-02-22 16:17:22.180] $GNGGA,071721.60,,,,,0,00,99.99,,,,,84.6,*68
[2021-02-22 16:17:22.289] $GNGGA,071721.70,,,,,0,00,99.99,,,,,84.7,*68
[2021-02-22 16:17:22.383] $GNGGA,071721.80,,,,,0,00,99.99,,,,,84.8,*68
[2021-02-22 16:17:22.476] $GNGGA,071721.90,,,,,0,00,99.99,,,,,84.9,*68
[2021-02-22 16:17:22.586] $GNGGA,071722.00,,,,,0,00,99.99,,,,,85.0,*6A
[2021-02-22 16:17:22.695] $GNGGA,071722.10,,,,,0,00,99.99,,,,,85.1,*6A
[2021-02-22 16:17:22.789] $GNGGA,071722.20,,,,,0,00,99.99,,,,,85.2,*6A
[2021-02-22 16:17:22.883] $GNGGA,071722.30,,,,,0,00,99.99,,,,,85.3,*6A
[2021-02-22 16:17:22.976] $GNGGA,071722.40,,,,,0,00,99.99,,,,,85.4,*6A
[2021-02-22 16:17:23.086] $GNGGA,071722.50,,,,,0,00,99.99,,,,,85.5,*6A
[2021-02-22 16:17:23.195] $GNGGA,071722.60,,,,,0,00,99.99,,,,,85.6,*6A
[2021-02-22 16:17:23.289] $GNGGA,071722.70,,,,,0,00,99.99,,,,,85.7,*6A
[2021-02-22 16:17:23.383] $GNGGA,071722.80,,,,,0,00,99.99,,,,,85.8,*6A
[2021-02-22 16:17:23.492] $GNGGA,071722.90,,,,,0,00,99.99,,,,,85.9,*6A
[2021-02-22 16:17:23.586] $GNGGA,071723.00,,,,,0,00,99.99,,,,,86.0,*68
[2021-02-22 16:17:23.679] $GNGGA,071723.10,,,,,0,00,99.99,,,,,86.1,*68
[2021-02-22 16:17:23.773] $GNGGA,071723.20,,,,,0,00,99.99,,,,,86.2,*68
[2021-02-22 16:17:23.898] $GNGGA,071723.30,,,,,0,00,99.99,,,,,86.3,*68
[2021-02-22 16:17:23.992] $GNGGA,071723.40,,,,,0,00,99.99,,,,,86.4,*68
[2021-02-22 16:17:24.086] $GNGGA,071723.50,,,,,0,00,99.99,,,,,86.5,*68
[2021-02-22 16:17:24.179] $GNGGA,071723.60,,,,,0,00,99.99,,,,,86.6,*68
[2021-02-22 16:17:24.289] $GNGGA,071723.70,,,,,0,00,99.99,,,,,86.7,*68
[2021-02-22 16:17:24.383] $GNGGA,071723.80,,,,,0,00,99.99,,,,,86.8,*68
[2021-02-22 16:17:24.476] $GNGGA,071723.90,,,,,0,00,99.99,,,,,86.9,*68
[2021-02-22 16:17:24.586] $GNGGA,071724.00,,,,,0,00,99.99,,,,,87.0,*6E
[2021-02-22 16:17:24.695] $GNGGA,071724.10,,,,,0,00,99.99,,,,,87.1,*6E
[2021-02-22 16:17:24.789] $GNGGA,071724.20,,,,,0,00,99.99,,,,,87.2,*6E
[2021-02-22 16:17:24.882] $GNGGA,071724.30,,,,,0,00,99.99,,,,,87.3,*6E
[2021-02-22 16:17:24.976] $GNGGA,071724.40,,,,,0,00,99.99,,,,,87.4,*6E
[2021-02-22 16:17:25.086] $GNGGA,071724.50,,,,,0,00,99.99,,,,,87.5,*6E
[2021-02-22 16:17:25.179] $GNGGA,071724.60,,,,,0,00,99.99,,,,,87.6,*6E
[2021-02-22 16:17:25.289] $GNGGA,071724.70,,,,,0,00,99.99,,,,,87.7,*6E
[2021-02-22 16:17:25.382] $GNGGA,071724.80,,,,,0,00,99.99,,,,,87.8,*6E
[2021-02-22 16:17:25.492] $GNGGA,071724.90,,,,,0,00,99.99,,,,,87.9,*6E
[2021-02-22 16:17:25.586] $GNGGA,071725.00,,,,,0,00,99.99,,,,,88.0,*60
[2021-02-22 16:17:25.679] $GNGGA,071725.10,,,,,0,00,99.99,,,,,88.1,*60
[2021-02-22 16:17:25.773] $GNGGA,071725.20,,,,,0,00,99.99,,,,,88.2,*60
[2021-02-22 16:17:25.898] $GNGGA,071725.30,,,,,0,00,99.99,,,,,88.3,*60
[2021-02-22 16:17:25.992] $GNGGA,071725.40,,,,,0,00,99.99,,,,,88.4,*60
[2021-02-22 16:17:26.086] $GNGGA,071725.50,,,,,0,00,99.99,,,,,88.5,*60
[2021-02-22 16:17:26.179] $GNGGA,071725.60,,,,,0,00,99.99,,,,,88.6,*60
[2021-02-22 16:17:26.289] $GNGGA,071725.70,,,,,0,00,99.99,,,,,88.7,*60
[2021-02-22 16:17:26.382] $GNGGA,071725.80,,,,,0,00,99.99,,,,,88.8,*60
[2021-02-22 16:17:26.476] $GNGGA,071725.90,,,,,0,00,99.99,,,,,88.9,*60
[2021-02-22 16:17:26.585] $GNGGA,071726.00,3713.969332000,N,13701.454796000,E,1,09,0.88,93.400,M,37.566,M,89.0,*65
[2021-02-22 16:17:26.679] $GNGGA,071726.10,3713.969278000,N,13701.454790000,E,1,11,0.86,94.077,M,37.566,M,89.1,*68
[2021-02-22 16:17:26.804] $GNGGA,071726.20,3713.969116000,N,13701.454430000,E,1,11,0.86,93.093,M,37.566,M,89.2,*67
[2021-02-22 16:17:26.882] $GNGGA,071726.30,3713.968888000,N,13701.454322000,E,1,13,0.83,92.685,M,37.566,M,89.3,*6B
[2021-02-22 16:17:26.976] $GNGGA,071726.40,3713.968786000,N,13701.454298000,E,1,13,0.69,92.758,M,37.566,M,89.4,*6F
[2021-02-22 16:17:27.085] $GNGGA,071726.50,3713.968738000,N,13701.454334000,E,1,13,0.65,93.290,M,37.566,M,89.5,*61
[2021-02-22 16:17:27.195] $GNGGA,071726.60,3713.968708000,N,13701.454382000,E,1,13,0.65,93.372,M,37.566,M,89.6,*62
[2021-02-22 16:17:27.273] $GNGGA,071726.70,3713.968630000,N,13701.454454000,E,1,13,0.65,93.748,M,37.566,M,89.7,*69
[2021-02-22 16:17:27.382] $GNGGA,071726.80,3713.968636000,N,13701.454520000,E,1,13,0.65,93.997,M,37.566,M,89.8,*61
[2021-02-22 16:17:27.476] $GNGGA,071726.90,3713.968618000,N,13701.454538000,E,1,13,0.65,94.282,M,37.566,M,89.9,*6C
[2021-02-22 16:17:27.601] $GNGGA,071727.00,3713.968546000,N,13701.454610000,E,1,13,0.65,94.758,M,37.566,M,90.0,*66
[2021-02-22 16:17:27.679] $GNGGA,071727.10,3713.968498000,N,13701.454598000,E,1,13,0.65,95.267,M,37.566,M,90.1,*6F
[2021-02-22 16:17:27.773] $GNGGA,071727.20,3713.968474000,N,13701.454616000,E,1,13,0.65,95.635,M,37.566,M,90.2,*6B
[2021-02-22 16:17:27.882] $GNGGA,071727.30,3713.968438000,N,13701.454658000,E,1,13,0.62,95.926,M,37.566,M,90.3,*63
[2021-02-22 16:17:27.992] $GNGGA,071727.40,3713.968384000,N,13701.454688000,E,1,13,0.60,96.114,M,37.566,M,90.4,*66
[2021-02-22 16:17:28.070] $GNGGA,071727.50,3713.968348000,N,13701.454682000,E,1,13,0.60,96.256,M,37.566,M,90.5,*69
[2021-02-22 16:17:28.179] $GNGGA,071727.60,3713.968324000,N,13701.454730000,E,1,13,0.60,96.291,M,37.566,M,90.6,*60
[2021-02-22 16:17:28.273] $GNGGA,071727.70,3713.968318000,N,13701.454760000,E,1,13,0.59,96.339,M,37.566,M,90.7,*63
[2021-02-22 16:17:28.398] $GNGGA,071727.80,3713.968318000,N,13701.454778000,E,1,13,0.59,96.454,M,37.566,M,90.8,*66
[2021-02-22 16:17:28.476] $GNGGA,071727.90,3713.968312000,N,13701.454784000,E,1,13,0.59,96.568,M,37.566,M,90.9,*61
[2021-02-22 16:17:28.585] $GNGGA,071728.00,3713.968312000,N,13701.454802000,E,1,13,0.59,96.643,M,37.566,M,91.0,*64
[2021-02-22 16:17:28.679] $GNGGA,071728.10,3713.968312000,N,13701.454814000,E,1,13,0.59,96.719,M,37.566,M,91.1,*6D
[2021-02-22 16:17:28.773] $GNGGA,071728.20,3713.968312000,N,13701.454838000,E,1,13,0.59,96.822,M,37.566,M,91.2,*64
[2021-02-22 16:17:28.898] $GNGGA,071728.30,3713.968318000,N,13701.454838000,E,1,13,0.59,96.868,M,37.566,M,91.3,*60
[2021-02-22 16:17:28.976] $GNGGA,071728.40,3713.968318000,N,13701.454838000,E,1,13,0.59,96.901,M,37.566,M,91.4,*6E
[2021-02-22 16:17:29.085] $GNGGA,071728.50,3713.968318000,N,13701.454844000,E,1,13,0.59,96.917,M,37.566,M,91.5,*62
[2021-02-22 16:17:29.179] $GNGGA,071728.60,3713.968324000,N,13701.454826000,E,1,13,0.59,96.937,M,37.566,M,91.6,*6B
[2021-02-22 16:17:29.273] $GNGGA,071728.70,3713.968330000,N,13701.454826000,E,1,13,0.59,96.963,M,37.566,M,91.7,*6F
[2021-02-22 16:17:29.398] $GNGGA,071728.80,3713.968330000,N,13701.454826000,E,1,13,0.59,96.977,M,37.566,M,91.8,*6A
[2021-02-22 16:17:29.476] $GNGGA,071728.90,3713.968336000,N,13701.454820000,E,1,13,0.59,96.988,M,37.566,M,91.9,*6A
[2021-02-22 16:17:29.585] $GNGGA,071729.00,3713.968336000,N,13701.454820000,E,1,13,0.59,97.008,M,37.566,M,92.0,*68
[2021-02-22 16:17:29.679] $GNGGA,071729.10,3713.968336000,N,13701.454808000,E,1,13,0.59,97.040,M,37.566,M,92.1,*6E
[2021-02-22 16:17:29.804] $GNGGA,071729.20,3713.968336000,N,13701.454808000,E,1,13,0.59,97.048,M,37.566,M,92.2,*66
[2021-02-22 16:17:29.882] $GNGGA,071729.30,3713.968336000,N,13701.454808000,E,1,13,0.59,97.065,M,37.566,M,92.3,*69
[2021-02-22 16:17:29.976] $GNGGA,071729.40,3713.968336000,N,13701.454796000,E,1,13,0.59,97.087,M,37.566,M,92.4,*6D
[2021-02-22 16:17:30.085] $GNGGA,071729.50,3713.968336000,N,13701.454790000,E,1,13,0.59,97.103,M,37.566,M,92.5,*66
[2021-02-22 16:17:30.195] $GNGGA,071729.60,3713.968336000,N,13701.454784000,E,1,13,0.59,97.111,M,37.566,M,92.6,*60
[2021-02-22 16:17:30.273] $GNGGA,071729.70,3713.968336000,N,13701.454778000,E,1,13,0.59,97.117,M,37.566,M,92.7,*65
[2021-02-22 16:17:30.382] $GNGGA,071729.80,3713.968336000,N,13701.454772000,E,1,13,0.59,97.125,M,37.566,M,92.8,*6E
[2021-02-22 16:17:30.476] $GNGGA,071729.90,3713.968330000,N,13701.454766000,E,1,13,0.59,97.133,M,37.566,M,92.9,*6A
[2021-02-22 16:17:30.601] $GNGGA,071730.00,3713.968330000,N,13701.454760000,E,1,13,0.59,97.149,M,37.566,M,93.0,*68
[2021-02-22 16:17:30.679] $GNGGA,071730.10,3713.968330000,N,13701.454760000,E,1,13,0.59,97.159,M,37.566,M,93.1,*69
[2021-02-22 16:17:30.773] $GNGGA,071730.20,3713.968324000,N,13701.454754000,E,1,13,0.59,97.163,M,37.566,M,93.2,*62
[2021-02-22 16:17:30.882] $GNGGA,071730.30,3713.968318000,N,13701.454748000,E,1,14,0.59,97.171,M,37.566,M,93.3,*64
[2021-02-22 16:17:30.991] $GNGGA,071730.40,3713.968318000,N,13701.454748000,E,1,14,0.59,97.180,M,37.566,M,93.4,*6A
[2021-02-22 16:17:31.070] $GNGGA,071730.50,3713.968318000,N,13701.454742000,E,1,14,0.59,97.189,M,37.566,M,93.5,*69
[2021-02-22 16:17:31.179] $GNGGA,071730.60,3713.968318000,N,13701.454736000,E,1,14,0.59,97.203,M,37.566,M,93.6,*6B
[2021-02-22 16:17:31.273] $GNGGA,071730.70,3713.968318000,N,13701.454736000,E,1,13,0.59,97.203,M,37.566,M,93.7,*6C
[2021-02-22 16:17:31.398] $GNGGA,071730.80,3713.968318000,N,13701.454736000,E,1,13,0.59,97.205,M,37.566,M,93.8,*6A
[2021-02-22 16:17:31.476] $GNGGA,071730.90,3713.968318000,N,13701.454736000,E,1,13,0.59,97.199,M,37.566,M,93.9,*6C
[2021-02-22 16:17:31.585] $GNGGA,071731.00,3713.968318000,N,13701.454736000,E,1,13,0.59,97.182,M,37.566,M,94.0,*60
[2021-02-22 16:17:31.679] $GNGGA,071731.10,3713.968318000,N,13701.454730000,E,1,13,0.59,97.172,M,37.566,M,94.1,*69
[2021-02-22 16:17:31.804] $GNGGA,071731.20,3713.968318000,N,13701.454730000,E,1,13,0.59,97.149,M,37.566,M,94.2,*61
[2021-02-22 16:17:31.882] $GNGGA,071731.30,3713.968318000,N,13701.454730000,E,1,13,0.59,97.121,M,37.566,M,94.3,*6F
[2021-02-22 16:17:31.976] $GNGGA,071731.40,3713.968312000,N,13701.454736000,E,1,13,0.59,97.096,M,37.566,M,94.4,*6E
[2021-02-22 16:17:32.085] $GNGGA,071731.50,3713.968312000,N,13701.454742000,E,1,13,0.59,97.067,M,37.566,M,94.5,*63
[2021-02-22 16:17:32.194] $GNGGA,071731.60,3713.968312000,N,13701.454754000,E,1,13,0.59,97.040,M,37.566,M,94.6,*61
[2021-02-22 16:17:32.273] $GNGGA,071731.70,3713.968306000,N,13701.454760000,E,1,13,0.59,97.012,M,37.566,M,94.7,*64
[2021-02-22 16:17:32.382] $GNGGA,071731.80,3713.968306000,N,13701.454766000,E,1,13,0.59,96.989,M,37.566,M,94.8,*68
[2021-02-22 16:17:32.476] $GNGGA,071731.90,3713.968312000,N,13701.454772000,E,1,13,0.59,96.963,M,37.566,M,94.9,*6C
[2021-02-22 16:17:32.601] $GNGGA,071732.00,3713.968312000,N,13701.454778000,E,1,13,0.59,96.941,M,37.566,M,95.0,*64
[2021-02-22 16:17:32.679] $GNGGA,071732.10,3713.968318000,N,13701.454784000,E,1,13,0.59,96.916,M,37.566,M,95.1,*6F
[2021-02-22 16:17:32.773] $GNGGA,071732.20,3713.968318000,N,13701.454790000,E,1,13,0.59,96.902,M,37.566,M,95.2,*6F
[2021-02-22 16:17:32.882] $GNGGA,071732.30,3713.968318000,N,13701.454790000,E,1,13,0.59,96.880,M,37.566,M,95.3,*64
[2021-02-22 16:17:32.976] $GNGGA,071732.40,3713.968318000,N,13701.454796000,E,1,13,0.59,96.864,M,37.566,M,95.4,*68
[2021-02-22 16:17:33.101] $GNGGA,071732.50,3713.968318000,N,13701.454802000,E,1,13,0.59,96.844,M,37.566,M,95.5,*68
[2021-02-22 16:17:33.179] $GNGGA,071732.60,3713.968318000,N,13701.454802000,E,1,13,0.59,96.827,M,37.566,M,95.6,*6D
[2021-02-22 16:17:33.273] $GNGGA,071732.70,3713.968318000,N,13701.454802000,E,1,13,0.59,96.814,M,37.566,M,95.7,*6D
[2021-02-22 16:17:33.382] $GNGGA,071732.80,3713.968382450,N,13701.454761914,E,5,10,1.01,95.499,M,37.566,M,95.8,2006*6C
[2021-02-22 16:17:33.476] $GNGGA,071732.90,3713.968351390,N,13701.454708279,E,5,11,1.00,95.799,M,37.566,M,95.9,2006*65
[2021-02-22 16:17:33.601] $GNGGA,071733.00,3713.968350647,N,13701.454611295,E,5,13,0.95,96.261,M,37.566,M,96.0,2006*6C
[2021-02-22 16:17:33.679] $GNGGA,071733.10,3713.968344760,N,13701.454584088,E,5,13,0.95,96.424,M,37.566,M,96.1,2006*6B
[2021-02-22 16:17:33.772] $GNGGA,071733.20,3713.968381428,N,13701.454549934,E,5,13,0.95,96.529,M,37.566,M,96.2,2006*6E
[2021-02-22 16:17:33.882] $GNGGA,071733.30,3713.968378067,N,13701.454532274,E,5,13,0.95,96.621,M,37.566,M,96.3,2006*6F
[2021-02-22 16:17:33.991] $GNGGA,071733.40,3713.968393697,N,13701.454507003,E,5,13,0.95,96.700,M,37.566,M,96.4,2006*65
[2021-02-22 16:17:34.085] $GNGGA,071733.50,3713.968387351,N,13701.454490267,E,5,13,0.95,96.778,M,37.566,M,96.5,2006*6F
[2021-02-22 16:17:34.179] $GNGGA,071733.60,3713.968384639,N,13701.454474033,E,5,13,0.95,96.822,M,37.566,M,96.6,2006*6E
[2021-02-22 16:17:34.272] $GNGGA,071733.70,3713.968388871,N,13701.454466701,E,5,13,0.95,96.895,M,37.566,M,96.7,2006*69
[2021-02-22 16:17:34.397] $GNGGA,071733.80,3713.968383920,N,13701.454460460,E,5,13,0.95,96.928,M,37.566,M,96.8,2006*62
[2021-02-22 16:17:34.476] $GNGGA,071733.90,3713.968373156,N,13701.454460286,E,5,13,0.95,96.992,M,37.566,M,96.9,2006*6B
[2021-02-22 16:17:34.585] $GNGGA,071734.00,3713.968355823,N,13701.454453135,E,5,13,0.95,97.038,M,37.566,M,97.0,2006*61
[2021-02-22 16:17:34.679] $GNGGA,071734.10,3713.968340313,N,13701.454455005,E,5,13,0.95,97.118,M,37.566,M,97.1,2006*6A
[2021-02-22 16:17:34.804] $GNGGA,071734.20,3713.968322022,N,13701.454449053,E,5,13,0.95,97.159,M,37.566,M,97.2,2006*64
[2021-02-22 16:17:34.882] $GNGGA,071734.30,3713.968307118,N,13701.454455377,E,5,13,0.95,97.235,M,37.566,M,97.3,2006*6A
[2021-02-22 16:17:34.976] $GNGGA,071734.40,3713.968291476,N,13701.454454159,E,5,13,0.95,97.282,M,37.566,M,97.4,2006*6A
[2021-02-22 16:17:35.085] $GNGGA,071734.50,3713.968272623,N,13701.454463254,E,5,13,0.95,97.360,M,37.566,M,97.5,2006*62
[2021-02-22 16:17:35.194] $GNGGA,071734.60,3713.968252764,N,13701.454463473,E,5,13,0.95,97.409,M,37.566,M,97.6,2006*69
[2021-02-22 16:17:35.272] $GNGGA,071734.70,3713.968348867,N,13701.454763923,E,4,13,0.95,96.516,M,37.566,M,97.7,2006*6B
[2021-02-22 16:17:35.382] $GNGGA,071734.80,3713.968347546,N,13701.454764383,E,4,13,0.95,96.519,M,37.566,M,97.8,2006*62
[2021-02-22 16:17:35.475] $GNGGA,071734.90,3713.968346901,N,13701.454763806,E,4,13,0.95,96.519,M,37.566,M,97.9,2006*6D
[2021-02-22 16:17:35.600] $GNGGA,071735.00,3713.968346305,N,13701.454763959,E,4,13,0.95,96.519,M,37.566,M,98.0,2006*66
[2021-02-22 16:17:35.679] $GNGGA,071735.10,3713.968345811,N,13701.454762745,E,4,13,0.95,96.518,M,37.566,M,98.1,2006*68
[2021-02-22 16:17:35.772] $GNGGA,071735.20,3713.968345662,N,13701.454762187,E,4,13,0.95,96.519,M,37.566,M,98.2,2006*6B
[2021-02-22 16:17:35.882] $GNGGA,071735.30,3713.968346203,N,13701.454761692,E,4,13,0.95,96.520,M,37.566,M,98.3,2006*61
[2021-02-22 16:17:35.975] $GNGGA,071735.40,3713.968346759,N,13701.454760924,E,4,13,0.95,96.518,M,37.566,M,98.4,2006*63
[2021-02-22 16:17:36.100] $GNGGA,071735.50,3713.968347088,N,13701.454760669,E,4,13,0.95,96.522,M,37.566,M,98.5,2006*66
[2021-02-22 16:17:36.179] $GNGGA,071735.60,3713.968349355,N,13701.454762176,E,4,13,0.95,96.518,M,37.566,M,98.6,2006*69
[2021-02-22 16:17:36.272] $GNGGA,071735.70,3713.968350257,N,13701.454762649,E,4,13,0.95,96.521,M,37.566,M,98.7,2006*63
[2021-02-22 16:17:36.382] $GNGGA,071735.80,3713.968349747,N,13701.454761231,E,4,13,0.95,96.521,M,37.566,M,98.8,2006*67
[2021-02-22 16:17:36.475] $GNGGA,071735.90,3713.968350232,N,13701.454761384,E,4,13,0.95,96.521,M,37.566,M,98.9,2006*67
[2021-02-22 16:17:36.600] $GNGGA,071736.00,3713.968351046,N,13701.454761444,E,4,13,0.95,96.522,M,37.566,M,99.0,2006*6D
[2021-02-22 16:17:36.679] $GNGGA,071736.10,3713.968350902,N,13701.454761121,E,4,13,0.95,96.521,M,37.566,M,99.1,2006*60
[2021-02-22 16:17:36.772] $GNGGA,071736.20,3713.968350234,N,13701.454762680,E,4,13,0.95,96.522,M,37.566,M,99.2,2006*62
[2021-02-22 16:17:36.882] $GNGGA,071736.30,3713.968350729,N,13701.454762663,E,4,13,0.95,96.524,M,37.566,M,99.3,2006*60
[2021-02-22 16:17:36.975] $GNGGA,071736.40,3713.968350348,N,13701.454763893,E,4,13,0.95,96.525,M,37.566,M,99.4,2006*62
[2021-02-22 16:17:37.100] $GNGGA,071736.50,3713.968350358,N,13701.454763955,E,4,13,0.95,96.527,M,37.566,M,99.5,2006*6A
[2021-02-22 16:17:37.178] $GNGGA,071736.60,3713.968351215,N,13701.454764100,E,4,13,0.95,96.524,M,37.566,M,99.6,2006*6F
[2021-02-22 16:17:37.272] $GNGGA,071736.70,3713.968350816,N,13701.454764389,E,4,13,0.95,96.526,M,37.566,M,99.7,2006*66
[2021-02-22 16:17:37.382] $GNGGA,071736.80,3713.968351589,N,13701.454763850,E,4,13,0.95,96.525,M,37.566,M,99.8,2006*67
[2021-02-22 16:17:37.475] $GNGGA,071736.90,3713.968351338,N,13701.454762976,E,4,13,0.95,96.524,M,37.566,M,99.9,2006*6E
[2021-02-22 16:17:37.600] $GNGGA,071737.00,3713.968349817,N,13701.454762940,E,4,13,0.95,96.526,M,37.566,M,100.0,2006*56
[2021-02-22 16:17:37.678] $GNGGA,071737.10,3713.968348430,N,13701.454762480,E,4,13,0.95,96.527,M,37.566,M,100.1,2006*5E
[2021-02-22 16:17:37.772] $GNGGA,071737.20,3713.968347575,N,13701.454761311,E,4,13,0.95,96.524,M,37.566,M,100.2,2006*5E
[2021-02-22 16:17:37.882] $GNGGA,071737.30,3713.968346777,N,13701.454760788,E,4,13,0.95,96.526,M,37.566,M,100.3,2006*58
[2021-02-22 16:17:37.975] $GNGGA,071737.40,3713.968347255,N,13701.454758254,E,4,13,0.95,96.525,M,37.566,M,100.4,2006*50
[2021-02-22 16:17:38.100] $GNGGA,071737.50,3713.968347054,N,13701.454757047,E,4,13,0.95,96.527,M,37.566,M,100.5,2006*5E
[2021-02-22 16:17:38.178] $GNGGA,071737.60,3713.968346199,N,13701.454755561,E,4,13,0.95,96.529,M,37.566,M,100.6,2006*52
[2021-02-22 16:17:38.272] $GNGGA,071737.70,3713.968347110,N,13701.454754189,E,4,13,0.95,96.525,M,37.566,M,100.7,2006*5D
[2021-02-22 16:17:38.382] $GNGGA,071737.80,3713.968345794,N,13701.454753840,E,4,13,0.95,96.526,M,37.566,M,100.8,2006*5D
[2021-02-22 16:17:38.491] $GNGGA,071737.90,3713.968344365,N,13701.454753992,E,4,13,0.95,96.527,M,37.566,M,100.9,2006*59
[2021-02-22 16:17:38.585] $GNGGA,071738.00,3713.968343537,N,13701.454753961,E,4,13,0.95,96.526,M,37.566,M,101.0,2006*5C
[2021-02-22 16:17:38.678] $GNGGA,071738.10,3713.968342924,N,13701.454753038,E,4,13,0.95,96.523,M,37.566,M,101.1,2006*53
[2021-02-22 16:17:38.772] $GNGGA,071738.20,3713.968341872,N,13701.454752593,E,4,13,0.95,96.522,M,37.566,M,101.2,2006*56
[2021-02-22 16:17:38.897] $GNGGA,071738.30,3713.968342229,N,13701.454751017,E,4,13,0.95,96.521,M,37.566,M,101.3,2006*58
[2021-02-22 16:17:38.975] $GNGGA,071738.40,3713.968341146,N,13701.454748746,E,4,13,0.95,96.521,M,37.566,M,101.4,2006*5A
[2021-02-22 16:17:39.085] $GNGGA,071738.50,3713.968340818,N,13701.454746810,E,4,13,0.95,96.524,M,37.566,M,101.5,2006*5E
[2021-02-22 16:17:39.178] $GNGGA,071738.60,3713.968339031,N,13701.454745728,E,4,13,0.95,96.525,M,37.566,M,101.6,2006*55
[2021-02-22 16:17:39.303] $GNGGA,071738.70,3713.968337569,N,13701.454744502,E,4,13,0.95,96.521,M,37.566,M,101.7,2006*5C
[2021-02-22 16:17:39.381] $GNGGA,071738.80,3713.968335023,N,13701.454744773,E,4,13,0.95,96.521,M,37.566,M,101.8,2006*51
[2021-02-22 16:17:39.475] $GNGGA,071738.90,3713.968333337,N,13701.454743650,E,4,13,0.95,96.520,M,37.566,M,101.9,2006*57
[2021-02-22 16:17:39.585] $GNGGA,071739.00,3713.968333537,N,13701.454743676,E,4,13,0.95,96.521,M,37.566,M,102.0,2006*56
[2021-02-22 16:17:39.694] $GNGGA,071739.10,3713.968333691,N,13701.454744264,E,4,13,0.95,96.518,M,37.566,M,102.1,2006*53
[2021-02-22 16:17:39.772] $GNGGA,071739.20,3713.968334429,N,13701.454742491,E,4,13,0.95,96.521,M,37.566,M,102.2,2006*55
[2021-02-22 16:17:39.881] $GNGGA,071739.30,3713.968336228,N,13701.454740200,E,4,13,0.95,96.522,M,37.566,M,102.3,2006*5F
[2021-02-22 16:17:39.975] $GNGGA,071739.40,3713.968337523,N,13701.454738752,E,4,13,0.95,96.517,M,37.566,M,102.4,2006*59
[2021-02-22 16:17:40.085] $GNGGA,071739.50,3713.968338944,N,13701.454737865,E,4,13,0.95,96.519,M,37.566,M,102.5,2006*51
[2021-02-22 16:17:40.194] $GNGGA,071739.60,3713.968340286,N,13701.454736856,E,4,13,0.95,96.517,M,37.566,M,102.6,2006*54
[2021-02-22 16:17:40.272] $GNGGA,071739.70,3713.968339460,N,13701.454736955,E,4,13,0.95,96.516,M,37.566,M,102.7,2006*57
[2021-02-22 16:17:40.381] $GNGGA,071739.80,3713.968337408,N,13701.454736807,E,4,13,0.95,96.517,M,37.566,M,102.8,2006*50
[2021-02-22 16:17:40.475] $GNGGA,071739.90,3713.968334319,N,13701.454735523,E,4,13,0.95,96.520,M,37.566,M,102.9,2006*58
[2021-02-22 16:17:40.585] $GNGGA,071740.00,3713.968334143,N,13701.454732963,E,4,13,0.95,96.519,M,37.566,M,103.0,2006*5F
[2021-02-22 16:17:40.694] $GNGGA,071740.10,3713.968332819,N,13701.454729618,E,4,13,0.95,96.517,M,37.566,M,103.1,2006*58
[2021-02-22 16:17:40.772] $GNGGA,071740.20,3713.968331267,N,13701.454727868,E,4,13,0.95,96.521,M,37.566,M,103.2,2006*5A
[2021-02-22 16:17:40.881] $GNGGA,071740.30,3713.968330057,N,13701.454726022,E,4,13,0.95,96.521,M,37.566,M,103.3,2006*5D
[2021-02-22 16:17:40.975] $GNGGA,071740.40,3713.968328908,N,13701.454725825,E,4,13,0.95,96.520,M,37.566,M,103.4,2006*5A
[2021-02-22 16:17:41.084] $GNGGA,071740.50,3713.968328533,N,13701.454724973,E,4,13,0.95,96.521,M,37.566,M,103.5,2006*5C
[2021-02-22 16:17:41.194] $GNGGA,071740.60,3713.968327175,N,13701.454724495,E,4,13,0.95,96.520,M,37.566,M,103.6,2006*51
[2021-02-22 16:17:41.272] $GNGGA,071740.70,3713.968326249,N,13701.454725005,E,4,13,0.95,96.522,M,37.566,M,103.7,2006*52
[2021-02-22 16:17:41.381] $GNGGA,071740.80,3713.968326209,N,13701.454724656,E,4,13,0.95,96.525,M,37.566,M,103.8,2006*50
[2021-02-22 16:17:41.475] $GNGGA,071740.90,3713.968325203,N,13701.454724611,E,4,13,0.95,96.521,M,37.566,M,103.9,2006*5E
[2021-02-22 16:17:41.584] $GNGGA,071741.00,3713.968324454,N,13701.454724380,E,4,13,0.95,96.521,M,37.566,M,104.0,2006*50
[2021-02-22 16:17:41.694] $GNGGA,071741.10,3713.968324713,N,13701.454725186,E,4,13,0.95,96.520,M,37.566,M,104.1,2006*54
[2021-02-22 16:17:41.772] $GNGGA,071741.20,3713.968324834,N,13701.454727093,E,4,13,0.95,96.519,M,37.566,M,104.2,2006*53
[2021-02-22 16:17:41.881] $GNGGA,071741.30,3713.968327141,N,13701.454729486,E,4,13,0.95,96.520,M,37.566,M,104.3,2006*5F
[2021-02-22 16:17:41.975] $GNGGA,071741.40,3713.968327848,N,13701.454732429,E,4,13,0.95,96.521,M,37.566,M,104.4,2006*51
[2021-02-22 16:17:42.084] $GNGGA,071741.50,3713.968328700,N,13701.454733769,E,4,13,0.95,96.521,M,37.566,M,104.5,2006*5B
[2021-02-22 16:17:42.194] $GNGGA,071741.60,3713.968330932,N,13701.454735645,E,4,13,0.95,96.521,M,37.566,M,104.6,2006*54
[2021-02-22 16:17:42.272] $GNGGA,071741.70,3713.968333059,N,13701.454738909,E,4,13,0.95,96.518,M,37.566,M,104.7,2006*53
[2021-02-22 16:17:42.381] $GNGGA,071741.80,3713.968334775,N,13701.454741455,E,4,13,0.95,96.516,M,37.566,M,104.8,2006*59
[2021-02-22 16:17:42.475] $GNGGA,071741.90,3713.968336477,N,13701.454745296,E,4,13,0.95,96.516,M,37.566,M,104.9,2006*57
[2021-02-22 16:17:42.600] $GNGGA,071742.00,3713.968337245,N,13701.454750061,E,4,13,0.95,96.515,M,37.566,M,105.0,2006*5E
[2021-02-22 16:17:42.678] $GNGGA,071742.10,3713.968338392,N,13701.454753223,E,4,13,0.95,96.515,M,37.566,M,105.1,2006*5D
[2021-02-22 16:17:42.772] $GNGGA,071742.20,3713.968339180,N,13701.454756708,E,4,13,0.95,96.513,M,37.566,M,105.2,2006*52
[2021-02-22 16:17:42.881] $GNGGA,071742.30,3713.968340969,N,13701.454760707,E,4,13,0.95,96.511,M,37.566,M,105.3,2006*5B
[2021-02-22 16:17:42.991] $GNGGA,071742.40,3713.968341626,N,13701.454763873,E,4,13,0.95,96.514,M,37.566,M,105.4,2006*54
[2021-02-22 16:17:43.084] $GNGGA,071742.50,3713.968341901,N,13701.454764206,E,4,13,0.95,96.512,M,37.566,M,105.5,2006*57
[2021-02-22 16:17:43.178] $GNGGA,071742.60,3713.968342427,N,13701.454763857,E,4,13,0.95,96.511,M,37.566,M,105.6,2006*57
[2021-02-22 16:17:43.287] $GNGGA,071742.70,3713.968343897,N,13701.454763776,E,4,13,0.95,96.510,M,37.566,M,105.7,2006*5C
[2021-02-22 16:17:43.395] $GNGGA,071742.80,3713.968345339,N,13701.454764398,E,4,13,0.95,96.512,M,37.566,M,105.8,2006*54
[2021-02-22 16:17:43.473] $GNGGA,071742.90,3713.968347318,N,13701.454764671,E,4,13,0.95,96.512,M,37.566,M,105.9,2006*57
[2021-02-22 16:17:43.583] $GNGGA,071743.00,3713.968347960,N,13701.454765713,E,4,13,0.95,96.511,M,37.566,M,106.0,2006*57
[2021-02-22 16:17:43.676] $GNGGA,071743.10,3713.968350054,N,13701.454767958,E,4,13,0.95,96.511,M,37.566,M,106.1,2006*5C
[2021-02-22 16:17:43.801] $GNGGA,071743.20,3713.968351294,N,13701.454768547,E,4,13,0.95,96.508,M,37.566,M,106.2,2006*56
[2021-02-22 16:17:43.879] $GNGGA,071743.30,3713.968352175,N,13701.454770161,E,4,13,0.95,96.511,M,37.566,M,106.3,2006*58
[2021-02-22 16:17:43.973] $GNGGA,071743.40,3713.968353229,N,13701.454770781,E,4,13,0.95,96.508,M,37.566,M,106.4,2006*53
[2021-02-22 16:17:44.083] $GNGGA,071743.50,3713.968353422,N,13701.454772170,E,4,13,0.95,96.509,M,37.566,M,106.5,2006*55
[2021-02-22 16:17:44.176] $GNGGA,071743.60,3713.968354777,N,13701.454773189,E,4,13,0.95,96.507,M,37.566,M,106.6,2006*58
[2021-02-22 16:17:44.301] $GNGGA,071743.70,3713.968354663,N,13701.454775642,E,4,13,0.95,96.506,M,37.566,M,106.7,2006*5B
[2021-02-22 16:17:44.379] $GNGGA,071743.80,3713.968355069,N,13701.454777275,E,4,13,0.95,96.507,M,37.566,M,106.8,2006*55
[2021-02-22 16:17:44.473] $GNGGA,071743.90,3713.968356232,N,13701.454776569,E,4,13,0.95,96.507,M,37.566,M,106.9,2006*51
[2021-02-22 16:17:44.582] $GNGGA,071744.00,3713.968358898,N,13701.454775697,E,4,13,0.95,96.506,M,37.566,M,107.0,2006*53
[2021-02-22 16:17:44.676] $GNGGA,071744.10,3713.968360641,N,13701.454775807,E,4,13,0.95,96.505,M,37.566,M,107.1,2006*56
[2021-02-22 16:17:44.801] $GNGGA,071744.20,3713.968361484,N,13701.454774977,E,4,13,0.95,96.506,M,37.566,M,107.2,2006*58
[2021-02-22 16:17:44.879] $GNGGA,071744.30,3713.968361815,N,13701.454774935,E,4,13,0.95,96.505,M,37.566,M,107.3,2006*59
[2021-02-22 16:17:44.973] $GNGGA,071744.40,3713.968361354,N,13701.454774825,E,4,13,0.95,96.505,M,37.566,M,107.4,2006*57
[2021-02-22 16:17:45.082] $GNGGA,071744.50,3713.968361585,N,13701.454774714,E,4,13,0.95,96.505,M,37.566,M,107.5,2006*50
[2021-02-22 16:17:45.176] $GNGGA,071744.60,3713.968360508,N,13701.454773851,E,4,13,0.95,96.502,M,37.566,M,107.6,2006*5A
[2021-02-22 16:17:45.301] $GNGGA,071744.70,3713.968360484,N,13701.454774569,E,4,13,0.95,96.503,M,37.566,M,107.7,2006*5F
[2021-02-22 16:17:45.379] $GNGGA,071744.80,3713.968361410,N,13701.454775142,E,4,13,0.95,96.502,M,37.566,M,107.8,2006*5E
[2021-02-22 16:17:45.473] $GNGGA,071744.90,3713.968362048,N,13701.454777348,E,4,13,0.95,96.499,M,37.566,M,107.9,2006*5D
[2021-02-22 16:17:45.582] $GNGGA,071745.00,3713.968362618,N,13701.454776958,E,4,13,0.95,96.497,M,37.566,M,108.0,2006*54
[2021-02-22 16:17:45.676] $GNGGA,071745.10,3713.968362308,N,13701.454776930,E,4,13,0.95,96.495,M,37.566,M,108.1,2006*5C
[2021-02-22 16:17:45.801] $GNGGA,071745.20,3713.968362012,N,13701.454778060,E,4,13,0.95,96.497,M,37.566,M,108.2,2006*54
[2021-02-22 16:17:45.879] $GNGGA,071745.30,3713.968362137,N,13701.454777477,E,4,13,0.95,96.496,M,37.566,M,108.3,2006*5E
[2021-02-22 16:17:45.973] $GNGGA,071745.40,3713.968361487,N,13701.454777844,E,4,13,0.95,96.499,M,37.566,M,108.4,2006*50
[2021-02-22 16:17:46.082] $GNGGA,071745.50,3713.968362030,N,13701.454778782,E,4,13,0.95,96.496,M,37.566,M,108.5,2006*5E
[2021-02-22 16:17:46.176] $GNGGA,071745.60,3713.968361820,N,13701.454779656,E,4,13,0.95,96.498,M,37.566,M,108.6,2006*53
[2021-02-22 16:17:46.301] $GNGGA,071745.70,3713.968361394,N,13701.454779762,E,4,13,0.95,96.497,M,37.566,M,108.7,2006*5E
[2021-02-22 16:17:46.379] $GNGGA,071745.80,3713.968361241,N,13701.454778936,E,4,13,0.95,96.494,M,37.566,M,108.8,2006*5A
[2021-02-22 16:17:46.473] $GNGGA,071745.90,3713.968362491,N,13701.454777458,E,4,13,0.95,96.494,M,37.566,M,108.9,2006*58
[2021-02-22 16:17:46.582] $GNGGA,071746.00,3713.968362187,N,13701.454777235,E,4,13,0.95,96.495,M,37.566,M,109.0,2006*54
[2021-02-22 16:17:46.676] $GNGGA,071746.10,3713.968362313,N,13701.454775879,E,4,13,0.95,96.495,M,37.566,M,109.1,2006*5B
[2021-02-22 16:17:46.801] $GNGGA,071746.20,3713.968361795,N,13701.454776096,E,4,13,0.95,96.494,M,37.566,M,109.2,2006*59
[2021-02-22 16:17:46.879] $GNGGA,071746.30,3713.968361026,N,13701.454776171,E,4,13,0.95,96.497,M,37.566,M,109.3,2006*5D
[2021-02-22 16:17:46.973] $GNGGA,071746.40,3713.968360548,N,13701.454775436,E,4,13,0.95,96.497,M,37.566,M,109.4,2006*54
[2021-02-22 16:17:47.082] $GNGGA,071746.50,3713.968360575,N,13701.454776179,E,4,13,0.95,96.495,M,37.566,M,109.5,2006*55
[2021-02-22 16:17:47.192] $GNGGA,071746.60,3713.968359486,N,13701.454776719,E,4,13,0.95,96.495,M,37.566,M,109.6,2006*52
[2021-02-22 16:17:47.285] $GNGGA,071746.70,3713.968359520,N,13701.454776289,E,4,13,0.95,96.497,M,37.566,M,109.7,2006*51
[2021-02-22 16:17:47.379] $GNGGA,071746.80,3713.968359280,N,13701.454777440,E,4,13,0.95,96.497,M,37.566,M,109.8,2006*5E
[2021-02-22 16:17:47.473] $GNGGA,071746.90,3713.968358118,N,13701.454777416,E,4,13,0.95,96.496,M,37.566,M,109.9,2006*5F
[2021-02-22 16:17:47.598] $GNGGA,071747.00,3713.968356819,N,13701.454777279,E,4,13,0.95,96.495,M,37.566,M,110.0,2006*5C
[2021-02-22 16:17:47.676] $GNGGA,071747.10,3713.968355655,N,13701.454776753,E,4,13,0.95,96.499,M,37.566,M,110.1,2006*59
[2021-02-22 16:17:47.785] $GNGGA,071747.20,3713.968355067,N,13701.454777532,E,4,13,0.95,96.495,M,37.566,M,110.2,2006*56
[2021-02-22 16:17:47.879] $GNGGA,071747.30,3713.968354654,N,13701.454778268,E,4,13,0.95,96.497,M,37.566,M,110.3,2006*54
[2021-02-22 16:17:48.004] $GNGGA,071747.40,3713.968354760,N,13701.454779096,E,4,13,0.95,96.499,M,37.566,M,110.4,2006*5E
[2021-02-22 16:17:48.082] $GNGGA,071747.50,3713.968353565,N,13701.454779997,E,4,13,0.95,96.498,M,37.566,M,110.5,2006*57
[2021-02-22 16:17:48.176] $GNGGA,071747.60,3713.968353790,N,13701.454780656,E,4,13,0.95,96.496,M,37.566,M,110.6,2006*55
[2021-02-22 16:17:48.285] $GNGGA,071747.70,3713.968354622,N,13701.454780877,E,4,13,0.95,96.500,M,37.566,M,110.7,2006*59
[2021-02-22 16:17:48.395] $GNGGA,071747.80,3713.968355611,N,13701.454781091,E,4,13,0.95,96.498,M,37.566,M,110.8,2006*59
[2021-02-22 16:17:48.473] $GNGGA,071747.90,3713.968356963,N,13701.454780379,E,4,13,0.95,96.497,M,37.566,M,110.9,2006*5B
[2021-02-22 16:17:48.582] $GNGGA,071748.00,3713.968359182,N,13701.454780208,E,4,13,0.95,96.500,M,37.566,M,111.0,2006*55
[2021-02-22 16:17:48.676] $GNGGA,071748.10,3713.968362330,N,13701.454779799,E,4,13,0.95,96.497,M,37.566,M,111.1,2006*52
[2021-02-22 16:17:48.785] $GNGGA,071748.20,3713.968363369,N,13701.454779527,E,4,13,0.95,96.497,M,37.566,M,111.2,2006*58
[2021-02-22 16:17:48.895] $GNGGA,071748.30,3713.968364140,N,13701.454778734,E,4,13,0.95,96.495,M,37.566,M,111.3,2006*55
[2021-02-22 16:17:48.973] $GNGGA,071748.40,3713.968364414,N,13701.454780613,E,4,13,0.95,96.495,M,37.566,M,111.4,2006*52
[2021-02-22 16:17:49.082] $GNGGA,071748.50,3713.968363803,N,13701.454781666,E,4,13,0.95,96.497,M,37.566,M,111.5,2006*5E
[2021-02-22 16:17:49.176] $GNGGA,071748.60,3713.968362456,N,13701.454781897,E,4,13,0.95,96.497,M,37.566,M,111.6,2006*53
[2021-02-22 16:17:49.285] $GNGGA,071748.70,3713.968361117,N,13701.454781833,E,4,13,0.95,96.495,M,37.566,M,111.7,2006*5C
[2021-02-22 16:17:49.395] $GNGGA,071748.80,3713.968361297,N,13701.454780982,E,4,13,0.95,96.493,M,37.566,M,111.8,2006*5B
[2021-02-22 16:17:49.473] $GNGGA,071748.90,3713.968362708,N,13701.454780015,E,4,13,0.95,96.493,M,37.566,M,111.9,2006*5C
[2021-02-22 16:17:49.582] $GNGGA,071749.00,3713.968363079,N,13701.454779275,E,4,13,0.95,96.492,M,37.566,M,112.0,2006*5D
[2021-02-22 16:17:49.676] $GNGGA,071749.10,3713.968364564,N,13701.454779202,E,4,13,0.95,96.490,M,37.566,M,112.1,2006*51
[2021-02-22 16:17:49.785] $GNGGA,071749.20,3713.968364366,N,13701.454780442,E,4,13,0.95,96.490,M,37.566,M,112.2,2006*51
[2021-02-22 16:17:49.895] $GNGGA,071749.30,3713.968363067,N,13701.454780567,E,4,13,0.95,96.490,M,37.566,M,112.3,2006*52
[2021-02-22 16:17:49.973] $GNGGA,071749.40,3713.968362395,N,13701.454780265,E,4,13,0.95,96.491,M,37.566,M,112.4,2006*59
[2021-02-22 16:17:50.082] $GNGGA,071749.50,3713.968360765,N,13701.454779115,E,4,13,0.95,96.489,M,37.566,M,112.5,2006*5B
[2021-02-22 16:17:50.176] $GNGGA,071749.60,3713.968359180,N,13701.454777386,E,4,13,0.95,96.491,M,37.566,M,112.6,2006*53
[2021-02-22 16:17:50.285] $GNGGA,071749.70,3713.968357611,N,13701.454776379,E,4,13,0.95,96.491,M,37.566,M,112.7,2006*53
[2021-02-22 16:17:50.395] $GNGGA,071749.80,3713.968356919,N,13701.454774748,E,4,13,0.95,96.489,M,37.566,M,112.8,2006*58
[2021-02-22 16:17:50.473] $GNGGA,071749.90,3713.968357054,N,13701.454773443,E,4,13,0.95,96.489,M,37.566,M,112.9,2006*56
[2021-02-22 16:17:50.582] $GNGGA,071750.00,3713.968357892,N,13701.454773168,E,4,13,0.95,96.488,M,37.566,M,113.0,2006*50
[2021-02-22 16:17:50.676] $GNGGA,071750.10,3713.968357722,N,13701.454771588,E,4,13,0.95,96.489,M,37.566,M,113.1,2006*5D
[2021-02-22 16:17:50.785] $GNGGA,071750.20,3713.968356933,N,13701.454770611,E,4,13,0.95,96.489,M,37.566,M,113.2,2006*50
[2021-02-22 16:17:50.895] $GNGGA,071750.30,3713.968356768,N,13701.454770095,E,4,13,0.95,96.489,M,37.566,M,113.3,2006*5A
[2021-02-22 16:17:50.973] $GNGGA,071750.40,3713.968355592,N,13701.454770110,E,4,13,0.95,96.489,M,37.566,M,113.4,2006*52
[2021-02-22 16:17:51.082] $GNGGA,071750.50,3713.968354606,N,13701.454769491,E,4,13,0.95,96.489,M,37.566,M,113.5,2006*59
[2021-02-22 16:17:51.176] $GNGGA,071750.60,3713.968354922,N,13701.454768800,E,4,13,0.95,96.488,M,37.566,M,113.6,2006*54
[2021-02-22 16:17:51.301] $GNGGA,071750.70,3713.968354242,N,13701.454770157,E,4,13,0.95,96.487,M,37.566,M,113.7,2006*54
[2021-02-22 16:17:51.379] $GNGGA,071750.80,3713.968353462,N,13701.454771403,E,4,13,0.95,96.488,M,37.566,M,113.8,2006*5D
[2021-02-22 16:17:51.473] $GNGGA,071750.90,3713.968353730,N,13701.454772200,E,4,13,0.95,96.492,M,37.566,M,113.9,2006*54
[2021-02-22 16:17:51.582] $GNGGA,071751.00,3713.968352892,N,13701.454774985,E,4,13,0.95,96.493,M,37.566,M,114.0,2006*55
[2021-02-22 16:17:51.691] $GNGGA,071751.10,3713.968354310,N,13701.454776169,E,4,13,0.95,96.492,M,37.566,M,114.1,2006*5B
[2021-02-22 16:17:51.785] $GNGGA,071751.20,3713.968355227,N,13701.454779438,E,4,13,0.95,96.488,M,37.566,M,114.2,2006*5A
[2021-02-22 16:17:51.879] $GNGGA,071751.30,3713.968356195,N,13701.454781252,E,4,13,0.95,96.489,M,37.566,M,114.3,2006*5F
[2021-02-22 16:17:51.973] $GNGGA,071751.40,3713.968357222,N,13701.454781189,E,4,13,0.95,96.483,M,37.566,M,114.4,2006*5E
[2021-02-22 16:17:52.098] $GNGGA,071751.50,3713.968358589,N,13701.454780722,E,4,13,0.95,96.483,M,37.566,M,114.5,2006*51
[2021-02-22 16:17:52.176] $GNGGA,071751.60,3713.968357188,N,13701.454780682,E,4,13,0.95,96.488,M,37.566,M,114.6,2006*5B
[2021-02-22 16:17:52.285] $GNGGA,071751.70,3713.968357393,N,13701.454779602,E,4,13,0.95,96.485,M,37.566,M,114.7,2006*50
[2021-02-22 16:17:52.379] $GNGGA,071751.80,3713.968356737,N,13701.454779793,E,4,13,0.95,96.485,M,37.566,M,114.8,2006*52
[2021-02-22 16:17:52.504] $GNGGA,071751.90,3713.968357335,N,13701.454779047,E,4,13,0.95,96.484,M,37.566,M,114.9,2006*5A
[2021-02-22 16:17:52.582] $GNGGA,071752.00,3713.968357755,N,13701.454778769,E,4,13,0.95,96.486,M,37.566,M,115.0,2006*52
[2021-02-22 16:17:52.676] $GNGGA,071752.10,3713.968358994,N,13701.454778845,E,4,13,0.95,96.484,M,37.566,M,115.1,2006*5D
[2021-02-22 16:17:52.785] $GNGGA,071752.20,3713.968359882,N,13701.454778846,E,4,13,0.95,96.482,M,37.566,M,115.2,2006*5F
[2021-02-22 16:17:52.879] $GNGGA,071752.30,3713.968359563,N,13701.454778763,E,4,13,0.95,96.482,M,37.566,M,115.3,2006*55
[2021-02-22 16:17:53.004] $GNGGA,071752.40,3713.968359039,N,13701.454779512,E,4,13,0.95,96.481,M,37.566,M,115.4,2006*59
[2021-02-22 16:17:53.082] $GNGGA,071752.50,3713.968358263,N,13701.454780454,E,4,13,0.95,96.484,M,37.566,M,115.5,2006*55
[2021-02-22 16:17:53.176] $GNGGA,071752.60,3713.968357101,N,13701.454781199,E,4,13,0.95,96.483,M,37.566,M,115.6,2006*5F
[2021-02-22 16:17:53.285] $GNGGA,071752.70,3713.968357554,N,13701.454780333,E,4,13,0.95,96.486,M,37.566,M,115.7,2006*5D
[2021-02-22 16:17:53.379] $GNGGA,071752.80,3713.968358878,N,13701.454780824,E,4,13,0.95,96.484,M,37.566,M,115.8,2006*5E
[2021-02-22 16:17:53.504] $GNGGA,071752.90,3713.968358807,N,13701.454780852,E,4,13,0.95,96.486,M,37.566,M,115.9,2006*55
[2021-02-22 16:17:53.582] $GNGGA,071753.00,3713.968359770,N,13701.454781491,E,4,13,0.95,96.484,M,37.566,M,116.0,2006*59
[2021-02-22 16:17:53.676] $GNGGA,071753.10,3713.968360008,N,13701.454782302,E,4,13,0.95,96.484,M,37.566,M,116.1,2006*55
[2021-02-22 16:17:53.785] $GNGGA,071753.20,3713.968358400,N,13701.454784091,E,4,13,0.95,96.485,M,37.566,M,116.2,2006*5C
[2021-02-22 16:17:53.879] $GNGGA,071753.30,3713.968357262,N,13701.454785684,E,4,13,0.95,96.485,M,37.566,M,116.3,2006*52
[2021-02-22 16:17:54.004] $GNGGA,071753.40,3713.968356134,N,13701.454787436,E,4,13,0.95,96.484,M,37.566,M,116.4,2006*5B
[2021-02-22 16:17:54.082] $GNGGA,071753.50,3713.968355299,N,13701.454788104,E,4,13,0.95,96.483,M,37.566,M,116.5,2006*50
[2021-02-22 16:17:54.176] $GNGGA,071753.60,3713.968356173,N,13701.454788392,E,4,13,0.95,96.484,M,37.566,M,116.6,2006*5E
[2021-02-22 16:17:54.285] $GNGGA,071753.70,3713.968358225,N,13701.454789639,E,4,13,0.95,96.482,M,37.566,M,116.7,2006*53
[2021-02-22 16:17:54.379] $GNGGA,071753.80,3713.968359909,N,13701.454789334,E,4,13,0.95,96.482,M,37.566,M,116.8,2006*5F
[2021-02-22 16:17:54.504] $GNGGA,071753.90,3713.968360992,N,13701.454789373,E,4,13,0.95,96.483,M,37.566,M,116.9,2006*55
[2021-02-22 16:17:54.582] $GNGGA,071754.00,3713.968361523,N,13701.454791370,E,4,13,0.95,96.484,M,37.566,M,117.0,2006*59
[2021-02-22 16:17:54.675] $GNGGA,071754.10,3713.968361435,N,13701.454792299,E,4,13,0.95,96.484,M,37.566,M,117.1,2006*5A
[2021-02-22 16:17:54.785] $GNGGA,071754.20,3713.968361997,N,13701.454791927,E,4,13,0.95,96.483,M,37.566,M,117.2,2006*55
[2021-02-22 16:17:54.879] $GNGGA,071754.30,3713.968362884,N,13701.454789370,E,4,13,0.95,96.484,M,37.566,M,117.3,2006*53
[2021-02-22 16:17:55.004] $GNGGA,071754.40,3713.968363234,N,13701.454788263,E,4,13,0.95,96.483,M,37.566,M,117.4,2006*56
[2021-02-22 16:17:55.082] $GNGGA,071754.50,3713.968364144,N,13701.454787746,E,4,13,0.95,96.483,M,37.566,M,117.5,2006*58
[2021-02-22 16:17:55.176] $GNGGA,071754.60,3713.968364557,N,13701.454787716,E,4,13,0.95,96.482,M,37.566,M,117.6,2006*5A
[2021-02-22 16:17:55.285] $GNGGA,071754.70,3713.968364932,N,13701.454786209,E,4,13,0.95,96.482,M,37.566,M,117.7,2006*5F
[2021-02-22 16:17:55.379] $GNGGA,071754.80,3713.968364977,N,13701.454786312,E,4,13,0.95,96.481,M,37.566,M,117.8,2006*56
[2021-02-22 16:17:55.504] $GNGGA,071754.90,3713.968365641,N,13701.454785039,E,4,13,0.95,96.481,M,37.566,M,117.9,2006*54
[2021-02-22 16:17:55.582] $GNGGA,071755.00,3713.968365123,N,13701.454785322,E,4,13,0.95,96.486,M,37.566,M,118.0,2006*57
[2021-02-22 16:17:55.675] $GNGGA,071755.10,3713.968365649,N,13701.454784330,E,4,13,0.95,96.488,M,37.566,M,118.1,2006*50
[2021-02-22 16:17:55.785] $GNGGA,071755.20,3713.968365626,N,13701.454783952,E,4,13,0.95,96.489,M,37.566,M,118.2,2006*51
[2021-02-22 16:17:55.894] $GNGGA,071755.30,3713.968364998,N,13701.454783627,E,4,13,0.95,96.490,M,37.566,M,118.3,2006*5F
[2021-02-22 16:17:55.972] $GNGGA,071755.40,3713.968364121,N,13701.454784398,E,4,13,0.95,96.490,M,37.566,M,118.4,2006*53
[2021-02-22 16:17:56.082] $GNGGA,071755.50,3713.968362800,N,13701.454784595,E,4,13,0.95,96.486,M,37.566,M,118.5,2006*53
[2021-02-22 16:17:56.175] $GNGGA,071755.60,3713.968361220,N,13701.454785185,E,4,13,0.95,96.486,M,37.566,M,118.6,2006*5C
[2021-02-22 16:17:56.300] $GNGGA,071755.70,3713.968360433,N,13701.454785048,E,4,13,0.95,96.489,M,37.566,M,118.7,2006*56
[2021-02-22 16:17:56.379] $GNGGA,071755.80,3713.968361056,N,13701.454784078,E,4,13,0.95,96.488,M,37.566,M,118.8,2006*53
[2021-02-22 16:17:56.472] $GNGGA,071755.90,3713.968360879,N,13701.454782440,E,4,13,0.95,96.486,M,37.566,M,118.9,2006*50
[2021-02-22 16:17:56.582] $GNGGA,071756.00,3713.968360405,N,13701.454780442,E,4,13,0.95,96.486,M,37.566,M,119.0,2006*55
[2021-02-22 16:17:56.691] $GNGGA,071756.10,3713.968356058,N,13701.454779223,E,4,12,1.08,96.513,M,37.566,M,4.1,2006*5F
[2021-02-22 16:17:56.785] $GNGGA,071756.20,3713.968353781,N,13701.454778200,E,4,13,0.95,96.531,M,37.566,M,4.2,2006*5D
[2021-02-22 16:17:56.879] $GNGGA,071756.30,3713.968353092,N,13701.454777759,E,4,13,0.95,96.542,M,37.566,M,4.3,2006*5A
[2021-02-22 16:17:56.972] $GNGGA,071756.40,3713.968352072,N,13701.454777987,E,4,13,0.95,96.547,M,37.566,M,4.4,2006*5D
[2021-02-22 16:17:57.097] $GNGGA,071756.50,3713.968352080,N,13701.454777686,E,4,13,0.95,96.554,M,37.566,M,4.5,2006*5C
[2021-02-22 16:17:57.175] $GNGGA,071756.60,3713.968351776,N,13701.454776568,E,4,13,0.95,96.557,M,37.566,M,4.6,2006*50
[2021-02-22 16:17:57.285] $GNGGA,071756.70,3713.968351932,N,13701.454776576,E,4,13,0.95,96.562,M,37.566,M,4.7,2006*57
[2021-02-22 16:17:57.378] $GNGGA,071756.80,3713.968352715,N,13701.454776663,E,4,13,0.95,96.559,M,37.566,M,4.8,2006*50
[2021-02-22 16:17:57.503] $GNGGA,071756.90,3713.968352622,N,13701.454776131,E,4,13,0.95,96.567,M,37.566,M,4.9,2006*58
[2021-02-22 16:17:57.582] $GNGGA,071757.00,3713.968351902,N,13701.454776241,E,4,13,0.95,96.566,M,37.566,M,5.0,2006*53
[2021-02-22 16:17:57.675] $GNGGA,071757.10,3713.968350901,N,13701.454775843,E,4,13,0.95,96.569,M,37.566,M,5.1,2006*55
[2021-02-22 16:17:57.785] $GNGGA,071757.20,3713.968351672,N,13701.454776132,E,4,13,0.95,96.567,M,37.566,M,5.2,2006*5D
[2021-02-22 16:17:57.878] $GNGGA,071757.30,3713.968351743,N,13701.454775075,E,4,13,0.95,96.567,M,37.566,M,5.3,2006*5F
[2021-02-22 16:17:58.003] $GNGGA,071757.40,3713.968351840,N,13701.454775293,E,4,13,0.95,96.569,M,37.566,M,5.4,2006*57
[2021-02-22 16:17:58.082] $GNGGA,071757.50,3713.968352895,N,13701.454775012,E,4,13,0.95,96.566,M,37.566,M,5.5,2006*58
[2021-02-22 16:17:58.175] $GNGGA,071757.60,3713.968353436,N,13701.454775132,E,4,13,0.95,96.565,M,37.566,M,5.6,2006*5C
[2021-02-22 16:17:58.285] $GNGGA,071757.70,3713.968354659,N,13701.454775602,E,4,13,0.95,96.565,M,37.566,M,5.7,2006*54
[2021-02-22 16:17:58.378] $GNGGA,071757.80,3713.968355784,N,13701.454776024,E,4,13,0.95,96.563,M,37.566,M,5.8,2006*53
[2021-02-22 16:17:58.503] $GNGGA,071757.90,3713.968355022,N,13701.454776858,E,4,13,0.95,96.567,M,37.566,M,5.9,2006*5F
[2021-02-22 16:17:58.582] $GNGGA,071758.00,3713.968354912,N,13701.454777778,E,4,13,0.95,96.566,M,37.566,M,6.0,2006*55
[2021-02-22 16:17:58.675] $GNGGA,071758.10,3713.968354573,N,13701.454776931,E,4,13,0.95,96.568,M,37.566,M,1.1,2006*55
[2021-02-22 16:17:58.785] $GNGGA,071758.20,3713.968354974,N,13701.454777922,E,4,13,0.95,96.567,M,37.566,M,1.2,2006*52
[2021-02-22 16:17:58.878] $GNGGA,071758.30,3713.968354556,N,13701.454777887,E,4,13,0.95,96.570,M,37.566,M,1.3,2006*56
[2021-02-22 16:17:59.003] $GNGGA,071758.40,3713.968354340,N,13701.454777664,E,4,13,0.95,96.572,M,37.566,M,1.4,2006*56
[2021-02-22 16:17:59.081] $GNGGA,071758.50,3713.968354392,N,13701.454777515,E,4,13,0.95,96.568,M,37.566,M,1.5,2006*57
[2021-02-22 16:17:59.175] $GNGGA,071758.60,3713.968354626,N,13701.454778213,E,4,13,0.95,96.571,M,37.566,M,1.6,2006*5B
[2021-02-22 16:17:59.285] $GNGGA,071758.70,3713.968353460,N,13701.454777679,E,4,13,0.95,96.575,M,37.566,M,1.7,2006*5F
[2021-02-22 16:17:59.378] $GNGGA,071758.80,3713.968353177,N,13701.454777347,E,4,13,0.95,96.570,M,37.566,M,1.8,2006*51
[2021-02-22 16:17:59.503] $GNGGA,071758.90,3713.968352372,N,13701.454777108,E,4,13,0.95,96.572,M,37.566,M,1.9,2006*5C
[2021-02-22 16:17:59.581] $GNGGA,071759.00,3713.968352120,N,13701.454777291,E,4,13,0.95,96.571,M,37.566,M,2.0,2006*5B
[2021-02-22 16:17:59.675] $GNGGA,071759.10,3713.968350612,N,13701.454776112,E,4,13,0.95,96.567,M,37.566,M,2.1,2006*51
[2021-02-22 16:17:59.785] $GNGGA,071759.20,3713.968349850,N,13701.454776942,E,4,13,0.95,96.566,M,37.566,M,2.2,2006*5D
[2021-02-22 16:17:59.894] $GNGGA,071759.30,3713.968349623,N,13701.454777945,E,4,13,0.95,96.566,M,37.566,M,2.3,2006*51
[2021-02-22 16:17:59.972] $GNGGA,071759.40,3713.968349474,N,13701.454778330,E,4,13,0.95,96.562,M,37.566,M,2.4,2006*52
[2021-02-22 16:18:00.081] $GNGGA,071759.50,3713.968349831,N,13701.454778325,E,4,13,0.95,96.563,M,37.566,M,2.5,2006*5A
[2021-02-22 16:18:00.175] $GNGGA,071759.60,3713.968349502,N,13701.454778848,E,4,13,0.95,96.562,M,37.566,M,2.6,2006*56
[2021-02-22 16:18:00.300] $GNGGA,071759.70,3713.968349297,N,13701.454778098,E,4,13,0.95,96.567,M,37.566,M,2.7,2006*5D
[2021-02-22 16:18:00.378] $GNGGA,071759.80,3713.968349652,N,13701.454778948,E,4,13,0.95,96.565,M,37.566,M,2.8,2006*56
[2021-02-22 16:18:00.472] $GNGGA,071759.90,3713.968349110,N,13701.454779972,E,4,13,0.95,96.569,M,37.566,M,2.9,2006*53
[2021-02-22 16:18:00.581] $GNGGA,071800.00,3713.968349789,N,13701.454781123,E,4,13,0.95,96.565,M,37.566,M,3.0,2006*50
[2021-02-22 16:18:00.691] $GNGGA,071800.10,3713.968350547,N,13701.454781315,E,4,13,0.95,96.570,M,37.566,M,3.1,2006*5B
