
[2021-02-22 16:13:46.555] $GPGGA,071335.00,,,,,0,00,0.0,,M,,M,0,0000*55
[2021-02-22 16:13:46.586] $GPGGA,071335.10,,,,,0,00,0.0,,M,,M,0,0000*54
[2021-02-22 16:13:46.586] $GPGGA,071335.20,,,,,0,00,0.0,,M,,M,0,0000*57
[2021-02-22 16:13:46.586] $GPGGA,071335.30,,,,,0,00,0.0,,M,,M,0,0000*56
[2021-02-22 16:13:46.586] $GPGGA,071335.40,,,,,0,00,0.0,,M,,M,0,0000*51
[2021-02-22 16:13:46.586] $GPGGA,071335.50,,,,,0,00,0.0,,M,,M,0,0000*50
[2021-02-22 16:13:46.586] $GPGGA,071335.60,,,,,0,00,0.0,,M,,M,0,0000*53
[2021-02-22 16:13:46.586] $GPGGA,071335.70,,,,,0,00,0.0,,M,,M,0,0000*52
[2021-02-22 16:13:46.586] $GPGGA,071335.80,,,,,0,00,0.0,,M,,M,0,0000*5D
[2021-02-22 16:13:46.586] $GPGGA,071335.90,,,,,0,00,0.0,,M,,M,0,0000*5C
[2021-02-22 16:13:46.586] $GPGGA,071336.00,,,,,0,00,0.0,,M,,M,0,0000*56
[2021-02-22 16:13:46.586] $GPGGA,071336.10,,,,,0,00,0.0,,M,,M,0,0000*57
[2021-02-22 16:13:46.586] $GPGGA,071336.20,,,,,0,00,0.0,,M,,M,0,0000*54
[2021-02-22 16:13:46.586] $GPGGA,071336.30,,,,,0,00,0.0,,M,,M,0,0000*55
[2021-02-22 16:13:46.586] $GPGGA,071336.40,,,,,0,00,0.0,,M,,M,0,0000*52
[2021-02-22 16:13:46.586] $GPGGA,071336.50,,,,,0,00,0.0,,M,,M,0,0000*53
[2021-02-22 16:13:46.586] $GPGGA,071336.60,,,,,0,00,0.0,,M,,M,0,0000*50
[2021-02-22 16:13:46.586] $GPGGA,071336.70,,,,,0,00,0.0,,M,,M,0,0000*51
[2021-02-22 16:13:46.586] $GPGGA,071336.80,,,,,0,00,0.0,,M,,M,0,0000*5E
[2021-02-22 16:13:46.586] $GPGGA,071336.90,,,,,0,00,0.0,,M,,M,0,0000*5F
[2021-02-22 16:13:46.586] $GPGGA,071337.00,,,,,0,00,0.0,,M,,M,0,0000*57
[2021-02-22 16:13:46.586] $GPGGA,071337.10,,,,,0,00,0.0,,M,,M,0,0000*56
[2021-02-22 16:13:46.586] $GPGGA,071337.20,,,,,0,00,0.0,,M,,M,0,0000*55
[2021-02-22 16:13:46.602] $GPGGA,071337.30,,,,,0,00,0.0,,M,,M,0,0000*54
[2021-02-22 16:13:46.602] $GPGGA,071337.40,,,,,0,00,0.0,,M,,M,0,0000*53
[2021-02-22 16:13:46.602] $GPGGA,071337.50,,,,,0,00,0.0,,M,,M,0,0000*52
[2021-02-22 16:13:46.602] $GPGGA,071337.60,,,,,0,00,0.0,,M,,M,0,0000*51
[2021-02-22 16:13:46.602] $GPGGA,071337.70,,,,,0,00,0.0,,M,,M,0,0000*50
[2021-02-22 16:13:46.602] $GPGGA,071337.80,,,,,0,00,0.0,,M,,M,0,0000*5F
[2021-02-22 16:13:46.602] $GPGGA,071337.90,,,,,0,00,0.0,,M,,M,0,0000*5E
[2021-02-22 16:13:46.602] $GPGGA,071338.00,,,,,0,00,0.0,,M,,M,0,0000*58
[2021-02-22 16:13:46.602] $GPGGA,071338.10,,,,,0,00,0.0,,M,,M,0,0000*59
[2021-02-22 16:13:46.602] $GPGGA,071338.20,,,,,0,00,0.0,,M,,M,0,0000*5A
[2021-02-22 16:13:46.602] $GPGGA,071338.30,,,,,0,00,0.0,,M,,M,0,0000*5B
[2021-02-22 16:13:46.602] $GPGGA,071338.40,,,,,0,00,0.0,,M,,M,0,0000*5C
[2021-02-22 16:13:46.602] $GPGGA,071338.50,,,,,0,00,0.0,,M,,M,0,0000*5D
[2021-02-22 16:13:46.602] $GPGGA,071338.60,,,,,0,00,0.0,,M,,M,0,0000*5E
[2021-02-22 16:13:46.602] $GPGGA,071338.70,,,,,0,00,0.0,,M,,M,0,0000*5F
[2021-02-22 16:13:46.602] $GPGGA,071338.80,,,,,0,00,0.0,,M,,M,0,0000*50
[2021-02-22 16:13:46.602] $GPGGA,071338.90,,,,,0,00,0.0,,M,,M,0,0000*51
[2021-02-22 16:13:46.602] $GPGGA,071339.00,,,,,0,00,0.0,,M,,M,0,0000*59
[2021-02-22 16:13:46.602] $GPGGA,071339.10,,,,,0,00,0.0,,M,,M,0,0000*58
[2021-02-22 16:13:46.602] $GPGGA,071339.20,,,,,0,00,0.0,,M,,M,0,0000*5B
[2021-02-22 16:13:46.602] $GPGGA,071339.30,,,,,0,00,0.0,,M,,M,0,0000*5A
[2021-02-22 16:13:46.602] $GPGGA,071339.40,,,,,0,00,0.0,,M,,M,0,0000*5D
[2021-02-22 16:13:46.633] $GPGGA,071339.50,,,,,0,00,0.0,,M,,M,0,0000*5C
[2021-02-22 16:13:46.633] $GPGGA,071339.60,,,,,0,00,0.0,,M,,M,0,0000*5F
[2021-02-22 16:13:46.633] $GPGGA,071339.70,,,,,0,00,0.0,,M,,M,0,0000*5E
[2021-02-22 16:13:46.633] $GPGGA,071339.80,,,,,0,00,0.0,,M,,M,0,0000*51
[2021-02-22 16:13:46.633] $GPGGA,071339.90,,,,,0,00,0.0,,M,,M,0,0000*50
[2021-02-22 16:13:46.633] $GPGGA,071340.00,,,,,0,00,0.0,,M,,M,0,0000*57
[2021-02-22 16:13:46.633] $GPGGA,071340.10,,,,,0,00,0.0,,M,,M,0,0000*56
[2021-02-22 16:13:46.633] $GPGGA,071340.20,,,,,0,00,0.0,,M,,M,0,0000*55
[2021-02-22 16:13:46.633] $GPGGA,071340.30,,,,,0,00,0.0,,M,,M,0,0000*54
[2021-02-22 16:13:46.633] $GPGGA,071340.40,,,,,0,00,0.0,,M,,M,0,0000*53
[2021-02-22 16:13:46.633] $GPGGA,071340.50,,,,,0,00,0.0,,M,,M,0,0000*52
[2021-02-22 16:13:46.633] $GPGGA,071340.60,,,,,0,00,0.0,,M,,M,0,0000*51
[2021-02-22 16:13:46.633] $GPGGA,071340.70,,,,,0,00,0.0,,M,,M,0,0000*50
[2021-02-22 16:13:46.633] $GPGGA,071340.80,,,,,0,00,0.0,,M,,M,0,0000*5F
[2021-02-22 16:13:46.633] $GPGGA,071340.90,,,,,0,00,0.0,,M,,M,0,0000*5E
[2021-02-22 16:13:46.633] $GPGGA,071341.00,,,,,0,00,0.0,,M,,M,0,0000*56
[2021-02-22 16:13:46.633] $GPGGA,071341.10,,,,,0,00,0.0,,M,,M,0,0000*57
[2021-02-22 16:13:46.633] $GPGGA,071341.20,,,,,0,00,0.0,,M,,M,0,0000*54
[2021-02-22 16:13:46.633] $GPGGA,071341.30,,,,,0,00,0.0,,M,,M,0,0000*55
[2021-02-22 16:13:46.633] $GPGGA,071341.40,,,,,0,00,0.0,,M,,M,0,0000*52
[2021-02-22 16:13:46.633] $GPGGA,071341.50,,,,,0,00,0.0,,M,,M,0,0000*53
[2021-02-22 16:13:46.649] $GPGGA,071341.60,,,,,0,00,0.0,,M,,M,0,0000*50
[2021-02-22 16:13:46.649] $GPGGA,071341.70,,,,,0,00,0.0,,M,,M,0,0000*51
[2021-02-22 16:13:46.649] $GPGGA,071341.80,,,,,0,00,0.0,,M,,M,0,0000*5E
[2021-02-22 16:13:46.649] $GPGGA,071341.90,,,,,0,00,0.0,,M,,M,0,0000*5F
[2021-02-22 16:13:46.649] $GPGGA,071342.00,,,,,0,00,0.0,,M,,M,0,0000*55
[2021-02-22 16:13:46.649] $GPGGA,071342.10,,,,,0,00,0.0,,M,,M,0,0000*54
[2021-02-22 16:13:46.649] $GPGGA,071342.20,,,,,0,00,0.0,,M,,M,0,0000*57
[2021-02-22 16:13:46.649] $GPGGA,071342.30,,,,,0,00,0.0,,M,,M,0,0000*56
[2021-02-22 16:13:46.649] $GPGGA,071342.40,,,,,0,00,0.0,,M,,M,0,0000*51
[2021-02-22 16:13:46.649] $GPGGA,071342.50,,,,,0,00,0.0,,M,,M,0,0000*50
[2021-02-22 16:13:46.649] $GPGGA,071342.60,,,,,0,00,0.0,,M,,M,0,0000*53
[2021-02-22 16:13:46.649] $GPGGA,071342.70,,,,,0,00,0.0,,M,,M,0,0000*52
[2021-02-22 16:13:46.649] $GPGGA,071342.80,,,,,0,00,0.0,,M,,M,0,0000*5D
[2021-02-22 16:13:46.649] $GPGGA,071342.90,,,,,0,00,0.0,,M,,M,0,0000*5C
[2021-02-22 16:13:46.649] $GPGGA,071343.00,,,,,0,00,0.0,,M,,M,0,0000*54
[2021-02-22 16:13:46.649] $GPGGA,071343.10,,,,,0,00,0.0,,M,,M,0,0000*55
[2021-02-22 16:13:46.649] $GPGGA,071343.20,,,,,0,00,0.0,,M,,M,0,0000*56
[2021-02-22 16:13:46.649] $GPGGA,071343.30,,,,,0,00,0.0,,M,,M,0,0000*57
[2021-02-22 16:13:46.649] $GPGGA,071343.40,,,,,0,00,0.0,,M,,M,0,0000*50
[2021-02-22 16:13:46.649] $GPGGA,071343.50,,,,,0,00,0.0,,M,,M,0,0000*51
[2021-02-22 16:13:46.649] $GPGGA,071343.60,,,,,0,00,0.0,,M,,M,0,0000*52
[2021-02-22 16:13:46.649] $GPGGA,071343.70,,,,,0,00,0.0,,M,,M,0,0000*53
[2021-02-22 16:13:46.664] $GPGGA,071343.80,,,,,0,00,0.0,,M,,M,0,0000*5C
[2021-02-22 16:13:46.664] $GPGGA,071343.90,,,,,0,00,0.0,,M,,M,0,0000*5D
[2021-02-22 16:13:46.664] $GPGGA,071344.00,,,,,0,00,0.0,,M,,M,0,0000*53
[2021-02-22 16:13:46.664] $GPGGA,071344.10,,,,,0,00,0.0,,M,,M,0,0000*52
[2021-02-22 16:13:46.664] $GPGGA,071344.20,,,,,0,00,0.0,,M,,M,0,0000*51
[2021-02-22 16:13:46.664] $GPGGA,071344.30,,,,,0,00,0.0,,M,,M,0,0000*50
[2021-02-22 16:13:46.664] $GPGGA,071344.40,,,,,0,00,0.0,,M,,M,0,0000*57
[2021-02-22 16:13:46.664] $GPGGA,071344.50,,,,,0,00,0.0,,M,,M,0,0000*56
[2021-02-22 16:13:46.664] $GPGGA,071344.60,,,,,0,00,0.0,,M,,M,0,0000*55
[2021-02-22 16:13:46.664] $GPGGA,071344.70,,,,,0,00,0.0,,M,,M,0,0000*54
[2021-02-22 16:13:46.664] $GPGGA,071344.80,,,,,0,00,0.0,,M,,M,0,0000*5B
[2021-02-22 16:13:46.664] $GPGGA,071344.90,,,,,0,00,0.0,,M,,M,0,0000*5A
[2021-02-22 16:13:46.664] $GPGGA,071345.00,,,,,0,00,0.0,,M,,M,0,0000*52
[2021-02-22 16:13:46.664] $GPGGA,071345.10,,,,,0,00,0.0,,M,,M,0,0000*53
[2021-02-22 16:13:46.664] $GPGGA,071345.20,,,,,0,00,0.0,,M,,M,0,0000*50
[2021-02-22 16:13:46.664] $GPGGA,071345.30,,,,,0,00,0.0,,M,,M,0,0000*51
[2021-02-22 16:13:46.664] $GPGGA,071345.40,,,,,0,00,0.0,,M,,M,0,0000*56
[2021-02-22 16:13:46.664] $GPGGA,071345.50,,,,,0,00,0.0,,M,,M,0,0000*57
[2021-02-22 16:13:46.664] $GPGGA,071345.60,,,,,0,00,0.0,,M,,M,0,0000*54
[2021-02-22 16:13:46.664] $GPGGA,071345.70,,,,,0,00,0.0,,M,,M,0,0000*55
[2021-02-22 16:13:46.664] $GPGGA,071345.80,,,,,0,00,0.0,,M,,M,0,0000*5A
[2021-02-22 16:13:46.664] $GPGGA,071345.90,,,,,0,00,0.0,,M,,M,0,0000*5B
[2021-02-22 16:13:46.664] $GPGGA,071346.00,,,,,0,00,0.0,,M,,M,0,0000*51
[2021-02-22 16:13:46.664] $GPGGA,071346.10,,,,,0,00,0.0,,M,,M,0,0000*50
[2021-02-22 16:13:46.664] $GPGGA,071346.20,,,,,0,00,0.0,,M,,M,0,0000*53
[2021-02-22 16:13:46.680] $GPGGA,071346.30,,,,,0,00,0.0,,M,,M,0,0000*52
[2021-02-22 16:13:46.774] $GPGGA,071346.40,,,,,0,00,0.0,,M,,M,0,0000*55
[2021-02-22 16:13:46.867] $GPGGA,071346.50,,,,,0,00,0.0,,M,,M,0,0000*54
[2021-02-22 16:13:46.992] $GPGGA,071346.60,,,,,0,00,0.0,,M,,M,0,0000*57
[2021-02-22 16:13:47.086] $GPGGA,071346.70,,,,,0,00,0.0,,M,,M,0,0000*56
[2021-02-22 16:13:47.180] $GPGGA,071346.80,,,,,0,00,0.0,,M,,M,0,0000*59
[2021-02-22 16:13:47.274] $GPGGA,071346.90,,,,,0,00,0.0,,M,,M,0,0000*58
[2021-02-22 16:13:47.399] $GPGGA,071347.00,,,,,0,00,0.0,,M,,M,0,0000*50
[2021-02-22 16:13:47.492] $GPGGA,071347.10,,,,,0,00,0.0,,M,,M,0,0000*51
[2021-02-22 16:13:47.586] $GPGGA,071347.20,,,,,0,00,0.0,,M,,M,0,0000*52
[2021-02-22 16:13:47.695] $GPGGA,071347.30,,,,,0,00,0.0,,M,,M,0,0000*53
[2021-02-22 16:13:47.789] $GPGGA,071347.40,,,,,0,00,0.0,,M,,M,0,0000*54
[2021-02-22 16:13:47.883] $GPGGA,071347.50,,,,,0,00,0.0,,M,,M,0,0000*55
[2021-02-22 16:13:47.977] $GPGGA,071347.60,,,,,0,00,0.0,,M,,M,0,0000*56
[2021-02-22 16:13:48.086] $GPGGA,071347.70,,,,,0,00,0.0,,M,,M,0,0000*57
[2021-02-22 16:13:48.195] $GPGGA,071347.80,,,,,0,00,0.0,,M,,M,0,0000*58
[2021-02-22 16:13:48.289] $GPGGA,071347.90,,,,,0,00,0.0,,M,,M,0,0000*59
[2021-02-22 16:13:48.383] $GPGGA,071348.00,,,,,0,00,0.0,,M,,M,0,0000*5F
[2021-02-22 16:13:48.492] $GPGGA,071348.10,,,,,0,00,0.0,,M,,M,0,0000*5E
[2021-02-22 16:13:48.586] $GPGGA,071348.20,,,,,0,00,0.0,,M,,M,0,0000*5D
[2021-02-22 16:13:48.680] $GPGGA,071348.30,,,,,0,00,0.0,,M,,M,0,0000*5C
[2021-02-22 16:13:48.773] $GPGGA,071348.40,,,,,0,00,0.0,,M,,M,0,0000*5B
[2021-02-22 16:13:48.898] $GPGGA,071348.50,,,,,0,00,0.0,,M,,M,0,0000*5A
[2021-02-22 16:13:48.992] $GPGGA,071348.60,,,,,0,00,0.0,,M,,M,0,0000*59
[2021-02-22 16:13:49.086] $GPGGA,071348.70,,,,,0,00,0.0,,M,,M,0,0000*58
[2021-02-22 16:13:49.180] $GPGGA,071348.80,,,,,0,00,0.0,,M,,M,0,0000*57
[2021-02-22 16:13:49.289] $GPGGA,071348.90,,,,,0,00,0.0,,M,,M,0,0000*56
[2021-02-22 16:13:49.398] $GPGGA,071349.00,,,,,0,00,0.0,,M,,M,0,0000*5E
[2021-02-22 16:13:49.477] $GPGGA,071349.10,,,,,0,00,0.0,,M,,M,0,0000*5F
[2021-02-22 16:13:49.586] $GPGGA,071349.20,,,,,0,00,0.0,,M,,M,0,0000*5C
[2021-02-22 16:13:49.695] $GPGGA,071349.30,,,,,0,00,0.0,,M,,M,0,0000*5D
[2021-02-22 16:13:49.789] $GPGGA,071349.40,,,,,0,00,0.0,,M,,M,0,0000*5A
[2021-02-22 16:13:49.883] $GPGGA,071349.50,,,,,0,00,0.0,,M,,M,0,0000*5B
[2021-02-22 16:13:49.977] $GPGGA,071349.60,,,,,0,00,0.0,,M,,M,0,0000*58
[2021-02-22 16:13:50.070] $GPGGA,071349.70,,,,,0,00,0.0,,M,,M,0,0000*59
[2021-02-22 16:13:50.195] $GPGGA,071349.80,,,,,0,00,0.0,,M,,M,0,0000*56
[2021-02-22 16:13:50.289] $GPGGA,071349.90,,,,,0,00,0.0,,M,,M,0,0000*57
[2021-02-22 16:13:50.383] $GPGGA,071350.00,,,,,0,00,0.0,,M,,M,0,0000*56
[2021-02-22 16:13:50.476] $GPGGA,071350.10,,,,,0,00,0.0,,M,,M,0,0000*57
[2021-02-22 16:13:50.586] $GPGGA,071350.20,,,,,0,00,0.0,,M,,M,0,0000*54
[2021-02-22 16:13:50.680] $GPGGA,071350.30,,,,,0,00,0.0,,M,,M,0,0000*55
[2021-02-22 16:13:50.773] $GPGGA,071350.40,,,,,0,00,0.0,,M,,M,0,0000*52
[2021-02-22 16:13:50.867] $GPGGA,071350.50,,,,,0,00,0.0,,M,,M,0,0000*53
[2021-02-22 16:13:50.992] $GPGGA,071350.60,,,,,0,00,0.0,,M,,M,0,0000*50
[2021-02-22 16:13:51.086] $GPGGA,071350.70,,,,,0,00,0.0,,M,,M,0,0000*51
[2021-02-22 16:13:51.180] $GPGGA,071350.80,,,,,0,00,0.0,,M,,M,0,0000*5E
[2021-02-22 16:13:51.289] $GPGGA,071350.90,,,,,0,00,0.0,,M,,M,0,0000*5F
[2021-02-22 16:13:51.398] $GPGGA,071351.00,,,,,0,00,0.0,,M,,M,0,0000*57
[2021-02-22 16:13:51.476] $GPGGA,071351.10,,,,,0,00,0.0,,M,,M,0,0000*56
[2021-02-22 16:13:51.586] $GPGGA,071351.20,,,,,0,00,0.0,,M,,M,0,0000*55
[2021-02-22 16:13:51.695] $GPGGA,071351.30,,,,,0,00,0.0,,M,,M,0,0000*54
[2021-02-22 16:13:51.789] $GPGGA,071351.40,,,,,0,00,0.0,,M,,M,0,0000*53
[2021-02-22 16:13:51.883] $GPGGA,071351.50,,,,,0,00,0.0,,M,,M,0,0000*52
[2021-02-22 16:13:51.976] $GPGGA,071351.60,,,,,0,00,0.0,,M,,M,0,0000*51
[2021-02-22 16:13:52.101] $GPGGA,071351.70,,,,,0,00,0.0,,M,,M,0,0000*50
[2021-02-22 16:13:52.195] $GPGGA,071351.80,,,,,0,00,0.0,,M,,M,0,0000*5F
[2021-02-22 16:13:52.304] $GPGGA,071351.90,,,,,0,00,0.0,,M,,M,0,0000*5E
[2021-02-22 16:13:52.383] $GPGGA,071352.00,,,,,0,00,0.0,,M,,M,0,0000*54
[2021-02-22 16:13:52.492] $GPGGA,071352.10,,,,,0,00,0.0,,M,,M,0,0000*55
[2021-02-22 16:13:52.586] $GPGGA,071352.20,,,,,0,00,0.0,,M,,M,0,0000*56
[2021-02-22 16:13:52.695] $GPGGA,071352.30,,,,,0,00,0.0,,M,,M,0,0000*57
[2021-02-22 16:13:52.773] $GPGGA,071352.40,,,,,0,00,0.0,,M,,M,0,0000*50
[2021-02-22 16:13:52.898] $GPGGA,071352.50,,,,,0,00,0.0,,M,,M,0,0000*51
[2021-02-22 16:13:52.992] $GPGGA,071352.60,,,,,0,00,0.0,,M,,M,0,0000*52
[2021-02-22 16:13:53.086] $GPGGA,071352.70,,,,,0,00,0.0,,M,,M,0,0000*53
[2021-02-22 16:13:53.211] $GPGGA,071352.80,,,,,0,00,0.0,,M,,M,0,0000*5C
[2021-02-22 16:13:53.289] $GPGGA,071352.90,,,,,0,00,0.0,,M,,M,0,0000*5D
[2021-02-22 16:13:53.383] $GPGGA,071353.00,,,,,0,00,0.0,,M,,M,0,0000*55
[2021-02-22 16:13:53.492] $GPGGA,071353.10,,,,,0,00,0.0,,M,,M,0,0000*54
[2021-02-22 16:13:53.601] $GPGGA,071353.20,,,,,0,00,0.0,,M,,M,0,0000*57
[2021-02-22 16:13:53.695] $GPGGA,071353.30,,,,,0,00,0.0,,M,,M,0,0000*56
[2021-02-22 16:13:53.789] $GPGGA,071353.40,,,,,0,00,0.0,,M,,M,0,0000*51
[2021-02-22 16:13:53.898] $GPGGA,071353.50,,,,,0,00,0.0,,M,,M,0,0000*50
[2021-02-22 16:13:53.976] $GPGGA,071353.60,,,,,0,00,0.0,,M,,M,0,0000*53
[2021-02-22 16:13:54.101] $GPGGA,071353.70,,,,,0,00,0.0,,M,,M,0,0000*52
[2021-02-22 16:13:54.179] $GPGGA,071353.80,,,,,0,00,0.0,,M,,M,0,0000*5D
[2021-02-22 16:13:54.289] $GPGGA,071353.90,,,,,0,00,0.0,,M,,M,0,0000*5C
[2021-02-22 16:13:54.382] $GPGGA,071354.00,,,,,0,00,0.0,,M,,M,0,0000*52
[2021-02-22 16:13:54.476] $GPGGA,071354.10,,,,,0,00,0.0,,M,,M,0,0000*53
[2021-02-22 16:13:54.586] $GPGGA,071354.20,,,,,0,00,0.0,,M,,M,0,0000*50
[2021-02-22 16:13:54.679] $GPGGA,071354.30,,,,,0,00,0.0,,M,,M,0,0000*51
[2021-02-22 16:13:54.773] $GPGGA,071354.40,,,,,0,00,0.0,,M,,M,0,0000*56
[2021-02-22 16:13:54.898] $GPGGA,071354.50,,,,,0,00,0.0,,M,,M,0,0000*57
[2021-02-22 16:13:54.992] $GPGGA,071354.60,,,,,0,00,0.0,,M,,M,0,0000*54
[2021-02-22 16:13:55.086] $GPGGA,071354.70,,,,,0,00,0.0,,M,,M,0,0000*55
[2021-02-22 16:13:55.179] $GPGGA,071354.80,,,,,0,00,0.0,,M,,M,0,0000*5A
[2021-02-22 16:13:55.304] $GPGGA,071354.90,,,,,0,00,0.0,,M,,M,0,0000*5B
[2021-02-22 16:13:55.382] $GPGGA,071355.00,,,,,0,00,0.0,,M,,M,0,0000*53
[2021-02-22 16:13:55.476] $GPGGA,071355.10,,,,,0,00,0.0,,M,,M,0,0000*52
[2021-02-22 16:13:55.570] $GPGGA,071355.20,,,,,0,00,0.0,,M,,M,0,0000*51
[2021-02-22 16:13:55.695] $GPGGA,071355.30,,,,,0,00,0.0,,M,,M,0,0000*50
[2021-02-22 16:13:55.789] $GPGGA,071355.40,,,,,0,00,0.0,,M,,M,0,0000*57
[2021-02-22 16:13:55.882] $GPGGA,071355.50,,,,,0,00,0.0,,M,,M,0,0000*56
[2021-02-22 16:13:55.976] $GPGGA,071355.60,,,,,0,00,0.0,,M,,M,0,0000*55
[2021-02-22 16:13:56.101] $GPGGA,071355.70,,,,,0,00,0.0,,M,,M,0,0000*54
[2021-02-22 16:13:56.179] $GPGGA,071355.80,,,,,0,00,0.0,,M,,M,0,0000*5B
[2021-02-22 16:13:56.289] $GPGGA,071355.90,,,,,0,00,0.0,,M,,M,0,0000*5A
[2021-02-22 16:13:56.398] $GPGGA,071356.00,,,,,0,00,0.0,,M,,M,0,0000*50
[2021-02-22 16:13:56.492] $GPGGA,071356.10,,,,,0,00,0.0,,M,,M,0,0000*51
[2021-02-22 16:13:56.585] $GPGGA,071356.20,,,,,0,00,0.0,,M,,M,0,0000*52
[2021-02-22 16:13:56.695] $GPGGA,071356.30,,,,,0,00,0.0,,M,,M,0,0000*53
[2021-02-22 16:13:56.804] $GPGGA,071356.40,,,,,0,00,0.0,,M,,M,0,0000*54
[2021-02-22 16:13:56.898] $GPGGA,071356.50,,,,,0,00,0.0,,M,,M,0,0000*55
[2021-02-22 16:13:56.992] $GPGGA,071356.60,,,,,0,00,0.0,,M,,M,0,0000*56
[2021-02-22 16:13:57.085] $GPGGA,071356.70,,,,,0,00,0.0,,M,,M,0,0000*57
[2021-02-22 16:13:57.195] $GPGGA,071356.80,,,,,0,00,0.0,,M,,M,0,0000*58
[2021-02-22 16:13:57.288] $GPGGA,071356.90,,,,,0,00,0.0,,M,,M,0,0000*59
[2021-02-22 16:13:57.382] $GPGGA,071357.00,,,,,0,00,0.0,,M,,M,0,0000*51
[2021-02-22 16:13:57.492] $GPGGA,071357.10,,,,,0,00,0.0,,M,,M,0,0000*50
[2021-02-22 16:13:57.601] $GPGGA,071357.20,,,,,0,00,0.0,,M,,M,0,0000*53
[2021-02-22 16:13:57.695] $GPGGA,071357.30,,,,,0,00,0.0,,M,,M,0,0000*52
[2021-02-22 16:13:57.788] $GPGGA,071357.40,,,,,0,00,0.0,,M,,M,0,0000*55
[2021-02-22 16:13:57.882] $GPGGA,071357.50,,,,,0,00,0.0,,M,,M,0,0000*54
[2021-02-22 16:13:57.976] $GPGGA,071357.60,,,,,0,00,0.0,,M,,M,0,0000*57
[2021-02-22 16:13:58.101] $GPGGA,071357.70,,,,,0,00,0.0,,M,,M,0,0000*56
[2021-02-22 16:13:58.179] $GPGGA,071357.80,,,,,0,00,0.0,,M,,M,0,0000*59
[2021-02-22 16:13:58.288] $GPGGA,071357.90,,,,,0,00,0.0,,M,,M,0,0000*58
[2021-02-22 16:13:58.382] $GPGGA,071358.00,,,,,0,00,0.0,,M,,M,0,0000*5E
[2021-02-22 16:13:58.492] $GPGGA,071358.10,,,,,0,00,0.0,,M,,M,0,0000*5F
[2021-02-22 16:13:58.585] $GPGGA,071358.20,,,,,0,00,0.0,,M,,M,0,0000*5C
[2021-02-22 16:13:58.679] $GPGGA,071358.30,,,,,0,00,0.0,,M,,M,0,0000*5D
[2021-02-22 16:13:58.773] $GPGGA,071358.40,,,,,0,00,0.0,,M,,M,0,0000*5A
[2021-02-22 16:13:58.898] $GPGGA,071358.50,,,,,0,00,0.0,,M,,M,0,0000*5B
[2021-02-22 16:13:58.991] $GPGGA,071358.60,,,,,0,00,0.0,,M,,M,0,0000*58
[2021-02-22 16:13:59.085] $GPGGA,071358.70,,,,,0,00,0.0,,M,,M,0,0000*59
[2021-02-22 16:13:59.179] $GPGGA,071358.80,,,,,0,00,0.0,,M,,M,0,0000*56
[2021-02-22 16:13:59.288] $GPGGA,071358.90,,,,,0,00,0.0,,M,,M,0,0000*57
[2021-02-22 16:13:59.382] $GPGGA,071359.00,,,,,0,00,0.0,,M,,M,0,0000*5F
[2021-02-22 16:13:59.476] $GPGGA,071359.10,,,,,0,00,0.0,,M,,M,0,0000*5E
[2021-02-22 16:13:59.570] $GPGGA,071359.20,,,,,0,00,0.0,,M,,M,0,0000*5D
[2021-02-22 16:13:59.695] $GPGGA,071359.30,,,,,0,00,0.0,,M,,M,0,0000*5C
[2021-02-22 16:13:59.788] $GPGGA,071359.40,,,,,0,00,0.0,,M,,M,0,0000*5B
[2021-02-22 16:13:59.882] $GPGGA,071359.50,,,,,0,00,0.0,,M,,M,0,0000*5A
[2021-02-22 16:13:59.991] $GPGGA,071359.60,,,,,0,00,0.0,,M,,M,0,0000*59
[2021-02-22 16:14:00.101] $GPGGA,071359.70,,,,,0,00,0.0,,M,,M,0,0000*58
[2021-02-22 16:14:00.179] $GPGGA,071359.80,,,,,0,00,0.0,,M,,M,0,0000*57
[2021-02-22 16:14:00.288] $GPGGA,071359.90,,,,,0,00,0.0,,M,,M,0,0000*56
[2021-02-22 16:14:00.398] $GPGGA,071400.00,,,,,0,00,0.0,,M,,M,0,0000*54
[2021-02-22 16:14:00.491] $GPGGA,071400.10,,,,,0,00,0.0,,M,,M,0,0000*55
[2021-02-22 16:14:00.585] $GPGGA,071400.20,,,,,0,00,0.0,,M,,M,0,0000*56
[2021-02-22 16:14:00.679] $GPGGA,071400.30,,,,,0,00,0.0,,M,,M,0,0000*57
[2021-02-22 16:14:00.788] $GPGGA,071400.40,,,,,0,00,0.0,,M,,M,0,0000*50
[2021-02-22 16:14:00.898] $GPGGA,071400.50,,,,,0,00,0.0,,M,,M,0,0000*51
[2021-02-22 16:14:00.991] $GPGGA,071400.60,,,,,0,00,0.0,,M,,M,0,0000*52
[2021-02-22 16:14:01.085] $GPGGA,071400.70,,,,,0,00,0.0,,M,,M,0,0000*53
[2021-02-22 16:14:01.194] $GPGGA,071400.80,,,,,0,00,0.0,,M,,M,0,0000*5C
[2021-02-22 16:14:01.304] $GPGGA,071400.90,,,,,0,00,0.0,,M,,M,0,0000*5D
[2021-02-22 16:14:01.382] $GPGGA,071401.00,,,,,0,00,0.0,,M,,M,0,0000*55
[2021-02-22 16:14:01.476] $GPGGA,071401.10,,,,,0,00,0.0,,M,,M,0,0000*54
[2021-02-22 16:14:01.601] $GPGGA,071401.20,,,,,0,00,0.0,,M,,M,0,0000*57
[2021-02-22 16:14:01.694] $GPGGA,071401.30,,,,,0,00,0.0,,M,,M,0,0000*56
[2021-02-22 16:14:01.788] $GPGGA,071401.40,,,,,0,00,0.0,,M,,M,0,0000*51
[2021-02-22 16:14:01.898] $GPGGA,071401.50,,,,,0,00,0.0,,M,,M,0,0000*50
[2021-02-22 16:14:01.991] $GPGGA,071401.60,,,,,0,00,0.0,,M,,M,0,0000*53
[2021-02-22 16:14:02.101] $GPGGA,071401.70,,,,,0,00,0.0,,M,,M,0,0000*52
[2021-02-22 16:14:02.194] $GPGGA,071401.80,,,,,0,00,0.0,,M,,M,0,0000*5D
[2021-02-22 16:14:02.273] $GPGGA,071401.90,,,,,0,00,0.0,,M,,M,0,0000*5C
[2021-02-22 16:14:02.398] $GPGGA,071402.00,,,,,0,00,0.0,,M,,M,0,0000*56
[2021-02-22 16:14:02.491] $GPGGA,071402.10,,,,,0,00,0.0,,M,,M,0,0000*57
[2021-02-22 16:14:02.585] $GPGGA,071402.20,,,,,0,00,0.0,,M,,M,0,0000*54
[2021-02-22 16:14:02.679] $GPGGA,071402.30,,,,,0,00,0.0,,M,,M,0,0000*55
[2021-02-22 16:14:02.773] $GPGGA,071402.40,,,,,0,00,0.0,,M,,M,0,0000*52
[2021-02-22 16:14:02.897] $GPGGA,071402.50,,,,,0,00,0.0,,M,,M,0,0000*53
[2021-02-22 16:14:02.991] $GPGGA,071402.60,,,,,0,00,0.0,,M,,M,0,0000*50
[2021-02-22 16:14:03.085] $GPGGA,071402.70,,,,,0,00,0.0,,M,,M,0,0000*51
[2021-02-22 16:14:03.179] $GPGGA,071402.80,,,,,0,00,0.0,,M,,M,0,0000*5E
[2021-02-22 16:14:03.288] $GPGGA,071402.90,,,,,0,00,0.0,,M,,M,0,0000*5F
[2021-02-22 16:14:03.382] $GPGGA,071403.00,,,,,0,00,0.0,,M,,M,0,0000*57
[2021-02-22 16:14:03.476] $GPGGA,071403.10,,,,,0,00,0.0,,M,,M,0,0000*56
[2021-02-22 16:14:03.601] $GPGGA,071403.20,,,,,0,00,0.0,,M,,M,0,0000*55
[2021-02-22 16:14:03.694] $GPGGA,071403.30,,,,,0,00,0.0,,M,,M,0,0000*54
[2021-02-22 16:14:03.788] $GPGGA,071403.40,,,,,0,00,0.0,,M,,M,0,0000*53
[2021-02-22 16:14:03.882] $GPGGA,071403.50,,,,,0,00,0.0,,M,,M,0,0000*52
[2021-02-22 16:14:03.991] $GPGGA,071403.60,,,,,0,00,0.0,,M,,M,0,0000*51
[2021-02-22 16:14:04.100] $GPGGA,071403.70,,,,,0,00,0.0,,M,,M,0,0000*50
[2021-02-22 16:14:04.194] $GPGGA,071403.80,,,,,0,00,0.0,,M,,M,0,0000*5F
[2021-02-22 16:14:04.272] $GPGGA,071403.90,,,,,0,00,0.0,,M,,M,0,0000*5E
[2021-02-22 16:14:04.397] $GPGGA,071404.00,,,,,0,00,0.0,,M,,M,0,0000*50
[2021-02-22 16:14:04.491] $GPGGA,071404.10,,,,,0,00,0.0,,M,,M,0,0000*51
[2021-02-22 16:14:04.585] $GPGGA,071404.20,,,,,0,00,0.0,,M,,M,0,0000*52
[2021-02-22 16:14:04.679] $GPGGA,071404.30,,,,,0,00,0.0,,M,,M,0,0000*53
[2021-02-22 16:14:04.788] $GPGGA,071404.40,,,,,0,00,0.0,,M,,M,0,0000*54
[2021-02-22 16:14:04.897] $GPGGA,071404.50,,,,,0,00,0.0,,M,,M,0,0000*55
[2021-02-22 16:14:04.991] $GPGGA,071404.60,,,,,0,00,0.0,,M,,M,0,0000*56
[2021-02-22 16:14:05.085] $GPGGA,071404.70,,,,,0,00,0.0,,M,,M,0,0000*57
[2021-02-22 16:14:05.194] $GPGGA,071404.80,,,,,0,00,0.0,,M,,M,0,0000*58
[2021-02-22 16:14:05.288] $GPGGA,071404.90,,,,,0,00,0.0,,M,,M,0,0000*59
[2021-02-22 16:14:05.382] $GPGGA,071405.00,,,,,0,00,0.0,,M,,M,0,0000*51
[2021-02-22 16:14:05.507] $GPGGA,071405.10,,,,,0,00,0.0,,M,,M,0,0000*50
[2021-02-22 16:14:05.585] $GPGGA,071405.20,,,,,0,00,0.0,,M,,M,0,0000*53
[2021-02-22 16:14:05.694] $GPGGA,071405.30,,,,,0,00,0.0,,M,,M,0,0000*52
[2021-02-22 16:14:05.788] $GPGGA,071405.40,,,,,0,00,0.0,,M,,M,0,0000*55
[2021-02-22 16:14:05.897] $GPGGA,071405.50,,,,,0,00,0.0,,M,,M,0,0000*54
[2021-02-22 16:14:05.991] $GPGGA,071405.60,,,,,0,00,0.0,,M,,M,0,0000*57
[2021-02-22 16:14:06.100] $GPGGA,071405.70,,,,,0,00,0.0,,M,,M,0,0000*56
[2021-02-22 16:14:06.179] $GPGGA,071405.80,,,,,0,00,0.0,,M,,M,0,0000*59
[2021-02-22 16:14:06.272] $GPGGA,071405.90,,,,,0,00,0.0,,M,,M,0,0000*58
[2021-02-22 16:14:06.397] $GPGGA,071406.00,,,,,0,00,0.0,,M,,M,0,0000*52
[2021-02-22 16:14:06.491] $GPGGA,071406.10,,,,,0,00,0.0,,M,,M,0,0000*53
[2021-02-22 16:14:06.585] $GPGGA,071406.20,,,,,0,00,0.0,,M,,M,0,0000*50
[2021-02-22 16:14:06.678] $GPGGA,071406.30,,,,,0,00,0.0,,M,,M,0,0000*51
[2021-02-22 16:14:06.772] $GPGGA,071406.40,,,,,0,00,0.0,,M,,M,0,0000*56
[2021-02-22 16:14:06.897] $GPGGA,071406.50,,,,,0,00,0.0,,M,,M,0,0000*57
[2021-02-22 16:14:06.991] $GPGGA,071406.60,,,,,0,00,0.0,,M,,M,0,0000*54
[2021-02-22 16:14:07.085] $GPGGA,071406.70,,,,,0,00,0.0,,M,,M,0,0000*55
[2021-02-22 16:14:07.194] $GPGGA,071406.80,,,,,0,00,0.0,,M,,M,0,0000*5A
[2021-02-22 16:14:07.288] $GPGGA,071406.90,,,,,0,00,0.0,,M,,M,0,0000*5B
[2021-02-22 16:14:07.382] $GPGGA,071407.00,,,,,0,00,0.0,,M,,M,0,0000*53
[2021-02-22 16:14:07.475] $GPGGA,071407.10,,,,,0,00,0.0,,M,,M,0,0000*52
[2021-02-22 16:14:07.585] $GPGGA,071407.20,,,,,0,00,0.0,,M,,M,0,0000*51
[2021-02-22 16:14:07.694] $GPGGA,071407.30,,,,,0,00,0.0,,M,,M,0,0000*50
[2021-02-22 16:14:07.788] $GPGGA,071407.40,,,,,0,00,0.0,,M,,M,0,0000*57
[2021-02-22 16:14:07.882] $GPGGA,071407.50,,,,,0,00,0.0,,M,,M,0,0000*56
[2021-02-22 16:14:07.991] $GPGGA,071407.60,,,,,0,00,0.0,,M,,M,0,0000*55
[2021-02-22 16:14:08.085] $GPGGA,071407.70,,,,,0,00,0.0,,M,,M,0,0000*54
[2021-02-22 16:14:08.178] $GPGGA,071407.80,,,,,0,00,0.0,,M,,M,0,0000*5B
[2021-02-22 16:14:08.272] $GPGGA,071407.90,,,,,0,00,0.0,,M,,M,0,0000*5A
[2021-02-22 16:14:08.397] $GPGGA,071408.00,,,,,0,00,0.0,,M,,M,0,0000*5C
[2021-02-22 16:14:08.491] $GPGGA,071408.10,,,,,0,00,0.0,,M,,M,0,0000*5D
[2021-02-22 16:14:08.585] $GPGGA,071408.20,,,,,0,00,0.0,,M,,M,0,0000*5E
[2021-02-22 16:14:08.678] $GPGGA,071408.30,,,,,0,00,0.0,,M,,M,0,0000*5F
[2021-02-22 16:14:08.788] $GPGGA,071408.40,,,,,0,00,0.0,,M,,M,0,0000*58
[2021-02-22 16:14:08.897] $GPGGA,071408.50,,,,,0,00,0.0,,M,,M,0,0000*59
[2021-02-22 16:14:08.991] $GPGGA,071408.60,,,,,0,00,0.0,,M,,M,0,0000*5A
[2021-02-22 16:14:09.100] $GPGGA,071408.70,,,,,0,00,0.0,,M,,M,0,0000*5B
[2021-02-22 16:14:09.194] $GPGGA,071408.80,,,,,0,00,0.0,,M,,M,0,0000*54
[2021-02-22 16:14:09.288] $GPGGA,071408.90,,,,,0,00,0.0,,M,,M,0,0000*55
[2021-02-22 16:14:09.381] $GPGGA,071409.00,,,,,0,00,0.0,,M,,M,0,0000*5D
[2021-02-22 16:14:09.506] $GPGGA,071409.10,,,,,0,00,0.0,,M,,M,0,0000*5C
[2021-02-22 16:14:09.585] $GPGGA,071409.20,,,,,0,00,0.0,,M,,M,0,0000*5F
[2021-02-22 16:14:09.694] $GPGGA,071409.30,,,,,0,00,0.0,,M,,M,0,0000*5E
[2021-02-22 16:14:09.788] $GPGGA,071409.40,,,,,0,00,0.0,,M,,M,0,0000*59
[2021-02-22 16:14:09.897] $GPGGA,071409.50,,,,,0,00,0.0,,M,,M,0,0000*58
[2021-02-22 16:14:09.991] $GPGGA,071409.60,,,,,0,00,0.0,,M,,M,0,0000*5B
[2021-02-22 16:14:10.084] $GPGGA,071409.70,,,,,0,00,0.0,,M,,M,0,0000*5A
[2021-02-22 16:14:10.178] $GPGGA,071409.80,,,,,0,00,0.0,,M,,M,0,0000*55
[2021-02-22 16:14:10.303] $GPGGA,071409.90,,,,,0,00,0.0,,M,,M,0,0000*54
[2021-02-22 16:14:10.413] $GPGGA,071410.00,3713.9713847,N,13701.4557378,E,1,06,2.7,92.7961,M,37.55,M,,*50
[2021-02-22 16:14:10.506] $GPGGA,071410.10,3713.9716441,N,13701.4556823,E,1,06,2.7,93.5373,M,37.55,M,,*50
[2021-02-22 16:14:10.584] $GPGGA,071410.20,3713.9715058,N,13701.4557869,E,1,06,2.7,93.8140,M,37.55,M,,*5C
[2021-02-22 16:14:10.709] $GPGGA,071410.30,3713.9715161,N,13701.4557312,E,1,06,2.7,93.6367,M,37.55,M,,*58
[2021-02-22 16:14:10.803] $GPGGA,071410.40,3713.9715105,N,13701.4557581,E,1,06,2.7,93.7966,M,37.55,M,,*5B
[2021-02-22 16:14:10.881] $GPGGA,071410.50,3713.9713206,N,13701.4558175,E,1,06,2.7,93.2464,M,37.55,M,,*56
[2021-02-22 16:14:11.006] $GPGGA,071410.60,3713.9712341,N,13701.4558353,E,1,06,2.7,93.0873,M,37.55,M,,*58
[2021-02-22 16:14:11.084] $GPGGA,071410.70,3713.9711178,N,13701.4559413,E,1,06,2.7,92.6538,M,37.55,M,,*55
[2021-02-22 16:14:11.209] $GPGGA,071410.80,3713.9716303,N,13701.4557705,E,1,06,2.7,93.6057,M,37.55,M,,*54
[2021-02-22 16:14:11.288] $GPGGA,071410.90,3713.9719303,N,13701.4555590,E,1,06,2.7,93.2047,M,37.55,M,,*53
[2021-02-22 16:14:11.412] $GPGGA,071411.00,3713.9721852,N,13701.4554050,E,1,06,2.7,94.4087,M,37.55,M,,*5A
[2021-02-22 16:14:11.491] $GPGGA,071411.10,3713.9721725,N,13701.4556326,E,1,06,2.7,94.5649,M,37.55,M,,*51
[2021-02-22 16:14:11.616] $GPGGA,071411.20,3713.9723220,N,13701.4555253,E,1,06,2.7,94.8853,M,37.55,M,,*58
[2021-02-22 16:14:11.678] $GPGGA,071411.30,3713.9725138,N,13701.4554319,E,1,06,2.7,95.3727,M,37.55,M,,*5D
[2021-02-22 16:14:11.803] $GPGGA,071411.40,3713.9722845,N,13701.4553782,E,1,06,2.7,94.7290,M,37.55,M,,*53
[2021-02-22 16:14:11.881] $GPGGA,071411.50,3713.9723259,N,13701.4555245,E,1,06,2.7,95.3679,M,37.55,M,,*5A
[2021-02-22 16:14:12.006] $GPGGA,071411.60,3713.9718037,N,13701.4555262,E,1,06,2.7,94.7181,M,37.55,M,,*5B
[2021-02-22 16:14:12.084] $GPGGA,071411.70,3713.9723161,N,13701.4555030,E,1,06,2.7,96.2571,M,37.55,M,,*59
[2021-02-22 16:14:12.209] $GPGGA,071411.80,3713.9720183,N,13701.4554474,E,1,06,2.7,95.9712,M,37.55,M,,*53
[2021-02-22 16:14:12.287] $GPGGA,071411.90,3713.9719128,N,13701.4553404,E,1,06,2.7,95.7145,M,37.55,M,,*53
[2021-02-22 16:14:12.412] $GPGGA,071412.00,3713.9719639,N,13701.4553010,E,1,06,2.7,95.4822,M,37.55,M,,*54
[2021-02-22 16:14:12.506] $GPGGA,071412.10,3713.9719951,N,13701.4552065,E,1,06,2.7,95.5174,M,37.55,M,,*5C
[2021-02-22 16:14:12.584] $GPGGA,071412.20,3713.9718790,N,13701.4551957,E,1,06,2.7,95.0295,M,37.55,M,,*5F
[2021-02-22 16:14:12.709] $GPGGA,071412.30,3713.9718853,N,13701.4549581,E,1,06,2.7,95.4374,M,37.55,M,,*5A
[2021-02-22 16:14:12.787] $GPGGA,071412.40,3713.9722034,N,13701.4549254,E,1,06,2.7,96.0195,M,37.55,M,,*58
[2021-02-22 16:14:12.912] $GPGGA,071412.50,3713.9723698,N,13701.4549649,E,1,06,2.7,95.7946,M,37.55,M,,*52
[2021-02-22 16:14:12.990] $GPGGA,071412.60,3713.9722961,N,13701.4549779,E,1,06,2.7,95.8390,M,37.55,M,,*55
[2021-02-22 16:14:13.115] $GPGGA,071412.70,3713.9722158,N,13701.4551239,E,1,06,2.7,95.4125,M,37.55,M,,*5E
[2021-02-22 16:14:13.178] $GPGGA,071412.80,3713.9719225,N,13701.4551665,E,1,07,2.6,95.0710,M,37.55,M,,*59
[2021-02-22 16:14:13.303] $GPGGA,071412.90,3713.9717389,N,13701.4552856,E,1,07,2.6,94.7329,M,37.55,M,,*54
[2021-02-22 16:14:13.381] $GPGGA,071413.00,3713.9716358,N,13701.4555483,E,1,07,2.6,94.1888,M,37.55,M,,*54
[2021-02-22 16:14:13.506] $GPGGA,071413.10,3713.9722889,N,13701.4552268,E,1,07,2.6,95.7062,M,37.55,M,,*5A
[2021-02-22 16:14:13.584] $GPGGA,071413.20,3713.9725500,N,13701.4552542,E,1,07,2.6,96.5066,M,37.55,M,,*58
[2021-02-22 16:14:13.709] $GPGGA,071413.30,3713.9723259,N,13701.4553263,E,1,07,2.6,96.3965,M,37.55,M,,*5D
[2021-02-22 16:14:13.787] $GPGGA,071413.40,3713.9713646,N,13701.4557200,E,1,07,2.6,95.3186,M,37.55,M,,*54
[2021-02-22 16:14:13.912] $GPGGA,071413.50,3713.9712775,N,13701.4558410,E,1,07,2.6,94.9850,M,37.55,M,,*54
[2021-02-22 16:14:13.975] $GPGGA,071413.60,3713.9718388,N,13701.4555517,E,1,07,2.6,95.4874,M,37.55,M,,*5A
[2021-02-22 16:14:14.115] $GPGGA,071413.70,3713.9718337,N,13701.4556269,E,1,07,2.6,95.5253,M,37.55,M,,*5C
[2021-02-22 16:14:14.178] $GPGGA,071413.80,3713.9721666,N,13701.4554999,E,1,07,2.6,95.7970,M,37.55,M,,*56
[2021-02-22 16:14:14.319] $GPGGA,071413.90,3713.9719773,N,13701.4555691,E,1,07,2.6,95.8128,M,37.55,M,,*55
[2021-02-22 16:14:14.412] $GPGGA,071414.00,3713.9722449,N,13701.4555640,E,1,07,2.6,95.9273,M,37.55,M,,*59
[2021-02-22 16:14:14.490] $GPGGA,071414.10,3713.9724893,N,13701.4553609,E,1,07,2.6,95.6876,M,37.55,M,,*5E
[2021-02-22 16:14:14.615] $GPGGA,071414.20,3713.9724452,N,13701.4554010,E,1,07,2.6,95.9971,M,37.55,M,,*5C
[2021-02-22 16:14:14.678] $GPGGA,071414.30,3713.9721053,N,13701.4556046,E,1,07,2.6,96.0380,M,37.55,M,,*52
[2021-02-22 16:14:14.803] $GPGGA,071414.40,3713.9719988,N,13701.4555953,E,1,07,2.6,95.1876,M,37.55,M,,*5F
[2021-02-22 16:14:14.881] $GPGGA,071414.50,3713.9717517,N,13701.4556397,E,1,07,2.6,94.3750,M,37.55,M,,*53
[2021-02-22 16:14:15.006] $GPGGA,071414.60,3713.9722032,N,13701.4551929,E,1,07,2.6,94.7175,M,37.55,M,,*59
[2021-02-22 16:14:15.084] $GPGGA,071414.70,3713.9719296,N,13701.4553267,E,1,07,2.6,94.2933,M,37.55,M,,*50
[2021-02-22 16:14:15.209] $GPGGA,071414.80,3713.9720135,N,13701.4551799,E,1,07,2.6,94.6757,M,37.55,M,,*51
[2021-02-22 16:14:15.287] $GPGGA,071414.90,3713.9722064,N,13701.4552688,E,1,07,2.6,94.7683,M,37.55,M,,*5C
[2021-02-22 16:14:15.412] $GPGGA,071415.00,3713.9723280,N,13701.4552043,E,1,07,2.6,95.0051,M,37.55,M,,*53
[2021-02-22 16:14:15.490] $GPGGA,071415.10,3713.9724981,N,13701.4550286,E,1,07,2.6,95.2862,M,37.55,M,,*5C
[2021-02-22 16:14:15.615] $GPGGA,071415.20,3713.9727500,N,13701.4549604,E,1,07,2.6,96.0797,M,37.55,M,,*5B
[2021-02-22 16:14:15.678] $GPGGA,071415.30,3713.9725644,N,13701.4548220,E,1,07,2.6,95.6646,M,37.55,M,,*50
[2021-02-22 16:14:15.803] $GPGGA,071415.40,3713.9727432,N,13701.4547084,E,1,07,2.6,96.5365,M,37.55,M,,*51
[2021-02-22 16:14:15.881] $GPGGA,071415.50,3713.9728250,N,13701.4548000,E,1,07,2.6,95.7258,M,37.55,M,,*50
[2021-02-22 16:14:16.006] $GPGGA,071415.60,3713.9725063,N,13701.4547416,E,1,07,2.6,95.2491,M,37.55,M,,*56
[2021-02-22 16:14:16.115] $GPGGA,071415.70,3713.9684960,N,13701.4552810,E,5,05,3.0,96.1542,M,37.55,M,3,0000*64
[2021-02-22 16:14:16.209] $GPGGA,071415.80,3713.9691307,N,13701.4550092,E,5,05,3.0,94.3974,M,37.55,M,3,0000*6D
[2021-02-22 16:14:16.303] $GPGGA,071415.90,3713.9694507,N,13701.4550194,E,5,05,3.0,93.0377,M,37.55,M,3,0000*65
[2021-02-22 16:14:16.381] $GPGGA,071416.00,3713.9696098,N,13701.4551615,E,5,05,3.0,91.7956,M,37.55,M,4,0000*6A
[2021-02-22 16:14:16.490] $GPGGA,071416.10,3713.9696177,N,13701.4551612,E,5,05,3.0,91.5145,M,37.55,M,4,0000*64
[2021-02-22 16:14:16.584] $GPGGA,071416.20,3713.9695918,N,13701.4551551,E,5,05,3.0,91.6667,M,37.55,M,4,0000*65
[2021-02-22 16:14:16.709] $GPGGA,071416.30,3713.9696014,N,13701.4551176,E,5,05,3.0,91.5459,M,37.55,M,4,0000*6F
[2021-02-22 16:14:16.787] $GPGGA,071416.40,3713.9696691,N,13701.4551033,E,5,05,3.0,91.0467,M,37.55,M,4,0000*6B
[2021-02-22 16:14:16.912] $GPGGA,071416.50,3713.9697301,N,13701.4551228,E,5,05,3.0,90.5235,M,37.55,M,4,0000*6A
[2021-02-22 16:14:16.990] $GPGGA,071416.60,3713.9698285,N,13701.4550484,E,5,05,3.0,90.2470,M,37.55,M,4,0000*6A
[2021-02-22 16:14:17.115] $GPGGA,071416.70,3713.9700162,N,13701.4548526,E,5,05,3.0,90.2449,M,37.55,M,4,0000*6B
[2021-02-22 16:14:17.178] $GPGGA,071416.80,3713.9702078,N,13701.4547425,E,5,05,3.0,89.7533,M,37.55,M,4,0000*60
[2021-02-22 16:14:17.318] $GPGGA,071416.90,3713.9702943,N,13701.4546925,E,5,05,3.0,89.4270,M,37.55,M,4,0000*6F
[2021-02-22 16:14:17.381] $GPGGA,071417.00,3713.9703264,N,13701.4546376,E,5,05,3.0,89.4299,M,37.55,M,5,0000*62
[2021-02-22 16:14:17.490] $GPGGA,071417.10,3713.9702918,N,13701.4546325,E,5,05,3.0,89.3777,M,37.55,M,5,0000*66
[2021-02-22 16:14:17.615] $GPGGA,071417.20,3713.9701667,N,13701.4546712,E,5,05,3.0,89.5978,M,37.55,M,5,0000*66
[2021-02-22 16:14:17.709] $GPGGA,071417.30,3713.9700219,N,13701.4547253,E,5,05,3.0,89.9356,M,37.55,M,5,0000*60
[2021-02-22 16:14:17.787] $GPGGA,071417.40,3713.9698884,N,13701.4547834,E,5,05,3.0,90.2652,M,37.55,M,5,0000*60
[2021-02-22 16:14:17.912] $GPGGA,071417.50,3713.9697904,N,13701.4548073,E,5,05,3.0,90.6435,M,37.55,M,5,0000*64
[2021-02-22 16:14:18.006] $GPGGA,071417.60,3713.9696891,N,13701.4548594,E,5,05,3.0,90.8446,M,37.55,M,5,0000*6D
[2021-02-22 16:14:18.084] $GPGGA,071417.70,3713.9696728,N,13701.4548622,E,5,05,3.0,90.9289,M,37.55,M,5,0000*6B
[2021-02-22 16:14:18.209] $GPGGA,071417.80,3713.9696494,N,13701.4548491,E,5,05,3.0,91.2174,M,37.55,M,5,0000*61
[2021-02-22 16:14:18.287] $GPGGA,071417.90,3713.9696548,N,13701.4548569,E,5,05,3.0,91.3083,M,37.55,M,5,0000*6E
[2021-02-22 16:14:18.412] $GPGGA,071418.00,3713.9696611,N,13701.4548610,E,5,05,3.0,91.3764,M,37.55,M,6,0000*67
[2021-02-22 16:14:18.506] $GPGGA,071418.10,3713.9696828,N,13701.4548647,E,5,05,3.0,91.3495,M,37.55,M,6,0000*6D
[2021-02-22 16:14:18.615] $GPGGA,071418.20,3713.9696674,N,13701.4548596,E,5,05,3.0,91.5084,M,37.55,M,1,0000*63
[2021-02-22 16:14:18.678] $GPGGA,071418.30,3713.9696336,N,13701.4548498,E,5,05,3.0,91.7497,M,37.55,M,1,0000*6A
[2021-02-22 16:14:18.818] $GPGGA,071418.40,3713.9696337,N,13701.4548370,E,5,05,3.0,91.8255,M,37.55,M,1,0000*6A
[2021-02-22 16:14:18.881] $GPGGA,071418.50,3713.9696395,N,13701.4548235,E,5,05,3.0,91.8860,M,37.55,M,1,0000*6F
[2021-02-22 16:14:19.006] $GPGGA,071418.60,3713.9696412,N,13701.4548234,E,5,05,3.0,91.9392,M,37.55,M,1,0000*62
[2021-02-22 16:14:19.084] $GPGGA,071418.70,3713.9696437,N,13701.4547998,E,5,05,3.0,92.0647,M,37.55,M,1,0000*61
[2021-02-22 16:14:19.209] $GPGGA,071418.80,3713.9696298,N,13701.4547843,E,5,05,3.0,92.2706,M,37.55,M,1,0000*6C
[2021-02-22 16:14:19.287] $GPGGA,071418.90,3713.9696035,N,13701.4547610,E,5,05,3.0,92.5460,M,37.55,M,1,0000*64
[2021-02-22 16:14:19.412] $GPGGA,071419.00,3713.9695528,N,13701.4547878,E,5,05,3.0,92.6828,M,37.55,M,2,0000*66
[2021-02-22 16:14:19.506] $GPGGA,071419.10,3713.9695079,N,13701.4548022,E,5,05,3.0,92.8253,M,37.55,M,2,0000*66
[2021-02-22 16:14:19.615] $GPGGA,071419.20,3713.9694276,N,13701.4548221,E,5,05,3.0,93.0966,M,37.55,M,2,0000*6C
[2021-02-22 16:14:19.724] $GPGGA,071419.30,3713.9693317,N,13701.4548799,E,5,05,3.0,93.2403,M,37.55,M,2,0000*66
[2021-02-22 16:14:19.787] $GPGGA,071419.40,3713.9692532,N,13701.4549110,E,5,05,3.0,93.4057,M,37.55,M,2,0000*64
[2021-02-22 16:14:19.912] $GPGGA,071419.50,3713.9691886,N,13701.4549170,E,5,05,3.0,93.6193,M,37.55,M,2,0000*69
[2021-02-22 16:14:19.990] $GPGGA,071419.60,3713.9691652,N,13701.4549001,E,5,05,3.0,93.7888,M,37.55,M,2,0000*68
[2021-02-22 16:14:20.115] $GPGGA,071419.70,3713.9693322,N,13701.4548150,E,5,06,2.8,93.4864,M,37.55,M,2,0000*66
[2021-02-22 16:14:20.193] $GPGGA,071419.80,3713.9692629,N,13701.4548086,E,5,06,2.8,93.8292,M,37.55,M,2,0000*63
[2021-02-22 16:14:20.303] $GPGGA,071419.90,3713.9692046,N,13701.4548297,E,5,06,2.8,94.0334,M,37.55,M,2,0000*6D
[2021-02-22 16:14:20.381] $GPGGA,071420.00,3713.9690897,N,13701.4548795,E,5,06,2.8,94.3487,M,37.55,M,3,0000*62
[2021-02-22 16:14:20.506] $GPGGA,071420.10,3713.9690313,N,13701.4548968,E,5,06,2.8,94.4904,M,37.55,M,3,0000*69
[2021-02-22 16:14:20.584] $GPGGA,071420.20,3713.9689878,N,13701.4549141,E,5,06,2.8,94.6221,M,37.55,M,3,0000*68
[2021-02-22 16:14:20.709] $GPGGA,071420.30,3713.9689836,N,13701.4549182,E,5,06,2.8,94.6762,M,37.55,M,3,0000*6E
[2021-02-22 16:14:20.787] $GPGGA,071420.40,3713.9689793,N,13701.4549240,E,5,06,2.8,94.7036,M,37.55,M,3,0000*63
[2021-02-22 16:14:20.912] $GPGGA,071420.50,3713.9689836,N,13701.4549191,E,5,06,2.8,94.7416,M,37.55,M,3,0000*6B
[2021-02-22 16:14:20.990] $GPGGA,071420.60,3713.9689848,N,13701.4549261,E,5,06,2.8,94.7308,M,37.55,M,3,0000*65
[2021-02-22 16:14:21.115] $GPGGA,071420.70,3713.9689853,N,13701.4549303,E,5,06,2.8,94.7043,M,37.55,M,3,0000*67
[2021-02-22 16:14:21.177] $GPGGA,071420.80,3713.9689722,N,13701.4549474,E,5,06,2.8,94.6623,M,37.55,M,3,0000*67
[2021-02-22 16:14:21.318] $GPGGA,071420.90,3713.9689463,N,13701.4549677,E,5,06,2.8,94.6672,M,37.55,M,3,0000*65
[2021-02-22 16:14:21.381] $GPGGA,071421.00,3713.9689319,N,13701.4549834,E,5,06,2.8,94.5939,M,37.55,M,4,0000*6A
[2021-02-22 16:14:21.490] $GPGGA,071421.10,3713.9689427,N,13701.4549886,E,5,06,2.8,94.4910,M,37.55,M,4,0000*62
[2021-02-22 16:14:21.615] $GPGGA,071421.20,3713.9689565,N,13701.4549790,E,5,06,2.8,94.4543,M,37.55,M,4,0000*64
[2021-02-22 16:14:21.693] $GPGGA,071421.30,3713.9689548,N,13701.4549860,E,5,06,2.8,94.3751,M,37.55,M,4,0000*6C
[2021-02-22 16:14:21.818] $GPGGA,071421.40,3713.9689601,N,13701.4549811,E,5,06,2.8,94.3814,M,37.55,M,4,0000*6D
[2021-02-22 16:14:21.881] $GPGGA,071421.50,3713.9689924,N,13701.4549681,E,5,06,2.8,94.3410,M,37.55,M,4,0000*6B
[2021-02-22 16:14:22.021] $GPGGA,071421.60,3713.9689895,N,13701.4549786,E,5,06,2.8,94.3133,M,37.55,M,4,0000*61
[2021-02-22 16:14:22.084] $GPGGA,071421.70,3713.9689903,N,13701.4549792,E,5,06,2.8,94.2997,M,37.55,M,4,0000*6C
[2021-02-22 16:14:22.209] $GPGGA,071421.80,3713.9690122,N,13701.4549581,E,5,06,2.8,94.3230,M,37.55,M,4,0000*67
[2021-02-22 16:14:22.287] $GPGGA,071421.90,3713.9690202,N,13701.4549524,E,5,06,2.8,94.3207,M,37.55,M,4,0000*6C
[2021-02-22 16:14:22.412] $GPGGA,071422.00,3713.9690114,N,13701.4549542,E,5,06,2.8,94.3519,M,37.55,M,5,0000*6B
[2021-02-22 16:14:22.505] $GPGGA,071422.10,3713.9690150,N,13701.4549563,E,5,06,2.8,94.3481,M,37.55,M,5,0000*69
[2021-02-22 16:14:22.615] $GPGGA,071422.20,3713.9690111,N,13701.4549549,E,5,06,2.8,94.3517,M,37.55,M,5,0000*69
[2021-02-22 16:14:22.677] $GPGGA,071422.30,3713.9690086,N,13701.4549605,E,5,06,2.8,94.3512,M,37.55,M,5,0000*69
[2021-02-22 16:14:22.818] $GPGGA,071422.40,3713.9690067,N,13701.4549663,E,5,06,2.8,94.3286,M,37.55,M,5,0000*6B
[2021-02-22 16:14:22.880] $GPGGA,071422.50,3713.9689986,N,13701.4549846,E,5,06,2.8,94.2913,M,37.55,M,5,0000*6B
[2021-02-22 16:14:23.005] $GPGGA,071422.60,3713.9689893,N,13701.4549939,E,5,06,2.8,94.2861,M,37.55,M,5,0000*60
[2021-02-22 16:14:23.084] $GPGGA,071422.70,3713.9689865,N,13701.4549995,E,5,06,2.8,94.2593,M,37.55,M,5,0000*6E
[2021-02-22 16:14:23.209] $GPGGA,071422.80,3713.9689818,N,13701.4549954,E,5,06,2.8,94.2712,M,37.55,M,5,0000*6D
[2021-02-22 16:14:23.302] $GPGGA,071422.90,3713.9689768,N,13701.4549851,E,5,06,2.8,94.3299,M,37.55,M,5,0000*67
[2021-02-22 16:14:23.380] $GPGGA,071423.00,3713.9689731,N,13701.4549820,E,5,06,2.8,94.3537,M,37.55,M,6,0000*65
[2021-02-22 16:14:23.490] $GPGGA,071423.10,3713.9689610,N,13701.4549826,E,5,06,2.8,94.3722,M,37.55,M,6,0000*66
[2021-02-22 16:14:23.615] $GPGGA,071423.20,3713.9689497,N,13701.4549923,E,5,06,2.8,94.3783,M,37.55,M,1,0000*60
[2021-02-22 16:14:23.708] $GPGGA,071423.30,3713.9689303,N,13701.4550078,E,5,06,2.8,94.3754,M,37.55,M,1,0000*6E
[2021-02-22 16:14:23.787] $GPGGA,071423.40,3713.9689215,N,13701.4550145,E,5,06,2.8,94.3535,M,37.55,M,1,0000*65
[2021-02-22 16:14:23.912] $GPGGA,071423.50,3713.9689130,N,13701.4550090,E,5,06,2.8,94.3689,M,37.55,M,1,0000*6D
[2021-02-22 16:14:23.990] $GPGGA,071423.60,3713.9688982,N,13701.4550120,E,5,06,2.8,94.3652,M,37.55,M,1,0000*62
[2021-02-22 16:14:24.115] $GPGGA,071423.70,3713.9688888,N,13701.4550158,E,5,06,2.8,94.3490,M,37.55,M,1,0000*6B
[2021-02-22 16:14:24.177] $GPGGA,071423.80,3713.9688870,N,13701.4550152,E,5,06,2.8,94.3504,M,37.55,M,1,0000*65
[2021-02-22 16:14:24.302] $GPGGA,071423.90,3713.9688857,N,13701.4550155,E,5,06,2.8,94.3498,M,37.55,M,1,0000*62
[2021-02-22 16:14:24.380] $GPGGA,071424.00,3713.9688829,N,13701.4550127,E,5,06,2.8,94.3557,M,37.55,M,2,0000*61
[2021-02-22 16:14:24.490] $GPGGA,071424.10,3713.9688837,N,13701.4550150,E,5,06,2.8,94.3431,M,37.55,M,2,0000*6E
[2021-02-22 16:14:24.583] $GPGGA,071424.20,3713.9688851,N,13701.4550157,E,5,06,2.8,94.3453,M,37.55,M,2,0000*6E
[2021-02-22 16:14:24.708] $GPGGA,071424.30,3713.9688898,N,13701.4550168,E,5,06,2.8,94.3420,M,37.55,M,2,0000*62
[2021-02-22 16:14:24.787] $GPGGA,071424.40,3713.9688906,N,13701.4550117,E,5,06,2.8,94.3566,M,37.55,M,2,0000*68
[2021-02-22 16:14:24.912] $GPGGA,071424.50,3713.9688960,N,13701.4550096,E,5,06,2.8,94.3709,M,37.55,M,2,0000*6A
[2021-02-22 16:14:24.990] $GPGGA,071424.60,3713.9689056,N,13701.4550021,E,5,07,2.0,94.3702,M,37.55,M,2,0000*6A
[2021-02-22 16:14:25.115] $GPGGA,071424.70,3713.9689056,N,13701.4550063,E,5,07,2.0,94.3614,M,37.55,M,2,0000*6B
[2021-02-22 16:14:25.208] $GPGGA,071424.80,3713.9689047,N,13701.4550064,E,5,07,2.0,94.3622,M,37.55,M,2,0000*66
[2021-02-22 16:14:25.287] $GPGGA,071424.90,3713.9689043,N,13701.4550072,E,5,07,2.0,94.3415,M,37.55,M,2,0000*62
[2021-02-22 16:14:25.411] $GPGGA,071425.00,3713.9689011,N,13701.4550069,E,5,07,2.0,94.3155,M,37.55,M,3,0000*67
[2021-02-22 16:14:25.505] $GPGGA,071425.10,3713.9688906,N,13701.4550129,E,5,07,2.0,94.2780,M,37.55,M,3,0000*62
[2021-02-22 16:14:25.615] $GPGGA,071425.20,3713.9688902,N,13701.4550065,E,5,07,2.0,94.2503,M,37.55,M,3,0000*65
[2021-02-22 16:14:25.693] $GPGGA,071425.30,3713.9688770,N,13701.4550181,E,5,07,2.0,94.1901,M,37.55,M,3,0000*69
[2021-02-22 16:14:25.818] $GPGGA,071425.40,3713.9688740,N,13701.4550258,E,5,07,2.0,94.1470,M,37.55,M,3,0000*61
[2021-02-22 16:14:25.880] $GPGGA,071425.50,3713.9688660,N,13701.4550356,E,5,07,2.0,94.0961,M,37.55,M,3,0000*60
[2021-02-22 16:14:26.005] $GPGGA,071425.60,3713.9688551,N,13701.4550429,E,5,07,2.0,94.0783,M,37.55,M,3,0000*6F
[2021-02-22 16:14:26.083] $GPGGA,071425.70,3713.9688449,N,13701.4550493,E,5,07,2.0,94.0541,M,37.55,M,3,0000*6B
[2021-02-22 16:14:26.208] $GPGGA,071425.80,3713.9688411,N,13701.4550460,E,5,07,2.0,94.0716,M,37.55,M,3,0000*65
[2021-02-22 16:14:26.286] $GPGGA,071425.90,3713.9688417,N,13701.4550423,E,5,07,2.0,94.0699,M,37.55,M,3,0000*63
[2021-02-22 16:14:26.411] $GPGGA,071426.00,3713.9688297,N,13701.4550539,E,5,07,2.0,94.0442,M,37.55,M,4,0000*6E
[2021-02-22 16:14:26.505] $GPGGA,071426.10,3713.9688240,N,13701.4550630,E,5,07,2.0,94.0258,M,37.55,M,4,0000*62
[2021-02-22 16:14:26.615] $GPGGA,071426.20,3713.9688144,N,13701.4550735,E,5,07,2.0,93.9870,M,37.55,M,4,0000*6C
[2021-02-22 16:14:26.677] $GPGGA,071426.30,3713.9688122,N,13701.4550808,E,5,07,2.0,93.9531,M,37.55,M,4,0000*64
[2021-02-22 16:14:26.802] $GPGGA,071426.40,3713.9688053,N,13701.4550875,E,5,07,2.0,93.9112,M,37.55,M,4,0000*6B
[2021-02-22 16:14:26.911] $GPGGA,071426.50,3713.9688007,N,13701.4550887,E,5,07,2.0,93.8921,M,37.55,M,4,0000*6F
[2021-02-22 16:14:26.990] $GPGGA,071426.60,3713.9687942,N,13701.4550869,E,5,07,2.0,93.8645,M,37.55,M,4,0000*66
[2021-02-22 16:14:27.115] $GPGGA,071426.70,3713.9687882,N,13701.4550856,E,5,07,2.0,93.8440,M,37.55,M,4,0000*61
[2021-02-22 16:14:27.193] $GPGGA,071426.80,3713.9687836,N,13701.4550829,E,5,07,2.0,93.8333,M,37.55,M,4,0000*6A
[2021-02-22 16:14:27.318] $GPGGA,071426.90,3713.9687823,N,13701.4550816,E,5,07,2.0,93.8291,M,37.55,M,4,0000*6A
[2021-02-22 16:14:27.380] $GPGGA,071427.00,3713.9687760,N,13701.4550881,E,5,07,2.0,93.8157,M,37.55,M,5,0000*6C
[2021-02-22 16:14:27.489] $GPGGA,071427.10,3713.9687751,N,13701.4550888,E,5,07,2.0,93.8132,M,37.55,M,5,0000*65
[2021-02-22 16:14:27.583] $GPGGA,071427.20,3713.9687727,N,13701.4550566,E,5,07,2.0,93.7869,M,37.55,M,5,0000*62
[2021-02-22 16:14:27.708] $GPGGA,071427.30,3713.9687711,N,13701.4550341,E,5,07,2.0,93.7735,M,37.55,M,5,0000*63
[2021-02-22 16:14:27.786] $GPGGA,071427.40,3713.9687668,N,13701.4550292,E,5,07,2.0,93.7445,M,37.55,M,5,0000*60
[2021-02-22 16:14:27.911] $GPGGA,071427.50,3713.9687557,N,13701.4550355,E,5,07,2.0,93.7111,M,37.55,M,5,0000*60
[2021-02-22 16:14:27.989] $GPGGA,071427.60,3713.9687484,N,13701.4550385,E,5,07,2.0,93.6903,M,37.55,M,5,0000*6B
[2021-02-22 16:14:28.114] $GPGGA,071427.70,3713.9687441,N,13701.4550417,E,5,07,2.0,93.6747,M,37.55,M,5,0000*61
[2021-02-22 16:14:28.177] $GPGGA,071427.80,3713.9687385,N,13701.4550456,E,5,07,2.0,93.6625,M,37.55,M,5,0000*61
[2021-02-22 16:14:28.302] $GPGGA,071427.90,3713.9687271,N,13701.4550576,E,5,07,2.0,93.6327,M,37.55,M,5,0000*6E
[2021-02-22 16:14:28.380] $GPGGA,071428.00,3713.9687186,N,13701.4550612,E,5,07,2.0,93.6101,M,37.55,M,6,0000*67
[2021-02-22 16:14:28.489] $GPGGA,071428.10,3713.9687035,N,13701.4550668,E,5,07,2.0,93.5829,M,37.55,M,6,0000*62
[2021-02-22 16:14:28.614] $GPGGA,071428.20,3713.9686918,N,13701.4550763,E,5,07,2.0,93.5545,M,37.55,M,1,0000*6C
[2021-02-22 16:14:28.693] $GPGGA,071428.30,3713.9686817,N,13701.4550858,E,5,07,2.0,93.5320,M,37.55,M,1,0000*61
[2021-02-22 16:14:28.818] $GPGGA,071428.40,3713.9686762,N,13701.4550888,E,5,07,2.0,93.5149,M,37.55,M,1,0000*6B
[2021-02-22 16:14:28.880] $GPGGA,071428.50,3713.9686663,N,13701.4550929,E,5,07,2.0,93.4951,M,37.55,M,1,0000*60
[2021-02-22 16:14:29.021] $GPGGA,071428.60,3713.9686614,N,13701.4550977,E,5,07,2.0,93.4751,M,37.55,M,1,0000*66
[2021-02-22 16:14:29.083] $GPGGA,071428.70,3713.9686564,N,13701.4551006,E,5,07,2.0,93.4626,M,37.55,M,1,0000*6C
[2021-02-22 16:14:29.208] $GPGGA,071428.80,3713.9686511,N,13701.4551063,E,5,07,2.0,93.4400,M,37.55,M,1,0000*64
[2021-02-22 16:14:29.286] $GPGGA,071428.90,3713.9686479,N,13701.4551045,E,5,07,2.0,93.4412,M,37.55,M,1,0000*6D
[2021-02-22 16:14:29.411] $GPGGA,071429.00,3713.9686447,N,13701.4551056,E,5,07,2.0,93.4389,M,37.55,M,2,0000*6C
[2021-02-22 16:14:29.521] $GPGGA,071429.10,3713.9686417,N,13701.4551087,E,5,07,2.0,93.4326,M,37.55,M,2,0000*61
[2021-02-22 16:14:29.614] $GPGGA,071429.20,3713.9686413,N,13701.4551095,E,5,07,2.0,93.4300,M,37.55,M,2,0000*61
[2021-02-22 16:14:29.692] $GPGGA,071429.30,3713.9686375,N,13701.4551039,E,5,08,1.8,93.4302,M,37.55,M,2,0000*67
[2021-02-22 16:14:29.817] $GPGGA,071429.40,3713.9686236,N,13701.4551071,E,5,08,1.8,93.4060,M,37.55,M,2,0000*6D
[2021-02-22 16:14:29.880] $GPGGA,071429.50,3713.9686239,N,13701.4551043,E,5,08,1.8,93.3911,M,37.55,M,2,0000*6A
[2021-02-22 16:14:30.021] $GPGGA,071429.60,3713.9686234,N,13701.4550962,E,5,08,1.8,93.3871,M,37.55,M,2,0000*68
[2021-02-22 16:14:30.083] $GPGGA,071429.70,3713.9686174,N,13701.4550888,E,5,08,1.8,93.3922,M,37.55,M,2,0000*6C
[2021-02-22 16:14:30.208] $GPGGA,071429.80,3713.9686091,N,13701.4550871,E,5,08,1.8,93.3947,M,37.55,M,2,0000*6C
[2021-02-22 16:14:30.286] $GPGGA,071429.90,3713.9686068,N,13701.4550825,E,5,08,1.8,93.3858,M,37.55,M,2,0000*65
[2021-02-22 16:14:30.411] $GPGGA,071430.00,3713.9686039,N,13701.4550788,E,5,08,1.8,93.3913,M,37.55,M,3,0000*67
[2021-02-22 16:14:30.489] $GPGGA,071430.10,3713.9685981,N,13701.4550773,E,5,08,1.8,93.4014,M,37.55,M,3,0000*62
[2021-02-22 16:14:30.583] $GPGGA,071430.20,3713.9685851,N,13701.4550788,E,5,08,1.8,93.4004,M,37.55,M,3,0000*68
[2021-02-22 16:14:30.724] $GPGGA,071430.30,3713.9685699,N,13701.4550859,E,5,08,1.8,93.3901,M,37.55,M,3,0000*6B
[2021-02-22 16:14:30.786] $GPGGA,071430.40,3713.9685661,N,13701.4550840,E,5,08,1.8,93.4051,M,37.55,M,3,0000*68
[2021-02-22 16:14:30.911] $GPGGA,071430.50,3713.9685619,N,13701.4550787,E,5,08,1.8,93.4197,M,37.55,M,3,0000*69
[2021-02-22 16:14:30.989] $GPGGA,071430.60,3713.9685519,N,13701.4550773,E,5,08,1.8,93.4321,M,37.55,M,3,0000*6D
[2021-02-22 16:14:31.114] $GPGGA,071430.70,3713.9685406,N,13701.4550811,E,5,08,1.8,93.4183,M,37.55,M,3,0000*62
[2021-02-22 16:14:31.192] $GPGGA,071430.80,3713.9685280,N,13701.4550830,E,5,08,1.8,93.4192,M,37.55,M,3,0000*66
[2021-02-22 16:14:31.317] $GPGGA,071430.90,3713.9685204,N,13701.4550868,E,5,08,1.8,93.4006,M,37.55,M,3,0000*6A
[2021-02-22 16:14:31.380] $GPGGA,071431.00,3713.9685124,N,13701.4550936,E,5,08,1.8,93.3786,M,37.55,M,4,0000*66
[2021-02-22 16:14:31.489] $GPGGA,071431.10,3713.9685073,N,13701.4550962,E,5,08,1.8,93.3663,M,37.55,M,4,0000*6F
[2021-02-22 16:14:31.583] $GPGGA,071431.20,3713.9684999,N,13701.4550928,E,5,08,1.8,93.3721,M,37.55,M,4,0000*69
[2021-02-22 16:14:31.708] $GPGGA,071431.30,3713.9684941,N,13701.4550934,E,5,08,1.8,93.3732,M,37.55,M,4,0000*62
[2021-02-22 16:14:31.786] $GPGGA,071431.40,3713.9684850,N,13701.4550943,E,5,08,1.8,93.3826,M,37.55,M,4,0000*6E
[2021-02-22 16:14:31.927] $GPGGA,071431.50,3713.9684765,N,13701.4550993,E,5,08,1.8,93.3704,M,37.55,M,4,0000*64
[2021-02-22 16:14:31.989] $GPGGA,071431.60,3713.9684679,N,13701.4551092,E,5,08,1.8,93.3524,M,37.55,M,4,0000*62
[2021-02-22 16:14:32.114] $GPGGA,071431.70,3713.9684578,N,13701.4551212,E,5,08,1.8,93.3376,M,37.55,M,4,0000*6A
[2021-02-22 16:14:32.208] $GPGGA,071431.80,3713.9684510,N,13701.4551277,E,5,08,1.8,93.3166,M,37.55,M,4,0000*6B
[2021-02-22 16:14:32.286] $GPGGA,071431.90,3713.9684424,N,13701.4551271,E,5,08,1.8,93.3050,M,37.55,M,4,0000*6E
[2021-02-22 16:14:32.411] $GPGGA,071432.00,3713.9684327,N,13701.4551263,E,5,08,1.8,93.2928,M,37.55,M,5,0000*65
[2021-02-22 16:14:32.505] $GPGGA,071432.10,3713.9684278,N,13701.4551280,E,5,08,1.8,93.2810,M,37.55,M,5,0000*68
[2021-02-22 16:14:32.614] $GPGGA,071432.20,3713.9684181,N,13701.4551323,E,5,08,1.8,93.2675,M,37.55,M,5,0000*6B
[2021-02-22 16:14:32.692] $GPGGA,071432.30,3713.9684116,N,13701.4551326,E,5,08,1.8,93.2571,M,37.55,M,5,0000*66
[2021-02-22 16:14:32.817] $GPGGA,071432.40,3713.9684061,N,13701.4551298,E,5,08,1.8,93.2484,M,37.55,M,5,0000*6F
[2021-02-22 16:14:32.880] $GPGGA,071432.50,3713.9683998,N,13701.4551331,E,5,08,1.8,93.2442,M,37.55,M,5,0000*6E
[2021-02-22 16:14:33.020] $GPGGA,071432.60,3713.9683904,N,13701.4551390,E,5,08,1.8,93.2259,M,37.55,M,5,0000*6F
[2021-02-22 16:14:33.083] $GPGGA,071432.70,3713.9683867,N,13701.4551424,E,5,08,1.8,93.2225,M,37.55,M,5,0000*69
[2021-02-22 16:14:33.208] $GPGGA,071432.80,3713.9683788,N,13701.4551454,E,5,08,1.8,93.2180,M,37.55,M,5,0000*63
[2021-02-22 16:14:33.286] $GPGGA,071432.90,3713.9683713,N,13701.4551475,E,5,08,1.8,93.2185,M,37.55,M,5,0000*66
[2021-02-22 16:14:33.411] $GPGGA,071433.00,3713.9683613,N,13701.4551539,E,5,08,1.8,93.1962,M,37.55,M,6,0000*67
[2021-02-22 16:14:33.505] $GPGGA,071433.10,3713.9683484,N,13701.4551658,E,5,08,1.8,93.1696,M,37.55,M,6,0000*6A
[2021-02-22 16:14:33.614] $GPGGA,071433.20,3713.9683373,N,13701.4551766,E,5,08,1.8,93.1492,M,37.55,M,1,0000*6B
[2021-02-22 16:14:33.692] $GPGGA,071433.30,3713.9683327,N,13701.4551820,E,5,08,1.8,93.1300,M,37.55,M,1,0000*6A
[2021-02-22 16:14:33.817] $GPGGA,071433.40,3713.9683269,N,13701.4551881,E,5,08,1.8,93.1085,M,37.55,M,1,0000*63
[2021-02-22 16:14:33.880] $GPGGA,071433.50,3713.9683200,N,13701.4551907,E,5,08,1.8,93.0910,M,37.55,M,1,0000*66
[2021-02-22 16:14:34.005] $GPGGA,071433.60,3713.9683134,N,13701.4551966,E,5,08,1.8,93.0686,M,37.55,M,1,0000*66
[2021-02-22 16:14:34.114] $GPGGA,071433.70,3713.9683079,N,13701.4551997,E,5,08,1.8,93.0528,M,37.55,M,1,0000*66
[2021-02-22 16:14:34.192] $GPGGA,071433.80,3713.9683011,N,13701.4552018,E,5,08,1.8,93.0396,M,37.55,M,1,0000*69
[2021-02-22 16:14:34.317] $GPGGA,071433.90,3713.9682939,N,13701.4552018,E,5,08,1.8,93.0231,M,37.55,M,1,0000*66
[2021-02-22 16:14:34.380] $GPGGA,071434.00,3713.9682890,N,13701.4552032,E,5,08,1.8,93.0121,M,37.55,M,2,0000*63
[2021-02-22 16:14:34.489] $GPGGA,071434.10,3713.9682832,N,13701.4552065,E,5,08,1.8,92.9891,M,37.55,M,2,0000*62
[2021-02-22 16:14:34.614] $GPGGA,071434.20,3713.9682769,N,13701.4552098,E,5,08,1.8,92.9709,M,37.55,M,2,0000*6C
[2021-02-22 16:14:34.708] $GPGGA,071434.30,3713.9682708,N,13701.4552130,E,5,08,1.8,92.9496,M,37.55,M,2,0000*6C
[2021-02-22 16:14:34.786] $GPGGA,071434.40,3713.9682682,N,13701.4552160,E,5,08,1.8,92.9343,M,37.55,M,2,0000*62
[2021-02-22 16:14:34.911] $GPGGA,071434.50,3713.9682614,N,13701.4552230,E,5,08,1.8,92.9083,M,37.55,M,2,0000*65
[2021-02-22 16:14:34.989] $GPGGA,071434.60,3713.9682538,N,13701.4552305,E,5,08,1.8,92.8787,M,37.55,M,2,0000*6E
[2021-02-22 16:14:35.114] $GPGGA,071434.70,3713.9682536,N,13701.4552343,E,5,09,1.6,92.8869,M,37.55,M,2,0000*63
[2021-02-22 16:14:35.192] $GPGGA,071434.80,3713.9682544,N,13701.4552340,E,5,09,1.6,92.9022,M,37.55,M,2,0000*6C
[2021-02-22 16:14:35.317] $GPGGA,071434.90,3713.9682551,N,13701.4552341,E,5,09,1.6,92.9236,M,37.55,M,2,0000*6F
[2021-02-22 16:14:35.380] $GPGGA,071435.00,3713.9682560,N,13701.4552332,E,5,09,1.6,92.9358,M,37.55,M,3,0000*69
[2021-02-22 16:14:35.489] $GPGGA,071435.10,3713.9682576,N,13701.4552330,E,5,09,1.6,92.9541,M,37.55,M,3,0000*63
[2021-02-22 16:14:35.583] $GPGGA,071435.20,3713.9682550,N,13701.4552349,E,5,09,1.6,92.9599,M,37.55,M,3,0000*6F
[2021-02-22 16:14:35.708] $GPGGA,071435.30,3713.9682508,N,13701.4552375,E,5,09,1.6,92.9667,M,37.55,M,3,0000*6E
[2021-02-22 16:14:35.817] $GPGGA,071435.40,3713.9682477,N,13701.4552409,E,5,09,1.6,92.9673,M,37.55,M,3,0000*69
[2021-02-22 16:14:35.895] $GPGGA,071435.50,3713.9682476,N,13701.4552408,E,5,09,1.6,92.9775,M,37.55,M,3,0000*6F
[2021-02-22 16:14:36.020] $GPGGA,071435.60,3713.9682447,N,13701.4552421,E,5,09,1.6,92.9806,M,37.55,M,3,0000*6E
[2021-02-22 16:14:36.083] $GPGGA,071435.70,3713.9682467,N,13701.4552403,E,5,09,1.6,92.9967,M,37.55,M,3,0000*6B
[2021-02-22 16:14:36.208] $GPGGA,071435.80,3713.9682507,N,13701.4552378,E,5,10,1.5,93.0210,M,37.55,M,3,0000*60
[2021-02-22 16:14:36.286] $GPGGA,071435.90,3713.9682533,N,13701.4552389,E,5,10,1.5,93.0373,M,37.55,M,3,0000*6C
[2021-02-22 16:14:36.411] $GPGGA,071436.00,3713.9682585,N,13701.4552390,E,5,10,1.5,93.0578,M,37.55,M,4,0000*69
[2021-02-22 16:14:36.505] $GPGGA,071436.10,3713.9682604,N,13701.4552402,E,5,10,1.5,93.0806,M,37.55,M,4,0000*6A
[2021-02-22 16:14:36.614] $GPGGA,071436.20,3713.9682631,N,13701.4552383,E,5,10,1.5,93.1056,M,37.55,M,4,0000*6D
[2021-02-22 16:14:36.692] $GPGGA,071436.30,3713.9682677,N,13701.4552361,E,5,10,1.5,93.1258,M,37.55,M,4,0000*6E
[2021-02-22 16:14:36.817] $GPGGA,071436.40,3713.9682703,N,13701.4552363,E,5,10,1.5,93.1349,M,37.55,M,4,0000*68
[2021-02-22 16:14:36.895] $GPGGA,071436.50,3713.9682701,N,13701.4552384,E,5,10,1.5,93.1366,M,37.55,M,4,0000*6F
[2021-02-22 16:14:37.020] $GPGGA,071436.60,3713.9682704,N,13701.4552416,E,5,10,1.5,93.1386,M,37.55,M,4,0000*6B
[2021-02-22 16:14:37.098] $GPGGA,071436.70,3713.9682737,N,13701.4552406,E,5,10,1.5,93.1486,M,37.55,M,4,0000*6C
[2021-02-22 16:14:37.208] $GPGGA,071436.80,3713.9682784,N,13701.4552382,E,5,10,1.5,93.1715,M,37.55,M,4,0000*69
[2021-02-22 16:14:37.286] $GPGGA,071436.90,3713.9682805,N,13701.4552380,E,5,10,1.5,93.1869,M,37.55,M,4,0000*68
[2021-02-22 16:14:37.411] $GPGGA,071437.00,3713.9682832,N,13701.4552380,E,5,10,1.5,93.1997,M,37.55,M,5,0000*65
[2021-02-22 16:14:37.504] $GPGGA,071437.10,3713.9682855,N,13701.4552356,E,5,10,1.5,93.2143,M,37.55,M,5,0000*6C
[2021-02-22 16:14:37.614] $GPGGA,071437.20,3713.9682870,N,13701.4552355,E,5,10,1.5,93.2227,M,37.55,M,5,0000*6A
[2021-02-22 16:14:37.723] $GPGGA,071437.30,3713.9682971,N,13701.4552237,E,5,11,1.3,93.2636,M,37.55,M,5,0000*6D
[2021-02-22 16:14:37.786] $GPGGA,071437.40,3713.9683107,N,13701.4552056,E,5,11,1.3,93.3302,M,37.55,M,5,0000*64
[2021-02-22 16:14:37.911] $GPGGA,071437.50,3713.9683204,N,13701.4551895,E,5,11,1.3,93.3894,M,37.55,M,5,0000*65
[2021-02-22 16:14:37.989] $GPGGA,071437.60,3713.9683366,N,13701.4551698,E,5,11,1.3,93.4638,M,37.55,M,5,0000*6F
[2021-02-22 16:14:38.114] $GPGGA,071437.70,3713.9683544,N,13701.4551512,E,5,11,1.3,93.5378,M,37.55,M,5,0000*69
[2021-02-22 16:14:38.192] $GPGGA,071437.80,3713.9683694,N,13701.4551368,E,5,11,1.3,93.5979,M,37.55,M,5,0000*68
[2021-02-22 16:14:38.317] $GPGGA,071437.90,3713.9683815,N,13701.4551264,E,5,11,1.3,93.6460,M,37.55,M,5,0000*65
[2021-02-22 16:14:38.395] $GPGGA,071438.00,3713.9683901,N,13701.4551192,E,5,11,1.3,93.6754,M,37.55,M,6,0000*6A
[2021-02-22 16:14:38.489] $GPGGA,071438.10,3713.9684016,N,13701.4551038,E,5,11,1.3,93.7348,M,37.55,M,6,0000*6A
[2021-02-22 16:14:38.614] $GPGGA,071438.20,3713.9684120,N,13701.4550893,E,5,11,1.3,93.7867,M,37.55,M,1,0000*64
[2021-02-22 16:14:38.707] $GPGGA,071438.30,3713.9684114,N,13701.4550820,E,5,11,1.3,93.7983,M,37.55,M,1,0000*61
[2021-02-22 16:14:38.786] $GPGGA,071438.40,3713.9684100,N,13701.4550822,E,5,11,1.3,93.8032,M,37.55,M,1,0000*6D
[2021-02-22 16:14:38.911] $GPGGA,071438.50,3713.9684093,N,13701.4550836,E,5,11,1.3,93.8082,M,37.55,M,1,0000*69
[2021-02-22 16:14:38.989] $GPGGA,071438.60,3713.9684095,N,13701.4550835,E,5,11,1.3,93.8103,M,37.55,M,1,0000*67
[2021-02-22 16:14:39.114] $GPGGA,071438.70,3713.9684172,N,13701.4550751,E,5,11,1.3,93.8380,M,37.55,M,1,0000*6A
[2021-02-22 16:14:39.192] $GPGGA,071438.80,3713.9684215,N,13701.4550696,E,5,11,1.3,93.8548,M,37.55,M,1,0000*6F
[2021-02-22 16:14:39.317] $GPGGA,071438.90,3713.9684187,N,13701.4550748,E,5,11,1.3,93.8414,M,37.55,M,1,0000*6C
[2021-02-22 16:14:39.411] $GPGGA,071439.00,3713.9684134,N,13701.4550788,E,5,11,1.3,93.8255,M,37.55,M,2,0000*60
[2021-02-22 16:14:39.504] $GPGGA,071439.10,3713.9684190,N,13701.4550731,E,5,11,1.3,93.8454,M,37.55,M,2,0000*6A
[2021-02-22 16:14:39.614] $GPGGA,071439.20,3713.9684235,N,13701.4550717,E,5,11,1.3,93.8561,M,37.55,M,2,0000*66
[2021-02-22 16:14:39.692] $GPGGA,071439.30,3713.9684245,N,13701.4550713,E,5,11,1.3,93.8622,M,37.55,M,2,0000*60
[2021-02-22 16:14:39.817] $GPGGA,071439.40,3713.9684271,N,13701.4550687,E,5,11,1.3,93.8813,M,37.55,M,2,0000*60
[2021-02-22 16:14:39.895] $GPGGA,071439.50,3713.9684358,N,13701.4550588,E,5,11,1.3,93.9172,M,37.55,M,2,0000*68
[2021-02-22 16:14:40.020] $GPGGA,071439.60,3713.9684445,N,13701.4550472,E,5,11,1.3,93.9618,M,37.55,M,2,0000*6F
[2021-02-22 16:14:40.098] $GPGGA,071439.70,3713.9684546,N,13701.4550343,E,5,11,1.3,94.0237,M,37.55,M,2,0000*6E
[2021-02-22 16:14:40.223] $GPGGA,071439.80,3713.9684621,N,13701.4550272,E,5,11,1.3,94.0525,M,37.55,M,2,0000*64
[2021-02-22 16:14:40.286] $GPGGA,071439.90,3713.9684723,N,13701.4550143,E,5,11,1.3,94.0964,M,37.55,M,2,0000*6E
[2021-02-22 16:14:40.410] $GPGGA,071440.00,3713.9684813,N,13701.4550032,E,5,11,1.3,94.1451,M,37.55,M,3,0000*69
[2021-02-22 16:14:40.504] $GPGGA,071440.10,3713.9684851,N,13701.4550023,E,5,11,1.3,94.1668,M,37.55,M,3,0000*66
[2021-02-22 16:14:40.614] $GPGGA,071440.20,3713.9684945,N,13701.4549921,E,5,11,1.3,94.2151,M,37.55,M,3,0000*6C
[2021-02-22 16:14:40.692] $GPGGA,071440.30,3713.9684968,N,13701.4549901,E,5,11,1.3,94.2340,M,37.55,M,3,0000*62
[2021-02-22 16:14:40.817] $GPGGA,071440.40,3713.9684984,N,13701.4549888,E,5,11,1.3,94.2608,M,37.55,M,3,0000*6E
[2021-02-22 16:14:40.895] $GPGGA,071440.50,3713.9684915,N,13701.4549996,E,5,11,1.3,94.2614,M,37.55,M,3,0000*64
[2021-02-22 16:14:41.020] $GPGGA,071440.60,3713.9684889,N,13701.4550051,E,5,11,1.3,94.2658,M,37.55,M,3,0000*61
[2021-02-22 16:14:41.098] $GPGGA,071440.70,3713.9684905,N,13701.4550081,E,5,11,1.3,94.2896,M,37.55,M,3,0000*64
[2021-02-22 16:14:41.207] $GPGGA,071440.80,3713.9684941,N,13701.4550022,E,5,11,1.3,94.3229,M,37.55,M,3,0000*6D
[2021-02-22 16:14:41.317] $GPGGA,071440.90,3713.9684956,N,13701.4550016,E,5,10,1.5,94.3324,M,37.55,M,3,0000*66
[2021-02-22 16:14:41.395] $GPGGA,071441.00,3713.9684953,N,13701.4550000,E,5,10,1.5,94.3429,M,37.55,M,4,0000*61
[2021-02-22 16:14:41.489] $GPGGA,071441.10,3713.9684970,N,13701.4549958,E,5,10,1.5,94.3525,M,37.55,M,4,0000*60
[2021-02-22 16:14:41.582] $GPGGA,071441.20,3713.9684989,N,13701.4549948,E,5,10,1.5,94.3655,M,37.55,M,4,0000*60
[2021-02-22 16:14:41.707] $GPGGA,071441.30,3713.9684995,N,13701.4549943,E,5,10,1.5,94.3801,M,37.55,M,4,0000*68
[2021-02-22 16:14:41.785] $GPGGA,071441.40,3713.9685004,N,13701.4549942,E,5,10,1.5,94.3905,M,37.55,M,4,0000*6B
[2021-02-22 16:14:41.910] $GPGGA,071441.50,3713.9685007,N,13701.4549970,E,5,10,1.5,94.3943,M,37.55,M,4,0000*6A
