
[2021-02-22 16:17:22.758] $GPGGA,071710.80,,,,,0,00,0.0,,M,,M,0,0000*5E
[2021-02-22 16:17:22.773] $GPGGA,071710.90,,,,,0,00,0.0,,M,,M,0,0000*5F
[2021-02-22 16:17:22.773] $GPGGA,071711.00,,,,,0,00,0.0,,M,,M,0,0000*57
[2021-02-22 16:17:22.773] $GPGGA,071711.10,,,,,0,00,0.0,,M,,M,0,0000*56
[2021-02-22 16:17:22.773] $GPGGA,071711.20,,,,,0,00,0.0,,M,,M,0,0000*55
[2021-02-22 16:17:22.773] $GPGGA,071711.30,,,,,0,00,0.0,,M,,M,0,0000*54
[2021-02-22 16:17:22.773] $GPGGA,071711.40,,,,,0,00,0.0,,M,,M,0,0000*53
[2021-02-22 16:17:22.773] $GPGGA,071711.50,,,,,0,00,0.0,,M,,M,0,0000*52
[2021-02-22 16:17:22.773] $GPGGA,071711.60,,,,,0,00,0.0,,M,,M,0,0000*51
[2021-02-22 16:17:22.773] $GPGGA,071711.70,,,,,0,00,0.0,,M,,M,0,0000*50
[2021-02-22 16:17:22.773] $GPGGA,071711.80,,,,,0,00,0.0,,M,,M,0,0000*5F
[2021-02-22 16:17:22.773] $GPGGA,071711.90,,,,,0,00,0.0,,M,,M,0,0000*5E
[2021-02-22 16:17:22.773] $GPGGA,071712.00,,,,,0,00,0.0,,M,,M,0,0000*54
[2021-02-22 16:17:22.773] $GPGGA,071712.10,,,,,0,00,0.0,,M,,M,0,0000*55
[2021-02-22 16:17:22.773] $GPGGA,071712.20,,,,,0,00,0.0,,M,,M,0,0000*56
[2021-02-22 16:17:22.773] $GPGGA,071712.30,,,,,0,00,0.0,,M,,M,0,0000*57
[2021-02-22 16:17:22.773] $GPGGA,071712.40,,,,,0,00,0.0,,M,,M,0,0000*50
[2021-02-22 16:17:22.773] $GPGGA,071712.50,,,,,0,00,0.0,,M,,M,0,0000*51
[2021-02-22 16:17:22.773] $GPGGA,071712.60,,,,,0,00,0.0,,M,,M,0,0000*52
[2021-02-22 16:17:22.773] $GPGGA,071712.70,,,,,0,00,0.0,,M,,M,0,0000*53
[2021-02-22 16:17:22.773] $GPGGA,071712.80,,,,,0,00,0.0,,M,,M,0,0000*5C
[2021-02-22 16:17:22.773] $GPGGA,071712.90,,,,,0,00,0.0,,M,,M,0,0000*5D
[2021-02-22 16:17:22.773] $GPGGA,071713.00,,,,,0,00,0.0,,M,,M,0,0000*55
[2021-02-22 16:17:22.789] $GPGGA,071713.10,,,,,0,00,0.0,,M,,M,0,0000*54
[2021-02-22 16:17:22.789] $GPGGA,071713.20,,,,,0,00,0.0,,M,,M,0,0000*57
[2021-02-22 16:17:22.789] $GPGGA,071713.30,,,,,0,00,0.0,,M,,M,0,0000*56
[2021-02-22 16:17:22.789] $GPGGA,071713.40,,,,,0,00,0.0,,M,,M,0,0000*51
[2021-02-22 16:17:22.789] $GPGGA,071713.50,,,,,0,00,0.0,,M,,M,0,0000*50
[2021-02-22 16:17:22.789] $GPGGA,071713.60,,,,,0,00,0.0,,M,,M,0,0000*53
[2021-02-22 16:17:22.789] $GPGGA,071713.70,,,,,0,00,0.0,,M,,M,0,0000*52
[2021-02-22 16:17:22.789] $GPGGA,071713.80,,,,,0,00,0.0,,M,,M,0,0000*5D
[2021-02-22 16:17:22.789] $GPGGA,071713.90,,,,,0,00,0.0,,M,,M,0,0000*5C
[2021-02-22 16:17:22.789] $GPGGA,071714.00,,,,,0,00,0.0,,M,,M,0,0000*52
[2021-02-22 16:17:22.789] $GPGGA,071714.10,,,,,0,00,0.0,,M,,M,0,0000*53
[2021-02-22 16:17:22.789] $GPGGA,071714.20,,,,,0,00,0.0,,M,,M,0,0000*50
[2021-02-22 16:17:22.789] $GPGGA,071714.30,,,,,0,00,0.0,,M,,M,0,0000*51
[2021-02-22 16:17:22.789] $GPGGA,071714.40,,,,,0,00,0.0,,M,,M,0,0000*56
[2021-02-22 16:17:22.789] $GPGGA,071714.50,,,,,0,00,0.0,,M,,M,0,0000*57
[2021-02-22 16:17:22.789] $GPGGA,071714.60,,,,,0,00,0.0,,M,,M,0,0000*54
[2021-02-22 16:17:22.789] $GPGGA,071714.70,,,,,0,00,0.0,,M,,M,0,0000*55
[2021-02-22 16:17:22.789] $GPGGA,071714.80,,,,,0,00,0.0,,M,,M,0,0000*5A
[2021-02-22 16:17:22.789] $GPGGA,071714.90,,,,,0,00,0.0,,M,,M,0,0000*5B
[2021-02-22 16:17:22.789] $GPGGA,071715.00,,,,,0,00,0.0,,M,,M,0,0000*53
[2021-02-22 16:17:22.789] $GPGGA,071715.10,,,,,0,00,0.0,,M,,M,0,0000*52
[2021-02-22 16:17:22.804] $GPGGA,071715.20,,,,,0,00,0.0,,M,,M,0,0000*51
[2021-02-22 16:17:22.804] $GPGGA,071715.30,,,,,0,00,0.0,,M,,M,0,0000*50
[2021-02-22 16:17:22.804] $GPGGA,071715.40,,,,,0,00,0.0,,M,,M,0,0000*57
[2021-02-22 16:17:22.804] $GPGGA,071715.50,,,,,0,00,0.0,,M,,M,0,0000*56
[2021-02-22 16:17:22.804] $GPGGA,071715.60,,,,,0,00,0.0,,M,,M,0,0000*55
[2021-02-22 16:17:22.804] $GPGGA,071715.70,,,,,0,00,0.0,,M,,M,0,0000*54
[2021-02-22 16:17:22.804] $GPGGA,071715.80,,,,,0,00,0.0,,M,,M,0,0000*5B
[2021-02-22 16:17:22.804] $GPGGA,071715.90,,,,,0,00,0.0,,M,,M,0,0000*5A
[2021-02-22 16:17:22.804] $GPGGA,071716.00,,,,,0,00,0.0,,M,,M,0,0000*50
[2021-02-22 16:17:22.804] $GPGGA,071716.10,,,,,0,00,0.0,,M,,M,0,0000*51
[2021-02-22 16:17:22.804] $GPGGA,071716.20,,,,,0,00,0.0,,M,,M,0,0000*52
[2021-02-22 16:17:22.804] $GPGGA,071716.30,,,,,0,00,0.0,,M,,M,0,0000*53
[2021-02-22 16:17:22.804] $GPGGA,071716.40,,,,,0,00,0.0,,M,,M,0,0000*54
[2021-02-22 16:17:22.804] $GPGGA,071716.50,,,,,0,00,0.0,,M,,M,0,0000*55
[2021-02-22 16:17:22.804] $GPGGA,071716.60,,,,,0,00,0.0,,M,,M,0,0000*56
[2021-02-22 16:17:22.804] $GPGGA,071716.70,,,,,0,00,0.0,,M,,M,0,0000*57
[2021-02-22 16:17:22.804] $GPGGA,071716.80,,,,,0,00,0.0,,M,,M,0,0000*58
[2021-02-22 16:17:22.804] $GPGGA,071716.90,,,,,0,00,0.0,,M,,M,0,0000*59
[2021-02-22 16:17:22.804] $GPGGA,071717.00,,,,,0,00,0.0,,M,,M,0,0000*51
[2021-02-22 16:17:22.804] $GPGGA,071717.10,,,,,0,00,0.0,,M,,M,0,0000*50
[2021-02-22 16:17:22.804] $GPGGA,071717.20,,,,,0,00,0.0,,M,,M,0,0000*53
[2021-02-22 16:17:22.804] $GPGGA,071717.30,,,,,0,00,0.0,,M,,M,0,0000*52
[2021-02-22 16:17:22.820] $GPGGA,071717.40,,,,,0,00,0.0,,M,,M,0,0000*55
[2021-02-22 16:17:22.820] $GPGGA,071717.50,,,,,0,00,0.0,,M,,M,0,0000*54
[2021-02-22 16:17:22.820] $GPGGA,071717.60,,,,,0,00,0.0,,M,,M,0,0000*57
[2021-02-22 16:17:22.820] $GPGGA,071717.70,,,,,0,00,0.0,,M,,M,0,0000*56
[2021-02-22 16:17:22.820] $GPGGA,071717.80,,,,,0,00,0.0,,M,,M,0,0000*59
[2021-02-22 16:17:22.820] $GPGGA,071717.90,,,,,0,00,0.0,,M,,M,0,0000*58
[2021-02-22 16:17:22.820] $GPGGA,071718.00,,,,,0,00,0.0,,M,,M,0,0000*5E
[2021-02-22 16:17:22.820] $GPGGA,071718.10,,,,,0,00,0.0,,M,,M,0,0000*5F
[2021-02-22 16:17:22.820] $GPGGA,071718.20,,,,,0,00,0.0,,M,,M,0,0000*5C
[2021-02-22 16:17:22.820] $GPGGA,071718.30,,,,,0,00,0.0,,M,,M,0,0000*5D
[2021-02-22 16:17:22.820] $GPGGA,071718.40,,,,,0,00,0.0,,M,,M,0,0000*5A
[2021-02-22 16:17:22.820] $GPGGA,071718.50,,,,,0,00,0.0,,M,,M,0,0000*5B
[2021-02-22 16:17:22.820] $GPGGA,071718.60,,,,,0,00,0.0,,M,,M,0,0000*58
[2021-02-22 16:17:22.820] $GPGGA,071718.70,,,,,0,00,0.0,,M,,M,0,0000*59
[2021-02-22 16:17:22.820] $GPGGA,071718.80,,,,,0,00,0.0,,M,,M,0,0000*56
[2021-02-22 16:17:22.820] $GPGGA,071718.90,,,,,0,00,0.0,,M,,M,0,0000*57
[2021-02-22 16:17:22.820] $GPGGA,071719.00,,,,,0,00,0.0,,M,,M,0,0000*5F
[2021-02-22 16:17:22.820] $GPGGA,071719.10,,,,,0,00,0.0,,M,,M,0,0000*5E
[2021-02-22 16:17:22.820] $GPGGA,071719.20,,,,,0,00,0.0,,M,,M,0,0000*5D
[2021-02-22 16:17:22.820] $GPGGA,071719.30,,,,,0,00,0.0,,M,,M,0,0000*5C
[2021-02-22 16:17:22.820] $GPGGA,071719.40,,,,,0,00,0.0,,M,,M,0,0000*5B
[2021-02-22 16:17:22.820] $GPGGA,071719.50,,,,,0,00,0.0,,M,,M,0,0000*5A
[2021-02-22 16:17:22.836] $GPGGA,071719.60,,,,,0,00,0.0,,M,,M,0,0000*59
[2021-02-22 16:17:22.836] $GPGGA,071719.70,,,,,0,00,0.0,,M,,M,0,0000*58
[2021-02-22 16:17:22.836] $GPGGA,071719.80,,,,,0,00,0.0,,M,,M,0,0000*57
[2021-02-22 16:17:22.836] $GPGGA,071719.90,,,,,0,00,0.0,,M,,M,0,0000*56
[2021-02-22 16:17:22.836] $GPGGA,071720.00,,,,,0,00,0.0,,M,,M,0,0000*55
[2021-02-22 16:17:22.836] $GPGGA,071720.10,,,,,0,00,0.0,,M,,M,0,0000*54
[2021-02-22 16:17:22.836] $GPGGA,071720.20,,,,,0,00,0.0,,M,,M,0,0000*57
[2021-02-22 16:17:22.836] $GPGGA,071720.30,,,,,0,00,0.0,,M,,M,0,0000*56
[2021-02-22 16:17:22.836] $GPGGA,071720.40,,,,,0,00,0.0,,M,,M,0,0000*51
[2021-02-22 16:17:22.836] $GPGGA,071720.50,,,,,0,00,0.0,,M,,M,0,0000*50
[2021-02-22 16:17:22.836] $GPGGA,071720.60,,,,,0,00,0.0,,M,,M,0,0000*53
[2021-02-22 16:17:22.836] $GPGGA,071720.70,,,,,0,00,0.0,,M,,M,0,0000*52
[2021-02-22 16:17:22.836] $GPGGA,071720.80,,,,,0,00,0.0,,M,,M,0,0000*5D
[2021-02-22 16:17:22.836] $GPGGA,071720.90,,,,,0,00,0.0,,M,,M,0,0000*5C
[2021-02-22 16:17:22.836] $GPGGA,071721.00,,,,,0,00,0.0,,M,,M,0,0000*54
[2021-02-22 16:17:22.836] $GPGGA,071721.10,,,,,0,00,0.0,,M,,M,0,0000*55
[2021-02-22 16:17:22.836] $GPGGA,071721.20,,,,,0,00,0.0,,M,,M,0,0000*56
[2021-02-22 16:17:22.836] $GPGGA,071721.30,,,,,0,00,0.0,,M,,M,0,0000*57
[2021-02-22 16:17:22.836] $GPGGA,071721.40,,,,,0,00,0.0,,M,,M,0,0000*50
[2021-02-22 16:17:22.836] $GPGGA,071721.50,,,,,0,00,0.0,,M,,M,0,0000*51
[2021-02-22 16:17:22.836] $GPGGA,071721.60,,,,,0,00,0.0,,M,,M,0,0000*52
[2021-02-22 16:17:22.836] $GPGGA,071721.70,,,,,0,00,0.0,,M,,M,0,0000*53
[2021-02-22 16:17:22.836] $GPGGA,071721.80,,,,,0,00,0.0,,M,,M,0,0000*5C
[2021-02-22 16:17:22.836] $GPGGA,071721.90,,,,,0,00,0.0,,M,,M,0,0000*5D
[2021-02-22 16:17:22.836] $GPGGA,071722.00,,,,,0,00,0.0,,M,,M,0,0000*57
[2021-02-22 16:17:22.836] $GPGGA,071722.10,,,,,0,00,0.0,,M,,M,0,0000*56
[2021-02-22 16:17:22.836] $GPGGA,071722.20,,,,,0,00,0.0,,M,,M,0,0000*55
[2021-02-22 16:17:22.836] $GPGGA,071722.30,,,,,0,00,0.0,,M,,M,0,0000*54
[2021-02-22 16:17:22.836] $GPGGA,071722.40,,,,,0,00,0.0,,M,,M,0,0000*53
[2021-02-22 16:17:22.883] $GPGGA,071722.50,,,,,0,00,0.0,,M,,M,0,0000*52
[2021-02-22 16:17:22.976] $GPGGA,071722.60,,,,,0,00,0.0,,M,,M,0,0000*51
[2021-02-22 16:17:23.086] $GPGGA,071722.70,,,,,0,00,0.0,,M,,M,0,0000*50
[2021-02-22 16:17:23.179] $GPGGA,071722.80,,,,,0,00,0.0,,M,,M,0,0000*5F
[2021-02-22 16:17:23.289] $GPGGA,071722.90,,,,,0,00,0.0,,M,,M,0,0000*5E
[2021-02-22 16:17:23.383] $GPGGA,071723.00,,,,,0,00,0.0,,M,,M,0,0000*56
[2021-02-22 16:17:23.476] $GPGGA,071723.10,,,,,0,00,0.0,,M,,M,0,0000*57
[2021-02-22 16:17:23.570] $GPGGA,071723.20,,,,,0,00,0.0,,M,,M,0,0000*54
[2021-02-22 16:17:23.679] $GPGGA,071723.30,,,,,0,00,0.0,,M,,M,0,0000*55
[2021-02-22 16:17:23.789] $GPGGA,071723.40,,,,,0,00,0.0,,M,,M,0,0000*52
[2021-02-22 16:17:23.883] $GPGGA,071723.50,,,,,0,00,0.0,,M,,M,0,0000*53
[2021-02-22 16:17:23.992] $GPGGA,071723.60,,,,,0,00,0.0,,M,,M,0,0000*50
[2021-02-22 16:17:24.086] $GPGGA,071723.70,,,,,0,00,0.0,,M,,M,0,0000*51
[2021-02-22 16:17:24.179] $GPGGA,071723.80,,,,,0,00,0.0,,M,,M,0,0000*5E
[2021-02-22 16:17:24.273] $GPGGA,071723.90,,,,,0,00,0.0,,M,,M,0,0000*5F
[2021-02-22 16:17:24.383] $GPGGA,071724.00,,,,,0,00,0.0,,M,,M,0,0000*51
[2021-02-22 16:17:24.492] $GPGGA,071724.10,,,,,0,00,0.0,,M,,M,0,0000*50
[2021-02-22 16:17:24.586] $GPGGA,071724.20,,,,,0,00,0.0,,M,,M,0,0000*53
[2021-02-22 16:17:24.679] $GPGGA,071724.30,,,,,0,00,0.0,,M,,M,0,0000*52
[2021-02-22 16:17:24.789] $GPGGA,071724.40,,,,,0,00,0.0,,M,,M,0,0000*55
[2021-02-22 16:17:24.882] $GPGGA,071724.50,,,,,0,00,0.0,,M,,M,0,0000*54
[2021-02-22 16:17:24.976] $GPGGA,071724.60,,,,,0,00,0.0,,M,,M,0,0000*57
[2021-02-22 16:17:25.086] $GPGGA,071724.70,,,,,0,00,0.0,,M,,M,0,0000*56
[2021-02-22 16:17:25.195] $GPGGA,071724.80,,,,,0,00,0.0,,M,,M,0,0000*59
[2021-02-22 16:17:25.289] $GPGGA,071724.90,,,,,0,00,0.0,,M,,M,0,0000*58
[2021-02-22 16:17:25.382] $GPGGA,071725.00,,,,,0,00,0.0,,M,,M,0,0000*50
[2021-02-22 16:17:25.476] $GPGGA,071725.10,,,,,0,00,0.0,,M,,M,0,0000*51
[2021-02-22 16:17:25.586] $GPGGA,071725.20,,,,,0,00,0.0,,M,,M,0,0000*52
[2021-02-22 16:17:25.679] $GPGGA,071725.30,,,,,0,00,0.0,,M,,M,0,0000*53
[2021-02-22 16:17:25.789] $GPGGA,071725.40,,,,,0,00,0.0,,M,,M,0,0000*54
[2021-02-22 16:17:25.882] $GPGGA,071725.50,,,,,0,00,0.0,,M,,M,0,0000*55
[2021-02-22 16:17:25.976] $GPGGA,071725.60,,,,,0,00,0.0,,M,,M,0,0000*56
[2021-02-22 16:17:26.086] $GPGGA,071725.70,,,,,0,00,0.0,,M,,M,0,0000*57
[2021-02-22 16:17:26.179] $GPGGA,071725.80,,,,,0,00,0.0,,M,,M,0,0000*58
[2021-02-22 16:17:26.273] $GPGGA,071725.90,,,,,0,00,0.0,,M,,M,0,0000*59
[2021-02-22 16:17:26.367] $GPGGA,071726.00,,,,,0,00,0.0,,M,,M,0,0000*53
[2021-02-22 16:17:26.492] $GPGGA,071726.10,,,,,0,00,0.0,,M,,M,0,0000*52
[2021-02-22 16:17:26.585] $GPGGA,071726.20,,,,,0,00,0.0,,M,,M,0,0000*51
[2021-02-22 16:17:26.679] $GPGGA,071726.30,,,,,0,00,0.0,,M,,M,0,0000*50
[2021-02-22 16:17:26.773] $GPGGA,071726.40,,,,,0,00,0.0,,M,,M,0,0000*57
[2021-02-22 16:17:26.882] $GPGGA,071726.50,,,,,0,00,0.0,,M,,M,0,0000*56
[2021-02-22 16:17:26.976] $GPGGA,071726.60,,,,,0,00,0.0,,M,,M,0,0000*55
[2021-02-22 16:17:27.070] $GPGGA,071726.70,,,,,0,00,0.0,,M,,M,0,0000*54
[2021-02-22 16:17:27.179] $GPGGA,071726.80,,,,,0,00,0.0,,M,,M,0,0000*5B
[2021-02-22 16:17:27.289] $GPGGA,071726.90,,,,,0,00,0.0,,M,,M,0,0000*5A
[2021-02-22 16:17:27.382] $GPGGA,071727.00,,,,,0,00,0.0,,M,,M,0,0000*52
[2021-02-22 16:17:27.476] $GPGGA,071727.10,,,,,0,00,0.0,,M,,M,0,0000*53
[2021-02-22 16:17:27.585] $GPGGA,071727.20,,,,,0,00,0.0,,M,,M,0,0000*50
[2021-02-22 16:17:27.679] $GPGGA,071727.30,,,,,0,00,0.0,,M,,M,0,0000*51
[2021-02-22 16:17:27.788] $GPGGA,071727.40,,,,,0,00,0.0,,M,,M,0,0000*56
[2021-02-22 16:17:27.882] $GPGGA,071727.50,,,,,0,00,0.0,,M,,M,0,0000*57
[2021-02-22 16:17:27.992] $GPGGA,071727.60,,,,,0,00,0.0,,M,,M,0,0000*54
[2021-02-22 16:17:28.085] $GPGGA,071727.70,,,,,0,00,0.0,,M,,M,0,0000*55
[2021-02-22 16:17:28.179] $GPGGA,071727.80,,,,,0,00,0.0,,M,,M,0,0000*5A
[2021-02-22 16:17:28.273] $GPGGA,071727.90,,,,,0,00,0.0,,M,,M,0,0000*5B
[2021-02-22 16:17:28.382] $GPGGA,071728.00,,,,,0,00,0.0,,M,,M,0,0000*5D
[2021-02-22 16:17:28.492] $GPGGA,071728.10,,,,,0,00,0.0,,M,,M,0,0000*5C
[2021-02-22 16:17:28.585] $GPGGA,071728.20,,,,,0,00,0.0,,M,,M,0,0000*5F
[2021-02-22 16:17:28.679] $GPGGA,071728.30,,,,,0,00,0.0,,M,,M,0,0000*5E
[2021-02-22 16:17:28.788] $GPGGA,071728.40,,,,,0,00,0.0,,M,,M,0,0000*59
[2021-02-22 16:17:28.882] $GPGGA,071728.50,,,,,0,00,0.0,,M,,M,0,0000*58
[2021-02-22 16:17:28.976] $GPGGA,071728.60,,,,,0,00,0.0,,M,,M,0,0000*5B
[2021-02-22 16:17:29.070] $GPGGA,071728.70,,,,,0,00,0.0,,M,,M,0,0000*5A
[2021-02-22 16:17:29.195] $GPGGA,071728.80,,,,,0,00,0.0,,M,,M,0,0000*55
[2021-02-22 16:17:29.288] $GPGGA,071728.90,,,,,0,00,0.0,,M,,M,0,0000*54
[2021-02-22 16:17:29.382] $GPGGA,071729.00,,,,,0,00,0.0,,M,,M,0,0000*5C
[2021-02-22 16:17:29.476] $GPGGA,071729.10,,,,,0,00,0.0,,M,,M,0,0000*5D
[2021-02-22 16:17:29.585] $GPGGA,071729.20,,,,,0,00,0.0,,M,,M,0,0000*5E
[2021-02-22 16:17:29.679] $GPGGA,071729.30,,,,,0,00,0.0,,M,,M,0,0000*5F
[2021-02-22 16:17:29.788] $GPGGA,071729.40,,,,,0,00,0.0,,M,,M,0,0000*58
[2021-02-22 16:17:29.882] $GPGGA,071729.50,,,,,0,00,0.0,,M,,M,0,0000*59
[2021-02-22 16:17:29.976] $GPGGA,071729.60,,,,,0,00,0.0,,M,,M,0,0000*5A
[2021-02-22 16:17:30.085] $GPGGA,071729.70,,,,,0,00,0.0,,M,,M,0,0000*5B
[2021-02-22 16:17:30.179] $GPGGA,071729.80,,,,,0,00,0.0,,M,,M,0,0000*54
[2021-02-22 16:17:30.273] $GPGGA,071729.90,,,,,0,00,0.0,,M,,M,0,0000*55
[2021-02-22 16:17:30.366] $GPGGA,071730.00,,,,,0,00,0.0,,M,,M,0,0000*54
[2021-02-22 16:17:30.491] $GPGGA,071730.10,,,,,0,00,0.0,,M,,M,0,0000*55
[2021-02-22 16:17:30.585] $GPGGA,071730.20,,,,,0,00,0.0,,M,,M,0,0000*56
[2021-02-22 16:17:30.679] $GPGGA,071730.30,,,,,0,00,0.0,,M,,M,0,0000*57
[2021-02-22 16:17:30.773] $GPGGA,071730.40,,,,,0,00,0.0,,M,,M,0,0000*50
[2021-02-22 16:17:30.882] $GPGGA,071730.50,,,,,0,00,0.0,,M,,M,0,0000*51
[2021-02-22 16:17:30.976] $GPGGA,071730.60,,,,,0,00,0.0,,M,,M,0,0000*52
[2021-02-22 16:17:31.070] $GPGGA,071730.70,,,,,0,00,0.0,,M,,M,0,0000*53
[2021-02-22 16:17:31.195] $GPGGA,071730.80,,,,,0,00,0.0,,M,,M,0,0000*5C
[2021-02-22 16:17:31.288] $GPGGA,071730.90,,,,,0,00,0.0,,M,,M,0,0000*5D
[2021-02-22 16:17:31.382] $GPGGA,071731.00,,,,,0,00,0.0,,M,,M,0,0000*55
[2021-02-22 16:17:31.476] $GPGGA,071731.10,,,,,0,00,0.0,,M,,M,0,0000*54
[2021-02-22 16:17:31.585] $GPGGA,071731.20,,,,,0,00,0.0,,M,,M,0,0000*57
[2021-02-22 16:17:31.679] $GPGGA,071731.30,,,,,0,00,0.0,,M,,M,0,0000*56
[2021-02-22 16:17:31.773] $GPGGA,071731.40,,,,,0,00,0.0,,M,,M,0,0000*51
[2021-02-22 16:17:31.882] $GPGGA,071731.50,,,,,0,00,0.0,,M,,M,0,0000*50
[2021-02-22 16:17:31.991] $GPGGA,071731.60,,,,,0,00,0.0,,M,,M,0,0000*53
[2021-02-22 16:17:32.085] $GPGGA,071731.70,,,,,0,00,0.0,,M,,M,0,0000*52
[2021-02-22 16:17:32.179] $GPGGA,071731.80,,,,,0,00,0.0,,M,,M,0,0000*5D
[2021-02-22 16:17:32.273] $GPGGA,071731.90,,,,,0,00,0.0,,M,,M,0,0000*5C
[2021-02-22 16:17:32.382] $GPGGA,071732.00,,,,,0,00,0.0,,M,,M,0,0000*56
[2021-02-22 16:17:32.491] $GPGGA,071732.10,,,,,0,00,0.0,,M,,M,0,0000*57
[2021-02-22 16:17:32.585] $GPGGA,071732.20,,,,,0,00,0.0,,M,,M,0,0000*54
[2021-02-22 16:17:32.679] $GPGGA,071732.30,,,,,0,00,0.0,,M,,M,0,0000*55
[2021-02-22 16:17:32.788] $GPGGA,071732.40,,,,,0,00,0.0,,M,,M,0,0000*52
[2021-02-22 16:17:32.882] $GPGGA,071732.50,,,,,0,00,0.0,,M,,M,0,0000*53
[2021-02-22 16:17:32.976] $GPGGA,071732.60,,,,,0,00,0.0,,M,,M,0,0000*50
[2021-02-22 16:17:33.085] $GPGGA,071732.70,,,,,0,00,0.0,,M,,M,0,0000*51
[2021-02-22 16:17:33.194] $GPGGA,071732.80,,,,,0,00,0.0,,M,,M,0,0000*5E
[2021-02-22 16:17:33.288] $GPGGA,071732.90,,,,,0,00,0.0,,M,,M,0,0000*5F
[2021-02-22 16:17:33.382] $GPGGA,071733.00,,,,,0,00,0.0,,M,,M,0,0000*57
[2021-02-22 16:17:33.491] $GPGGA,071733.10,,,,,0,00,0.0,,M,,M,0,0000*56
[2021-02-22 16:17:33.585] $GPGGA,071733.20,,,,,0,00,0.0,,M,,M,0,0000*55
[2021-02-22 16:17:33.679] $GPGGA,071733.30,,,,,0,00,0.0,,M,,M,0,0000*54
[2021-02-22 16:17:33.772] $GPGGA,071733.40,,,,,0,00,0.0,,M,,M,0,0000*53
[2021-02-22 16:17:33.882] $GPGGA,071733.50,,,,,0,00,0.0,,M,,M,0,0000*52
[2021-02-22 16:17:33.991] $GPGGA,071733.60,,,,,0,00,0.0,,M,,M,0,0000*51
[2021-02-22 16:17:34.085] $GPGGA,071733.70,,,,,0,00,0.0,,M,,M,0,0000*50
[2021-02-22 16:17:34.179] $GPGGA,071733.80,,,,,0,00,0.0,,M,,M,0,0000*5F
[2021-02-22 16:17:34.272] $GPGGA,071733.90,,,,,0,00,0.0,,M,,M,0,0000*5E
[2021-02-22 16:17:34.366] $GPGGA,071734.00,,,,,0,00,0.0,,M,,M,0,0000*50
[2021-02-22 16:17:34.491] $GPGGA,071734.10,,,,,0,00,0.0,,M,,M,0,0000*51
[2021-02-22 16:17:34.585] $GPGGA,071734.20,,,,,0,00,0.0,,M,,M,0,0000*52
[2021-02-22 16:17:34.679] $GPGGA,071734.30,,,,,0,00,0.0,,M,,M,0,0000*53
[2021-02-22 16:17:34.788] $GPGGA,071734.40,,,,,0,00,0.0,,M,,M,0,0000*54
[2021-02-22 16:17:34.882] $GPGGA,071734.50,,,,,0,00,0.0,,M,,M,0,0000*55
[2021-02-22 16:17:34.976] $GPGGA,071734.60,,,,,0,00,0.0,,M,,M,0,0000*56
[2021-02-22 16:17:35.069] $GPGGA,071734.70,,,,,0,00,0.0,,M,,M,0,0000*57
[2021-02-22 16:17:35.194] $GPGGA,071734.80,,,,,0,00,0.0,,M,,M,0,0000*58
[2021-02-22 16:17:35.288] $GPGGA,071734.90,,,,,0,00,0.0,,M,,M,0,0000*59
[2021-02-22 16:17:35.382] $GPGGA,071735.00,,,,,0,00,0.0,,M,,M,0,0000*51
[2021-02-22 16:17:35.475] $GPGGA,071735.10,,,,,0,00,0.0,,M,,M,0,0000*50
[2021-02-22 16:17:35.585] $GPGGA,071735.20,,,,,0,00,0.0,,M,,M,0,0000*53
[2021-02-22 16:17:35.679] $GPGGA,071735.30,,,,,0,00,0.0,,M,,M,0,0000*52
[2021-02-22 16:17:35.772] $GPGGA,071735.40,,,,,0,00,0.0,,M,,M,0,0000*55
[2021-02-22 16:17:35.882] $GPGGA,071735.50,,,,,0,00,0.0,,M,,M,0,0000*54
[2021-02-22 16:17:35.991] $GPGGA,071735.60,,,,,0,00,0.0,,M,,M,0,0000*57
[2021-02-22 16:17:36.085] $GPGGA,071735.70,,,,,0,00,0.0,,M,,M,0,0000*56
[2021-02-22 16:17:36.179] $GPGGA,071735.80,,,,,0,00,0.0,,M,,M,0,0000*59
[2021-02-22 16:17:36.272] $GPGGA,071735.90,,,,,0,00,0.0,,M,,M,0,0000*58
[2021-02-22 16:17:36.382] $GPGGA,071736.00,,,,,0,00,0.0,,M,,M,0,0000*52
[2021-02-22 16:17:36.491] $GPGGA,071736.10,,,,,0,00,0.0,,M,,M,0,0000*53
[2021-02-22 16:17:36.585] $GPGGA,071736.20,,,,,0,00,0.0,,M,,M,0,0000*50
[2021-02-22 16:17:36.694] $GPGGA,071736.30,,,,,0,00,0.0,,M,,M,0,0000*51
[2021-02-22 16:17:36.788] $GPGGA,071736.40,,,,,0,00,0.0,,M,,M,0,0000*56
[2021-02-22 16:17:36.882] $GPGGA,071736.50,,,,,0,00,0.0,,M,,M,0,0000*57
[2021-02-22 16:17:36.975] $GPGGA,071736.60,,,,,0,00,0.0,,M,,M,0,0000*54
[2021-02-22 16:17:37.085] $GPGGA,071736.70,,,,,0,00,0.0,,M,,M,0,0000*55
[2021-02-22 16:17:37.194] $GPGGA,071736.80,,,,,0,00,0.0,,M,,M,0,0000*5A
[2021-02-22 16:17:37.288] $GPGGA,071736.90,,,,,0,00,0.0,,M,,M,0,0000*5B
[2021-02-22 16:17:37.382] $GPGGA,071737.00,,,,,0,00,0.0,,M,,M,0,0000*53
[2021-02-22 16:17:37.491] $GPGGA,071737.10,,,,,0,00,0.0,,M,,M,0,0000*52
[2021-02-22 16:17:37.585] $GPGGA,071737.20,,,,,0,00,0.0,,M,,M,0,0000*51
[2021-02-22 16:17:37.678] $GPGGA,071737.30,,,,,0,00,0.0,,M,,M,0,0000*50
[2021-02-22 16:17:37.772] $GPGGA,071737.40,,,,,0,00,0.0,,M,,M,0,0000*57
[2021-02-22 16:17:37.897] $GPGGA,071737.50,,,,,0,00,0.0,,M,,M,0,0000*56
[2021-02-22 16:17:37.991] $GPGGA,071737.60,,,,,0,00,0.0,,M,,M,0,0000*55
[2021-02-22 16:17:38.085] $GPGGA,071737.70,,,,,0,00,0.0,,M,,M,0,0000*54
[2021-02-22 16:17:38.178] $GPGGA,071737.80,,,,,0,00,0.0,,M,,M,0,0000*5B
[2021-02-22 16:17:38.288] $GPGGA,071737.90,,,,,0,00,0.0,,M,,M,0,0000*5A
[2021-02-22 16:17:38.382] $GPGGA,071738.00,,,,,0,00,0.0,,M,,M,0,0000*5C
[2021-02-22 16:17:38.475] $GPGGA,071738.10,,,,,0,00,0.0,,M,,M,0,0000*5D
[2021-02-22 16:17:38.585] $GPGGA,071738.20,,,,,0,00,0.0,,M,,M,0,0000*5E
[2021-02-22 16:17:38.678] $GPGGA,071738.30,,,,,0,00,0.0,,M,,M,0,0000*5F
[2021-02-22 16:17:38.788] $GPGGA,071738.40,,,,,0,00,0.0,,M,,M,0,0000*58
[2021-02-22 16:17:38.882] $GPGGA,071738.50,,,,,0,00,0.0,,M,,M,0,0000*59
[2021-02-22 16:17:38.975] $GPGGA,071738.60,,,,,0,00,0.0,,M,,M,0,0000*5A
[2021-02-22 16:17:39.069] $GPGGA,071738.70,,,,,0,00,0.0,,M,,M,0,0000*5B
[2021-02-22 16:17:39.194] $GPGGA,071738.80,,,,,0,00,0.0,,M,,M,0,0000*54
[2021-02-22 16:17:39.288] $GPGGA,071738.90,,,,,0,00,0.0,,M,,M,0,0000*55
[2021-02-22 16:17:39.381] $GPGGA,071739.00,,,,,0,00,0.0,,M,,M,0,0000*5D
[2021-02-22 16:17:39.475] $GPGGA,071739.10,,,,,0,00,0.0,,M,,M,0,0000*5C
[2021-02-22 16:17:39.585] $GPGGA,071739.20,,,,,0,00,0.0,,M,,M,0,0000*5F
[2021-02-22 16:17:39.678] $GPGGA,071739.30,,,,,0,00,0.0,,M,,M,0,0000*5E
[2021-02-22 16:17:39.772] $GPGGA,071739.40,,,,,0,00,0.0,,M,,M,0,0000*59
[2021-02-22 16:17:39.881] $GPGGA,071739.50,,,,,0,00,0.0,,M,,M,0,0000*58
[2021-02-22 16:17:39.991] $GPGGA,071739.60,,,,,0,00,0.0,,M,,M,0,0000*5B
[2021-02-22 16:17:40.085] $GPGGA,071739.70,,,,,0,00,0.0,,M,,M,0,0000*5A
[2021-02-22 16:17:40.178] $GPGGA,071739.80,,,,,0,00,0.0,,M,,M,0,0000*55
[2021-02-22 16:17:40.288] $GPGGA,071739.90,,,,,0,00,0.0,,M,,M,0,0000*54
[2021-02-22 16:17:40.381] $GPGGA,071740.00,,,,,0,00,0.0,,M,,M,0,0000*53
[2021-02-22 16:17:40.475] $GPGGA,071740.10,,,,,0,00,0.0,,M,,M,0,0000*52
[2021-02-22 16:17:40.585] $GPGGA,071740.20,,,,,0,00,0.0,,M,,M,0,0000*51
[2021-02-22 16:17:40.694] $GPGGA,071740.30,,,,,0,00,0.0,,M,,M,0,0000*50
[2021-02-22 16:17:40.788] $GPGGA,071740.40,,,,,0,00,0.0,,M,,M,0,0000*57
[2021-02-22 16:17:40.881] $GPGGA,071740.50,,,,,0,00,0.0,,M,,M,0,0000*56
[2021-02-22 16:17:40.975] $GPGGA,071740.60,,,,,0,00,0.0,,M,,M,0,0000*55
[2021-02-22 16:17:41.084] $GPGGA,071740.70,,,,,0,00,0.0,,M,,M,0,0000*54
[2021-02-22 16:17:41.194] $GPGGA,071740.80,,,,,0,00,0.0,,M,,M,0,0000*5B
[2021-02-22 16:17:41.288] $GPGGA,071740.90,,,,,0,00,0.0,,M,,M,0,0000*5A
[2021-02-22 16:17:41.381] $GPGGA,071741.00,,,,,0,00,0.0,,M,,M,0,0000*52
[2021-02-22 16:17:41.491] $GPGGA,071741.10,,,,,0,00,0.0,,M,,M,0,0000*53
[2021-02-22 16:17:41.584] $GPGGA,071741.20,,,,,0,00,0.0,,M,,M,0,0000*50
[2021-02-22 16:17:41.678] $GPGGA,071741.30,,,,,0,00,0.0,,M,,M,0,0000*51
[2021-02-22 16:17:41.788] $GPGGA,071741.40,,,,,0,00,0.0,,M,,M,0,0000*56
[2021-02-22 16:17:41.897] $GPGGA,071741.50,,,,,0,00,0.0,,M,,M,0,0000*57
[2021-02-22 16:17:41.991] $GPGGA,071741.60,,,,,0,00,0.0,,M,,M,0,0000*54
[2021-02-22 16:17:42.084] $GPGGA,071741.70,,,,,0,00,0.0,,M,,M,0,0000*55
[2021-02-22 16:17:42.178] $GPGGA,071741.80,,,,,0,00,0.0,,M,,M,0,0000*5A
[2021-02-22 16:17:42.288] $GPGGA,071741.90,,,,,0,00,0.0,,M,,M,0,0000*5B
[2021-02-22 16:17:42.381] $GPGGA,071742.00,,,,,0,00,0.0,,M,,M,0,0000*51
[2021-02-22 16:17:42.475] $GPGGA,071742.10,,,,,0,00,0.0,,M,,M,0,0000*50
[2021-02-22 16:17:42.584] $GPGGA,071742.20,,,,,0,00,0.0,,M,,M,0,0000*53
[2021-02-22 16:17:42.678] $GPGGA,071742.30,,,,,0,00,0.0,,M,,M,0,0000*52
[2021-02-22 16:17:42.787] $GPGGA,071742.40,,,,,0,00,0.0,,M,,M,0,0000*55
[2021-02-22 16:17:42.881] $GPGGA,071742.50,,,,,0,00,0.0,,M,,M,0,0000*54
[2021-02-22 16:17:42.975] $GPGGA,071742.60,,,,,0,00,0.0,,M,,M,0,0000*57
[2021-02-22 16:17:43.100] $GPGGA,071742.70,3713.9693978,N,13701.4577108,E,1,06,1.8,83.7085,M,37.55,M,,*5F
[2021-02-22 16:17:43.194] $GPGGA,071742.80,3713.9692783,N,13701.4577543,E,1,06,1.8,83.3430,M,37.55,M,,*5E
[2021-02-22 16:17:43.272] $GPGGA,071742.90,3713.9692623,N,13701.4576954,E,1,06,1.8,83.6940,M,37.55,M,,*50
[2021-02-22 16:17:43.395] $GPGGA,071743.00,3713.9692368,N,13701.4576826,E,1,06,1.8,83.8002,M,37.55,M,,*57
[2021-02-22 16:17:43.473] $GPGGA,071743.10,3713.9692690,N,13701.4576816,E,1,06,1.8,83.5869,M,37.55,M,,*5F
[2021-02-22 16:17:43.598] $GPGGA,071743.20,3713.9692784,N,13701.4575611,E,1,06,1.8,83.9752,M,37.55,M,,*59
[2021-02-22 16:17:43.708] $GPGGA,071743.30,3713.9687023,N,13701.4547362,E,1,09,1.2,89.2512,M,37.55,M,,*54
[2021-02-22 16:17:43.786] $GPGGA,071743.40,3713.9686677,N,13701.4547007,E,1,09,1.2,89.4596,M,37.55,M,,*5F
[2021-02-22 16:17:43.895] $GPGGA,071743.50,3713.9687345,N,13701.4546005,E,1,09,1.2,89.9664,M,37.55,M,,*5B
[2021-02-22 16:17:43.989] $GPGGA,071743.60,3713.9687084,N,13701.4546336,E,1,09,1.2,90.1421,M,37.55,M,,*56
[2021-02-22 16:17:44.098] $GPGGA,071743.70,3713.9687383,N,13701.4546436,E,1,09,1.2,90.1184,M,37.55,M,,*5E
[2021-02-22 16:17:44.176] $GPGGA,071743.80,3713.9687115,N,13701.4546555,E,1,09,1.2,90.0061,M,37.55,M,,*53
[2021-02-22 16:17:44.301] $GPGGA,071743.90,3713.9686530,N,13701.4546015,E,1,09,1.2,90.0697,M,37.55,M,,*5E
[2021-02-22 16:17:44.379] $GPGGA,071744.00,3713.9686295,N,13701.4545567,E,1,09,1.2,90.3556,M,37.55,M,,*56
[2021-02-22 16:17:44.504] $GPGGA,071744.10,3713.9686764,N,13701.4546237,E,1,09,1.2,90.4267,M,37.55,M,,*5F
[2021-02-22 16:17:44.582] $GPGGA,071744.20,3713.9686776,N,13701.4545317,E,1,09,1.2,90.8030,M,37.55,M,,*53
[2021-02-22 16:17:44.707] $GPGGA,071744.30,3713.9686849,N,13701.4545177,E,1,09,1.2,90.4438,M,37.55,M,,*55
[2021-02-22 16:17:44.786] $GPGGA,071744.40,3713.9687492,N,13701.4545836,E,1,09,1.2,90.4607,M,37.55,M,,*5B
[2021-02-22 16:17:44.895] $GPGGA,071744.50,3713.9688146,N,13701.4546191,E,1,09,1.2,90.3976,M,37.55,M,,*50
[2021-02-22 16:17:44.973] $GPGGA,071744.60,3713.9688362,N,13701.4546084,E,1,09,1.2,90.4582,M,37.55,M,,*52
[2021-02-22 16:17:45.098] $GPGGA,071744.70,3713.9687802,N,13701.4545688,E,1,09,1.2,90.7215,M,37.55,M,,*52
[2021-02-22 16:17:45.176] $GPGGA,071744.80,3713.9687776,N,13701.4545827,E,1,09,1.2,90.5401,M,37.55,M,,*5B
[2021-02-22 16:17:45.301] $GPGGA,071744.90,3713.9688920,N,13701.4545668,E,1,09,1.2,90.4821,M,37.55,M,,*52
[2021-02-22 16:17:45.395] $GPGGA,071745.00,3713.9687276,N,13701.4545633,E,1,09,1.2,90.7207,M,37.55,M,,*5E
[2021-02-22 16:17:45.489] $GPGGA,071745.10,3713.9687007,N,13701.4545748,E,1,10,1.2,90.8481,M,37.55,M,,*59
[2021-02-22 16:17:45.598] $GPGGA,071745.20,3713.9687070,N,13701.4545760,E,1,10,1.2,90.7484,M,37.55,M,,*5A
[2021-02-22 16:17:45.676] $GPGGA,071745.30,3713.9687213,N,13701.4545645,E,1,10,1.2,90.6946,M,37.55,M,,*58
[2021-02-22 16:17:45.801] $GPGGA,071745.40,3713.9687975,N,13701.4544889,E,1,10,1.2,90.7499,M,37.55,M,,*55
[2021-02-22 16:17:45.879] $GPGGA,071745.50,3713.9687431,N,13701.4544668,E,1,10,1.2,91.0049,M,37.55,M,,*57
[2021-02-22 16:17:46.004] $GPGGA,071745.60,3713.9686699,N,13701.4545088,E,1,10,1.2,91.0623,M,37.55,M,,*56
[2021-02-22 16:17:46.082] $GPGGA,071745.70,3713.9687670,N,13701.4545258,E,1,10,1.2,90.9457,M,37.55,M,,*57
[2021-02-22 16:17:46.207] $GPGGA,071745.80,3713.9687839,N,13701.4546284,E,1,10,1.2,90.8163,M,37.55,M,,*5A
[2021-02-22 16:17:46.285] $GPGGA,071745.90,3713.9687907,N,13701.4545041,E,1,10,1.2,90.8227,M,37.55,M,,*5C
[2021-02-22 16:17:46.395] $GPGGA,071746.00,3713.9687596,N,13701.4546208,E,1,10,1.2,90.9399,M,37.55,M,,*5B
[2021-02-22 16:17:46.489] $GPGGA,071746.10,3713.9688067,N,13701.4545968,E,1,10,1.2,90.6275,M,37.55,M,,*5C
[2021-02-22 16:17:46.598] $GPGGA,071746.20,3713.9687526,N,13701.4546047,E,1,10,1.2,90.8279,M,37.55,M,,*55
[2021-02-22 16:17:46.676] $GPGGA,071746.30,3713.9687412,N,13701.4545793,E,1,10,1.2,91.0895,M,37.55,M,,*5E
[2021-02-22 16:17:46.801] $GPGGA,071746.40,3713.9687002,N,13701.4545774,E,1,10,1.2,90.9352,M,37.55,M,,*5D
[2021-02-22 16:17:46.879] $GPGGA,071746.50,3713.9687157,N,13701.4545581,E,1,10,1.2,90.9797,M,37.55,M,,*58
[2021-02-22 16:17:47.004] $GPGGA,071746.60,3713.9687191,N,13701.4546113,E,1,10,1.2,90.6132,M,37.55,M,,*5B
[2021-02-22 16:17:47.082] $GPGGA,071746.70,3713.9685970,N,13701.4546958,E,1,10,1.2,90.6327,M,37.55,M,,*5E
[2021-02-22 16:17:47.207] $GPGGA,071746.80,3713.9685665,N,13701.4547219,E,1,10,1.2,90.1839,M,37.55,M,,*56
[2021-02-22 16:17:47.301] $GPGGA,071746.90,3713.9684967,N,13701.4547367,E,1,10,1.2,90.3141,M,37.55,M,,*57
[2021-02-22 16:17:47.379] $GPGGA,071747.00,3713.9685115,N,13701.4547297,E,1,10,1.2,90.0862,M,37.55,M,,*56
[2021-02-22 16:17:47.504] $GPGGA,071747.10,3713.9684815,N,13701.4547568,E,1,10,1.2,90.2861,M,37.55,M,,*59
[2021-02-22 16:17:47.598] $GPGGA,071747.20,3713.9684901,N,13701.4547604,E,1,10,1.2,90.3910,M,37.55,M,,*51
[2021-02-22 16:17:47.707] $GPGGA,071747.30,3713.9685847,N,13701.4548871,E,1,10,1.2,90.1600,M,37.55,M,,*5D
[2021-02-22 16:17:47.785] $GPGGA,071747.40,3713.9686052,N,13701.4548680,E,1,10,1.2,90.1326,M,37.55,M,,*54
[2021-02-22 16:17:47.910] $GPGGA,071747.50,3713.9685669,N,13701.4547962,E,1,10,1.2,90.4056,M,37.55,M,,*55
[2021-02-22 16:17:47.989] $GPGGA,071747.60,3713.9685734,N,13701.4548050,E,1,10,1.2,90.5344,M,37.55,M,,*59
[2021-02-22 16:17:48.098] $GPGGA,071747.70,3713.9685512,N,13701.4547978,E,1,10,1.2,90.6084,M,37.55,M,,*5E
[2021-02-22 16:17:48.192] $GPGGA,071747.80,3713.9684577,N,13701.4547614,E,1,10,1.2,90.5868,M,37.55,M,,*5F
[2021-02-22 16:17:48.317] $GPGGA,071747.90,3713.9692480,N,13701.4525828,E,5,05,2.9,108.4433,M,37.55,M,5,0000*5B
[2021-02-22 16:17:48.395] $GPGGA,071748.00,3713.9700455,N,13701.4539195,E,5,06,2.6,103.9256,M,37.55,M,6,0000*51
[2021-02-22 16:17:48.504] $GPGGA,071748.10,3713.9698462,N,13701.4540747,E,5,06,2.6,102.5292,M,37.55,M,6,0000*56
[2021-02-22 16:17:48.582] $GPGGA,071748.20,3713.9696919,N,13701.4542126,E,5,06,2.6,101.5536,M,37.55,M,1,0000*54
[2021-02-22 16:17:48.707] $GPGGA,071748.30,3713.9695027,N,13701.4543200,E,5,06,2.6,100.4990,M,37.55,M,1,0000*54
[2021-02-22 16:17:48.785] $GPGGA,071748.40,3713.9693146,N,13701.4544160,E,5,06,2.6,99.6932,M,37.55,M,1,0000*6A
[2021-02-22 16:17:48.910] $GPGGA,071748.50,3713.9691720,N,13701.4544962,E,5,06,2.6,99.0905,M,37.55,M,1,0000*67
[2021-02-22 16:17:49.004] $GPGGA,071748.60,3713.9690374,N,13701.4545615,E,5,06,2.6,98.5643,M,37.55,M,1,0000*67
[2021-02-22 16:17:49.098] $GPGGA,071748.70,3713.9689294,N,13701.4546334,E,5,06,2.6,98.0964,M,37.55,M,1,0000*6B
[2021-02-22 16:17:49.207] $GPGGA,071748.80,3713.9687974,N,13701.4547014,E,5,06,2.6,97.5343,M,37.55,M,1,0000*6A
[2021-02-22 16:17:49.285] $GPGGA,071748.90,3713.9686715,N,13701.4547699,E,5,06,2.6,96.9786,M,37.55,M,1,0000*60
[2021-02-22 16:17:49.410] $GPGGA,071749.00,3713.9685597,N,13701.4548389,E,5,06,2.6,96.5324,M,37.55,M,2,0000*6B
[2021-02-22 16:17:49.504] $GPGGA,071749.10,3713.9684941,N,13701.4548877,E,5,06,2.6,96.2216,M,37.55,M,2,0000*61
[2021-02-22 16:17:49.613] $GPGGA,071749.20,3713.9684430,N,13701.4549196,E,5,06,2.6,96.0302,M,37.55,M,2,0000*68
[2021-02-22 16:17:49.692] $GPGGA,071749.30,3713.9684287,N,13701.4549343,E,5,06,2.6,95.9564,M,37.55,M,2,0000*65
[2021-02-22 16:17:49.816] $GPGGA,071749.40,3713.9684199,N,13701.4549365,E,5,06,2.6,95.9061,M,37.55,M,2,0000*6A
[2021-02-22 16:17:49.895] $GPGGA,071749.50,3713.9684107,N,13701.4549396,E,5,06,2.6,95.8682,M,37.55,M,2,0000*6A
[2021-02-22 16:17:50.004] $GPGGA,071749.60,3713.9684106,N,13701.4549360,E,5,06,2.6,95.8539,M,37.55,M,2,0000*62
[2021-02-22 16:17:50.082] $GPGGA,071749.70,3713.9684162,N,13701.4549269,E,5,06,2.6,95.8806,M,37.55,M,2,0000*68
[2021-02-22 16:17:50.207] $GPGGA,071749.80,3713.9684238,N,13701.4549246,E,5,06,2.6,95.8789,M,37.55,M,2,0000*6E
[2021-02-22 16:17:50.285] $GPGGA,071749.90,3713.9684175,N,13701.4549281,E,5,06,2.6,95.8309,M,37.55,M,2,0000*62
[2021-02-22 16:17:50.410] $GPGGA,071750.00,3713.9684011,N,13701.4549336,E,5,06,2.6,95.7754,M,37.55,M,3,0000*6F
[2021-02-22 16:17:50.504] $GPGGA,071750.10,3713.9684001,N,13701.4549292,E,5,06,2.6,95.7854,M,37.55,M,3,0000*6F
[2021-02-22 16:17:50.613] $GPGGA,071750.20,3713.9684064,N,13701.4549195,E,5,06,2.6,95.8041,M,37.55,M,3,0000*68
[2021-02-22 16:17:50.691] $GPGGA,071750.30,3713.9684221,N,13701.4549164,E,5,06,2.6,95.8336,M,37.55,M,3,0000*67
[2021-02-22 16:17:50.801] $GPGGA,071750.40,3713.9684373,N,13701.4549035,E,5,06,2.6,95.8826,M,37.55,M,3,0000*69
[2021-02-22 16:17:50.910] $GPGGA,071750.50,3713.9684439,N,13701.4549009,E,5,06,2.6,95.8859,M,37.55,M,3,0000*66
[2021-02-22 16:17:50.988] $GPGGA,071750.60,3713.9684506,N,13701.4548976,E,5,06,2.6,95.8973,M,37.55,M,3,0000*61
[2021-02-22 16:17:51.113] $GPGGA,071750.70,3713.9684616,N,13701.4548908,E,5,06,2.6,95.9427,M,37.55,M,3,0000*66
[2021-02-22 16:17:51.191] $GPGGA,071750.80,3713.9684647,N,13701.4548925,E,5,06,2.6,95.9426,M,37.55,M,3,0000*63
[2021-02-22 16:17:51.316] $GPGGA,071750.90,3713.9684608,N,13701.4548923,E,5,06,2.6,95.9460,M,37.55,M,3,0000*6D
[2021-02-22 16:17:51.395] $GPGGA,071751.00,3713.9684514,N,13701.4548945,E,5,06,2.6,95.9086,M,37.55,M,4,0000*60
[2021-02-22 16:17:51.504] $GPGGA,071751.10,3713.9684375,N,13701.4548983,E,5,06,2.6,95.8643,M,37.55,M,4,0000*64
[2021-02-22 16:17:51.582] $GPGGA,071751.20,3713.9684259,N,13701.4549048,E,5,06,2.6,95.8259,M,37.55,M,4,0000*68
[2021-02-22 16:17:51.707] $GPGGA,071751.30,3713.9684170,N,13701.4549131,E,5,06,2.6,95.7813,M,37.55,M,4,0000*65
[2021-02-22 16:17:51.785] $GPGGA,071751.40,3713.9684142,N,13701.4549157,E,5,06,2.6,95.7761,M,37.55,M,4,0000*69
[2021-02-22 16:17:51.910] $GPGGA,071751.50,3713.9684107,N,13701.4549178,E,5,06,2.6,95.7665,M,37.55,M,4,0000*61
[2021-02-22 16:17:51.988] $GPGGA,071751.60,3713.9684055,N,13701.4549176,E,5,06,2.6,95.7429,M,37.55,M,4,0000*60
[2021-02-22 16:17:52.113] $GPGGA,071751.70,3713.9683981,N,13701.4549177,E,5,06,2.6,95.7400,M,37.55,M,4,0000*6C
[2021-02-22 16:17:52.191] $GPGGA,071751.80,3713.9683886,N,13701.4549151,E,5,06,2.6,95.7325,M,37.55,M,4,0000*61
[2021-02-22 16:17:52.301] $GPGGA,071751.90,3713.9683767,N,13701.4549174,E,5,06,2.6,95.6962,M,37.55,M,4,0000*6F
[2021-02-22 16:17:52.394] $GPGGA,071752.00,3713.9683772,N,13701.4549154,E,5,06,2.6,95.7108,M,37.55,M,5,0000*67
[2021-02-22 16:17:52.488] $GPGGA,071752.10,3713.9683692,N,13701.4549187,E,5,06,2.6,95.6777,M,37.55,M,5,0000*68
[2021-02-22 16:17:52.613] $GPGGA,071752.20,3713.9683990,N,13701.4549044,E,5,07,2.5,95.7962,M,37.55,M,5,0000*61
[2021-02-22 16:17:52.691] $GPGGA,071752.30,3713.9684276,N,13701.4548893,E,5,07,2.5,95.9174,M,37.55,M,5,0000*66
[2021-02-22 16:17:52.816] $GPGGA,071752.40,3713.9684500,N,13701.4548805,E,5,07,2.5,96.0175,M,37.55,M,5,0000*63
[2021-02-22 16:17:52.894] $GPGGA,071752.50,3713.9684696,N,13701.4548729,E,5,07,2.5,96.1118,M,37.55,M,5,0000*65
[2021-02-22 16:17:53.019] $GPGGA,071752.60,3713.9684863,N,13701.4548663,E,5,07,2.5,96.1854,M,37.55,M,5,0000*6C
[2021-02-22 16:17:53.098] $GPGGA,071752.70,3713.9685009,N,13701.4548608,E,5,07,2.5,96.2500,M,37.55,M,5,0000*6A
[2021-02-22 16:17:53.207] $GPGGA,071752.80,3713.9685132,N,13701.4548535,E,5,07,2.5,96.2998,M,37.55,M,5,0000*6C
[2021-02-22 16:17:53.285] $GPGGA,071752.90,3713.9685253,N,13701.4548485,E,5,07,2.5,96.3610,M,37.55,M,5,0000*6D
[2021-02-22 16:17:53.410] $GPGGA,071753.00,3713.9685319,N,13701.4548455,E,5,07,2.5,96.3956,M,37.55,M,6,0000*69
[2021-02-22 16:17:53.504] $GPGGA,071753.10,3713.9685365,N,13701.4548446,E,5,07,2.5,96.4154,M,37.55,M,6,0000*6C
[2021-02-22 16:17:53.613] $GPGGA,071753.20,3713.9685435,N,13701.4548452,E,5,07,2.5,96.4237,M,37.55,M,1,0000*69
[2021-02-22 16:17:53.691] $GPGGA,071753.30,3713.9685412,N,13701.4548460,E,5,07,2.5,96.4244,M,37.55,M,1,0000*68
[2021-02-22 16:17:53.816] $GPGGA,071753.40,3713.9685425,N,13701.4548489,E,5,07,2.5,96.4297,M,37.55,M,1,0000*62
[2021-02-22 16:17:53.894] $GPGGA,071753.50,3713.9685459,N,13701.4548493,E,5,07,2.5,96.4442,M,37.55,M,1,0000*6D
[2021-02-22 16:17:54.004] $GPGGA,071753.60,3713.9685527,N,13701.4548476,E,5,07,2.5,96.4750,M,37.55,M,1,0000*6D
[2021-02-22 16:17:54.097] $GPGGA,071753.70,3713.9685632,N,13701.4548447,E,5,07,2.5,96.5153,M,37.55,M,1,0000*6D
[2021-02-22 16:17:54.207] $GPGGA,071753.80,3713.9685701,N,13701.4548402,E,5,07,2.5,96.5458,M,37.55,M,1,0000*6C
[2021-02-22 16:17:54.285] $GPGGA,071753.90,3713.9685758,N,13701.4548338,E,5,07,2.5,96.5659,M,37.55,M,1,0000*6C
[2021-02-22 16:17:54.410] $GPGGA,071754.00,3713.9685825,N,13701.4548321,E,5,07,2.5,96.5917,M,37.55,M,2,0000*69
[2021-02-22 16:17:54.519] $GPGGA,071754.10,3713.9687081,N,13701.4547540,E,5,08,1.7,97.1734,M,37.55,M,2,0000*66
[2021-02-22 16:17:54.597] $GPGGA,071754.20,3713.9687842,N,13701.4547100,E,5,08,1.7,97.5147,M,37.55,M,2,0000*64
[2021-02-22 16:17:54.707] $GPGGA,071754.30,3713.9688074,N,13701.4546941,E,5,08,1.7,97.6056,M,37.55,M,2,0000*69
[2021-02-22 16:17:54.801] $GPGGA,071754.40,3713.9687605,N,13701.4547179,E,5,09,1.5,97.3533,M,37.55,M,2,0000*63
[2021-02-22 16:17:54.925] $GPGGA,071754.50,3713.9687634,N,13701.4547121,E,5,09,1.5,97.3411,M,37.55,M,2,0000*6C
[2021-02-22 16:17:55.004] $GPGGA,071754.60,3713.9687578,N,13701.4547116,E,5,09,1.5,97.2867,M,37.55,M,2,0000*6C
[2021-02-22 16:17:55.113] $GPGGA,071754.70,3713.9687482,N,13701.4547159,E,5,09,1.5,97.2156,M,37.55,M,2,0000*69
[2021-02-22 16:17:55.191] $GPGGA,071754.80,3713.9687415,N,13701.4547169,E,5,09,1.5,97.1670,M,37.55,M,2,0000*6B
[2021-02-22 16:17:55.316] $GPGGA,071754.90,3713.9687354,N,13701.4547165,E,5,09,1.5,97.1234,M,37.55,M,2,0000*60
[2021-02-22 16:17:55.394] $GPGGA,071755.00,3713.9687312,N,13701.4547177,E,5,09,1.5,97.0726,M,37.55,M,3,0000*6F
[2021-02-22 16:17:55.504] $GPGGA,071755.10,3713.9687304,N,13701.4547180,E,5,09,1.5,97.0387,M,37.55,M,3,0000*6E
[2021-02-22 16:17:55.597] $GPGGA,071755.20,3713.9687302,N,13701.4547185,E,5,09,1.5,97.0191,M,37.55,M,3,0000*6B
[2021-02-22 16:17:55.722] $GPGGA,071755.30,3713.9687271,N,13701.4547191,E,5,09,1.5,96.9945,M,37.55,M,3,0000*63
[2021-02-22 16:17:55.800] $GPGGA,071755.40,3713.9687260,N,13701.4547193,E,5,09,1.5,96.9777,M,37.55,M,3,0000*69
[2021-02-22 16:17:55.925] $GPGGA,071755.50,3713.9686495,N,13701.4547375,E,5,10,1.1,96.6945,M,37.55,M,3,0000*63
[2021-02-22 16:17:56.019] $GPGGA,071755.60,3713.9686005,N,13701.4547499,E,5,11,1.0,96.5128,M,37.55,M,3,0000*68
[2021-02-22 16:17:56.129] $GPGGA,071755.70,3713.9685589,N,13701.4547588,E,5,11,1.0,96.3538,M,37.55,M,3,0000*69
[2021-02-22 16:17:56.222] $GPGGA,071755.80,3713.9685246,N,13701.4547626,E,5,11,1.0,96.2237,M,37.55,M,3,0000*6C
[2021-02-22 16:17:56.300] $GPGGA,071755.90,3713.9685019,N,13701.4547612,E,5,11,1.0,96.1508,M,37.55,M,3,0000*6A
[2021-02-22 16:17:56.425] $GPGGA,071756.00,3713.9684863,N,13701.4547568,E,5,11,1.0,96.0952,M,37.55,M,4,0000*6F
[2021-02-22 16:17:56.519] $GPGGA,071756.10,3713.9684676,N,13701.4547546,E,5,11,1.0,96.0350,M,37.55,M,4,0000*60
[2021-02-22 16:17:56.629] $GPGGA,071756.20,3713.9684537,N,13701.4547486,E,5,11,1.0,95.9960,M,37.55,M,4,0000*6B
[2021-02-22 16:17:56.722] $GPGGA,071756.30,3713.9684466,N,13701.4547418,E,5,12,1.0,95.9842,M,37.55,M,4,0000*6A
[2021-02-22 16:17:56.832] $GPGGA,071756.40,3713.9684391,N,13701.4547378,E,5,12,1.0,95.9630,M,37.55,M,4,0000*68
[2021-02-22 16:17:56.910] $GPGGA,071756.50,3713.9684294,N,13701.4547359,E,5,12,1.0,95.9312,M,37.55,M,4,0000*6B
[2021-02-22 16:17:57.035] $GPGGA,071756.60,3713.9684283,N,13701.4547297,E,5,12,1.0,95.9338,M,37.55,M,4,0000*65
[2021-02-22 16:17:57.113] $GPGGA,071756.70,3713.9684246,N,13701.4547240,E,5,12,1.0,95.9262,M,37.55,M,4,0000*69
[2021-02-22 16:17:57.238] $GPGGA,071756.80,3713.9684208,N,13701.4547194,E,5,12,1.0,95.9185,M,37.55,M,4,0000*6C
[2021-02-22 16:17:57.316] $GPGGA,071756.90,3713.9684174,N,13701.4547108,E,5,12,1.0,95.9142,M,37.55,M,4,0000*6B
[2021-02-22 16:17:57.425] $GPGGA,071757.00,3713.9684160,N,13701.4547011,E,5,12,1.0,95.9182,M,37.55,M,5,0000*62
[2021-02-22 16:17:57.535] $GPGGA,071757.10,3713.9684183,N,13701.4546963,E,5,12,1.0,95.9269,M,37.55,M,5,0000*65
[2021-02-22 16:17:57.628] $GPGGA,071757.20,3713.9684051,N,13701.4546775,E,5,12,1.0,95.9051,M,37.55,M,5,0000*68
[2021-02-22 16:17:57.707] $GPGGA,071757.30,3713.9684036,N,13701.4546664,E,5,12,1.0,95.9036,M,37.55,M,5,0000*68
[2021-02-22 16:17:57.832] $GPGGA,071757.40,3713.9684003,N,13701.4546648,E,5,12,1.0,95.8814,M,37.55,M,5,0000*6E
[2021-02-22 16:17:57.941] $GPGGA,071757.50,3713.9683961,N,13701.4546655,E,5,12,1.0,95.8540,M,37.55,M,5,0000*65
[2021-02-22 16:17:58.019] $GPGGA,071757.60,3713.9683913,N,13701.4546668,E,5,12,1.0,95.8253,M,37.55,M,5,0000*68
[2021-02-22 16:17:58.128] $GPGGA,071757.70,3713.9683828,N,13701.4546689,E,5,12,1.0,95.7782,M,37.55,M,5,0000*69
[2021-02-22 16:17:58.207] $GPGGA,071757.80,3713.9683759,N,13701.4546715,E,5,12,1.0,95.7346,M,37.55,M,5,0000*67
[2021-02-22 16:17:58.331] $GPGGA,071757.90,3713.9683748,N,13701.4546742,E,5,12,1.0,95.7224,M,37.55,M,5,0000*61
[2021-02-22 16:17:58.410] $GPGGA,071758.00,3713.9683697,N,13701.4546753,E,5,12,1.0,95.7051,M,37.55,M,6,0000*67
[2021-02-22 16:17:58.535] $GPGGA,071758.10,3713.9683609,N,13701.4546729,E,5,12,1.0,95.6859,M,37.55,M,6,0000*6D
[2021-02-22 16:17:58.613] $GPGGA,071758.20,3713.9683595,N,13701.4546721,E,5,12,1.0,95.6810,M,37.55,M,1,0000*6A
[2021-02-22 16:17:58.738] $GPGGA,071758.30,3713.9683589,N,13701.4546676,E,5,12,1.0,95.6950,M,37.55,M,1,0000*60
[2021-02-22 16:17:58.816] $GPGGA,071758.40,3713.9683585,N,13701.4546660,E,5,12,1.0,95.7019,M,37.55,M,1,0000*69
[2021-02-22 16:17:58.925] $GPGGA,071758.50,3713.9683573,N,13701.4546656,E,5,12,1.0,95.7017,M,37.55,M,1,0000*6A
[2021-02-22 16:17:59.003] $GPGGA,071758.60,3713.9683572,N,13701.4546650,E,5,12,1.0,95.7023,M,37.55,M,1,0000*69
[2021-02-22 16:17:59.128] $GPGGA,071758.70,3713.9683519,N,13701.4546639,E,5,12,1.0,95.6874,M,37.55,M,1,0000*61
[2021-02-22 16:17:59.206] $GPGGA,071758.80,3713.9683484,N,13701.4546621,E,5,12,1.0,95.6759,M,37.55,M,1,0000*62
[2021-02-22 16:17:59.331] $GPGGA,071758.90,3713.9683469,N,13701.4546601,E,5,12,1.0,95.6711,M,37.55,M,1,0000*6E
[2021-02-22 16:17:59.410] $GPGGA,071759.00,3713.9683453,N,13701.4546579,E,5,12,1.0,95.6650,M,37.55,M,2,0000*64
[2021-02-22 16:17:59.519] $GPGGA,071759.10,3713.9683459,N,13701.4546552,E,5,12,1.0,95.6694,M,37.55,M,2,0000*6E
[2021-02-22 16:17:59.628] $GPGGA,071759.20,3713.9683436,N,13701.4546527,E,5,12,1.0,95.6664,M,37.55,M,2,0000*69
[2021-02-22 16:17:59.722] $GPGGA,071759.30,3713.9683399,N,13701.4546512,E,5,12,1.0,95.6574,M,37.55,M,2,0000*6E
[2021-02-22 16:17:59.831] $GPGGA,071759.40,3713.9683386,N,13701.4546495,E,5,12,1.0,95.6529,M,37.55,M,2,0000*61
[2021-02-22 16:17:59.910] $GPGGA,071759.50,3713.9683362,N,13701.4546473,E,5,12,1.0,95.6457,M,37.55,M,2,0000*6A
[2021-02-22 16:18:00.034] $GPGGA,071759.60,3713.9683364,N,13701.4546476,E,5,12,1.0,95.6455,M,37.55,M,2,0000*68
[2021-02-22 16:18:00.113] $GPGGA,071759.70,3713.9683343,N,13701.4546458,E,5,12,1.0,95.6361,M,37.55,M,2,0000*60
[2021-02-22 16:18:00.238] $GPGGA,071759.80,3713.9683331,N,13701.4546457,E,5,12,1.0,95.6260,M,37.55,M,2,0000*65
[2021-02-22 16:18:00.316] $GPGGA,071759.90,3713.9683342,N,13701.4546456,E,5,12,1.0,95.6271,M,37.55,M,2,0000*61
[2021-02-22 16:18:00.441] $GPGGA,071800.00,3713.9683332,N,13701.4546433,E,5,12,1.0,95.6228,M,37.55,M,3,0000*62
[2021-02-22 16:18:00.534] $GPGGA,071800.10,3713.9683328,N,13701.4546423,E,5,12,1.0,95.6162,M,37.55,M,3,0000*64
[2021-02-22 16:18:00.628] $GPGGA,071800.20,3713.9683324,N,13701.4546428,E,5,12,1.0,95.6069,M,37.55,M,3,0000*6A
[2021-02-22 16:18:00.706] $GPGGA,071800.30,3713.9683341,N,13701.4546414,E,5,12,1.0,95.6133,M,37.55,M,3,0000*69
[2021-02-22 16:18:00.831] $GPGGA,071800.40,3713.9683342,N,13701.4546416,E,5,12,1.0,95.6129,M,37.55,M,3,0000*64
[2021-02-22 16:18:00.909] $GPGGA,071800.50,3713.9683351,N,13701.4546426,E,5,12,1.0,95.6082,M,37.55,M,3,0000*64
[2021-02-22 16:18:01.034] $GPGGA,071800.60,3713.9683360,N,13701.4546427,E,5,12,1.0,95.6081,M,37.55,M,3,0000*67
[2021-02-22 16:18:01.113] $GPGGA,071800.70,3713.9683367,N,13701.4546421,E,5,12,1.0,95.6095,M,37.55,M,3,0000*62
[2021-02-22 16:18:01.238] $GPGGA,071800.80,3713.9683335,N,13701.4546407,E,5,12,1.0,95.5968,M,37.55,M,3,0000*66
[2021-02-22 16:18:01.316] $GPGGA,071800.90,3713.9683313,N,13701.4546404,E,5,12,1.0,95.5868,M,37.55,M,3,0000*61
[2021-02-22 16:18:01.425] $GPGGA,071801.00,3713.9683277,N,13701.4546393,E,5,12,1.0,95.5710,M,37.55,M,4,0000*64
[2021-02-22 16:18:01.534] $GPGGA,071801.10,3713.9683281,N,13701.4546367,E,5,12,1.0,95.5794,M,37.55,M,4,0000*6B
[2021-02-22 16:18:01.613] $GPGGA,071801.20,3713.9683268,N,13701.4546357,E,5,12,1.0,95.5788,M,37.55,M,4,0000*61
[2021-02-22 16:18:01.737] $GPGGA,071801.30,3713.9683261,N,13701.4546336,E,5,12,1.0,95.5776,M,37.55,M,4,0000*6F
[2021-02-22 16:18:01.816] $GPGGA,071801.40,3713.9683273,N,13701.4546318,E,5,12,1.0,95.5883,M,37.55,M,4,0000*62
[2021-02-22 16:18:01.941] $GPGGA,071801.50,3713.9683256,N,13701.4546298,E,5,12,1.0,95.5913,M,37.55,M,4,0000*65
[2021-02-22 16:18:02.019] $GPGGA,071801.60,3713.9683268,N,13701.4546283,E,5,12,1.0,95.6012,M,37.55,M,4,0000*6A
[2021-02-22 16:18:02.128] $GPGGA,071801.70,3713.9683277,N,13701.4546254,E,5,12,1.0,95.6133,M,37.55,M,4,0000*6D
[2021-02-22 16:18:02.206] $GPGGA,071801.80,3713.9683277,N,13701.4546213,E,5,12,1.0,95.6171,M,37.55,M,4,0000*67
[2021-02-22 16:18:02.331] $GPGGA,071801.90,3713.9683288,N,13701.4546171,E,5,12,1.0,95.6228,M,37.55,M,4,0000*6E
[2021-02-22 16:18:02.409] $GPGGA,071802.00,3713.9683287,N,13701.4546132,E,5,12,1.0,95.6216,M,37.55,M,5,0000*60
[2021-02-22 16:18:02.519] $GPGGA,071802.10,3713.9683288,N,13701.4546111,E,5,12,1.0,95.6200,M,37.55,M,5,0000*68
[2021-02-22 16:18:02.612] $GPGGA,071802.20,3713.9683297,N,13701.4546097,E,5,12,1.0,95.6227,M,37.55,M,5,0000*6F
[2021-02-22 16:18:02.737] $GPGGA,071802.30,3713.9683289,N,13701.4546081,E,5,12,1.0,95.6208,M,37.55,M,5,0000*6B
[2021-02-22 16:18:02.816] $GPGGA,071802.40,3713.9683311,N,13701.4546068,E,5,12,1.0,95.6273,M,37.55,M,5,0000*67
[2021-02-22 16:18:02.925] $GPGGA,071802.50,3713.9683331,N,13701.4546066,E,5,12,1.0,95.6340,M,37.55,M,5,0000*6B
[2021-02-22 16:18:03.003] $GPGGA,071802.60,3713.9683364,N,13701.4546047,E,5,12,1.0,95.6423,M,37.55,M,5,0000*69
[2021-02-22 16:18:03.128] $GPGGA,071802.70,3713.9683371,N,13701.4546041,E,5,12,1.0,95.6429,M,37.55,M,5,0000*60
[2021-02-22 16:18:03.206] $GPGGA,071802.80,3713.9683368,N,13701.4546038,E,5,12,1.0,95.6439,M,37.55,M,5,0000*68
[2021-02-22 16:18:03.331] $GPGGA,071802.90,3713.9683349,N,13701.4546028,E,5,12,1.0,95.6383,M,37.55,M,5,0000*6D
[2021-02-22 16:18:03.441] $GPGGA,071803.00,3713.9683345,N,13701.4546008,E,5,12,1.0,95.6366,M,37.55,M,6,0000*63
[2021-02-22 16:18:03.534] $GPGGA,071803.10,3713.9683341,N,13701.4546000,E,5,12,1.0,95.6334,M,37.55,M,6,0000*69
[2021-02-22 16:18:03.628] $GPGGA,071803.20,3713.9683344,N,13701.4545987,E,5,12,1.0,95.6292,M,37.55,M,1,0000*60
[2021-02-22 16:18:03.706] $GPGGA,071803.30,3713.9683359,N,13701.4545971,E,5,12,1.0,95.6257,M,37.55,M,1,0000*6D
[2021-02-22 16:18:03.831] $GPGGA,071803.40,3713.9683366,N,13701.4545955,E,5,12,1.0,95.6225,M,37.55,M,1,0000*65
[2021-02-22 16:18:03.909] $GPGGA,071803.50,3713.9683365,N,13701.4545956,E,5,12,1.0,95.6148,M,37.55,M,1,0000*6C
[2021-02-22 16:18:04.034] $GPGGA,071803.60,3713.9683366,N,13701.4545956,E,5,12,1.0,95.6093,M,37.55,M,1,0000*6B
[2021-02-22 16:18:04.112] $GPGGA,071803.70,3713.9683380,N,13701.4545948,E,5,12,1.0,95.6064,M,37.55,M,1,0000*65
[2021-02-22 16:18:04.237] $GPGGA,071803.80,3713.9683401,N,13701.4545924,E,5,12,1.0,95.6041,M,37.55,M,1,0000*69
[2021-02-22 16:18:04.315] $GPGGA,071803.90,3713.9683419,N,13701.4545891,E,5,12,1.0,95.6009,M,37.55,M,1,0000*62
[2021-02-22 16:18:04.440] $GPGGA,071804.00,3713.9683438,N,13701.4545868,E,5,12,1.0,95.5932,M,37.55,M,2,0000*68
[2021-02-22 16:18:04.534] $GPGGA,071804.10,3713.9683452,N,13701.4545846,E,5,12,1.0,95.5852,M,37.55,M,2,0000*6E
[2021-02-22 16:18:04.628] $GPGGA,071804.20,3713.9683456,N,13701.4545844,E,5,12,1.0,95.5792,M,37.55,M,2,0000*68
[2021-02-22 16:18:04.706] $GPGGA,071804.30,3713.9683452,N,13701.4545848,E,5,12,1.0,95.5641,M,37.55,M,2,0000*6E
[2021-02-22 16:18:04.831] $GPGGA,071804.40,3713.9683455,N,13701.4545845,E,5,12,1.0,95.5551,M,37.55,M,2,0000*61
[2021-02-22 16:18:04.909] $GPGGA,071804.50,3713.9683463,N,13701.4545834,E,5,12,1.0,95.5510,M,37.55,M,2,0000*66
[2021-02-22 16:18:05.034] $GPGGA,071804.60,3713.9683459,N,13701.4545827,E,5,12,1.0,95.5437,M,37.55,M,2,0000*6A
[2021-02-22 16:18:05.128] $GPGGA,071804.70,3713.9683484,N,13701.4545808,E,5,12,1.0,95.5463,M,37.55,M,2,0000*67
[2021-02-22 16:18:05.206] $GPGGA,071804.80,3713.9683500,N,13701.4545790,E,5,12,1.0,95.5439,M,37.55,M,2,0000*64
[2021-02-22 16:18:05.331] $GPGGA,071804.90,3713.9683510,N,13701.4545750,E,5,12,1.0,95.5459,M,37.55,M,2,0000*6E
[2021-02-22 16:18:05.409] $GPGGA,071805.00,3713.9683517,N,13701.4545743,E,5,12,1.0,95.5438,M,37.55,M,3,0000*65
[2021-02-22 16:18:05.519] $GPGGA,071805.10,3713.9683513,N,13701.4545740,E,5,12,1.0,95.5396,M,37.55,M,3,0000*60
[2021-02-22 16:18:05.628] $GPGGA,071805.20,3713.9683520,N,13701.4545743,E,5,12,1.0,95.5438,M,37.55,M,3,0000*63
[2021-02-22 16:18:05.737] $GPGGA,071805.30,3713.9683527,N,13701.4545756,E,5,12,1.0,95.5452,M,37.55,M,3,0000*6D
[2021-02-22 16:18:05.815] $GPGGA,071805.40,3713.9683533,N,13701.4545749,E,5,12,1.0,95.5498,M,37.55,M,3,0000*67
[2021-02-22 16:18:05.925] $GPGGA,071805.50,3713.9683535,N,13701.4545721,E,5,12,1.0,95.5528,M,37.55,M,3,0000*64
[2021-02-22 16:18:06.018] $GPGGA,071805.60,3713.9683537,N,13701.4545705,E,5,12,1.0,95.5543,M,37.55,M,3,0000*6E
[2021-02-22 16:18:06.128] $GPGGA,071805.70,3713.9683529,N,13701.4545695,E,5,12,1.0,95.5490,M,37.55,M,3,0000*67
[2021-02-22 16:18:06.206] $GPGGA,071805.80,3713.9683521,N,13701.4545684,E,5,12,1.0,95.5497,M,37.55,M,3,0000*67
[2021-02-22 16:18:06.331] $GPGGA,071805.90,3713.9683519,N,13701.4545679,E,5,12,1.0,95.5480,M,37.55,M,3,0000*69
[2021-02-22 16:18:06.440] $GPGGA,071806.00,3713.9683504,N,13701.4545676,E,5,13,1.0,95.5454,M,37.55,M,4,0000*6F
[2021-02-22 16:18:06.534] $GPGGA,071806.10,3713.9683505,N,13701.4545686,E,5,13,1.0,95.5478,M,37.55,M,4,0000*6E
[2021-02-22 16:18:06.612] $GPGGA,071806.20,3713.9683493,N,13701.4545693,E,5,13,1.0,95.5473,M,37.55,M,4,0000*6C
[2021-02-22 16:18:06.737] $GPGGA,071806.30,3713.9683503,N,13701.4545706,E,5,13,1.0,95.5461,M,37.55,M,4,0000*6B
[2021-02-22 16:18:06.815] $GPGGA,071806.40,3713.9683508,N,13701.4545714,E,5,13,1.0,95.5456,M,37.55,M,4,0000*60
[2021-02-22 16:18:06.940] $GPGGA,071806.50,3713.9683498,N,13701.4545708,E,5,13,1.0,95.5422,M,37.55,M,4,0000*67
[2021-02-22 16:18:07.034] $GPGGA,071806.60,3713.9683497,N,13701.4545707,E,5,13,1.0,95.5404,M,37.55,M,4,0000*60
[2021-02-22 16:18:07.112] $GPGGA,071806.70,3713.9683489,N,13701.4545714,E,5,13,1.0,95.5388,M,37.55,M,4,0000*6F
[2021-02-22 16:18:07.237] $GPGGA,071806.80,3713.9683482,N,13701.4545714,E,5,13,1.0,95.5371,M,37.55,M,4,0000*6D
[2021-02-22 16:18:07.315] $GPGGA,071806.90,3713.9683464,N,13701.4545700,E,5,13,1.0,95.5337,M,37.55,M,4,0000*63
[2021-02-22 16:18:07.440] $GPGGA,071807.00,3713.9683452,N,13701.4545686,E,5,13,1.0,95.5308,M,37.55,M,5,0000*6C
[2021-02-22 16:18:07.534] $GPGGA,071807.10,3713.9683453,N,13701.4545669,E,5,13,1.0,95.5279,M,37.55,M,5,0000*6A
[2021-02-22 16:18:07.643] $GPGGA,071807.20,3713.9683441,N,13701.4545669,E,5,13,1.0,95.5242,M,37.55,M,5,0000*62
[2021-02-22 16:18:07.722] $GPGGA,071807.30,3713.9683436,N,13701.4545674,E,5,13,1.0,95.5163,M,37.55,M,5,0000*6F
[2021-02-22 16:18:07.831] $GPGGA,071807.40,3713.9683435,N,13701.4545685,E,5,13,1.0,95.5115,M,37.55,M,5,0000*64
[2021-02-22 16:18:07.909] $GPGGA,071807.50,3713.9683434,N,13701.4545697,E,5,13,1.0,95.5051,M,37.55,M,5,0000*66
[2021-02-22 16:18:08.034] $GPGGA,071807.60,3713.9683421,N,13701.4545684,E,5,13,1.0,95.4995,M,37.55,M,5,0000*63
[2021-02-22 16:18:08.112] $GPGGA,071807.70,3713.9683428,N,13701.4545689,E,5,13,1.0,95.5008,M,37.55,M,5,0000*6A
[2021-02-22 16:18:08.237] $GPGGA,071807.80,3713.9683433,N,13701.4545672,E,5,13,1.0,95.5011,M,37.55,M,5,0000*63
[2021-02-22 16:18:08.315] $GPGGA,071807.90,3713.9683445,N,13701.4545661,E,5,13,1.0,95.5023,M,37.55,M,5,0000*60
[2021-02-22 16:18:08.440] $GPGGA,071808.00,3713.9683436,N,13701.4545652,E,5,13,1.0,95.5001,M,37.55,M,6,0000*61
[2021-02-22 16:18:08.534] $GPGGA,071808.10,3713.9683402,N,13701.4545655,E,5,13,1.0,95.5013,M,37.55,M,6,0000*63
[2021-02-22 16:18:08.628] $GPGGA,071808.20,3713.9683388,N,13701.4545671,E,5,13,1.0,95.5029,M,37.55,M,1,0000*6D
[2021-02-22 16:18:08.737] $GPGGA,071808.30,3713.9683384,N,13701.4545694,E,5,13,1.0,95.5028,M,37.55,M,1,0000*6A
[2021-02-22 16:18:08.815] $GPGGA,071808.40,3713.9683386,N,13701.4545699,E,5,13,1.0,95.5008,M,37.55,M,1,0000*60
[2021-02-22 16:18:08.940] $GPGGA,071808.50,3713.9683392,N,13701.4545713,E,5,13,1.0,95.5001,M,37.55,M,1,0000*6E
[2021-02-22 16:18:09.018] $GPGGA,071808.60,3713.9683401,N,13701.4545736,E,5,13,1.0,95.5016,M,37.55,M,1,0000*61
[2021-02-22 16:18:09.143] $GPGGA,071808.70,3713.9683385,N,13701.4545769,E,5,13,1.0,95.4975,M,37.55,M,1,0000*6C
[2021-02-22 16:18:09.221] $GPGGA,071808.80,3713.9683365,N,13701.4545809,E,5,13,1.0,95.4964,M,37.55,M,1,0000*64
[2021-02-22 16:18:09.331] $GPGGA,071808.90,3713.9683364,N,13701.4545826,E,5,13,1.0,95.4971,M,37.55,M,1,0000*6D
[2021-02-22 16:18:09.409] $GPGGA,071809.00,3713.9683363,N,13701.4545840,E,5,13,1.0,95.4953,M,37.55,M,2,0000*61
[2021-02-22 16:18:09.518] $GPGGA,071809.10,3713.9683368,N,13701.4545860,E,5,13,1.0,95.4956,M,37.55,M,2,0000*6C
[2021-02-22 16:18:09.628] $GPGGA,071809.20,3713.9683357,N,13701.4545891,E,5,13,1.0,95.4950,M,37.55,M,2,0000*6B
[2021-02-22 16:18:09.737] $GPGGA,071809.30,3713.9683312,N,13701.4545903,E,5,13,1.0,95.4983,M,37.55,M,2,0000*6F
[2021-02-22 16:18:09.815] $GPGGA,071809.40,3713.9683253,N,13701.4545896,E,5,13,1.0,95.4970,M,37.55,M,2,0000*6D
[2021-02-22 16:18:09.940] $GPGGA,071809.50,3713.9683204,N,13701.4545899,E,5,13,1.0,95.4948,M,37.55,M,2,0000*6A
[2021-02-22 16:18:10.018] $GPGGA,071809.60,3713.9683171,N,13701.4545907,E,5,13,1.0,95.4933,M,37.55,M,2,0000*62
[2021-02-22 16:18:10.143] $GPGGA,071809.70,3713.9683140,N,13701.4545912,E,5,13,1.0,95.4902,M,37.55,M,2,0000*67
[2021-02-22 16:18:10.221] $GPGGA,071809.80,3713.9683119,N,13701.4545935,E,5,13,1.0,95.4878,M,37.55,M,2,0000*6D
[2021-02-22 16:18:10.331] $GPGGA,071809.90,3713.9683105,N,13701.4545953,E,5,13,1.0,95.4874,M,37.55,M,2,0000*6D
[2021-02-22 16:18:10.424] $GPGGA,071810.00,3713.9683084,N,13701.4545964,E,5,13,1.0,95.4861,M,37.55,M,3,0000*65
[2021-02-22 16:18:10.518] $GPGGA,071810.10,3713.9683073,N,13701.4545960,E,5,13,1.0,95.4875,M,37.55,M,3,0000*6D
[2021-02-22 16:18:10.643] $GPGGA,071810.20,3713.9683055,N,13701.4545963,E,5,13,1.0,95.4914,M,37.55,M,3,0000*6F
[2021-02-22 16:18:10.721] $GPGGA,071810.30,3713.9683020,N,13701.4545967,E,5,13,1.0,95.4931,M,37.55,M,3,0000*6F
[2021-02-22 16:18:10.831] $GPGGA,071810.40,3713.9682934,N,13701.4545953,E,5,13,1.0,95.4921,M,37.55,M,3,0000*63
[2021-02-22 16:18:10.924] $GPGGA,071810.50,3713.9682876,N,13701.4545943,E,5,13,1.0,95.4953,M,37.55,M,3,0000*61
[2021-02-22 16:18:11.034] $GPGGA,071810.60,3713.9682877,N,13701.4545953,E,5,13,1.0,95.4996,M,37.55,M,3,0000*6B
[2021-02-22 16:18:11.112] $GPGGA,071810.70,3713.9682913,N,13701.4545968,E,5,13,1.0,95.5014,M,37.55,M,3,0000*63
[2021-02-22 16:18:11.237] $GPGGA,071810.80,3713.9682952,N,13701.4545951,E,5,13,1.0,95.5004,M,37.55,M,3,0000*62
[2021-02-22 16:18:11.315] $GPGGA,071810.90,3713.9682966,N,13701.4545919,E,5,13,1.0,95.5018,M,37.55,M,3,0000*65
[2021-02-22 16:18:11.440] $GPGGA,071811.00,3713.9682976,N,13701.4545882,E,5,13,1.0,95.4995,M,37.55,M,4,0000*65
[2021-02-22 16:18:11.534] $GPGGA,071811.10,3713.9683010,N,13701.4545878,E,5,13,1.0,95.5014,M,37.55,M,4,0000*68
[2021-02-22 16:18:11.643] $GPGGA,071811.20,3713.9683026,N,13701.4545890,E,5,13,1.0,95.5019,M,37.55,M,4,0000*65
[2021-02-22 16:18:11.721] $GPGGA,071811.30,3713.9683022,N,13701.4545915,E,5,13,1.0,95.4995,M,37.55,M,4,0000*60
[2021-02-22 16:18:11.831] $GPGGA,071811.40,3713.9683004,N,13701.4545954,E,5,13,1.0,95.4984,M,37.55,M,4,0000*66
[2021-02-22 16:18:11.924] $GPGGA,071811.50,3713.9682991,N,13701.4545987,E,5,13,1.0,95.5035,M,37.55,M,4,0000*6F
[2021-02-22 16:18:12.034] $GPGGA,071811.60,3713.9682970,N,13701.4546018,E,5,13,1.0,95.5056,M,37.55,M,4,0000*6A
[2021-02-22 16:18:12.112] $GPGGA,071811.70,3713.9682952,N,13701.4546035,E,5,13,1.0,95.5089,M,37.55,M,4,0000*66
[2021-02-22 16:18:12.237] $GPGGA,071811.80,3713.9682926,N,13701.4546030,E,5,13,1.0,95.5098,M,37.55,M,4,0000*6F
[2021-02-22 16:18:12.346] $GPGGA,071811.90,3713.9682918,N,13701.4546019,E,5,13,1.0,95.5108,M,37.55,M,4,0000*60
[2021-02-22 16:18:12.424] $GPGGA,071812.00,3713.9682911,N,13701.4545997,E,5,13,1.0,95.5100,M,37.55,M,5,0000*66
[2021-02-22 16:18:12.518] $GPGGA,071812.10,3713.9682905,N,13701.4545991,E,5,13,1.0,95.5130,M,37.55,M,5,0000*67
[2021-02-22 16:18:12.612] $GPGGA,071812.20,3713.9682898,N,13701.4545983,E,5,13,1.0,95.5160,M,37.55,M,5,0000*67
[2021-02-22 16:18:12.737] $GPGGA,071812.30,3713.9682877,N,13701.4545984,E,5,13,1.0,95.5187,M,37.55,M,5,0000*69
[2021-02-22 16:18:12.815] $GPGGA,071812.40,3713.9682866,N,13701.4545977,E,5,13,1.0,95.5233,M,37.55,M,5,0000*6E
[2021-02-22 16:18:12.940] $GPGGA,071812.50,3713.9682850,N,13701.4545964,E,5,13,1.0,95.5262,M,37.55,M,5,0000*6C
[2021-02-22 16:18:13.018] $GPGGA,071812.60,3713.9682836,N,13701.4545959,E,5,13,1.0,95.5309,M,37.55,M,5,0000*6D
[2021-02-22 16:18:13.143] $GPGGA,071812.70,3713.9682836,N,13701.4545970,E,5,13,1.0,95.5338,M,37.55,M,5,0000*65
[2021-02-22 16:18:13.221] $GPGGA,071812.80,3713.9682826,N,13701.4545962,E,5,13,1.0,95.5379,M,37.55,M,5,0000*6D
[2021-02-22 16:18:13.330] $GPGGA,071812.90,3713.9682817,N,13701.4545958,E,5,13,1.0,95.5448,M,37.55,M,5,0000*62
[2021-02-22 16:18:13.424] $GPGGA,071813.00,3713.9682825,N,13701.4545960,E,5,13,1.0,95.5496,M,37.55,M,6,0000*60
[2021-02-22 16:18:13.518] $GPGGA,071813.10,3713.9682848,N,13701.4545961,E,5,13,1.0,95.5592,M,37.55,M,6,0000*6E
[2021-02-22 16:18:13.627] $GPGGA,071813.20,3713.9682873,N,13701.4545986,E,5,13,1.0,95.5545,M,37.55,M,1,0000*61
[2021-02-22 16:18:13.737] $GPGGA,071813.30,3713.9682888,N,13701.4546001,E,5,13,1.0,95.5513,M,37.55,M,1,0000*62
[2021-02-22 16:18:13.815] $GPGGA,071813.40,3713.9682901,N,13701.4545997,E,5,13,1.0,95.5475,M,37.55,M,1,0000*61
[2021-02-22 16:18:13.940] $GPGGA,071813.50,3713.9682911,N,13701.4545979,E,5,13,1.0,95.5463,M,37.55,M,1,0000*66
[2021-02-22 16:18:14.034] $GPGGA,071813.60,3713.9682930,N,13701.4545962,E,5,13,1.0,95.5495,M,37.55,M,1,0000*65
[2021-02-22 16:18:14.127] $GPGGA,071813.70,3713.9682952,N,13701.4545960,E,5,13,1.0,95.5538,M,37.55,M,1,0000*64
[2021-02-22 16:18:14.237] $GPGGA,071813.80,3713.9682973,N,13701.4545967,E,5,13,1.0,95.5582,M,37.55,M,1,0000*6E
[2021-02-22 16:18:14.315] $GPGGA,071813.90,3713.9682985,N,13701.4545978,E,5,13,1.0,95.5624,M,37.55,M,1,0000*67
[2021-02-22 16:18:14.440] $GPGGA,071814.00,3713.9683001,N,13701.4545981,E,5,13,1.0,95.5655,M,37.55,M,2,0000*6E
[2021-02-22 16:18:14.534] $GPGGA,071814.10,3713.9683012,N,13701.4545991,E,5,13,1.0,95.5714,M,37.55,M,2,0000*68
[2021-02-22 16:18:14.643] $GPGGA,071814.20,3713.9683007,N,13701.4545998,E,5,13,1.0,95.5742,M,37.55,M,2,0000*65
[2021-02-22 16:18:14.721] $GPGGA,071814.30,3713.9683009,N,13701.4546012,E,5,13,1.0,95.5797,M,37.55,M,2,0000*6A
[2021-02-22 16:18:14.830] $GPGGA,071814.40,3713.9683005,N,13701.4546023,E,5,13,1.0,95.5821,M,37.55,M,2,0000*61
[2021-02-22 16:18:14.924] $GPGGA,071814.50,3713.9683008,N,13701.4546026,E,5,13,1.0,95.5859,M,37.55,M,2,0000*67
[2021-02-22 16:18:15.034] $GPGGA,071814.60,3713.9683004,N,13701.4546016,E,5,13,1.0,95.5892,M,37.55,M,2,0000*6C
[2021-02-22 16:18:15.112] $GPGGA,071814.70,3713.9683014,N,13701.4545987,E,5,13,1.0,95.5924,M,37.55,M,2,0000*62
[2021-02-22 16:18:15.237] $GPGGA,071814.80,3713.9683030,N,13701.4545960,E,5,13,1.0,95.5952,M,37.55,M,2,0000*63
[2021-02-22 16:18:15.315] $GPGGA,071814.90,3713.9683054,N,13701.4545953,E,5,13,1.0,95.5964,M,37.55,M,2,0000*65
[2021-02-22 16:18:15.440] $GPGGA,071815.00,3713.9683056,N,13701.4545963,E,5,13,1.0,95.5972,M,37.55,M,3,0000*6A
[2021-02-22 16:18:15.533] $GPGGA,071815.10,3713.9683062,N,13701.4546000,E,5,13,1.0,95.6001,M,37.55,M,3,0000*6D
[2021-02-22 16:18:15.643] $GPGGA,071815.20,3713.9683061,N,13701.4546029,E,5,13,1.0,95.6026,M,37.55,M,3,0000*63
[2021-02-22 16:18:15.721] $GPGGA,071815.30,3713.9683056,N,13701.4546053,E,5,13,1.0,95.6034,M,37.55,M,3,0000*68
[2021-02-22 16:18:15.830] $GPGGA,071815.40,3713.9683058,N,13701.4546063,E,5,13,1.0,95.6042,M,37.55,M,3,0000*63
[2021-02-22 16:18:15.940] $GPGGA,071815.50,3713.9683060,N,13701.4546062,E,5,13,1.0,95.6058,M,37.55,M,3,0000*63
[2021-02-22 16:18:16.018] $GPGGA,071815.60,3713.9683053,N,13701.4546062,E,5,13,1.0,95.6061,M,37.55,M,3,0000*6A
[2021-02-22 16:18:16.143] $GPGGA,071815.70,3713.9683045,N,13701.4546074,E,5,13,1.0,95.6079,M,37.55,M,3,0000*62
[2021-02-22 16:18:16.221] $GPGGA,071815.80,3713.9683035,N,13701.4546110,E,5,13,1.0,95.6085,M,37.55,M,3,0000*6A
[2021-02-22 16:18:16.346] $GPGGA,071815.90,3713.9683025,N,13701.4546150,E,5,13,1.0,95.6072,M,37.55,M,3,0000*66
[2021-02-22 16:18:16.424] $GPGGA,071816.00,3713.9683017,N,13701.4546165,E,5,13,1.0,95.6046,M,37.55,M,4,0000*6B
[2021-02-22 16:18:16.518] $GPGGA,071816.10,3713.9683009,N,13701.4546161,E,5,13,1.0,95.6056,M,37.55,M,4,0000*60
