
[2021-02-22 16:16:56.962] $GPGGA,,,,,,,,,,M,,M,,*56
[2021-02-22 16:16:56.978] $GPGGA,,,,,,,,,,M,,M,,*56
[2021-02-22 16:16:56.978] $GPGGA,,,,,,,,,,M,,M,,*56
[2021-02-22 16:16:56.978] $GPGGA,,,,,,,,,,M,,M,,*56
[2021-02-22 16:16:56.978] $GPGGA,,,,,,,,,,M,,M,,*56
[2021-02-22 16:16:56.978] $GPGGA,,,,,,,,,,M,,M,,*56
[2021-02-22 16:16:56.978] $GPGGA,,,,,,,,,,M,,M,,*56
[2021-02-22 16:16:56.978] $GPGGA,,,,,,,,,,M,,M,,*56
[2021-02-22 16:16:56.978] $GPGGA,,,,,,,,,,M,,M,,*56
[2021-02-22 16:16:56.978] $GPGGA,,,,,,,,,,M,,M,,*56
[2021-02-22 16:16:56.978] $GPGGA,,,,,,,,,,M,,M,,*56
[2021-02-22 16:16:56.978] $GPGGA,,,,,,,,,,M,,M,,*56
[2021-02-22 16:16:56.978] $GPGGA,,,,,,,,,,M,,M,,*56
[2021-02-22 16:16:56.978] $GPGGA,,,,,,,,,,M,,M,,*56
[2021-02-22 16:16:56.978] $GPGGA,,,,,,,,,,M,,M,,*56
[2021-02-22 16:16:56.978] $GPGGA,,,,,,,,,,M,,M,,*56
[2021-02-22 16:16:56.978] $GPGGA,,,,,,,,,,M,,M,,*56
[2021-02-22 16:16:56.978] $GPGGA,,,,,,,,,,M,,M,,*56
[2021-02-22 16:16:56.978] $GPGGA,,,,,,,,,,M,,M,,*56
[2021-02-22 16:16:56.978] $GPGGA,,,,,,,,,,M,,M,,*56
[2021-02-22 16:16:56.978] $GPGGA,,,,,,,,,,M,,M,,*56
[2021-02-22 16:16:56.978] $GPGGA,,,,,,,,,,M,,M,,*56
[2021-02-22 16:16:56.978] $GPGGA,,,,,,,,,,M,,M,,*56
[2021-02-22 16:16:56.978] $GPGGA,,,,,,,,,,M,,M,,*56
[2021-02-22 16:16:56.978] $GPGGA,,,,,,,,,,M,,M,,*56
[2021-02-22 16:16:56.978] $GPGGA,,,,,,,,,,M,,M,,*56
[2021-02-22 16:16:56.978] $GPGGA,,,,,,,,,,M,,M,,*56
[2021-02-22 16:16:56.978] $GPGGA,,,,,,,,,,M,,M,,*56
[2021-02-22 16:16:56.978] $GPGGA,,,,,,,,,,M,,M,,*56
[2021-02-22 16:16:56.978] $GPGGA,,,,,,,,,,M,,M,,*56
[2021-02-22 16:16:56.978] $GPGGA,,,,,,,,,,M,,M,,*56
[2021-02-22 16:16:56.978] $GPGGA,,,,,,,,,,M,,M,,*56
[2021-02-22 16:16:56.978] $GPGGA,,,,,,,,,,M,,M,,*56
[2021-02-22 16:16:56.978] $GPGGA,,,,,,,,,,M,,M,,*56
[2021-02-22 16:16:56.978] $GPGGA,,,,,,,,,,M,,M,,*56
[2021-02-22 16:16:56.978] $GPGGA,,,,,,,,,,M,,M,,*56
[2021-02-22 16:16:56.978] $GPGGA,,,,,,,,,,M,,M,,*56
[2021-02-22 16:16:56.978] $GPGGA,,,,,,,,,,M,,M,,*56
[2021-02-22 16:16:56.978] $GPGGA,,,,,,,,,,M,,M,,*56
[2021-02-22 16:16:56.994] $GPGGA,,,,,,,,,,M,,M,,*56
[2021-02-22 16:16:56.994] $GPGGA,,,,,,,,,,M,,M,,*56
[2021-02-22 16:16:56.994] $GPGGA,,,,,,,,,,M,,M,,*56
[2021-02-22 16:16:56.994] $GPGGA,,,,,,,,,,M,,M,,*56
[2021-02-22 16:16:56.994] $GPGGA,,,,,,,,,,M,,M,,*56
[2021-02-22 16:16:56.994] $GPGGA,,,,,,,,,,M,,M,,*56
[2021-02-22 16:16:56.994] $GPGGA,,,,,,,,,,M,,M,,*56
[2021-02-22 16:16:56.994] $GPGGA,,,,,,,,,,M,,M,,*56
[2021-02-22 16:16:56.994] $GPGGA,,,,,,,,,,M,,M,,*56
[2021-02-22 16:16:56.994] $GPGGA,,,,,,,,,,M,,M,,*56
[2021-02-22 16:16:56.994] $GPGGA,,,,,,,,,,M,,M,,*56
[2021-02-22 16:16:56.994] $GPGGA,,,,,,,,,,M,,M,,*56
[2021-02-22 16:16:56.994] $GPGGA,,,,,,,,,,M,,M,,*56
[2021-02-22 16:16:56.994] $GPGGA,,,,,,,,,,M,,M,,*56
[2021-02-22 16:16:56.994] $GPGGA,,,,,,,,,,M,,M,,*56
[2021-02-22 16:16:56.994] $GPGGA,,,,,,,,,,M,,M,,*56
[2021-02-22 16:16:56.994] $GPGGA,,,,,,,,,,M,,M,,*56
[2021-02-22 16:16:56.994] $GPGGA,,,,,,,,,,M,,M,,*56
[2021-02-22 16:16:56.994] $GPGGA,,,,,,,,,,M,,M,,*56
[2021-02-22 16:16:56.994] $GPGGA,,,,,,,,,,M,,M,,*56
[2021-02-22 16:16:56.994] $GPGGA,,,,,,,,,,M,,M,,*56
[2021-02-22 16:16:56.994] $GPGGA,,,,,,,,,,M,,M,,*56
[2021-02-22 16:16:56.994] $GPGGA,,,,,,,,,,M,,M,,*56
[2021-02-22 16:16:56.994] $GPGGA,,,,,,,,,,M,,M,,*56
[2021-02-22 16:16:56.994] $GPGGA,,,,,,,,,,M,,M,,*56
[2021-02-22 16:16:56.994] $GPGGA,,,,,,,,,,M,,M,,*56
[2021-02-22 16:16:56.994] $GPGGA,,,,,,,,,,M,,M,,*56
[2021-02-22 16:16:56.994] $GPGGA,,,,,,,,,,M,,M,,*56
[2021-02-22 16:16:56.994] $GPGGA,,,,,,,,,,M,,M,,*56
[2021-02-22 16:16:56.994] $GPGGA,,,,,,,,,,M,,M,,*56
[2021-02-22 16:16:56.994] $GPGGA,,,,,,,,,,M,,M,,*56
[2021-02-22 16:16:56.994] $GPGGA,,,,,,,,,,M,,M,,*56
[2021-02-22 16:16:56.994] $GPGGA,,,,,,,,,,M,,M,,*56
[2021-02-22 16:16:56.994] $GPGGA,,,,,,,,,,M,,M,,*56
[2021-02-22 16:16:56.994] $GPGGA,,,,,,,,,,M,,M,,*56
[2021-02-22 16:16:56.994] $GPGGA,,,,,,,,,,M,,M,,*56
[2021-02-22 16:16:56.994] $GPGGA,,,,,,,,,,M,,M,,*56
[2021-02-22 16:16:56.994] $GPGGA,,,,,,,,,,M,,M,,*56
[2021-02-22 16:16:56.994] $GPGGA,,,,,,,,,,M,,M,,*56
[2021-02-22 16:16:56.994] $GPGGA,,,,,,,,,,M,,M,,*56
[2021-02-22 16:16:56.994] $GPGGA,,,,,,,,,,M,,M,,*56
[2021-02-22 16:16:56.994] $GPGGA,,,,,,,,,,M,,M,,*56
[2021-02-22 16:16:56.994] $GPGGA,,,,,,,,,,M,,M,,*56
[2021-02-22 16:16:56.994] $GPGGA,,,,,,,,,,M,,M,,*56
[2021-02-22 16:16:56.994] $GPGGA,,,,,,,,,,M,,M,,*56
[2021-02-22 16:16:56.994] $GPGGA,,,,,,,,,,M,,M,,*56
[2021-02-22 16:16:56.994] $GPGGA,,,,,,,,,,M,,M,,*56
[2021-02-22 16:16:56.994] $GPGGA,,,,,,,,,,M,,M,,*56
[2021-02-22 16:16:56.994] $GPGGA,,,,,,,,,,M,,M,,*56
[2021-02-22 16:16:56.994] $GPGGA,,,,,,,,,,M,,M,,*56
[2021-02-22 16:16:56.994] $GPGGA,,,,,,,,,,M,,M,,*56
[2021-02-22 16:16:56.994] $GPGGA,,,,,,,,,,M,,M,,*56
[2021-02-22 16:16:57.197] $GPGGA,,,,,,,,,,M,,M,,*56
[2021-02-22 16:16:57.400] $GPGGA,,,,,,,,,,M,,M,,*56
[2021-02-22 16:16:57.603] $GPGGA,,,,,,,,,,M,,M,,*56
[2021-02-22 16:16:57.791] $GPGGA,,,,,,,,,,M,,M,,*56
[2021-02-22 16:16:57.994] $GPGGA,,,,,,,,,,M,,M,,*56
[2021-02-22 16:16:58.197] $GPGGA,,,,,,,,,,M,,M,,*56
[2021-02-22 16:16:58.400] $GPGGA,,,,,,,,,,M,,M,,*56
[2021-02-22 16:16:58.587] $GPGGA,,,,,,,,,,M,,M,,*56
[2021-02-22 16:16:58.806] $GPGGA,,,,,,,,,,M,,M,,*56
[2021-02-22 16:16:58.994] $GPGGA,,,,,,,,,,M,,M,,*56
[2021-02-22 16:16:59.197] $GPGGA,,,,,,,,,,M,,M,,*56
[2021-02-22 16:16:59.384] $GPGGA,,,,,,,,,,M,,M,,*56
[2021-02-22 16:16:59.603] $GPGGA,,,,,,,,,,M,,M,,*56
[2021-02-22 16:16:59.790] $GPGGA,,,,,,,,,,M,,M,,*56
[2021-02-22 16:16:59.994] $GPGGA,,,,,,,,,,M,,M,,*56
[2021-02-22 16:17:00.197] $GPGGA,,,,,,,,,,M,,M,,*56
[2021-02-22 16:17:00.400] $GPGGA,,,,,,,,,,M,,M,,*56
[2021-02-22 16:17:00.587] $GPGGA,,,,,,,,,,M,,M,,*56
[2021-02-22 16:17:00.806] $GPGGA,,,,,,,,,,M,,M,,*56
[2021-02-22 16:17:00.994] $GPGGA,,,,,,,,,,M,,M,,*56
[2021-02-22 16:17:01.197] $GPGGA,,,,,,,,,,M,,M,,*56
[2021-02-22 16:17:01.384] $GPGGA,,,,,,,,,,M,,M,,*56
[2021-02-22 16:17:01.603] $GPGGA,,,,,,,,,,M,,M,,*56
[2021-02-22 16:17:01.790] $GPGGA,,,,,,,,,,M,,M,,*56
[2021-02-22 16:17:01.993] $GPGGA,,,,,,,,,,M,,M,,*56
[2021-02-22 16:17:02.197] $GPGGA,,,,,,,,,,M,,M,,*56
[2021-02-22 16:17:02.400] $GPGGA,,,,,,,,,,M,,M,,*56
[2021-02-22 16:17:02.587] $GPGGA,,,,,,,,,,M,,M,,*56
[2021-02-22 16:17:02.806] $GPGGA,,,,,,,,,,M,,M,,*56
[2021-02-22 16:17:02.993] $GPGGA,,,,,,,,,,M,,M,,*56
[2021-02-22 16:17:03.196] $GPGGA,,,,,,,,,,M,,M,,*56
[2021-02-22 16:17:03.384] $GPGGA,,,,,,,,,,M,,M,,*56
[2021-02-22 16:17:03.603] $GPGGA,,,,,,,,,,M,,M,,*56
[2021-02-22 16:17:03.790] $GPGGA,,,,,,,,,,M,,M,,*56
[2021-02-22 16:17:03.993] $GPGGA,,,,,,,,,,M,,M,,*56
[2021-02-22 16:17:04.196] $GPGGA,,,,,,,,,,M,,M,,*56
[2021-02-22 16:17:04.400] $GPGGA,,,,,,,,,,M,,M,,*56
[2021-02-22 16:17:04.587] $GPGGA,,,,,,,,,,M,,M,,*56
[2021-02-22 16:17:04.806] $GPGGA,,,,,,,,,,M,,M,,*56
[2021-02-22 16:17:04.993] $GPGGA,,,,,,,,,,M,,M,,*56
[2021-02-22 16:17:05.196] $GPGGA,,,,,,,,,,M,,M,,*56
[2021-02-22 16:17:05.384] $GPGGA,,,,,,,,,,M,,M,,*56
[2021-02-22 16:17:05.603] $GPGGA,,,,,,,,,,M,,M,,*56
[2021-02-22 16:17:05.790] $GPGGA,,,,,,,,,,M,,M,,*56
[2021-02-22 16:17:05.993] $GPGGA,,,,,,,,,,M,,M,,*56
[2021-02-22 16:17:06.196] $GPGGA,,,,,,,,,,M,,M,,*56
[2021-02-22 16:17:06.399] $GPGGA,,,,,,,,,,M,,M,,*56
[2021-02-22 16:17:06.587] $GPGGA,,,,,,,,,,M,,M,,*56
[2021-02-22 16:17:06.806] $GPGGA,,,,,,,,,,M,,M,,*56
[2021-02-22 16:17:06.993] $GPGGA,,,,,,,,,,M,,M,,*56
[2021-02-22 16:17:07.196] $GPGGA,,,,,,,,,,M,,M,,*56
[2021-02-22 16:17:07.384] $GPGGA,,,,,,,,,,M,,M,,*56
[2021-02-22 16:17:07.602] $GPGGA,,,,,,,,,,M,,M,,*56
[2021-02-22 16:17:07.790] $GPGGA,,,,,,,,,,M,,M,,*56
[2021-02-22 16:17:07.993] $GPGGA,,,,,,,,,,M,,M,,*56
[2021-02-22 16:17:08.196] $GPGGA,,,,,,,,,,M,,M,,*56
[2021-02-22 16:17:08.399] $GPGGA,,,,,,,,,,M,,M,,*56
[2021-02-22 16:17:08.587] $GPGGA,,,,,,,,,,M,,M,,*56
[2021-02-22 16:17:08.805] $GPGGA,,,,,,,,,,M,,M,,*56
[2021-02-22 16:17:08.993] $GPGGA,,,,,,,,,,M,,M,,*56
[2021-02-22 16:17:09.196] $GPGGA,,,,,,,,,,M,,M,,*56
[2021-02-22 16:17:09.384] $GPGGA,,,,,,,,,,M,,M,,*56
[2021-02-22 16:17:09.602] $GPGGA,,,,,,,,,,M,,M,,*56
[2021-02-22 16:17:09.790] $GPGGA,,,,,,,,,,M,,M,,*56
[2021-02-22 16:17:09.993] $GPGGA,,,,,,,,,,M,,M,,*56
[2021-02-22 16:17:10.196] $GPGGA,,,,,,,,,,M,,M,,*56
[2021-02-22 16:17:10.399] $GPGGA,,,,,,,,,,M,,M,,*56
[2021-02-22 16:17:10.587] $GPGGA,,,,,,,,,,M,,M,,*56
[2021-02-22 16:17:10.790] $GPGGA,,,,,,,,,,M,,M,,*56
[2021-02-22 16:17:10.993] $GPGGA,,,,,,,,,,M,,M,,*56
[2021-02-22 16:17:11.196] $GPGGA,,,,,,,,,,M,,M,,*56
[2021-02-22 16:17:11.383] $GPGGA,,,,,,,,,,M,,M,,*56
[2021-02-22 16:17:11.602] $GPGGA,,,,,,,,,,M,,M,,*56
[2021-02-22 16:17:11.790] $GPGGA,,,,,,,,,,M,,M,,*56
[2021-02-22 16:17:11.993] $GPGGA,,,,,,,,,,M,,M,,*56
[2021-02-22 16:17:12.196] $GPGGA,,,,,,,,,,M,,M,,*56
[2021-02-22 16:17:12.399] $GPGGA,,,,,,,,,,M,,M,,*56
[2021-02-22 16:17:12.586] $GPGGA,,,,,,,,,,M,,M,,*56
[2021-02-22 16:17:12.790] $GPGGA,,,,,,,,,,M,,M,,*56
[2021-02-22 16:17:12.993] $GPGGA,,,,,,,,,,M,,M,,*56
[2021-02-22 16:17:13.196] $GPGGA,,,,,,,,,,M,,M,,*56
[2021-02-22 16:17:13.399] $GPGGA,,,,,,,,,,M,,M,,*56
[2021-02-22 16:17:13.602] $GPGGA,,,,,,,,,,M,,M,,*56
[2021-02-22 16:17:13.789] $GPGGA,,,,,,,,,,M,,M,,*56
[2021-02-22 16:17:13.993] $GPGGA,,,,,,,,,,M,,M,,*56
[2021-02-22 16:17:14.196] $GPGGA,,,,,,,,,,M,,M,,*56
[2021-02-22 16:17:14.399] $GPGGA,,,,,,,,,,M,,M,,*56
[2021-02-22 16:17:14.586] $GPGGA,,,,,,,,,,M,,M,,*56
[2021-02-22 16:17:14.789] $GPGGA,,,,,,,,,,M,,M,,*56
[2021-02-22 16:17:14.993] $GPGGA,,,,,,,,,,M,,M,,*56
[2021-02-22 16:17:15.196] $GPGGA,,,,,,,,,,M,,M,,*56
[2021-02-22 16:17:15.399] $GPGGA,,,,,,,,,,M,,M,,*56
[2021-02-22 16:17:15.602] $GPGGA,,,,,,,,,,M,,M,,*56
[2021-02-22 16:17:15.789] $GPGGA,,,,,,,,,,M,,M,,*56
[2021-02-22 16:17:15.992] $GPGGA,,,,,,,,,,M,,M,,*56
[2021-02-22 16:17:16.180] $GPGGA,,,,,,,,,,M,,M,,*56
[2021-02-22 16:17:16.399] $GPGGA,,,,,,,,,,M,,M,,*56
[2021-02-22 16:17:16.602] $GPGGA,,,,,,,,,,M,,M,,*56
[2021-02-22 16:17:16.789] $GPGGA,,,,,,,,,,M,,M,,*56
[2021-02-22 16:17:17.008] $GPGGA,,,,,,,,,,M,,M,,*56
[2021-02-22 16:17:17.195] $GPGGA,,,,,,,,,,M,,M,,*56
[2021-02-22 16:17:17.399] $GPGGA,,,,,,,,,,M,,M,,*56
[2021-02-22 16:17:17.602] $GPGGA,,,,,,,,,,M,,M,,*56
[2021-02-22 16:17:17.789] $GPGGA,,,,,,,,,,M,,M,,*56
[2021-02-22 16:17:17.992] $GPGGA,,,,,,,,,,M,,M,,*56
[2021-02-22 16:17:18.211] $GPGGA,,,,,,,,,,M,,M,,*56
[2021-02-22 16:17:18.399] $GPGGA,,,,,,,,,,M,,M,,*56
[2021-02-22 16:17:18.602] $GPGGA,,,,,,,,,,M,,M,,*56
[2021-02-22 16:17:18.789] $GPGGA,,,,,,,,,,M,,M,,*56
[2021-02-22 16:17:19.008] $GPGGA,,,,,,,,,,M,,M,,*56
[2021-02-22 16:17:19.195] $GPGGA,,,,,,,,,,M,,M,,*56
[2021-02-22 16:17:19.398] $GPGGA,,,,,,,,,,M,,M,,*56
[2021-02-22 16:17:19.602] $GPGGA,,,,,,,,,,M,,M,,*56
[2021-02-22 16:17:19.805] $GPGGA,,,,,,,,,,M,,M,,*56
[2021-02-22 16:17:19.992] $GPGGA,,,,,,,,,,M,,M,,*56
[2021-02-22 16:17:20.195] $GPGGA,,,,,,,,,,M,,M,,*56
[2021-02-22 16:17:20.398] $GPGGA,,,,,,,,,,M,,M,,*56
[2021-02-22 16:17:20.602] $GPGGA,,,,,,,,,,M,,M,,*56
[2021-02-22 16:17:20.789] $GPGGA,,,,,,,,,,M,,M,,*56
[2021-02-22 16:17:21.008] $GPGGA,,,,,,,,,,M,,M,,*56
[2021-02-22 16:17:21.195] $GPGGA,,,,,,,,,,M,,M,,*56
[2021-02-22 16:17:21.398] $GPGGA,,,,,,,,,,M,,M,,*56
[2021-02-22 16:17:21.601] $GPGGA,,,,,,,,,,M,,M,,*56
[2021-02-22 16:17:21.805] $GPGGA,,,,,,,,,,M,,M,,*56
[2021-02-22 16:17:21.992] $GPGGA,,,,,,,,,,M,,M,,*56
[2021-02-22 16:17:22.195] $GPGGA,,,,,,,,,,M,,M,,*56
[2021-02-22 16:17:22.398] $GPGGA,,,,,,,,,,M,,M,,*56
[2021-02-22 16:17:22.601] $GPGGA,,,,,,,,,,M,,M,,*56
[2021-02-22 16:17:22.789] $GPGGA,,,,,,,,,,M,,M,,*56
[2021-02-22 16:17:23.008] $GPGGA,,,,,,,,,,M,,M,,*56
[2021-02-22 16:17:23.195] $GPGGA,,,,,,,,,,M,,M,,*56
[2021-02-22 16:17:23.398] $GPGGA,,,,,,,,,,M,,M,,*56
[2021-02-22 16:17:23.601] $GPGGA,,,,,,,,,,M,,M,,*56
[2021-02-22 16:17:23.804] $GPGGA,,,,,,,,,,M,,M,,*56
[2021-02-22 16:17:23.992] $GPGGA,,,,,,,,,,M,,M,,*56
[2021-02-22 16:17:24.195] $GPGGA,,,,,,,,,,M,,M,,*56
[2021-02-22 16:17:24.398] $GPGGA,,,,,,,,,,M,,M,,*56
[2021-02-22 16:17:24.601] $GPGGA,,,,,,,,,,M,,M,,*56
[2021-02-22 16:17:24.789] $GPGGA,,,,,,,,,,M,,M,,*56
[2021-02-22 16:17:25.007] $GPGGA,,,,,,,,,,M,,M,,*56
[2021-02-22 16:17:25.195] $GPGGA,,,,,,,,,,M,,M,,*56
[2021-02-22 16:17:25.398] $GPGGA,,,,,,,,,,M,,M,,*56
[2021-02-22 16:17:25.601] $GPGGA,,,,,,,,,,M,,M,,*56
[2021-02-22 16:17:25.804] $GPGGA,,,,,,,,,,M,,M,,*56
[2021-02-22 16:17:25.992] $GPGGA,,,,,,,,,,M,,M,,*56
[2021-02-22 16:17:26.195] $GPGGA,,,,,,,,,,M,,M,,*56
[2021-02-22 16:17:26.398] $GPGGA,,,,,,,,,,M,,M,,*56
[2021-02-22 16:17:26.601] $GPGGA,,,,,,,,,,M,,M,,*56
[2021-02-22 16:17:26.789] $GPGGA,,,,,,,,,,M,,M,,*56
[2021-02-22 16:17:27.007] $GPGGA,,,,,,,,,,M,,M,,*56
[2021-02-22 16:17:27.195] $GPGGA,,,,,,,,,,M,,M,,*56
[2021-02-22 16:17:27.398] $GPGGA,,,,,,,,,,M,,M,,*56
[2021-02-22 16:17:27.601] $GPGGA,,,,,,,,,,M,,M,,*56
[2021-02-22 16:17:27.804] $GPGGA,,,,,,,,,,M,,M,,*56
[2021-02-22 16:17:27.992] $GPGGA,,,,,,,,,,M,,M,,*56
[2021-02-22 16:17:28.195] $GPGGA,,,,,,,,,,M,,M,,*56
[2021-02-22 16:17:28.398] $GPGGA,,,,,,,,,,M,,M,,*56
[2021-02-22 16:17:28.601] $GPGGA,,,,,,,,,,M,,M,,*56
[2021-02-22 16:17:28.788] $GPGGA,,,,,,,,,,M,,M,,*56
[2021-02-22 16:17:29.007] $GPGGA,,,,,,,,,,M,,M,,*56
[2021-02-22 16:17:29.195] $GPGGA,,,,,,,,,,M,,M,,*56
[2021-02-22 16:17:29.398] $GPGGA,,,,,,,,,,M,,M,,*56
[2021-02-22 16:17:29.585] $GPGGA,,,,,,,,,,M,,M,,*56
[2021-02-22 16:17:29.804] $GPGGA,,,,,,,,,,M,,M,,*56
[2021-02-22 16:17:29.991] $GPGGA,,,,,,,,,,M,,M,,*56
[2021-02-22 16:17:30.195] $GPGGA,,,,,,,,,,M,,M,,*56
[2021-02-22 16:17:30.398] $GPGGA,,,,,,,,,,M,,M,,*56
[2021-02-22 16:17:30.601] $GPGGA,,,,,,,,,,M,,M,,*56
[2021-02-22 16:17:30.788] $GPGGA,,,,,,,,,,M,,M,,*56
[2021-02-22 16:17:31.007] $GPGGA,,,,,,,,,,M,,M,,*56
[2021-02-22 16:17:31.195] $GPGGA,,,,,,,,,,M,,M,,*56
[2021-02-22 16:17:31.398] $GPGGA,,,,,,,,,,M,,M,,*56
[2021-02-22 16:17:31.585] $GPGGA,,,,,,,,,,M,,M,,*56
[2021-02-22 16:17:31.804] $GPGGA,,,,,,,,,,M,,M,,*56
[2021-02-22 16:17:31.991] $GPGGA,,,,,,,,,,M,,M,,*56
[2021-02-22 16:17:32.194] $GPGGA,,,,,,,,,,M,,M,,*56
[2021-02-22 16:17:32.398] $GPGGA,,,,,,,,,,M,,M,,*56
[2021-02-22 16:17:32.601] $GPGGA,,,,,,,,,,M,,M,,*56
[2021-02-22 16:17:32.788] $GPGGA,,,,,,,,,,M,,M,,*56
[2021-02-22 16:17:33.007] $GPGGA,071732.60,3713.96728329,N,13701.45503471,E,2,03,6.4,101.583,M,36.771,M,1.6,0979*41
[2021-02-22 16:17:33.210] $GPGGA,071732.80,3713.96713368,N,13701.45505904,E,2,03,6.4,101.581,M,36.771,M,0.8,0979*46
[2021-02-22 16:17:33.304] $GPGGA,071732.90,3713.96713441,N,13701.45505677,E,2,03,6.4,101.581,M,36.771,M,0.9,0979*41
[2021-02-22 16:17:33.413] $GPGGA,071733.00,3713.96704796,N,13701.45510547,E,2,03,6.4,101.580,M,36.771,M,1.0,0979*4B
[2021-02-22 16:17:33.491] $GPGGA,071733.10,3713.96702944,N,13701.45511928,E,2,03,6.4,101.580,M,36.771,M,1.1,0979*48
[2021-02-22 16:17:33.601] $GPGGA,071733.20,3713.96702080,N,13701.45517939,E,2,03,6.4,101.581,M,36.771,M,1.2,0979*4E
[2021-02-22 16:17:33.679] $GPGGA,071733.30,3713.96700954,N,13701.45518497,E,2,03,6.4,101.580,M,36.771,M,1.3,0979*4B
[2021-02-22 16:17:33.804] $GPGGA,071733.40,3713.96684409,N,13701.45529553,E,2,03,6.4,101.580,M,36.771,M,1.4,0979*48
[2021-02-22 16:17:33.882] $GPGGA,071733.50,3713.96684532,N,13701.45529167,E,2,03,6.4,101.580,M,36.771,M,1.5,0979*42
[2021-02-22 16:17:34.007] $GPGGA,071733.60,3713.96662146,N,13701.45536559,E,2,03,6.4,101.579,M,36.771,M,1.6,0979*4C
[2021-02-22 16:17:34.085] $GPGGA,071733.70,3713.96661654,N,13701.45536331,E,2,03,6.4,101.579,M,36.771,M,1.7,0979*43
[2021-02-22 16:17:34.210] $GPGGA,071733.80,3713.96655335,N,13701.45536666,E,2,03,6.4,101.580,M,36.771,M,1.8,0979*47
[2021-02-22 16:17:34.288] $GPGGA,071733.90,3713.96655614,N,13701.45536507,E,2,03,6.4,101.580,M,36.771,M,0.9,0979*44
[2021-02-22 16:17:34.413] $GPGGA,071734.00,3713.96643333,N,13701.45541451,E,2,03,6.4,101.580,M,36.771,M,1.0,0979*47
[2021-02-22 16:17:34.491] $GPGGA,071734.10,3713.96643534,N,13701.45541257,E,2,03,6.4,101.580,M,36.771,M,1.1,0979*46
[2021-02-22 16:17:34.601] $GPGGA,071734.20,3713.96632836,N,13701.45544040,E,2,03,6.4,101.580,M,36.771,M,1.2,0979*4E
[2021-02-22 16:17:34.679] $GPGGA,071734.30,3713.96633612,N,13701.45543091,E,2,03,6.4,101.580,M,36.771,M,1.3,0979*4C
[2021-02-22 16:17:34.804] $GPGGA,071734.40,3713.96625508,N,13701.45545120,E,2,03,6.4,101.580,M,36.771,M,1.4,0979*4E
[2021-02-22 16:17:34.882] $GPGGA,071734.50,3713.96624666,N,13701.45545510,E,2,03,6.4,101.580,M,36.771,M,1.5,0979*43
[2021-02-22 16:17:35.007] $GPGGA,071734.60,3713.96622379,N,13701.45544939,E,2,03,6.4,101.580,M,36.771,M,1.6,0979*48
[2021-02-22 16:17:35.085] $GPGGA,071734.70,3713.96622873,N,13701.45544342,E,2,03,6.4,101.580,M,36.771,M,1.7,0979*4F
[2021-02-22 16:17:35.210] $GPGGA,071734.80,3713.96619998,N,13701.45542350,E,2,03,6.4,101.580,M,36.771,M,1.8,0979*46
[2021-02-22 16:17:35.288] $GPGGA,071734.90,3713.96621839,N,13701.45541838,E,2,03,6.4,101.580,M,36.771,M,0.9,0979*40
[2021-02-22 16:17:35.413] $GPGGA,071735.00,3713.96621803,N,13701.45539091,E,2,03,6.4,101.581,M,36.771,M,1.0,0979*4C
[2021-02-22 16:17:35.507] $GPGGA,071735.10,3713.96621056,N,13701.45539907,E,2,03,6.4,101.581,M,36.771,M,1.1,0979*42
[2021-02-22 16:17:35.616] $GPGGA,071735.20,3713.97026384,N,13701.45449876,E,1,06,1.6,93.703,M,36.771,M,,*54
[2021-02-22 16:17:35.710] $GPGGA,071735.30,3713.97026767,N,13701.45449749,E,1,04,1.6,93.697,M,36.771,M,,*51
[2021-02-22 16:17:35.804] $GPGGA,071735.40,3713.97050890,N,13701.45413156,E,2,05,1.9,92.153,M,36.771,M,1.4,0979*78
[2021-02-22 16:17:35.897] $GPGGA,071735.50,3713.97051001,N,13701.45413180,E,2,05,1.9,92.155,M,36.771,M,1.5,0979*74
[2021-02-22 16:17:36.007] $GPGGA,071735.60,3713.97041897,N,13701.45413642,E,2,05,1.9,92.451,M,36.771,M,1.6,0979*7A
[2021-02-22 16:17:36.100] $GPGGA,071735.70,3713.97042083,N,13701.45413693,E,2,05,1.9,92.447,M,36.771,M,1.7,0979*7F
[2021-02-22 16:17:36.210] $GPGGA,071735.80,3713.97033100,N,13701.45414516,E,2,05,1.9,92.756,M,36.771,M,1.8,0979*79
[2021-02-22 16:17:36.304] $GPGGA,071735.90,3713.97033047,N,13701.45414584,E,2,05,1.9,92.757,M,36.771,M,0.9,0979*70
[2021-02-22 16:17:36.413] $GPGGA,071736.00,3713.97012862,N,13701.45419507,E,2,05,1.9,93.328,M,36.771,M,1.0,0979*75
[2021-02-22 16:17:36.507] $GPGGA,071736.10,3713.97013048,N,13701.45419534,E,2,05,1.9,93.324,M,36.771,M,1.1,0979*78
[2021-02-22 16:17:36.616] $GPGGA,071736.20,3713.96998476,N,13701.45423161,E,2,05,1.9,93.728,M,36.771,M,1.2,0979*7F
[2021-02-22 16:17:36.710] $GPGGA,071736.30,3713.96998509,N,13701.45422958,E,2,05,1.9,93.726,M,36.771,M,1.3,0979*7B
[2021-02-22 16:17:36.804] $GPGGA,071736.40,3713.96986139,N,13701.45426118,E,2,05,1.9,94.067,M,36.771,M,1.4,0979*7E
[2021-02-22 16:17:36.897] $GPGGA,071736.50,3713.96985836,N,13701.45426274,E,2,05,1.9,94.070,M,36.771,M,1.5,0979*74
[2021-02-22 16:17:37.007] $GPGGA,071736.60,3713.96976177,N,13701.45428546,E,2,05,1.9,94.348,M,36.771,M,1.6,0979*74
[2021-02-22 16:17:37.100] $GPGGA,071736.70,3713.96976038,N,13701.45428678,E,2,05,1.9,94.344,M,36.771,M,1.7,0979*7C
[2021-02-22 16:17:37.210] $GPGGA,071736.80,3713.96967729,N,13701.45430217,E,2,05,1.9,94.592,M,36.771,M,1.8,0979*72
[2021-02-22 16:17:37.288] $GPGGA,071736.90,3713.96967545,N,13701.45430176,E,2,05,1.9,94.595,M,36.771,M,1.9,0979*79
[2021-02-22 16:17:37.413] $GPGGA,071737.00,3713.96960489,N,13701.45431445,E,2,05,1.9,94.822,M,36.771,M,1.0,0979*7B
[2021-02-22 16:17:37.507] $GPGGA,071737.10,3713.96960194,N,13701.45431394,E,2,05,1.9,94.826,M,36.771,M,1.1,0979*7D
[2021-02-22 16:17:37.616] $GPGGA,071737.20,3713.96954528,N,13701.45432199,E,2,05,1.9,95.024,M,36.771,M,1.2,0979*7E
[2021-02-22 16:17:37.710] $GPGGA,071737.30,3713.96954356,N,13701.45432139,E,2,05,1.9,95.026,M,36.771,M,1.3,0979*79
[2021-02-22 16:17:37.803] $GPGGA,071737.40,3713.96949143,N,13701.45432888,E,2,05,1.9,95.211,M,36.771,M,1.4,0979*76
[2021-02-22 16:17:37.897] $GPGGA,071737.50,3713.96948800,N,13701.45432903,E,2,05,1.9,95.222,M,36.771,M,1.5,0979*7B
[2021-02-22 16:17:38.007] $GPGGA,071737.60,3713.96943343,N,13701.45433456,E,2,05,1.9,95.401,M,36.771,M,1.6,0979*77
[2021-02-22 16:17:38.100] $GPGGA,071737.70,3713.96942978,N,13701.45433687,E,2,05,1.9,95.410,M,36.771,M,1.7,0979*7A
[2021-02-22 16:17:38.210] $GPGGA,071737.80,3713.96932935,N,13701.45436556,E,2,05,1.9,95.654,M,36.771,M,1.8,0979*7C
[2021-02-22 16:17:38.303] $GPGGA,071737.90,3713.96932656,N,13701.45436628,E,2,05,1.9,95.657,M,36.771,M,1.9,0979*7F
[2021-02-22 16:17:38.413] $GPGGA,071738.00,3713.96924316,N,13701.45435416,E,2,06,1.6,95.909,M,36.771,M,1.0,0979*72
[2021-02-22 16:17:38.506] $GPGGA,071738.10,3713.96924068,N,13701.45435527,E,2,06,1.6,95.911,M,36.771,M,1.1,0979*72
[2021-02-22 16:17:38.616] $GPGGA,071738.20,3713.96902788,N,13701.45440578,E,2,07,1.2,96.407,M,36.771,M,1.2,0979*7B
[2021-02-22 16:17:38.710] $GPGGA,071738.30,3713.96902819,N,13701.45440441,E,2,07,1.2,96.409,M,36.771,M,1.3,0979*79
[2021-02-22 16:17:38.803] $GPGGA,071738.40,3713.96889645,N,13701.45442402,E,2,07,1.2,96.733,M,36.771,M,1.4,0979*73
[2021-02-22 16:17:38.897] $GPGGA,071738.50,3713.96889558,N,13701.45442462,E,2,07,1.2,96.736,M,36.771,M,1.5,0979*7F
[2021-02-22 16:17:39.006] $GPGGA,071738.60,3713.96884536,N,13701.45441558,E,2,07,1.2,96.890,M,36.771,M,1.6,0979*72
[2021-02-22 16:17:39.100] $GPGGA,071738.70,3713.96884201,N,13701.45441469,E,2,07,1.2,96.887,M,36.771,M,1.7,0979*74
[2021-02-22 16:17:39.210] $GPGGA,071738.80,3713.96880078,N,13701.45441448,E,2,07,1.2,96.998,M,36.771,M,1.8,0979*70
[2021-02-22 16:17:39.303] $GPGGA,071738.90,3713.96879864,N,13701.45441241,E,2,07,1.2,96.995,M,36.771,M,1.9,0979*71
[2021-02-22 16:17:39.413] $GPGGA,071739.00,3713.96870252,N,13701.45444594,E,2,07,1.2,97.189,M,36.771,M,1.0,0979*78
[2021-02-22 16:17:39.506] $GPGGA,071739.10,3713.96870189,N,13701.45444492,E,2,07,1.2,97.188,M,36.771,M,1.1,0979*7B
[2021-02-22 16:17:39.616] $GPGGA,071739.20,3713.96864103,N,13701.45446051,E,2,07,1.2,97.327,M,36.771,M,1.2,0979*72
[2021-02-22 16:17:39.710] $GPGGA,071739.30,3713.96863979,N,13701.45445878,E,2,07,1.2,97.335,M,36.771,M,1.3,0979*73
[2021-02-22 16:17:39.803] $GPGGA,071739.40,3713.96859654,N,13701.45446330,E,2,07,1.2,97.436,M,36.771,M,1.4,0979*7A
[2021-02-22 16:17:39.897] $GPGGA,071739.50,3713.96859761,N,13701.45446209,E,2,07,1.2,97.438,M,36.771,M,1.5,0979*78
[2021-02-22 16:17:40.006] $GPGGA,071739.60,3713.96856194,N,13701.45446304,E,2,07,1.2,97.520,M,36.771,M,1.6,0979*7F
[2021-02-22 16:17:40.100] $GPGGA,071739.70,3713.96855979,N,13701.45446253,E,2,07,1.2,97.520,M,36.771,M,1.7,0979*74
[2021-02-22 16:17:40.210] $GPGGA,071739.80,3713.96852653,N,13701.45446679,E,2,07,1.2,97.587,M,36.771,M,1.8,0979*75
[2021-02-22 16:17:40.303] $GPGGA,071739.90,3713.96852367,N,13701.45446469,E,2,07,1.2,97.587,M,36.771,M,1.9,0979*74
[2021-02-22 16:17:40.413] $GPGGA,071740.00,3713.96849435,N,13701.45446467,E,2,07,1.2,97.651,M,36.771,M,1.0,0979*76
[2021-02-22 16:17:40.506] $GPGGA,071740.10,3713.96849331,N,13701.45446237,E,2,07,1.2,97.654,M,36.771,M,1.1,0979*73
[2021-02-22 16:17:40.616] $GPGGA,071740.20,3713.96846905,N,13701.45446152,E,2,07,1.2,97.709,M,36.771,M,1.2,0979*78
[2021-02-22 16:17:40.709] $GPGGA,071740.30,3713.96846506,N,13701.45445843,E,2,07,1.2,97.711,M,36.771,M,1.3,0979*74
[2021-02-22 16:17:40.803] $GPGGA,071740.40,3713.96844799,N,13701.45445615,E,2,07,1.2,97.758,M,36.771,M,1.4,0979*72
[2021-02-22 16:17:40.897] $GPGGA,071740.50,3713.96844614,N,13701.45445562,E,2,07,1.2,97.763,M,36.771,M,1.5,0979*7D
[2021-02-22 16:17:41.006] $GPGGA,071740.60,3713.96843284,N,13701.45444928,E,2,07,1.2,97.805,M,36.771,M,1.6,0979*7B
[2021-02-22 16:17:41.100] $GPGGA,071740.70,3713.96843166,N,13701.45445061,E,2,07,1.2,97.806,M,36.771,M,1.7,0979*72
[2021-02-22 16:17:41.209] $GPGGA,071740.80,3713.96840659,N,13701.45445461,E,2,07,1.2,97.856,M,36.771,M,1.8,0979*7B
[2021-02-22 16:17:41.303] $GPGGA,071740.90,3713.96840654,N,13701.45445505,E,2,07,1.2,97.854,M,36.771,M,0.9,0979*76
[2021-02-22 16:17:41.413] $GPGGA,071741.00,3713.96839203,N,13701.45444852,E,2,07,1.2,97.891,M,36.771,M,1.0,0979*79
[2021-02-22 16:17:41.506] $GPGGA,071741.10,3713.96839248,N,13701.45444830,E,2,07,1.2,97.896,M,36.771,M,1.1,0979*75
[2021-02-22 16:17:41.616] $GPGGA,071741.20,3713.96838560,N,13701.45443947,E,2,07,1.2,97.930,M,36.771,M,1.2,0979*72
[2021-02-22 16:17:41.709] $GPGGA,071741.30,3713.96838753,N,13701.45444154,E,2,07,1.2,97.928,M,36.771,M,1.3,0979*74
[2021-02-22 16:17:41.803] $GPGGA,071741.40,3713.96838590,N,13701.45443425,E,2,07,1.2,97.957,M,36.771,M,1.4,0979*75
[2021-02-22 16:17:41.897] $GPGGA,071741.50,3713.96838704,N,13701.45443789,E,2,07,1.2,97.961,M,36.771,M,1.5,0979*7A
[2021-02-22 16:17:42.006] $GPGGA,071741.60,3713.96838834,N,13701.45443265,E,2,07,1.2,97.986,M,36.771,M,1.6,0979*78
[2021-02-22 16:17:42.100] $GPGGA,071741.70,3713.96838973,N,13701.45443511,E,2,07,1.2,97.988,M,36.771,M,1.7,0979*70
[2021-02-22 16:17:42.209] $GPGGA,071741.80,3713.96839374,N,13701.45443257,E,2,07,1.2,98.014,M,36.771,M,1.8,0979*7A
[2021-02-22 16:17:42.303] $GPGGA,071741.90,3713.96839468,N,13701.45443645,E,2,07,1.2,98.015,M,36.771,M,1.9,0979*76
[2021-02-22 16:17:42.397] $GPGGA,071742.00,3713.96840137,N,13701.45442729,E,2,07,1.2,98.036,M,36.771,M,1.0,0979*7F
[2021-02-22 16:17:42.506] $GPGGA,071742.10,3713.96840223,N,13701.45442967,E,2,07,1.2,98.045,M,36.771,M,1.1,0979*79
[2021-02-22 16:17:42.616] $GPGGA,071742.20,3713.96840895,N,13701.45442543,E,2,07,1.2,98.064,M,36.771,M,1.2,0979*77
[2021-02-22 16:17:42.709] $GPGGA,071742.30,3713.96841246,N,13701.45442765,E,2,07,1.2,98.063,M,36.771,M,1.3,0979*73
[2021-02-22 16:17:42.803] $GPGGA,071742.40,3713.96841799,N,13701.45442710,E,2,07,1.2,98.082,M,36.771,M,1.4,0979*79
[2021-02-22 16:17:42.912] $GPGGA,071742.50,3713.96841981,N,13701.45442690,E,2,07,1.2,98.084,M,36.771,M,1.5,0979*71
[2021-02-22 16:17:43.006] $GPGGA,071742.60,3713.96842230,N,13701.45442571,E,2,07,1.2,98.102,M,36.771,M,1.6,0979*70
[2021-02-22 16:17:43.100] $GPGGA,071742.70,3713.96842480,N,13701.45442480,E,2,07,1.2,98.103,M,36.771,M,1.7,0979*73
[2021-02-22 16:17:43.209] $GPGGA,071742.80,3713.96842701,N,13701.45442253,E,2,07,1.2,98.123,M,36.771,M,1.8,0979*73
[2021-02-22 16:17:43.303] $GPGGA,071742.90,3713.96842838,N,13701.45442324,E,2,07,1.2,98.120,M,36.771,M,1.9,0979*74
[2021-02-22 16:17:43.411] $GPGGA,071743.00,3713.96843349,N,13701.45441894,E,2,07,1.2,98.144,M,36.771,M,1.0,0979*78
[2021-02-22 16:17:43.504] $GPGGA,071743.10,3713.96843468,N,13701.45442125,E,2,07,1.2,98.140,M,36.771,M,1.1,0979*78
[2021-02-22 16:17:43.614] $GPGGA,071743.20,3713.96843550,N,13701.45441832,E,2,07,1.2,98.163,M,36.771,M,1.2,0979*7F
[2021-02-22 16:17:43.708] $GPGGA,071743.30,3713.96843745,N,13701.45441978,E,2,07,1.2,98.161,M,36.771,M,1.3,0979*74
[2021-02-22 16:17:43.817] $GPGGA,071743.40,3713.96843675,N,13701.45441658,E,2,07,1.2,98.182,M,36.771,M,1.4,0979*76
[2021-02-22 16:17:43.911] $GPGGA,071743.50,3713.96843882,N,13701.45441831,E,2,07,1.2,98.182,M,36.771,M,1.5,0979*71
[2021-02-22 16:17:44.004] $GPGGA,071743.60,3713.96843922,N,13701.45442382,E,2,07,1.2,98.206,M,36.771,M,1.6,0979*75
[2021-02-22 16:17:44.098] $GPGGA,071743.70,3713.96843922,N,13701.45442722,E,2,07,1.2,98.210,M,36.771,M,1.7,0979*7C
[2021-02-22 16:17:44.208] $GPGGA,071743.80,3713.96844031,N,13701.45443138,E,2,07,1.2,98.237,M,36.771,M,1.8,0979*79
[2021-02-22 16:17:44.301] $GPGGA,071743.90,3713.96844044,N,13701.45443178,E,2,07,1.2,98.241,M,36.771,M,1.9,0979*7E
[2021-02-22 16:17:44.411] $GPGGA,071744.00,3713.96843996,N,13701.45442407,E,2,07,1.2,98.270,M,36.771,M,1.0,0979*76
[2021-02-22 16:17:44.504] $GPGGA,071744.10,3713.96844123,N,13701.45442138,E,2,07,1.2,98.274,M,36.771,M,1.1,0979*7A
[2021-02-22 16:17:44.614] $GPGGA,071744.20,3713.96844005,N,13701.45439513,E,2,07,1.2,98.295,M,36.771,M,1.2,0979*71
[2021-02-22 16:17:44.707] $GPGGA,071744.30,3713.96844028,N,13701.45439505,E,2,07,1.2,98.296,M,36.771,M,1.3,0979*7A
[2021-02-22 16:17:44.817] $GPGGA,071744.40,3713.96843639,N,13701.45437634,E,2,07,1.2,98.316,M,36.771,M,1.4,0979*7D
[2021-02-22 16:17:44.911] $GPGGA,071744.50,3713.96843477,N,13701.45437582,E,2,07,1.2,98.322,M,36.771,M,1.5,0979*7C
[2021-02-22 16:17:45.004] $GPGGA,071744.60,3713.96843105,N,13701.45437554,E,2,07,1.2,98.348,M,36.771,M,1.6,0979*7B
[2021-02-22 16:17:45.098] $GPGGA,071744.70,3713.96843270,N,13701.45437512,E,2,07,1.2,98.348,M,36.771,M,1.7,0979*78
[2021-02-22 16:17:45.207] $GPGGA,071744.80,3713.96842829,N,13701.45435864,E,2,07,1.2,98.363,M,36.771,M,1.8,0979*78
[2021-02-22 16:17:45.301] $GPGGA,071744.90,3713.96842897,N,13701.45436004,E,2,07,1.2,98.363,M,36.771,M,1.9,0979*70
[2021-02-22 16:17:45.411] $GPGGA,071745.00,3713.96842774,N,13701.45436384,E,2,07,1.2,98.382,M,36.771,M,1.0,0979*77
[2021-02-22 16:17:45.504] $GPGGA,071745.10,3713.96842287,N,13701.45439582,E,5,06,1.6,97.447,M,36.771,M,1.1,0979*72
[2021-02-22 16:17:45.614] $GPGGA,071745.20,3713.96842214,N,13701.45439720,E,5,06,1.6,97.438,M,36.771,M,1.2,0979*7A
[2021-02-22 16:17:45.707] $GPGGA,071745.30,3713.96842267,N,13701.45439777,E,5,06,1.6,97.439,M,36.771,M,1.3,0979*7D
[2021-02-22 16:17:45.817] $GPGGA,071745.40,3713.96842301,N,13701.45439771,E,5,06,1.6,97.439,M,36.771,M,1.4,0979*7A
[2021-02-22 16:17:45.910] $GPGGA,071745.50,3713.96842359,N,13701.45439847,E,5,06,1.6,97.441,M,36.771,M,1.5,0979*72
[2021-02-22 16:17:46.020] $GPGGA,071745.60,3713.96842097,N,13701.45439860,E,5,06,1.6,97.442,M,36.771,M,1.6,0979*75
[2021-02-22 16:17:46.114] $GPGGA,071745.70,3713.96842445,N,13701.45439959,E,5,06,1.6,97.442,M,36.771,M,1.7,0979*75
[2021-02-22 16:17:46.207] $GPGGA,071745.80,3713.96842231,N,13701.45439813,E,5,06,1.6,97.440,M,36.771,M,1.8,0979*7D
[2021-02-22 16:17:46.301] $GPGGA,071745.90,3713.96842208,N,13701.45439502,E,5,06,1.6,97.443,M,36.771,M,1.9,0979*79
[2021-02-22 16:17:46.410] $GPGGA,071746.00,3713.96842499,N,13701.45441296,E,4,07,1.2,97.422,M,36.771,M,1.0,0979*72
[2021-02-22 16:17:46.504] $GPGGA,071746.10,3713.96842488,N,13701.45441046,E,4,07,1.2,97.427,M,36.771,M,1.1,0979*78
[2021-02-22 16:17:46.614] $GPGGA,071746.20,3713.96842321,N,13701.45441178,E,4,07,1.2,97.431,M,36.771,M,1.2,0979*77
[2021-02-22 16:17:46.707] $GPGGA,071746.30,3713.96842291,N,13701.45441064,E,4,07,1.2,97.434,M,36.771,M,1.3,0979*74
[2021-02-22 16:17:46.817] $GPGGA,071746.40,3713.96842163,N,13701.45441130,E,4,07,1.2,97.431,M,36.771,M,1.4,0979*7F
[2021-02-22 16:17:46.910] $GPGGA,071746.50,3713.96842087,N,13701.45441122,E,4,07,1.2,97.429,M,36.771,M,1.5,0979*7E
[2021-02-22 16:17:47.020] $GPGGA,071746.60,3713.96842206,N,13701.45441476,E,4,07,1.2,97.429,M,36.771,M,1.6,0979*71
[2021-02-22 16:17:47.114] $GPGGA,071746.70,3713.96842070,N,13701.45441209,E,4,07,1.2,97.428,M,36.771,M,1.7,0979*7D
[2021-02-22 16:17:47.207] $GPGGA,071746.80,3713.96842073,N,13701.45441300,E,4,07,1.2,97.432,M,36.771,M,1.8,0979*7D
[2021-02-22 16:17:47.317] $GPGGA,071746.90,3713.96842068,N,13701.45441335,E,4,07,1.2,97.432,M,36.771,M,1.9,0979*71
[2021-02-22 16:17:47.410] $GPGGA,071747.00,3713.96841973,N,13701.45441291,E,4,07,1.2,97.427,M,36.771,M,2.0,0979*78
[2021-02-22 16:17:47.504] $GPGGA,071747.10,3713.96841406,N,13701.45441117,E,4,07,1.2,97.456,M,36.771,M,1.1,0979*7F
[2021-02-22 16:17:47.614] $GPGGA,071747.20,3713.96841050,N,13701.45441093,E,4,07,1.2,97.456,M,36.771,M,1.2,0979*75
[2021-02-22 16:17:47.707] $GPGGA,071747.30,3713.96841351,N,13701.45441328,E,4,07,1.2,97.462,M,36.771,M,1.3,0979*73
[2021-02-22 16:17:47.817] $GPGGA,071747.40,3713.96841269,N,13701.45441149,E,4,07,1.2,97.463,M,36.771,M,1.4,0979*7D
[2021-02-22 16:17:47.910] $GPGGA,071747.50,3713.96841225,N,13701.45441579,E,4,07,1.2,97.458,M,36.771,M,1.5,0979*7A
[2021-02-22 16:17:48.020] $GPGGA,071747.60,3713.96841200,N,13701.45441166,E,4,07,1.2,97.459,M,36.771,M,1.6,0979*76
[2021-02-22 16:17:48.113] $GPGGA,071747.70,3713.96841149,N,13701.45441271,E,4,07,1.2,97.463,M,36.771,M,1.7,0979*74
[2021-02-22 16:17:48.207] $GPGGA,071747.80,3713.96841417,N,13701.45441399,E,4,07,1.2,97.458,M,36.771,M,1.8,0979*75
[2021-02-22 16:17:48.301] $GPGGA,071747.90,3713.96841444,N,13701.45441326,E,4,07,1.2,97.461,M,36.771,M,1.9,0979*7D
[2021-02-22 16:17:48.410] $GPGGA,071748.00,3713.96842051,N,13701.45441067,E,4,07,1.2,97.453,M,36.771,M,2.0,0979*75
[2021-02-22 16:17:48.504] $GPGGA,071748.10,3713.96842614,N,13701.45441080,E,4,07,1.2,97.440,M,36.771,M,1.1,0979*7A
[2021-02-22 16:17:48.613] $GPGGA,071748.20,3713.96842802,N,13701.45440861,E,4,07,1.2,97.439,M,36.771,M,1.2,0979*7B
[2021-02-22 16:17:48.707] $GPGGA,071748.30,3713.96842590,N,13701.45440957,E,4,07,1.2,97.446,M,36.771,M,1.3,0979*71
[2021-02-22 16:17:48.817] $GPGGA,071748.40,3713.96842718,N,13701.45441078,E,4,07,1.2,97.441,M,36.771,M,1.4,0979*71
[2021-02-22 16:17:48.910] $GPGGA,071748.50,3713.96842664,N,13701.45441193,E,4,07,1.2,97.440,M,36.771,M,1.5,0979*7E
[2021-02-22 16:17:49.020] $GPGGA,071748.60,3713.96842645,N,13701.45441332,E,4,07,1.2,97.445,M,36.771,M,1.6,0979*71
[2021-02-22 16:17:49.113] $GPGGA,071748.70,3713.96842548,N,13701.45441204,E,4,07,1.2,97.432,M,36.771,M,1.7,0979*7B
[2021-02-22 16:17:49.207] $GPGGA,071748.80,3713.96842362,N,13701.45441098,E,4,07,1.2,97.443,M,36.771,M,1.8,0979*74
[2021-02-22 16:17:49.301] $GPGGA,071748.90,3713.96842759,N,13701.45440951,E,4,07,1.2,97.437,M,36.771,M,1.9,0979*76
[2021-02-22 16:17:49.410] $GPGGA,071749.00,3713.96842656,N,13701.45440866,E,4,07,1.2,97.441,M,36.771,M,2.0,0979*7E
[2021-02-22 16:17:49.504] $GPGGA,071749.10,3713.96842812,N,13701.45440989,E,4,07,1.2,97.443,M,36.771,M,2.1,0979*72
[2021-02-22 16:17:49.613] $GPGGA,071749.20,3713.96842933,N,13701.45441066,E,4,07,1.2,97.431,M,36.771,M,2.2,0979*7C
[2021-02-22 16:17:49.707] $GPGGA,071749.30,3713.96842003,N,13701.45441660,E,4,07,1.2,97.455,M,36.771,M,1.3,0979*77
[2021-02-22 16:17:49.816] $GPGGA,071749.40,3713.96842040,N,13701.45441457,E,4,07,1.2,97.454,M,36.771,M,1.4,0979*77
[2021-02-22 16:17:49.910] $GPGGA,071749.50,3713.96841850,N,13701.45441210,E,4,07,1.2,97.458,M,36.771,M,1.5,0979*74
[2021-02-22 16:17:50.020] $GPGGA,071749.60,3713.96841624,N,13701.45441307,E,4,07,1.2,97.457,M,36.771,M,1.6,0979*71
[2021-02-22 16:17:50.113] $GPGGA,071749.70,3713.96841855,N,13701.45440934,E,4,07,1.2,97.453,M,36.771,M,1.7,0979*76
[2021-02-22 16:17:50.223] $GPGGA,071749.80,3713.96841319,N,13701.45440859,E,4,07,1.2,97.451,M,36.771,M,1.8,0979*7D
[2021-02-22 16:17:50.301] $GPGGA,071749.90,3713.96841366,N,13701.45440500,E,4,07,1.2,97.457,M,36.771,M,1.9,0979*72
[2021-02-22 16:17:50.410] $GPGGA,071750.00,3713.96841625,N,13701.45440653,E,4,07,1.2,97.453,M,36.771,M,1.0,0979*79
[2021-02-22 16:17:50.504] $GPGGA,071750.10,3713.96841842,N,13701.45440487,E,4,07,1.2,97.453,M,36.771,M,1.1,0979*7D
[2021-02-22 16:17:50.613] $GPGGA,071750.20,3713.96841480,N,13701.45440422,E,4,07,1.2,97.449,M,36.771,M,1.2,0979*7B
[2021-02-22 16:17:50.707] $GPGGA,071750.30,3713.96841398,N,13701.45440677,E,4,07,1.2,97.445,M,36.771,M,1.3,0979*7B
[2021-02-22 16:17:50.816] $GPGGA,071750.40,3713.96841391,N,13701.45440258,E,4,07,1.2,97.452,M,36.771,M,1.4,0979*7D
[2021-02-22 16:17:50.910] $GPGGA,071750.50,3713.96841422,N,13701.45439889,E,4,07,1.2,97.449,M,36.771,M,1.5,0979*70
[2021-02-22 16:17:51.020] $GPGGA,071750.60,3713.96841172,N,13701.45440236,E,4,07,1.2,97.454,M,36.771,M,1.6,0979*7C
[2021-02-22 16:17:51.113] $GPGGA,071750.70,3713.96841268,N,13701.45440307,E,4,07,1.2,97.450,M,36.771,M,1.7,0979*73
[2021-02-22 16:17:51.223] $GPGGA,071750.80,3713.96841249,N,13701.45440584,E,4,07,1.2,97.450,M,36.771,M,1.8,0979*7D
[2021-02-22 16:17:51.301] $GPGGA,071750.90,3713.96840988,N,13701.45440900,E,4,07,1.2,97.449,M,36.771,M,0.9,0979*73
[2021-02-22 16:17:51.426] $GPGGA,071751.00,3713.96841172,N,13701.45440893,E,4,07,1.2,97.443,M,36.771,M,1.0,0979*7E
[2021-02-22 16:17:51.504] $GPGGA,071751.10,3713.96841001,N,13701.45441024,E,4,07,1.2,97.446,M,36.771,M,1.1,0979*7B
[2021-02-22 16:17:51.613] $GPGGA,071751.20,3713.96841062,N,13701.45441479,E,4,07,1.2,97.443,M,36.771,M,1.2,0979*77
[2021-02-22 16:17:51.707] $GPGGA,071751.30,3713.96841551,N,13701.45441461,E,4,07,1.2,97.444,M,36.771,M,1.3,0979*7C
[2021-02-22 16:17:51.816] $GPGGA,071751.40,3713.96841270,N,13701.45441379,E,4,07,1.2,97.448,M,36.771,M,1.4,0979*7A
[2021-02-22 16:17:51.910] $GPGGA,071751.50,3713.96841092,N,13701.45441448,E,4,07,1.2,97.450,M,36.771,M,1.5,0979*78
[2021-02-22 16:17:52.019] $GPGGA,071751.60,3713.96841453,N,13701.45441544,E,4,07,1.2,97.450,M,36.771,M,1.6,0979*7C
[2021-02-22 16:17:52.113] $GPGGA,071751.70,3713.96841189,N,13701.45441386,E,4,07,1.2,97.446,M,36.771,M,1.7,0979*71
[2021-02-22 16:17:52.207] $GPGGA,071751.80,3713.96841422,N,13701.45441416,E,4,07,1.2,97.437,M,36.771,M,1.8,0979*7D
[2021-02-22 16:17:52.301] $GPGGA,071751.90,3713.96841331,N,13701.45441282,E,4,07,1.2,97.456,M,36.771,M,1.9,0979*74
[2021-02-22 16:17:52.410] $GPGGA,071752.00,3713.96841374,N,13701.45441456,E,4,07,1.2,97.444,M,36.771,M,2.0,0979*79
[2021-02-22 16:17:52.504] $GPGGA,071752.10,3713.96841508,N,13701.45440754,E,4,07,1.2,97.464,M,36.771,M,1.1,0979*75
[2021-02-22 16:17:52.613] $GPGGA,071752.20,3713.96841423,N,13701.45440811,E,4,07,1.2,97.459,M,36.771,M,1.2,0979*7D
[2021-02-22 16:17:52.707] $GPGGA,071752.30,3713.96841438,N,13701.45440866,E,4,07,1.2,97.457,M,36.771,M,1.3,0979*79
[2021-02-22 16:17:52.816] $GPGGA,071752.40,3713.96841239,N,13701.45440855,E,4,07,1.2,97.459,M,36.771,M,1.4,0979*70
[2021-02-22 16:17:52.910] $GPGGA,071752.50,3713.96841462,N,13701.45441082,E,4,07,1.2,97.453,M,36.771,M,1.5,0979*71
[2021-02-22 16:17:53.019] $GPGGA,071752.60,3713.96841375,N,13701.45441200,E,4,07,1.2,97.449,M,36.771,M,1.6,0979*73
[2021-02-22 16:17:53.113] $GPGGA,071752.70,3713.96841239,N,13701.45441252,E,4,07,1.2,97.455,M,36.771,M,1.7,0979*70
[2021-02-22 16:17:53.207] $GPGGA,071752.80,3713.96841294,N,13701.45441201,E,4,07,1.2,97.457,M,36.771,M,1.8,0979*73
[2021-02-22 16:17:53.301] $GPGGA,071752.90,3713.96841332,N,13701.45441061,E,4,07,1.2,97.456,M,36.771,M,1.9,0979*7B
[2021-02-22 16:17:53.410] $GPGGA,071753.00,3713.96841739,N,13701.45441080,E,4,07,1.2,97.468,M,36.771,M,2.0,0979*74
[2021-02-22 16:17:53.504] $GPGGA,071753.10,3713.96841783,N,13701.45441119,E,4,07,1.2,97.454,M,36.771,M,2.1,0979*7B
[2021-02-22 16:17:53.613] $GPGGA,071753.20,3713.96841275,N,13701.45441192,E,4,07,1.2,97.459,M,36.771,M,1.2,0979*7A
[2021-02-22 16:17:53.707] $GPGGA,071753.30,3713.96841155,N,13701.45441418,E,4,07,1.2,97.455,M,36.771,M,1.3,0979*70
[2021-02-22 16:17:53.816] $GPGGA,071753.40,3713.96841141,N,13701.45441714,E,4,07,1.2,97.461,M,36.771,M,1.4,0979*7D
[2021-02-22 16:17:53.910] $GPGGA,071753.50,3713.96841018,N,13701.45441568,E,4,07,1.2,97.458,M,36.771,M,1.5,0979*73
[2021-02-22 16:17:54.019] $GPGGA,071753.60,3713.96840984,N,13701.45441722,E,4,07,1.2,97.455,M,36.771,M,1.6,0979*7F
[2021-02-22 16:17:54.113] $GPGGA,071753.70,3713.96841348,N,13701.45442010,E,4,07,1.2,97.450,M,36.771,M,1.7,0979*74
[2021-02-22 16:17:54.207] $GPGGA,071753.80,3713.96841484,N,13701.45442013,E,4,07,1.2,97.462,M,36.771,M,1.8,0979*71
[2021-02-22 16:17:54.285] $GPGGA,071753.90,3713.96841580,N,13701.45441608,E,4,07,1.2,97.451,M,36.771,M,1.9,0979*7B
[2021-02-22 16:17:54.394] $GPGGA,071754.00,3713.96841858,N,13701.45442125,E,4,07,1.2,97.456,M,36.771,M,1.0,0979*78
[2021-02-22 16:17:54.504] $GPGGA,071754.10,3713.96841804,N,13701.45442417,E,4,07,1.2,97.449,M,36.771,M,1.1,0979*7B
[2021-02-22 16:17:54.613] $GPGGA,071754.20,3713.96841917,N,13701.45442264,E,4,07,1.2,97.452,M,36.771,M,1.2,0979*70
[2021-02-22 16:17:54.707] $GPGGA,071754.30,3713.96842103,N,13701.45441983,E,4,07,1.2,97.451,M,36.771,M,1.3,0979*7C
[2021-02-22 16:17:54.816] $GPGGA,071754.40,3713.96842280,N,13701.45441890,E,4,07,1.2,97.453,M,36.771,M,1.4,0979*75
[2021-02-22 16:17:54.910] $GPGGA,071754.50,3713.96842376,N,13701.45441470,E,4,07,1.2,97.452,M,36.771,M,1.5,0979*7E
[2021-02-22 16:17:55.019] $GPGGA,071754.60,3713.96842240,N,13701.45441816,E,4,07,1.2,97.449,M,36.771,M,1.6,0979*7C
[2021-02-22 16:17:55.113] $GPGGA,071754.70,3713.96842391,N,13701.45441648,E,4,07,1.2,97.450,M,36.771,M,1.7,0979*7C
[2021-02-22 16:17:55.207] $GPGGA,071754.80,3713.96842117,N,13701.45441682,E,4,07,1.2,97.452,M,36.771,M,1.8,0979*74
[2021-02-22 16:17:55.300] $GPGGA,071754.90,3713.96842335,N,13701.45441477,E,4,07,1.2,97.451,M,36.771,M,1.9,0979*7D
[2021-02-22 16:17:55.410] $GPGGA,071755.00,3713.96842384,N,13701.45441335,E,4,07,1.2,97.450,M,36.771,M,2.0,0979*75
[2021-02-22 16:17:55.504] $GPGGA,071755.10,3713.96842310,N,13701.45441315,E,4,07,1.2,97.444,M,36.771,M,1.1,0979*7C
[2021-02-22 16:17:55.613] $GPGGA,071755.20,3713.96842008,N,13701.45441439,E,4,07,1.2,97.449,M,36.771,M,1.2,0979*72
[2021-02-22 16:17:55.707] $GPGGA,071755.30,3713.96842238,N,13701.45441334,E,4,07,1.2,97.452,M,36.771,M,1.3,0979*73
[2021-02-22 16:17:55.816] $GPGGA,071755.40,3713.96842071,N,13701.45441422,E,4,07,1.2,97.450,M,36.771,M,1.4,0979*7E
[2021-02-22 16:17:55.910] $GPGGA,071755.50,3713.96841873,N,13701.45441692,E,4,07,1.2,97.449,M,36.771,M,1.5,0979*76
[2021-02-22 16:17:56.019] $GPGGA,071755.60,3713.96841636,N,13701.45441597,E,4,07,1.2,97.452,M,36.771,M,1.6,0979*75
[2021-02-22 16:17:56.113] $GPGGA,071755.70,3713.96841635,N,13701.45441692,E,4,07,1.2,97.449,M,36.771,M,1.7,0979*7A
[2021-02-22 16:17:56.207] $GPGGA,071755.80,3713.96841684,N,13701.45441535,E,4,07,1.2,97.458,M,36.771,M,1.8,0979*7E
[2021-02-22 16:17:56.300] $GPGGA,071755.90,3713.96841655,N,13701.45441148,E,4,07,1.2,97.451,M,36.771,M,0.9,0979*74
[2021-02-22 16:17:56.410] $GPGGA,071756.00,3713.96841284,N,13701.45440802,E,4,07,1.2,97.461,M,36.771,M,1.0,0979*7B
[2021-02-22 16:17:56.504] $GPGGA,071756.10,3713.96841431,N,13701.45440625,E,4,07,1.2,97.458,M,36.771,M,1.1,0979*72
[2021-02-22 16:17:56.613] $GPGGA,071756.20,3713.96841152,N,13701.45440720,E,4,07,1.2,97.458,M,36.771,M,1.2,0979*76
[2021-02-22 16:17:56.707] $GPGGA,071756.30,3713.96841355,N,13701.45441037,E,4,07,1.2,97.456,M,36.771,M,1.3,0979*7D
[2021-02-22 16:17:56.816] $GPGGA,071756.40,3713.96841401,N,13701.45440803,E,4,07,1.2,97.462,M,36.771,M,1.4,0979*72
[2021-02-22 16:17:56.910] $GPGGA,071756.50,3713.96841252,N,13701.45440878,E,4,07,1.2,97.455,M,36.771,M,1.5,0979*7A
[2021-02-22 16:17:57.019] $GPGGA,071756.60,3713.96841425,N,13701.45440715,E,4,07,1.2,97.461,M,36.771,M,1.6,0979*7F
[2021-02-22 16:17:57.113] $GPGGA,071756.70,3713.96841579,N,13701.45440630,E,4,07,1.2,97.457,M,36.771,M,1.7,0979*74
[2021-02-22 16:17:57.207] $GPGGA,071756.80,3713.96841582,N,13701.45440787,E,4,07,1.2,97.455,M,36.771,M,1.8,0979*7F
[2021-02-22 16:17:57.300] $GPGGA,071756.90,3713.96841690,N,13701.45440558,E,4,07,1.2,97.458,M,36.771,M,1.9,0979*72
[2021-02-22 16:17:57.410] $GPGGA,071757.00,3713.96841554,N,13701.45440812,E,4,07,1.2,97.462,M,36.771,M,1.0,0979*72
[2021-02-22 16:17:57.503] $GPGGA,071757.10,3713.96841768,N,13701.45440810,E,4,07,1.2,97.459,M,36.771,M,1.1,0979*75
[2021-02-22 16:17:57.613] $GPGGA,071757.20,3713.96841484,N,13701.45440848,E,4,07,1.2,97.458,M,36.771,M,1.2,0979*78
[2021-02-22 16:17:57.707] $GPGGA,071757.30,3713.96841735,N,13701.45440689,E,4,07,1.2,97.458,M,36.771,M,1.3,0979*72
[2021-02-22 16:17:57.816] $GPGGA,071757.40,3713.96841487,N,13701.45440813,E,4,07,1.2,97.462,M,36.771,M,1.4,0979*7C
[2021-02-22 16:17:57.910] $GPGGA,071757.50,3713.96841711,N,13701.45440729,E,4,07,1.2,97.456,M,36.771,M,1.5,0979*71
[2021-02-22 16:17:58.019] $GPGGA,071757.60,3713.96841853,N,13701.45440620,E,4,07,1.2,97.463,M,36.771,M,1.6,0979*76
[2021-02-22 16:17:58.113] $GPGGA,071757.70,3713.96841842,N,13701.45440896,E,4,07,1.2,97.461,M,36.771,M,1.7,0979*77
[2021-02-22 16:17:58.207] $GPGGA,071757.80,3713.96841909,N,13701.45440978,E,4,07,1.2,97.464,M,36.771,M,1.8,0979*7D
[2021-02-22 16:17:58.300] $GPGGA,071757.90,3713.96841776,N,13701.45440998,E,4,07,1.2,97.463,M,36.771,M,1.9,0979*72
[2021-02-22 16:17:58.410] $GPGGA,071758.00,3713.96841847,N,13701.45440911,E,4,07,1.2,97.458,M,36.771,M,1.0,0979*79
[2021-02-22 16:17:58.503] $GPGGA,071758.10,3713.96841805,N,13701.45440811,E,4,07,1.2,97.458,M,36.771,M,1.1,0979*7E
[2021-02-22 16:17:58.613] $GPGGA,071758.20,3713.96841524,N,13701.45440751,E,4,07,1.2,97.457,M,36.771,M,1.2,0979*74
[2021-02-22 16:17:58.706] $GPGGA,071758.30,3713.96841622,N,13701.45440862,E,4,07,1.2,97.465,M,36.771,M,1.3,0979*7F
[2021-02-22 16:17:58.816] $GPGGA,071758.40,3713.96841735,N,13701.45440647,E,4,07,1.2,97.461,M,36.771,M,1.4,0979*75
[2021-02-22 16:17:58.910] $GPGGA,071758.50,3713.96841505,N,13701.45440779,E,4,07,1.2,97.460,M,36.771,M,1.5,0979*79
[2021-02-22 16:17:59.019] $GPGGA,071758.60,3713.96841728,N,13701.45440598,E,4,07,1.2,97.458,M,36.771,M,1.6,0979*72
[2021-02-22 16:17:59.113] $GPGGA,071758.70,3713.96841481,N,13701.45440678,E,4,07,1.2,97.460,M,36.771,M,1.7,0979*74
[2021-02-22 16:17:59.206] $GPGGA,071758.80,3713.96841290,N,13701.45440712,E,4,07,1.2,97.461,M,36.771,M,1.8,0979*7E
[2021-02-22 16:17:59.300] $GPGGA,071758.90,3713.96841375,N,13701.45440663,E,4,07,1.2,97.473,M,36.771,M,1.9,0979*70
[2021-02-22 16:17:59.410] $GPGGA,071759.00,3713.96840945,N,13701.45440762,E,4,07,1.2,97.453,M,36.771,M,1.0,0979*7B
[2021-02-22 16:17:59.503] $GPGGA,071759.10,3713.96841073,N,13701.45440747,E,4,07,1.2,97.446,M,36.771,M,1.1,0979*75
[2021-02-22 16:17:59.613] $GPGGA,071759.20,3713.96840730,N,13701.45440802,E,4,07,1.2,97.449,M,36.771,M,1.2,0979*75
[2021-02-22 16:17:59.706] $GPGGA,071759.30,3713.96840962,N,13701.45441072,E,4,07,1.2,97.444,M,36.771,M,1.3,0979*7F
[2021-02-22 16:17:59.816] $GPGGA,071759.40,3713.96840780,N,13701.45440700,E,4,07,1.2,97.454,M,36.771,M,1.4,0979*7F
[2021-02-22 16:17:59.910] $GPGGA,071759.50,3713.96840689,N,13701.45440989,E,4,07,1.2,97.452,M,36.771,M,1.5,0979*7E
[2021-02-22 16:18:00.019] $GPGGA,071759.60,3713.96840762,N,13701.45440988,E,4,07,1.2,97.452,M,36.771,M,1.6,0979*7B
[2021-02-22 16:18:00.113] $GPGGA,071759.70,3713.96840814,N,13701.45440767,E,4,07,1.2,97.456,M,36.771,M,1.7,0979*7E
[2021-02-22 16:18:00.206] $GPGGA,071759.80,3713.96840713,N,13701.45440702,E,4,07,1.2,97.448,M,36.771,M,1.8,0979*7A
[2021-02-22 16:18:00.300] $GPGGA,071759.90,3713.96840576,N,13701.45440974,E,4,07,1.2,97.449,M,36.771,M,1.9,0979*75
[2021-02-22 16:18:00.410] $GPGGA,071800.00,3713.96841097,N,13701.45440885,E,4,07,1.2,97.454,M,36.771,M,1.0,0979*7E
[2021-02-22 16:18:00.503] $GPGGA,071800.10,3713.96841379,N,13701.45440878,E,4,07,1.2,97.449,M,36.771,M,1.1,0979*73
[2021-02-22 16:18:00.613] $GPGGA,071800.20,3713.96841261,N,13701.45441353,E,4,07,1.2,97.443,M,36.771,M,1.2,0979*72
[2021-02-22 16:18:00.706] $GPGGA,071800.30,3713.96841391,N,13701.45441016,E,4,07,1.2,97.455,M,36.771,M,1.3,0979*79
[2021-02-22 16:18:00.816] $GPGGA,071800.40,3713.96841307,N,13701.45441153,E,4,07,1.2,97.451,M,36.771,M,1.4,0979*72
[2021-02-22 16:18:00.909] $GPGGA,071800.50,3713.96841245,N,13701.45441277,E,4,07,1.2,97.450,M,36.771,M,1.5,0979*71
[2021-02-22 16:18:01.019] $GPGGA,071800.60,3713.96841398,N,13701.45441207,E,4,07,1.2,97.447,M,36.771,M,1.6,0979*71
[2021-02-22 16:18:01.113] $GPGGA,071800.70,3713.96841359,N,13701.45441524,E,4,07,1.2,97.449,M,36.771,M,1.7,0979*74
[2021-02-22 16:18:01.206] $GPGGA,071800.80,3713.96841196,N,13701.45441281,E,4,07,1.2,97.443,M,36.771,M,1.8,0979*77
[2021-02-22 16:18:01.300] $GPGGA,071800.90,3713.96840924,N,13701.45441551,E,4,07,1.2,97.452,M,36.771,M,1.9,0979*7D
[2021-02-22 16:18:01.409] $GPGGA,071801.00,3713.96840775,N,13701.45440952,E,4,07,1.2,97.452,M,36.771,M,2.0,0979*7B
[2021-02-22 16:18:01.503] $GPGGA,071801.10,3713.96840848,N,13701.45440933,E,4,07,1.2,97.456,M,36.771,M,2.1,0979*79
[2021-02-22 16:18:01.613] $GPGGA,071801.20,3713.96840525,N,13701.45440953,E,4,07,1.2,97.448,M,36.771,M,1.2,0979*75
[2021-02-22 16:18:01.706] $GPGGA,071801.30,3713.96840592,N,13701.45440879,E,4,07,1.2,97.446,M,36.771,M,1.3,0979*7E
[2021-02-22 16:18:01.816] $GPGGA,071801.40,3713.96840328,N,13701.45440724,E,4,07,1.2,97.456,M,36.771,M,1.4,0979*7F
[2021-02-22 16:18:01.909] $GPGGA,071801.50,3713.96840358,N,13701.45440844,E,4,07,1.2,97.455,M,36.771,M,1.5,0979*72
[2021-02-22 16:18:02.019] $GPGGA,071801.60,3713.96840442,N,13701.45440908,E,4,07,1.2,97.445,M,36.771,M,1.6,0979*76
[2021-02-22 16:18:02.112] $GPGGA,071801.70,3713.96840412,N,13701.45440898,E,4,07,1.2,97.448,M,36.771,M,1.7,0979*76
[2021-02-22 16:18:02.206] $GPGGA,071801.80,3713.96840319,N,13701.45440708,E,4,07,1.2,97.444,M,36.771,M,1.8,0979*70
[2021-02-22 16:18:02.300] $GPGGA,071801.90,3713.96840428,N,13701.45440895,E,4,07,1.2,97.447,M,36.771,M,1.9,0979*7D
[2021-02-22 16:18:02.394] $GPGGA,071802.00,3713.96840324,N,13701.45440719,E,4,07,1.2,97.449,M,36.771,M,2.0,0979*73
[2021-02-22 16:18:02.487] $GPGGA,071802.10,3713.96840595,N,13701.45441014,E,4,07,1.2,97.459,M,36.771,M,1.1,0979*76
[2021-02-22 16:18:02.612] $GPGGA,071802.20,3713.96840770,N,13701.45441182,E,4,07,1.2,97.458,M,36.771,M,1.2,0979*70
[2021-02-22 16:18:02.706] $GPGGA,071802.30,3713.96840478,N,13701.45441011,E,4,07,1.2,97.465,M,36.771,M,1.3,0979*7E
[2021-02-22 16:18:02.816] $GPGGA,071802.40,3713.96840747,N,13701.45441402,E,4,07,1.2,97.458,M,36.771,M,1.4,0979*79
[2021-02-22 16:18:02.909] $GPGGA,071802.50,3713.96840849,N,13701.45441120,E,4,07,1.2,97.460,M,36.771,M,1.5,0979*76
[2021-02-22 16:18:03.019] $GPGGA,071802.60,3713.96840860,N,13701.45441380,E,4,07,1.2,97.465,M,36.771,M,1.6,0979*70
[2021-02-22 16:18:03.112] $GPGGA,071802.70,3713.96840742,N,13701.45441206,E,4,07,1.2,97.457,M,36.771,M,1.7,0979*71
[2021-02-22 16:18:03.206] $GPGGA,071802.80,3713.96840818,N,13701.45441195,E,4,07,1.2,97.465,M,36.771,M,1.8,0979*79
[2021-02-22 16:18:03.300] $GPGGA,071802.90,3713.96840827,N,13701.45441466,E,4,07,1.2,97.466,M,36.771,M,1.9,0979*7F
[2021-02-22 16:18:03.409] $GPGGA,071803.00,3713.96840937,N,13701.45441407,E,4,07,1.2,97.443,M,36.771,M,1.0,0979*7E
[2021-02-22 16:18:03.503] $GPGGA,071803.10,3713.96840709,N,13701.45441689,E,4,07,1.2,97.451,M,36.771,M,1.1,0979*7A
[2021-02-22 16:18:03.612] $GPGGA,071803.20,3713.96840764,N,13701.45441510,E,4,07,1.2,97.451,M,36.771,M,1.2,0979*72
[2021-02-22 16:18:03.706] $GPGGA,071803.30,3713.96840736,N,13701.45441524,E,4,07,1.2,97.455,M,36.771,M,1.3,0979*76
[2021-02-22 16:18:03.816] $GPGGA,071803.40,3713.96840735,N,13701.45441610,E,4,07,1.2,97.447,M,36.771,M,1.4,0979*72
[2021-02-22 16:18:03.909] $GPGGA,071803.50,3713.96840510,N,13701.45441635,E,4,07,1.2,97.454,M,36.771,M,1.5,0979*72
[2021-02-22 16:18:04.019] $GPGGA,071803.60,3713.96840431,N,13701.45441814,E,4,07,1.2,97.455,M,36.771,M,1.6,0979*7C
[2021-02-22 16:18:04.112] $GPGGA,071803.70,3713.96840533,N,13701.45441700,E,4,07,1.2,97.449,M,36.771,M,1.7,0979*78
[2021-02-22 16:18:04.206] $GPGGA,071803.80,3713.96840852,N,13701.45441813,E,4,07,1.2,97.452,M,36.771,M,1.8,0979*75
[2021-02-22 16:18:04.300] $GPGGA,071803.90,3713.96840745,N,13701.45441509,E,4,07,1.2,97.462,M,36.771,M,0.9,0979*78
[2021-02-22 16:18:04.409] $GPGGA,071804.00,3713.96840912,N,13701.45441490,E,4,07,1.2,97.459,M,36.771,M,1.0,0979*7B
[2021-02-22 16:18:04.503] $GPGGA,071804.10,3713.96840920,N,13701.45441270,E,4,07,1.2,97.457,M,36.771,M,1.1,0979*7C
[2021-02-22 16:18:04.612] $GPGGA,071804.20,3713.96840934,N,13701.45441497,E,4,07,1.2,97.459,M,36.771,M,1.2,0979*78
[2021-02-22 16:18:04.706] $GPGGA,071804.30,3713.96840870,N,13701.45441680,E,4,07,1.2,97.455,M,36.771,M,1.3,0979*71
[2021-02-22 16:18:04.815] $GPGGA,071804.40,3713.96840811,N,13701.45441837,E,4,07,1.2,97.459,M,36.771,M,1.4,0979*78
[2021-02-22 16:18:04.909] $GPGGA,071804.50,3713.96841105,N,13701.45441846,E,4,07,1.2,97.461,M,36.771,M,1.5,0979*78
[2021-02-22 16:18:05.019] $GPGGA,071804.60,3713.96840932,N,13701.45441713,E,4,07,1.2,97.461,M,36.771,M,1.6,0979*7A
[2021-02-22 16:18:05.112] $GPGGA,071804.70,3713.96841073,N,13701.45441814,E,4,07,1.2,97.459,M,36.771,M,1.7,0979*74
[2021-02-22 16:18:05.222] $GPGGA,071804.80,3713.96841196,N,13701.45441691,E,4,07,1.2,97.458,M,36.771,M,1.8,0979*7C
[2021-02-22 16:18:05.300] $GPGGA,071804.90,3713.96841158,N,13701.45441385,E,4,07,1.2,97.462,M,36.771,M,1.9,0979*77
[2021-02-22 16:18:05.409] $GPGGA,071805.00,3713.96841296,N,13701.45441546,E,4,07,1.2,97.450,M,36.771,M,1.0,0979*7F
[2021-02-22 16:18:05.503] $GPGGA,071805.10,3713.96841213,N,13701.45441358,E,4,07,1.2,97.460,M,36.771,M,1.1,0979*78
[2021-02-22 16:18:05.612] $GPGGA,071805.20,3713.96841230,N,13701.45441493,E,4,07,1.2,97.453,M,36.771,M,1.2,0979*79
[2021-02-22 16:18:05.706] $GPGGA,071805.30,3713.96841242,N,13701.45441554,E,4,07,1.2,97.452,M,36.771,M,1.3,0979*77
[2021-02-22 16:18:05.815] $GPGGA,071805.40,3713.96841165,N,13701.45441577,E,4,07,1.2,97.459,M,36.771,M,1.4,0979*7B
[2021-02-22 16:18:05.909] $GPGGA,071805.50,3713.96841291,N,13701.45441302,E,4,07,1.2,97.452,M,36.771,M,1.5,0979*7C
[2021-02-22 16:18:06.018] $GPGGA,071805.60,3713.96841152,N,13701.45441346,E,4,07,1.2,97.458,M,36.771,M,1.6,0979*7A
[2021-02-22 16:18:06.112] $GPGGA,071805.70,3713.96841218,N,13701.45441312,E,4,07,1.2,97.453,M,36.771,M,1.7,0979*7D
[2021-02-22 16:18:06.206] $GPGGA,071805.80,3713.96841043,N,13701.45441235,E,4,07,1.2,97.453,M,36.771,M,1.8,0979*75
[2021-02-22 16:18:06.300] $GPGGA,071805.90,3713.96841027,N,13701.45441341,E,4,07,1.2,97.462,M,36.771,M,1.9,0979*77
[2021-02-22 16:18:06.409] $GPGGA,071806.00,3713.96841171,N,13701.45441067,E,4,07,1.2,97.459,M,36.771,M,1.0,0979*79
[2021-02-22 16:18:06.503] $GPGGA,071806.10,3713.96841877,N,13701.45441410,E,4,07,1.2,97.450,M,36.771,M,1.1,0979*7B
[2021-02-22 16:18:06.612] $GPGGA,071806.20,3713.96841581,N,13701.45441113,E,4,07,1.2,97.455,M,36.771,M,1.2,0979*7C
[2021-02-22 16:18:06.706] $GPGGA,071806.30,3713.96841658,N,13701.45441042,E,4,07,1.2,97.459,M,36.771,M,1.3,0979*72
[2021-02-22 16:18:06.815] $GPGGA,071806.40,3713.96841488,N,13701.45441198,E,4,07,1.2,97.463,M,36.771,M,1.4,0979*72
[2021-02-22 16:18:06.909] $GPGGA,071806.50,3713.96841594,N,13701.45440985,E,4,07,1.2,97.458,M,36.771,M,1.5,0979*73
[2021-02-22 16:18:07.018] $GPGGA,071806.60,3713.96841635,N,13701.45441166,E,4,07,1.2,97.464,M,36.771,M,1.6,0979*70
[2021-02-22 16:18:07.112] $GPGGA,071806.70,3713.96841563,N,13701.45441060,E,4,07,1.2,97.456,M,36.771,M,1.7,0979*76
[2021-02-22 16:18:07.206] $GPGGA,071806.80,3713.96841788,N,13701.45441238,E,4,07,1.2,97.450,M,36.771,M,1.8,0979*78
[2021-02-22 16:18:07.300] $GPGGA,071806.90,3713.96841664,N,13701.45440853,E,4,07,1.2,97.456,M,36.771,M,1.9,0979*7B
[2021-02-22 16:18:07.409] $GPGGA,071807.00,3713.96840967,N,13701.45440591,E,4,07,1.2,97.469,M,36.771,M,1.0,0979*78
[2021-02-22 16:18:07.503] $GPGGA,071807.10,3713.96841004,N,13701.45440541,E,4,07,1.2,97.480,M,36.771,M,1.1,0979*7F
[2021-02-22 16:18:07.612] $GPGGA,071807.20,3713.96840780,N,13701.45440650,E,4,07,1.2,97.478,M,36.771,M,1.2,0979*71
[2021-02-22 16:18:07.706] $GPGGA,071807.30,3713.96841297,N,13701.45440825,E,4,07,1.2,97.470,M,36.771,M,1.3,0979*77
[2021-02-22 16:18:07.815] $GPGGA,071807.40,3713.96841177,N,13701.45440879,E,4,07,1.2,97.477,M,36.771,M,1.4,0979*74
[2021-02-22 16:18:07.909] $GPGGA,071807.50,3713.96841289,N,13701.45440859,E,4,07,1.2,97.472,M,36.771,M,1.5,0979*71
[2021-02-22 16:18:08.018] $GPGGA,071807.60,3713.96841629,N,13701.45440955,E,4,07,1.2,97.475,M,36.771,M,1.6,0979*75
[2021-02-22 16:18:08.112] $GPGGA,071807.70,3713.96841440,N,13701.45440759,E,4,07,1.2,97.476,M,36.771,M,1.7,0979*79
[2021-02-22 16:18:08.206] $GPGGA,071807.80,3713.96841549,N,13701.45440646,E,4,07,1.2,97.471,M,36.771,M,1.8,0979*79
[2021-02-22 16:18:08.300] $GPGGA,071807.90,3713.96841831,N,13701.45440464,E,4,07,1.2,97.474,M,36.771,M,1.9,0979*7C
[2021-02-22 16:18:08.409] $GPGGA,071808.00,3713.96841784,N,13701.45440336,E,4,07,1.2,97.476,M,36.771,M,2.0,0979*73
[2021-02-22 16:18:08.503] $GPGGA,071808.10,3713.96841660,N,13701.45440659,E,4,07,1.2,97.472,M,36.771,M,2.1,0979*70
[2021-02-22 16:18:08.612] $GPGGA,071808.20,3713.96842309,N,13701.45440891,E,4,07,1.2,97.449,M,36.771,M,1.2,0979*78
[2021-02-22 16:18:08.706] $GPGGA,071808.30,3713.96842193,N,13701.45440665,E,4,07,1.2,97.464,M,36.771,M,1.3,0979*73
[2021-02-22 16:18:08.815] $GPGGA,071808.40,3713.96842423,N,13701.45440585,E,4,07,1.2,97.456,M,36.771,M,1.4,0979*71
[2021-02-22 16:18:08.909] $GPGGA,071808.50,3713.96842547,N,13701.45440608,E,4,07,1.2,97.461,M,36.771,M,1.5,0979*70
[2021-02-22 16:18:09.018] $GPGGA,071808.60,3713.96842515,N,13701.45440672,E,4,07,1.2,97.464,M,36.771,M,1.6,0979*7F
[2021-02-22 16:18:09.112] $GPGGA,071808.70,3713.96842470,N,13701.45440968,E,4,07,1.2,97.459,M,36.771,M,1.7,0979*77
[2021-02-22 16:18:09.206] $GPGGA,071808.80,3713.96842513,N,13701.45441061,E,4,07,1.2,97.463,M,36.771,M,1.8,0979*7B
[2021-02-22 16:18:09.299] $GPGGA,071808.90,3713.96842391,N,13701.45441015,E,4,07,1.2,97.457,M,36.771,M,1.9,0979*73
[2021-02-22 16:18:09.409] $GPGGA,071809.00,3713.96842203,N,13701.45440939,E,4,07,1.2,97.466,M,36.771,M,1.0,0979*7C
[2021-02-22 16:18:09.503] $GPGGA,071809.10,3713.96842439,N,13701.45440947,E,4,07,1.2,97.463,M,36.771,M,1.1,0979*7F
[2021-02-22 16:18:09.612] $GPGGA,071809.20,3713.96842088,N,13701.45440941,E,4,07,1.2,97.465,M,36.771,M,1.2,0979*71
[2021-02-22 16:18:09.706] $GPGGA,071809.30,3713.96841526,N,13701.45441029,E,4,07,1.2,97.468,M,36.771,M,1.3,0979*78
[2021-02-22 16:18:09.815] $GPGGA,071809.40,3713.96841009,N,13701.45440644,E,4,07,1.2,97.470,M,36.771,M,1.4,0979*75
[2021-02-22 16:18:09.909] $GPGGA,071809.50,3713.96841100,N,13701.45440829,E,4,07,1.2,97.463,M,36.771,M,1.5,0979*7A
[2021-02-22 16:18:10.018] $GPGGA,071809.60,3713.96840766,N,13701.45440759,E,4,07,1.2,97.463,M,36.771,M,1.6,0979*75
[2021-02-22 16:18:10.112] $GPGGA,071809.70,3713.96840597,N,13701.45440934,E,4,07,1.2,97.464,M,36.771,M,1.7,0979*7B
[2021-02-22 16:18:10.206] $GPGGA,071809.80,3713.96840591,N,13701.45441127,E,4,07,1.2,97.466,M,36.771,M,1.8,0979*74
[2021-02-22 16:18:10.299] $GPGGA,071809.90,3713.96840832,N,13701.45441306,E,4,07,1.2,97.459,M,36.771,M,0.9,0979*7C
[2021-02-22 16:18:10.409] $GPGGA,071810.00,3713.96840864,N,13701.45441214,E,4,07,1.2,97.463,M,36.771,M,1.0,0979*7D
[2021-02-22 16:18:10.503] $GPGGA,071810.10,3713.96840708,N,13701.45441275,E,4,07,1.2,97.467,M,36.771,M,1.1,0979*7B
[2021-02-22 16:18:10.612] $GPGGA,071810.20,3713.96840674,N,13701.45441047,E,4,07,1.2,97.465,M,36.771,M,1.2,0979*70
[2021-02-22 16:18:10.706] $GPGGA,071810.30,3713.96840624,N,13701.45441219,E,4,07,1.2,97.464,M,36.771,M,1.3,0979*7D
[2021-02-22 16:18:10.815] $GPGGA,071810.40,3713.96839521,N,13701.45441214,E,4,07,1.2,97.459,M,36.771,M,1.4,0979*76
[2021-02-22 16:18:10.909] $GPGGA,071810.50,3713.96839634,N,13701.45441250,E,4,07,1.2,97.449,M,36.771,M,1.5,0979*70
[2021-02-22 16:18:11.018] $GPGGA,071810.60,3713.96839421,N,13701.45441552,E,4,07,1.2,97.462,M,36.771,M,1.6,0979*7A
[2021-02-22 16:18:11.112] $GPGGA,071810.70,3713.96840281,N,13701.45441802,E,4,07,1.2,97.460,M,36.771,M,1.7,0979*72
[2021-02-22 16:18:11.206] $GPGGA,071810.80,3713.96840563,N,13701.45441427,E,4,07,1.2,97.455,M,36.771,M,1.8,0979*74
[2021-02-22 16:18:11.299] $GPGGA,071810.90,3713.96840762,N,13701.45441310,E,4,07,1.2,97.447,M,36.771,M,1.9,0979*77
[2021-02-22 16:18:11.424] $GPGGA,071811.00,3713.96840674,N,13701.45440952,E,4,07,1.2,97.467,M,36.771,M,2.0,0979*7C
[2021-02-22 16:18:11.502] $GPGGA,071811.10,3713.96841050,N,13701.45440674,E,4,07,1.2,97.461,M,36.771,M,1.1,0979*73
[2021-02-22 16:18:11.612] $GPGGA,071811.20,3713.96841275,N,13701.45440622,E,4,07,1.2,97.458,M,36.771,M,1.2,0979*7F
[2021-02-22 16:18:11.706] $GPGGA,071811.30,3713.96841599,N,13701.45440781,E,4,07,1.2,97.461,M,36.771,M,1.3,0979*78
[2021-02-22 16:18:11.815] $GPGGA,071811.40,3713.96841496,N,13701.45441188,E,4,07,1.2,97.454,M,36.771,M,1.4,0979*7E
[2021-02-22 16:18:11.909] $GPGGA,071811.50,3713.96841368,N,13701.45441548,E,4,07,1.2,97.459,M,36.771,M,1.5,0979*7D
[2021-02-22 16:18:12.018] $GPGGA,071811.60,3713.96841931,N,13701.45441922,E,4,07,1.2,97.455,M,36.771,M,1.6,0979*77
[2021-02-22 16:18:12.112] $GPGGA,071811.70,3713.96841266,N,13701.45441874,E,4,07,1.2,97.458,M,36.771,M,1.7,0979*71
[2021-02-22 16:18:12.206] $GPGGA,071811.80,3713.96841325,N,13701.45441939,E,4,07,1.2,97.456,M,36.771,M,1.8,0979*71
[2021-02-22 16:18:12.299] $GPGGA,071811.90,3713.96841363,N,13701.45441702,E,4,07,1.2,97.456,M,36.771,M,1.9,0979*75
[2021-02-22 16:18:12.409] $GPGGA,071812.00,3713.96841481,N,13701.45441964,E,4,07,1.2,97.463,M,36.771,M,1.0,0979*75
[2021-02-22 16:18:12.502] $GPGGA,071812.10,3713.96841503,N,13701.45441759,E,4,07,1.2,97.459,M,36.771,M,1.1,0979*77
[2021-02-22 16:18:12.612] $GPGGA,071812.20,3713.96841539,N,13701.45442056,E,4,07,1.2,97.453,M,36.771,M,1.2,0979*7F
[2021-02-22 16:18:12.706] $GPGGA,071812.30,3713.96841312,N,13701.45441918,E,4,07,1.2,97.457,M,36.771,M,1.3,0979*74
[2021-02-22 16:18:12.815] $GPGGA,071812.40,3713.96841317,N,13701.45442036,E,4,07,1.2,97.459,M,36.771,M,1.4,0979*79
[2021-02-22 16:18:12.909] $GPGGA,071812.50,3713.96840973,N,13701.45441872,E,4,07,1.2,97.458,M,36.771,M,1.5,0979*7A
