
[2021-02-22 16:13:21.000] $GPGGA,071300.20,3713.96737692,N,13701.45505701,E,1,01,1412.8,100.899,M,36.771,M,,*5D
[2021-02-22 16:13:21.032] $GPVTG,163.32,T,171.77,M,1.07,N,1.98,K,A*27
[2021-02-22 16:13:21.032] $GPGGA,071300.30,3713.96734316,N,13701.45507308,E,1,01,1412.8,100.816,M,36.771,M,,*5E
[2021-02-22 16:13:21.032] $GPVTG,163.35,T,171.80,M,1.08,N,2.00,K,A*25
[2021-02-22 16:13:21.032] $GPGGA,071300.40,3713.96730309,N,13701.45510390,E,1,01,1412.8,100.871,M,36.771,M,,*55
[2021-02-22 16:13:21.032] $GPVTG,163.35,T,171.80,M,1.10,N,2.04,K,A*28
[2021-02-22 16:13:21.032] $GPGGA,071300.50,3713.96726795,N,13701.45512056,E,1,01,1412.8,100.783,M,36.771,M,,*5B
[2021-02-22 16:13:21.032] $GPVTG,163.36,T,171.81,M,1.11,N,2.06,K,A*29
[2021-02-22 16:13:21.032] $GPGGA,071300.60,3713.96722512,N,13701.45515440,E,1,01,1412.8,100.852,M,36.771,M,,*56
[2021-02-22 16:13:21.032] $GPVTG,163.33,T,171.78,M,1.13,N,2.10,K,A*2F
[2021-02-22 16:13:21.032] $GPGGA,071300.70,3713.96718856,N,13701.45517169,E,1,01,1412.8,100.766,M,36.771,M,,*57
[2021-02-22 16:13:21.032] $GPVTG,163.32,T,171.77,M,1.15,N,2.12,K,A*25
[2021-02-22 16:13:21.032] $GPGGA,071300.80,3713.96714321,N,13701.45520766,E,1,01,1412.8,100.851,M,36.771,M,,*59
[2021-02-22 16:13:21.032] $GPVTG,163.27,T,171.72,M,1.17,N,2.16,K,A*22
[2021-02-22 16:13:21.032] $GPGGA,071300.90,3713.96710508,N,13701.45522566,E,1,01,1412.8,100.764,M,36.771,M,,*58
[2021-02-22 16:13:21.032] $GPVTG,163.25,T,171.70,M,1.18,N,2.19,K,A*22
[2021-02-22 16:13:21.047] $GPGGA,071301.00,3713.96705706,N,13701.45526343,E,1,01,1412.8,100.842,M,36.771,M,,*56
[2021-02-22 16:13:21.047] $GPVTG,163.19,T,171.64,M,1.21,N,2.23,K,A*2B
[2021-02-22 16:13:21.047] $GPGGA,071301.10,3713.96701727,N,13701.45528216,E,1,01,1412.8,100.752,M,36.771,M,,*51
[2021-02-22 16:13:21.047] $GPVTG,163.16,T,171.61,M,1.22,N,2.26,K,A*27
[2021-02-22 16:13:21.047] $GPGGA,071301.20,3713.96696618,N,13701.45532232,E,1,01,1412.8,100.834,M,36.771,M,,*52
[2021-02-22 16:13:21.047] $GPVTG,163.10,T,171.55,M,1.25,N,2.31,K,A*27
[2021-02-22 16:13:21.047] $GPGGA,071301.30,3713.96692463,N,13701.45534183,E,1,01,1412.8,100.744,M,36.771,M,,*5E
[2021-02-22 16:13:21.047] $GPVTG,163.06,T,171.51,M,1.26,N,2.33,K,A*25
[2021-02-22 16:13:21.047] $GPGGA,071301.40,3713.96687066,N,13701.45538368,E,1,01,1412.8,100.832,M,36.771,M,,*59
[2021-02-22 16:13:21.047] $GPVTG,162.98,T,171.43,M,1.29,N,2.38,K,A*24
[2021-02-22 16:13:21.047] $GPGGA,071301.50,3713.96682728,N,13701.45540401,E,1,01,1412.8,100.759,M,36.771,M,,*55
[2021-02-22 16:13:21.047] $GPVTG,162.92,T,171.37,M,1.30,N,2.41,K,A*2B
[2021-02-22 16:13:21.047] $GPGGA,071301.60,3713.96676985,N,13701.45544821,E,1,01,1412.8,100.860,M,36.771,M,,*5B
[2021-02-22 16:13:21.047] $GPVTG,162.84,T,171.29,M,1.33,N,2.47,K,A*26
[2021-02-22 16:13:21.047] $GPGGA,071301.70,3713.96672434,N,13701.45546948,E,1,01,1412.8,100.782,M,36.771,M,,*56
[2021-02-22 16:13:21.063] $GPVTG,162.79,T,171.24,M,1.35,N,2.50,K,A*29
[2021-02-22 16:13:21.063] $GPGGA,071301.80,3713.96666205,N,13701.45551799,E,1,01,1412.8,100.904,M,36.771,M,,*5C
[2021-02-22 16:13:21.063] $GPVTG,162.70,T,171.15,M,1.38,N,2.55,K,A*2A
[2021-02-22 16:13:21.063] $GPGGA,071301.90,3713.96661421,N,13701.45554032,E,1,01,1412.8,100.824,M,36.771,M,,*5A
[2021-02-22 16:13:21.063] $GPVTG,162.65,T,171.10,M,1.40,N,2.59,K,A*28
[2021-02-22 16:13:21.063] $GPGGA,071302.00,3713.96654951,N,13701.45558859,E,1,01,1412.8,100.931,M,36.771,M,,*50
[2021-02-22 16:13:21.063] $GPVTG,162.57,T,171.02,M,1.43,N,2.65,K,A*26
[2021-02-22 16:13:21.063] $GPGGA,071302.10,3713.96649924,N,13701.45561199,E,1,01,1412.8,100.865,M,36.771,M,,*50
[2021-02-22 16:13:21.063] $GPVTG,162.51,T,170.96,M,1.45,N,2.68,K,A*27
[2021-02-22 16:13:21.063] $GPGGA,071302.20,3713.96642910,N,13701.45566446,E,1,01,1412.8,101.006,M,36.771,M,,*53
[2021-02-22 16:13:21.063] $GPVTG,162.42,T,170.87,M,1.48,N,2.75,K,A*24
[2021-02-22 16:13:21.063] $GPGGA,071302.30,3713.96637584,N,13701.45568921,E,1,01,1412.8,100.968,M,36.771,M,,*53
[2021-02-22 16:13:21.063] $GPVTG,162.35,T,170.79,M,1.50,N,2.78,K,A*21
[2021-02-22 16:13:21.063] $GPGGA,071302.40,3713.96629903,N,13701.45574676,E,1,01,1412.8,101.153,M,36.771,M,,*59
[2021-02-22 16:13:21.063] $GPVTG,162.24,T,170.69,M,1.54,N,2.86,K,A*25
[2021-02-22 16:13:21.063] $GPGGA,071302.50,3713.96624219,N,13701.45577318,E,1,01,1412.8,101.133,M,36.771,M,,*5D
[2021-02-22 16:13:21.078] $GPVTG,162.16,T,170.61,M,1.57,N,2.90,K,A*28
[2021-02-22 16:13:21.078] $GPGGA,071302.60,3713.96615841,N,13701.45583572,E,1,01,1412.8,101.327,M,36.771,M,,*5D
[2021-02-22 16:13:21.078] $GPVTG,162.07,T,170.52,M,1.61,N,2.98,K,A*25
[2021-02-22 16:13:21.078] $GPGGA,071302.70,3713.96609826,N,13701.45586371,E,1,01,1412.8,101.277,M,36.771,M,,*54
[2021-02-22 16:13:21.078] $GPVTG,162.03,T,170.48,M,1.63,N,3.02,K,A*2A
[2021-02-22 16:13:21.078] $GPGGA,071302.80,3713.96600771,N,13701.45593074,E,1,01,1412.8,101.463,M,36.771,M,,*5E
[2021-02-22 16:13:21.078] $GPVTG,161.97,T,170.42,M,1.68,N,3.11,K,A*27
[2021-02-22 16:13:21.078] $GPGGA,071302.90,3713.96594334,N,13701.45596067,E,1,01,1412.8,101.436,M,36.771,M,,*53
[2021-02-22 16:13:21.078] $GPVTG,161.92,T,170.37,M,1.70,N,3.16,K,A*2E
[2021-02-22 16:13:21.078] $GPGGA,071303.00,3713.96584601,N,13701.45603141,E,1,01,1412.8,101.628,M,36.771,M,,*5E
[2021-02-22 16:13:21.078] $GPVTG,161.86,T,170.31,M,1.76,N,3.25,K,A*2B
[2021-02-22 16:13:21.078] $GPGGA,071303.10,3713.96577724,N,13701.45606338,E,1,01,1412.8,101.609,M,36.771,M,,*5F
[2021-02-22 16:13:21.078] $GPVTG,161.81,T,170.26,M,1.78,N,3.30,K,A*20
[2021-02-22 16:13:21.078] $GPGGA,071303.20,3713.96567254,N,13701.45613815,E,1,01,1412.8,101.807,M,36.771,M,,*5F
[2021-02-22 16:13:21.078] $GPVTG,161.76,T,170.21,M,1.84,N,3.40,K,A*2B
[2021-02-22 16:13:21.094] $GPGGA,071303.30,3713.96559980,N,13701.45617197,E,1,01,1412.8,101.764,M,36.771,M,,*5C
[2021-02-22 16:13:21.094] $GPVTG,161.74,T,170.19,M,1.86,N,3.45,K,A*25
[2021-02-22 16:13:21.094] $GPGGA,071303.40,3713.96548778,N,13701.45625095,E,1,01,1412.8,101.942,M,36.771,M,,*5A
[2021-02-22 16:13:21.094] $GPVTG,161.72,T,170.17,M,1.92,N,3.56,K,A*2A
[2021-02-22 16:13:21.094] $GPGGA,071303.50,3713.96541042,N,13701.45628685,E,1,01,1412.8,101.900,M,36.771,M,,*50
[2021-02-22 16:13:21.094] $GPVTG,161.70,T,170.15,M,1.95,N,3.61,K,A*29
[2021-02-22 16:13:21.094] $GPGGA,071303.60,3713.96529087,N,13701.45636953,E,1,01,1412.8,102.078,M,36.771,M,,*5A
[2021-02-22 16:13:21.094] $GPVTG,161.68,T,170.13,M,2.01,N,3.72,K,A*2A
[2021-02-22 16:13:21.094] $GPGGA,071303.70,3713.96520870,N,13701.45640757,E,1,01,1412.8,102.035,M,36.771,M,,*50
[2021-02-22 16:13:21.094] $GPVTG,161.67,T,170.12,M,2.04,N,3.78,K,A*2B
[2021-02-22 16:13:21.094] $GPGGA,071303.80,3713.96507952,N,13701.45649573,E,1,01,1412.8,102.231,M,36.771,M,,*50
[2021-02-22 16:13:21.094] $GPVTG,161.65,T,170.10,M,2.11,N,3.90,K,A*29
[2021-02-22 16:13:21.094] $GPGGA,071303.90,3713.96499226,N,13701.45653604,E,1,01,1412.8,102.185,M,36.771,M,,*5B
[2021-02-22 16:13:21.094] $GPVTG,161.65,T,170.10,M,2.14,N,3.96,K,A*2A
[2021-02-22 16:13:21.094] $GPGGA,071304.00,3713.96486235,N,13701.45662066,E,1,01,1412.8,102.322,M,36.771,M,,*56
[2021-02-22 16:13:21.110] $GPVTG,161.65,T,170.10,M,2.20,N,4.07,K,A*22
[2021-02-22 16:13:21.110] $GPGGA,,,,,,,,,,M,,M,,*56
[2021-02-22 16:13:21.110] $GPVTG,,T,,M,,N,,K,N*2C
[2021-02-22 16:13:21.110] $GPGGA,,,,,,,,,,M,,M,,*56
[2021-02-22 16:13:21.110] $GPVTG,,T,,M,,N,,K,N*2C
[2021-02-22 16:13:21.110] $GPGGA,,,,,,,,,,M,,M,,*56
[2021-02-22 16:13:21.110] $GPVTG,,T,,M,,N,,K,N*2C
[2021-02-22 16:13:21.110] $GPGGA,,,,,,,,,,M,,M,,*56
[2021-02-22 16:13:21.110] $GPVTG,,T,,M,,N,,K,N*2C
[2021-02-22 16:13:21.110] $GPGGA,,,,,,,,,,M,,M,,*56
[2021-02-22 16:13:21.110] $GPVTG,,T,,M,,N,,K,N*2C
[2021-02-22 16:13:21.110] $GPGGA,,,,,,,,,,M,,M,,*56
[2021-02-22 16:13:21.110] $GPVTG,,T,,M,,N,,K,N*2C
[2021-02-22 16:13:21.110] $GPGGA,,,,,,,,,,M,,M,,*56
[2021-02-22 16:13:21.110] $GPVTG,,T,,M,,N,,K,N*2C
[2021-02-22 16:13:21.110] $GPGGA,,,,,,,,,,M,,M,,*56
[2021-02-22 16:13:21.110] $GPVTG,,T,,M,,N,,K,N*2C
[2021-02-22 16:13:21.110] $GPGGA,,,,,,,,,,M,,M,,*56
[2021-02-22 16:13:21.110] $GPVTG,,T,,M,,N,,K,N*2C
[2021-02-22 16:13:21.110] $GPGGA,,,,,,,,,,M,,M,,*56
[2021-02-22 16:13:21.110] $GPVTG,,T,,M,,N,,K,N*2C
[2021-02-22 16:13:21.110] $GPGGA,,,,,,,,,,M,,M,,*56
[2021-02-22 16:13:21.110] $GPVTG,,T,,M,,N,,K,N*2C
[2021-02-22 16:13:21.110] $GPGGA,,,,,,,,,,M,,M,,*56
[2021-02-22 16:13:21.110] $GPVTG,,T,,M,,N,,K,N*2C
[2021-02-22 16:13:21.110] $GPGGA,,,,,,,,,,M,,M,,*56
[2021-02-22 16:13:21.110] $GPVTG,,T,,M,,N,,K,N*2C
[2021-02-22 16:13:21.110] $GPGGA,,,,,,,,,,M,,M,,*56
[2021-02-22 16:13:21.110] $GPVTG,,T,,M,,N,,K,N*2C
[2021-02-22 16:13:21.110] $GPGGA,,,,,,,,,,M,,M,,*56
[2021-02-22 16:13:21.110] $GPVTG,,T,,M,,N,,K,N*2C
[2021-02-22 16:13:21.110] $GPGGA,,,,,,,,,,M,,M,,*56
[2021-02-22 16:13:21.110] $GPVTG,,T,,M,,N,,K,N*2C
[2021-02-22 16:13:21.110] $GPGGA,,,,,,,,,,M,,M,,*56
[2021-02-22 16:13:21.110] $GPVTG,,T,,M,,N,,K,N*2C
[2021-02-22 16:13:21.110] $GPGGA,,,,,,,,,,M,,M,,*56
[2021-02-22 16:13:21.110] $GPVTG,,T,,M,,N,,K,N*2C
[2021-02-22 16:13:21.110] $GPGGA,,,,,,,,,,M,,M,,*56
[2021-02-22 16:13:21.125] $GPVTG,,T,,M,,N,,K,N*2C
[2021-02-22 16:13:21.125] $GPGGA,,,,,,,,,,M,,M,,*56
[2021-02-22 16:13:21.125] $GPVTG,,T,,M,,N,,K,N*2C
[2021-02-22 16:13:21.125] $GPGGA,,,,,,,,,,M,,M,,*56
[2021-02-22 16:13:21.125] $GPVTG,,T,,M,,N,,K,N*2C
[2021-02-22 16:13:21.125] $GPGGA,,,,,,,,,,M,,M,,*56
[2021-02-22 16:13:21.125] $GPVTG,,T,,M,,N,,K,N*2C
[2021-02-22 16:13:21.125] $GPGGA,,,,,,,,,,M,,M,,*56
[2021-02-22 16:13:21.125] $GPVTG,,T,,M,,N,,K,N*2C
[2021-02-22 16:13:21.125] $GPGGA,,,,,,,,,,M,,M,,*56
[2021-02-22 16:13:21.125] $GPVTG,,T,,M,,N,,K,N*2C
[2021-02-22 16:13:21.125] $GPGGA,,,,,,,,,,M,,M,,*56
[2021-02-22 16:13:21.125] $GPVTG,,T,,M,,N,,K,N*2C
[2021-02-22 16:13:21.125] $GPGGA,,,,,,,,,,M,,M,,*56
[2021-02-22 16:13:21.125] $GPVTG,,T,,M,,N,,K,N*2C
[2021-02-22 16:13:21.125] $GPGGA,,,,,,,,,,M,,M,,*56
[2021-02-22 16:13:21.125] $GPVTG,,T,,M,,N,,K,N*2C
[2021-02-22 16:13:21.125] $GPGGA,,,,,,,,,,M,,M,,*56
[2021-02-22 16:13:21.125] $GPVTG,,T,,M,,N,,K,N*2C
[2021-02-22 16:13:21.125] $GPGGA,,,,,,,,,,M,,M,,*56
[2021-02-22 16:13:21.125] $GPVTG,,T,,M,,N,,K,N*2C
[2021-02-22 16:13:21.125] $GPGGA,,,,,,,,,,M,,M,,*56
[2021-02-22 16:13:21.125] $GPVTG,,T,,M,,N,,K,N*2C
[2021-02-22 16:13:21.125] $GPGGA,,,,,,,,,,M,,M,,*56
[2021-02-22 16:13:21.125] $GPVTG,,T,,M,,N,,K,N*2C
[2021-02-22 16:13:21.125] $GPGGA,,,,,,,,,,M,,M,,*56
[2021-02-22 16:13:21.125] $GPVTG,,T,,M,,N,,K,N*2C
[2021-02-22 16:13:21.125] $GPGGA,,,,,,,,,,M,,M,,*56
[2021-02-22 16:13:21.125] $GPVTG,,T,,M,,N,,K,N*2C
[2021-02-22 16:13:21.125] $GPGGA,,,,,,,,,,M,,M,,*56
[2021-02-22 16:13:21.125] $GPVTG,,T,,M,,N,,K,N*2C
[2021-02-22 16:13:21.125] $GPGGA,,,,,,,,,,M,,M,,*56
[2021-02-22 16:13:21.125] $GPVTG,,T,,M,,N,,K,N*2C
[2021-02-22 16:13:21.125] $GPGGA,,,,,,,,,,M,,M,,*56
[2021-02-22 16:13:21.125] $GPVTG,,T,,M,,N,,K,N*2C
[2021-02-22 16:13:21.125] $GPGGA,,,,,,,,,,M,,M,,*56
[2021-02-22 16:13:21.125] $GPVTG,,T,,M,,N,,K,N*2C
[2021-02-22 16:13:21.125] $GPGGA,,,,,,,,,,M,,M,,*56
[2021-02-22 16:13:21.125] $GPVTG,,T,,M,,N,,K,N*2C
[2021-02-22 16:13:21.141] $GPGGA,,,,,,,,,,M,,M,,*56
[2021-02-22 16:13:21.141] $GPVTG,,T,,M,,N,,K,N*2C
[2021-02-22 16:13:21.141] $GPGGA,,,,,,,,,,M,,M,,*56
[2021-02-22 16:13:21.141] $GPVTG,,T,,M,,N,,K,N*2C
[2021-02-22 16:13:21.141] $GPGGA,,,,,,,,,,M,,M,,*56
[2021-02-22 16:13:21.141] $GPVTG,,T,,M,,N,,K,N*2C
[2021-02-22 16:13:21.141] $GPGGA,,,,,,,,,,M,,M,,*56
[2021-02-22 16:13:21.141] $GPVTG,,T,,M,,N,,K,N*2C
[2021-02-22 16:13:21.141] $GPGGA,,,,,,,,,,M,,M,,*56
[2021-02-22 16:13:21.141] $GPVTG,,T,,M,,N,,K,N*2C
[2021-02-22 16:13:21.141] $GPGGA,,,,,,,,,,M,,M,,*56
[2021-02-22 16:13:21.141] $GPVTG,,T,,M,,N,,K,N*2C
[2021-02-22 16:13:21.141] $GPGGA,,,,,,,,,,M,,M,,*56
[2021-02-22 16:13:21.141] $GPVTG,,T,,M,,N,,K,N*2C
[2021-02-22 16:13:21.141] $GPGGA,,,,,,,,,,M,,M,,*56
[2021-02-22 16:13:21.141] $GPVTG,,T,,M,,N,,K,N*2C
[2021-02-22 16:13:21.141] $GPGGA,,,,,,,,,,M,,M,,*56
[2021-02-22 16:13:21.141] $GPVTG,,T,,M,,N,,K,N*2C
[2021-02-22 16:13:21.141] $GPGGA,,,,,,,,,,M,,M,,*56
[2021-02-22 16:13:21.141] $GPVTG,,T,,M,,N,,K,N*2C
[2021-02-22 16:13:21.141] $GPGGA,,,,,,,,,,M,,M,,*56
[2021-02-22 16:13:21.141] $GPVTG,,T,,M,,N,,K,N*2C
[2021-02-22 16:13:21.141] $GPGGA,,,,,,,,,,M,,M,,*56
[2021-02-22 16:13:21.141] $GPVTG,,T,,M,,N,,K,N*2C
[2021-02-22 16:13:21.141] $GPGGA,,,,,,,,,,M,,M,,*56
[2021-02-22 16:13:21.141] $GPVTG,,T,,M,,N,,K,N*2C
[2021-02-22 16:13:21.141] $GPGGA,,,,,,,,,,M,,M,,*56
[2021-02-22 16:13:21.141] $GPVTG,,T,,M,,N,,K,N*2C
[2021-02-22 16:13:21.141] $GPGGA,,,,,,,,,,M,,M,,*56
[2021-02-22 16:13:21.141] $GPVTG,,T,,M,,N,,K,N*2C
[2021-02-22 16:13:21.141] $GPGGA,,,,,,,,,,M,,M,,*56
[2021-02-22 16:13:21.141] $GPVTG,,T,,M,,N,,K,N*2C
[2021-02-22 16:13:21.141] $GPGGA,,,,,,,,,,M,,M,,*56
[2021-02-22 16:13:21.141] $GPVTG,,T,,M,,N,,K,N*2C
[2021-02-22 16:13:21.141] $GPGGA,,,,,,,,,,M,,M,,*56
[2021-02-22 16:13:21.141] $GPVTG,,T,,M,,N,,K,N*2C
[2021-02-22 16:13:21.141] $GPGGA,,,,,,,,,,M,,M,,*56
[2021-02-22 16:13:21.141] $GPVTG,,T,,M,,N,,K,N*2C
[2021-02-22 16:13:21.141] $GPGGA,,,,,,,,,,M,,M,,*56
[2021-02-22 16:13:21.141] $GPVTG,,T,,M,,N,,K,N*2C
[2021-02-22 16:13:21.141] $GPGGA,,,,,,,,,,M,,M,,*56
[2021-02-22 16:13:21.141] $GP$GPGGA,,,,,,,,,,M,,M,,*56
[2021-02-22 16:13:21.188] $GPVTG,,T,,M,,N,,K,N*2C
[2021-02-22 16:13:21.391] $GPGGA,,,,,,,,,,M,,M,,*56
[2021-02-22 16:13:21.391] $GPVTG,,T,,M,,N,,K,N*2C
[2021-02-22 16:13:21.578] $GPGGA,,,,,,,,,,M,,M,,*56
[2021-02-22 16:13:21.594] $GPVTG,,T,,M,,N,,K,N*2C
[2021-02-22 16:13:21.782] $GPGGA,,,,,,,,,,M,,M,,*56
[2021-02-22 16:13:21.782] $GPVTG,,T,,M,,N,,K,N*2C
[2021-02-22 16:13:21.985] $GPGGA,,,,,,,,,,M,,M,,*56
[2021-02-22 16:13:21.985] $GPVTG,,T,,M,,N,,K,N*2C
[2021-02-22 16:13:22.188] $GPGGA,,,,,,,,,,M,,M,,*56
[2021-02-22 16:13:22.188] $GPVTG,,T,,M,,N,,K,N*2C
[2021-02-22 16:13:22.391] $GPGGA,,,,,,,,,,M,,M,,*56
[2021-02-22 16:13:22.391] $GPVTG,,T,,M,,N,,K,N*2C
[2021-02-22 16:13:22.578] $GPGGA,,,,,,,,,,M,,M,,*56
[2021-02-22 16:13:22.594] $GPVTG,,T,,M,,N,,K,N*2C
[2021-02-22 16:13:22.782] $GPGGA,,,,,,,,,,M,,M,,*56
[2021-02-22 16:13:22.797] $GPVTG,,T,,M,,N,,K,N*2C
[2021-02-22 16:13:22.985] $GPGGA,,,,,,,,,,M,,M,,*56
[2021-02-22 16:13:22.985] $GPVTG,,T,,M,,N,,K,N*2C
[2021-02-22 16:13:23.188] $GPGGA,,,,,,,,,,M,,M,,*56
[2021-02-22 16:13:23.188] $GPVTG,,T,,M,,N,,K,N*2C
[2021-02-22 16:13:23.391] $GPGGA,,,,,,,,,,M,,M,,*56
[2021-02-22 16:13:23.391] $GPVTG,,T,,M,,N,,K,N*2C
[2021-02-22 16:13:23.578] $GPGGA,,,,,,,,,,M,,M,,*56
[2021-02-22 16:13:23.594] $GPVTG,,T,,M,,N,,K,N*2C
[2021-02-22 16:13:23.781] $GPGGA,,,,,,,,,,M,,M,,*56
[2021-02-22 16:13:23.797] $GPVTG,,T,,M,,N,,K,N*2C
[2021-02-22 16:13:23.984] $GPGGA,,,,,,,,,,M,,M,,*56
[2021-02-22 16:13:23.984] $GPVTG,,T,,M,,N,,K,N*2C
[2021-02-22 16:13:24.191] $GPGGA,,,,,,,,,,M,,M,,*56
[2021-02-22 16:13:24.191] $GPVTG,,T,,M,,N,,K,N*2C
[2021-02-22 16:13:24.391] $GPGGA,,,,,,,,,,M,,M,,*56
[2021-02-22 16:13:24.391] $GPVTG,,T,,M,,N,,K,N*2C
[2021-02-22 16:13:24.591] $GPGGA,,,,,,,,,,M,,M,,*56
[2021-02-22 16:13:24.591] $GPVTG,,T,,M,,N,,K,N*2C
[2021-02-22 16:13:24.792] $GPGGA,,,,,,,,,,M,,M,,*56
[2021-02-22 16:13:24.801] $GPVTG,,T,,M,,N,,K,N*2C
[2021-02-22 16:13:24.991] $GPGGA,,,,,,,,,,M,,M,,*56
[2021-02-22 16:13:24.996] $GPVTG,,T,,M,,N,,K,N*2C
[2021-02-22 16:13:25.191] $GPGGA,,,,,,,,,,M,,M,,*56
[2021-02-22 16:13:25.191] $GPVTG,,T,,M,,N,,K,N*2C
[2021-02-22 16:13:25.391] $GPGGA,,,,,,,,,,M,,M,,*56
[2021-02-22 16:13:25.391] $GPVTG,,T,,M,,N,,K,N*2C
[2021-02-22 16:13:25.591] $GPGGA,,,,,,,,,,M,,M,,*56
[2021-02-22 16:13:25.591] $GPVTG,,T,,M,,N,,K,N*2C
[2021-02-22 16:13:25.792] $GPGGA,,,,,,,,,,M,,M,,*56
[2021-02-22 16:13:25.792] $GPVTG,,T,,M,,N,,K,N*2C
[2021-02-22 16:13:25.992] $GPGGA,,,,,,,,,,M,,M,,*56
[2021-02-22 16:13:25.992] $GPVTG,,T,,M,,N,,K,N*2C
[2021-02-22 16:13:26.191] $GPGGA,,,,,,,,,,M,,M,,*56
[2021-02-22 16:13:26.196] $GPVTG,,T,,M,,N,,K,N*2C
[2021-02-22 16:13:26.391] $GPGGA,,,,,,,,,,M,,M,,*56
[2021-02-22 16:13:26.391] $GPVTG,,T,,M,,N,,K,N*2C
[2021-02-22 16:13:26.591] $GPGGA,,,,,,,,,,M,,M,,*56
[2021-02-22 16:13:26.591] $GPVTG,,T,,M,,N,,K,N*2C
[2021-02-22 16:13:26.791] $GPGGA,,,,,,,,,,M,,M,,*56
[2021-02-22 16:13:26.791] $GPVTG,,T,,M,,N,,K,N*2C
[2021-02-22 16:13:26.978] $GPGGA,,,,,,,,,,M,,M,,*56
[2021-02-22 16:13:26.994] $GPVTG,,T,,M,,N,,K,N*2C
[2021-02-22 16:13:27.181] $GPGGA,,,,,,,,,,M,,M,,*56
[2021-02-22 16:13:27.197] $GPVTG,,T,,M,,N,,K,N*2C
[2021-02-22 16:13:27.384] $GPGGA,,,,,,,,,,M,,M,,*56
[2021-02-22 16:13:27.384] $GPVTG,,T,,M,,N,,K,N*2C
[2021-02-22 16:13:27.587] $GPGGA,,,,,,,,,,M,,M,,*56
[2021-02-22 16:13:27.587] $GPVTG,,T,,M,,N,,K,N*2C
[2021-02-22 16:13:27.791] $GPGGA,,,,,,,,,,M,,M,,*56
[2021-02-22 16:13:27.791] $GPVTG,,T,,M,,N,,K,N*2C
[2021-02-22 16:13:27.994] $GPGGA,,,,,,,,,,M,,M,,*56
[2021-02-22 16:13:27.994] $GPVTG,,T,,M,,N,,K,N*2C
[2021-02-22 16:13:28.181] $GPGGA,,,,,,,,,,M,,M,,*56
[2021-02-22 16:13:28.181] $GPVTG,,T,,M,,N,,K,N*2C
[2021-02-22 16:13:28.384] $GPGGA,,,,,,,,,,M,,M,,*56
[2021-02-22 16:13:28.384] $GPVTG,,T,,M,,N,,K,N*2C
[2021-02-22 16:13:28.587] $GPGGA,,,,,,,,,,M,,M,,*56
[2021-02-22 16:13:28.587] $GPVTG,,T,,M,,N,,K,N*2C
[2021-02-22 16:13:28.790] $GPGGA,,,,,,,,,,M,,M,,*56
[2021-02-22 16:13:28.790] $GPVTG,,T,,M,,N,,K,N*2C
[2021-02-22 16:13:28.978] $GPGGA,,,,,,,,,,M,,M,,*56
[2021-02-22 16:13:28.994] $GPVTG,,T,,M,,N,,K,N*2C
[2021-02-22 16:13:29.181] $GPGGA,,,,,,,,,,M,,M,,*56
[2021-02-22 16:13:29.197] $GPVTG,,T,,M,,N,,K,N*2C
[2021-02-22 16:13:29.384] $GPGGA,,,,,,,,,,M,,M,,*56
[2021-02-22 16:13:29.384] $GPVTG,,T,,M,,N,,K,N*2C
[2021-02-22 16:13:29.587] $GPGGA,,,,,,,,,,M,,M,,*56
[2021-02-22 16:13:29.587] $GPVTG,,T,,M,,N,,K,N*2C
[2021-02-22 16:13:29.790] $GPGGA,,,,,,,,,,M,,M,,*56
[2021-02-22 16:13:29.790] $GPVTG,,T,,M,,N,,K,N*2C
[2021-02-22 16:13:29.978] $GPGGA,,,,,,,,,,M,,M,,*56
[2021-02-22 16:13:29.993] $GPVTG,,T,,M,,N,,K,N*2C
[2021-02-22 16:13:30.181] $GPGGA,,,,,,,,,,M,,M,,*56
[2021-02-22 16:13:30.181] $GPVTG,,T,,M,,N,,K,N*2C
[2021-02-22 16:13:30.384] $GPGGA,,,,,,,,,,M,,M,,*56
[2021-02-22 16:13:30.384] $GPVTG,,T,,M,,N,,K,N*2C
[2021-02-22 16:13:30.587] $GPGGA,,,,,,,,,,M,,M,,*56
[2021-02-22 16:13:30.587] $GPVTG,,T,,M,,N,,K,N*2C
[2021-02-22 16:13:30.790] $GPGGA,,,,,,,,,,M,,M,,*56
[2021-02-22 16:13:30.790] $GPVTG,,T,,M,,N,,K,N*2C
[2021-02-22 16:13:30.978] $GPGGA,,,,,,,,,,M,,M,,*56
[2021-02-22 16:13:30.993] $GPVTG,,T,,M,,N,,K,N*2C
[2021-02-22 16:13:31.181] $GPGGA,,,,,,,,,,M,,M,,*56
[2021-02-22 16:13:31.197] $GPVTG,,T,,M,,N,,K,N*2C
[2021-02-22 16:13:31.384] $GPGGA,,,,,,,,,,M,,M,,*56
[2021-02-22 16:13:31.384] $GPVTG,,T,,M,,N,,K,N*2C
[2021-02-22 16:13:31.587] $GPGGA,,,,,,,,,,M,,M,,*56
[2021-02-22 16:13:31.587] $GPVTG,,T,,M,,N,,K,N*2C
[2021-02-22 16:13:31.790] $GPGGA,,,,,,,,,,M,,M,,*56
[2021-02-22 16:13:31.790] $GPVTG,,T,,M,,N,,K,N*2C
[2021-02-22 16:13:31.978] $GPGGA,,,,,,,,,,M,,M,,*56
[2021-02-22 16:13:31.993] $GPVTG,,T,,M,,N,,K,N*2C
[2021-02-22 16:13:32.181] $GPGGA,,,,,,,,,,M,,M,,*56
[2021-02-22 16:13:32.196] $GPVTG,,T,,M,,N,,K,N*2C
[2021-02-22 16:13:32.384] $GPGGA,,,,,,,,,,M,,M,,*56
[2021-02-22 16:13:32.400] $GPVTG,,T,,M,,N,,K,N*2C
[2021-02-22 16:13:32.587] $GPGGA,,,,,,,,,,M,,M,,*56
[2021-02-22 16:13:32.587] $GPVTG,,T,,M,,N,,K,N*2C
[2021-02-22 16:13:32.790] $GPGGA,,,,,,,,,,M,,M,,*56
[2021-02-22 16:13:32.790] $GPVTG,,T,,M,,N,,K,N*2C
[2021-02-22 16:13:32.978] $GPGGA,,,,,,,,,,M,,M,,*56
[2021-02-22 16:13:32.978] $GPVTG,,T,,M,,N,,K,N*2C
[2021-02-22 16:13:33.181] $GPGGA,,,,,,,,,,M,,M,,*56
[2021-02-22 16:13:33.196] $GPVTG,,T,,M,,N,,K,N*2C
[2021-02-22 16:13:33.384] $GPGGA,,,,,,,,,,M,,M,,*56
[2021-02-22 16:13:33.384] $GPVTG,,T,,M,,N,,K,N*2C
[2021-02-22 16:13:33.587] $GPGGA,,,,,,,,,,M,,M,,*56
[2021-02-22 16:13:33.587] $GPVTG,,T,,M,,N,,K,N*2C
[2021-02-22 16:13:33.774] $GPGGA,,,,,,,,,,M,,M,,*56
[2021-02-22 16:13:33.790] $GPVTG,,T,,M,,N,,K,N*2C
[2021-02-22 16:13:33.993] $GPGGA,,,,,,,,,,M,,M,,*56
[2021-02-22 16:13:33.993] $GPVTG,,T,,M,,N,,K,N*2C
[2021-02-22 16:13:34.181] $GPGGA,,,,,,,,,,M,,M,,*56
[2021-02-22 16:13:34.196] $GPVTG,,T,,M,,N,,K,N*2C
[2021-02-22 16:13:34.384] $GPGGA,,,,,,,,,,M,,M,,*56
[2021-02-22 16:13:34.399] $GPVTG,,T,,M,,N,,K,N*2C
[2021-02-22 16:13:34.587] $GPGGA,,,,,,,,,,M,,M,,*56
[2021-02-22 16:13:34.587] $GPVTG,,T,,M,,N,,K,N*2C
[2021-02-22 16:13:34.790] $GPGGA,,,,,,,,,,M,,M,,*56
[2021-02-22 16:13:34.790] $GPVTG,,T,,M,,N,,K,N*2C
[2021-02-22 16:13:34.978] $GPGGA,,,,,,,,,,M,,M,,*56
[2021-02-22 16:13:34.993] $GPVTG,,T,,M,,N,,K,N*2C
[2021-02-22 16:13:35.181] $GPGGA,,,,,,,,,,M,,M,,*56
[2021-02-22 16:13:35.196] $GPVTG,,T,,M,,N,,K,N*2C
[2021-02-22 16:13:35.384] $GPGGA,,,,,,,,,,M,,M,,*56
[2021-02-22 16:13:35.399] $GPVTG,,T,,M,,N,,K,N*2C
[2021-02-22 16:13:35.587] $GPGGA,,,,,,,,,,M,,M,,*56
[2021-02-22 16:13:35.587] $GPVTG,,T,,M,,N,,K,N*2C
[2021-02-22 16:13:35.790] $GPGGA,,,,,,,,,,M,,M,,*56
[2021-02-22 16:13:35.790] $GPVTG,,T,,M,,N,,K,N*2C
[2021-02-22 16:13:35.977] $GPGGA,,,,,,,,,,M,,M,,*56
[2021-02-22 16:13:35.993] $GPVTG,,T,,M,,N,,K,N*2C
[2021-02-22 16:13:36.181] $GPGGA,,,,,,,,,,M,,M,,*56
[2021-02-22 16:13:36.196] $GPVTG,,T,,M,,N,,K,N*2C
[2021-02-22 16:13:36.384] $GPGGA,,,,,,,,,,M,,M,,*56
[2021-02-22 16:13:36.384] $GPVTG,,T,,M,,N,,K,N*2C
[2021-02-22 16:13:36.587] $GPGGA,,,,,,,,,,M,,M,,*56
[2021-02-22 16:13:36.587] $GPVTG,,T,,M,,N,,K,N*2C
[2021-02-22 16:13:36.790] $GPGGA,,,,,,,,,,M,,M,,*56
[2021-02-22 16:13:36.790] $GPVTG,,T,,M,,N,,K,N*2C
[2021-02-22 16:13:36.993] $GPGGA,,,,,,,,,,M,,M,,*56
[2021-02-22 16:13:36.993] $GPVTG,,T,,M,,N,,K,N*2C
[2021-02-22 16:13:37.181] $GPGGA,,,,,,,,,,M,,M,,*56
[2021-02-22 16:13:37.196] $GPVTG,,T,,M,,N,,K,N*2C
[2021-02-22 16:13:37.384] $GPGGA,,,,,,,,,,M,,M,,*56
[2021-02-22 16:13:37.399] $GPVTG,,T,,M,,N,,K,N*2C
[2021-02-22 16:13:37.587] $GPGGA,,,,,,,,,,M,,M,,*56
[2021-02-22 16:13:37.587] $GPVTG,,T,,M,,N,,K,N*2C
[2021-02-22 16:13:37.790] $GPGGA,,,,,,,,,,M,,M,,*56
[2021-02-22 16:13:37.790] $GPVTG,,T,,M,,N,,K,N*2C
[2021-02-22 16:13:37.977] $GPGGA,,,,,,,,,,M,,M,,*56
[2021-02-22 16:13:37.993] $GPVTG,,T,,M,,N,,K,N*2C
[2021-02-22 16:13:38.180] $GPGGA,,,,,,,,,,M,,M,,*56
[2021-02-22 16:13:38.196] $GPVTG,,T,,M,,N,,K,N*2C
[2021-02-22 16:13:38.384] $GPGGA,,,,,,,,,,M,,M,,*56
[2021-02-22 16:13:38.384] $GPVTG,,T,,M,,N,,K,N*2C
[2021-02-22 16:13:38.587] $GPGGA,,,,,,,,,,M,,M,,*56
[2021-02-22 16:13:38.587] $GPVTG,,T,,M,,N,,K,N*2C
[2021-02-22 16:13:38.790] $GPGGA,,,,,,,,,,M,,M,,*56
[2021-02-22 16:13:38.790] $GPVTG,,T,,M,,N,,K,N*2C
[2021-02-22 16:13:38.993] $GPGGA,,,,,,,,,,M,,M,,*56
[2021-02-22 16:13:38.993] $GPVTG,,T,,M,,N,,K,N*2C
[2021-02-22 16:13:39.180] $GPGGA,,,,,,,,,,M,,M,,*56
[2021-02-22 16:13:39.196] $GPVTG,,T,,M,,N,,K,N*2C
[2021-02-22 16:13:39.384] $GPGGA,,,,,,,,,,M,,M,,*56
[2021-02-22 16:13:39.384] $GPVTG,,T,,M,,N,,K,N*2C
[2021-02-22 16:13:39.587] $GPGGA,,,,,,,,,,M,,M,,*56
[2021-02-22 16:13:39.587] $GPVTG,,T,,M,,N,,K,N*2C
[2021-02-22 16:13:39.790] $GPGGA,,,,,,,,,,M,,M,,*56
[2021-02-22 16:13:39.790] $GPVTG,,T,,M,,N,,K,N*2C
[2021-02-22 16:13:39.977] $GPGGA,,,,,,,,,,M,,M,,*56
[2021-02-22 16:13:39.993] $GPVTG,,T,,M,,N,,K,N*2C
[2021-02-22 16:13:40.180] $GPGGA,,,,,,,,,,M,,M,,*56
[2021-02-22 16:13:40.196] $GPVTG,,T,,M,,N,,K,N*2C
[2021-02-22 16:13:40.383] $GPGGA,,,,,,,,,,M,,M,,*56
[2021-02-22 16:13:40.383] $GPVTG,,T,,M,,N,,K,N*2C
[2021-02-22 16:13:40.587] $GPGGA,,,,,,,,,,M,,M,,*56
[2021-02-22 16:13:40.587] $GPVTG,,T,,M,,N,,K,N*2C
[2021-02-22 16:13:40.790] $GPGGA,,,,,,,,,,M,,M,,*56
[2021-02-22 16:13:40.790] $GPVTG,,T,,M,,N,,K,N*2C
[2021-02-22 16:13:40.993] $GPGGA,,,,,,,,,,M,,M,,*56
[2021-02-22 16:13:40.993] $GPVTG,,T,,M,,N,,K,N*2C
[2021-02-22 16:13:41.180] $GPGGA,,,,,,,,,,M,,M,,*56
[2021-02-22 16:13:41.196] $GPVTG,,T,,M,,N,,K,N*2C
[2021-02-22 16:13:41.383] $GPGGA,,,,,,,,,,M,,M,,*56
[2021-02-22 16:13:41.383] $GPVTG,,T,,M,,N,,K,N*2C
[2021-02-22 16:13:41.586] $GPGGA,,,,,,,,,,M,,M,,*56
[2021-02-22 16:13:41.586] $GPVTG,,T,,M,,N,,K,N*2C
[2021-02-22 16:13:41.790] $GPGGA,,,,,,,,,,M,,M,,*56
[2021-02-22 16:13:41.790] $GPVTG,,T,,M,,N,,K,N*2C
[2021-02-22 16:13:41.977] $GPGGA,,,,,,,,,,M,,M,,*56
[2021-02-22 16:13:41.993] $GPVTG,,T,,M,,N,,K,N*2C
[2021-02-22 16:13:42.180] $GPGGA,,,,,,,,,,M,,M,,*56
[2021-02-22 16:13:42.196] $GPVTG,,T,,M,,N,,K,N*2C
[2021-02-22 16:13:42.383] $GPGGA,,,,,,,,,,M,,M,,*56
[2021-02-22 16:13:42.383] $GPVTG,,T,,M,,N,,K,N*2C
[2021-02-22 16:13:42.586] $GPGGA,,,,,,,,,,M,,M,,*56
[2021-02-22 16:13:42.586] $GPVTG,,T,,M,,N,,K,N*2C
[2021-02-22 16:13:42.789] $GPGGA,,,,,,,,,,M,,M,,*56
[2021-02-22 16:13:42.789] $GPVTG,,T,,M,,N,,K,N*2C
[2021-02-22 16:13:42.993] $GPGGA,,,,,,,,,,M,,M,,*56
[2021-02-22 16:13:42.993] $GPVTG,,T,,M,,N,,K,N*2C
[2021-02-22 16:13:43.180] $GPGGA,,,,,,,,,,M,,M,,*56
[2021-02-22 16:13:43.196] $GPVTG,,T,,M,,N,,K,N*2C
[2021-02-22 16:13:43.383] $GPGGA,,,,,,,,,,M,,M,,*56
[2021-02-22 16:13:43.383] $GPVTG,,T,,M,,N,,K,N*2C
[2021-02-22 16:13:43.586] $GPGGA,,,,,,,,,,M,,M,,*56
[2021-02-22 16:13:43.586] $GPVTG,,T,,M,,N,,K,N*2C
[2021-02-22 16:13:43.789] $GPGGA,,,,,,,,,,M,,M,,*56
[2021-02-22 16:13:43.789] $GPVTG,,T,,M,,N,,K,N*2C
[2021-02-22 16:13:43.977] $GPGGA,,,,,,,,,,M,,M,,*56
[2021-02-22 16:13:43.993] $GPVTG,,T,,M,,N,,K,N*2C
[2021-02-22 16:13:44.180] $GPGGA,,,,,,,,,,M,,M,,*56
[2021-02-22 16:13:44.196] $GPVTG,,T,,M,,N,,K,N*2C
[2021-02-22 16:13:44.383] $GPGGA,,,,,,,,,,M,,M,,*56
[2021-02-22 16:13:44.383] $GPVTG,,T,,M,,N,,K,N*2C
[2021-02-22 16:13:44.586] $GPGGA,,,,,,,,,,M,,M,,*56
[2021-02-22 16:13:44.586] $GPVTG,,T,,M,,N,,K,N*2C
[2021-02-22 16:13:44.789] $GPGGA,,,,,,,,,,M,,M,,*56
[2021-02-22 16:13:44.789] $GPVTG,,T,,M,,N,,K,N*2C
[2021-02-22 16:13:44.992] $GPGGA,,,,,,,,,,M,,M,,*56
[2021-02-22 16:13:44.992] $GPVTG,,T,,M,,N,,K,N*2C
[2021-02-22 16:13:45.180] $GPGGA,,,,,,,,,,M,,M,,*56
[2021-02-22 16:13:45.196] $GPVTG,,T,,M,,N,,K,N*2C
[2021-02-22 16:13:45.383] $GPGGA,,,,,,,,,,M,,M,,*56
[2021-02-22 16:13:45.383] $GPVTG,,T,,M,,N,,K,N*2C
[2021-02-22 16:13:45.586] $GPGGA,,,,,,,,,,M,,M,,*56
[2021-02-22 16:13:45.586] $GPVTG,,T,,M,,N,,K,N*2C
[2021-02-22 16:13:45.789] $GPGGA,,,,,,,,,,M,,M,,*56
[2021-02-22 16:13:45.789] $GPVTG,,T,,M,,N,,K,N*2C
[2021-02-22 16:13:45.977] $GPGGA,,,,,,,,,,M,,M,,*56
[2021-02-22 16:13:45.992] $GPVTG,,T,,M,,N,,K,N*2C
[2021-02-22 16:13:46.180] $GPGGA,,,,,,,,,,M,,M,,*56
[2021-02-22 16:13:46.195] $GPVTG,,T,,M,,N,,K,N*2C
[2021-02-22 16:13:46.383] $GPGGA,,,,,,,,,,M,,M,,*56
[2021-02-22 16:13:46.399] $GPVTG,,T,,M,,N,,K,N*2C
[2021-02-22 16:13:46.586] $GPGGA,,,,,,,,,,M,,M,,*56
[2021-02-22 16:13:46.586] $GPVTG,,T,,M,,N,,K,N*2C
[2021-02-22 16:13:46.789] $GPGGA,,,,,,,,,,M,,M,,*56
[2021-02-22 16:13:46.789] $GPVTG,,T,,M,,N,,K,N*2C
[2021-02-22 16:13:46.992] $GPGGA,,,,,,,,,,M,,M,,*56
[2021-02-22 16:13:46.992] $GPVTG,,T,,M,,N,,K,N*2C
[2021-02-22 16:13:47.180] $GPGGA,,,,,,,,,,M,,M,,*56
[2021-02-22 16:13:47.180] $GPVTG,,T,,M,,N,,K,N*2C
[2021-02-22 16:13:47.383] $GPGGA,,,,,,,,,,M,,M,,*56
[2021-02-22 16:13:47.399] $GPVTG,,T,,M,,N,,K,N*2C
[2021-02-22 16:13:47.586] $GPGGA,,,,,,,,,,M,,M,,*56
[2021-02-22 16:13:47.586] $GPVTG,,T,,M,,N,,K,N*2C
[2021-02-22 16:13:47.789] $GPGGA,,,,,,,,,,M,,M,,*56
[2021-02-22 16:13:47.789] $GPVTG,,T,,M,,N,,K,N*2C
[2021-02-22 16:13:47.977] $GPGGA,,,,,,,,,,M,,M,,*56
[2021-02-22 16:13:47.992] $GPVTG,,T,,M,,N,,K,N*2C
[2021-02-22 16:13:48.180] $GPGGA,,,,,,,,,,M,,M,,*56
[2021-02-22 16:13:48.195] $GPVTG,,T,,M,,N,,K,N*2C
[2021-02-22 16:13:48.383] $GPGGA,,,,,,,,,,M,,M,,*56
[2021-02-22 16:13:48.383] $GPVTG,,T,,M,,N,,K,N*2C
[2021-02-22 16:13:48.586] $GPGGA,,,,,,,,,,M,,M,,*56
[2021-02-22 16:13:48.586] $GPVTG,,T,,M,,N,,K,N*2C
[2021-02-22 16:13:48.789] $GPGGA,,,,,,,,,,M,,M,,*56
[2021-02-22 16:13:48.789] $GPVTG,,T,,M,,N,,K,N*2C
[2021-02-22 16:13:48.977] $GPGGA,,,,,,,,,,M,,M,,*56
[2021-02-22 16:13:48.992] $GPVTG,,T,,M,,N,,K,N*2C
[2021-02-22 16:13:49.180] $GPGGA,,,,,,,,,,M,,M,,*56
[2021-02-22 16:13:49.195] $GPVTG,,T,,M,,N,,K,N*2C
[2021-02-22 16:13:49.383] $GPGGA,,,,,,,,,,M,,M,,*56
[2021-02-22 16:13:49.398] $GPVTG,,T,,M,,N,,K,N*2C
[2021-02-22 16:13:49.586] $GPGGA,,,,,,,,,,M,,M,,*56
[2021-02-22 16:13:49.586] $GPVTG,,T,,M,,N,,K,N*2C
[2021-02-22 16:13:49.789] $GPGGA,,,,,,,,,,M,,M,,*56
[2021-02-22 16:13:49.789] $GPVTG,,T,,M,,N,,K,N*2C
[2021-02-22 16:13:49.977] $GPGGA,,,,,,,,,,M,,M,,*56
[2021-02-22 16:13:49.992] $GPVTG,,T,,M,,N,,K,N*2C
[2021-02-22 16:13:50.180] $GPGGA,,,,,,,,,,M,,M,,*56
[2021-02-22 16:13:50.195] $GPVTG,,T,,M,,N,,K,N*2C
[2021-02-22 16:13:50.383] $GPGGA,,,,,,,,,,M,,M,,*56
[2021-02-22 16:13:50.383] $GPVTG,,T,,M,,N,,K,N*2C
[2021-02-22 16:13:50.586] $GPGGA,,,,,,,,,,M,,M,,*56
[2021-02-22 16:13:50.601] $GPVTG,,T,,M,,N,,K,N*2C
[2021-02-22 16:13:50.789] $GPGGA,,,,,,,,,,M,,M,,*56
[2021-02-22 16:13:50.789] $GPVTG,,T,,M,,N,,K,N*2C
[2021-02-22 16:13:50.992] $GPGGA,,,,,,,,,,M,,M,,*56
[2021-02-22 16:13:50.992] $GPVTG,,T,,M,,N,,K,N*2C
[2021-02-22 16:13:51.195] $GPGGA,,,,,,,,,,M,,M,,*56
[2021-02-22 16:13:51.195] $GPVTG,,T,,M,,N,,K,N*2C
[2021-02-22 16:13:51.383] $GPGGA,,,,,,,,,,M,,M,,*56
[2021-02-22 16:13:51.398] $GPVTG,,T,,M,,N,,K,N*2C
[2021-02-22 16:13:51.586] $GPGGA,,,,,,,,,,M,,M,,*56
[2021-02-22 16:13:51.586] $GPVTG,,T,,M,,N,,K,N*2C
[2021-02-22 16:13:51.789] $GPGGA,071351.40,3713.96741917,N,13701.45622210,E,1,04,3.1,103.685,M,36.771,M,,*66
[2021-02-22 16:13:51.804] $GPVTG,253.07,T,261.52,M,0.05,N,0.10,K,A*26
[2021-02-22 16:13:51.883] $GPGGA,071351.50,3713.96741743,N,13701.45622253,E,1,04,3.1,103.673,M,36.771,M,,*66
[2021-02-22 16:13:51.898] $GPVTG,167.61,T,176.06,M,0.06,N,0.12,K,A*27
[2021-02-22 16:13:51.992] $GPGGA,071351.60,3713.96907633,N,13701.45466403,E,2,06,1.6,97.160,M,36.771,M,43.6,0000*4C
[2021-02-22 16:13:52.008] $GPVTG,215.16,T,223.61,M,0.05,N,0.09,K,D*2F
[2021-02-22 16:13:52.086] $GPGGA,071351.70,3713.96907517,N,13701.45466402,E,2,06,1.6,97.158,M,36.771,M,43.6,0000*42
[2021-02-22 16:13:52.101] $GPVTG,185.38,T,193.83,M,0.04,N,0.08,K,D*2D
[2021-02-22 16:13:52.195] $GPGGA,071351.80,3713.96889391,N,13701.45454461,E,2,09,1.0,97.148,M,36.771,M,43.8,0000*40
[2021-02-22 16:13:52.211] $GPVTG,166.91,T,175.36,M,0.07,N,0.14,K,D*2B
[2021-02-22 16:13:52.289] $GPGGA,071351.90,3713.96889344,N,13701.45454434,E,2,09,1.0,97.146,M,36.771,M,43.8,0000*47
[2021-02-22 16:13:52.304] $GPVTG,167.39,T,175.84,M,0.02,N,0.04,K,D*25
[2021-02-22 16:13:52.398] $GPGGA,071352.00,3713.96893737,N,13701.45446260,E,2,09,1.0,96.977,M,36.771,M,44.0,0000*46
[2021-02-22 16:13:52.414] $GPVTG,349.36,T,357.81,M,0.02,N,0.04,K,D*23
[2021-02-22 16:13:52.492] $GPGGA,071352.10,3713.96893824,N,13701.45446171,E,2,09,1.0,96.974,M,36.771,M,44.0,0000*4A
[2021-02-22 16:13:52.508] $GPVTG,337.46,T,345.91,M,0.04,N,0.08,K,D*25
[2021-02-22 16:13:52.586] $GPGGA,071352.20,3713.96893046,N,13701.45444622,E,2,09,1.0,96.916,M,36.771,M,44.2,0000*40
[2021-02-22 16:13:52.601] $GPVTG,321.68,T,330.13,M,0.04,N,0.07,K,D*29
[2021-02-22 16:13:52.695] $GPGGA,071352.30,3713.96893123,N,13701.45444481,E,2,09,1.0,96.914,M,36.771,M,44.2,0000*4A
[2021-02-22 16:13:52.695] $GPVTG,314.19,T,322.64,M,0.05,N,0.09,K,D*25
[2021-02-22 16:13:52.789] $GPGGA,071352.40,3713.96891516,N,13701.45440174,E,2,09,1.0,96.920,M,36.771,M,44.4,0000*47
[2021-02-22 16:13:52.804] $GPVTG,271.72,T,280.17,M,0.05,N,0.09,K,D*27
[2021-02-22 16:13:52.883] $GPGGA,071352.50,3713.96891585,N,13701.45440032,E,2,09,1.0,96.916,M,36.771,M,44.4,0000*4A
[2021-02-22 16:13:52.898] $GPVTG,282.89,T,291.34,M,0.05,N,0.09,K,D*2E
[2021-02-22 16:13:52.992] $GPGGA,071352.60,3713.96888240,N,13701.45437588,E,2,09,1.0,96.972,M,36.771,M,44.6,0000*4B
[2021-02-22 16:13:53.008] $GPVTG,280.93,T,289.38,M,0.05,N,0.10,K,D*2A
[2021-02-22 16:13:53.086] $GPGGA,071352.70,3713.96888302,N,13701.45437710,E,2,09,1.0,96.970,M,36.771,M,44.6,0000*4C
[2021-02-22 16:13:53.101] $GPVTG,321.95,T,330.39,M,0.02,N,0.05,K,D*27
[2021-02-22 16:13:53.195] $GPGGA,071352.80,3713.96886262,N,13701.45435304,E,2,09,1.0,96.999,M,36.771,M,44.8,0000*40
[2021-02-22 16:13:53.211] $GPVTG,71.18,T,79.63,M,0.02,N,0.04,K,D*24
[2021-02-22 16:13:53.289] $GPGGA,071352.90,3713.96886402,N,13701.45435299,E,2,09,1.0,96.998,M,36.771,M,44.8,0000*45
[2021-02-22 16:13:53.304] $GPVTG,34.47,T,42.92,M,0.03,N,0.06,K,D*2A
[2021-02-22 16:13:53.398] $GPGGA,071353.00,3713.96885293,N,13701.45433772,E,2,09,1.0,97.012,M,36.771,M,45.0,0000*45
[2021-02-22 16:13:53.398] $GPVTG,50.60,T,59.05,M,0.04,N,0.07,K,D*2F
[2021-02-22 16:13:53.492] $GPGGA,071353.10,3713.96885219,N,13701.45433668,E,2,09,1.0,97.010,M,36.771,M,45.0,0000*4E
[2021-02-22 16:13:53.507] $GPVTG,99.58,T,108.03,M,0.01,N,0.01,K,D*11
[2021-02-22 16:13:53.586] $GPGGA,071353.20,3713.96885159,N,13701.45432319,E,2,09,1.0,96.986,M,36.771,M,45.2,0000*4D
[2021-02-22 16:13:53.617] $GPVTG,320.72,T,329.17,M,0.02,N,0.04,K,D*2A
[2021-02-22 16:13:53.679] $GPGGA,071353.30,3713.96885115,N,13701.45432528,E,2,09,1.0,96.980,M,36.771,M,45.2,0000*46
[2021-02-22 16:13:53.711] $GPVTG,67.97,T,76.42,M,0.01,N,0.03,K,D*2C
[2021-02-22 16:13:53.789] $GPGGA,071353.40,3713.96884443,N,13701.45431553,E,2,09,1.0,96.985,M,36.771,M,45.4,0000*4A
[2021-02-22 16:13:53.804] $GPVTG,81.81,T,90.26,M,0.01,N,0.02,K,D*28
[2021-02-22 16:13:53.882] $GPGGA,071353.50,3713.96884477,N,13701.45431364,E,2,09,1.0,96.986,M,36.771,M,45.4,0000*4D
[2021-02-22 16:13:53.898] $GPVTG,275.79,T,284.24,M,0.02,N,0.03,K,D*21
[2021-02-22 16:13:53.992] $GPGGA,071353.60,3713.96883992,N,13701.45430418,E,2,09,1.0,96.996,M,36.771,M,45.6,0000*41
[2021-02-22 16:13:54.007] $GPVTG,256.56,T,265.01,M,0.03,N,0.06,K,D*21
[2021-02-22 16:13:54.086] $GPGGA,071353.70,3713.96883985,N,13701.45430391,E,2,09,1.0,96.992,M,36.771,M,45.6,0000*44
[2021-02-22 16:13:54.101] $GPVTG,250.45,T,258.90,M,0.03,N,0.05,K,D*20
[2021-02-22 16:13:54.195] $GPGGA,071353.80,3713.96885353,N,13701.45426432,E,2,10,0.9,96.900,M,36.771,M,45.8,0000*40
[2021-02-22 16:13:54.211] $GPVTG,241.66,T,250.11,M,0.05,N,0.09,K,D*2A
[2021-02-22 16:13:54.289] $GPGGA,071353.90,3713.96885265,N,13701.45426512,E,2,10,0.9,96.901,M,36.771,M,45.8,0000*47
[2021-02-22 16:13:54.289] $GPVTG,214.45,T,222.90,M,0.03,N,0.06,K,D*2E
[2021-02-22 16:13:54.398] $GPGGA,071354.00,3713.96885716,N,13701.45428393,E,2,11,0.9,96.892,M,36.771,M,46.0,0000*48
[2021-02-22 16:13:54.414] $GPVTG,242.32,T,250.77,M,0.02,N,0.04,K,D*22
[2021-02-22 16:13:54.492] $GPGGA,071354.10,3713.96885607,N,13701.45428371,E,2,11,0.9,96.889,M,36.771,M,46.0,0000*4E
[2021-02-22 16:13:54.507] $GPVTG,214.98,T,223.43,M,0.03,N,0.06,K,D*21
[2021-02-22 16:13:54.586] $GPGGA,071354.20,3713.96886189,N,13701.45426059,E,2,11,0.9,96.880,M,36.771,M,46.2,0000*43
[2021-02-22 16:13:54.601] $GPVTG,235.19,T,243.64,M,0.05,N,0.10,K,D*29
[2021-02-22 16:13:54.679] $GPGGA,071354.30,3713.96886033,N,13701.45425762,E,2,11,0.9,96.878,M,36.771,M,46.2,0000*49
[2021-02-22 16:13:54.695] $GPVTG,233.64,T,242.09,M,0.09,N,0.16,K,D*25
[2021-02-22 16:13:54.789] $GPGGA,071354.40,3713.96886097,N,13701.45423089,E,2,11,0.9,96.867,M,36.771,M,46.4,0000*4C
[2021-02-22 16:13:54.820] $GPVTG,235.91,T,244.36,M,0.06,N,0.11,K,D*2B
[2021-02-22 16:13:54.882] $GPGGA,071354.50,3713.96885958,N,13701.45423347,E,2,11,0.9,96.866,M,36.771,M,46.4,0000*44
[2021-02-22 16:13:54.898] $GPVTG,169.42,T,177.87,M,0.04,N,0.07,K,D*23
[2021-02-22 16:13:54.992] $GPGGA,071354.60,3713.96884994,N,13701.45424581,E,2,11,0.9,96.863,M,36.771,M,46.6,0000*4A
[2021-02-22 16:13:55.007] $GPVTG,130.29,T,138.74,M,0.09,N,0.16,K,D*28
[2021-02-22 16:13:55.086] $GPGGA,071354.70,3713.96885019,N,13701.45424745,E,2,11,0.9,96.864,M,36.771,M,46.6,0000*4B
[2021-02-22 16:13:55.101] $GPVTG,110.71,T,119.16,M,0.08,N,0.15,K,D*22
[2021-02-22 16:13:55.195] $GPGGA,071354.80,3713.96884284,N,13701.45423768,E,2,12,0.9,96.893,M,36.771,M,46.8,0000*4E
[2021-02-22 16:13:55.210] $GPVTG,95.85,T,104.30,M,0.08,N,0.15,K,D*1D
[2021-02-22 16:13:55.289] $GPGGA,071354.90,3713.96884455,N,13701.45423731,E,2,11,0.9,96.892,M,36.771,M,46.8,0000*4B
[2021-02-22 16:13:55.304] $GPVTG,65.23,T,73.68,M,0.06,N,0.10,K,D*29
[2021-02-22 16:13:55.398] $GPGGA,071355.00,3713.96884116,N,13701.45422631,E,2,12,0.9,96.914,M,36.771,M,47.0,0000*44
[2021-02-22 16:13:55.414] $GPVTG,26.47,T,34.92,M,0.06,N,0.11,K,D*2B
[2021-02-22 16:13:55.492] $GPGGA,071355.10,3713.96883994,N,13701.45422310,E,2,11,0.9,96.915,M,36.771,M,47.0,0000*44
[2021-02-22 16:13:55.507] $GPVTG,289.74,T,298.19,M,0.03,N,0.06,K,D*28
[2021-02-22 16:13:55.601] $GPGGA,071355.20,3713.96883646,N,13701.45421070,E,2,12,0.9,96.927,M,36.771,M,47.2,0000*41
[2021-02-22 16:13:55.617] $GPVTG,280.50,T,288.94,M,0.09,N,0.17,K,D*29
[2021-02-22 16:13:55.695] $GPGGA,071355.30,3713.96883939,N,13701.45421189,E,2,12,0.9,96.927,M,36.771,M,47.2,0000*40
[2021-02-22 16:13:55.710] $GPVTG,325.72,T,334.17,M,0.08,N,0.15,K,D*29
[2021-02-22 16:13:55.789] $GPGGA,071355.40,3713.96883813,N,13701.45420590,E,2,12,0.9,96.929,M,36.771,M,47.4,0000*4B
[2021-02-22 16:13:55.804] $GPVTG,335.95,T,344.40,M,0.08,N,0.15,K,D*24
[2021-02-22 16:13:55.882] $GPGGA,071355.50,3713.96884000,N,13701.45420641,E,2,12,0.9,96.922,M,36.771,M,47.4,0000*43
[2021-02-22 16:13:55.898] $GPVTG,345.52,T,353.97,M,0.08,N,0.14,K,D*25
[2021-02-22 16:13:55.992] $GPGGA,071355.60,3713.96883741,N,13701.45420112,E,2,12,0.9,96.915,M,36.771,M,47.6,0000*42
[2021-02-22 16:13:56.007] $GPVTG,354.27,T,2.71,M,0.07,N,0.13,K,D*20
[2021-02-22 16:13:56.085] $GPGGA,071355.70,3713.96883861,N,13701.45419929,E,2,12,0.9,96.911,M,36.771,M,47.6,0000*40
[2021-02-22 16:13:56.101] $GPVTG,332.47,T,340.92,M,0.06,N,0.12,K,D*2E
[2021-02-22 16:13:56.195] $GPGGA,071355.80,3713.96883312,N,13701.45419091,E,2,12,0.9,96.909,M,36.771,M,47.8,0000*4D
[2021-02-22 16:13:56.210] $GPVTG,310.92,T,319.37,M,0.05,N,0.10,K,D*24
[2021-02-22 16:13:56.289] $GPGGA,071355.90,3713.96883210,N,13701.45418910,E,2,12,0.9,96.909,M,36.771,M,47.8,0000*4E
[2021-02-22 16:13:56.304] $GPVTG,267.98,T,276.43,M,0.05,N,0.10,K,D*24
[2021-02-22 16:13:56.398] $GPGGA,071356.00,3713.96882114,N,13701.45418141,E,2,12,0.9,96.907,M,36.771,M,48.0,0000*47
[2021-02-22 16:13:56.414] $GPVTG,236.66,T,245.11,M,0.07,N,0.14,K,D*20
[2021-02-22 16:13:56.492] $GPGGA,071356.10,3713.96882181,N,13701.45418048,E,2,12,0.9,96.907,M,36.771,M,48.0,0000*42
[2021-02-22 16:13:56.492] $GPVTG,248.34,T,256.79,M,0.05,N,0.09,K,D*2C
[2021-02-22 16:13:56.601] $GPGGA,071356.20,3713.96881185,N,13701.45417256,E,2,12,0.9,96.905,M,36.771,M,48.2,0000*44
[2021-02-22 16:13:56.601] $GPVTG,258.94,T,267.39,M,0.05,N,0.09,K,D*21
[2021-02-22 16:13:56.695] $GPGGA,071356.30,3713.96881181,N,13701.45417128,E,2,12,0.9,96.903,M,36.771,M,48.2,0000*4D
[2021-02-22 16:13:56.695] $GPVTG,259.23,T,267.68,M,0.04,N,0.08,K,D*28
[2021-02-22 16:13:56.788] $GPGGA,071356.40,3713.96880122,N,13701.45416313,E,2,12,0.9,96.905,M,36.771,M,48.4,0000*49
[2021-02-22 16:13:56.804] $GPVTG,284.28,T,292.73,M,0.04,N,0.07,K,D*2C
[2021-02-22 16:13:56.882] $GPGGA,071356.50,3713.96880168,N,13701.45416181,E,2,12,0.9,96.907,M,36.771,M,48.4,0000*4D
[2021-02-22 16:13:56.914] $GPVTG,299.27,T,307.72,M,0.04,N,0.07,K,D*23
[2021-02-22 16:13:56.992] $GPGGA,071356.60,3713.96879711,N,13701.45416175,E,2,12,0.9,96.913,M,36.771,M,48.6,0000*4C
[2021-02-22 16:13:57.007] $GPVTG,314.60,T,323.05,M,0.05,N,0.09,K,D*2D
[2021-02-22 16:13:57.085] $GPGGA,071356.70,3713.96879909,N,13701.45415990,E,2,12,0.9,96.911,M,36.771,M,48.6,0000*48
[2021-02-22 16:13:57.101] $GPVTG,321.97,T,330.42,M,0.07,N,0.13,K,D*2B
[2021-02-22 16:13:57.195] $GPGGA,071356.80,3713.96879393,N,13701.45416111,E,2,12,0.9,96.926,M,36.771,M,48.8,0000*46
[2021-02-22 16:13:57.210] $GPVTG,325.69,T,334.14,M,0.06,N,0.11,K,D*2A
[2021-02-22 16:13:57.288] $GPGGA,071356.90,3713.96879633,N,13701.45415589,E,2,12,0.9,96.923,M,36.771,M,48.8,0000*4B
[2021-02-22 16:13:57.304] $GPVTG,308.66,T,317.11,M,0.11,N,0.20,K,D*2A
[2021-02-22 16:13:57.398] $GPGGA,071357.00,3713.96879222,N,13701.45415608,E,2,12,0.9,96.943,M,36.771,M,49.0,0000*42
[2021-02-22 16:13:57.413] $GPVTG,307.36,T,315.81,M,0.09,N,0.17,K,D*26
[2021-02-22 16:13:57.492] $GPGGA,071357.10,3713.96879183,N,13701.45415403,E,2,12,0.9,96.941,M,36.771,M,49.0,0000*40
[2021-02-22 16:13:57.507] $GPVTG,289.60,T,298.05,M,0.08,N,0.15,K,D*29
[2021-02-22 16:13:57.601] $GPGGA,071357.20,3713.96878785,N,13701.45415359,E,2,12,0.9,96.953,M,36.771,M,49.2,0000*4B
[2021-02-22 16:13:57.601] $GPVTG,280.48,T,288.93,M,0.09,N,0.16,K,D*26
[2021-02-22 16:13:57.679] $GPGGA,071357.30,3713.96878912,N,13701.45415140,E,2,12,0.9,96.953,M,36.771,M,49.2,0000*40
[2021-02-22 16:13:57.695] $GPVTG,287.78,T,296.23,M,0.08,N,0.16,K,D*27
[2021-02-22 16:13:57.788] $GPGGA,071357.40,3713.96878599,N,13701.45415277,E,2,12,0.9,96.971,M,36.771,M,49.4,0000*49
[2021-02-22 16:13:57.804] $GPVTG,285.22,T,293.67,M,0.07,N,0.13,K,D*25
[2021-02-22 16:13:57.882] $GPGGA,071357.50,3713.96878856,N,13701.45415382,E,2,12,0.9,96.965,M,36.771,M,49.4,0000*48
[2021-02-22 16:13:57.898] $GPVTG,329.08,T,337.53,M,0.06,N,0.10,K,D*20
[2021-02-22 16:13:57.992] $GPGGA,071357.60,3713.96879890,N,13701.45417086,E,2,12,0.9,96.984,M,36.771,M,49.6,0000*48
[2021-02-22 16:13:58.007] $GPVTG,354.50,T,2.95,M,0.08,N,0.15,K,D*23
[2021-02-22 16:13:58.085] $GPGGA,071357.70,3713.96879952,N,13701.45417227,E,2,12,0.9,96.986,M,36.771,M,49.6,0000*4D
[2021-02-22 16:13:58.101] $GPVTG,13.55,T,22.00,M,0.07,N,0.13,K,D*21
[2021-02-22 16:13:58.195] $GPGGA,071357.80,3713.96880913,N,13701.45419043,E,2,12,0.9,96.995,M,36.771,M,49.8,0000*43
[2021-02-22 16:13:58.210] $GPVTG,24.25,T,32.70,M,0.09,N,0.16,K,D*2F
[2021-02-22 16:13:58.288] $GPGGA,071357.90,3713.96881180,N,13701.45419403,E,2,12,0.9,96.992,M,36.771,M,49.8,0000*46
[2021-02-22 16:13:58.304] $GPVTG,36.52,T,44.97,M,0.11,N,0.21,K,D*29
[2021-02-22 16:13:58.398] $GPGGA,071358.00,3713.96881883,N,13701.45421414,E,2,12,0.9,96.994,M,36.771,M,50.0,0000*41
[2021-02-22 16:13:58.413] $GPVTG,47.03,T,55.48,M,0.13,N,0.24,K,D*2E
[2021-02-22 16:13:58.492] $GPGGA,071358.10,3713.96881956,N,13701.45421714,E,2,12,0.9,96.993,M,36.771,M,50.0,0000*4D
[2021-02-22 16:13:58.492] $GPVTG,54.48,T,62.93,M,0.13,N,0.24,K,D*21
[2021-02-22 16:13:58.601] $GPGGA,071358.20,3713.96882354,N,13701.45423500,E,2,12,0.9,96.989,M,36.771,M,50.2,0000*49
[2021-02-22 16:13:58.601] $GPVTG,64.11,T,72.56,M,0.12,N,0.23,K,D*20
[2021-02-22 16:13:58.679] $GPGGA,071358.30,3713.96882362,N,13701.45423056,E,2,12,0.9,96.992,M,36.771,M,50.2,0000*41
[2021-02-22 16:13:58.695] $GPVTG,60.31,T,68.76,M,0.06,N,0.11,K,D*2B
[2021-02-22 16:13:58.804] $GPGGA,071358.40,3713.96882565,N,13701.45423592,E,2,12,0.9,96.974,M,36.771,M,50.4,0000*44
[2021-02-22 16:13:58.804] $GPVTG,67.30,T,75.75,M,0.03,N,0.06,K,D*21
[2021-02-22 16:13:58.882] $GPGGA,071358.50,3713.96882343,N,13701.45423500,E,2,12,0.9,96.971,M,36.771,M,50.4,0000*49
[2021-02-22 16:13:58.898] $GPVTG,153.85,T,162.30,M,0.02,N,0.04,K,D*2C
[2021-02-22 16:13:58.991] $GPGGA,071358.60,3713.96882133,N,13701.45423834,E,2,12,0.9,96.952,M,36.771,M,50.6,0000*46
[2021-02-22 16:13:59.007] $GPVTG,161.32,T,169.77,M,0.03,N,0.06,K,D*2A
[2021-02-22 16:13:59.085] $GPGGA,071358.70,3713.96882541,N,13701.45424163,E,2,12,0.9,96.950,M,36.771,M,50.6,0000*48
[2021-02-22 16:13:59.101] $GPVTG,74.86,T,83.31,M,0.03,N,0.06,K,D*27
[2021-02-22 16:13:59.195] $GPGGA,071358.80,3713.96882209,N,13701.45425042,E,2,12,0.9,96.930,M,36.771,M,50.8,0000*47
[2021-02-22 16:13:59.210] $GPVTG,95.56,T,104.01,M,0.07,N,0.12,K,D*19
[2021-02-22 16:13:59.288] $GPGGA,071358.90,3713.96882665,N,13701.45424538,E,2,12,0.9,96.929,M,36.771,M,50.8,0000*49
[2021-02-22 16:13:59.304] $GPVTG,44.31,T,52.76,M,0.03,N,0.06,K,D*27
[2021-02-22 16:13:59.398] $GPGGA,071359.00,3713.96884055,N,13701.45426210,E,2,12,0.9,96.911,M,36.771,M,51.0,0000*4F
[2021-02-22 16:13:59.413] $GPVTG,56.27,T,64.72,M,0.06,N,0.10,K,D*20
[2021-02-22 16:13:59.491] $GPGGA,071359.10,3713.96884276,N,13701.45426117,E,2,12,0.9,96.905,M,36.771,M,51.0,0000*4C
[2021-02-22 16:13:59.507] $GPVTG,38.57,T,47.01,M,0.05,N,0.09,K,D*21
[2021-02-22 16:13:59.601] $GPGGA,071359.20,3713.96884174,N,13701.45426477,E,2,12,0.9,96.885,M,36.771,M,51.2,0000*46
[2021-02-22 16:13:59.601] $GPVTG,29.86,T,38.31,M,0.04,N,0.08,K,D*26
[2021-02-22 16:13:59.695] $GPGGA,071359.30,3713.96884317,N,13701.45425858,E,2,12,0.9,96.887,M,36.771,M,51.2,0000*40
[2021-02-22 16:13:59.710] $GPVTG,320.91,T,329.36,M,0.05,N,0.08,K,D*2F
[2021-02-22 16:13:59.788] $GPGGA,071359.40,3713.96884123,N,13701.45426137,E,2,12,0.9,96.863,M,36.771,M,51.4,0000*4D
[2021-02-22 16:13:59.804] $GPVTG,313.43,T,321.88,M,0.03,N,0.06,K,D*25
[2021-02-22 16:13:59.882] $GPGGA,071359.50,3713.96884138,N,13701.45425871,E,2,12,0.9,96.866,M,36.771,M,51.4,0000*4B
[2021-02-22 16:13:59.898] $GPVTG,291.80,T,300.25,M,0.05,N,0.08,K,D*2D
[2021-02-22 16:13:59.991] $GPGGA,071359.60,3713.96884439,N,13701.45426249,E,2,12,0.9,96.850,M,36.771,M,51.6,0000*49
[2021-02-22 16:14:00.023] $GPVTG,321.74,T,330.19,M,0.05,N,0.10,K,D*29
[2021-02-22 16:14:00.085] $GPGGA,071359.70,3713.96884317,N,13701.45426317,E,2,12,0.9,96.847,M,36.771,M,51.6,0000*4F
[2021-02-22 16:14:00.101] $GPVTG,310.18,T,318.63,M,0.04,N,0.07,K,D*21
[2021-02-22 16:14:00.195] $GPGGA,071359.80,3713.96885536,N,13701.45428321,E,2,12,0.9,96.840,M,36.771,M,51.8,0000*46
[2021-02-22 16:14:00.210] $GPVTG,345.91,T,354.36,M,0.05,N,0.09,K,D*27
[2021-02-22 16:14:00.288] $GPGGA,071359.90,3713.96885331,N,13701.45428161,E,2,12,0.9,96.835,M,36.771,M,51.8,0000*42
[2021-02-22 16:14:00.304] $GPVTG,303.51,T,311.96,M,0.03,N,0.06,K,D*2B
[2021-02-22 16:14:00.398] $GPGGA,071400.00,3713.96885271,N,13701.45428957,E,2,12,0.9,96.826,M,36.771,M,52.0,0000*41
[2021-02-22 16:14:00.413] $GPVTG,332.03,T,340.48,M,0.04,N,0.07,K,D*2F
[2021-02-22 16:14:00.491] $GPGGA,071400.10,3713.96885264,N,13701.45428633,E,2,12,0.9,96.829,M,36.771,M,52.0,0000*46
[2021-02-22 16:14:00.507] $GPVTG,297.29,T,305.74,M,0.05,N,0.09,K,D*28
[2021-02-22 16:14:00.585] $GPGGA,071400.20,3713.96886855,N,13701.45423673,E,2,12,0.9,96.812,M,36.771,M,52.2,0000*4B
[2021-02-22 16:14:00.601] $GPVTG,305.71,T,314.16,M,0.05,N,0.09,K,D*2B
[2021-02-22 16:14:00.694] $GPGGA,071400.30,3713.96855794,N,13701.45413257,E,4,07,2.1,97.370,M,36.771,M,2.3,0000*75
[2021-02-22 16:14:00.694] $GPVTG,283.18,T,291.63,M,0.05,N,0.09,K,D*25
[2021-02-22 16:14:00.804] $GPGGA,071400.40,3713.96855642,N,13701.45413104,E,4,07,2.1,97.370,M,36.771,M,2.4,0000*7A
[2021-02-22 16:14:00.819] $GPVTG,298.97,T,307.42,M,0.07,N,0.12,K,D*2D
[2021-02-22 16:14:00.882] $GPGGA,071400.50,3713.96855645,N,13701.45413150,E,4,07,2.1,97.378,M,36.771,M,2.5,0000*74
[2021-02-22 16:14:00.898] $GPVTG,294.66,T,303.11,M,0.05,N,0.10,K,D*2D
[2021-02-22 16:14:00.991] $GPGGA,071400.60,3713.96855783,N,13701.45413250,E,4,07,2.1,97.376,M,36.771,M,2.6,0000*72
[2021-02-22 16:14:01.007] $GPVTG,308.01,T,316.46,M,0.07,N,0.12,K,D*2E
[2021-02-22 16:14:01.085] $GPGGA,071400.70,3713.96855282,N,13701.45412691,E,4,07,2.1,97.384,M,36.771,M,2.7,0000*73
[2021-02-22 16:14:01.101] $GPVTG,270.45,T,278.90,M,0.06,N,0.11,K,D*20
[2021-02-22 16:14:01.194] $GPGGA,071400.80,3713.96855668,N,13701.45413455,E,4,07,2.1,97.376,M,36.771,M,2.8,0000*75
[2021-02-22 16:14:01.210] $GPVTG,303.91,T,312.36,M,0.02,N,0.03,K,D*2A
[2021-02-22 16:14:01.288] $GPGGA,071400.90,3713.96855263,N,13701.45414075,E,4,07,2.1,97.363,M,36.771,M,2.9,0000*7F
[2021-02-22 16:14:01.304] $GPVTG,178.77,T,187.22,M,0.01,N,0.02,K,D*25
[2021-02-22 16:14:01.398] $GPGGA,071401.00,3713.96855772,N,13701.45413312,E,4,07,2.1,97.377,M,36.771,M,3.0,0000*7A
[2021-02-22 16:14:01.413] $GPVTG,223.70,T,232.15,M,0.02,N,0.03,K,D*24
[2021-02-22 16:14:01.491] $GPGGA,071401.10,3713.96855631,N,13701.45413764,E,4,07,2.1,97.373,M,36.771,M,3.1,0000*7D
[2021-02-22 16:14:01.507] $GPVTG,142.18,T,150.63,M,0.01,N,0.02,K,D*2A
[2021-02-22 16:14:01.601] $GPGGA,071401.20,3713.96855755,N,13701.45413977,E,4,07,2.1,97.372,M,36.771,M,3.2,0000*73
[2021-02-22 16:14:01.616] $GPVTG,308.73,T,317.18,M,0.01,N,0.01,K,D*25
[2021-02-22 16:14:01.694] $GPGGA,071401.30,3713.96856131,N,13701.45413844,E,4,07,2.1,97.369,M,36.771,M,3.3,0000*7F
[2021-02-22 16:14:01.710] $GPVTG,26.01,T,34.46,M,0.04,N,0.08,K,D*2A
[2021-02-22 16:14:01.788] $GPGGA,071401.40,3713.96856123,N,13701.45413777,E,4,07,2.1,97.378,M,36.771,M,3.4,0000*73
[2021-02-22 16:14:01.804] $GPVTG,32.05,T,40.49,M,0.04,N,0.07,K,D*28
[2021-02-22 16:14:01.882] $GPGGA,071401.50,3713.96856169,N,13701.45414223,E,4,07,2.1,97.370,M,36.771,M,3.5,0000*76
[2021-02-22 16:14:01.913] $GPVTG,48.24,T,56.69,M,0.07,N,0.14,K,D*22
[2021-02-22 16:14:01.991] $GPGGA,071401.60,3713.96856586,N,13701.45413891,E,4,07,2.1,97.375,M,36.771,M,3.6,0000*72
[2021-02-22 16:14:02.007] $GPVTG,33.22,T,41.67,M,0.08,N,0.16,K,D*2D
[2021-02-22 16:14:02.085] $GPGGA,071401.70,3713.96856275,N,13701.45413805,E,4,07,2.1,97.374,M,36.771,M,3.7,0000*75
[2021-02-22 16:14:02.101] $GPVTG,22.10,T,30.55,M,0.02,N,0.03,K,D*25
[2021-02-22 16:14:02.194] $GPGGA,071401.80,3713.96856059,N,13701.45413675,E,4,07,2.1,97.374,M,36.771,M,3.8,0000*70
[2021-02-22 16:14:02.210] $GPVTG,6.56,T,15.01,M,0.01,N,0.03,K,D*14
[2021-02-22 16:14:02.288] $GPGGA,071401.90,3713.96856308,N,13701.45413805,E,4,07,2.1,97.375,M,36.771,M,3.9,0000*7F
[2021-02-22 16:14:02.304] $GPVTG,27.13,T,35.58,M,0.03,N,0.05,K,D*2C
[2021-02-22 16:14:02.398] $GPGGA,071402.00,3713.96856515,N,13701.45413778,E,4,07,2.1,97.369,M,36.771,M,4.0,0000*79
[2021-02-22 16:14:02.413] $GPVTG,44.54,T,52.99,M,0.01,N,0.02,K,D*23
[2021-02-22 16:14:02.491] $GPGGA,071402.10,3713.96855796,N,13701.45413747,E,4,07,2.1,97.373,M,36.771,M,4.1,0000*74
[2021-02-22 16:14:02.507] $GPVTG,189.25,T,197.70,M,0.05,N,0.09,K,D*25
[2021-02-22 16:14:02.601] $GPGGA,071402.20,3713.96855986,N,13701.45414032,E,4,07,2.1,97.371,M,36.771,M,4.2,0000*7B
[2021-02-22 16:14:02.616] $GPVTG,167.18,T,175.63,M,0.04,N,0.08,K,D*25
[2021-02-22 16:14:02.694] $GPGGA,071402.30,3713.96856042,N,13701.45413752,E,4,07,2.1,97.372,M,36.771,M,4.3,0000*7C
[2021-02-22 16:14:02.710] $GPVTG,214.83,T,223.28,M,0.03,N,0.06,K,D*26
[2021-02-22 16:14:02.804] $GPGGA,071402.40,3713.96855900,N,13701.45413518,E,4,07,2.1,97.369,M,36.771,M,4.4,0000*76
[2021-02-22 16:14:02.819] $GPVTG,240.67,T,249.12,M,0.05,N,0.09,K,D*21
[2021-02-22 16:14:02.897] $GPGGA,071402.50,3713.96855993,N,13701.45413800,E,4,07,2.1,97.370,M,36.771,M,4.5,0000*70
[2021-02-22 16:14:02.913] $GPVTG,242.70,T,251.15,M,0.04,N,0.07,K,D*24
[2021-02-22 16:14:02.991] $GPGGA,071402.60,3713.96855816,N,13701.45413829,E,4,07,2.1,97.374,M,36.771,M,4.6,0000*73
[2021-02-22 16:14:03.007] $GPVTG,250.92,T,259.37,M,0.05,N,0.08,K,D*2D
[2021-02-22 16:14:03.085] $GPGGA,071402.70,3713.96855939,N,13701.45413439,E,4,07,2.1,97.375,M,36.771,M,4.7,0000*73
[2021-02-22 16:14:03.101] $GPVTG,260.22,T,268.67,M,0.07,N,0.13,K,D*2A
[2021-02-22 16:14:03.194] $GPGGA,071402.80,3713.96855765,N,13701.45413827,E,4,07,2.1,97.369,M,36.771,M,4.8,0000*7A
[2021-02-22 16:14:03.210] $GPVTG,241.10,T,249.55,M,0.05,N,0.09,K,D*23
[2021-02-22 16:14:03.288] $GPGGA,071402.90,3713.96855650,N,13701.45413527,E,4,07,2.1,97.373,M,36.771,M,4.9,0000*7B
[2021-02-22 16:14:03.304] $GPVTG,263.38,T,271.83,M,0.04,N,0.08,K,D*29
[2021-02-22 16:14:03.397] $GPGGA,071403.00,3713.96855575,N,13701.45413659,E,4,07,2.1,97.366,M,36.771,M,5.0,0000*71
[2021-02-22 16:14:03.413] $GPVTG,256.39,T,264.84,M,0.05,N,0.09,K,D*2D
[2021-02-22 16:14:03.491] $GPGGA,071403.10,3713.96855880,N,13701.45413442,E,4,07,2.1,97.369,M,36.771,M,5.1,0000*71
[2021-02-22 16:14:03.507] $GPVTG,301.11,T,309.56,M,0.06,N,0.11,K,D*2B
[2021-02-22 16:14:03.601] $GPGGA,071403.20,3713.96855698,N,13701.45413626,E,4,07,2.1,97.382,M,36.771,M,5.2,0000*73
[2021-02-22 16:14:03.601] $GPVTG,306.32,T,314.77,M,0.06,N,0.11,K,D*22
[2021-02-22 16:14:03.694] $GPGGA,071403.30,3713.96856344,N,13701.45413213,E,4,08,1.2,97.364,M,36.771,M,2.3,0000*76
[2021-02-22 16:14:03.710] $GPVTG,316.94,T,325.39,M,0.08,N,0.15,K,D*2D
[2021-02-22 16:14:03.804] $GPGGA,071403.40,3713.96856648,N,13701.45413475,E,4,08,1.2,97.371,M,36.771,M,2.4,0000*7D
[2021-02-22 16:14:03.819] $GPVTG,328.51,T,336.96,M,0.11,N,0.21,K,D*21
[2021-02-22 16:14:03.897] $GPGGA,071403.50,3713.96856293,N,13701.45413545,E,4,08,1.2,97.365,M,36.771,M,2.5,0000*78
[2021-02-22 16:14:03.913] $GPVTG,338.69,T,347.14,M,0.08,N,0.15,K,D*28
[2021-02-22 16:14:03.991] $GPGGA,071403.60,3713.96856410,N,13701.45413553,E,4,08,1.2,97.364,M,36.771,M,2.6,0000*73
[2021-02-22 16:14:04.007] $GPVTG,346.41,T,354.86,M,0.09,N,0.17,K,D*21
[2021-02-22 16:14:04.085] $GPGGA,071403.70,3713.96856680,N,13701.45413649,E,4,08,1.2,97.366,M,36.771,M,2.7,0000*72
[2021-02-22 16:14:04.100] $GPVTG,351.97,T,0.42,M,0.09,N,0.17,K,D*26
[2021-02-22 16:14:04.194] $GPGGA,071403.80,3713.96856325,N,13701.45413896,E,4,08,1.2,97.364,M,36.771,M,2.8,0000*76
[2021-02-22 16:14:04.210] $GPVTG,8.55,T,17.00,M,0.07,N,0.13,K,D*1D
[2021-02-22 16:14:04.288] $GPGGA,071403.90,3713.96856851,N,13701.45413611,E,4,08,1.2,97.371,M,36.771,M,2.9,0000*7B
[2021-02-22 16:14:04.304] $GPVTG,359.02,T,7.47,M,0.10,N,0.18,K,D*27
[2021-02-22 16:14:04.397] $GPGGA,071404.00,3713.96856439,N,13701.45413766,E,4,08,1.2,97.373,M,36.771,M,3.0,0000*7C
[2021-02-22 16:14:04.413] $GPVTG,350.65,T,359.10,M,0.06,N,0.12,K,D*28
[2021-02-22 16:14:04.491] $GPGGA,071404.10,3713.96856600,N,13701.45413754,E,4,08,1.2,97.364,M,36.771,M,3.1,0000*73
[2021-02-22 16:14:04.491] $GPVTG,335.28,T,343.73,M,0.05,N,0.10,K,D*2D
[2021-02-22 16:14:04.601] $GPGGA,071404.20,3713.96856537,N,13701.45414060,E,4,08,1.2,97.369,M,36.771,M,3.2,0000*7E
[2021-02-22 16:14:04.616] $GPVTG,353.21,T,1.66,M,0.08,N,0.15,K,D*2D
[2021-02-22 16:14:04.694] $GPGGA,071404.30,3713.96856432,N,13701.45414060,E,4,09,1.1,97.374,M,36.771,M,2.3,0000*75
[2021-02-22 16:14:04.694] $GPVTG,353.86,T,2.31,M,0.06,N,0.10,K,D*2A
[2021-02-22 16:14:04.804] $GPGGA,071404.40,3713.96856817,N,13701.45414471,E,4,09,1.1,97.376,M,36.771,M,2.4,0000*78
[2021-02-22 16:14:04.804] $GPVTG,6.65,T,15.10,M,0.07,N,0.12,K,D*12
[2021-02-22 16:14:04.897] $GPGGA,071404.50,3713.96856499,N,13701.45414094,E,4,09,1.1,97.369,M,36.771,M,2.5,0000*73
[2021-02-22 16:14:04.913] $GPVTG,320.20,T,328.65,M,0.04,N,0.08,K,D*23
[2021-02-22 16:14:04.991] $GPGGA,071404.60,3713.96856514,N,13701.45413785,E,4,09,1.1,97.384,M,36.771,M,2.6,0000*74
[2021-02-22 16:14:05.007] $GPVTG,310.36,T,318.81,M,0.05,N,0.09,K,D*2E
[2021-02-22 16:14:05.085] $GPGGA,071404.70,3713.96856250,N,13701.45414081,E,4,09,1.1,97.364,M,36.771,M,2.7,0000*79
[2021-02-22 16:14:05.100] $GPVTG,222.39,T,230.84,M,0.02,N,0.04,K,D*25
[2021-02-22 16:14:05.194] $GPGGA,071404.80,3713.96856311,N,13701.45413738,E,4,09,1.1,97.372,M,36.771,M,2.8,0000*78
[2021-02-22 16:14:05.210] $GPVTG,228.73,T,237.18,M,0.02,N,0.03,K,D*24
[2021-02-22 16:14:05.288] $GPGGA,071404.90,3713.96855691,N,13701.45414132,E,4,09,1.1,97.377,M,36.771,M,2.9,0000*78
[2021-02-22 16:14:05.304] $GPVTG,205.89,T,214.34,M,0.05,N,0.10,K,D*24
[2021-02-22 16:14:05.397] $GPGGA,071405.00,3713.96856064,N,13701.45413987,E,4,09,1.1,97.365,M,36.771,M,3.0,0000*75
[2021-02-22 16:14:05.413] $GPVTG,191.42,T,199.87,M,0.04,N,0.08,K,D*2B
[2021-02-22 16:14:05.491] $GPGGA,071405.10,3713.96855807,N,13701.45413720,E,4,09,1.1,97.379,M,36.771,M,3.1,0000*75
[2021-02-22 16:14:05.507] $GPVTG,198.92,T,207.37,M,0.06,N,0.11,K,D*2A
[2021-02-22 16:14:05.600] $GPGGA,071405.20,3713.96855860,N,13701.45413825,E,4,09,1.1,97.368,M,36.771,M,3.2,0000*7E
[2021-02-22 16:14:05.616] $GPVTG,203.78,T,212.23,M,0.03,N,0.06,K,D*2D
[2021-02-22 16:14:05.694] $GPGGA,071405.30,3713.96856074,N,13701.45413640,E,4,09,1.1,97.381,M,36.771,M,2.3,0000*7B
[2021-02-22 16:14:05.710] $GPVTG,269.41,T,277.86,M,0.02,N,0.04,K,D*24
[2021-02-22 16:14:05.788] $GPGGA,071405.40,3713.96856044,N,13701.45413605,E,4,09,1.1,97.387,M,36.771,M,2.4,0000*7F
[2021-02-22 16:14:05.803] $GPVTG,296.28,T,304.73,M,0.02,N,0.04,K,D*24
[2021-02-22 16:14:05.897] $GPGGA,071405.50,3713.96855834,N,13701.45414074,E,4,09,1.1,97.383,M,36.771,M,2.5,0000*70
[2021-02-22 16:14:05.913] $GPVTG,52.67,T,61.12,M,0.01,N,0.03,K,D*26
[2021-02-22 16:14:05.991] $GPGGA,071405.60,3713.96856471,N,13701.45413946,E,4,09,1.1,97.380,M,36.771,M,2.6,0000*72
[2021-02-22 16:14:06.007] $GPVTG,3.13,T,11.58,M,0.06,N,0.10,K,D*1D
[2021-02-22 16:14:06.085] $GPGGA,071405.70,3713.96856234,N,13701.45414101,E,4,09,1.1,97.378,M,36.771,M,2.7,0000*7E
[2021-02-22 16:14:06.100] $GPVTG,12.97,T,21.42,M,0.04,N,0.07,K,D*2D
[2021-02-22 16:14:06.194] $GPGGA,071405.80,3713.96856175,N,13701.45413787,E,4,09,1.1,97.384,M,36.771,M,2.8,0000*74
[2021-02-22 16:14:06.210] $GPVTG,13.98,T,22.43,M,0.06,N,0.11,K,D*24
[2021-02-22 16:14:06.288] $GPGGA,071405.90,3713.96856156,N,13701.45414419,E,4,09,1.1,97.371,M,36.771,M,2.9,0000*7C
[2021-02-22 16:14:06.303] $GPVTG,21.16,T,29.61,M,0.05,N,0.09,K,D*22
[2021-02-22 16:14:06.397] $GPGGA,071406.00,3713.96856236,N,13701.45413873,E,4,09,1.1,97.390,M,36.771,M,3.0,0000*73
[2021-02-22 16:14:06.413] $GPVTG,29.31,T,37.76,M,0.05,N,0.09,K,D*26
[2021-02-22 16:14:06.491] $GPGGA,071406.10,3713.96856226,N,13701.45414075,E,4,09,1.1,97.374,M,36.771,M,3.1,0000*71
[2021-02-22 16:14:06.507] $GPVTG,75.86,T,84.31,M,0.04,N,0.07,K,D*27
[2021-02-22 16:14:06.600] $GPGGA,071406.20,3713.96856131,N,13701.45413912,E,4,09,1.1,97.388,M,36.771,M,3.2,0000*78
[2021-02-22 16:14:06.616] $GPVTG,76.48,T,84.93,M,0.03,N,0.06,K,D*28
[2021-02-22 16:14:06.694] $GPGGA,071406.30,3713.96855557,N,13701.45413854,E,4,09,1.1,97.360,M,36.771,M,2.3,0000*7B
[2021-02-22 16:14:06.710] $GPVTG,131.98,T,140.43,M,0.04,N,0.07,K,D*25
[2021-02-22 16:14:06.803] $GPGGA,071406.40,3713.96855547,N,13701.45413744,E,4,09,1.1,97.371,M,36.771,M,2.4,0000*74
[2021-02-22 16:14:06.803] $GPVTG,153.00,T,161.45,M,0.03,N,0.05,K,D*20
[2021-02-22 16:14:06.897] $GPGGA,071406.50,3713.96855710,N,13701.45413568,E,4,09,1.1,97.364,M,36.771,M,2.5,0000*7C
[2021-02-22 16:14:06.897] $GPVTG,103.72,T,112.17,M,0.01,N,0.03,K,D*27
[2021-02-22 16:14:06.991] $GPGGA,071406.60,3713.96855116,N,13701.45413524,E,4,09,1.1,97.371,M,36.771,M,2.6,0000*70
[2021-02-22 16:14:07.007] $GPVTG,177.72,T,186.17,M,0.04,N,0.07,K,D*28
[2021-02-22 16:14:07.085] $GPGGA,071406.70,3713.96855437,N,13701.45413574,E,4,09,1.1,97.370,M,36.771,M,2.7,0000*72
[2021-02-22 16:14:07.100] $GPVTG,140.43,T,148.88,M,0.01,N,0.01,K,D*29
[2021-02-22 16:14:07.194] $GPGGA,071406.80,3713.96855318,N,13701.45412936,E,4,09,1.1,97.365,M,36.771,M,2.8,0000*77
[2021-02-22 16:14:07.210] $GPVTG,257.27,T,265.72,M,0.03,N,0.05,K,D*21
[2021-02-22 16:14:07.288] $GPGGA,071406.90,3713.96855185,N,13701.45413633,E,4,09,1.1,97.374,M,36.771,M,2.9,0000*7A
[2021-02-22 16:14:07.303] $GPVTG,94.24,T,102.69,M,0.01,N,0.03,K,D*13
[2021-02-22 16:14:07.397] $GPGGA,071407.00,3713.96855190,N,13701.45413510,E,4,09,1.1,97.366,M,36.771,M,3.0,0000*7F
[2021-02-22 16:14:07.413] $GPVTG,342.87,T,351.32,M,0.01,N,0.03,K,D*28
[2021-02-22 16:14:07.491] $GPGGA,071407.10,3713.96854849,N,13701.45414347,E,4,09,1.1,97.368,M,36.771,M,3.1,0000*7E
[2021-02-22 16:14:07.506] $GPVTG,147.62,T,156.07,M,0.01,N,0.02,K,D*26
[2021-02-22 16:14:07.600] $GPGGA,071407.20,3713.96855174,N,13701.45413660,E,4,09,1.1,97.368,M,36.771,M,3.2,0000*7F
[2021-02-22 16:14:07.616] $GPVTG,1.69,T,10.14,M,0.02,N,0.03,K,D*1D
[2021-02-22 16:14:07.694] $GPGGA,071407.30,3713.96855020,N,13701.45413354,E,4,09,1.1,97.369,M,36.771,M,2.3,0000*7D
[2021-02-22 16:14:07.710] $GPVTG,189.90,T,198.35,M,0.01,N,0.01,K,D*29
[2021-02-22 16:14:07.803] $GPGGA,071407.40,3713.96855254,N,13701.45413224,E,4,09,1.1,97.368,M,36.771,M,2.4,0000*7B
[2021-02-22 16:14:07.819] $GPVTG,284.99,T,293.44,M,0.02,N,0.03,K,D*21
[2021-02-22 16:14:07.882] $GPGGA,071407.50,3713.96855194,N,13701.45413128,E,4,09,1.1,97.367,M,36.771,M,2.5,0000*74
[2021-02-22 16:14:07.913] $GPVTG,289.28,T,297.72,M,0.05,N,0.08,K,D*2B
[2021-02-22 16:14:07.991] $GPGGA,071407.60,3713.96855152,N,13701.45413118,E,4,09,1.1,97.373,M,36.771,M,2.6,0000*78
[2021-02-22 16:14:08.006] $GPVTG,264.81,T,273.26,M,0.06,N,0.11,K,D*2B
[2021-02-22 16:14:08.085] $GPGGA,071407.70,3713.96855259,N,13701.45413183,E,4,09,1.1,97.369,M,36.771,M,2.7,0000*79
[2021-02-22 16:14:08.100] $GPVTG,299.55,T,308.00,M,0.05,N,0.09,K,D*23
[2021-02-22 16:14:08.194] $GPGGA,071407.80,3713.96855353,N,13701.45412958,E,4,09,1.1,97.366,M,36.771,M,2.8,0000*72
[2021-02-22 16:14:08.210] $GPVTG,329.83,T,338.28,M,0.06,N,0.12,K,D*22
[2021-02-22 16:14:08.288] $GPGGA,071407.90,3713.96855204,N,13701.45413654,E,4,09,1.1,97.360,M,36.771,M,2.9,0000*75
[2021-02-22 16:14:08.303] $GPVTG,342.19,T,350.64,M,0.03,N,0.06,K,D*2A
[2021-02-22 16:14:08.397] $GPGGA,071408.00,3713.96855211,N,13701.45413289,E,4,09,1.1,97.370,M,36.771,M,3.0,0000*7A
[2021-02-22 16:14:08.413] $GPVTG,10.95,T,19.40,M,0.07,N,0.13,K,D*22
[2021-02-22 16:14:08.491] $GPGGA,071408.10,3713.96854880,N,13701.45412868,E,4,09,1.1,97.387,M,36.771,M,3.1,0000*75
[2021-02-22 16:14:08.506] $GPVTG,351.42,T,359.87,M,0.06,N,0.10,K,D*20
[2021-02-22 16:14:08.600] $GPGGA,071408.20,3713.96855270,N,13701.45413240,E,4,09,1.1,97.368,M,36.771,M,3.2,0000*71
[2021-02-22 16:14:08.616] $GPVTG,9.61,T,18.06,M,0.05,N,0.09,K,D*1B
