
[2021-02-22 16:25:53.667] $GNGGA,072544.90,,,,,0,00,99.99,,,,,57.9,*64
[2021-02-22 16:25:53.698] $GNGGA,072545.00,,,,,0,00,99.99,,,,,58.0,*6A
[2021-02-22 16:25:53.698] $GNGGA,072545.10,,,,,0,00,99.99,,,,,58.1,*6A
[2021-02-22 16:25:53.698] $GNGGA,072545.20,,,,,0,00,99.99,,,,,58.2,*6A
[2021-02-22 16:25:53.698] $GNGGA,072545.30,,,,,0,00,99.99,,,,,58.3,*6A
[2021-02-22 16:25:53.698] $GNGGA,072545.40,,,,,0,00,99.99,,,,,58.4,*6A
[2021-02-22 16:25:53.698] $GNGGA,072545.50,,,,,0,00,99.99,,,,,58.5,*6A
[2021-02-22 16:25:53.698] $GNGGA,072545.60,,,,,0,00,99.99,,,,,58.6,*6A
[2021-02-22 16:25:53.698] $GNGGA,072545.70,,,,,0,00,99.99,,,,,58.7,*6A
[2021-02-22 16:25:53.698] $GNGGA,072545.80,,,,,0,00,99.99,,,,,58.8,*6A
[2021-02-22 16:25:53.698] $GNGGA,072545.90,,,,,0,00,99.99,,,,,58.9,*6A
[2021-02-22 16:25:53.698] $GNGGA,072546.00,,,,,0,00,99.99,,,,,59.0,*68
[2021-02-22 16:25:53.698] $GNGGA,072546.10,,,,,0,00,99.99,,,,,59.1,*68
[2021-02-22 16:25:53.698] $GNGGA,072546.20,,,,,0,00,99.99,,,,,59.2,*68
[2021-02-22 16:25:53.698] $GNGGA,072546.30,,,,,0,00,99.99,,,,,59.3,*68
[2021-02-22 16:25:53.698] $GNGGA,072546.40,,,,,0,00,99.99,,,,,59.4,*68
[2021-02-22 16:25:53.698] $GNGGA,072546.50,,,,,0,00,99.99,,,,,59.5,*68
[2021-02-22 16:25:53.698] $GNGGA,072546.60,,,,,0,00,99.99,,,,,59.6,*68
[2021-02-22 16:25:53.698] $GNGGA,072546.70,,,,,0,00,99.99,,,,,59.7,*68
[2021-02-22 16:25:53.698] $GNGGA,072546.80,,,,,0,00,99.99,,,,,59.8,*68
[2021-02-22 16:25:53.698] $GNGGA,072546.90,,,,,0,00,99.99,,,,,59.9,*68
[2021-02-22 16:25:53.698] $GNGGA,072547.00,,,,,0,00,99.99,,,,,60.0,*63
[2021-02-22 16:25:53.698] $GNGGA,072547.10,,,,,0,00,99.99,,,,,60.1,*63
[2021-02-22 16:25:53.714] $GNGGA,072547.20,,,,,0,00,99.99,,,,,60.2,*63
[2021-02-22 16:25:53.714] $GNGGA,072547.30,,,,,0,00,99.99,,,,,60.3,*63
[2021-02-22 16:25:53.714] $GNGGA,072547.40,,,,,0,00,99.99,,,,,60.4,*63
[2021-02-22 16:25:53.714] $GNGGA,072547.50,,,,,0,00,99.99,,,,,60.5,*63
[2021-02-22 16:25:53.714] $GNGGA,072547.60,,,,,0,00,99.99,,,,,60.6,*63
[2021-02-22 16:25:53.714] $GNGGA,072547.70,,,,,0,00,99.99,,,,,60.7,*63
[2021-02-22 16:25:53.714] $GNGGA,072547.80,,,,,0,00,99.99,,,,,60.8,*63
[2021-02-22 16:25:53.714] $GNGGA,072547.90,,,,,0,00,99.99,,,,,60.9,*63
[2021-02-22 16:25:53.714] $GNGGA,072548.00,,,,,0,00,99.99,,,,,61.0,*6D
[2021-02-22 16:25:53.714] $GNGGA,072548.10,,,,,0,00,99.99,,,,,61.1,*6D
[2021-02-22 16:25:53.714] $GNGGA,072548.20,,,,,0,00,99.99,,,,,61.2,*6D
[2021-02-22 16:25:53.714] $GNGGA,072548.30,,,,,0,00,99.99,,,,,61.3,*6D
[2021-02-22 16:25:53.714] $GNGGA,072548.40,,,,,0,00,99.99,,,,,61.4,*6D
[2021-02-22 16:25:53.714] $GNGGA,072548.50,,,,,0,00,99.99,,,,,61.5,*6D
[2021-02-22 16:25:53.714] $GNGGA,072548.60,,,,,0,00,99.99,,,,,61.6,*6D
[2021-02-22 16:25:53.714] $GNGGA,072548.70,,,,,0,00,99.99,,,,,61.7,*6D
[2021-02-22 16:25:53.714] $GNGGA,072548.80,,,,,0,00,99.99,,,,,61.8,*6D
[2021-02-22 16:25:53.714] $GNGGA,072548.90,,,,,0,00,99.99,,,,,61.9,*6D
[2021-02-22 16:25:53.714] $GNGGA,072549.00,,,,,0,00,99.99,,,,,62.0,*6F
[2021-02-22 16:25:53.714] $GNGGA,072549.10,,,,,0,00,99.99,,,,,62.1,*6F
[2021-02-22 16:25:53.714] $GNGGA,072549.20,,,,,0,00,99.99,,,,,62.2,*6F
[2021-02-22 16:25:53.714] $GNGGA,072549.30,,,,,0,00,99.99,,,,,62.3,*6F
[2021-02-22 16:25:53.730] $GNGGA,072549.40,,,,,0,00,99.99,,,,,62.4,*6F
[2021-02-22 16:25:53.730] $GNGGA,072549.50,,,,,0,00,99.99,,,,,62.5,*6F
[2021-02-22 16:25:53.730] $GNGGA,072549.60,,,,,0,00,99.99,,,,,62.6,*6F
[2021-02-22 16:25:53.730] $GNGGA,072549.70,,,,,0,00,99.99,,,,,62.7,*6F
[2021-02-22 16:25:53.730] $GNGGA,072549.80,,,,,0,00,99.99,,,,,62.8,*6F
[2021-02-22 16:25:53.730] $GNGGA,072549.90,,,,,0,00,99.99,,,,,62.9,*6F
[2021-02-22 16:25:53.730] $GNGGA,072550.00,,,,,0,00,99.99,,,,,63.0,*66
[2021-02-22 16:25:53.730] $GNGGA,072550.10,,,,,0,00,99.99,,,,,63.1,*66
[2021-02-22 16:25:53.730] $GNGGA,072550.20,,,,,0,00,99.99,,,,,63.2,*66
[2021-02-22 16:25:53.730] $GNGGA,072550.30,,,,,0,00,99.99,,,,,63.3,*66
[2021-02-22 16:25:53.730] $GNGGA,072550.40,,,,,0,00,99.99,,,,,63.4,*66
[2021-02-22 16:25:53.730] $GNGGA,072550.50,,,,,0,00,99.99,,,,,63.5,*66
[2021-02-22 16:25:53.730] $GNGGA,072550.60,,,,,0,00,99.99,,,,,63.6,*66
[2021-02-22 16:25:53.730] $GNGGA,072550.70,,,,,0,00,99.99,,,,,63.7,*66
[2021-02-22 16:25:53.730] $GNGGA,072550.80,,,,,0,00,99.99,,,,,63.8,*66
[2021-02-22 16:25:53.730] $GNGGA,072550.90,,,,,0,00,99.99,,,,,63.9,*66
[2021-02-22 16:25:53.730] $GNGGA,072551.00,,,,,0,00,99.99,,,,,64.0,*60
[2021-02-22 16:25:53.730] $GNGGA,072551.10,,,,,0,00,99.99,,,,,64.1,*60
[2021-02-22 16:25:53.730] $GNGGA,072551.20,,,,,0,00,99.99,,,,,64.2,*60
[2021-02-22 16:25:53.730] $GNGGA,072551.30,,,,,0,00,99.99,,,,,64.3,*60
[2021-02-22 16:25:53.730] $GNGGA,072551.40,,,,,0,00,99.99,,,,,64.4,*60
[2021-02-22 16:25:53.730] $GNGGA,072551.50,,,,,0,00,99.99,,,,,64.5,*60
[2021-02-22 16:25:53.730] $GNGGA,072551.60,,,,,0,00,99.99,,,,,64.6,*60
[2021-02-22 16:25:53.730] $GNGGA,072551.70,,,,,0,00,99.99,,,,,64.7,*60
[2021-02-22 16:25:53.730] $GNGGA,072551.80,,,,,0,00,99.99,,,,,64.8,*60
[2021-02-22 16:25:53.730] $GNGGA,072551.90,,,,,0,00,99.99,,,,,64.9,*60
[2021-02-22 16:25:53.730] $GNGGA,072552.00,,,,,0,00,99.99,,,,,65.0,*62
[2021-02-22 16:25:53.730] $GNGGA,072552.10,,,,,0,00,99.99,,,,,65.1,*62
[2021-02-22 16:25:53.730] $GNGGA,072552.20,,,,,0,00,99.99,,,,,65.2,*62
[2021-02-22 16:25:53.730] $GNGGA,072552.30,,,,,0,00,99.99,,,,,65.3,*62
[2021-02-22 16:25:53.730] $GNGGA,072552.40,,,,,0,00,99.99,,,,,65.4,*62
[2021-02-22 16:25:53.730] $GNGGA,072552.50,,,,,0,00,99.99,,,,,65.5,*62
[2021-02-22 16:25:53.730] $GNGGA,072552.60,,,,,0,00,99.99,,,,,65.6,*62
[2021-02-22 16:25:53.730] $GNGGA,072552.70,,,,,0,00,99.99,,,,,65.7,*62
[2021-02-22 16:25:53.730] $GNGGA,072552.80,,,,,0,00,99.99,,,,,65.8,*62
[2021-02-22 16:25:53.730] $GNGGA,072552.90,,,,,0,00,99.99,,,,,65.9,*62
[2021-02-22 16:25:53.730] $GNGGA,072553.00,,,,,0,00,99.99,,,,,66.0,*60
[2021-02-22 16:25:53.730] $GNGGA,072553.10,,,,,0,00,99.99,,,,,66.1,*60
[2021-02-22 16:25:53.776] $GNGGA,072553.20,,,,,0,00,99.99,,,,,66.2,*60
[2021-02-22 16:25:53.886] $GNGGA,072553.30,,,,,0,00,99.99,,,,,66.3,*60
[2021-02-22 16:25:53.980] $GNGGA,072553.40,,,,,0,00,99.99,,,,,66.4,*60
[2021-02-22 16:25:54.089] $GNGGA,072553.50,,,,,0,00,99.99,,,,,66.5,*60
[2021-02-22 16:25:54.183] $GNGGA,072553.60,,,,,0,00,99.99,,,,,66.6,*60
[2021-02-22 16:25:54.292] $GNGGA,072553.70,,,,,0,00,99.99,,,,,66.7,*60
[2021-02-22 16:25:54.386] $GNGGA,072553.80,,,,,0,00,99.99,,,,,66.8,*60
[2021-02-22 16:25:54.480] $GNGGA,072553.90,,,,,0,00,99.99,,,,,66.9,*60
[2021-02-22 16:25:54.573] $GNGGA,072554.00,,,,,0,00,99.99,,,,,67.0,*66
[2021-02-22 16:25:54.683] $GNGGA,072554.10,,,,,0,00,99.99,,,,,67.1,*66
[2021-02-22 16:25:54.792] $GNGGA,072554.20,,,,,0,00,99.99,,,,,67.2,*66
[2021-02-22 16:25:54.886] $GNGGA,072554.30,,,,,0,00,99.99,,,,,67.3,*66
[2021-02-22 16:25:54.980] $GNGGA,072554.40,,,,,0,00,99.99,,,,,67.4,*66
[2021-02-22 16:25:55.089] $GNGGA,072554.50,,,,,0,00,99.99,,,,,67.5,*66
[2021-02-22 16:25:55.183] $GNGGA,072554.60,,,,,0,00,99.99,,,,,67.6,*66
[2021-02-22 16:25:55.276] $GNGGA,072554.70,,,,,0,00,99.99,,,,,67.7,*66
[2021-02-22 16:25:55.370] $GNGGA,072554.80,,,,,0,00,99.99,,,,,67.8,*66
[2021-02-22 16:25:55.495] $GNGGA,072554.90,,,,,0,00,99.99,,,,,67.9,*66
[2021-02-22 16:25:55.589] $GNGGA,072555.00,,,,,0,00,99.99,,,,,68.0,*68
[2021-02-22 16:25:55.683] $GNGGA,072555.10,,,,,0,00,99.99,,,,,68.1,*68
[2021-02-22 16:25:55.776] $GNGGA,072555.20,,,,,0,00,99.99,,,,,68.2,*68
[2021-02-22 16:25:55.886] $GNGGA,072555.30,,,,,0,00,99.99,,,,,68.3,*68
[2021-02-22 16:25:55.979] $GNGGA,072555.40,,,,,0,00,99.99,,,,,68.4,*68
[2021-02-22 16:25:56.073] $GNGGA,072555.50,,,,,0,00,99.99,,,,,68.5,*68
[2021-02-22 16:25:56.183] $GNGGA,072555.60,,,,,0,00,99.99,,,,,68.6,*68
[2021-02-22 16:25:56.292] $GNGGA,072555.70,,,,,0,00,99.99,,,,,68.7,*68
[2021-02-22 16:25:56.386] $GNGGA,072555.80,,,,,0,00,99.99,,,,,68.8,*68
[2021-02-22 16:25:56.479] $GNGGA,072555.90,,,,,0,00,99.99,,,,,68.9,*68
[2021-02-22 16:25:56.573] $GNGGA,072556.00,,,,,0,00,99.99,,,,,69.0,*6A
[2021-02-22 16:25:56.683] $GNGGA,072556.10,,,,,0,00,99.99,,,,,69.1,*6A
[2021-02-22 16:25:56.792] $GNGGA,072556.20,,,,,0,00,99.99,,,,,69.2,*6A
[2021-02-22 16:25:56.886] $GNGGA,072556.30,,,,,0,00,99.99,,,,,69.3,*6A
[2021-02-22 16:25:56.979] $GNGGA,072556.40,,,,,0,00,99.99,,,,,69.4,*6A
[2021-02-22 16:25:57.089] $GNGGA,072556.50,,,,,0,00,99.99,,,,,69.5,*6A
[2021-02-22 16:25:57.182] $GNGGA,072556.60,,,,,0,00,99.99,,,,,69.6,*6A
[2021-02-22 16:25:57.276] $GNGGA,072556.70,,,,,0,00,99.99,,,,,69.7,*6A
[2021-02-22 16:25:57.370] $GNGGA,072556.80,,,,,0,00,99.99,,,,,69.8,*6A
[2021-02-22 16:25:57.495] $GNGGA,072556.90,,,,,0,00,99.99,,,,,69.9,*6A
[2021-02-22 16:25:57.589] $GNGGA,072557.00,,,,,0,00,99.99,,,,,70.0,*63
[2021-02-22 16:25:57.682] $GNGGA,072557.10,,,,,0,00,99.99,,,,,70.1,*63
[2021-02-22 16:25:57.776] $GNGGA,072557.20,,,,,0,00,99.99,,,,,70.2,*63
[2021-02-22 16:25:57.886] $GNGGA,072557.30,,,,,0,00,99.99,,,,,70.3,*63
[2021-02-22 16:25:57.979] $GNGGA,072557.40,,,,,0,00,99.99,,,,,70.4,*63
[2021-02-22 16:25:58.073] $GNGGA,072557.50,,,,,0,00,99.99,,,,,70.5,*63
[2021-02-22 16:25:58.182] $GNGGA,072557.60,,,,,0,00,99.99,,,,,70.6,*63
[2021-02-22 16:25:58.292] $GNGGA,072557.70,,,,,0,00,99.99,,,,,70.7,*63
[2021-02-22 16:25:58.386] $GNGGA,072557.80,,,,,0,00,99.99,,,,,70.8,*63
[2021-02-22 16:25:58.479] $GNGGA,072557.90,,,,,0,00,99.99,,,,,70.9,*63
[2021-02-22 16:25:58.573] $GNGGA,072558.00,,,,,0,00,99.99,,,,,71.0,*6D
[2021-02-22 16:25:58.682] $GNGGA,072558.10,,,,,0,00,99.99,,,,,71.1,*6D
[2021-02-22 16:25:58.792] $GNGGA,072558.20,,,,,0,00,99.99,,,,,71.2,*6D
[2021-02-22 16:25:58.886] $GNGGA,072558.30,,,,,0,00,99.99,,,,,71.3,*6D
[2021-02-22 16:25:58.979] $GNGGA,072558.40,,,,,0,00,99.99,,,,,71.4,*6D
[2021-02-22 16:25:59.089] $GNGGA,072558.50,,,,,0,00,99.99,,,,,71.5,*6D
[2021-02-22 16:25:59.182] $GNGGA,072558.60,,,,,0,00,99.99,,,,,71.6,*6D
[2021-02-22 16:25:59.276] $GNGGA,072558.70,,,,,0,00,99.99,,,,,71.7,*6D
[2021-02-22 16:25:59.370] $GNGGA,072558.80,,,,,0,00,99.99,,,,,71.8,*6D
[2021-02-22 16:25:59.495] $GNGGA,072558.90,,,,,0,00,99.99,,,,,71.9,*6D
[2021-02-22 16:25:59.589] $GNGGA,072559.00,,,,,0,00,99.99,,,,,72.0,*6F
[2021-02-22 16:25:59.682] $GNGGA,072559.10,,,,,0,00,99.99,,,,,72.1,*6F
[2021-02-22 16:25:59.776] $GNGGA,072559.20,,,,,0,00,99.99,,,,,72.2,*6F
[2021-02-22 16:25:59.885] $GNGGA,072559.30,,,,,0,00,99.99,,,,,72.3,*6F
[2021-02-22 16:25:59.979] $GNGGA,072559.40,,,,,0,00,99.99,,,,,72.4,*6F
[2021-02-22 16:26:00.073] $GNGGA,072559.50,,,,,0,00,99.99,,,,,72.5,*6F
[2021-02-22 16:26:00.182] $GNGGA,072559.60,,,,,0,00,99.99,,,,,72.6,*6F
[2021-02-22 16:26:00.292] $GNGGA,072559.70,,,,,0,00,99.99,,,,,72.7,*6F
[2021-02-22 16:26:00.385] $GNGGA,072559.80,,,,,0,00,99.99,,,,,72.8,*6F
[2021-02-22 16:26:00.479] $GNGGA,072559.90,,,,,0,00,99.99,,,,,72.9,*6F
[2021-02-22 16:26:00.573] $GNGGA,072600.00,,,,,0,00,99.99,,,,,73.0,*61
[2021-02-22 16:26:00.682] $GNGGA,072600.10,,,,,0,00,99.99,,,,,73.1,*61
[2021-02-22 16:26:00.792] $GNGGA,072600.20,,,,,0,00,99.99,,,,,73.2,*61
[2021-02-22 16:26:00.885] $GNGGA,072600.30,,,,,0,00,99.99,,,,,73.3,*61
[2021-02-22 16:26:00.979] $GNGGA,072600.40,,,,,0,00,99.99,,,,,73.4,*61
[2021-02-22 16:26:01.088] $GNGGA,072600.50,,,,,0,00,99.99,,,,,73.5,*61
[2021-02-22 16:26:01.182] $GNGGA,072600.60,,,,,0,00,99.99,,,,,73.6,*61
[2021-02-22 16:26:01.276] $GNGGA,072600.70,,,,,0,00,99.99,,,,,73.7,*61
[2021-02-22 16:26:01.370] $GNGGA,072600.80,,,,,0,00,99.99,,,,,73.8,*61
[2021-02-22 16:26:01.495] $GNGGA,072600.90,,,,,0,00,99.99,,,,,73.9,*61
[2021-02-22 16:26:01.588] $GNGGA,072601.00,,,,,0,00,99.99,,,,,74.0,*67
[2021-02-22 16:26:01.682] $GNGGA,072601.10,,,,,0,00,99.99,,,,,74.1,*67
[2021-02-22 16:26:01.776] $GNGGA,072601.20,,,,,0,00,99.99,,,,,74.2,*67
[2021-02-22 16:26:01.885] $GNGGA,072601.30,,,,,0,00,99.99,,,,,74.3,*67
[2021-02-22 16:26:01.979] $GNGGA,072601.40,,,,,0,00,99.99,,,,,74.4,*67
[2021-02-22 16:26:02.073] $GNGGA,072601.50,,,,,0,00,99.99,,,,,74.5,*67
[2021-02-22 16:26:02.182] $GNGGA,072601.60,,,,,0,00,99.99,,,,,74.6,*67
[2021-02-22 16:26:02.292] $GNGGA,072601.70,,,,,0,00,99.99,,,,,74.7,*67
[2021-02-22 16:26:02.385] $GNGGA,072601.80,,,,,0,00,99.99,,,,,74.8,*67
[2021-02-22 16:26:02.479] $GNGGA,072601.90,,,,,0,00,99.99,,,,,74.9,*67
[2021-02-22 16:26:02.573] $GNGGA,072602.00,,,,,0,00,99.99,,,,,75.0,*65
[2021-02-22 16:26:02.682] $GNGGA,072602.10,,,,,0,00,99.99,,,,,75.1,*65
[2021-02-22 16:26:02.776] $GNGGA,072602.20,,,,,0,00,99.99,,,,,75.2,*65
[2021-02-22 16:26:02.885] $GNGGA,072602.30,,,,,0,00,99.99,,,,,75.3,*65
[2021-02-22 16:26:02.979] $GNGGA,072602.40,,,,,0,00,99.99,,,,,75.4,*65
[2021-02-22 16:26:03.088] $GNGGA,072602.50,,,,,0,00,99.99,,,,,75.5,*65
[2021-02-22 16:26:03.182] $GNGGA,072602.60,,,,,0,00,99.99,,,,,75.6,*65
[2021-02-22 16:26:03.276] $GNGGA,072602.70,,,,,0,00,99.99,,,,,75.7,*65
[2021-02-22 16:26:03.370] $GNGGA,072602.80,,,,,0,00,99.99,,,,,75.8,*65
[2021-02-22 16:26:03.495] $GNGGA,072602.90,,,,,0,00,99.99,,,,,75.9,*65
[2021-02-22 16:26:03.588] $GNGGA,072603.00,,,,,0,00,99.99,,,,,76.0,*67
[2021-02-22 16:26:03.682] $GNGGA,072603.10,,,,,0,00,99.99,,,,,76.1,*67
[2021-02-22 16:26:03.791] $GNGGA,072603.20,,,,,0,00,99.99,,,,,76.2,*67
[2021-02-22 16:26:03.885] $GNGGA,072603.30,,,,,0,00,99.99,,,,,76.3,*67
[2021-02-22 16:26:03.979] $GNGGA,072603.40,,,,,0,00,99.99,,,,,76.4,*67
[2021-02-22 16:26:04.073] $GNGGA,072603.50,,,,,0,00,99.99,,,,,76.5,*67
[2021-02-22 16:26:04.198] $GNGGA,072603.60,,,,,0,00,99.99,,,,,76.6,*67
[2021-02-22 16:26:04.291] $GNGGA,072603.70,,,,,0,00,99.99,,,,,76.7,*67
[2021-02-22 16:26:04.385] $GNGGA,072603.80,,,,,0,00,99.99,,,,,76.8,*67
[2021-02-22 16:26:04.479] $GNGGA,072603.90,,,,,0,00,99.99,,,,,76.9,*67
[2021-02-22 16:26:04.588] $GNGGA,072604.00,,,,,0,00,99.99,,,,,77.0,*61
[2021-02-22 16:26:04.682] $GNGGA,072604.10,,,,,0,00,99.99,,,,,77.1,*61
[2021-02-22 16:26:04.776] $GNGGA,072604.20,,,,,0,00,99.99,,,,,77.2,*61
[2021-02-22 16:26:04.885] $GNGGA,072604.30,,,,,0,00,99.99,,,,,77.3,*61
[2021-02-22 16:26:04.994] $GNGGA,072604.40,,,,,0,00,99.99,,,,,77.4,*61
[2021-02-22 16:26:05.088] $GNGGA,072604.50,,,,,0,00,99.99,,,,,77.5,*61
[2021-02-22 16:26:05.182] $GNGGA,072604.60,,,,,0,00,99.99,,,,,77.6,*61
[2021-02-22 16:26:05.276] $GNGGA,072604.70,,,,,0,00,99.99,,,,,77.7,*61
[2021-02-22 16:26:05.385] $GNGGA,072604.80,,,,,0,00,99.99,,,,,77.8,*61
[2021-02-22 16:26:05.479] $GNGGA,072604.90,,,,,0,00,99.99,,,,,77.9,*61
[2021-02-22 16:26:05.588] $GNGGA,072605.00,,,,,0,00,99.99,,,,,78.0,*6F
[2021-02-22 16:26:05.682] $GNGGA,072605.10,,,,,0,00,99.99,,,,,78.1,*6F
[2021-02-22 16:26:05.791] $GNGGA,072605.20,,,,,0,00,99.99,,,,,78.2,*6F
[2021-02-22 16:26:05.885] $GNGGA,072605.30,,,,,0,00,99.99,,,,,78.3,*6F
[2021-02-22 16:26:05.979] $GNGGA,072605.40,,,,,0,00,99.99,,,,,78.4,*6F
[2021-02-22 16:26:06.073] $GNGGA,072605.50,,,,,0,00,99.99,,,,,78.5,*6F
[2021-02-22 16:26:06.197] $GNGGA,072605.60,,,,,0,00,99.99,,,,,78.6,*6F
[2021-02-22 16:26:06.291] $GNGGA,072605.70,,,,,0,00,99.99,,,,,78.7,*6F
[2021-02-22 16:26:06.385] $GNGGA,072605.80,,,,,0,00,99.99,,,,,78.8,*6F
[2021-02-22 16:26:06.479] $GNGGA,072605.90,,,,,0,00,99.99,,,,,78.9,*6F
[2021-02-22 16:26:06.588] $GNGGA,072606.00,,,,,0,00,99.99,,,,,79.0,*6D
[2021-02-22 16:26:06.682] $GNGGA,072606.10,,,,,0,00,99.99,,,,,79.1,*6D
[2021-02-22 16:26:06.776] $GNGGA,072606.20,,,,,0,00,99.99,,,,,79.2,*6D
[2021-02-22 16:26:06.885] $GNGGA,072606.30,,,,,0,00,99.99,,,,,79.3,*6D
[2021-02-22 16:26:06.994] $GNGGA,072606.40,,,,,0,00,99.99,,,,,79.4,*6D
[2021-02-22 16:26:07.088] $GNGGA,072606.50,,,,,0,00,99.99,,,,,79.5,*6D
[2021-02-22 16:26:07.182] $GNGGA,072606.60,,,,,0,00,99.99,,,,,79.6,*6D
[2021-02-22 16:26:07.276] $GNGGA,072606.70,,,,,0,00,99.99,,,,,79.7,*6D
[2021-02-22 16:26:07.385] $GNGGA,072606.80,,,,,0,00,99.99,,,,,79.8,*6D
[2021-02-22 16:26:07.479] $GNGGA,072606.90,,,,,0,00,99.99,,,,,79.9,*6D
[2021-02-22 16:26:07.588] $GNGGA,072607.00,,,,,0,00,99.99,,,,,80.0,*6A
[2021-02-22 16:26:07.682] $GNGGA,072607.10,,,,,0,00,99.99,,,,,80.1,*6A
[2021-02-22 16:26:07.791] $GNGGA,072607.20,,,,,0,00,99.99,,,,,80.2,*6A
[2021-02-22 16:26:07.885] $GNGGA,072607.30,,,,,0,00,99.99,,,,,80.3,*6A
[2021-02-22 16:26:07.979] $GNGGA,072607.40,,,,,0,00,99.99,,,,,80.4,*6A
[2021-02-22 16:26:08.072] $GNGGA,072607.50,,,,,0,00,99.99,,,,,80.5,*6A
[2021-02-22 16:26:08.197] $GNGGA,072607.60,,,,,0,00,99.99,,,,,80.6,*6A
[2021-02-22 16:26:08.291] $GNGGA,072607.70,,,,,0,00,99.99,,,,,80.7,*6A
[2021-02-22 16:26:08.385] $GNGGA,072607.80,,,,,0,00,99.99,,,,,80.8,*6A
[2021-02-22 16:26:08.479] $GNGGA,072607.90,,,,,0,00,99.99,,,,,80.9,*6A
[2021-02-22 16:26:08.588] $GNGGA,072608.00,,,,,0,00,99.99,,,,,81.0,*64
[2021-02-22 16:26:08.682] $GNGGA,072608.10,,,,,0,00,99.99,,,,,81.1,*64
[2021-02-22 16:26:08.775] $GNGGA,072608.20,,,,,0,00,99.99,,,,,81.2,*64
[2021-02-22 16:26:08.885] $GNGGA,072608.30,,,,,0,00,99.99,,,,,81.3,*64
[2021-02-22 16:26:08.994] $GNGGA,072608.40,,,,,0,00,99.99,,,,,81.4,*64
[2021-02-22 16:26:09.088] $GNGGA,072608.50,,,,,0,00,99.99,,,,,81.5,*64
[2021-02-22 16:26:09.182] $GNGGA,072608.60,,,,,0,00,99.99,,,,,81.6,*64
[2021-02-22 16:26:09.275] $GNGGA,072608.70,,,,,0,00,99.99,,,,,81.7,*64
[2021-02-22 16:26:09.385] $GNGGA,072608.80,,,,,0,00,99.99,,,,,81.8,*64
[2021-02-22 16:26:09.479] $GNGGA,072608.90,,,,,0,00,99.99,,,,,81.9,*64
[2021-02-22 16:26:09.588] $GNGGA,072609.00,,,,,0,00,99.99,,,,,82.0,*66
[2021-02-22 16:26:09.682] $GNGGA,072609.10,,,,,0,00,99.99,,,,,82.1,*66
[2021-02-22 16:26:09.791] $GNGGA,072609.20,,,,,0,00,99.99,,,,,82.2,*66
[2021-02-22 16:26:09.885] $GNGGA,072609.30,,,,,0,00,99.99,,,,,82.3,*66
[2021-02-22 16:26:09.978] $GNGGA,072609.40,,,,,0,00,99.99,,,,,82.4,*66
[2021-02-22 16:26:10.072] $GNGGA,072609.50,,,,,0,00,99.99,,,,,82.5,*66
[2021-02-22 16:26:10.197] $GNGGA,072609.60,,,,,0,00,99.99,,,,,82.6,*66
[2021-02-22 16:26:10.291] $GNGGA,072609.70,,,,,0,00,99.99,,,,,82.7,*66
[2021-02-22 16:26:10.385] $GNGGA,072609.80,,,,,0,00,99.99,,,,,82.8,*66
[2021-02-22 16:26:10.478] $GNGGA,072609.90,,,,,0,00,99.99,,,,,82.9,*66
[2021-02-22 16:26:10.588] $GNGGA,072610.00,,,,,0,00,99.99,,,,,83.0,*6F
[2021-02-22 16:26:10.682] $GNGGA,072610.10,,,,,0,00,99.99,,,,,83.1,*6F
[2021-02-22 16:26:10.775] $GNGGA,072610.20,,,,,0,00,99.99,,,,,83.2,*6F
[2021-02-22 16:26:10.885] $GNGGA,072610.30,,,,,0,00,99.99,,,,,83.3,*6F
[2021-02-22 16:26:10.994] $GNGGA,072610.40,,,,,0,00,99.99,,,,,83.4,*6F
[2021-02-22 16:26:11.088] $GNGGA,072610.50,,,,,0,00,99.99,,,,,83.5,*6F
[2021-02-22 16:26:11.182] $GNGGA,072610.60,,,,,0,00,99.99,,,,,83.6,*6F
[2021-02-22 16:26:11.275] $GNGGA,072610.70,,,,,0,00,99.99,,,,,83.7,*6F
[2021-02-22 16:26:11.400] $GNGGA,072610.80,,,,,0,00,99.99,,,,,83.8,*6F
[2021-02-22 16:26:11.478] $GNGGA,072610.90,,,,,0,00,99.99,,,,,83.9,*6F
[2021-02-22 16:26:11.588] $GNGGA,072611.00,,,,,0,00,99.99,,,,,84.0,*69
[2021-02-22 16:26:11.681] $GNGGA,072611.10,,,,,0,00,99.99,,,,,84.1,*69
[2021-02-22 16:26:11.791] $GNGGA,072611.20,,,,,0,00,99.99,,,,,84.2,*69
[2021-02-22 16:26:11.885] $GNGGA,072611.30,,,,,0,00,99.99,,,,,84.3,*69
[2021-02-22 16:26:11.978] $GNGGA,072611.40,,,,,0,00,99.99,,,,,84.4,*69
[2021-02-22 16:26:12.072] $GNGGA,072611.50,,,,,0,00,99.99,,,,,84.5,*69
[2021-02-22 16:26:12.197] $GNGGA,072611.60,,,,,0,00,99.99,,,,,84.6,*69
[2021-02-22 16:26:12.291] $GNGGA,072611.70,,,,,0,00,99.99,,,,,84.7,*69
[2021-02-22 16:26:12.385] $GNGGA,072611.80,,,,,0,00,99.99,,,,,84.8,*69
[2021-02-22 16:26:12.478] $GNGGA,072611.90,,,,,0,00,99.99,,,,,84.9,*69
[2021-02-22 16:26:12.603] $GNGGA,072612.00,,,,,0,00,99.99,,,,,85.0,*6B
[2021-02-22 16:26:12.681] $GNGGA,072612.10,,,,,0,00,99.99,,,,,85.1,*6B
[2021-02-22 16:26:12.775] $GNGGA,072612.20,,,,,0,00,99.99,,,,,85.2,*6B
[2021-02-22 16:26:12.869] $GNGGA,072612.30,,,,,0,00,99.99,,,,,85.3,*6B
[2021-02-22 16:26:12.994] $GNGGA,072612.40,,,,,0,00,99.99,,,,,85.4,*6B
[2021-02-22 16:26:13.088] $GNGGA,072612.50,,,,,0,00,99.99,,,,,85.5,*6B
[2021-02-22 16:26:13.181] $GNGGA,072612.60,,,,,0,00,99.99,,,,,85.6,*6B
[2021-02-22 16:26:13.275] $GNGGA,072612.70,,,,,0,00,99.99,,,,,85.7,*6B
[2021-02-22 16:26:13.400] $GNGGA,072612.80,,,,,0,00,99.99,,,,,85.8,*6B
[2021-02-22 16:26:13.478] $GNGGA,072612.90,,,,,0,00,99.99,,,,,85.9,*6B
[2021-02-22 16:26:13.588] $GNGGA,072613.00,,,,,0,00,99.99,,,,,86.0,*69
[2021-02-22 16:26:13.681] $GNGGA,072613.10,3713.983732000,N,13701.481508000,E,5,00,99.90,88.712,M,37.566,M,86.1,2006*59
[2021-02-22 16:26:13.775] $GNGGA,072613.20,3713.984044000,N,13701.481430000,E,5,00,99.90,91.228,M,37.566,M,86.2,2006*56
[2021-02-22 16:26:13.884] $GNGGA,072613.30,3713.984037400,N,13701.481431428,E,5,00,99.90,91.253,M,37.566,M,86.3,2006*55
[2021-02-22 16:26:13.994] $GNGGA,072613.40,3713.984063473,N,13701.481417644,E,5,00,99.90,91.157,M,37.566,M,86.4,2006*5B
[2021-02-22 16:26:14.072] $GNGGA,072613.50,3713.984063347,N,13701.481406687,E,5,03,99.90,91.157,M,37.566,M,86.5,2006*57
[2021-02-22 16:26:14.181] $GNGGA,072613.60,3713.984065067,N,13701.481405194,E,5,02,99.90,91.142,M,37.566,M,86.6,2006*53
[2021-02-22 16:26:14.275] $GNGGA,072613.70,3713.984064235,N,13701.481405456,E,5,00,99.90,91.148,M,37.566,M,86.7,2006*54
[2021-02-22 16:26:14.384] $GNGGA,072613.80,3713.984062718,N,13701.481406402,E,5,00,99.90,91.152,M,37.566,M,86.8,2006*51
[2021-02-22 16:26:14.494] $GNGGA,072613.90,3713.984061216,N,13701.481405544,E,5,00,99.90,91.152,M,37.566,M,86.9,2006*59
[2021-02-22 16:26:14.572] $GNGGA,072614.00,3713.984060446,N,13701.481405259,E,5,00,99.90,91.156,M,37.566,M,87.0,2006*52
[2021-02-22 16:26:14.681] $GNGGA,072614.10,3713.984060391,N,13701.481406711,E,5,00,99.90,91.160,M,37.566,M,87.1,2006*50
[2021-02-22 16:26:14.775] $GNGGA,072614.20,3713.984058902,N,13701.481405465,E,5,00,99.90,91.162,M,37.566,M,87.2,2006*5A
[2021-02-22 16:26:14.884] $GNGGA,072614.30,3713.984057279,N,13701.481405386,E,5,00,99.90,91.164,M,37.566,M,87.3,2006*5E
[2021-02-22 16:26:14.994] $GNGGA,072614.40,3713.984055868,N,13701.481403973,E,5,00,99.90,91.164,M,37.566,M,87.4,2006*50
[2021-02-22 16:26:15.072] $GNGGA,072614.50,3713.984055956,N,13701.481404223,E,5,00,99.90,91.165,M,37.566,M,87.5,2006*54
[2021-02-22 16:26:15.181] $GNGGA,072614.60,3713.984056443,N,13701.481405354,E,5,00,99.90,91.163,M,37.566,M,87.6,2006*58
[2021-02-22 16:26:15.275] $GNGGA,072614.70,3713.984056584,N,13701.481404720,E,5,00,99.90,91.161,M,37.566,M,87.7,2006*56
[2021-02-22 16:26:15.384] $GNGGA,072614.80,3713.984055680,N,13701.481405210,E,5,00,99.90,91.162,M,37.566,M,87.8,2006*56
[2021-02-22 16:26:15.494] $GNGGA,072614.90,3713.984056966,N,13701.481408747,E,5,00,99.90,91.163,M,37.566,M,87.9,2006*59
[2021-02-22 16:26:15.572] $GNGGA,072615.00,3713.984059260,N,13701.481408666,E,5,00,99.90,91.160,M,37.566,M,88.0,2006*54
[2021-02-22 16:26:15.681] $GNGGA,072615.10,3713.984059568,N,13701.481407205,E,5,00,99.90,91.162,M,37.566,M,88.1,2006*57
[2021-02-22 16:26:15.775] $GNGGA,072615.20,3713.984080874,N,13701.481558687,E,5,00,99.90,91.691,M,37.566,M,88.2,2006*5D
[2021-02-22 16:26:15.900] $GNGGA,072615.30,3713.984196122,N,13701.481684017,E,5,03,99.90,91.704,M,37.566,M,88.3,2006*52
[2021-02-22 16:26:15.978] $GNGGA,072615.40,3713.984245213,N,13701.481742150,E,5,04,4.95,91.977,M,37.566,M,88.4,2006*6B
[2021-02-22 16:26:16.072] $GNGGA,072615.50,3713.984278790,N,13701.481784386,E,5,04,4.95,91.887,M,37.566,M,88.5,2006*66
[2021-02-22 16:26:16.181] $GNGGA,072615.60,3713.984307489,N,13701.481788822,E,5,04,4.96,91.838,M,37.566,M,88.6,2006*6A
[2021-02-22 16:26:16.290] $GNGGA,072615.70,3713.984387723,N,13701.481858665,E,5,04,4.96,91.669,M,37.566,M,88.7,2006*64
[2021-02-22 16:26:16.369] $GNGGA,072615.80,3713.984435226,N,13701.481843525,E,5,04,4.96,91.615,M,37.566,M,88.8,2006*6C
[2021-02-22 16:26:16.478] $GNGGA,072615.90,3713.984466327,N,13701.481852004,E,5,04,4.96,91.448,M,37.566,M,88.9,2006*66
[2021-02-22 16:26:16.572] $GNGGA,072616.00,3713.984523794,N,13701.481839107,E,5,04,4.96,91.109,M,37.566,M,89.0,2006*67
[2021-02-22 16:26:16.697] $GNGGA,072616.10,3713.984537915,N,13701.481828619,E,5,04,4.96,91.059,M,37.566,M,89.1,2006*69
[2021-02-22 16:26:16.775] $GNGGA,072616.20,3713.984567092,N,13701.481840665,E,5,04,4.96,91.004,M,37.566,M,89.2,2006*67
[2021-02-22 16:26:16.884] $GNGGA,072616.30,3713.984600811,N,13701.481849593,E,5,04,4.96,90.903,M,37.566,M,89.3,2006*6A
[2021-02-22 16:26:16.978] $GNGGA,072616.40,3713.984637876,N,13701.481820503,E,5,04,4.96,90.798,M,37.566,M,89.4,2006*65
[2021-02-22 16:26:17.103] $GNGGA,072616.50,3713.984674730,N,13701.481817802,E,5,04,4.96,90.766,M,37.566,M,89.5,2006*66
[2021-02-22 16:26:17.181] $GNGGA,072616.60,3713.984744255,N,13701.481798482,E,5,04,4.96,90.680,M,37.566,M,89.6,2006*67
[2021-02-22 16:26:17.275] $GNGGA,072616.70,3713.984821200,N,13701.481791398,E,5,04,4.96,90.714,M,37.566,M,89.7,2006*62
[2021-02-22 16:26:17.384] $GNGGA,072616.80,3713.984838187,N,13701.481796185,E,5,04,4.96,90.705,M,37.566,M,89.8,2006*6F
[2021-02-22 16:26:17.494] $GNGGA,072616.90,3713.984882269,N,13701.481793268,E,5,04,4.96,90.738,M,37.566,M,89.9,2006*66
[2021-02-22 16:26:17.572] $GNGGA,072617.00,3713.984940979,N,13701.481792268,E,5,04,4.97,90.773,M,37.566,M,90.0,2006*65
[2021-02-22 16:26:17.681] $GNGGA,072617.10,3713.984990374,N,13701.481771057,E,5,04,4.97,90.818,M,37.566,M,90.1,2006*6E
[2021-02-22 16:26:17.775] $GNGGA,072617.20,3713.985011165,N,13701.481763816,E,5,04,4.97,90.831,M,37.566,M,90.2,2006*68
[2021-02-22 16:26:17.884] $GNGGA,072617.30,3713.985012224,N,13701.481749336,E,5,04,4.97,90.844,M,37.566,M,90.3,2006*6E
[2021-02-22 16:26:17.994] $GNGGA,072617.40,3713.985011485,N,13701.481733073,E,5,04,4.97,90.853,M,37.566,M,90.4,2006*69
[2021-02-22 16:26:18.072] $GNGGA,072617.50,3713.985013649,N,13701.481731933,E,5,04,4.97,90.827,M,37.566,M,90.5,2006*65
[2021-02-22 16:26:18.181] $GNGGA,072617.60,3713.985069913,N,13701.481704044,E,5,04,4.97,90.878,M,37.566,M,90.6,2006*6D
[2021-02-22 16:26:18.275] $GNGGA,072617.70,3713.985092543,N,13701.481674043,E,5,04,4.97,90.919,M,37.566,M,90.7,2006*67
[2021-02-22 16:26:18.384] $GNGGA,072617.80,3713.985125494,N,13701.481632906,E,5,04,4.97,90.994,M,37.566,M,90.8,2006*6E
[2021-02-22 16:26:18.493] $GNGGA,072617.90,3713.985130785,N,13701.481624966,E,5,04,4.97,90.980,M,37.566,M,90.9,2006*6D
[2021-02-22 16:26:18.572] $GNGGA,072618.00,3713.985127892,N,13701.481613498,E,5,04,4.97,90.968,M,37.566,M,91.0,2006*62
[2021-02-22 16:26:18.681] $GNGGA,072618.10,3713.985122993,N,13701.481602948,E,5,04,4.97,90.962,M,37.566,M,91.1,2006*6D
[2021-02-22 16:26:18.775] $GNGGA,072618.20,3713.985116336,N,13701.481592985,E,5,04,4.97,90.949,M,37.566,M,91.2,2006*6D
[2021-02-22 16:26:18.884] $GNGGA,072618.30,3713.985112333,N,13701.481579511,E,5,04,4.97,90.946,M,37.566,M,91.3,2006*67
[2021-02-22 16:26:18.993] $GNGGA,072618.40,3713.985109932,N,13701.481570153,E,5,04,4.97,90.930,M,37.566,M,91.4,2006*6C
[2021-02-22 16:26:19.072] $GNGGA,072618.50,3713.985106796,N,13701.481561255,E,5,04,4.98,90.915,M,37.566,M,91.5,2006*6E
[2021-02-22 16:26:19.181] $GNGGA,072618.60,3713.985105409,N,13701.481550868,E,5,04,4.98,90.874,M,37.566,M,91.6,2006*68
[2021-02-22 16:26:19.275] $GNGGA,072618.70,3713.985106667,N,13701.481548437,E,5,04,4.98,90.856,M,37.566,M,91.7,2006*6E
[2021-02-22 16:26:19.384] $GNGGA,072618.80,3713.985110377,N,13701.481538422,E,5,04,4.98,90.815,M,37.566,M,91.8,2006*69
[2021-02-22 16:26:19.493] $GNGGA,072618.90,3713.985116065,N,13701.481532198,E,5,04,4.98,90.807,M,37.566,M,91.9,2006*62
[2021-02-22 16:26:19.572] $GNGGA,072619.00,3713.985122259,N,13701.481522776,E,5,04,4.98,90.778,M,37.566,M,92.0,2006*6A
[2021-02-22 16:26:19.681] $GNGGA,072619.10,3713.985128491,N,13701.481516196,E,5,04,4.98,90.772,M,37.566,M,92.1,2006*67
[2021-02-22 16:26:19.775] $GNGGA,072619.20,3713.985136192,N,13701.481506730,E,5,04,4.98,90.749,M,37.566,M,92.2,2006*6D
[2021-02-22 16:26:19.900] $GNGGA,072619.30,3713.985142027,N,13701.481500936,E,5,04,4.98,90.742,M,37.566,M,92.3,2006*64
[2021-02-22 16:26:19.978] $GNGGA,072619.40,3713.985148625,N,13701.481493153,E,5,04,4.98,90.711,M,37.566,M,92.4,2006*6C
[2021-02-22 16:26:20.072] $GNGGA,072619.50,3713.985157519,N,13701.481485944,E,5,04,4.98,90.706,M,37.566,M,92.5,2006*61
[2021-02-22 16:26:20.181] $GNGGA,072619.60,3713.985172366,N,13701.481476612,E,5,04,4.98,90.688,M,37.566,M,92.6,2006*6F
[2021-02-22 16:26:20.290] $GNGGA,072619.70,3713.985179540,N,13701.481470030,E,5,04,4.98,90.685,M,37.566,M,92.7,2006*6B
[2021-02-22 16:26:20.368] $GNGGA,072619.80,3713.985188221,N,13701.481463679,E,5,04,4.98,90.660,M,37.566,M,92.8,2006*67
[2021-02-22 16:26:20.478] $GNGGA,072619.90,3713.985204339,N,13701.481462631,E,5,04,4.99,90.664,M,37.566,M,92.9,2006*60
[2021-02-22 16:26:20.572] $GNGGA,072620.00,3713.985222344,N,13701.481457993,E,5,04,4.99,90.650,M,37.566,M,93.0,2006*63
[2021-02-22 16:26:20.696] $GNGGA,072620.10,3713.985237890,N,13701.481455183,E,5,04,4.99,90.656,M,37.566,M,93.1,2006*68
[2021-02-22 16:26:20.775] $GNGGA,072620.20,3713.985255053,N,13701.481447434,E,5,04,4.99,90.645,M,37.566,M,93.2,2006*63
[2021-02-22 16:26:20.884] $GNGGA,072620.30,3713.985263283,N,13701.481426075,E,5,04,4.99,90.675,M,37.566,M,93.3,2006*6C
[2021-02-22 16:26:20.978] $GNGGA,072620.40,3713.985269761,N,13701.481406145,E,5,04,4.99,90.688,M,37.566,M,93.4,2006*6D
[2021-02-22 16:26:21.103] $GNGGA,072620.50,3713.985278015,N,13701.481387468,E,5,04,4.99,90.718,M,37.566,M,93.5,2006*65
[2021-02-22 16:26:21.181] $GNGGA,072620.60,3713.985282574,N,13701.481376953,E,5,04,4.99,90.705,M,37.566,M,93.6,2006*65
[2021-02-22 16:26:21.275] $GNGGA,072620.70,3713.985286898,N,13701.481369772,E,5,04,4.99,90.716,M,37.566,M,93.7,2006*6F
[2021-02-22 16:26:21.384] $GNGGA,072620.80,3713.985346221,N,13701.481294851,E,5,09,1.12,90.919,M,37.566,M,93.8,2006*6D
[2021-02-22 16:26:21.493] $GNGGA,072620.90,3713.985366329,N,13701.481282196,E,5,10,1.04,90.956,M,37.566,M,93.9,2006*67
[2021-02-22 16:26:21.571] $GNGGA,072621.00,3713.985430584,N,13701.481251815,E,5,12,1.00,90.937,M,37.566,M,94.0,2006*69
[2021-02-22 16:26:21.681] $GNGGA,072621.10,3713.985442112,N,13701.481241057,E,5,12,1.00,90.962,M,37.566,M,94.1,2006*68
[2021-02-22 16:26:21.775] $GNGGA,072621.20,3713.985485834,N,13701.481215781,E,5,12,1.00,90.938,M,37.566,M,94.2,2006*6C
[2021-02-22 16:26:21.884] $GNGGA,072621.30,3713.985495513,N,13701.481202729,E,5,12,1.00,90.959,M,37.566,M,94.3,2006*66
[2021-02-22 16:26:21.993] $GNGGA,072621.40,3713.985554291,N,13701.481175300,E,5,12,1.00,90.930,M,37.566,M,94.4,2006*64
[2021-02-22 16:26:22.071] $GNGGA,072621.50,3713.985561835,N,13701.481169158,E,5,12,1.00,90.938,M,37.566,M,94.5,2006*6C
[2021-02-22 16:26:22.181] $GNGGA,072621.60,3713.985612852,N,13701.481140757,E,5,12,1.00,90.912,M,37.566,M,94.6,2006*60
[2021-02-22 16:26:22.275] $GNGGA,072621.70,3713.985621094,N,13701.481130519,E,5,12,1.00,90.932,M,37.566,M,94.7,2006*6F
[2021-02-22 16:26:22.384] $GNGGA,072621.80,3713.985637077,N,13701.481122552,E,5,12,1.00,90.952,M,37.566,M,94.8,2006*6F
[2021-02-22 16:26:22.493] $GNGGA,072621.90,3713.985646379,N,13701.481109906,E,5,12,1.00,90.945,M,37.566,M,94.9,2006*66
[2021-02-22 16:26:22.571] $GNGGA,072622.00,3713.985653907,N,13701.481099416,E,5,12,1.00,90.961,M,37.566,M,95.0,2006*61
[2021-02-22 16:26:22.681] $GNGGA,072622.10,3713.985664347,N,13701.481090692,E,5,12,1.00,90.955,M,37.566,M,95.1,2006*6B
[2021-02-22 16:26:22.774] $GNGGA,072622.20,3713.985667836,N,13701.481085327,E,5,12,1.00,90.959,M,37.566,M,95.2,2006*66
[2021-02-22 16:26:22.884] $GNGGA,072622.30,3713.985678012,N,13701.481072616,E,5,12,1.00,90.951,M,37.566,M,95.3,2006*61
[2021-02-22 16:26:22.993] $GNGGA,072622.40,3713.985684079,N,13701.481066745,E,5,12,1.00,90.964,M,37.566,M,95.4,2006*6B
[2021-02-22 16:26:23.071] $GNGGA,072622.50,3713.985693233,N,13701.481053834,E,5,12,1.00,90.961,M,37.566,M,95.5,2006*6B
[2021-02-22 16:26:23.181] $GNGGA,072622.60,3713.985699725,N,13701.481042430,E,5,12,1.00,90.972,M,37.566,M,95.6,2006*69
[2021-02-22 16:26:23.274] $GNGGA,072622.70,3713.985707787,N,13701.481030970,E,5,12,1.00,90.963,M,37.566,M,95.7,2006*6B
[2021-02-22 16:26:23.384] $GNGGA,072622.80,3713.985713229,N,13701.481022799,E,5,12,1.00,90.970,M,37.566,M,95.8,2006*67
[2021-02-22 16:26:23.493] $GNGGA,072622.90,3713.985720984,N,13701.481014053,E,5,12,1.00,90.969,M,37.566,M,95.9,2006*67
[2021-02-22 16:26:23.571] $GNGGA,072623.00,3713.985729006,N,13701.481005076,E,5,12,1.00,90.992,M,37.566,M,96.0,2006*6C
[2021-02-22 16:26:23.681] $GNGGA,072623.10,3713.985736948,N,13701.480996694,E,5,12,1.00,90.981,M,37.566,M,96.1,2006*6B
[2021-02-22 16:26:23.774] $GNGGA,072623.20,3713.985742817,N,13701.480988222,E,5,12,1.00,90.996,M,37.566,M,96.2,2006*63
[2021-02-22 16:26:23.884] $GNGGA,072623.30,3713.985752554,N,13701.480977334,E,5,12,1.00,90.998,M,37.566,M,96.3,2006*60
[2021-02-22 16:26:23.993] $GNGGA,072623.40,3713.985758132,N,13701.480970544,E,5,12,1.00,91.010,M,37.566,M,96.4,2006*60
[2021-02-22 16:26:24.071] $GNGGA,072623.50,3713.985765811,N,13701.480961442,E,5,12,1.00,91.006,M,37.566,M,96.5,2006*66
[2021-02-22 16:26:24.181] $GNGGA,072623.60,3713.985773219,N,13701.480955247,E,5,12,1.00,91.015,M,37.566,M,96.6,2006*65
[2021-02-22 16:26:24.274] $GNGGA,072623.70,3713.985779980,N,13701.480947548,E,5,12,1.00,91.011,M,37.566,M,96.7,2006*6B
[2021-02-22 16:26:24.399] $GNGGA,072623.80,3713.985784625,N,13701.480942731,E,5,12,1.00,91.022,M,37.566,M,96.8,2006*60
[2021-02-22 16:26:24.477] $GNGGA,072623.90,3713.985796726,N,13701.480932883,E,5,12,1.00,91.026,M,37.566,M,96.9,2006*64
[2021-02-22 16:26:24.571] $GNGGA,072624.00,3713.985800262,N,13701.480929112,E,5,12,1.00,91.033,M,37.566,M,97.0,2006*68
[2021-02-22 16:26:24.681] $GNGGA,072624.10,3713.985805955,N,13701.480920589,E,5,12,1.00,91.030,M,37.566,M,97.1,2006*6E
[2021-02-22 16:26:24.790] $GNGGA,072624.20,3713.985810767,N,13701.480917718,E,5,12,1.00,91.039,M,37.566,M,97.2,2006*62
[2021-02-22 16:26:24.868] $GNGGA,072624.30,3713.985817664,N,13701.480916671,E,5,12,1.00,91.041,M,37.566,M,97.3,2006*67
[2021-02-22 16:26:24.977] $GNGGA,072624.40,3713.985821598,N,13701.480917352,E,5,12,1.00,91.038,M,37.566,M,97.4,2006*69
[2021-02-22 16:26:25.071] $GNGGA,072624.50,3713.985823972,N,13701.480912225,E,5,12,1.00,91.038,M,37.566,M,97.5,2006*67
[2021-02-22 16:26:25.196] $GNGGA,072624.60,3713.985828404,N,13701.480910254,E,5,12,1.00,91.032,M,37.566,M,97.6,2006*6E
[2021-02-22 16:26:25.274] $GNGGA,072624.70,3713.985839500,N,13701.480914065,E,5,12,1.00,91.025,M,37.566,M,97.7,2006*69
[2021-02-22 16:26:25.384] $GNGGA,072624.80,3713.985846641,N,13701.480913458,E,5,12,1.00,91.017,M,37.566,M,97.8,2006*6B
[2021-02-22 16:26:25.477] $GNGGA,072624.90,3713.985849809,N,13701.480910330,E,5,12,1.00,91.019,M,37.566,M,97.9,2006*62
[2021-02-22 16:26:25.602] $GNGGA,072625.00,3713.985848961,N,13701.480905402,E,5,12,1.00,91.020,M,37.566,M,98.0,2006*6A
[2021-02-22 16:26:25.681] $GNGGA,072625.10,3713.985845411,N,13701.480901231,E,5,12,1.00,91.033,M,37.566,M,98.1,2006*6D
[2021-02-22 16:26:25.774] $GNGGA,072625.20,3713.985839065,N,13701.480903300,E,5,12,1.00,91.029,M,37.566,M,98.2,2006*6B
[2021-02-22 16:26:25.884] $GNGGA,072625.30,3713.985834873,N,13701.480902280,E,5,12,1.00,91.015,M,37.566,M,98.3,2006*6E
[2021-02-22 16:26:25.993] $GNGGA,072625.40,3713.985832008,N,13701.480897593,E,5,12,1.00,91.014,M,37.566,M,98.4,2006*65
[2021-02-22 16:26:26.071] $GNGGA,072625.50,3713.985830359,N,13701.480892060,E,5,12,1.00,91.018,M,37.566,M,98.5,2006*60
[2021-02-22 16:26:26.180] $GNGGA,072625.60,3713.985832277,N,13701.480884719,E,5,12,1.00,91.012,M,37.566,M,98.6,2006*6B
[2021-02-22 16:26:26.274] $GNGGA,072625.70,3713.985833905,N,13701.480881451,E,5,12,1.00,91.010,M,37.566,M,98.7,2006*6C
[2021-02-22 16:26:26.384] $GNGGA,072625.80,3713.985837690,N,13701.480879406,E,5,12,1.00,90.993,M,37.566,M,98.8,2006*6D
[2021-02-22 16:26:26.509] $GNGGA,072625.90,3713.985836482,N,13701.480876149,E,5,12,1.00,90.991,M,37.566,M,98.9,2006*6E
[2021-02-22 16:26:26.571] $GNGGA,072626.00,3713.985837711,N,13701.480872262,E,5,12,1.00,90.987,M,37.566,M,99.0,2006*6D
[2021-02-22 16:26:26.680] $GNGGA,072626.10,3713.985838942,N,13701.480870212,E,5,12,1.00,90.987,M,37.566,M,99.1,2006*6F
[2021-02-22 16:26:26.774] $GNGGA,072626.20,3713.985851334,N,13701.480858382,E,5,12,1.00,91.019,M,37.566,M,99.2,2006*66
[2021-02-22 16:26:26.884] $GNGGA,072626.30,3713.985864171,N,13701.480840948,E,5,12,1.00,91.050,M,37.566,M,99.3,2006*6B
[2021-02-22 16:26:26.993] $GNGGA,072626.40,3713.985876616,N,13701.480827491,E,5,12,1.00,91.091,M,37.566,M,99.4,2006*6B
[2021-02-22 16:26:27.071] $GNGGA,072626.50,3713.985898484,N,13701.480811216,E,5,12,1.00,91.133,M,37.566,M,99.5,2006*67
[2021-02-22 16:26:27.180] $GNGGA,072626.60,3713.985922882,N,13701.480799777,E,5,12,1.00,91.188,M,37.566,M,99.6,2006*60
[2021-02-22 16:26:27.274] $GNGGA,072626.70,3713.985950291,N,13701.480787160,E,5,12,1.00,91.238,M,37.566,M,99.7,2006*6A
[2021-02-22 16:26:27.384] $GNGGA,072626.80,3713.985973233,N,13701.480774126,E,5,12,1.00,91.290,M,37.566,M,99.8,2006*6F
[2021-02-22 16:26:27.493] $GNGGA,072626.90,3713.985999516,N,13701.480755685,E,5,12,1.00,91.347,M,37.566,M,99.9,2006*6D
[2021-02-22 16:26:27.571] $GNGGA,072627.00,3713.986011696,N,13701.480748477,E,5,12,1.00,91.371,M,37.566,M,100.0,2006*5A
[2021-02-22 16:26:27.680] $GNGGA,072627.10,3713.986032680,N,13701.480734840,E,5,12,1.00,91.408,M,37.566,M,100.1,2006*56
[2021-02-22 16:26:27.774] $GNGGA,072627.20,3713.986044812,N,13701.480726090,E,5,12,1.00,91.429,M,37.566,M,100.2,2006*57
[2021-02-22 16:26:27.883] $GNGGA,072627.30,3713.986065886,N,13701.480709129,E,5,12,1.00,91.462,M,37.566,M,100.3,2006*58
[2021-02-22 16:26:27.993] $GNGGA,072627.40,3713.986073897,N,13701.480701706,E,5,12,1.00,91.481,M,37.566,M,100.4,2006*51
[2021-02-22 16:26:28.071] $GNGGA,072627.50,3713.986097596,N,13701.480681511,E,5,12,1.00,91.524,M,37.566,M,100.5,2006*54
[2021-02-22 16:26:28.180] $GNGGA,072627.60,3713.986106605,N,13701.480674556,E,5,12,1.00,91.544,M,37.566,M,100.6,2006*5B
[2021-02-22 16:26:28.274] $GNGGA,072627.70,3713.986125023,N,13701.480655761,E,5,12,1.00,91.574,M,37.566,M,100.7,2006*5E
[2021-02-22 16:26:28.383] $GNGGA,072627.80,3713.986132467,N,13701.480645904,E,5,12,1.00,91.595,M,37.566,M,100.8,2006*5F
[2021-02-22 16:26:28.493] $GNGGA,072627.90,3713.986150276,N,13701.480626905,E,5,12,1.00,91.630,M,37.566,M,100.9,2006*55
[2021-02-22 16:26:28.571] $GNGGA,072628.00,3713.986161349,N,13701.480614944,E,5,12,1.00,91.639,M,37.566,M,101.0,2006*59
[2021-02-22 16:26:28.680] $GNGGA,072628.10,3713.986177051,N,13701.480598415,E,5,12,1.00,91.663,M,37.566,M,101.1,2006*55
[2021-02-22 16:26:28.774] $GNGGA,072628.20,3713.986186377,N,13701.480588119,E,5,12,1.00,91.671,M,37.566,M,101.2,2006*57
[2021-02-22 16:26:28.899] $GNGGA,072628.30,3713.986202148,N,13701.480570308,E,5,12,1.00,91.701,M,37.566,M,101.3,2006*55
[2021-02-22 16:26:28.977] $GNGGA,072628.40,3713.986231180,N,13701.480542089,E,5,12,1.00,91.777,M,37.566,M,101.4,2006*5B
[2021-02-22 16:26:29.071] $GNGGA,072628.50,3713.986246213,N,13701.480523371,E,5,12,1.00,91.808,M,37.566,M,101.5,2006*56
[2021-02-22 16:26:29.180] $GNGGA,072628.60,3713.986268553,N,13701.480501686,E,5,12,1.00,91.858,M,37.566,M,101.6,2006*51
[2021-02-22 16:26:29.290] $GNGGA,072628.70,3713.986282830,N,13701.480487891,E,5,12,1.00,91.889,M,37.566,M,101.7,2006*56
[2021-02-22 16:26:29.383] $GNGGA,072628.80,3713.986307886,N,13701.480467133,E,5,12,1.00,91.943,M,37.566,M,101.8,2006*5F
[2021-02-22 16:26:29.477] $GNGGA,072628.90,3713.986323475,N,13701.480449309,E,5,12,1.00,91.969,M,37.566,M,101.9,2006*56
[2021-02-22 16:26:29.571] $GNGGA,072629.00,3713.986338180,N,13701.480435069,E,5,12,1.00,91.994,M,37.566,M,102.0,2006*5D
[2021-02-22 16:26:29.696] $GNGGA,072629.10,3713.986352707,N,13701.480417067,E,5,12,1.00,92.016,M,37.566,M,102.1,2006*56
[2021-02-22 16:26:29.774] $GNGGA,072629.20,3713.986375769,N,13701.480394507,E,5,12,1.00,92.060,M,37.566,M,102.2,2006*55
[2021-02-22 16:26:29.883] $GNGGA,072629.30,3713.986390724,N,13701.480382359,E,5,12,1.00,92.076,M,37.566,M,102.3,2006*5A
[2021-02-22 16:26:29.977] $GNGGA,072629.40,3713.986405838,N,13701.480370078,E,5,12,1.00,92.094,M,37.566,M,102.4,2006*52
[2021-02-22 16:26:30.102] $GNGGA,072629.50,3713.986409752,N,13701.480364497,E,5,12,1.00,92.086,M,37.566,M,102.5,2006*5E
[2021-02-22 16:26:30.180] $GNGGA,072629.60,3713.986422270,N,13701.480353945,E,5,12,1.00,92.102,M,37.566,M,102.6,2006*59
[2021-02-22 16:26:30.274] $GNGGA,072629.70,3713.986424067,N,13701.480349965,E,5,12,1.00,92.094,M,37.566,M,102.7,2006*5C
[2021-02-22 16:26:30.383] $GNGGA,072629.80,3713.986434291,N,13701.480339996,E,5,12,1.00,92.107,M,37.566,M,102.8,2006*56
[2021-02-22 16:26:30.477] $GNGGA,072629.90,3713.986435855,N,13701.480336169,E,5,12,1.00,92.098,M,37.566,M,102.9,2006*55
[2021-02-22 16:26:30.602] $GNGGA,072630.00,3713.986447434,N,13701.480322705,E,5,12,1.00,92.116,M,37.566,M,103.0,2006*5C
[2021-02-22 16:26:30.680] $GNGGA,072630.10,3713.986446699,N,13701.480314491,E,5,12,1.00,92.115,M,37.566,M,103.1,2006*50
[2021-02-22 16:26:30.774] $GNGGA,072630.20,3713.986455874,N,13701.480304076,E,5,12,1.00,92.127,M,37.566,M,103.2,2006*52
[2021-02-22 16:26:30.883] $GNGGA,072630.30,3713.986455986,N,13701.480303104,E,5,12,1.00,92.124,M,37.566,M,103.3,2006*5E
[2021-02-22 16:26:30.977] $GNGGA,072630.40,3713.986455885,N,13701.480298189,E,5,12,1.00,92.122,M,37.566,M,103.4,2006*5C
[2021-02-22 16:26:31.102] $GNGGA,072630.50,3713.986457330,N,13701.480292290,E,5,12,1.00,92.125,M,37.566,M,103.5,2006*5D
[2021-02-22 16:26:31.180] $GNGGA,072630.60,3713.986461504,N,13701.480286015,E,5,12,1.00,92.131,M,37.566,M,103.6,2006*56
[2021-02-22 16:26:31.274] $GNGGA,072630.70,3713.986475750,N,13701.480272790,E,5,12,1.00,92.157,M,37.566,M,103.7,2006*51
[2021-02-22 16:26:31.383] $GNGGA,072630.80,3713.986487028,N,13701.480264711,E,5,12,1.00,92.178,M,37.566,M,103.8,2006*57
[2021-02-22 16:26:31.477] $GNGGA,072630.90,3713.986505185,N,13701.480254987,E,5,12,1.00,92.214,M,37.566,M,103.9,2006*51
[2021-02-22 16:26:31.602] $GNGGA,072631.00,3713.986526973,N,13701.480238751,E,5,12,1.00,92.257,M,37.566,M,104.0,2006*5F
[2021-02-22 16:26:31.680] $GNGGA,072631.10,3713.986535991,N,13701.480231943,E,5,12,1.00,92.275,M,37.566,M,104.1,2006*55
[2021-02-22 16:26:31.774] $GNGGA,072631.20,3713.986552544,N,13701.480220596,E,5,12,1.00,92.307,M,37.566,M,104.2,2006*50
[2021-02-22 16:26:31.883] $GNGGA,072631.30,3713.986569639,N,13701.480207669,E,5,12,1.00,92.346,M,37.566,M,104.3,2006*52
[2021-02-22 16:26:31.977] $GNGGA,072631.40,3713.986588852,N,13701.480191352,E,5,12,1.00,92.387,M,37.566,M,104.4,2006*52
[2021-02-22 16:26:32.102] $GNGGA,072631.50,3713.986603912,N,13701.480180667,E,5,12,1.00,92.420,M,37.566,M,104.5,2006*5E
[2021-02-22 16:26:32.180] $GNGGA,072631.60,3713.986628292,N,13701.480163823,E,5,12,1.00,92.466,M,37.566,M,104.6,2006*55
[2021-02-22 16:26:32.274] $GNGGA,072631.70,3713.986645209,N,13701.480151120,E,5,12,1.00,92.505,M,37.566,M,104.7,2006*53
[2021-02-22 16:26:32.383] $GNGGA,072631.80,3713.986663187,N,13701.480136078,E,5,12,1.00,92.525,M,37.566,M,104.8,2006*5D
[2021-02-22 16:26:32.477] $GNGGA,072631.90,3713.986678564,N,13701.480117697,E,5,12,1.00,92.561,M,37.566,M,104.9,2006*5A
[2021-02-22 16:26:32.602] $GNGGA,072632.00,3713.986696467,N,13701.480092748,E,5,12,1.00,92.613,M,37.566,M,105.0,2006*53
[2021-02-22 16:26:32.680] $GNGGA,072632.10,3713.986705460,N,13701.480074022,E,5,12,1.00,92.642,M,37.566,M,105.1,2006*58
[2021-02-22 16:26:32.774] $GNGGA,072632.20,3713.986719704,N,13701.480057699,E,5,12,1.00,92.686,M,37.566,M,105.2,2006*5B
[2021-02-22 16:26:32.883] $GNGGA,072632.30,3713.986731444,N,13701.480047583,E,5,12,1.00,92.712,M,37.566,M,105.3,2006*53
[2021-02-22 16:26:32.993] $GNGGA,072632.40,3713.986745220,N,13701.480036339,E,5,12,1.00,92.743,M,37.566,M,105.4,2006*51
[2021-02-22 16:26:33.071] $GNGGA,072632.50,3713.986760092,N,13701.480018657,E,5,12,1.00,92.774,M,37.566,M,105.5,2006*58
[2021-02-22 16:26:33.180] $GNGGA,072632.60,3713.986773477,N,13701.480003964,E,5,12,1.00,92.810,M,37.566,M,105.6,2006*5D
[2021-02-22 16:26:33.274] $GNGGA,072632.70,3713.986783178,N,13701.479986372,E,5,12,1.00,92.840,M,37.566,M,105.7,2006*52
[2021-02-22 16:26:33.399] $GNGGA,072632.80,3713.986794048,N,13701.479969404,E,5,12,1.00,92.864,M,37.566,M,105.8,2006*57
[2021-02-22 16:26:33.477] $GNGGA,072632.90,3713.986807180,N,13701.479956274,E,5,12,1.00,92.904,M,37.566,M,105.9,2006*5D
[2021-02-22 16:26:33.571] $GNGGA,072633.00,3713.986820467,N,13701.479940964,E,5,12,1.00,92.939,M,37.566,M,106.0,2006*55
[2021-02-22 16:26:33.680] $GNGGA,072633.10,3713.986825201,N,13701.479930715,E,5,12,1.00,92.944,M,37.566,M,106.1,2006*53
[2021-02-22 16:26:33.789] $GNGGA,072633.20,3713.986836702,N,13701.479916931,E,5,12,1.00,92.973,M,37.566,M,106.2,2006*5F
[2021-02-22 16:26:33.883] $GNGGA,072633.30,3713.986845332,N,13701.479906979,E,5,12,1.00,92.986,M,37.566,M,106.3,2006*5B
[2021-02-22 16:26:33.977] $GNGGA,072633.40,3713.986852248,N,13701.479897318,E,5,12,1.00,93.011,M,37.566,M,106.4,2006*53
[2021-02-22 16:26:34.071] $GNGGA,072633.50,3713.986856649,N,13701.479890190,E,5,12,1.00,93.027,M,37.566,M,106.5,2006*52
[2021-02-22 16:26:34.196] $GNGGA,072633.60,3713.986864288,N,13701.479883596,E,5,12,1.00,93.049,M,37.566,M,106.6,2006*52
[2021-02-22 16:26:34.274] $GNGGA,072633.70,3713.986868047,N,13701.479884416,E,5,12,1.00,93.048,M,37.566,M,106.7,2006*50
[2021-02-22 16:26:34.383] $GNGGA,072633.80,3713.986874033,N,13701.479880523,E,5,12,1.00,93.063,M,37.566,M,106.8,2006*54
[2021-02-22 16:26:34.477] $GNGGA,072633.90,3713.986874991,N,13701.479878232,E,5,12,1.00,93.064,M,37.566,M,106.9,2006*52
[2021-02-22 16:26:34.586] $GNGGA,072634.00,3713.986879177,N,13701.479873816,E,5,12,1.00,93.079,M,37.566,M,107.0,2006*52
[2021-02-22 16:26:34.695] $GNGGA,072634.10,3713.986884734,N,13701.479866141,E,5,12,1.00,93.093,M,37.566,M,107.1,2006*5A
[2021-02-22 16:26:34.774] $GNGGA,072634.20,3713.986887052,N,13701.479861991,E,5,12,1.00,93.096,M,37.566,M,107.2,2006*59
[2021-02-22 16:26:34.883] $GNGGA,072634.30,3713.986891714,N,13701.479852725,E,5,12,1.00,93.103,M,37.566,M,107.3,2006*57
[2021-02-22 16:26:34.977] $GNGGA,072634.40,3713.986894109,N,13701.479847056,E,5,12,1.00,93.116,M,37.566,M,107.4,2006*5B
[2021-02-22 16:26:35.086] $GNGGA,072634.50,3713.986897080,N,13701.479842766,E,5,12,1.00,93.122,M,37.566,M,107.5,2006*5E
[2021-02-22 16:26:35.195] $GNGGA,072634.60,3713.986898968,N,13701.479839178,E,5,12,1.00,93.130,M,37.566,M,107.6,2006*58
[2021-02-22 16:26:35.274] $GNGGA,072634.70,3713.986904184,N,13701.479831840,E,5,12,1.00,93.142,M,37.566,M,107.7,2006*59
[2021-02-22 16:26:35.383] $GNGGA,072634.80,3713.986909551,N,13701.479826698,E,5,12,1.00,93.157,M,37.566,M,107.8,2006*51
[2021-02-22 16:26:35.477] $GNGGA,072634.90,3713.986916406,N,13701.479819960,E,5,12,1.00,93.163,M,37.566,M,107.9,2006*5F
[2021-02-22 16:26:35.586] $GNGGA,072635.00,3713.986922101,N,13701.479811826,E,5,12,1.00,93.176,M,37.566,M,108.0,2006*5B
[2021-02-22 16:26:35.695] $GNGGA,072635.10,3713.986927212,N,13701.479801951,E,5,12,1.00,93.184,M,37.566,M,108.1,2006*52
[2021-02-22 16:26:35.774] $GNGGA,072635.20,3713.986930060,N,13701.479793283,E,5,12,1.00,93.201,M,37.566,M,108.2,2006*5D
[2021-02-22 16:26:35.883] $GNGGA,072635.30,3713.986933370,N,13701.479789921,E,5,12,1.00,93.205,M,37.566,M,108.3,2006*50
[2021-02-22 16:26:35.977] $GNGGA,072635.40,3713.986933453,N,13701.479787341,E,5,12,1.00,93.208,M,37.566,M,108.4,2006*59
[2021-02-22 16:26:36.086] $GNGGA,072635.50,3713.986936905,N,13701.479780224,E,5,12,1.00,93.219,M,37.566,M,108.5,2006*57
[2021-02-22 16:26:36.195] $GNGGA,072635.60,3713.986942312,N,13701.479774042,E,5,12,1.00,93.229,M,37.566,M,108.6,2006*52
[2021-02-22 16:26:36.274] $GNGGA,072635.70,3713.986944855,N,13701.479768871,E,5,12,1.00,93.240,M,37.566,M,108.7,2006*56
[2021-02-22 16:26:36.383] $GNGGA,072635.80,3713.986945553,N,13701.479763669,E,5,12,1.00,93.249,M,37.566,M,108.8,2006*59
[2021-02-22 16:26:36.477] $GNGGA,072635.90,3713.986948081,N,13701.479759330,E,5,12,1.00,93.259,M,37.566,M,108.9,2006*5F
[2021-02-22 16:26:36.570] $GNGGA,072636.00,3713.986951897,N,13701.479753384,E,5,12,1.00,93.273,M,37.566,M,109.0,2006*57
[2021-02-22 16:26:36.695] $GNGGA,072636.10,3713.986957765,N,13701.479748771,E,5,12,1.00,93.285,M,37.566,M,109.1,2006*5E
[2021-02-22 16:26:36.774] $GNGGA,072636.20,3713.986962960,N,13701.479743855,E,5,12,1.00,93.293,M,37.566,M,109.2,2006*56
[2021-02-22 16:26:36.883] $GNGGA,072636.30,3713.986968024,N,13701.479736625,E,5,12,1.00,93.306,M,37.566,M,109.3,2006*53
[2021-02-22 16:26:36.977] $GNGGA,072636.40,3713.986972654,N,13701.479732172,E,5,12,1.00,93.313,M,37.566,M,109.4,2006*5C
[2021-02-22 16:26:37.086] $GNGGA,072636.50,3713.986975928,N,13701.479728795,E,5,12,1.00,93.318,M,37.566,M,109.5,2006*50
[2021-02-22 16:26:37.195] $GNGGA,072636.60,3713.986977340,N,13701.479722533,E,5,12,1.00,93.330,M,37.566,M,109.6,2006*58
[2021-02-22 16:26:37.273] $GNGGA,072636.70,3713.986979764,N,13701.479713882,E,5,12,1.00,93.335,M,37.566,M,109.7,2006*54
[2021-02-22 16:26:37.383] $GNGGA,072636.80,3713.986984334,N,13701.479706005,E,5,12,1.00,93.349,M,37.566,M,109.8,2006*5F
[2021-02-22 16:26:37.477] $GNGGA,072636.90,3713.986989680,N,13701.479698770,E,5,12,1.00,93.357,M,37.566,M,109.9,2006*54
[2021-02-22 16:26:37.602] $GNGGA,072637.00,3713.986995272,N,13701.479691229,E,5,12,1.00,93.373,M,37.566,M,110.0,2006*5F
[2021-02-22 16:26:37.680] $GNGGA,072637.10,3713.986998846,N,13701.479684362,E,5,12,1.00,93.381,M,37.566,M,110.1,2006*58
[2021-02-22 16:26:37.773] $GNGGA,072637.20,3713.987004858,N,13701.479677515,E,5,12,1.00,93.394,M,37.566,M,110.2,2006*54
[2021-02-22 16:26:37.883] $GNGGA,072637.30,3713.987008291,N,13701.479671293,E,5,12,1.00,93.399,M,37.566,M,110.3,2006*55
[2021-02-22 16:26:37.992] $GNGGA,072637.40,3713.987015144,N,13701.479661491,E,5,12,1.00,93.422,M,37.566,M,110.4,2006*50
[2021-02-22 16:26:38.070] $GNGGA,072637.50,3713.987018175,N,13701.479659106,E,5,12,1.00,93.417,M,37.566,M,110.5,2006*59
[2021-02-22 16:26:38.180] $GNGGA,072637.60,3713.987024771,N,13701.479652912,E,5,12,1.00,93.432,M,37.566,M,110.6,2006*55
[2021-02-22 16:26:38.273] $GNGGA,072637.70,3713.987027653,N,13701.479649241,E,5,12,1.00,93.433,M,37.566,M,110.7,2006*51
[2021-02-22 16:26:38.398] $GNGGA,072637.80,3713.987033501,N,13701.479644849,E,5,12,1.00,93.448,M,37.566,M,110.8,2006*53
[2021-02-22 16:26:38.477] $GNGGA,072637.90,3713.987033930,N,13701.479643314,E,5,12,1.00,93.442,M,37.566,M,110.9,2006*53
[2021-02-22 16:26:38.570] $GNGGA,072638.00,3713.987037711,N,13701.479636233,E,5,12,1.00,93.455,M,37.566,M,111.0,2006*54
[2021-02-22 16:26:38.680] $GNGGA,072638.10,3713.987040295,N,13701.479632271,E,5,12,1.00,93.458,M,37.566,M,111.1,2006*52
[2021-02-22 16:26:38.789] $GNGGA,072638.20,3713.987043287,N,13701.479631304,E,5,12,1.00,93.454,M,37.566,M,111.2,2006*5E
[2021-02-22 16:26:38.883] $GNGGA,072638.30,3713.987050061,N,13701.479627061,E,5,12,1.00,93.461,M,37.566,M,111.3,2006*57
[2021-02-22 16:26:38.976] $GNGGA,072638.40,3713.987053127,N,13701.479624446,E,5,12,1.00,93.464,M,37.566,M,111.4,2006*50
[2021-02-22 16:26:39.070] $GNGGA,072638.50,3713.987058717,N,13701.479619046,E,5,12,1.00,93.465,M,37.566,M,111.5,2006*55
[2021-02-22 16:26:39.180] $GNGGA,072638.60,3713.987062349,N,13701.479618424,E,5,12,1.00,93.468,M,37.566,M,111.6,2006*5F
[2021-02-22 16:26:39.305] $GNGGA,072638.70,3713.987065702,N,13701.479615126,E,5,12,1.00,93.474,M,37.566,M,111.7,2006*54
[2021-02-22 16:26:39.383] $GNGGA,072638.80,3713.987070916,N,13701.479610908,E,5,12,1.00,93.478,M,37.566,M,111.8,2006*56
[2021-02-22 16:26:39.476] $GNGGA,072638.90,3713.987074601,N,13701.479607478,E,5,12,1.00,93.483,M,37.566,M,111.9,2006*53
[2021-02-22 16:26:39.570] $GNGGA,072639.00,3713.987077535,N,13701.479605841,E,5,12,1.00,93.490,M,37.566,M,112.0,2006*50
[2021-02-22 16:26:39.680] $GNGGA,072639.10,3713.987081977,N,13701.479605485,E,5,12,1.00,93.485,M,37.566,M,112.1,2006*53
[2021-02-22 16:26:39.789] $GNGGA,072639.20,3713.987093883,N,13701.479596484,E,5,12,1.00,93.522,M,37.566,M,112.2,2006*5E
[2021-02-22 16:26:39.883] $GNGGA,072639.30,3713.987098249,N,13701.479596146,E,5,12,1.00,93.522,M,37.566,M,112.3,2006*52
[2021-02-22 16:26:39.976] $GNGGA,072639.40,3713.987101211,N,13701.479594549,E,5,12,1.00,93.523,M,37.566,M,112.4,2006*56
[2021-02-22 16:26:40.070] $GNGGA,072639.50,3713.987105349,N,13701.479590657,E,5,12,1.00,93.523,M,37.566,M,112.5,2006*56
[2021-02-22 16:26:40.180] $GNGGA,072639.60,3713.987109565,N,13701.479587167,E,5,12,1.00,93.524,M,37.566,M,112.6,2006*57
[2021-02-22 16:26:40.289] $GNGGA,072639.70,3713.987113690,N,13701.479585908,E,5,12,1.00,93.514,M,37.566,M,112.7,2006*55
[2021-02-22 16:26:40.383] $GNGGA,072639.80,3713.987114770,N,13701.479590838,E,5,12,1.00,93.504,M,37.566,M,112.8,2006*5A
[2021-02-22 16:26:40.476] $GNGGA,072639.90,3713.987116171,N,13701.479592738,E,5,12,1.00,93.492,M,37.566,M,112.9,2006*5C
[2021-02-22 16:26:40.570] $GNGGA,072640.00,3713.987117202,N,13701.479593044,E,5,12,1.00,93.480,M,37.566,M,113.0,2006*5B
[2021-02-22 16:26:40.679] $GNGGA,072640.10,3713.987113075,N,13701.479600053,E,5,12,1.00,93.452,M,37.566,M,113.1,2006*5D
[2021-02-22 16:26:40.804] $GNGGA,072640.20,3713.987115180,N,13701.479597742,E,5,12,1.00,93.460,M,37.566,M,113.2,2006*5B
[2021-02-22 16:26:40.883] $GNGGA,072640.30,3713.987117434,N,13701.479595675,E,5,12,1.00,93.455,M,37.566,M,113.3,2006*52
[2021-02-22 16:26:40.976] $GNGGA,072640.40,3713.987118068,N,13701.479594288,E,5,12,1.00,93.450,M,37.566,M,113.4,2006*52
[2021-02-22 16:26:41.070] $GNGGA,072640.50,3713.987118460,N,13701.479592014,E,5,12,1.00,93.437,M,37.566,M,113.5,2006*5E
[2021-02-22 16:26:41.179] $GNGGA,072640.60,3713.987122932,N,13701.479586500,E,5,12,1.00,93.451,M,37.566,M,113.6,2006*58
[2021-02-22 16:26:41.304] $GNGGA,072640.70,3713.987123378,N,13701.479584378,E,5,12,1.00,93.445,M,37.566,M,113.7,2006*53
[2021-02-22 16:26:41.383] $GNGGA,072640.80,3713.987127413,N,13701.479581265,E,5,12,1.00,93.441,M,37.566,M,113.8,2006*51
[2021-02-22 16:26:41.476] $GNGGA,072640.90,3713.987131762,N,13701.479575417,E,5,12,1.00,93.443,M,37.566,M,113.9,2006*59
[2021-02-22 16:26:41.586] $GNGGA,072641.00,3713.987132909,N,13701.479572979,E,5,12,1.00,93.442,M,37.566,M,114.0,2006*5C
[2021-02-22 16:26:41.695] $GNGGA,072641.10,3713.987135950,N,13701.479569272,E,5,12,1.00,93.443,M,37.566,M,114.1,2006*5C
[2021-02-22 16:26:41.773] $GNGGA,072641.20,3713.987136921,N,13701.479569875,E,5,12,1.00,93.439,M,37.566,M,114.2,2006*59
[2021-02-22 16:26:41.883] $GNGGA,072641.30,3713.987139773,N,13701.479568780,E,5,12,1.00,93.431,M,37.566,M,114.3,2006*53
[2021-02-22 16:26:41.976] $GNGGA,072641.40,3713.987140885,N,13701.479568860,E,5,12,1.00,93.425,M,37.566,M,114.4,2006*5F
[2021-02-22 16:26:42.101] $GNGGA,072641.50,3713.987140059,N,13701.479571122,E,5,12,1.00,93.413,M,37.566,M,114.5,2006*54
[2021-02-22 16:26:42.179] $GNGGA,072641.60,3713.987138827,N,13701.479573142,E,5,12,1.00,93.400,M,37.566,M,114.6,2006*5C
[2021-02-22 16:26:42.273] $GNGGA,072641.70,3713.987138059,N,13701.479572517,E,5,12,1.00,93.393,M,37.566,M,114.7,2006*55
[2021-02-22 16:26:42.382] $GNGGA,072641.80,3713.987142142,N,13701.479569680,E,5,12,1.00,93.393,M,37.566,M,114.8,2006*54
[2021-02-22 16:26:42.492] $GNGGA,072641.90,3713.987141282,N,13701.479570577,E,5,12,1.00,93.379,M,37.566,M,114.9,2006*5F
[2021-02-22 16:26:42.570] $GNGGA,072642.00,3713.987138705,N,13701.479570782,E,5,12,1.00,93.362,M,37.566,M,115.0,2006*5B
[2021-02-22 16:26:42.679] $GNGGA,072642.10,3713.987136417,N,13701.479573144,E,5,12,1.00,93.345,M,37.566,M,115.1,2006*5F
[2021-02-22 16:26:42.773] $GNGGA,072642.20,3713.987134819,N,13701.479574532,E,5,12,1.00,93.335,M,37.566,M,115.2,2006*5A
[2021-02-22 16:26:42.898] $GNGGA,072642.30,3713.987134837,N,13701.479575005,E,5,12,1.00,93.320,M,37.566,M,115.3,2006*52
[2021-02-22 16:26:42.976] $GNGGA,072642.40,3713.987136139,N,13701.479574683,E,5,12,1.00,93.314,M,37.566,M,115.4,2006*59
[2021-02-22 16:26:43.070] $GNGGA,072642.50,3713.987135585,N,13701.479575874,E,5,12,1.00,93.298,M,37.566,M,115.5,2006*5B
[2021-02-22 16:26:43.179] $GNGGA,072642.60,3713.987135962,N,13701.479577316,E,5,12,1.00,93.290,M,37.566,M,115.6,2006*5B
[2021-02-22 16:26:43.273] $GNGGA,072642.70,3713.987136699,N,13701.479577117,E,5,12,1.00,93.285,M,37.566,M,115.7,2006*54
[2021-02-22 16:26:43.398] $GNGGA,072642.80,3713.987136060,N,13701.479582246,E,5,12,1.00,93.270,M,37.566,M,115.8,2006*53
[2021-02-22 16:26:43.476] $GNGGA,072642.90,3713.987136432,N,13701.479582650,E,5,12,1.00,93.259,M,37.566,M,115.9,2006*58
[2021-02-22 16:26:43.570] $GNGGA,072643.00,3713.987134255,N,13701.479579806,E,5,12,1.00,93.256,M,37.566,M,116.0,2006*59
[2021-02-22 16:26:43.679] $GNGGA,072643.10,3713.987130492,N,13701.479583062,E,5,12,1.00,93.240,M,37.566,M,116.1,2006*58
[2021-02-22 16:26:43.773] $GNGGA,072643.20,3713.987132424,N,13701.479583662,E,5,12,1.00,93.237,M,37.566,M,116.2,2006*51
[2021-02-22 16:26:43.898] $GNGGA,072643.30,3713.987133814,N,13701.479584417,E,5,12,1.00,93.230,M,37.566,M,116.3,2006*5F
[2021-02-22 16:26:43.976] $GNGGA,072643.40,3713.987131734,N,13701.479582314,E,5,12,1.00,93.222,M,37.566,M,116.4,2006*51
[2021-02-22 16:26:44.070] $GNGGA,072643.50,3713.987151046,N,13701.479557045,E,5,12,1.00,93.297,M,37.566,M,116.5,2006*54
[2021-02-22 16:26:44.179] $GNGGA,072643.60,3713.987173684,N,13701.479531115,E,5,12,1.00,93.382,M,37.566,M,116.6,2006*5D
[2021-02-22 16:26:44.273] $GNGGA,072643.70,3713.987189775,N,13701.479506404,E,5,12,1.00,93.460,M,37.566,M,116.7,2006*5D
[2021-02-22 16:26:44.398] $GNGGA,072643.80,3713.987211586,N,13701.479477596,E,5,12,1.00,93.550,M,37.566,M,116.8,2006*5E
[2021-02-22 16:26:44.476] $GNGGA,072643.90,3713.987237083,N,13701.479444450,E,5,12,1.00,93.650,M,37.566,M,116.9,2006*52
[2021-02-22 16:26:44.570] $GNGGA,072644.00,3713.987249109,N,13701.479427476,E,5,12,1.00,93.697,M,37.566,M,117.0,2006*54
[2021-02-22 16:26:44.679] $GNGGA,072644.10,3713.987270309,N,13701.479405128,E,5,12,1.00,93.773,M,37.566,M,117.1,2006*59
[2021-02-22 16:26:44.773] $GNGGA,072644.20,3713.987282835,N,13701.479392594,E,5,12,1.00,93.809,M,37.566,M,117.2,2006*58
[2021-02-22 16:26:44.898] $GNGGA,072644.30,3713.987296756,N,13701.479374206,E,5,12,1.00,93.875,M,37.566,M,117.3,2006*58
[2021-02-22 16:26:44.976] $GNGGA,072644.40,3713.987304139,N,13701.479367343,E,5,12,1.00,93.908,M,37.566,M,117.4,2006*54
[2021-02-22 16:26:45.070] $GNGGA,072644.50,3713.987309886,N,13701.479360974,E,5,12,1.00,93.933,M,37.566,M,117.5,2006*55
[2021-02-22 16:26:45.179] $GNGGA,072644.60,3713.987315999,N,13701.479353639,E,5,12,1.00,93.961,M,37.566,M,117.6,2006*56
[2021-02-22 16:26:45.273] $GNGGA,072644.70,3713.987321321,N,13701.479344398,E,5,12,1.00,93.993,M,37.566,M,117.7,2006*5D
[2021-02-22 16:26:45.398] $GNGGA,072644.80,3713.987329759,N,13701.479336386,E,5,12,1.00,94.024,M,37.566,M,117.8,2006*56
[2021-02-22 16:26:45.476] $GNGGA,072644.90,3713.987336131,N,13701.479331382,E,5,12,1.00,94.048,M,37.566,M,117.9,2006*59
[2021-02-22 16:26:45.570] $GNGGA,072645.00,3713.987343187,N,13701.479325380,E,5,12,1.00,94.075,M,37.566,M,118.0,2006*51
[2021-02-22 16:26:45.679] $GNGGA,072645.10,3713.987350356,N,13701.479318666,E,5,12,1.00,94.105,M,37.566,M,118.1,2006*58
[2021-02-22 16:26:45.773] $GNGGA,072645.20,3713.987355033,N,13701.479312215,E,5,12,1.00,94.124,M,37.566,M,118.2,2006*54
[2021-02-22 16:26:45.898] $GNGGA,072645.30,3713.987361088,N,13701.479305843,E,5,12,1.00,94.150,M,37.566,M,118.3,2006*5F
[2021-02-22 16:26:45.976] $GNGGA,072645.40,3713.987367328,N,13701.479298853,E,5,12,1.00,94.172,M,37.566,M,118.4,2006*54
[2021-02-22 16:26:46.070] $GNGGA,072645.50,3713.987372842,N,13701.479290993,E,5,12,1.00,94.193,M,37.566,M,118.5,2006*5D
[2021-02-22 16:26:46.179] $GNGGA,072645.60,3713.987378277,N,13701.479283133,E,5,12,1.00,94.212,M,37.566,M,118.6,2006*51
[2021-02-22 16:26:46.304] $GNGGA,072645.70,3713.987383534,N,13701.479275858,E,5,12,1.00,94.235,M,37.566,M,118.7,2006*5D
[2021-02-22 16:26:46.382] $GNGGA,072645.80,3713.987389283,N,13701.479269027,E,5,12,1.00,94.256,M,37.566,M,118.8,2006*54
[2021-02-22 16:26:46.476] $GNGGA,072645.90,3713.987393881,N,13701.479260564,E,5,12,1.00,94.279,M,37.566,M,118.9,2006*51
[2021-02-22 16:26:46.585] $GNGGA,072646.00,3713.987397371,N,13701.479254709,E,5,12,1.00,94.299,M,37.566,M,119.0,2006*53
[2021-02-22 16:26:46.695] $GNGGA,072646.10,3713.987400171,N,13701.479250170,E,5,12,1.00,94.315,M,37.566,M,119.1,2006*51
[2021-02-22 16:26:46.773] $GNGGA,072646.20,3713.987405421,N,13701.479245121,E,5,12,1.00,94.333,M,37.566,M,119.2,2006*50
[2021-02-22 16:26:46.882] $GNGGA,072646.30,3713.987410914,N,13701.479239613,E,5,12,1.00,94.354,M,37.566,M,119.3,2006*53
[2021-02-22 16:26:46.976] $GNGGA,072646.40,3713.987417718,N,13701.479232016,E,5,12,1.00,94.379,M,37.566,M,119.4,2006*51
