
[2021-02-22 16:22:04.846] $GNGGA,072155.20,,,,,0,00,99.99,,,,,23.2,*63
[2021-02-22 16:22:04.861] $GNGGA,072155.30,,,,,0,00,99.99,,,,,23.3,*63
[2021-02-22 16:22:04.861] $GNGGA,072155.40,,,,,0,00,99.99,,,,,23.4,*63
[2021-02-22 16:22:04.861] $GNGGA,072155.50,,,,,0,00,99.99,,,,,23.5,*63
[2021-02-22 16:22:04.861] $GNGGA,072155.60,,,,,0,00,99.99,,,,,23.6,*63
[2021-02-22 16:22:04.861] $GNGGA,072155.70,,,,,0,00,99.99,,,,,23.7,*63
[2021-02-22 16:22:04.861] $GNGGA,072155.80,,,,,0,00,99.99,,,,,23.8,*63
[2021-02-22 16:22:04.861] $GNGGA,072155.90,,,,,0,00,99.99,,,,,23.9,*63
[2021-02-22 16:22:04.861] $GNGGA,072156.00,,,,,0,00,99.99,,,,,24.0,*67
[2021-02-22 16:22:04.861] $GNGGA,072156.10,,,,,0,00,99.99,,,,,24.1,*67
[2021-02-22 16:22:04.861] $GNGGA,072156.20,,,,,0,00,99.99,,,,,24.2,*67
[2021-02-22 16:22:04.861] $GNGGA,072156.30,,,,,0,00,99.99,,,,,24.3,*67
[2021-02-22 16:22:04.861] $GNGGA,072156.40,,,,,0,00,99.99,,,,,24.4,*67
[2021-02-22 16:22:04.861] $GNGGA,072156.50,,,,,0,00,99.99,,,,,24.5,*67
[2021-02-22 16:22:04.861] $GNGGA,072156.60,,,,,0,00,99.99,,,,,24.6,*67
[2021-02-22 16:22:04.861] $GNGGA,072156.70,,,,,0,00,99.99,,,,,24.7,*67
[2021-02-22 16:22:04.861] $GNGGA,072156.80,,,,,0,00,99.99,,,,,24.8,*67
[2021-02-22 16:22:04.861] $GNGGA,072156.90,,,,,0,00,99.99,,,,,24.9,*67
[2021-02-22 16:22:04.861] $GNGGA,072157.00,,,,,0,00,99.99,,,,,25.0,*67
[2021-02-22 16:22:04.861] $GNGGA,072157.10,,,,,0,00,99.99,,,,,25.1,*67
[2021-02-22 16:22:04.861] $GNGGA,072157.20,,,,,0,00,99.99,,,,,25.2,*67
[2021-02-22 16:22:04.861] $GNGGA,072157.30,,,,,0,00,99.99,,,,,25.3,*67
[2021-02-22 16:22:04.861] $GNGGA,072157.40,,,,,0,00,99.99,,,,,25.4,*67
[2021-02-22 16:22:04.861] $GNGGA,072157.50,,,,,0,00,99.99,,,,,25.5,*67
[2021-02-22 16:22:04.877] $GNGGA,072157.60,,,,,0,00,99.99,,,,,25.6,*67
[2021-02-22 16:22:04.877] $GNGGA,072157.70,,,,,0,00,99.99,,,,,25.7,*67
[2021-02-22 16:22:04.877] $GNGGA,072157.80,,,,,0,00,99.99,,,,,25.8,*67
[2021-02-22 16:22:04.877] $GNGGA,072157.90,,,,,0,00,99.99,,,,,25.9,*67
[2021-02-22 16:22:04.877] $GNGGA,072158.00,,,,,0,00,99.99,,,,,26.0,*6B
[2021-02-22 16:22:04.877] $GNGGA,072158.10,,,,,0,00,99.99,,,,,26.1,*6B
[2021-02-22 16:22:04.877] $GNGGA,072158.20,,,,,0,00,99.99,,,,,26.2,*6B
[2021-02-22 16:22:04.877] $GNGGA,072158.30,,,,,0,00,99.99,,,,,26.3,*6B
[2021-02-22 16:22:04.877] $GNGGA,072158.40,,,,,0,00,99.99,,,,,26.4,*6B
[2021-02-22 16:22:04.877] $GNGGA,072158.50,,,,,0,00,99.99,,,,,26.5,*6B
[2021-02-22 16:22:04.877] $GNGGA,072158.60,,,,,0,00,99.99,,,,,26.6,*6B
[2021-02-22 16:22:04.877] $GNGGA,072158.70,,,,,0,00,99.99,,,,,26.7,*6B
[2021-02-22 16:22:04.877] $GNGGA,072158.80,,,,,0,00,99.99,,,,,26.8,*6B
[2021-02-22 16:22:04.877] $GNGGA,072158.90,,,,,0,00,99.99,,,,,26.9,*6B
[2021-02-22 16:22:04.877] $GNGGA,072159.00,,,,,0,00,99.99,,,,,27.0,*6B
[2021-02-22 16:22:04.877] $GNGGA,072159.10,,,,,0,00,99.99,,,,,27.1,*6B
[2021-02-22 16:22:04.877] $GNGGA,072159.20,,,,,0,00,99.99,,,,,27.2,*6B
[2021-02-22 16:22:04.877] $GNGGA,072159.30,,,,,0,00,99.99,,,,,27.3,*6B
[2021-02-22 16:22:04.877] $GNGGA,072159.40,,,,,0,00,99.99,,,,,27.4,*6B
[2021-02-22 16:22:04.877] $GNGGA,072159.50,,,,,0,00,99.99,,,,,27.5,*6B
[2021-02-22 16:22:04.877] $GNGGA,072159.60,,,,,0,00,99.99,,,,,27.6,*6B
[2021-02-22 16:22:04.877] $GNGGA,072159.70,,,,,0,00,99.99,,,,,27.7,*6B
[2021-02-22 16:22:04.892] $GNGGA,072159.80,,,,,0,00,99.99,,,,,27.8,*6B
[2021-02-22 16:22:04.892] $GNGGA,072159.90,,,,,0,00,99.99,,,,,27.9,*6B
[2021-02-22 16:22:04.892] $GNGGA,072200.00,,,,,0,00,99.99,,,,,28.0,*6B
[2021-02-22 16:22:04.892] $GNGGA,072200.10,,,,,0,00,99.99,,,,,28.1,*6B
[2021-02-22 16:22:04.892] $GNGGA,072200.20,,,,,0,00,99.99,,,,,28.2,*6B
[2021-02-22 16:22:04.892] $GNGGA,072200.30,,,,,0,00,99.99,,,,,28.3,*6B
[2021-02-22 16:22:04.892] $GNGGA,072200.40,,,,,0,00,99.99,,,,,28.4,*6B
[2021-02-22 16:22:04.892] $GNGGA,072200.50,,,,,0,00,99.99,,,,,28.5,*6B
[2021-02-22 16:22:04.892] $GNGGA,072200.60,,,,,0,00,99.99,,,,,28.6,*6B
[2021-02-22 16:22:04.892] $GNGGA,072200.70,,,,,0,00,99.99,,,,,28.7,*6B
[2021-02-22 16:22:04.892] $GNGGA,072200.80,,,,,0,00,99.99,,,,,28.8,*6B
[2021-02-22 16:22:04.892] $GNGGA,072200.90,,,,,0,00,99.99,,,,,28.9,*6B
[2021-02-22 16:22:04.892] $GNGGA,072201.00,,,,,0,00,99.99,,,,,29.0,*6B
[2021-02-22 16:22:04.892] $GNGGA,072201.10,,,,,0,00,99.99,,,,,29.1,*6B
[2021-02-22 16:22:04.892] $GNGGA,072201.20,,,,,0,00,99.99,,,,,29.2,*6B
[2021-02-22 16:22:04.892] $GNGGA,072201.30,,,,,0,00,99.99,,,,,29.3,*6B
[2021-02-22 16:22:04.892] $GNGGA,072201.40,,,,,0,00,99.99,,,,,29.4,*6B
[2021-02-22 16:22:04.892] $GNGGA,072201.50,,,,,0,00,99.99,,,,,29.5,*6B
[2021-02-22 16:22:04.892] $GNGGA,072201.60,,,,,0,00,99.99,,,,,29.6,*6B
[2021-02-22 16:22:04.892] $GNGGA,072201.70,,,,,0,00,99.99,,,,,29.7,*6B
[2021-02-22 16:22:04.892] $GNGGA,072201.80,,,,,0,00,99.99,,,,,29.8,*6B
[2021-02-22 16:22:04.892] $GNGGA,072201.90,,,,,0,00,99.99,,,,,29.9,*6B
[2021-02-22 16:22:04.908] $GNGGA,072202.00,,,,,0,00,99.99,,,,,30.0,*60
[2021-02-22 16:22:04.908] $GNGGA,072202.10,,,,,0,00,99.99,,,,,30.1,*60
[2021-02-22 16:22:04.908] $GNGGA,072202.20,,,,,0,00,99.99,,,,,30.2,*60
[2021-02-22 16:22:04.908] $GNGGA,072202.30,,,,,0,00,99.99,,,,,30.3,*60
[2021-02-22 16:22:04.908] $GNGGA,072202.40,,,,,0,00,99.99,,,,,30.4,*60
[2021-02-22 16:22:04.908] $GNGGA,072202.50,,,,,0,00,99.99,,,,,30.5,*60
[2021-02-22 16:22:04.908] $GNGGA,072202.60,,,,,0,00,99.99,,,,,30.6,*60
[2021-02-22 16:22:04.908] $GNGGA,072202.70,,,,,0,00,99.99,,,,,30.7,*60
[2021-02-22 16:22:04.908] $GNGGA,072202.80,,,,,0,00,99.99,,,,,30.8,*60
[2021-02-22 16:22:04.908] $GNGGA,072202.90,,,,,0,00,99.99,,,,,30.9,*60
[2021-02-22 16:22:04.908] $GNGGA,072203.00,,,,,0,00,99.99,,,,,31.0,*60
[2021-02-22 16:22:04.908] $GNGGA,072203.10,,,,,0,00,99.99,,,,,31.1,*60
[2021-02-22 16:22:04.908] $GNGGA,072203.20,,,,,0,00,99.99,,,,,31.2,*60
[2021-02-22 16:22:04.908] $GNGGA,072203.30,,,,,0,00,99.99,,,,,31.3,*60
[2021-02-22 16:22:04.908] $GNGGA,072203.40,,,,,0,00,99.99,,,,,31.4,*60
[2021-02-22 16:22:04.908] $GNGGA,072203.50,,,,,0,00,99.99,,,,,31.5,*60
[2021-02-22 16:22:04.908] $GNGGA,072203.60,,,,,0,00,99.99,,,,,31.6,*60
[2021-02-22 16:22:04.908] $GNGGA,072203.70,,,,,0,00,99.99,,,,,31.7,*60
[2021-02-22 16:22:04.908] $GNGGA,072203.80,,,,,0,00,99.99,,,,,31.8,*60
[2021-02-22 16:22:04.908] $GNGGA,072203.90,,,,,0,00,99.99,,,,,31.9,*60
[2021-02-22 16:22:04.908] $GNGGA,072204.00,,,,,0,00,99.99,,,,,32.0,*64
[2021-02-22 16:22:04.908] $GNGGA,072204.10,,,,,0,00,99.99,,,,,32.1,*64
[2021-02-22 16:22:04.908] $GNGGA,072204.20,,,,,0,00,99.99,,,,,32.2,*64
[2021-02-22 16:22:04.908] $GNGGA,072204.30,,,,,0,00,99.99,,,,,32.3,*64
[2021-02-22 16:22:04.986] $GNGGA,072204.40,,,,,0,00,99.99,,,,,32.4,*64
[2021-02-22 16:22:05.080] $GNGGA,072204.50,,,,,0,00,99.99,,,,,32.5,*64
[2021-02-22 16:22:05.174] $GNGGA,072204.60,,,,,0,00,99.99,,,,,32.6,*64
[2021-02-22 16:22:05.299] $GNGGA,072204.70,,,,,0,00,99.99,,,,,32.7,*64
[2021-02-22 16:22:05.393] $GNGGA,072204.80,,,,,0,00,99.99,,,,,32.8,*64
[2021-02-22 16:22:05.486] $GNGGA,072204.90,,,,,0,00,99.99,,,,,32.9,*64
[2021-02-22 16:22:05.580] $GNGGA,072205.00,,,,,0,00,99.99,,,,,33.0,*64
[2021-02-22 16:22:05.689] $GNGGA,072205.10,,,,,0,00,99.99,,,,,33.1,*64
[2021-02-22 16:22:05.783] $GNGGA,072205.20,,,,,0,00,99.99,,,,,33.2,*64
[2021-02-22 16:22:05.877] $GNGGA,072205.30,,,,,0,00,99.99,,,,,33.3,*64
[2021-02-22 16:22:05.986] $GNGGA,072205.40,,,,,0,00,99.99,,,,,33.4,*64
[2021-02-22 16:22:06.096] $GNGGA,072205.50,,,,,0,00,99.99,,,,,33.5,*64
[2021-02-22 16:22:06.189] $GNGGA,072205.60,,,,,0,00,99.99,,,,,33.6,*64
[2021-02-22 16:22:06.283] $GNGGA,072205.70,,,,,0,00,99.99,,,,,33.7,*64
[2021-02-22 16:22:06.377] $GNGGA,072205.80,,,,,0,00,99.99,,,,,33.8,*64
[2021-02-22 16:22:06.486] $GNGGA,072205.90,,,,,0,00,99.99,,,,,33.9,*64
[2021-02-22 16:22:06.580] $GNGGA,072206.00,,,,,0,00,99.99,,,,,34.0,*60
[2021-02-22 16:22:06.689] $GNGGA,072206.10,,,,,0,00,99.99,,,,,34.1,*60
[2021-02-22 16:22:06.783] $GNGGA,072206.20,,,,,0,00,99.99,,,,,34.2,*60
[2021-02-22 16:22:06.892] $GNGGA,072206.30,,,,,0,00,99.99,,,,,34.3,*60
[2021-02-22 16:22:06.986] $GNGGA,072206.40,,,,,0,00,99.99,,,,,34.4,*60
[2021-02-22 16:22:07.080] $GNGGA,072206.50,,,,,0,00,99.99,,,,,34.5,*60
[2021-02-22 16:22:07.174] $GNGGA,072206.60,,,,,0,00,99.99,,,,,34.6,*60
[2021-02-22 16:22:07.299] $GNGGA,072206.70,,,,,0,00,99.99,,,,,34.7,*60
[2021-02-22 16:22:07.392] $GNGGA,072206.80,,,,,0,00,99.99,,,,,34.8,*60
[2021-02-22 16:22:07.486] $GNGGA,072206.90,,,,,0,00,99.99,,,,,34.9,*60
[2021-02-22 16:22:07.580] $GNGGA,072207.00,,,,,0,00,99.99,,,,,35.0,*60
[2021-02-22 16:22:07.689] $GNGGA,072207.10,,,,,0,00,99.99,,,,,35.1,*60
[2021-02-22 16:22:07.783] $GNGGA,072207.20,,,,,0,00,99.99,,,,,35.2,*60
[2021-02-22 16:22:07.877] $GNGGA,072207.30,,,,,0,00,99.99,,,,,35.3,*60
[2021-02-22 16:22:07.986] $GNGGA,072207.40,,,,,0,00,99.99,,,,,35.4,*60
[2021-02-22 16:22:08.095] $GNGGA,072207.50,,,,,0,00,99.99,,,,,35.5,*60
[2021-02-22 16:22:08.189] $GNGGA,072207.60,,,,,0,00,99.99,,,,,35.6,*60
[2021-02-22 16:22:08.283] $GNGGA,072207.70,,,,,0,00,99.99,,,,,35.7,*60
[2021-02-22 16:22:08.377] $GNGGA,072207.80,,,,,0,00,99.99,,,,,35.8,*60
[2021-02-22 16:22:08.486] $GNGGA,072207.90,,,,,0,00,99.99,,,,,35.9,*60
[2021-02-22 16:22:08.580] $GNGGA,072208.00,,,,,0,00,99.99,,,,,36.0,*6C
[2021-02-22 16:22:08.689] $GNGGA,072208.10,,,,,0,00,99.99,,,,,36.1,*6C
[2021-02-22 16:22:08.783] $GNGGA,072208.20,,,,,0,00,99.99,,,,,36.2,*6C
[2021-02-22 16:22:08.892] $GNGGA,072208.30,,,,,0,00,99.99,,,,,36.3,*6C
[2021-02-22 16:22:08.986] $GNGGA,072208.40,,,,,0,00,99.99,,,,,36.4,*6C
[2021-02-22 16:22:09.080] $GNGGA,072208.50,,,,,0,00,99.99,,,,,36.5,*6C
[2021-02-22 16:22:09.173] $GNGGA,072208.60,,,,,0,00,99.99,,,,,36.6,*6C
[2021-02-22 16:22:09.283] $GNGGA,072208.70,,,,,0,00,99.99,,,,,36.7,*6C
[2021-02-22 16:22:09.392] $GNGGA,072208.80,,,,,0,00,99.99,,,,,36.8,*6C
[2021-02-22 16:22:09.486] $GNGGA,072208.90,,,,,0,00,99.99,,,,,36.9,*6C
[2021-02-22 16:22:09.580] $GNGGA,072209.00,,,,,0,00,99.99,,,,,37.0,*6C
[2021-02-22 16:22:09.689] $GNGGA,072209.10,,,,,0,00,99.99,,,,,37.1,*6C
[2021-02-22 16:22:09.783] $GNGGA,072209.20,,,,,0,00,99.99,,,,,37.2,*6C
[2021-02-22 16:22:09.877] $GNGGA,072209.30,,,,,0,00,99.99,,,,,37.3,*6C
[2021-02-22 16:22:09.986] $GNGGA,072209.40,,,,,0,00,99.99,,,,,37.4,*6C
[2021-02-22 16:22:10.095] $GNGGA,072209.50,,,,,0,00,99.99,,,,,37.5,*6C
[2021-02-22 16:22:10.189] $GNGGA,072209.60,,,,,0,00,99.99,,,,,37.6,*6C
[2021-02-22 16:22:10.283] $GNGGA,072209.70,,,,,0,00,99.99,,,,,37.7,*6C
[2021-02-22 16:22:10.377] $GNGGA,072209.80,,,,,0,00,99.99,,,,,37.8,*6C
[2021-02-22 16:22:10.486] $GNGGA,072209.90,,,,,0,00,99.99,,,,,37.9,*6C
[2021-02-22 16:22:10.580] $GNGGA,072210.00,,,,,0,00,99.99,,,,,38.0,*6B
[2021-02-22 16:22:10.689] $GNGGA,072210.10,,,,,0,00,99.99,,,,,38.1,*6B
[2021-02-22 16:22:10.783] $GNGGA,072210.20,,,,,0,00,99.99,,,,,38.2,*6B
[2021-02-22 16:22:10.892] $GNGGA,072210.30,,,,,0,00,99.99,,,,,38.3,*6B
[2021-02-22 16:22:10.986] $GNGGA,072210.40,,,,,0,00,99.99,,,,,38.4,*6B
[2021-02-22 16:22:11.080] $GNGGA,072210.50,,,,,0,00,99.99,,,,,38.5,*6B
[2021-02-22 16:22:11.173] $GNGGA,072210.60,,,,,0,00,99.99,,,,,38.6,*6B
[2021-02-22 16:22:11.283] $GNGGA,072210.70,,,,,0,00,99.99,,,,,38.7,*6B
[2021-02-22 16:22:11.392] $GNGGA,072210.80,,,,,0,00,99.99,,,,,38.8,*6B
[2021-02-22 16:22:11.486] $GNGGA,072210.90,,,,,0,00,99.99,,,,,38.9,*6B
[2021-02-22 16:22:11.580] $GNGGA,072211.00,,,,,0,00,99.99,,,,,39.0,*6B
[2021-02-22 16:22:11.689] $GNGGA,072211.10,,,,,0,00,99.99,,,,,39.1,*6B
[2021-02-22 16:22:11.783] $GNGGA,072211.20,,,,,0,00,99.99,,,,,39.2,*6B
[2021-02-22 16:22:11.876] $GNGGA,072211.30,,,,,0,00,99.99,,,,,39.3,*6B
[2021-02-22 16:22:11.970] $GNGGA,072211.40,,,,,0,00,99.99,,,,,39.4,*6B
[2021-02-22 16:22:12.095] $GNGGA,072211.50,,,,,0,00,99.99,,,,,39.5,*6B
[2021-02-22 16:22:12.189] $GNGGA,072211.60,,,,,0,00,99.99,,,,,39.6,*6B
[2021-02-22 16:22:12.283] $GNGGA,072211.70,,,,,0,00,99.99,,,,,39.7,*6B
[2021-02-22 16:22:12.376] $GNGGA,072211.80,,,,,0,00,99.99,,,,,39.8,*6B
[2021-02-22 16:22:12.486] $GNGGA,072211.90,,,,,0,00,99.99,,,,,39.9,*6B
[2021-02-22 16:22:12.580] $GNGGA,072212.00,,,,,0,00,99.99,,,,,40.0,*66
[2021-02-22 16:22:12.689] $GNGGA,072212.10,,,,,0,00,99.99,,,,,40.1,*66
[2021-02-22 16:22:12.783] $GNGGA,072212.20,,,,,0,00,99.99,,,,,40.2,*66
[2021-02-22 16:22:12.892] $GNGGA,072212.30,,,,,0,00,99.99,,,,,40.3,*66
[2021-02-22 16:22:12.986] $GNGGA,072212.40,,,,,0,00,99.99,,,,,40.4,*66
[2021-02-22 16:22:13.079] $GNGGA,072212.50,,,,,0,00,99.99,,,,,40.5,*66
[2021-02-22 16:22:13.173] $GNGGA,072212.60,,,,,0,00,99.99,,,,,40.6,*66
[2021-02-22 16:22:13.283] $GNGGA,072212.70,,,,,0,00,99.99,,,,,40.7,*66
[2021-02-22 16:22:13.392] $GNGGA,072212.80,,,,,0,00,99.99,,,,,40.8,*66
[2021-02-22 16:22:13.486] $GNGGA,072212.90,,,,,0,00,99.99,,,,,40.9,*66
[2021-02-22 16:22:13.579] $GNGGA,072213.00,,,,,0,00,99.99,,,,,41.0,*66
[2021-02-22 16:22:13.689] $GNGGA,072213.10,,,,,0,00,99.99,,,,,41.1,*66
[2021-02-22 16:22:13.783] $GNGGA,072213.20,,,,,0,00,99.99,,,,,41.2,*66
[2021-02-22 16:22:13.876] $GNGGA,072213.30,,,,,0,00,99.99,,,,,41.3,*66
[2021-02-22 16:22:13.970] $GNGGA,072213.40,,,,,0,00,99.99,,,,,41.4,*66
[2021-02-22 16:22:14.095] $GNGGA,072213.50,,,,,0,00,99.99,,,,,41.5,*66
[2021-02-22 16:22:14.189] $GNGGA,072213.60,,,,,0,00,99.99,,,,,41.6,*66
[2021-02-22 16:22:14.283] $GNGGA,072213.70,,,,,0,00,99.99,,,,,41.7,*66
[2021-02-22 16:22:14.376] $GNGGA,072213.80,,,,,0,00,99.99,,,,,41.8,*66
[2021-02-22 16:22:14.486] $GNGGA,072213.90,,,,,0,00,99.99,,,,,41.9,*66
[2021-02-22 16:22:14.579] $GNGGA,072214.00,,,,,0,00,99.99,,,,,42.0,*62
[2021-02-22 16:22:14.689] $GNGGA,072214.10,,,,,0,00,99.99,,,,,42.1,*62
[2021-02-22 16:22:14.782] $GNGGA,072214.20,,,,,0,00,99.99,,,,,42.2,*62
[2021-02-22 16:22:14.892] $GNGGA,072214.30,,,,,0,00,99.99,,,,,42.3,*62
[2021-02-22 16:22:14.986] $GNGGA,072214.40,,,,,0,00,99.99,,,,,42.4,*62
[2021-02-22 16:22:15.079] $GNGGA,072214.50,,,,,0,00,99.99,,,,,42.5,*62
[2021-02-22 16:22:15.173] $GNGGA,072214.60,,,,,0,00,99.99,,,,,42.6,*62
[2021-02-22 16:22:15.282] $GNGGA,072214.70,,,,,0,00,99.99,,,,,42.7,*62
[2021-02-22 16:22:15.392] $GNGGA,072214.80,,,,,0,00,99.99,,,,,42.8,*62
[2021-02-22 16:22:15.486] $GNGGA,072214.90,,,,,0,00,99.99,,,,,42.9,*62
[2021-02-22 16:22:15.579] $GNGGA,072215.00,,,,,0,00,99.99,,,,,43.0,*62
[2021-02-22 16:22:15.689] $GNGGA,072215.10,,,,,0,00,99.99,,,,,43.1,*62
[2021-02-22 16:22:15.782] $GNGGA,072215.20,,,,,0,00,99.99,,,,,43.2,*62
[2021-02-22 16:22:15.876] $GNGGA,072215.30,,,,,0,00,99.99,,,,,43.3,*62
[2021-02-22 16:22:15.970] $GNGGA,072215.40,,,,,0,00,99.99,,,,,43.4,*62
[2021-02-22 16:22:16.095] $GNGGA,072215.50,,,,,0,00,99.99,,,,,43.5,*62
[2021-02-22 16:22:16.189] $GNGGA,072215.60,,,,,0,00,99.99,,,,,43.6,*62
[2021-02-22 16:22:16.282] $GNGGA,072215.70,,,,,0,00,99.99,,,,,43.7,*62
[2021-02-22 16:22:16.376] $GNGGA,072215.80,,,,,0,00,99.99,,,,,43.8,*62
[2021-02-22 16:22:16.485] $GNGGA,072215.90,,,,,0,00,99.99,,,,,43.9,*62
[2021-02-22 16:22:16.579] $GNGGA,072216.00,,,,,0,00,99.99,,,,,44.0,*66
[2021-02-22 16:22:16.689] $GNGGA,072216.10,,,,,0,00,99.99,,,,,44.1,*66
[2021-02-22 16:22:16.782] $GNGGA,072216.20,,,,,0,00,99.99,,,,,44.2,*66
[2021-02-22 16:22:16.892] $GNGGA,072216.30,,,,,0,00,99.99,,,,,44.3,*66
[2021-02-22 16:22:16.985] $GNGGA,072216.40,,,,,0,00,99.99,,,,,44.4,*66
[2021-02-22 16:22:17.079] $GNGGA,072216.50,,,,,0,00,99.99,,,,,44.5,*66
[2021-02-22 16:22:17.173] $GNGGA,072216.60,,,,,0,00,99.99,,,,,44.6,*66
[2021-02-22 16:22:17.282] $GNGGA,072216.70,,,,,0,00,99.99,,,,,44.7,*66
[2021-02-22 16:22:17.392] $GNGGA,072216.80,,,,,0,00,99.99,,,,,44.8,*66
[2021-02-22 16:22:17.485] $GNGGA,072216.90,,,,,0,00,99.99,,,,,44.9,*66
[2021-02-22 16:22:17.579] $GNGGA,072217.00,,,,,0,00,99.99,,,,,45.0,*66
[2021-02-22 16:22:17.689] $GNGGA,072217.10,,,,,0,00,99.99,,,,,45.1,*66
[2021-02-22 16:22:17.782] $GNGGA,072217.20,,,,,0,00,99.99,,,,,45.2,*66
[2021-02-22 16:22:17.876] $GNGGA,072217.30,,,,,0,00,99.99,,,,,45.3,*66
[2021-02-22 16:22:17.970] $GNGGA,072217.40,,,,,0,00,99.99,,,,,45.4,*66
[2021-02-22 16:22:18.095] $GNGGA,072217.50,,,,,0,00,99.99,,,,,45.5,*66
[2021-02-22 16:22:18.188] $GNGGA,072217.60,,,,,0,00,99.99,,,,,45.6,*66
[2021-02-22 16:22:18.282] $GNGGA,072217.70,,,,,0,00,99.99,,,,,45.7,*66
[2021-02-22 16:22:18.376] $GNGGA,072217.80,,,,,0,00,99.99,,,,,45.8,*66
[2021-02-22 16:22:18.485] $GNGGA,072217.90,,,,,0,00,99.99,,,,,45.9,*66
[2021-02-22 16:22:18.579] $GNGGA,072218.00,,,,,0,00,99.99,,,,,46.0,*6A
[2021-02-22 16:22:18.673] $GNGGA,072218.10,,,,,0,00,99.99,,,,,46.1,*6A
[2021-02-22 16:22:18.782] $GNGGA,072218.20,,,,,0,00,99.99,,,,,46.2,*6A
[2021-02-22 16:22:18.892] $GNGGA,072218.30,,,,,0,00,99.99,,,,,46.3,*6A
[2021-02-22 16:22:18.985] $GNGGA,072218.40,,,,,0,00,99.99,,,,,46.4,*6A
[2021-02-22 16:22:19.079] $GNGGA,072218.50,,,,,0,00,99.99,,,,,46.5,*6A
[2021-02-22 16:22:19.173] $GNGGA,072218.60,,,,,0,00,99.99,,,,,46.6,*6A
[2021-02-22 16:22:19.282] $GNGGA,072218.70,,,,,0,00,99.99,,,,,46.7,*6A
[2021-02-22 16:22:19.391] $GNGGA,072218.80,,,,,0,00,99.99,,,,,46.8,*6A
[2021-02-22 16:22:19.485] $GNGGA,072218.90,,,,,0,00,99.99,,,,,46.9,*6A
[2021-02-22 16:22:19.579] $GNGGA,072219.00,,,,,0,00,99.99,,,,,47.0,*6A
[2021-02-22 16:22:19.688] $GNGGA,072219.10,,,,,0,00,99.99,,,,,47.1,*6A
[2021-02-22 16:22:19.782] $GNGGA,072219.20,,,,,0,00,99.99,,,,,47.2,*6A
[2021-02-22 16:22:19.876] $GNGGA,072219.30,,,,,0,00,99.99,,,,,47.3,*6A
[2021-02-22 16:22:19.970] $GNGGA,072219.40,,,,,0,00,99.99,,,,,47.4,*6A
[2021-02-22 16:22:20.095] $GNGGA,072219.50,,,,,0,00,99.99,,,,,47.5,*6A
[2021-02-22 16:22:20.188] $GNGGA,072219.60,,,,,0,00,99.99,,,,,47.6,*6A
[2021-02-22 16:22:20.282] $GNGGA,072219.70,,,,,0,00,99.99,,,,,47.7,*6A
[2021-02-22 16:22:20.376] $GNGGA,072219.80,,,,,0,00,99.99,,,,,47.8,*6A
[2021-02-22 16:22:20.485] $GNGGA,072219.90,,,,,0,00,99.99,,,,,47.9,*6A
[2021-02-22 16:22:20.579] $GNGGA,072220.00,,,,,0,00,99.99,,,,,48.0,*6F
[2021-02-22 16:22:20.673] $GNGGA,072220.10,,,,,0,00,99.99,,,,,48.1,*6F
[2021-02-22 16:22:20.782] $GNGGA,072220.20,,,,,0,00,99.99,,,,,48.2,*6F
[2021-02-22 16:22:20.891] $GNGGA,072220.30,,,,,0,00,99.99,,,,,48.3,*6F
[2021-02-22 16:22:20.985] $GNGGA,072220.40,,,,,0,00,99.99,,,,,48.4,*6F
[2021-02-22 16:22:21.079] $GNGGA,072220.50,,,,,0,00,99.99,,,,,48.5,*6F
[2021-02-22 16:22:21.173] $GNGGA,072220.60,,,,,0,00,99.99,,,,,48.6,*6F
[2021-02-22 16:22:21.282] $GNGGA,072220.70,,,,,0,00,99.99,,,,,48.7,*6F
[2021-02-22 16:22:21.391] $GNGGA,072220.80,,,,,0,00,99.99,,,,,48.8,*6F
[2021-02-22 16:22:21.485] $GNGGA,072220.90,,,,,0,00,99.99,,,,,48.9,*6F
[2021-02-22 16:22:21.579] $GNGGA,072221.00,,,,,0,00,99.99,,,,,49.0,*6F
[2021-02-22 16:22:21.688] $GNGGA,072221.10,,,,,0,00,99.99,,,,,49.1,*6F
[2021-02-22 16:22:21.782] $GNGGA,072221.20,,,,,0,00,99.99,,,,,49.2,*6F
[2021-02-22 16:22:21.876] $GNGGA,072221.30,,,,,0,00,99.99,,,,,49.3,*6F
[2021-02-22 16:22:21.985] $GNGGA,072221.40,,,,,0,00,99.99,,,,,49.4,*6F
[2021-02-22 16:22:22.094] $GNGGA,072221.50,,,,,0,00,99.99,,,,,49.5,*6F
[2021-02-22 16:22:22.188] $GNGGA,072221.60,,,,,0,00,99.99,,,,,49.6,*6F
[2021-02-22 16:22:22.282] $GNGGA,072221.70,,,,,0,00,99.99,,,,,49.7,*6F
[2021-02-22 16:22:22.391] $GNGGA,072221.80,,,,,0,00,99.99,,,,,49.8,*6F
[2021-02-22 16:22:22.485] $GNGGA,072221.90,,,,,0,00,99.99,,,,,49.9,*6F
[2021-02-22 16:22:22.579] $GNGGA,072222.00,,,,,0,00,99.99,,,,,50.0,*64
[2021-02-22 16:22:22.673] $GNGGA,072222.10,,,,,0,00,99.99,,,,,50.1,*64
[2021-02-22 16:22:22.798] $GNGGA,072222.20,,,,,0,00,99.99,,,,,50.2,*64
[2021-02-22 16:22:22.891] $GNGGA,072222.30,,,,,0,00,99.99,,,,,50.3,*64
[2021-02-22 16:22:22.985] $GNGGA,072222.40,,,,,0,00,99.99,,,,,50.4,*64
[2021-02-22 16:22:23.079] $GNGGA,072222.50,,,,,0,00,99.99,,,,,50.5,*64
[2021-02-22 16:22:23.188] $GNGGA,072222.60,,,,,0,00,99.99,,,,,50.6,*64
[2021-02-22 16:22:23.282] $GNGGA,072222.70,,,,,0,00,99.99,,,,,50.7,*64
[2021-02-22 16:22:23.376] $GNGGA,072222.80,,,,,0,00,99.99,,,,,50.8,*64
[2021-02-22 16:22:23.485] $GNGGA,072222.90,,,,,0,00,99.99,,,,,50.9,*64
[2021-02-22 16:22:23.594] $GNGGA,072223.00,,,,,0,00,99.99,,,,,51.0,*64
[2021-02-22 16:22:23.688] $GNGGA,072223.10,,,,,0,00,99.99,,,,,51.1,*64
[2021-02-22 16:22:23.782] $GNGGA,072223.20,,,,,0,00,99.99,,,,,51.2,*64
[2021-02-22 16:22:23.876] $GNGGA,072223.30,,,,,0,00,99.99,,,,,51.3,*64
[2021-02-22 16:22:23.985] $GNGGA,072223.40,,,,,0,00,99.99,,,,,51.4,*64
[2021-02-22 16:22:24.094] $GNGGA,072223.50,,,,,0,00,99.99,,,,,51.5,*64
[2021-02-22 16:22:24.188] $GNGGA,072223.60,,,,,0,00,99.99,,,,,51.6,*64
[2021-02-22 16:22:24.282] $GNGGA,072223.70,,,,,0,00,99.99,,,,,51.7,*64
[2021-02-22 16:22:24.391] $GNGGA,072223.80,,,,,0,00,99.99,,,,,51.8,*64
[2021-02-22 16:22:24.485] $GNGGA,072223.90,,,,,0,00,99.99,,,,,51.9,*64
[2021-02-22 16:22:24.579] $GNGGA,072224.00,,,,,0,00,99.99,,,,,52.0,*60
[2021-02-22 16:22:24.672] $GNGGA,072224.10,,,,,0,00,99.99,,,,,52.1,*60
[2021-02-22 16:22:24.797] $GNGGA,072224.20,,,,,0,00,99.99,,,,,52.2,*60
[2021-02-22 16:22:24.891] $GNGGA,072224.30,,,,,0,00,99.99,,,,,52.3,*60
[2021-02-22 16:22:24.985] $GNGGA,072224.40,,,,,0,00,99.99,,,,,52.4,*60
[2021-02-22 16:22:25.079] $GNGGA,072224.50,,,,,0,00,99.99,,,,,52.5,*60
[2021-02-22 16:22:25.188] $GNGGA,072224.60,,,,,0,00,99.99,,,,,52.6,*60
[2021-02-22 16:22:25.282] $GNGGA,072224.70,,,,,0,00,99.99,,,,,52.7,*60
[2021-02-22 16:22:25.375] $GNGGA,072224.80,,,,,0,00,99.99,,,,,52.8,*60
[2021-02-22 16:22:25.485] $GNGGA,072224.90,,,,,0,00,99.99,,,,,52.9,*60
[2021-02-22 16:22:25.594] $GNGGA,072225.00,,,,,0,00,99.99,,,,,53.0,*60
[2021-02-22 16:22:25.688] $GNGGA,072225.10,,,,,0,00,99.99,,,,,53.1,*60
[2021-02-22 16:22:25.782] $GNGGA,072225.20,,,,,0,00,99.99,,,,,53.2,*60
[2021-02-22 16:22:25.875] $GNGGA,072225.30,,,,,0,00,99.99,,,,,53.3,*60
[2021-02-22 16:22:25.985] $GNGGA,072225.40,,,,,0,00,99.99,,,,,53.4,*60
[2021-02-22 16:22:26.094] $GNGGA,072225.50,,,,,0,00,99.99,,,,,53.5,*60
[2021-02-22 16:22:26.188] $GNGGA,072225.60,,,,,0,00,99.99,,,,,53.6,*60
[2021-02-22 16:22:26.282] $GNGGA,072225.70,,,,,0,00,99.99,,,,,53.7,*60
[2021-02-22 16:22:26.391] $GNGGA,072225.80,,,,,0,00,99.99,,,,,53.8,*60
[2021-02-22 16:22:26.485] $GNGGA,072225.90,,,,,0,00,99.99,,,,,53.9,*60
[2021-02-22 16:22:26.579] $GNGGA,072226.00,,,,,0,00,99.99,,,,,54.0,*64
[2021-02-22 16:22:26.672] $GNGGA,072226.10,,,,,0,00,99.99,,,,,54.1,*64
[2021-02-22 16:22:26.797] $GNGGA,072226.20,,,,,0,00,99.99,,,,,54.2,*64
[2021-02-22 16:22:26.891] $GNGGA,072226.30,,,,,0,00,99.99,,,,,54.3,*64
[2021-02-22 16:22:26.985] $GNGGA,072226.40,,,,,0,00,99.99,,,,,54.4,*64
[2021-02-22 16:22:27.079] $GNGGA,072226.50,3713.983930000,N,13701.481022000,E,1,05,1.73,103.330,M,37.566,M,54.5,*5A
[2021-02-22 16:22:27.203] $GNGGA,072226.60,3713.984314000,N,13701.480680000,E,1,12,0.93,102.645,M,37.566,M,54.6,*51
[2021-02-22 16:22:27.282] $GNGGA,072226.70,3713.984638000,N,13701.480638000,E,1,14,0.85,101.973,M,37.566,M,54.7,*51
[2021-02-22 16:22:27.375] $GNGGA,072226.80,3713.984968000,N,13701.480272000,E,1,14,0.85,101.624,M,37.566,M,54.8,*5C
[2021-02-22 16:22:27.485] $GNGGA,072226.90,3713.985340000,N,13701.480104000,E,1,14,0.85,101.193,M,37.566,M,54.9,*54
[2021-02-22 16:22:27.594] $GNGGA,072227.00,3713.985658000,N,13701.479972000,E,1,14,0.85,100.501,M,37.566,M,55.0,*59
[2021-02-22 16:22:27.672] $GNGGA,072227.10,3713.985868000,N,13701.479918000,E,1,14,0.71,99.930,M,37.566,M,55.1,*6C
[2021-02-22 16:22:27.782] $GNGGA,072227.20,3713.986054000,N,13701.479804000,E,1,14,0.71,99.042,M,37.566,M,55.2,*68
[2021-02-22 16:22:27.875] $GNGGA,072227.30,3713.986252000,N,13701.479678000,E,1,14,0.71,98.365,M,37.566,M,55.3,*6E
[2021-02-22 16:22:28.000] $GNGGA,072227.40,3713.986594000,N,13701.479498000,E,1,14,0.71,97.299,M,37.566,M,55.4,*62
[2021-02-22 16:22:28.078] $GNGGA,072227.50,3713.986828000,N,13701.479360000,E,1,13,0.71,96.566,M,37.566,M,55.5,*69
[2021-02-22 16:22:28.172] $GNGGA,072227.60,3713.987020000,N,13701.479264000,E,1,13,0.66,96.042,M,37.566,M,55.6,*68
[2021-02-22 16:22:28.282] $GNGGA,072227.70,3713.987116000,N,13701.479210000,E,1,13,0.66,95.449,M,37.566,M,55.7,*63
[2021-02-22 16:22:28.391] $GNGGA,072227.80,3713.987248000,N,13701.479144000,E,1,13,0.66,95.135,M,37.566,M,55.8,*67
[2021-02-22 16:22:28.469] $GNGGA,072227.90,3713.987338000,N,13701.479090000,E,1,13,0.66,94.906,M,37.566,M,55.9,*60
[2021-02-22 16:22:28.578] $GNGGA,072228.00,3713.987452000,N,13701.479018000,E,1,13,0.66,94.680,M,37.566,M,56.0,*66
[2021-02-22 16:22:28.672] $GNGGA,072228.10,3713.987536000,N,13701.478946000,E,1,13,0.66,94.537,M,37.566,M,56.1,*69
[2021-02-22 16:22:28.782] $GNGGA,072228.20,3713.987614000,N,13701.478898000,E,1,13,0.66,94.381,M,37.566,M,56.2,*63
[2021-02-22 16:22:28.891] $GNGGA,072228.30,3713.987656000,N,13701.478856000,E,1,13,0.66,94.335,M,37.566,M,56.3,*68
[2021-02-22 16:22:28.969] $GNGGA,072228.40,3713.987680000,N,13701.478790000,E,1,13,0.63,94.309,M,37.566,M,56.4,*6C
[2021-02-22 16:22:29.078] $GNGGA,072228.50,3713.987716000,N,13701.478724000,E,1,13,0.63,94.330,M,37.566,M,56.5,*67
[2021-02-22 16:22:29.172] $GNGGA,072228.60,3713.987758000,N,13701.478664000,E,1,13,0.63,94.272,M,37.566,M,56.6,*6F
[2021-02-22 16:22:29.281] $GNGGA,072228.70,3713.987794000,N,13701.478622000,E,1,13,0.63,94.186,M,37.566,M,56.7,*65
[2021-02-22 16:22:29.391] $GNGGA,072228.80,3713.987806000,N,13701.478574000,E,1,13,0.63,94.154,M,37.566,M,56.8,*6E
[2021-02-22 16:22:29.469] $GNGGA,072228.90,3713.987818000,N,13701.478538000,E,1,13,0.61,94.099,M,37.566,M,56.9,*6B
[2021-02-22 16:22:29.578] $GNGGA,072229.00,3713.987818000,N,13701.478514000,E,1,13,0.61,94.107,M,37.566,M,57.0,*63
[2021-02-22 16:22:29.672] $GNGGA,072229.10,3713.987836000,N,13701.478496000,E,1,13,0.61,94.135,M,37.566,M,57.1,*65
[2021-02-22 16:22:29.797] $GNGGA,072229.20,3713.987842000,N,13701.478478000,E,1,13,0.61,94.170,M,37.566,M,57.2,*67
[2021-02-22 16:22:29.875] $GNGGA,072229.30,3713.987854000,N,13701.478460000,E,1,13,0.61,94.205,M,37.566,M,57.3,*68
[2021-02-22 16:22:29.985] $GNGGA,072229.40,3713.987872000,N,13701.478448000,E,1,13,0.61,94.215,M,37.566,M,57.4,*67
[2021-02-22 16:22:30.078] $GNGGA,072229.50,3713.987878000,N,13701.478442000,E,1,13,0.61,94.232,M,37.566,M,57.5,*62
[2021-02-22 16:22:30.203] $GNGGA,072229.60,3713.987896000,N,13701.478430000,E,1,13,0.61,94.227,M,37.566,M,57.6,*63
[2021-02-22 16:22:30.281] $GNGGA,072229.70,3713.987908000,N,13701.478418000,E,1,13,0.61,94.201,M,37.566,M,57.7,*6B
[2021-02-22 16:22:30.375] $GNGGA,072229.80,3713.987908000,N,13701.478412000,E,1,13,0.61,94.186,M,37.566,M,57.8,*6D
[2021-02-22 16:22:30.485] $GNGGA,072229.90,3713.987914000,N,13701.478412000,E,1,13,0.61,94.170,M,37.566,M,57.9,*69
[2021-02-22 16:22:30.594] $GNGGA,072230.00,3713.987920000,N,13701.478412000,E,1,13,0.61,94.136,M,37.566,M,58.0,*6B
[2021-02-22 16:22:30.672] $GNGGA,072230.10,3713.987926000,N,13701.478418000,E,1,13,0.61,94.127,M,37.566,M,58.1,*67
[2021-02-22 16:22:30.781] $GNGGA,072230.20,3713.987926000,N,13701.478412000,E,1,13,0.61,94.119,M,37.566,M,58.2,*60
[2021-02-22 16:22:30.875] $GNGGA,072230.30,3713.987932000,N,13701.478412000,E,1,13,0.61,94.129,M,37.566,M,58.3,*66
[2021-02-22 16:22:31.000] $GNGGA,072230.40,3713.987938000,N,13701.478412000,E,1,13,0.61,94.119,M,37.566,M,58.4,*6F
[2021-02-22 16:22:31.078] $GNGGA,072230.50,3713.987944000,N,13701.478412000,E,1,13,0.61,94.116,M,37.566,M,58.5,*6B
[2021-02-22 16:22:31.172] $GNGGA,072230.60,3713.987944000,N,13701.478412000,E,1,13,0.61,94.121,M,37.566,M,58.6,*6F
[2021-02-22 16:22:31.281] $GNGGA,072230.70,3713.987944000,N,13701.478412000,E,1,13,0.61,94.119,M,37.566,M,58.7,*64
[2021-02-22 16:22:31.391] $GNGGA,072230.80,3713.987950000,N,13701.478412000,E,1,13,0.61,94.115,M,37.566,M,58.8,*6D
[2021-02-22 16:22:31.469] $GNGGA,072230.90,3713.987962000,N,13701.478412000,E,1,13,0.61,94.130,M,37.566,M,58.9,*6B
[2021-02-22 16:22:31.578] $GNGGA,072231.00,3713.987962000,N,13701.478412000,E,1,13,0.61,94.132,M,37.566,M,59.0,*69
[2021-02-22 16:22:31.672] $GNGGA,072231.10,3713.987968000,N,13701.478412000,E,1,13,0.61,94.131,M,37.566,M,59.1,*60
[2021-02-22 16:22:31.797] $GNGGA,072231.20,3713.987974000,N,13701.478406000,E,1,13,0.61,94.129,M,37.566,M,59.2,*61
[2021-02-22 16:22:31.875] $GNGGA,072231.30,3713.987980000,N,13701.478406000,E,1,13,0.61,94.125,M,37.566,M,59.3,*66
[2021-02-22 16:22:31.984] $GNGGA,072231.40,3713.987980000,N,13701.478406000,E,1,13,0.61,94.125,M,37.566,M,59.4,*66
[2021-02-22 16:22:32.078] $GNGGA,072231.50,3713.987980000,N,13701.478406000,E,1,13,0.61,94.110,M,37.566,M,59.5,*60
[2021-02-22 16:22:32.203] $GNGGA,072231.60,3713.987980000,N,13701.478406000,E,1,13,0.61,94.093,M,37.566,M,59.6,*6A
[2021-02-22 16:22:32.281] $GNGGA,072231.70,3713.987980000,N,13701.478418000,E,1,13,0.61,94.074,M,37.566,M,59.7,*6C
[2021-02-22 16:22:32.375] $GNGGA,072231.80,3713.987980000,N,13701.478424000,E,1,13,0.61,94.048,M,37.566,M,59.8,*6C
[2021-02-22 16:22:32.484] $GNGGA,072231.90,3713.987980000,N,13701.478430000,E,1,13,0.61,94.025,M,37.566,M,59.9,*62
[2021-02-22 16:22:32.594] $GNGGA,072232.00,3713.987974000,N,13701.478430000,E,1,13,0.61,93.998,M,37.566,M,60.0,*68
[2021-02-22 16:22:32.672] $GNGGA,072232.10,3713.987974000,N,13701.478436000,E,1,13,0.61,93.976,M,37.566,M,60.1,*6E
[2021-02-22 16:22:32.781] $GNGGA,072232.20,3713.987968000,N,13701.478442000,E,1,13,0.61,93.958,M,37.566,M,60.2,*6C
[2021-02-22 16:22:32.875] $GNGGA,072232.30,3713.987968000,N,13701.478442000,E,1,13,0.61,93.943,M,37.566,M,60.3,*66
[2021-02-22 16:22:32.984] $GNGGA,072232.40,3713.987968000,N,13701.478448000,E,1,13,0.61,93.924,M,37.566,M,60.4,*6D
[2021-02-22 16:22:33.094] $GNGGA,072232.50,3713.987968000,N,13701.478454000,E,1,13,0.61,93.908,M,37.566,M,60.5,*6E
[2021-02-22 16:22:33.172] $GNGGA,072232.60,3713.987968000,N,13701.478454000,E,1,13,0.61,93.897,M,37.566,M,60.6,*69
[2021-02-22 16:22:33.281] $GNGGA,072232.70,3713.987968000,N,13701.478460000,E,1,13,0.61,93.883,M,37.566,M,60.7,*6B
[2021-02-22 16:22:33.375] $GNGGA,072232.80,3713.988124402,N,13701.478445829,E,5,07,1.16,95.580,M,37.566,M,60.8,2006*6A
[2021-02-22 16:22:33.484] $GNGGA,072232.90,3713.988088554,N,13701.478386333,E,5,10,1.03,96.418,M,37.566,M,60.9,2006*66
[2021-02-22 16:22:33.594] $GNGGA,072233.00,3713.988076976,N,13701.478449930,E,5,12,0.99,96.441,M,37.566,M,61.0,2006*6A
[2021-02-22 16:22:33.672] $GNGGA,072233.10,3713.988165208,N,13701.478488727,E,5,12,0.99,96.644,M,37.566,M,61.1,2006*69
[2021-02-22 16:22:33.781] $GNGGA,072233.20,3713.988179526,N,13701.478473539,E,5,12,0.99,96.481,M,37.566,M,61.2,2006*6D
[2021-02-22 16:22:33.875] $GNGGA,072233.30,3713.988188869,N,13701.478489261,E,5,12,0.99,96.550,M,37.566,M,61.3,2006*67
[2021-02-22 16:22:34.000] $GNGGA,072233.40,3713.988195007,N,13701.478484429,E,5,12,0.99,96.489,M,37.566,M,61.4,2006*69
[2021-02-22 16:22:34.078] $GNGGA,072233.50,3713.988231553,N,13701.478494893,E,5,12,0.99,96.523,M,37.566,M,61.5,2006*6D
[2021-02-22 16:22:34.172] $GNGGA,072233.60,3713.988239269,N,13701.478486721,E,5,12,0.99,96.453,M,37.566,M,61.6,2006*68
[2021-02-22 16:22:34.281] $GNGGA,072233.70,3713.988271170,N,13701.478494943,E,5,12,0.99,96.477,M,37.566,M,61.7,2006*60
[2021-02-22 16:22:34.390] $GNGGA,072233.80,3713.988275177,N,13701.478489793,E,5,12,0.99,96.421,M,37.566,M,61.8,2006*6F
[2021-02-22 16:22:34.484] $GNGGA,072233.90,3713.988293491,N,13701.478495411,E,5,12,0.99,96.430,M,37.566,M,61.9,2006*6E
[2021-02-22 16:22:34.578] $GNGGA,072234.00,3713.988296029,N,13701.478493405,E,5,12,0.99,96.386,M,37.566,M,62.0,2006*61
[2021-02-22 16:22:34.672] $GNGGA,072234.10,3713.988308557,N,13701.478497569,E,5,12,0.99,96.397,M,37.566,M,62.1,2006*64
[2021-02-22 16:22:34.797] $GNGGA,072234.20,3713.988001398,N,13701.478262167,E,4,12,0.99,94.494,M,37.566,M,62.2,2006*6A
[2021-02-22 16:22:34.875] $GNGGA,072234.30,3713.988000451,N,13701.478261696,E,4,12,0.99,94.496,M,37.566,M,62.3,2006*61
[2021-02-22 16:22:34.984] $GNGGA,072234.40,3713.988000461,N,13701.478261365,E,4,12,0.99,94.494,M,37.566,M,62.4,2006*69
[2021-02-22 16:22:35.078] $GNGGA,072234.50,3713.987998903,N,13701.478260154,E,4,12,0.99,94.496,M,37.566,M,62.5,2006*64
[2021-02-22 16:22:35.203] $GNGGA,072234.60,3713.987998256,N,13701.478259532,E,4,12,0.99,94.497,M,37.566,M,62.6,2006*60
[2021-02-22 16:22:35.281] $GNGGA,072234.70,3713.987997919,N,13701.478259613,E,4,12,0.99,94.494,M,37.566,M,62.7,2006*6C
[2021-02-22 16:22:35.375] $GNGGA,072234.80,3713.987997554,N,13701.478258851,E,4,12,0.99,94.494,M,37.566,M,62.8,2006*60
[2021-02-22 16:22:35.484] $GNGGA,072234.90,3713.987996739,N,13701.478259076,E,4,12,0.99,94.494,M,37.566,M,62.9,2006*64
[2021-02-22 16:22:35.594] $GNGGA,072235.00,3713.987996684,N,13701.478259944,E,4,12,0.99,94.496,M,37.566,M,63.0,2006*69
[2021-02-22 16:22:35.672] $GNGGA,072235.10,3713.987995974,N,13701.478261590,E,4,12,0.99,94.495,M,37.566,M,63.1,2006*67
[2021-02-22 16:22:35.781] $GNGGA,072235.20,3713.987996367,N,13701.478261386,E,4,12,0.99,94.491,M,37.566,M,63.2,2006*69
[2021-02-22 16:22:35.875] $GNGGA,072235.30,3713.987995398,N,13701.478261335,E,4,12,0.99,94.497,M,37.566,M,63.3,2006*64
[2021-02-22 16:22:35.984] $GNGGA,072235.40,3713.987995825,N,13701.478260085,E,4,12,0.99,94.494,M,37.566,M,63.4,2006*63
[2021-02-22 16:22:36.093] $GNGGA,072235.50,3713.987995689,N,13701.478259982,E,4,12,0.99,94.494,M,37.566,M,63.5,2006*6F
[2021-02-22 16:22:36.172] $GNGGA,072235.60,3713.987995432,N,13701.478258809,E,4,12,0.99,94.495,M,37.566,M,63.6,2006*6F
[2021-02-22 16:22:36.281] $GNGGA,072235.70,3713.987995537,N,13701.478258401,E,4,12,0.99,94.495,M,37.566,M,63.7,2006*6F
[2021-02-22 16:22:36.375] $GNGGA,072235.80,3713.987996166,N,13701.478259198,E,4,12,0.99,94.495,M,37.566,M,63.8,2006*68
[2021-02-22 16:22:36.484] $GNGGA,072235.90,3713.987996208,N,13701.478260515,E,4,12,0.99,94.493,M,37.566,M,63.9,2006*6E
[2021-02-22 16:22:36.593] $GNGGA,072236.00,3713.987996519,N,13701.478261554,E,4,12,0.99,94.497,M,37.566,M,64.0,2006*6D
[2021-02-22 16:22:36.672] $GNGGA,072236.10,3713.987996967,N,13701.478261247,E,4,12,0.99,94.494,M,37.566,M,64.1,2006*6E
[2021-02-22 16:22:36.781] $GNGGA,072236.20,3713.987995576,N,13701.478261146,E,4,12,0.99,94.496,M,37.566,M,64.2,2006*61
[2021-02-22 16:22:36.875] $GNGGA,072236.30,3713.987996238,N,13701.478260288,E,4,12,0.99,94.495,M,37.566,M,64.3,2006*6C
[2021-02-22 16:22:36.984] $GNGGA,072236.40,3713.987996012,N,13701.478260460,E,4,12,0.99,94.497,M,37.566,M,64.4,2006*64
[2021-02-22 16:22:37.093] $GNGGA,072236.50,3713.987995525,N,13701.478261601,E,4,12,0.99,94.498,M,37.566,M,64.5,2006*6D
[2021-02-22 16:22:37.172] $GNGGA,072236.60,3713.987994588,N,13701.478262018,E,4,12,0.99,94.497,M,37.566,M,64.6,2006*69
[2021-02-22 16:22:37.281] $GNGGA,072236.70,3713.987994119,N,13701.478260498,E,4,12,0.99,94.500,M,37.566,M,64.7,2006*64
[2021-02-22 16:22:37.375] $GNGGA,072236.80,3713.987994954,N,13701.478260112,E,4,12,0.99,94.497,M,37.566,M,64.8,2006*6D
[2021-02-22 16:22:37.484] $GNGGA,072236.90,3713.987996705,N,13701.478261054,E,4,12,0.99,94.493,M,37.566,M,64.9,2006*63
[2021-02-22 16:22:37.593] $GNGGA,072237.00,3713.987997565,N,13701.478261052,E,4,12,0.99,94.495,M,37.566,M,65.0,2006*66
[2021-02-22 16:22:37.672] $GNGGA,072237.10,3713.987998545,N,13701.478260193,E,4,12,0.99,94.496,M,37.566,M,65.1,2006*65
[2021-02-22 16:22:37.781] $GNGGA,072237.20,3713.988000153,N,13701.478261565,E,4,12,0.99,94.491,M,37.566,M,65.2,2006*6A
[2021-02-22 16:22:37.875] $GNGGA,072237.30,3713.987999994,N,13701.478261172,E,4,12,0.99,94.496,M,37.566,M,65.3,2006*6A
[2021-02-22 16:22:37.984] $GNGGA,072237.40,3713.988000885,N,13701.478261245,E,4,12,0.99,94.494,M,37.566,M,65.4,2006*68
[2021-02-22 16:22:38.093] $GNGGA,072237.50,3713.988000809,N,13701.478261495,E,4,12,0.99,94.494,M,37.566,M,65.5,2006*67
[2021-02-22 16:22:38.171] $GNGGA,072237.60,3713.988001684,N,13701.478261925,E,4,12,0.99,94.497,M,37.566,M,65.6,2006*68
[2021-02-22 16:22:38.281] $GNGGA,072237.70,3713.988002081,N,13701.478263908,E,4,12,0.99,94.496,M,37.566,M,65.7,2006*64
[2021-02-22 16:22:38.375] $GNGGA,072237.80,3713.988003707,N,13701.478264791,E,4,12,0.99,94.497,M,37.566,M,65.8,2006*64
[2021-02-22 16:22:38.500] $GNGGA,072237.90,3713.988005008,N,13701.478265469,E,4,12,0.99,94.495,M,37.566,M,65.9,2006*6D
[2021-02-22 16:22:38.578] $GNGGA,072238.00,3713.988004912,N,13701.478266603,E,4,12,0.99,94.494,M,37.566,M,66.0,2006*6E
[2021-02-22 16:22:38.671] $GNGGA,072238.10,3713.988005373,N,13701.478266207,E,4,12,0.99,94.493,M,37.566,M,66.1,2006*65
[2021-02-22 16:22:38.781] $GNGGA,072238.20,3713.988005189,N,13701.478266451,E,4,12,0.99,94.494,M,37.566,M,66.2,2006*60
[2021-02-22 16:22:38.890] $GNGGA,072238.30,3713.988005638,N,13701.478266662,E,4,12,0.99,94.492,M,37.566,M,66.3,2006*69
[2021-02-22 16:22:38.984] $GNGGA,072238.40,3713.988005645,N,13701.478267812,E,4,12,0.99,94.492,M,37.566,M,66.4,2006*6B
[2021-02-22 16:22:39.078] $GNGGA,072238.50,3713.988005909,N,13701.478266543,E,4,12,0.99,94.493,M,37.566,M,66.5,2006*65
[2021-02-22 16:22:39.171] $GNGGA,072238.60,3713.988005751,N,13701.478266053,E,4,12,0.99,94.492,M,37.566,M,66.6,2006*63
[2021-02-22 16:22:39.296] $GNGGA,072238.70,3713.988005595,N,13701.478265723,E,4,12,0.99,94.493,M,37.566,M,66.7,2006*6B
[2021-02-22 16:22:39.375] $GNGGA,072238.80,3713.988005216,N,13701.478266300,E,4,12,0.99,94.496,M,37.566,M,66.8,2006*64
[2021-02-22 16:22:39.484] $GNGGA,072238.90,3713.988005093,N,13701.478265621,E,4,12,0.99,94.497,M,37.566,M,66.9,2006*6F
[2021-02-22 16:22:39.578] $GNGGA,072239.00,3713.988005375,N,13701.478265539,E,4,12,0.99,94.492,M,37.566,M,67.0,2006*6B
[2021-02-22 16:22:39.703] $GNGGA,072239.10,3713.988005490,N,13701.478265776,E,4,12,0.99,94.493,M,37.566,M,67.1,2006*6F
[2021-02-22 16:22:39.781] $GNGGA,072239.20,3713.988005609,N,13701.478266469,E,4,12,0.99,94.492,M,37.566,M,67.2,2006*62
[2021-02-22 16:22:39.874] $GNGGA,072239.30,3713.988004971,N,13701.478266040,E,4,12,0.99,94.492,M,37.566,M,67.3,2006*6C
[2021-02-22 16:22:39.984] $GNGGA,072239.40,3713.988004912,N,13701.478265782,E,4,12,0.99,94.493,M,37.566,M,67.4,2006*62
[2021-02-22 16:22:40.078] $GNGGA,072239.50,3713.988004812,N,13701.478265884,E,4,12,0.99,94.491,M,37.566,M,67.5,2006*68
[2021-02-22 16:22:40.203] $GNGGA,072239.60,3713.988004869,N,13701.478267268,E,4,12,0.99,94.487,M,37.566,M,67.6,2006*69
[2021-02-22 16:22:40.281] $GNGGA,072239.70,3713.988004889,N,13701.478267720,E,4,12,0.99,94.489,M,37.566,M,67.7,2006*60
[2021-02-22 16:22:40.374] $GNGGA,072239.80,3713.988004358,N,13701.478268214,E,4,12,0.99,94.490,M,37.566,M,67.8,2006*62
[2021-02-22 16:22:40.484] $GNGGA,072239.90,3713.988003901,N,13701.478268301,E,4,12,0.99,94.489,M,37.566,M,67.9,2006*6E
[2021-02-22 16:22:40.578] $GNGGA,072240.00,3713.988003848,N,13701.478268224,E,4,12,0.99,94.486,M,37.566,M,68.0,2006*6A
[2021-02-22 16:22:40.703] $GNGGA,072240.10,3713.988003709,N,13701.478267906,E,4,12,0.99,94.486,M,37.566,M,68.1,2006*64
[2021-02-22 16:22:40.781] $GNGGA,072240.20,3713.988003732,N,13701.478266989,E,4,12,0.99,94.488,M,37.566,M,68.2,2006*64
[2021-02-22 16:22:40.874] $GNGGA,072240.30,3713.988003811,N,13701.478267038,E,4,12,0.99,94.489,M,37.566,M,68.3,2006*69
[2021-02-22 16:22:40.984] $GNGGA,072240.40,3713.988004069,N,13701.478267657,E,4,12,0.99,94.488,M,37.566,M,68.4,2006*67
[2021-02-22 16:22:41.078] $GNGGA,072240.50,3713.988004233,N,13701.478266779,E,4,12,0.99,94.489,M,37.566,M,68.5,2006*67
[2021-02-22 16:22:41.202] $GNGGA,072240.60,3713.988004610,N,13701.478268454,E,4,12,0.99,94.486,M,37.566,M,68.6,2006*6F
[2021-02-22 16:22:41.281] $GNGGA,072240.70,3713.988004864,N,13701.478268345,E,4,12,0.99,94.487,M,37.566,M,68.7,2006*64
[2021-02-22 16:22:41.374] $GNGGA,072240.80,3713.988005268,N,13701.478268465,E,4,12,0.99,94.486,M,37.566,M,68.8,2006*67
[2021-02-22 16:22:41.484] $GNGGA,072240.90,3713.988004436,N,13701.478267401,E,4,12,0.99,94.485,M,37.566,M,68.9,2006*65
[2021-02-22 16:22:41.577] $GNGGA,072241.00,3713.988004491,N,13701.478266906,E,4,12,0.99,94.485,M,37.566,M,69.0,2006*63
[2021-02-22 16:22:41.702] $GNGGA,072241.10,3713.988004032,N,13701.478267327,E,4,12,0.99,94.487,M,37.566,M,69.1,2006*64
[2021-02-22 16:22:41.781] $GNGGA,072241.20,3713.988003925,N,13701.478268457,E,4,12,0.99,94.487,M,37.566,M,69.2,2006*63
[2021-02-22 16:22:41.874] $GNGGA,072241.30,3713.988003915,N,13701.478268960,E,4,12,0.99,94.490,M,37.566,M,69.3,2006*6F
[2021-02-22 16:22:41.984] $GNGGA,072241.40,3713.988003144,N,13701.478268639,E,4,12,0.99,94.487,M,37.566,M,69.4,2006*66
[2021-02-22 16:22:42.077] $GNGGA,072241.50,3713.988003440,N,13701.478268183,E,4,12,0.99,94.486,M,37.566,M,69.5,2006*60
[2021-02-22 16:22:42.202] $GNGGA,072241.60,3713.988003778,N,13701.478269298,E,4,12,0.99,94.487,M,37.566,M,69.6,2006*61
[2021-02-22 16:22:42.281] $GNGGA,072241.70,3713.988003130,N,13701.478268591,E,4,12,0.99,94.487,M,37.566,M,69.7,2006*64
[2021-02-22 16:22:42.374] $GNGGA,072241.80,3713.988004062,N,13701.478268187,E,4,12,0.99,94.487,M,37.566,M,69.8,2006*66
[2021-02-22 16:22:42.484] $GNGGA,072241.90,3713.988002944,N,13701.478267403,E,4,12,0.99,94.490,M,37.566,M,69.9,2006*6D
[2021-02-22 16:22:42.593] $GNGGA,072242.00,3713.988002351,N,13701.478267205,E,4,12,0.99,94.492,M,37.566,M,70.0,2006*6A
[2021-02-22 16:22:42.671] $GNGGA,072242.10,3713.988002329,N,13701.478267782,E,4,12,0.99,94.489,M,37.566,M,70.1,2006*65
[2021-02-22 16:22:42.781] $GNGGA,072242.20,3713.988002131,N,13701.478268002,E,4,12,0.99,94.493,M,37.566,M,70.2,2006*65
[2021-02-22 16:22:42.874] $GNGGA,072242.30,3713.988001784,N,13701.478268352,E,4,12,0.99,94.491,M,37.566,M,70.3,2006*6A
[2021-02-22 16:22:42.999] $GNGGA,072242.40,3713.988000374,N,13701.478268629,E,4,12,0.99,94.492,M,37.566,M,70.4,2006*6A
[2021-02-22 16:22:43.077] $GNGGA,072242.50,3713.988000524,N,13701.478269275,E,4,12,0.99,94.493,M,37.566,M,70.5,2006*64
[2021-02-22 16:22:43.171] $GNGGA,072242.60,3713.988000963,N,13701.478268853,E,4,12,0.99,94.490,M,37.566,M,70.6,2006*67
[2021-02-22 16:22:43.281] $GNGGA,072242.70,3713.988000996,N,13701.478268834,E,4,12,0.99,94.495,M,37.566,M,70.7,2006*69
[2021-02-22 16:22:43.390] $GNGGA,072242.80,3713.988002602,N,13701.478268083,E,4,12,0.99,94.491,M,37.566,M,70.8,2006*69
[2021-02-22 16:22:43.484] $GNGGA,072242.90,3713.988003294,N,13701.478267813,E,4,12,0.99,94.493,M,37.566,M,70.9,2006*6F
[2021-02-22 16:22:43.577] $GNGGA,072243.00,3713.988003334,N,13701.478268251,E,4,12,0.99,94.494,M,37.566,M,71.0,2006*60
[2021-02-22 16:22:43.671] $GNGGA,072243.10,3713.988003956,N,13701.478268676,E,4,12,0.99,94.490,M,37.566,M,71.1,2006*6B
[2021-02-22 16:22:43.796] $GNGGA,072243.20,3713.988003936,N,13701.478269590,E,4,12,0.99,94.490,M,37.566,M,71.2,2006*67
[2021-02-22 16:22:43.874] $GNGGA,072243.30,3713.988004682,N,13701.478269691,E,4,12,0.99,94.489,M,37.566,M,71.3,2006*6A
[2021-02-22 16:22:43.984] $GNGGA,072243.40,3713.988005217,N,13701.478269926,E,4,12,0.99,94.489,M,37.566,M,71.4,2006*60
[2021-02-22 16:22:44.077] $GNGGA,072243.50,3713.988004896,N,13701.478270039,E,4,12,0.99,94.485,M,37.566,M,71.5,2006*61
[2021-02-22 16:22:44.202] $GNGGA,072243.60,3713.988005231,N,13701.478269859,E,4,12,0.99,94.487,M,37.566,M,71.6,2006*63
[2021-02-22 16:22:44.280] $GNGGA,072243.70,3713.988005482,N,13701.478269833,E,4,12,0.99,94.489,M,37.566,M,71.7,2006*6F
[2021-02-22 16:22:44.374] $GNGGA,072243.80,3713.988005970,N,13701.478270050,E,4,12,0.99,94.487,M,37.566,M,71.8,2006*64
[2021-02-22 16:22:44.484] $GNGGA,072243.90,3713.988006358,N,13701.478269801,E,4,12,0.99,94.489,M,37.566,M,71.9,2006*6D
[2021-02-22 16:22:44.577] $GNGGA,072244.00,3713.988006200,N,13701.478270129,E,4,12,0.99,94.487,M,37.566,M,72.0,2006*60
[2021-02-22 16:22:44.702] $GNGGA,072244.10,3713.988005778,N,13701.478270708,E,4,12,0.99,94.489,M,37.566,M,72.1,2006*62
[2021-02-22 16:22:44.780] $GNGGA,072244.20,3713.988005769,N,13701.478271923,E,4,12,0.99,94.485,M,37.566,M,72.2,2006*68
[2021-02-22 16:22:44.874] $GNGGA,072244.30,3713.988006350,N,13701.478271853,E,4,12,0.99,94.487,M,37.566,M,72.3,2006*61
[2021-02-22 16:22:44.984] $GNGGA,072244.40,3713.988006646,N,13701.478272805,E,4,12,0.99,94.484,M,37.566,M,72.4,2006*60
[2021-02-22 16:22:45.077] $GNGGA,072244.50,3713.988006253,N,13701.478273119,E,4,12,0.99,94.490,M,37.566,M,72.5,2006*60
[2021-02-22 16:22:45.202] $GNGGA,072244.60,3713.988006785,N,13701.478271772,E,4,12,0.99,94.490,M,37.566,M,72.6,2006*67
[2021-02-22 16:22:45.280] $GNGGA,072244.70,3713.988006521,N,13701.478272301,E,4,12,0.99,94.491,M,37.566,M,72.7,2006*69
[2021-02-22 16:22:45.374] $GNGGA,072244.80,3713.988006230,N,13701.478272406,E,4,12,0.99,94.489,M,37.566,M,72.8,2006*67
[2021-02-22 16:22:45.483] $GNGGA,072244.90,3713.988006600,N,13701.478271812,E,4,12,0.99,94.490,M,37.566,M,72.9,2006*62
[2021-02-22 16:22:45.577] $GNGGA,072245.00,3713.988006159,N,13701.478273119,E,4,12,0.99,94.493,M,37.566,M,73.0,2006*6A
[2021-02-22 16:22:45.702] $GNGGA,072245.10,3713.988006374,N,13701.478272516,E,4,12,0.99,94.492,M,37.566,M,73.1,2006*6C
[2021-02-22 16:22:45.780] $GNGGA,072245.20,3713.988006214,N,13701.478273005,E,4,12,0.99,94.493,M,37.566,M,73.2,2006*6C
[2021-02-22 16:22:45.874] $GNGGA,072245.30,3713.988006540,N,13701.478272945,E,4,12,0.99,94.498,M,37.566,M,73.3,2006*6D
[2021-02-22 16:22:45.983] $GNGGA,072245.40,3713.988006364,N,13701.478272008,E,4,12,0.99,94.491,M,37.566,M,73.4,2006*64
[2021-02-22 16:22:46.077] $GNGGA,072245.50,3713.988006361,N,13701.478272214,E,4,12,0.99,94.493,M,37.566,M,73.5,2006*6C
[2021-02-22 16:22:46.202] $GNGGA,072245.60,3713.988006526,N,13701.478272308,E,4,12,0.99,94.494,M,37.566,M,73.6,2006*62
[2021-02-22 16:22:46.280] $GNGGA,072245.70,3713.988006867,N,13701.478272073,E,4,12,0.99,94.493,M,37.566,M,73.7,2006*62
[2021-02-22 16:22:46.374] $GNGGA,072245.80,3713.988006743,N,13701.478271580,E,4,12,0.99,94.497,M,37.566,M,73.8,2006*65
[2021-02-22 16:22:46.483] $GNGGA,072245.90,3713.988007264,N,13701.478271292,E,4,12,0.99,94.495,M,37.566,M,73.9,2006*62
[2021-02-22 16:22:46.577] $GNGGA,072246.00,3713.988007011,N,13701.478271134,E,4,12,0.99,94.495,M,37.566,M,74.0,2006*69
[2021-02-22 16:22:46.702] $GNGGA,072246.10,3713.988008049,N,13701.478270704,E,4,12,0.99,94.496,M,37.566,M,74.1,2006*6C
[2021-02-22 16:22:46.780] $GNGGA,072246.20,3713.988008621,N,13701.478270225,E,4,12,0.99,94.496,M,37.566,M,74.2,2006*62
[2021-02-22 16:22:46.874] $GNGGA,072246.30,3713.988007035,N,13701.478270059,E,4,12,0.99,94.498,M,37.566,M,74.3,2006*69
[2021-02-22 16:22:46.983] $GNGGA,072246.40,3713.988006359,N,13701.478270219,E,4,12,0.99,94.501,M,37.566,M,74.4,2006*66
[2021-02-22 16:22:47.093] $GNGGA,072246.50,3713.988006764,N,13701.478271708,E,4,12,0.99,94.497,M,37.566,M,74.5,2006*66
[2021-02-22 16:22:47.171] $GNGGA,072246.60,3713.988007794,N,13701.478271673,E,4,12,0.99,94.495,M,37.566,M,74.6,2006*67
[2021-02-22 16:22:47.280] $GNGGA,072246.70,3713.988006901,N,13701.478271615,E,4,12,0.99,94.499,M,37.566,M,74.7,2006*68
[2021-02-22 16:22:47.374] $GNGGA,072246.80,3713.988006607,N,13701.478270214,E,4,12,0.99,94.498,M,37.566,M,74.8,2006*64
[2021-02-22 16:22:47.499] $GNGGA,072246.90,3713.988006649,N,13701.478269320,E,4,12,0.99,94.496,M,37.566,M,74.9,2006*6E
[2021-02-22 16:22:47.577] $GNGGA,072247.00,3713.988007081,N,13701.478269139,E,4,12,0.99,94.495,M,37.566,M,75.0,2006*64
[2021-02-22 16:22:47.671] $GNGGA,072247.10,3713.988006415,N,13701.478270627,E,4,12,0.99,94.495,M,37.566,M,75.1,2006*6C
[2021-02-22 16:22:47.780] $GNGGA,072247.20,3713.988006932,N,13701.478270525,E,4,12,0.99,94.491,M,37.566,M,75.2,2006*61
[2021-02-22 16:22:47.890] $GNGGA,072247.30,3713.988006587,N,13701.478268092,E,4,12,0.99,94.495,M,37.566,M,75.3,2006*67
[2021-02-22 16:22:47.983] $GNGGA,072247.40,3713.988005129,N,13701.478269244,E,4,12,0.99,94.497,M,37.566,M,75.4,2006*6E
[2021-02-22 16:22:48.077] $GNGGA,072247.50,3713.988003654,N,13701.478269289,E,4,12,0.99,94.500,M,37.566,M,75.5,2006*6B
[2021-02-22 16:22:48.171] $GNGGA,072247.60,3713.988004680,N,13701.478270234,E,4,12,0.99,94.498,M,37.566,M,75.6,2006*6B
[2021-02-22 16:22:48.296] $GNGGA,072247.70,3713.988004747,N,13701.478271646,E,4,12,0.99,94.497,M,37.566,M,75.7,2006*6E
[2021-02-22 16:22:48.374] $GNGGA,072247.80,3713.988003251,N,13701.478270658,E,4,12,0.99,94.498,M,37.566,M,75.8,2006*6A
[2021-02-22 16:22:48.483] $GNGGA,072247.90,3713.988004488,N,13701.478270665,E,4,12,0.99,94.494,M,37.566,M,75.9,2006*6D
[2021-02-22 16:22:48.577] $GNGGA,072248.00,3713.988004387,N,13701.478269288,E,4,12,0.99,94.496,M,37.566,M,76.0,2006*64
[2021-02-22 16:22:48.702] $GNGGA,072248.10,3713.988004604,N,13701.478268873,E,4,12,0.99,94.495,M,37.566,M,76.1,2006*66
[2021-02-22 16:22:48.780] $GNGGA,072248.20,3713.988005383,N,13701.478269275,E,4,12,0.99,94.499,M,37.566,M,76.2,2006*6C
[2021-02-22 16:22:48.874] $GNGGA,072248.30,3713.988005662,N,13701.478269326,E,4,12,0.99,94.501,M,37.566,M,76.3,2006*61
[2021-02-22 16:22:48.983] $GNGGA,072248.40,3713.988004883,N,13701.478269679,E,4,12,0.99,94.504,M,37.566,M,76.4,2006*6B
[2021-02-22 16:22:49.077] $GNGGA,072248.50,3713.988004713,N,13701.478269957,E,4,12,0.99,94.505,M,37.566,M,76.5,2006*6F
[2021-02-22 16:22:49.202] $GNGGA,072248.60,3713.988005188,N,13701.478270416,E,4,12,0.99,94.506,M,37.566,M,76.6,2006*69
[2021-02-22 16:22:49.280] $GNGGA,072248.70,3713.988004673,N,13701.478270600,E,4,12,0.99,94.502,M,37.566,M,76.7,2006*6A
[2021-02-22 16:22:49.374] $GNGGA,072248.80,3713.988004952,N,13701.478270641,E,4,12,0.99,94.504,M,37.566,M,76.8,2006*65
[2021-02-22 16:22:49.483] $GNGGA,072248.90,3713.988004787,N,13701.478270309,E,4,12,0.99,94.501,M,37.566,M,76.9,2006*6F
[2021-02-22 16:22:49.577] $GNGGA,072249.00,3713.988003871,N,13701.478271794,E,4,12,0.99,94.500,M,37.566,M,77.0,2006*6E
[2021-02-22 16:22:49.702] $GNGGA,072249.10,3713.988004409,N,13701.478271570,E,4,12,0.99,94.501,M,37.566,M,77.1,2006*63
[2021-02-22 16:22:49.780] $GNGGA,072249.20,3713.988004902,N,13701.478269904,E,4,12,0.99,94.499,M,37.566,M,77.2,2006*63
[2021-02-22 16:22:49.874] $GNGGA,072249.30,3713.988003120,N,13701.478269912,E,4,12,0.99,94.498,M,37.566,M,77.3,2006*6A
[2021-02-22 16:22:49.983] $GNGGA,072249.40,3713.988003252,N,13701.478270556,E,4,12,0.99,94.499,M,37.566,M,77.4,2006*69
[2021-02-22 16:22:50.077] $GNGGA,072249.50,3713.988002925,N,13701.478271923,E,4,12,0.99,94.500,M,37.566,M,77.5,2006*6D
[2021-02-22 16:22:50.202] $GNGGA,072249.60,3713.988002587,N,13701.478271808,E,4,12,0.99,94.501,M,37.566,M,77.6,2006*60
[2021-02-22 16:22:50.280] $GNGGA,072249.70,3713.988002891,N,13701.478271586,E,4,12,0.99,94.499,M,37.566,M,77.7,2006*61
[2021-02-22 16:22:50.374] $GNGGA,072249.80,3713.988003007,N,13701.478270514,E,4,12,0.99,94.495,M,37.566,M,77.8,2006*61
[2021-02-22 16:22:50.483] $GNGGA,072249.90,3713.988003302,N,13701.478270400,E,4,12,0.99,94.494,M,37.566,M,77.9,2006*62
[2021-02-22 16:22:50.577] $GNGGA,072250.00,3713.988003755,N,13701.478270917,E,4,12,0.99,94.495,M,37.566,M,78.0,2006*69
[2021-02-22 16:22:50.702] $GNGGA,072250.10,3713.988005008,N,13701.478270268,E,4,12,0.99,94.494,M,37.566,M,78.1,2006*62
[2021-02-22 16:22:50.780] $GNGGA,072250.20,3713.988005616,N,13701.478269950,E,4,12,0.99,94.493,M,37.566,M,78.2,2006*64
[2021-02-22 16:22:50.874] $GNGGA,072250.30,3713.988005312,N,13701.478269473,E,4,12,0.99,94.492,M,37.566,M,78.3,2006*68
[2021-02-22 16:22:50.983] $GNGGA,072250.40,3713.988006699,N,13701.478269180,E,4,12,0.99,94.493,M,37.566,M,78.4,2006*65
[2021-02-22 16:22:51.077] $GNGGA,072250.50,3713.988006452,N,13701.478269259,E,4,12,0.99,94.495,M,37.566,M,78.5,2006*61
[2021-02-22 16:22:51.202] $GNGGA,072250.60,3713.988006089,N,13701.478270804,E,4,12,0.99,94.494,M,37.566,M,78.6,2006*68
[2021-02-22 16:22:51.280] $GNGGA,072250.70,3713.988006672,N,13701.478271690,E,4,12,0.99,94.493,M,37.566,M,78.7,2006*6F
[2021-02-22 16:22:51.374] $GNGGA,072250.80,3713.988007610,N,13701.478269420,E,4,12,0.99,94.493,M,37.566,M,78.8,2006*6A
[2021-02-22 16:22:51.483] $GNGGA,072250.90,3713.988006814,N,13701.478268956,E,4,12,0.99,94.494,M,37.566,M,78.9,2006*6B
[2021-02-22 16:22:51.592] $GNGGA,072251.00,3713.988005336,N,13701.478270609,E,4,12,0.99,94.493,M,37.566,M,79.0,2006*68
[2021-02-22 16:22:51.671] $GNGGA,072251.10,3713.988006263,N,13701.478271361,E,4,12,0.99,94.494,M,37.566,M,79.1,2006*67
[2021-02-22 16:22:51.780] $GNGGA,072251.20,3713.988005961,N,13701.478271387,E,4,12,0.99,94.492,M,37.566,M,79.2,2006*63
[2021-02-22 16:22:51.874] $GNGGA,072251.30,3713.988004281,N,13701.478272656,E,4,12,0.99,94.491,M,37.566,M,79.3,2006*6E
[2021-02-22 16:22:51.999] $GNGGA,072251.40,3713.988003313,N,13701.478270638,E,4,12,0.99,94.493,M,37.566,M,79.4,2006*6B
[2021-02-22 16:22:52.077] $GNGGA,072251.50,3713.988002452,N,13701.478271264,E,4,12,0.99,94.496,M,37.566,M,79.5,2006*61
[2021-02-22 16:22:52.171] $GNGGA,072251.60,3713.988002511,N,13701.478271556,E,4,12,0.99,94.494,M,37.566,M,79.6,2006*63
[2021-02-22 16:22:52.280] $GNGGA,072251.70,3713.988003792,N,13701.478271508,E,4,12,0.99,94.495,M,37.566,M,79.7,2006*61
[2021-02-22 16:22:52.389] $GNGGA,072251.80,3713.988005304,N,13701.478269802,E,4,12,0.99,94.494,M,37.566,M,79.8,2006*63
[2021-02-22 16:22:52.483] $GNGGA,072251.90,3713.988003540,N,13701.478269676,E,4,12,0.99,94.494,M,37.566,M,79.9,2006*6E
[2021-02-22 16:22:52.577] $GNGGA,072252.00,3713.988003540,N,13701.478269656,E,4,12,0.99,94.494,M,37.566,M,80.0,2006*69
[2021-02-22 16:22:52.686] $GNGGA,072252.10,3713.988004105,N,13701.478270502,E,4,12,0.99,94.494,M,37.566,M,80.1,2006*61
[2021-02-22 16:22:52.795] $GNGGA,072252.20,3713.988003577,N,13701.478271248,E,4,12,0.99,94.495,M,37.566,M,80.2,2006*6E
[2021-02-22 16:22:52.874] $GNGGA,072252.30,3713.988003226,N,13701.478269432,E,4,12,0.99,94.495,M,37.566,M,80.3,2006*6F
[2021-02-22 16:22:52.983] $GNGGA,072252.40,3713.988002233,N,13701.478268743,E,4,12,0.99,94.498,M,37.566,M,80.4,2006*63
[2021-02-22 16:22:53.077] $GNGGA,072252.50,3713.988003034,N,13701.478267460,E,4,12,0.99,94.496,M,37.566,M,80.5,2006*64
[2021-02-22 16:22:53.186] $GNGGA,072252.60,3713.988002236,N,13701.478268239,E,4,12,0.99,94.496,M,37.566,M,80.6,2006*60
[2021-02-22 16:22:53.295] $GNGGA,072252.70,3713.988002189,N,13701.478267360,E,4,12,0.99,94.496,M,37.566,M,80.7,2006*65
[2021-02-22 16:22:53.374] $GNGGA,072252.80,3713.988001557,N,13701.478267456,E,4,12,0.99,94.496,M,37.566,M,80.8,2006*63
[2021-02-22 16:22:53.483] $GNGGA,072252.90,3713.988001537,N,13701.478268054,E,4,12,0.99,94.498,M,37.566,M,80.9,2006*62
[2021-02-22 16:22:53.577] $GNGGA,072253.00,3713.988002313,N,13701.478267794,E,4,12,0.99,94.496,M,37.566,M,81.0,2006*6B
[2021-02-22 16:22:53.686] $GNGGA,072253.10,3713.988002525,N,13701.478267251,E,4,12,0.99,94.495,M,37.566,M,81.1,2006*67
[2021-02-22 16:22:53.795] $GNGGA,072253.20,3713.988002652,N,13701.478266022,E,4,12,0.99,94.495,M,37.566,M,81.2,2006*63
[2021-02-22 16:22:53.874] $GNGGA,072253.30,3713.988001807,N,13701.478265860,E,4,12,0.99,94.494,M,37.566,M,81.3,2006*62
[2021-02-22 16:22:53.983] $GNGGA,072253.40,3713.988002071,N,13701.478267793,E,4,12,0.99,94.493,M,37.566,M,81.4,2006*6E
[2021-02-22 16:22:54.077] $GNGGA,072253.50,3713.988002196,N,13701.478268550,E,4,12,0.99,94.492,M,37.566,M,81.5,2006*65
[2021-02-22 16:22:54.186] $GNGGA,072253.60,3713.988002203,N,13701.478268799,E,4,12,0.99,94.494,M,37.566,M,81.6,2006*6B
[2021-02-22 16:22:54.295] $GNGGA,072253.70,3713.988002007,N,13701.478268531,E,4,12,0.99,94.493,M,37.566,M,81.7,2006*6A
[2021-02-22 16:22:54.373] $GNGGA,072253.80,3713.988001691,N,13701.478269030,E,4,12,0.99,94.491,M,37.566,M,81.8,2006*67
[2021-02-22 16:22:54.483] $GNGGA,072253.90,3713.988003147,N,13701.478266835,E,4,12,0.99,94.491,M,37.566,M,81.9,2006*6B
[2021-02-22 16:22:54.577] $GNGGA,072254.00,3713.988003743,N,13701.478266842,E,4,12,0.99,94.489,M,37.566,M,82.0,2006*64
[2021-02-22 16:22:54.686] $GNGGA,072254.10,3713.988003439,N,13701.478266623,E,4,12,0.99,94.490,M,37.566,M,82.1,2006*6B
[2021-02-22 16:22:54.795] $GNGGA,072254.20,3713.988003916,N,13701.478267475,E,4,12,0.99,94.487,M,37.566,M,82.2,2006*6D
[2021-02-22 16:22:54.873] $GNGGA,072254.30,3713.988004497,N,13701.478267978,E,4,12,0.99,94.486,M,37.566,M,82.3,2006*6F
[2021-02-22 16:22:54.983] $GNGGA,072254.40,3713.988004680,N,13701.478269166,E,4,12,0.99,94.488,M,37.566,M,82.4,2006*6C
[2021-02-22 16:22:55.077] $GNGGA,072254.50,3713.988004847,N,13701.478269463,E,4,12,0.99,94.489,M,37.566,M,82.5,2006*68
[2021-02-22 16:22:55.186] $GNGGA,072254.60,3713.988004943,N,13701.478268781,E,4,12,0.99,94.489,M,37.566,M,82.6,2006*63
[2021-02-22 16:22:55.295] $GNGGA,072254.70,3713.988006084,N,13701.478268882,E,4,12,0.99,94.487,M,37.566,M,82.7,2006*61
[2021-02-22 16:22:55.373] $GNGGA,072254.80,3713.988005762,N,13701.478268688,E,4,12,0.99,94.489,M,37.566,M,82.8,2006*67
[2021-02-22 16:22:55.483] $GNGGA,072254.90,3713.988005723,N,13701.478268349,E,4,12,0.99,94.492,M,37.566,M,82.9,2006*60
[2021-02-22 16:22:55.577] $GNGGA,072255.00,3713.988006882,N,13701.478267919,E,4,12,0.99,94.489,M,37.566,M,83.0,2006*6D
[2021-02-22 16:22:55.702] $GNGGA,072255.10,3713.988007313,N,13701.478267978,E,4,12,0.99,94.489,M,37.566,M,83.1,2006*68
[2021-02-22 16:22:55.780] $GNGGA,072255.20,3713.988007054,N,13701.478269533,E,4,12,0.99,94.490,M,37.566,M,83.2,2006*6D
[2021-02-22 16:22:55.873] $GNGGA,072255.30,3713.988007826,N,13701.478268983,E,4,12,0.99,94.488,M,37.566,M,83.3,2006*6F
[2021-02-22 16:22:55.983] $GNGGA,072255.40,3713.988007576,N,13701.478268979,E,4,12,0.99,94.486,M,37.566,M,83.4,2006*6C
[2021-02-22 16:22:56.092] $GNGGA,072255.50,3713.988006898,N,13701.478269998,E,4,12,0.99,94.487,M,37.566,M,83.5,2006*6F
[2021-02-22 16:22:56.170] $GNGGA,072255.60,3713.988007851,N,13701.478269587,E,4,12,0.99,94.486,M,37.566,M,83.6,2006*68
[2021-02-22 16:22:56.280] $GNGGA,072255.70,3713.988007790,N,13701.478269135,E,4,12,0.99,94.488,M,37.566,M,83.7,2006*69
[2021-02-22 16:22:56.373] $GNGGA,072255.80,3713.988007431,N,13701.478267128,E,4,12,0.99,94.489,M,37.566,M,83.8,2006*62
[2021-02-22 16:22:56.498] $GNGGA,072255.90,3713.988007718,N,13701.478266375,E,4,12,0.99,94.487,M,37.566,M,83.9,2006*6F
[2021-02-22 16:22:56.576] $GNGGA,072256.00,3713.988006390,N,13701.478267690,E,4,12,0.99,94.488,M,37.566,M,84.0,2006*6E
[2021-02-22 16:22:56.670] $GNGGA,072256.10,3713.988006701,N,13701.478269828,E,4,12,0.99,94.487,M,37.566,M,84.1,2006*6E
[2021-02-22 16:22:56.780] $GNGGA,072256.20,3713.988007476,N,13701.478270635,E,4,12,0.99,94.488,M,37.566,M,84.2,2006*69
[2021-02-22 16:22:56.889] $GNGGA,072256.30,3713.988005970,N,13701.478270600,E,4,12,0.99,94.486,M,37.566,M,84.3,2006*68
[2021-02-22 16:22:56.983] $GNGGA,072256.40,3713.988006675,N,13701.478270081,E,4,12,0.99,94.489,M,37.566,M,84.4,2006*61
[2021-02-22 16:22:57.076] $GNGGA,072256.50,3713.988006101,N,13701.478270568,E,4,12,0.99,94.487,M,37.566,M,84.5,2006*69
[2021-02-22 16:22:57.186] $GNGGA,072256.60,3713.988005918,N,13701.478270848,E,4,12,0.99,94.488,M,37.566,M,84.6,2006*6A
[2021-02-22 16:22:57.295] $GNGGA,072256.70,3713.988006024,N,13701.478270637,E,4,12,0.99,94.489,M,37.566,M,84.7,2006*68
[2021-02-22 16:22:57.373] $GNGGA,072256.80,3713.988005536,N,13701.478271032,E,4,12,0.99,94.484,M,37.566,M,84.8,2006*62
[2021-02-22 16:22:57.483] $GNGGA,072256.90,3713.988005104,N,13701.478270925,E,4,12,0.99,94.482,M,37.566,M,84.9,2006*6F
[2021-02-22 16:22:57.576] $GNGGA,072257.00,3713.988005614,N,13701.478270139,E,4,12,0.99,94.481,M,37.566,M,85.0,2006*6F
[2021-02-22 16:22:57.686] $GNGGA,072257.10,3713.988007304,N,13701.478269923,E,4,12,0.99,94.481,M,37.566,M,85.1,2006*62
[2021-02-22 16:22:57.795] $GNGGA,072257.20,3713.988008149,N,13701.478268087,E,4,12,0.99,94.482,M,37.566,M,85.2,2006*63
[2021-02-22 16:22:57.873] $GNGGA,072257.30,3713.988008454,N,13701.478267697,E,4,12,0.99,94.483,M,37.566,M,85.3,2006*63
[2021-02-22 16:22:57.983] $GNGGA,072257.40,3713.988009578,N,13701.478268662,E,4,12,0.99,94.481,M,37.566,M,85.4,2006*6A
[2021-02-22 16:22:58.076] $GNGGA,072257.50,3713.988009518,N,13701.478269342,E,4,12,0.99,94.481,M,37.566,M,85.5,2006*6A
[2021-02-22 16:22:58.186] $GNGGA,072257.60,3713.988008846,N,13701.478270169,E,4,12,0.99,94.483,M,37.566,M,85.6,2006*6C
[2021-02-22 16:22:58.295] $GNGGA,072257.70,3713.988008685,N,13701.478270666,E,4,12,0.99,94.481,M,37.566,M,85.7,2006*67
[2021-02-22 16:22:58.373] $GNGGA,072257.80,3713.988009597,N,13701.478270657,E,4,12,0.99,94.479,M,37.566,M,85.8,2006*63
[2021-02-22 16:22:58.483] $GNGGA,072257.90,3713.988009427,N,13701.478271362,E,4,12,0.99,94.481,M,37.566,M,85.9,2006*6C
[2021-02-22 16:22:58.576] $GNGGA,072258.00,3713.988010176,N,13701.478271044,E,4,12,0.99,94.480,M,37.566,M,86.0,2006*6F
[2021-02-22 16:22:58.686] $GNGGA,072258.10,3713.988010997,N,13701.478270460,E,4,12,0.99,94.481,M,37.566,M,86.1,2006*6A
[2021-02-22 16:22:58.795] $GNGGA,072258.20,3713.988010916,N,13701.478270628,E,4,12,0.99,94.480,M,37.566,M,86.2,2006*6C
[2021-02-22 16:22:58.873] $GNGGA,072258.30,3713.988011836,N,13701.478270050,E,4,12,0.99,94.481,M,37.566,M,86.3,2006*66
