
[2021-02-22 16:26:07.385] $GPGGA,072555.40,,,,,0,00,0.0,,M,,M,0,0000*52
[2021-02-22 16:26:07.416] $GPGGA,072555.50,,,,,0,00,0.0,,M,,M,0,0000*53
[2021-02-22 16:26:07.416] $GPGGA,072555.60,,,,,0,00,0.0,,M,,M,0,0000*50
[2021-02-22 16:26:07.416] $GPGGA,072555.70,,,,,0,00,0.0,,M,,M,0,0000*51
[2021-02-22 16:26:07.416] $GPGGA,072555.80,,,,,0,00,0.0,,M,,M,0,0000*5E
[2021-02-22 16:26:07.416] $GPGGA,072555.90,,,,,0,00,0.0,,M,,M,0,0000*5F
[2021-02-22 16:26:07.416] $GPGGA,072556.00,,,,,0,00,0.0,,M,,M,0,0000*55
[2021-02-22 16:26:07.416] $GPGGA,072556.10,,,,,0,00,0.0,,M,,M,0,0000*54
[2021-02-22 16:26:07.416] $GPGGA,072556.20,,,,,0,00,0.0,,M,,M,0,0000*57
[2021-02-22 16:26:07.416] $GPGGA,072556.30,,,,,0,00,0.0,,M,,M,0,0000*56
[2021-02-22 16:26:07.416] $GPGGA,072556.40,,,,,0,00,0.0,,M,,M,0,0000*51
[2021-02-22 16:26:07.416] $GPGGA,072556.50,,,,,0,00,0.0,,M,,M,0,0000*50
[2021-02-22 16:26:07.416] $GPGGA,072556.60,,,,,0,00,0.0,,M,,M,0,0000*53
[2021-02-22 16:26:07.416] $GPGGA,072556.70,,,,,0,00,0.0,,M,,M,0,0000*52
[2021-02-22 16:26:07.416] $GPGGA,072556.80,,,,,0,00,0.0,,M,,M,0,0000*5D
[2021-02-22 16:26:07.416] $GPGGA,072556.90,,,,,0,00,0.0,,M,,M,0,0000*5C
[2021-02-22 16:26:07.416] $GPGGA,072557.00,,,,,0,00,0.0,,M,,M,0,0000*54
[2021-02-22 16:26:07.416] $GPGGA,072557.10,,,,,0,00,0.0,,M,,M,0,0000*55
[2021-02-22 16:26:07.416] $GPGGA,072557.20,,,,,0,00,0.0,,M,,M,0,0000*56
[2021-02-22 16:26:07.416] $GPGGA,072557.30,,,,,0,00,0.0,,M,,M,0,0000*57
[2021-02-22 16:26:07.416] $GPGGA,072557.40,,,,,0,00,0.0,,M,,M,0,0000*50
[2021-02-22 16:26:07.416] $GPGGA,072557.50,,,,,0,00,0.0,,M,,M,0,0000*51
[2021-02-22 16:26:07.432] $GPGGA,072557.60,,,,,0,00,0.0,,M,,M,0,0000*52
[2021-02-22 16:26:07.432] $GPGGA,072557.70,,,,,0,00,0.0,,M,,M,0,0000*53
[2021-02-22 16:26:07.432] $GPGGA,072557.80,,,,,0,00,0.0,,M,,M,0,0000*5C
[2021-02-22 16:26:07.432] $GPGGA,072557.90,,,,,0,00,0.0,,M,,M,0,0000*5D
[2021-02-22 16:26:07.432] $GPGGA,072558.00,,,,,0,00,0.0,,M,,M,0,0000*5B
[2021-02-22 16:26:07.432] $GPGGA,072558.10,,,,,0,00,0.0,,M,,M,0,0000*5A
[2021-02-22 16:26:07.432] $GPGGA,072558.20,,,,,0,00,0.0,,M,,M,0,0000*59
[2021-02-22 16:26:07.432] $GPGGA,072558.30,,,,,0,00,0.0,,M,,M,0,0000*58
[2021-02-22 16:26:07.432] $GPGGA,072558.40,,,,,0,00,0.0,,M,,M,0,0000*5F
[2021-02-22 16:26:07.432] $GPGGA,072558.50,,,,,0,00,0.0,,M,,M,0,0000*5E
[2021-02-22 16:26:07.432] $GPGGA,072558.60,,,,,0,00,0.0,,M,,M,0,0000*5D
[2021-02-22 16:26:07.432] $GPGGA,072558.70,,,,,0,00,0.0,,M,,M,0,0000*5C
[2021-02-22 16:26:07.432] $GPGGA,072558.80,,,,,0,00,0.0,,M,,M,0,0000*53
[2021-02-22 16:26:07.432] $GPGGA,072558.90,,,,,0,00,0.0,,M,,M,0,0000*52
[2021-02-22 16:26:07.432] $GPGGA,072559.00,,,,,0,00,0.0,,M,,M,0,0000*5A
[2021-02-22 16:26:07.432] $GPGGA,072559.10,,,,,0,00,0.0,,M,,M,0,0000*5B
[2021-02-22 16:26:07.432] $GPGGA,072559.20,,,,,0,00,0.0,,M,,M,0,0000*58
[2021-02-22 16:26:07.432] $GPGGA,072559.30,,,,,0,00,0.0,,M,,M,0,0000*59
[2021-02-22 16:26:07.432] $GPGGA,072559.40,,,,,0,00,0.0,,M,,M,0,0000*5E
[2021-02-22 16:26:07.432] $GPGGA,072559.50,,,,,0,00,0.0,,M,,M,0,0000*5F
[2021-02-22 16:26:07.432] $GPGGA,072559.60,,,,,0,00,0.0,,M,,M,0,0000*5C
[2021-02-22 16:26:07.432] $GPGGA,072559.70,,,,,0,00,0.0,,M,,M,0,0000*5D
[2021-02-22 16:26:07.447] $GPGGA,072559.80,,,,,0,00,0.0,,M,,M,0,0000*52
[2021-02-22 16:26:07.447] $GPGGA,072559.90,,,,,0,00,0.0,,M,,M,0,0000*53
[2021-02-22 16:26:07.447] $GPGGA,072600.00,,,,,0,00,0.0,,M,,M,0,0000*55
[2021-02-22 16:26:07.447] $GPGGA,072600.10,,,,,0,00,0.0,,M,,M,0,0000*54
[2021-02-22 16:26:07.447] $GPGGA,072600.20,,,,,0,00,0.0,,M,,M,0,0000*57
[2021-02-22 16:26:07.447] $GPGGA,072600.30,,,,,0,00,0.0,,M,,M,0,0000*56
[2021-02-22 16:26:07.447] $GPGGA,072600.40,,,,,0,00,0.0,,M,,M,0,0000*51
[2021-02-22 16:26:07.447] $GPGGA,072600.50,,,,,0,00,0.0,,M,,M,0,0000*50
[2021-02-22 16:26:07.447] $GPGGA,072600.60,,,,,0,00,0.0,,M,,M,0,0000*53
[2021-02-22 16:26:07.447] $GPGGA,072600.70,,,,,0,00,0.0,,M,,M,0,0000*52
[2021-02-22 16:26:07.447] $GPGGA,072600.80,,,,,0,00,0.0,,M,,M,0,0000*5D
[2021-02-22 16:26:07.447] $GPGGA,072600.90,,,,,0,00,0.0,,M,,M,0,0000*5C
[2021-02-22 16:26:07.447] $GPGGA,072601.00,,,,,0,00,0.0,,M,,M,0,0000*54
[2021-02-22 16:26:07.447] $GPGGA,072601.10,,,,,0,00,0.0,,M,,M,0,0000*55
[2021-02-22 16:26:07.447] $GPGGA,072601.20,,,,,0,00,0.0,,M,,M,0,0000*56
[2021-02-22 16:26:07.447] $GPGGA,072601.30,,,,,0,00,0.0,,M,,M,0,0000*57
[2021-02-22 16:26:07.447] $GPGGA,072601.40,,,,,0,00,0.0,,M,,M,0,0000*50
[2021-02-22 16:26:07.447] $GPGGA,072601.50,,,,,0,00,0.0,,M,,M,0,0000*51
[2021-02-22 16:26:07.447] $GPGGA,072601.60,,,,,0,00,0.0,,M,,M,0,0000*52
[2021-02-22 16:26:07.447] $GPGGA,072601.70,,,,,0,00,0.0,,M,,M,0,0000*53
[2021-02-22 16:26:07.447] $GPGGA,072601.80,,,,,0,00,0.0,,M,,M,0,0000*5C
[2021-02-22 16:26:07.447] $GPGGA,072601.90,,,,,0,00,0.0,,M,,M,0,0000*5D
[2021-02-22 16:26:07.463] $GPGGA,072602.00,,,,,0,00,0.0,,M,,M,0,0000*57
[2021-02-22 16:26:07.463] $GPGGA,072602.10,,,,,0,00,0.0,,M,,M,0,0000*56
[2021-02-22 16:26:07.463] $GPGGA,072602.20,,,,,0,00,0.0,,M,,M,0,0000*55
[2021-02-22 16:26:07.463] $GPGGA,072602.30,,,,,0,00,0.0,,M,,M,0,0000*54
[2021-02-22 16:26:07.463] $GPGGA,072602.40,,,,,0,00,0.0,,M,,M,0,0000*53
[2021-02-22 16:26:07.463] $GPGGA,072602.50,,,,,0,00,0.0,,M,,M,0,0000*52
[2021-02-22 16:26:07.463] $GPGGA,072602.60,,,,,0,00,0.0,,M,,M,0,0000*51
[2021-02-22 16:26:07.463] $GPGGA,072602.70,,,,,0,00,0.0,,M,,M,0,0000*50
[2021-02-22 16:26:07.463] $GPGGA,072602.80,,,,,0,00,0.0,,M,,M,0,0000*5F
[2021-02-22 16:26:07.463] $GPGGA,072602.90,,,,,0,00,0.0,,M,,M,0,0000*5E
[2021-02-22 16:26:07.463] $GPGGA,072603.00,,,,,0,00,0.0,,M,,M,0,0000*56
[2021-02-22 16:26:07.463] $GPGGA,072603.10,,,,,0,00,0.0,,M,,M,0,0000*57
[2021-02-22 16:26:07.463] $GPGGA,072603.20,,,,,0,00,0.0,,M,,M,0,0000*54
[2021-02-22 16:26:07.463] $GPGGA,072603.30,,,,,0,00,0.0,,M,,M,0,0000*55
[2021-02-22 16:26:07.463] $GPGGA,072603.40,,,,,0,00,0.0,,M,,M,0,0000*52
[2021-02-22 16:26:07.463] $GPGGA,072603.50,,,,,0,00,0.0,,M,,M,0,0000*53
[2021-02-22 16:26:07.463] $GPGGA,072603.60,,,,,0,00,0.0,,M,,M,0,0000*50
[2021-02-22 16:26:07.463] $GPGGA,072603.70,,,,,0,00,0.0,,M,,M,0,0000*51
[2021-02-22 16:26:07.463] $GPGGA,072603.80,,,,,0,00,0.0,,M,,M,0,0000*5E
[2021-02-22 16:26:07.463] $GPGGA,072603.90,,,,,0,00,0.0,,M,,M,0,0000*5F
[2021-02-22 16:26:07.463] $GPGGA,072604.00,,,,,0,00,0.0,,M,,M,0,0000*51
[2021-02-22 16:26:07.479] $GPGGA,072604.10,,,,,0,00,0.0,,M,,M,0,0000*50
[2021-02-22 16:26:07.479] $GPGGA,072604.20,,,,,0,00,0.0,,M,,M,0,0000*53
[2021-02-22 16:26:07.479] $GPGGA,072604.30,,,,,0,00,0.0,,M,,M,0,0000*52
[2021-02-22 16:26:07.479] $GPGGA,072604.40,,,,,0,00,0.0,,M,,M,0,0000*55
[2021-02-22 16:26:07.479] $GPGGA,072604.50,,,,,0,00,0.0,,M,,M,0,0000*54
[2021-02-22 16:26:07.479] $GPGGA,072604.60,,,,,0,00,0.0,,M,,M,0,0000*57
[2021-02-22 16:26:07.479] $GPGGA,072604.70,,,,,0,00,0.0,,M,,M,0,0000*56
[2021-02-22 16:26:07.479] $GPGGA,072604.80,,,,,0,00,0.0,,M,,M,0,0000*59
[2021-02-22 16:26:07.479] $GPGGA,072604.90,,,,,0,00,0.0,,M,,M,0,0000*58
[2021-02-22 16:26:07.479] $GPGGA,072605.00,,,,,0,00,0.0,,M,,M,0,0000*50
[2021-02-22 16:26:07.479] $GPGGA,072605.10,,,,,0,00,0.0,,M,,M,0,0000*51
[2021-02-22 16:26:07.479] $GPGGA,072605.20,,,,,0,00,0.0,,M,,M,0,0000*52
[2021-02-22 16:26:07.479] $GPGGA,072605.30,,,,,0,00,0.0,,M,,M,0,0000*53
[2021-02-22 16:26:07.479] $GPGGA,072605.40,,,,,0,00,0.0,,M,,M,0,0000*54
[2021-02-22 16:26:07.479] $GPGGA,072605.50,,,,,0,00,0.0,,M,,M,0,0000*55
[2021-02-22 16:26:07.479] $GPGGA,072605.60,,,,,0,00,0.0,,M,,M,0,0000*56
[2021-02-22 16:26:07.479] $GPGGA,072605.70,,,,,0,00,0.0,,M,,M,0,0000*57
[2021-02-22 16:26:07.479] $GPGGA,072605.80,,,,,0,00,0.0,,M,,M,0,0000*58
[2021-02-22 16:26:07.479] $GPGGA,072605.90,,,,,0,00,0.0,,M,,M,0,0000*59
[2021-02-22 16:26:07.479] $GPGGA,072606.00,,,,,0,00,0.0,,M,,M,0,0000*53
[2021-02-22 16:26:07.479] $GPGGA,072606.10,,,,,0,00,0.0,,M,,M,0,0000*52
[2021-02-22 16:26:07.479] $GPGGA,072606.20,,,,,0,00,0.0,,M,,M,0,0000*51
[2021-02-22 16:26:07.479] $GPGGA,072606.30,,,,,0,00,0.0,,M,,M,0,0000*50
[2021-02-22 16:26:07.479] $GPGGA,072606.40,,,,,0,00,0.0,,M,,M,0,0000*57
[2021-02-22 16:26:07.479] $GPGGA,072606.50,,,,,0,00,0.0,,M,,M,0,0000*56
[2021-02-22 16:26:07.479] $GPGGA,072606.60,,,,,0,00,0.0,,M,,M,0,0000*55
[2021-02-22 16:26:07.479] $GPGGA,072606.70,,,,,0,00,0.0,,M,,M,0,0000*54
[2021-02-22 16:26:07.479] $GPGGA,072606.80,,,,,0,00,0.0,,M,,M,0,0000*5B
[2021-02-22 16:26:07.479] $GPGGA,072606.90,,,,,0,00,0.0,,M,,M,0,0000*5A
[2021-02-22 16:26:07.479] $GPGGA,072607.00,,,,,0,00,0.0,,M,,M,0,0000*52
[2021-02-22 16:26:07.479] $GPGGA,072607.10,,,,,0,00,0.0,,M,,M,0,0000*53
[2021-02-22 16:26:07.588] $GPGGA,072607.20,,,,,0,00,0.0,,M,,M,0,0000*50
[2021-02-22 16:26:07.682] $GPGGA,072607.30,,,,,0,00,0.0,,M,,M,0,0000*51
[2021-02-22 16:26:07.776] $GPGGA,072607.40,,,,,0,00,0.0,,M,,M,0,0000*56
[2021-02-22 16:26:07.869] $GPGGA,072607.50,,,,,0,00,0.0,,M,,M,0,0000*57
[2021-02-22 16:26:07.979] $GPGGA,072607.60,,,,,0,00,0.0,,M,,M,0,0000*54
[2021-02-22 16:26:08.072] $GPGGA,072607.70,,,,,0,00,0.0,,M,,M,0,0000*55
[2021-02-22 16:26:08.166] $GPGGA,072607.80,,,,,0,00,0.0,,M,,M,0,0000*5A
[2021-02-22 16:26:08.291] $GPGGA,072607.90,,,,,0,00,0.0,,M,,M,0,0000*5B
[2021-02-22 16:26:08.385] $GPGGA,072608.00,,,,,0,00,0.0,,M,,M,0,0000*5D
[2021-02-22 16:26:08.479] $GPGGA,072608.10,,,,,0,00,0.0,,M,,M,0,0000*5C
[2021-02-22 16:26:08.572] $GPGGA,072608.20,,,,,0,00,0.0,,M,,M,0,0000*5F
[2021-02-22 16:26:08.682] $GPGGA,072608.30,,,,,0,00,0.0,,M,,M,0,0000*5E
[2021-02-22 16:26:08.775] $GPGGA,072608.40,,,,,0,00,0.0,,M,,M,0,0000*59
[2021-02-22 16:26:08.869] $GPGGA,072608.50,,,,,0,00,0.0,,M,,M,0,0000*58
[2021-02-22 16:26:08.979] $GPGGA,072608.60,,,,,0,00,0.0,,M,,M,0,0000*5B
[2021-02-22 16:26:09.088] $GPGGA,072608.70,,,,,0,00,0.0,,M,,M,0,0000*5A
[2021-02-22 16:26:09.182] $GPGGA,072608.80,,,,,0,00,0.0,,M,,M,0,0000*55
[2021-02-22 16:26:09.275] $GPGGA,072608.90,,,,,0,00,0.0,,M,,M,0,0000*54
[2021-02-22 16:26:09.369] $GPGGA,072609.00,,,,,0,00,0.0,,M,,M,0,0000*5C
[2021-02-22 16:26:09.479] $GPGGA,072609.10,,,,,0,00,0.0,,M,,M,0,0000*5D
[2021-02-22 16:26:09.588] $GPGGA,072609.20,,,,,0,00,0.0,,M,,M,0,0000*5E
[2021-02-22 16:26:09.682] $GPGGA,072609.30,,,,,0,00,0.0,,M,,M,0,0000*5F
[2021-02-22 16:26:09.775] $GPGGA,072609.40,,,,,0,00,0.0,,M,,M,0,0000*58
[2021-02-22 16:26:09.885] $GPGGA,072609.50,,,,,0,00,0.0,,M,,M,0,0000*59
[2021-02-22 16:26:09.978] $GPGGA,072609.60,,,,,0,00,0.0,,M,,M,0,0000*5A
[2021-02-22 16:26:10.072] $GPGGA,072609.70,,,,,0,00,0.0,,M,,M,0,0000*5B
[2021-02-22 16:26:10.182] $GPGGA,072609.80,,,,,0,00,0.0,,M,,M,0,0000*54
[2021-02-22 16:26:10.291] $GPGGA,072609.90,,,,,0,00,0.0,,M,,M,0,0000*55
[2021-02-22 16:26:10.385] $GPGGA,072610.00,,,,,0,00,0.0,,M,,M,0,0000*54
[2021-02-22 16:26:10.478] $GPGGA,072610.10,,,,,0,00,0.0,,M,,M,0,0000*55
[2021-02-22 16:26:10.588] $GPGGA,072610.20,,,,,0,00,0.0,,M,,M,0,0000*56
[2021-02-22 16:26:10.682] $GPGGA,072610.30,,,,,0,00,0.0,,M,,M,0,0000*57
[2021-02-22 16:26:10.775] $GPGGA,072610.40,,,,,0,00,0.0,,M,,M,0,0000*50
[2021-02-22 16:26:10.869] $GPGGA,072610.50,,,,,0,00,0.0,,M,,M,0,0000*51
[2021-02-22 16:26:10.994] $GPGGA,072610.60,,,,,0,00,0.0,,M,,M,0,0000*52
[2021-02-22 16:26:11.088] $GPGGA,072610.70,,,,,0,00,0.0,,M,,M,0,0000*53
[2021-02-22 16:26:11.182] $GPGGA,072610.80,,,,,0,00,0.0,,M,,M,0,0000*5C
[2021-02-22 16:26:11.275] $GPGGA,072610.90,,,,,0,00,0.0,,M,,M,0,0000*5D
[2021-02-22 16:26:11.385] $GPGGA,072611.00,,,,,0,00,0.0,,M,,M,0,0000*55
[2021-02-22 16:26:11.478] $GPGGA,072611.10,,,,,0,00,0.0,,M,,M,0,0000*54
[2021-02-22 16:26:11.588] $GPGGA,072611.20,,,,,0,00,0.0,,M,,M,0,0000*57
[2021-02-22 16:26:11.681] $GPGGA,072611.30,,,,,0,00,0.0,,M,,M,0,0000*56
[2021-02-22 16:26:11.775] $GPGGA,072611.40,,,,,0,00,0.0,,M,,M,0,0000*51
[2021-02-22 16:26:11.885] $GPGGA,072611.50,,,,,0,00,0.0,,M,,M,0,0000*50
[2021-02-22 16:26:11.978] $GPGGA,072611.60,,,,,0,00,0.0,,M,,M,0,0000*53
[2021-02-22 16:26:12.072] $GPGGA,072611.70,,,,,0,00,0.0,,M,,M,0,0000*52
[2021-02-22 16:26:12.166] $GPGGA,072611.80,,,,,0,00,0.0,,M,,M,0,0000*5D
[2021-02-22 16:26:12.291] $GPGGA,072611.90,,,,,0,00,0.0,,M,,M,0,0000*5C
[2021-02-22 16:26:12.385] $GPGGA,072612.00,,,,,0,00,0.0,,M,,M,0,0000*56
[2021-02-22 16:26:12.478] $GPGGA,072612.10,,,,,0,00,0.0,,M,,M,0,0000*57
[2021-02-22 16:26:12.572] $GPGGA,072612.20,,,,,0,00,0.0,,M,,M,0,0000*54
[2021-02-22 16:26:12.681] $GPGGA,072612.30,,,,,0,00,0.0,,M,,M,0,0000*55
[2021-02-22 16:26:12.775] $GPGGA,072612.40,,,,,0,00,0.0,,M,,M,0,0000*52
[2021-02-22 16:26:12.869] $GPGGA,072612.50,,,,,0,00,0.0,,M,,M,0,0000*53
[2021-02-22 16:26:12.978] $GPGGA,072612.60,,,,,0,00,0.0,,M,,M,0,0000*50
[2021-02-22 16:26:13.088] $GPGGA,072612.70,,,,,0,00,0.0,,M,,M,0,0000*51
[2021-02-22 16:26:13.181] $GPGGA,072612.80,,,,,0,00,0.0,,M,,M,0,0000*5E
[2021-02-22 16:26:13.275] $GPGGA,072612.90,,,,,0,00,0.0,,M,,M,0,0000*5F
[2021-02-22 16:26:13.369] $GPGGA,072613.00,,,,,0,00,0.0,,M,,M,0,0000*57
[2021-02-22 16:26:13.478] $GPGGA,072613.10,,,,,0,00,0.0,,M,,M,0,0000*56
[2021-02-22 16:26:13.588] $GPGGA,072613.20,,,,,0,00,0.0,,M,,M,0,0000*55
[2021-02-22 16:26:13.681] $GPGGA,072613.30,,,,,0,00,0.0,,M,,M,0,0000*54
[2021-02-22 16:26:13.791] $GPGGA,072613.40,,,,,0,00,0.0,,M,,M,0,0000*53
[2021-02-22 16:26:13.884] $GPGGA,072613.50,,,,,0,00,0.0,,M,,M,0,0000*52
[2021-02-22 16:26:13.978] $GPGGA,072613.60,,,,,0,00,0.0,,M,,M,0,0000*51
[2021-02-22 16:26:14.072] $GPGGA,072613.70,,,,,0,00,0.0,,M,,M,0,0000*50
[2021-02-22 16:26:14.181] $GPGGA,072613.80,,,,,0,00,0.0,,M,,M,0,0000*5F
[2021-02-22 16:26:14.291] $GPGGA,072613.90,,,,,0,00,0.0,,M,,M,0,0000*5E
[2021-02-22 16:26:14.384] $GPGGA,072614.00,,,,,0,00,0.0,,M,,M,0,0000*50
[2021-02-22 16:26:14.478] $GPGGA,072614.10,,,,,0,00,0.0,,M,,M,0,0000*51
[2021-02-22 16:26:14.587] $GPGGA,072614.20,,,,,0,00,0.0,,M,,M,0,0000*52
[2021-02-22 16:26:14.681] $GPGGA,072614.30,,,,,0,00,0.0,,M,,M,0,0000*53
[2021-02-22 16:26:14.775] $GPGGA,072614.40,,,,,0,00,0.0,,M,,M,0,0000*54
[2021-02-22 16:26:14.869] $GPGGA,072614.50,,,,,0,00,0.0,,M,,M,0,0000*55
[2021-02-22 16:26:14.994] $GPGGA,072614.60,,,,,0,00,0.0,,M,,M,0,0000*56
[2021-02-22 16:26:15.088] $GPGGA,072614.70,,,,,0,00,0.0,,M,,M,0,0000*57
[2021-02-22 16:26:15.181] $GPGGA,072614.80,,,,,0,00,0.0,,M,,M,0,0000*58
[2021-02-22 16:26:15.275] $GPGGA,072614.90,,,,,0,00,0.0,,M,,M,0,0000*59
[2021-02-22 16:26:15.384] $GPGGA,072615.00,,,,,0,00,0.0,,M,,M,0,0000*51
[2021-02-22 16:26:15.478] $GPGGA,072615.10,,,,,0,00,0.0,,M,,M,0,0000*50
[2021-02-22 16:26:15.572] $GPGGA,072615.20,,,,,0,00,0.0,,M,,M,0,0000*53
[2021-02-22 16:26:15.681] $GPGGA,072615.30,,,,,0,00,0.0,,M,,M,0,0000*52
[2021-02-22 16:26:15.775] $GPGGA,072615.40,,,,,0,00,0.0,,M,,M,0,0000*55
[2021-02-22 16:26:15.884] $GPGGA,072615.50,,,,,0,00,0.0,,M,,M,0,0000*54
[2021-02-22 16:26:15.978] $GPGGA,072615.60,,,,,0,00,0.0,,M,,M,0,0000*57
[2021-02-22 16:26:16.072] $GPGGA,072615.70,,,,,0,00,0.0,,M,,M,0,0000*56
[2021-02-22 16:26:16.166] $GPGGA,072615.80,,,,,0,00,0.0,,M,,M,0,0000*59
[2021-02-22 16:26:16.290] $GPGGA,072615.90,,,,,0,00,0.0,,M,,M,0,0000*58
[2021-02-22 16:26:16.384] $GPGGA,072616.00,,,,,0,00,0.0,,M,,M,0,0000*52
[2021-02-22 16:26:16.478] $GPGGA,072616.10,,,,,0,00,0.0,,M,,M,0,0000*53
[2021-02-22 16:26:16.572] $GPGGA,072616.20,,,,,0,00,0.0,,M,,M,0,0000*50
[2021-02-22 16:26:16.681] $GPGGA,072616.30,,,,,0,00,0.0,,M,,M,0,0000*51
[2021-02-22 16:26:16.775] $GPGGA,072616.40,,,,,0,00,0.0,,M,,M,0,0000*56
[2021-02-22 16:26:16.869] $GPGGA,072616.50,,,,,0,00,0.0,,M,,M,0,0000*57
[2021-02-22 16:26:16.994] $GPGGA,072616.60,,,,,0,00,0.0,,M,,M,0,0000*54
[2021-02-22 16:26:17.087] $GPGGA,072616.70,,,,,0,00,0.0,,M,,M,0,0000*55
[2021-02-22 16:26:17.181] $GPGGA,072616.80,,,,,0,00,0.0,,M,,M,0,0000*5A
[2021-02-22 16:26:17.275] $GPGGA,072616.90,,,,,0,00,0.0,,M,,M,0,0000*5B
[2021-02-22 16:26:17.384] $GPGGA,072617.00,,,,,0,00,0.0,,M,,M,0,0000*53
[2021-02-22 16:26:17.478] $GPGGA,072617.10,,,,,0,00,0.0,,M,,M,0,0000*52
[2021-02-22 16:26:17.572] $GPGGA,072617.20,,,,,0,00,0.0,,M,,M,0,0000*51
[2021-02-22 16:26:17.681] $GPGGA,072617.30,,,,,0,00,0.0,,M,,M,0,0000*50
[2021-02-22 16:26:17.790] $GPGGA,072617.40,,,,,0,00,0.0,,M,,M,0,0000*57
[2021-02-22 16:26:17.884] $GPGGA,072617.50,,,,,0,00,0.0,,M,,M,0,0000*56
[2021-02-22 16:26:17.978] $GPGGA,072617.60,,,,,0,00,0.0,,M,,M,0,0000*55
[2021-02-22 16:26:18.072] $GPGGA,072617.70,,,,,0,00,0.0,,M,,M,0,0000*54
[2021-02-22 16:26:18.181] $GPGGA,072617.80,,,,,0,00,0.0,,M,,M,0,0000*5B
[2021-02-22 16:26:18.290] $GPGGA,072617.90,,,,,0,00,0.0,,M,,M,0,0000*5A
[2021-02-22 16:26:18.384] $GPGGA,072618.00,,,,,0,00,0.0,,M,,M,0,0000*5C
[2021-02-22 16:26:18.478] $GPGGA,072618.10,,,,,0,00,0.0,,M,,M,0,0000*5D
[2021-02-22 16:26:18.587] $GPGGA,072618.20,,,,,0,00,0.0,,M,,M,0,0000*5E
[2021-02-22 16:26:18.681] $GPGGA,072618.30,,,,,0,00,0.0,,M,,M,0,0000*5F
[2021-02-22 16:26:18.775] $GPGGA,072618.40,,,,,0,00,0.0,,M,,M,0,0000*58
[2021-02-22 16:26:18.884] $GPGGA,072618.50,,,,,0,00,0.0,,M,,M,0,0000*59
[2021-02-22 16:26:18.993] $GPGGA,072618.60,,,,,0,00,0.0,,M,,M,0,0000*5A
[2021-02-22 16:26:19.087] $GPGGA,072618.70,,,,,0,00,0.0,,M,,M,0,0000*5B
[2021-02-22 16:26:19.181] $GPGGA,072618.80,,,,,0,00,0.0,,M,,M,0,0000*54
[2021-02-22 16:26:19.290] $GPGGA,072618.90,,,,,0,00,0.0,,M,,M,0,0000*55
[2021-02-22 16:26:19.384] $GPGGA,072619.00,,,,,0,00,0.0,,M,,M,0,0000*5D
[2021-02-22 16:26:19.478] $GPGGA,072619.10,,,,,0,00,0.0,,M,,M,0,0000*5C
[2021-02-22 16:26:19.572] $GPGGA,072619.20,,,,,0,00,0.0,,M,,M,0,0000*5F
[2021-02-22 16:26:19.681] $GPGGA,072619.30,,,,,0,00,0.0,,M,,M,0,0000*5E
[2021-02-22 16:26:19.790] $GPGGA,072619.40,,,,,0,00,0.0,,M,,M,0,0000*59
[2021-02-22 16:26:19.884] $GPGGA,072619.50,,,,,0,00,0.0,,M,,M,0,0000*58
[2021-02-22 16:26:19.978] $GPGGA,072619.60,,,,,0,00,0.0,,M,,M,0,0000*5B
[2021-02-22 16:26:20.072] $GPGGA,072619.70,,,,,0,00,0.0,,M,,M,0,0000*5A
[2021-02-22 16:26:20.165] $GPGGA,072619.80,,,,,0,00,0.0,,M,,M,0,0000*55
[2021-02-22 16:26:20.275] $GPGGA,072619.90,,,,,0,00,0.0,,M,,M,0,0000*54
[2021-02-22 16:26:20.384] $GPGGA,072620.00,,,,,0,00,0.0,,M,,M,0,0000*57
[2021-02-22 16:26:20.478] $GPGGA,072620.10,,,,,0,00,0.0,,M,,M,0,0000*56
[2021-02-22 16:26:20.587] $GPGGA,072620.20,,,,,0,00,0.0,,M,,M,0,0000*55
[2021-02-22 16:26:20.681] $GPGGA,072620.30,,,,,0,00,0.0,,M,,M,0,0000*54
[2021-02-22 16:26:20.775] $GPGGA,072620.40,,,,,0,00,0.0,,M,,M,0,0000*53
[2021-02-22 16:26:20.868] $GPGGA,072620.50,,,,,0,00,0.0,,M,,M,0,0000*52
[2021-02-22 16:26:20.993] $GPGGA,072620.60,,,,,0,00,0.0,,M,,M,0,0000*51
[2021-02-22 16:26:21.087] $GPGGA,072620.70,,,,,0,00,0.0,,M,,M,0,0000*50
[2021-02-22 16:26:21.181] $GPGGA,072620.80,,,,,0,00,0.0,,M,,M,0,0000*5F
[2021-02-22 16:26:21.275] $GPGGA,072620.90,,,,,0,00,0.0,,M,,M,0,0000*5E
[2021-02-22 16:26:21.384] $GPGGA,072621.00,,,,,0,00,0.0,,M,,M,0,0000*56
[2021-02-22 16:26:21.478] $GPGGA,072621.10,,,,,0,00,0.0,,M,,M,0,0000*57
[2021-02-22 16:26:21.571] $GPGGA,072621.20,,,,,0,00,0.0,,M,,M,0,0000*54
[2021-02-22 16:26:21.681] $GPGGA,072621.30,,,,,0,00,0.0,,M,,M,0,0000*55
[2021-02-22 16:26:21.790] $GPGGA,072621.40,,,,,0,00,0.0,,M,,M,0,0000*52
[2021-02-22 16:26:21.884] $GPGGA,072621.50,,,,,0,00,0.0,,M,,M,0,0000*53
[2021-02-22 16:26:21.978] $GPGGA,072621.60,,,,,0,00,0.0,,M,,M,0,0000*50
[2021-02-22 16:26:22.071] $GPGGA,072621.70,,,,,0,00,0.0,,M,,M,0,0000*51
[2021-02-22 16:26:22.181] $GPGGA,072621.80,,,,,0,00,0.0,,M,,M,0,0000*5E
[2021-02-22 16:26:22.290] $GPGGA,072621.90,,,,,0,00,0.0,,M,,M,0,0000*5F
[2021-02-22 16:26:22.384] $GPGGA,072622.00,,,,,0,00,0.0,,M,,M,0,0000*55
[2021-02-22 16:26:22.493] $GPGGA,072622.10,,,,,0,00,0.0,,M,,M,0,0000*54
[2021-02-22 16:26:22.587] $GPGGA,072622.20,,,,,0,00,0.0,,M,,M,0,0000*57
[2021-02-22 16:26:22.681] $GPGGA,072622.30,,,,,0,00,0.0,,M,,M,0,0000*56
[2021-02-22 16:26:22.774] $GPGGA,072622.40,,,,,0,00,0.0,,M,,M,0,0000*51
[2021-02-22 16:26:22.884] $GPGGA,072622.50,,,,,0,00,0.0,,M,,M,0,0000*50
[2021-02-22 16:26:22.993] $GPGGA,072622.60,,,,,0,00,0.0,,M,,M,0,0000*53
[2021-02-22 16:26:23.087] $GPGGA,072622.70,,,,,0,00,0.0,,M,,M,0,0000*52
[2021-02-22 16:26:23.181] $GPGGA,072622.80,,,,,0,00,0.0,,M,,M,0,0000*5D
[2021-02-22 16:26:23.290] $GPGGA,072622.90,,,,,0,00,0.0,,M,,M,0,0000*5C
[2021-02-22 16:26:23.384] $GPGGA,072623.00,,,,,0,00,0.0,,M,,M,0,0000*54
[2021-02-22 16:26:23.478] $GPGGA,072623.10,,,,,0,00,0.0,,M,,M,0,0000*55
[2021-02-22 16:26:23.571] $GPGGA,072623.20,,,,,0,00,0.0,,M,,M,0,0000*56
[2021-02-22 16:26:23.696] $GPGGA,072623.30,,,,,0,00,0.0,,M,,M,0,0000*57
[2021-02-22 16:26:23.790] $GPGGA,072623.40,,,,,0,00,0.0,,M,,M,0,0000*50
[2021-02-22 16:26:23.884] $GPGGA,072623.50,,,,,0,00,0.0,,M,,M,0,0000*51
[2021-02-22 16:26:23.978] $GPGGA,072623.60,,,,,0,00,0.0,,M,,M,0,0000*52
[2021-02-22 16:26:24.071] $GPGGA,072623.70,,,,,0,00,0.0,,M,,M,0,0000*53
[2021-02-22 16:26:24.181] $GPGGA,072623.80,,,,,0,00,0.0,,M,,M,0,0000*5C
[2021-02-22 16:26:24.274] $GPGGA,072623.90,,,,,0,00,0.0,,M,,M,0,0000*5D
[2021-02-22 16:26:24.384] $GPGGA,072624.00,,,,,0,00,0.0,,M,,M,0,0000*53
[2021-02-22 16:26:24.477] $GPGGA,072624.10,,,,,0,00,0.0,,M,,M,0,0000*52
[2021-02-22 16:26:24.587] $GPGGA,072624.20,,,,,0,00,0.0,,M,,M,0,0000*51
[2021-02-22 16:26:24.681] $GPGGA,072624.30,,,,,0,00,0.0,,M,,M,0,0000*50
[2021-02-22 16:26:24.774] $GPGGA,072624.40,,,,,0,00,0.0,,M,,M,0,0000*57
[2021-02-22 16:26:24.868] $GPGGA,072624.50,,,,,0,00,0.0,,M,,M,0,0000*56
[2021-02-22 16:26:24.977] $GPGGA,072624.60,,,,,0,00,0.0,,M,,M,0,0000*55
[2021-02-22 16:26:25.087] $GPGGA,072624.70,,,,,0,00,0.0,,M,,M,0,0000*54
[2021-02-22 16:26:25.181] $GPGGA,072624.80,,,,,0,00,0.0,,M,,M,0,0000*5B
[2021-02-22 16:26:25.274] $GPGGA,072624.90,,,,,0,00,0.0,,M,,M,0,0000*5A
[2021-02-22 16:26:25.384] $GPGGA,072625.00,,,,,0,00,0.0,,M,,M,0,0000*52
[2021-02-22 16:26:25.477] $GPGGA,072625.10,,,,,0,00,0.0,,M,,M,0,0000*53
[2021-02-22 16:26:25.571] $GPGGA,072625.20,,,,,0,00,0.0,,M,,M,0,0000*50
[2021-02-22 16:26:25.696] $GPGGA,072625.30,3713.9876075,N,13701.4767080,E,1,06,1.3,86.6215,M,37.55,M,,*5F
[2021-02-22 16:26:25.790] $GPGGA,072625.40,3713.9877169,N,13701.4769576,E,1,06,1.3,85.3034,M,37.55,M,,*50
[2021-02-22 16:26:25.884] $GPGGA,072625.50,3713.9877442,N,13701.4771529,E,1,06,1.3,85.4009,M,37.55,M,,*57
[2021-02-22 16:26:25.993] $GPGGA,072625.60,3713.9878806,N,13701.4769286,E,1,06,1.3,85.1366,M,37.55,M,,*53
[2021-02-22 16:26:26.102] $GPGGA,072625.70,3713.9876985,N,13701.4764756,E,1,06,1.3,86.0038,M,37.55,M,,*59
[2021-02-22 16:26:26.180] $GPGGA,072625.80,3713.9878191,N,13701.4766842,E,1,06,1.3,85.6831,M,37.55,M,,*59
[2021-02-22 16:26:26.305] $GPGGA,072625.90,3713.9877552,N,13701.4767371,E,1,06,1.3,85.3163,M,37.55,M,,*5D
[2021-02-22 16:26:26.384] $GPGGA,072626.00,3713.9876727,N,13701.4767769,E,1,06,1.3,85.3964,M,37.55,M,,*54
[2021-02-22 16:26:26.509] $GPGGA,072626.10,3713.9878063,N,13701.4768540,E,1,06,1.3,84.9046,M,37.55,M,,*58
[2021-02-22 16:26:26.587] $GPGGA,072626.20,3713.9878689,N,13701.4768559,E,1,06,1.3,85.2396,M,37.55,M,,*55
[2021-02-22 16:26:26.696] $GPGGA,072626.30,3713.9877809,N,13701.4767164,E,1,06,1.3,85.1475,M,37.55,M,,*51
[2021-02-22 16:26:26.774] $GPGGA,072626.40,3713.9877432,N,13701.4765720,E,1,06,1.3,85.0441,M,37.55,M,,*50
[2021-02-22 16:26:26.899] $GPGGA,072626.50,3713.9878242,N,13701.4765161,E,1,06,1.3,85.0981,M,37.55,M,,*5D
[2021-02-22 16:26:26.977] $GPGGA,072626.60,3713.9877216,N,13701.4761917,E,1,06,1.3,85.4018,M,37.55,M,,*50
[2021-02-22 16:26:27.102] $GPGGA,072626.70,3713.9876508,N,13701.4762140,E,1,06,1.3,85.9239,M,37.55,M,,*5D
[2021-02-22 16:26:27.180] $GPGGA,072626.80,3713.9877077,N,13701.4765969,E,1,06,1.3,86.0597,M,37.55,M,,*53
[2021-02-22 16:26:27.305] $GPGGA,072626.90,3713.9879616,N,13701.4770155,E,1,06,1.3,84.9882,M,37.55,M,,*5C
[2021-02-22 16:26:27.384] $GPGGA,072627.00,3713.9878479,N,13701.4769186,E,1,06,1.3,85.9788,M,37.55,M,,*5C
[2021-02-22 16:26:27.493] $GPGGA,072627.10,3713.9879369,N,13701.4769533,E,1,06,1.3,85.5966,M,37.55,M,,*52
[2021-02-22 16:26:27.571] $GPGGA,072627.20,3713.9878027,N,13701.4767550,E,1,06,1.3,85.8109,M,37.55,M,,*5E
[2021-02-22 16:26:27.696] $GPGGA,072627.30,3713.9878147,N,13701.4768833,E,1,06,1.3,86.0642,M,37.55,M,,*5C
[2021-02-22 16:26:27.805] $GPGGA,072627.40,3713.9877185,N,13701.4767586,E,1,06,1.3,86.0497,M,37.55,M,,*5C
[2021-02-22 16:26:27.883] $GPGGA,072627.50,3713.9876720,N,13701.4768363,E,1,06,1.3,85.7753,M,37.55,M,,*58
[2021-02-22 16:26:27.993] $GPGGA,072627.60,3713.9876558,N,13701.4768725,E,1,06,1.3,85.6651,M,37.55,M,,*52
[2021-02-22 16:26:28.087] $GPGGA,072627.70,3713.9877411,N,13701.4767955,E,1,06,1.3,85.6640,M,37.55,M,,*58
[2021-02-22 16:26:28.196] $GPGGA,072627.80,3713.9876665,N,13701.4767060,E,1,06,1.3,85.9933,M,37.55,M,,*5C
[2021-02-22 16:26:28.274] $GPGGA,072627.90,3713.9876424,N,13701.4768436,E,1,06,1.3,86.0423,M,37.55,M,,*54
[2021-02-22 16:26:28.399] $GPGGA,072628.00,3713.9875547,N,13701.4766992,E,1,06,1.3,85.5018,M,37.55,M,,*52
[2021-02-22 16:26:28.477] $GPGGA,072628.10,3713.9876441,N,13701.4766130,E,1,06,1.3,85.1991,M,37.55,M,,*5B
[2021-02-22 16:26:28.602] $GPGGA,072628.20,3713.9876276,N,13701.4766561,E,1,06,1.3,85.6571,M,37.55,M,,*5F
[2021-02-22 16:26:28.680] $GPGGA,072628.30,3713.9877553,N,13701.4767637,E,1,06,1.3,85.3150,M,37.55,M,,*5C
[2021-02-22 16:26:28.805] $GPGGA,072628.40,3713.9877383,N,13701.4768217,E,1,06,1.3,84.9830,M,37.55,M,,*5D
[2021-02-22 16:26:28.883] $GPGGA,072628.50,3713.9878417,N,13701.4766559,E,1,06,1.3,84.3757,M,37.55,M,,*5E
[2021-02-22 16:26:28.993] $GPGGA,072628.60,3713.9878597,N,13701.4767246,E,1,06,1.3,84.6161,M,37.55,M,,*5A
[2021-02-22 16:26:29.071] $GPGGA,072628.70,3713.9878489,N,13701.4767346,E,1,06,1.3,84.9356,M,37.55,M,,*5D
[2021-02-22 16:26:29.196] $GPGGA,072628.80,3713.9878233,N,13701.4768315,E,1,06,1.3,85.4062,M,37.55,M,,*54
[2021-02-22 16:26:29.274] $GPGGA,072628.90,3713.9877077,N,13701.4767393,E,1,06,1.3,85.9032,M,37.55,M,,*51
[2021-02-22 16:26:29.399] $GPGGA,072629.00,3713.9876160,N,13701.4767273,E,1,06,1.3,85.7188,M,37.55,M,,*5E
[2021-02-22 16:26:29.477] $GPGGA,072629.10,3713.9876449,N,13701.4766919,E,1,06,1.3,85.7508,M,37.55,M,,*5B
[2021-02-22 16:26:29.602] $GPGGA,072629.20,3713.9878191,N,13701.4768784,E,1,06,1.3,85.4418,M,37.55,M,,*51
[2021-02-22 16:26:29.696] $GPGGA,072629.30,3713.9877905,N,13701.4769412,E,1,06,1.3,85.4724,M,37.55,M,,*5B
[2021-02-22 16:26:29.774] $GPGGA,072629.40,3713.9877444,N,13701.4769431,E,1,06,1.3,85.6183,M,37.55,M,,*5C
[2021-02-22 16:26:29.899] $GPGGA,072629.50,3713.9878336,N,13701.4768305,E,1,06,1.3,85.5076,M,37.55,M,,*59
[2021-02-22 16:26:29.977] $GPGGA,072629.60,3713.9878449,N,13701.4767136,E,1,06,1.3,85.9892,M,37.55,M,,*56
[2021-02-22 16:26:30.102] $GPGGA,072629.70,3713.9877841,N,13701.4769931,E,1,06,1.3,86.1416,M,37.55,M,,*56
[2021-02-22 16:26:30.180] $GPGGA,072629.80,3713.9878807,N,13701.4771792,E,1,06,1.3,85.8696,M,37.55,M,,*5A
[2021-02-22 16:26:30.305] $GPGGA,072629.90,3713.9877782,N,13701.4772913,E,1,06,1.3,85.9827,M,37.55,M,,*57
[2021-02-22 16:26:30.383] $GPGGA,072630.00,3713.9877690,N,13701.4773306,E,1,06,1.3,85.8081,M,37.55,M,,*5E
[2021-02-22 16:26:30.493] $GPGGA,072630.10,3713.9879195,N,13701.4774590,E,1,06,1.3,85.1317,M,37.55,M,,*58
[2021-02-22 16:26:30.571] $GPGGA,072630.20,3713.9882197,N,13701.4783891,E,1,07,1.3,87.3159,M,37.55,M,,*50
[2021-02-22 16:26:30.696] $GPGGA,072630.30,3713.9881338,N,13701.4784405,E,1,07,1.3,87.6702,M,37.55,M,,*5E
[2021-02-22 16:26:30.774] $GPGGA,072630.40,3713.9882481,N,13701.4784494,E,1,07,1.3,87.5825,M,37.55,M,,*5E
[2021-02-22 16:26:30.899] $GPGGA,072630.50,3713.9881467,N,13701.4784431,E,1,07,1.3,87.4793,M,37.55,M,,*58
[2021-02-22 16:26:30.977] $GPGGA,072630.60,3713.9882014,N,13701.4785849,E,1,08,1.3,87.2003,M,37.55,M,,*5D
[2021-02-22 16:26:31.102] $GPGGA,072630.70,3713.9883552,N,13701.4786212,E,1,08,1.3,86.8508,M,37.55,M,,*58
[2021-02-22 16:26:31.180] $GPGGA,072630.80,3713.9883319,N,13701.4784690,E,1,08,1.3,87.0525,M,37.55,M,,*54
[2021-02-22 16:26:31.305] $GPGGA,072630.90,3713.9884166,N,13701.4785321,E,1,08,1.3,87.2816,M,37.55,M,,*59
[2021-02-22 16:26:31.399] $GPGGA,072631.00,3713.9883815,N,13701.4783557,E,1,08,1.3,87.2943,M,37.55,M,,*5B
[2021-02-22 16:26:31.477] $GPGGA,072631.10,3713.9883589,N,13701.4781679,E,1,08,1.3,87.5366,M,37.55,M,,*55
[2021-02-22 16:26:31.602] $GPGGA,072631.20,3713.9883846,N,13701.4781810,E,1,08,1.3,87.9621,M,37.55,M,,*53
[2021-02-22 16:26:31.680] $GPGGA,072631.30,3713.9883283,N,13701.4780957,E,1,08,1.3,88.3829,M,37.55,M,,*51
[2021-02-22 16:26:31.805] $GPGGA,072631.40,3713.9883889,N,13701.4779846,E,1,09,1.3,88.4781,M,37.55,M,,*5A
[2021-02-22 16:26:31.883] $GPGGA,072631.50,3713.9883836,N,13701.4780109,E,1,09,1.3,88.6008,M,37.55,M,,*5F
[2021-02-22 16:26:31.993] $GPGGA,072631.60,3713.9884907,N,13701.4779976,E,1,09,1.3,88.1420,M,37.55,M,,*57
[2021-02-22 16:26:32.086] $GPGGA,072631.70,3713.9884638,N,13701.4779028,E,1,09,1.3,88.4628,M,37.55,M,,*58
[2021-02-22 16:26:32.196] $GPGGA,072631.80,3713.9884381,N,13701.4779518,E,1,09,1.3,88.5571,M,37.55,M,,*58
[2021-02-22 16:26:32.274] $GPGGA,072631.90,3713.9884167,N,13701.4779276,E,1,09,1.3,88.6635,M,37.55,M,,*5C
[2021-02-22 16:26:32.399] $GPGGA,072632.00,3713.9881994,N,13701.4776750,E,1,10,1.2,89.0252,M,37.55,M,,*52
[2021-02-22 16:26:32.477] $GPGGA,072632.10,3713.9882517,N,13701.4776847,E,1,10,1.2,88.8580,M,37.55,M,,*5F
[2021-02-22 16:26:32.602] $GPGGA,072632.20,3713.9882074,N,13701.4777413,E,1,10,1.2,88.7785,M,37.55,M,,*58
[2021-02-22 16:26:32.680] $GPGGA,072632.30,3713.9882295,N,13701.4776737,E,1,10,1.2,88.6201,M,37.55,M,,*58
[2021-02-22 16:26:32.805] $GPGGA,072632.40,3713.9882204,N,13701.4777748,E,1,10,1.2,88.6634,M,37.55,M,,*5C
[2021-02-22 16:26:32.883] $GPGGA,072632.50,3713.9882055,N,13701.4777467,E,1,10,1.2,88.3803,M,37.55,M,,*5A
[2021-02-22 16:26:32.993] $GPGGA,072632.60,3713.9882008,N,13701.4777864,E,1,10,1.2,88.5072,M,37.55,M,,*56
[2021-02-22 16:26:33.102] $GPGGA,072632.70,3713.9881081,N,13701.4777384,E,1,10,1.2,88.7468,M,37.55,M,,*5D
[2021-02-22 16:26:33.180] $GPGGA,072632.80,3713.9881308,N,13701.4777278,E,1,10,1.2,88.3425,M,37.55,M,,*5F
[2021-02-22 16:26:33.305] $GPGGA,072632.90,3713.9880674,N,13701.4777024,E,1,10,1.2,88.1627,M,37.55,M,,*58
[2021-02-22 16:26:33.383] $GPGGA,072633.00,3713.9879665,N,13701.4776516,E,1,10,1.2,88.3953,M,37.55,M,,*5D
[2021-02-22 16:26:33.508] $GPGGA,072633.10,3713.9880276,N,13701.4777071,E,1,10,1.2,88.0513,M,37.55,M,,*52
[2021-02-22 16:26:33.586] $GPGGA,072633.20,3713.9878905,N,13701.4777402,E,1,10,1.2,88.0381,M,37.55,M,,*54
[2021-02-22 16:26:33.696] $GPGGA,072633.30,3713.9878967,N,13701.4777195,E,1,10,1.2,87.9943,M,37.55,M,,*58
[2021-02-22 16:26:33.774] $GPGGA,072633.40,3713.9879695,N,13701.4777622,E,1,10,1.2,88.1387,M,37.55,M,,*52
[2021-02-22 16:26:33.899] $GPGGA,072633.50,3713.9879042,N,13701.4778553,E,1,10,1.2,88.0363,M,37.55,M,,*5E
[2021-02-22 16:26:33.977] $GPGGA,072633.60,3713.9880036,N,13701.4778503,E,1,10,1.2,87.7794,M,37.55,M,,*59
[2021-02-22 16:26:34.102] $GPGGA,072633.70,3713.9880174,N,13701.4778232,E,1,10,1.2,87.8229,M,37.55,M,,*56
[2021-02-22 16:26:34.180] $GPGGA,072633.80,3713.9879779,N,13701.4778059,E,1,10,1.2,88.0115,M,37.55,M,,*50
[2021-02-22 16:26:34.305] $GPGGA,072633.90,3713.9880184,N,13701.4777774,E,1,10,1.2,88.2268,M,37.55,M,,*5F
[2021-02-22 16:26:34.383] $GPGGA,072634.00,3713.9879225,N,13701.4777659,E,1,10,1.2,88.7574,M,37.55,M,,*5E
[2021-02-22 16:26:34.492] $GPGGA,072634.10,3713.9880625,N,13701.4776779,E,1,10,1.2,89.1496,M,37.55,M,,*55
[2021-02-22 16:26:34.571] $GPGGA,072634.20,3713.9879657,N,13701.4775843,E,1,10,1.2,89.1876,M,37.55,M,,*52
[2021-02-22 16:26:34.695] $GPGGA,072634.30,3713.9879290,N,13701.4775974,E,1,10,1.2,89.3788,M,37.55,M,,*55
[2021-02-22 16:26:34.774] $GPGGA,072634.40,3713.9878739,N,13701.4777149,E,1,10,1.2,89.1444,M,37.55,M,,*50
[2021-02-22 16:26:34.899] $GPGGA,072634.50,3713.9879650,N,13701.4777524,E,1,10,1.2,88.8730,M,37.55,M,,*59
[2021-02-22 16:26:35.008] $GPGGA,072634.60,3713.9880608,N,13701.4776728,E,1,10,1.2,88.8824,M,37.55,M,,*54
[2021-02-22 16:26:35.086] $GPGGA,072634.70,3713.9879199,N,13701.4776025,E,1,10,1.2,88.9013,M,37.55,M,,*5B
[2021-02-22 16:26:35.195] $GPGGA,072634.80,3713.9879051,N,13701.4776602,E,1,10,1.2,89.2755,M,37.55,M,,*5D
[2021-02-22 16:26:35.274] $GPGGA,072634.90,3713.9878201,N,13701.4777057,E,1,10,1.2,89.6134,M,37.55,M,,*58
[2021-02-22 16:26:35.399] $GPGGA,072635.00,3713.9877980,N,13701.4776471,E,1,10,1.2,89.3652,M,37.55,M,,*5E
[2021-02-22 16:26:35.477] $GPGGA,072635.10,3713.9878621,N,13701.4775828,E,1,10,1.2,89.3409,M,37.55,M,,*5B
[2021-02-22 16:26:35.602] $GPGGA,072635.20,3713.9879003,N,13701.4776084,E,1,10,1.2,89.1658,M,37.55,M,,*56
[2021-02-22 16:26:35.680] $GPGGA,072635.30,3713.9877836,N,13701.4776694,E,1,10,1.2,89.1862,M,37.55,M,,*57
[2021-02-22 16:26:35.805] $GPGGA,072635.40,3713.9877320,N,13701.4776239,E,1,10,1.2,89.2183,M,37.55,M,,*5A
[2021-02-22 16:26:35.883] $GPGGA,072635.50,3713.9877582,N,13701.4775759,E,1,10,1.2,89.0991,M,37.55,M,,*5C
[2021-02-22 16:26:35.992] $GPGGA,072635.60,3713.9878238,N,13701.4775194,E,1,10,1.2,88.9644,M,37.55,M,,*5E
[2021-02-22 16:26:36.086] $GPGGA,072635.70,3713.9878211,N,13701.4774681,E,1,10,1.2,88.6825,M,37.55,M,,*50
[2021-02-22 16:26:36.195] $GPGGA,072635.80,3713.9878071,N,13701.4775128,E,1,10,1.2,88.8509,M,37.55,M,,*53
[2021-02-22 16:26:36.274] $GPGGA,072635.90,3713.9878744,N,13701.4775278,E,1,10,1.2,88.7367,M,37.55,M,,*54
[2021-02-22 16:26:36.399] $GPGGA,072636.00,3713.9879262,N,13701.4775426,E,1,10,1.2,88.5030,M,37.55,M,,*50
[2021-02-22 16:26:36.477] $GPGGA,072636.10,3713.9879819,N,13701.4775049,E,1,10,1.2,88.4853,M,37.55,M,,*56
[2021-02-22 16:26:36.602] $GPGGA,072636.20,3713.9879313,N,13701.4775427,E,1,10,1.2,88.8043,M,37.55,M,,*5D
[2021-02-22 16:26:36.695] $GPGGA,072636.30,3713.9879488,N,13701.4776230,E,1,10,1.2,88.7847,M,37.55,M,,*59
[2021-02-22 16:26:36.774] $GPGGA,072636.40,3713.9878445,N,13701.4775980,E,1,10,1.2,88.2528,M,37.55,M,,*5C
[2021-02-22 16:26:36.898] $GPGGA,072636.50,3713.9878887,N,13701.4776413,E,1,10,1.2,88.2587,M,37.55,M,,*5E
[2021-02-22 16:26:36.977] $GPGGA,072636.60,3713.9879385,N,13701.4776841,E,1,10,1.2,88.0613,M,37.55,M,,*52
[2021-02-22 16:26:37.102] $GPGGA,072636.70,3713.9879540,N,13701.4776702,E,1,10,1.2,87.8494,M,37.55,M,,*5E
[2021-02-22 16:26:37.180] $GPGGA,072636.80,3713.9879189,N,13701.4776873,E,1,10,1.2,88.1060,M,37.55,M,,*50
[2021-02-22 16:26:37.305] $GPGGA,072636.90,3713.9879702,N,13701.4776515,E,1,10,1.2,88.0175,M,37.55,M,,*5D
[2021-02-22 16:26:37.383] $GPGGA,072637.00,3713.9880107,N,13701.4775800,E,1,10,1.2,87.7245,M,37.55,M,,*52
[2021-02-22 16:26:37.508] $GPGGA,072637.10,3713.9880236,N,13701.4776868,E,1,10,1.2,87.7131,M,37.55,M,,*5F
[2021-02-22 16:26:37.586] $GPGGA,072637.20,3713.9879088,N,13701.4776401,E,1,10,1.2,87.8422,M,37.55,M,,*56
[2021-02-22 16:26:37.695] $GPGGA,072637.30,3713.9879394,N,13701.4777315,E,1,10,1.2,87.7262,M,37.55,M,,*57
[2021-02-22 16:26:37.773] $GPGGA,072637.40,3713.9879756,N,13701.4778363,E,1,10,1.2,87.5841,M,37.55,M,,*5D
[2021-02-22 16:26:37.898] $GPGGA,072637.50,3713.9878620,N,13701.4779341,E,1,10,1.2,87.5833,M,37.55,M,,*59
[2021-02-22 16:26:37.977] $GPGGA,072637.60,3713.9878841,N,13701.4779643,E,1,10,1.2,88.0556,M,37.55,M,,*50
[2021-02-22 16:26:38.101] $GPGGA,072637.70,3713.9879092,N,13701.4778744,E,1,10,1.2,88.1593,M,37.55,M,,*59
[2021-02-22 16:26:38.180] $GPGGA,072637.80,3713.9878757,N,13701.4779406,E,1,10,1.2,87.7917,M,37.55,M,,*54
[2021-02-22 16:26:38.305] $GPGGA,072637.90,3713.9878890,N,13701.4779498,E,1,10,1.2,87.8208,M,37.55,M,,*5C
[2021-02-22 16:26:38.383] $GPGGA,072638.00,3713.9878995,N,13701.4779541,E,1,10,1.2,87.5828,M,37.55,M,,*5E
[2021-02-22 16:26:38.492] $GPGGA,072638.10,3713.9879922,N,13701.4779570,E,1,10,1.2,87.5449,M,37.55,M,,*5B
[2021-02-22 16:26:38.601] $GPGGA,072638.20,3713.9879136,N,13701.4780251,E,1,10,1.2,87.8979,M,37.55,M,,*54
[2021-02-22 16:26:38.680] $GPGGA,072638.30,3713.9878639,N,13701.4780330,E,1,10,1.2,88.1616,M,37.55,M,,*5A
[2021-02-22 16:26:38.805] $GPGGA,072638.40,3713.9878560,N,13701.4780037,E,1,10,1.2,88.0276,M,37.55,M,,*55
[2021-02-22 16:26:38.883] $GPGGA,072638.50,3713.9879246,N,13701.4779776,E,1,10,1.2,87.7486,M,37.55,M,,*53
[2021-02-22 16:26:39.008] $GPGGA,072638.60,3713.9879746,N,13701.4779132,E,1,10,1.2,87.5923,M,37.55,M,,*53
[2021-02-22 16:26:39.086] $GPGGA,072638.70,3713.9880028,N,13701.4777964,E,1,10,1.2,87.4998,M,37.55,M,,*5F
[2021-02-22 16:26:39.195] $GPGGA,072638.80,3713.9877725,N,13701.4780833,E,1,11,1.1,88.3124,M,37.55,M,,*5C
[2021-02-22 16:26:39.273] $GPGGA,072638.90,3713.9877378,N,13701.4781273,E,1,11,1.1,88.6048,M,37.55,M,,*50
[2021-02-22 16:26:39.398] $GPGGA,072639.00,3713.9876266,N,13701.4780795,E,1,11,1.1,88.6748,M,37.55,M,,*5C
[2021-02-22 16:26:39.476] $GPGGA,072639.10,3713.9876862,N,13701.4780954,E,1,11,1.1,88.6328,M,37.55,M,,*52
[2021-02-22 16:26:39.601] $GPGGA,072639.20,3713.9877015,N,13701.4781271,E,1,11,1.1,88.5457,M,37.55,M,,*59
[2021-02-22 16:26:39.680] $GPGGA,072639.30,3713.9876749,N,13701.4780723,E,1,11,1.1,88.6376,M,37.55,M,,*53
[2021-02-22 16:26:39.804] $GPGGA,072639.40,3713.9877196,N,13701.4779838,E,1,11,1.1,88.7007,M,37.55,M,,*56
[2021-02-22 16:26:39.883] $GPGGA,072639.50,3713.9876388,N,13701.4780175,E,1,11,1.1,89.2205,M,37.55,M,,*59
[2021-02-22 16:26:39.992] $GPGGA,072639.60,3713.9876698,N,13701.4780215,E,1,11,1.1,89.1134,M,37.55,M,,*59
[2021-02-22 16:26:40.086] $GPGGA,072639.70,3713.9876523,N,13701.4780260,E,1,11,1.1,89.0340,M,37.55,M,,*59
[2021-02-22 16:26:40.195] $GPGGA,072639.80,3713.9876719,N,13701.4779529,E,1,11,1.1,89.0743,M,37.55,M,,*56
[2021-02-22 16:26:40.304] $GPGGA,072639.90,3713.9877271,N,13701.4779921,E,1,11,1.1,88.8368,M,37.55,M,,*5D
[2021-02-22 16:26:40.383] $GPGGA,072640.00,3713.9876047,N,13701.4779274,E,1,11,1.1,89.3261,M,37.55,M,,*55
[2021-02-22 16:26:40.508] $GPGGA,072640.10,3713.9876051,N,13701.4779228,E,1,11,1.1,89.5467,M,37.55,M,,*5C
[2021-02-22 16:26:40.586] $GPGGA,072640.20,3713.9877257,N,13701.4778953,E,1,11,1.1,89.6550,M,37.55,M,,*5A
[2021-02-22 16:26:40.695] $GPGGA,072640.30,3713.9877972,N,13701.4779614,E,1,11,1.1,89.5132,M,37.55,M,,*59
[2021-02-22 16:26:40.773] $GPGGA,072640.40,3713.9878601,N,13701.4778915,E,1,11,1.1,89.3014,M,37.55,M,,*56
[2021-02-22 16:26:40.898] $GPGGA,072640.50,3713.9878788,N,13701.4779226,E,1,11,1.1,89.4470,M,37.55,M,,*5C
[2021-02-22 16:26:40.976] $GPGGA,072640.60,3713.9879435,N,13701.4779446,E,1,11,1.1,89.1854,M,37.55,M,,*54
[2021-02-22 16:26:41.101] $GPGGA,072640.70,3713.9879971,N,13701.4779118,E,1,11,1.1,88.9778,M,37.55,M,,*5E
[2021-02-22 16:26:41.179] $GPGGA,072640.80,3713.9878882,N,13701.4779050,E,1,11,1.1,89.1976,M,37.55,M,,*59
[2021-02-22 16:26:41.304] $GPGGA,072640.90,3713.9878801,N,13701.4779197,E,1,11,1.1,89.1140,M,37.55,M,,*54
[2021-02-22 16:26:41.383] $GPGGA,072641.00,3713.9877820,N,13701.4777959,E,1,11,1.1,89.1322,M,37.55,M,,*52
[2021-02-22 16:26:41.507] $GPGGA,072641.10,3713.9877986,N,13701.4778350,E,1,11,1.1,89.0702,M,37.55,M,,*55
[2021-02-22 16:26:41.586] $GPGGA,072641.20,3713.9878576,N,13701.4778988,E,1,11,1.1,88.6253,M,37.55,M,,*53
[2021-02-22 16:26:41.695] $GPGGA,072641.30,3713.9879349,N,13701.4779585,E,1,11,1.1,88.7842,M,37.55,M,,*52
[2021-02-22 16:26:41.773] $GPGGA,072641.40,3713.9879581,N,13701.4779504,E,1,11,1.1,88.9196,M,37.55,M,,*50
[2021-02-22 16:26:41.898] $GPGGA,072641.50,3713.9878654,N,13701.4778898,E,1,11,1.1,89.1129,M,37.55,M,,*5F
[2021-02-22 16:26:41.976] $GPGGA,072641.60,3713.9879045,N,13701.4779646,E,1,11,1.1,88.7158,M,37.55,M,,*56
[2021-02-22 16:26:42.101] $GPGGA,072641.70,3713.9879590,N,13701.4779426,E,1,11,1.1,88.6651,M,37.55,M,,*51
[2021-02-22 16:26:42.195] $GPGGA,072641.80,3713.9880142,N,13701.4779992,E,1,11,1.1,88.1546,M,37.55,M,,*53
[2021-02-22 16:26:42.273] $GPGGA,072641.90,3713.9879275,N,13701.4780573,E,1,11,1.1,88.2963,M,37.55,M,,*5E
[2021-02-22 16:26:42.398] $GPGGA,072642.00,3713.9879086,N,13701.4780376,E,1,11,1.1,88.5455,M,37.55,M,,*56
[2021-02-22 16:26:42.476] $GPGGA,072642.10,3713.9878616,N,13701.4780093,E,1,11,1.1,88.9293,M,37.55,M,,*51
[2021-02-22 16:26:42.601] $GPGGA,072642.20,3713.9878809,N,13701.4780253,E,1,11,1.1,89.0804,M,37.55,M,,*50
[2021-02-22 16:26:42.679] $GPGGA,072642.30,3713.9878073,N,13701.4779579,E,1,11,1.1,88.9347,M,37.55,M,,*59
[2021-02-22 16:26:42.804] $GPGGA,072642.40,3713.9877915,N,13701.4778981,E,1,11,1.1,89.3605,M,37.55,M,,*5A
[2021-02-22 16:26:42.882] $GPGGA,072642.50,3713.9875684,N,13701.4776294,E,1,12,1.0,90.0468,M,37.55,M,,*5F
[2021-02-22 16:26:43.007] $GPGGA,072642.60,3713.9876291,N,13701.4776009,E,1,12,1.0,89.9799,M,37.55,M,,*55
[2021-02-22 16:26:43.086] $GPGGA,072642.70,3713.9876183,N,13701.4776624,E,1,12,1.0,89.4747,M,37.55,M,,*53
[2021-02-22 16:26:43.195] $GPGGA,072642.80,3713.9876205,N,13701.4775092,E,1,13,1.0,90.7587,M,37.55,M,,*5D
[2021-02-22 16:26:43.273] $GPGGA,072642.90,3713.9877078,N,13701.4775021,E,1,13,1.0,90.6234,M,37.55,M,,*53
[2021-02-22 16:26:43.398] $GPGGA,072643.00,3713.9877219,N,13701.4775306,E,1,13,1.0,90.6022,M,37.55,M,,*5D
[2021-02-22 16:26:43.476] $GPGGA,072643.10,3713.9877089,N,13701.4775487,E,1,13,1.0,90.4211,M,37.55,M,,*59
[2021-02-22 16:26:43.601] $GPGGA,072643.20,3713.9877086,N,13701.4775873,E,1,13,1.0,90.3964,M,37.55,M,,*5C
[2021-02-22 16:26:43.695] $GPGGA,072643.30,3713.9876661,N,13701.4776855,E,1,13,1.0,90.5546,M,37.55,M,,*5E
[2021-02-22 16:26:43.804] $GPGGA,072643.40,3713.9876980,N,13701.4777078,E,1,13,1.0,90.3807,M,37.55,M,,*51
[2021-02-22 16:26:43.898] $GPGGA,072643.50,3713.9876357,N,13701.4777253,E,1,13,1.0,90.6220,M,37.55,M,,*51
[2021-02-22 16:26:43.976] $GPGGA,072643.60,3713.9875978,N,13701.4778001,E,1,13,1.0,90.7262,M,37.55,M,,*5B
[2021-02-22 16:26:44.101] $GPGGA,072643.70,3713.9875088,N,13701.4778460,E,1,13,1.0,91.1965,M,37.55,M,,*54
[2021-02-22 16:26:44.179] $GPGGA,072643.80,3713.9874701,N,13701.4779873,E,1,13,1.0,91.4132,M,37.55,M,,*5C
[2021-02-22 16:26:44.304] $GPGGA,072643.90,3713.9875535,N,13701.4780086,E,1,13,1.0,91.5054,M,37.55,M,,*5D
[2021-02-22 16:26:44.382] $GPGGA,072644.00,3713.9877172,N,13701.4780464,E,1,13,1.0,91.6681,M,37.55,M,,*53
[2021-02-22 16:26:44.507] $GPGGA,072644.10,3713.9876387,N,13701.4780782,E,1,13,1.0,91.5132,M,37.55,M,,*5C
[2021-02-22 16:26:44.585] $GPGGA,072644.20,3713.9877085,N,13701.4779773,E,1,13,1.0,91.4610,M,37.55,M,,*51
[2021-02-22 16:26:44.695] $GPGGA,072644.30,3713.9876741,N,13701.4779007,E,1,13,1.0,91.5578,M,37.55,M,,*56
[2021-02-22 16:26:44.773] $GPGGA,072644.40,3713.9877079,N,13701.4779107,E,1,13,1.0,91.1960,M,37.55,M,,*5C
[2021-02-22 16:26:44.898] $GPGGA,072644.50,3713.9877480,N,13701.4778851,E,1,13,1.0,91.0828,M,37.55,M,,*58
[2021-02-22 16:26:44.976] $GPGGA,072644.60,3713.9876802,N,13701.4779323,E,1,13,1.0,91.3186,M,37.55,M,,*5D
[2021-02-22 16:26:45.101] $GPGGA,072644.70,3713.9876522,N,13701.4780016,E,1,13,1.0,91.6967,M,37.55,M,,*52
[2021-02-22 16:26:45.179] $GPGGA,072644.80,3713.9876153,N,13701.4780298,E,1,13,1.0,91.5221,M,37.55,M,,*51
[2021-02-22 16:26:45.304] $GPGGA,072644.90,3713.9876384,N,13701.4780033,E,1,13,1.0,91.5980,M,37.55,M,,*5B
[2021-02-22 16:26:45.382] $GPGGA,072645.00,3713.9877788,N,13701.4780065,E,1,13,1.0,91.1737,M,37.55,M,,*5F
[2021-02-22 16:26:45.492] $GPGGA,072645.10,3713.9877759,N,13701.4779656,E,1,13,1.0,90.9201,M,37.55,M,,*5B
[2021-02-22 16:26:45.585] $GPGGA,072645.20,3713.9878840,N,13701.4779486,E,1,13,1.0,91.0605,M,37.55,M,,*57
[2021-02-22 16:26:45.695] $GPGGA,072645.30,3713.9878157,N,13701.4779080,E,1,13,1.0,90.8810,M,37.55,M,,*58
[2021-02-22 16:26:45.804] $GPGGA,072645.40,3713.9877685,N,13701.4779528,E,1,13,1.0,91.0764,M,37.55,M,,*5A
[2021-02-22 16:26:45.882] $GPGGA,072645.50,3713.9877052,N,13701.4779998,E,1,13,1.0,91.1429,M,37.55,M,,*5B
[2021-02-22 16:26:46.007] $GPGGA,072645.60,3713.9877845,N,13701.4780127,E,1,13,1.0,91.3125,M,37.55,M,,*57
[2021-02-22 16:26:46.085] $GPGGA,072645.70,3713.9877816,N,13701.4781319,E,1,13,1.0,91.5349,M,37.55,M,,*50
[2021-02-22 16:26:46.195] $GPGGA,072645.80,3713.9876506,N,13701.4781490,E,1,13,1.0,91.9444,M,37.55,M,,*52
[2021-02-22 16:26:46.273] $GPGGA,072645.90,3713.9876876,N,13701.4781030,E,1,13,1.0,91.8595,M,37.55,M,,*5B
[2021-02-22 16:26:46.398] $GPGGA,072646.00,3713.9876880,N,13701.4779749,E,1,13,1.0,91.6149,M,37.55,M,,*5D
[2021-02-22 16:26:46.476] $GPGGA,072646.10,3713.9876512,N,13701.4780599,E,1,13,1.0,91.3471,M,37.55,M,,*58
[2021-02-22 16:26:46.601] $GPGGA,072646.20,3713.9877461,N,13701.4781666,E,1,13,1.0,90.4567,M,37.55,M,,*5D
[2021-02-22 16:26:46.679] $GPGGA,072646.30,3713.9876726,N,13701.4781605,E,1,13,1.0,90.6165,M,37.55,M,,*5C
[2021-02-22 16:26:46.804] $GPGGA,072646.40,3713.9876016,N,13701.4781849,E,1,13,1.0,90.9523,M,37.55,M,,*50
[2021-02-22 16:26:46.882] $GPGGA,072646.50,3713.9876480,N,13701.4781114,E,1,13,1.0,90.7630,M,37.55,M,,*54
[2021-02-22 16:26:47.007] $GPGGA,072646.60,3713.9875758,N,13701.4782211,E,1,13,1.0,90.7571,M,37.55,M,,*51
[2021-02-22 16:26:47.085] $GPGGA,072646.70,3713.9876860,N,13701.4782257,E,1,13,1.0,90.6667,M,37.55,M,,*50
[2021-02-22 16:26:47.195] $GPGGA,072646.80,3713.9877060,N,13701.4781011,E,1,13,1.0,90.8333,M,37.55,M,,*5F
[2021-02-22 16:26:47.273] $GPGGA,072646.90,3713.9876718,N,13701.4780941,E,1,13,1.0,90.7036,M,37.55,M,,*53
[2021-02-22 16:26:47.398] $GPGGA,072647.00,3713.9876471,N,13701.4779687,E,1,13,1.0,90.5796,M,37.55,M,,*5B
[2021-02-22 16:26:47.507] $GPGGA,072647.10,3713.9875538,N,13701.4779144,E,1,13,1.0,90.2569,M,37.55,M,,*58
[2021-02-22 16:26:47.616] $GPGGA,072647.20,3713.9879567,N,13701.4781872,E,5,12,1.0,92.3083,M,37.55,M,5,0000*64
[2021-02-22 16:26:47.726] $GPGGA,072647.30,3713.9880590,N,13701.4782063,E,5,12,1.0,92.4494,M,37.55,M,5,0000*65
[2021-02-22 16:26:47.804] $GPGGA,072647.40,3713.9880410,N,13701.4782111,E,5,12,1.0,92.4937,M,37.55,M,5,0000*6B
[2021-02-22 16:26:47.929] $GPGGA,072647.50,3713.9879423,N,13701.4781918,E,5,12,1.0,92.2197,M,37.55,M,5,0000*6A
[2021-02-22 16:26:48.007] $GPGGA,072647.60,3713.9879144,N,13701.4782080,E,5,12,1.0,92.1632,M,37.55,M,5,0000*6D
[2021-02-22 16:26:48.132] $GPGGA,072647.70,3713.9879074,N,13701.4782348,E,5,12,1.0,92.0471,M,37.55,M,5,0000*6D
[2021-02-22 16:26:48.210] $GPGGA,072647.80,3713.9879013,N,13701.4782397,E,5,12,1.0,91.9572,M,37.55,M,5,0000*69
[2021-02-22 16:26:48.335] $GPGGA,072647.90,3713.9879206,N,13701.4782625,E,5,12,1.0,91.9986,M,37.55,M,5,0000*65
[2021-02-22 16:26:48.413] $GPGGA,072648.00,3713.9879202,N,13701.4782916,E,5,12,1.0,92.0165,M,37.55,M,6,0000*64
[2021-02-22 16:26:48.507] $GPGGA,072648.10,3713.9879290,N,13701.4783062,E,5,12,1.0,91.9886,M,37.55,M,6,0000*6B
[2021-02-22 16:26:48.601] $GPGGA,072648.20,3713.9879271,N,13701.4783346,E,5,12,1.0,91.8694,M,37.55,M,1,0000*69
[2021-02-22 16:26:48.726] $GPGGA,072648.30,3713.9879022,N,13701.4783372,E,5,12,1.0,91.7782,M,37.55,M,1,0000*62
[2021-02-22 16:26:48.804] $GPGGA,072648.40,3713.9878743,N,13701.4783451,E,5,12,1.0,91.7052,M,37.55,M,1,0000*68
[2021-02-22 16:26:48.929] $GPGGA,072648.50,3713.9878671,N,13701.4783327,E,5,12,1.0,91.7313,M,37.55,M,1,0000*69
[2021-02-22 16:26:49.007] $GPGGA,072648.60,3713.9878417,N,13701.4783377,E,5,12,1.0,91.6814,M,37.55,M,1,0000*60
[2021-02-22 16:26:49.132] $GPGGA,072648.70,3713.9878383,N,13701.4783349,E,5,12,1.0,91.7438,M,37.55,M,1,0000*65
[2021-02-22 16:26:49.226] $GPGGA,072648.80,3713.9878327,N,13701.4783275,E,5,12,1.0,91.7743,M,37.55,M,1,0000*65
[2021-02-22 16:26:49.304] $GPGGA,072648.90,3713.9878266,N,13701.4783238,E,5,12,1.0,91.7731,M,37.55,M,1,0000*6C
[2021-02-22 16:26:49.429] $GPGGA,072649.00,3713.9878151,N,13701.4783380,E,5,12,1.0,91.7027,M,37.55,M,2,0000*62
[2021-02-22 16:26:49.523] $GPGGA,072649.10,3713.9878101,N,13701.4783455,E,5,12,1.0,91.7225,M,37.55,M,2,0000*69
[2021-02-22 16:26:49.632] $GPGGA,072649.20,3713.9878089,N,13701.4783521,E,5,12,1.0,91.7579,M,37.55,M,2,0000*67
[2021-02-22 16:26:49.710] $GPGGA,072649.30,3713.9878069,N,13701.4783582,E,5,12,1.0,91.7801,M,37.55,M,2,0000*63
[2021-02-22 16:26:49.835] $GPGGA,072649.40,3713.9878132,N,13701.4783568,E,5,12,1.0,91.8462,M,37.55,M,2,0000*69
[2021-02-22 16:26:49.913] $GPGGA,072649.50,3713.9878120,N,13701.4783570,E,5,12,1.0,91.8611,M,37.55,M,2,0000*64
[2021-02-22 16:26:50.023] $GPGGA,072649.60,3713.9878001,N,13701.4783586,E,5,12,1.0,91.8659,M,37.55,M,2,0000*60
[2021-02-22 16:26:50.116] $GPGGA,072649.70,3713.9877984,N,13701.4783635,E,5,12,1.0,91.9018,M,37.55,M,2,0000*63
[2021-02-22 16:26:50.226] $GPGGA,072649.80,3713.9878037,N,13701.4783683,E,5,12,1.0,91.9597,M,37.55,M,2,0000*6D
[2021-02-22 16:26:50.304] $GPGGA,072649.90,3713.9878101,N,13701.4783637,E,5,12,1.0,92.0029,M,37.55,M,2,0000*6D
[2021-02-22 16:26:50.429] $GPGGA,072650.00,3713.9878096,N,13701.4783483,E,5,12,1.0,92.0241,M,37.55,M,3,0000*63
[2021-02-22 16:26:50.523] $GPGGA,072650.10,3713.9878059,N,13701.4783334,E,5,12,1.0,92.0484,M,37.55,M,3,0000*65
[2021-02-22 16:26:50.632] $GPGGA,072650.20,3713.9878058,N,13701.4783254,E,5,12,1.0,92.0603,M,37.55,M,3,0000*6D
[2021-02-22 16:26:50.710] $GPGGA,072650.30,3713.9878052,N,13701.4783236,E,5,12,1.0,92.0872,M,37.55,M,3,0000*6A
[2021-02-22 16:26:50.835] $GPGGA,072650.40,3713.9878018,N,13701.4783216,E,5,12,1.0,92.0961,M,37.55,M,3,0000*62
[2021-02-22 16:26:50.913] $GPGGA,072650.50,3713.9877997,N,13701.4783253,E,5,12,1.0,92.1360,M,37.55,M,3,0000*69
[2021-02-22 16:26:51.023] $GPGGA,072650.60,3713.9877916,N,13701.4783296,E,5,12,1.0,92.1266,M,37.55,M,3,0000*6D
[2021-02-22 16:26:51.132] $GPGGA,072650.70,3713.9877867,N,13701.4783331,E,5,12,1.0,92.1306,M,37.55,M,3,0000*60
[2021-02-22 16:26:51.210] $GPGGA,072650.80,3713.9877817,N,13701.4783365,E,5,12,1.0,92.1510,M,37.55,M,3,0000*68
[2021-02-22 16:26:51.335] $GPGGA,072650.90,3713.9877841,N,13701.4783368,E,5,12,1.0,92.1921,M,37.55,M,3,0000*69
[2021-02-22 16:26:51.413] $GPGGA,072651.00,3713.9877883,N,13701.4783371,E,5,12,1.0,92.2177,M,37.55,M,4,0000*68
[2021-02-22 16:26:51.507] $GPGGA,072651.10,3713.9877847,N,13701.4783294,E,5,12,1.0,92.2347,M,37.55,M,4,0000*6A
[2021-02-22 16:26:51.632] $GPGGA,072651.20,3713.9877862,N,13701.4783299,E,5,12,1.0,92.2691,M,37.55,M,4,0000*6D
[2021-02-22 16:26:51.726] $GPGGA,072651.30,3713.9877940,N,13701.4783326,E,5,12,1.0,92.3192,M,37.55,M,4,0000*6D
[2021-02-22 16:26:51.804] $GPGGA,072651.40,3713.9878020,N,13701.4783343,E,5,12,1.0,92.3502,M,37.55,M,4,0000*64
[2021-02-22 16:26:51.929] $GPGGA,072651.50,3713.9878040,N,13701.4783355,E,5,12,1.0,92.3706,M,37.55,M,4,0000*62
[2021-02-22 16:26:52.007] $GPGGA,072651.60,3713.9878020,N,13701.4783388,E,5,12,1.0,92.3783,M,37.55,M,4,0000*6A
[2021-02-22 16:26:52.132] $GPGGA,072651.70,3713.9877991,N,13701.4783329,E,5,12,1.0,92.3955,M,37.55,M,4,0000*69
[2021-02-22 16:26:52.210] $GPGGA,072651.80,3713.9877979,N,13701.4783231,E,5,12,1.0,92.4210,M,37.55,M,4,0000*65
[2021-02-22 16:26:52.335] $GPGGA,072651.90,3713.9877921,N,13701.4783225,E,5,12,1.0,92.4193,M,37.55,M,4,0000*64
[2021-02-22 16:26:52.413] $GPGGA,072652.00,3713.9877888,N,13701.4783251,E,5,12,1.0,92.4132,M,37.55,M,5,0000*65
[2021-02-22 16:26:52.507] $GPGGA,072652.10,3713.9877936,N,13701.4783332,E,5,12,1.0,92.4321,M,37.55,M,5,0000*64
[2021-02-22 16:26:52.616] $GPGGA,072652.20,3713.9877968,N,13701.4783345,E,5,11,1.4,92.4626,M,37.55,M,5,0000*69
[2021-02-22 16:26:52.726] $GPGGA,072652.30,3713.9878009,N,13701.4783283,E,5,11,1.4,92.4981,M,37.55,M,5,0000*60
[2021-02-22 16:26:52.819] $GPGGA,072652.40,3713.9878066,N,13701.4783221,E,5,11,1.4,92.5114,M,37.55,M,5,0000*63
[2021-02-22 16:26:52.913] $GPGGA,072652.50,3713.9878101,N,13701.4783105,E,5,11,1.4,92.5359,M,37.55,M,5,0000*6C
[2021-02-22 16:26:53.022] $GPGGA,072652.60,3713.9878111,N,13701.4783080,E,5,11,1.4,92.5373,M,37.55,M,5,0000*6A
[2021-02-22 16:26:53.100] $GPGGA,072652.70,3713.9878129,N,13701.4783007,E,5,11,1.4,92.5528,M,37.55,M,5,0000*67
[2021-02-22 16:26:53.225] $GPGGA,072652.80,3713.9878137,N,13701.4783038,E,5,11,1.4,92.5557,M,37.55,M,5,0000*63
[2021-02-22 16:26:53.304] $GPGGA,072652.90,3713.9878135,N,13701.4783090,E,5,11,1.4,92.5507,M,37.55,M,5,0000*67
[2021-02-22 16:26:53.429] $GPGGA,072653.00,3713.9878170,N,13701.4783074,E,5,11,1.4,92.5693,M,37.55,M,6,0000*69
[2021-02-22 16:26:53.522] $GPGGA,072653.10,3713.9878188,N,13701.4783075,E,5,11,1.4,92.5753,M,37.55,M,6,0000*63
[2021-02-22 16:26:53.632] $GPGGA,072653.20,3713.9878202,N,13701.4782997,E,5,11,1.4,92.5938,M,37.55,M,1,0000*61
[2021-02-22 16:26:53.710] $GPGGA,072653.30,3713.9878255,N,13701.4782936,E,5,11,1.4,92.6081,M,37.55,M,1,0000*61
[2021-02-22 16:26:53.819] $GPGGA,072653.40,3713.9878314,N,13701.4782905,E,5,11,1.4,92.6231,M,37.55,M,1,0000*6B
[2021-02-22 16:26:53.897] $GPGGA,072653.50,3713.9878337,N,13701.4782872,E,5,11,1.4,92.6194,M,37.55,M,1,0000*66
[2021-02-22 16:26:54.022] $GPGGA,072653.60,3713.9878357,N,13701.4782810,E,5,11,1.4,92.6222,M,37.55,M,1,0000*69
[2021-02-22 16:26:54.100] $GPGGA,072653.70,3713.9878391,N,13701.4782747,E,5,11,1.4,92.6315,M,37.55,M,1,0000*6A
[2021-02-22 16:26:54.225] $GPGGA,072653.80,3713.9878418,N,13701.4782666,E,5,11,1.4,92.6325,M,37.55,M,1,0000*62
[2021-02-22 16:26:54.303] $GPGGA,072653.90,3713.9878451,N,13701.4782611,E,5,11,1.4,92.6454,M,37.55,M,1,0000*6F
[2021-02-22 16:26:54.429] $GPGGA,072654.00,3713.9878489,N,13701.4782573,E,5,11,1.4,92.6622,M,37.55,M,2,0000*63
[2021-02-22 16:26:54.522] $GPGGA,072654.10,3713.9878492,N,13701.4782525,E,5,11,1.4,92.6772,M,37.55,M,2,0000*6F
[2021-02-22 16:26:54.616] $GPGGA,072654.20,3713.9878472,N,13701.4782472,E,5,11,1.4,92.6830,M,37.55,M,2,0000*68
[2021-02-22 16:26:54.725] $GPGGA,072654.30,3713.9878459,N,13701.4782422,E,5,11,1.4,92.6877,M,37.55,M,2,0000*66
[2021-02-22 16:26:54.803] $GPGGA,072654.40,3713.9878459,N,13701.4782381,E,5,11,1.4,92.6899,M,37.55,M,2,0000*6F
[2021-02-22 16:26:54.928] $GPGGA,072654.50,3713.9878473,N,13701.4782316,E,5,11,1.4,92.6995,M,37.55,M,2,0000*65
[2021-02-22 16:26:55.007] $GPGGA,072654.60,3713.9878499,N,13701.4782247,E,5,11,1.4,92.7043,M,37.55,M,2,0000*64
[2021-02-22 16:26:55.132] $GPGGA,072654.70,3713.9878491,N,13701.4782209,E,5,11,1.4,92.7058,M,37.55,M,2,0000*6D
[2021-02-22 16:26:55.210] $GPGGA,072654.80,3713.9878494,N,13701.4782131,E,5,11,1.4,92.7281,M,37.55,M,2,0000*69
[2021-02-22 16:26:55.319] $GPGGA,072654.90,3713.9878500,N,13701.4782069,E,5,11,1.4,92.7409,M,37.55,M,2,0000*6E
[2021-02-22 16:26:55.397] $GPGGA,072655.00,3713.9878520,N,13701.4782046,E,5,11,1.4,92.7420,M,37.55,M,3,0000*63
[2021-02-22 16:26:55.507] $GPGGA,072655.10,3713.9878550,N,13701.4782001,E,5,11,1.4,92.7493,M,37.55,M,3,0000*6E
[2021-02-22 16:26:55.600] $GPGGA,072655.20,3713.9878571,N,13701.4781932,E,5,11,1.4,92.7801,M,37.55,M,3,0000*63
[2021-02-22 16:26:55.725] $GPGGA,072655.30,3713.9878576,N,13701.4781868,E,5,11,1.4,92.7991,M,37.55,M,3,0000*63
[2021-02-22 16:26:55.803] $GPGGA,072655.40,3713.9878572,N,13701.4781797,E,5,11,1.4,92.8229,M,37.55,M,3,0000*68
[2021-02-22 16:26:55.928] $GPGGA,072655.50,3713.9878557,N,13701.4781761,E,5,11,1.4,92.8370,M,37.55,M,3,0000*6A
[2021-02-22 16:26:56.006] $GPGGA,072655.60,3713.9878552,N,13701.4781757,E,5,11,1.4,92.8502,M,37.55,M,3,0000*6A
[2021-02-22 16:26:56.116] $GPGGA,072655.70,3713.9878552,N,13701.4781703,E,5,11,1.4,92.8839,M,37.55,M,3,0000*6F
[2021-02-22 16:26:56.210] $GPGGA,072655.80,3713.9878560,N,13701.4781681,E,5,11,1.4,92.9074,M,37.55,M,3,0000*6A
[2021-02-22 16:26:56.319] $GPGGA,072655.90,3713.9878587,N,13701.4781661,E,5,11,1.4,92.9136,M,37.55,M,3,0000*6B
[2021-02-22 16:26:56.428] $GPGGA,072656.00,3713.9878618,N,13701.4781661,E,5,11,1.4,92.8960,M,37.55,M,4,0000*69
[2021-02-22 16:26:56.522] $GPGGA,072656.10,3713.9878642,N,13701.4781633,E,5,11,1.4,92.9000,M,37.55,M,4,0000*6E
[2021-02-22 16:26:56.631] $GPGGA,072656.20,3713.9878648,N,13701.4781601,E,5,11,1.4,92.9117,M,37.55,M,4,0000*61
[2021-02-22 16:26:56.710] $GPGGA,072656.30,3713.9878645,N,13701.4781569,E,5,11,1.4,92.9159,M,37.55,M,4,0000*6A
[2021-02-22 16:26:56.819] $GPGGA,072656.40,3713.9878642,N,13701.4781538,E,5,11,1.4,92.9239,M,37.55,M,4,0000*6B
[2021-02-22 16:26:56.913] $GPGGA,072656.50,3713.9878656,N,13701.4781509,E,5,11,1.4,92.9210,M,37.55,M,4,0000*66
[2021-02-22 16:26:57.022] $GPGGA,072656.60,3713.9878672,N,13701.4781475,E,5,11,1.4,92.9261,M,37.55,M,4,0000*6F
[2021-02-22 16:26:57.100] $GPGGA,072656.70,3713.9878685,N,13701.4781428,E,5,11,1.4,92.9299,M,37.55,M,4,0000*69
[2021-02-22 16:26:57.225] $GPGGA,072656.80,3713.9878701,N,13701.4781376,E,5,11,1.4,92.9301,M,37.55,M,4,0000*67
[2021-02-22 16:26:57.303] $GPGGA,072656.90,3713.9878704,N,13701.4781344,E,5,11,1.4,92.9286,M,37.55,M,4,0000*6C
[2021-02-22 16:26:57.428] $GPGGA,072657.00,3713.9878698,N,13701.4781328,E,5,11,1.4,92.9285,M,37.55,M,5,0000*68
[2021-02-22 16:26:57.522] $GPGGA,072657.10,3713.9878701,N,13701.4781278,E,5,11,1.4,92.9271,M,37.55,M,5,0000*67
[2021-02-22 16:26:57.616] $GPGGA,072657.20,3713.9878608,N,13701.4781061,E,5,11,1.4,92.9043,M,37.55,M,5,0000*65
[2021-02-22 16:26:57.710] $GPGGA,072657.30,3713.9878580,N,13701.4780964,E,5,11,1.4,92.8831,M,37.55,M,5,0000*66
[2021-02-22 16:26:57.819] $GPGGA,072657.40,3713.9878585,N,13701.4780970,E,5,11,1.4,92.8699,M,37.55,M,5,0000*6D
[2021-02-22 16:26:57.897] $GPGGA,072657.50,3713.9878600,N,13701.4780973,E,5,11,1.4,92.8568,M,37.55,M,5,0000*6C
[2021-02-22 16:26:58.022] $GPGGA,072657.60,3713.9878619,N,13701.4780971,E,5,11,1.4,92.8477,M,37.55,M,5,0000*6A
[2021-02-22 16:26:58.100] $GPGGA,072657.70,3713.9878668,N,13701.4780949,E,5,11,1.4,92.8510,M,37.55,M,5,0000*66
[2021-02-22 16:26:58.225] $GPGGA,072657.80,3713.9878694,N,13701.4780958,E,5,10,1.6,92.8237,M,37.55,M,5,0000*6B
[2021-02-22 16:26:58.319] $GPGGA,072657.90,3713.9878716,N,13701.4780966,E,5,10,1.6,92.8015,M,37.55,M,5,0000*6E
[2021-02-22 16:26:58.397] $GPGGA,072658.00,3713.9878735,N,13701.4780983,E,5,10,1.6,92.7799,M,37.55,M,6,0000*6D
[2021-02-22 16:26:58.506] $GPGGA,072658.10,3713.9878756,N,13701.4780985,E,5,10,1.6,92.7603,M,37.55,M,6,0000*6D
[2021-02-22 16:26:58.600] $GPGGA,072658.20,3713.9878789,N,13701.4780999,E,5,10,1.6,92.7503,M,37.55,M,1,0000*65
[2021-02-22 16:26:58.725] $GPGGA,072658.30,3713.9878831,N,13701.4781007,E,5,10,1.6,92.7395,M,37.55,M,1,0000*6E
[2021-02-22 16:26:58.803] $GPGGA,072658.40,3713.9878867,N,13701.4781021,E,5,10,1.6,92.7251,M,37.55,M,1,0000*67
[2021-02-22 16:26:58.913] $GPGGA,072658.50,3713.9878928,N,13701.4781045,E,5,10,1.6,92.7176,M,37.55,M,1,0000*68
[2021-02-22 16:26:59.006] $GPGGA,072658.60,3713.9878982,N,13701.4781055,E,5,10,1.6,92.7136,M,37.55,M,1,0000*6E
[2021-02-22 16:26:59.116] $GPGGA,072658.70,3713.9879013,N,13701.4781049,E,5,10,1.6,92.7007,M,37.55,M,1,0000*61
[2021-02-22 16:26:59.194] $GPGGA,072658.80,3713.9879015,N,13701.4781057,E,5,10,1.6,92.6999,M,37.55,M,1,0000*68
[2021-02-22 16:26:59.319] $GPGGA,072658.90,3713.9879023,N,13701.4781078,E,5,10,1.6,92.6951,M,37.55,M,1,0000*65
[2021-02-22 16:26:59.397] $GPGGA,072659.00,3713.9879032,N,13701.4781090,E,5,10,1.6,92.6896,M,37.55,M,2,0000*62
[2021-02-22 16:26:59.506] $GPGGA,072659.10,3713.9879047,N,13701.4781117,E,5,10,1.6,92.6884,M,37.55,M,2,0000*6C
[2021-02-22 16:26:59.616] $GPGGA,072659.20,3713.9879088,N,13701.4781133,E,5,10,1.6,92.6866,M,37.55,M,2,0000*66
[2021-02-22 16:26:59.725] $GPGGA,072659.30,3713.9879114,N,13701.4781124,E,5,10,1.6,92.6881,M,37.55,M,2,0000*6C
[2021-02-22 16:26:59.803] $GPGGA,072659.40,3713.9879124,N,13701.4781113,E,5,10,1.6,92.6881,M,37.55,M,2,0000*6C
[2021-02-22 16:26:59.913] $GPGGA,072659.50,3713.9879106,N,13701.4781097,E,5,10,1.6,92.6869,M,37.55,M,2,0000*66
[2021-02-22 16:27:00.022] $GPGGA,072659.60,3713.9879074,N,13701.4781097,E,5,10,1.6,92.6882,M,37.55,M,2,0000*64
[2021-02-22 16:27:00.100] $GPGGA,072659.70,3713.9879057,N,13701.4781102,E,5,10,1.6,92.6877,M,37.55,M,2,0000*63
[2021-02-22 16:27:00.225] $GPGGA,072659.80,3713.9879085,N,13701.4781130,E,5,10,1.6,92.6812,M,37.55,M,2,0000*61
[2021-02-22 16:27:00.303] $GPGGA,072659.90,3713.9879102,N,13701.4781124,E,5,10,1.6,92.6749,M,37.55,M,2,0000*6A
[2021-02-22 16:27:00.428] $GPGGA,072700.00,3713.9879126,N,13701.4781104,E,5,10,1.6,92.6662,M,37.55,M,3,0000*63
[2021-02-22 16:27:00.522] $GPGGA,072700.10,3713.9879135,N,13701.4781069,E,5,10,1.6,92.6581,M,37.55,M,3,0000*64
[2021-02-22 16:27:00.616] $GPGGA,072700.20,3713.9879152,N,13701.4781057,E,5,10,1.6,92.6538,M,37.55,M,3,0000*69
[2021-02-22 16:27:00.694] $GPGGA,072700.30,3713.9879184,N,13701.4781053,E,5,10,1.6,92.6489,M,37.55,M,3,0000*6C
[2021-02-22 16:27:00.819] $GPGGA,072700.40,3713.9879208,N,13701.4781045,E,5,10,1.6,92.6442,M,37.55,M,3,0000*6C
[2021-02-22 16:27:00.897] $GPGGA,072700.50,3713.9879240,N,13701.4781027,E,5,10,1.6,92.6400,M,37.55,M,3,0000*63
[2021-02-22 16:27:01.022] $GPGGA,072700.60,3713.9879275,N,13701.4781046,E,5,10,1.6,92.6387,M,37.55,M,3,0000*69
[2021-02-22 16:27:01.100] $GPGGA,072700.70,3713.9879295,N,13701.4781028,E,5,10,1.6,92.6300,M,37.55,M,3,0000*61
[2021-02-22 16:27:01.225] $GPGGA,072700.80,3713.9879291,N,13701.4781003,E,5,10,1.6,92.6299,M,37.55,M,3,0000*62
