
[2021-02-22 16:22:20.173] $GPGGA,072206.60,,,,,0,00,0.0,,M,,M,0,0000*51
[2021-02-22 16:22:20.188] $GPGGA,072206.70,,,,,0,00,0.0,,M,,M,0,0000*50
[2021-02-22 16:22:20.188] $GPGGA,072206.80,,,,,0,00,0.0,,M,,M,0,0000*5F
[2021-02-22 16:22:20.188] $GPGGA,072206.90,,,,,0,00,0.0,,M,,M,0,0000*5E
[2021-02-22 16:22:20.188] $GPGGA,072207.00,,,,,0,00,0.0,,M,,M,0,0000*56
[2021-02-22 16:22:20.188] $GPGGA,072207.10,,,,,0,00,0.0,,M,,M,0,0000*57
[2021-02-22 16:22:20.188] $GPGGA,072207.20,,,,,0,00,0.0,,M,,M,0,0000*54
[2021-02-22 16:22:20.188] $GPGGA,072207.30,,,,,0,00,0.0,,M,,M,0,0000*55
[2021-02-22 16:22:20.188] $GPGGA,072207.40,,,,,0,00,0.0,,M,,M,0,0000*52
[2021-02-22 16:22:20.188] $GPGGA,072207.50,,,,,0,00,0.0,,M,,M,0,0000*53
[2021-02-22 16:22:20.188] $GPGGA,072207.60,,,,,0,00,0.0,,M,,M,0,0000*50
[2021-02-22 16:22:20.188] $GPGGA,072207.70,,,,,0,00,0.0,,M,,M,0,0000*51
[2021-02-22 16:22:20.188] $GPGGA,072207.80,,,,,0,00,0.0,,M,,M,0,0000*5E
[2021-02-22 16:22:20.188] $GPGGA,072207.90,,,,,0,00,0.0,,M,,M,0,0000*5F
[2021-02-22 16:22:20.188] $GPGGA,072208.00,,,,,0,00,0.0,,M,,M,0,0000*59
[2021-02-22 16:22:20.188] $GPGGA,072208.10,,,,,0,00,0.0,,M,,M,0,0000*58
[2021-02-22 16:22:20.188] $GPGGA,072208.20,,,,,0,00,0.0,,M,,M,0,0000*5B
[2021-02-22 16:22:20.188] $GPGGA,072208.30,,,,,0,00,0.0,,M,,M,0,0000*5A
[2021-02-22 16:22:20.188] $GPGGA,072208.40,,,,,0,00,0.0,,M,,M,0,0000*5D
[2021-02-22 16:22:20.188] $GPGGA,072208.50,,,,,0,00,0.0,,M,,M,0,0000*5C
[2021-02-22 16:22:20.188] $GPGGA,072208.60,,,,,0,00,0.0,,M,,M,0,0000*5F
[2021-02-22 16:22:20.188] $GPGGA,072208.70,,,,,0,00,0.0,,M,,M,0,0000*5E
[2021-02-22 16:22:20.204] $GPGGA,072208.80,,,,,0,00,0.0,,M,,M,0,0000*51
[2021-02-22 16:22:20.204] $GPGGA,072208.90,,,,,0,00,0.0,,M,,M,0,0000*50
[2021-02-22 16:22:20.204] $GPGGA,072209.00,,,,,0,00,0.0,,M,,M,0,0000*58
[2021-02-22 16:22:20.204] $GPGGA,072209.10,,,,,0,00,0.0,,M,,M,0,0000*59
[2021-02-22 16:22:20.204] $GPGGA,072209.20,,,,,0,00,0.0,,M,,M,0,0000*5A
[2021-02-22 16:22:20.204] $GPGGA,072209.30,,,,,0,00,0.0,,M,,M,0,0000*5B
[2021-02-22 16:22:20.204] $GPGGA,072209.40,,,,,0,00,0.0,,M,,M,0,0000*5C
[2021-02-22 16:22:20.204] $GPGGA,072209.50,,,,,0,00,0.0,,M,,M,0,0000*5D
[2021-02-22 16:22:20.204] $GPGGA,072209.60,,,,,0,00,0.0,,M,,M,0,0000*5E
[2021-02-22 16:22:20.204] $GPGGA,072209.70,,,,,0,00,0.0,,M,,M,0,0000*5F
[2021-02-22 16:22:20.204] $GPGGA,072209.80,,,,,0,00,0.0,,M,,M,0,0000*50
[2021-02-22 16:22:20.204] $GPGGA,072209.90,,,,,0,00,0.0,,M,,M,0,0000*51
[2021-02-22 16:22:20.204] $GPGGA,072210.00,,,,,0,00,0.0,,M,,M,0,0000*50
[2021-02-22 16:22:20.204] $GPGGA,072210.10,,,,,0,00,0.0,,M,,M,0,0000*51
[2021-02-22 16:22:20.204] $GPGGA,072210.20,,,,,0,00,0.0,,M,,M,0,0000*52
[2021-02-22 16:22:20.204] $GPGGA,072210.30,,,,,0,00,0.0,,M,,M,0,0000*53
[2021-02-22 16:22:20.204] $GPGGA,072210.40,,,,,0,00,0.0,,M,,M,0,0000*54
[2021-02-22 16:22:20.204] $GPGGA,072210.50,,,,,0,00,0.0,,M,,M,0,0000*55
[2021-02-22 16:22:20.204] $GPGGA,072210.60,,,,,0,00,0.0,,M,,M,0,0000*56
[2021-02-22 16:22:20.204] $GPGGA,072210.70,,,,,0,00,0.0,,M,,M,0,0000*57
[2021-02-22 16:22:20.204] $GPGGA,072210.80,,,,,0,00,0.0,,M,,M,0,0000*58
[2021-02-22 16:22:20.204] $GPGGA,072210.90,,,,,0,00,0.0,,M,,M,0,0000*59
[2021-02-22 16:22:20.220] $GPGGA,072211.00,,,,,0,00,0.0,,M,,M,0,0000*51
[2021-02-22 16:22:20.220] $GPGGA,072211.10,,,,,0,00,0.0,,M,,M,0,0000*50
[2021-02-22 16:22:20.220] $GPGGA,072211.20,,,,,0,00,0.0,,M,,M,0,0000*53
[2021-02-22 16:22:20.220] $GPGGA,072211.30,,,,,0,00,0.0,,M,,M,0,0000*52
[2021-02-22 16:22:20.220] $GPGGA,072211.40,,,,,0,00,0.0,,M,,M,0,0000*55
[2021-02-22 16:22:20.220] $GPGGA,072211.50,,,,,0,00,0.0,,M,,M,0,0000*54
[2021-02-22 16:22:20.220] $GPGGA,072211.60,,,,,0,00,0.0,,M,,M,0,0000*57
[2021-02-22 16:22:20.220] $GPGGA,072211.70,,,,,0,00,0.0,,M,,M,0,0000*56
[2021-02-22 16:22:20.220] $GPGGA,072211.80,,,,,0,00,0.0,,M,,M,0,0000*59
[2021-02-22 16:22:20.220] $GPGGA,072211.90,,,,,0,00,0.0,,M,,M,0,0000*58
[2021-02-22 16:22:20.220] $GPGGA,072212.00,,,,,0,00,0.0,,M,,M,0,0000*52
[2021-02-22 16:22:20.220] $GPGGA,072212.10,,,,,0,00,0.0,,M,,M,0,0000*53
[2021-02-22 16:22:20.220] $GPGGA,072212.20,,,,,0,00,0.0,,M,,M,0,0000*50
[2021-02-22 16:22:20.220] $GPGGA,072212.30,,,,,0,00,0.0,,M,,M,0,0000*51
[2021-02-22 16:22:20.220] $GPGGA,072212.40,,,,,0,00,0.0,,M,,M,0,0000*56
[2021-02-22 16:22:20.220] $GPGGA,072212.50,,,,,0,00,0.0,,M,,M,0,0000*57
[2021-02-22 16:22:20.220] $GPGGA,072212.60,,,,,0,00,0.0,,M,,M,0,0000*54
[2021-02-22 16:22:20.220] $GPGGA,072212.70,,,,,0,00,0.0,,M,,M,0,0000*55
[2021-02-22 16:22:20.220] $GPGGA,072212.80,,,,,0,00,0.0,,M,,M,0,0000*5A
[2021-02-22 16:22:20.220] $GPGGA,072212.90,,,,,0,00,0.0,,M,,M,0,0000*5B
[2021-02-22 16:22:20.220] $GPGGA,072213.00,,,,,0,00,0.0,,M,,M,0,0000*53
[2021-02-22 16:22:20.235] $GPGGA,072213.10,,,,,0,00,0.0,,M,,M,0,0000*52
[2021-02-22 16:22:20.235] $GPGGA,072213.20,,,,,0,00,0.0,,M,,M,0,0000*51
[2021-02-22 16:22:20.235] $GPGGA,072213.30,,,,,0,00,0.0,,M,,M,0,0000*50
[2021-02-22 16:22:20.235] $GPGGA,072213.40,,,,,0,00,0.0,,M,,M,0,0000*57
[2021-02-22 16:22:20.235] $GPGGA,072213.50,,,,,0,00,0.0,,M,,M,0,0000*56
[2021-02-22 16:22:20.235] $GPGGA,072213.60,,,,,0,00,0.0,,M,,M,0,0000*55
[2021-02-22 16:22:20.235] $GPGGA,072213.70,,,,,0,00,0.0,,M,,M,0,0000*54
[2021-02-22 16:22:20.235] $GPGGA,072213.80,,,,,0,00,0.0,,M,,M,0,0000*5B
[2021-02-22 16:22:20.235] $GPGGA,072213.90,,,,,0,00,0.0,,M,,M,0,0000*5A
[2021-02-22 16:22:20.235] $GPGGA,072214.00,,,,,0,00,0.0,,M,,M,0,0000*54
[2021-02-22 16:22:20.235] $GPGGA,072214.10,,,,,0,00,0.0,,M,,M,0,0000*55
[2021-02-22 16:22:20.235] $GPGGA,072214.20,,,,,0,00,0.0,,M,,M,0,0000*56
[2021-02-22 16:22:20.235] $GPGGA,072214.30,,,,,0,00,0.0,,M,,M,0,0000*57
[2021-02-22 16:22:20.235] $GPGGA,072214.40,,,,,0,00,0.0,,M,,M,0,0000*50
[2021-02-22 16:22:20.235] $GPGGA,072214.50,,,,,0,00,0.0,,M,,M,0,0000*51
[2021-02-22 16:22:20.235] $GPGGA,072214.60,,,,,0,00,0.0,,M,,M,0,0000*52
[2021-02-22 16:22:20.235] $GPGGA,072214.70,,,,,0,00,0.0,,M,,M,0,0000*53
[2021-02-22 16:22:20.235] $GPGGA,072214.80,,,,,0,00,0.0,,M,,M,0,0000*5C
[2021-02-22 16:22:20.235] $GPGGA,072214.90,,,,,0,00,0.0,,M,,M,0,0000*5D
[2021-02-22 16:22:20.235] $GPGGA,072215.00,,,,,0,00,0.0,,M,,M,0,0000*55
[2021-02-22 16:22:20.235] $GPGGA,072215.10,,,,,0,00,0.0,,M,,M,0,0000*54
[2021-02-22 16:22:20.235] $GPGGA,072215.20,,,,,0,00,0.0,,M,,M,0,0000*57
[2021-02-22 16:22:20.251] $GPGGA,072215.30,,,,,0,00,0.0,,M,,M,0,0000*56
[2021-02-22 16:22:20.251] $GPGGA,072215.40,,,,,0,00,0.0,,M,,M,0,0000*51
[2021-02-22 16:22:20.251] $GPGGA,072215.50,,,,,0,00,0.0,,M,,M,0,0000*50
[2021-02-22 16:22:20.251] $GPGGA,072215.60,,,,,0,00,0.0,,M,,M,0,0000*53
[2021-02-22 16:22:20.251] $GPGGA,072215.70,,,,,0,00,0.0,,M,,M,0,0000*52
[2021-02-22 16:22:20.251] $GPGGA,072215.80,,,,,0,00,0.0,,M,,M,0,0000*5D
[2021-02-22 16:22:20.251] $GPGGA,072215.90,,,,,0,00,0.0,,M,,M,0,0000*5C
[2021-02-22 16:22:20.251] $GPGGA,072216.00,,,,,0,00,0.0,,M,,M,0,0000*56
[2021-02-22 16:22:20.251] $GPGGA,072216.10,,,,,0,00,0.0,,M,,M,0,0000*57
[2021-02-22 16:22:20.251] $GPGGA,072216.20,,,,,0,00,0.0,,M,,M,0,0000*54
[2021-02-22 16:22:20.251] $GPGGA,072216.30,,,,,0,00,0.0,,M,,M,0,0000*55
[2021-02-22 16:22:20.251] $GPGGA,072216.40,,,,,0,00,0.0,,M,,M,0,0000*52
[2021-02-22 16:22:20.251] $GPGGA,072216.50,,,,,0,00,0.0,,M,,M,0,0000*53
[2021-02-22 16:22:20.251] $GPGGA,072216.60,,,,,0,00,0.0,,M,,M,0,0000*50
[2021-02-22 16:22:20.251] $GPGGA,072216.70,,,,,0,00,0.0,,M,,M,0,0000*51
[2021-02-22 16:22:20.251] $GPGGA,072216.80,,,,,0,00,0.0,,M,,M,0,0000*5E
[2021-02-22 16:22:20.251] $GPGGA,072216.90,,,,,0,00,0.0,,M,,M,0,0000*5F
[2021-02-22 16:22:20.251] $GPGGA,072217.00,,,,,0,00,0.0,,M,,M,0,0000*57
[2021-02-22 16:22:20.251] $GPGGA,072217.10,,,,,0,00,0.0,,M,,M,0,0000*56
[2021-02-22 16:22:20.251] $GPGGA,072217.20,,,,,0,00,0.0,,M,,M,0,0000*55
[2021-02-22 16:22:20.251] $GPGGA,072217.30,,,,,0,00,0.0,,M,,M,0,0000*54
[2021-02-22 16:22:20.251] $GPGGA,072217.40,,,,,0,00,0.0,,M,,M,0,0000*53
[2021-02-22 16:22:20.266] $GPGGA,072217.50,,,,,0,00,0.0,,M,,M,0,0000*52
[2021-02-22 16:22:20.266] $GPGGA,072217.60,,,,,0,00,0.0,,M,,M,0,0000*51
[2021-02-22 16:22:20.266] $GPGGA,072217.70,,,,,0,00,0.0,,M,,M,0,0000*50
[2021-02-22 16:22:20.266] $GPGGA,072217.80,,,,,0,00,0.0,,M,,M,0,0000*5F
[2021-02-22 16:22:20.266] $GPGGA,072217.90,,,,,0,00,0.0,,M,,M,0,0000*5E
[2021-02-22 16:22:20.266] $GPGGA,072218.00,,,,,0,00,0.0,,M,,M,0,0000*58
[2021-02-22 16:22:20.266] $GPGGA,072218.10,,,,,0,00,0.0,,M,,M,0,0000*59
[2021-02-22 16:22:20.266] $GPGGA,072218.20,,,,,0,00,0.0,,M,,M,0,0000*5A
[2021-02-22 16:22:20.266] $GPGGA,072218.30,,,,,0,00,0.0,,M,,M,0,0000*5B
[2021-02-22 16:22:20.266] $GPGGA,072218.40,,,,,0,00,0.0,,M,,M,0,0000*5C
[2021-02-22 16:22:20.266] $GPGGA,072218.50,,,,,0,00,0.0,,M,,M,0,0000*5D
[2021-02-22 16:22:20.266] $GPGGA,072218.60,,,,,0,00,0.0,,M,,M,0,0000*5E
[2021-02-22 16:22:20.266] $GPGGA,072218.70,,,,,0,00,0.0,,M,,M,0,0000*5F
[2021-02-22 16:22:20.266] $GPGGA,072218.80,,,,,0,00,0.0,,M,,M,0,0000*50
[2021-02-22 16:22:20.266] $GPGGA,072218.90,,,,,0,00,0.0,,M,,M,0,0000*51
[2021-02-22 16:22:20.266] $GPGGA,072219.00,,,,,0,00,0.0,,M,,M,0,0000*59
[2021-02-22 16:22:20.266] $GPGGA,072219.10,,,,,0,00,0.0,,M,,M,0,0000*58
[2021-02-22 16:22:20.266] $GPGGA,072219.20,,,,,0,00,0.0,,M,,M,0,0000*5B
[2021-02-22 16:22:20.266] $GPGGA,072219.30,,,,,0,00,0.0,,M,,M,0,0000*5A
[2021-02-22 16:22:20.266] $GPGGA,072219.40,,,,,0,00,0.0,,M,,M,0,0000*5D
[2021-02-22 16:22:20.266] $GPGGA,072219.50,,,,,0,00,0.0,,M,,M,0,0000*5C
[2021-02-22 16:22:20.266] $GPGGA,072219.60,,,,,0,00,0.0,,M,,M,0,0000*5F
[2021-02-22 16:22:20.266] $GPGGA,072219.70,,,,,0,00,0.0,,M,,M,0,0000*5E
[2021-02-22 16:22:20.266] $GPGGA,072219.80,,,,,0,00,0.0,,M,,M,0,0000*51
[2021-02-22 16:22:20.282] $GPGGA,072219.90,,,,,0,00,0.0,,M,,M,0,0000*50
[2021-02-22 16:22:20.376] $GPGGA,072220.00,,,,,0,00,0.0,,M,,M,0,0000*53
[2021-02-22 16:22:20.470] $GPGGA,072220.10,,,,,0,00,0.0,,M,,M,0,0000*52
[2021-02-22 16:22:20.579] $GPGGA,072220.20,,,,,0,00,0.0,,M,,M,0,0000*51
[2021-02-22 16:22:20.688] $GPGGA,072220.30,,,,,0,00,0.0,,M,,M,0,0000*50
[2021-02-22 16:22:20.782] $GPGGA,072220.40,,,,,0,00,0.0,,M,,M,0,0000*57
[2021-02-22 16:22:20.876] $GPGGA,072220.50,,,,,0,00,0.0,,M,,M,0,0000*56
[2021-02-22 16:22:20.985] $GPGGA,072220.60,,,,,0,00,0.0,,M,,M,0,0000*55
[2021-02-22 16:22:21.079] $GPGGA,072220.70,,,,,0,00,0.0,,M,,M,0,0000*54
[2021-02-22 16:22:21.188] $GPGGA,072220.80,,,,,0,00,0.0,,M,,M,0,0000*5B
[2021-02-22 16:22:21.282] $GPGGA,072220.90,,,,,0,00,0.0,,M,,M,0,0000*5A
[2021-02-22 16:22:21.391] $GPGGA,072221.00,,,,,0,00,0.0,,M,,M,0,0000*52
[2021-02-22 16:22:21.485] $GPGGA,072221.10,,,,,0,00,0.0,,M,,M,0,0000*53
[2021-02-22 16:22:21.579] $GPGGA,072221.20,,,,,0,00,0.0,,M,,M,0,0000*50
[2021-02-22 16:22:21.673] $GPGGA,072221.30,,,,,0,00,0.0,,M,,M,0,0000*51
[2021-02-22 16:22:21.782] $GPGGA,072221.40,,,,,0,00,0.0,,M,,M,0,0000*56
[2021-02-22 16:22:21.891] $GPGGA,072221.50,,,,,0,00,0.0,,M,,M,0,0000*57
[2021-02-22 16:22:21.985] $GPGGA,072221.60,,,,,0,00,0.0,,M,,M,0,0000*54
[2021-02-22 16:22:22.079] $GPGGA,072221.70,,,,,0,00,0.0,,M,,M,0,0000*55
[2021-02-22 16:22:22.188] $GPGGA,072221.80,,,,,0,00,0.0,,M,,M,0,0000*5A
[2021-02-22 16:22:22.282] $GPGGA,072221.90,,,,,0,00,0.0,,M,,M,0,0000*5B
[2021-02-22 16:22:22.376] $GPGGA,072222.00,,,,,0,00,0.0,,M,,M,0,0000*51
[2021-02-22 16:22:22.469] $GPGGA,072222.10,,,,,0,00,0.0,,M,,M,0,0000*50
[2021-02-22 16:22:22.594] $GPGGA,072222.20,,,,,0,00,0.0,,M,,M,0,0000*53
[2021-02-22 16:22:22.688] $GPGGA,072222.30,,,,,0,00,0.0,,M,,M,0,0000*52
[2021-02-22 16:22:22.782] $GPGGA,072222.40,,,,,0,00,0.0,,M,,M,0,0000*55
[2021-02-22 16:22:22.876] $GPGGA,072222.50,,,,,0,00,0.0,,M,,M,0,0000*54
[2021-02-22 16:22:22.969] $GPGGA,072222.60,,,,,0,00,0.0,,M,,M,0,0000*57
[2021-02-22 16:22:23.079] $GPGGA,072222.70,,,,,0,00,0.0,,M,,M,0,0000*56
[2021-02-22 16:22:23.173] $GPGGA,072222.80,,,,,0,00,0.0,,M,,M,0,0000*59
[2021-02-22 16:22:23.282] $GPGGA,072222.90,,,,,0,00,0.0,,M,,M,0,0000*58
[2021-02-22 16:22:23.376] $GPGGA,072223.00,,,,,0,00,0.0,,M,,M,0,0000*50
[2021-02-22 16:22:23.485] $GPGGA,072223.10,,,,,0,00,0.0,,M,,M,0,0000*51
[2021-02-22 16:22:23.579] $GPGGA,072223.20,,,,,0,00,0.0,,M,,M,0,0000*52
[2021-02-22 16:22:23.672] $GPGGA,072223.30,,,,,0,00,0.0,,M,,M,0,0000*53
[2021-02-22 16:22:23.766] $GPGGA,072223.40,,,,,0,00,0.0,,M,,M,0,0000*54
[2021-02-22 16:22:23.891] $GPGGA,072223.50,,,,,0,00,0.0,,M,,M,0,0000*55
[2021-02-22 16:22:23.985] $GPGGA,072223.60,,,,,0,00,0.0,,M,,M,0,0000*56
[2021-02-22 16:22:24.079] $GPGGA,072223.70,,,,,0,00,0.0,,M,,M,0,0000*57
[2021-02-22 16:22:24.172] $GPGGA,072223.80,,,,,0,00,0.0,,M,,M,0,0000*58
[2021-02-22 16:22:24.282] $GPGGA,072223.90,,,,,0,00,0.0,,M,,M,0,0000*59
[2021-02-22 16:22:24.376] $GPGGA,072224.00,,,,,0,00,0.0,,M,,M,0,0000*57
[2021-02-22 16:22:24.469] $GPGGA,072224.10,,,,,0,00,0.0,,M,,M,0,0000*56
[2021-02-22 16:22:24.594] $GPGGA,072224.20,,,,,0,00,0.0,,M,,M,0,0000*55
[2021-02-22 16:22:24.688] $GPGGA,072224.30,,,,,0,00,0.0,,M,,M,0,0000*54
[2021-02-22 16:22:24.782] $GPGGA,072224.40,,,,,0,00,0.0,,M,,M,0,0000*53
[2021-02-22 16:22:24.876] $GPGGA,072224.50,,,,,0,00,0.0,,M,,M,0,0000*52
[2021-02-22 16:22:24.985] $GPGGA,072224.60,,,,,0,00,0.0,,M,,M,0,0000*51
[2021-02-22 16:22:25.079] $GPGGA,072224.70,,,,,0,00,0.0,,M,,M,0,0000*50
[2021-02-22 16:22:25.172] $GPGGA,072224.80,,,,,0,00,0.0,,M,,M,0,0000*5F
[2021-02-22 16:22:25.282] $GPGGA,072224.90,,,,,0,00,0.0,,M,,M,0,0000*5E
[2021-02-22 16:22:25.391] $GPGGA,072225.00,,,,,0,00,0.0,,M,,M,0,0000*56
[2021-02-22 16:22:25.485] $GPGGA,072225.10,,,,,0,00,0.0,,M,,M,0,0000*57
[2021-02-22 16:22:25.579] $GPGGA,072225.20,,,,,0,00,0.0,,M,,M,0,0000*54
[2021-02-22 16:22:25.672] $GPGGA,072225.30,,,,,0,00,0.0,,M,,M,0,0000*55
[2021-02-22 16:22:25.782] $GPGGA,072225.40,,,,,0,00,0.0,,M,,M,0,0000*52
[2021-02-22 16:22:25.891] $GPGGA,072225.50,,,,,0,00,0.0,,M,,M,0,0000*53
[2021-02-22 16:22:25.985] $GPGGA,072225.60,,,,,0,00,0.0,,M,,M,0,0000*50
[2021-02-22 16:22:26.079] $GPGGA,072225.70,,,,,0,00,0.0,,M,,M,0,0000*51
[2021-02-22 16:22:26.188] $GPGGA,072225.80,,,,,0,00,0.0,,M,,M,0,0000*5E
[2021-02-22 16:22:26.282] $GPGGA,072225.90,,,,,0,00,0.0,,M,,M,0,0000*5F
[2021-02-22 16:22:26.375] $GPGGA,072226.00,,,,,0,00,0.0,,M,,M,0,0000*55
[2021-02-22 16:22:26.469] $GPGGA,072226.10,,,,,0,00,0.0,,M,,M,0,0000*54
[2021-02-22 16:22:26.594] $GPGGA,072226.20,,,,,0,00,0.0,,M,,M,0,0000*57
[2021-02-22 16:22:26.688] $GPGGA,072226.30,,,,,0,00,0.0,,M,,M,0,0000*56
[2021-02-22 16:22:26.782] $GPGGA,072226.40,,,,,0,00,0.0,,M,,M,0,0000*51
[2021-02-22 16:22:26.875] $GPGGA,072226.50,,,,,0,00,0.0,,M,,M,0,0000*50
[2021-02-22 16:22:26.969] $GPGGA,072226.60,,,,,0,00,0.0,,M,,M,0,0000*53
[2021-02-22 16:22:27.079] $GPGGA,072226.70,,,,,0,00,0.0,,M,,M,0,0000*52
[2021-02-22 16:22:27.172] $GPGGA,072226.80,,,,,0,00,0.0,,M,,M,0,0000*5D
[2021-02-22 16:22:27.282] $GPGGA,072226.90,,,,,0,00,0.0,,M,,M,0,0000*5C
[2021-02-22 16:22:27.375] $GPGGA,072227.00,,,,,0,00,0.0,,M,,M,0,0000*54
[2021-02-22 16:22:27.485] $GPGGA,072227.10,,,,,0,00,0.0,,M,,M,0,0000*55
[2021-02-22 16:22:27.578] $GPGGA,072227.20,,,,,0,00,0.0,,M,,M,0,0000*56
[2021-02-22 16:22:27.672] $GPGGA,072227.30,,,,,0,00,0.0,,M,,M,0,0000*57
[2021-02-22 16:22:27.766] $GPGGA,072227.40,,,,,0,00,0.0,,M,,M,0,0000*50
[2021-02-22 16:22:27.891] $GPGGA,072227.50,,,,,0,00,0.0,,M,,M,0,0000*51
[2021-02-22 16:22:27.985] $GPGGA,072227.60,,,,,0,00,0.0,,M,,M,0,0000*52
[2021-02-22 16:22:28.078] $GPGGA,072227.70,,,,,0,00,0.0,,M,,M,0,0000*53
[2021-02-22 16:22:28.188] $GPGGA,072227.80,,,,,0,00,0.0,,M,,M,0,0000*5C
[2021-02-22 16:22:28.282] $GPGGA,072227.90,,,,,0,00,0.0,,M,,M,0,0000*5D
[2021-02-22 16:22:28.375] $GPGGA,072228.00,,,,,0,00,0.0,,M,,M,0,0000*5B
[2021-02-22 16:22:28.469] $GPGGA,072228.10,,,,,0,00,0.0,,M,,M,0,0000*5A
[2021-02-22 16:22:28.594] $GPGGA,072228.20,,,,,0,00,0.0,,M,,M,0,0000*59
[2021-02-22 16:22:28.688] $GPGGA,072228.30,,,,,0,00,0.0,,M,,M,0,0000*58
[2021-02-22 16:22:28.782] $GPGGA,072228.40,,,,,0,00,0.0,,M,,M,0,0000*5F
[2021-02-22 16:22:28.875] $GPGGA,072228.50,,,,,0,00,0.0,,M,,M,0,0000*5E
[2021-02-22 16:22:28.985] $GPGGA,072228.60,,,,,0,00,0.0,,M,,M,0,0000*5D
[2021-02-22 16:22:29.078] $GPGGA,072228.70,,,,,0,00,0.0,,M,,M,0,0000*5C
[2021-02-22 16:22:29.172] $GPGGA,072228.80,,,,,0,00,0.0,,M,,M,0,0000*53
[2021-02-22 16:22:29.281] $GPGGA,072228.90,,,,,0,00,0.0,,M,,M,0,0000*52
[2021-02-22 16:22:29.391] $GPGGA,072229.00,,,,,0,00,0.0,,M,,M,0,0000*5A
[2021-02-22 16:22:29.485] $GPGGA,072229.10,,,,,0,00,0.0,,M,,M,0,0000*5B
[2021-02-22 16:22:29.578] $GPGGA,072229.20,,,,,0,00,0.0,,M,,M,0,0000*58
[2021-02-22 16:22:29.672] $GPGGA,072229.30,,,,,0,00,0.0,,M,,M,0,0000*59
[2021-02-22 16:22:29.781] $GPGGA,072229.40,,,,,0,00,0.0,,M,,M,0,0000*5E
[2021-02-22 16:22:29.875] $GPGGA,072229.50,,,,,0,00,0.0,,M,,M,0,0000*5F
[2021-02-22 16:22:29.985] $GPGGA,072229.60,,,,,0,00,0.0,,M,,M,0,0000*5C
[2021-02-22 16:22:30.094] $GPGGA,072229.70,,,,,0,00,0.0,,M,,M,0,0000*5D
[2021-02-22 16:22:30.188] $GPGGA,072229.80,,,,,0,00,0.0,,M,,M,0,0000*52
[2021-02-22 16:22:30.281] $GPGGA,072229.90,,,,,0,00,0.0,,M,,M,0,0000*53
[2021-02-22 16:22:30.375] $GPGGA,072230.00,,,,,0,00,0.0,,M,,M,0,0000*52
[2021-02-22 16:22:30.469] $GPGGA,072230.10,,,,,0,00,0.0,,M,,M,0,0000*53
[2021-02-22 16:22:30.594] $GPGGA,072230.20,,,,,0,00,0.0,,M,,M,0,0000*50
[2021-02-22 16:22:30.688] $GPGGA,072230.30,,,,,0,00,0.0,,M,,M,0,0000*51
[2021-02-22 16:22:30.781] $GPGGA,072230.40,,,,,0,00,0.0,,M,,M,0,0000*56
[2021-02-22 16:22:30.875] $GPGGA,072230.50,,,,,0,00,0.0,,M,,M,0,0000*57
[2021-02-22 16:22:30.984] $GPGGA,072230.60,,,,,0,00,0.0,,M,,M,0,0000*54
[2021-02-22 16:22:31.078] $GPGGA,072230.70,,,,,0,00,0.0,,M,,M,0,0000*55
[2021-02-22 16:22:31.172] $GPGGA,072230.80,,,,,0,00,0.0,,M,,M,0,0000*5A
[2021-02-22 16:22:31.281] $GPGGA,072230.90,,,,,0,00,0.0,,M,,M,0,0000*5B
[2021-02-22 16:22:31.375] $GPGGA,072231.00,,,,,0,00,0.0,,M,,M,0,0000*53
[2021-02-22 16:22:31.484] $GPGGA,072231.10,,,,,0,00,0.0,,M,,M,0,0000*52
[2021-02-22 16:22:31.578] $GPGGA,072231.20,,,,,0,00,0.0,,M,,M,0,0000*51
[2021-02-22 16:22:31.672] $GPGGA,072231.30,,,,,0,00,0.0,,M,,M,0,0000*50
[2021-02-22 16:22:31.781] $GPGGA,072231.40,,,,,0,00,0.0,,M,,M,0,0000*57
[2021-02-22 16:22:31.875] $GPGGA,072231.50,,,,,0,00,0.0,,M,,M,0,0000*56
[2021-02-22 16:22:31.984] $GPGGA,072231.60,,,,,0,00,0.0,,M,,M,0,0000*55
[2021-02-22 16:22:32.078] $GPGGA,072231.70,,,,,0,00,0.0,,M,,M,0,0000*54
[2021-02-22 16:22:32.188] $GPGGA,072231.80,,,,,0,00,0.0,,M,,M,0,0000*5B
[2021-02-22 16:22:32.281] $GPGGA,072231.90,,,,,0,00,0.0,,M,,M,0,0000*5A
[2021-02-22 16:22:32.375] $GPGGA,072232.00,,,,,0,00,0.0,,M,,M,0,0000*50
[2021-02-22 16:22:32.469] $GPGGA,072232.10,,,,,0,00,0.0,,M,,M,0,0000*51
[2021-02-22 16:22:32.594] $GPGGA,072232.20,,,,,0,00,0.0,,M,,M,0,0000*52
[2021-02-22 16:22:32.687] $GPGGA,072232.30,,,,,0,00,0.0,,M,,M,0,0000*53
[2021-02-22 16:22:32.781] $GPGGA,072232.40,,,,,0,00,0.0,,M,,M,0,0000*54
[2021-02-22 16:22:32.875] $GPGGA,072232.50,,,,,0,00,0.0,,M,,M,0,0000*55
[2021-02-22 16:22:32.984] $GPGGA,072232.60,,,,,0,00,0.0,,M,,M,0,0000*56
[2021-02-22 16:22:33.078] $GPGGA,072232.70,,,,,0,00,0.0,,M,,M,0,0000*57
[2021-02-22 16:22:33.172] $GPGGA,072232.80,,,,,0,00,0.0,,M,,M,0,0000*58
[2021-02-22 16:22:33.281] $GPGGA,072232.90,,,,,0,00,0.0,,M,,M,0,0000*59
[2021-02-22 16:22:33.391] $GPGGA,072233.00,,,,,0,00,0.0,,M,,M,0,0000*51
[2021-02-22 16:22:33.484] $GPGGA,072233.10,,,,,0,00,0.0,,M,,M,0,0000*50
[2021-02-22 16:22:33.578] $GPGGA,072233.20,,,,,0,00,0.0,,M,,M,0,0000*53
[2021-02-22 16:22:33.687] $GPGGA,072233.30,,,,,0,00,0.0,,M,,M,0,0000*52
[2021-02-22 16:22:33.781] $GPGGA,072233.40,,,,,0,00,0.0,,M,,M,0,0000*55
[2021-02-22 16:22:33.875] $GPGGA,072233.50,,,,,0,00,0.0,,M,,M,0,0000*54
[2021-02-22 16:22:33.984] $GPGGA,072233.60,,,,,0,00,0.0,,M,,M,0,0000*57
[2021-02-22 16:22:34.094] $GPGGA,072233.70,,,,,0,00,0.0,,M,,M,0,0000*56
[2021-02-22 16:22:34.187] $GPGGA,072233.80,,,,,0,00,0.0,,M,,M,0,0000*59
[2021-02-22 16:22:34.281] $GPGGA,072233.90,,,,,0,00,0.0,,M,,M,0,0000*58
[2021-02-22 16:22:34.375] $GPGGA,072234.00,,,,,0,00,0.0,,M,,M,0,0000*56
[2021-02-22 16:22:34.484] $GPGGA,072234.10,,,,,0,00,0.0,,M,,M,0,0000*57
[2021-02-22 16:22:34.578] $GPGGA,072234.20,,,,,0,00,0.0,,M,,M,0,0000*54
[2021-02-22 16:22:34.687] $GPGGA,072234.30,,,,,0,00,0.0,,M,,M,0,0000*55
[2021-02-22 16:22:34.781] $GPGGA,072234.40,,,,,0,00,0.0,,M,,M,0,0000*52
[2021-02-22 16:22:34.875] $GPGGA,072234.50,,,,,0,00,0.0,,M,,M,0,0000*53
[2021-02-22 16:22:34.984] $GPGGA,072234.60,,,,,0,00,0.0,,M,,M,0,0000*50
[2021-02-22 16:22:35.078] $GPGGA,072234.70,,,,,0,00,0.0,,M,,M,0,0000*51
[2021-02-22 16:22:35.172] $GPGGA,072234.80,,,,,0,00,0.0,,M,,M,0,0000*5E
[2021-02-22 16:22:35.281] $GPGGA,072234.90,,,,,0,00,0.0,,M,,M,0,0000*5F
[2021-02-22 16:22:35.390] $GPGGA,072235.00,,,,,0,00,0.0,,M,,M,0,0000*57
[2021-02-22 16:22:35.484] $GPGGA,072235.10,,,,,0,00,0.0,,M,,M,0,0000*56
[2021-02-22 16:22:35.578] $GPGGA,072235.20,,,,,0,00,0.0,,M,,M,0,0000*55
[2021-02-22 16:22:35.672] $GPGGA,072235.30,,,,,0,00,0.0,,M,,M,0,0000*54
[2021-02-22 16:22:35.781] $GPGGA,072235.40,,,,,0,00,0.0,,M,,M,0,0000*53
[2021-02-22 16:22:35.875] $GPGGA,072235.50,,,,,0,00,0.0,,M,,M,0,0000*52
[2021-02-22 16:22:35.984] $GPGGA,072235.60,,,,,0,00,0.0,,M,,M,0,0000*51
[2021-02-22 16:22:36.078] $GPGGA,072235.70,,,,,0,00,0.0,,M,,M,0,0000*50
[2021-02-22 16:22:36.187] $GPGGA,072235.80,,,,,0,00,0.0,,M,,M,0,0000*5F
[2021-02-22 16:22:36.281] $GPGGA,072235.90,,,,,0,00,0.0,,M,,M,0,0000*5E
[2021-02-22 16:22:36.375] $GPGGA,072236.00,,,,,0,00,0.0,,M,,M,0,0000*54
[2021-02-22 16:22:36.468] $GPGGA,072236.10,,,,,0,00,0.0,,M,,M,0,0000*55
[2021-02-22 16:22:36.578] $GPGGA,072236.20,,,,,0,00,0.0,,M,,M,0,0000*56
[2021-02-22 16:22:36.687] $GPGGA,072236.30,,,,,0,00,0.0,,M,,M,0,0000*57
[2021-02-22 16:22:36.781] $GPGGA,072236.40,,,,,0,00,0.0,,M,,M,0,0000*50
[2021-02-22 16:22:36.875] $GPGGA,072236.50,,,,,0,00,0.0,,M,,M,0,0000*51
[2021-02-22 16:22:36.984] $GPGGA,072236.60,,,,,0,00,0.0,,M,,M,0,0000*52
[2021-02-22 16:22:37.078] $GPGGA,072236.70,,,,,0,00,0.0,,M,,M,0,0000*53
[2021-02-22 16:22:37.172] $GPGGA,072236.80,,,,,0,00,0.0,,M,,M,0,0000*5C
[2021-02-22 16:22:37.297] $GPGGA,072236.90,,,,,0,00,0.0,,M,,M,0,0000*5D
[2021-02-22 16:22:37.390] $GPGGA,072237.00,,,,,0,00,0.0,,M,,M,0,0000*55
[2021-02-22 16:22:37.484] $GPGGA,072237.10,,,,,0,00,0.0,,M,,M,0,0000*54
[2021-02-22 16:22:37.578] $GPGGA,072237.20,,,,,0,00,0.0,,M,,M,0,0000*57
[2021-02-22 16:22:37.687] $GPGGA,072237.30,,,,,0,00,0.0,,M,,M,0,0000*56
[2021-02-22 16:22:37.781] $GPGGA,072237.40,,,,,0,00,0.0,,M,,M,0,0000*51
[2021-02-22 16:22:37.875] $GPGGA,072237.50,,,,,0,00,0.0,,M,,M,0,0000*50
[2021-02-22 16:22:37.984] $GPGGA,072237.60,,,,,0,00,0.0,,M,,M,0,0000*53
[2021-02-22 16:22:38.093] $GPGGA,072237.70,,,,,0,00,0.0,,M,,M,0,0000*52
[2021-02-22 16:22:38.203] $GPGGA,072237.80,3713.9890299,N,13701.4810481,E,1,07,1.6,80.8143,M,37.55,M,,*5D
[2021-02-22 16:22:38.296] $GPGGA,072237.90,3713.9890338,N,13701.4812636,E,1,07,1.6,80.8523,M,37.55,M,,*58
[2021-02-22 16:22:38.375] $GPGGA,072238.00,3713.9886684,N,13701.4812540,E,1,07,1.6,81.2354,M,37.55,M,,*54
[2021-02-22 16:22:38.500] $GPGGA,072238.10,3713.9890446,N,13701.4813563,E,1,07,1.6,80.7091,M,37.55,M,,*50
[2021-02-22 16:22:38.578] $GPGGA,072238.20,3713.9890025,N,13701.4812876,E,1,07,1.6,80.2856,M,37.55,M,,*5C
[2021-02-22 16:22:38.703] $GPGGA,072238.30,3713.9891728,N,13701.4813518,E,1,07,1.6,79.1255,M,37.55,M,,*5E
[2021-02-22 16:22:38.796] $GPGGA,072238.40,3713.9894672,N,13701.4813238,E,1,07,1.6,80.1563,M,37.55,M,,*53
[2021-02-22 16:22:38.875] $GPGGA,072238.50,3713.9891403,N,13701.4813601,E,1,07,1.6,80.6463,M,37.55,M,,*5B
[2021-02-22 16:22:39.000] $GPGGA,072238.60,3713.9886179,N,13701.4782538,E,1,08,1.2,88.3183,M,37.55,M,,*55
[2021-02-22 16:22:39.078] $GPGGA,072238.70,3713.9886825,N,13701.4778399,E,1,08,1.2,89.4112,M,37.55,M,,*52
[2021-02-22 16:22:39.203] $GPGGA,072238.80,3713.9887527,N,13701.4778981,E,1,08,1.2,89.1522,M,37.55,M,,*52
[2021-02-22 16:22:39.281] $GPGGA,072238.90,3713.9888213,N,13701.4782893,E,1,08,1.2,88.4655,M,37.55,M,,*5C
[2021-02-22 16:22:39.406] $GPGGA,072239.00,3713.9888302,N,13701.4781030,E,1,08,1.2,88.9388,M,37.55,M,,*5F
[2021-02-22 16:22:39.484] $GPGGA,072239.10,3713.9886414,N,13701.4782124,E,1,08,1.2,88.8696,M,37.55,M,,*5C
[2021-02-22 16:22:39.593] $GPGGA,072239.20,3713.9882616,N,13701.4780892,E,1,08,1.2,89.1211,M,37.55,M,,*5E
[2021-02-22 16:22:39.687] $GPGGA,072239.30,3713.9883211,N,13701.4782204,E,1,08,1.2,88.5568,M,37.55,M,,*56
[2021-02-22 16:22:39.796] $GPGGA,072239.40,3713.9883020,N,13701.4781178,E,1,08,1.2,88.7880,M,37.55,M,,*53
[2021-02-22 16:22:39.874] $GPGGA,072239.50,3713.9882962,N,13701.4781213,E,1,08,1.2,88.9200,M,37.55,M,,*5E
[2021-02-22 16:22:39.999] $GPGGA,072239.60,3713.9885660,N,13701.4784914,E,1,08,1.2,87.8313,M,37.55,M,,*53
[2021-02-22 16:22:40.078] $GPGGA,072239.70,3713.9884481,N,13701.4783635,E,1,08,1.2,87.8105,M,37.55,M,,*50
[2021-02-22 16:22:40.203] $GPGGA,072239.80,3713.9884361,N,13701.4780571,E,1,08,1.2,88.5104,M,37.55,M,,*55
[2021-02-22 16:22:40.281] $GPGGA,072239.90,3713.9884225,N,13701.4781589,E,1,08,1.2,88.2557,M,37.55,M,,*56
[2021-02-22 16:22:40.406] $GPGGA,072240.00,3713.9885061,N,13701.4782475,E,1,08,1.2,88.3008,M,37.55,M,,*5D
[2021-02-22 16:22:40.484] $GPGGA,072240.10,3713.9884981,N,13701.4783297,E,1,08,1.2,88.3476,M,37.55,M,,*5C
[2021-02-22 16:22:40.593] $GPGGA,072240.20,3713.9883876,N,13701.4784260,E,1,08,1.2,88.0690,M,37.55,M,,*57
[2021-02-22 16:22:40.703] $GPGGA,072240.30,3713.9883220,N,13701.4782178,E,1,08,1.2,88.2990,M,37.55,M,,*5E
[2021-02-22 16:22:40.781] $GPGGA,072240.40,3713.9883107,N,13701.4782115,E,1,08,1.2,88.2820,M,37.55,M,,*5E
[2021-02-22 16:22:40.906] $GPGGA,072240.50,3713.9883448,N,13701.4781110,E,1,08,1.2,88.4553,M,37.55,M,,*58
[2021-02-22 16:22:40.984] $GPGGA,072240.60,3713.9883879,N,13701.4779060,E,1,08,1.2,88.9450,M,37.55,M,,*5B
[2021-02-22 16:22:41.093] $GPGGA,072240.70,3713.9883724,N,13701.4779135,E,1,08,1.2,88.8774,M,37.55,M,,*58
[2021-02-22 16:22:41.171] $GPGGA,072240.80,3713.9885010,N,13701.4781513,E,1,08,1.2,87.8865,M,37.55,M,,*56
[2021-02-22 16:22:41.296] $GPGGA,072240.90,3713.9884599,N,13701.4781950,E,1,08,1.2,88.0575,M,37.55,M,,*52
[2021-02-22 16:22:41.374] $GPGGA,072241.00,3713.9884327,N,13701.4782678,E,1,08,1.2,87.9135,M,37.55,M,,*59
[2021-02-22 16:22:41.499] $GPGGA,072241.10,3713.9884582,N,13701.4780843,E,1,08,1.2,88.2270,M,37.55,M,,*53
[2021-02-22 16:22:41.577] $GPGGA,072241.20,3713.9885385,N,13701.4780690,E,1,08,1.2,87.9954,M,37.55,M,,*59
[2021-02-22 16:22:41.702] $GPGGA,072241.30,3713.9885116,N,13701.4779942,E,1,08,1.2,87.7348,M,37.55,M,,*5F
[2021-02-22 16:22:41.781] $GPGGA,072241.40,3713.9885651,N,13701.4781359,E,1,08,1.2,87.4112,M,37.55,M,,*55
[2021-02-22 16:22:41.906] $GPGGA,072241.50,3713.9885317,N,13701.4780817,E,1,08,1.2,87.7017,M,37.55,M,,*54
[2021-02-22 16:22:41.984] $GPGGA,072241.60,3713.9884710,N,13701.4780173,E,1,08,1.2,87.8211,M,37.55,M,,*55
[2021-02-22 16:22:42.093] $GPGGA,072241.70,3713.9884267,N,13701.4779302,E,1,08,1.2,88.2006,M,37.55,M,,*52
[2021-02-22 16:22:42.171] $GPGGA,072241.80,3713.9883333,N,13701.4778427,E,1,08,1.2,88.1731,M,37.55,M,,*5B
[2021-02-22 16:22:42.296] $GPGGA,072241.90,3713.9882500,N,13701.4779726,E,1,08,1.2,88.4111,M,37.55,M,,*5F
[2021-02-22 16:22:42.406] $GPGGA,072242.00,3713.9882500,N,13701.4779401,E,1,08,1.2,88.5226,M,37.55,M,,*55
[2021-02-22 16:22:42.484] $GPGGA,072242.10,3713.9882515,N,13701.4779254,E,1,08,1.2,88.3253,M,37.55,M,,*52
[2021-02-22 16:22:42.609] $GPGGA,072242.20,3713.9882691,N,13701.4779300,E,1,08,1.2,88.5414,M,37.55,M,,*5D
[2021-02-22 16:22:42.687] $GPGGA,072242.30,3713.9883248,N,13701.4779780,E,1,08,1.2,88.4078,M,37.55,M,,*5E
[2021-02-22 16:22:42.796] $GPGGA,072242.40,3713.9883380,N,13701.4779922,E,1,08,1.2,88.2065,M,37.55,M,,*50
[2021-02-22 16:22:42.874] $GPGGA,072242.50,3713.9882892,N,13701.4780110,E,1,08,1.2,88.2831,M,37.55,M,,*5E
[2021-02-22 16:22:42.999] $GPGGA,072242.60,3713.9882374,N,13701.4780436,E,1,08,1.2,88.1897,M,37.55,M,,*50
[2021-02-22 16:22:43.077] $GPGGA,072242.70,3713.9881883,N,13701.4779037,E,1,09,1.2,87.2552,M,37.55,M,,*5B
[2021-02-22 16:22:43.202] $GPGGA,072242.80,3713.9881961,N,13701.4779268,E,1,09,1.2,87.3689,M,37.55,M,,*55
[2021-02-22 16:22:43.281] $GPGGA,072242.90,3713.9882211,N,13701.4780501,E,1,09,1.2,87.0335,M,37.55,M,,*54
[2021-02-22 16:22:43.405] $GPGGA,072243.00,3713.9882145,N,13701.4780536,E,1,09,1.2,86.9651,M,37.55,M,,*55
[2021-02-22 16:22:43.484] $GPGGA,072243.10,3713.9882307,N,13701.4779771,E,1,09,1.2,86.8673,M,37.55,M,,*56
[2021-02-22 16:22:43.593] $GPGGA,072243.20,3713.9882944,N,13701.4779531,E,1,09,1.2,86.8135,M,37.55,M,,*5B
[2021-02-22 16:22:43.687] $GPGGA,072243.30,3713.9882312,N,13701.4779185,E,1,09,1.2,87.0747,M,37.55,M,,*52
[2021-02-22 16:22:43.796] $GPGGA,072243.40,3713.9882117,N,13701.4778639,E,1,09,1.2,86.9927,M,37.55,M,,*53
[2021-02-22 16:22:43.874] $GPGGA,072243.50,3713.9881752,N,13701.4778296,E,1,09,1.2,86.9135,M,37.55,M,,*5C
[2021-02-22 16:22:43.999] $GPGGA,072243.60,3713.9881735,N,13701.4778831,E,1,09,1.2,87.0982,M,37.55,M,,*55
[2021-02-22 16:22:44.077] $GPGGA,072243.70,3713.9881661,N,13701.4779293,E,1,09,1.2,87.0436,M,37.55,M,,*55
[2021-02-22 16:22:44.202] $GPGGA,072243.80,3713.9881393,N,13701.4777926,E,1,09,1.2,87.2543,M,37.55,M,,*58
[2021-02-22 16:22:44.296] $GPGGA,072243.90,3713.9881084,N,13701.4778780,E,1,09,1.2,87.1474,M,37.55,M,,*57
[2021-02-22 16:22:44.374] $GPGGA,072244.00,3713.9881264,N,13701.4778517,E,1,09,1.2,86.6769,M,37.55,M,,*50
[2021-02-22 16:22:44.499] $GPGGA,072244.10,3713.9881443,N,13701.4778687,E,1,09,1.2,86.2718,M,37.55,M,,*5A
[2021-02-22 16:22:44.577] $GPGGA,072244.20,3713.9882054,N,13701.4778793,E,1,09,1.2,85.9960,M,37.55,M,,*55
[2021-02-22 16:22:44.702] $GPGGA,072244.30,3713.9882124,N,13701.4778672,E,1,09,1.2,86.1145,M,37.55,M,,*58
[2021-02-22 16:22:44.780] $GPGGA,072244.40,3713.9882069,N,13701.4778552,E,1,09,1.2,85.9971,M,37.55,M,,*52
[2021-02-22 16:22:44.905] $GPGGA,072244.50,3713.9881772,N,13701.4779850,E,1,09,1.2,85.8419,M,37.55,M,,*51
[2021-02-22 16:22:44.984] $GPGGA,072244.60,3713.9881499,N,13701.4780962,E,1,09,1.2,86.0359,M,37.55,M,,*5A
[2021-02-22 16:22:45.093] $GPGGA,072244.70,3713.9881507,N,13701.4781172,E,1,09,1.2,85.9159,M,37.55,M,,*5D
[2021-02-22 16:22:45.187] $GPGGA,072244.80,3713.9881303,N,13701.4780994,E,1,09,1.2,86.0905,M,37.55,M,,*5A
[2021-02-22 16:22:45.296] $GPGGA,072244.90,3713.9881917,N,13701.4780842,E,1,09,1.2,86.1311,M,37.55,M,,*50
[2021-02-22 16:22:45.374] $GPGGA,072245.00,3713.9883126,N,13701.4781360,E,1,09,1.2,86.0033,M,37.55,M,,*58
[2021-02-22 16:22:45.499] $GPGGA,072245.10,3713.9883449,N,13701.4781768,E,1,09,1.2,86.1211,M,37.55,M,,*5A
[2021-02-22 16:22:45.577] $GPGGA,072245.20,3713.9883305,N,13701.4782556,E,1,09,1.2,86.3106,M,37.55,M,,*5D
[2021-02-22 16:22:45.702] $GPGGA,072245.30,3713.9883964,N,13701.4782456,E,1,09,1.2,86.0859,M,37.55,M,,*50
[2021-02-22 16:22:45.780] $GPGGA,072245.40,3713.9884276,N,13701.4782492,E,1,09,1.2,85.9395,M,37.55,M,,*51
[2021-02-22 16:22:45.905] $GPGGA,072245.50,3713.9884817,N,13701.4782632,E,1,09,1.2,85.6663,M,37.55,M,,*56
[2021-02-22 16:22:45.999] $GPGGA,072245.60,3713.9885332,N,13701.4782180,E,1,09,1.2,85.6780,M,37.55,M,,*5A
[2021-02-22 16:22:46.077] $GPGGA,072245.70,3713.9885395,N,13701.4781553,E,1,09,1.2,85.9241,M,37.55,M,,*58
[2021-02-22 16:22:46.202] $GPGGA,072245.80,3713.9885537,N,13701.4780876,E,1,09,1.2,86.0820,M,37.55,M,,*55
[2021-02-22 16:22:46.280] $GPGGA,072245.90,3713.9885519,N,13701.4779687,E,1,09,1.2,86.4020,M,37.55,M,,*52
[2021-02-22 16:22:46.405] $GPGGA,072246.00,3713.9884998,N,13701.4779596,E,1,09,1.2,86.3130,M,37.55,M,,*58
[2021-02-22 16:22:46.483] $GPGGA,072246.10,3713.9884721,N,13701.4780405,E,1,09,1.2,86.4129,M,37.55,M,,*57
[2021-02-22 16:22:46.608] $GPGGA,072246.20,3713.9884585,N,13701.4780258,E,1,09,1.2,86.4266,M,37.55,M,,*5E
[2021-02-22 16:22:46.687] $GPGGA,072246.30,3713.9884669,N,13701.4780060,E,1,09,1.2,86.6723,M,37.55,M,,*51
[2021-02-22 16:22:46.796] $GPGGA,072246.40,3713.9883209,N,13701.4779941,E,1,09,1.2,86.9407,M,37.55,M,,*55
[2021-02-22 16:22:46.874] $GPGGA,072246.50,3713.9883529,N,13701.4779734,E,1,10,1.2,86.9230,M,37.55,M,,*57
[2021-02-22 16:22:46.999] $GPGGA,072246.60,3713.9884023,N,13701.4778854,E,1,10,1.2,86.6968,M,37.55,M,,*5D
[2021-02-22 16:22:47.077] $GPGGA,072246.70,3713.9884417,N,13701.4778576,E,1,10,1.2,86.6931,M,37.55,M,,*5E
[2021-02-22 16:22:47.202] $GPGGA,072246.80,3713.9878932,N,13701.4798582,E,5,05,7.2,92.5992,M,37.55,M,4,0000*60
[2021-02-22 16:22:47.296] $GPGGA,072246.90,3713.9878904,N,13701.4796908,E,5,05,7.2,92.6711,M,37.55,M,4,0000*62
[2021-02-22 16:22:47.405] $GPGGA,072247.00,3713.9879646,N,13701.4795628,E,5,05,7.2,92.7765,M,37.55,M,5,0000*6F
[2021-02-22 16:22:47.499] $GPGGA,072247.10,3713.9880025,N,13701.4792838,E,5,05,7.2,92.9293,M,37.55,M,5,0000*61
[2021-02-22 16:22:47.593] $GPGGA,072247.20,3713.9880190,N,13701.4791754,E,5,05,7.2,92.9896,M,37.55,M,5,0000*64
[2021-02-22 16:22:47.702] $GPGGA,072247.30,3713.9880436,N,13701.4791610,E,5,05,7.2,93.0113,M,37.55,M,5,0000*61
[2021-02-22 16:22:47.780] $GPGGA,072247.40,3713.9880416,N,13701.4791432,E,5,05,7.2,93.0177,M,37.55,M,5,0000*64
[2021-02-22 16:22:47.905] $GPGGA,072247.50,3713.9880080,N,13701.4790470,E,5,05,7.2,93.0394,M,37.55,M,5,0000*66
[2021-02-22 16:22:47.983] $GPGGA,072247.60,3713.9880000,N,13701.4789531,E,5,05,7.2,93.0770,M,37.55,M,5,0000*6F
[2021-02-22 16:22:48.108] $GPGGA,072247.70,3713.9879757,N,13701.4789321,E,5,05,7.2,93.0708,M,37.55,M,5,0000*65
[2021-02-22 16:22:48.186] $GPGGA,072247.80,3713.9879477,N,13701.4788558,E,5,05,7.2,93.0877,M,37.55,M,5,0000*65
[2021-02-22 16:22:48.296] $GPGGA,072247.90,3713.9880510,N,13701.4789269,E,5,07,1.9,92.7489,M,37.55,M,5,0000*62
[2021-02-22 16:22:48.374] $GPGGA,072248.00,3713.9881338,N,13701.4789351,E,5,07,1.9,92.4251,M,37.55,M,6,0000*60
[2021-02-22 16:22:48.483] $GPGGA,072248.10,3713.9881984,N,13701.4788800,E,5,07,1.9,92.0506,M,37.55,M,6,0000*63
[2021-02-22 16:22:48.593] $GPGGA,072248.20,3713.9882312,N,13701.4788425,E,5,07,1.9,91.8098,M,37.55,M,1,0000*63
[2021-02-22 16:22:48.702] $GPGGA,072248.30,3713.9876391,N,13701.4789159,E,5,08,1.7,94.1658,M,37.55,M,1,0000*6A
[2021-02-22 16:22:48.780] $GPGGA,072248.40,3713.9872764,N,13701.4789862,E,5,08,1.7,95.6101,M,37.55,M,1,0000*6B
[2021-02-22 16:22:48.905] $GPGGA,072248.50,3713.9871352,N,13701.4790064,E,5,08,1.7,96.1278,M,37.55,M,1,0000*67
[2021-02-22 16:22:48.983] $GPGGA,072248.60,3713.9871071,N,13701.4790169,E,5,08,1.7,96.2495,M,37.55,M,1,0000*6C
[2021-02-22 16:22:49.108] $GPGGA,072248.70,3713.9869917,N,13701.4790554,E,5,08,1.7,96.7429,M,37.55,M,1,0000*65
[2021-02-22 16:22:49.186] $GPGGA,072248.80,3713.9869349,N,13701.4790759,E,5,08,1.7,96.9830,M,37.55,M,1,0000*6E
[2021-02-22 16:22:49.296] $GPGGA,072248.90,3713.9875753,N,13701.4788169,E,5,09,1.3,94.5241,M,37.55,M,1,0000*66
[2021-02-22 16:22:49.389] $GPGGA,072249.00,3713.9876861,N,13701.4787692,E,5,09,1.3,94.0973,M,37.55,M,2,0000*63
[2021-02-22 16:22:49.483] $GPGGA,072249.10,3713.9879444,N,13701.4786512,E,5,10,1.1,93.0682,M,37.55,M,2,0000*60
[2021-02-22 16:22:49.608] $GPGGA,072249.20,3713.9880148,N,13701.4785988,E,5,11,1.1,92.7728,M,37.55,M,2,0000*66
[2021-02-22 16:22:49.686] $GPGGA,072249.30,3713.9880571,N,13701.4785731,E,5,11,1.1,92.6087,M,37.55,M,2,0000*66
[2021-02-22 16:22:49.811] $GPGGA,072249.40,3713.9880821,N,13701.4785598,E,5,11,1.1,92.5274,M,37.55,M,2,0000*65
[2021-02-22 16:22:49.889] $GPGGA,072249.50,3713.9880937,N,13701.4785398,E,5,11,1.1,92.4759,M,37.55,M,2,0000*6F
[2021-02-22 16:22:50.014] $GPGGA,072249.60,3713.9881002,N,13701.4785274,E,5,11,1.1,92.4467,M,37.55,M,2,0000*6F
[2021-02-22 16:22:50.093] $GPGGA,072249.70,3713.9881086,N,13701.4785189,E,5,11,1.1,92.4132,M,37.55,M,2,0000*66
[2021-02-22 16:22:50.202] $GPGGA,072249.80,3713.9881177,N,13701.4785086,E,5,11,1.1,92.4032,M,37.55,M,2,0000*69
[2021-02-22 16:22:50.280] $GPGGA,072249.90,3713.9881211,N,13701.4785014,E,5,11,1.1,92.4084,M,37.55,M,2,0000*6D
[2021-02-22 16:22:50.405] $GPGGA,072250.00,3713.9881229,N,13701.4784924,E,5,11,1.1,92.4171,M,37.55,M,3,0000*66
[2021-02-22 16:22:50.499] $GPGGA,072250.10,3713.9881223,N,13701.4784893,E,5,11,1.1,92.4132,M,37.55,M,3,0000*67
[2021-02-22 16:22:50.608] $GPGGA,072250.20,3713.9881158,N,13701.4784815,E,5,11,1.1,92.4113,M,37.55,M,3,0000*66
[2021-02-22 16:22:50.686] $GPGGA,072250.30,3713.9881000,N,13701.4784643,E,5,12,1.0,92.4682,M,37.55,M,3,0000*6B
[2021-02-22 16:22:50.811] $GPGGA,072250.40,3713.9880907,N,13701.4784464,E,5,12,1.0,92.5070,M,37.55,M,3,0000*6E
[2021-02-22 16:22:50.889] $GPGGA,072250.50,3713.9880793,N,13701.4784293,E,5,12,1.0,92.5383,M,37.55,M,3,0000*6D
[2021-02-22 16:22:51.014] $GPGGA,072250.60,3713.9880727,N,13701.4784213,E,5,12,1.0,92.5478,M,37.55,M,3,0000*6A
[2021-02-22 16:22:51.092] $GPGGA,072250.70,3713.9880626,N,13701.4784098,E,5,12,1.0,92.5665,M,37.55,M,3,0000*64
[2021-02-22 16:22:51.202] $GPGGA,072250.80,3713.9880482,N,13701.4783976,E,5,12,1.0,92.5748,M,37.55,M,3,0000*67
[2021-02-22 16:22:51.311] $GPGGA,072250.90,3713.9880433,N,13701.4783973,E,5,12,1.0,92.5774,M,37.55,M,3,0000*66
[2021-02-22 16:22:51.389] $GPGGA,072251.00,3713.9880375,N,13701.4783944,E,5,12,1.0,92.5892,M,37.55,M,4,0000*6F
[2021-02-22 16:22:51.499] $GPGGA,072251.10,3713.9880309,N,13701.4783924,E,5,12,1.0,92.6088,M,37.55,M,4,0000*63
[2021-02-22 16:22:51.592] $GPGGA,072251.20,3713.9880265,N,13701.4783914,E,5,12,1.0,92.6375,M,37.55,M,4,0000*69
[2021-02-22 16:22:51.717] $GPGGA,072251.30,3713.9880211,N,13701.4783895,E,5,12,1.0,92.6623,M,37.55,M,4,0000*65
[2021-02-22 16:22:51.811] $GPGGA,072251.40,3713.9880188,N,13701.4783857,E,5,12,1.0,92.6923,M,37.55,M,4,0000*60
[2021-02-22 16:22:51.905] $GPGGA,072251.50,3713.9880164,N,13701.4783817,E,5,12,1.0,92.7177,M,37.55,M,4,0000*6F
[2021-02-22 16:22:51.983] $GPGGA,072251.60,3713.9880150,N,13701.4783822,E,5,12,1.0,92.7319,M,37.55,M,4,0000*67
[2021-02-22 16:22:52.108] $GPGGA,072251.70,3713.9880155,N,13701.4783810,E,5,12,1.0,92.7490,M,37.55,M,4,0000*64
[2021-02-22 16:22:52.186] $GPGGA,072251.80,3713.9880131,N,13701.4783728,E,5,12,1.0,92.7695,M,37.55,M,4,0000*6A
[2021-02-22 16:22:52.311] $GPGGA,072251.90,3713.9880103,N,13701.4783669,E,5,12,1.0,92.7849,M,37.55,M,4,0000*61
[2021-02-22 16:22:52.389] $GPGGA,072252.00,3713.9880096,N,13701.4783669,E,5,12,1.0,92.7854,M,37.55,M,5,0000*6B
[2021-02-22 16:22:52.483] $GPGGA,072252.10,3713.9880092,N,13701.4783655,E,5,12,1.0,92.8018,M,37.55,M,5,0000*6E
[2021-02-22 16:22:52.608] $GPGGA,072252.20,3713.9880108,N,13701.4783661,E,5,12,1.0,92.8108,M,37.55,M,5,0000*68
[2021-02-22 16:22:52.702] $GPGGA,072252.30,3713.9880094,N,13701.4783638,E,5,12,1.0,92.8218,M,37.55,M,5,0000*63
[2021-02-22 16:22:52.780] $GPGGA,072252.40,3713.9880083,N,13701.4783590,E,5,12,1.0,92.8266,M,37.55,M,5,0000*6A
[2021-02-22 16:22:52.905] $GPGGA,072252.50,3713.9880100,N,13701.4783565,E,5,12,1.0,92.8384,M,37.55,M,5,0000*66
[2021-02-22 16:22:52.983] $GPGGA,072252.60,3713.9880132,N,13701.4783537,E,5,12,1.0,92.8471,M,37.55,M,5,0000*6E
[2021-02-22 16:22:53.108] $GPGGA,072252.70,3713.9880134,N,13701.4783496,E,5,12,1.0,92.8484,M,37.55,M,5,0000*69
[2021-02-22 16:22:53.217] $GPGGA,072252.80,3713.9880151,N,13701.4783493,E,5,12,1.0,92.8363,M,37.55,M,5,0000*6E
[2021-02-22 16:22:53.295] $GPGGA,072252.90,3713.9880147,N,13701.4783491,E,5,12,1.0,92.8276,M,37.55,M,5,0000*6F
[2021-02-22 16:22:53.405] $GPGGA,072253.00,3713.9880123,N,13701.4783445,E,5,12,1.0,92.8153,M,37.55,M,6,0000*6B
[2021-02-22 16:22:53.514] $GPGGA,072253.10,3713.9880125,N,13701.4783435,E,5,12,1.0,92.7994,M,37.55,M,6,0000*67
[2021-02-22 16:22:53.608] $GPGGA,072253.20,3713.9880148,N,13701.4783407,E,5,12,1.0,92.7955,M,37.55,M,1,0000*64
[2021-02-22 16:22:53.686] $GPGGA,072253.30,3713.9880149,N,13701.4783378,E,5,12,1.0,92.7901,M,37.55,M,1,0000*6A
[2021-02-22 16:22:53.811] $GPGGA,072253.40,3713.9880148,N,13701.4783374,E,5,12,1.0,92.7787,M,37.55,M,1,0000*60
[2021-02-22 16:22:53.889] $GPGGA,072253.50,3713.9880158,N,13701.4783369,E,5,12,1.0,92.7749,M,37.55,M,1,0000*6E
[2021-02-22 16:22:54.014] $GPGGA,072253.60,3713.9880142,N,13701.4783359,E,5,12,1.0,92.7656,M,37.55,M,1,0000*6A
[2021-02-22 16:22:54.092] $GPGGA,072253.70,3713.9880120,N,13701.4783332,E,5,12,1.0,92.7577,M,37.55,M,1,0000*62
[2021-02-22 16:22:54.202] $GPGGA,072253.80,3713.9880102,N,13701.4783333,E,5,12,1.0,92.7404,M,37.55,M,1,0000*69
[2021-02-22 16:22:54.295] $GPGGA,072253.90,3713.9880104,N,13701.4783348,E,5,12,1.0,92.7230,M,37.55,M,1,0000*63
[2021-02-22 16:22:54.405] $GPGGA,072254.00,3713.9880116,N,13701.4783353,E,5,12,1.0,92.7140,M,37.55,M,2,0000*63
[2021-02-22 16:22:54.498] $GPGGA,072254.10,3713.9880122,N,13701.4783350,E,5,12,1.0,92.7062,M,37.55,M,2,0000*67
[2021-02-22 16:22:54.608] $GPGGA,072254.20,3713.9880129,N,13701.4783363,E,5,12,1.0,92.7039,M,37.55,M,2,0000*61
[2021-02-22 16:22:54.686] $GPGGA,072254.30,3713.9880120,N,13701.4783385,E,5,12,1.0,92.6976,M,37.55,M,2,0000*62
[2021-02-22 16:22:54.811] $GPGGA,072254.40,3713.9880115,N,13701.4783364,E,5,12,1.0,92.7020,M,37.55,M,2,0000*67
[2021-02-22 16:22:54.905] $GPGGA,072254.50,3713.9880102,N,13701.4783352,E,5,12,1.0,92.7006,M,37.55,M,2,0000*61
[2021-02-22 16:22:54.983] $GPGGA,072254.60,3713.9880069,N,13701.4783327,E,5,12,1.0,92.6963,M,37.55,M,2,0000*67
[2021-02-22 16:22:55.108] $GPGGA,072254.70,3713.9880056,N,13701.4783315,E,5,12,1.0,92.7009,M,37.55,M,2,0000*6F
[2021-02-22 16:22:55.186] $GPGGA,072254.80,3713.9880051,N,13701.4783309,E,5,12,1.0,92.7037,M,37.55,M,2,0000*67
[2021-02-22 16:22:55.311] $GPGGA,072254.90,3713.9880041,N,13701.4783293,E,5,12,1.0,92.7079,M,37.55,M,2,0000*6F
[2021-02-22 16:22:55.389] $GPGGA,072255.00,3713.9880016,N,13701.4783281,E,5,12,1.0,92.7082,M,37.55,M,3,0000*63
[2021-02-22 16:22:55.498] $GPGGA,072255.10,3713.9880007,N,13701.4783285,E,5,12,1.0,92.7114,M,37.55,M,3,0000*68
[2021-02-22 16:22:55.592] $GPGGA,072255.20,3713.9879996,N,13701.4783306,E,5,12,1.0,92.7079,M,37.55,M,3,0000*6C
[2021-02-22 16:22:55.702] $GPGGA,072255.30,3713.9879982,N,13701.4783317,E,5,12,1.0,92.7064,M,37.55,M,3,0000*64
[2021-02-22 16:22:55.795] $GPGGA,072255.40,3713.9879980,N,13701.4783314,E,5,12,1.0,92.7139,M,37.55,M,3,0000*6B
[2021-02-22 16:22:55.905] $GPGGA,072255.50,3713.9879968,N,13701.4783304,E,5,12,1.0,92.7222,M,37.55,M,3,0000*64
[2021-02-22 16:22:55.983] $GPGGA,072255.60,3713.9879970,N,13701.4783312,E,5,12,1.0,92.7298,M,37.55,M,3,0000*68
[2021-02-22 16:22:56.108] $GPGGA,072255.70,3713.9879984,N,13701.4783313,E,5,12,1.0,92.7401,M,37.55,M,3,0000*65
[2021-02-22 16:22:56.186] $GPGGA,072255.80,3713.9879987,N,13701.4783285,E,5,12,1.0,92.7489,M,37.55,M,3,0000*67
[2021-02-22 16:22:56.311] $GPGGA,072255.90,3713.9879982,N,13701.4783276,E,5,12,1.0,92.7651,M,37.55,M,3,0000*68
[2021-02-22 16:22:56.389] $GPGGA,072256.00,3713.9879976,N,13701.4783288,E,5,12,1.0,92.7711,M,37.55,M,4,0000*6A
[2021-02-22 16:22:56.483] $GPGGA,072256.10,3713.9879997,N,13701.4783329,E,5,12,1.0,92.7773,M,37.55,M,4,0000*6A
[2021-02-22 16:22:56.592] $GPGGA,072256.20,3713.9880014,N,13701.4783367,E,5,12,1.0,92.7819,M,37.55,M,4,0000*64
[2021-02-22 16:22:56.717] $GPGGA,072256.30,3713.9880000,N,13701.4783381,E,5,12,1.0,92.7810,M,37.55,M,4,0000*61
[2021-02-22 16:22:56.811] $GPGGA,072256.40,3713.9879997,N,13701.4783378,E,5,12,1.0,92.7813,M,37.55,M,4,0000*62
[2021-02-22 16:22:56.889] $GPGGA,072256.50,3713.9879993,N,13701.4783373,E,5,12,1.0,92.7802,M,37.55,M,4,0000*6C
[2021-02-22 16:22:57.014] $GPGGA,072256.60,3713.9880003,N,13701.4783373,E,5,12,1.0,92.7755,M,37.55,M,4,0000*64
[2021-02-22 16:22:57.092] $GPGGA,072256.70,3713.9879998,N,13701.4783370,E,5,12,1.0,92.7735,M,37.55,M,4,0000*6D
[2021-02-22 16:22:57.217] $GPGGA,072256.80,3713.9880001,N,13701.4783362,E,5,12,1.0,92.7722,M,37.55,M,4,0000*68
[2021-02-22 16:22:57.295] $GPGGA,072256.90,3713.9880007,N,13701.4783369,E,5,12,1.0,92.7716,M,37.55,M,4,0000*63
[2021-02-22 16:22:57.404] $GPGGA,072257.00,3713.9880022,N,13701.4783389,E,5,12,1.0,92.7673,M,37.55,M,5,0000*61
[2021-02-22 16:22:57.498] $GPGGA,072257.10,3713.9880050,N,13701.4783392,E,5,12,1.0,92.7675,M,37.55,M,5,0000*69
[2021-02-22 16:22:57.608] $GPGGA,072257.20,3713.9880124,N,13701.4783291,E,5,12,1.0,92.7634,M,37.55,M,5,0000*6F
[2021-02-22 16:22:57.686] $GPGGA,072257.30,3713.9880146,N,13701.4783222,E,5,12,1.0,92.7636,M,37.55,M,5,0000*60
[2021-02-22 16:22:57.811] $GPGGA,072257.40,3713.9880173,N,13701.4783217,E,5,12,1.0,92.7664,M,37.55,M,5,0000*60
[2021-02-22 16:22:57.889] $GPGGA,072257.50,3713.9880186,N,13701.4783237,E,5,12,1.0,92.7671,M,37.55,M,5,0000*6D
[2021-02-22 16:22:58.014] $GPGGA,072257.60,3713.9880190,N,13701.4783260,E,5,12,1.0,92.7683,M,37.55,M,5,0000*66
[2021-02-22 16:22:58.092] $GPGGA,072257.70,3713.9880194,N,13701.4783287,E,5,12,1.0,92.7661,M,37.55,M,5,0000*66
[2021-02-22 16:22:58.201] $GPGGA,072257.80,3713.9880191,N,13701.4783291,E,5,12,1.0,92.7606,M,37.55,M,5,0000*6A
[2021-02-22 16:22:58.279] $GPGGA,072257.90,3713.9880199,N,13701.4783280,E,5,12,1.0,92.7625,M,37.55,M,5,0000*62
[2021-02-22 16:22:58.404] $GPGGA,072258.00,3713.9880213,N,13701.4783253,E,5,12,1.0,92.7682,M,37.55,M,6,0000*65
[2021-02-22 16:22:58.483] $GPGGA,072258.10,3713.9880240,N,13701.4783233,E,5,12,1.0,92.7750,M,37.55,M,6,0000*6A
[2021-02-22 16:22:58.592] $GPGGA,072258.20,3713.9880251,N,13701.4783220,E,5,12,1.0,92.7797,M,37.55,M,1,0000*67
[2021-02-22 16:22:58.717] $GPGGA,072258.30,3713.9880262,N,13701.4783220,E,5,12,1.0,92.7810,M,37.55,M,1,0000*66
[2021-02-22 16:22:58.795] $GPGGA,072258.40,3713.9880251,N,13701.4783211,E,5,12,1.0,92.7868,M,37.55,M,1,0000*6C
[2021-02-22 16:22:58.920] $GPGGA,072258.50,3713.9880244,N,13701.4783221,E,5,12,1.0,92.7871,M,37.55,M,1,0000*62
[2021-02-22 16:22:58.983] $GPGGA,072258.60,3713.9880233,N,13701.4783220,E,5,12,1.0,92.7872,M,37.55,M,1,0000*63
[2021-02-22 16:22:59.107] $GPGGA,072258.70,3713.9880236,N,13701.4783216,E,5,12,1.0,92.7881,M,37.55,M,1,0000*6E
[2021-02-22 16:22:59.186] $GPGGA,072258.80,3713.9880230,N,13701.4783212,E,5,12,1.0,92.7884,M,37.55,M,1,0000*66
[2021-02-22 16:22:59.311] $GPGGA,072258.90,3713.9880203,N,13701.4783197,E,5,12,1.0,92.7896,M,37.55,M,1,0000*6A
[2021-02-22 16:22:59.389] $GPGGA,072259.00,3713.9880178,N,13701.4783195,E,5,12,1.0,92.7878,M,37.55,M,2,0000*6C
[2021-02-22 16:22:59.483] $GPGGA,072259.10,3713.9880172,N,13701.4783209,E,5,12,1.0,92.7885,M,37.55,M,2,0000*63
[2021-02-22 16:22:59.592] $GPGGA,072259.20,3713.9880144,N,13701.4783206,E,5,12,1.0,92.7839,M,37.55,M,2,0000*6D
[2021-02-22 16:22:59.701] $GPGGA,072259.30,3713.9880131,N,13701.4783189,E,5,12,1.0,92.7852,M,37.55,M,2,0000*67
[2021-02-22 16:22:59.795] $GPGGA,072259.40,3713.9880105,N,13701.4783192,E,5,12,1.0,92.7840,M,37.55,M,2,0000*6E
[2021-02-22 16:22:59.904] $GPGGA,072259.50,3713.9880092,N,13701.4783190,E,5,12,1.0,92.7823,M,37.55,M,2,0000*67
[2021-02-22 16:22:59.982] $GPGGA,072259.60,3713.9880087,N,13701.4783199,E,5,12,1.0,92.7839,M,37.55,M,2,0000*62
[2021-02-22 16:23:00.107] $GPGGA,072259.70,3713.9880083,N,13701.4783199,E,5,12,1.0,92.7911,M,37.55,M,2,0000*6C
[2021-02-22 16:23:00.186] $GPGGA,072259.80,3713.9880077,N,13701.4783188,E,5,12,1.0,92.7941,M,37.55,M,2,0000*6D
[2021-02-22 16:23:00.311] $GPGGA,072259.90,3713.9880062,N,13701.4783183,E,5,12,1.0,92.7942,M,37.55,M,2,0000*60
[2021-02-22 16:23:00.420] $GPGGA,072300.00,3713.9880054,N,13701.4783191,E,5,12,1.0,92.7866,M,37.55,M,3,0000*64
[2021-02-22 16:23:00.514] $GPGGA,072300.10,3713.9880048,N,13701.4783196,E,5,12,1.0,92.7832,M,37.55,M,3,0000*6E
[2021-02-22 16:23:00.607] $GPGGA,072300.20,3713.9880044,N,13701.4783203,E,5,12,1.0,92.7830,M,37.55,M,3,0000*6C
[2021-02-22 16:23:00.686] $GPGGA,072300.30,3713.9880037,N,13701.4783235,E,5,12,1.0,92.7825,M,37.55,M,3,0000*68
[2021-02-22 16:23:00.811] $GPGGA,072300.40,3713.9880037,N,13701.4783264,E,5,12,1.0,92.7837,M,37.55,M,3,0000*68
[2021-02-22 16:23:00.889] $GPGGA,072300.50,3713.9880048,N,13701.4783268,E,5,12,1.0,92.7888,M,37.55,M,3,0000*69
[2021-02-22 16:23:01.014] $GPGGA,072300.60,3713.9880021,N,13701.4783264,E,5,12,1.0,92.7919,M,37.55,M,3,0000*60
[2021-02-22 16:23:01.092] $GPGGA,072300.70,3713.9879972,N,13701.4783267,E,5,12,1.0,92.7914,M,37.55,M,3,0000*66
[2021-02-22 16:23:01.201] $GPGGA,072300.80,3713.9879963,N,13701.4783279,E,5,12,1.0,92.7945,M,37.55,M,3,0000*62
[2021-02-22 16:23:01.295] $GPGGA,072300.90,3713.9879967,N,13701.4783281,E,5,12,1.0,92.7983,M,37.55,M,3,0000*6A
[2021-02-22 16:23:01.404] $GPGGA,072301.00,3713.9879963,N,13701.4783294,E,5,12,1.0,92.8010,M,37.55,M,4,0000*69
[2021-02-22 16:23:01.498] $GPGGA,072301.10,3713.9879937,N,13701.4783292,E,5,12,1.0,92.7977,M,37.55,M,4,0000*68
[2021-02-22 16:23:01.607] $GPGGA,072301.20,3713.9879936,N,13701.4783292,E,5,12,1.0,92.7946,M,37.55,M,4,0000*68
[2021-02-22 16:23:01.685] $GPGGA,072301.30,3713.9879936,N,13701.4783289,E,5,12,1.0,92.7939,M,37.55,M,4,0000*6B
[2021-02-22 16:23:01.810] $GPGGA,072301.40,3713.9879935,N,13701.4783292,E,5,12,1.0,92.7945,M,37.55,M,4,0000*6E
[2021-02-22 16:23:01.889] $GPGGA,072301.50,3713.9879937,N,13701.4783320,E,5,12,1.0,92.7915,M,37.55,M,4,0000*60
[2021-02-22 16:23:02.014] $GPGGA,072301.60,3713.9879929,N,13701.4783349,E,5,12,1.0,92.7919,M,37.55,M,4,0000*6F
[2021-02-22 16:23:02.107] $GPGGA,072301.70,3713.9879927,N,13701.4783349,E,5,12,1.0,92.7916,M,37.55,M,4,0000*6F
[2021-02-22 16:23:02.185] $GPGGA,072301.80,3713.9879905,N,13701.4783320,E,5,12,1.0,92.7932,M,37.55,M,4,0000*69
[2021-02-22 16:23:02.310] $GPGGA,072301.90,3713.9879882,N,13701.4783304,E,5,12,1.0,92.7942,M,37.55,M,4,0000*67
[2021-02-22 16:23:02.388] $GPGGA,072302.00,3713.9879865,N,13701.4783283,E,5,12,1.0,92.7951,M,37.55,M,5,0000*69
[2021-02-22 16:23:02.498] $GPGGA,072302.10,3713.9879857,N,13701.4783290,E,5,12,1.0,92.7955,M,37.55,M,5,0000*6F
[2021-02-22 16:23:02.592] $GPGGA,072302.20,3713.9879865,N,13701.4783293,E,5,12,1.0,92.7961,M,37.55,M,5,0000*69
[2021-02-22 16:23:02.717] $GPGGA,072302.30,3713.9879870,N,13701.4783305,E,5,12,1.0,92.7928,M,37.55,M,5,0000*6F
[2021-02-22 16:23:02.795] $GPGGA,072302.40,3713.9879843,N,13701.4783306,E,5,12,1.0,92.7947,M,37.55,M,5,0000*62
[2021-02-22 16:23:02.904] $GPGGA,072302.50,3713.9879838,N,13701.4783331,E,5,12,1.0,92.7961,M,37.55,M,5,0000*6F
[2021-02-22 16:23:02.982] $GPGGA,072302.60,3713.9879842,N,13701.4783343,E,5,12,1.0,92.7960,M,37.55,M,5,0000*65
[2021-02-22 16:23:03.107] $GPGGA,072302.70,3713.9879829,N,13701.4783338,E,5,12,1.0,92.7974,M,37.55,M,5,0000*60
[2021-02-22 16:23:03.185] $GPGGA,072302.80,3713.9879826,N,13701.4783299,E,5,12,1.0,92.7980,M,37.55,M,5,0000*61
[2021-02-22 16:23:03.310] $GPGGA,072302.90,3713.9879823,N,13701.4783257,E,5,12,1.0,92.7988,M,37.55,M,5,0000*6F
[2021-02-22 16:23:03.388] $GPGGA,072303.00,3713.9879822,N,13701.4783238,E,5,12,1.0,92.7931,M,37.55,M,6,0000*6E
[2021-02-22 16:23:03.482] $GPGGA,072303.10,3713.9879834,N,13701.4783223,E,5,12,1.0,92.7947,M,37.55,M,6,0000*63
[2021-02-22 16:23:03.592] $GPGGA,072303.20,3713.9879839,N,13701.4783247,E,5,12,1.0,92.7944,M,37.55,M,1,0000*6B
[2021-02-22 16:23:03.701] $GPGGA,072303.30,3713.9879801,N,13701.4783279,E,5,12,1.0,92.7898,M,37.55,M,1,0000*6C
[2021-02-22 16:23:03.810] $GPGGA,072303.40,3713.9879757,N,13701.4783304,E,5,12,1.0,92.7896,M,37.55,M,1,0000*62
[2021-02-22 16:23:03.888] $GPGGA,072303.50,3713.9879731,N,13701.4783319,E,5,12,1.0,92.7874,M,37.55,M,1,0000*63
[2021-02-22 16:23:04.013] $GPGGA,072303.60,3713.9879717,N,13701.4783332,E,5,12,1.0,92.7867,M,37.55,M,1,0000*6F
[2021-02-22 16:23:04.091] $GPGGA,072303.70,3713.9879701,N,13701.4783338,E,5,12,1.0,92.7903,M,37.55,M,1,0000*60
[2021-02-22 16:23:04.216] $GPGGA,072303.80,3713.9879696,N,13701.4783347,E,5,12,1.0,92.7932,M,37.55,M,1,0000*6A
[2021-02-22 16:23:04.295] $GPGGA,072303.90,3713.9879695,N,13701.4783333,E,5,12,1.0,92.7981,M,37.55,M,1,0000*63
[2021-02-22 16:23:04.404] $GPGGA,072304.00,3713.9879693,N,13701.4783315,E,5,12,1.0,92.7985,M,37.55,M,2,0000*68
[2021-02-22 16:23:04.513] $GPGGA,072304.10,3713.9879701,N,13701.4783290,E,5,12,1.0,92.8025,M,37.55,M,2,0000*63
[2021-02-22 16:23:04.607] $GPGGA,072304.20,3713.9879698,N,13701.4783293,E,5,12,1.0,92.7991,M,37.55,M,2,0000*6B
[2021-02-22 16:23:04.685] $GPGGA,072304.30,3713.9879694,N,13701.4783302,E,5,12,1.0,92.7987,M,37.55,M,2,0000*68
[2021-02-22 16:23:04.810] $GPGGA,072304.40,3713.9879698,N,13701.4783292,E,5,12,1.0,92.7951,M,37.55,M,2,0000*60
[2021-02-22 16:23:04.888] $GPGGA,072304.50,3713.9879708,N,13701.4783285,E,5,12,1.0,92.7943,M,37.55,M,2,0000*6C
[2021-02-22 16:23:05.013] $GPGGA,072304.60,3713.9879709,N,13701.4783279,E,5,12,1.0,92.7941,M,37.55,M,2,0000*6F
[2021-02-22 16:23:05.091] $GPGGA,072304.70,3713.9879719,N,13701.4783278,E,5,12,1.0,92.7949,M,37.55,M,2,0000*66
[2021-02-22 16:23:05.201] $GPGGA,072304.80,3713.9879721,N,13701.4783290,E,5,12,1.0,92.7944,M,37.55,M,2,0000*69
[2021-02-22 16:23:05.295] $GPGGA,072304.90,3713.9879726,N,13701.4783292,E,5,12,1.0,92.7929,M,37.55,M,2,0000*66
[2021-02-22 16:23:05.404] $GPGGA,072305.00,3713.9879716,N,13701.4783302,E,5,12,1.0,92.7875,M,37.55,M,3,0000*6C
[2021-02-22 16:23:05.498] $GPGGA,072305.10,3713.9879706,N,13701.4783311,E,5,12,1.0,92.7859,M,37.55,M,3,0000*60
[2021-02-22 16:23:05.607] $GPGGA,072305.20,3713.9879695,N,13701.4783312,E,5,12,1.0,92.7795,M,37.55,M,3,0000*64
[2021-02-22 16:23:05.716] $GPGGA,072305.30,3713.9879688,N,13701.4783323,E,5,12,1.0,92.7755,M,37.55,M,3,0000*67
[2021-02-22 16:23:05.795] $GPGGA,072305.40,3713.9879681,N,13701.4783323,E,5,12,1.0,92.7730,M,37.55,M,3,0000*6A
[2021-02-22 16:23:05.904] $GPGGA,072305.50,3713.9879668,N,13701.4783318,E,5,12,1.0,92.7705,M,37.55,M,3,0000*62
[2021-02-22 16:23:05.982] $GPGGA,072305.60,3713.9879662,N,13701.4783328,E,5,12,1.0,92.7679,M,37.55,M,3,0000*62
[2021-02-22 16:23:06.107] $GPGGA,072305.70,3713.9879664,N,13701.4783336,E,5,12,1.0,92.7682,M,37.55,M,3,0000*6E
[2021-02-22 16:23:06.185] $GPGGA,072305.80,3713.9879661,N,13701.4783334,E,5,12,1.0,92.7712,M,37.55,M,3,0000*6E
[2021-02-22 16:23:06.310] $GPGGA,072305.90,3713.9879636,N,13701.4783338,E,5,12,1.0,92.7719,M,37.55,M,3,0000*6A
[2021-02-22 16:23:06.388] $GPGGA,072306.00,3713.9879604,N,13701.4783339,E,5,12,1.0,92.7697,M,37.55,M,4,0000*60
[2021-02-22 16:23:06.498] $GPGGA,072306.10,3713.9879578,N,13701.4783347,E,5,12,1.0,92.7698,M,37.55,M,4,0000*6F
[2021-02-22 16:23:06.591] $GPGGA,072306.20,3713.9879549,N,13701.4783348,E,5,12,1.0,92.7692,M,37.55,M,4,0000*6B
[2021-02-22 16:23:06.701] $GPGGA,072306.30,3713.9879534,N,13701.4783339,E,5,12,1.0,92.7683,M,37.55,M,4,0000*66
[2021-02-22 16:23:06.794] $GPGGA,072306.40,3713.9879528,N,13701.4783337,E,5,12,1.0,92.7713,M,37.55,M,4,0000*6A
[2021-02-22 16:23:06.904] $GPGGA,072306.50,3713.9879520,N,13701.4783331,E,5,12,1.0,92.7743,M,37.55,M,4,0000*60
[2021-02-22 16:23:06.982] $GPGGA,072306.60,3713.9879512,N,13701.4783337,E,5,12,1.0,92.7753,M,37.55,M,4,0000*65
[2021-02-22 16:23:07.107] $GPGGA,072306.70,3713.9879495,N,13701.4783338,E,5,12,1.0,92.7780,M,37.55,M,4,0000*6B
[2021-02-22 16:23:07.185] $GPGGA,072306.80,3713.9879481,N,13701.4783335,E,5,12,1.0,92.7808,M,37.55,M,4,0000*63
[2021-02-22 16:23:07.310] $GPGGA,072306.90,3713.9879478,N,13701.4783337,E,5,12,1.0,92.7840,M,37.55,M,4,0000*6A
[2021-02-22 16:23:07.419] $GPGGA,072307.00,3713.9879487,N,13701.4783333,E,5,12,1.0,92.7842,M,37.55,M,5,0000*65
[2021-02-22 16:23:07.513] $GPGGA,072307.10,3713.9879482,N,13701.4783345,E,5,12,1.0,92.7871,M,37.55,M,5,0000*60
[2021-02-22 16:23:07.607] $GPGGA,072307.20,3713.9879475,N,13701.4783358,E,5,12,1.0,92.7873,M,37.55,M,5,0000*65
[2021-02-22 16:23:07.685] $GPGGA,072307.30,3713.9879482,N,13701.4783374,E,5,12,1.0,92.7916,M,37.55,M,5,0000*60
[2021-02-22 16:23:07.810] $GPGGA,072307.40,3713.9879473,N,13701.4783396,E,5,12,1.0,92.7910,M,37.55,M,5,0000*63
[2021-02-22 16:23:07.888] $GPGGA,072307.50,3713.9879454,N,13701.4783382,E,5,12,1.0,92.7937,M,37.55,M,5,0000*67
[2021-02-22 16:23:08.013] $GPGGA,072307.60,3713.9879432,N,13701.4783383,E,5,12,1.0,92.7950,M,37.55,M,5,0000*64
[2021-02-22 16:23:08.091] $GPGGA,072307.70,3713.9879424,N,13701.4783401,E,5,12,1.0,92.7963,M,37.55,M,5,0000*6F
[2021-02-22 16:23:08.216] $GPGGA,072307.80,3713.9879424,N,13701.4783411,E,5,12,1.0,92.7945,M,37.55,M,5,0000*65
[2021-02-22 16:23:08.294] $GPGGA,072307.90,3713.9879436,N,13701.4783407,E,5,12,1.0,92.7942,M,37.55,M,5,0000*67
[2021-02-22 16:23:08.404] $GPGGA,072308.00,3713.9879435,N,13701.4783392,E,5,12,1.0,92.7951,M,37.55,M,6,0000*68
[2021-02-22 16:23:08.513] $GPGGA,072308.10,3713.9879422,N,13701.4783373,E,5,12,1.0,92.7965,M,37.55,M,6,0000*67
[2021-02-22 16:23:08.607] $GPGGA,072308.20,3713.9879414,N,13701.4783384,E,5,12,1.0,92.8000,M,37.55,M,1,0000*6B
[2021-02-22 16:23:08.685] $GPGGA,072308.30,3713.9879412,N,13701.4783397,E,5,12,1.0,92.8012,M,37.55,M,1,0000*6D
[2021-02-22 16:23:08.810] $GPGGA,072308.40,3713.9879398,N,13701.4783404,E,5,12,1.0,92.7993,M,37.55,M,1,0000*6D
[2021-02-22 16:23:08.888] $GPGGA,072308.50,3713.9879392,N,13701.4783400,E,5,12,1.0,92.7987,M,37.55,M,1,0000*67
[2021-02-22 16:23:09.013] $GPGGA,072308.60,3713.9879386,N,13701.4783383,E,5,12,1.0,92.7983,M,37.55,M,1,0000*69
[2021-02-22 16:23:09.091] $GPGGA,072308.70,3713.9879395,N,13701.4783381,E,5,12,1.0,92.7992,M,37.55,M,1,0000*68
[2021-02-22 16:23:09.201] $GPGGA,072308.80,3713.9879396,N,13701.4783385,E,5,12,1.0,92.8013,M,37.55,M,1,0000*6F
[2021-02-22 16:23:09.310] $GPGGA,072308.90,3713.9879386,N,13701.4783380,E,5,12,1.0,92.7996,M,37.55,M,1,0000*61
[2021-02-22 16:23:09.388] $GPGGA,072309.00,3713.9879377,N,13701.4783383,E,5,12,1.0,92.7975,M,37.55,M,2,0000*6A
[2021-02-22 16:23:09.497] $GPGGA,072309.10,3713.9879368,N,13701.4783395,E,5,12,1.0,92.7946,M,37.55,M,2,0000*62
[2021-02-22 16:23:09.607] $GPGGA,072309.20,3713.9879366,N,13701.4783400,E,5,12,1.0,92.7916,M,37.55,M,2,0000*61
[2021-02-22 16:23:09.716] $GPGGA,072309.30,3713.9879358,N,13701.4783401,E,5,12,1.0,92.7892,M,37.55,M,2,0000*61
[2021-02-22 16:23:09.794] $GPGGA,072309.40,3713.9879350,N,13701.4783386,E,5,12,1.0,92.7870,M,37.55,M,2,0000*6A
[2021-02-22 16:23:09.904] $GPGGA,072309.50,3713.9879366,N,13701.4783368,E,5,12,1.0,92.7886,M,37.55,M,2,0000*67
[2021-02-22 16:23:09.982] $GPGGA,072309.60,3713.9879347,N,13701.4783370,E,5,12,1.0,92.7863,M,37.55,M,2,0000*65
[2021-02-22 16:23:10.107] $GPGGA,072309.70,3713.9879306,N,13701.4783390,E,5,12,1.0,92.7860,M,37.55,M,2,0000*6C
[2021-02-22 16:23:10.185] $GPGGA,072309.80,3713.9879290,N,13701.4783413,E,5,12,1.0,92.7836,M,37.55,M,2,0000*62
[2021-02-22 16:23:10.310] $GPGGA,072309.90,3713.9879303,N,13701.4783433,E,5,12,1.0,92.7827,M,37.55,M,2,0000*6A
[2021-02-22 16:23:10.388] $GPGGA,072310.00,3713.9879320,N,13701.4783421,E,5,12,1.0,92.7787,M,37.55,M,3,0000*6D
[2021-02-22 16:23:10.482] $GPGGA,072310.10,3713.9879331,N,13701.4783381,E,5,12,1.0,92.7770,M,37.55,M,3,0000*69
[2021-02-22 16:23:10.591] $GPGGA,072310.20,3713.9879325,N,13701.4783339,E,5,12,1.0,92.7758,M,37.55,M,3,0000*66
[2021-02-22 16:23:10.700] $GPGGA,072310.30,3713.9879316,N,13701.4783316,E,5,12,1.0,92.7752,M,37.55,M,3,0000*60
[2021-02-22 16:23:10.794] $GPGGA,072310.40,3713.9879304,N,13701.4783316,E,5,12,1.0,92.7733,M,37.55,M,3,0000*63
[2021-02-22 16:23:10.904] $GPGGA,072310.50,3713.9879294,N,13701.4783324,E,5,12,1.0,92.7718,M,37.55,M,3,0000*62
[2021-02-22 16:23:11.013] $GPGGA,072310.60,3713.9879304,N,13701.4783332,E,5,12,1.0,92.7711,M,37.55,M,3,0000*67
[2021-02-22 16:23:11.091] $GPGGA,072310.70,3713.9879304,N,13701.4783314,E,5,12,1.0,92.7692,M,37.55,M,3,0000*68
[2021-02-22 16:23:11.216] $GPGGA,072310.80,3713.9879286,N,13701.4783310,E,5,12,1.0,92.7693,M,37.55,M,3,0000*69
[2021-02-22 16:23:11.294] $GPGGA,072310.90,3713.9879278,N,13701.4783313,E,5,12,1.0,92.7715,M,37.55,M,3,0000*65
[2021-02-22 16:23:11.419] $GPGGA,072311.00,3713.9879285,N,13701.4783323,E,5,12,1.0,92.7696,M,37.55,M,4,0000*61
[2021-02-22 16:23:11.513] $GPGGA,072311.10,3713.9879306,N,13701.4783323,E,5,12,1.0,92.7690,M,37.55,M,4,0000*6C
[2021-02-22 16:23:11.607] $GPGGA,072311.20,3713.9879311,N,13701.4783322,E,5,12,1.0,92.7693,M,37.55,M,4,0000*6B
[2021-02-22 16:23:11.685] $GPGGA,072311.30,3713.9879291,N,13701.4783303,E,5,12,1.0,92.7698,M,37.55,M,4,0000*6B
[2021-02-22 16:23:11.810] $GPGGA,072311.40,3713.9879271,N,13701.4783284,E,5,12,1.0,92.7698,M,37.55,M,4,0000*6C
[2021-02-22 16:23:11.888] $GPGGA,072311.50,3713.9879265,N,13701.4783277,E,5,12,1.0,92.7690,M,37.55,M,4,0000*6C
[2021-02-22 16:23:12.013] $GPGGA,072311.60,3713.9879259,N,13701.4783269,E,5,12,1.0,92.7716,M,37.55,M,4,0000*60
[2021-02-22 16:23:12.091] $GPGGA,072311.70,3713.9879250,N,13701.4783256,E,5,12,1.0,92.7710,M,37.55,M,4,0000*62
[2021-02-22 16:23:12.200] $GPGGA,072311.80,3713.9879224,N,13701.4783235,E,5,12,1.0,92.7713,M,37.55,M,4,0000*68
[2021-02-22 16:23:12.294] $GPGGA,072311.90,3713.9879207,N,13701.4783229,E,5,12,1.0,92.7721,M,37.55,M,4,0000*64
