
[2021-02-22 16:21:54.268] $GPGGA,,,,,,,,,,M,,M,,*56
[2021-02-22 16:21:54.299] $GPGGA,,,,,,,,,,M,,M,,*56
[2021-02-22 16:21:54.299] $GPGGA,,,,,,,,,,M,,M,,*56
[2021-02-22 16:21:54.299] $GPGGA,,,,,,,,,,M,,M,,*56
[2021-02-22 16:21:54.299] $GPGGA,,,,,,,,,,M,,M,,*56
[2021-02-22 16:21:54.299] $GPGGA,,,,,,,,,,M,,M,,*56
[2021-02-22 16:21:54.299] $GPGGA,,,,,,,,,,M,,M,,*56
[2021-02-22 16:21:54.299] $GPGGA,,,,,,,,,,M,,M,,*56
[2021-02-22 16:21:54.299] $GPGGA,,,,,,,,,,M,,M,,*56
[2021-02-22 16:21:54.299] $GPGGA,,,,,,,,,,M,,M,,*56
[2021-02-22 16:21:54.299] $GPGGA,,,,,,,,,,M,,M,,*56
[2021-02-22 16:21:54.299] $GPGGA,,,,,,,,,,M,,M,,*56
[2021-02-22 16:21:54.299] $GPGGA,,,,,,,,,,M,,M,,*56
[2021-02-22 16:21:54.299] $GPGGA,,,,,,,,,,M,,M,,*56
[2021-02-22 16:21:54.299] $GPGGA,,,,,,,,,,M,,M,,*56
[2021-02-22 16:21:54.299] $GPGGA,,,,,,,,,,M,,M,,*56
[2021-02-22 16:21:54.299] $GPGGA,,,,,,,,,,M,,M,,*56
[2021-02-22 16:21:54.299] $GPGGA,,,,,,,,,,M,,M,,*56
[2021-02-22 16:21:54.299] $GPGGA,,,,,,,,,,M,,M,,*56
[2021-02-22 16:21:54.299] $GPGGA,,,,,,,,,,M,,M,,*56
[2021-02-22 16:21:54.299] $GPGGA,,,,,,,,,,M,,M,,*56
[2021-02-22 16:21:54.299] $GPGGA,,,,,,,,,,M,,M,,*56
[2021-02-22 16:21:54.299] $GPGGA,,,,,,,,,,M,,M,,*56
[2021-02-22 16:21:54.299] $GPGGA,,,,,,,,,,M,,M,,*56
[2021-02-22 16:21:54.299] $GPGGA,,,,,,,,,,M,,M,,*56
[2021-02-22 16:21:54.299] $GPGGA,,,,,,,,,,M,,M,,*56
[2021-02-22 16:21:54.299] $GPGGA,,,,,,,,,,M,,M,,*56
[2021-02-22 16:21:54.299] $GPGGA,,,,,,,,,,M,,M,,*56
[2021-02-22 16:21:54.299] $GPGGA,,,,,,,,,,M,,M,,*56
[2021-02-22 16:21:54.299] $GPGGA,,,,,,,,,,M,,M,,*56
[2021-02-22 16:21:54.299] $GPGGA,,,,,,,,,,M,,M,,*56
[2021-02-22 16:21:54.299] $GPGGA,,,,,,,,,,M,,M,,*56
[2021-02-22 16:21:54.299] $GPGGA,,,,,,,,,,M,,M,,*56
[2021-02-22 16:21:54.299] $GPGGA,,,,,,,,,,M,,M,,*56
[2021-02-22 16:21:54.299] $GPGGA,,,,,,,,,,M,,M,,*56
[2021-02-22 16:21:54.299] $GPGGA,,,,,,,,,,M,,M,,*56
[2021-02-22 16:21:54.299] $GPGGA,,,,,,,,,,M,,M,,*56
[2021-02-22 16:21:54.299] $GPGGA,,,,,,,,,,M,,M,,*56
[2021-02-22 16:21:54.299] $GPGGA,,,,,,,,,,M,,M,,*56
[2021-02-22 16:21:54.299] $GPGGA,,,,,,,,,,M,,M,,*56
[2021-02-22 16:21:54.299] $GPGGA,,,,,,,,,,M,,M,,*56
[2021-02-22 16:21:54.299] $GPGGA,,,,,,,,,,M,,M,,*56
[2021-02-22 16:21:54.299] $GPGGA,,,,,,,,,,M,,M,,*56
[2021-02-22 16:21:54.299] $GPGGA,,,,,,,,,,M,,M,,*56
[2021-02-22 16:21:54.299] $GPGGA,,,,,,,,,,M,,M,,*56
[2021-02-22 16:21:54.299] $GPGGA,,,,,,,,,,M,,M,,*56
[2021-02-22 16:21:54.299] $GPGGA,,,,,,,,,,M,,M,,*56
[2021-02-22 16:21:54.299] $GPGGA,,,,,,,,,,M,,M,,*56
[2021-02-22 16:21:54.299] $GPGGA,,,,,,,,,,M,,M,,*56
[2021-02-22 16:21:54.299] $GPGGA,,,,,,,,,,M,,M,,*56
[2021-02-22 16:21:54.299] $GPGGA,,,,,,,,,,M,,M,,*56
[2021-02-22 16:21:54.299] $GPGGA,,,,,,,,,,M,,M,,*56
[2021-02-22 16:21:54.299] $GPGGA,,,,,,,,,,M,,M,,*56
[2021-02-22 16:21:54.299] $GPGGA,,,,,,,,,,M,,M,,*56
[2021-02-22 16:21:54.299] $GPGGA,,,,,,,,,,M,,M,,*56
[2021-02-22 16:21:54.299] $GPGGA,,,,,,,,,,M,,M,,*56
[2021-02-22 16:21:54.299] $GPGGA,,,,,,,,,,M,,M,,*56
[2021-02-22 16:21:54.299] $GPGGA,,,,,,,,,,M,,M,,*56
[2021-02-22 16:21:54.299] $GPGGA,,,,,,,,,,M,,M,,*56
[2021-02-22 16:21:54.299] $GPGGA,,,,,,,,,,M,,M,,*56
[2021-02-22 16:21:54.299] $GPGGA,,,,,,,,,,M,,M,,*56
[2021-02-22 16:21:54.299] $GPGGA,,,,,,,,,,M,,M,,*56
[2021-02-22 16:21:54.299] $GPGGA,,,,,,,,,,M,,M,,*56
[2021-02-22 16:21:54.299] $GPGGA,,,,,,,,,,M,,M,,*56
[2021-02-22 16:21:54.299] $GPGGA,,,,,,,,,,M,,M,,*56
[2021-02-22 16:21:54.409] $GPGGA,,,,,,,,,,M,,M,,*56
[2021-02-22 16:21:54.596] $GPGGA,,,,,,,,,,M,,M,,*56
[2021-02-22 16:21:54.784] $GPGGA,,,,,,,,,,M,,M,,*56
[2021-02-22 16:21:54.987] $GPGGA,,,,,,,,,,M,,M,,*56
[2021-02-22 16:21:55.190] $GPGGA,,,,,,,,,,M,,M,,*56
[2021-02-22 16:21:55.393] $GPGGA,,,,,,,,,,M,,M,,*56
[2021-02-22 16:21:55.581] $GPGGA,,,,,,,,,,M,,M,,*56
[2021-02-22 16:21:55.799] $GPGGA,,,,,,,,,,M,,M,,*56
[2021-02-22 16:21:55.987] $GPGGA,,,,,,,,,,M,,M,,*56
[2021-02-22 16:21:56.190] $GPGGA,,,,,,,,,,M,,M,,*56
[2021-02-22 16:21:56.393] $GPGGA,,,,,,,,,,M,,M,,*56
[2021-02-22 16:21:56.596] $GPGGA,,,,,,,,,,M,,M,,*56
[2021-02-22 16:21:56.799] $GPGGA,,,,,,,,,,M,,M,,*56
[2021-02-22 16:21:56.987] $GPGGA,,,,,,,,,,M,,M,,*56
[2021-02-22 16:21:57.190] $GPGGA,,,,,,,,,,M,,M,,*56
[2021-02-22 16:21:57.393] $GPGGA,,,,,,,,,,M,,M,,*56
[2021-02-22 16:21:57.596] $GPGGA,,,,,,,,,,M,,M,,*56
[2021-02-22 16:21:57.799] $GPGGA,,,,,,,,,,M,,M,,*56
[2021-02-22 16:21:58.002] $GPGGA,,,,,,,,,,M,,M,,*56
[2021-02-22 16:21:58.190] $GPGGA,,,,,,,,,,M,,M,,*56
[2021-02-22 16:21:58.409] $GPGGA,,,,,,,,,,M,,M,,*56
[2021-02-22 16:21:58.596] $GPGGA,,,,,,,,,,M,,M,,*56
[2021-02-22 16:21:58.799] $GPGGA,,,,,,,,,,M,,M,,*56
[2021-02-22 16:21:58.987] $GPGGA,,,,,,,,,,M,,M,,*56
[2021-02-22 16:21:59.205] $GPGGA,,,,,,,,,,M,,M,,*56
[2021-02-22 16:21:59.393] $GPGGA,,,,,,,,,,M,,M,,*56
[2021-02-22 16:21:59.596] $GPGGA,,,,,,,,,,M,,M,,*56
[2021-02-22 16:21:59.799] $GPGGA,,,,,,,,,,M,,M,,*56
[2021-02-22 16:22:00.002] $GPGGA,,,,,,,,,,M,,M,,*56
[2021-02-22 16:22:00.190] $GPGGA,,,,,,,,,,M,,M,,*56
[2021-02-22 16:22:00.408] $GPGGA,,,,,,,,,,M,,M,,*56
[2021-02-22 16:22:00.596] $GPGGA,,,,,,,,,,M,,M,,*56
[2021-02-22 16:22:00.799] $GPGGA,,,,,,,,,,M,,M,,*56
[2021-02-22 16:22:00.987] $GPGGA,,,,,,,,,,M,,M,,*56
[2021-02-22 16:22:01.205] $GPGGA,,,,,,,,,,M,,M,,*56
[2021-02-22 16:22:01.393] $GPGGA,,,,,,,,,,M,,M,,*56
[2021-02-22 16:22:01.596] $GPGGA,,,,,,,,,,M,,M,,*56
[2021-02-22 16:22:01.799] $GPGGA,,,,,,,,,,M,,M,,*56
[2021-02-22 16:22:02.002] $GPGGA,,,,,,,,,,M,,M,,*56
[2021-02-22 16:22:02.190] $GPGGA,,,,,,,,,,M,,M,,*56
[2021-02-22 16:22:02.408] $GPGGA,,,,,,,,,,M,,M,,*56
[2021-02-22 16:22:02.596] $GPGGA,,,,,,,,,,M,,M,,*56
[2021-02-22 16:22:02.799] $GPGGA,,,,,,,,,,M,,M,,*56
[2021-02-22 16:22:02.986] $GPGGA,,,,,,,,,,M,,M,,*56
[2021-02-22 16:22:03.205] $GPGGA,,,,,,,,,,M,,M,,*56
[2021-02-22 16:22:03.393] $GPGGA,,,,,,,,,,M,,M,,*56
[2021-02-22 16:22:03.596] $GPGGA,,,,,,,,,,M,,M,,*56
[2021-02-22 16:22:03.799] $GPGGA,,,,,,,,,,M,,M,,*56
[2021-02-22 16:22:04.002] $GPGGA,,,,,,,,,,M,,M,,*56
[2021-02-22 16:22:04.189] $GPGGA,,,,,,,,,,M,,M,,*56
[2021-02-22 16:22:04.408] $GPGGA,,,,,,,,,,M,,M,,*56
[2021-02-22 16:22:04.596] $GPGGA,,,,,,,,,,M,,M,,*56
[2021-02-22 16:22:04.799] $GPGGA,,,,,,,,,,M,,M,,*56
[2021-02-22 16:22:04.986] $GPGGA,,,,,,,,,,M,,M,,*56
[2021-02-22 16:22:05.205] $GPGGA,,,,,,,,,,M,,M,,*56
[2021-02-22 16:22:05.393] $GPGGA,,,,,,,,,,M,,M,,*56
[2021-02-22 16:22:05.596] $GPGGA,,,,,,,,,,M,,M,,*56
[2021-02-22 16:22:05.799] $GPGGA,,,,,,,,,,M,,M,,*56
[2021-02-22 16:22:06.002] $GPGGA,,,,,,,,,,M,,M,,*56
[2021-02-22 16:22:06.189] $GPGGA,,,,,,,,,,M,,M,,*56
[2021-02-22 16:22:06.408] $GPGGA,,,,,,,,,,M,,M,,*56
[2021-02-22 16:22:06.596] $GPGGA,,,,,,,,,,M,,M,,*56
[2021-02-22 16:22:06.799] $GPGGA,,,,,,,,,,M,,M,,*56
[2021-02-22 16:22:06.986] $GPGGA,,,,,,,,,,M,,M,,*56
[2021-02-22 16:22:07.205] $GPGGA,,,,,,,,,,M,,M,,*56
[2021-02-22 16:22:07.392] $GPGGA,,,,,,,,,,M,,M,,*56
[2021-02-22 16:22:07.595] $GPGGA,,,,,,,,,,M,,M,,*56
[2021-02-22 16:22:07.799] $GPGGA,,,,,,,,,,M,,M,,*56
[2021-02-22 16:22:08.002] $GPGGA,,,,,,,,,,M,,M,,*56
[2021-02-22 16:22:08.189] $GPGGA,,,,,,,,,,M,,M,,*56
[2021-02-22 16:22:08.408] $GPGGA,,,,,,,,,,M,,M,,*56
[2021-02-22 16:22:08.595] $GPGGA,,,,,,,,,,M,,M,,*56
[2021-02-22 16:22:08.799] $GPGGA,,,,,,,,,,M,,M,,*56
[2021-02-22 16:22:08.986] $GPGGA,,,,,,,,,,M,,M,,*56
[2021-02-22 16:22:09.205] $GPGGA,,,,,,,,,,M,,M,,*56
[2021-02-22 16:22:09.392] $GPGGA,,,,,,,,,,M,,M,,*56
[2021-02-22 16:22:09.595] $GPGGA,,,,,,,,,,M,,M,,*56
[2021-02-22 16:22:09.798] $GPGGA,,,,,,,,,,M,,M,,*56
[2021-02-22 16:22:10.002] $GPGGA,,,,,,,,,,M,,M,,*56
[2021-02-22 16:22:10.189] $GPGGA,,,,,,,,,,M,,M,,*56
[2021-02-22 16:22:10.392] $GPGGA,,,,,,,,,,M,,M,,*56
[2021-02-22 16:22:10.595] $GPGGA,,,,,,,,,,M,,M,,*56
[2021-02-22 16:22:10.798] $GPGGA,,,,,,,,,,M,,M,,*56
[2021-02-22 16:22:10.986] $GPGGA,,,,,,,,,,M,,M,,*56
[2021-02-22 16:22:11.205] $GPGGA,,,,,,,,,,M,,M,,*56
[2021-02-22 16:22:11.392] $GPGGA,,,,,,,,,,M,,M,,*56
[2021-02-22 16:22:11.595] $GPGGA,,,,,,,,,,M,,M,,*56
[2021-02-22 16:22:11.798] $GPGGA,,,,,,,,,,M,,M,,*56
[2021-02-22 16:22:12.001] $GPGGA,,,,,,,,,,M,,M,,*56
[2021-02-22 16:22:12.189] $GPGGA,,,,,,,,,,M,,M,,*56
[2021-02-22 16:22:12.392] $GPGGA,,,,,,,,,,M,,M,,*56
[2021-02-22 16:22:12.595] $GPGGA,,,,,,,,,,M,,M,,*56
[2021-02-22 16:22:12.798] $GPGGA,,,,,,,,,,M,,M,,*56
[2021-02-22 16:22:12.986] $GPGGA,,,,,,,,,,M,,M,,*56
[2021-02-22 16:22:13.204] $GPGGA,,,,,,,,,,M,,M,,*56
[2021-02-22 16:22:13.392] $GPGGA,,,,,,,,,,M,,M,,*56
[2021-02-22 16:22:13.595] $GPGGA,,,,,,,,,,M,,M,,*56
[2021-02-22 16:22:13.798] $GPGGA,,,,,,,,,,M,,M,,*56
[2021-02-22 16:22:14.001] $GPGGA,,,,,,,,,,M,,M,,*56
[2021-02-22 16:22:14.189] $GPGGA,,,,,,,,,,M,,M,,*56
[2021-02-22 16:22:14.392] $GPGGA,,,,,,,,,,M,,M,,*56
[2021-02-22 16:22:14.595] $GPGGA,,,,,,,,,,M,,M,,*56
[2021-02-22 16:22:14.798] $GPGGA,,,,,,,,,,M,,M,,*56
[2021-02-22 16:22:14.986] $GPGGA,,,,,,,,,,M,,M,,*56
[2021-02-22 16:22:15.204] $GPGGA,,,,,,,,,,M,,M,,*56
[2021-02-22 16:22:15.392] $GPGGA,,,,,,,,,,M,,M,,*56
[2021-02-22 16:22:15.595] $GPGGA,,,,,,,,,,M,,M,,*56
[2021-02-22 16:22:15.798] $GPGGA,,,,,,,,,,M,,M,,*56
[2021-02-22 16:22:16.001] $GPGGA,,,,,,,,,,M,,M,,*56
[2021-02-22 16:22:16.189] $GPGGA,,,,,,,,,,M,,M,,*56
[2021-02-22 16:22:16.392] $GPGGA,,,,,,,,,,M,,M,,*56
[2021-02-22 16:22:16.595] $GPGGA,,,,,,,,,,M,,M,,*56
[2021-02-22 16:22:16.798] $GPGGA,,,,,,,,,,M,,M,,*56
[2021-02-22 16:22:16.985] $GPGGA,,,,,,,,,,M,,M,,*56
[2021-02-22 16:22:17.204] $GPGGA,,,,,,,,,,M,,M,,*56
[2021-02-22 16:22:17.392] $GPGGA,,,,,,,,,,M,,M,,*56
[2021-02-22 16:22:17.595] $GPGGA,,,,,,,,,,M,,M,,*56
[2021-02-22 16:22:17.782] $GPGGA,,,,,,,,,,M,,M,,*56
[2021-02-22 16:22:18.001] $GPGGA,,,,,,,,,,M,,M,,*56
[2021-02-22 16:22:18.188] $GPGGA,,,,,,,,,,M,,M,,*56
[2021-02-22 16:22:18.392] $GPGGA,,,,,,,,,,M,,M,,*56
[2021-02-22 16:22:18.595] $GPGGA,,,,,,,,,,M,,M,,*56
[2021-02-22 16:22:18.798] $GPGGA,,,,,,,,,,M,,M,,*56
[2021-02-22 16:22:18.985] $GPGGA,,,,,,,,,,M,,M,,*56
[2021-02-22 16:22:19.204] $GPGGA,,,,,,,,,,M,,M,,*56
[2021-02-22 16:22:19.391] $GPGGA,,,,,,,,,,M,,M,,*56
[2021-02-22 16:22:19.595] $GPGGA,,,,,,,,,,M,,M,,*56
[2021-02-22 16:22:19.782] $GPGGA,,,,,,,,,,M,,M,,*56
[2021-02-22 16:22:20.001] $GPGGA,,,,,,,,,,M,,M,,*56
[2021-02-22 16:22:20.188] $GPGGA,,,,,,,,,,M,,M,,*56
[2021-02-22 16:22:20.391] $GPGGA,,,,,,,,,,M,,M,,*56
[2021-02-22 16:22:20.595] $GPGGA,,,,,,,,,,M,,M,,*56
[2021-02-22 16:22:20.798] $GPGGA,,,,,,,,,,M,,M,,*56
[2021-02-22 16:22:20.985] $GPGGA,,,,,,,,,,M,,M,,*56
[2021-02-22 16:22:21.204] $GPGGA,,,,,,,,,,M,,M,,*56
[2021-02-22 16:22:21.391] $GPGGA,,,,,,,,,,M,,M,,*56
[2021-02-22 16:22:21.595] $GPGGA,,,,,,,,,,M,,M,,*56
[2021-02-22 16:22:21.782] $GPGGA,,,,,,,,,,M,,M,,*56
[2021-02-22 16:22:22.001] $GPGGA,,,,,,,,,,M,,M,,*56
[2021-02-22 16:22:22.188] $GPGGA,,,,,,,,,,M,,M,,*56
[2021-02-22 16:22:22.391] $GPGGA,,,,,,,,,,M,,M,,*56
[2021-02-22 16:22:22.594] $GPGGA,,,,,,,,,,M,,M,,*56
[2021-02-22 16:22:22.798] $GPGGA,,,,,,,,,,M,,M,,*56
[2021-02-22 16:22:22.985] $GPGGA,,,,,,,,,,M,,M,,*56
[2021-02-22 16:22:23.204] $GPGGA,,,,,,,,,,M,,M,,*56
[2021-02-22 16:22:23.391] $GPGGA,,,,,,,,,,M,,M,,*56
[2021-02-22 16:22:23.594] $GPGGA,,,,,,,,,,M,,M,,*56
[2021-02-22 16:22:23.782] $GPGGA,,,,,,,,,,M,,M,,*56
[2021-02-22 16:22:24.001] $GPGGA,,,,,,,,,,M,,M,,*56
[2021-02-22 16:22:24.188] $GPGGA,,,,,,,,,,M,,M,,*56
[2021-02-22 16:22:24.391] $GPGGA,,,,,,,,,,M,,M,,*56
[2021-02-22 16:22:24.594] $GPGGA,,,,,,,,,,M,,M,,*56
[2021-02-22 16:22:24.797] $GPGGA,,,,,,,,,,M,,M,,*56
[2021-02-22 16:22:24.985] $GPGGA,,,,,,,,,,M,,M,,*56
[2021-02-22 16:22:25.188] $GPGGA,,,,,,,,,,M,,M,,*56
[2021-02-22 16:22:25.391] $GPGGA,,,,,,,,,,M,,M,,*56
[2021-02-22 16:22:25.594] $GPGGA,,,,,,,,,,M,,M,,*56
[2021-02-22 16:22:25.782] $GPGGA,,,,,,,,,,M,,M,,*56
[2021-02-22 16:22:26.000] $GPGGA,,,,,,,,,,M,,M,,*56
[2021-02-22 16:22:26.188] $GPGGA,,,,,,,,,,M,,M,,*56
[2021-02-22 16:22:26.391] $GPGGA,,,,,,,,,,M,,M,,*56
[2021-02-22 16:22:26.594] $GPGGA,,,,,,,,,,M,,M,,*56
[2021-02-22 16:22:26.797] $GPGGA,,,,,,,,,,M,,M,,*56
[2021-02-22 16:22:26.985] $GPGGA,,,,,,,,,,M,,M,,*56
[2021-02-22 16:22:27.188] $GPGGA,,,,,,,,,,M,,M,,*56
[2021-02-22 16:22:27.407] $GPGGA,,,,,,,,,,M,,M,,*56
[2021-02-22 16:22:27.594] $GPGGA,,,,,,,,,,M,,M,,*56
[2021-02-22 16:22:27.797] $GPGGA,,,,,,,,,,M,,M,,*56
[2021-02-22 16:22:28.000] $GPGGA,,,,,,,,,,M,,M,,*56
[2021-02-22 16:22:28.188] $GPGGA,,,,,,,,,,M,,M,,*56
[2021-02-22 16:22:28.391] $GPGGA,,,,,,,,,,M,,M,,*56
[2021-02-22 16:22:28.610] $GPGGA,072228.20,3713.98599331,N,13701.47873094,E,2,03,5.7,100.057,M,36.771,M,1.2,0196*40
[2021-02-22 16:22:28.703] $GPGGA,072228.30,3713.98599517,N,13701.47873167,E,2,03,5.7,100.057,M,36.771,M,1.3,0196*4F
[2021-02-22 16:22:28.813] $GPGGA,072228.40,3713.98595920,N,13701.47898160,E,2,03,5.7,100.069,M,36.771,M,1.4,0196*44
[2021-02-22 16:22:28.906] $GPGGA,072228.50,3713.98596969,N,13701.47897666,E,2,03,5.7,100.069,M,36.771,M,1.5,0196*44
[2021-02-22 16:22:29.000] $GNGGA,072228.60,3713.98412266,N,13701.48008063,E,1,05,2.1,107.014,M,36.771,M,,*7F
[2021-02-22 16:22:29.094] $GNGGA,072228.70,3713.98413018,N,13701.48007641,E,1,05,2.1,106.993,M,36.771,M,,*7A
[2021-02-22 16:22:29.203] $GNGGA,072228.80,3713.98668925,N,13701.47829440,E,1,09,1.3,98.867,M,36.771,M,,*45
[2021-02-22 16:22:29.297] $GNGGA,072228.90,3713.98668901,N,13701.47829290,E,1,06,1.3,98.869,M,36.771,M,,*48
[2021-02-22 16:22:29.406] $GNGGA,072229.00,3713.98772231,N,13701.47804759,E,2,07,2.7,96.217,M,36.771,M,1.0,0196*64
[2021-02-22 16:22:29.500] $GNGGA,072229.10,3713.98772346,N,13701.47804716,E,2,07,2.7,96.217,M,36.771,M,1.1,0196*6E
[2021-02-22 16:22:29.610] $GNGGA,072229.20,3713.98786796,N,13701.47809819,E,2,07,2.7,95.703,M,36.771,M,1.2,0196*62
[2021-02-22 16:22:29.703] $GNGGA,072229.30,3713.98787018,N,13701.47809842,E,2,07,2.7,95.702,M,36.771,M,1.3,0196*6D
[2021-02-22 16:22:29.813] $GNGGA,072229.40,3713.98790546,N,13701.47813376,E,2,08,1.6,95.430,M,36.771,M,1.4,0196*6D
[2021-02-22 16:22:29.906] $GNGGA,072229.50,3713.98790694,N,13701.47813327,E,2,08,1.6,95.431,M,36.771,M,1.5,0196*64
[2021-02-22 16:22:30.016] $GNGGA,072229.60,3713.98804415,N,13701.47807567,E,2,08,1.6,95.196,M,36.771,M,1.6,0196*62
[2021-02-22 16:22:30.110] $GNGGA,072229.70,3713.98804605,N,13701.47807766,E,2,08,1.6,95.199,M,36.771,M,1.7,0196*6D
[2021-02-22 16:22:30.203] $GNGGA,072229.80,3713.98810638,N,13701.47807555,E,2,08,1.6,95.027,M,36.771,M,1.8,0196*60
[2021-02-22 16:22:30.297] $GNGGA,072229.90,3713.98810725,N,13701.47807459,E,2,08,1.6,95.024,M,36.771,M,1.9,0196*63
[2021-02-22 16:22:30.406] $GNGGA,072230.00,3713.98815314,N,13701.47810256,E,2,09,1.0,94.933,M,36.771,M,2.0,0196*6D
[2021-02-22 16:22:30.500] $GNGGA,072230.10,3713.98815211,N,13701.47810364,E,2,09,1.0,94.934,M,36.771,M,1.1,0196*6D
[2021-02-22 16:22:30.610] $GNGGA,072230.20,3713.98831638,N,13701.47814957,E,2,09,1.0,95.050,M,36.771,M,1.2,0196*60
[2021-02-22 16:22:30.703] $GNGGA,072230.30,3713.98831679,N,13701.47814846,E,2,09,1.0,95.055,M,36.771,M,1.3,0196*61
[2021-02-22 16:22:30.813] $GNGGA,072230.40,3713.98836311,N,13701.47817340,E,2,09,1.0,95.033,M,36.771,M,1.4,0196*63
[2021-02-22 16:22:30.906] $GNGGA,072230.50,3713.98836372,N,13701.47817339,E,2,09,1.0,95.034,M,36.771,M,1.5,0196*6F
[2021-02-22 16:22:31.016] $GNGGA,072230.60,3713.98839452,N,13701.47817892,E,2,09,1.0,95.012,M,36.771,M,1.6,0196*6B
[2021-02-22 16:22:31.109] $GNGGA,072230.70,3713.98839537,N,13701.47817734,E,2,09,1.0,95.011,M,36.771,M,1.7,0196*69
[2021-02-22 16:22:31.203] $GNGGA,072230.80,3713.98841863,N,13701.47817222,E,2,10,1.0,94.988,M,36.771,M,1.8,0196*68
[2021-02-22 16:22:31.297] $GNGGA,072230.90,3713.98841847,N,13701.47817177,E,2,09,1.0,94.988,M,36.771,M,0.9,0196*64
[2021-02-22 16:22:31.406] $GNGGA,072231.00,3713.98843324,N,13701.47817168,E,2,10,1.0,94.967,M,36.771,M,1.0,0196*6F
[2021-02-22 16:22:31.500] $GNGGA,072231.10,3713.98843343,N,13701.47817387,E,2,10,1.0,94.967,M,36.771,M,1.1,0196*6D
[2021-02-22 16:22:31.609] $GNGGA,072231.20,3713.98844440,N,13701.47818045,E,2,10,1.0,94.951,M,36.771,M,1.2,0196*69
[2021-02-22 16:22:31.703] $GNGGA,072231.30,3713.98844647,N,13701.47818005,E,2,10,1.0,94.952,M,36.771,M,1.3,0196*6B
[2021-02-22 16:22:31.813] $GNGGA,072231.40,3713.98845512,N,13701.47819175,E,2,10,1.0,94.945,M,36.771,M,1.4,0196*68
[2021-02-22 16:22:31.906] $GNGGA,072231.50,3713.98845466,N,13701.47819102,E,2,10,1.0,94.946,M,36.771,M,1.5,0196*69
[2021-02-22 16:22:32.016] $GNGGA,072231.60,3713.98845749,N,13701.47820410,E,2,10,1.0,94.941,M,36.771,M,1.6,0196*6C
[2021-02-22 16:22:32.109] $GNGGA,072231.70,3713.98845793,N,13701.47820383,E,2,10,1.0,94.938,M,36.771,M,1.7,0196*68
[2021-02-22 16:22:32.203] $GNGGA,072231.80,3713.98845778,N,13701.47821667,E,2,10,1.0,94.936,M,36.771,M,1.8,0196*6D
[2021-02-22 16:22:32.297] $GNGGA,072231.90,3713.98845837,N,13701.47821746,E,2,10,1.0,94.934,M,36.771,M,1.9,0196*69
[2021-02-22 16:22:32.406] $GNGGA,072232.00,3713.98846112,N,13701.47821984,E,2,10,1.0,94.938,M,36.771,M,1.0,0196*6B
[2021-02-22 16:22:32.500] $GNGGA,072232.10,3713.98845841,N,13701.47822204,E,2,10,1.0,94.939,M,36.771,M,1.1,0196*66
[2021-02-22 16:22:32.609] $GNGGA,072232.20,3713.98846466,N,13701.47821262,E,2,10,1.0,94.950,M,36.771,M,1.2,0196*60
[2021-02-22 16:22:32.703] $GNGGA,072232.30,3713.98846489,N,13701.47821215,E,2,10,1.0,94.953,M,36.771,M,1.3,0196*62
[2021-02-22 16:22:32.812] $GNGGA,072232.40,3713.98847260,N,13701.47819642,E,2,10,1.0,94.974,M,36.771,M,1.4,0196*6A
[2021-02-22 16:22:32.906] $GNGGA,072232.50,3713.98847177,N,13701.47819476,E,2,10,1.0,94.979,M,36.771,M,1.5,0196*67
[2021-02-22 16:22:33.016] $GNGGA,072232.60,3713.98846679,N,13701.47817305,E,2,10,1.0,94.998,M,36.771,M,1.6,0196*6D
[2021-02-22 16:22:33.109] $GNGGA,072232.70,3713.98846486,N,13701.47817226,E,2,10,1.0,95.002,M,36.771,M,1.7,0196*64
[2021-02-22 16:22:33.203] $GNGGA,072232.80,3713.98845866,N,13701.47815588,E,2,10,1.0,95.018,M,36.771,M,1.8,0196*6F
[2021-02-22 16:22:33.297] $GNGGA,072232.90,3713.98845877,N,13701.47815516,E,2,10,1.0,95.021,M,36.771,M,1.9,0196*62
[2021-02-22 16:22:33.406] $GNGGA,072233.00,3713.98845463,N,13701.47814683,E,2,10,1.0,95.032,M,36.771,M,1.0,0196*66
[2021-02-22 16:22:33.500] $GNGGA,072233.10,3713.98845494,N,13701.47814591,E,2,10,1.0,95.031,M,36.771,M,1.1,0196*6D
[2021-02-22 16:22:33.609] $GNGGA,072233.20,3713.98845088,N,13701.47813964,E,2,10,1.0,95.042,M,36.771,M,1.2,0196*61
[2021-02-22 16:22:33.703] $GNGGA,072233.30,3713.98845024,N,13701.47814100,E,2,10,1.0,95.040,M,36.771,M,1.3,0196*68
[2021-02-22 16:22:33.812] $GNGGA,072233.40,3713.98844457,N,13701.47813895,E,2,10,1.0,95.046,M,36.771,M,1.4,0196*6D
[2021-02-22 16:22:33.906] $GNGGA,072233.50,3713.98844459,N,13701.47813827,E,2,10,1.0,95.048,M,36.771,M,1.5,0196*64
[2021-02-22 16:22:34.016] $GNGGA,072233.60,3713.98843487,N,13701.47814185,E,2,10,1.0,95.046,M,36.771,M,1.6,0196*68
[2021-02-22 16:22:34.109] $GNGGA,072233.70,3713.98843516,N,13701.47814184,E,2,10,1.0,95.048,M,36.771,M,1.7,0196*6E
[2021-02-22 16:22:34.203] $GNGGA,072233.80,3713.98842387,N,13701.47814402,E,2,10,1.0,95.046,M,36.771,M,1.8,0196*64
[2021-02-22 16:22:34.297] $GNGGA,072233.90,3713.98842351,N,13701.47814568,E,2,10,1.0,95.045,M,36.771,M,1.9,0196*61
[2021-02-22 16:22:34.406] $GNGGA,072234.00,3713.98840940,N,13701.47814390,E,2,10,1.0,95.046,M,36.771,M,1.0,0196*6C
[2021-02-22 16:22:34.500] $GNGGA,072234.10,3713.98840881,N,13701.47814354,E,2,10,1.0,95.050,M,36.771,M,1.1,0196*6F
[2021-02-22 16:22:34.609] $GNGGA,072234.20,3713.98839304,N,13701.47814368,E,2,10,1.0,95.054,M,36.771,M,1.2,0196*6C
[2021-02-22 16:22:34.703] $GNGGA,072234.30,3713.98839344,N,13701.47814452,E,2,10,1.0,95.050,M,36.771,M,1.3,0196*62
[2021-02-22 16:22:34.812] $GNGGA,072234.40,3713.98837613,N,13701.47814365,E,2,10,1.0,95.048,M,36.771,M,1.4,0196*61
[2021-02-22 16:22:34.906] $GNGGA,072234.50,3713.98837674,N,13701.47814240,E,2,10,1.0,95.052,M,36.771,M,1.5,0196*6D
[2021-02-22 16:22:35.015] $GNGGA,072234.60,3713.98836014,N,13701.47813549,E,2,10,1.0,95.044,M,36.771,M,1.6,0196*62
[2021-02-22 16:22:35.109] $GNGGA,072234.70,3713.98835980,N,13701.47813693,E,2,10,1.0,95.051,M,36.771,M,1.7,0196*65
[2021-02-22 16:22:35.203] $GNGGA,072234.80,3713.98834875,N,13701.47812695,E,2,10,1.0,95.046,M,36.771,M,1.8,0196*6E
[2021-02-22 16:22:35.297] $GNGGA,072234.90,3713.98834826,N,13701.47812649,E,2,10,1.0,95.049,M,36.771,M,1.9,0196*66
[2021-02-22 16:22:35.406] $GNGGA,072235.00,3713.98833972,N,13701.47811328,E,2,10,1.0,95.047,M,36.771,M,2.0,0196*6C
[2021-02-22 16:22:35.500] $GNGGA,072235.10,3713.98833993,N,13701.47811364,E,2,10,1.0,95.052,M,36.771,M,2.1,0196*6F
[2021-02-22 16:22:35.609] $GNGGA,072235.20,3713.98833483,N,13701.47810171,E,2,10,1.0,95.053,M,36.771,M,2.2,0196*65
[2021-02-22 16:22:35.703] $GNGGA,072235.30,3713.98833459,N,13701.47810114,E,2,10,1.0,95.054,M,36.771,M,1.3,0196*65
[2021-02-22 16:22:35.812] $GNGGA,072235.40,3713.98833534,N,13701.47808935,E,2,10,1.0,95.055,M,36.771,M,1.4,0196*6C
[2021-02-22 16:22:35.906] $GNGGA,072235.50,3713.98833522,N,13701.47808889,E,2,10,1.0,95.055,M,36.771,M,1.5,0196*6D
[2021-02-22 16:22:36.015] $GNGGA,072235.60,3713.98833588,N,13701.47807807,E,2,10,1.0,95.059,M,36.771,M,1.6,0196*68
[2021-02-22 16:22:36.109] $GNGGA,072235.70,3713.98833600,N,13701.47807731,E,2,10,1.0,95.060,M,36.771,M,1.7,0196*6B
[2021-02-22 16:22:36.218] $GNGGA,072235.80,3713.98833517,N,13701.47806768,E,2,10,1.0,95.059,M,36.771,M,1.8,0196*69
[2021-02-22 16:22:36.297] $GNGGA,072235.90,3713.98833325,N,13701.47806880,E,2,10,1.0,95.064,M,36.771,M,0.9,0196*68
[2021-02-22 16:22:36.406] $GNGGA,072236.00,3713.98833295,N,13701.47806323,E,2,10,1.0,95.056,M,36.771,M,1.0,0196*63
[2021-02-22 16:22:36.500] $GNGGA,072236.10,3713.98833329,N,13701.47806237,E,2,10,1.0,95.062,M,36.771,M,1.1,0196*66
[2021-02-22 16:22:36.609] $GNGGA,072236.20,3713.98833167,N,13701.47805982,E,2,10,1.0,95.057,M,36.771,M,1.2,0196*6E
[2021-02-22 16:22:36.703] $GNGGA,072236.30,3713.98833238,N,13701.47805743,E,2,10,1.0,95.064,M,36.771,M,1.3,0196*64
[2021-02-22 16:22:36.812] $GNGGA,072236.40,3713.98833063,N,13701.47805177,E,2,10,1.0,95.062,M,36.771,M,1.4,0196*6F
[2021-02-22 16:22:36.906] $GNGGA,072236.50,3713.98833015,N,13701.47805201,E,2,10,1.0,95.065,M,36.771,M,1.5,0196*6B
[2021-02-22 16:22:37.015] $GNGGA,072236.60,3713.98832972,N,13701.47804716,E,2,10,1.0,95.060,M,36.771,M,1.6,0196*65
[2021-02-22 16:22:37.109] $GNGGA,072236.70,3713.98833079,N,13701.47804514,E,2,10,1.0,95.058,M,36.771,M,1.7,0196*6D
[2021-02-22 16:22:37.203] $GNGGA,072236.80,3713.98832926,N,13701.47804294,E,2,10,1.0,95.052,M,36.771,M,1.8,0196*6A
[2021-02-22 16:22:37.297] $GNGGA,072236.90,3713.98833084,N,13701.47804241,E,2,10,1.0,95.053,M,36.771,M,1.9,0196*63
[2021-02-22 16:22:37.406] $GNGGA,072237.00,3713.98833086,N,13701.47804462,E,2,10,1.0,95.048,M,36.771,M,2.0,0196*6E
[2021-02-22 16:22:37.500] $GNGGA,072237.10,3713.98833229,N,13701.47804431,E,2,10,1.0,95.041,M,36.771,M,2.1,0196*66
[2021-02-22 16:22:37.609] $GNGGA,072237.20,3713.98833538,N,13701.47804604,E,2,10,1.0,95.037,M,36.771,M,1.2,0196*67
[2021-02-22 16:22:37.687] $GPGGA,072237.30,3713.98835974,N,13701.47779284,E,5,05,2.1,94.565,M,36.771,M,1.3,0196*70
[2021-02-22 16:22:37.812] $GPGGA,072237.40,3713.98836428,N,13701.47779339,E,5,05,2.1,94.554,M,36.771,M,1.4,0196*72
[2021-02-22 16:22:37.906] $GPGGA,072237.50,3713.98836475,N,13701.47779265,E,5,05,2.1,94.556,M,36.771,M,1.5,0196*70
[2021-02-22 16:22:38.015] $GPGGA,072237.60,3713.98836145,N,13701.47779941,E,5,05,2.1,94.550,M,36.771,M,1.6,0196*7D
[2021-02-22 16:22:38.109] $GPGGA,072237.70,3713.98836699,N,13701.47779578,E,5,05,2.1,94.552,M,36.771,M,1.7,0196*7F
[2021-02-22 16:22:38.218] $GPGGA,072237.80,3713.98836499,N,13701.47779414,E,5,05,2.1,94.556,M,36.771,M,1.8,0196*72
[2021-02-22 16:22:38.312] $GPGGA,072237.90,3713.98836824,N,13701.47779653,E,5,05,2.1,94.555,M,36.771,M,1.9,0196*7A
[2021-02-22 16:22:38.421] $GPGGA,072238.00,3713.98836730,N,13701.47779744,E,5,05,2.1,94.554,M,36.771,M,2.0,0196*7A
[2021-02-22 16:22:38.500] $GPGGA,072238.10,3713.98834109,N,13701.47782308,E,5,05,2.1,94.705,M,36.771,M,1.1,0196*79
[2021-02-22 16:22:38.609] $GPGGA,072238.20,3713.98834390,N,13701.47782561,E,5,05,2.1,94.697,M,36.771,M,1.2,0196*78
[2021-02-22 16:22:38.703] $GPGGA,072238.30,3713.98834330,N,13701.47782505,E,5,05,2.1,94.704,M,36.771,M,1.3,0196*7B
[2021-02-22 16:22:38.812] $GPGGA,072238.40,3713.98834279,N,13701.47782639,E,5,05,2.1,94.705,M,36.771,M,1.4,0196*7A
[2021-02-22 16:22:38.906] $GPGGA,072238.50,3713.98834264,N,13701.47782360,E,5,05,2.1,94.700,M,36.771,M,1.5,0196*7A
[2021-02-22 16:22:39.015] $GPGGA,072238.60,3713.98834270,N,13701.47782458,E,5,05,2.1,94.700,M,36.771,M,1.6,0196*73
[2021-02-22 16:22:39.109] $GPGGA,072238.70,3713.98834357,N,13701.47782484,E,5,05,2.1,94.695,M,36.771,M,1.7,0196*7B
[2021-02-22 16:22:39.218] $GPGGA,072238.80,3713.98834334,N,13701.47782379,E,5,05,2.1,94.699,M,36.771,M,1.8,0196*77
[2021-02-22 16:22:39.312] $GPGGA,072238.90,3713.98834157,N,13701.47782603,E,5,05,2.1,94.693,M,36.771,M,1.9,0196*72
[2021-02-22 16:22:39.421] $GNGGA,072239.00,3713.98806532,N,13701.47788929,E,4,09,1.1,95.404,M,36.771,M,1.0,0196*65
[2021-02-22 16:22:39.500] $GNGGA,072239.10,3713.98806570,N,13701.47788879,E,4,09,1.1,95.401,M,36.771,M,1.1,0196*62
[2021-02-22 16:22:39.624] $GNGGA,072239.20,3713.98806527,N,13701.47789084,E,4,09,1.1,95.402,M,36.771,M,1.2,0196*68
[2021-02-22 16:22:39.703] $GNGGA,072239.30,3713.98806735,N,13701.47788792,E,4,09,1.1,95.399,M,36.771,M,1.3,0196*6D
[2021-02-22 16:22:39.812] $GNGGA,072239.40,3713.98806795,N,13701.47788681,E,4,09,1.1,95.400,M,36.771,M,1.4,0196*63
[2021-02-22 16:22:39.906] $GNGGA,072239.50,3713.98806501,N,13701.47789033,E,4,09,1.1,95.401,M,36.771,M,1.5,0196*63
[2021-02-22 16:22:40.015] $GNGGA,072239.60,3713.98806543,N,13701.47788888,E,4,09,1.1,95.402,M,36.771,M,1.6,0196*6F
[2021-02-22 16:22:40.109] $GNGGA,072239.70,3713.98806493,N,13701.47789042,E,4,09,1.1,95.395,M,36.771,M,1.7,0196*65
[2021-02-22 16:22:40.218] $GNGGA,072239.80,3713.98806568,N,13701.47788944,E,4,09,1.1,95.397,M,36.771,M,1.8,0196*6C
[2021-02-22 16:22:40.312] $GNGGA,072239.90,3713.98806456,N,13701.47788782,E,4,09,1.1,95.405,M,36.771,M,1.9,0196*68
[2021-02-22 16:22:40.421] $GNGGA,072240.00,3713.98806229,N,13701.47788919,E,4,09,1.1,95.404,M,36.771,M,1.0,0196*65
[2021-02-22 16:22:40.499] $GNGGA,072240.10,3713.98806485,N,13701.47789006,E,4,09,1.1,95.400,M,36.771,M,1.1,0196*67
[2021-02-22 16:22:40.609] $GNGGA,072240.20,3713.98806323,N,13701.47788687,E,4,09,1.1,95.405,M,36.771,M,1.2,0196*67
[2021-02-22 16:22:40.703] $GNGGA,072240.30,3713.98806486,N,13701.47788922,E,4,09,1.1,95.398,M,36.771,M,1.3,0196*6C
[2021-02-22 16:22:40.812] $GNGGA,072240.40,3713.98806327,N,13701.47788774,E,4,09,1.1,95.400,M,36.771,M,1.4,0196*6B
[2021-02-22 16:22:40.906] $GNGGA,072240.50,3713.98806396,N,13701.47788698,E,4,09,1.1,95.404,M,36.771,M,1.5,0196*66
[2021-02-22 16:22:41.015] $GNGGA,072240.60,3713.98806434,N,13701.47788918,E,4,09,1.1,95.397,M,36.771,M,1.6,0196*63
[2021-02-22 16:22:41.109] $GNGGA,072240.70,3713.98806372,N,13701.47788975,E,4,09,1.1,95.401,M,36.771,M,1.7,0196*65
[2021-02-22 16:22:41.218] $GNGGA,072240.80,3713.98806157,N,13701.47788839,E,4,09,1.1,95.400,M,36.771,M,1.8,0196*68
[2021-02-22 16:22:41.312] $GNGGA,072240.90,3713.98806376,N,13701.47788837,E,4,09,1.1,95.393,M,36.771,M,1.9,0196*6A
[2021-02-22 16:22:41.421] $GNGGA,072241.00,3713.98806115,N,13701.47788564,E,4,09,1.1,95.405,M,36.771,M,1.0,0196*6F
[2021-02-22 16:22:41.499] $GNGGA,072241.10,3713.98806173,N,13701.47788838,E,4,09,1.1,95.398,M,36.771,M,1.1,0196*68
[2021-02-22 16:22:41.609] $GNGGA,072241.20,3713.98806182,N,13701.47788924,E,4,09,1.1,95.401,M,36.771,M,1.2,0196*6D
[2021-02-22 16:22:41.702] $GNGGA,072241.30,3713.98806150,N,13701.47789054,E,4,09,1.1,95.400,M,36.771,M,1.3,0196*6C
[2021-02-22 16:22:41.812] $GNGGA,072241.40,3713.98806046,N,13701.47789105,E,4,09,1.1,95.403,M,36.771,M,1.4,0196*6C
[2021-02-22 16:22:41.906] $GNGGA,072241.50,3713.98806057,N,13701.47788915,E,4,09,1.1,95.402,M,36.771,M,1.5,0196*65
[2021-02-22 16:22:42.015] $GNGGA,072241.60,3713.98806263,N,13701.47788631,E,4,09,1.1,95.400,M,36.771,M,1.6,0196*6B
[2021-02-22 16:22:42.109] $GNGGA,072241.70,3713.98806190,N,13701.47788680,E,4,09,1.1,95.405,M,36.771,M,1.7,0196*6B
[2021-02-22 16:22:42.218] $GNGGA,072241.80,3713.98805746,N,13701.47788921,E,4,09,1.1,95.406,M,36.771,M,1.8,0196*62
[2021-02-22 16:22:42.312] $GNGGA,072241.90,3713.98806083,N,13701.47788710,E,4,09,1.1,95.401,M,36.771,M,1.9,0196*64
[2021-02-22 16:22:42.406] $GNGGA,072242.00,3713.98806188,N,13701.47788554,E,4,09,1.1,95.411,M,36.771,M,1.0,0196*6E
[2021-02-22 16:22:42.484] $GNGGA,072242.10,3713.98806181,N,13701.47788927,E,4,09,1.1,95.397,M,36.771,M,1.1,0196*66
[2021-02-22 16:22:42.609] $GNGGA,072242.20,3713.98806261,N,13701.47788815,E,4,09,1.1,95.397,M,36.771,M,1.2,0196*6B
[2021-02-22 16:22:42.702] $GNGGA,072242.30,3713.98806257,N,13701.47788833,E,4,09,1.1,95.402,M,36.771,M,1.3,0196*61
[2021-02-22 16:22:42.812] $GNGGA,072242.40,3713.98806116,N,13701.47788728,E,4,09,1.1,95.406,M,36.771,M,1.4,0196*66
[2021-02-22 16:22:42.906] $GNGGA,072242.50,3713.98805900,N,13701.47788937,E,4,09,1.1,95.404,M,36.771,M,1.5,0196*68
[2021-02-22 16:22:43.015] $GNGGA,072242.60,3713.98806167,N,13701.47788952,E,4,09,1.1,95.400,M,36.771,M,1.6,0196*65
[2021-02-22 16:22:43.109] $GNGGA,072242.70,3713.98806119,N,13701.47788766,E,4,09,1.1,95.396,M,36.771,M,1.7,0196*6D
[2021-02-22 16:22:43.218] $GNGGA,072242.80,3713.98806264,N,13701.47788820,E,4,09,1.1,95.400,M,36.771,M,1.8,0196*61
[2021-02-22 16:22:43.312] $GNGGA,072242.90,3713.98806527,N,13701.47788850,E,4,09,1.1,95.401,M,36.771,M,0.9,0196*66
[2021-02-22 16:22:43.421] $GNGGA,072243.00,3713.98806429,N,13701.47788650,E,4,09,1.1,95.397,M,36.771,M,1.0,0196*6F
[2021-02-22 16:22:43.499] $GNGGA,072243.10,3713.98806391,N,13701.47788855,E,4,09,1.1,95.399,M,36.771,M,1.1,0196*6E
[2021-02-22 16:22:43.609] $GNGGA,072243.20,3713.98806581,N,13701.47788949,E,4,09,1.1,95.394,M,36.771,M,1.2,0196*68
[2021-02-22 16:22:43.702] $GNGGA,072243.30,3713.98806660,N,13701.47788765,E,4,09,1.1,95.399,M,36.771,M,1.3,0196*69
[2021-02-22 16:22:43.812] $GNGGA,072243.40,3713.98806621,N,13701.47789004,E,4,09,1.1,95.390,M,36.771,M,1.4,0196*64
[2021-02-22 16:22:43.905] $GNGGA,072243.50,3713.98806702,N,13701.47789056,E,4,09,1.1,95.402,M,36.771,M,1.5,0196*6F
[2021-02-22 16:22:44.015] $GNGGA,072243.60,3713.98806475,N,13701.47789017,E,4,09,1.1,95.394,M,36.771,M,1.6,0196*61
[2021-02-22 16:22:44.109] $GNGGA,072243.70,3713.98806633,N,13701.47788924,E,4,09,1.1,95.401,M,36.771,M,1.7,0196*62
[2021-02-22 16:22:44.218] $GNGGA,072243.80,3713.98806622,N,13701.47788885,E,4,09,1.1,95.395,M,36.771,M,1.8,0196*62
[2021-02-22 16:22:44.312] $GNGGA,072243.90,3713.98806798,N,13701.47788786,E,4,09,1.1,95.398,M,36.771,M,1.9,0196*63
[2021-02-22 16:22:44.421] $GNGGA,072244.00,3713.98806709,N,13701.47788887,E,4,09,1.1,95.394,M,36.771,M,2.0,0196*6D
[2021-02-22 16:22:44.499] $GNGGA,072244.10,3713.98806566,N,13701.47788674,E,4,09,1.1,95.405,M,36.771,M,1.1,0196*68
[2021-02-22 16:22:44.609] $GNGGA,072244.20,3713.98806450,N,13701.47788987,E,4,09,1.1,95.401,M,36.771,M,1.2,0196*6B
[2021-02-22 16:22:44.702] $GNGGA,072244.30,3713.98806592,N,13701.47788821,E,4,09,1.1,95.398,M,36.771,M,1.3,0196*6E
[2021-02-22 16:22:44.812] $GNGGA,072244.40,3713.98806499,N,13701.47788972,E,4,09,1.1,95.396,M,36.771,M,1.4,0196*6D
[2021-02-22 16:22:44.905] $GNGGA,072244.50,3713.98806529,N,13701.47789045,E,4,09,1.1,95.398,M,36.771,M,1.5,0196*65
[2021-02-22 16:22:45.015] $GNGGA,072244.60,3713.98806591,N,13701.47788881,E,4,09,1.1,95.402,M,36.771,M,1.6,0196*63
[2021-02-22 16:22:45.108] $GNGGA,072244.70,3713.98806386,N,13701.47788743,E,4,09,1.1,95.406,M,36.771,M,1.7,0196*66
[2021-02-22 16:22:45.218] $GNGGA,072244.80,3713.98806291,N,13701.47789061,E,4,09,1.1,95.399,M,36.771,M,1.8,0196*66
[2021-02-22 16:22:45.312] $GNGGA,072244.90,3713.98806503,N,13701.47788814,E,4,09,1.1,95.399,M,36.771,M,1.9,0196*61
[2021-02-22 16:22:45.421] $GNGGA,072245.00,3713.98806625,N,13701.47788907,E,4,09,1.1,95.406,M,36.771,M,2.0,0196*66
[2021-02-22 16:22:45.499] $GNGGA,072245.10,3713.98806435,N,13701.47788929,E,4,09,1.1,95.399,M,36.771,M,2.1,0196*68
[2021-02-22 16:22:45.608] $GNGGA,072245.20,3713.98806393,N,13701.47788817,E,4,09,1.1,95.397,M,36.771,M,1.2,0196*62
[2021-02-22 16:22:45.702] $GNGGA,072245.30,3713.98806404,N,13701.47788637,E,4,09,1.1,95.405,M,36.771,M,1.3,0196*6B
[2021-02-22 16:22:45.812] $GNGGA,072245.40,3713.98806393,N,13701.47788740,E,4,09,1.1,95.401,M,36.771,M,1.4,0196*67
[2021-02-22 16:22:45.905] $GNGGA,072245.50,3713.98806425,N,13701.47788891,E,4,09,1.1,95.401,M,36.771,M,1.5,0196*6E
[2021-02-22 16:22:46.015] $GNGGA,072245.60,3713.98806442,N,13701.47788890,E,4,09,1.1,95.403,M,36.771,M,1.6,0196*6C
[2021-02-22 16:22:46.108] $GNGGA,072245.70,3713.98806415,N,13701.47788939,E,4,09,1.1,95.400,M,36.771,M,1.7,0196*6F
[2021-02-22 16:22:46.218] $GNGGA,072245.80,3713.98806352,N,13701.47788889,E,4,09,1.1,95.407,M,36.771,M,1.8,0196*66
[2021-02-22 16:22:46.312] $GNGGA,072245.90,3713.98806447,N,13701.47788840,E,4,09,1.1,95.403,M,36.771,M,1.9,0196*64
[2021-02-22 16:22:46.421] $GNGGA,072246.00,3713.98806554,N,13701.47788811,E,4,09,1.1,95.402,M,36.771,M,1.0,0196*61
[2021-02-22 16:22:46.499] $GNGGA,072246.10,3713.98806508,N,13701.47788675,E,4,09,1.1,95.408,M,36.771,M,1.1,0196*6E
[2021-02-22 16:22:46.608] $GNGGA,072246.20,3713.98806722,N,13701.47788396,E,4,09,1.1,95.404,M,36.771,M,1.2,0196*60
[2021-02-22 16:22:46.702] $GNGGA,072246.30,3713.98806336,N,13701.47788525,E,4,09,1.1,95.408,M,36.771,M,1.3,0196*63
[2021-02-22 16:22:46.812] $GNGGA,072246.40,3713.98806477,N,13701.47788602,E,4,09,1.1,95.401,M,36.771,M,1.4,0196*6E
[2021-02-22 16:22:46.905] $GNGGA,072246.50,3713.98806361,N,13701.47788698,E,4,09,1.1,95.411,M,36.771,M,1.5,0196*6C
[2021-02-22 16:22:47.015] $GNGGA,072246.60,3713.98806565,N,13701.47788906,E,4,09,1.1,95.407,M,36.771,M,1.6,0196*61
[2021-02-22 16:22:47.108] $GNGGA,072246.70,3713.98806496,N,13701.47788607,E,4,09,1.1,95.405,M,36.771,M,1.7,0196*60
[2021-02-22 16:22:47.218] $GNGGA,072246.80,3713.98806348,N,13701.47788731,E,4,09,1.1,95.406,M,36.771,M,1.8,0196*63
[2021-02-22 16:22:47.311] $GNGGA,072246.90,3713.98806424,N,13701.47788402,E,4,09,1.1,95.407,M,36.771,M,1.9,0196*6C
[2021-02-22 16:22:47.421] $GNGGA,072247.00,3713.98806413,N,13701.47788639,E,4,09,1.1,95.408,M,36.771,M,2.0,0196*6F
[2021-02-22 16:22:47.499] $GNGGA,072247.10,3713.98806117,N,13701.47788990,E,4,09,1.1,95.402,M,36.771,M,1.1,0196*6B
[2021-02-22 16:22:47.608] $GNGGA,072247.20,3713.98806218,N,13701.47788909,E,4,09,1.1,95.412,M,36.771,M,1.2,0196*66
[2021-02-22 16:22:47.702] $GNGGA,072247.30,3713.98806205,N,13701.47788708,E,4,09,1.1,95.402,M,36.771,M,1.3,0196*64
[2021-02-22 16:22:47.811] $GNGGA,072247.40,3713.98806062,N,13701.47788512,E,4,09,1.1,95.403,M,36.771,M,1.4,0196*6F
[2021-02-22 16:22:47.905] $GNGGA,072247.50,3713.98806029,N,13701.47788907,E,4,09,1.1,95.402,M,36.771,M,1.5,0196*69
[2021-02-22 16:22:48.015] $GNGGA,072247.60,3713.98805984,N,13701.47788845,E,4,09,1.1,95.405,M,36.771,M,1.6,0196*64
[2021-02-22 16:22:48.108] $GNGGA,072247.70,3713.98806166,N,13701.47788629,E,4,09,1.1,95.404,M,36.771,M,1.7,0196*66
[2021-02-22 16:22:48.218] $GNGGA,072247.80,3713.98805966,N,13701.47788595,E,4,09,1.1,95.409,M,36.771,M,1.8,0196*64
[2021-02-22 16:22:48.311] $GNGGA,072247.90,3713.98805980,N,13701.47788833,E,4,09,1.1,95.403,M,36.771,M,1.9,0196*67
[2021-02-22 16:22:48.421] $GNGGA,072248.00,3713.98806145,N,13701.47788726,E,4,09,1.1,95.410,M,36.771,M,2.0,0196*60
[2021-02-22 16:22:48.499] $GNGGA,072248.10,3713.98806159,N,13701.47788517,E,4,09,1.1,95.407,M,36.771,M,1.1,0196*68
[2021-02-22 16:22:48.608] $GNGGA,072248.20,3713.98806267,N,13701.47788546,E,4,09,1.1,95.405,M,36.771,M,1.2,0196*60
[2021-02-22 16:22:48.702] $GNGGA,072248.30,3713.98806272,N,13701.47788711,E,4,09,1.1,95.408,M,36.771,M,1.3,0196*69
[2021-02-22 16:22:48.811] $GNGGA,072248.40,3713.98806264,N,13701.47788619,E,4,09,1.1,95.403,M,36.771,M,1.4,0196*6C
[2021-02-22 16:22:48.905] $GNGGA,072248.50,3713.98806358,N,13701.47788636,E,4,09,1.1,95.404,M,36.771,M,1.5,0196*68
[2021-02-22 16:22:49.014] $GNGGA,072248.60,3713.98806277,N,13701.47788710,E,4,09,1.1,95.404,M,36.771,M,1.6,0196*61
[2021-02-22 16:22:49.108] $GNGGA,072248.70,3713.98806165,N,13701.47788742,E,4,09,1.1,95.404,M,36.771,M,1.7,0196*66
[2021-02-22 16:22:49.218] $GNGGA,072248.80,3713.98806240,N,13701.47788851,E,4,09,1.1,95.406,M,36.771,M,1.8,0196*6D
[2021-02-22 16:22:49.311] $GNGGA,072248.90,3713.98806087,N,13701.47788709,E,4,09,1.1,95.408,M,36.771,M,1.9,0196*68
[2021-02-22 16:22:49.421] $GNGGA,072249.00,3713.98806006,N,13701.47788647,E,4,09,1.1,95.404,M,36.771,M,2.0,0196*64
[2021-02-22 16:22:49.514] $GNGGA,072249.10,3713.98806190,N,13701.47789007,E,4,09,1.1,95.405,M,36.771,M,2.1,0196*68
[2021-02-22 16:22:49.624] $GNGGA,072249.20,3713.98806142,N,13701.47788519,E,4,09,1.1,95.418,M,36.771,M,1.2,0196*63
[2021-02-22 16:22:49.702] $GNGGA,072249.30,3713.98805957,N,13701.47788624,E,4,09,1.1,95.407,M,36.771,M,1.3,0196*6F
[2021-02-22 16:22:49.811] $GNGGA,072249.40,3713.98805955,N,13701.47788762,E,4,09,1.1,95.408,M,36.771,M,1.4,0196*61
[2021-02-22 16:22:49.905] $GNGGA,072249.50,3713.98805978,N,13701.47788589,E,4,09,1.1,95.413,M,36.771,M,1.5,0196*63
[2021-02-22 16:22:50.014] $GNGGA,072249.60,3713.98806081,N,13701.47788532,E,4,09,1.1,95.408,M,36.771,M,1.6,0196*65
[2021-02-22 16:22:50.108] $GNGGA,072249.70,3713.98806205,N,13701.47788734,E,4,09,1.1,95.408,M,36.771,M,1.7,0196*6F
[2021-02-22 16:22:50.218] $GNGGA,072249.80,3713.98805992,N,13701.47788435,E,4,09,1.1,95.417,M,36.771,M,1.8,0196*65
[2021-02-22 16:22:50.311] $GNGGA,072249.90,3713.98806148,N,13701.47788548,E,4,09,1.1,95.407,M,36.771,M,1.9,0196*63
[2021-02-22 16:22:50.421] $GNGGA,072250.00,3713.98805960,N,13701.47788612,E,4,09,1.1,95.409,M,36.771,M,2.0,0196*6B
[2021-02-22 16:22:50.514] $GNGGA,072250.10,3713.98806135,N,13701.47788498,E,4,09,1.1,95.413,M,36.771,M,2.1,0196*6B
[2021-02-22 16:22:50.608] $GNGGA,072250.20,3713.98806228,N,13701.47788422,E,4,09,1.1,95.396,M,36.771,M,1.2,0196*6C
[2021-02-22 16:22:50.702] $GNGGA,072250.30,3713.98806152,N,13701.47788565,E,4,09,1.1,95.404,M,36.771,M,1.3,0196*6C
[2021-02-22 16:22:50.811] $GNGGA,072250.40,3713.98806151,N,13701.47788454,E,4,09,1.1,95.401,M,36.771,M,1.4,0196*69
[2021-02-22 16:22:50.905] $GNGGA,072250.50,3713.98806256,N,13701.47788471,E,4,09,1.1,95.402,M,36.771,M,1.5,0196*69
[2021-02-22 16:22:51.014] $GNGGA,072250.60,3713.98806121,N,13701.47788713,E,4,09,1.1,95.403,M,36.771,M,1.6,0196*6C
[2021-02-22 16:22:51.108] $GNGGA,072250.70,3713.98806064,N,13701.47788684,E,4,09,1.1,95.403,M,36.771,M,1.7,0196*63
[2021-02-22 16:22:51.217] $GNGGA,072250.80,3713.98806399,N,13701.47788452,E,4,09,1.1,95.399,M,36.771,M,1.8,0196*6F
[2021-02-22 16:22:51.311] $GNGGA,072250.90,3713.98806285,N,13701.47788415,E,4,09,1.1,95.402,M,36.771,M,1.9,0196*65
[2021-02-22 16:22:51.421] $GNGGA,072251.00,3713.98806289,N,13701.47788451,E,4,09,1.1,95.399,M,36.771,M,2.0,0196*6E
[2021-02-22 16:22:51.499] $GNGGA,072251.10,3713.98806058,N,13701.47788472,E,4,09,1.1,95.405,M,36.771,M,2.1,0196*63
[2021-02-22 16:22:51.608] $GNGGA,072251.20,3713.98806312,N,13701.47788629,E,4,09,1.1,95.398,M,36.771,M,2.2,0196*61
[2021-02-22 16:22:51.702] $GNGGA,072251.30,3713.98806063,N,13701.47788546,E,4,09,1.1,95.401,M,36.771,M,1.3,0196*6A
[2021-02-22 16:22:51.811] $GNGGA,072251.40,3713.98805789,N,13701.47788408,E,4,09,1.1,95.410,M,36.771,M,1.4,0196*61
[2021-02-22 16:22:51.905] $GNGGA,072251.50,3713.98806146,N,13701.47788439,E,4,09,1.1,95.399,M,36.771,M,1.5,0196*63
[2021-02-22 16:22:52.014] $GNGGA,072251.60,3713.98806019,N,13701.47788282,E,4,09,1.1,95.406,M,36.771,M,1.6,0196*6F
[2021-02-22 16:22:52.108] $GNGGA,072251.70,3713.98806371,N,13701.47788298,E,4,09,1.1,95.400,M,36.771,M,1.7,0196*6F
[2021-02-22 16:22:52.217] $GNGGA,072251.80,3713.98806347,N,13701.47788311,E,4,09,1.1,95.400,M,36.771,M,1.8,0196*6A
[2021-02-22 16:22:52.311] $GNGGA,072251.90,3713.98806059,N,13701.47788230,E,4,09,1.1,95.401,M,36.771,M,1.9,0196*65
[2021-02-22 16:22:52.405] $GNGGA,072252.00,3713.98806132,N,13701.47788410,E,4,09,1.1,95.402,M,36.771,M,1.0,0196*6D
[2021-02-22 16:22:52.483] $GNGGA,072252.10,3713.98806227,N,13701.47788354,E,4,09,1.1,95.399,M,36.771,M,1.1,0196*68
[2021-02-22 16:22:52.608] $GNGGA,072252.20,3713.98806104,N,13701.47788458,E,4,09,1.1,95.401,M,36.771,M,1.2,0196*67
[2021-02-22 16:22:52.702] $GNGGA,072252.30,3713.98806020,N,13701.47788468,E,4,09,1.1,95.401,M,36.771,M,1.3,0196*63
[2021-02-22 16:22:52.811] $GNGGA,072252.40,3713.98805853,N,13701.47788390,E,4,09,1.1,95.401,M,36.771,M,1.4,0196*6C
[2021-02-22 16:22:52.905] $GNGGA,072252.50,3713.98806106,N,13701.47788184,E,4,09,1.1,95.398,M,36.771,M,1.5,0196*66
[2021-02-22 16:22:53.014] $GNGGA,072252.60,3713.98805938,N,13701.47788102,E,4,09,1.1,95.399,M,36.771,M,1.6,0196*6F
[2021-02-22 16:22:53.108] $GNGGA,072252.70,3713.98805828,N,13701.47788260,E,4,09,1.1,95.398,M,36.771,M,1.7,0196*69
[2021-02-22 16:22:53.217] $GNGGA,072252.80,3713.98805895,N,13701.47788199,E,4,09,1.1,95.400,M,36.771,M,1.8,0196*6C
[2021-02-22 16:22:53.311] $GNGGA,072252.90,3713.98805831,N,13701.47787909,E,4,09,1.1,95.403,M,36.771,M,1.9,0196*6F
[2021-02-22 16:22:53.420] $GNGGA,072253.00,3713.98805876,N,13701.47788227,E,4,09,1.1,95.397,M,36.771,M,2.0,0196*6C
[2021-02-22 16:22:53.514] $GNGGA,072253.10,3713.98805862,N,13701.47788070,E,4,09,1.1,95.402,M,36.771,M,1.1,0196*61
[2021-02-22 16:22:53.608] $GNGGA,072253.20,3713.98806150,N,13701.47788095,E,4,09,1.1,95.398,M,36.771,M,1.2,0196*65
[2021-02-22 16:22:53.702] $GNGGA,072253.30,3713.98805974,N,13701.47788018,E,4,09,1.1,95.397,M,36.771,M,1.3,0196*62
[2021-02-22 16:22:53.811] $GNGGA,072253.40,3713.98806085,N,13701.47788052,E,4,09,1.1,95.402,M,36.771,M,1.4,0196*63
[2021-02-22 16:22:53.905] $GNGGA,072253.50,3713.98806010,N,13701.47788308,E,4,09,1.1,95.393,M,36.771,M,1.5,0196*6C
[2021-02-22 16:22:54.014] $GNGGA,072253.60,3713.98805922,N,13701.47788458,E,4,09,1.1,95.398,M,36.771,M,1.6,0196*6E
[2021-02-22 16:22:54.108] $GNGGA,072253.70,3713.98805930,N,13701.47788187,E,4,09,1.1,95.398,M,36.771,M,1.7,0196*6A
[2021-02-22 16:22:54.217] $GNGGA,072253.80,3713.98805929,N,13701.47788271,E,4,09,1.1,95.392,M,36.771,M,1.8,0196*62
[2021-02-22 16:22:54.311] $GNGGA,072253.90,3713.98806224,N,13701.47788266,E,4,09,1.1,95.391,M,36.771,M,1.9,0196*62
[2021-02-22 16:22:54.420] $GNGGA,072254.00,3713.98806154,N,13701.47788099,E,4,09,1.1,95.390,M,36.771,M,2.0,0196*61
[2021-02-22 16:22:54.514] $GNGGA,072254.10,3713.98806050,N,13701.47787962,E,4,09,1.1,95.390,M,36.771,M,1.1,0196*65
[2021-02-22 16:22:54.608] $GNGGA,072254.20,3713.98805985,N,13701.47787970,E,4,09,1.1,95.398,M,36.771,M,1.2,0196*6C
[2021-02-22 16:22:54.702] $GNGGA,072254.30,3713.98806231,N,13701.47788204,E,4,09,1.1,95.387,M,36.771,M,1.3,0196*62
[2021-02-22 16:22:54.811] $GNGGA,072254.40,3713.98806102,N,13701.47788100,E,4,09,1.1,95.390,M,36.771,M,1.4,0196*60
[2021-02-22 16:22:54.905] $GNGGA,072254.50,3713.98806393,N,13701.47788263,E,4,09,1.1,95.388,M,36.771,M,1.5,0196*65
[2021-02-22 16:22:55.014] $GNGGA,072254.60,3713.98806121,N,13701.47787956,E,4,09,1.1,95.391,M,36.771,M,1.6,0196*64
[2021-02-22 16:22:55.108] $GNGGA,072254.70,3713.98806208,N,13701.47788190,E,4,09,1.1,95.390,M,36.771,M,1.7,0196*60
[2021-02-22 16:22:55.217] $GNGGA,072254.80,3713.98806198,N,13701.47787996,E,4,09,1.1,95.392,M,36.771,M,1.8,0196*69
[2021-02-22 16:22:55.311] $GNGGA,072254.90,3713.98806319,N,13701.47787954,E,4,09,1.1,95.387,M,36.771,M,1.9,0196*68
[2021-02-22 16:22:55.420] $GNGGA,072255.00,3713.98806241,N,13701.47788053,E,4,09,1.1,95.389,M,36.771,M,2.0,0196*69
[2021-02-22 16:22:55.498] $GNGGA,072255.10,3713.98806294,N,13701.47788238,E,4,09,1.1,95.394,M,36.771,M,1.1,0196*61
[2021-02-22 16:22:55.608] $GNGGA,072255.20,3713.98806248,N,13701.47788368,E,4,09,1.1,95.394,M,36.771,M,1.2,0196*64
[2021-02-22 16:22:55.702] $GNGGA,072255.30,3713.98806479,N,13701.47788285,E,4,09,1.1,95.390,M,36.771,M,1.3,0196*66
[2021-02-22 16:22:55.811] $GNGGA,072255.40,3713.98806172,N,13701.47788156,E,4,09,1.1,95.401,M,36.771,M,1.4,0196*6A
[2021-02-22 16:22:55.905] $GNGGA,072255.50,3713.98806237,N,13701.47788600,E,4,09,1.1,95.390,M,36.771,M,1.5,0196*63
[2021-02-22 16:22:56.014] $GNGGA,072255.60,3713.98806238,N,13701.47788204,E,4,09,1.1,95.398,M,36.771,M,1.6,0196*64
[2021-02-22 16:22:56.108] $GNGGA,072255.70,3713.98806203,N,13701.47788179,E,4,09,1.1,95.393,M,36.771,M,1.7,0196*6E
[2021-02-22 16:22:56.217] $GNGGA,072255.80,3713.98806103,N,13701.47787952,E,4,09,1.1,95.400,M,36.771,M,1.8,0196*6E
[2021-02-22 16:22:56.311] $GNGGA,072255.90,3713.98806179,N,13701.47788036,E,4,09,1.1,95.391,M,36.771,M,1.9,0196*68
[2021-02-22 16:22:56.420] $GNGGA,072256.00,3713.98806178,N,13701.47787946,E,4,09,1.1,95.395,M,36.771,M,2.0,0196*6C
[2021-02-22 16:22:56.514] $GNGGA,072256.10,3713.98806119,N,13701.47788546,E,4,09,1.1,95.394,M,36.771,M,1.1,0196*6A
[2021-02-22 16:22:56.608] $GNGGA,072256.20,3713.98806222,N,13701.47788346,E,4,09,1.1,95.398,M,36.771,M,1.2,0196*6B
[2021-02-22 16:22:56.701] $GNGGA,072256.30,3713.98805874,N,13701.47788264,E,4,09,1.1,95.397,M,36.771,M,1.3,0196*6F
[2021-02-22 16:22:56.811] $GNGGA,072256.40,3713.98806043,N,13701.47788243,E,4,09,1.1,95.396,M,36.771,M,1.4,0196*64
[2021-02-22 16:22:56.905] $GNGGA,072256.50,3713.98806003,N,13701.47788306,E,4,09,1.1,95.393,M,36.771,M,1.5,0196*65
[2021-02-22 16:22:57.014] $GNGGA,072256.60,3713.98806024,N,13701.47788157,E,4,09,1.1,95.404,M,36.771,M,1.6,0196*6F
[2021-02-22 16:22:57.108] $GNGGA,072256.70,3713.98806180,N,13701.47788736,E,4,09,1.1,95.394,M,36.771,M,1.7,0196*6F
[2021-02-22 16:22:57.217] $GNGGA,072256.80,3713.98805861,N,13701.47788372,E,4,09,1.1,95.399,M,36.771,M,1.8,0196*63
[2021-02-22 16:22:57.311] $GNGGA,072256.90,3713.98806004,N,13701.47788430,E,4,09,1.1,95.388,M,36.771,M,1.9,0196*6A
[2021-02-22 16:22:57.420] $GNGGA,072257.00,3713.98805856,N,13701.47788267,E,4,09,1.1,95.392,M,36.771,M,2.0,0196*6B
[2021-02-22 16:22:57.514] $GNGGA,072257.10,3713.98806124,N,13701.47788144,E,4,09,1.1,95.403,M,36.771,M,1.1,0196*6A
[2021-02-22 16:22:57.608] $GNGGA,072257.20,3713.98806080,N,13701.47788161,E,4,09,1.1,95.398,M,36.771,M,1.2,0196*67
[2021-02-22 16:22:57.701] $GNGGA,072257.30,3713.98806481,N,13701.47787847,E,4,09,1.1,95.393,M,36.771,M,1.3,0196*6B
[2021-02-22 16:22:57.811] $GNGGA,072257.40,3713.98806432,N,13701.47788154,E,4,09,1.1,95.395,M,36.771,M,1.4,0196*61
[2021-02-22 16:22:57.904] $GNGGA,072257.50,3713.98806278,N,13701.47788408,E,4,09,1.1,95.391,M,36.771,M,1.5,0196*61
[2021-02-22 16:22:58.014] $GNGGA,072257.60,3713.98806477,N,13701.47788173,E,4,09,1.1,95.385,M,36.771,M,1.6,0196*64
[2021-02-22 16:22:58.108] $GNGGA,072257.70,3713.98806232,N,13701.47788503,E,4,09,1.1,95.394,M,36.771,M,1.7,0196*60
[2021-02-22 16:22:58.217] $GNGGA,072257.80,3713.98806225,N,13701.47788399,E,4,09,1.1,95.395,M,36.771,M,1.8,0196*62
[2021-02-22 16:22:58.311] $GNGGA,072257.90,3713.98806171,N,13701.47788384,E,4,09,1.1,95.396,M,36.771,M,1.9,0196*6F
[2021-02-22 16:22:58.420] $GNGGA,072258.00,3713.98806489,N,13701.47788280,E,4,09,1.1,95.391,M,36.771,M,2.0,0196*63
[2021-02-22 16:22:58.514] $GNGGA,072258.10,3713.98806442,N,13701.47788318,E,4,09,1.1,95.397,M,36.771,M,2.1,0196*62
[2021-02-22 16:22:58.608] $GNGGA,072258.20,3713.98806545,N,13701.47788221,E,4,09,1.1,95.389,M,36.771,M,2.2,0196*60
[2021-02-22 16:22:58.701] $GNGGA,072258.30,3713.98806718,N,13701.47788057,E,4,09,1.1,95.395,M,36.771,M,1.3,0196*67
[2021-02-22 16:22:58.811] $GNGGA,072258.40,3713.98806810,N,13701.47788224,E,4,09,1.1,95.393,M,36.771,M,1.4,0196*60
[2021-02-22 16:22:58.904] $GNGGA,072258.50,3713.98806519,N,13701.47788366,E,4,09,1.1,95.392,M,36.771,M,1.5,0196*62
[2021-02-22 16:22:59.014] $GNGGA,072258.60,3713.98806482,N,13701.47788257,E,4,09,1.1,95.396,M,36.771,M,1.6,0196*66
[2021-02-22 16:22:59.107] $GNGGA,072258.70,3713.98806594,N,13701.47788148,E,4,09,1.1,95.389,M,36.771,M,1.7,0196*63
[2021-02-22 16:22:59.217] $GNGGA,072258.80,3713.98806544,N,13701.47787996,E,4,09,1.1,95.392,M,36.771,M,1.8,0196*60
[2021-02-22 16:22:59.311] $GNGGA,072258.90,3713.98806311,N,13701.47788139,E,4,09,1.1,95.390,M,36.771,M,1.9,0196*66
[2021-02-22 16:22:59.420] $GNGGA,072259.00,3713.98806395,N,13701.47788111,E,4,09,1.1,95.394,M,36.771,M,1.0,0196*65
[2021-02-22 16:22:59.514] $GNGGA,072259.10,3713.98806471,N,13701.47788269,E,4,09,1.1,95.396,M,36.771,M,1.1,0196*66
[2021-02-22 16:22:59.623] $GNGGA,072259.20,3713.98806386,N,13701.47788617,E,4,09,1.1,95.391,M,36.771,M,1.2,0196*63
[2021-02-22 16:22:59.701] $GNGGA,072259.30,3713.98806333,N,13701.47788308,E,4,09,1.1,95.390,M,36.771,M,1.3,0196*67
[2021-02-22 16:22:59.811] $GNGGA,072259.40,3713.98806384,N,13701.47788426,E,4,09,1.1,95.388,M,36.771,M,1.4,0196*69
[2021-02-22 16:22:59.904] $GNGGA,072259.50,3713.98806350,N,13701.47788413,E,4,09,1.1,95.392,M,36.771,M,1.5,0196*6D
[2021-02-22 16:23:00.014] $GNGGA,072259.60,3713.98806229,N,13701.47788577,E,4,09,1.1,95.396,M,36.771,M,1.6,0196*65
[2021-02-22 16:23:00.107] $GNGGA,072259.70,3713.98806190,N,13701.47788315,E,4,09,1.1,95.395,M,36.771,M,1.7,0196*65
[2021-02-22 16:23:00.217] $GNGGA,072259.80,3713.98806330,N,13701.47788186,E,4,09,1.1,95.389,M,36.771,M,1.8,0196*68
[2021-02-22 16:23:00.311] $GNGGA,072259.90,3713.98806318,N,13701.47788578,E,4,09,1.1,95.386,M,36.771,M,1.9,0196*68
[2021-02-22 16:23:00.420] $GNGGA,072300.00,3713.98806090,N,13701.47788251,E,4,09,1.1,95.402,M,36.771,M,2.0,0196*62
[2021-02-22 16:23:00.514] $GNGGA,072300.10,3713.98806286,N,13701.47788372,E,4,09,1.1,95.387,M,36.771,M,2.1,0196*6D
[2021-02-22 16:23:00.607] $GNGGA,072300.20,3713.98806502,N,13701.47788373,E,4,09,1.1,95.393,M,36.771,M,1.2,0196*61
[2021-02-22 16:23:00.701] $GNGGA,072300.30,3713.98806416,N,13701.47788647,E,4,09,1.1,95.395,M,36.771,M,1.3,0196*61
[2021-02-22 16:23:00.811] $GNGGA,072300.40,3713.98806345,N,13701.47788572,E,4,09,1.1,95.397,M,36.771,M,1.4,0196*67
[2021-02-22 16:23:00.904] $GNGGA,072300.50,3713.98806609,N,13701.47788717,E,4,09,1.1,95.394,M,36.771,M,1.5,0196*68
[2021-02-22 16:23:01.014] $GNGGA,072300.60,3713.98806262,N,13701.47788721,E,4,09,1.1,95.391,M,36.771,M,1.6,0196*61
[2021-02-22 16:23:01.107] $GNGGA,072300.70,3713.98805919,N,13701.47788534,E,4,09,1.1,95.395,M,36.771,M,1.7,0196*67
[2021-02-22 16:23:01.217] $GNGGA,072300.80,3713.98805932,N,13701.47788507,E,4,09,1.1,95.395,M,36.771,M,1.8,0196*6E
[2021-02-22 16:23:01.310] $GNGGA,072300.90,3713.98806194,N,13701.47788787,E,4,09,1.1,95.398,M,36.771,M,1.9,0196*6E
[2021-02-22 16:23:01.420] $GNGGA,072301.00,3713.98806310,N,13701.47788692,E,4,09,1.1,95.395,M,36.771,M,2.0,0196*6A
[2021-02-22 16:23:01.514] $GNGGA,072301.10,3713.98806039,N,13701.47788490,E,4,09,1.1,95.390,M,36.771,M,2.1,0196*67
[2021-02-22 16:23:01.607] $GNGGA,072301.20,3713.98806331,N,13701.47788445,E,4,09,1.1,95.390,M,36.771,M,1.2,0196*67
[2021-02-22 16:23:01.701] $GNGGA,072301.30,3713.98806725,N,13701.47788397,E,4,09,1.1,95.389,M,36.771,M,1.3,0196*66
[2021-02-22 16:23:01.810] $GNGGA,072301.40,3713.98806657,N,13701.47788479,E,4,09,1.1,95.390,M,36.771,M,1.4,0196*6D
[2021-02-22 16:23:01.904] $GNGGA,072301.50,3713.98806934,N,13701.47788819,E,4,09,1.1,95.384,M,36.771,M,1.5,0196*68
[2021-02-22 16:23:02.014] $GNGGA,072301.60,3713.98806503,N,13701.47788827,E,4,09,1.1,95.391,M,36.771,M,1.6,0196*69
[2021-02-22 16:23:02.107] $GNGGA,072301.70,3713.98806637,N,13701.47788564,E,4,09,1.1,95.394,M,36.771,M,1.7,0196*62
[2021-02-22 16:23:02.217] $GNGGA,072301.80,3713.98806307,N,13701.47788608,E,4,09,1.1,95.389,M,36.771,M,1.8,0196*61
[2021-02-22 16:23:02.310] $GNGGA,072301.90,3713.98806396,N,13701.47788391,E,4,09,1.1,95.392,M,36.771,M,1.9,0196*66
[2021-02-22 16:23:02.404] $GNGGA,072302.00,3713.98806199,N,13701.47788380,E,4,09,1.1,95.391,M,36.771,M,2.0,0196*68
[2021-02-22 16:23:02.514] $GNGGA,072302.10,3713.98806040,N,13701.47788496,E,4,09,1.1,95.404,M,36.771,M,1.1,0196*65
[2021-02-22 16:23:02.607] $GNGGA,072302.20,3713.98806249,N,13701.47788665,E,4,09,1.1,95.403,M,36.771,M,1.2,0196*67
[2021-02-22 16:23:02.701] $GNGGA,072302.30,3713.98806209,N,13701.47788933,E,4,09,1.1,95.406,M,36.771,M,1.3,0196*6A
[2021-02-22 16:23:02.810] $GNGGA,072302.40,3713.98806360,N,13701.47788770,E,4,09,1.1,95.403,M,36.771,M,1.4,0196*68
[2021-02-22 16:23:02.904] $GNGGA,072302.50,3713.98805947,N,13701.47789026,E,4,09,1.1,95.409,M,36.771,M,1.5,0196*6B
[2021-02-22 16:23:03.013] $GNGGA,072302.60,3713.98806152,N,13701.47789345,E,4,09,1.1,95.402,M,36.771,M,1.6,0196*69
[2021-02-22 16:23:03.107] $GNGGA,072302.70,3713.98806516,N,13701.47789130,E,4,09,1.1,95.401,M,36.771,M,1.7,0196*6E
[2021-02-22 16:23:03.217] $GNGGA,072302.80,3713.98806409,N,13701.47788634,E,4,09,1.1,95.410,M,36.771,M,1.8,0196*63
[2021-02-22 16:23:03.310] $GNGGA,072302.90,3713.98806584,N,13701.47788305,E,4,09,1.1,95.400,M,36.771,M,1.9,0196*61
[2021-02-22 16:23:03.404] $GNGGA,072303.00,3713.98806209,N,13701.47788198,E,4,09,1.1,95.408,M,36.771,M,2.0,0196*6F
[2021-02-22 16:23:03.482] $GNGGA,072303.10,3713.98806915,N,13701.47788284,E,4,09,1.1,95.396,M,36.771,M,1.1,0196*64
[2021-02-22 16:23:03.607] $GNGGA,072303.20,3713.98806556,N,13701.47788307,E,4,09,1.1,95.403,M,36.771,M,1.2,0196*6E
[2021-02-22 16:23:03.701] $GNGGA,072303.30,3713.98806357,N,13701.47788699,E,4,09,1.1,95.396,M,36.771,M,1.3,0196*60
[2021-02-22 16:23:03.810] $GNGGA,072303.40,3713.98805972,N,13701.47788864,E,4,09,1.1,95.402,M,36.771,M,1.4,0196*68
[2021-02-22 16:23:03.904] $GNGGA,072303.50,3713.98805849,N,13701.47788869,E,4,09,1.1,95.407,M,36.771,M,1.5,0196*69
[2021-02-22 16:23:04.013] $GNGGA,072303.60,3713.98805704,N,13701.47789068,E,4,09,1.1,95.401,M,36.771,M,1.6,0196*61
[2021-02-22 16:23:04.107] $GNGGA,072303.70,3713.98805693,N,13701.47788997,E,4,09,1.1,95.400,M,36.771,M,1.7,0196*67
[2021-02-22 16:23:04.216] $GNGGA,072303.80,3713.98805415,N,13701.47788974,E,4,09,1.1,95.403,M,36.771,M,1.8,0196*65
[2021-02-22 16:23:04.310] $GNGGA,072303.90,3713.98805503,N,13701.47788970,E,4,09,1.1,95.403,M,36.771,M,1.9,0196*67
[2021-02-22 16:23:04.420] $GNGGA,072304.00,3713.98805554,N,13701.47789153,E,4,09,1.1,95.400,M,36.771,M,2.0,0196*6A
[2021-02-22 16:23:04.513] $GNGGA,072304.10,3713.98805640,N,13701.47789135,E,4,09,1.1,95.387,M,36.771,M,1.1,0196*67
[2021-02-22 16:23:04.607] $GNGGA,072304.20,3713.98805671,N,13701.47788716,E,4,09,1.1,95.392,M,36.771,M,1.2,0196*67
[2021-02-22 16:23:04.701] $GNGGA,072304.30,3713.98805756,N,13701.47788769,E,4,09,1.1,95.393,M,36.771,M,1.3,0196*6A
[2021-02-22 16:23:04.810] $GNGGA,072304.40,3713.98806068,N,13701.47788583,E,4,09,1.1,95.395,M,36.771,M,1.4,0196*63
[2021-02-22 16:23:04.904] $GNGGA,072304.50,3713.98805991,N,13701.47788528,E,4,09,1.1,95.395,M,36.771,M,1.5,0196*6E
[2021-02-22 16:23:05.013] $GNGGA,072304.60,3713.98806164,N,13701.47788456,E,4,09,1.1,95.389,M,36.771,M,1.6,0196*6A
[2021-02-22 16:23:05.107] $GNGGA,072304.70,3713.98806296,N,13701.47788460,E,4,09,1.1,95.394,M,36.771,M,1.7,0196*6D
[2021-02-22 16:23:05.216] $GNGGA,072304.80,3713.98806322,N,13701.47788508,E,4,09,1.1,95.394,M,36.771,M,1.8,0196*6C
[2021-02-22 16:23:05.310] $GNGGA,072304.90,3713.98806308,N,13701.47788518,E,4,09,1.1,95.396,M,36.771,M,1.9,0196*67
[2021-02-22 16:23:05.420] $GNGGA,072305.00,3713.98806310,N,13701.47788362,E,4,09,1.1,95.391,M,36.771,M,1.0,0196*63
[2021-02-22 16:23:05.513] $GNGGA,072305.10,3713.98806282,N,13701.47788661,E,4,09,1.1,95.400,M,36.771,M,1.1,0196*60
[2021-02-22 16:23:05.607] $GNGGA,072305.20,3713.98806183,N,13701.47788639,E,4,09,1.1,95.392,M,36.771,M,1.2,0196*63
[2021-02-22 16:23:05.701] $GNGGA,072305.30,3713.98806264,N,13701.47788241,E,4,09,1.1,95.392,M,36.771,M,1.3,0196*62
[2021-02-22 16:23:05.810] $GNGGA,072305.40,3713.98806223,N,13701.47788581,E,4,09,1.1,95.394,M,36.771,M,1.4,0196*6C
[2021-02-22 16:23:05.904] $GNGGA,072305.50,3713.98806376,N,13701.47788456,E,4,09,1.1,95.392,M,36.771,M,1.5,0196*60
[2021-02-22 16:23:06.013] $GNGGA,072305.60,3713.98806216,N,13701.47788463,E,4,09,1.1,95.394,M,36.771,M,1.6,0196*67
[2021-02-22 16:23:06.107] $GNGGA,072305.70,3713.98806450,N,13701.47788520,E,4,09,1.1,95.393,M,36.771,M,1.7,0196*62
[2021-02-22 16:23:06.216] $GNGGA,072305.80,3713.98806478,N,13701.47788548,E,4,09,1.1,95.393,M,36.771,M,1.8,0196*66
[2021-02-22 16:23:06.310] $GNGGA,072305.90,3713.98806314,N,13701.47788498,E,4,09,1.1,95.394,M,36.771,M,1.9,0196*60
[2021-02-22 16:23:06.420] $GNGGA,072306.00,3713.98806337,N,13701.47788638,E,4,09,1.1,95.405,M,36.771,M,1.0,0196*65
[2021-02-22 16:23:06.513] $GNGGA,072306.10,3713.98806425,N,13701.47788805,E,4,09,1.1,95.399,M,36.771,M,1.1,0196*63
[2021-02-22 16:23:06.607] $GNGGA,072306.20,3713.98806477,N,13701.47788878,E,4,09,1.1,95.400,M,36.771,M,1.2,0196*69
[2021-02-22 16:23:06.701] $GNGGA,072306.30,3713.98806294,N,13701.47788766,E,4,09,1.1,95.393,M,36.771,M,1.3,0196*6F
[2021-02-22 16:23:06.810] $GNGGA,072306.40,3713.98806448,N,13701.47788671,E,4,09,1.1,95.401,M,36.771,M,1.4,0196*63
[2021-02-22 16:23:06.904] $GNGGA,072306.50,3713.98806584,N,13701.47788688,E,4,09,1.1,95.398,M,36.771,M,1.5,0196*63
[2021-02-22 16:23:07.013] $GNGGA,072306.60,3713.98806412,N,13701.47788635,E,4,09,1.1,95.403,M,36.771,M,1.6,0196*6E
[2021-02-22 16:23:07.107] $GNGGA,072306.70,3713.98806508,N,13701.47788758,E,4,09,1.1,95.401,M,36.771,M,1.7,0196*6C
[2021-02-22 16:23:07.216] $GNGGA,072306.80,3713.98806227,N,13701.47788558,E,4,09,1.1,95.400,M,36.771,M,1.8,0196*65
[2021-02-22 16:23:07.310] $GNGGA,072306.90,3713.98806335,N,13701.47788377,E,4,09,1.1,95.397,M,36.771,M,1.9,0196*65
[2021-02-22 16:23:07.419] $GNGGA,072307.00,3713.98806431,N,13701.47788189,E,4,09,1.1,95.401,M,36.771,M,2.0,0196*6F
[2021-02-22 16:23:07.513] $GNGGA,072307.10,3713.98806539,N,13701.47788344,E,4,09,1.1,95.398,M,36.771,M,2.1,0196*62
[2021-02-22 16:23:07.607] $GNGGA,072307.20,3713.98806306,N,13701.47788298,E,4,09,1.1,95.404,M,36.771,M,2.2,0196*6A
[2021-02-22 16:23:07.716] $GNGGA,072307.30,3713.98806224,N,13701.47788589,E,4,09,1.1,95.394,M,36.771,M,1.3,0196*61
[2021-02-22 16:23:07.810] $GNGGA,072307.40,3713.98805884,N,13701.47788405,E,4,09,1.1,95.396,M,36.771,M,1.4,0196*65
[2021-02-22 16:23:07.904] $GNGGA,072307.50,3713.98805970,N,13701.47788160,E,4,09,1.1,95.392,M,36.771,M,1.5,0196*6D
[2021-02-22 16:23:08.013] $GNGGA,072307.60,3713.98805856,N,13701.47788041,E,4,09,1.1,95.396,M,36.771,M,1.6,0196*6E
[2021-02-22 16:23:08.107] $GNGGA,072307.70,3713.98806034,N,13701.47788279,E,4,09,1.1,95.395,M,36.771,M,1.7,0196*6B
[2021-02-22 16:23:08.216] $GNGGA,072307.80,3713.98805957,N,13701.47788383,E,4,09,1.1,95.396,M,36.771,M,1.8,0196*63
[2021-02-22 16:23:08.310] $GNGGA,072307.90,3713.98805908,N,13701.47788239,E,4,09,1.1,95.398,M,36.771,M,1.9,0196*67
[2021-02-22 16:23:08.419] $GNGGA,072308.00,3713.98806550,N,13701.47788552,E,4,09,1.1,95.404,M,36.771,M,1.0,0196*62
[2021-02-22 16:23:08.513] $GNGGA,072308.10,3713.98806185,N,13701.47788286,E,4,09,1.1,95.408,M,36.771,M,1.1,0196*6C
[2021-02-22 16:23:08.607] $GNGGA,072308.20,3713.98806271,N,13701.47788515,E,4,09,1.1,95.403,M,36.771,M,1.2,0196*62
[2021-02-22 16:23:08.701] $GNGGA,072308.30,3713.98806283,N,13701.47788508,E,4,09,1.1,95.405,M,36.771,M,1.3,0196*65
[2021-02-22 16:23:08.810] $GNGGA,072308.40,3713.98805986,N,13701.47788475,E,4,09,1.1,95.411,M,36.771,M,1.4,0196*66
[2021-02-22 16:23:08.904] $GNGGA,072308.50,3713.98806276,N,13701.47788274,E,4,09,1.1,95.405,M,36.771,M,1.5,0196*63
[2021-02-22 16:23:09.013] $GNGGA,072308.60,3713.98806243,N,13701.47788255,E,4,09,1.1,95.405,M,36.771,M,1.6,0196*66
[2021-02-22 16:23:09.107] $GNGGA,072308.70,3713.98806414,N,13701.47788060,E,4,09,1.1,95.401,M,36.771,M,1.7,0196*62
[2021-02-22 16:23:09.216] $GNGGA,072308.80,3713.98806203,N,13701.47787962,E,4,09,1.1,95.410,M,36.771,M,1.8,0196*66
[2021-02-22 16:23:09.310] $GNGGA,072308.90,3713.98806191,N,13701.47787997,E,4,09,1.1,95.404,M,36.771,M,1.9,0196*61
[2021-02-22 16:23:09.419] $GNGGA,072309.00,3713.98806150,N,13701.47787765,E,4,09,1.1,95.402,M,36.771,M,2.0,0196*6B
[2021-02-22 16:23:09.513] $GNGGA,072309.10,3713.98806099,N,13701.47787853,E,4,09,1.1,95.408,M,36.771,M,1.1,0196*6C
[2021-02-22 16:23:09.622] $GNGGA,072309.20,3713.98806311,N,13701.47787943,E,4,09,1.1,95.406,M,36.771,M,1.2,0196*61
[2021-02-22 16:23:09.700] $GNGGA,072309.30,3713.98806186,N,13701.47787928,E,4,09,1.1,95.401,M,36.771,M,1.3,0196*67
[2021-02-22 16:23:09.810] $GNGGA,072309.40,3713.98806516,N,13701.47787628,E,4,09,1.1,95.403,M,36.771,M,1.4,0196*67
[2021-02-22 16:23:09.904] $GNGGA,072309.50,3713.98806529,N,13701.47787442,E,4,09,1.1,95.406,M,36.771,M,1.5,0196*60
[2021-02-22 16:23:10.013] $GNGGA,072309.60,3713.98806140,N,13701.47787227,E,4,09,1.1,95.405,M,36.771,M,1.6,0196*6D
