
[2021-02-22 16:25:43.605] $GPGGA,,,,,,,,,,M,,M,,*56
[2021-02-22 16:25:43.637] $GPVTG,,T,,M,,N,,K,N*2C
[2021-02-22 16:25:43.637] $GPGGA,,,,,,,,,,M,,M,,*56
[2021-02-22 16:25:43.637] $GPVTG,,T,,M,,N,,K,N*2C
[2021-02-22 16:25:43.637] $GPGGA,,,,,,,,,,M,,M,,*56
[2021-02-22 16:25:43.637] $GPVTG,,T,,M,,N,,K,N*2C
[2021-02-22 16:25:43.637] $GPGGA,,,,,,,,,,M,,M,,*56
[2021-02-22 16:25:43.637] $GPVTG,,T,,M,,N,,K,N*2C
[2021-02-22 16:25:43.637] $GPGGA,,,,,,,,,,M,,M,,*56
[2021-02-22 16:25:43.637] $GPVTG,,T,,M,,N,,K,N*2C
[2021-02-22 16:25:43.637] $GPGGA,,,,,,,,,,M,,M,,*56
[2021-02-22 16:25:43.637] $GPVTG,,T,,M,,N,,K,N*2C
[2021-02-22 16:25:43.637] $GPGGA,,,,,,,,,,M,,M,,*56
[2021-02-22 16:25:43.637] $GPVTG,,T,,M,,N,,K,N*2C
[2021-02-22 16:25:43.637] $GPGGA,,,,,,,,,,M,,M,,*56
[2021-02-22 16:25:43.637] $GPVTG,,T,,M,,N,,K,N*2C
[2021-02-22 16:25:43.637] $GPGGA,,,,,,,,,,M,,M,,*56
[2021-02-22 16:25:43.637] $GPVTG,,T,,M,,N,,K,N*2C
[2021-02-22 16:25:43.637] $GPGGA,,,,,,,,,,M,,M,,*56
[2021-02-22 16:25:43.637] $GPVTG,,T,,M,,N,,K,N*2C
[2021-02-22 16:25:43.637] $GPGGA,,,,,,,,,,M,,M,,*56
[2021-02-22 16:25:43.637] $GPVTG,,T,,M,,N,,K,N*2C
[2021-02-22 16:25:43.637] $GPGGA,,,,,,,,,,M,,M,,*56
[2021-02-22 16:25:43.637] $GPVTG,,T,,M,,N,,K,N*2C
[2021-02-22 16:25:43.637] $GPGGA,,,,,,,,,,M,,M,,*56
[2021-02-22 16:25:43.637] $GPVTG,,T,,M,,N,,K,N*2C
[2021-02-22 16:25:43.637] $GPGGA,,,,,,,,,,M,,M,,*56
[2021-02-22 16:25:43.637] $GPVTG,,T,,M,,N,,K,N*2C
[2021-02-22 16:25:43.637] $GPGGA,,,,,,,,,,M,,M,,*56
[2021-02-22 16:25:43.637] $GPVTG,,T,,M,,N,,K,N*2C
[2021-02-22 16:25:43.637] $GPGGA,,,,,,,,,,M,,M,,*56
[2021-02-22 16:25:43.637] $GPVTG,,T,,M,,N,,K,N*2C
[2021-02-22 16:25:43.637] $GPGGA,,,,,,,,,,M,,M,,*56
[2021-02-22 16:25:43.637] $GPVTG,,T,,M,,N,,K,N*2C
[2021-02-22 16:25:43.637] $GPGGA,,,,,,,,,,M,,M,,*56
[2021-02-22 16:25:43.637] $GPVTG,,T,,M,,N,,K,N*2C
[2021-02-22 16:25:43.637] $GPGGA,,,,,,,,,,M,,M,,*56
[2021-02-22 16:25:43.637] $GPVTG,,T,,M,,N,,K,N*2C
[2021-02-22 16:25:43.637] $GPGGA,,,,,,,,,,M,,M,,*56
[2021-02-22 16:25:43.637] $GPVTG,,T,,M,,N,,K,N*2C
[2021-02-22 16:25:43.652] $GPGGA,,,,,,,,,,M,,M,,*56
[2021-02-22 16:25:43.652] $GPVTG,,T,,M,,N,,K,N*2C
[2021-02-22 16:25:43.652] $GPGGA,,,,,,,,,,M,,M,,*56
[2021-02-22 16:25:43.652] $GPVTG,,T,,M,,N,,K,N*2C
[2021-02-22 16:25:43.652] $GPGGA,,,,,,,,,,M,,M,,*56
[2021-02-22 16:25:43.652] $GPVTG,,T,,M,,N,,K,N*2C
[2021-02-22 16:25:43.652] $GPGGA,,,,,,,,,,M,,M,,*56
[2021-02-22 16:25:43.652] $GPVTG,,T,,M,,N,,K,N*2C
[2021-02-22 16:25:43.652] $GPGGA,,,,,,,,,,M,,M,,*56
[2021-02-22 16:25:43.652] $GPVTG,,T,,M,,N,,K,N*2C
[2021-02-22 16:25:43.652] $GPGGA,,,,,,,,,,M,,M,,*56
[2021-02-22 16:25:43.652] $GPVTG,,T,,M,,N,,K,N*2C
[2021-02-22 16:25:43.652] $GPGGA,,,,,,,,,,M,,M,,*56
[2021-02-22 16:25:43.652] $GPVTG,,T,,M,,N,,K,N*2C
[2021-02-22 16:25:43.652] $GPGGA,,,,,,,,,,M,,M,,*56
[2021-02-22 16:25:43.652] $GPVTG,,T,,M,,N,,K,N*2C
[2021-02-22 16:25:43.652] $GPGGA,,,,,,,,,,M,,M,,*56
[2021-02-22 16:25:43.652] $GPVTG,,T,,M,,N,,K,N*2C
[2021-02-22 16:25:43.652] $GPGGA,,,,,,,,,,M,,M,,*56
[2021-02-22 16:25:43.652] $GPVTG,,T,,M,,N,,K,N*2C
[2021-02-22 16:25:43.652] $GPGGA,,,,,,,,,,M,,M,,*56
[2021-02-22 16:25:43.652] $GPVTG,,T,,M,,N,,K,N*2C
[2021-02-22 16:25:43.652] $GPGGA,,,,,,,,,,M,,M,,*56
[2021-02-22 16:25:43.652] $GPVTG,,T,,M,,N,,K,N*2C
[2021-02-22 16:25:43.652] $GPGGA,,,,,,,,,,M,,M,,*56
[2021-02-22 16:25:43.652] $GPVTG,,T,,M,,N,,K,N*2C
[2021-02-22 16:25:43.652] $GPGGA,,,,,,,,,,M,,M,,*56
[2021-02-22 16:25:43.652] $GPVTG,,T,,M,,N,,K,N*2C
[2021-02-22 16:25:43.652] $GPGGA,,,,,,,,,,M,,M,,*56
[2021-02-22 16:25:43.652] $GPVTG,,T,,M,,N,,K,N*2C
[2021-02-22 16:25:43.652] $GPGGA,,,,,,,,,,M,,M,,*56
[2021-02-22 16:25:43.652] $GPVTG,,T,,M,,N,,K,N*2C
[2021-02-22 16:25:43.652] $GPGGA,,,,,,,,,,M,,M,,*56
[2021-02-22 16:25:43.652] $GPVTG,,T,,M,,N,,K,N*2C
[2021-02-22 16:25:43.652] $GPGGA,,,,,,,,,,M,,M,,*56
[2021-02-22 16:25:43.652] $GPVTG,,T,,M,,N,,K,N*2C
[2021-02-22 16:25:43.652] $GPGGA,,,,,,,,,,M,,M,,*56
[2021-02-22 16:25:43.652] $GPVTG,,T,,M,,N,,K,N*2C
[2021-02-22 16:25:43.652] $GPGGA,,,,,,,,,,M,,M,,*56
[2021-02-22 16:25:43.668] $GPVTG,,T,,M,,N,,K,N*2C
[2021-02-22 16:25:43.668] $GPGGA,,,,,,,,,,M,,M,,*56
[2021-02-22 16:25:43.668] $GPVTG,,T,,M,,N,,K,N*2C
[2021-02-22 16:25:43.668] $GPGGA,,,,,,,,,,M,,M,,*56
[2021-02-22 16:25:43.668] $GPVTG,,T,,M,,N,,K,N*2C
[2021-02-22 16:25:43.668] $GPGGA,,,,,,,,,,M,,M,,*56
[2021-02-22 16:25:43.668] $GPVTG,,T,,M,,N,,K,N*2C
[2021-02-22 16:25:43.668] $GPGGA,,,,,,,,,,M,,M,,*56
[2021-02-22 16:25:43.668] $GPVTG,,T,,M,,N,,K,N*2C
[2021-02-22 16:25:43.668] $GPGGA,,,,,,,,,,M,,M,,*56
[2021-02-22 16:25:43.668] $GPVTG,,T,,M,,N,,K,N*2C
[2021-02-22 16:25:43.668] $GPGGA,,,,,,,,,,M,,M,,*56
[2021-02-22 16:25:43.668] $GPVTG,,T,,M,,N,,K,N*2C
[2021-02-22 16:25:43.668] $GPGGA,,,,,,,,,,M,,M,,*56
[2021-02-22 16:25:43.668] $GPVTG,,T,,M,,N,,K,N*2C
[2021-02-22 16:25:43.668] $GPGGA,,,,,,,,,,M,,M,,*56
[2021-02-22 16:25:43.668] $GPVTG,,T,,M,,N,,K,N*2C
[2021-02-22 16:25:43.668] $GPGGA,,,,,,,,,,M,,M,,*56
[2021-02-22 16:25:43.668] $GPVTG,,T,,M,,N,,K,N*2C
[2021-02-22 16:25:43.668] $GPGGA,,,,,,,,,,M,,M,,*56
[2021-02-22 16:25:43.668] $GPVTG,,T,,M,,N,,K,N*2C
[2021-02-22 16:25:43.668] $GPGGA,,,,,,,,,,M,,M,,*56
[2021-02-22 16:25:43.668] $GPVTG,,T,,M,,N,,K,N*2C
[2021-02-22 16:25:43.668] $GPGGA,,,,,,,,,,M,,M,,*56
[2021-02-22 16:25:43.668] $GPVTG,,T,,M,,N,,K,N*2C
[2021-02-22 16:25:43.668] $GPGGA,,,,,,,,,,M,,M,,*56
[2021-02-22 16:25:43.668] $GPVTG,,T,,M,,N,,K,N*2C
[2021-02-22 16:25:43.668] $GPGGA,,,,,,,,,,M,,M,,*56
[2021-02-22 16:25:43.668] $GPVTG,,T,,M,,N,,K,N*2C
[2021-02-22 16:25:43.668] $GPGGA,,,,,,,,,,M,,M,,*56
[2021-02-22 16:25:43.668] $GPVTG,,T,,M,,N,,K,N*2C
[2021-02-22 16:25:43.668] $GPGGA,,,,,,,,,,M,,M,,*56
[2021-02-22 16:25:43.668] $GPVTG,,T,,M,,N,,K,N*2C
[2021-02-22 16:25:43.668] $GPGGA,,,,,,,,,,M,,M,,*56
[2021-02-22 16:25:43.668] $GPVTG,,T,,M,,N,,K,N*2C
[2021-02-22 16:25:43.668] $GPGGA,,,,,,,,,,M,,M,,*56
[2021-02-22 16:25:43.668] $GPVTG,,T,,M,,N,,K,N*2C
[2021-02-22 16:25:43.668] $GPGGA,,,,,,,,,,M,,M,,*56
[2021-02-22 16:25:43.668] $GPVTG,,T,,M,,N,,K,N*2C
[2021-02-22 16:25:43.683] $GPGGA,,,,,,,,,,M,,M,,*56
[2021-02-22 16:25:43.683] $GPVTG,,T,,M,,N,,K,N*2C
[2021-02-22 16:25:43.683] $GPGGA,,,,,,,,,,M,,M,,*56
[2021-02-22 16:25:43.683] $GPVTG,,T,,M,,N,,K,N*2C
[2021-02-22 16:25:43.683] $GPGGA,,,,,,,,,,M,,M,,*56
[2021-02-22 16:25:43.683] $GPVTG,,T,,M,,N,,K,N*2C
[2021-02-22 16:25:43.683] $GPGGA,,,,,,,,,,M,,M,,*56
[2021-02-22 16:25:43.683] $GPVTG,,T,,M,,N,,K,N*2C
[2021-02-22 16:25:43.683] $GPGGA,,,,,,,,,,M,,M,,*56
[2021-02-22 16:25:43.683] $GPVTG,,T,,M,,N,,K,N*2C
[2021-02-22 16:25:43.683] $GPGGA,,,,,,,,,,M,,M,,*56
[2021-02-22 16:25:43.683] $GPVTG,,T,,M,,N,,K,N*2C
[2021-02-22 16:25:43.683] $GPGGA,,,,,,,,,,M,,M,,*56
[2021-02-22 16:25:43.683] $GPVTG,,T,,M,,N,,K,N*2C
[2021-02-22 16:25:43.683] $GPGGA,,,,,,,,,,M,,M,,*56
[2021-02-22 16:25:43.683] $GPVTG,,T,,M,,N,,K,N*2C
[2021-02-22 16:25:43.683] $GPGGA,,,,,,,,,,M,,M,,*56
[2021-02-22 16:25:43.683] $GPVTG,,T,,M,,N,,K,N*2C
[2021-02-22 16:25:43.683] $GPGGA,,,,,,,,,,M,,M,,*56
[2021-02-22 16:25:43.683] $GPVTG,,T,,M,,N,,K,N*2C
[2021-02-22 16:25:43.683] $GPGGA,,,,,,,,,,M,,M,,*56
[2021-02-22 16:25:43.683] $GPVTG,,T,,M,,N,,K,N*2C
[2021-02-22 16:25:43.683] $GPGGA,,,,,,,,,,M,,M,,*56
[2021-02-22 16:25:43.683] $GPVTG,,T,,M,,N,,K,N*2C
[2021-02-22 16:25:43.683] $GPGGA,,,,,,,,,,M,,M,,*56
[2021-02-22 16:25:43.683] $GPVTG,,T,,M,,N,,K,N*2C
[2021-02-22 16:25:43.683] $GPGGA,,,,,,,,,,M,,M,,*56
[2021-02-22 16:25:43.683] $GPVTG,,T,,M,,N,,K,N*2C
[2021-02-22 16:25:43.683] $GPGGA,,,,,,,,,,M,,M,,*56
[2021-02-22 16:25:43.683] $GPVTG,,T,,M,,N,,K,N*2C
[2021-02-22 16:25:43.683] $GPGGA,,,,,,,,,,M,,M,,*56
[2021-02-22 16:25:43.683] $GPVTG,,T,,M,,N,,K,N*2C
[2021-02-22 16:25:43.683] $GPGGA,,,,,,,,,,M,,M,,*56
[2021-02-22 16:25:43.683] $GPVTG,,T,,M,,N,,K,N*2C
[2021-02-22 16:25:43.683] $GPGGA,,,,,,,,,,M,,M,,*56
[2021-02-22 16:25:43.683] $GPVTG,,T,,M,,N,,K,N*2C
[2021-02-22 16:25:43.683] $GPGGA,,,,,,,,,,M,,M,,*56
[2021-02-22 16:25:43.683] $GPVTG,,T,,M,,N,,K,N*2C
[2021-02-22 16:25:43.683] $GPGGA,,,,,,,,,,M,,M,,*56
[2021-02-22 16:25:43.683] $GPVTG,,T,,M,,N,,K,N*2C
[2021-02-22 16:25:43.683] $GPGGA,,,,,,,,,,M,,M,,*56
[2021-02-22 16:25:43.683] $GPVTG,,T,,M,,N,,K,N*2C
[2021-02-22 16:25:43.683] $GPGGA,,,,,,,,,,M,,M,,*56
[2021-02-22 16:25:43.683] $GPVTG,,T,,M,,N,,K,N*2C
[2021-02-22 16:25:43.683] $GPGGA,,,,,,,,,,M,,M,,*56
[2021-02-22 16:25:43.683] $GPVTG,,T,,M,,N,,K,N*2C
[2021-02-22 16:25:43.683] $GPGGA,,,,,,,,,,M,,M,,*56
[2021-02-22 16:25:43.683] $GPVTG,,T,,M,,N,,K,N*2C
[2021-02-22 16:25:43.683] $GPGGA,,,,,,,,,,M,,M,,*56
[2021-02-22 16:25:43.683] $GPVTG,,T,,M,,N,,K,N*2C
[2021-02-22 16:25:43.683] $GPGGA,,,,,,,,,,M,,M,,*56
[2021-02-22 16:25:43.683] $GPVTG,,T,,M,,N,,K,N*2C
[2021-02-22 16:25:43.683] $GPGGA,,,,,,,,,,M,,M,,*56
[2021-02-22 16:25:43.683] $GPVTG,,T,,M,,N,,K,N*2C
[2021-02-22 16:25:43.683] $GPGGA,,,,,,,,,,M,,M,,*56
[2021-02-22 16:25:43.683] $GPVTG,,T,,M,,N,,K,N*2C
[2021-02-22 16:25:43.777] $GPGGA,,,,,,,,,,M,,M,,*56
[2021-02-22 16:25:43.777] $GPVTG,,T,,M,,N,,K,N*2C
[2021-02-22 16:25:43.980] $GPGGA,,,,,,,,,,M,,M,,*56
[2021-02-22 16:25:43.980] $GPVTG,,T,,M,,N,,K,N*2C
[2021-02-22 16:25:44.183] $GPGGA,,,,,,,,,,M,,M,,*56
[2021-02-22 16:25:44.183] $GPVTG,,T,,M,,N,,K,N*2C
[2021-02-22 16:25:44.387] $GPGGA,,,,,,,,,,M,,M,,*56
[2021-02-22 16:25:44.387] $GPVTG,,T,,M,,N,,K,N*2C
[2021-02-22 16:25:44.574] $GPGGA,,,,,,,,,,M,,M,,*56
[2021-02-22 16:25:44.590] $GPVTG,,T,,M,,N,,K,N*2C
[2021-02-22 16:25:44.777] $GPGGA,,,,,,,,,,M,,M,,*56
[2021-02-22 16:25:44.777] $GPVTG,,T,,M,,N,,K,N*2C
[2021-02-22 16:25:44.980] $GPGGA,,,,,,,,,,M,,M,,*56
[2021-02-22 16:25:44.980] $GPVTG,,T,,M,,N,,K,N*2C
[2021-02-22 16:25:45.183] $GPGGA,,,,,,,,,,M,,M,,*56
[2021-02-22 16:25:45.183] $GPVTG,,T,,M,,N,,K,N*2C
[2021-02-22 16:25:45.386] $GPGGA,,,,,,,,,,M,,M,,*56
[2021-02-22 16:25:45.386] $GPVTG,,T,,M,,N,,K,N*2C
[2021-02-22 16:25:45.574] $GPGGA,,,,,,,,,,M,,M,,*56
[2021-02-22 16:25:45.590] $GPVTG,,T,,M,,N,,K,N*2C
[2021-02-22 16:25:45.777] $GPGGA,,,,,,,,,,M,,M,,*56
[2021-02-22 16:25:45.777] $GPVTG,,T,,M,,N,,K,N*2C
[2021-02-22 16:25:45.980] $GPGGA,,,,,,,,,,M,,M,,*56
[2021-02-22 16:25:45.980] $GPVTG,,T,,M,,N,,K,N*2C
[2021-02-22 16:25:46.183] $GPGGA,,,,,,,,,,M,,M,,*56
[2021-02-22 16:25:46.183] $GPVTG,,T,,M,,N,,K,N*2C
[2021-02-22 16:25:46.386] $GPGGA,,,,,,,,,,M,,M,,*56
[2021-02-22 16:25:46.386] $GPVTG,,T,,M,,N,,K,N*2C
[2021-02-22 16:25:46.589] $GPGGA,,,,,,,,,,M,,M,,*56
[2021-02-22 16:25:46.589] $GPVTG,,T,,M,,N,,K,N*2C
[2021-02-22 16:25:46.777] $GPGGA,,,,,,,,,,M,,M,,*56
[2021-02-22 16:25:46.777] $GPVTG,,T,,M,,N,,K,N*2C
[2021-02-22 16:25:46.980] $GPGGA,,,,,,,,,,M,,M,,*56
[2021-02-22 16:25:46.980] $GPVTG,,T,,M,,N,,K,N*2C
[2021-02-22 16:25:47.183] $GPGGA,,,,,,,,,,M,,M,,*56
[2021-02-22 16:25:47.183] $GPVTG,,T,,M,,N,,K,N*2C
[2021-02-22 16:25:47.386] $GPGGA,,,,,,,,,,M,,M,,*56
[2021-02-22 16:25:47.386] $GPVTG,,T,,M,,N,,K,N*2C
[2021-02-22 16:25:47.574] $GPGGA,,,,,,,,,,M,,M,,*56
[2021-02-22 16:25:47.589] $GPVTG,,T,,M,,N,,K,N*2C
[2021-02-22 16:25:47.777] $GPGGA,,,,,,,,,,M,,M,,*56
[2021-02-22 16:25:47.777] $GPVTG,,T,,M,,N,,K,N*2C
[2021-02-22 16:25:47.980] $GPGGA,,,,,,,,,,M,,M,,*56
[2021-02-22 16:25:47.980] $GPVTG,,T,,M,,N,,K,N*2C
[2021-02-22 16:25:48.183] $GPGGA,,,,,,,,,,M,,M,,*56
[2021-02-22 16:25:48.183] $GPVTG,,T,,M,,N,,K,N*2C
[2021-02-22 16:25:48.386] $GPGGA,,,,,,,,,,M,,M,,*56
[2021-02-22 16:25:48.386] $GPVTG,,T,,M,,N,,K,N*2C
[2021-02-22 16:25:48.574] $GPGGA,,,,,,,,,,M,,M,,*56
[2021-02-22 16:25:48.589] $GPVTG,,T,,M,,N,,K,N*2C
[2021-02-22 16:25:48.777] $GPGGA,,,,,,,,,,M,,M,,*56
[2021-02-22 16:25:48.792] $GPVTG,,T,,M,,N,,K,N*2C
[2021-02-22 16:25:48.980] $GPGGA,,,,,,,,,,M,,M,,*56
[2021-02-22 16:25:48.980] $GPVTG,,T,,M,,N,,K,N*2C
[2021-02-22 16:25:49.183] $GPGGA,,,,,,,,,,M,,M,,*56
[2021-02-22 16:25:49.183] $GPVTG,,T,,M,,N,,K,N*2C
[2021-02-22 16:25:49.386] $GPGGA,,,,,,,,,,M,,M,,*56
[2021-02-22 16:25:49.386] $GPVTG,,T,,M,,N,,K,N*2C
[2021-02-22 16:25:49.574] $GPGGA,,,,,,,,,,M,,M,,*56
[2021-02-22 16:25:49.589] $GPVTG,,T,,M,,N,,K,N*2C
[2021-02-22 16:25:49.777] $GPGGA,,,,,,,,,,M,,M,,*56
[2021-02-22 16:25:49.777] $GPVTG,,T,,M,,N,,K,N*2C
[2021-02-22 16:25:49.980] $GPGGA,,,,,,,,,,M,,M,,*56
[2021-02-22 16:25:49.980] $GPVTG,,T,,M,,N,,K,N*2C
[2021-02-22 16:25:50.183] $GPGGA,,,,,,,,,,M,,M,,*56
[2021-02-22 16:25:50.183] $GPVTG,,T,,M,,N,,K,N*2C
[2021-02-22 16:25:50.386] $GPGGA,,,,,,,,,,M,,M,,*56
[2021-02-22 16:25:50.386] $GPVTG,,T,,M,,N,,K,N*2C
[2021-02-22 16:25:50.574] $GPGGA,,,,,,,,,,M,,M,,*56
[2021-02-22 16:25:50.589] $GPVTG,,T,,M,,N,,K,N*2C
[2021-02-22 16:25:50.777] $GPGGA,,,,,,,,,,M,,M,,*56
[2021-02-22 16:25:50.777] $GPVTG,,T,,M,,N,,K,N*2C
[2021-02-22 16:25:50.980] $GPGGA,,,,,,,,,,M,,M,,*56
[2021-02-22 16:25:50.980] $GPVTG,,T,,M,,N,,K,N*2C
[2021-02-22 16:25:51.183] $GPGGA,,,,,,,,,,M,,M,,*56
[2021-02-22 16:25:51.183] $GPVTG,,T,,M,,N,,K,N*2C
[2021-02-22 16:25:51.386] $GPGGA,,,,,,,,,,M,,M,,*56
[2021-02-22 16:25:51.386] $GPVTG,,T,,M,,N,,K,N*2C
[2021-02-22 16:25:51.574] $GPGGA,,,,,,,,,,M,,M,,*56
[2021-02-22 16:25:51.589] $GPVTG,,T,,M,,N,,K,N*2C
[2021-02-22 16:25:51.777] $GPGGA,,,,,,,,,,M,,M,,*56
[2021-02-22 16:25:51.777] $GPVTG,,T,,M,,N,,K,N*2C
[2021-02-22 16:25:51.980] $GPGGA,,,,,,,,,,M,,M,,*56
[2021-02-22 16:25:51.980] $GPVTG,,T,,M,,N,,K,N*2C
[2021-02-22 16:25:52.183] $GPGGA,,,,,,,,,,M,,M,,*56
[2021-02-22 16:25:52.183] $GPVTG,,T,,M,,N,,K,N*2C
[2021-02-22 16:25:52.386] $GPGGA,,,,,,,,,,M,,M,,*56
[2021-02-22 16:25:52.386] $GPVTG,,T,,M,,N,,K,N*2C
[2021-02-22 16:25:52.573] $GPGGA,,,,,,,,,,M,,M,,*56
[2021-02-22 16:25:52.589] $GPVTG,,T,,M,,N,,K,N*2C
[2021-02-22 16:25:52.777] $GPGGA,,,,,,,,,,M,,M,,*56
[2021-02-22 16:25:52.777] $GPVTG,,T,,M,,N,,K,N*2C
[2021-02-22 16:25:52.980] $GPGGA,,,,,,,,,,M,,M,,*56
[2021-02-22 16:25:52.980] $GPVTG,,T,,M,,N,,K,N*2C
[2021-02-22 16:25:53.183] $GPGGA,,,,,,,,,,M,,M,,*56
[2021-02-22 16:25:53.183] $GPVTG,,T,,M,,N,,K,N*2C
[2021-02-22 16:25:53.386] $GPGGA,,,,,,,,,,M,,M,,*56
[2021-02-22 16:25:53.386] $GPVTG,,T,,M,,N,,K,N*2C
[2021-02-22 16:25:53.573] $GPGGA,,,,,,,,,,M,,M,,*56
[2021-02-22 16:25:53.589] $GPVTG,,T,,M,,N,,K,N*2C
[2021-02-22 16:25:53.776] $GPGGA,,,,,,,,,,M,,M,,*56
[2021-02-22 16:25:53.776] $GPVTG,,T,,M,,N,,K,N*2C
[2021-02-22 16:25:53.980] $GPGGA,,,,,,,,,,M,,M,,*56
[2021-02-22 16:25:53.980] $GPVTG,,T,,M,,N,,K,N*2C
[2021-02-22 16:25:54.183] $GPGGA,,,,,,,,,,M,,M,,*56
[2021-02-22 16:25:54.183] $GPVTG,,T,,M,,N,,K,N*2C
[2021-02-22 16:25:54.386] $GPGGA,,,,,,,,,,M,,M,,*56
[2021-02-22 16:25:54.386] $GPVTG,,T,,M,,N,,K,N*2C
[2021-02-22 16:25:54.573] $GPGGA,,,,,,,,,,M,,M,,*56
[2021-02-22 16:25:54.589] $GPVTG,,T,,M,,N,,K,N*2C
[2021-02-22 16:25:54.776] $GPGGA,,,,,,,,,,M,,M,,*56
[2021-02-22 16:25:54.776] $GPVTG,,T,,M,,N,,K,N*2C
[2021-02-22 16:25:54.980] $GPGGA,,,,,,,,,,M,,M,,*56
[2021-02-22 16:25:54.980] $GPVTG,,T,,M,,N,,K,N*2C
[2021-02-22 16:25:55.183] $GPGGA,,,,,,,,,,M,,M,,*56
[2021-02-22 16:25:55.183] $GPVTG,,T,,M,,N,,K,N*2C
[2021-02-22 16:25:55.386] $GPGGA,,,,,,,,,,M,,M,,*56
[2021-02-22 16:25:55.386] $GPVTG,,T,,M,,N,,K,N*2C
[2021-02-22 16:25:55.573] $GPGGA,,,,,,,,,,M,,M,,*56
[2021-02-22 16:25:55.589] $GPVTG,,T,,M,,N,,K,N*2C
[2021-02-22 16:25:55.776] $GPGGA,,,,,,,,,,M,,M,,*56
[2021-02-22 16:25:55.776] $GPVTG,,T,,M,,N,,K,N*2C
[2021-02-22 16:25:55.979] $GPGGA,,,,,,,,,,M,,M,,*56
[2021-02-22 16:25:55.979] $GPVTG,,T,,M,,N,,K,N*2C
[2021-02-22 16:25:56.183] $GPGGA,,,,,,,,,,M,,M,,*56
[2021-02-22 16:25:56.183] $GPVTG,,T,,M,,N,,K,N*2C
[2021-02-22 16:25:56.386] $GPGGA,,,,,,,,,,M,,M,,*56
[2021-02-22 16:25:56.386] $GPVTG,,T,,M,,N,,K,N*2C
[2021-02-22 16:25:56.573] $GPGGA,,,,,,,,,,M,,M,,*56
[2021-02-22 16:25:56.589] $GPVTG,,T,,M,,N,,K,N*2C
[2021-02-22 16:25:56.776] $GPGGA,,,,,,,,,,M,,M,,*56
[2021-02-22 16:25:56.776] $GPVTG,,T,,M,,N,,K,N*2C
[2021-02-22 16:25:56.979] $GPGGA,,,,,,,,,,M,,M,,*56
[2021-02-22 16:25:56.979] $GPVTG,,T,,M,,N,,K,N*2C
[2021-02-22 16:25:57.182] $GPGGA,,,,,,,,,,M,,M,,*56
[2021-02-22 16:25:57.182] $GPVTG,,T,,M,,N,,K,N*2C
[2021-02-22 16:25:57.386] $GPGGA,,,,,,,,,,M,,M,,*56
[2021-02-22 16:25:57.386] $GPVTG,,T,,M,,N,,K,N*2C
[2021-02-22 16:25:57.573] $GPGGA,,,,,,,,,,M,,M,,*56
[2021-02-22 16:25:57.589] $GPVTG,,T,,M,,N,,K,N*2C
[2021-02-22 16:25:57.776] $GPGGA,,,,,,,,,,M,,M,,*56
[2021-02-22 16:25:57.776] $GPVTG,,T,,M,,N,,K,N*2C
[2021-02-22 16:25:57.979] $GPGGA,,,,,,,,,,M,,M,,*56
[2021-02-22 16:25:57.979] $GPVTG,,T,,M,,N,,K,N*2C
[2021-02-22 16:25:58.182] $GPGGA,,,,,,,,,,M,,M,,*56
[2021-02-22 16:25:58.182] $GPVTG,,T,,M,,N,,K,N*2C
[2021-02-22 16:25:58.386] $GPGGA,,,,,,,,,,M,,M,,*56
[2021-02-22 16:25:58.386] $GPVTG,,T,,M,,N,,K,N*2C
[2021-02-22 16:25:58.573] $GPGGA,,,,,,,,,,M,,M,,*56
[2021-02-22 16:25:58.589] $GPVTG,,T,,M,,N,,K,N*2C
[2021-02-22 16:25:58.776] $GPGGA,,,,,,,,,,M,,M,,*56
[2021-02-22 16:25:58.776] $GPVTG,,T,,M,,N,,K,N*2C
[2021-02-22 16:25:58.979] $GPGGA,,,,,,,,,,M,,M,,*56
[2021-02-22 16:25:58.979] $GPVTG,,T,,M,,N,,K,N*2C
[2021-02-22 16:25:59.182] $GPGGA,,,,,,,,,,M,,M,,*56
[2021-02-22 16:25:59.182] $GPVTG,,T,,M,,N,,K,N*2C
[2021-02-22 16:25:59.385] $GPGGA,,,,,,,,,,M,,M,,*56
[2021-02-22 16:25:59.385] $GPVTG,,T,,M,,N,,K,N*2C
[2021-02-22 16:25:59.573] $GPGGA,,,,,,,,,,M,,M,,*56
[2021-02-22 16:25:59.589] $GPVTG,,T,,M,,N,,K,N*2C
[2021-02-22 16:25:59.776] $GPGGA,,,,,,,,,,M,,M,,*56
[2021-02-22 16:25:59.776] $GPVTG,,T,,M,,N,,K,N*2C
[2021-02-22 16:25:59.979] $GPGGA,,,,,,,,,,M,,M,,*56
[2021-02-22 16:25:59.979] $GPVTG,,T,,M,,N,,K,N*2C
[2021-02-22 16:26:00.182] $GPGGA,,,,,,,,,,M,,M,,*56
[2021-02-22 16:26:00.182] $GPVTG,,T,,M,,N,,K,N*2C
[2021-02-22 16:26:00.385] $GPGGA,,,,,,,,,,M,,M,,*56
[2021-02-22 16:26:00.385] $GPVTG,,T,,M,,N,,K,N*2C
[2021-02-22 16:26:00.573] $GPGGA,,,,,,,,,,M,,M,,*56
[2021-02-22 16:26:00.588] $GPVTG,,T,,M,,N,,K,N*2C
[2021-02-22 16:26:00.776] $GPGGA,,,,,,,,,,M,,M,,*56
[2021-02-22 16:26:00.776] $GPVTG,,T,,M,,N,,K,N*2C
[2021-02-22 16:26:00.979] $GPGGA,,,,,,,,,,M,,M,,*56
[2021-02-22 16:26:00.979] $GPVTG,,T,,M,,N,,K,N*2C
[2021-02-22 16:26:01.182] $GPGGA,,,,,,,,,,M,,M,,*56
[2021-02-22 16:26:01.182] $GPVTG,,T,,M,,N,,K,N*2C
[2021-02-22 16:26:01.385] $GPGGA,,,,,,,,,,M,,M,,*56
[2021-02-22 16:26:01.385] $GPVTG,,T,,M,,N,,K,N*2C
[2021-02-22 16:26:01.573] $GPGGA,,,,,,,,,,M,,M,,*56
[2021-02-22 16:26:01.588] $GPVTG,,T,,M,,N,,K,N*2C
[2021-02-22 16:26:01.776] $GPGGA,,,,,,,,,,M,,M,,*56
[2021-02-22 16:26:01.776] $GPVTG,,T,,M,,N,,K,N*2C
[2021-02-22 16:26:01.979] $GPGGA,,,,,,,,,,M,,M,,*56
[2021-02-22 16:26:01.979] $GPVTG,,T,,M,,N,,K,N*2C
[2021-02-22 16:26:02.182] $GPGGA,,,,,,,,,,M,,M,,*56
[2021-02-22 16:26:02.182] $GPVTG,,T,,M,,N,,K,N*2C
[2021-02-22 16:26:02.385] $GPGGA,,,,,,,,,,M,,M,,*56
[2021-02-22 16:26:02.385] $GPVTG,,T,,M,,N,,K,N*2C
[2021-02-22 16:26:02.573] $GPGGA,,,,,,,,,,M,,M,,*56
[2021-02-22 16:26:02.588] $GPVTG,,T,,M,,N,,K,N*2C
[2021-02-22 16:26:02.776] $GPGGA,,,,,,,,,,M,,M,,*56
[2021-02-22 16:26:02.791] $GPVTG,,T,,M,,N,,K,N*2C
[2021-02-22 16:26:02.979] $GPGGA,,,,,,,,,,M,,M,,*56
[2021-02-22 16:26:02.979] $GPVTG,,T,,M,,N,,K,N*2C
[2021-02-22 16:26:03.182] $GPGGA,,,,,,,,,,M,,M,,*56
[2021-02-22 16:26:03.182] $GPVTG,,T,,M,,N,,K,N*2C
[2021-02-22 16:26:03.385] $GPGGA,,,,,,,,,,M,,M,,*56
[2021-02-22 16:26:03.385] $GPVTG,,T,,M,,N,,K,N*2C
[2021-02-22 16:26:03.573] $GPGGA,,,,,,,,,,M,,M,,*56
[2021-02-22 16:26:03.588] $GPVTG,,T,,M,,N,,K,N*2C
[2021-02-22 16:26:03.776] $GPGGA,,,,,,,,,,M,,M,,*56
[2021-02-22 16:26:03.776] $GPVTG,,T,,M,,N,,K,N*2C
[2021-02-22 16:26:03.979] $GPGGA,,,,,,,,,,M,,M,,*56
[2021-02-22 16:26:03.979] $GPVTG,,T,,M,,N,,K,N*2C
[2021-02-22 16:26:04.182] $GPGGA,,,,,,,,,,M,,M,,*56
[2021-02-22 16:26:04.182] $GPVTG,,T,,M,,N,,K,N*2C
[2021-02-22 16:26:04.385] $GPGGA,,,,,,,,,,M,,M,,*56
[2021-02-22 16:26:04.385] $GPVTG,,T,,M,,N,,K,N*2C
[2021-02-22 16:26:04.573] $GPGGA,,,,,,,,,,M,,M,,*56
[2021-02-22 16:26:04.588] $GPVTG,,T,,M,,N,,K,N*2C
[2021-02-22 16:26:04.776] $GPGGA,,,,,,,,,,M,,M,,*56
[2021-02-22 16:26:04.791] $GPVTG,,T,,M,,N,,K,N*2C
[2021-02-22 16:26:04.979] $GPGGA,,,,,,,,,,M,,M,,*56
[2021-02-22 16:26:04.979] $GPVTG,,T,,M,,N,,K,N*2C
[2021-02-22 16:26:05.182] $GPGGA,,,,,,,,,,M,,M,,*56
[2021-02-22 16:26:05.182] $GPVTG,,T,,M,,N,,K,N*2C
[2021-02-22 16:26:05.385] $GPGGA,,,,,,,,,,M,,M,,*56
[2021-02-22 16:26:05.385] $GPVTG,,T,,M,,N,,K,N*2C
[2021-02-22 16:26:05.573] $GPGGA,,,,,,,,,,M,,M,,*56
[2021-02-22 16:26:05.588] $GPVTG,,T,,M,,N,,K,N*2C
[2021-02-22 16:26:05.776] $GPGGA,,,,,,,,,,M,,M,,*56
[2021-02-22 16:26:05.776] $GPVTG,,T,,M,,N,,K,N*2C
[2021-02-22 16:26:05.979] $GPGGA,,,,,,,,,,M,,M,,*56
[2021-02-22 16:26:05.979] $GPVTG,,T,,M,,N,,K,N*2C
[2021-02-22 16:26:06.182] $GPGGA,,,,,,,,,,M,,M,,*56
[2021-02-22 16:26:06.182] $GPVTG,,T,,M,,N,,K,N*2C
[2021-02-22 16:26:06.385] $GPGGA,,,,,,,,,,M,,M,,*56
[2021-02-22 16:26:06.385] $GPVTG,,T,,M,,N,,K,N*2C
[2021-02-22 16:26:06.572] $GPGGA,,,,,,,,,,M,,M,,*56
[2021-02-22 16:26:06.588] $GPVTG,,T,,M,,N,,K,N*2C
[2021-02-22 16:26:06.776] $GPGGA,,,,,,,,,,M,,M,,*56
[2021-02-22 16:26:06.791] $GPVTG,,T,,M,,N,,K,N*2C
[2021-02-22 16:26:06.979] $GPGGA,,,,,,,,,,M,,M,,*56
[2021-02-22 16:26:06.979] $GPVTG,,T,,M,,N,,K,N*2C
[2021-02-22 16:26:07.182] $GPGGA,,,,,,,,,,M,,M,,*56
[2021-02-22 16:26:07.182] $GPVTG,,T,,M,,N,,K,N*2C
[2021-02-22 16:26:07.385] $GPGGA,,,,,,,,,,M,,M,,*56
[2021-02-22 16:26:07.400] $GPVTG,,T,,M,,N,,K,N*2C
[2021-02-22 16:26:07.572] $GPGGA,,,,,,,,,,M,,M,,*56
[2021-02-22 16:26:07.588] $GPVTG,,T,,M,,N,,K,N*2C
[2021-02-22 16:26:07.776] $GPGGA,,,,,,,,,,M,,M,,*56
[2021-02-22 16:26:07.791] $GPVTG,,T,,M,,N,,K,N*2C
[2021-02-22 16:26:07.979] $GPGGA,,,,,,,,,,M,,M,,*56
[2021-02-22 16:26:07.994] $GPVTG,,T,,M,,N,,K,N*2C
[2021-02-22 16:26:08.182] $GPGGA,,,,,,,,,,M,,M,,*56
[2021-02-22 16:26:08.182] $GPVTG,,T,,M,,N,,K,N*2C
[2021-02-22 16:26:08.385] $GPGGA,,,,,,,,,,M,,M,,*56
[2021-02-22 16:26:08.385] $GPVTG,,T,,M,,N,,K,N*2C
[2021-02-22 16:26:08.572] $GPGGA,,,,,,,,,,M,,M,,*56
[2021-02-22 16:26:08.588] $GPVTG,,T,,M,,N,,K,N*2C
[2021-02-22 16:26:08.775] $GPGGA,,,,,,,,,,M,,M,,*56
[2021-02-22 16:26:08.791] $GPVTG,,T,,M,,N,,K,N*2C
[2021-02-22 16:26:08.979] $GPGGA,,,,,,,,,,M,,M,,*56
[2021-02-22 16:26:08.979] $GPVTG,,T,,M,,N,,K,N*2C
[2021-02-22 16:26:09.182] $GPGGA,,,,,,,,,,M,,M,,*56
[2021-02-22 16:26:09.182] $GPVTG,,T,,M,,N,,K,N*2C
[2021-02-22 16:26:09.385] $GPGGA,,,,,,,,,,M,,M,,*56
[2021-02-22 16:26:09.385] $GPVTG,,T,,M,,N,,K,N*2C
[2021-02-22 16:26:09.588] $GPGGA,,,,,,,,,,M,,M,,*56
[2021-02-22 16:26:09.588] $GPVTG,,T,,M,,N,,K,N*2C
[2021-02-22 16:26:09.775] $GPGGA,,,,,,,,,,M,,M,,*56
[2021-02-22 16:26:09.775] $GPVTG,,T,,M,,N,,K,N*2C
[2021-02-22 16:26:09.978] $GPGGA,,,,,,,,,,M,,M,,*56
[2021-02-22 16:26:09.978] $GPVTG,,T,,M,,N,,K,N*2C
[2021-02-22 16:26:10.182] $GPGGA,,,,,,,,,,M,,M,,*56
[2021-02-22 16:26:10.182] $GPVTG,,T,,M,,N,,K,N*2C
[2021-02-22 16:26:10.385] $GPGGA,,,,,,,,,,M,,M,,*56
[2021-02-22 16:26:10.385] $GPVTG,,T,,M,,N,,K,N*2C
[2021-02-22 16:26:10.572] $GPGGA,,,,,,,,,,M,,M,,*56
[2021-02-22 16:26:10.588] $GPVTG,,T,,M,,N,,K,N*2C
[2021-02-22 16:26:10.775] $GPGGA,,,,,,,,,,M,,M,,*56
[2021-02-22 16:26:10.791] $GPVTG,,T,,M,,N,,K,N*2C
[2021-02-22 16:26:10.978] $GPGGA,,,,,,,,,,M,,M,,*56
[2021-02-22 16:26:10.978] $GPVTG,,T,,M,,N,,K,N*2C
[2021-02-22 16:26:11.182] $GPGGA,,,,,,,,,,M,,M,,*56
[2021-02-22 16:26:11.182] $GPVTG,,T,,M,,N,,K,N*2C
[2021-02-22 16:26:11.385] $GPGGA,,,,,,,,,,M,,M,,*56
[2021-02-22 16:26:11.385] $GPVTG,,T,,M,,N,,K,N*2C
[2021-02-22 16:26:11.572] $GPGGA,,,,,,,,,,M,,M,,*56
[2021-02-22 16:26:11.588] $GPVTG,,T,,M,,N,,K,N*2C
[2021-02-22 16:26:11.775] $GPGGA,,,,,,,,,,M,,M,,*56
[2021-02-22 16:26:11.775] $GPVTG,,T,,M,,N,,K,N*2C
[2021-02-22 16:26:11.978] $GPGGA,,,,,,,,,,M,,M,,*56
[2021-02-22 16:26:11.978] $GPVTG,,T,,M,,N,,K,N*2C
[2021-02-22 16:26:12.181] $GPGGA,,,,,,,,,,M,,M,,*56
[2021-02-22 16:26:12.181] $GPVTG,,T,,M,,N,,K,N*2C
[2021-02-22 16:26:12.385] $GPGGA,,,,,,,,,,M,,M,,*56
[2021-02-22 16:26:12.385] $GPVTG,,T,,M,,N,,K,N*2C
[2021-02-22 16:26:12.572] $GPGGA,,,,,,,,,,M,,M,,*56
[2021-02-22 16:26:12.588] $GPVTG,,T,,M,,N,,K,N*2C
[2021-02-22 16:26:12.775] $GPGGA,,,,,,,,,,M,,M,,*56
[2021-02-22 16:26:12.791] $GPVTG,,T,,M,,N,,K,N*2C
[2021-02-22 16:26:12.978] $GPGGA,,,,,,,,,,M,,M,,*56
[2021-02-22 16:26:12.978] $GPVTG,,T,,M,,N,,K,N*2C
[2021-02-22 16:26:13.181] $GPGGA,,,,,,,,,,M,,M,,*56
[2021-02-22 16:26:13.181] $GPVTG,,T,,M,,N,,K,N*2C
[2021-02-22 16:26:13.385] $GPGGA,,,,,,,,,,M,,M,,*56
[2021-02-22 16:26:13.385] $GPVTG,,T,,M,,N,,K,N*2C
[2021-02-22 16:26:13.588] $GPGGA,,,,,,,,,,M,,M,,*56
[2021-02-22 16:26:13.588] $GPVTG,,T,,M,,N,,K,N*2C
[2021-02-22 16:26:13.775] $GPGGA,,,,,,,,,,M,,M,,*56
[2021-02-22 16:26:13.775] $GPVTG,,T,,M,,N,,K,N*2C
[2021-02-22 16:26:13.978] $GPGGA,,,,,,,,,,M,,M,,*56
[2021-02-22 16:26:13.978] $GPVTG,,T,,M,,N,,K,N*2C
[2021-02-22 16:26:14.181] $GPGGA,,,,,,,,,,M,,M,,*56
[2021-02-22 16:26:14.181] $GPVTG,,T,,M,,N,,K,N*2C
[2021-02-22 16:26:14.384] $GPGGA,,,,,,,,,,M,,M,,*56
[2021-02-22 16:26:14.384] $GPVTG,,T,,M,,N,,K,N*2C
[2021-02-22 16:26:14.572] $GPGGA,,,,,,,,,,M,,M,,*56
[2021-02-22 16:26:14.587] $GPVTG,,T,,M,,N,,K,N*2C
[2021-02-22 16:26:14.775] $GPGGA,,,,,,,,,,M,,M,,*56
[2021-02-22 16:26:14.775] $GPVTG,,T,,M,,N,,K,N*2C
[2021-02-22 16:26:14.978] $GPGGA,,,,,,,,,,M,,M,,*56
[2021-02-22 16:26:14.978] $GPVTG,,T,,M,,N,,K,N*2C
[2021-02-22 16:26:15.181] $GPGGA,,,,,,,,,,M,,M,,*56
[2021-02-22 16:26:15.181] $GPVTG,,T,,M,,N,,K,N*2C
[2021-02-22 16:26:15.384] $GPGGA,,,,,,,,,,M,,M,,*56
[2021-02-22 16:26:15.384] $GPVTG,,T,,M,,N,,K,N*2C
[2021-02-22 16:26:15.587] $GPGGA,072615.20,3713.98644518,N,13701.47895674,E,1,04,3.0,99.539,M,36.771,M,,*5E
[2021-02-22 16:26:15.587] $GPVTG,219.30,T,227.75,M,0.41,N,0.76,K,A*2B
[2021-02-22 16:26:15.791] $GPGGA,072615.40,3713.98543424,N,13701.47979500,E,1,05,2.7,94.274,M,36.771,M,,*55
[2021-02-22 16:26:15.791] $GPVTG,323.51,T,331.96,M,0.11,N,0.21,K,A*28
[2021-02-22 16:26:15.884] $GPGGA,072615.50,3713.98543819,N,13701.47979634,E,1,05,2.7,94.238,M,36.771,M,,*5A
[2021-02-22 16:26:15.884] $GPVTG,15.27,T,23.72,M,0.15,N,0.28,K,A*28
[2021-02-22 16:26:15.978] $GPGGA,072615.60,3713.98572698,N,13701.47977633,E,1,06,2.4,96.818,M,36.771,M,,*5F
[2021-02-22 16:26:15.994] $GPVTG,348.03,T,356.48,M,0.17,N,0.31,K,A*27
[2021-02-22 16:26:16.087] $GPGGA,072615.70,3713.98573187,N,13701.47977430,E,1,06,2.4,96.815,M,36.771,M,,*5A
[2021-02-22 16:26:16.087] $GPVTG,344.89,T,353.34,M,0.19,N,0.34,K,A*2C
[2021-02-22 16:26:16.181] $GPGGA,072615.80,3713.98556585,N,13701.47953708,E,1,07,2.3,98.971,M,36.771,M,,*51
[2021-02-22 16:26:16.197] $GPVTG,355.68,T,4.13,M,0.19,N,0.35,K,A*26
[2021-02-22 16:26:16.275] $GPGGA,072615.90,3713.98556799,N,13701.47953396,E,1,07,2.3,98.968,M,36.771,M,,*54
[2021-02-22 16:26:16.290] $GPVTG,334.04,T,342.49,M,0.15,N,0.27,K,A*2A
[2021-02-22 16:26:16.384] $GPGGA,072616.00,3713.98553009,N,13701.47948728,E,1,07,2.3,99.109,M,36.771,M,,*50
[2021-02-22 16:26:16.400] $GPVTG,332.59,T,341.04,M,0.15,N,0.28,K,A*21
[2021-02-22 16:26:16.478] $GPGGA,072616.10,3713.98553085,N,13701.47948679,E,1,07,2.3,99.102,M,36.771,M,,*5B
[2021-02-22 16:26:16.494] $GPVTG,325.22,T,333.67,M,0.09,N,0.16,K,A*2B
[2021-02-22 16:26:16.587] $GPGGA,072616.20,3713.98553475,N,13701.47946188,E,1,07,2.3,99.143,M,36.771,M,,*51
[2021-02-22 16:26:16.603] $GPVTG,316.30,T,324.75,M,0.11,N,0.20,K,A*21
[2021-02-22 16:26:16.681] $GPGGA,072616.30,3713.98553143,N,13701.47946200,E,1,07,2.3,99.153,M,36.771,M,,*52
[2021-02-22 16:26:16.681] $GPVTG,283.53,T,291.98,M,0.05,N,0.09,K,A*2B
[2021-02-22 16:26:16.791] $GPGGA,072616.40,3713.98534885,N,13701.47952035,E,1,08,2.0,99.694,M,36.771,M,,*56
[2021-02-22 16:26:16.806] $GPVTG,283.53,T,291.98,M,0.04,N,0.08,K,A*2B
[2021-02-22 16:26:16.884] $GPGGA,072616.50,3713.98534884,N,13701.47951793,E,1,08,2.0,99.688,M,36.771,M,,*53
[2021-02-22 16:26:16.884] $GPVTG,255.87,T,264.32,M,0.05,N,0.10,K,A*2B
[2021-02-22 16:26:16.994] $GPGGA,072616.60,3713.98524962,N,13701.47955449,E,1,08,2.0,100.029,M,36.771,M,,*64
[2021-02-22 16:26:16.994] $GPVTG,255.20,T,263.64,M,0.07,N,0.12,K,A*22
[2021-02-22 16:26:17.087] $GPGGA,072616.70,3713.98525175,N,13701.47955337,E,1,08,2.0,100.023,M,36.771,M,,*6E
[2021-02-22 16:26:17.087] $GPVTG,278.91,T,287.36,M,0.05,N,0.09,K,A*22
[2021-02-22 16:26:17.181] $GPGGA,072616.80,3713.98526274,N,13701.47953764,E,1,08,2.0,100.244,M,36.771,M,,*67
[2021-02-22 16:26:17.197] $GPVTG,225.54,T,233.99,M,0.02,N,0.04,K,A*23
[2021-02-22 16:26:17.275] $GPGGA,072616.90,3713.98526376,N,13701.47953704,E,1,08,2.0,100.237,M,36.771,M,,*67
[2021-02-22 16:26:17.290] $GPVTG,223.99,T,232.44,M,0.01,N,0.02,K,A*20
[2021-02-22 16:26:17.384] $GPGGA,072617.00,3713.98537606,N,13701.47949758,E,1,09,1.3,99.938,M,36.771,M,,*5B
[2021-02-22 16:26:17.400] $GPVTG,93.40,T,101.85,M,0.02,N,0.04,K,A*16
[2021-02-22 16:26:17.478] $GPGGA,072617.10,3713.98537779,N,13701.47949250,E,1,09,1.3,99.936,M,36.771,M,,*50
[2021-02-22 16:26:17.494] $GPVTG,297.54,T,305.99,M,0.03,N,0.06,K,A*2D
[2021-02-22 16:26:17.587] $GPGGA,072617.20,3713.98551319,N,13701.47945373,E,1,09,1.3,99.724,M,36.771,M,,*50
[2021-02-22 16:26:17.587] $GPVTG,285.76,T,294.21,M,0.02,N,0.04,K,A*27
[2021-02-22 16:26:17.681] $GPGGA,072617.30,3713.98551685,N,13701.47945127,E,1,09,1.3,99.722,M,36.771,M,,*54
[2021-02-22 16:26:17.697] $GPVTG,332.05,T,340.50,M,0.07,N,0.12,K,A*22
[2021-02-22 16:26:17.790] $GPGGA,072617.40,3713.98612842,N,13701.47920734,E,1,10,1.0,97.882,M,36.771,M,,*55
[2021-02-22 16:26:17.790] $GPVTG,334.06,T,342.51,M,0.10,N,0.18,K,A*28
[2021-02-22 16:26:17.884] $GPGGA,072617.50,3713.98612932,N,13701.47920893,E,1,10,1.0,97.882,M,36.771,M,,*50
[2021-02-22 16:26:17.884] $GPVTG,355.42,T,3.87,M,0.08,N,0.14,K,A*27
[2021-02-22 16:26:17.994] $GPGGA,072617.60,3713.98640907,N,13701.47909899,E,1,10,1.0,97.226,M,36.771,M,,*57
[2021-02-22 16:26:17.994] $GPVTG,9.15,T,17.60,M,0.11,N,0.20,K,A*1C
[2021-02-22 16:26:18.087] $GPGGA,072617.70,3713.98640767,N,13701.47909694,E,1,10,1.0,97.225,M,36.771,M,,*5E
[2021-02-22 16:26:18.087] $GPVTG,344.76,T,353.21,M,0.04,N,0.08,K,A*2B
[2021-02-22 16:26:18.181] $GPGGA,072617.80,3713.98672014,N,13701.47903041,E,1,12,0.9,97.150,M,36.771,M,,*5C
[2021-02-22 16:26:18.197] $GPVTG,158.50,T,166.95,M,0.01,N,0.02,K,A*24
[2021-02-22 16:26:18.275] $GPGGA,072617.90,3713.98672063,N,13701.47902945,E,1,11,0.9,97.151,M,36.771,M,,*53
[2021-02-22 16:26:18.290] $GPVTG,217.28,T,225.73,M,0.01,N,0.02,K,A*2F
[2021-02-22 16:26:18.384] $GPGGA,072618.00,3713.98679031,N,13701.47899649,E,1,12,0.9,97.190,M,36.771,M,,*57
[2021-02-22 16:26:18.400] $GPVTG,221.38,T,229.83,M,0.06,N,0.11,K,A*2D
[2021-02-22 16:26:18.478] $GPGGA,072618.10,3713.98678795,N,13701.47899310,E,1,12,0.9,97.189,M,36.771,M,,*5F
[2021-02-22 16:26:18.493] $GPVTG,221.98,T,230.43,M,0.10,N,0.19,K,A*2C
[2021-02-22 16:26:18.587] $GPGGA,072618.20,3713.98688551,N,13701.47896777,E,1,13,0.9,97.225,M,36.771,M,,*57
[2021-02-22 16:26:18.603] $GPVTG,226.50,T,234.95,M,0.11,N,0.20,K,A*2B
[2021-02-22 16:26:18.681] $GPGGA,072618.30,3713.98688698,N,13701.47896429,E,1,12,0.9,97.223,M,36.771,M,,*5F
[2021-02-22 16:26:18.681] $GPVTG,252.97,T,261.42,M,0.10,N,0.18,K,A*23
[2021-02-22 16:26:18.790] $GPGGA,072618.40,3713.98699798,N,13701.47893790,E,1,14,0.9,97.302,M,36.771,M,,*59
[2021-02-22 16:26:18.790] $GPVTG,259.08,T,267.53,M,0.09,N,0.16,K,A*2E
[2021-02-22 16:26:18.884] $GPGGA,072618.50,3713.98699702,N,13701.47893655,E,1,13,0.9,97.299,M,36.771,M,,*57
[2021-02-22 16:26:18.884] $GPVTG,252.55,T,261.00,M,0.08,N,0.14,K,A*2E
[2021-02-22 16:26:18.993] $GPGGA,072618.60,3713.98706901,N,13701.47892952,E,1,14,0.9,97.355,M,36.771,M,,*51
[2021-02-22 16:26:18.993] $GPVTG,264.05,T,272.50,M,0.05,N,0.09,K,A*28
[2021-02-22 16:26:19.087] $GPGGA,072618.70,3713.98706964,N,13701.47893101,E,1,14,0.9,97.352,M,36.771,M,,*5B
[2021-02-22 16:26:19.087] $GPVTG,321.76,T,330.21,M,0.02,N,0.03,K,A*20
[2021-02-22 16:26:19.197] $GPGGA,072618.80,3713.98717022,N,13701.47892098,E,1,14,0.9,97.457,M,36.771,M,,*5D
[2021-02-22 16:26:19.197] $GPVTG,8.25,T,16.70,M,0.05,N,0.09,K,A*10
[2021-02-22 16:26:19.275] $GPGGA,072618.90,3713.98717094,N,13701.47892251,E,1,14,0.9,97.454,M,36.771,M,,*55
[2021-02-22 16:26:19.290] $GPVTG,32.83,T,41.27,M,0.06,N,0.10,K,A*2E
[2021-02-22 16:26:19.384] $GPGGA,072619.00,3713.98725035,N,13701.47891185,E,1,14,0.9,97.534,M,36.771,M,,*59
[2021-02-22 16:26:19.400] $GPVTG,14.40,T,22.85,M,0.08,N,0.14,K,A*22
[2021-02-22 16:26:19.478] $GPGGA,072619.10,3713.98725278,N,13701.47891258,E,1,14,0.9,97.530,M,36.771,M,,*54
[2021-02-22 16:26:19.493] $GPVTG,16.67,T,25.12,M,0.09,N,0.17,K,A*2E
[2021-02-22 16:26:19.587] $GPGGA,072619.20,3713.98730845,N,13701.47890524,E,1,14,0.9,97.592,M,36.771,M,,*52
[2021-02-22 16:26:19.603] $GPVTG,24.55,T,33.00,M,0.09,N,0.16,K,A*2B
[2021-02-22 16:26:19.681] $GPGGA,072619.30,3713.98730900,N,13701.47890509,E,1,14,0.9,97.590,M,36.771,M,,*5E
[2021-02-22 16:26:19.697] $GPVTG,21.44,T,29.89,M,0.06,N,0.11,K,A*2C
[2021-02-22 16:26:19.790] $GPGGA,072619.40,3713.98735694,N,13701.47889572,E,1,14,0.9,97.628,M,36.771,M,,*5A
[2021-02-22 16:26:19.790] $GPVTG,1.90,T,10.35,M,0.04,N,0.08,K,A*10
[2021-02-22 16:26:19.884] $GPGGA,072619.50,3713.98735744,N,13701.47889499,E,1,14,0.9,97.626,M,36.771,M,,*5D
[2021-02-22 16:26:19.884] $GPVTG,340.97,T,349.42,M,0.03,N,0.06,K,A*27
[2021-02-22 16:26:19.993] $GPGGA,072619.60,3713.98740032,N,13701.47888443,E,1,14,0.9,97.652,M,36.771,M,,*5F
[2021-02-22 16:26:19.993] $GPVTG,291.34,T,299.79,M,0.06,N,0.11,K,A*24
[2021-02-22 16:26:20.087] $GPGGA,072619.70,3713.98739997,N,13701.47888316,E,1,14,0.9,97.651,M,36.771,M,,*52
[2021-02-22 16:26:20.087] $GPVTG,274.58,T,283.03,M,0.06,N,0.11,K,A*23
[2021-02-22 16:26:20.196] $GPGGA,072619.80,3713.98743276,N,13701.47887638,E,1,14,0.9,97.683,M,36.771,M,,*5D
[2021-02-22 16:26:20.196] $GPVTG,274.17,T,282.62,M,0.05,N,0.10,K,A*2C
[2021-02-22 16:26:20.275] $GPGGA,072619.90,3713.98743091,N,13701.47887880,E,1,14,0.9,97.678,M,36.771,M,,*5E
[2021-02-22 16:26:20.290] $GPVTG,212.31,T,220.76,M,0.03,N,0.06,K,A*24
[2021-02-22 16:26:20.384] $GPGGA,072620.00,3713.98745615,N,13701.47887406,E,1,14,0.9,97.708,M,36.771,M,,*55
[2021-02-22 16:26:20.400] $GPVTG,124.79,T,133.23,M,0.01,N,0.02,K,A*29
[2021-02-22 16:26:20.478] $GPGGA,072620.10,3713.98745567,N,13701.47887536,E,1,14,0.9,97.709,M,36.771,M,,*51
[2021-02-22 16:26:20.493] $GPVTG,116.11,T,124.56,M,0.03,N,0.05,K,A*27
[2021-02-22 16:26:20.587] $GPGGA,072620.20,3713.98747032,N,13701.47887084,E,1,14,0.9,97.741,M,36.771,M,,*55
[2021-02-22 16:26:20.603] $GPVTG,101.53,T,109.98,M,0.06,N,0.10,K,A*2B
[2021-02-22 16:26:20.681] $GPGGA,072620.30,3713.98747109,N,13701.47887006,E,1,14,0.9,97.744,M,36.771,M,,*52
[2021-02-22 16:26:20.696] $GPVTG,85.85,T,94.30,M,0.03,N,0.06,K,A*28
[2021-02-22 16:26:20.790] $GPGGA,072620.40,3713.98749513,N,13701.47886817,E,1,14,0.9,97.763,M,36.771,M,,*58
[2021-02-22 16:26:20.806] $GPVTG,75.25,T,83.70,M,0.06,N,0.11,K,A*2C
[2021-02-22 16:26:20.884] $GPGGA,072620.50,3713.98749826,N,13701.47886978,E,1,14,0.9,97.763,M,36.771,M,,*5A
[2021-02-22 16:26:20.884] $GPVTG,47.61,T,56.06,M,0.09,N,0.17,K,A*2D
[2021-02-22 16:26:20.993] $GPGGA,072620.60,3713.98751940,N,13701.47886477,E,1,14,0.9,97.779,M,36.771,M,,*58
[2021-02-22 16:26:20.993] $GPVTG,39.17,T,47.62,M,0.08,N,0.15,K,A*24
[2021-02-22 16:26:21.087] $GPGGA,072620.70,3713.98752215,N,13701.47886639,E,1,14,0.9,97.780,M,36.771,M,,*5F
[2021-02-22 16:26:21.087] $GPVTG,31.99,T,40.44,M,0.10,N,0.19,K,A*2C
[2021-02-22 16:26:21.196] $GPGGA,072620.80,3713.98753916,N,13701.47886138,E,1,14,0.9,97.794,M,36.771,M,,*5A
[2021-02-22 16:26:21.196] $GPVTG,32.16,T,40.61,M,0.10,N,0.18,K,A*2E
[2021-02-22 16:26:21.275] $GPGGA,072620.90,3713.98754121,N,13701.47885966,E,1,14,0.9,97.793,M,36.771,M,,*57
[2021-02-22 16:26:21.290] $GPVTG,9.84,T,18.29,M,0.08,N,0.15,K,A*18
[2021-02-22 16:26:21.384] $GPGGA,072621.00,3713.98755332,N,13701.47885211,E,1,14,0.9,97.810,M,36.771,M,,*51
[2021-02-22 16:26:21.400] $GPVTG,344.92,T,353.37,M,0.05,N,0.09,K,A*26
[2021-02-22 16:26:21.478] $GPGGA,072621.10,3713.98755422,N,13701.47885077,E,1,14,0.9,97.809,M,36.771,M,,*5C
[2021-02-22 16:26:21.493] $GPVTG,318.07,T,326.51,M,0.05,N,0.09,K,A*21
[2021-02-22 16:26:21.587] $GPGGA,072621.20,3713.98756428,N,13701.47884464,E,1,14,0.9,97.823,M,36.771,M,,*59
[2021-02-22 16:26:21.603] $GPVTG,300.92,T,309.37,M,0.04,N,0.07,K,A*26
[2021-02-22 16:26:21.681] $GPGGA,072621.30,3713.98756394,N,13701.47884495,E,1,14,0.9,97.818,M,36.771,M,,*5E
[2021-02-22 16:26:21.696] $GPVTG,269.47,T,277.92,M,0.03,N,0.05,K,A*22
[2021-02-22 16:26:21.790] $GPGGA,072621.40,3713.98756988,N,13701.47883919,E,1,14,0.9,97.831,M,36.771,M,,*5B
[2021-02-22 16:26:21.790] $GPVTG,234.40,T,242.85,M,0.03,N,0.06,K,A*2E
[2021-02-22 16:26:21.884] $GPGGA,072621.50,3713.98757382,N,13701.47883890,E,1,14,0.9,97.826,M,36.771,M,,*5D
[2021-02-22 16:26:21.884] $GPVTG,325.54,T,333.99,M,0.04,N,0.07,K,A*26
[2021-02-22 16:26:21.993] $GPGGA,072621.60,3713.98758093,N,13701.47883222,E,1,14,0.9,97.832,M,36.771,M,,*54
[2021-02-22 16:26:21.993] $GPVTG,322.26,T,330.71,M,0.06,N,0.10,K,A*25
[2021-02-22 16:26:22.087] $GPGGA,072621.70,3713.98757900,N,13701.47882776,E,1,14,0.9,97.829,M,36.771,M,,*56
[2021-02-22 16:26:22.087] $GPVTG,271.57,T,280.02,M,0.07,N,0.13,K,A*28
[2021-02-22 16:26:22.196] $GPGGA,072621.80,3713.98758655,N,13701.47882267,E,1,14,0.9,97.828,M,36.771,M,,*5D
[2021-02-22 16:26:22.196] $GPVTG,304.19,T,312.63,M,0.08,N,0.15,K,A*25
[2021-02-22 16:26:22.275] $GPGGA,072621.90,3713.98758515,N,13701.47882054,E,1,14,0.9,97.827,M,36.771,M,,*56
[2021-02-22 16:26:22.290] $GPVTG,280.69,T,289.14,M,0.07,N,0.14,K,A*22
[2021-02-22 16:26:22.399] $GPGGA,072622.00,3713.98758768,N,13701.47881545,E,1,14,0.9,97.832,M,36.771,M,,*56
[2021-02-22 16:26:22.399] $GPVTG,273.97,T,282.42,M,0.08,N,0.14,K,A*28
[2021-02-22 16:26:22.478] $GPGGA,072622.10,3713.98758798,N,13701.47881931,E,1,14,0.9,97.828,M,36.771,M,,*5C
[2021-02-22 16:26:22.493] $GPVTG,298.28,T,306.73,M,0.02,N,0.04,K,A*2D
[2021-02-22 16:26:22.587] $GPGGA,072622.20,3713.98759156,N,13701.47881793,E,1,14,0.9,97.834,M,36.771,M,,*51
[2021-02-22 16:26:22.603] $GPVTG,358.60,T,7.05,M,0.02,N,0.03,K,A*28
[2021-02-22 16:26:22.681] $GPGGA,072622.30,3713.98758998,N,13701.47881421,E,1,14,0.9,97.833,M,36.771,M,,*56
[2021-02-22 16:26:22.696] $GPVTG,245.07,T,253.52,M,0.04,N,0.07,K,A*27
[2021-02-22 16:26:22.790] $GPGGA,072622.40,3713.98759401,N,13701.47881528,E,1,14,0.9,97.839,M,36.771,M,,*5F
[2021-02-22 16:26:22.790] $GPVTG,63.02,T,71.47,M,0.01,N,0.02,K,A*22
[2021-02-22 16:26:22.884] $GPGGA,072622.50,3713.98759489,N,13701.47881555,E,1,14,0.9,97.837,M,36.771,M,,*5A
[2021-02-22 16:26:22.884] $GPVTG,51.25,T,59.70,M,0.02,N,0.04,K,A*2D
[2021-02-22 16:26:22.993] $GPGGA,072622.60,3713.98759792,N,13701.47881123,E,1,14,0.9,97.839,M,36.771,M,,*5B
[2021-02-22 16:26:22.993] $GPVTG,15.16,T,23.61,M,0.00,N,0.01,K,A*27
[2021-02-22 16:26:23.087] $GPGGA,072622.70,3713.98759753,N,13701.47880857,E,1,14,0.9,97.843,M,36.771,M,,*51
[2021-02-22 16:26:23.087] $GPVTG,259.12,T,267.57,M,0.02,N,0.05,K,A*28
[2021-02-22 16:26:23.196] $GPGGA,072622.80,3713.98760173,N,13701.47880503,E,1,14,0.9,97.841,M,36.771,M,,*5E
[2021-02-22 16:26:23.196] $GPVTG,264.00,T,272.45,M,0.02,N,0.04,K,A*23
[2021-02-22 16:26:23.274] $GPGGA,072622.90,3713.98760171,N,13701.47880290,E,1,14,0.9,97.836,M,36.771,M,,*50
[2021-02-22 16:26:23.290] $GPVTG,254.29,T,262.74,M,0.04,N,0.08,K,A*22
[2021-02-22 16:26:23.384] $GPGGA,072623.00,3713.98760675,N,13701.47879926,E,1,14,0.9,97.833,M,36.771,M,,*5E
[2021-02-22 16:26:23.399] $GPVTG,254.65,T,263.10,M,0.04,N,0.07,K,A*26
[2021-02-22 16:26:23.478] $GPGGA,072623.10,3713.98760607,N,13701.47880179,E,1,14,0.9,97.839,M,36.771,M,,*54
[2021-02-22 16:26:23.493] $GPVTG,156.66,T,165.11,M,0.01,N,0.02,K,A*20
[2021-02-22 16:26:23.587] $GPGGA,072623.20,3713.98761496,N,13701.47880033,E,1,14,0.9,97.830,M,36.771,M,,*5A
[2021-02-22 16:26:23.602] $GPVTG,32.57,T,41.02,M,0.03,N,0.05,K,A*21
[2021-02-22 16:26:23.681] $GPGGA,072623.30,3713.98761630,N,13701.47879885,E,1,14,0.9,97.829,M,36.771,M,,*5E
[2021-02-22 16:26:23.696] $GPVTG,356.82,T,5.27,M,0.03,N,0.06,K,A*2C
[2021-02-22 16:26:23.790] $GPGGA,072623.40,3713.98762288,N,13701.47879763,E,1,14,0.9,97.829,M,36.771,M,,*5A
[2021-02-22 16:26:23.790] $GPVTG,23.61,T,32.06,M,0.04,N,0.07,K,A*21
[2021-02-22 16:26:23.884] $GPGGA,072623.50,3713.98762380,N,13701.47879757,E,1,14,0.9,97.825,M,36.771,M,,*59
[2021-02-22 16:26:23.884] $GPVTG,16.80,T,25.25,M,0.03,N,0.06,K,A*29
[2021-02-22 16:26:23.993] $GPGGA,072623.60,3713.98762983,N,13701.47879471,E,1,14,0.9,97.821,M,36.771,M,,*50
[2021-02-22 16:26:23.993] $GPVTG,35.76,T,44.21,M,0.03,N,0.06,K,A*22
[2021-02-22 16:26:24.087] $GPGGA,072623.70,3713.98763040,N,13701.47879631,E,1,14,0.9,97.816,M,36.771,M,,*54
[2021-02-22 16:26:24.087] $GPVTG,53.67,T,62.12,M,0.04,N,0.07,K,A*20
[2021-02-22 16:26:24.196] $GPGGA,072623.80,3713.98763654,N,13701.47879264,E,1,14,0.9,97.819,M,36.771,M,,*53
[2021-02-22 16:26:24.196] $GPVTG,56.09,T,64.54,M,0.04,N,0.07,K,A*29
[2021-02-22 16:26:24.274] $GPGGA,072623.90,3713.98764087,N,13701.47879275,E,1,14,0.9,97.818,M,36.771,M,,*5C
[2021-02-22 16:26:24.290] $GPVTG,22.26,T,30.71,M,0.08,N,0.15,K,A*2E
[2021-02-22 16:26:24.384] $GPGGA,072624.00,3713.98764766,N,13701.47878930,E,1,14,0.9,97.816,M,36.771,M,,*5F
[2021-02-22 16:26:24.399] $GPVTG,20.37,T,28.81,M,0.07,N,0.13,K,A*23
[2021-02-22 16:26:24.477] $GPGGA,072624.10,3713.98764835,N,13701.47878925,E,1,14,0.9,97.821,M,36.771,M,,*57
[2021-02-22 16:26:24.493] $GPVTG,16.98,T,25.43,M,0.06,N,0.11,K,A*23
[2021-02-22 16:26:24.587] $GPGGA,072624.20,3713.98765237,N,13701.47878135,E,1,14,0.9,97.814,M,36.771,M,,*52
[2021-02-22 16:26:24.602] $GPVTG,329.68,T,338.13,M,0.04,N,0.07,K,A*2C
[2021-02-22 16:26:24.681] $GPGGA,072624.30,3713.98765829,N,13701.47878584,E,1,14,0.9,97.813,M,36.771,M,,*5F
[2021-02-22 16:26:24.696] $GPVTG,18.25,T,26.70,M,0.11,N,0.21,K,A*2D
[2021-02-22 16:26:24.790] $GPGGA,072624.40,3713.98766378,N,13701.47878205,E,1,14,0.9,97.811,M,36.771,M,,*58
[2021-02-22 16:26:24.806] $GPVTG,21.62,T,30.07,M,0.11,N,0.20,K,A*22
[2021-02-22 16:26:24.884] $GPGGA,072624.50,3713.98766460,N,13701.47877863,E,1,14,0.9,97.809,M,36.771,M,,*5B
[2021-02-22 16:26:24.899] $GPVTG,351.92,T,0.37,M,0.07,N,0.13,K,A*2E
[2021-02-22 16:26:24.993] $GPGGA,072624.60,3713.98767078,N,13701.47877101,E,1,14,0.9,97.801,M,36.771,M,,*51
[2021-02-22 16:26:24.993] $GPVTG,340.60,T,349.05,M,0.09,N,0.16,K,A*27
[2021-02-22 16:26:25.087] $GPGGA,072624.70,3713.98768077,N,13701.47877383,E,1,14,0.9,97.797,M,36.771,M,,*58
[2021-02-22 16:26:25.087] $GPVTG,4.54,T,12.99,M,0.20,N,0.36,K,A*12
[2021-02-22 16:26:25.196] $GPGGA,072624.80,3713.98769085,N,13701.47876976,E,1,14,0.9,97.797,M,36.771,M,,*5A
[2021-02-22 16:26:25.196] $GPVTG,10.93,T,19.38,M,0.26,N,0.49,K,A*22
[2021-02-22 16:26:25.274] $GPGGA,072624.90,3713.98769247,N,13701.47876710,E,1,14,0.9,97.795,M,36.771,M,,*5B
[2021-02-22 16:26:25.290] $GPVTG,0.56,T,9.01,M,0.20,N,0.37,K,A*2E
[2021-02-22 16:26:25.384] $GPGGA,072625.00,3713.98769716,N,13701.47875828,E,1,14,0.9,97.790,M,36.771,M,,*50
[2021-02-22 16:26:25.399] $GPVTG,353.46,T,1.91,M,0.18,N,0.33,K,A*24
[2021-02-22 16:26:25.477] $GPGGA,072625.10,3713.98768953,N,13701.47875814,E,1,14,0.9,97.798,M,36.771,M,,*58
[2021-02-22 16:26:25.493] $GPVTG,284.03,T,292.48,M,0.03,N,0.06,K,A*2E
[2021-02-22 16:26:25.587] $GPGGA,072625.20,3713.98820533,N,13701.47756496,E,4,06,2.5,95.334,M,36.771,M,2.2,0000*7C
[2021-02-22 16:26:25.602] $GPVTG,191.30,T,199.75,M,0.14,N,0.26,K,D*2E
[2021-02-22 16:26:25.681] $GPGGA,072625.30,3713.98820259,N,13701.47756881,E,4,06,2.5,95.329,M,36.771,M,2.3,0000*71
[2021-02-22 16:26:25.696] $GPVTG,181.82,T,190.27,M,0.18,N,0.34,K,D*27
[2021-02-22 16:26:25.790] $GPGGA,072625.40,3713.98819633,N,13701.47756651,E,4,06,2.5,95.332,M,36.771,M,2.4,0000*7A
[2021-02-22 16:26:25.805] $GPVTG,174.69,T,183.14,M,0.28,N,0.51,K,D*2A
[2021-02-22 16:26:25.884] $GPGGA,072625.50,3713.98819439,N,13701.47756430,E,4,06,2.5,95.333,M,36.771,M,2.5,0000*76
[2021-02-22 16:26:25.899] $GPVTG,183.77,T,192.22,M,0.27,N,0.50,K,D*26
[2021-02-22 16:26:25.993] $GPGGA,072625.60,3713.98818956,N,13701.47755910,E,4,06,2.5,95.334,M,36.771,M,2.6,0000*78
[2021-02-22 16:26:25.993] $GPVTG,186.36,T,194.81,M,0.26,N,0.47,K,D*2E
[2021-02-22 16:26:26.087] $GPGGA,072625.70,3713.98818916,N,13701.47756103,E,4,06,2.5,95.319,M,36.771,M,2.7,0000*7A
[2021-02-22 16:26:26.087] $GPVTG,184.12,T,192.57,M,0.20,N,0.38,K,D*29
[2021-02-22 16:26:26.196] $GPGGA,072625.80,3713.98819211,N,13701.47756211,E,4,06,2.5,95.324,M,36.771,M,2.8,0000*79
[2021-02-22 16:26:26.196] $GPVTG,190.80,T,199.25,M,0.12,N,0.21,K,D*20
[2021-02-22 16:26:26.290] $GPGGA,072625.90,3713.98819246,N,13701.47756438,E,4,06,2.5,95.336,M,36.771,M,2.9,0000*75
[2021-02-22 16:26:26.290] $GPVTG,186.74,T,195.19,M,0.10,N,0.18,K,D*27
[2021-02-22 16:26:26.399] $GPGGA,072626.00,3713.98818801,N,13701.47755955,E,4,06,2.5,95.324,M,36.771,M,3.0,0000*79
[2021-02-22 16:26:26.399] $GPVTG,223.35,T,231.80,M,0.04,N,0.08,K,D*27
[2021-02-22 16:26:26.477] $GPGGA,072626.10,3713.98818640,N,13701.47755768,E,4,06,2.5,95.323,M,36.771,M,3.1,0000*75
[2021-02-22 16:26:26.493] $GPVTG,240.40,T,248.85,M,0.05,N,0.09,K,D*2B
[2021-02-22 16:26:26.587] $GPGGA,072626.20,3713.98818596,N,13701.47755648,E,4,06,2.5,95.322,M,36.771,M,3.2,0000*7F
[2021-02-22 16:26:26.602] $GPVTG,254.76,T,263.21,M,0.06,N,0.11,K,D*26
[2021-02-22 16:26:26.680] $GPGGA,072626.30,3713.98818047,N,13701.47755854,E,4,06,2.5,95.323,M,36.771,M,3.3,0000*74
[2021-02-22 16:26:26.696] $GPVTG,217.69,T,226.14,M,0.06,N,0.12,K,D*2B
[2021-02-22 16:26:26.790] $GPGGA,072626.40,3713.98817676,N,13701.47755862,E,4,06,2.5,95.326,M,36.771,M,3.4,0000*7F
[2021-02-22 16:26:26.805] $GPVTG,210.71,T,219.16,M,0.10,N,0.18,K,D*26
[2021-02-22 16:26:26.884] $GPGGA,072626.50,3713.98817454,N,13701.47755878,E,4,06,2.5,95.327,M,36.771,M,3.5,0000*77
[2021-02-22 16:26:26.899] $GPVTG,200.93,T,209.38,M,0.09,N,0.17,K,D*21
[2021-02-22 16:26:26.993] $GPGGA,072626.60,3713.98817642,N,13701.47756943,E,4,06,2.5,95.321,M,36.771,M,3.6,0000*7E
[2021-02-22 16:26:27.008] $GPVTG,135.14,T,143.59,M,0.07,N,0.12,K,D*2A
[2021-02-22 16:26:27.087] $GPGGA,072626.70,3713.98817931,N,13701.47757607,E,4,06,2.5,95.327,M,36.771,M,3.7,0000*7D
[2021-02-22 16:26:27.087] $GPVTG,75.80,T,84.25,M,0.12,N,0.23,K,D*25
[2021-02-22 16:26:27.196] $GPGGA,072626.80,3713.98817792,N,13701.47759020,E,4,06,2.5,95.331,M,36.771,M,3.8,0000*70
[2021-02-22 16:26:27.196] $GPVTG,70.76,T,79.21,M,0.21,N,0.39,K,D*24
[2021-02-22 16:26:27.290] $GPGGA,072626.90,3713.98817843,N,13701.47759876,E,4,06,2.5,95.340,M,36.771,M,3.9,0000*7E
[2021-02-22 16:26:27.290] $GPVTG,73.59,T,82.04,M,0.24,N,0.45,K,D*27
[2021-02-22 16:26:27.399] $GPGGA,072627.00,3713.98818275,N,13701.47759104,E,4,06,2.5,95.323,M,36.771,M,4.0,0000*71
[2021-02-22 16:26:27.399] $GPVTG,72.29,T,80.74,M,0.24,N,0.45,K,D*24
[2021-02-22 16:26:27.493] $GPGGA,072627.10,3713.98818259,N,13701.47759476,E,4,06,2.5,95.317,M,36.771,M,4.1,0000*78
[2021-02-22 16:26:27.493] $GPVTG,71.08,T,79.53,M,0.23,N,0.43,K,D*26
[2021-02-22 16:26:27.587] $GPGGA,072627.20,3713.98818623,N,13701.47760006,E,4,07,1.9,95.331,M,36.771,M,2.2,0000*74
[2021-02-22 16:26:27.602] $GPVTG,66.76,T,75.21,M,0.19,N,0.35,K,D*28
[2021-02-22 16:26:27.680] $GPGGA,072627.30,3713.98818862,N,13701.47760024,E,4,07,1.9,95.323,M,36.771,M,2.3,0000*7C
[2021-02-22 16:26:27.696] $GPVTG,53.28,T,61.73,M,0.15,N,0.27,K,D*28
[2021-02-22 16:26:27.790] $GPGGA,072627.40,3713.98818732,N,13701.47759753,E,4,07,1.9,95.316,M,36.771,M,2.4,0000*7D
[2021-02-22 16:26:27.805] $GPVTG,22.26,T,30.71,M,0.10,N,0.19,K,D*2E
[2021-02-22 16:26:27.883] $GPGGA,072627.50,3713.98819156,N,13701.47759836,E,4,07,1.9,95.330,M,36.771,M,2.5,0000*70
[2021-02-22 16:26:27.899] $GPVTG,18.65,T,27.10,M,0.09,N,0.17,K,D*27
[2021-02-22 16:26:27.993] $GPGGA,072627.60,3713.98819119,N,13701.47760172,E,4,07,1.9,95.325,M,36.771,M,2.6,0000*7C
[2021-02-22 16:26:28.008] $GPVTG,11.59,T,20.04,M,0.08,N,0.16,K,D*23
[2021-02-22 16:26:28.087] $GPGGA,072627.70,3713.98819186,N,13701.47760054,E,4,07,1.9,95.331,M,36.771,M,2.7,0000*7A
[2021-02-22 16:26:28.087] $GPVTG,347.67,T,356.12,M,0.08,N,0.15,K,D*28
[2021-02-22 16:26:28.196] $GPGGA,072627.80,3713.98819315,N,13701.47760153,E,4,07,1.9,95.319,M,36.771,M,2.8,0000*7E
[2021-02-22 16:26:28.196] $GPVTG,344.50,T,352.95,M,0.08,N,0.15,K,D*24
[2021-02-22 16:26:28.290] $GPGGA,072627.90,3713.98819199,N,13701.47759778,E,4,07,1.9,95.327,M,36.771,M,2.9,0000*70
[2021-02-22 16:26:28.290] $GPVTG,304.50,T,312.95,M,0.07,N,0.13,K,D*2D
[2021-02-22 16:26:28.399] $GPGGA,072628.00,3713.98819389,N,13701.47759799,E,4,07,1.9,95.328,M,36.771,M,3.0,0000*7D
[2021-02-22 16:26:28.399] $GPVTG,296.64,T,305.09,M,0.08,N,0.14,K,D*2B
[2021-02-22 16:26:28.477] $GPGGA,072628.10,3713.98819354,N,13701.47760014,E,4,07,1.9,95.323,M,36.771,M,3.1,0000*7E
[2021-02-22 16:26:28.493] $GPVTG,304.77,T,313.22,M,0.05,N,0.09,K,D*2C
[2021-02-22 16:26:28.587] $GPGGA,072628.20,3713.98819258,N,13701.47759946,E,4,08,1.2,95.333,M,36.771,M,2.2,0000*73
[2021-02-22 16:26:28.602] $GPVTG,294.51,T,302.96,M,0.05,N,0.08,K,D*2E
[2021-02-22 16:26:28.680] $GPGGA,072628.30,3713.98819199,N,13701.47760222,E,4,08,1.2,95.338,M,36.771,M,2.3,0000*75
[2021-02-22 16:26:28.696] $GPVTG,267.27,T,275.72,M,0.02,N,0.04,K,D*23
[2021-02-22 16:26:28.790] $GPGGA,072628.40,3713.98819046,N,13701.47759836,E,4,08,1.2,95.327,M,36.771,M,2.4,0000*7D
[2021-02-22 16:26:28.805] $GPVTG,297.03,T,305.48,M,0.00,N,0.00,K,D*23
[2021-02-22 16:26:28.883] $GPGGA,072628.50,3713.98818801,N,13701.47759878,E,4,08,1.2,95.333,M,36.771,M,2.5,0000*78
[2021-02-22 16:26:28.899] $GPVTG,212.34,T,220.79,M,0.05,N,0.09,K,D*22
[2021-02-22 16:26:29.305] $GPGGA,072628.60,3713.98818826,N,13701.47759926,E,4,08,1.2,95.335,M,36.771,M,2.6,0000*71
[2021-02-22 16:26:29.305] $GPVTG,202.59,T,211.04,M,0.05,N,0.09,K,D*20
[2021-02-22 16:26:29.305] $GPGGA,072628.70,3713.98818818,N,13701.47759819,E,4,08,1.2,95.330,M,36.771,M,2.7,0000*74
[2021-02-22 16:26:29.305] $GPVTG,210.42,T,218.87,M,0.03,N,0.05,K,D*21
[2021-02-22 16:26:29.305] $GPGGA,072628.80,3713.98818880,N,13701.47759980,E,4,08,1.2,95.330,M,36.771,M,2.8,0000*74
[2021-02-22 16:26:29.305] $GPVTG,194.82,T,203.27,M,0.03,N,0.05,K,D*22
[2021-02-22 16:26:29.305] $GPGGA,072628.90,3713.98818921,N,13701.47760126,E,4,08,1.2,95.335,M,36.771,M,2.9,0000*75
[2021-02-22 16:26:29.305] $GPVTG,109.88,T,118.33,M,0.01,N,0.02,K,D*25
[2021-02-22 16:26:29.399] $GPGGA,072629.00,3713.98818730,N,13701.47759761,E,4,08,1.2,95.333,M,36.771,M,3.0,0000*72
[2021-02-22 16:26:29.399] $GPVTG,259.94,T,268.39,M,0.01,N,0.02,K,D*20
[2021-02-22 16:26:29.493] $GPGGA,072629.10,3713.98818989,N,13701.47759971,E,4,08,1.2,95.337,M,36.771,M,3.1,0000*75
[2021-02-22 16:26:29.493] $GPVTG,2.43,T,10.88,M,0.03,N,0.05,K,D*14
[2021-02-22 16:26:29.586] $GPGGA,072629.20,3713.98818865,N,13701.47759275,E,4,08,1.2,95.331,M,36.771,M,3.2,0000*7F
[2021-02-22 16:26:29.602] $GPVTG,301.73,T,310.18,M,0.06,N,0.11,K,D*2D
[2021-02-22 16:26:29.680] $GPGGA,072629.30,3713.98818959,N,13701.47759727,E,4,08,1.2,95.330,M,36.771,M,3.3,0000*72
[2021-02-22 16:26:29.696] $GPVTG,358.48,T,6.93,M,0.05,N,0.08,K,D*25
[2021-02-22 16:26:29.790] $GPGGA,072629.40,3713.98819237,N,13701.47759874,E,4,08,1.2,95.326,M,36.771,M,3.4,0000*7E
[2021-02-22 16:26:29.805] $GPVTG,10.60,T,19.05,M,0.08,N,0.14,K,D*21
[2021-02-22 16:26:29.883] $GPGGA,072629.50,3713.98819420,N,13701.47759893,E,4,08,1.2,95.328,M,36.771,M,3.5,0000*79
[2021-02-22 16:26:29.899] $GPVTG,12.67,T,21.12,M,0.08,N,0.16,K,D*2B
[2021-02-22 16:26:29.993] $GPGGA,072629.60,3713.98819500,N,13701.47759838,E,4,08,1.2,95.336,M,36.771,M,3.6,0000*74
[2021-02-22 16:26:30.008] $GPVTG,23.00,T,31.45,M,0.08,N,0.15,K,D*28
[2021-02-22 16:26:30.086] $GPGGA,072629.70,3713.98819309,N,13701.47760191,E,4,08,1.2,95.325,M,36.771,M,3.7,0000*79
[2021-02-22 16:26:30.086] $GPVTG,40.17,T,48.62,M,0.05,N,0.09,K,D*20
[2021-02-22 16:26:30.196] $GPGGA,072629.80,3713.98819342,N,13701.47759813,E,4,08,1.2,95.330,M,36.771,M,3.8,0000*7B
[2021-02-22 16:26:30.196] $GPVTG,19.49,T,27.94,M,0.03,N,0.05,K,D*2D
[2021-02-22 16:26:30.290] $GPGGA,072629.90,3713.98819101,N,13701.47759864,E,4,08,1.2,95.337,M,36.771,M,3.9,0000*79
[2021-02-22 16:26:30.290] $GPVTG,47.50,T,55.95,M,0.02,N,0.04,K,D*2A
[2021-02-22 16:26:30.399] $GPGGA,072630.00,3713.98819081,N,13701.47759941,E,4,08,1.2,95.331,M,36.771,M,4.0,0000*7F
[2021-02-22 16:26:30.399] $GPVTG,87.99,T,96.44,M,0.02,N,0.04,K,D*20
[2021-02-22 16:26:30.477] $GPGGA,072630.10,3713.98818821,N,13701.47759612,E,4,08,1.2,95.330,M,36.771,M,4.1,0000*74
[2021-02-22 16:26:30.493] $GPVTG,215.71,T,224.16,M,0.06,N,0.11,K,D*23
[2021-02-22 16:26:30.586] $GPGGA,072630.20,3713.98818307,N,13701.47759444,E,4,11,1.1,95.326,M,36.771,M,2.2,0000*70
[2021-02-22 16:26:30.602] $GPVTG,207.51,T,215.96,M,0.08,N,0.15,K,D*22
[2021-02-22 16:26:30.680] $GPGGA,072630.30,3713.98818472,N,13701.47760206,E,4,11,1.1,95.329,M,36.771,M,2.3,0000*70
[2021-02-22 16:26:30.696] $GPVTG,139.93,T,148.38,M,0.05,N,0.10,K,D*25
[2021-02-22 16:26:30.789] $GPGGA,072630.40,3713.98818220,N,13701.47759984,E,4,11,1.1,95.332,M,36.771,M,2.4,0000*70
[2021-02-22 16:26:30.805] $GPVTG,141.54,T,149.99,M,0.05,N,0.10,K,D*2B
[2021-02-22 16:26:30.883] $GPGGA,072630.50,3713.98817998,N,13701.47760220,E,4,11,1.1,95.328,M,36.771,M,2.5,0000*73
[2021-02-22 16:26:30.899] $GPVTG,147.67,T,156.12,M,0.07,N,0.12,K,D*20
[2021-02-22 16:26:30.993] $GPGGA,072630.60,3713.98817870,N,13701.47759954,E,4,11,1.1,95.324,M,36.771,M,2.6,0000*7A
[2021-02-22 16:26:30.993] $GPVTG,151.17,T,159.62,M,0.05,N,0.09,K,D*20
[2021-02-22 16:26:31.086] $GPGGA,072630.70,3713.98818023,N,13701.47759989,E,4,11,1.1,95.335,M,36.771,M,2.7,0000*7B
[2021-02-22 16:26:31.086] $GPVTG,52.73,T,61.18,M,0.03,N,0.05,K,D*2D
[2021-02-22 16:26:31.196] $GPGGA,072630.80,3713.98818057,N,13701.47760262,E,4,11,1.1,95.323,M,36.771,M,2.8,0000*7B
[2021-02-22 16:26:31.196] $GPVTG,49.22,T,57.67,M,0.05,N,0.09,K,D*24
[2021-02-22 16:26:31.290] $GPGGA,072630.90,3713.98818598,N,13701.47760972,E,4,11,1.1,95.329,M,36.771,M,2.9,0000*7D
[2021-02-22 16:26:31.290] $GPVTG,43.98,T,52.43,M,0.14,N,0.27,K,D*20
[2021-02-22 16:26:31.399] $GPGGA,072631.00,3713.98819094,N,13701.47761044,E,4,11,1.1,95.327,M,36.771,M,3.0,0000*76
[2021-02-22 16:26:31.399] $GPVTG,35.06,T,43.51,M,0.20,N,0.36,K,D*22
[2021-02-22 16:26:31.493] $GPGGA,072631.10,3713.98819202,N,13701.47761616,E,4,11,1.1,95.335,M,36.771,M,3.1,0000*79
[2021-02-22 16:26:31.493] $GPVTG,41.73,T,50.18,M,0.18,N,0.33,K,D*22
[2021-02-22 16:26:31.586] $GPGGA,072631.20,3713.98819416,N,13701.47761576,E,4,11,1.1,95.334,M,36.771,M,2.2,0000*7F
[2021-02-22 16:26:31.602] $GPVTG,41.26,T,49.71,M,0.20,N,0.37,K,D*2A
[2021-02-22 16:26:31.680] $GPGGA,072631.30,3713.98819580,N,13701.47762301,E,4,11,1.1,95.343,M,36.771,M,2.3,0000*74
[2021-02-22 16:26:31.696] $GPVTG,47.57,T,56.02,M,0.20,N,0.38,K,D*2F
[2021-02-22 16:26:31.789] $GPGGA,072631.40,3713.98819861,N,13701.47762327,E,4,11,1.1,95.337,M,36.771,M,2.4,0000*71
[2021-02-22 16:26:31.805] $GPVTG,46.53,T,54.97,M,0.18,N,0.33,K,D*24
[2021-02-22 16:26:31.883] $GPGGA,072631.50,3713.98820118,N,13701.47762669,E,4,11,1.1,95.347,M,36.771,M,2.5,0000*74
[2021-02-22 16:26:31.899] $GPVTG,46.90,T,55.35,M,0.17,N,0.32,K,D*2C
[2021-02-22 16:26:31.993] $GPGGA,072631.60,3713.98820408,N,13701.47762456,E,4,11,1.1,95.339,M,36.771,M,2.6,0000*77
[2021-02-22 16:26:32.008] $GPVTG,40.23,T,48.68,M,0.15,N,0.28,K,D*2F
[2021-02-22 16:26:32.086] $GPGGA,072631.70,3713.98820918,N,13701.47762739,E,4,11,1.1,95.339,M,36.771,M,2.7,0000*71
[2021-02-22 16:26:32.086] $GPVTG,30.70,T,39.15,M,0.17,N,0.32,K,D*2B
[2021-02-22 16:26:32.196] $GPGGA,072631.80,3713.98821322,N,13701.47762882,E,4,11,1.1,95.334,M,36.771,M,2.8,0000*71
[2021-02-22 16:26:32.196] $GPVTG,29.05,T,37.50,M,0.18,N,0.34,K,D*27
[2021-02-22 16:26:32.289] $GPGGA,072631.90,3713.98821570,N,13701.47762196,E,4,11,1.1,95.352,M,36.771,M,2.9,0000*7C
[2021-02-22 16:26:32.289] $GPVTG,350.95,T,359.40,M,0.14,N,0.26,K,D*26
[2021-02-22 16:26:32.399] $GPGGA,072632.00,3713.98821511,N,13701.47761723,E,4,11,1.1,95.339,M,36.771,M,3.0,0000*7F
[2021-02-22 16:26:32.414] $GPVTG,319.24,T,327.69,M,0.14,N,0.25,K,D*20
[2021-02-22 16:26:32.492] $GPGGA,072632.10,3713.98820831,N,13701.47761418,E,4,11,1.1,95.336,M,36.771,M,3.1,0000*75
[2021-02-22 16:26:32.492] $GPVTG,258.95,T,267.40,M,0.13,N,0.24,K,D*26
[2021-02-22 16:26:32.586] $GPGGA,072632.20,3713.98820735,N,13701.47761129,E,4,11,1.1,95.339,M,36.771,M,2.2,0000*77
[2021-02-22 16:26:32.602] $GPVTG,245.37,T,253.82,M,0.18,N,0.32,K,D*27
[2021-02-22 16:26:32.680] $GPGGA,072632.30,3713.98821130,N,13701.47761530,E,4,11,1.1,95.349,M,36.771,M,2.3,0000*7E
[2021-02-22 16:26:32.696] $GPVTG,243.32,T,251.77,M,0.11,N,0.20,K,D*26
[2021-02-22 16:26:32.789] $GPGGA,072632.40,3713.98821103,N,13701.47762087,E,4,11,1.1,95.341,M,36.771,M,2.4,0000*7C
[2021-02-22 16:26:32.805] $GPVTG,214.42,T,222.87,M,0.05,N,0.10,K,D*2E
[2021-02-22 16:26:32.883] $GPGGA,072632.50,3713.98821313,N,13701.47761628,E,4,11,1.1,95.342,M,36.771,M,2.5,0000*7C
[2021-02-22 16:26:32.899] $GPVTG,287.37,T,295.82,M,0.06,N,0.11,K,D*2D
[2021-02-22 16:26:32.993] $GPGGA,072632.60,3713.98821455,N,13701.47761219,E,4,11,1.1,95.331,M,36.771,M,2.6,0000*7B
[2021-02-22 16:26:33.008] $GPVTG,316.64,T,325.08,M,0.07,N,0.13,K,D*29
[2021-02-22 16:26:33.086] $GPGGA,072632.70,3713.98821270,N,13701.47760968,E,4,11,1.1,95.345,M,36.771,M,2.7,0000*75
[2021-02-22 16:26:33.086] $GPVTG,263.65,T,272.10,M,0.07,N,0.14,K,D*26
[2021-02-22 16:26:33.196] $GPGGA,072632.80,3713.98820565,N,13701.47760247,E,4,11,1.1,95.338,M,36.771,M,2.8,0000*7B
[2021-02-22 16:26:33.196] $GPVTG,251.20,T,259.65,M,0.12,N,0.23,K,D*2D
[2021-02-22 16:26:33.289] $GPGGA,072632.90,3713.98820969,N,13701.47760770,E,4,11,1.1,95.343,M,36.771,M,2.9,0000*76
[2021-02-22 16:26:33.289] $GPVTG,269.85,T,278.30,M,0.07,N,0.13,K,D*2D
[2021-02-22 16:26:33.399] $GPGGA,072633.00,3713.98820885,N,13701.47760630,E,4,11,1.1,95.335,M,36.771,M,3.0,0000*71
[2021-02-22 16:26:33.399] $GPVTG,269.87,T,278.32,M,0.06,N,0.11,K,D*2E
[2021-02-22 16:26:33.492] $GPGGA,072633.10,3713.98820740,N,13701.47760472,E,4,11,1.1,95.345,M,36.771,M,3.1,0000*74
[2021-02-22 16:26:33.508] $GPVTG,248.56,T,257.00,M,0.06,N,0.11,K,D*2D
[2021-02-22 16:26:33.586] $GPGGA,072633.20,3713.98820926,N,13701.47760036,E,4,11,1.1,95.349,M,36.771,M,2.2,0000*73
[2021-02-22 16:26:33.602] $GPVTG,267.47,T,275.92,M,0.04,N,0.07,K,D*2E
[2021-02-22 16:26:33.680] $GPGGA,072633.30,3713.98821145,N,13701.47759802,E,4,11,1.1,95.337,M,36.771,M,2.3,0000*73
[2021-02-22 16:26:33.696] $GPVTG,309.58,T,318.03,M,0.05,N,0.09,K,D*24
[2021-02-22 16:26:33.789] $GPGGA,072633.40,3713.98821128,N,13701.47759642,E,4,11,1.1,95.339,M,36.771,M,2.4,0000*7C
[2021-02-22 16:26:33.805] $GPVTG,324.30,T,332.75,M,0.08,N,0.14,K,D*2D
[2021-02-22 16:26:33.883] $GPGGA,072633.50,3713.98820844,N,13701.47759927,E,4,11,1.1,95.344,M,36.771,M,2.5,0000*78
[2021-02-22 16:26:33.899] $GPVTG,251.99,T,260.44,M,0.03,N,0.06,K,D*21
[2021-02-22 16:26:33.992] $GPGGA,072633.60,3713.98820216,N,13701.47760254,E,4,11,1.1,95.336,M,36.771,M,2.6,0000*75
[2021-02-22 16:26:34.008] $GPVTG,185.54,T,193.99,M,0.05,N,0.10,K,D*24
[2021-02-22 16:26:34.086] $GPGGA,072633.70,3713.98820363,N,13701.47760508,E,4,11,1.1,95.342,M,36.771,M,2.7,0000*7B
[2021-02-22 16:26:34.102] $GPVTG,84.68,T,93.13,M,0.04,N,0.08,K,D*20
[2021-02-22 16:26:34.524] $GPGGA,072633.80,3713.98820349,N,13701.47761367,E,4,11,1.1,95.342,M,36.771,M,2.8,0000*7D
[2021-02-22 16:26:34.524] $GPVTG,100.39,T,108.84,M,0.10,N,0.18,K,D*20
[2021-02-22 16:26:34.524] $GPGGA,072633.90,3713.98820280,N,13701.47760966,E,4,11,1.1,95.334,M,36.771,M,2.9,0000*72
[2021-02-22 16:26:34.524] $GPVTG,101.19,T,109.64,M,0.06,N,0.11,K,D*22
[2021-02-22 16:26:34.524] $GPGGA,072634.00,3713.98820008,N,13701.47761236,E,4,11,1.1,95.336,M,36.771,M,3.0,0000*7B
[2021-02-22 16:26:34.524] $GPVTG,97.49,T,105.94,M,0.10,N,0.18,K,D*14
[2021-02-22 16:26:34.524] $GPGGA,072634.10,3713.98820096,N,13701.47761346,E,4,11,1.1,95.328,M,36.771,M,3.1,0000*75
[2021-02-22 16:26:34.524] $GPVTG,96.18,T,104.63,M,0.08,N,0.14,K,D*1D
[2021-02-22 16:26:34.586] $GPGGA,072634.20,3713.98819783,N,13701.47761034,E,4,11,1.1,95.334,M,36.771,M,2.2,0000*76
[2021-02-22 16:26:34.602] $GPVTG,80.45,T,88.90,M,0.04,N,0.08,K,D*2A
[2021-02-22 16:26:34.680] $GPGGA,072634.30,3713.98819931,N,13701.47760754,E,4,11,1.1,95.329,M,36.771,M,2.3,0000*7D
[2021-02-22 16:26:34.695] $GPVTG,16.57,T,25.02,M,0.03,N,0.06,K,D*23
[2021-02-22 16:26:34.789] $GPGGA,072634.40,3713.98819924,N,13701.47760682,E,4,11,1.1,95.334,M,36.771,M,2.4,0000*7F
[2021-02-22 16:26:34.805] $GPVTG,299.47,T,307.92,M,0.04,N,0.08,K,D*24
[2021-02-22 16:26:34.883] $GPGGA,072634.50,3713.98819992,N,13701.47760998,E,4,11,1.1,95.327,M,36.771,M,2.5,0000*74
[2021-02-22 16:26:34.899] $GPVTG,348.43,T,356.88,M,0.04,N,0.07,K,D*2D
