
[2021-02-22 16:39:14.391] $GNGGA,073902.10,,,,,0,00,99.99,,,,,35.1,*6F
[2021-02-22 16:39:14.423] $GNGGA,073902.20,,,,,0,00,99.99,,,,,35.2,*6F
[2021-02-22 16:39:14.423] $GNGGA,073902.30,,,,,0,00,99.99,,,,,35.3,*6F
[2021-02-22 16:39:14.423] $GNGGA,073902.40,,,,,0,00,99.99,,,,,35.4,*6F
[2021-02-22 16:39:14.423] $GNGGA,073902.50,,,,,0,00,99.99,,,,,35.5,*6F
[2021-02-22 16:39:14.423] $GNGGA,073902.60,,,,,0,00,99.99,,,,,35.6,*6F
[2021-02-22 16:39:14.423] $GNGGA,073902.70,,,,,0,00,99.99,,,,,35.7,*6F
[2021-02-22 16:39:14.423] $GNGGA,073902.80,,,,,0,00,99.99,,,,,35.8,*6F
[2021-02-22 16:39:14.423] $GNGGA,073902.90,,,,,0,00,99.99,,,,,35.9,*6F
[2021-02-22 16:39:14.423] $GNGGA,073903.00,,,,,0,00,99.99,,,,,36.0,*6D
[2021-02-22 16:39:14.423] $GNGGA,073903.10,,,,,0,00,99.99,,,,,36.1,*6D
[2021-02-22 16:39:14.423] $GNGGA,073903.20,,,,,0,00,99.99,,,,,36.2,*6D
[2021-02-22 16:39:14.423] $GNGGA,073903.30,,,,,0,00,99.99,,,,,36.3,*6D
[2021-02-22 16:39:14.423] $GNGGA,073903.40,,,,,0,00,99.99,,,,,36.4,*6D
[2021-02-22 16:39:14.423] $GNGGA,073903.50,,,,,0,00,99.99,,,,,36.5,*6D
[2021-02-22 16:39:14.423] $GNGGA,073903.60,,,,,0,00,99.99,,,,,36.6,*6D
[2021-02-22 16:39:14.423] $GNGGA,073903.70,,,,,0,00,99.99,,,,,36.7,*6D
[2021-02-22 16:39:14.423] $GNGGA,073903.80,,,,,0,00,99.99,,,,,36.8,*6D
[2021-02-22 16:39:14.423] $GNGGA,073903.90,,,,,0,00,99.99,,,,,36.9,*6D
[2021-02-22 16:39:14.423] $GNGGA,073904.00,,,,,0,00,99.99,,,,,37.0,*6B
[2021-02-22 16:39:14.423] $GNGGA,073904.10,,,,,0,00,99.99,,,,,37.1,*6B
[2021-02-22 16:39:14.423] $GNGGA,073904.20,,,,,0,00,99.99,,,,,37.2,*6B
[2021-02-22 16:39:14.423] $GNGGA,073904.30,,,,,0,00,99.99,,,,,37.3,*6B
[2021-02-22 16:39:14.423] $GNGGA,073904.40,,,,,0,00,99.99,,,,,37.4,*6B
[2021-02-22 16:39:14.438] $GNGGA,073904.50,,,,,0,00,99.99,,,,,37.5,*6B
[2021-02-22 16:39:14.438] $GNGGA,073904.60,,,,,0,00,99.99,,,,,37.6,*6B
[2021-02-22 16:39:14.438] $GNGGA,073904.70,,,,,0,00,99.99,,,,,37.7,*6B
[2021-02-22 16:39:14.438] $GNGGA,073904.80,,,,,0,00,99.99,,,,,37.8,*6B
[2021-02-22 16:39:14.438] $GNGGA,073904.90,,,,,0,00,99.99,,,,,37.9,*6B
[2021-02-22 16:39:14.438] $GNGGA,073905.00,,,,,0,00,99.99,,,,,38.0,*65
[2021-02-22 16:39:14.438] $GNGGA,073905.10,,,,,0,00,99.99,,,,,38.1,*65
[2021-02-22 16:39:14.438] $GNGGA,073905.20,,,,,0,00,99.99,,,,,38.2,*65
[2021-02-22 16:39:14.438] $GNGGA,073905.30,,,,,0,00,99.99,,,,,38.3,*65
[2021-02-22 16:39:14.438] $GNGGA,073905.40,,,,,0,00,99.99,,,,,38.4,*65
[2021-02-22 16:39:14.438] $GNGGA,073905.50,,,,,0,00,99.99,,,,,38.5,*65
[2021-02-22 16:39:14.438] $GNGGA,073905.60,,,,,0,00,99.99,,,,,38.6,*65
[2021-02-22 16:39:14.438] $GNGGA,073905.70,,,,,0,00,99.99,,,,,38.7,*65
[2021-02-22 16:39:14.438] $GNGGA,073905.80,,,,,0,00,99.99,,,,,38.8,*65
[2021-02-22 16:39:14.438] $GNGGA,073905.90,,,,,0,00,99.99,,,,,38.9,*65
[2021-02-22 16:39:14.438] $GNGGA,073906.00,,,,,0,00,99.99,,,,,39.0,*67
[2021-02-22 16:39:14.438] $GNGGA,073906.10,,,,,0,00,99.99,,,,,39.1,*67
[2021-02-22 16:39:14.438] $GNGGA,073906.20,,,,,0,00,99.99,,,,,39.2,*67
[2021-02-22 16:39:14.438] $GNGGA,073906.30,,,,,0,00,99.99,,,,,39.3,*67
[2021-02-22 16:39:14.438] $GNGGA,073906.40,,,,,0,00,99.99,,,,,39.4,*67
[2021-02-22 16:39:14.438] $GNGGA,073906.50,,,,,0,00,99.99,,,,,39.5,*67
[2021-02-22 16:39:14.438] $GNGGA,073906.60,,,,,0,00,99.99,,,,,39.6,*67
[2021-02-22 16:39:14.454] $GNGGA,073906.70,,,,,0,00,99.99,,,,,39.7,*67
[2021-02-22 16:39:14.454] $GNGGA,073906.80,,,,,0,00,99.99,,,,,39.8,*67
[2021-02-22 16:39:14.454] $GNGGA,073906.90,,,,,0,00,99.99,,,,,39.9,*67
[2021-02-22 16:39:14.454] $GNGGA,073907.00,,,,,0,00,99.99,,,,,40.0,*68
[2021-02-22 16:39:14.454] $GNGGA,073907.10,,,,,0,00,99.99,,,,,40.1,*68
[2021-02-22 16:39:14.454] $GNGGA,073907.20,,,,,0,00,99.99,,,,,40.2,*68
[2021-02-22 16:39:14.454] $GNGGA,073907.30,,,,,0,00,99.99,,,,,40.3,*68
[2021-02-22 16:39:14.454] $GNGGA,073907.40,,,,,0,00,99.99,,,,,40.4,*68
[2021-02-22 16:39:14.454] $GNGGA,073907.50,,,,,0,00,99.99,,,,,40.5,*68
[2021-02-22 16:39:14.454] $GNGGA,073907.60,,,,,0,00,99.99,,,,,40.6,*68
[2021-02-22 16:39:14.454] $GNGGA,073907.70,,,,,0,00,99.99,,,,,40.7,*68
[2021-02-22 16:39:14.454] $GNGGA,073907.80,,,,,0,00,99.99,,,,,40.8,*68
[2021-02-22 16:39:14.454] $GNGGA,073907.90,,,,,0,00,99.99,,,,,40.9,*68
[2021-02-22 16:39:14.454] $GNGGA,073908.00,,,,,0,00,99.99,,,,,41.0,*66
[2021-02-22 16:39:14.454] $GNGGA,073908.10,,,,,0,00,99.99,,,,,41.1,*66
[2021-02-22 16:39:14.454] $GNGGA,073908.20,,,,,0,00,99.99,,,,,41.2,*66
[2021-02-22 16:39:14.454] $GNGGA,073908.30,,,,,0,00,99.99,,,,,41.3,*66
[2021-02-22 16:39:14.454] $GNGGA,073908.40,,,,,0,00,99.99,,,,,41.4,*66
[2021-02-22 16:39:14.454] $GNGGA,073908.50,,,,,0,00,99.99,,,,,41.5,*66
[2021-02-22 16:39:14.454] $GNGGA,073908.60,,,,,0,00,99.99,,,,,41.6,*66
[2021-02-22 16:39:14.454] $GNGGA,073908.70,,,,,0,00,99.99,,,,,41.7,*66
[2021-02-22 16:39:14.454] $GNGGA,073908.80,,,,,0,00,99.99,,,,,41.8,*66
[2021-02-22 16:39:14.469] $GNGGA,073908.90,,,,,0,00,99.99,,,,,41.9,*66
[2021-02-22 16:39:14.469] $GNGGA,073909.00,,,,,0,00,99.99,,,,,42.0,*64
[2021-02-22 16:39:14.469] $GNGGA,073909.10,,,,,0,00,99.99,,,,,42.1,*64
[2021-02-22 16:39:14.469] $GNGGA,073909.20,,,,,0,00,99.99,,,,,42.2,*64
[2021-02-22 16:39:14.469] $GNGGA,073909.30,,,,,0,00,99.99,,,,,42.3,*64
[2021-02-22 16:39:14.469] $GNGGA,073909.40,,,,,0,00,99.99,,,,,42.4,*64
[2021-02-22 16:39:14.469] $GNGGA,073909.50,,,,,0,00,99.99,,,,,42.5,*64
[2021-02-22 16:39:14.469] $GNGGA,073909.60,,,,,0,00,99.99,,,,,42.6,*64
[2021-02-22 16:39:14.469] $GNGGA,073909.70,,,,,0,00,99.99,,,,,42.7,*64
[2021-02-22 16:39:14.469] $GNGGA,073909.80,,,,,0,00,99.99,,,,,42.8,*64
[2021-02-22 16:39:14.469] $GNGGA,073909.90,,,,,0,00,99.99,,,,,42.9,*64
[2021-02-22 16:39:14.469] $GNGGA,073910.00,,,,,0,00,99.99,,,,,43.0,*6D
[2021-02-22 16:39:14.469] $GNGGA,073910.10,,,,,0,00,99.99,,,,,43.1,*6D
[2021-02-22 16:39:14.469] $GNGGA,073910.20,,,,,0,00,99.99,,,,,43.2,*6D
[2021-02-22 16:39:14.469] $GNGGA,073910.30,,,,,0,00,99.99,,,,,43.3,*6D
[2021-02-22 16:39:14.469] $GNGGA,073910.40,,,,,0,00,99.99,,,,,43.4,*6D
[2021-02-22 16:39:14.469] $GNGGA,073910.50,,,,,0,00,99.99,,,,,43.5,*6D
[2021-02-22 16:39:14.469] $GNGGA,073910.60,,,,,0,00,99.99,,,,,43.6,*6D
[2021-02-22 16:39:14.469] $GNGGA,073910.70,,,,,0,00,99.99,,,,,43.7,*6D
[2021-02-22 16:39:14.469] $GNGGA,073910.80,,,,,0,00,99.99,,,,,43.8,*6D
[2021-02-22 16:39:14.469] $GNGGA,073910.90,,,,,0,00,99.99,,,,,43.9,*6D
[2021-02-22 16:39:14.469] $GNGGA,073911.00,,,,,0,00,99.99,,,,,44.0,*6B
[2021-02-22 16:39:14.485] $GNGGA,073911.10,,,,,0,00,99.99,,,,,44.1,*6B
[2021-02-22 16:39:14.485] $GNGGA,073911.20,,,,,0,00,99.99,,,,,44.2,*6B
[2021-02-22 16:39:14.485] $GNGGA,073911.30,,,,,0,00,99.99,,,,,44.3,*6B
[2021-02-22 16:39:14.485] $GNGGA,073911.40,,,,,0,00,99.99,,,,,44.4,*6B
[2021-02-22 16:39:14.485] $GNGGA,073911.50,,,,,0,00,99.99,,,,,44.5,*6B
[2021-02-22 16:39:14.485] $GNGGA,073911.60,,,,,0,00,99.99,,,,,44.6,*6B
[2021-02-22 16:39:14.485] $GNGGA,073911.70,,,,,0,00,99.99,,,,,44.7,*6B
[2021-02-22 16:39:14.485] $GNGGA,073911.80,,,,,0,00,99.99,,,,,44.8,*6B
[2021-02-22 16:39:14.485] $GNGGA,073911.90,,,,,0,00,99.99,,,,,44.9,*6B
[2021-02-22 16:39:14.485] $GNGGA,073912.00,,,,,0,00,99.99,,,,,45.0,*69
[2021-02-22 16:39:14.485] $GNGGA,073912.10,,,,,0,00,99.99,,,,,45.1,*69
[2021-02-22 16:39:14.485] $GNGGA,073912.20,,,,,0,00,99.99,,,,,45.2,*69
[2021-02-22 16:39:14.485] $GNGGA,073912.30,,,,,0,00,99.99,,,,,45.3,*69
[2021-02-22 16:39:14.485] $GNGGA,073912.40,,,,,0,00,99.99,,,,,45.4,*69
[2021-02-22 16:39:14.485] $GNGGA,073912.50,,,,,0,00,99.99,,,,,45.5,*69
[2021-02-22 16:39:14.485] $GNGGA,073912.60,,,,,0,00,99.99,,,,,45.6,*69
[2021-02-22 16:39:14.485] $GNGGA,073912.70,,,,,0,00,99.99,,,,,45.7,*69
[2021-02-22 16:39:14.485] $GNGGA,073912.80,,,,,0,00,99.99,,,,,45.8,*69
[2021-02-22 16:39:14.485] $GNGGA,073912.90,,,,,0,00,99.99,,,,,45.9,*69
[2021-02-22 16:39:14.485] $GNGGA,073913.00,,,,,0,00,99.99,,,,,46.0,*6B
[2021-02-22 16:39:14.485] $GNGGA,073913.10,,,,,0,00,99.99,,,,,46.1,*6B
[2021-02-22 16:39:14.485] $GNGGA,073913.20,,,,,0,00,99.99,,,,,46.2,*6B
[2021-02-22 16:39:14.485] $GNGGA,073913.30,,,,,0,00,99.99,,,,,46.3,*6B
[2021-02-22 16:39:14.485] $GNGGA,073913.40,,,,,0,00,99.99,,,,,46.4,*6B
[2021-02-22 16:39:14.485] $GNGGA,073913.50,,,,,0,00,99.99,,,,,46.5,*6B
[2021-02-22 16:39:14.485] $GNGGA,073913.60,,,,,0,00,99.99,,,,,46.6,*6B
[2021-02-22 16:39:14.485] $GNGGA,073913.70,,,,,0,00,99.99,,,,,46.7,*6B
[2021-02-22 16:39:14.485] $GNGGA,073913.80,,,,,0,00,99.99,,,,,46.8,*6B
[2021-02-22 16:39:14.485] $GNGGA,073913.90,,,,,0,00,99.99,,,,,46.9,*6B
[2021-02-22 16:39:14.579] $GNGGA,073914.00,,,,,0,00,99.99,,,,,47.0,*6D
[2021-02-22 16:39:14.673] $GNGGA,073914.10,,,,,0,00,99.99,,,,,47.1,*6D
[2021-02-22 16:39:14.766] $GNGGA,073914.20,,,,,0,00,99.99,,,,,47.2,*6D
[2021-02-22 16:39:14.891] $GNGGA,073914.30,,,,,0,00,99.99,,,,,47.3,*6D
[2021-02-22 16:39:14.985] $GNGGA,073914.40,,,,,0,00,99.99,,,,,47.4,*6D
[2021-02-22 16:39:15.079] $GNGGA,073914.50,,,,,0,00,99.99,,,,,47.5,*6D
[2021-02-22 16:39:15.188] $GNGGA,073914.60,,,,,0,00,99.99,,,,,47.6,*6D
[2021-02-22 16:39:15.282] $GNGGA,073914.70,,,,,0,00,99.99,,,,,47.7,*6D
[2021-02-22 16:39:15.376] $GNGGA,073914.80,,,,,0,00,99.99,,,,,47.8,*6D
[2021-02-22 16:39:15.469] $GNGGA,073914.90,,,,,0,00,99.99,,,,,47.9,*6D
[2021-02-22 16:39:15.594] $GNGGA,073915.00,,,,,0,00,99.99,,,,,48.0,*63
[2021-02-22 16:39:15.688] $GNGGA,073915.10,,,,,0,00,99.99,,,,,48.1,*63
[2021-02-22 16:39:15.782] $GNGGA,073915.20,,,,,0,00,99.99,,,,,48.2,*63
[2021-02-22 16:39:15.876] $GNGGA,073915.30,,,,,0,00,99.99,,,,,48.3,*63
[2021-02-22 16:39:15.985] $GNGGA,073915.40,,,,,0,00,99.99,,,,,48.4,*63
[2021-02-22 16:39:16.079] $GNGGA,073915.50,,,,,0,00,99.99,,,,,48.5,*63
[2021-02-22 16:39:16.172] $GNGGA,073915.60,,,,,0,00,99.99,,,,,48.6,*63
[2021-02-22 16:39:16.282] $GNGGA,073915.70,,,,,0,00,99.99,,,,,48.7,*63
[2021-02-22 16:39:16.391] $GNGGA,073915.80,,,,,0,00,99.99,,,,,48.8,*63
[2021-02-22 16:39:16.485] $GNGGA,073915.90,,,,,0,00,99.99,,,,,48.9,*63
[2021-02-22 16:39:16.579] $GNGGA,073916.00,,,,,0,00,99.99,,,,,49.0,*61
[2021-02-22 16:39:16.672] $GNGGA,073916.10,,,,,0,00,99.99,,,,,49.1,*61
[2021-02-22 16:39:16.782] $GNGGA,073916.20,,,,,0,00,99.99,,,,,49.2,*61
[2021-02-22 16:39:16.891] $GNGGA,073916.30,,,,,0,00,99.99,,,,,49.3,*61
[2021-02-22 16:39:16.985] $GNGGA,073916.40,,,,,0,00,99.99,,,,,49.4,*61
[2021-02-22 16:39:17.079] $GNGGA,073916.50,,,,,0,00,99.99,,,,,49.5,*61
[2021-02-22 16:39:17.188] $GNGGA,073916.60,,,,,0,00,99.99,,,,,49.6,*61
[2021-02-22 16:39:17.282] $GNGGA,073916.70,,,,,0,00,99.99,,,,,49.7,*61
[2021-02-22 16:39:17.375] $GNGGA,073916.80,,,,,0,00,99.99,,,,,49.8,*61
[2021-02-22 16:39:17.469] $GNGGA,073916.90,,,,,0,00,99.99,,,,,49.9,*61
[2021-02-22 16:39:17.594] $GNGGA,073917.00,,,,,0,00,99.99,,,,,50.0,*68
[2021-02-22 16:39:17.688] $GNGGA,073917.10,,,,,0,00,99.99,,,,,50.1,*68
[2021-02-22 16:39:17.782] $GNGGA,073917.20,,,,,0,00,99.99,,,,,50.2,*68
[2021-02-22 16:39:17.875] $GNGGA,073917.30,,,,,0,00,99.99,,,,,50.3,*68
[2021-02-22 16:39:17.985] $GNGGA,073917.40,,,,,0,00,99.99,,,,,50.4,*68
[2021-02-22 16:39:18.079] $GNGGA,073917.50,,,,,0,00,99.99,,,,,50.5,*68
[2021-02-22 16:39:18.172] $GNGGA,073917.60,,,,,0,00,99.99,,,,,50.6,*68
[2021-02-22 16:39:18.282] $GNGGA,073917.70,,,,,0,00,99.99,,,,,50.7,*68
[2021-02-22 16:39:18.391] $GNGGA,073917.80,,,,,0,00,99.99,,,,,50.8,*68
[2021-02-22 16:39:18.485] $GNGGA,073917.90,,,,,0,00,99.99,,,,,50.9,*68
[2021-02-22 16:39:18.579] $GNGGA,073918.00,,,,,0,00,99.99,,,,,51.0,*66
[2021-02-22 16:39:18.672] $GNGGA,073918.10,,,,,0,00,99.99,,,,,51.1,*66
[2021-02-22 16:39:18.782] $GNGGA,073918.20,,,,,0,00,99.99,,,,,51.2,*66
[2021-02-22 16:39:18.891] $GNGGA,073918.30,,,,,0,00,99.99,,,,,51.3,*66
[2021-02-22 16:39:18.985] $GNGGA,073918.40,,,,,0,00,99.99,,,,,51.4,*66
[2021-02-22 16:39:19.079] $GNGGA,073918.50,,,,,0,00,99.99,,,,,51.5,*66
[2021-02-22 16:39:19.188] $GNGGA,073918.60,,,,,0,00,99.99,,,,,51.6,*66
[2021-02-22 16:39:19.282] $GNGGA,073918.70,,,,,0,00,99.99,,,,,51.7,*66
[2021-02-22 16:39:19.375] $GNGGA,073918.80,,,,,0,00,99.99,,,,,51.8,*66
[2021-02-22 16:39:19.469] $GNGGA,073918.90,,,,,0,00,99.99,,,,,51.9,*66
[2021-02-22 16:39:19.594] $GNGGA,073919.00,,,,,0,00,99.99,,,,,52.0,*64
[2021-02-22 16:39:19.688] $GNGGA,073919.10,,,,,0,00,99.99,,,,,52.1,*64
[2021-02-22 16:39:19.782] $GNGGA,073919.20,,,,,0,00,99.99,,,,,52.2,*64
[2021-02-22 16:39:19.875] $GNGGA,073919.30,,,,,0,00,99.99,,,,,52.3,*64
[2021-02-22 16:39:19.985] $GNGGA,073919.40,,,,,0,00,99.99,,,,,52.4,*64
[2021-02-22 16:39:20.078] $GNGGA,073919.50,,,,,0,00,99.99,,,,,52.5,*64
[2021-02-22 16:39:20.172] $GNGGA,073919.60,,,,,0,00,99.99,,,,,52.6,*64
[2021-02-22 16:39:20.282] $GNGGA,073919.70,,,,,0,00,99.99,,,,,52.7,*64
[2021-02-22 16:39:20.391] $GNGGA,073919.80,,,,,0,00,99.99,,,,,52.8,*64
[2021-02-22 16:39:20.485] $GNGGA,073919.90,,,,,0,00,99.99,,,,,52.9,*64
[2021-02-22 16:39:20.578] $GNGGA,073920.00,,,,,0,00,99.99,,,,,53.0,*6F
[2021-02-22 16:39:20.672] $GNGGA,073920.10,,,,,0,00,99.99,,,,,53.1,*6F
[2021-02-22 16:39:20.782] $GNGGA,073920.20,,,,,0,00,99.99,,,,,53.2,*6F
[2021-02-22 16:39:20.875] $GNGGA,073920.30,,,,,0,00,99.99,,,,,53.3,*6F
[2021-02-22 16:39:20.985] $GNGGA,073920.40,,,,,0,00,99.99,,,,,53.4,*6F
[2021-02-22 16:39:21.078] $GNGGA,073920.50,,,,,0,00,99.99,,,,,53.5,*6F
[2021-02-22 16:39:21.188] $GNGGA,073920.60,,,,,0,00,99.99,,,,,53.6,*6F
[2021-02-22 16:39:21.281] $GNGGA,073920.70,,,,,0,00,99.99,,,,,53.7,*6F
[2021-02-22 16:39:21.375] $GNGGA,073920.80,,,,,0,00,99.99,,,,,53.8,*6F
[2021-02-22 16:39:21.469] $GNGGA,073920.90,,,,,0,00,99.99,,,,,53.9,*6F
[2021-02-22 16:39:21.594] $GNGGA,073921.00,,,,,0,00,99.99,,,,,54.0,*69
[2021-02-22 16:39:21.688] $GNGGA,073921.10,,,,,0,00,99.99,,,,,54.1,*69
[2021-02-22 16:39:21.781] $GNGGA,073921.20,,,,,0,00,99.99,,,,,54.2,*69
[2021-02-22 16:39:21.875] $GNGGA,073921.30,,,,,0,00,99.99,,,,,54.3,*69
[2021-02-22 16:39:21.984] $GNGGA,073921.40,,,,,0,00,99.99,,,,,54.4,*69
[2021-02-22 16:39:22.078] $GNGGA,073921.50,,,,,0,00,99.99,,,,,54.5,*69
[2021-02-22 16:39:22.172] $GNGGA,073921.60,,,,,0,00,99.99,,,,,54.6,*69
[2021-02-22 16:39:22.281] $GNGGA,073921.70,,,,,0,00,99.99,,,,,54.7,*69
[2021-02-22 16:39:22.391] $GNGGA,073921.80,,,,,0,00,99.99,,,,,54.8,*69
[2021-02-22 16:39:22.485] $GNGGA,073921.90,,,,,0,00,99.99,,,,,54.9,*69
[2021-02-22 16:39:22.578] $GNGGA,073922.00,,,,,0,00,99.99,,,,,55.0,*6B
[2021-02-22 16:39:22.672] $GNGGA,073922.10,,,,,0,00,99.99,,,,,55.1,*6B
[2021-02-22 16:39:22.781] $GNGGA,073922.20,,,,,0,00,99.99,,,,,55.2,*6B
[2021-02-22 16:39:22.875] $GNGGA,073922.30,,,,,0,00,99.99,,,,,55.3,*6B
[2021-02-22 16:39:22.984] $GNGGA,073922.40,,,,,0,00,99.99,,,,,55.4,*6B
[2021-02-22 16:39:23.078] $GNGGA,073922.50,,,,,0,00,99.99,,,,,55.5,*6B
[2021-02-22 16:39:23.188] $GNGGA,073922.60,,,,,0,00,99.99,,,,,55.6,*6B
[2021-02-22 16:39:23.281] $GNGGA,073922.70,,,,,0,00,99.99,,,,,55.7,*6B
[2021-02-22 16:39:23.375] $GNGGA,073922.80,,,,,0,00,99.99,,,,,55.8,*6B
[2021-02-22 16:39:23.469] $GNGGA,073922.90,,,,,0,00,99.99,,,,,55.9,*6B
[2021-02-22 16:39:23.594] $GNGGA,073923.00,,,,,0,00,99.99,,,,,56.0,*69
[2021-02-22 16:39:23.688] $GNGGA,073923.10,,,,,0,00,99.99,,,,,56.1,*69
[2021-02-22 16:39:23.781] $GNGGA,073923.20,,,,,0,00,99.99,,,,,56.2,*69
[2021-02-22 16:39:23.875] $GNGGA,073923.30,,,,,0,00,99.99,,,,,56.3,*69
[2021-02-22 16:39:23.984] $GNGGA,073923.40,,,,,0,00,99.99,,,,,56.4,*69
[2021-02-22 16:39:24.078] $GNGGA,073923.50,,,,,0,00,99.99,,,,,56.5,*69
[2021-02-22 16:39:24.172] $GNGGA,073923.60,,,,,0,00,99.99,,,,,56.6,*69
[2021-02-22 16:39:24.281] $GNGGA,073923.70,,,,,0,00,99.99,,,,,56.7,*69
[2021-02-22 16:39:24.391] $GNGGA,073923.80,,,,,0,00,99.99,,,,,56.8,*69
[2021-02-22 16:39:24.484] $GNGGA,073923.90,,,,,0,00,99.99,,,,,56.9,*69
[2021-02-22 16:39:24.578] $GNGGA,073924.00,,,,,0,00,99.99,,,,,57.0,*6F
[2021-02-22 16:39:24.672] $GNGGA,073924.10,,,,,0,00,99.99,,,,,57.1,*6F
[2021-02-22 16:39:24.781] $GNGGA,073924.20,,,,,0,00,99.99,,,,,57.2,*6F
[2021-02-22 16:39:24.875] $GNGGA,073924.30,,,,,0,00,99.99,,,,,57.3,*6F
[2021-02-22 16:39:24.984] $GNGGA,073924.40,,,,,0,00,99.99,,,,,57.4,*6F
[2021-02-22 16:39:25.078] $GNGGA,073924.50,,,,,0,00,99.99,,,,,57.5,*6F
[2021-02-22 16:39:25.187] $GNGGA,073924.60,,,,,0,00,99.99,,,,,57.6,*6F
[2021-02-22 16:39:25.281] $GNGGA,073924.70,,,,,0,00,99.99,,,,,57.7,*6F
[2021-02-22 16:39:25.375] $GNGGA,073924.80,,,,,0,00,99.99,,,,,57.8,*6F
[2021-02-22 16:39:25.469] $GNGGA,073924.90,,,,,0,00,99.99,,,,,57.9,*6F
[2021-02-22 16:39:25.578] $GNGGA,073925.00,,,,,0,00,99.99,,,,,58.0,*61
[2021-02-22 16:39:25.687] $GNGGA,073925.10,,,,,0,00,99.99,,,,,58.1,*61
[2021-02-22 16:39:25.781] $GNGGA,073925.20,,,,,0,00,99.99,,,,,58.2,*61
[2021-02-22 16:39:25.875] $GNGGA,073925.30,,,,,0,00,99.99,,,,,58.3,*61
[2021-02-22 16:39:25.984] $GNGGA,073925.40,,,,,0,00,99.99,,,,,58.4,*61
[2021-02-22 16:39:26.078] $GNGGA,073925.50,,,,,0,00,99.99,,,,,58.5,*61
[2021-02-22 16:39:26.172] $GNGGA,073925.60,,,,,0,00,99.99,,,,,58.6,*61
[2021-02-22 16:39:26.265] $GNGGA,073925.70,,,,,0,00,99.99,,,,,58.7,*61
[2021-02-22 16:39:26.391] $GNGGA,073925.80,,,,,0,00,99.99,,,,,58.8,*61
[2021-02-22 16:39:26.484] $GNGGA,073925.90,,,,,0,00,99.99,,,,,58.9,*61
[2021-02-22 16:39:26.578] $GNGGA,073926.00,,,,,0,00,99.99,,,,,59.0,*63
[2021-02-22 16:39:26.672] $GNGGA,073926.10,,,,,0,00,99.99,,,,,59.1,*63
[2021-02-22 16:39:26.781] $GNGGA,073926.20,,,,,0,00,99.99,,,,,59.2,*63
[2021-02-22 16:39:26.875] $GNGGA,073926.30,,,,,0,00,99.99,,,,,59.3,*63
[2021-02-22 16:39:26.984] $GNGGA,073926.40,,,,,0,00,99.99,,,,,59.4,*63
[2021-02-22 16:39:27.078] $GNGGA,073926.50,,,,,0,00,99.99,,,,,59.5,*63
[2021-02-22 16:39:27.187] $GNGGA,073926.60,,,,,0,00,99.99,,,,,59.6,*63
[2021-02-22 16:39:27.281] $GNGGA,073926.70,,,,,0,00,99.99,,,,,59.7,*63
[2021-02-22 16:39:27.375] $GNGGA,073926.80,,,,,0,00,99.99,,,,,59.8,*63
[2021-02-22 16:39:27.469] $GNGGA,073926.90,,,,,0,00,99.99,,,,,59.9,*63
[2021-02-22 16:39:27.578] $GNGGA,073927.00,,,,,0,00,99.99,,,,,60.0,*68
[2021-02-22 16:39:27.687] $GNGGA,073927.10,,,,,0,00,99.99,,,,,60.1,*68
[2021-02-22 16:39:27.781] $GNGGA,073927.20,,,,,0,00,99.99,,,,,60.2,*68
[2021-02-22 16:39:27.875] $GNGGA,073927.30,,,,,0,00,99.99,,,,,60.3,*68
[2021-02-22 16:39:27.984] $GNGGA,073927.40,,,,,0,00,99.99,,,,,60.4,*68
[2021-02-22 16:39:28.078] $GNGGA,073927.50,,,,,0,00,99.99,,,,,60.5,*68
[2021-02-22 16:39:28.172] $GNGGA,073927.60,,,,,0,00,99.99,,,,,60.6,*68
[2021-02-22 16:39:28.265] $GNGGA,073927.70,,,,,0,00,99.99,,,,,60.7,*68
[2021-02-22 16:39:28.390] $GNGGA,073927.80,,,,,0,00,99.99,,,,,60.8,*68
[2021-02-22 16:39:28.484] $GNGGA,073927.90,,,,,0,00,99.99,,,,,60.9,*68
[2021-02-22 16:39:28.578] $GNGGA,073928.00,,,,,0,00,99.99,,,,,61.0,*66
[2021-02-22 16:39:28.672] $GNGGA,073928.10,,,,,0,00,99.99,,,,,61.1,*66
[2021-02-22 16:39:28.781] $GNGGA,073928.20,,,,,0,00,99.99,,,,,61.2,*66
[2021-02-22 16:39:28.875] $GNGGA,073928.30,,,,,0,00,99.99,,,,,61.3,*66
[2021-02-22 16:39:28.984] $GNGGA,073928.40,,,,,0,00,99.99,,,,,61.4,*66
[2021-02-22 16:39:29.078] $GNGGA,073928.50,,,,,0,00,99.99,,,,,61.5,*66
[2021-02-22 16:39:29.187] $GNGGA,073928.60,,,,,0,00,99.99,,,,,61.6,*66
[2021-02-22 16:39:29.281] $GNGGA,073928.70,,,,,0,00,99.99,,,,,61.7,*66
[2021-02-22 16:39:29.375] $GNGGA,073928.80,,,,,0,00,99.99,,,,,61.8,*66
[2021-02-22 16:39:29.468] $GNGGA,073928.90,,,,,0,00,99.99,,,,,61.9,*66
[2021-02-22 16:39:29.578] $GNGGA,073929.00,,,,,0,00,99.99,,,,,62.0,*64
[2021-02-22 16:39:29.687] $GNGGA,073929.10,,,,,0,00,99.99,,,,,62.1,*64
[2021-02-22 16:39:29.781] $GNGGA,073929.20,,,,,0,00,99.99,,,,,62.2,*64
[2021-02-22 16:39:29.875] $GNGGA,073929.30,,,,,0,00,99.99,,,,,62.3,*64
[2021-02-22 16:39:29.984] $GNGGA,073929.40,,,,,0,00,99.99,,,,,62.4,*64
[2021-02-22 16:39:30.078] $GNGGA,073929.50,,,,,0,00,99.99,,,,,62.5,*64
[2021-02-22 16:39:30.171] $GNGGA,073929.60,,,,,0,00,99.99,,,,,62.6,*64
[2021-02-22 16:39:30.265] $GNGGA,073929.70,,,,,0,00,99.99,,,,,62.7,*64
[2021-02-22 16:39:30.390] $GNGGA,073929.80,,,,,0,00,99.99,,,,,62.8,*64
[2021-02-22 16:39:30.484] $GNGGA,073929.90,,,,,0,00,99.99,,,,,62.9,*64
[2021-02-22 16:39:30.578] $GNGGA,073930.00,,,,,0,00,99.99,,,,,63.0,*6D
[2021-02-22 16:39:30.671] $GNGGA,073930.10,,,,,0,00,99.99,,,,,63.1,*6D
[2021-02-22 16:39:30.781] $GNGGA,073930.20,,,,,0,00,99.99,,,,,63.2,*6D
[2021-02-22 16:39:30.875] $GNGGA,073930.30,,,,,0,00,99.99,,,,,63.3,*6D
[2021-02-22 16:39:30.984] $GNGGA,073930.40,,,,,0,00,99.99,,,,,63.4,*6D
[2021-02-22 16:39:31.078] $GNGGA,073930.50,,,,,0,00,99.99,,,,,63.5,*6D
[2021-02-22 16:39:31.187] $GNGGA,073930.60,,,,,0,00,99.99,,,,,63.6,*6D
[2021-02-22 16:39:31.281] $GNGGA,073930.70,,,,,0,00,99.99,,,,,63.7,*6D
[2021-02-22 16:39:31.375] $GNGGA,073930.80,,,,,0,00,99.99,,,,,63.8,*6D
[2021-02-22 16:39:31.468] $GNGGA,073930.90,,,,,0,00,99.99,,,,,63.9,*6D
[2021-02-22 16:39:31.578] $GNGGA,073931.00,,,,,0,00,99.99,,,,,64.0,*6B
[2021-02-22 16:39:31.687] $GNGGA,073931.10,,,,,0,00,99.99,,,,,64.1,*6B
[2021-02-22 16:39:31.781] $GNGGA,073931.20,,,,,0,00,99.99,,,,,64.2,*6B
[2021-02-22 16:39:31.874] $GNGGA,073931.30,,,,,0,00,99.99,,,,,64.3,*6B
[2021-02-22 16:39:31.984] $GNGGA,073931.40,,,,,0,00,99.99,,,,,64.4,*6B
[2021-02-22 16:39:32.078] $GNGGA,073931.50,,,,,0,00,99.99,,,,,64.5,*6B
[2021-02-22 16:39:32.171] $GNGGA,073931.60,,,,,0,00,99.99,,,,,64.6,*6B
[2021-02-22 16:39:32.265] $GNGGA,073931.70,,,,,0,00,99.99,,,,,64.7,*6B
[2021-02-22 16:39:32.390] $GNGGA,073931.80,,,,,0,00,99.99,,,,,64.8,*6B
[2021-02-22 16:39:32.484] $GNGGA,073931.90,,,,,0,00,99.99,,,,,64.9,*6B
[2021-02-22 16:39:32.578] $GNGGA,073932.00,,,,,0,00,99.99,,,,,65.0,*69
[2021-02-22 16:39:32.687] $GNGGA,073932.10,,,,,0,00,99.99,,,,,65.1,*69
[2021-02-22 16:39:32.781] $GNGGA,073932.20,,,,,0,00,99.99,,,,,65.2,*69
[2021-02-22 16:39:32.874] $GNGGA,073932.30,,,,,0,00,99.99,,,,,65.3,*69
[2021-02-22 16:39:32.968] $GNGGA,073932.40,,,,,0,00,99.99,,,,,65.4,*69
[2021-02-22 16:39:33.093] $GNGGA,073932.50,,,,,0,00,99.99,,,,,65.5,*69
[2021-02-22 16:39:33.187] $GNGGA,073932.60,,,,,0,00,99.99,,,,,65.6,*69
[2021-02-22 16:39:33.281] $GNGGA,073932.70,,,,,0,00,99.99,,,,,65.7,*69
[2021-02-22 16:39:33.374] $GNGGA,073932.80,,,,,0,00,99.99,,,,,65.8,*69
[2021-02-22 16:39:33.484] $GNGGA,073932.90,,,,,0,00,99.99,,,,,65.9,*69
[2021-02-22 16:39:33.577] $GNGGA,073933.00,,,,,0,00,99.99,,,,,66.0,*6B
[2021-02-22 16:39:33.687] $GNGGA,073933.10,,,,,0,00,99.99,,,,,66.1,*6B
[2021-02-22 16:39:33.781] $GNGGA,073933.20,,,,,0,00,99.99,,,,,66.2,*6B
[2021-02-22 16:39:33.890] $GNGGA,073933.30,,,,,0,00,99.99,,,,,66.3,*6B
[2021-02-22 16:39:33.984] $GNGGA,073933.40,,,,,0,00,99.99,,,,,66.4,*6B
[2021-02-22 16:39:34.077] $GNGGA,073933.50,,,,,0,00,99.99,,,,,66.5,*6B
[2021-02-22 16:39:34.171] $GNGGA,073933.60,,,,,0,00,99.99,,,,,66.6,*6B
[2021-02-22 16:39:34.281] $GNGGA,073933.70,,,,,0,00,99.99,,,,,66.7,*6B
[2021-02-22 16:39:34.390] $GNGGA,073933.80,,,,,0,00,99.99,,,,,66.8,*6B
[2021-02-22 16:39:34.484] $GNGGA,073933.90,,,,,0,00,99.99,,,,,66.9,*6B
[2021-02-22 16:39:34.577] $GNGGA,073934.00,,,,,0,00,99.99,,,,,67.0,*6D
[2021-02-22 16:39:34.687] $GNGGA,073934.10,,,,,0,00,99.99,,,,,67.1,*6D
[2021-02-22 16:39:34.781] $GNGGA,073934.20,,,,,0,00,99.99,,,,,67.2,*6D
[2021-02-22 16:39:34.874] $GNGGA,073934.30,,,,,0,00,99.99,,,,,67.3,*6D
[2021-02-22 16:39:34.968] $GNGGA,073934.40,,,,,0,00,99.99,,,,,67.4,*6D
[2021-02-22 16:39:35.093] $GNGGA,073934.50,,,,,0,00,99.99,,,,,67.5,*6D
[2021-02-22 16:39:35.187] $GNGGA,073934.60,3713.974366000,N,13701.559880000,E,1,06,1.86,109.230,M,37.565,M,67.6,*57
[2021-02-22 16:39:35.265] $GNGGA,073934.70,3713.974102000,N,13701.560084000,E,1,07,1.23,109.303,M,37.564,M,67.7,*5F
[2021-02-22 16:39:35.374] $GNGGA,073934.80,3713.974228000,N,13701.560012000,E,1,07,1.12,108.225,M,37.565,M,67.8,*5C
[2021-02-22 16:39:35.468] $GNGGA,073934.90,3713.974288000,N,13701.559886000,E,1,07,1.12,107.104,M,37.565,M,67.9,*56
[2021-02-22 16:39:35.577] $GNGGA,073935.00,3713.974378000,N,13701.559922000,E,1,07,1.11,106.237,M,37.565,M,68.0,*58
[2021-02-22 16:39:35.687] $GNGGA,073935.10,3713.974552000,N,13701.559868000,E,1,07,1.11,105.628,M,37.565,M,68.1,*50
[2021-02-22 16:39:35.780] $GNGGA,073935.20,3713.974660000,N,13701.559802000,E,1,07,1.11,104.467,M,37.565,M,68.2,*56
[2021-02-22 16:39:35.874] $GNGGA,073935.30,3713.974756000,N,13701.559856000,E,1,09,1.10,103.394,M,37.565,M,68.3,*50
[2021-02-22 16:39:35.968] $GNGGA,073935.40,3713.974270000,N,13701.559544000,E,1,09,1.10,99.803,M,37.565,M,68.4,*68
[2021-02-22 16:39:36.093] $GNGGA,073935.50,3713.974156000,N,13701.559412000,E,1,09,1.01,98.587,M,37.565,M,68.5,*6D
[2021-02-22 16:39:36.171] $GNGGA,073935.60,3713.974222000,N,13701.559400000,E,1,09,0.85,97.834,M,37.565,M,68.6,*69
[2021-02-22 16:39:36.280] $GNGGA,073935.70,3713.974324000,N,13701.559388000,E,1,09,0.85,97.444,M,37.565,M,68.7,*62
[2021-02-22 16:39:36.374] $GNGGA,073935.80,3713.974420000,N,13701.559490000,E,1,09,0.85,96.774,M,37.565,M,68.8,*6E
[2021-02-22 16:39:36.499] $GNGGA,073935.90,3713.974528000,N,13701.559580000,E,1,09,0.85,96.361,M,37.565,M,68.9,*67
[2021-02-22 16:39:36.577] $GNGGA,073936.00,3713.974600000,N,13701.559544000,E,1,09,0.85,96.287,M,37.565,M,69.0,*6D
[2021-02-22 16:39:36.671] $GNGGA,073936.10,3713.974684000,N,13701.559502000,E,1,09,0.74,96.258,M,37.565,M,69.1,*6F
[2021-02-22 16:39:36.780] $GNGGA,073936.20,3713.974744000,N,13701.559538000,E,1,09,0.74,96.248,M,37.565,M,69.2,*6A
[2021-02-22 16:39:36.890] $GNGGA,073936.30,3713.974804000,N,13701.559556000,E,1,09,0.74,96.310,M,37.565,M,69.3,*65
[2021-02-22 16:39:36.968] $GNGGA,073936.40,3713.974858000,N,13701.559538000,E,1,09,0.74,96.440,M,37.565,M,69.4,*66
[2021-02-22 16:39:37.077] $GNGGA,073936.50,3713.974888000,N,13701.559550000,E,1,09,0.74,96.552,M,37.565,M,69.5,*67
[2021-02-22 16:39:37.171] $GNGGA,073936.60,3713.974882000,N,13701.559526000,E,1,09,0.74,96.656,M,37.565,M,69.6,*6B
[2021-02-22 16:39:37.296] $GNGGA,073936.70,3713.974888000,N,13701.559574000,E,1,09,0.72,96.615,M,37.565,M,69.7,*67
[2021-02-22 16:39:37.374] $GNGGA,073936.80,3713.974888000,N,13701.559622000,E,1,09,0.72,96.554,M,37.565,M,69.8,*61
[2021-02-22 16:39:37.468] $GNGGA,073936.90,3713.974876000,N,13701.559640000,E,1,09,0.72,96.525,M,37.565,M,69.9,*62
[2021-02-22 16:39:37.577] $GNGGA,073937.00,3713.974870000,N,13701.559670000,E,1,09,0.72,96.531,M,37.565,M,70.0,*6B
[2021-02-22 16:39:37.687] $GNGGA,073937.10,3713.974858000,N,13701.559670000,E,1,09,0.72,96.635,M,37.565,M,70.1,*66
[2021-02-22 16:39:37.780] $GNGGA,073937.20,3713.974852000,N,13701.559730000,E,1,09,0.72,96.559,M,37.565,M,70.2,*60
[2021-02-22 16:39:37.874] $GNGGA,073937.30,3713.974846000,N,13701.559796000,E,1,09,0.72,96.405,M,37.565,M,70.3,*61
[2021-02-22 16:39:37.968] $GNGGA,073937.40,3713.974834000,N,13701.559826000,E,1,09,0.72,96.287,M,37.565,M,70.4,*6C
[2021-02-22 16:39:38.093] $GNGGA,073937.50,3713.974828000,N,13701.559844000,E,1,09,0.72,96.202,M,37.565,M,70.5,*68
[2021-02-22 16:39:38.171] $GNGGA,073937.60,3713.974810000,N,13701.559838000,E,1,09,0.72,96.164,M,37.565,M,70.6,*6B
[2021-02-22 16:39:38.280] $GNGGA,073937.70,3713.974774000,N,13701.559790000,E,1,09,0.72,96.248,M,37.565,M,70.7,*66
[2021-02-22 16:39:38.374] $GNGGA,073937.80,3713.974756000,N,13701.559766000,E,1,10,0.72,96.229,M,37.565,M,70.8,*60
[2021-02-22 16:39:38.499] $GNGGA,073937.90,3713.974744000,N,13701.559760000,E,1,10,0.72,96.257,M,37.565,M,70.9,*6C
[2021-02-22 16:39:38.577] $GNGGA,073938.00,3713.974738000,N,13701.559754000,E,1,10,0.72,96.268,M,37.565,M,71.0,*62
[2021-02-22 16:39:38.671] $GNGGA,073938.10,3713.974732000,N,13701.559766000,E,1,09,0.72,96.241,M,37.565,M,71.1,*6A
[2021-02-22 16:39:38.780] $GNGGA,073938.20,3713.974726000,N,13701.559778000,E,1,09,0.72,96.228,M,37.565,M,71.2,*6F
[2021-02-22 16:39:38.890] $GNGGA,073938.30,3713.974726000,N,13701.559802000,E,1,09,0.72,96.186,M,37.565,M,71.3,*6A
[2021-02-22 16:39:38.968] $GNGGA,073938.40,3713.974726000,N,13701.559826000,E,1,10,0.72,96.159,M,37.565,M,71.4,*66
[2021-02-22 16:39:39.077] $GNGGA,073938.50,3713.974732000,N,13701.559844000,E,1,10,0.72,96.142,M,37.565,M,71.5,*6D
[2021-02-22 16:39:39.171] $GNGGA,073938.60,3713.974726000,N,13701.559862000,E,1,10,0.72,96.111,M,37.565,M,71.6,*6A
[2021-02-22 16:39:39.280] $GNGGA,073938.70,3713.974726000,N,13701.559892000,E,1,10,0.72,96.074,M,37.565,M,71.7,*67
[2021-02-22 16:39:39.390] $GNGGA,073938.80,3713.974732000,N,13701.559922000,E,1,10,0.72,96.005,M,37.565,M,71.8,*6E
[2021-02-22 16:39:39.468] $GNGGA,073938.90,3713.974738000,N,13701.559940000,E,1,10,0.72,95.964,M,37.565,M,71.9,*6D
[2021-02-22 16:39:39.577] $GNGGA,073939.00,3713.974750000,N,13701.559970000,E,1,10,0.72,95.911,M,37.565,M,72.0,*60
[2021-02-22 16:39:39.671] $GNGGA,073939.10,3713.974750000,N,13701.559994000,E,1,10,0.72,95.878,M,37.565,M,72.1,*64
[2021-02-22 16:39:39.780] $GNGGA,073939.20,3713.974750000,N,13701.560012000,E,1,10,0.72,95.875,M,37.565,M,72.2,*64
[2021-02-22 16:39:39.890] $GNGGA,073939.30,3713.974750000,N,13701.560030000,E,1,10,0.72,95.861,M,37.565,M,72.3,*61
[2021-02-22 16:39:39.968] $GNGGA,073939.40,3713.974750000,N,13701.560048000,E,1,10,0.72,95.868,M,37.565,M,72.4,*67
[2021-02-22 16:39:40.077] $GNGGA,073939.50,3713.974750000,N,13701.560060000,E,1,10,0.72,95.872,M,37.565,M,72.5,*66
[2021-02-22 16:39:40.171] $GNGGA,073939.60,3713.974750000,N,13701.560078000,E,1,10,0.72,95.875,M,37.565,M,72.6,*68
[2021-02-22 16:39:40.296] $GNGGA,073939.70,3713.974750000,N,13701.560090000,E,1,10,0.72,95.888,M,37.565,M,72.7,*6C
[2021-02-22 16:39:40.374] $GNGGA,073939.80,3713.974756000,N,13701.560108000,E,1,10,0.72,95.895,M,37.565,M,72.8,*66
[2021-02-22 16:39:40.468] $GNGGA,073939.90,3713.974762000,N,13701.560120000,E,1,10,0.72,95.909,M,37.565,M,72.9,*6F
[2021-02-22 16:39:40.577] $GNGGA,073940.00,3713.974768000,N,13701.560138000,E,1,10,0.72,95.917,M,37.565,M,73.0,*6C
[2021-02-22 16:39:40.686] $GNGGA,073940.10,3713.974774000,N,13701.560150000,E,1,10,0.72,95.928,M,37.565,M,73.1,*63
[2021-02-22 16:39:40.780] $GNGGA,073940.20,3713.974780000,N,13701.560156000,E,1,10,0.72,95.947,M,37.565,M,73.2,*67
[2021-02-22 16:39:40.874] $GNGGA,073940.30,3713.974786000,N,13701.560168000,E,1,10,0.72,95.977,M,37.565,M,73.3,*6F
[2021-02-22 16:39:40.968] $GNGGA,073940.40,3713.974792000,N,13701.560180000,E,1,10,0.72,95.988,M,37.565,M,73.4,*6C
[2021-02-22 16:39:41.093] $GNGGA,073940.50,3713.974798000,N,13701.560192000,E,1,10,0.72,96.004,M,37.565,M,73.5,*6B
[2021-02-22 16:39:41.171] $GNGGA,073940.60,3713.974804000,N,13701.560198000,E,1,10,0.72,96.023,M,37.565,M,73.6,*6E
[2021-02-22 16:39:41.280] $GNGGA,073940.70,3713.974810000,N,13701.560204000,E,1,10,0.72,96.022,M,37.565,M,73.7,*6C
[2021-02-22 16:39:41.374] $GNGGA,073940.80,3713.974816000,N,13701.560216000,E,1,10,0.72,96.026,M,37.565,M,73.8,*6D
[2021-02-22 16:39:41.499] $GNGGA,073940.90,3713.974822000,N,13701.560216000,E,1,10,0.72,96.038,M,37.565,M,73.9,*65
[2021-02-22 16:39:41.577] $GNGGA,073941.00,3713.974822000,N,13701.560222000,E,1,10,0.72,96.042,M,37.565,M,74.0,*69
[2021-02-22 16:39:41.671] $GNGGA,073941.10,3713.974828000,N,13701.560228000,E,1,10,0.72,96.053,M,37.565,M,74.1,*69
[2021-02-22 16:39:41.780] $GNGGA,073941.20,3713.974834000,N,13701.560234000,E,1,10,0.72,96.052,M,37.565,M,74.2,*68
[2021-02-22 16:39:41.889] $GNGGA,073941.30,3713.974840000,N,13701.560240000,E,1,10,0.72,96.053,M,37.565,M,74.3,*69
[2021-02-22 16:39:41.968] $GNGGA,073941.40,3713.974840000,N,13701.560240000,E,1,09,0.72,96.058,M,37.565,M,74.4,*6A
[2021-02-22 16:39:42.077] $GNGGA,073941.50,3713.974846000,N,13701.560246000,E,1,09,0.72,96.058,M,37.565,M,74.5,*6A
[2021-02-22 16:39:42.171] $GNGGA,073941.60,3713.974852000,N,13701.560252000,E,1,09,0.72,96.056,M,37.565,M,74.6,*64
[2021-02-22 16:39:42.296] $GNGGA,073941.70,3713.974852000,N,13701.560252000,E,1,09,0.72,96.055,M,37.565,M,74.7,*67
[2021-02-22 16:39:42.374] $GNGGA,073941.80,3713.974858000,N,13701.560258000,E,1,09,0.72,96.050,M,37.565,M,74.8,*62
[2021-02-22 16:39:42.467] $GNGGA,073941.90,3713.974858000,N,13701.560258000,E,1,09,0.72,96.048,M,37.565,M,74.9,*6B
[2021-02-22 16:39:42.577] $GNGGA,073942.00,3713.974864000,N,13701.560264000,E,1,09,0.72,96.044,M,37.565,M,75.0,*65
[2021-02-22 16:39:42.686] $GNGGA,073942.10,3713.974864000,N,13701.560270000,E,1,09,0.72,96.046,M,37.565,M,75.1,*62
[2021-02-22 16:39:42.780] $GNGGA,073942.20,3713.974864000,N,13701.560270000,E,1,08,0.72,96.043,M,37.565,M,75.2,*66
[2021-02-22 16:39:42.874] $GNGGA,073942.30,3713.974870000,N,13701.560270000,E,1,08,0.72,96.038,M,37.565,M,75.3,*6F
[2021-02-22 16:39:42.967] $GNGGA,073942.40,3713.974870000,N,13701.560276000,E,1,08,0.72,96.027,M,37.565,M,75.4,*67
[2021-02-22 16:39:43.092] $GNGGA,073942.50,3713.974876000,N,13701.560276000,E,1,08,0.72,96.024,M,37.565,M,75.5,*62
[2021-02-22 16:39:43.171] $GNGGA,073942.60,3713.974876000,N,13701.560282000,E,1,08,0.72,96.025,M,37.565,M,75.6,*68
[2021-02-22 16:39:43.280] $GNGGA,073942.70,3713.974876000,N,13701.560282000,E,1,08,0.72,96.022,M,37.565,M,75.7,*6F
[2021-02-22 16:39:43.374] $GNGGA,073942.80,3713.974876000,N,13701.560282000,E,1,08,0.72,96.025,M,37.565,M,75.8,*68
[2021-02-22 16:39:43.483] $GNGGA,073942.90,3713.974882000,N,13701.560288000,E,1,08,0.72,96.018,M,37.565,M,75.9,*67
[2021-02-22 16:39:43.592] $GNGGA,073943.00,3713.974882000,N,13701.560294000,E,1,08,0.72,96.014,M,37.565,M,76.0,*64
[2021-02-22 16:39:43.671] $GNGGA,073943.10,3713.974882000,N,13701.560300000,E,1,08,0.72,96.010,M,37.565,M,76.1,*6C
[2021-02-22 16:39:43.780] $GNGGA,073943.20,3713.974882000,N,13701.560300000,E,1,09,0.72,96.007,M,37.565,M,76.2,*6B
[2021-02-22 16:39:43.874] $GNGGA,073943.30,3713.974888000,N,13701.560300000,E,1,09,0.72,96.006,M,37.565,M,76.3,*60
[2021-02-22 16:39:43.983] $GNGGA,073943.40,3713.974888000,N,13701.560306000,E,1,09,0.72,95.998,M,37.565,M,76.4,*6B
[2021-02-22 16:39:44.092] $GNGGA,073943.50,3713.974888000,N,13701.560312000,E,1,09,0.72,95.995,M,37.565,M,76.5,*63
[2021-02-22 16:39:44.171] $GNGGA,073943.60,3713.974888000,N,13701.560318000,E,1,09,0.72,95.993,M,37.565,M,76.6,*6F
[2021-02-22 16:39:44.280] $GNGGA,073943.70,3713.974894000,N,13701.560318000,E,1,09,0.72,95.987,M,37.565,M,76.7,*67
[2021-02-22 16:39:44.374] $GNGGA,073943.80,3713.974894000,N,13701.560324000,E,1,09,0.72,95.980,M,37.565,M,76.8,*6F
[2021-02-22 16:39:44.499] $GNGGA,073943.90,3713.974894000,N,13701.560330000,E,1,09,0.72,95.978,M,37.565,M,76.9,*6D
[2021-02-22 16:39:44.577] $GNGGA,073944.00,3713.974894000,N,13701.560330000,E,1,09,0.72,95.965,M,37.565,M,77.0,*67
[2021-02-22 16:39:44.670] $GNGGA,073944.10,3713.974900000,N,13701.560330000,E,1,09,0.72,95.962,M,37.565,M,77.1,*6C
[2021-02-22 16:39:44.780] $GNGGA,073944.20,3713.974900000,N,13701.560330000,E,1,09,0.72,95.961,M,37.565,M,77.2,*6F
[2021-02-22 16:39:44.889] $GNGGA,073944.30,3713.974906000,N,13701.560336000,E,1,09,0.72,95.944,M,37.565,M,77.3,*68
[2021-02-22 16:39:44.967] $GNGGA,073944.40,3713.974906000,N,13701.560330000,E,1,09,0.72,95.942,M,37.565,M,77.4,*68
[2021-02-22 16:39:45.077] $GNGGA,073944.50,3713.974912000,N,13701.560330000,E,1,09,0.72,95.937,M,37.565,M,77.5,*6F
[2021-02-22 16:39:45.170] $GNGGA,073944.60,3713.974912000,N,13701.560330000,E,1,09,0.72,95.930,M,37.565,M,77.6,*68
[2021-02-22 16:39:45.295] $GNGGA,073944.70,3713.974912000,N,13701.560330000,E,1,09,0.72,95.922,M,37.565,M,77.7,*6B
[2021-02-22 16:39:45.374] $GNGGA,073944.80,3713.974918000,N,13701.560330000,E,1,09,0.72,95.915,M,37.565,M,77.8,*65
[2021-02-22 16:39:45.467] $GNGGA,073944.90,3713.974918000,N,13701.560324000,E,1,09,0.72,95.913,M,37.565,M,77.9,*66
[2021-02-22 16:39:45.577] $GNGGA,073945.00,3713.974918000,N,13701.560324000,E,1,09,0.72,95.906,M,37.565,M,78.0,*6C
[2021-02-22 16:39:45.686] $GNGGA,073945.10,3713.974918000,N,13701.560324000,E,1,09,0.72,95.901,M,37.565,M,78.1,*6B
[2021-02-22 16:39:45.780] $GNGGA,073945.20,3713.974918000,N,13701.560324000,E,1,09,0.72,95.898,M,37.565,M,78.2,*6A
[2021-02-22 16:39:45.874] $GNGGA,073945.30,3713.974924000,N,13701.560318000,E,1,09,0.72,95.893,M,37.565,M,78.3,*61
[2021-02-22 16:39:45.967] $GNGGA,073945.40,3713.974924000,N,13701.560318000,E,1,09,0.72,95.890,M,37.565,M,78.4,*62
[2021-02-22 16:39:46.092] $GNGGA,073945.50,3713.974924000,N,13701.560318000,E,1,09,0.72,95.885,M,37.565,M,78.5,*66
[2021-02-22 16:39:46.170] $GNGGA,073945.60,3713.974924000,N,13701.560318000,E,1,09,0.72,95.876,M,37.565,M,78.6,*6A
[2021-02-22 16:39:46.280] $GNGGA,073945.70,3713.974924000,N,13701.560312000,E,1,08,0.72,95.884,M,37.565,M,78.7,*6C
[2021-02-22 16:39:46.373] $GNGGA,073945.80,3713.974930000,N,13701.560312000,E,1,08,0.72,95.875,M,37.565,M,78.8,*67
[2021-02-22 16:39:46.498] $GNGGA,073945.90,3713.974930000,N,13701.560312000,E,1,08,0.72,95.878,M,37.565,M,78.9,*6A
[2021-02-22 16:39:46.577] $GNGGA,073946.00,3713.974930000,N,13701.560312000,E,1,08,0.72,95.878,M,37.565,M,79.0,*68
[2021-02-22 16:39:46.670] $GNGGA,073946.10,3713.974930000,N,13701.560312000,E,1,08,0.72,95.878,M,37.565,M,79.1,*68
[2021-02-22 16:39:46.780] $GNGGA,073946.20,3713.974930000,N,13701.560318000,E,1,08,0.72,95.877,M,37.565,M,79.2,*6D
[2021-02-22 16:39:46.889] $GNGGA,073946.30,3713.974930000,N,13701.560318000,E,1,08,0.72,95.875,M,37.565,M,79.3,*6F
[2021-02-22 16:39:46.967] $GNGGA,073946.40,3713.974936000,N,13701.560318000,E,1,08,0.72,95.873,M,37.565,M,79.4,*6F
[2021-02-22 16:39:47.077] $GNGGA,073946.50,3713.974936000,N,13701.560318000,E,1,08,0.72,95.876,M,37.565,M,79.5,*6A
[2021-02-22 16:39:47.170] $GNGGA,073946.60,3713.974936000,N,13701.560324000,E,1,08,0.72,95.871,M,37.565,M,79.6,*62
[2021-02-22 16:39:47.295] $GNGGA,073946.70,3713.974936000,N,13701.560324000,E,1,08,0.72,95.865,M,37.565,M,79.7,*67
[2021-02-22 16:39:47.373] $GNGGA,073946.80,3713.974936000,N,13701.560324000,E,1,08,0.72,95.867,M,37.565,M,79.8,*65
[2021-02-22 16:39:47.467] $GNGGA,073946.90,3713.974936000,N,13701.560324000,E,1,08,0.72,95.863,M,37.565,M,79.9,*61
[2021-02-22 16:39:47.577] $GNGGA,073947.00,3713.974936000,N,13701.560324000,E,1,08,0.72,95.857,M,37.565,M,80.0,*61
[2021-02-22 16:39:47.686] $GNGGA,073947.10,3713.974936000,N,13701.560324000,E,1,08,0.72,95.849,M,37.565,M,80.1,*6E
[2021-02-22 16:39:47.780] $GNGGA,073947.20,3713.974936000,N,13701.560324000,E,1,08,0.72,95.855,M,37.565,M,80.2,*63
[2021-02-22 16:39:47.873] $GNGGA,073947.30,3713.974942000,N,13701.560324000,E,1,08,0.72,95.845,M,37.565,M,80.3,*61
[2021-02-22 16:39:47.967] $GNGGA,073947.40,3713.974942000,N,13701.560318000,E,1,08,0.72,95.850,M,37.565,M,80.4,*6A
[2021-02-22 16:39:48.076] $GNGGA,073947.50,3713.974942000,N,13701.560318000,E,1,08,0.72,95.845,M,37.565,M,80.5,*6E
[2021-02-22 16:39:48.186] $GNGGA,073947.60,3713.974942000,N,13701.560318000,E,1,08,0.72,95.843,M,37.565,M,80.6,*68
[2021-02-22 16:39:48.280] $GNGGA,073947.70,3713.974942000,N,13701.560312000,E,1,08,0.72,95.843,M,37.565,M,80.7,*62
[2021-02-22 16:39:48.373] $GNGGA,073947.80,3713.974948000,N,13701.560312000,E,1,08,0.72,95.839,M,37.565,M,80.8,*65
[2021-02-22 16:39:48.467] $GNGGA,073947.90,3713.974948000,N,13701.560312000,E,1,08,0.72,95.833,M,37.565,M,80.9,*6F
[2021-02-22 16:39:48.576] $GNGGA,073948.00,3713.974948000,N,13701.560312000,E,1,08,0.72,95.837,M,37.565,M,81.0,*65
[2021-02-22 16:39:48.701] $GNGGA,073948.10,3713.974948000,N,13701.560312000,E,1,09,0.72,95.831,M,37.565,M,81.1,*62
[2021-02-22 16:39:48.780] $GNGGA,073948.20,3713.974948000,N,13701.560312000,E,1,09,0.72,95.830,M,37.565,M,81.2,*63
[2021-02-22 16:39:48.873] $GNGGA,073948.30,3713.974948000,N,13701.560312000,E,1,09,0.72,95.833,M,37.565,M,81.3,*60
[2021-02-22 16:39:48.983] $GNGGA,073948.40,3713.974954000,N,13701.560312000,E,1,09,0.72,95.830,M,37.565,M,81.4,*6E
[2021-02-22 16:39:49.092] $GNGGA,073948.50,3713.974954000,N,13701.560312000,E,1,09,0.72,95.826,M,37.565,M,81.5,*69
[2021-02-22 16:39:49.170] $GNGGA,073948.60,3713.974954000,N,13701.560312000,E,1,09,0.72,95.831,M,37.565,M,81.6,*6F
[2021-02-22 16:39:49.280] $GNGGA,073948.70,3713.974954000,N,13701.560312000,E,1,09,0.72,95.828,M,37.565,M,81.7,*67
[2021-02-22 16:39:49.373] $GNGGA,073948.80,3713.974954000,N,13701.560312000,E,1,09,0.72,95.826,M,37.565,M,81.8,*69
[2021-02-22 16:39:49.498] $GNGGA,073948.90,3713.974954000,N,13701.560312000,E,1,09,0.72,95.824,M,37.565,M,81.9,*6B
[2021-02-22 16:39:49.576] $GNGGA,073949.00,3713.974954000,N,13701.560312000,E,1,08,0.72,95.825,M,37.565,M,82.0,*69
[2021-02-22 16:39:49.670] $GNGGA,073949.10,3713.974954000,N,13701.560312000,E,1,08,0.72,95.832,M,37.565,M,82.1,*6F
[2021-02-22 16:39:49.780] $GNGGA,073949.20,3713.974954000,N,13701.560312000,E,1,08,0.72,95.824,M,37.565,M,82.2,*68
[2021-02-22 16:39:49.889] $GNGGA,073949.30,3713.974954000,N,13701.560312000,E,1,08,0.70,95.828,M,37.565,M,82.3,*66
[2021-02-22 16:39:49.967] $GNGGA,073949.40,3713.974954000,N,13701.560312000,E,1,08,0.70,95.831,M,37.565,M,82.4,*6E
[2021-02-22 16:39:50.076] $GNGGA,073949.50,3713.974954000,N,13701.560312000,E,1,08,0.70,95.831,M,37.565,M,82.5,*6E
[2021-02-22 16:39:50.170] $GNGGA,073949.60,3713.974954000,N,13701.560312000,E,1,08,0.70,95.830,M,37.565,M,82.6,*6F
[2021-02-22 16:39:50.295] $GNGGA,073949.70,3713.974954000,N,13701.560312000,E,1,08,0.70,95.830,M,37.565,M,82.7,*6F
[2021-02-22 16:39:50.373] $GNGGA,073949.80,3713.974954000,N,13701.560312000,E,1,08,0.70,95.834,M,37.565,M,82.8,*6B
[2021-02-22 16:39:50.467] $GNGGA,073949.90,3713.974954000,N,13701.560312000,E,1,08,0.70,95.834,M,37.565,M,82.9,*6B
[2021-02-22 16:39:50.576] $GNGGA,073950.00,3713.974954000,N,13701.560312000,E,1,08,0.70,95.830,M,37.565,M,83.0,*66
[2021-02-22 16:39:50.686] $GNGGA,073950.10,3713.974954000,N,13701.560312000,E,1,08,0.70,95.833,M,37.565,M,83.1,*65
[2021-02-22 16:39:50.779] $GNGGA,073950.20,3713.974954000,N,13701.560312000,E,1,08,0.70,95.830,M,37.565,M,83.2,*66
[2021-02-22 16:39:50.873] $GNGGA,073950.30,3713.974954000,N,13701.560312000,E,1,08,0.70,95.835,M,37.565,M,83.3,*63
[2021-02-22 16:39:50.967] $GNGGA,073950.40,3713.974954000,N,13701.560312000,E,1,08,0.70,95.836,M,37.565,M,83.4,*60
[2021-02-22 16:39:51.092] $GNGGA,073950.50,3713.974954000,N,13701.560306000,E,1,08,0.70,95.841,M,37.565,M,83.5,*65
[2021-02-22 16:39:51.170] $GNGGA,073950.60,3713.974954000,N,13701.560306000,E,1,08,0.70,95.847,M,37.565,M,83.6,*63
[2021-02-22 16:39:51.279] $GNGGA,073950.70,3713.974954000,N,13701.560306000,E,1,08,0.70,95.847,M,37.565,M,83.7,*63
[2021-02-22 16:39:51.373] $GNGGA,073950.80,3713.974954000,N,13701.560306000,E,1,08,0.70,95.852,M,37.565,M,83.8,*67
[2021-02-22 16:39:51.498] $GNGGA,073950.90,3713.974954000,N,13701.560306000,E,1,08,0.70,95.847,M,37.565,M,83.9,*63
[2021-02-22 16:39:51.576] $GNGGA,073951.00,3713.974954000,N,13701.560306000,E,1,08,0.70,95.857,M,37.565,M,84.0,*64
[2021-02-22 16:39:51.670] $GNGGA,073951.10,3713.974954000,N,13701.560300000,E,1,08,0.70,95.861,M,37.565,M,84.1,*67
[2021-02-22 16:39:51.779] $GNGGA,073951.20,3713.974954000,N,13701.560306000,E,1,08,0.70,95.861,M,37.565,M,84.2,*61
[2021-02-22 16:39:51.889] $GNGGA,073951.30,3713.974954000,N,13701.560300000,E,1,09,0.70,95.861,M,37.565,M,84.3,*66
[2021-02-22 16:39:51.967] $GNGGA,073951.40,3713.974954000,N,13701.560306000,E,1,09,0.70,95.863,M,37.565,M,84.4,*62
[2021-02-22 16:39:52.076] $GNGGA,073951.50,3713.974954000,N,13701.560306000,E,1,09,0.70,95.868,M,37.565,M,84.5,*69
[2021-02-22 16:39:52.170] $GNGGA,073951.60,3713.974954000,N,13701.560300000,E,1,09,0.70,95.871,M,37.565,M,84.6,*67
[2021-02-22 16:39:52.279] $GNGGA,073951.70,3713.974954000,N,13701.560300000,E,1,09,0.70,95.872,M,37.565,M,84.7,*64
[2021-02-22 16:39:52.389] $GNGGA,073951.80,3713.974954000,N,13701.560300000,E,1,09,0.70,95.877,M,37.565,M,84.8,*61
[2021-02-22 16:39:52.467] $GNGGA,073951.90,3713.974954000,N,13701.560300000,E,1,09,0.70,95.876,M,37.565,M,84.9,*60
[2021-02-22 16:39:52.576] $GNGGA,073952.00,3713.974954000,N,13701.560300000,E,1,09,0.70,95.884,M,37.565,M,85.0,*6F
[2021-02-22 16:39:52.670] $GNGGA,073952.10,3713.974954000,N,13701.560300000,E,1,09,0.70,95.881,M,37.565,M,85.1,*6A
[2021-02-22 16:39:52.779] $GNGGA,073952.20,3713.974954000,N,13701.560306000,E,1,09,0.70,95.882,M,37.565,M,85.2,*6F
[2021-02-22 16:39:52.889] $GNGGA,073952.30,3713.974954000,N,13701.560306000,E,1,09,0.70,95.876,M,37.565,M,85.3,*64
[2021-02-22 16:39:52.967] $GNGGA,073952.40,3713.974954000,N,13701.560300000,E,1,09,0.70,95.879,M,37.565,M,85.4,*6D
[2021-02-22 16:39:53.076] $GNGGA,073952.50,3713.974954000,N,13701.560300000,E,1,09,0.70,95.877,M,37.565,M,85.5,*63
[2021-02-22 16:39:53.170] $GNGGA,073952.60,3713.974954000,N,13701.560306000,E,1,09,0.70,95.883,M,37.565,M,85.6,*6E
[2021-02-22 16:39:53.295] $GNGGA,073952.70,3713.974954000,N,13701.560306000,E,1,09,0.70,95.879,M,37.565,M,85.7,*6B
[2021-02-22 16:39:53.373] $GNGGA,073952.80,3713.974954000,N,13701.560306000,E,1,09,0.70,95.876,M,37.565,M,85.8,*64
[2021-02-22 16:39:53.467] $GNGGA,073952.90,3713.974954000,N,13701.560306000,E,1,09,0.70,95.877,M,37.565,M,85.9,*65
[2021-02-22 16:39:53.576] $GNGGA,073953.00,3713.974954000,N,13701.560306000,E,1,09,0.70,95.880,M,37.565,M,86.0,*6F
[2021-02-22 16:39:53.701] $GNGGA,073953.10,3713.974960000,N,13701.560312000,E,1,09,0.70,95.879,M,37.565,M,86.1,*6B
[2021-02-22 16:39:53.779] $GNGGA,073953.20,3713.974960000,N,13701.560312000,E,1,09,0.70,95.876,M,37.565,M,86.2,*64
[2021-02-22 16:39:53.873] $GNGGA,073953.30,3713.974960000,N,13701.560312000,E,1,09,0.70,95.872,M,37.565,M,86.3,*60
[2021-02-22 16:39:53.982] $GNGGA,073953.40,3713.974960000,N,13701.560312000,E,1,09,0.70,95.872,M,37.565,M,86.4,*60
[2021-02-22 16:39:54.092] $GNGGA,073953.50,3713.974960000,N,13701.560312000,E,1,09,0.70,95.875,M,37.565,M,86.5,*67
[2021-02-22 16:39:54.170] $GNGGA,073953.60,3713.974960000,N,13701.560312000,E,1,09,0.70,95.873,M,37.565,M,86.6,*61
[2021-02-22 16:39:54.279] $GNGGA,073953.70,3713.974960000,N,13701.560312000,E,1,09,0.70,95.867,M,37.565,M,86.7,*64
[2021-02-22 16:39:54.373] $GNGGA,073953.80,3713.974960000,N,13701.560312000,E,1,09,0.70,95.872,M,37.565,M,86.8,*60
[2021-02-22 16:39:54.498] $GNGGA,073953.90,3713.974960000,N,13701.560318000,E,1,09,0.70,95.869,M,37.565,M,86.9,*60
[2021-02-22 16:39:54.576] $GNGGA,073954.00,3713.974960000,N,13701.560312000,E,1,09,0.70,95.868,M,37.565,M,87.0,*6D
[2021-02-22 16:39:54.670] $GNGGA,073954.10,3713.974960000,N,13701.560318000,E,1,09,0.70,95.868,M,37.565,M,87.1,*67
[2021-02-22 16:39:54.779] $GNGGA,073954.20,3713.974960000,N,13701.560318000,E,1,09,0.65,95.873,M,37.565,M,87.2,*69
[2021-02-22 16:39:54.889] $GNGGA,073954.30,3713.974960000,N,13701.560318000,E,1,09,0.65,95.867,M,37.565,M,87.3,*6C
[2021-02-22 16:39:54.967] $GNGGA,073954.40,3713.974960000,N,13701.560318000,E,1,09,0.65,95.869,M,37.565,M,87.4,*62
[2021-02-22 16:39:55.076] $GNGGA,073954.50,3713.974960000,N,13701.560312000,E,1,09,0.65,95.871,M,37.565,M,87.5,*61
[2021-02-22 16:39:55.170] $GNGGA,073954.60,3713.974966000,N,13701.560318000,E,1,09,0.65,95.869,M,37.565,M,87.6,*64
[2021-02-22 16:39:55.295] $GNGGA,073954.70,3713.974960000,N,13701.560318000,E,1,09,0.65,95.872,M,37.565,M,87.7,*68
[2021-02-22 16:39:55.373] $GNGGA,073954.80,3713.974960000,N,13701.560318000,E,1,09,0.65,95.875,M,37.565,M,87.8,*6F
[2021-02-22 16:39:55.467] $GNGGA,073954.90,3713.974960000,N,13701.560318000,E,1,09,0.65,95.875,M,37.565,M,87.9,*6F
[2021-02-22 16:39:55.576] $GNGGA,073955.00,3713.974960000,N,13701.560324000,E,1,09,0.65,95.873,M,37.565,M,88.0,*68
[2021-02-22 16:39:55.685] $GNGGA,073955.10,3713.974960000,N,13701.560324000,E,1,09,0.65,95.880,M,37.565,M,88.1,*64
[2021-02-22 16:39:55.779] $GNGGA,073955.20,3713.974960000,N,13701.560330000,E,1,09,0.65,95.878,M,37.565,M,88.2,*66
[2021-02-22 16:39:55.873] $GNGGA,073955.30,3713.974960000,N,13701.560330000,E,1,09,0.65,95.876,M,37.565,M,88.3,*68
[2021-02-22 16:39:55.967] $GNGGA,073955.40,3713.974960000,N,13701.560330000,E,1,09,0.65,95.880,M,37.565,M,88.4,*61
[2021-02-22 16:39:56.092] $GNGGA,073955.50,3713.974960000,N,13701.560330000,E,1,09,0.65,95.883,M,37.565,M,88.5,*62
[2021-02-22 16:39:56.170] $GNGGA,073955.60,3713.974960000,N,13701.560336000,E,1,09,0.65,95.881,M,37.565,M,88.6,*66
[2021-02-22 16:39:56.279] $GNGGA,073955.70,3713.974960000,N,13701.560336000,E,1,09,0.65,95.884,M,37.565,M,88.7,*63
[2021-02-22 16:39:56.373] $GNGGA,073955.80,3713.974960000,N,13701.560336000,E,1,09,0.65,95.885,M,37.565,M,88.8,*62
[2021-02-22 16:39:56.498] $GNGGA,073955.90,3713.974960000,N,13701.560342000,E,1,09,0.65,95.874,M,37.565,M,88.9,*6F
[2021-02-22 16:39:56.576] $GNGGA,073956.00,3713.974960000,N,13701.560342000,E,1,09,0.65,95.883,M,37.565,M,89.0,*65
[2021-02-22 16:39:56.670] $GNGGA,073956.10,3713.974960000,N,13701.560342000,E,1,09,0.65,95.885,M,37.565,M,89.1,*63
[2021-02-22 16:39:56.779] $GNGGA,073956.20,3713.974960000,N,13701.560342000,E,1,09,0.65,95.886,M,37.565,M,89.2,*60
[2021-02-22 16:39:56.873] $GNGGA,073956.30,3713.974960000,N,13701.560348000,E,1,09,0.65,95.878,M,37.565,M,89.3,*6B
[2021-02-22 16:39:56.998] $GNGGA,073956.40,3713.974960000,N,13701.560348000,E,1,09,0.65,95.878,M,37.565,M,89.4,*6B
[2021-02-22 16:39:57.076] $GNGGA,073956.50,3713.974960000,N,13701.560348000,E,1,09,0.65,95.879,M,37.565,M,89.5,*6A
[2021-02-22 16:39:57.170] $GNGGA,073956.60,3713.974960000,N,13701.560348000,E,1,09,0.65,95.876,M,37.565,M,89.6,*65
[2021-02-22 16:39:57.279] $GNGGA,073956.70,3713.974960000,N,13701.560348000,E,1,09,0.65,95.874,M,37.565,M,89.7,*67
[2021-02-22 16:39:57.388] $GNGGA,073956.80,3713.974960000,N,13701.560348000,E,1,09,0.65,95.876,M,37.565,M,89.8,*65
[2021-02-22 16:39:57.466] $GNGGA,073956.90,3713.974960000,N,13701.560348000,E,1,09,0.65,95.872,M,37.565,M,89.9,*61
[2021-02-22 16:39:57.576] $GNGGA,073957.00,3713.974960000,N,13701.560348000,E,1,09,0.65,95.874,M,37.565,M,90.0,*6E
[2021-02-22 16:39:57.670] $GNGGA,073957.10,3713.974966000,N,13701.560342000,E,1,09,0.65,95.869,M,37.565,M,90.1,*6E
[2021-02-22 16:39:57.795] $GNGGA,073957.20,3713.974960000,N,13701.560342000,E,1,09,0.65,95.869,M,37.565,M,90.2,*68
[2021-02-22 16:39:57.873] $GNGGA,073957.30,3713.974960000,N,13701.560342000,E,1,09,0.65,95.866,M,37.565,M,90.3,*67
[2021-02-22 16:39:57.966] $GNGGA,073957.40,3713.974966000,N,13701.560342000,E,1,09,0.65,95.871,M,37.565,M,90.4,*67
[2021-02-22 16:39:58.076] $GNGGA,073957.50,3713.974966000,N,13701.560342000,E,1,09,0.65,95.860,M,37.565,M,90.5,*67
[2021-02-22 16:39:58.201] $GNGGA,073957.60,3713.974966000,N,13701.560342000,E,1,09,0.65,95.864,M,37.565,M,90.6,*63
[2021-02-22 16:39:58.279] $GNGGA,073957.70,3713.974966000,N,13701.560342000,E,1,09,0.65,95.860,M,37.565,M,90.7,*67
[2021-02-22 16:39:58.373] $GNGGA,073957.80,3713.974966000,N,13701.560342000,E,1,09,0.65,95.860,M,37.565,M,90.8,*67
[2021-02-22 16:39:58.482] $GNGGA,073957.90,3713.974966000,N,13701.560342000,E,1,09,0.65,95.856,M,37.565,M,90.9,*62
[2021-02-22 16:39:58.591] $GNGGA,073958.00,3713.974966000,N,13701.560342000,E,1,09,0.65,95.857,M,37.565,M,91.0,*6D
[2021-02-22 16:39:58.670] $GNGGA,073958.10,3713.974966000,N,13701.560342000,E,1,09,0.65,95.857,M,37.565,M,91.1,*6D
[2021-02-22 16:39:58.779] $GNGGA,073958.20,3713.974966000,N,13701.560348000,E,1,09,0.65,95.858,M,37.565,M,91.2,*68
[2021-02-22 16:39:58.873] $GNGGA,073958.30,3713.974966000,N,13701.560348000,E,1,09,0.65,95.859,M,37.565,M,91.3,*69
[2021-02-22 16:39:58.998] $GNGGA,073958.40,3713.974966000,N,13701.560348000,E,1,09,0.65,95.851,M,37.565,M,91.4,*61
[2021-02-22 16:39:59.076] $GNGGA,073958.50,3713.974966000,N,13701.560348000,E,1,09,0.65,95.857,M,37.565,M,91.5,*67
[2021-02-22 16:39:59.169] $GNGGA,073958.60,3713.974966000,N,13701.560342000,E,1,09,0.65,95.857,M,37.565,M,91.6,*6D
[2021-02-22 16:39:59.279] $GNGGA,073958.70,3713.974966000,N,13701.560342000,E,1,09,0.65,95.856,M,37.565,M,91.7,*6C
[2021-02-22 16:39:59.388] $GNGGA,073958.80,3713.974966000,N,13701.560342000,E,1,09,0.65,95.851,M,37.565,M,91.8,*6B
[2021-02-22 16:39:59.466] $GNGGA,073958.90,3713.974960000,N,13701.560348000,E,1,09,0.65,95.852,M,37.565,M,91.9,*64
[2021-02-22 16:39:59.576] $GNGGA,073959.00,3713.974960000,N,13701.560348000,E,1,09,0.65,95.850,M,37.565,M,92.0,*64
[2021-02-22 16:39:59.669] $GNGGA,073959.10,3713.974960000,N,13701.560348000,E,1,09,0.65,95.850,M,37.565,M,92.1,*64
[2021-02-22 16:39:59.794] $GNGGA,073959.20,3713.974960000,N,13701.560348000,E,1,09,0.65,95.850,M,37.565,M,92.2,*64
[2021-02-22 16:39:59.873] $GNGGA,073959.30,3713.974960000,N,13701.560348000,E,1,09,0.65,95.848,M,37.565,M,92.3,*6D
[2021-02-22 16:39:59.966] $GNGGA,073959.40,3713.974960000,N,13701.560354000,E,1,09,0.65,95.841,M,37.565,M,92.4,*69
[2021-02-22 16:40:00.076] $GNGGA,073959.50,3713.974960000,N,13701.560348000,E,1,09,0.65,95.846,M,37.565,M,92.5,*63
[2021-02-22 16:40:00.185] $GNGGA,073959.60,3713.974960000,N,13701.560354000,E,1,09,0.65,95.836,M,37.565,M,92.6,*69
[2021-02-22 16:40:00.279] $GNGGA,073959.70,3713.974960000,N,13701.560354000,E,1,09,0.65,95.843,M,37.565,M,92.7,*6B
[2021-02-22 16:40:00.372] $GNGGA,073959.80,3713.974960000,N,13701.560360000,E,1,09,0.65,95.837,M,37.565,M,92.8,*6F
[2021-02-22 16:40:00.482] $GNGGA,073959.90,3713.974954000,N,13701.560360000,E,1,09,0.65,95.833,M,37.565,M,92.9,*6C
[2021-02-22 16:40:00.591] $GNGGA,074000.00,3713.974954000,N,13701.560366000,E,1,09,0.65,95.839,M,37.565,M,93.0,*63
[2021-02-22 16:40:00.669] $GNGGA,074000.10,3713.974954000,N,13701.560366000,E,1,09,0.65,95.837,M,37.565,M,93.1,*6D
[2021-02-22 16:40:00.779] $GNGGA,074000.20,3713.974948000,N,13701.560372000,E,1,09,0.65,95.836,M,37.565,M,93.2,*64
[2021-02-22 16:40:00.872] $GNGGA,074000.30,3713.974948000,N,13701.560378000,E,1,09,0.65,95.837,M,37.565,M,93.3,*6F
[2021-02-22 16:40:00.982] $GNGGA,074000.40,3713.974954000,N,13701.560378000,E,1,09,0.65,95.833,M,37.565,M,93.4,*66
[2021-02-22 16:40:01.091] $GNGGA,074000.50,3713.974954000,N,13701.560384000,E,1,09,0.70,95.835,M,37.565,M,93.5,*67
[2021-02-22 16:40:01.169] $GNGGA,074000.60,3713.974954000,N,13701.560384000,E,1,09,0.70,95.836,M,37.565,M,93.6,*64
[2021-02-22 16:40:01.279] $GNGGA,074000.70,3713.974954000,N,13701.560390000,E,1,09,0.70,95.836,M,37.565,M,93.7,*61
[2021-02-22 16:40:01.372] $GNGGA,074000.80,3713.974948000,N,13701.560390000,E,1,09,0.70,95.833,M,37.565,M,93.8,*69
[2021-02-22 16:40:01.482] $GNGGA,074000.90,3713.974948000,N,13701.560390000,E,1,09,0.70,95.828,M,37.565,M,93.9,*63
[2021-02-22 16:40:01.591] $GNGGA,074001.00,3713.974948000,N,13701.560390000,E,1,09,0.70,95.825,M,37.565,M,94.0,*68
[2021-02-22 16:40:01.669] $GNGGA,074001.10,3713.974948000,N,13701.560396000,E,1,09,0.70,95.824,M,37.565,M,94.1,*6F
[2021-02-22 16:40:01.779] $GNGGA,074001.20,3713.974948000,N,13701.560396000,E,1,09,0.70,95.827,M,37.565,M,94.2,*6C
[2021-02-22 16:40:01.872] $GNGGA,074001.30,3713.974948000,N,13701.560402000,E,1,09,0.70,95.816,M,37.565,M,94.3,*64
[2021-02-22 16:40:01.997] $GNGGA,074001.40,3713.974948000,N,13701.560396000,E,1,09,0.70,95.822,M,37.565,M,94.4,*69
[2021-02-22 16:40:02.076] $GNGGA,074001.50,3713.974948000,N,13701.560396000,E,1,09,0.70,95.816,M,37.565,M,94.5,*6E
[2021-02-22 16:40:02.169] $GNGGA,074001.60,3713.974948000,N,13701.560396000,E,1,09,0.70,95.815,M,37.565,M,94.6,*6D
[2021-02-22 16:40:02.279] $GNGGA,074001.70,3713.974948000,N,13701.560390000,E,1,09,0.70,95.813,M,37.565,M,94.7,*6D
[2021-02-22 16:40:02.388] $GNGGA,074001.80,3713.974948000,N,13701.560384000,E,1,09,0.70,95.807,M,37.565,M,94.8,*6D
[2021-02-22 16:40:02.466] $GNGGA,074001.90,3713.974948000,N,13701.560390000,E,1,09,0.70,95.801,M,37.565,M,94.9,*6E
[2021-02-22 16:40:02.575] $GNGGA,074002.00,3713.974948000,N,13701.560390000,E,1,09,0.70,95.802,M,37.565,M,95.0,*6F
[2021-02-22 16:40:02.669] $GNGGA,074002.10,3713.974948000,N,13701.560390000,E,1,08,0.70,95.799,M,37.565,M,95.1,*63
[2021-02-22 16:40:02.794] $GNGGA,074002.20,3713.974948000,N,13701.560390000,E,1,08,0.70,95.796,M,37.565,M,95.2,*6C
[2021-02-22 16:40:02.872] $GNGGA,074002.30,3713.974942000,N,13701.560396000,E,1,08,0.70,95.800,M,37.565,M,95.3,*60
[2021-02-22 16:40:02.982] $GNGGA,074002.40,3713.974942000,N,13701.560390000,E,1,08,0.70,95.789,M,37.565,M,95.4,*68
[2021-02-22 16:40:03.075] $GNGGA,074002.50,3713.974942000,N,13701.560396000,E,1,08,0.70,95.788,M,37.565,M,95.5,*6F
[2021-02-22 16:40:03.200] $GNGGA,074002.60,3713.974942000,N,13701.560396000,E,1,08,0.70,95.786,M,37.565,M,95.6,*61
[2021-02-22 16:40:03.279] $GNGGA,074002.70,3713.974942000,N,13701.560396000,E,1,09,0.70,95.782,M,37.565,M,95.7,*64
[2021-02-22 16:40:03.372] $GNGGA,074002.80,3713.974942000,N,13701.560402000,E,1,09,0.70,95.781,M,37.565,M,95.8,*6D
[2021-02-22 16:40:03.482] $GNGGA,074002.90,3713.974942000,N,13701.560396000,E,1,09,0.70,95.779,M,37.565,M,95.9,*60
[2021-02-22 16:40:03.591] $GNGGA,074003.00,3713.974942000,N,13701.560396000,E,1,09,0.70,95.778,M,37.565,M,96.0,*63
[2021-02-22 16:40:03.669] $GNGGA,074003.10,3713.974936000,N,13701.560396000,E,1,08,0.70,95.773,M,37.565,M,96.1,*6A
[2021-02-22 16:40:03.779] $GNGGA,074003.20,3713.974936000,N,13701.560396000,E,1,08,0.70,95.772,M,37.565,M,96.2,*6B
[2021-02-22 16:40:03.872] $GNGGA,074003.30,3713.974936000,N,13701.560396000,E,1,09,0.70,95.768,M,37.565,M,96.3,*61
[2021-02-22 16:40:03.997] $GNGGA,074003.40,3713.974936000,N,13701.560396000,E,1,09,0.70,95.765,M,37.565,M,96.4,*6C
[2021-02-22 16:40:04.075] $GNGGA,074003.50,3713.974936000,N,13701.560402000,E,1,09,0.70,95.765,M,37.565,M,96.5,*66
[2021-02-22 16:40:04.169] $GNGGA,074003.60,3713.974942000,N,13701.560402000,E,1,09,0.70,95.768,M,37.565,M,96.6,*68
[2021-02-22 16:40:04.278] $GNGGA,074003.70,3713.974936000,N,13701.560402000,E,1,09,0.70,95.763,M,37.565,M,96.7,*60
[2021-02-22 16:40:04.388] $GNGGA,074003.80,3713.974936000,N,13701.560402000,E,1,08,0.70,95.768,M,37.565,M,96.8,*6A
[2021-02-22 16:40:04.466] $GNGGA,074003.90,3713.974936000,N,13701.560408000,E,1,08,0.70,95.762,M,37.565,M,96.9,*6A
[2021-02-22 16:40:04.575] $GNGGA,074004.00,3713.974936000,N,13701.560408000,E,1,08,0.70,95.757,M,37.565,M,97.0,*6A
[2021-02-22 16:40:04.669] $GNGGA,074004.10,3713.974936000,N,13701.560408000,E,1,08,0.70,95.762,M,37.565,M,97.1,*6C
[2021-02-22 16:40:04.794] $GNGGA,074004.20,3713.974936000,N,13701.560408000,E,1,08,0.70,95.759,M,37.565,M,97.2,*64
[2021-02-22 16:40:04.872] $GNGGA,074004.30,3713.974936000,N,13701.560408000,E,1,08,0.70,95.754,M,37.565,M,97.3,*69
[2021-02-22 16:40:04.966] $GNGGA,074004.40,3713.974930000,N,13701.560408000,E,1,08,0.70,95.757,M,37.565,M,97.4,*6C
[2021-02-22 16:40:05.075] $GNGGA,074004.50,3713.974936000,N,13701.560408000,E,1,08,0.70,95.746,M,37.565,M,97.5,*6A
[2021-02-22 16:40:05.200] $GNGGA,074004.60,3713.974930000,N,13701.560408000,E,1,08,0.70,95.746,M,37.565,M,97.6,*6C
[2021-02-22 16:40:05.278] $GNGGA,074004.70,3713.974930000,N,13701.560414000,E,1,08,0.70,95.749,M,37.565,M,97.7,*6E
[2021-02-22 16:40:05.372] $GNGGA,074004.80,3713.974930000,N,13701.560414000,E,1,08,0.70,95.747,M,37.565,M,97.8,*60
[2021-02-22 16:40:05.481] $GNGGA,074004.90,3713.974930000,N,13701.560414000,E,1,08,0.70,95.742,M,37.565,M,97.9,*65
[2021-02-22 16:40:05.575] $GNGGA,074005.00,3713.974930000,N,13701.560420000,E,1,08,0.70,95.742,M,37.565,M,98.0,*6C
[2021-02-22 16:40:05.700] $GNGGA,074005.10,3713.974930000,N,13701.560420000,E,1,08,0.70,95.745,M,37.565,M,98.1,*6B
[2021-02-22 16:40:05.778] $GNGGA,074005.20,3713.974930000,N,13701.560420000,E,1,08,0.70,95.737,M,37.565,M,98.2,*6E
[2021-02-22 16:40:05.872] $GNGGA,074005.30,3713.974930000,N,13701.560420000,E,1,08,0.70,95.733,M,37.565,M,98.3,*6A
[2021-02-22 16:40:05.981] $GNGGA,074005.40,3713.974930000,N,13701.560420000,E,1,08,0.70,95.737,M,37.565,M,98.4,*6E
[2021-02-22 16:40:06.091] $GNGGA,074005.50,3713.974930000,N,13701.560420000,E,1,08,0.70,95.737,M,37.565,M,98.5,*6E
[2021-02-22 16:40:06.169] $GNGGA,074005.60,3713.974930000,N,13701.560426000,E,1,08,0.70,95.732,M,37.565,M,98.6,*6D
[2021-02-22 16:40:06.278] $GNGGA,074005.70,3713.974930000,N,13701.560420000,E,1,08,0.70,95.731,M,37.565,M,98.7,*68
[2021-02-22 16:40:06.372] $GNGGA,074005.80,3713.974924000,N,13701.560420000,E,1,08,0.70,95.730,M,37.565,M,98.8,*6C
[2021-02-22 16:40:06.497] $GNGGA,074005.90,3713.974930000,N,13701.560426000,E,1,08,0.70,95.727,M,37.565,M,98.9,*69
[2021-02-22 16:40:06.575] $GNGGA,074006.00,3713.974924000,N,13701.560426000,E,1,08,0.70,95.731,M,37.565,M,99.0,*69
[2021-02-22 16:40:06.669] $GNGGA,074006.10,3713.974930000,N,13701.560420000,E,1,08,0.70,95.736,M,37.565,M,99.1,*6D
[2021-02-22 16:40:06.778] $GNGGA,074006.20,3713.974924000,N,13701.560426000,E,1,08,0.70,95.736,M,37.565,M,99.2,*6E
[2021-02-22 16:40:06.888] $GNGGA,074006.30,3713.974924000,N,13701.560426000,E,1,08,0.70,95.727,M,37.565,M,99.3,*6E
[2021-02-22 16:40:06.966] $GNGGA,074006.40,3713.974924000,N,13701.560420000,E,1,08,0.70,95.738,M,37.565,M,99.4,*66
[2021-02-22 16:40:07.075] $GNGGA,074006.50,3713.974924000,N,13701.560426000,E,1,08,0.70,95.734,M,37.565,M,99.5,*6C
[2021-02-22 16:40:07.169] $GNGGA,074006.60,3713.974924000,N,13701.560426000,E,1,08,0.70,95.736,M,37.565,M,99.6,*6E
