
[2021-02-22 16:32:53.404] $GNGGA,073240.20,,,,,0,00,99.99,,,,,28.2,*6E
[2021-02-22 16:32:53.435] $GNGGA,073240.30,,,,,0,00,99.99,,,,,28.3,*6E
[2021-02-22 16:32:53.435] $GNGGA,073240.40,,,,,0,00,99.99,,,,,28.4,*6E
[2021-02-22 16:32:53.435] $GNGGA,073240.50,,,,,0,00,99.99,,,,,28.5,*6E
[2021-02-22 16:32:53.435] $GNGGA,073240.60,,,,,0,00,99.99,,,,,28.6,*6E
[2021-02-22 16:32:53.435] $GNGGA,073240.70,,,,,0,00,99.99,,,,,28.7,*6E
[2021-02-22 16:32:53.435] $GNGGA,073240.80,,,,,0,00,99.99,,,,,28.8,*6E
[2021-02-22 16:32:53.435] $GNGGA,073240.90,,,,,0,00,99.99,,,,,28.9,*6E
[2021-02-22 16:32:53.435] $GNGGA,073241.00,,,,,0,00,99.99,,,,,29.0,*6E
[2021-02-22 16:32:53.435] $GNGGA,073241.10,,,,,0,00,99.99,,,,,29.1,*6E
[2021-02-22 16:32:53.435] $GNGGA,073241.20,,,,,0,00,99.99,,,,,29.2,*6E
[2021-02-22 16:32:53.435] $GNGGA,073241.30,,,,,0,00,99.99,,,,,29.3,*6E
[2021-02-22 16:32:53.435] $GNGGA,073241.40,,,,,0,00,99.99,,,,,29.4,*6E
[2021-02-22 16:32:53.435] $GNGGA,073241.50,,,,,0,00,99.99,,,,,29.5,*6E
[2021-02-22 16:32:53.435] $GNGGA,073241.60,,,,,0,00,99.99,,,,,29.6,*6E
[2021-02-22 16:32:53.435] $GNGGA,073241.70,,,,,0,00,99.99,,,,,29.7,*6E
[2021-02-22 16:32:53.435] $GNGGA,073241.80,,,,,0,00,99.99,,,,,29.8,*6E
[2021-02-22 16:32:53.435] $GNGGA,073241.90,,,,,0,00,99.99,,,,,29.9,*6E
[2021-02-22 16:32:53.435] $GNGGA,073242.00,,,,,0,00,99.99,,,,,30.0,*65
[2021-02-22 16:32:53.435] $GNGGA,073242.10,,,,,0,00,99.99,,,,,30.1,*65
[2021-02-22 16:32:53.435] $GNGGA,073242.20,,,,,0,00,99.99,,,,,30.2,*65
[2021-02-22 16:32:53.435] $GNGGA,073242.30,,,,,0,00,99.99,,,,,30.3,*65
[2021-02-22 16:32:53.435] $GNGGA,073242.40,,,,,0,00,99.99,,,,,30.4,*65
[2021-02-22 16:32:53.435] $GNGGA,073242.50,,,,,0,00,99.99,,,,,30.5,*65
[2021-02-22 16:32:53.450] $GNGGA,073242.60,,,,,0,00,99.99,,,,,30.6,*65
[2021-02-22 16:32:53.450] $GNGGA,073242.70,,,,,0,00,99.99,,,,,30.7,*65
[2021-02-22 16:32:53.450] $GNGGA,073242.80,,,,,0,00,99.99,,,,,30.8,*65
[2021-02-22 16:32:53.450] $GNGGA,073242.90,,,,,0,00,99.99,,,,,30.9,*65
[2021-02-22 16:32:53.450] $GNGGA,073243.00,,,,,0,00,99.99,,,,,31.0,*65
[2021-02-22 16:32:53.450] $GNGGA,073243.10,,,,,0,00,99.99,,,,,31.1,*65
[2021-02-22 16:32:53.450] $GNGGA,073243.20,,,,,0,00,99.99,,,,,31.2,*65
[2021-02-22 16:32:53.450] $GNGGA,073243.30,,,,,0,00,99.99,,,,,31.3,*65
[2021-02-22 16:32:53.450] $GNGGA,073243.40,,,,,0,00,99.99,,,,,31.4,*65
[2021-02-22 16:32:53.450] $GNGGA,073243.50,,,,,0,00,99.99,,,,,31.5,*65
[2021-02-22 16:32:53.450] $GNGGA,073243.60,,,,,0,00,99.99,,,,,31.6,*65
[2021-02-22 16:32:53.450] $GNGGA,073243.70,,,,,0,00,99.99,,,,,31.7,*65
[2021-02-22 16:32:53.450] $GNGGA,073243.80,,,,,0,00,99.99,,,,,31.8,*65
[2021-02-22 16:32:53.450] $GNGGA,073243.90,,,,,0,00,99.99,,,,,31.9,*65
[2021-02-22 16:32:53.450] $GNGGA,073244.00,,,,,0,00,99.99,,,,,32.0,*61
[2021-02-22 16:32:53.450] $GNGGA,073244.10,,,,,0,00,99.99,,,,,32.1,*61
[2021-02-22 16:32:53.450] $GNGGA,073244.20,,,,,0,00,99.99,,,,,32.2,*61
[2021-02-22 16:32:53.450] $GNGGA,073244.30,,,,,0,00,99.99,,,,,32.3,*61
[2021-02-22 16:32:53.450] $GNGGA,073244.40,,,,,0,00,99.99,,,,,32.4,*61
[2021-02-22 16:32:53.450] $GNGGA,073244.50,,,,,0,00,99.99,,,,,32.5,*61
[2021-02-22 16:32:53.450] $GNGGA,073244.60,,,,,0,00,99.99,,,,,32.6,*61
[2021-02-22 16:32:53.450] $GNGGA,073244.70,,,,,0,00,99.99,,,,,32.7,*61
[2021-02-22 16:32:53.466] $GNGGA,073244.80,,,,,0,00,99.99,,,,,32.8,*61
[2021-02-22 16:32:53.466] $GNGGA,073244.90,,,,,0,00,99.99,,,,,32.9,*61
[2021-02-22 16:32:53.466] $GNGGA,073245.00,,,,,0,00,99.99,,,,,33.0,*61
[2021-02-22 16:32:53.466] $GNGGA,073245.10,,,,,0,00,99.99,,,,,33.1,*61
[2021-02-22 16:32:53.466] $GNGGA,073245.20,,,,,0,00,99.99,,,,,33.2,*61
[2021-02-22 16:32:53.466] $GNGGA,073245.30,,,,,0,00,99.99,,,,,33.3,*61
[2021-02-22 16:32:53.466] $GNGGA,073245.40,,,,,0,00,99.99,,,,,33.4,*61
[2021-02-22 16:32:53.466] $GNGGA,073245.50,,,,,0,00,99.99,,,,,33.5,*61
[2021-02-22 16:32:53.466] $GNGGA,073245.60,,,,,0,00,99.99,,,,,33.6,*61
[2021-02-22 16:32:53.466] $GNGGA,073245.70,,,,,0,00,99.99,,,,,33.7,*61
[2021-02-22 16:32:53.466] $GNGGA,073245.80,,,,,0,00,99.99,,,,,33.8,*61
[2021-02-22 16:32:53.466] $GNGGA,073245.90,,,,,0,00,99.99,,,,,33.9,*61
[2021-02-22 16:32:53.466] $GNGGA,073246.00,,,,,0,00,99.99,,,,,34.0,*65
[2021-02-22 16:32:53.466] $GNGGA,073246.10,,,,,0,00,99.99,,,,,34.1,*65
[2021-02-22 16:32:53.466] $GNGGA,073246.20,,,,,0,00,99.99,,,,,34.2,*65
[2021-02-22 16:32:53.466] $GNGGA,073246.30,,,,,0,00,99.99,,,,,34.3,*65
[2021-02-22 16:32:53.466] $GNGGA,073246.40,,,,,0,00,99.99,,,,,34.4,*65
[2021-02-22 16:32:53.466] $GNGGA,073246.50,,,,,0,00,99.99,,,,,34.5,*65
[2021-02-22 16:32:53.466] $GNGGA,073246.60,,,,,0,00,99.99,,,,,34.6,*65
[2021-02-22 16:32:53.466] $GNGGA,073246.70,,,,,0,00,99.99,,,,,34.7,*65
[2021-02-22 16:32:53.466] $GNGGA,073246.80,,,,,0,00,99.99,,,,,34.8,*65
[2021-02-22 16:32:53.466] $GNGGA,073246.90,,,,,0,00,99.99,,,,,34.9,*65
[2021-02-22 16:32:53.482] $GNGGA,073247.00,,,,,0,00,99.99,,,,,35.0,*65
[2021-02-22 16:32:53.482] $GNGGA,073247.10,,,,,0,00,99.99,,,,,35.1,*65
[2021-02-22 16:32:53.482] $GNGGA,073247.20,,,,,0,00,99.99,,,,,35.2,*65
[2021-02-22 16:32:53.482] $GNGGA,073247.30,,,,,0,00,99.99,,,,,35.3,*65
[2021-02-22 16:32:53.482] $GNGGA,073247.40,,,,,0,00,99.99,,,,,35.4,*65
[2021-02-22 16:32:53.482] $GNGGA,073247.50,,,,,0,00,99.99,,,,,35.5,*65
[2021-02-22 16:32:53.482] $GNGGA,073247.60,,,,,0,00,99.99,,,,,35.6,*65
[2021-02-22 16:32:53.482] $GNGGA,073247.70,,,,,0,00,99.99,,,,,35.7,*65
[2021-02-22 16:32:53.482] $GNGGA,073247.80,,,,,0,00,99.99,,,,,35.8,*65
[2021-02-22 16:32:53.482] $GNGGA,073247.90,,,,,0,00,99.99,,,,,35.9,*65
[2021-02-22 16:32:53.482] $GNGGA,073248.00,,,,,0,00,99.99,,,,,36.0,*69
[2021-02-22 16:32:53.482] $GNGGA,073248.10,,,,,0,00,99.99,,,,,36.1,*69
[2021-02-22 16:32:53.482] $GNGGA,073248.20,,,,,0,00,99.99,,,,,36.2,*69
[2021-02-22 16:32:53.482] $GNGGA,073248.30,,,,,0,00,99.99,,,,,36.3,*69
[2021-02-22 16:32:53.482] $GNGGA,073248.40,,,,,0,00,99.99,,,,,36.4,*69
[2021-02-22 16:32:53.482] $GNGGA,073248.50,,,,,0,00,99.99,,,,,36.5,*69
[2021-02-22 16:32:53.482] $GNGGA,073248.60,,,,,0,00,99.99,,,,,36.6,*69
[2021-02-22 16:32:53.482] $GNGGA,073248.70,,,,,0,00,99.99,,,,,36.7,*69
[2021-02-22 16:32:53.482] $GNGGA,073248.80,,,,,0,00,99.99,,,,,36.8,*69
[2021-02-22 16:32:53.482] $GNGGA,073248.90,,,,,0,00,99.99,,,,,36.9,*69
[2021-02-22 16:32:53.482] $GNGGA,073249.00,,,,,0,00,99.99,,,,,37.0,*69
[2021-02-22 16:32:53.482] $GNGGA,073249.10,,,,,0,00,99.99,,,,,37.1,*69
[2021-02-22 16:32:53.497] $GNGGA,073249.20,,,,,0,00,99.99,,,,,37.2,*69
[2021-02-22 16:32:53.497] $GNGGA,073249.30,,,,,0,00,99.99,,,,,37.3,*69
[2021-02-22 16:32:53.497] $GNGGA,073249.40,,,,,0,00,99.99,,,,,37.4,*69
[2021-02-22 16:32:53.497] $GNGGA,073249.50,,,,,0,00,99.99,,,,,37.5,*69
[2021-02-22 16:32:53.497] $GNGGA,073249.60,,,,,0,00,99.99,,,,,37.6,*69
[2021-02-22 16:32:53.497] $GNGGA,073249.70,,,,,0,00,99.99,,,,,37.7,*69
[2021-02-22 16:32:53.497] $GNGGA,073249.80,,,,,0,00,99.99,,,,,37.8,*69
[2021-02-22 16:32:53.497] $GNGGA,073249.90,,,,,0,00,99.99,,,,,37.9,*69
[2021-02-22 16:32:53.497] $GNGGA,073250.00,,,,,0,00,99.99,,,,,38.0,*6E
[2021-02-22 16:32:53.497] $GNGGA,073250.10,,,,,0,00,99.99,,,,,38.1,*6E
[2021-02-22 16:32:53.497] $GNGGA,073250.20,,,,,0,00,99.99,,,,,38.2,*6E
[2021-02-22 16:32:53.497] $GNGGA,073250.30,,,,,0,00,99.99,,,,,38.3,*6E
[2021-02-22 16:32:53.497] $GNGGA,073250.40,,,,,0,00,99.99,,,,,38.4,*6E
[2021-02-22 16:32:53.497] $GNGGA,073250.50,,,,,0,00,99.99,,,,,38.5,*6E
[2021-02-22 16:32:53.497] $GNGGA,073250.60,,,,,0,00,99.99,,,,,38.6,*6E
[2021-02-22 16:32:53.497] $GNGGA,073250.70,,,,,0,00,99.99,,,,,38.7,*6E
[2021-02-22 16:32:53.497] $GNGGA,073250.80,,,,,0,00,99.99,,,,,38.8,*6E
[2021-02-22 16:32:53.497] $GNGGA,073250.90,,,,,0,00,99.99,,,,,38.9,*6E
[2021-02-22 16:32:53.497] $GNGGA,073251.00,,,,,0,00,99.99,,,,,39.0,*6E
[2021-02-22 16:32:53.497] $GNGGA,073251.10,,,,,0,00,99.99,,,,,39.1,*6E
[2021-02-22 16:32:53.497] $GNGGA,073251.20,,,,,0,00,99.99,,,,,39.2,*6E
[2021-02-22 16:32:53.497] $GNGGA,073251.30,,,,,0,00,99.99,,,,,39.3,*6E
[2021-02-22 16:32:53.497] $GNGGA,073251.40,,,,,0,00,99.99,,,,,39.4,*6E
[2021-02-22 16:32:53.497] $GNGGA,073251.50,,,,,0,00,99.99,,,,,39.5,*6E
[2021-02-22 16:32:53.497] $GNGGA,073251.60,,,,,0,00,99.99,,,,,39.6,*6E
[2021-02-22 16:32:53.497] $GNGGA,073251.70,,,,,0,00,99.99,,,,,39.7,*6E
[2021-02-22 16:32:53.497] $GNGGA,073251.80,,,,,0,00,99.99,,,,,39.8,*6E
[2021-02-22 16:32:53.497] $GNGGA,073251.90,,,,,0,00,99.99,,,,,39.9,*6E
[2021-02-22 16:32:53.497] $GNGGA,073252.00,,,,,0,00,99.99,,,,,40.0,*63
[2021-02-22 16:32:53.497] $GNGGA,073252.10,,,,,0,00,99.99,,,,,40.1,*63
[2021-02-22 16:32:53.497] $GNGGA,073252.20,,,,,0,00,99.99,,,,,40.2,*63
[2021-02-22 16:32:53.497] $GNGGA,073252.30,,,,,0,00,99.99,,,,,40.3,*63
[2021-02-22 16:32:53.497] $GNGGA,073252.40,,,,,0,00,99.99,,,,,40.4,*63
[2021-02-22 16:32:53.497] $GNGGA,073252.50,,,,,0,00,99.99,,,,,40.5,*63
[2021-02-22 16:32:53.497] $GNGGA,073252.60,,,,,0,00,99.99,,,,,40.6,*63
[2021-02-22 16:32:53.497] $GNGGA,073252.70,,,,,0,00,99.99,,,,,40.7,*63
[2021-02-22 16:32:53.497] $GNGGA,073252.80,,,,,0,00,99.99,,,,,40.8,*63
[2021-02-22 16:32:53.497] $GNGGA,073252.90,,,,,0,00,99.99,,,,,40.9,*63
[2021-02-22 16:32:53.575] $GNGGA,073253.00,,,,,0,00,99.99,,,,,41.0,*63
[2021-02-22 16:32:53.669] $GNGGA,073253.10,,,,,0,00,99.99,,,,,41.1,*63
[2021-02-22 16:32:53.779] $GNGGA,073253.20,,,,,0,00,99.99,,,,,41.2,*63
[2021-02-22 16:32:53.888] $GNGGA,073253.30,,,,,0,00,99.99,,,,,41.3,*63
[2021-02-22 16:32:53.982] $GNGGA,073253.40,,,,,0,00,99.99,,,,,41.4,*63
[2021-02-22 16:32:54.075] $GNGGA,073253.50,,,,,0,00,99.99,,,,,41.5,*63
[2021-02-22 16:32:54.185] $GNGGA,073253.60,,,,,0,00,99.99,,,,,41.6,*63
[2021-02-22 16:32:54.279] $GNGGA,073253.70,,,,,0,00,99.99,,,,,41.7,*63
[2021-02-22 16:32:54.372] $GNGGA,073253.80,,,,,0,00,99.99,,,,,41.8,*63
[2021-02-22 16:32:54.482] $GNGGA,073253.90,,,,,0,00,99.99,,,,,41.9,*63
[2021-02-22 16:32:54.591] $GNGGA,073254.00,,,,,0,00,99.99,,,,,42.0,*67
[2021-02-22 16:32:54.685] $GNGGA,073254.10,,,,,0,00,99.99,,,,,42.1,*67
[2021-02-22 16:32:54.779] $GNGGA,073254.20,,,,,0,00,99.99,,,,,42.2,*67
[2021-02-22 16:32:54.872] $GNGGA,073254.30,,,,,0,00,99.99,,,,,42.3,*67
[2021-02-22 16:32:54.982] $GNGGA,073254.40,,,,,0,00,99.99,,,,,42.4,*67
[2021-02-22 16:32:55.075] $GNGGA,073254.50,,,,,0,00,99.99,,,,,42.5,*67
[2021-02-22 16:32:55.185] $GNGGA,073254.60,,,,,0,00,99.99,,,,,42.6,*67
[2021-02-22 16:32:55.278] $GNGGA,073254.70,,,,,0,00,99.99,,,,,42.7,*67
[2021-02-22 16:32:55.388] $GNGGA,073254.80,,,,,0,00,99.99,,,,,42.8,*67
[2021-02-22 16:32:55.482] $GNGGA,073254.90,,,,,0,00,99.99,,,,,42.9,*67
[2021-02-22 16:32:55.575] $GNGGA,073255.00,,,,,0,00,99.99,,,,,43.0,*67
[2021-02-22 16:32:55.669] $GNGGA,073255.10,,,,,0,00,99.99,,,,,43.1,*67
[2021-02-22 16:32:55.778] $GNGGA,073255.20,,,,,0,00,99.99,,,,,43.2,*67
[2021-02-22 16:32:55.888] $GNGGA,073255.30,,,,,0,00,99.99,,,,,43.3,*67
[2021-02-22 16:32:55.982] $GNGGA,073255.40,,,,,0,00,99.99,,,,,43.4,*67
[2021-02-22 16:32:56.075] $GNGGA,073255.50,,,,,0,00,99.99,,,,,43.5,*67
[2021-02-22 16:32:56.185] $GNGGA,073255.60,,,,,0,00,99.99,,,,,43.6,*67
[2021-02-22 16:32:56.278] $GNGGA,073255.70,,,,,0,00,99.99,,,,,43.7,*67
[2021-02-22 16:32:56.372] $GNGGA,073255.80,,,,,0,00,99.99,,,,,43.8,*67
[2021-02-22 16:32:56.466] $GNGGA,073255.90,,,,,0,00,99.99,,,,,43.9,*67
[2021-02-22 16:32:56.591] $GNGGA,073256.00,,,,,0,00,99.99,,,,,44.0,*63
[2021-02-22 16:32:56.685] $GNGGA,073256.10,,,,,0,00,99.99,,,,,44.1,*63
[2021-02-22 16:32:56.778] $GNGGA,073256.20,,,,,0,00,99.99,,,,,44.2,*63
[2021-02-22 16:32:56.888] $GNGGA,073256.30,,,,,0,00,99.99,,,,,44.3,*63
[2021-02-22 16:32:56.981] $GNGGA,073256.40,,,,,0,00,99.99,,,,,44.4,*63
[2021-02-22 16:32:57.075] $GNGGA,073256.50,,,,,0,00,99.99,,,,,44.5,*63
[2021-02-22 16:32:57.185] $GNGGA,073256.60,,,,,0,00,99.99,,,,,44.6,*63
[2021-02-22 16:32:57.294] $GNGGA,073256.70,,,,,0,00,99.99,,,,,44.7,*63
[2021-02-22 16:32:57.388] $GNGGA,073256.80,,,,,0,00,99.99,,,,,44.8,*63
[2021-02-22 16:32:57.481] $GNGGA,073256.90,,,,,0,00,99.99,,,,,44.9,*63
[2021-02-22 16:32:57.575] $GNGGA,073257.00,,,,,0,00,99.99,,,,,45.0,*63
[2021-02-22 16:32:57.685] $GNGGA,073257.10,,,,,0,00,99.99,,,,,45.1,*63
[2021-02-22 16:32:57.778] $GNGGA,073257.20,,,,,0,00,99.99,,,,,45.2,*63
[2021-02-22 16:32:57.888] $GNGGA,073257.30,,,,,0,00,99.99,,,,,45.3,*63
[2021-02-22 16:32:57.981] $GNGGA,073257.40,,,,,0,00,99.99,,,,,45.4,*63
[2021-02-22 16:32:58.091] $GNGGA,073257.50,,,,,0,00,99.99,,,,,45.5,*63
[2021-02-22 16:32:58.185] $GNGGA,073257.60,,,,,0,00,99.99,,,,,45.6,*63
[2021-02-22 16:32:58.278] $GNGGA,073257.70,,,,,0,00,99.99,,,,,45.7,*63
[2021-02-22 16:32:58.372] $GNGGA,073257.80,,,,,0,00,99.99,,,,,45.8,*63
[2021-02-22 16:32:58.481] $GNGGA,073257.90,,,,,0,00,99.99,,,,,45.9,*63
[2021-02-22 16:32:58.591] $GNGGA,073258.00,,,,,0,00,99.99,,,,,46.0,*6F
[2021-02-22 16:32:58.684] $GNGGA,073258.10,,,,,0,00,99.99,,,,,46.1,*6F
[2021-02-22 16:32:58.778] $GNGGA,073258.20,,,,,0,00,99.99,,,,,46.2,*6F
[2021-02-22 16:32:58.888] $GNGGA,073258.30,,,,,0,00,99.99,,,,,46.3,*6F
[2021-02-22 16:32:58.981] $GNGGA,073258.40,,,,,0,00,99.99,,,,,46.4,*6F
[2021-02-22 16:32:59.075] $GNGGA,073258.50,,,,,0,00,99.99,,,,,46.5,*6F
[2021-02-22 16:32:59.184] $GNGGA,073258.60,,,,,0,00,99.99,,,,,46.6,*6F
[2021-02-22 16:32:59.294] $GNGGA,073258.70,,,,,0,00,99.99,,,,,46.7,*6F
[2021-02-22 16:32:59.388] $GNGGA,073258.80,,,,,0,00,99.99,,,,,46.8,*6F
[2021-02-22 16:32:59.481] $GNGGA,073258.90,,,,,0,00,99.99,,,,,46.9,*6F
[2021-02-22 16:32:59.575] $GNGGA,073259.00,,,,,0,00,99.99,,,,,47.0,*6F
[2021-02-22 16:32:59.684] $GNGGA,073259.10,,,,,0,00,99.99,,,,,47.1,*6F
[2021-02-22 16:32:59.778] $GNGGA,073259.20,,,,,0,00,99.99,,,,,47.2,*6F
[2021-02-22 16:32:59.887] $GNGGA,073259.30,,,,,0,00,99.99,,,,,47.3,*6F
[2021-02-22 16:32:59.981] $GNGGA,073259.40,,,,,0,00,99.99,,,,,47.4,*6F
[2021-02-22 16:33:00.091] $GNGGA,073259.50,,,,,0,00,99.99,,,,,47.5,*6F
[2021-02-22 16:33:00.184] $GNGGA,073259.60,,,,,0,00,99.99,,,,,47.6,*6F
[2021-02-22 16:33:00.278] $GNGGA,073259.70,,,,,0,00,99.99,,,,,47.7,*6F
[2021-02-22 16:33:00.372] $GNGGA,073259.80,,,,,0,00,99.99,,,,,47.8,*6F
[2021-02-22 16:33:00.481] $GNGGA,073259.90,,,,,0,00,99.99,,,,,47.9,*6F
[2021-02-22 16:33:00.591] $GNGGA,073300.00,,,,,0,00,99.99,,,,,48.0,*6D
[2021-02-22 16:33:00.684] $GNGGA,073300.10,,,,,0,00,99.99,,,,,48.1,*6D
[2021-02-22 16:33:00.778] $GNGGA,073300.20,,,,,0,00,99.99,,,,,48.2,*6D
[2021-02-22 16:33:00.887] $GNGGA,073300.30,,,,,0,00,99.99,,,,,48.3,*6D
[2021-02-22 16:33:00.981] $GNGGA,073300.40,,,,,0,00,99.99,,,,,48.4,*6D
[2021-02-22 16:33:01.075] $GNGGA,073300.50,,,,,0,00,99.99,,,,,48.5,*6D
[2021-02-22 16:33:01.169] $GNGGA,073300.60,,,,,0,00,99.99,,,,,48.6,*6D
[2021-02-22 16:33:01.294] $GNGGA,073300.70,,,,,0,00,99.99,,,,,48.7,*6D
[2021-02-22 16:33:01.387] $GNGGA,073300.80,,,,,0,00,99.99,,,,,48.8,*6D
[2021-02-22 16:33:01.481] $GNGGA,073300.90,,,,,0,00,99.99,,,,,48.9,*6D
[2021-02-22 16:33:01.575] $GNGGA,073301.00,,,,,0,00,99.99,,,,,49.0,*6D
[2021-02-22 16:33:01.684] $GNGGA,073301.10,,,,,0,00,99.99,,,,,49.1,*6D
[2021-02-22 16:33:01.778] $GNGGA,073301.20,,,,,0,00,99.99,,,,,49.2,*6D
[2021-02-22 16:33:01.887] $GNGGA,073301.30,,,,,0,00,99.99,,,,,49.3,*6D
[2021-02-22 16:33:01.981] $GNGGA,073301.40,,,,,0,00,99.99,,,,,49.4,*6D
[2021-02-22 16:33:02.090] $GNGGA,073301.50,,,,,0,00,99.99,,,,,49.5,*6D
[2021-02-22 16:33:02.184] $GNGGA,073301.60,,,,,0,00,99.99,,,,,49.6,*6D
[2021-02-22 16:33:02.278] $GNGGA,073301.70,,,,,0,00,99.99,,,,,49.7,*6D
[2021-02-22 16:33:02.372] $GNGGA,073301.80,,,,,0,00,99.99,,,,,49.8,*6D
[2021-02-22 16:33:02.481] $GNGGA,073301.90,,,,,0,00,99.99,,,,,49.9,*6D
[2021-02-22 16:33:02.590] $GNGGA,073302.00,,,,,0,00,99.99,,,,,50.0,*66
[2021-02-22 16:33:02.684] $GNGGA,073302.10,,,,,0,00,99.99,,,,,50.1,*66
[2021-02-22 16:33:02.778] $GNGGA,073302.20,,,,,0,00,99.99,,,,,50.2,*66
[2021-02-22 16:33:02.887] $GNGGA,073302.30,,,,,0,00,99.99,,,,,50.3,*66
[2021-02-22 16:33:02.981] $GNGGA,073302.40,,,,,0,00,99.99,,,,,50.4,*66
[2021-02-22 16:33:03.075] $GNGGA,073302.50,,,,,0,00,99.99,,,,,50.5,*66
[2021-02-22 16:33:03.169] $GNGGA,073302.60,,,,,0,00,99.99,,,,,50.6,*66
[2021-02-22 16:33:03.294] $GNGGA,073302.70,,,,,0,00,99.99,,,,,50.7,*66
[2021-02-22 16:33:03.387] $GNGGA,073302.80,,,,,0,00,99.99,,,,,50.8,*66
[2021-02-22 16:33:03.481] $GNGGA,073302.90,,,,,0,00,99.99,,,,,50.9,*66
[2021-02-22 16:33:03.575] $GNGGA,073303.00,,,,,0,00,99.99,,,,,51.0,*66
[2021-02-22 16:33:03.684] $GNGGA,073303.10,,,,,0,00,99.99,,,,,51.1,*66
[2021-02-22 16:33:03.778] $GNGGA,073303.20,,,,,0,00,99.99,,,,,51.2,*66
[2021-02-22 16:33:03.887] $GNGGA,073303.30,,,,,0,00,99.99,,,,,51.3,*66
[2021-02-22 16:33:03.981] $GNGGA,073303.40,,,,,0,00,99.99,,,,,51.4,*66
[2021-02-22 16:33:04.090] $GNGGA,073303.50,,,,,0,00,99.99,,,,,51.5,*66
[2021-02-22 16:33:04.184] $GNGGA,073303.60,,,,,0,00,99.99,,,,,51.6,*66
[2021-02-22 16:33:04.278] $GNGGA,073303.70,,,,,0,00,99.99,,,,,51.7,*66
[2021-02-22 16:33:04.372] $GNGGA,073303.80,,,,,0,00,99.99,,,,,51.8,*66
[2021-02-22 16:33:04.481] $GNGGA,073303.90,,,,,0,00,99.99,,,,,51.9,*66
[2021-02-22 16:33:04.590] $GNGGA,073304.00,,,,,0,00,99.99,,,,,52.0,*62
[2021-02-22 16:33:04.684] $GNGGA,073304.10,,,,,0,00,99.99,,,,,52.1,*62
[2021-02-22 16:33:04.778] $GNGGA,073304.20,,,,,0,00,99.99,,,,,52.2,*62
[2021-02-22 16:33:04.887] $GNGGA,073304.30,,,,,0,00,99.99,,,,,52.3,*62
[2021-02-22 16:33:04.981] $GNGGA,073304.40,,,,,0,00,99.99,,,,,52.4,*62
[2021-02-22 16:33:05.075] $GNGGA,073304.50,,,,,0,00,99.99,,,,,52.5,*62
[2021-02-22 16:33:05.168] $GNGGA,073304.60,,,,,0,00,99.99,,,,,52.6,*62
[2021-02-22 16:33:05.293] $GNGGA,073304.70,,,,,0,00,99.99,,,,,52.7,*62
[2021-02-22 16:33:05.387] $GNGGA,073304.80,,,,,0,00,99.99,,,,,52.8,*62
[2021-02-22 16:33:05.481] $GNGGA,073304.90,,,,,0,00,99.99,,,,,52.9,*62
[2021-02-22 16:33:05.575] $GNGGA,073305.00,,,,,0,00,99.99,,,,,53.0,*62
[2021-02-22 16:33:05.684] $GNGGA,073305.10,,,,,0,00,99.99,,,,,53.1,*62
[2021-02-22 16:33:05.778] $GNGGA,073305.20,,,,,0,00,99.99,,,,,53.2,*62
[2021-02-22 16:33:05.887] $GNGGA,073305.30,,,,,0,00,99.99,,,,,53.3,*62
[2021-02-22 16:33:05.981] $GNGGA,073305.40,,,,,0,00,99.99,,,,,53.4,*62
[2021-02-22 16:33:06.090] $GNGGA,073305.50,,,,,0,00,99.99,,,,,53.5,*62
[2021-02-22 16:33:06.184] $GNGGA,073305.60,,,,,0,00,99.99,,,,,53.6,*62
[2021-02-22 16:33:06.278] $GNGGA,073305.70,,,,,0,00,99.99,,,,,53.7,*62
[2021-02-22 16:33:06.371] $GNGGA,073305.80,,,,,0,00,99.99,,,,,53.8,*62
[2021-02-22 16:33:06.481] $GNGGA,073305.90,,,,,0,00,99.99,,,,,53.9,*62
[2021-02-22 16:33:06.590] $GNGGA,073306.00,,,,,0,00,99.99,,,,,54.0,*66
[2021-02-22 16:33:06.684] $GNGGA,073306.10,,,,,0,00,99.99,,,,,54.1,*66
[2021-02-22 16:33:06.778] $GNGGA,073306.20,,,,,0,00,99.99,,,,,54.2,*66
[2021-02-22 16:33:06.887] $GNGGA,073306.30,,,,,0,00,99.99,,,,,54.3,*66
[2021-02-22 16:33:06.981] $GNGGA,073306.40,,,,,0,00,99.99,,,,,54.4,*66
[2021-02-22 16:33:07.075] $GNGGA,073306.50,,,,,0,00,99.99,,,,,54.5,*66
[2021-02-22 16:33:07.168] $GNGGA,073306.60,,,,,0,00,99.99,,,,,54.6,*66
[2021-02-22 16:33:07.293] $GNGGA,073306.70,,,,,0,00,99.99,,,,,54.7,*66
[2021-02-22 16:33:07.387] $GNGGA,073306.80,,,,,0,00,99.99,,,,,54.8,*66
[2021-02-22 16:33:07.481] $GNGGA,073306.90,,,,,0,00,99.99,,,,,54.9,*66
[2021-02-22 16:33:07.574] $GNGGA,073307.00,,,,,0,00,99.99,,,,,55.0,*66
[2021-02-22 16:33:07.684] $GNGGA,073307.10,,,,,0,00,99.99,,,,,55.1,*66
[2021-02-22 16:33:07.778] $GNGGA,073307.20,,,,,0,00,99.99,,,,,55.2,*66
[2021-02-22 16:33:07.871] $GNGGA,073307.30,,,,,0,00,99.99,,,,,55.3,*66
[2021-02-22 16:33:07.981] $GNGGA,073307.40,,,,,0,00,99.99,,,,,55.4,*66
[2021-02-22 16:33:08.090] $GNGGA,073307.50,,,,,0,00,99.99,,,,,55.5,*66
[2021-02-22 16:33:08.184] $GNGGA,073307.60,,,,,0,00,99.99,,,,,55.6,*66
[2021-02-22 16:33:08.278] $GNGGA,073307.70,,,,,0,00,99.99,,,,,55.7,*66
[2021-02-22 16:33:08.371] $GNGGA,073307.80,,,,,0,00,99.99,,,,,55.8,*66
[2021-02-22 16:33:08.481] $GNGGA,073307.90,,,,,0,00,99.99,,,,,55.9,*66
[2021-02-22 16:33:08.590] $GNGGA,073308.00,,,,,0,00,99.99,,,,,56.0,*6A
[2021-02-22 16:33:08.684] $GNGGA,073308.10,,,,,0,00,99.99,,,,,56.1,*6A
[2021-02-22 16:33:08.778] $GNGGA,073308.20,,,,,0,00,99.99,,,,,56.2,*6A
[2021-02-22 16:33:08.887] $GNGGA,073308.30,,,,,0,00,99.99,,,,,56.3,*6A
[2021-02-22 16:33:08.981] $GNGGA,073308.40,,,,,0,00,99.99,,,,,56.4,*6A
[2021-02-22 16:33:09.074] $GNGGA,073308.50,,,,,0,00,99.99,,,,,56.5,*6A
[2021-02-22 16:33:09.168] $GNGGA,073308.60,,,,,0,00,99.99,,,,,56.6,*6A
[2021-02-22 16:33:09.293] $GNGGA,073308.70,,,,,0,00,99.99,,,,,56.7,*6A
[2021-02-22 16:33:09.387] $GNGGA,073308.80,,,,,0,00,99.99,,,,,56.8,*6A
[2021-02-22 16:33:09.481] $GNGGA,073308.90,,,,,0,00,99.99,,,,,56.9,*6A
[2021-02-22 16:33:09.574] $GNGGA,073309.00,,,,,0,00,99.99,,,,,57.0,*6A
[2021-02-22 16:33:09.684] $GNGGA,073309.10,,,,,0,00,99.99,,,,,57.1,*6A
[2021-02-22 16:33:09.777] $GNGGA,073309.20,,,,,0,00,99.99,,,,,57.2,*6A
[2021-02-22 16:33:09.871] $GNGGA,073309.30,,,,,0,00,99.99,,,,,57.3,*6A
[2021-02-22 16:33:09.981] $GNGGA,073309.40,,,,,0,00,99.99,,,,,57.4,*6A
[2021-02-22 16:33:10.090] $GNGGA,073309.50,,,,,0,00,99.99,,,,,57.5,*6A
[2021-02-22 16:33:10.184] $GNGGA,073309.60,,,,,0,00,99.99,,,,,57.6,*6A
[2021-02-22 16:33:10.277] $GNGGA,073309.70,,,,,0,00,99.99,,,,,57.7,*6A
[2021-02-22 16:33:10.371] $GNGGA,073309.80,,,,,0,00,99.99,,,,,57.8,*6A
[2021-02-22 16:33:10.480] $GNGGA,073309.90,,,,,0,00,99.99,,,,,57.9,*6A
[2021-02-22 16:33:10.590] $GNGGA,073310.00,,,,,0,00,99.99,,,,,58.0,*6D
[2021-02-22 16:33:10.684] $GNGGA,073310.10,,,,,0,00,99.99,,,,,58.1,*6D
[2021-02-22 16:33:10.777] $GNGGA,073310.20,,,,,0,00,99.99,,,,,58.2,*6D
[2021-02-22 16:33:10.887] $GNGGA,073310.30,,,,,0,00,99.99,,,,,58.3,*6D
[2021-02-22 16:33:10.981] $GNGGA,073310.40,,,,,0,00,99.99,,,,,58.4,*6D
[2021-02-22 16:33:11.074] $GNGGA,073310.50,,,,,0,00,99.99,,,,,58.5,*6D
[2021-02-22 16:33:11.168] $GNGGA,073310.60,,,,,0,00,99.99,,,,,58.6,*6D
[2021-02-22 16:33:11.293] $GNGGA,073310.70,,,,,0,00,99.99,,,,,58.7,*6D
[2021-02-22 16:33:11.387] $GNGGA,073310.80,,,,,0,00,99.99,,,,,58.8,*6D
[2021-02-22 16:33:11.480] $GNGGA,073310.90,,,,,0,00,99.99,,,,,58.9,*6D
[2021-02-22 16:33:11.574] $GNGGA,073311.00,,,,,0,00,99.99,,,,,59.0,*6D
[2021-02-22 16:33:11.684] $GNGGA,073311.10,,,,,0,00,99.99,,,,,59.1,*6D
[2021-02-22 16:33:11.777] $GNGGA,073311.20,,,,,0,00,99.99,,,,,59.2,*6D
[2021-02-22 16:33:11.871] $GNGGA,073311.30,,,,,0,00,99.99,,,,,59.3,*6D
[2021-02-22 16:33:11.980] $GNGGA,073311.40,,,,,0,00,99.99,,,,,59.4,*6D
[2021-02-22 16:33:12.090] $GNGGA,073311.50,,,,,0,00,99.99,,,,,59.5,*6D
[2021-02-22 16:33:12.184] $GNGGA,073311.60,,,,,0,00,99.99,,,,,59.6,*6D
[2021-02-22 16:33:12.277] $GNGGA,073311.70,,,,,0,00,99.99,,,,,59.7,*6D
[2021-02-22 16:33:12.371] $GNGGA,073311.80,,,,,0,00,99.99,,,,,59.8,*6D
[2021-02-22 16:33:12.480] $GNGGA,073311.90,,,,,0,00,99.99,,,,,59.9,*6D
[2021-02-22 16:33:12.574] $GNGGA,073312.00,,,,,0,00,99.99,,,,,60.0,*64
[2021-02-22 16:33:12.684] $GNGGA,073312.10,,,,,0,00,99.99,,,,,60.1,*64
[2021-02-22 16:33:12.777] $GNGGA,073312.20,,,,,0,00,99.99,,,,,60.2,*64
[2021-02-22 16:33:12.887] $GNGGA,073312.30,,,,,0,00,99.99,,,,,60.3,*64
[2021-02-22 16:33:12.980] $GNGGA,073312.40,,,,,0,00,99.99,,,,,60.4,*64
[2021-02-22 16:33:13.074] $GNGGA,073312.50,,,,,0,00,99.99,,,,,60.5,*64
[2021-02-22 16:33:13.168] $GNGGA,073312.60,,,,,0,00,99.99,,,,,60.6,*64
[2021-02-22 16:33:13.293] $GNGGA,073312.70,,,,,0,00,99.99,,,,,60.7,*64
[2021-02-22 16:33:13.387] $GNGGA,073312.80,,,,,0,00,99.99,,,,,60.8,*64
[2021-02-22 16:33:13.480] $GNGGA,073312.90,,,,,0,00,99.99,,,,,60.9,*64
[2021-02-22 16:33:13.574] $GNGGA,073313.00,,,,,0,00,99.99,,,,,61.0,*64
[2021-02-22 16:33:13.683] $GNGGA,073313.10,,,,,0,00,99.99,,,,,61.1,*64
[2021-02-22 16:33:13.777] $GNGGA,073313.20,,,,,0,00,99.99,,,,,61.2,*64
[2021-02-22 16:33:13.871] $GNGGA,073313.30,,,,,0,00,99.99,,,,,61.3,*64
[2021-02-22 16:33:13.996] $GNGGA,073313.40,,,,,0,00,99.99,,,,,61.4,*64
[2021-02-22 16:33:14.090] $GNGGA,073313.50,,,,,0,00,99.99,,,,,61.5,*64
[2021-02-22 16:33:14.183] $GNGGA,073313.60,,,,,0,00,99.99,,,,,61.6,*64
[2021-02-22 16:33:14.277] $GNGGA,073313.70,,,,,0,00,99.99,,,,,61.7,*64
[2021-02-22 16:33:14.386] $GNGGA,073313.80,,,,,0,00,99.99,,,,,61.8,*64
[2021-02-22 16:33:14.480] $GNGGA,073313.90,,,,,0,00,99.99,,,,,61.9,*64
[2021-02-22 16:33:14.574] $GNGGA,073314.00,,,,,0,00,99.99,,,,,62.0,*60
[2021-02-22 16:33:14.683] $GNGGA,073314.10,,,,,0,00,99.99,,,,,62.1,*60
[2021-02-22 16:33:14.793] $GNGGA,073314.20,,,,,0,00,99.99,,,,,62.2,*60
[2021-02-22 16:33:14.886] $GNGGA,073314.30,,,,,0,00,99.99,,,,,62.3,*60
[2021-02-22 16:33:14.980] $GNGGA,073314.40,,,,,0,00,99.99,,,,,62.4,*60
[2021-02-22 16:33:15.074] $GNGGA,073314.50,,,,,0,00,99.99,,,,,62.5,*60
[2021-02-22 16:33:15.183] $GNGGA,073314.60,,,,,0,00,99.99,,,,,62.6,*60
[2021-02-22 16:33:15.293] $GNGGA,073314.70,,,,,0,00,99.99,,,,,62.7,*60
[2021-02-22 16:33:15.386] $GNGGA,073314.80,,,,,0,00,99.99,,,,,62.8,*60
[2021-02-22 16:33:15.480] $GNGGA,073314.90,,,,,0,00,99.99,,,,,62.9,*60
[2021-02-22 16:33:15.590] $GNGGA,073315.00,,,,,0,00,99.99,,,,,63.0,*60
[2021-02-22 16:33:15.683] $GNGGA,073315.10,,,,,0,00,99.99,,,,,63.1,*60
[2021-02-22 16:33:15.777] $GNGGA,073315.20,,,,,0,00,99.99,,,,,63.2,*60
[2021-02-22 16:33:15.871] $GNGGA,073315.30,,,,,0,00,99.99,,,,,63.3,*60
[2021-02-22 16:33:15.996] $GNGGA,073315.40,,,,,0,00,99.99,,,,,63.4,*60
[2021-02-22 16:33:16.090] $GNGGA,073315.50,,,,,0,00,99.99,,,,,63.5,*60
[2021-02-22 16:33:16.183] $GNGGA,073315.60,,,,,0,00,99.99,,,,,63.6,*60
[2021-02-22 16:33:16.277] $GNGGA,073315.70,,,,,0,00,99.99,,,,,63.7,*60
[2021-02-22 16:33:16.386] $GNGGA,073315.80,,,,,0,00,99.99,,,,,63.8,*60
[2021-02-22 16:33:16.480] $GNGGA,073315.90,,,,,0,00,99.99,,,,,63.9,*60
[2021-02-22 16:33:16.574] $GNGGA,073316.00,,,,,0,00,99.99,,,,,64.0,*64
[2021-02-22 16:33:16.683] $GNGGA,073316.10,,,,,0,00,99.99,,,,,64.1,*64
[2021-02-22 16:33:16.793] $GNGGA,073316.20,,,,,0,00,99.99,,,,,64.2,*64
[2021-02-22 16:33:16.886] $GNGGA,073316.30,,,,,0,00,99.99,,,,,64.3,*64
[2021-02-22 16:33:16.980] $GNGGA,073316.40,,,,,0,00,99.99,,,,,64.4,*64
[2021-02-22 16:33:17.074] $GNGGA,073316.50,,,,,0,00,99.99,,,,,64.5,*64
[2021-02-22 16:33:17.183] $GNGGA,073316.60,,,,,0,00,99.99,,,,,64.6,*64
[2021-02-22 16:33:17.293] $GNGGA,073316.70,,,,,0,00,99.99,,,,,64.7,*64
[2021-02-22 16:33:17.386] $GNGGA,073316.80,,,,,0,00,99.99,,,,,64.8,*64
[2021-02-22 16:33:17.480] $GNGGA,073316.90,,,,,0,00,99.99,,,,,64.9,*64
[2021-02-22 16:33:17.589] $GNGGA,073317.00,,,,,0,00,99.99,,,,,65.0,*64
[2021-02-22 16:33:17.683] $GNGGA,073317.10,,,,,0,00,99.99,,,,,65.1,*64
[2021-02-22 16:33:17.777] $GNGGA,073317.20,,,,,0,00,99.99,,,,,65.2,*64
[2021-02-22 16:33:17.871] $GNGGA,073317.30,,,,,0,00,99.99,,,,,65.3,*64
[2021-02-22 16:33:17.996] $GNGGA,073317.40,,,,,0,00,99.99,,,,,65.4,*64
[2021-02-22 16:33:18.089] $GNGGA,073317.50,,,,,0,00,99.99,,,,,65.5,*64
[2021-02-22 16:33:18.183] $GNGGA,073317.60,,,,,0,00,99.99,,,,,65.6,*64
[2021-02-22 16:33:18.277] $GNGGA,073317.70,,,,,0,00,99.99,,,,,65.7,*64
[2021-02-22 16:33:18.386] $GNGGA,073317.80,,,,,0,00,99.99,,,,,65.8,*64
[2021-02-22 16:33:18.480] $GNGGA,073317.90,,,,,0,00,99.99,,,,,65.9,*64
[2021-02-22 16:33:18.574] $GNGGA,073318.00,,,,,0,00,99.99,,,,,66.0,*68
[2021-02-22 16:33:18.683] $GNGGA,073318.10,,,,,0,00,99.99,,,,,66.1,*68
[2021-02-22 16:33:18.792] $GNGGA,073318.20,,,,,0,00,99.99,,,,,66.2,*68
[2021-02-22 16:33:18.886] $GNGGA,073318.30,,,,,0,00,99.99,,,,,66.3,*68
[2021-02-22 16:33:18.980] $GNGGA,073318.40,,,,,0,00,99.99,,,,,66.4,*68
[2021-02-22 16:33:19.074] $GNGGA,073318.50,,,,,0,00,99.99,,,,,66.5,*68
[2021-02-22 16:33:19.183] $GNGGA,073318.60,,,,,0,00,99.99,,,,,66.6,*68
[2021-02-22 16:33:19.277] $GNGGA,073318.70,,,,,0,00,99.99,,,,,66.7,*68
[2021-02-22 16:33:19.386] $GNGGA,073318.80,,,,,0,00,99.99,,,,,66.8,*68
[2021-02-22 16:33:19.480] $GNGGA,073318.90,,,,,0,00,99.99,,,,,66.9,*68
[2021-02-22 16:33:19.589] $GNGGA,073319.00,,,,,0,00,99.99,,,,,67.0,*68
[2021-02-22 16:33:19.699] $GNGGA,073319.10,3713.971672000,N,13701.562988000,E,5,00,99.90,76.881,M,37.564,M,67.1,3006*5F
[2021-02-22 16:33:19.777] $GNGGA,073319.20,3713.971690323,N,13701.563023588,E,5,00,99.90,76.805,M,37.564,M,67.2,3006*51
[2021-02-22 16:33:19.871] $GNGGA,073319.30,3713.971699326,N,13701.563044377,E,5,00,99.90,76.719,M,37.564,M,67.3,3006*58
[2021-02-22 16:33:19.980] $GNGGA,073319.40,3713.971717210,N,13701.563096851,E,5,00,99.90,76.603,M,37.564,M,67.4,3006*51
[2021-02-22 16:33:20.074] $GNGGA,073319.50,3713.971707451,N,13701.563056267,E,5,00,99.90,76.674,M,37.564,M,67.5,3006*50
[2021-02-22 16:33:20.199] $GNGGA,073319.60,3713.971695516,N,13701.563027736,E,5,00,99.90,76.785,M,37.564,M,67.6,3006*50
[2021-02-22 16:33:20.277] $GNGGA,073319.70,3713.971691200,N,13701.563022038,E,5,00,99.90,76.814,M,37.564,M,67.7,3006*5F
[2021-02-22 16:33:20.370] $GNGGA,073319.80,3713.971689994,N,13701.563025156,E,5,00,99.90,76.811,M,37.564,M,67.8,3006*5B
[2021-02-22 16:33:20.480] $GNGGA,073319.90,3713.971688733,N,13701.563021756,E,5,00,99.90,76.817,M,37.564,M,67.9,3006*5D
[2021-02-22 16:33:20.574] $GNGGA,073320.00,3713.971687592,N,13701.563017772,E,5,00,99.90,76.826,M,37.564,M,68.0,3006*5F
[2021-02-22 16:33:20.699] $GNGGA,073320.10,3713.971686445,N,13701.563012650,E,5,00,99.90,76.840,M,37.564,M,68.1,3006*51
[2021-02-22 16:33:20.777] $GNGGA,073320.20,3713.971684602,N,13701.563008023,E,5,00,99.90,76.853,M,37.564,M,68.2,3006*59
[2021-02-22 16:33:20.870] $GNGGA,073320.30,3713.971683904,N,13701.563003112,E,5,00,99.90,76.865,M,37.564,M,68.3,3006*5A
[2021-02-22 16:33:20.980] $GNGGA,073320.40,3713.971682843,N,13701.563005556,E,5,00,99.90,76.874,M,37.564,M,68.4,3006*5B
[2021-02-22 16:33:21.074] $GNGGA,073320.50,3713.971680379,N,13701.563001587,E,5,00,99.90,76.887,M,37.564,M,68.5,3006*5F
[2021-02-22 16:33:21.199] $GNGGA,073320.60,3713.971681988,N,13701.562995671,E,5,00,99.90,76.890,M,37.564,M,68.6,3006*53
[2021-02-22 16:33:21.277] $GNGGA,073320.70,3713.971805071,N,13701.563107510,E,5,00,99.90,76.970,M,37.564,M,68.7,3006*57
[2021-02-22 16:33:21.370] $GNGGA,073320.80,3713.971804358,N,13701.563106751,E,5,00,99.90,76.966,M,37.564,M,68.8,3006*5F
[2021-02-22 16:33:21.480] $GNGGA,073320.90,3713.971803372,N,13701.563108294,E,5,00,99.90,76.964,M,37.564,M,68.9,3006*50
[2021-02-22 16:33:21.574] $GNGGA,073321.00,3713.971802346,N,13701.563109364,E,5,00,99.90,76.965,M,37.564,M,69.0,3006*58
[2021-02-22 16:33:21.698] $GNGGA,073321.10,3713.971802658,N,13701.563108629,E,5,00,99.90,76.966,M,37.564,M,69.1,3006*5C
[2021-02-22 16:33:21.777] $GNGGA,073321.20,3713.971803560,N,13701.563110107,E,5,00,99.90,76.967,M,37.564,M,69.2,3006*56
[2021-02-22 16:33:21.870] $GNGGA,073321.30,3713.971904650,N,13701.563258606,E,5,00,99.90,76.995,M,37.564,M,69.3,3006*54
[2021-02-22 16:33:21.980] $GNGGA,073321.40,3713.971772620,N,13701.563471718,E,5,00,99.90,77.329,M,37.564,M,69.4,3006*53
[2021-02-22 16:33:22.089] $GNGGA,073321.50,3713.971808489,N,13701.563593879,E,5,00,99.90,77.406,M,37.564,M,69.5,3006*5F
[2021-02-22 16:33:22.167] $GNGGA,073321.60,3713.971882170,N,13701.563741356,E,5,00,99.90,77.465,M,37.564,M,69.6,3006*50
[2021-02-22 16:33:22.277] $GNGGA,073321.70,3713.971937298,N,13701.563825856,E,5,00,99.90,77.478,M,37.564,M,69.7,3006*50
[2021-02-22 16:33:22.370] $GNGGA,073321.80,3713.971968176,N,13701.563880187,E,5,00,99.90,77.500,M,37.564,M,69.8,3006*5D
[2021-02-22 16:33:22.495] $GNGGA,073321.90,3713.972001076,N,13701.563984809,E,5,00,99.90,77.558,M,37.564,M,69.9,3006*5E
[2021-02-22 16:33:22.573] $GNGGA,073322.00,3713.972029812,N,13701.564022707,E,5,00,99.90,77.567,M,37.564,M,70.0,3006*5A
[2021-02-22 16:33:22.683] $GNGGA,073322.10,3713.972061400,N,13701.564050551,E,5,00,99.90,77.563,M,37.564,M,70.1,3006*59
[2021-02-22 16:33:22.777] $GNGGA,073322.20,3713.972104851,N,13701.564104461,E,5,00,99.90,77.548,M,37.564,M,70.2,3006*58
[2021-02-22 16:33:22.902] $GNGGA,073322.30,3713.972142340,N,13701.564180099,E,5,00,99.90,77.546,M,37.564,M,70.3,3006*50
[2021-02-22 16:33:22.980] $GNGGA,073322.40,3713.972177248,N,13701.564194514,E,5,00,99.90,77.543,M,37.564,M,70.4,3006*5F
[2021-02-22 16:33:23.073] $GNGGA,073322.50,3713.972221129,N,13701.564213330,E,5,00,99.90,77.513,M,37.564,M,70.5,3006*52
[2021-02-22 16:33:23.183] $GNGGA,073322.60,3713.972267333,N,13701.564227797,E,5,00,99.90,77.473,M,37.564,M,70.6,3006*50
[2021-02-22 16:33:23.277] $GNGGA,073322.70,3713.972288009,N,13701.564244407,E,5,00,99.90,77.466,M,37.564,M,70.7,3006*50
[2021-02-22 16:33:23.401] $GNGGA,073322.80,3713.972294882,N,13701.564255421,E,5,00,99.90,77.474,M,37.564,M,70.8,3006*51
[2021-02-22 16:33:23.480] $GNGGA,073322.90,3713.972297021,N,13701.564265569,E,5,00,99.90,77.484,M,37.564,M,70.9,3006*52
[2021-02-22 16:33:23.573] $GNGGA,073323.00,3713.972284819,N,13701.564268643,E,5,00,99.90,77.496,M,37.564,M,71.0,3006*56
[2021-02-22 16:33:23.683] $GNGGA,073323.10,3713.972276325,N,13701.564248077,E,5,00,99.90,77.486,M,37.564,M,71.1,3006*5D
[2021-02-22 16:33:23.776] $GNGGA,073323.20,3713.972257816,N,13701.564227568,E,5,00,99.90,77.489,M,37.564,M,71.2,3006*58
[2021-02-22 16:33:23.901] $GNGGA,073323.30,3713.972235850,N,13701.564199082,E,5,00,99.90,77.489,M,37.564,M,71.3,3006*59
[2021-02-22 16:33:23.980] $GNGGA,073323.40,3713.972215833,N,13701.564167494,E,5,00,99.90,77.479,M,37.564,M,71.4,3006*53
[2021-02-22 16:33:24.073] $GNGGA,073323.50,3713.972205097,N,13701.564155826,E,5,00,99.90,77.481,M,37.564,M,71.5,3006*57
[2021-02-22 16:33:24.183] $GNGGA,073323.60,3713.972194355,N,13701.564146591,E,5,00,99.90,77.487,M,37.564,M,71.6,3006*54
[2021-02-22 16:33:24.276] $GNGGA,073323.70,3713.972184776,N,13701.564138808,E,5,00,99.90,77.493,M,37.564,M,71.7,3006*51
[2021-02-22 16:33:24.401] $GNGGA,073323.80,3713.972243159,N,13701.564161365,E,5,00,99.90,77.706,M,37.564,M,71.8,3006*51
[2021-02-22 16:33:24.480] $GNGGA,073323.90,3713.972227448,N,13701.564145898,E,5,00,99.90,77.718,M,37.564,M,71.9,3006*56
[2021-02-22 16:33:24.573] $GNGGA,073324.00,3713.972213952,N,13701.564134990,E,5,00,99.90,77.723,M,37.564,M,72.0,3006*54
[2021-02-22 16:33:24.683] $GNGGA,073324.10,3713.972198720,N,13701.564122868,E,5,00,99.90,77.730,M,37.564,M,72.1,3006*5C
[2021-02-22 16:33:24.776] $GNGGA,073324.20,3713.972182809,N,13701.564111083,E,5,00,99.90,77.745,M,37.564,M,72.2,3006*5C
[2021-02-22 16:33:24.901] $GNGGA,073324.30,3713.972168094,N,13701.564100253,E,5,00,99.90,77.746,M,37.564,M,72.3,3006*58
[2021-02-22 16:33:24.980] $GNGGA,073324.40,3713.972150201,N,13701.564090402,E,5,00,99.90,77.759,M,37.564,M,72.4,3006*59
[2021-02-22 16:33:25.073] $GNGGA,073324.50,3713.972135156,N,13701.564082649,E,5,00,99.90,77.766,M,37.564,M,72.5,3006*59
[2021-02-22 16:33:25.183] $GNGGA,073324.60,3713.972120184,N,13701.564075659,E,5,00,99.90,77.774,M,37.564,M,72.6,3006*58
[2021-02-22 16:33:25.276] $GNGGA,073324.70,3713.972098075,N,13701.564075853,E,5,00,99.90,77.794,M,37.564,M,72.7,3006*5F
[2021-02-22 16:33:25.401] $GNGGA,073324.80,3713.972085691,N,13701.564070739,E,5,00,99.90,77.804,M,37.564,M,72.8,3006*5F
[2021-02-22 16:33:25.479] $GNGGA,073324.90,3713.972073384,N,13701.564063293,E,5,00,99.90,77.808,M,37.564,M,72.9,3006*5C
[2021-02-22 16:33:25.573] $GNGGA,073325.00,3713.972126386,N,13701.564085731,E,5,02,99.90,78.029,M,37.564,M,73.0,3006*5C
[2021-02-22 16:33:25.683] $GNGGA,073325.10,3713.972105026,N,13701.564087405,E,5,02,99.90,78.058,M,37.564,M,73.1,3006*54
[2021-02-22 16:33:25.776] $GNGGA,073325.20,3713.972096171,N,13701.564084265,E,5,02,99.90,78.066,M,37.564,M,73.2,3006*52
[2021-02-22 16:33:25.901] $GNGGA,073325.30,3713.972087368,N,13701.564082480,E,5,02,99.90,78.080,M,37.564,M,73.3,3006*5B
[2021-02-22 16:33:25.979] $GNGGA,073325.40,3713.972080022,N,13701.564076292,E,5,02,99.90,78.085,M,37.564,M,73.4,3006*5A
[2021-02-22 16:33:26.073] $GNGGA,073325.50,3713.972063612,N,13701.564073303,E,5,02,99.90,78.104,M,37.564,M,73.5,3006*56
[2021-02-22 16:33:26.183] $GNGGA,073325.60,3713.972053544,N,13701.564063799,E,5,02,99.90,78.116,M,37.564,M,73.6,3006*50
[2021-02-22 16:33:26.292] $GNGGA,073325.70,3713.972038910,N,13701.564058336,E,5,02,99.90,78.126,M,37.564,M,73.7,3006*5A
[2021-02-22 16:33:26.370] $GNGGA,073325.80,3713.972028305,N,13701.564049283,E,5,02,99.90,78.133,M,37.564,M,73.8,3006*5E
[2021-02-22 16:33:26.479] $GNGGA,073325.90,3713.972008174,N,13701.564044707,E,5,02,99.90,78.164,M,37.564,M,73.9,3006*5E
[2021-02-22 16:33:26.573] $GNGGA,073326.00,3713.971995776,N,13701.564039682,E,5,02,99.90,78.165,M,37.564,M,74.0,3006*57
[2021-02-22 16:33:26.698] $GNGGA,073326.10,3713.971978077,N,13701.564035571,E,5,02,99.90,78.181,M,37.564,M,74.1,3006*5B
[2021-02-22 16:33:26.776] $GNGGA,073326.20,3713.971969712,N,13701.564027520,E,5,02,99.90,78.182,M,37.564,M,74.2,3006*5B
[2021-02-22 16:33:26.870] $GNGGA,073326.30,3713.971953638,N,13701.564028495,E,5,02,99.90,78.198,M,37.564,M,74.3,3006*50
[2021-02-22 16:33:26.979] $GNGGA,073326.40,3713.971944548,N,13701.564024944,E,5,02,99.90,78.205,M,37.564,M,74.4,3006*58
[2021-02-22 16:33:27.089] $GNGGA,073326.50,3713.971927817,N,13701.564028870,E,5,02,99.90,78.224,M,37.564,M,74.5,3006*53
[2021-02-22 16:33:27.167] $GNGGA,073326.60,3713.971920001,N,13701.564029255,E,5,02,99.90,78.229,M,37.564,M,74.6,3006*5A
[2021-02-22 16:33:27.276] $GNGGA,073326.70,3713.971908059,N,13701.564029700,E,5,02,99.90,78.243,M,37.564,M,74.7,3006*54
[2021-02-22 16:33:27.370] $GNGGA,073326.80,3713.971926680,N,13701.563962647,E,5,06,1.44,78.369,M,37.564,M,74.8,3006*6C
[2021-02-22 16:33:27.495] $GNGGA,073326.90,3713.971922748,N,13701.563900831,E,5,09,1.37,78.430,M,37.564,M,74.9,3006*66
[2021-02-22 16:33:27.573] $GNGGA,073327.00,3713.971908005,N,13701.563852557,E,5,09,1.37,78.428,M,37.564,M,75.0,3006*62
[2021-02-22 16:33:27.682] $GNGGA,073327.10,3713.971890948,N,13701.563817798,E,5,09,1.37,78.438,M,37.564,M,75.1,3006*63
[2021-02-22 16:33:27.776] $GNGGA,073327.20,3713.971883522,N,13701.563793622,E,5,09,1.37,78.438,M,37.564,M,75.2,3006*62
[2021-02-22 16:33:27.870] $GNGGA,073327.30,3713.971868228,N,13701.563769812,E,5,09,1.37,78.455,M,37.564,M,75.3,3006*69
[2021-02-22 16:33:27.995] $GNGGA,073327.40,3713.971858997,N,13701.563747287,E,5,09,1.37,78.456,M,37.564,M,75.4,3006*6C
[2021-02-22 16:33:28.073] $GNGGA,073327.50,3713.971845904,N,13701.563732304,E,5,09,1.37,78.467,M,37.564,M,75.5,3006*60
[2021-02-22 16:33:28.182] $GNGGA,073327.60,3713.971838893,N,13701.563718381,E,5,09,1.37,78.471,M,37.564,M,75.6,3006*67
[2021-02-22 16:33:28.276] $GNGGA,073327.70,3713.971821565,N,13701.563702516,E,5,09,1.37,78.482,M,37.564,M,75.7,3006*64
[2021-02-22 16:33:28.370] $GNGGA,073327.80,3713.971813505,N,13701.563694244,E,5,09,1.37,78.478,M,37.564,M,75.8,3006*68
[2021-02-22 16:33:28.495] $GNGGA,073327.90,3713.971798351,N,13701.563683435,E,5,09,1.37,78.485,M,37.564,M,75.9,3006*67
[2021-02-22 16:33:28.573] $GNGGA,073328.00,3713.971788544,N,13701.563677806,E,5,09,1.37,78.484,M,37.564,M,76.0,3006*6E
[2021-02-22 16:33:28.682] $GNGGA,073328.10,3713.971776691,N,13701.563670191,E,5,09,1.37,78.494,M,37.564,M,76.1,3006*65
[2021-02-22 16:33:28.776] $GNGGA,073328.20,3713.971770112,N,13701.563661594,E,5,09,1.37,78.500,M,37.564,M,76.2,3006*62
[2021-02-22 16:33:28.870] $GNGGA,073328.30,3713.971762873,N,13701.563650130,E,5,09,1.37,78.505,M,37.564,M,76.3,3006*62
[2021-02-22 16:33:28.995] $GNGGA,073328.40,3713.971758215,N,13701.563640160,E,5,09,1.37,78.523,M,37.564,M,76.4,3006*61
[2021-02-22 16:33:29.073] $GNGGA,073328.50,3713.971750160,N,13701.563628353,E,5,09,1.37,78.540,M,37.564,M,76.5,3006*61
[2021-02-22 16:33:29.167] $GNGGA,073328.60,3713.971746254,N,13701.563622900,E,5,09,1.37,78.544,M,37.564,M,76.6,3006*60
[2021-02-22 16:33:29.276] $GNGGA,073328.70,3713.971735574,N,13701.563616220,E,5,09,1.37,78.559,M,37.564,M,76.7,3006*63
[2021-02-22 16:33:29.370] $GNGGA,073328.80,3713.971728900,N,13701.563618970,E,5,07,1.44,78.565,M,37.564,M,76.8,3006*65
[2021-02-22 16:33:29.495] $GNGGA,073328.90,3713.971720920,N,13701.563614848,E,5,07,1.44,78.577,M,37.564,M,76.9,3006*6A
[2021-02-22 16:33:29.573] $GNGGA,073329.00,3713.971715531,N,13701.563613999,E,5,07,1.44,78.586,M,37.564,M,77.0,3006*64
[2021-02-22 16:33:29.682] $GNGGA,073329.10,3713.971704329,N,13701.563610644,E,5,07,1.44,78.606,M,37.564,M,77.1,3006*6C
[2021-02-22 16:33:29.776] $GNGGA,073329.20,3713.971667726,N,13701.563559637,E,5,07,1.44,78.636,M,37.564,M,77.2,3006*6A
[2021-02-22 16:33:29.870] $GNGGA,073329.30,3713.971633192,N,13701.563508601,E,5,07,1.44,78.669,M,37.564,M,77.3,3006*69
[2021-02-22 16:33:29.995] $GNGGA,073329.40,3713.971606189,N,13701.563471873,E,5,07,1.44,78.698,M,37.564,M,77.4,3006*6F
[2021-02-22 16:33:30.073] $GNGGA,073329.50,3713.971586571,N,13701.563460060,E,5,07,1.44,78.715,M,37.564,M,77.5,3006*69
[2021-02-22 16:33:30.182] $GNGGA,073329.60,3713.971573969,N,13701.563452122,E,5,07,1.44,78.711,M,37.564,M,77.6,3006*64
[2021-02-22 16:33:30.276] $GNGGA,073329.70,3713.971605294,N,13701.563401763,E,5,09,1.37,78.895,M,37.564,M,77.7,3006*63
[2021-02-22 16:33:30.401] $GNGGA,073329.80,3713.971584732,N,13701.563397080,E,5,09,1.37,78.890,M,37.564,M,77.8,3006*67
[2021-02-22 16:33:30.479] $GNGGA,073329.90,3713.971567906,N,13701.563392632,E,5,09,1.37,78.888,M,37.564,M,77.9,3006*60
[2021-02-22 16:33:30.573] $GNGGA,073330.00,3713.971550938,N,13701.563391621,E,5,09,1.37,78.891,M,37.564,M,78.0,3006*67
[2021-02-22 16:33:30.682] $GNGGA,073330.10,3713.971534323,N,13701.563387657,E,5,09,1.37,78.902,M,37.564,M,78.1,3006*68
[2021-02-22 16:33:30.792] $GNGGA,073330.20,3713.971523363,N,13701.563379228,E,5,09,1.37,78.937,M,37.564,M,78.2,3006*61
[2021-02-22 16:33:30.870] $GNGGA,073330.30,3713.971502304,N,13701.563359171,E,5,09,1.37,78.953,M,37.564,M,78.3,3006*6C
[2021-02-22 16:33:30.979] $GNGGA,073330.40,3713.971487844,N,13701.563349875,E,5,09,1.37,78.972,M,37.564,M,78.4,3006*60
[2021-02-22 16:33:31.073] $GNGGA,073330.50,3713.971466794,N,13701.563333277,E,5,09,1.37,78.991,M,37.564,M,78.5,3006*65
[2021-02-22 16:33:31.198] $GNGGA,073330.60,3713.971452009,N,13701.563328276,E,5,09,1.37,78.995,M,37.564,M,78.6,3006*6E
[2021-02-22 16:33:31.276] $GNGGA,073330.70,3713.971434469,N,13701.563316392,E,5,09,1.37,79.010,M,37.564,M,78.7,3006*6F
[2021-02-22 16:33:31.370] $GNGGA,073330.80,3713.971425406,N,13701.563309357,E,5,09,1.37,79.031,M,37.564,M,78.8,3006*62
[2021-02-22 16:33:31.479] $GNGGA,073330.90,3713.971417944,N,13701.563278453,E,5,09,1.37,79.073,M,37.564,M,78.9,3006*6A
[2021-02-22 16:33:31.588] $GNGGA,073331.00,3713.971420102,N,13701.563269659,E,5,06,1.50,79.089,M,37.564,M,79.0,3006*67
[2021-02-22 16:33:31.667] $GNGGA,073331.10,3713.971420218,N,13701.563263489,E,5,06,1.50,79.105,M,37.564,M,79.1,3006*6F
[2021-02-22 16:33:31.776] $GNGGA,073331.20,3713.971422616,N,13701.563258082,E,5,06,1.50,79.109,M,37.564,M,79.2,3006*6C
[2021-02-22 16:33:31.870] $GNGGA,073331.30,3713.971473280,N,13701.563205238,E,5,08,1.41,79.302,M,37.564,M,79.3,3006*6F
[2021-02-22 16:33:31.995] $GNGGA,073331.40,3713.971475405,N,13701.563205821,E,5,08,1.41,79.315,M,37.564,M,79.4,3006*66
[2021-02-22 16:33:32.073] $GNGGA,073331.50,3713.971481193,N,13701.563201228,E,5,08,1.41,79.340,M,37.564,M,79.5,3006*60
[2021-02-22 16:33:32.182] $GNGGA,073331.60,3713.971489011,N,13701.563192421,E,5,08,1.41,79.362,M,37.564,M,79.6,3006*65
[2021-02-22 16:33:32.276] $GNGGA,073331.70,3713.971492750,N,13701.563188728,E,5,08,1.41,79.381,M,37.564,M,79.7,3006*61
[2021-02-22 16:33:32.370] $GNGGA,073331.80,3713.971496220,N,13701.563186927,E,5,08,1.41,79.394,M,37.564,M,79.8,3006*6C
[2021-02-22 16:33:32.495] $GNGGA,073331.90,3713.971499275,N,13701.563185488,E,5,07,2.98,79.400,M,37.564,M,79.9,3006*6A
[2021-02-22 16:33:32.573] $GNGGA,073332.00,3713.971502540,N,13701.563185190,E,5,07,2.98,79.403,M,37.564,M,80.0,3006*62
[2021-02-22 16:33:32.682] $GNGGA,073332.10,3713.971506482,N,13701.563186054,E,5,07,2.98,79.407,M,37.564,M,80.1,3006*67
[2021-02-22 16:33:32.776] $GNGGA,073332.20,3713.971511912,N,13701.563179162,E,5,07,2.98,79.445,M,37.564,M,80.2,3006*67
[2021-02-22 16:33:32.870] $GNGGA,073332.30,3713.971512058,N,13701.563178728,E,5,07,2.98,79.447,M,37.564,M,80.3,3006*68
[2021-02-22 16:33:32.995] $GNGGA,073332.40,3713.971510784,N,13701.563177060,E,5,05,3.15,79.438,M,37.564,M,80.4,3006*66
[2021-02-22 16:33:33.073] $GNGGA,073332.50,3713.971558678,N,13701.563132722,E,5,07,2.98,79.617,M,37.564,M,80.5,3006*61
[2021-02-22 16:33:33.182] $GNGGA,073332.60,3713.971564532,N,13701.563107346,E,5,08,2.27,79.687,M,37.564,M,80.6,3006*61
[2021-02-22 16:33:33.276] $GNGGA,073332.70,3713.971538046,N,13701.563111086,E,5,08,2.27,79.744,M,37.564,M,80.7,3006*68
[2021-02-22 16:33:33.370] $GNGGA,073332.80,3713.971527246,N,13701.563090681,E,5,08,2.27,79.767,M,37.564,M,80.8,3006*6C
[2021-02-22 16:33:33.495] $GNGGA,073332.90,3713.971522300,N,13701.563094153,E,5,09,1.58,79.789,M,37.564,M,80.9,3006*6C
[2021-02-22 16:33:33.573] $GNGGA,073333.00,3713.971522001,N,13701.563078873,E,5,08,1.62,79.812,M,37.564,M,81.0,3006*62
[2021-02-22 16:33:33.682] $GNGGA,073333.10,3713.971521904,N,13701.563076554,E,5,08,1.62,79.862,M,37.564,M,81.1,3006*6C
[2021-02-22 16:33:33.776] $GNGGA,073333.20,3713.971521332,N,13701.563058770,E,5,08,1.62,79.899,M,37.564,M,81.2,3006*6F
[2021-02-22 16:33:33.870] $GNGGA,073333.30,3713.971516247,N,13701.563039645,E,5,08,1.62,79.941,M,37.564,M,81.3,3006*6C
[2021-02-22 16:33:33.994] $GNGGA,073333.40,3713.971520695,N,13701.563029633,E,5,07,1.73,79.968,M,37.564,M,81.4,3006*66
[2021-02-22 16:33:34.073] $GNGGA,073333.50,3713.971526722,N,13701.563010282,E,5,07,1.73,80.016,M,37.564,M,81.5,3006*6F
[2021-02-22 16:33:34.182] $GNGGA,073333.60,3713.971548222,N,13701.562975407,E,5,07,1.73,80.108,M,37.564,M,81.6,3006*6C
[2021-02-22 16:33:34.276] $GNGGA,073333.70,3713.971550048,N,13701.562957007,E,5,07,1.73,80.142,M,37.564,M,81.7,3006*61
[2021-02-22 16:33:34.370] $GNGGA,073333.80,3713.971547306,N,13701.562942235,E,5,07,1.73,80.172,M,37.564,M,81.8,3006*6A
[2021-02-22 16:33:34.494] $GNGGA,073333.90,3713.971545496,N,13701.562924927,E,5,07,1.73,80.203,M,37.564,M,81.9,3006*6B
[2021-02-22 16:33:34.573] $GNGGA,073334.00,3713.971548109,N,13701.562904787,E,5,08,1.36,80.245,M,37.564,M,82.0,3006*6B
[2021-02-22 16:33:34.682] $GNGGA,073334.10,3713.971561403,N,13701.562883512,E,5,08,1.36,80.307,M,37.564,M,82.1,3006*68
[2021-02-22 16:33:34.776] $GNGGA,073334.20,3713.971471365,N,13701.562965423,E,5,08,1.36,79.997,M,37.564,M,82.2,3006*60
[2021-02-22 16:33:34.901] $GNGGA,073334.30,3713.971468688,N,13701.562956467,E,5,08,1.36,80.023,M,37.564,M,82.3,3006*6E
[2021-02-22 16:33:34.979] $GNGGA,073334.40,3713.971469468,N,13701.562946307,E,5,08,1.36,80.046,M,37.564,M,82.4,3006*60
[2021-02-22 16:33:35.073] $GNGGA,073334.50,3713.971480151,N,13701.562923947,E,5,09,1.31,80.116,M,37.564,M,82.5,3006*67
[2021-02-22 16:33:35.182] $GNGGA,073334.60,3713.971436426,N,13701.562966257,E,5,09,1.31,80.006,M,37.564,M,82.6,3006*64
[2021-02-22 16:33:35.291] $GNGGA,073334.70,3713.971419784,N,13701.562979244,E,5,09,1.31,79.972,M,37.564,M,82.7,3006*62
[2021-02-22 16:33:35.369] $GNGGA,073334.80,3713.971433756,N,13701.562967583,E,5,09,1.31,80.080,M,37.564,M,82.8,3006*64
[2021-02-22 16:33:35.479] $GNGGA,073334.90,3713.971454281,N,13701.562945631,E,5,09,1.31,80.164,M,37.564,M,82.9,3006*6B
[2021-02-22 16:33:35.573] $GNGGA,073335.00,3713.971460186,N,13701.562940521,E,5,08,1.36,80.191,M,37.564,M,83.0,3006*63
[2021-02-22 16:33:35.697] $GNGGA,073335.10,3713.971464787,N,13701.562938090,E,5,08,1.36,80.213,M,37.564,M,83.1,3006*69
[2021-02-22 16:33:35.776] $GNGGA,073335.20,3713.971500856,N,13701.562897309,E,5,08,1.67,80.362,M,37.564,M,83.2,3006*6D
[2021-02-22 16:33:35.869] $GNGGA,073335.30,3713.971531282,N,13701.562861525,E,5,08,1.67,80.480,M,37.564,M,83.3,3006*66
[2021-02-22 16:33:35.979] $GNGGA,073335.40,3713.971579055,N,13701.562806960,E,5,08,1.67,80.652,M,37.564,M,83.4,3006*63
[2021-02-22 16:33:36.088] $GNGGA,073335.50,3713.971612503,N,13701.562770643,E,5,08,1.67,80.774,M,37.564,M,83.5,3006*6E
[2021-02-22 16:33:36.182] $GNGGA,073335.60,3713.971617257,N,13701.562762952,E,5,08,1.67,80.801,M,37.564,M,83.6,3006*6C
[2021-02-22 16:33:36.276] $GNGGA,073335.70,3713.971622926,N,13701.562760956,E,5,09,1.58,80.858,M,37.564,M,83.7,3006*60
[2021-02-22 16:33:36.369] $GNGGA,073335.80,3713.971620992,N,13701.562752597,E,5,09,1.58,80.883,M,37.564,M,83.8,3006*6B
[2021-02-22 16:33:36.494] $GNGGA,073335.90,3713.971618978,N,13701.562757229,E,5,09,1.58,80.908,M,37.564,M,83.9,3006*61
[2021-02-22 16:33:36.572] $GNGGA,073336.00,3713.971619856,N,13701.562749857,E,5,09,1.58,80.931,M,37.564,M,84.0,3006*6F
[2021-02-22 16:33:36.682] $GNGGA,073336.10,3713.971624031,N,13701.562740504,E,5,09,1.58,80.961,M,37.564,M,84.1,3006*6F
[2021-02-22 16:33:36.776] $GNGGA,073336.20,3713.971633014,N,13701.562732870,E,5,08,1.67,80.983,M,37.564,M,84.2,3006*64
[2021-02-22 16:33:36.885] $GNGGA,073336.30,3713.971637860,N,13701.562728867,E,5,08,1.67,81.017,M,37.564,M,84.3,3006*63
[2021-02-22 16:33:36.994] $GNGGA,073336.40,3713.971638811,N,13701.562724298,E,5,08,1.67,81.044,M,37.564,M,84.4,3006*6A
[2021-02-22 16:33:37.072] $GNGGA,073336.50,3713.971645337,N,13701.562721904,E,5,08,1.67,81.065,M,37.564,M,84.5,3006*67
[2021-02-22 16:33:37.182] $GNGGA,073336.60,3713.971646815,N,13701.562712912,E,5,08,1.67,81.087,M,37.564,M,84.6,3006*64
[2021-02-22 16:33:37.276] $GNGGA,073336.70,3713.971647548,N,13701.562706084,E,5,08,1.67,81.107,M,37.564,M,84.7,3006*6A
[2021-02-22 16:33:37.369] $GNGGA,073336.80,3713.971676959,N,13701.562675469,E,5,09,1.63,81.228,M,37.564,M,84.8,3006*6D
[2021-02-22 16:33:37.494] $GNGGA,073336.90,3713.971741149,N,13701.562608322,E,5,09,1.63,81.464,M,37.564,M,84.9,3006*6D
[2021-02-22 16:33:37.572] $GNGGA,073337.00,3713.971721766,N,13701.562630385,E,5,09,1.63,81.391,M,37.564,M,85.0,3006*6B
[2021-02-22 16:33:37.682] $GNGGA,073337.10,3713.971728072,N,13701.562622710,E,5,09,1.63,81.414,M,37.564,M,85.1,3006*61
[2021-02-22 16:33:37.776] $GNGGA,073337.20,3713.971735311,N,13701.562616520,E,5,09,1.63,81.435,M,37.564,M,85.2,3006*6E
[2021-02-22 16:33:37.869] $GNGGA,073337.30,3713.971728046,N,13701.562625346,E,5,09,1.63,81.405,M,37.564,M,85.3,3006*66
[2021-02-22 16:33:37.994] $GNGGA,073337.40,3713.971733838,N,13701.562622915,E,5,09,1.63,81.431,M,37.564,M,85.4,3006*61
[2021-02-22 16:33:38.072] $GNGGA,073337.50,3713.971739976,N,13701.562618094,E,5,08,1.67,81.462,M,37.564,M,85.5,3006*6A
[2021-02-22 16:33:38.182] $GNGGA,073337.60,3713.971746349,N,13701.562616082,E,5,08,1.67,81.482,M,37.564,M,85.6,3006*63
[2021-02-22 16:33:38.275] $GNGGA,073337.70,3713.971752503,N,13701.562613357,E,5,08,1.67,81.508,M,37.564,M,85.7,3006*63
[2021-02-22 16:33:38.369] $GNGGA,073337.80,3713.971759727,N,13701.562601105,E,5,09,1.58,81.561,M,37.564,M,85.8,3006*68
[2021-02-22 16:33:38.494] $GNGGA,073337.90,3713.971764736,N,13701.562603509,E,5,09,1.58,81.603,M,37.564,M,85.9,3006*6B
[2021-02-22 16:33:38.572] $GNGGA,073338.00,3713.971772907,N,13701.562612190,E,5,06,2.32,81.654,M,37.564,M,86.0,3006*6A
[2021-02-22 16:33:38.682] $GNGGA,073338.10,3713.971779288,N,13701.562625164,E,5,06,2.32,81.693,M,37.564,M,86.1,3006*69
[2021-02-22 16:33:38.775] $GNGGA,073338.20,3713.971788759,N,13701.562634533,E,5,08,1.62,81.752,M,37.564,M,86.2,3006*6C
[2021-02-22 16:33:38.869] $GNGGA,073338.30,3713.971796518,N,13701.562640803,E,5,08,1.62,81.797,M,37.564,M,86.3,3006*60
[2021-02-22 16:33:38.994] $GNGGA,073338.40,3713.971805896,N,13701.562643838,E,5,08,1.62,81.822,M,37.564,M,86.4,3006*64
[2021-02-22 16:33:39.072] $GNGGA,073338.50,3713.971809945,N,13701.562650049,E,5,08,1.62,81.857,M,37.564,M,86.5,3006*69
[2021-02-22 16:33:39.182] $GNGGA,073338.60,3713.971815808,N,13701.562643969,E,5,08,1.62,81.896,M,37.564,M,86.6,3006*68
[2021-02-22 16:33:39.275] $GNGGA,073338.70,3713.971822992,N,13701.562645007,E,5,08,1.62,81.937,M,37.564,M,86.7,3006*63
[2021-02-22 16:33:39.400] $GNGGA,073338.80,3713.971830407,N,13701.562641532,E,5,07,1.73,81.963,M,37.564,M,86.8,3006*68
[2021-02-22 16:33:39.479] $GNGGA,073338.90,3713.971836258,N,13701.562634261,E,5,07,1.73,81.989,M,37.564,M,86.9,3006*65
[2021-02-22 16:33:39.572] $GNGGA,073339.00,3713.971844548,N,13701.562627604,E,5,07,1.73,82.019,M,37.564,M,87.0,3006*60
[2021-02-22 16:33:39.682] $GNGGA,073339.10,3713.971851844,N,13701.562621214,E,5,07,1.73,82.039,M,37.564,M,87.1,3006*64
[2021-02-22 16:33:39.791] $GNGGA,073339.20,3713.971859041,N,13701.562615111,E,5,07,1.73,82.069,M,37.564,M,87.2,3006*65
[2021-02-22 16:33:39.869] $GNGGA,073339.30,3713.971865160,N,13701.562610886,E,5,07,1.73,82.085,M,37.564,M,87.3,3006*68
[2021-02-22 16:33:39.978] $GNGGA,073339.40,3713.971871556,N,13701.562603571,E,5,07,1.73,82.109,M,37.564,M,87.4,3006*6E
[2021-02-22 16:33:40.072] $GNGGA,073339.50,3713.971879432,N,13701.562595256,E,5,07,1.73,82.131,M,37.564,M,87.5,3006*60
[2021-02-22 16:33:40.197] $GNGGA,073339.60,3713.971883682,N,13701.562594186,E,5,07,1.73,82.149,M,37.564,M,87.6,3006*6C
[2021-02-22 16:33:40.275] $GNGGA,073339.70,3713.971888751,N,13701.562592444,E,5,07,1.73,82.166,M,37.564,M,87.7,3006*68
[2021-02-22 16:33:40.369] $GNGGA,073339.80,3713.971893046,N,13701.562584726,E,5,07,1.73,82.182,M,37.564,M,87.8,3006*69
[2021-02-22 16:33:40.478] $GNGGA,073339.90,3713.971899549,N,13701.562585768,E,5,07,1.73,82.195,M,37.564,M,87.9,3006*64
[2021-02-22 16:33:40.588] $GNGGA,073340.00,3713.971905546,N,13701.562582145,E,5,07,1.73,82.216,M,37.564,M,88.0,3006*68
[2021-02-22 16:33:40.682] $GNGGA,073340.10,3713.971911577,N,13701.562578931,E,5,07,1.73,82.236,M,37.564,M,88.1,3006*63
[2021-02-22 16:33:40.775] $GNGGA,073340.20,3713.971919062,N,13701.562575764,E,5,07,1.73,82.257,M,37.564,M,88.2,3006*6E
[2021-02-22 16:33:40.869] $GNGGA,073340.30,3713.971926461,N,13701.562570495,E,5,07,1.73,82.282,M,37.564,M,88.3,3006*65
[2021-02-22 16:33:40.978] $GNGGA,073340.40,3713.971934008,N,13701.562557699,E,5,08,1.62,82.333,M,37.564,M,88.4,3006*62
[2021-02-22 16:33:41.088] $GNGGA,073340.50,3713.971935606,N,13701.562551734,E,5,08,1.62,82.368,M,37.564,M,88.5,3006*65
[2021-02-22 16:33:41.181] $GNGGA,073340.60,3713.971939053,N,13701.562547290,E,5,08,1.62,82.403,M,37.564,M,88.6,3006*69
[2021-02-22 16:33:41.275] $GNGGA,073340.70,3713.971941326,N,13701.562538708,E,5,06,2.32,82.431,M,37.564,M,88.7,3006*62
[2021-02-22 16:33:41.369] $GNGGA,073340.80,3713.971948309,N,13701.562537279,E,5,06,2.32,82.451,M,37.564,M,88.8,3006*6C
[2021-02-22 16:33:41.478] $GNGGA,073340.90,3713.971951963,N,13701.562530909,E,5,06,2.32,82.483,M,37.564,M,88.9,3006*66
[2021-02-22 16:33:41.588] $GNGGA,073341.00,3713.971957151,N,13701.562527504,E,5,06,2.32,82.517,M,37.564,M,89.0,3006*62
[2021-02-22 16:33:41.681] $GNGGA,073341.10,3713.971960818,N,13701.562520403,E,5,06,2.32,82.541,M,37.564,M,89.1,3006*60
[2021-02-22 16:33:41.775] $GNGGA,073341.20,3713.971964562,N,13701.562519702,E,5,06,2.32,82.581,M,37.564,M,89.2,3006*60
[2021-02-22 16:33:41.869] $GNGGA,073341.30,3713.971967615,N,13701.562515056,E,5,06,2.32,82.604,M,37.564,M,89.3,3006*64
[2021-02-22 16:33:41.978] $GNGGA,073341.40,3713.971970371,N,13701.562512907,E,5,06,2.32,82.624,M,37.564,M,89.4,3006*6D
[2021-02-22 16:33:42.088] $GNGGA,073341.50,3713.971965916,N,13701.562508403,E,5,06,2.32,82.711,M,37.564,M,89.5,3006*67
[2021-02-22 16:33:42.181] $GNGGA,073341.60,3713.971969680,N,13701.562503759,E,5,06,2.32,82.727,M,37.564,M,89.6,3006*69
[2021-02-22 16:33:42.275] $GNGGA,073341.70,3713.971972653,N,13701.562499387,E,5,06,2.32,82.750,M,37.564,M,89.7,3006*68
[2021-02-22 16:33:42.369] $GNGGA,073341.80,3713.971978008,N,13701.562498292,E,5,06,2.32,82.766,M,37.564,M,89.8,3006*6B
[2021-02-22 16:33:42.478] $GNGGA,073341.90,3713.971984522,N,13701.562496468,E,5,06,2.32,82.789,M,37.564,M,89.9,3006*69
[2021-02-22 16:33:42.588] $GNGGA,073342.00,3713.971991664,N,13701.562491045,E,5,06,2.32,82.817,M,37.564,M,90.0,3006*63
[2021-02-22 16:33:42.666] $GNGGA,073342.10,3713.971996415,N,13701.562487050,E,5,06,2.32,82.850,M,37.564,M,90.1,3006*60
[2021-02-22 16:33:42.775] $GNGGA,073342.20,3713.972005386,N,13701.562475209,E,5,06,2.32,82.883,M,37.564,M,90.2,3006*60
[2021-02-22 16:33:42.883] $GNGGA,073342.30,3713.972011789,N,13701.562468925,E,5,06,2.32,82.910,M,37.564,M,90.3,3006*6C
[2021-02-22 16:33:42.977] $GNGGA,073342.40,3713.972019560,N,13701.562460333,E,5,06,2.32,82.941,M,37.564,M,90.4,3006*60
[2021-02-22 16:33:43.101] $GNGGA,073342.50,3713.972024420,N,13701.562451033,E,5,06,2.32,82.972,M,37.564,M,90.5,3006*6A
[2021-02-22 16:33:43.180] $GNGGA,073342.60,3713.972028851,N,13701.562447839,E,5,06,2.32,82.998,M,37.564,M,90.6,3006*6D
[2021-02-22 16:33:43.273] $GNGGA,073342.70,3713.972034207,N,13701.562443874,E,5,06,2.32,83.020,M,37.564,M,90.7,3006*6F
[2021-02-22 16:33:43.383] $GNGGA,073342.80,3713.972036385,N,13701.562438048,E,5,06,2.32,83.047,M,37.564,M,90.8,3006*6C
[2021-02-22 16:33:43.492] $GNGGA,073342.90,3713.972040536,N,13701.562432204,E,5,06,2.32,83.072,M,37.564,M,90.9,3006*65
[2021-02-22 16:33:43.570] $GNGGA,073343.00,3713.972043764,N,13701.562428635,E,5,06,2.32,83.096,M,37.564,M,91.0,3006*64
[2021-02-22 16:33:43.680] $GNGGA,073343.10,3713.972050244,N,13701.562420008,E,5,06,2.32,83.120,M,37.564,M,91.1,3006*6D
[2021-02-22 16:33:43.773] $GNGGA,073343.20,3713.972056159,N,13701.562418644,E,5,06,2.32,83.141,M,37.564,M,91.2,3006*66
[2021-02-22 16:33:43.898] $GNGGA,073343.30,3713.972061633,N,13701.562411323,E,5,06,2.32,83.163,M,37.564,M,91.3,3006*64
[2021-02-22 16:33:43.976] $GNGGA,073343.40,3713.972070560,N,13701.562406912,E,5,07,1.74,83.201,M,37.564,M,91.4,3006*68
[2021-02-22 16:33:44.070] $GNGGA,073343.50,3713.972073949,N,13701.562402222,E,5,07,1.74,83.232,M,37.564,M,91.5,3006*60
[2021-02-22 16:33:44.180] $GNGGA,073343.60,3713.972079955,N,13701.562393300,E,5,08,1.62,83.274,M,37.564,M,91.6,3006*63
[2021-02-22 16:33:44.289] $GNGGA,073343.70,3713.972083646,N,13701.562393240,E,5,07,1.74,83.299,M,37.564,M,91.7,3006*65
[2021-02-22 16:33:44.367] $GNGGA,073343.80,3713.972091037,N,13701.562388188,E,5,07,1.74,83.329,M,37.564,M,91.8,3006*61
[2021-02-22 16:33:44.476] $GNGGA,073343.90,3713.972096152,N,13701.562384298,E,5,07,1.74,83.357,M,37.564,M,91.9,3006*63
[2021-02-22 16:33:44.570] $GNGGA,073344.00,3713.972120683,N,13701.562360806,E,5,07,1.74,83.449,M,37.564,M,92.0,3006*6F
[2021-02-22 16:33:44.695] $GNGGA,073344.10,3713.972146238,N,13701.562334756,E,5,07,1.74,83.555,M,37.564,M,92.1,3006*6C
[2021-02-22 16:33:44.773] $GNGGA,073344.20,3713.972157012,N,13701.562327812,E,5,07,1.74,83.589,M,37.564,M,92.2,3006*6A
[2021-02-22 16:33:44.883] $GNGGA,073344.30,3713.972159204,N,13701.562327436,E,5,07,1.74,83.609,M,37.564,M,92.3,3006*60
[2021-02-22 16:33:44.976] $GNGGA,073344.40,3713.972177799,N,13701.562310233,E,5,07,1.74,83.684,M,37.564,M,92.4,3006*6F
[2021-02-22 16:33:45.101] $GNGGA,073344.50,3713.972225703,N,13701.562257532,E,5,07,1.74,83.886,M,37.564,M,92.5,3006*60
[2021-02-22 16:33:45.179] $GNGGA,073344.60,3713.972229790,N,13701.562253925,E,5,07,1.74,83.916,M,37.564,M,92.6,3006*60
[2021-02-22 16:33:45.273] $GNGGA,073344.70,3713.972227558,N,13701.562254203,E,5,07,1.74,83.926,M,37.564,M,92.7,3006*63
[2021-02-22 16:33:45.383] $GNGGA,073344.80,3713.972230526,N,13701.562249526,E,5,07,1.74,83.959,M,37.564,M,92.8,3006*68
[2021-02-22 16:33:45.476] $GNGGA,073344.90,3713.972238588,N,13701.562239264,E,5,08,1.67,84.023,M,37.564,M,92.9,3006*6C
[2021-02-22 16:33:45.601] $GNGGA,073345.00,3713.972231750,N,13701.562247976,E,5,08,1.67,83.998,M,37.564,M,93.0,3006*6D
[2021-02-22 16:33:45.679] $GNGGA,073345.10,3713.972196386,N,13701.562286484,E,5,08,1.67,83.877,M,37.564,M,93.1,3006*61
[2021-02-22 16:33:45.773] $GNGGA,073345.20,3713.972197685,N,13701.562284083,E,5,08,1.67,83.891,M,37.564,M,93.2,3006*6F
[2021-02-22 16:33:45.883] $GNGGA,073345.30,3713.972201155,N,13701.562276277,E,5,09,1.58,83.911,M,37.564,M,93.3,3006*69
[2021-02-22 16:33:45.976] $GNGGA,073345.40,3713.972202479,N,13701.562267997,E,5,09,1.58,83.932,M,37.564,M,93.4,3006*65
[2021-02-22 16:33:46.101] $GNGGA,073345.50,3713.972203984,N,13701.562262499,E,5,09,1.58,83.947,M,37.564,M,93.5,3006*6F
[2021-02-22 16:33:46.179] $GNGGA,073345.60,3713.972204165,N,13701.562257633,E,5,09,1.58,83.957,M,37.564,M,93.6,3006*6A
[2021-02-22 16:33:46.273] $GNGGA,073345.70,3713.972206118,N,13701.562245444,E,5,08,2.27,83.978,M,37.564,M,93.7,3006*64
[2021-02-22 16:33:46.383] $GNGGA,073345.80,3713.972207111,N,13701.562239019,E,5,08,2.27,83.986,M,37.564,M,93.8,3006*6A
[2021-02-22 16:33:46.476] $GNGGA,073345.90,3713.972209217,N,13701.562230806,E,5,08,2.27,83.995,M,37.564,M,93.9,3006*6C
[2021-02-22 16:33:46.601] $GNGGA,073346.00,3713.972208899,N,13701.562223135,E,5,08,2.27,84.007,M,37.564,M,94.0,3006*6B
[2021-02-22 16:33:46.679] $GNGGA,073346.10,3713.972213578,N,13701.562210956,E,5,09,1.37,84.032,M,37.564,M,94.1,3006*6B
