
[2021-02-22 16:39:28.531] $GPGGA,073916.20,,,,,0,00,0.0,,M,,M,0,0000*5E
[2021-02-22 16:39:28.547] $GPGGA,073916.30,,,,,0,00,0.0,,M,,M,0,0000*5F
[2021-02-22 16:39:28.547] $GPGGA,073916.40,,,,,0,00,0.0,,M,,M,0,0000*58
[2021-02-22 16:39:28.547] $GPGGA,073916.50,,,,,0,00,0.0,,M,,M,0,0000*59
[2021-02-22 16:39:28.547] $GPGGA,073916.60,,,,,0,00,0.0,,M,,M,0,0000*5A
[2021-02-22 16:39:28.547] $GPGGA,073916.70,,,,,0,00,0.0,,M,,M,0,0000*5B
[2021-02-22 16:39:28.547] $GPGGA,073916.80,,,,,0,00,0.0,,M,,M,0,0000*54
[2021-02-22 16:39:28.547] $GPGGA,073916.90,,,,,0,00,0.0,,M,,M,0,0000*55
[2021-02-22 16:39:28.547] $GPGGA,073917.00,,,,,0,00,0.0,,M,,M,0,0000*5D
[2021-02-22 16:39:28.547] $GPGGA,073917.10,,,,,0,00,0.0,,M,,M,0,0000*5C
[2021-02-22 16:39:28.547] $GPGGA,073917.20,,,,,0,00,0.0,,M,,M,0,0000*5F
[2021-02-22 16:39:28.547] $GPGGA,073917.30,,,,,0,00,0.0,,M,,M,0,0000*5E
[2021-02-22 16:39:28.547] $GPGGA,073917.40,,,,,0,00,0.0,,M,,M,0,0000*59
[2021-02-22 16:39:28.547] $GPGGA,073917.50,,,,,0,00,0.0,,M,,M,0,0000*58
[2021-02-22 16:39:28.547] $GPGGA,073917.60,,,,,0,00,0.0,,M,,M,0,0000*5B
[2021-02-22 16:39:28.547] $GPGGA,073917.70,,,,,0,00,0.0,,M,,M,0,0000*5A
[2021-02-22 16:39:28.547] $GPGGA,073917.80,,,,,0,00,0.0,,M,,M,0,0000*55
[2021-02-22 16:39:28.547] $GPGGA,073917.90,,,,,0,00,0.0,,M,,M,0,0000*54
[2021-02-22 16:39:28.547] $GPGGA,073918.00,,,,,0,00,0.0,,M,,M,0,0000*52
[2021-02-22 16:39:28.547] $GPGGA,073918.10,,,,,0,00,0.0,,M,,M,0,0000*53
[2021-02-22 16:39:28.547] $GPGGA,073918.20,,,,,0,00,0.0,,M,,M,0,0000*50
[2021-02-22 16:39:28.547] $GPGGA,073918.30,,,,,0,00,0.0,,M,,M,0,0000*51
[2021-02-22 16:39:28.562] $GPGGA,073918.40,,,,,0,00,0.0,,M,,M,0,0000*56
[2021-02-22 16:39:28.562] $GPGGA,073918.50,,,,,0,00,0.0,,M,,M,0,0000*57
[2021-02-22 16:39:28.562] $GPGGA,073918.60,,,,,0,00,0.0,,M,,M,0,0000*54
[2021-02-22 16:39:28.562] $GPGGA,073918.70,,,,,0,00,0.0,,M,,M,0,0000*55
[2021-02-22 16:39:28.562] $GPGGA,073918.80,,,,,0,00,0.0,,M,,M,0,0000*5A
[2021-02-22 16:39:28.562] $GPGGA,073918.90,,,,,0,00,0.0,,M,,M,0,0000*5B
[2021-02-22 16:39:28.562] $GPGGA,073919.00,,,,,0,00,0.0,,M,,M,0,0000*53
[2021-02-22 16:39:28.562] $GPGGA,073919.10,,,,,0,00,0.0,,M,,M,0,0000*52
[2021-02-22 16:39:28.562] $GPGGA,073919.20,,,,,0,00,0.0,,M,,M,0,0000*51
[2021-02-22 16:39:28.562] $GPGGA,073919.30,,,,,0,00,0.0,,M,,M,0,0000*50
[2021-02-22 16:39:28.562] $GPGGA,073919.40,,,,,0,00,0.0,,M,,M,0,0000*57
[2021-02-22 16:39:28.562] $GPGGA,073919.50,,,,,0,00,0.0,,M,,M,0,0000*56
[2021-02-22 16:39:28.562] $GPGGA,073919.60,,,,,0,00,0.0,,M,,M,0,0000*55
[2021-02-22 16:39:28.562] $GPGGA,073919.70,,,,,0,00,0.0,,M,,M,0,0000*54
[2021-02-22 16:39:28.562] $GPGGA,073919.80,,,,,0,00,0.0,,M,,M,0,0000*5B
[2021-02-22 16:39:28.562] $GPGGA,073919.90,,,,,0,00,0.0,,M,,M,0,0000*5A
[2021-02-22 16:39:28.562] $GPGGA,073920.00,,,,,0,00,0.0,,M,,M,0,0000*59
[2021-02-22 16:39:28.562] $GPGGA,073920.10,,,,,0,00,0.0,,M,,M,0,0000*58
[2021-02-22 16:39:28.562] $GPGGA,073920.20,,,,,0,00,0.0,,M,,M,0,0000*5B
[2021-02-22 16:39:28.562] $GPGGA,073920.30,,,,,0,00,0.0,,M,,M,0,0000*5A
[2021-02-22 16:39:28.562] $GPGGA,073920.40,,,,,0,00,0.0,,M,,M,0,0000*5D
[2021-02-22 16:39:28.562] $GPGGA,073920.50,,,,,0,00,0.0,,M,,M,0,0000*5C
[2021-02-22 16:39:28.578] $GPGGA,073920.60,,,,,0,00,0.0,,M,,M,0,0000*5F
[2021-02-22 16:39:28.578] $GPGGA,073920.70,,,,,0,00,0.0,,M,,M,0,0000*5E
[2021-02-22 16:39:28.578] $GPGGA,073920.80,,,,,0,00,0.0,,M,,M,0,0000*51
[2021-02-22 16:39:28.578] $GPGGA,073920.90,,,,,0,00,0.0,,M,,M,0,0000*50
[2021-02-22 16:39:28.578] $GPGGA,073921.00,,,,,0,00,0.0,,M,,M,0,0000*58
[2021-02-22 16:39:28.578] $GPGGA,073921.10,,,,,0,00,0.0,,M,,M,0,0000*59
[2021-02-22 16:39:28.578] $GPGGA,073921.20,,,,,0,00,0.0,,M,,M,0,0000*5A
[2021-02-22 16:39:28.578] $GPGGA,073921.30,,,,,0,00,0.0,,M,,M,0,0000*5B
[2021-02-22 16:39:28.578] $GPGGA,073921.40,,,,,0,00,0.0,,M,,M,0,0000*5C
[2021-02-22 16:39:28.578] $GPGGA,073921.50,,,,,0,00,0.0,,M,,M,0,0000*5D
[2021-02-22 16:39:28.578] $GPGGA,073921.60,,,,,0,00,0.0,,M,,M,0,0000*5E
[2021-02-22 16:39:28.578] $GPGGA,073921.70,,,,,0,00,0.0,,M,,M,0,0000*5F
[2021-02-22 16:39:28.578] $GPGGA,073921.80,,,,,0,00,0.0,,M,,M,0,0000*50
[2021-02-22 16:39:28.578] $GPGGA,073921.90,,,,,0,00,0.0,,M,,M,0,0000*51
[2021-02-22 16:39:28.578] $GPGGA,073922.00,,,,,0,00,0.0,,M,,M,0,0000*5B
[2021-02-22 16:39:28.578] $GPGGA,073922.10,,,,,0,00,0.0,,M,,M,0,0000*5A
[2021-02-22 16:39:28.578] $GPGGA,073922.20,,,,,0,00,0.0,,M,,M,0,0000*59
[2021-02-22 16:39:28.578] $GPGGA,073922.30,,,,,0,00,0.0,,M,,M,0,0000*58
[2021-02-22 16:39:28.578] $GPGGA,073922.40,,,,,0,00,0.0,,M,,M,0,0000*5F
[2021-02-22 16:39:28.578] $GPGGA,073922.50,,,,,0,00,0.0,,M,,M,0,0000*5E
[2021-02-22 16:39:28.578] $GPGGA,073922.60,,,,,0,00,0.0,,M,,M,0,0000*5D
[2021-02-22 16:39:28.593] $GPGGA,073922.70,,,,,0,00,0.0,,M,,M,0,0000*5C
[2021-02-22 16:39:28.593] $GPGGA,073922.80,,,,,0,00,0.0,,M,,M,0,0000*53
[2021-02-22 16:39:28.593] $GPGGA,073922.90,,,,,0,00,0.0,,M,,M,0,0000*52
[2021-02-22 16:39:28.593] $GPGGA,073923.00,,,,,0,00,0.0,,M,,M,0,0000*5A
[2021-02-22 16:39:28.593] $GPGGA,073923.10,,,,,0,00,0.0,,M,,M,0,0000*5B
[2021-02-22 16:39:28.593] $GPGGA,073923.20,,,,,0,00,0.0,,M,,M,0,0000*58
[2021-02-22 16:39:28.593] $GPGGA,073923.30,,,,,0,00,0.0,,M,,M,0,0000*59
[2021-02-22 16:39:28.593] $GPGGA,073923.40,,,,,0,00,0.0,,M,,M,0,0000*5E
[2021-02-22 16:39:28.593] $GPGGA,073923.50,,,,,0,00,0.0,,M,,M,0,0000*5F
[2021-02-22 16:39:28.593] $GPGGA,073923.60,,,,,0,00,0.0,,M,,M,0,0000*5C
[2021-02-22 16:39:28.593] $GPGGA,073923.70,,,,,0,00,0.0,,M,,M,0,0000*5D
[2021-02-22 16:39:28.593] $GPGGA,073923.80,,,,,0,00,0.0,,M,,M,0,0000*52
[2021-02-22 16:39:28.593] $GPGGA,073923.90,,,,,0,00,0.0,,M,,M,0,0000*53
[2021-02-22 16:39:28.593] $GPGGA,073924.00,,,,,0,00,0.0,,M,,M,0,0000*5D
[2021-02-22 16:39:28.593] $GPGGA,073924.10,,,,,0,00,0.0,,M,,M,0,0000*5C
[2021-02-22 16:39:28.593] $GPGGA,073924.20,,,,,0,00,0.0,,M,,M,0,0000*5F
[2021-02-22 16:39:28.593] $GPGGA,073924.30,,,,,0,00,0.0,,M,,M,0,0000*5E
[2021-02-22 16:39:28.593] $GPGGA,073924.40,,,,,0,00,0.0,,M,,M,0,0000*59
[2021-02-22 16:39:28.593] $GPGGA,073924.50,,,,,0,00,0.0,,M,,M,0,0000*58
[2021-02-22 16:39:28.593] $GPGGA,073924.60,,,,,0,00,0.0,,M,,M,0,0000*5B
[2021-02-22 16:39:28.593] $GPGGA,073924.70,,,,,0,00,0.0,,M,,M,0,0000*5A
[2021-02-22 16:39:28.593] $GPGGA,073924.80,,,,,0,00,0.0,,M,,M,0,0000*55
[2021-02-22 16:39:28.609] $GPGGA,073924.90,,,,,0,00,0.0,,M,,M,0,0000*54
[2021-02-22 16:39:28.609] $GPGGA,073925.00,,,,,0,00,0.0,,M,,M,0,0000*5C
[2021-02-22 16:39:28.609] $GPGGA,073925.10,,,,,0,00,0.0,,M,,M,0,0000*5D
[2021-02-22 16:39:28.609] $GPGGA,073925.20,,,,,0,00,0.0,,M,,M,0,0000*5E
[2021-02-22 16:39:28.609] $GPGGA,073925.30,,,,,0,00,0.0,,M,,M,0,0000*5F
[2021-02-22 16:39:28.609] $GPGGA,073925.40,,,,,0,00,0.0,,M,,M,0,0000*58
[2021-02-22 16:39:28.609] $GPGGA,073925.50,,,,,0,00,0.0,,M,,M,0,0000*59
[2021-02-22 16:39:28.609] $GPGGA,073925.60,,,,,0,00,0.0,,M,,M,0,0000*5A
[2021-02-22 16:39:28.609] $GPGGA,073925.70,,,,,0,00,0.0,,M,,M,0,0000*5B
[2021-02-22 16:39:28.609] $GPGGA,073925.80,,,,,0,00,0.0,,M,,M,0,0000*54
[2021-02-22 16:39:28.609] $GPGGA,073925.90,,,,,0,00,0.0,,M,,M,0,0000*55
[2021-02-22 16:39:28.609] $GPGGA,073926.00,,,,,0,00,0.0,,M,,M,0,0000*5F
[2021-02-22 16:39:28.609] $GPGGA,073926.10,,,,,0,00,0.0,,M,,M,0,0000*5E
[2021-02-22 16:39:28.609] $GPGGA,073926.20,,,,,0,00,0.0,,M,,M,0,0000*5D
[2021-02-22 16:39:28.609] $GPGGA,073926.30,,,,,0,00,0.0,,M,,M,0,0000*5C
[2021-02-22 16:39:28.609] $GPGGA,073926.40,,,,,0,00,0.0,,M,,M,0,0000*5B
[2021-02-22 16:39:28.609] $GPGGA,073926.50,,,,,0,00,0.0,,M,,M,0,0000*5A
[2021-02-22 16:39:28.609] $GPGGA,073926.60,,,,,0,00,0.0,,M,,M,0,0000*59
[2021-02-22 16:39:28.609] $GPGGA,073926.70,,,,,0,00,0.0,,M,,M,0,0000*58
[2021-02-22 16:39:28.609] $GPGGA,073926.80,,,,,0,00,0.0,,M,,M,0,0000*57
[2021-02-22 16:39:28.609] $GPGGA,073926.90,,,,,0,00,0.0,,M,,M,0,0000*56
[2021-02-22 16:39:28.609] $GPGGA,073927.00,,,,,0,00,0.0,,M,,M,0,0000*5E
[2021-02-22 16:39:28.609] $GPGGA,073927.10,,,,,0,00,0.0,,M,,M,0,0000*5F
[2021-02-22 16:39:28.609] $GPGGA,073927.20,,,,,0,00,0.0,,M,,M,0,0000*5C
[2021-02-22 16:39:28.609] $GPGGA,073927.30,,,,,0,00,0.0,,M,,M,0,0000*5D
[2021-02-22 16:39:28.609] $GPGGA,073927.40,,,,,0,00,0.0,,M,,M,0,0000*5A
[2021-02-22 16:39:28.609] $GPGGA,073927.50,,,,,0,00,0.0,,M,,M,0,0000*5B
[2021-02-22 16:39:28.609] $GPGGA,073927.60,,,,,0,00,0.0,,M,,M,0,0000*58
[2021-02-22 16:39:28.609] $GPGGA,073927.70,,,,,0,00,0.0,,M,,M,0,0000*59
[2021-02-22 16:39:28.609] $GPGGA,073927.80,,,,,0,00,0.0,,M,,M,0,0000*56
[2021-02-22 16:39:28.609] $GPGGA,073927.90,,,,,0,00,0.0,,M,,M,0,0000*57
[2021-02-22 16:39:28.609] $GPGGA,073928.00,,,,,0,00,0.0,,M,,M,0,0000*51
[2021-02-22 16:39:28.609] $GPGGA,073928.10,,,,,0,00,0.0,,M,,M,0,0000*50
[2021-02-22 16:39:28.609] $GPGGA,073928.20,,,,,0,00,0.0,,M,,M,0,0000*53
[2021-02-22 16:39:28.687] $GPGGA,073928.30,,,,,0,00,0.0,,M,,M,0,0000*52
[2021-02-22 16:39:28.781] $GPGGA,073928.40,,,,,0,00,0.0,,M,,M,0,0000*55
[2021-02-22 16:39:28.875] $GPGGA,073928.50,,,,,0,00,0.0,,M,,M,0,0000*54
[2021-02-22 16:39:28.968] $GPGGA,073928.60,,,,,0,00,0.0,,M,,M,0,0000*57
[2021-02-22 16:39:29.078] $GPGGA,073928.70,,,,,0,00,0.0,,M,,M,0,0000*56
[2021-02-22 16:39:29.172] $GPGGA,073928.80,,,,,0,00,0.0,,M,,M,0,0000*59
[2021-02-22 16:39:29.281] $GPGGA,073928.90,,,,,0,00,0.0,,M,,M,0,0000*58
[2021-02-22 16:39:29.375] $GPGGA,073929.00,,,,,0,00,0.0,,M,,M,0,0000*50
[2021-02-22 16:39:29.484] $GPGGA,073929.10,,,,,0,00,0.0,,M,,M,0,0000*51
[2021-02-22 16:39:29.578] $GPGGA,073929.20,,,,,0,00,0.0,,M,,M,0,0000*52
[2021-02-22 16:39:29.671] $GPGGA,073929.30,,,,,0,00,0.0,,M,,M,0,0000*53
[2021-02-22 16:39:29.765] $GPGGA,073929.40,,,,,0,00,0.0,,M,,M,0,0000*54
[2021-02-22 16:39:29.890] $GPGGA,073929.50,,,,,0,00,0.0,,M,,M,0,0000*55
[2021-02-22 16:39:29.984] $GPGGA,073929.60,,,,,0,00,0.0,,M,,M,0,0000*56
[2021-02-22 16:39:30.078] $GPGGA,073929.70,,,,,0,00,0.0,,M,,M,0,0000*57
[2021-02-22 16:39:30.171] $GPGGA,073929.80,,,,,0,00,0.0,,M,,M,0,0000*58
[2021-02-22 16:39:30.281] $GPGGA,073929.90,,,,,0,00,0.0,,M,,M,0,0000*59
[2021-02-22 16:39:30.375] $GPGGA,073930.00,,,,,0,00,0.0,,M,,M,0,0000*58
[2021-02-22 16:39:30.468] $GPGGA,073930.10,,,,,0,00,0.0,,M,,M,0,0000*59
[2021-02-22 16:39:30.578] $GPGGA,073930.20,,,,,0,00,0.0,,M,,M,0,0000*5A
[2021-02-22 16:39:30.687] $GPGGA,073930.30,,,,,0,00,0.0,,M,,M,0,0000*5B
[2021-02-22 16:39:30.781] $GPGGA,073930.40,,,,,0,00,0.0,,M,,M,0,0000*5C
[2021-02-22 16:39:30.875] $GPGGA,073930.50,,,,,0,00,0.0,,M,,M,0,0000*5D
[2021-02-22 16:39:30.984] $GPGGA,073930.60,,,,,0,00,0.0,,M,,M,0,0000*5E
[2021-02-22 16:39:31.078] $GPGGA,073930.70,,,,,0,00,0.0,,M,,M,0,0000*5F
[2021-02-22 16:39:31.171] $GPGGA,073930.80,,,,,0,00,0.0,,M,,M,0,0000*50
[2021-02-22 16:39:31.281] $GPGGA,073930.90,,,,,0,00,0.0,,M,,M,0,0000*51
[2021-02-22 16:39:31.390] $GPGGA,073931.00,,,,,0,00,0.0,,M,,M,0,0000*59
[2021-02-22 16:39:31.484] $GPGGA,073931.10,,,,,0,00,0.0,,M,,M,0,0000*58
[2021-02-22 16:39:31.578] $GPGGA,073931.20,,,,,0,00,0.0,,M,,M,0,0000*5B
[2021-02-22 16:39:31.671] $GPGGA,073931.30,,,,,0,00,0.0,,M,,M,0,0000*5A
[2021-02-22 16:39:31.781] $GPGGA,073931.40,,,,,0,00,0.0,,M,,M,0,0000*5D
[2021-02-22 16:39:31.874] $GPGGA,073931.50,,,,,0,00,0.0,,M,,M,0,0000*5C
[2021-02-22 16:39:31.984] $GPGGA,073931.60,,,,,0,00,0.0,,M,,M,0,0000*5F
[2021-02-22 16:39:32.078] $GPGGA,073931.70,,,,,0,00,0.0,,M,,M,0,0000*5E
[2021-02-22 16:39:32.187] $GPGGA,073931.80,,,,,0,00,0.0,,M,,M,0,0000*51
[2021-02-22 16:39:32.281] $GPGGA,073931.90,,,,,0,00,0.0,,M,,M,0,0000*50
[2021-02-22 16:39:32.374] $GPGGA,073932.00,,,,,0,00,0.0,,M,,M,0,0000*5A
[2021-02-22 16:39:32.468] $GPGGA,073932.10,,,,,0,00,0.0,,M,,M,0,0000*5B
[2021-02-22 16:39:32.578] $GPGGA,073932.20,,,,,0,00,0.0,,M,,M,0,0000*58
[2021-02-22 16:39:32.687] $GPGGA,073932.30,,,,,0,00,0.0,,M,,M,0,0000*59
[2021-02-22 16:39:32.781] $GPGGA,073932.40,,,,,0,00,0.0,,M,,M,0,0000*5E
[2021-02-22 16:39:32.874] $GPGGA,073932.50,,,,,0,00,0.0,,M,,M,0,0000*5F
[2021-02-22 16:39:32.968] $GPGGA,073932.60,,,,,0,00,0.0,,M,,M,0,0000*5C
[2021-02-22 16:39:33.078] $GPGGA,073932.70,,,,,0,00,0.0,,M,,M,0,0000*5D
[2021-02-22 16:39:33.171] $GPGGA,073932.80,,,,,0,00,0.0,,M,,M,0,0000*52
[2021-02-22 16:39:33.281] $GPGGA,073932.90,,,,,0,00,0.0,,M,,M,0,0000*53
[2021-02-22 16:39:33.374] $GPGGA,073933.00,,,,,0,00,0.0,,M,,M,0,0000*5B
[2021-02-22 16:39:33.484] $GPGGA,073933.10,,,,,0,00,0.0,,M,,M,0,0000*5A
[2021-02-22 16:39:33.577] $GPGGA,073933.20,,,,,0,00,0.0,,M,,M,0,0000*59
[2021-02-22 16:39:33.671] $GPGGA,073933.30,,,,,0,00,0.0,,M,,M,0,0000*58
[2021-02-22 16:39:33.765] $GPGGA,073933.40,,,,,0,00,0.0,,M,,M,0,0000*5F
[2021-02-22 16:39:33.874] $GPGGA,073933.50,,,,,0,00,0.0,,M,,M,0,0000*5E
[2021-02-22 16:39:33.984] $GPGGA,073933.60,,,,,0,00,0.0,,M,,M,0,0000*5D
[2021-02-22 16:39:34.077] $GPGGA,073933.70,,,,,0,00,0.0,,M,,M,0,0000*5C
[2021-02-22 16:39:34.171] $GPGGA,073933.80,,,,,0,00,0.0,,M,,M,0,0000*53
[2021-02-22 16:39:34.281] $GPGGA,073933.90,,,,,0,00,0.0,,M,,M,0,0000*52
[2021-02-22 16:39:34.374] $GPGGA,073934.00,,,,,0,00,0.0,,M,,M,0,0000*5C
[2021-02-22 16:39:34.468] $GPGGA,073934.10,,,,,0,00,0.0,,M,,M,0,0000*5D
[2021-02-22 16:39:34.593] $GPGGA,073934.20,,,,,0,00,0.0,,M,,M,0,0000*5E
[2021-02-22 16:39:34.687] $GPGGA,073934.30,,,,,0,00,0.0,,M,,M,0,0000*5F
[2021-02-22 16:39:34.781] $GPGGA,073934.40,,,,,0,00,0.0,,M,,M,0,0000*58
[2021-02-22 16:39:34.874] $GPGGA,073934.50,,,,,0,00,0.0,,M,,M,0,0000*59
[2021-02-22 16:39:34.984] $GPGGA,073934.60,,,,,0,00,0.0,,M,,M,0,0000*5A
[2021-02-22 16:39:35.077] $GPGGA,073934.70,,,,,0,00,0.0,,M,,M,0,0000*5B
[2021-02-22 16:39:35.171] $GPGGA,073934.80,,,,,0,00,0.0,,M,,M,0,0000*54
[2021-02-22 16:39:35.280] $GPGGA,073934.90,,,,,0,00,0.0,,M,,M,0,0000*55
[2021-02-22 16:39:35.390] $GPGGA,073935.00,,,,,0,00,0.0,,M,,M,0,0000*5D
[2021-02-22 16:39:35.484] $GPGGA,073935.10,,,,,0,00,0.0,,M,,M,0,0000*5C
[2021-02-22 16:39:35.577] $GPGGA,073935.20,,,,,0,00,0.0,,M,,M,0,0000*5F
[2021-02-22 16:39:35.671] $GPGGA,073935.30,,,,,0,00,0.0,,M,,M,0,0000*5E
[2021-02-22 16:39:35.780] $GPGGA,073935.40,,,,,0,00,0.0,,M,,M,0,0000*59
[2021-02-22 16:39:35.874] $GPGGA,073935.50,,,,,0,00,0.0,,M,,M,0,0000*58
[2021-02-22 16:39:35.984] $GPGGA,073935.60,,,,,0,00,0.0,,M,,M,0,0000*5B
[2021-02-22 16:39:36.077] $GPGGA,073935.70,,,,,0,00,0.0,,M,,M,0,0000*5A
[2021-02-22 16:39:36.187] $GPGGA,073935.80,,,,,0,00,0.0,,M,,M,0,0000*55
[2021-02-22 16:39:36.280] $GPGGA,073935.90,,,,,0,00,0.0,,M,,M,0,0000*54
[2021-02-22 16:39:36.374] $GPGGA,073936.00,,,,,0,00,0.0,,M,,M,0,0000*5E
[2021-02-22 16:39:36.468] $GPGGA,073936.10,,,,,0,00,0.0,,M,,M,0,0000*5F
[2021-02-22 16:39:36.562] $GPGGA,073936.20,,,,,0,00,0.0,,M,,M,0,0000*5C
[2021-02-22 16:39:36.687] $GPGGA,073936.30,,,,,0,00,0.0,,M,,M,0,0000*5D
[2021-02-22 16:39:36.780] $GPGGA,073936.40,,,,,0,00,0.0,,M,,M,0,0000*5A
[2021-02-22 16:39:36.874] $GPGGA,073936.50,,,,,0,00,0.0,,M,,M,0,0000*5B
[2021-02-22 16:39:36.968] $GPGGA,073936.60,,,,,0,00,0.0,,M,,M,0,0000*58
[2021-02-22 16:39:37.077] $GPGGA,073936.70,,,,,0,00,0.0,,M,,M,0,0000*59
[2021-02-22 16:39:37.171] $GPGGA,073936.80,,,,,0,00,0.0,,M,,M,0,0000*56
[2021-02-22 16:39:37.280] $GPGGA,073936.90,,,,,0,00,0.0,,M,,M,0,0000*57
[2021-02-22 16:39:37.374] $GPGGA,073937.00,,,,,0,00,0.0,,M,,M,0,0000*5F
[2021-02-22 16:39:37.483] $GPGGA,073937.10,,,,,0,00,0.0,,M,,M,0,0000*5E
[2021-02-22 16:39:37.577] $GPGGA,073937.20,,,,,0,00,0.0,,M,,M,0,0000*5D
[2021-02-22 16:39:37.671] $GPGGA,073937.30,,,,,0,00,0.0,,M,,M,0,0000*5C
[2021-02-22 16:39:37.765] $GPGGA,073937.40,,,,,0,00,0.0,,M,,M,0,0000*5B
[2021-02-22 16:39:37.874] $GPGGA,073937.50,,,,,0,00,0.0,,M,,M,0,0000*5A
[2021-02-22 16:39:37.983] $GPGGA,073937.60,,,,,0,00,0.0,,M,,M,0,0000*59
[2021-02-22 16:39:38.077] $GPGGA,073937.70,,,,,0,00,0.0,,M,,M,0,0000*58
[2021-02-22 16:39:38.187] $GPGGA,073937.80,,,,,0,00,0.0,,M,,M,0,0000*57
[2021-02-22 16:39:38.280] $GPGGA,073937.90,,,,,0,00,0.0,,M,,M,0,0000*56
[2021-02-22 16:39:38.374] $GPGGA,073938.00,,,,,0,00,0.0,,M,,M,0,0000*50
[2021-02-22 16:39:38.468] $GPGGA,073938.10,,,,,0,00,0.0,,M,,M,0,0000*51
[2021-02-22 16:39:38.577] $GPGGA,073938.20,,,,,0,00,0.0,,M,,M,0,0000*52
[2021-02-22 16:39:38.687] $GPGGA,073938.30,,,,,0,00,0.0,,M,,M,0,0000*53
[2021-02-22 16:39:38.780] $GPGGA,073938.40,,,,,0,00,0.0,,M,,M,0,0000*54
[2021-02-22 16:39:38.874] $GPGGA,073938.50,,,,,0,00,0.0,,M,,M,0,0000*55
[2021-02-22 16:39:38.983] $GPGGA,073938.60,,,,,0,00,0.0,,M,,M,0,0000*56
[2021-02-22 16:39:39.077] $GPGGA,073938.70,,,,,0,00,0.0,,M,,M,0,0000*57
[2021-02-22 16:39:39.171] $GPGGA,073938.80,,,,,0,00,0.0,,M,,M,0,0000*58
[2021-02-22 16:39:39.265] $GPGGA,073938.90,,,,,0,00,0.0,,M,,M,0,0000*59
[2021-02-22 16:39:39.390] $GPGGA,073939.00,,,,,0,00,0.0,,M,,M,0,0000*51
[2021-02-22 16:39:39.483] $GPGGA,073939.10,,,,,0,00,0.0,,M,,M,0,0000*50
[2021-02-22 16:39:39.577] $GPGGA,073939.20,,,,,0,00,0.0,,M,,M,0,0000*53
[2021-02-22 16:39:39.686] $GPGGA,073939.30,,,,,0,00,0.0,,M,,M,0,0000*52
[2021-02-22 16:39:39.780] $GPGGA,073939.40,,,,,0,00,0.0,,M,,M,0,0000*55
[2021-02-22 16:39:39.874] $GPGGA,073939.50,,,,,0,00,0.0,,M,,M,0,0000*54
[2021-02-22 16:39:39.983] $GPGGA,073939.60,,,,,0,00,0.0,,M,,M,0,0000*57
[2021-02-22 16:39:40.077] $GPGGA,073939.70,,,,,0,00,0.0,,M,,M,0,0000*56
[2021-02-22 16:39:40.186] $GPGGA,073939.80,,,,,0,00,0.0,,M,,M,0,0000*59
[2021-02-22 16:39:40.280] $GPGGA,073939.90,,,,,0,00,0.0,,M,,M,0,0000*58
[2021-02-22 16:39:40.374] $GPGGA,073940.00,,,,,0,00,0.0,,M,,M,0,0000*5F
[2021-02-22 16:39:40.468] $GPGGA,073940.10,,,,,0,00,0.0,,M,,M,0,0000*5E
[2021-02-22 16:39:40.561] $GPGGA,073940.20,,,,,0,00,0.0,,M,,M,0,0000*5D
[2021-02-22 16:39:40.686] $GPGGA,073940.30,,,,,0,00,0.0,,M,,M,0,0000*5C
[2021-02-22 16:39:40.780] $GPGGA,073940.40,,,,,0,00,0.0,,M,,M,0,0000*5B
[2021-02-22 16:39:40.874] $GPGGA,073940.50,,,,,0,00,0.0,,M,,M,0,0000*5A
[2021-02-22 16:39:40.968] $GPGGA,073940.60,,,,,0,00,0.0,,M,,M,0,0000*59
[2021-02-22 16:39:41.077] $GPGGA,073940.70,,,,,0,00,0.0,,M,,M,0,0000*58
[2021-02-22 16:39:41.171] $GPGGA,073940.80,,,,,0,00,0.0,,M,,M,0,0000*57
[2021-02-22 16:39:41.264] $GPGGA,073940.90,,,,,0,00,0.0,,M,,M,0,0000*56
[2021-02-22 16:39:41.374] $GPGGA,073941.00,,,,,0,00,0.0,,M,,M,0,0000*5E
[2021-02-22 16:39:41.483] $GPGGA,073941.10,,,,,0,00,0.0,,M,,M,0,0000*5F
[2021-02-22 16:39:41.577] $GPGGA,073941.20,,,,,0,00,0.0,,M,,M,0,0000*5C
[2021-02-22 16:39:41.671] $GPGGA,073941.30,,,,,0,00,0.0,,M,,M,0,0000*5D
[2021-02-22 16:39:41.780] $GPGGA,073941.40,,,,,0,00,0.0,,M,,M,0,0000*5A
[2021-02-22 16:39:41.874] $GPGGA,073941.50,,,,,0,00,0.0,,M,,M,0,0000*5B
[2021-02-22 16:39:41.983] $GPGGA,073941.60,,,,,0,00,0.0,,M,,M,0,0000*58
[2021-02-22 16:39:42.077] $GPGGA,073941.70,,,,,0,00,0.0,,M,,M,0,0000*59
[2021-02-22 16:39:42.186] $GPGGA,073941.80,,,,,0,00,0.0,,M,,M,0,0000*56
[2021-02-22 16:39:42.280] $GPGGA,073941.90,,,,,0,00,0.0,,M,,M,0,0000*57
[2021-02-22 16:39:42.374] $GPGGA,073942.00,,,,,0,00,0.0,,M,,M,0,0000*5D
[2021-02-22 16:39:42.467] $GPGGA,073942.10,,,,,0,00,0.0,,M,,M,0,0000*5C
[2021-02-22 16:39:42.577] $GPGGA,073942.20,,,,,0,00,0.0,,M,,M,0,0000*5F
[2021-02-22 16:39:42.686] $GPGGA,073942.30,,,,,0,00,0.0,,M,,M,0,0000*5E
[2021-02-22 16:39:42.780] $GPGGA,073942.40,,,,,0,00,0.0,,M,,M,0,0000*59
[2021-02-22 16:39:42.874] $GPGGA,073942.50,,,,,0,00,0.0,,M,,M,0,0000*58
[2021-02-22 16:39:42.983] $GPGGA,073942.60,,,,,0,00,0.0,,M,,M,0,0000*5B
[2021-02-22 16:39:43.077] $GPGGA,073942.70,,,,,0,00,0.0,,M,,M,0,0000*5A
[2021-02-22 16:39:43.171] $GPGGA,073942.80,,,,,0,00,0.0,,M,,M,0,0000*55
[2021-02-22 16:39:43.280] $GPGGA,073942.90,,,,,0,00,0.0,,M,,M,0,0000*54
[2021-02-22 16:39:43.389] $GPGGA,073943.00,,,,,0,00,0.0,,M,,M,0,0000*5C
[2021-02-22 16:39:43.483] $GPGGA,073943.10,,,,,0,00,0.0,,M,,M,0,0000*5D
[2021-02-22 16:39:43.577] $GPGGA,073943.20,,,,,0,00,0.0,,M,,M,0,0000*5E
[2021-02-22 16:39:43.686] $GPGGA,073943.30,,,,,0,00,0.0,,M,,M,0,0000*5F
[2021-02-22 16:39:43.780] $GPGGA,073943.40,,,,,0,00,0.0,,M,,M,0,0000*58
[2021-02-22 16:39:43.874] $GPGGA,073943.50,,,,,0,00,0.0,,M,,M,0,0000*59
[2021-02-22 16:39:43.983] $GPGGA,073943.60,,,,,0,00,0.0,,M,,M,0,0000*5A
[2021-02-22 16:39:44.092] $GPGGA,073943.70,,,,,0,00,0.0,,M,,M,0,0000*5B
[2021-02-22 16:39:44.186] $GPGGA,073943.80,,,,,0,00,0.0,,M,,M,0,0000*54
[2021-02-22 16:39:44.280] $GPGGA,073943.90,,,,,0,00,0.0,,M,,M,0,0000*55
[2021-02-22 16:39:44.374] $GPGGA,073944.00,,,,,0,00,0.0,,M,,M,0,0000*5B
[2021-02-22 16:39:44.467] $GPGGA,073944.10,,,,,0,00,0.0,,M,,M,0,0000*5A
[2021-02-22 16:39:44.577] $GPGGA,073944.20,,,,,0,00,0.0,,M,,M,0,0000*59
[2021-02-22 16:39:44.686] $GPGGA,073944.30,,,,,0,00,0.0,,M,,M,0,0000*58
[2021-02-22 16:39:44.780] $GPGGA,073944.40,,,,,0,00,0.0,,M,,M,0,0000*5F
[2021-02-22 16:39:44.874] $GPGGA,073944.50,,,,,0,00,0.0,,M,,M,0,0000*5E
[2021-02-22 16:39:44.967] $GPGGA,073944.60,,,,,0,00,0.0,,M,,M,0,0000*5D
[2021-02-22 16:39:45.077] $GPGGA,073944.70,,,,,0,00,0.0,,M,,M,0,0000*5C
[2021-02-22 16:39:45.202] $GPGGA,073944.80,3713.9755745,N,13701.5617731,E,1,06,2.3,79.0149,M,37.55,M,,*52
[2021-02-22 16:39:45.280] $GPGGA,073944.90,3713.9756743,N,13701.5619475,E,1,06,2.3,78.2212,M,37.55,M,,*55
[2021-02-22 16:39:45.389] $GPGGA,073945.00,3713.9760535,N,13701.5627451,E,1,06,2.3,77.1904,M,37.55,M,,*50
[2021-02-22 16:39:45.483] $GPGGA,073945.10,3713.9757441,N,13701.5616068,E,1,06,2.3,78.7642,M,37.55,M,,*5F
[2021-02-22 16:39:45.592] $GPGGA,073945.20,3713.9755682,N,13701.5613139,E,1,06,2.3,79.5954,M,37.55,M,,*58
[2021-02-22 16:39:45.670] $GPGGA,073945.30,3713.9754955,N,13701.5618260,E,1,06,2.3,77.0743,M,37.55,M,,*5A
[2021-02-22 16:39:45.795] $GPGGA,073945.40,3713.9754548,N,13701.5610944,E,1,06,2.3,80.0026,M,37.55,M,,*54
[2021-02-22 16:39:45.874] $GPGGA,073945.50,3713.9758859,N,13701.5613095,E,1,06,2.3,78.1755,M,37.55,M,,*57
[2021-02-22 16:39:45.998] $GPGGA,073945.60,3713.9758373,N,13701.5608181,E,1,06,2.3,78.4167,M,37.55,M,,*5B
[2021-02-22 16:39:46.077] $GPGGA,073945.70,3713.9762154,N,13701.5614239,E,1,06,2.3,78.1536,M,37.55,M,,*5C
[2021-02-22 16:39:46.202] $GPGGA,073945.80,3713.9760674,N,13701.5614419,E,1,06,2.3,78.1252,M,37.55,M,,*55
[2021-02-22 16:39:46.280] $GPGGA,073945.90,3713.9760350,N,13701.5615312,E,1,06,2.3,77.5102,M,37.55,M,,*57
[2021-02-22 16:39:46.389] $GPGGA,073946.00,3713.9762263,N,13701.5617697,E,1,06,2.3,77.4975,M,37.55,M,,*5D
[2021-02-22 16:39:46.467] $GPGGA,073946.10,3713.9762945,N,13701.5618817,E,1,06,2.3,77.7237,M,37.55,M,,*54
[2021-02-22 16:39:46.592] $GPGGA,073946.20,3713.9763181,N,13701.5621052,E,1,06,2.3,78.0943,M,37.55,M,,*55
[2021-02-22 16:39:46.670] $GPGGA,073946.30,3713.9763676,N,13701.5620380,E,1,06,2.3,77.8488,M,37.55,M,,*5B
[2021-02-22 16:39:46.795] $GPGGA,073946.40,3713.9763295,N,13701.5622281,E,1,06,2.3,77.4485,M,37.55,M,,*56
[2021-02-22 16:39:46.889] $GPGGA,073946.50,3713.9761737,N,13701.5619311,E,1,06,2.3,77.9289,M,37.55,M,,*5F
[2021-02-22 16:39:46.983] $GPGGA,073946.60,3713.9758819,N,13701.5627065,E,1,07,2.3,85.7539,M,37.55,M,,*56
[2021-02-22 16:39:47.092] $GPGGA,073946.70,3713.9756753,N,13701.5625783,E,1,07,2.3,86.7619,M,37.55,M,,*57
[2021-02-22 16:39:47.170] $GPGGA,073946.80,3713.9755963,N,13701.5625737,E,1,07,2.3,88.0628,M,37.55,M,,*52
[2021-02-22 16:39:47.295] $GPGGA,073946.90,3713.9757705,N,13701.5623692,E,1,07,2.3,85.5476,M,37.55,M,,*56
[2021-02-22 16:39:47.373] $GPGGA,073947.00,3713.9757148,N,13701.5624990,E,1,07,2.3,86.0142,M,37.55,M,,*5F
[2021-02-22 16:39:47.498] $GPGGA,073947.10,3713.9755437,N,13701.5623494,E,1,07,2.3,87.7567,M,37.55,M,,*5A
[2021-02-22 16:39:47.577] $GPGGA,073947.20,3713.9755889,N,13701.5624967,E,1,07,2.3,87.2898,M,37.55,M,,*5E
[2021-02-22 16:39:47.702] $GPGGA,073947.30,3713.9754773,N,13701.5625360,E,1,07,2.3,88.1245,M,37.55,M,,*5E
[2021-02-22 16:39:47.780] $GPGGA,073947.40,3713.9755079,N,13701.5624105,E,1,07,2.3,86.4259,M,37.55,M,,*53
[2021-02-22 16:39:47.889] $GPGGA,073947.50,3713.9755031,N,13701.5622979,E,1,07,2.3,85.6671,M,37.55,M,,*54
[2021-02-22 16:39:47.983] $GPGGA,073947.60,3713.9755302,N,13701.5622716,E,1,07,2.3,85.5216,M,37.55,M,,*55
[2021-02-22 16:39:48.092] $GPGGA,073947.70,3713.9754425,N,13701.5624099,E,1,07,2.3,86.5811,M,37.55,M,,*5F
[2021-02-22 16:39:48.170] $GPGGA,073947.80,3713.9753697,N,13701.5625083,E,1,07,2.3,87.3874,M,37.55,M,,*52
[2021-02-22 16:39:48.295] $GPGGA,073947.90,3713.9753917,N,13701.5624338,E,1,07,2.3,87.1110,M,37.55,M,,*5F
[2021-02-22 16:39:48.373] $GPGGA,073948.00,3713.9753474,N,13701.5623665,E,1,07,2.3,87.9966,M,37.55,M,,*5A
[2021-02-22 16:39:48.498] $GPGGA,073948.10,3713.9753805,N,13701.5622617,E,1,07,2.3,87.2473,M,37.55,M,,*57
[2021-02-22 16:39:48.592] $GPGGA,073948.20,3713.9753841,N,13701.5621458,E,1,07,2.3,86.2747,M,37.55,M,,*5B
[2021-02-22 16:39:48.670] $GPGGA,073948.30,3713.9754271,N,13701.5621527,E,1,07,2.3,85.6109,M,37.55,M,,*56
[2021-02-22 16:39:48.795] $GPGGA,073948.40,3713.9755360,N,13701.5621094,E,1,07,2.3,84.8266,M,37.55,M,,*59
[2021-02-22 16:39:48.873] $GPGGA,073948.50,3713.9755469,N,13701.5622257,E,1,07,2.3,85.5458,M,37.55,M,,*5F
[2021-02-22 16:39:48.998] $GPGGA,073948.60,3713.9755485,N,13701.5621768,E,1,07,2.3,85.5729,M,37.55,M,,*51
[2021-02-22 16:39:49.076] $GPGGA,073948.70,3713.9754866,N,13701.5620428,E,1,07,2.3,85.5986,M,37.55,M,,*5D
[2021-02-22 16:39:49.201] $GPGGA,073948.80,3713.9754690,N,13701.5624446,E,1,07,2.3,86.2312,M,37.55,M,,*5A
[2021-02-22 16:39:49.280] $GPGGA,073948.90,3713.9755129,N,13701.5625322,E,1,07,2.3,85.3854,M,37.55,M,,*50
[2021-02-22 16:39:49.389] $GPGGA,073949.00,3713.9756130,N,13701.5626742,E,1,07,2.3,84.7476,M,37.55,M,,*5B
[2021-02-22 16:39:49.483] $GPGGA,073949.10,3713.9756430,N,13701.5627428,E,1,07,2.3,84.2191,M,37.55,M,,*58
[2021-02-22 16:39:49.592] $GPGGA,073949.20,3713.9756785,N,13701.5629725,E,1,07,2.3,84.0934,M,37.55,M,,*53
[2021-02-22 16:39:49.670] $GPGGA,073949.30,3713.9756867,N,13701.5631916,E,1,07,2.3,83.9657,M,37.55,M,,*52
[2021-02-22 16:39:49.795] $GPGGA,073949.40,3713.9756366,N,13701.5631845,E,1,07,2.3,84.4162,M,37.55,M,,*53
[2021-02-22 16:39:49.873] $GPGGA,073949.50,3713.9756645,N,13701.5632172,E,1,07,2.3,84.6449,M,37.55,M,,*56
[2021-02-22 16:39:49.998] $GPGGA,073949.60,3713.9756698,N,13701.5631480,E,1,07,2.3,84.0978,M,37.55,M,,*57
[2021-02-22 16:39:50.076] $GPGGA,073949.70,3713.9756377,N,13701.5632798,E,1,07,2.3,84.0695,M,37.55,M,,*57
[2021-02-22 16:39:50.201] $GPGGA,073949.80,3713.9756719,N,13701.5633539,E,1,07,2.3,84.0791,M,37.55,M,,*59
[2021-02-22 16:39:50.279] $GPGGA,073949.90,3713.9757146,N,13701.5634312,E,1,07,2.3,83.9622,M,37.55,M,,*5A
[2021-02-22 16:39:50.389] $GPGGA,073950.00,3713.9757952,N,13701.5635975,E,1,07,2.3,83.3677,M,37.55,M,,*56
[2021-02-22 16:39:50.498] $GPGGA,073950.10,3713.9757907,N,13701.5635086,E,1,07,2.3,83.3875,M,37.55,M,,*5E
[2021-02-22 16:39:50.576] $GPGGA,073950.20,3713.9758255,N,13701.5637330,E,1,07,2.3,83.5312,M,37.55,M,,*5E
[2021-02-22 16:39:50.701] $GPGGA,073950.30,3713.9758470,N,13701.5638345,E,1,07,2.3,83.0744,M,37.55,M,,*51
[2021-02-22 16:39:50.779] $GPGGA,073950.40,3713.9758628,N,13701.5638663,E,1,07,2.3,83.1228,M,37.55,M,,*56
[2021-02-22 16:39:50.889] $GPGGA,073950.50,3713.9759543,N,13701.5641176,E,1,07,2.3,82.2559,M,37.55,M,,*56
[2021-02-22 16:39:50.982] $GPGGA,073950.60,3713.9758860,N,13701.5639455,E,1,07,2.3,82.5459,M,37.55,M,,*55
[2021-02-22 16:39:51.092] $GPGGA,073950.70,3713.9758964,N,13701.5641364,E,1,07,2.3,82.3979,M,37.55,M,,*52
[2021-02-22 16:39:51.170] $GPGGA,073950.80,3713.9758363,N,13701.5640821,E,1,07,2.3,82.5105,M,37.55,M,,*5E
[2021-02-22 16:39:51.295] $GPGGA,073950.90,3713.9757607,N,13701.5639653,E,1,07,2.3,82.6988,M,37.55,M,,*5C
[2021-02-22 16:39:51.373] $GPGGA,073951.00,3713.9756497,N,13701.5639177,E,1,07,2.3,82.8823,M,37.55,M,,*51
[2021-02-22 16:39:51.498] $GPGGA,073951.10,3713.9757447,N,13701.5641305,E,1,07,2.3,82.5743,M,37.55,M,,*50
[2021-02-22 16:39:51.576] $GPGGA,073951.20,3713.9757592,N,13701.5640374,E,1,07,2.3,82.2178,M,37.55,M,,*54
[2021-02-22 16:39:51.701] $GPGGA,073951.30,3713.9758912,N,13701.5642543,E,1,07,2.3,81.8416,M,37.55,M,,*5A
[2021-02-22 16:39:51.779] $GPGGA,073951.40,3713.9758522,N,13701.5643099,E,1,07,2.3,82.3442,M,37.55,M,,*58
[2021-02-22 16:39:51.889] $GPGGA,073951.50,3713.9758923,N,13701.5643856,E,1,07,2.3,82.2602,M,37.55,M,,*58
[2021-02-22 16:39:51.967] $GPGGA,073951.60,3713.9758963,N,13701.5642255,E,1,07,2.3,82.5425,M,37.55,M,,*57
[2021-02-22 16:39:52.092] $GPGGA,073951.70,3713.9759396,N,13701.5642698,E,1,07,2.3,82.1277,M,37.55,M,,*57
[2021-02-22 16:39:52.201] $GPGGA,073951.80,3713.9759408,N,13701.5643745,E,1,07,2.3,82.2878,M,37.55,M,,*5E
[2021-02-22 16:39:52.279] $GPGGA,073951.90,3713.9758069,N,13701.5642851,E,1,07,2.3,82.6645,M,37.55,M,,*52
[2021-02-22 16:39:52.404] $GPGGA,073952.00,3713.9754099,N,13701.5644193,E,1,09,2.2,83.3220,M,37.55,M,,*56
[2021-02-22 16:39:52.482] $GPGGA,073952.10,3713.9754358,N,13701.5643822,E,1,09,2.2,83.4140,M,37.55,M,,*5F
[2021-02-22 16:39:52.592] $GPGGA,073952.20,3713.9754413,N,13701.5643879,E,1,09,2.2,83.6285,M,37.55,M,,*52
[2021-02-22 16:39:52.670] $GPGGA,073952.30,3713.9753797,N,13701.5642255,E,1,09,2.2,83.6513,M,37.55,M,,*56
[2021-02-22 16:39:52.795] $GPGGA,073952.40,3713.9753820,N,13701.5641316,E,1,09,2.2,83.4841,M,37.55,M,,*5F
[2021-02-22 16:39:52.873] $GPGGA,073952.50,3713.9754086,N,13701.5642855,E,1,09,2.2,83.1478,M,37.55,M,,*51
[2021-02-22 16:39:52.998] $GPGGA,073952.60,3713.9753558,N,13701.5641238,E,1,09,2.2,83.2685,M,37.55,M,,*52
[2021-02-22 16:39:53.076] $GPGGA,073952.70,3713.9753604,N,13701.5641738,E,1,09,2.2,83.2860,M,37.55,M,,*59
[2021-02-22 16:39:53.201] $GPGGA,073952.80,3713.9753586,N,13701.5642249,E,1,09,2.2,83.3790,M,37.55,M,,*5E
[2021-02-22 16:39:53.279] $GPGGA,073952.90,3713.9753599,N,13701.5642380,E,1,09,2.2,83.6427,M,37.55,M,,*5F
[2021-02-22 16:39:53.389] $GPGGA,073953.00,3713.9754066,N,13701.5642668,E,1,09,2.2,83.3031,M,37.55,M,,*50
[2021-02-22 16:39:53.482] $GPGGA,073953.10,3713.9754046,N,13701.5642343,E,1,09,2.2,83.2698,M,37.55,M,,*5B
[2021-02-22 16:39:53.592] $GPGGA,073953.20,3713.9754185,N,13701.5643233,E,1,09,2.2,83.6060,M,37.55,M,,*54
[2021-02-22 16:39:53.670] $GPGGA,073953.30,3713.9754529,N,13701.5643574,E,1,09,2.2,83.3330,M,37.55,M,,*50
[2021-02-22 16:39:53.795] $GPGGA,073953.40,3713.9755326,N,13701.5644413,E,1,09,2.2,82.9359,M,37.55,M,,*5C
[2021-02-22 16:39:53.873] $GPGGA,073953.50,3713.9755658,N,13701.5644990,E,1,09,2.2,82.6185,M,37.55,M,,*5B
[2021-02-22 16:39:53.998] $GPGGA,073953.60,3713.9756576,N,13701.5646445,E,1,09,2.2,82.1603,M,37.55,M,,*5D
[2021-02-22 16:39:54.092] $GPGGA,073953.70,3713.9756550,N,13701.5647354,E,1,09,2.2,81.9975,M,37.55,M,,*5B
[2021-02-22 16:39:54.185] $GPGGA,073953.80,3713.9757144,N,13701.5647853,E,1,09,2.2,81.5077,M,37.55,M,,*5F
[2021-02-22 16:39:54.295] $GPGGA,073953.90,3713.9757903,N,13701.5649765,E,1,09,2.2,81.2993,M,37.55,M,,*55
[2021-02-22 16:39:54.373] $GPGGA,073954.00,3713.9757921,N,13701.5649438,E,1,09,2.2,81.6716,M,37.55,M,,*57
[2021-02-22 16:39:54.498] $GPGGA,073954.10,3713.9757215,N,13701.5649636,E,1,09,2.2,81.8661,M,37.55,M,,*59
[2021-02-22 16:39:54.576] $GPGGA,073954.20,3713.9757645,N,13701.5649142,E,1,09,2.2,81.9476,M,37.55,M,,*5A
[2021-02-22 16:39:54.701] $GPGGA,073954.30,3713.9757696,N,13701.5650588,E,1,09,2.2,82.0256,M,37.55,M,,*51
[2021-02-22 16:39:54.779] $GPGGA,073954.40,3713.9757310,N,13701.5652626,E,1,09,2.2,81.9280,M,37.55,M,,*59
[2021-02-22 16:39:54.904] $GPGGA,073954.50,3713.9757533,N,13701.5651887,E,1,09,2.2,81.8457,M,37.55,M,,*54
[2021-02-22 16:39:54.982] $GPGGA,073954.60,3713.9758053,N,13701.5654173,E,1,09,2.2,81.6337,M,37.55,M,,*53
[2021-02-22 16:39:55.092] $GPGGA,073954.70,3713.9757827,N,13701.5653822,E,1,09,2.2,81.7700,M,37.55,M,,*5D
[2021-02-22 16:39:55.170] $GPGGA,073954.80,3713.9757727,N,13701.5653634,E,1,09,2.2,81.9793,M,37.55,M,,*50
[2021-02-22 16:39:55.295] $GPGGA,073954.90,3713.9757736,N,13701.5653204,E,1,09,2.2,81.6850,M,37.55,M,,*59
[2021-02-22 16:39:55.373] $GPGGA,073955.00,3713.9758001,N,13701.5652843,E,1,09,2.2,81.8734,M,37.55,M,,*56
[2021-02-22 16:39:55.498] $GPGGA,073955.10,3713.9758807,N,13701.5653335,E,1,09,2.2,81.6594,M,37.55,M,,*54
[2021-02-22 16:39:55.576] $GPGGA,073955.20,3713.9758666,N,13701.5653203,E,1,09,2.2,81.4685,M,37.55,M,,*5B
[2021-02-22 16:39:55.701] $GPGGA,073955.30,3713.9759007,N,13701.5655982,E,1,09,2.2,81.3356,M,37.55,M,,*52
[2021-02-22 16:39:55.795] $GPGGA,073955.40,3713.9758238,N,13701.5657977,E,1,09,2.2,81.2259,M,37.55,M,,*5D
[2021-02-22 16:39:55.873] $GPGGA,073955.50,3713.9757539,N,13701.5656771,E,1,09,2.2,81.8571,M,37.55,M,,*5B
[2021-02-22 16:39:55.998] $GPGGA,073955.60,3713.9757012,N,13701.5655332,E,1,09,2.2,81.9783,M,37.55,M,,*5A
[2021-02-22 16:39:56.076] $GPGGA,073955.70,3713.9757929,N,13701.5656086,E,1,09,2.2,81.8148,M,37.55,M,,*55
[2021-02-22 16:39:56.201] $GPGGA,073955.80,3713.9758594,N,13701.5656260,E,1,09,2.2,81.8388,M,37.55,M,,*5B
[2021-02-22 16:39:56.279] $GPGGA,073955.90,3713.9758657,N,13701.5656822,E,1,09,2.2,81.5992,M,37.55,M,,*56
[2021-02-22 16:39:56.404] $GPGGA,073956.00,3713.9757886,N,13701.5656435,E,1,09,2.2,81.8002,M,37.55,M,,*56
[2021-02-22 16:39:56.482] $GPGGA,073956.10,3713.9758181,N,13701.5656943,E,1,09,2.2,81.6041,M,37.55,M,,*53
[2021-02-22 16:39:56.592] $GPGGA,073956.20,3713.9757511,N,13701.5658125,E,1,09,2.2,81.8322,M,37.55,M,,*5C
[2021-02-22 16:39:56.670] $GPGGA,073956.30,3713.9756950,N,13701.5656707,E,1,09,2.2,81.5949,M,37.55,M,,*57
[2021-02-22 16:39:56.795] $GPGGA,073956.40,3713.9757330,N,13701.5657214,E,1,09,2.2,81.5259,M,37.55,M,,*51
[2021-02-22 16:39:56.873] $GPGGA,073956.50,3713.9757042,N,13701.5656145,E,1,09,2.2,81.5634,M,37.55,M,,*5F
[2021-02-22 16:39:56.998] $GPGGA,073956.60,3713.9756899,N,13701.5656056,E,1,09,2.2,81.2751,M,37.55,M,,*55
[2021-02-22 16:39:57.076] $GPGGA,073956.70,3713.9756468,N,13701.5654291,E,1,09,2.2,81.2460,M,37.55,M,,*5C
[2021-02-22 16:39:57.201] $GPGGA,073956.80,3713.9757170,N,13701.5656003,E,1,09,2.2,81.1011,M,37.55,M,,*54
[2021-02-22 16:39:57.279] $GPGGA,073956.90,3713.9757349,N,13701.5658067,E,1,09,2.2,81.1320,M,37.55,M,,*50
[2021-02-22 16:39:57.388] $GPGGA,073957.00,3713.9757171,N,13701.5659099,E,1,09,2.2,81.4083,M,37.55,M,,*5E
[2021-02-22 16:39:57.482] $GPGGA,073957.10,3713.9756613,N,13701.5658084,E,1,09,2.2,81.5912,M,37.55,M,,*50
[2021-02-22 16:39:57.591] $GPGGA,073957.20,3713.9755998,N,13701.5656665,E,1,09,2.2,82.1035,M,37.55,M,,*50
[2021-02-22 16:39:57.701] $GPGGA,073957.30,3713.9756332,N,13701.5657011,E,1,09,2.2,81.6661,M,37.55,M,,*5F
[2021-02-22 16:39:57.779] $GPGGA,073957.40,3713.9756114,N,13701.5654916,E,1,09,2.2,81.8071,M,37.55,M,,*5A
[2021-02-22 16:39:57.904] $GPGGA,073957.50,3713.9756011,N,13701.5653957,E,1,09,2.2,81.9890,M,37.55,M,,*5B
[2021-02-22 16:39:57.982] $GPGGA,073957.60,3713.9756244,N,13701.5651894,E,1,09,2.2,82.6825,M,37.55,M,,*54
[2021-02-22 16:39:58.091] $GPGGA,073957.70,3713.9756034,N,13701.5651684,E,1,09,2.2,83.0931,M,37.55,M,,*5C
[2021-02-22 16:39:58.170] $GPGGA,073957.80,3713.9755750,N,13701.5648498,E,1,09,2.2,83.3879,M,37.55,M,,*5C
[2021-02-22 16:39:58.295] $GPGGA,073957.90,3713.9756127,N,13701.5646428,E,1,09,2.2,82.8718,M,37.55,M,,*5F
[2021-02-22 16:39:58.373] $GPGGA,073958.00,3713.9755491,N,13701.5643240,E,1,09,2.2,83.1030,M,37.55,M,,*5A
[2021-02-22 16:39:58.498] $GPGGA,073958.10,3713.9754710,N,13701.5640889,E,1,09,2.2,83.5584,M,37.55,M,,*52
[2021-02-22 16:39:58.576] $GPGGA,073958.20,3713.9754839,N,13701.5639551,E,1,09,2.2,83.7577,M,37.55,M,,*5D
[2021-02-22 16:39:58.701] $GPGGA,073958.30,3713.9755749,N,13701.5640321,E,1,09,2.2,83.2938,M,37.55,M,,*58
[2021-02-22 16:39:58.779] $GPGGA,073958.40,3713.9756202,N,13701.5639158,E,1,09,2.2,83.4375,M,37.55,M,,*51
[2021-02-22 16:39:58.888] $GPGGA,073958.50,3713.9756189,N,13701.5637713,E,1,09,2.2,83.7816,M,37.55,M,,*5A
[2021-02-22 16:39:58.982] $GPGGA,073958.60,3713.9756106,N,13701.5637345,E,1,09,2.2,83.5037,M,37.55,M,,*50
[2021-02-22 16:39:59.091] $GPGGA,073958.70,3713.9755991,N,13701.5638719,E,1,09,2.2,83.5802,M,37.55,M,,*58
[2021-02-22 16:39:59.169] $GPGGA,073958.80,3713.9755465,N,13701.5638355,E,1,09,2.2,83.8674,M,37.55,M,,*5F
[2021-02-22 16:39:59.294] $GPGGA,073958.90,3713.9755605,N,13701.5638183,E,1,09,2.2,83.8300,M,37.55,M,,*55
[2021-02-22 16:39:59.404] $GPGGA,073959.00,3713.9755551,N,13701.5637201,E,1,09,2.2,84.0115,M,37.55,M,,*50
[2021-02-22 16:39:59.482] $GPGGA,073959.10,3713.9754785,N,13701.5635521,E,1,09,2.2,84.0404,M,37.55,M,,*59
[2021-02-22 16:39:59.591] $GPGGA,073959.20,3713.9754938,N,13701.5634669,E,1,09,2.2,84.1514,M,37.55,M,,*5D
[2021-02-22 16:39:59.685] $GPGGA,073959.30,3713.9755400,N,13701.5633973,E,1,09,2.2,83.3708,M,37.55,M,,*52
[2021-02-22 16:39:59.794] $GPGGA,073959.40,3713.9755405,N,13701.5632052,E,1,09,2.2,83.9174,M,37.55,M,,*5C
[2021-02-22 16:39:59.873] $GPGGA,073959.50,3713.9755863,N,13701.5633036,E,1,09,2.2,83.6343,M,37.55,M,,*5B
[2021-02-22 16:39:59.998] $GPGGA,073959.60,3713.9756769,N,13701.5633698,E,1,09,2.2,83.2385,M,37.55,M,,*52
[2021-02-22 16:40:00.076] $GPGGA,073959.70,3713.9756901,N,13701.5634660,E,1,09,2.2,82.6520,M,37.55,M,,*5F
[2021-02-22 16:40:00.201] $GPGGA,073959.80,3713.9757182,N,13701.5633758,E,1,09,2.2,82.6624,M,37.55,M,,*58
[2021-02-22 16:40:00.279] $GPGGA,073959.90,3713.9757261,N,13701.5633448,E,1,09,2.2,82.2473,M,37.55,M,,*51
[2021-02-22 16:40:00.404] $GPGGA,074000.00,3713.9757619,N,13701.5633907,E,1,09,2.2,81.5330,M,37.55,M,,*53
[2021-02-22 16:40:00.482] $GPGGA,074000.10,3713.9757040,N,13701.5633354,E,1,09,2.2,81.3602,M,37.55,M,,*56
[2021-02-22 16:40:00.591] $GPGGA,074000.20,3713.9756404,N,13701.5633672,E,1,09,2.2,81.5936,M,37.55,M,,*5F
[2021-02-22 16:40:00.669] $GPGGA,074000.30,3713.9755722,N,13701.5634865,E,1,09,2.2,81.8165,M,37.55,M,,*56
[2021-02-22 16:40:00.794] $GPGGA,074000.40,3713.9755113,N,13701.5636450,E,1,09,2.2,82.2884,M,37.55,M,,*52
[2021-02-22 16:40:00.872] $GPGGA,074000.50,3713.9754516,N,13701.5636521,E,1,09,2.2,82.4353,M,37.55,M,,*53
[2021-02-22 16:40:00.997] $GPGGA,074000.60,3713.9754399,N,13701.5637649,E,1,09,2.2,82.2164,M,37.55,M,,*5D
[2021-02-22 16:40:01.076] $GPGGA,074000.70,3713.9753862,N,13701.5637278,E,1,09,2.2,81.6487,M,37.55,M,,*5D
[2021-02-22 16:40:01.201] $GPGGA,074000.80,3713.9753609,N,13701.5638402,E,1,09,2.2,81.3526,M,37.55,M,,*5A
[2021-02-22 16:40:01.294] $GPGGA,074000.90,3713.9753612,N,13701.5640130,E,1,09,2.2,81.0418,M,37.55,M,,*55
[2021-02-22 16:40:01.372] $GPGGA,074001.00,3713.9753880,N,13701.5639921,E,1,09,2.2,80.8654,M,37.55,M,,*5D
[2021-02-22 16:40:01.497] $GPGGA,074001.10,3713.9753348,N,13701.5639978,E,1,09,2.2,80.8564,M,37.55,M,,*5F
[2021-02-22 16:40:01.576] $GPGGA,074001.20,3713.9752994,N,13701.5640272,E,1,09,2.2,81.2013,M,37.55,M,,*57
[2021-02-22 16:40:01.701] $GPGGA,074001.30,3713.9751902,N,13701.5640209,E,1,09,2.2,81.6886,M,37.55,M,,*56
[2021-02-22 16:40:01.779] $GPGGA,074001.40,3713.9752839,N,13701.5641413,E,1,09,2.2,81.5928,M,37.55,M,,*51
[2021-02-22 16:40:01.904] $GPGGA,074001.50,3713.9752724,N,13701.5641524,E,1,09,2.2,81.8229,M,37.55,M,,*51
[2021-02-22 16:40:01.982] $GPGGA,074001.60,3713.9752271,N,13701.5641854,E,1,09,2.2,82.0137,M,37.55,M,,*5A
[2021-02-22 16:40:02.091] $GPGGA,074001.70,3713.9752079,N,13701.5642962,E,1,09,2.2,82.0926,M,37.55,M,,*5E
[2021-02-22 16:40:02.169] $GPGGA,074001.80,3713.9752128,N,13701.5642927,E,1,09,2.2,82.3317,M,37.55,M,,*5E
[2021-02-22 16:40:02.294] $GPGGA,074001.90,3713.9752563,N,13701.5643792,E,1,09,2.2,82.3556,M,37.55,M,,*56
[2021-02-22 16:40:02.372] $GPGGA,074002.00,3713.9753429,N,13701.5643655,E,1,09,2.2,82.0223,M,37.55,M,,*5E
[2021-02-22 16:40:02.497] $GPGGA,074002.10,3713.9754144,N,13701.5643623,E,1,09,2.2,81.6973,M,37.55,M,,*5C
[2021-02-22 16:40:02.575] $GPGGA,074002.20,3713.9754816,N,13701.5644487,E,1,09,2.2,81.4650,M,37.55,M,,*56
[2021-02-22 16:40:02.700] $GPGGA,074002.30,3713.9755482,N,13701.5645016,E,1,09,2.2,81.2109,M,37.55,M,,*57
[2021-02-22 16:40:02.779] $GPGGA,074002.40,3713.9755687,N,13701.5643822,E,1,09,2.2,81.3098,M,37.55,M,,*56
[2021-02-22 16:40:02.904] $GPGGA,074002.50,3713.9756207,N,13701.5644075,E,1,09,2.2,80.9886,M,37.55,M,,*59
[2021-02-22 16:40:02.997] $GPGGA,074002.60,3713.9756438,N,13701.5645366,E,1,09,2.2,80.9863,M,37.55,M,,*5B
[2021-02-22 16:40:03.075] $GPGGA,074002.70,3713.9757052,N,13701.5646754,E,1,09,2.2,80.7113,M,37.55,M,,*55
[2021-02-22 16:40:03.200] $GPGGA,074002.80,3713.9757142,N,13701.5647267,E,1,09,2.2,80.7174,M,37.55,M,,*5F
[2021-02-22 16:40:03.279] $GPGGA,074002.90,3713.9757251,N,13701.5648520,E,1,09,2.2,80.9416,M,37.55,M,,*5B
[2021-02-22 16:40:03.404] $GPGGA,074003.00,3713.9757253,N,13701.5647502,E,1,09,2.2,80.9479,M,37.55,M,,*57
[2021-02-22 16:40:03.482] $GPGGA,074003.10,3713.9757404,N,13701.5646588,E,1,09,2.2,81.0189,M,37.55,M,,*53
[2021-02-22 16:40:03.591] $GPGGA,074003.20,3713.9757498,N,13701.5644324,E,1,09,2.2,81.3375,M,37.55,M,,*55
[2021-02-22 16:40:03.669] $GPGGA,074003.30,3713.9757970,N,13701.5644731,E,1,09,2.2,81.3156,M,37.55,M,,*5C
[2021-02-22 16:40:03.794] $GPGGA,074003.40,3713.9758337,N,13701.5644402,E,1,09,2.2,81.0752,M,37.55,M,,*5F
[2021-02-22 16:40:03.872] $GPGGA,074003.50,3713.9758707,N,13701.5643745,E,1,09,2.2,81.1532,M,37.55,M,,*5B
[2021-02-22 16:40:03.997] $GPGGA,074003.60,3713.9758390,N,13701.5644167,E,1,09,2.2,81.0841,M,37.55,M,,*5B
[2021-02-22 16:40:04.075] $GPGGA,074003.70,3713.9757521,N,13701.5643053,E,1,09,2.2,81.3203,M,37.55,M,,*57
[2021-02-22 16:40:04.200] $GPGGA,074003.80,3713.9757465,N,13701.5642510,E,1,09,2.2,81.0014,M,37.55,M,,*5D
[2021-02-22 16:40:04.278] $GPGGA,074003.90,3713.9757865,N,13701.5644767,E,1,09,2.2,80.7617,M,37.55,M,,*57
[2021-02-22 16:40:04.403] $GPGGA,074004.00,3713.9758328,N,13701.5644281,E,1,09,2.2,81.0004,M,37.55,M,,*5B
[2021-02-22 16:40:04.482] $GPGGA,074004.10,3713.9757974,N,13701.5642876,E,1,09,2.2,80.4586,M,37.55,M,,*58
[2021-02-22 16:40:04.591] $GPGGA,074004.20,3713.9757646,N,13701.5643152,E,1,09,2.2,80.2740,M,37.55,M,,*55
[2021-02-22 16:40:04.700] $GPGGA,074004.30,3713.9757112,N,13701.5642486,E,1,09,2.2,80.4904,M,37.55,M,,*57
[2021-02-22 16:40:04.778] $GPGGA,074004.40,3713.9756978,N,13701.5642001,E,1,09,2.2,80.1662,M,37.55,M,,*54
[2021-02-22 16:40:04.903] $GPGGA,074004.50,3713.9756818,N,13701.5641878,E,1,09,2.2,80.3157,M,37.55,M,,*54
[2021-02-22 16:40:04.982] $GPGGA,074004.60,3713.9756960,N,13701.5642251,E,1,09,2.2,80.0806,M,37.55,M,,*55
[2021-02-22 16:40:05.091] $GPGGA,074004.70,3713.9756349,N,13701.5641915,E,1,09,2.2,80.2210,M,37.55,M,,*52
[2021-02-22 16:40:05.185] $GPGGA,074004.80,3713.9757143,N,13701.5643998,E,1,09,2.2,79.7913,M,37.55,M,,*58
[2021-02-22 16:40:05.294] $GPGGA,074004.90,3713.9756547,N,13701.5641778,E,1,09,2.2,79.8058,M,37.55,M,,*53
[2021-02-22 16:40:05.372] $GPGGA,074005.00,3713.9757021,N,13701.5641898,E,1,09,2.2,79.6598,M,37.55,M,,*59
[2021-02-22 16:40:05.497] $GPGGA,074005.10,3713.9756162,N,13701.5639656,E,1,09,2.2,79.9260,M,37.55,M,,*53
[2021-02-22 16:40:05.575] $GPGGA,074005.20,3713.9755955,N,13701.5640860,E,1,09,2.2,79.6030,M,37.55,M,,*52
[2021-02-22 16:40:05.700] $GPGGA,074005.30,3713.9755350,N,13701.5641813,E,1,09,2.2,79.9707,M,37.55,M,,*55
[2021-02-22 16:40:05.778] $GPGGA,074005.40,3713.9754666,N,13701.5640188,E,1,09,2.2,80.2132,M,37.55,M,,*54
[2021-02-22 16:40:05.903] $GPGGA,074005.50,3713.9754586,N,13701.5641964,E,1,09,2.2,80.0250,M,37.55,M,,*56
[2021-02-22 16:40:05.981] $GPGGA,074005.60,3713.9754309,N,13701.5642306,E,1,09,2.2,80.0346,M,37.55,M,,*5F
[2021-02-22 16:40:06.091] $GPGGA,074005.70,3713.9755418,N,13701.5644038,E,1,09,2.2,80.0350,M,37.55,M,,*57
[2021-02-22 16:40:06.169] $GPGGA,074005.80,3713.9754871,N,13701.5644838,E,1,09,2.2,80.5284,M,37.55,M,,*5F
[2021-02-22 16:40:06.294] $GPGGA,074005.90,3713.9755436,N,13701.5645463,E,1,09,2.2,80.2083,M,37.55,M,,*51
[2021-02-22 16:40:06.372] $GPGGA,074006.00,3713.9756165,N,13701.5647086,E,1,09,2.2,79.7395,M,37.55,M,,*51
[2021-02-22 16:40:06.497] $GPGGA,074006.10,3713.9755222,N,13701.5646284,E,1,09,2.2,80.0582,M,37.55,M,,*53
[2021-02-22 16:40:06.591] $GPGGA,074006.20,3713.9754942,N,13701.5645450,E,1,09,2.2,80.2822,M,37.55,M,,*55
[2021-02-22 16:40:06.685] $GPGGA,074006.30,3713.9754893,N,13701.5646129,E,1,09,2.2,80.2778,M,37.55,M,,*51
[2021-02-22 16:40:06.794] $GPGGA,074006.40,3713.9754879,N,13701.5645934,E,1,09,2.2,80.3571,M,37.55,M,,*5F
[2021-02-22 16:40:06.872] $GPGGA,074006.50,3713.9754648,N,13701.5645791,E,1,09,2.2,80.5488,M,37.55,M,,*52
[2021-02-22 16:40:06.997] $GPGGA,074006.60,3713.9754972,N,13701.5646898,E,1,09,2.2,80.6161,M,37.55,M,,*53
[2021-02-22 16:40:07.075] $GPGGA,074006.70,3713.9754668,N,13701.5646815,E,1,09,2.2,80.5653,M,37.55,M,,*56
[2021-02-22 16:40:07.200] $GPGGA,074006.80,3713.9754049,N,13701.5646346,E,1,09,2.2,80.5692,M,37.55,M,,*5C
[2021-02-22 16:40:07.278] $GPGGA,074006.90,3713.9753875,N,13701.5645223,E,1,09,2.2,80.7062,M,37.55,M,,*57
[2021-02-22 16:40:07.403] $GPGGA,074007.00,3713.9753738,N,13701.5644337,E,1,09,2.2,80.9220,M,37.55,M,,*56
[2021-02-22 16:40:07.481] $GPGGA,074007.10,3713.9753582,N,13701.5643419,E,1,09,2.2,80.7525,M,37.55,M,,*54
[2021-02-22 16:40:07.591] $GPGGA,074007.20,3713.9753045,N,13701.5642049,E,1,09,2.2,80.6876,M,37.55,M,,*53
[2021-02-22 16:40:07.684] $GPGGA,074007.30,3713.9752416,N,13701.5641439,E,1,09,2.2,80.9216,M,37.55,M,,*52
[2021-02-22 16:40:07.794] $GPGGA,074007.40,3713.9751280,N,13701.5642996,E,1,10,2.2,80.0159,M,37.55,M,,*5D
[2021-02-22 16:40:07.872] $GPGGA,074007.50,3713.9750783,N,13701.5638682,E,1,10,2.2,81.8372,M,37.55,M,,*5E
[2021-02-22 16:40:07.997] $GPGGA,074007.60,3713.9751114,N,13701.5638447,E,1,10,2.2,82.2159,M,37.55,M,,*5D
[2021-02-22 16:40:08.075] $GPGGA,074007.70,3713.9752141,N,13701.5638050,E,1,10,2.2,83.1759,M,37.55,M,,*59
[2021-02-22 16:40:08.200] $GPGGA,074007.80,3713.9752383,N,13701.5637328,E,1,10,2.2,83.5360,M,37.55,M,,*53
[2021-02-22 16:40:08.294] $GPGGA,074007.90,3713.9752694,N,13701.5639459,E,1,10,2.2,83.3820,M,37.55,M,,*57
[2021-02-22 16:40:08.372] $GPGGA,074008.00,3713.9753025,N,13701.5639628,E,1,10,2.2,82.7474,M,37.55,M,,*50
[2021-02-22 16:40:08.497] $GPGGA,074008.10,3713.9754091,N,13701.5639662,E,1,10,2.2,83.4270,M,37.55,M,,*57
[2021-02-22 16:40:08.575] $GPGGA,074008.20,3713.9754053,N,13701.5639675,E,1,10,2.2,83.1292,M,37.55,M,,*55
[2021-02-22 16:40:08.700] $GPGGA,074008.30,3713.9753927,N,13701.5638529,E,1,10,2.2,83.3198,M,37.55,M,,*59
[2021-02-22 16:40:08.778] $GPGGA,074008.40,3713.9754318,N,13701.5640379,E,1,10,2.2,82.8539,M,37.55,M,,*56
[2021-02-22 16:40:08.903] $GPGGA,074008.50,3713.9754138,N,13701.5639419,E,1,10,2.2,83.2033,M,37.55,M,,*5C
[2021-02-22 16:40:08.981] $GPGGA,074008.60,3713.9754132,N,13701.5639668,E,1,10,2.2,82.8287,M,37.55,M,,*57
[2021-02-22 16:40:09.091] $GPGGA,074008.70,3713.9755054,N,13701.5640929,E,1,10,2.2,82.3089,M,37.55,M,,*55
[2021-02-22 16:40:09.184] $GPGGA,074008.80,3713.9754847,N,13701.5641185,E,1,10,2.2,82.5730,M,37.55,M,,*5D
[2021-02-22 16:40:09.294] $GPGGA,074008.90,3713.9755111,N,13701.5640534,E,1,10,2.2,82.3875,M,37.55,M,,*50
[2021-02-22 16:40:09.372] $GPGGA,074009.00,3713.9754535,N,13701.5637747,E,1,10,2.2,82.8811,M,37.55,M,,*54
[2021-02-22 16:40:09.497] $GPGGA,074009.10,3713.9753690,N,13701.5635229,E,1,10,2.2,83.4463,M,37.55,M,,*55
[2021-02-22 16:40:09.575] $GPGGA,074009.20,3713.9754352,N,13701.5637018,E,1,10,2.2,83.0978,M,37.55,M,,*5B
[2021-02-22 16:40:09.700] $GPGGA,074009.30,3713.9753361,N,13701.5635633,E,1,10,2.2,83.3916,M,37.55,M,,*5B
[2021-02-22 16:40:09.778] $GPGGA,074009.40,3713.9753746,N,13701.5639179,E,1,10,2.2,83.0910,M,37.55,M,,*5D
[2021-02-22 16:40:09.903] $GPGGA,074009.50,3713.9753877,N,13701.5639577,E,1,10,2.2,83.0910,M,37.55,M,,*5B
[2021-02-22 16:40:09.981] $GPGGA,074009.60,3713.9754430,N,13701.5640327,E,1,10,2.2,83.0172,M,37.55,M,,*51
[2021-02-22 16:40:10.091] $GPGGA,074009.70,3713.9754529,N,13701.5640672,E,1,10,2.2,83.3365,M,37.55,M,,*5B
[2021-02-22 16:40:10.200] $GPGGA,074009.80,3713.9754405,N,13701.5640886,E,1,10,2.2,83.3152,M,37.55,M,,*58
[2021-02-22 16:40:10.278] $GPGGA,074009.90,3713.9754507,N,13701.5641487,E,1,10,2.2,83.5701,M,37.55,M,,*50
[2021-02-22 16:40:10.403] $GPGGA,074010.00,3713.9754685,N,13701.5642605,E,1,10,2.2,83.8306,M,37.55,M,,*5D
[2021-02-22 16:40:10.481] $GPGGA,074010.10,3713.9753945,N,13701.5642810,E,1,10,2.2,83.5786,M,37.55,M,,*53
[2021-02-22 16:40:10.591] $GPGGA,074010.20,3713.9753432,N,13701.5641533,E,1,10,2.2,83.8342,M,37.55,M,,*53
[2021-02-22 16:40:10.684] $GPGGA,074010.30,3713.9752645,N,13701.5640223,E,1,10,2.2,84.0912,M,37.55,M,,*56
[2021-02-22 16:40:10.794] $GPGGA,074010.40,3713.9752628,N,13701.5639827,E,1,10,2.2,83.9984,M,37.55,M,,*5B
[2021-02-22 16:40:10.872] $GPGGA,074010.50,3713.9752268,N,13701.5639719,E,1,10,2.2,84.0142,M,37.55,M,,*54
[2021-02-22 16:40:10.997] $GPGGA,074010.60,3713.9751751,N,13701.5638435,E,1,10,2.2,84.5883,M,37.55,M,,*56
[2021-02-22 16:40:11.075] $GPGGA,074010.70,3713.9751618,N,13701.5636571,E,1,10,2.2,84.6894,M,37.55,M,,*51
[2021-02-22 16:40:11.200] $GPGGA,074010.80,3713.9751709,N,13701.5637836,E,1,10,2.2,84.5795,M,37.55,M,,*5D
[2021-02-22 16:40:11.278] $GPGGA,074010.90,3713.9751551,N,13701.5637173,E,1,10,2.2,84.1693,M,37.55,M,,*58
[2021-02-22 16:40:11.403] $GPGGA,074011.00,3713.9751561,N,13701.5635494,E,1,10,2.2,84.5071,M,37.55,M,,*53
[2021-02-22 16:40:11.481] $GPGGA,074011.10,3713.9751527,N,13701.5635341,E,1,10,2.2,84.4442,M,37.55,M,,*5A
[2021-02-22 16:40:11.590] $GPGGA,074011.20,3713.9750971,N,13701.5636129,E,1,10,2.2,84.2735,M,37.55,M,,*5D
[2021-02-22 16:40:11.669] $GPGGA,074011.30,3713.9750672,N,13701.5638473,E,1,10,2.2,84.4069,M,37.55,M,,*5C
[2021-02-22 16:40:11.794] $GPGGA,074011.40,3713.9751191,N,13701.5638203,E,1,10,2.2,84.4281,M,37.55,M,,*55
[2021-02-22 16:40:11.903] $GPGGA,074011.50,3713.9751615,N,13701.5638759,E,1,10,2.2,84.3662,M,37.55,M,,*5B
[2021-02-22 16:40:11.981] $GPGGA,074011.60,3713.9751336,N,13701.5639832,E,1,10,2.2,84.3780,M,37.55,M,,*52
[2021-02-22 16:40:12.090] $GPGGA,074011.70,3713.9750426,N,13701.5639256,E,1,10,2.2,84.5856,M,37.55,M,,*5E
[2021-02-22 16:40:12.184] $GPGGA,074011.80,3713.9749858,N,13701.5639874,E,1,10,2.2,84.3917,M,37.55,M,,*54
[2021-02-22 16:40:12.294] $GPGGA,074011.90,3713.9749670,N,13701.5638840,E,1,10,2.2,84.4138,M,37.55,M,,*55
[2021-02-22 16:40:12.372] $GPGGA,074012.00,3713.9749653,N,13701.5639620,E,1,10,2.2,84.1913,M,37.55,M,,*53
[2021-02-22 16:40:12.497] $GPGGA,074012.10,3713.9749689,N,13701.5639815,E,1,10,2.2,84.0662,M,37.55,M,,*55
[2021-02-22 16:40:12.575] $GPGGA,074012.20,3713.9749157,N,13701.5639422,E,1,10,2.2,83.7343,M,37.55,M,,*5C
[2021-02-22 16:40:12.700] $GPGGA,074012.30,3713.9749992,N,13701.5639631,E,1,10,2.2,83.9537,M,37.55,M,,*57
[2021-02-22 16:40:12.778] $GPGGA,074012.40,3713.9749489,N,13701.5638276,E,1,10,2.2,83.9971,M,37.55,M,,*5F
[2021-02-22 16:40:12.903] $GPGGA,074012.50,3713.9749341,N,13701.5636498,E,1,10,2.2,84.2084,M,37.55,M,,*5A
[2021-02-22 16:40:12.981] $GPGGA,074012.60,3713.9749111,N,13701.5634739,E,1,10,2.2,84.5150,M,37.55,M,,*5B
[2021-02-22 16:40:13.090] $GPGGA,074012.70,3713.9748888,N,13701.5633297,E,1,10,2.2,84.9261,M,37.55,M,,*59
[2021-02-22 16:40:13.184] $GPGGA,074012.80,3713.9749349,N,13701.5633807,E,1,10,2.2,85.0172,M,37.55,M,,*5B
[2021-02-22 16:40:13.293] $GPGGA,074012.90,3713.9749401,N,13701.5634222,E,1,10,2.2,84.9974,M,37.55,M,,*5D
[2021-02-22 16:40:13.372] $GPGGA,074013.00,3713.9749503,N,13701.5632845,E,1,10,2.2,85.4854,M,37.55,M,,*54
[2021-02-22 16:40:13.497] $GPGGA,074013.10,3713.9749342,N,13701.5633528,E,1,10,2.2,85.0743,M,37.55,M,,*5C
[2021-02-22 16:40:13.575] $GPGGA,074013.20,3713.9749644,N,13701.5635051,E,1,10,2.2,84.9583,M,37.55,M,,*57
[2021-02-22 16:40:13.700] $GPGGA,074013.30,3713.9749577,N,13701.5634448,E,1,10,2.2,85.2411,M,37.55,M,,*58
[2021-02-22 16:40:13.793] $GPGGA,074013.40,3713.9749519,N,13701.5636146,E,1,10,2.2,85.0757,M,37.55,M,,*5D
[2021-02-22 16:40:13.872] $GPGGA,074013.50,3713.9749162,N,13701.5636588,E,1,10,2.2,85.0135,M,37.55,M,,*50
[2021-02-22 16:40:13.997] $GPGGA,074013.60,3713.9749559,N,13701.5636750,E,1,10,2.2,84.8464,M,37.55,M,,*50
[2021-02-22 16:40:14.075] $GPGGA,074013.70,3713.9749396,N,13701.5637925,E,1,10,2.2,84.6111,M,37.55,M,,*50
[2021-02-22 16:40:14.200] $GPGGA,074013.80,3713.9748560,N,13701.5638718,E,1,10,2.2,84.7384,M,37.55,M,,*51
[2021-02-22 16:40:14.278] $GPGGA,074013.90,3713.9748485,N,13701.5640198,E,1,10,2.2,84.4510,M,37.55,M,,*53
[2021-02-22 16:40:14.403] $GPGGA,074014.00,3713.9747751,N,13701.5634426,E,1,11,2.0,85.9832,M,37.55,M,,*59
[2021-02-22 16:40:14.481] $GPGGA,074014.10,3713.9747932,N,13701.5634095,E,1,11,2.0,85.9896,M,37.55,M,,*51
[2021-02-22 16:40:14.590] $GPGGA,074014.20,3713.9748881,N,13701.5632735,E,1,11,2.0,86.1700,M,37.55,M,,*54
[2021-02-22 16:40:14.684] $GPGGA,074014.30,3713.9749854,N,13701.5632359,E,1,11,2.0,86.0620,M,37.55,M,,*50
[2021-02-22 16:40:14.793] $GPGGA,074014.40,3713.9750466,N,13701.5632859,E,1,11,2.0,85.8190,M,37.55,M,,*5E
[2021-02-22 16:40:14.872] $GPGGA,074014.50,3713.9750608,N,13701.5632175,E,1,11,2.0,85.9950,M,37.55,M,,*57
[2021-02-22 16:40:14.996] $GPGGA,074014.60,3713.9750906,N,13701.5633649,E,1,11,2.0,85.4859,M,37.55,M,,*59
[2021-02-22 16:40:15.075] $GPGGA,074014.70,3713.9751186,N,13701.5632685,E,1,11,2.0,85.8059,M,37.55,M,,*5C
[2021-02-22 16:40:15.200] $GPGGA,074014.80,3713.9750953,N,13701.5632705,E,1,11,2.0,85.9971,M,37.55,M,,*59
[2021-02-22 16:40:15.278] $GPGGA,074014.90,3713.9750495,N,13701.5634023,E,1,11,2.0,85.9952,M,37.55,M,,*5B
[2021-02-22 16:40:15.403] $GPGGA,074015.00,3713.9749982,N,13701.5632704,E,1,11,2.0,86.2468,M,37.55,M,,*58
[2021-02-22 16:40:15.496] $GPGGA,074015.10,3713.9749418,N,13701.5631832,E,1,11,2.0,86.5102,M,37.55,M,,*50
[2021-02-22 16:40:15.575] $GPGGA,074015.20,3713.9748929,N,13701.5631086,E,1,11,2.0,86.4277,M,37.55,M,,*5A
[2021-02-22 16:40:15.700] $GPGGA,074015.30,3713.9748504,N,13701.5631260,E,1,11,2.0,86.4067,M,37.55,M,,*51
[2021-02-22 16:40:15.778] $GPGGA,074015.40,3713.9748225,N,13701.5629151,E,1,11,2.0,86.8254,M,37.55,M,,*54
[2021-02-22 16:40:15.903] $GPGGA,074015.50,3713.9748449,N,13701.5629287,E,1,11,2.0,86.6699,M,37.55,M,,*5A
[2021-02-22 16:40:15.981] $GPGGA,074015.60,3713.9748356,N,13701.5629740,E,1,11,2.0,86.4095,M,37.55,M,,*56
[2021-02-22 16:40:16.106] $GPGGA,074015.70,3713.9748422,N,13701.5631326,E,1,11,2.0,86.1154,M,37.55,M,,*57
[2021-02-22 16:40:16.184] $GPGGA,074015.80,3713.9748661,N,13701.5631242,E,1,11,2.0,86.3707,M,37.55,M,,*5C
[2021-02-22 16:40:16.293] $GPGGA,074015.90,3713.9748731,N,13701.5631220,E,1,11,2.0,86.5287,M,37.55,M,,*56
[2021-02-22 16:40:16.371] $GPGGA,074016.00,3713.9748859,N,13701.5631785,E,1,11,2.0,86.3723,M,37.55,M,,*5A
[2021-02-22 16:40:16.496] $GPGGA,074016.10,3713.9748245,N,13701.5630336,E,1,11,2.0,86.3988,M,37.55,M,,*5E
[2021-02-22 16:40:16.575] $GPGGA,074016.20,3713.9748246,N,13701.5630619,E,1,11,2.0,86.1331,M,37.55,M,,*5C
[2021-02-22 16:40:16.699] $GPGGA,074016.30,3713.9748120,N,13701.5628831,E,1,11,2.0,86.0453,M,37.55,M,,*51
[2021-02-22 16:40:16.778] $GPGGA,074016.40,3713.9748081,N,13701.5628367,E,1,11,2.0,86.2403,M,37.55,M,,*53
[2021-02-22 16:40:16.903] $GPGGA,074016.50,3713.9747552,N,13701.5629079,E,1,11,2.0,86.2567,M,37.55,M,,*58
[2021-02-22 16:40:16.981] $GPGGA,074016.60,3713.9747810,N,13701.5629704,E,1,11,2.0,86.2535,M,37.55,M,,*5A
[2021-02-22 16:40:17.090] $GPGGA,074016.70,3713.9748546,N,13701.5628812,E,1,11,2.0,86.5034,M,37.55,M,,*50
[2021-02-22 16:40:17.168] $GPGGA,074016.80,3713.9747940,N,13701.5629165,E,1,11,2.0,86.7652,M,37.55,M,,*56
[2021-02-22 16:40:17.293] $GPGGA,074016.90,3713.9747222,N,13701.5626644,E,1,11,2.0,87.2383,M,37.55,M,,*5E
[2021-02-22 16:40:17.403] $GPGGA,074017.00,3713.9747627,N,13701.5627497,E,1,11,2.0,86.7594,M,37.55,M,,*5E
[2021-02-22 16:40:17.481] $GPGGA,074017.10,3713.9747258,N,13701.5626474,E,1,11,2.0,86.9530,M,37.55,M,,*5F
[2021-02-22 16:40:17.590] $GPGGA,074017.20,3713.9748249,N,13701.5605460,E,5,08,2.2,90.7210,M,37.55,M,5,0000*60
[2021-02-22 16:40:17.699] $GPGGA,074017.30,3713.9748419,N,13701.5606130,E,5,08,2.2,90.2845,M,37.55,M,5,0000*6E
[2021-02-22 16:40:17.809] $GPGGA,074017.40,3713.9748125,N,13701.5606437,E,5,08,2.2,90.1431,M,37.55,M,5,0000*6D
[2021-02-22 16:40:17.887] $GPGGA,074017.50,3713.9748021,N,13701.5606445,E,5,08,2.2,90.0722,M,37.55,M,5,0000*6C
[2021-02-22 16:40:18.012] $GPGGA,074017.60,3713.9747972,N,13701.5606703,E,5,08,2.2,89.9637,M,37.55,M,5,0000*6A
[2021-02-22 16:40:18.090] $GPGGA,074017.70,3713.9747978,N,13701.5607172,E,5,08,2.2,89.9195,M,37.55,M,5,0000*6F
[2021-02-22 16:40:18.215] $GPGGA,074017.80,3713.9747972,N,13701.5607437,E,5,08,2.2,89.9195,M,37.55,M,5,0000*6E
[2021-02-22 16:40:18.293] $GPGGA,074017.90,3713.9747841,N,13701.5607739,E,5,08,2.2,89.8416,M,37.55,M,5,0000*6C
[2021-02-22 16:40:18.418] $GPGGA,074018.00,3713.9747826,N,13701.5607891,E,5,08,2.2,89.8945,M,37.55,M,6,0000*6E
[2021-02-22 16:40:18.512] $GPGGA,074018.10,3713.9747848,N,13701.5607955,E,5,08,2.2,89.9696,M,37.55,M,6,0000*6E
[2021-02-22 16:40:18.606] $GPGGA,074018.20,3713.9747846,N,13701.5607962,E,5,08,2.2,89.9755,M,37.55,M,1,0000*6E
[2021-02-22 16:40:18.684] $GPGGA,074018.30,3713.9747854,N,13701.5607987,E,5,08,2.2,89.9782,M,37.55,M,1,0000*6D
[2021-02-22 16:40:18.809] $GPGGA,074018.40,3713.9747942,N,13701.5607994,E,5,08,2.2,89.9940,M,37.55,M,1,0000*6E
[2021-02-22 16:40:18.887] $GPGGA,074018.50,3713.9747963,N,13701.5608064,E,5,08,2.2,89.9707,M,37.55,M,1,0000*68
[2021-02-22 16:40:19.012] $GPGGA,074018.60,3713.9747983,N,13701.5608051,E,5,08,2.2,89.9604,M,37.55,M,1,0000*61
[2021-02-22 16:40:19.106] $GPGGA,074018.70,3713.9747960,N,13701.5608084,E,5,08,2.2,89.9284,M,37.55,M,1,0000*69
[2021-02-22 16:40:19.184] $GPGGA,074018.80,3713.9747981,N,13701.5608195,E,5,08,2.2,89.9059,M,37.55,M,1,0000*6A
[2021-02-22 16:40:19.309] $GPGGA,074018.90,3713.9747979,N,13701.5608281,E,5,08,2.2,89.8816,M,37.55,M,1,0000*68
[2021-02-22 16:40:19.387] $GPGGA,074019.00,3713.9748030,N,13701.5608358,E,5,08,2.2,89.8547,M,37.55,M,2,0000*64
[2021-02-22 16:40:19.496] $GPGGA,074019.10,3713.9748048,N,13701.5608511,E,5,08,2.2,89.8159,M,37.55,M,2,0000*6A
[2021-02-22 16:40:19.590] $GPGGA,074019.20,3713.9748044,N,13701.5608583,E,5,08,2.2,89.7950,M,37.55,M,2,0000*60
[2021-02-22 16:40:19.715] $GPGGA,074019.30,3713.9747997,N,13701.5608659,E,5,08,2.2,89.7687,M,37.55,M,2,0000*68
[2021-02-22 16:40:19.793] $GPGGA,074019.40,3713.9747970,N,13701.5608685,E,5,08,2.2,89.7815,M,37.55,M,2,0000*62
[2021-02-22 16:40:19.902] $GPGGA,074019.50,3713.9747958,N,13701.5608698,E,5,08,2.2,89.7973,M,37.55,M,2,0000*64
[2021-02-22 16:40:19.996] $GPGGA,074019.60,3713.9747931,N,13701.5608722,E,5,08,2.2,89.8156,M,37.55,M,2,0000*68
[2021-02-22 16:40:20.106] $GPGGA,074019.70,3713.9747894,N,13701.5608724,E,5,08,2.2,89.8203,M,37.55,M,2,0000*62
[2021-02-22 16:40:20.184] $GPGGA,074019.80,3713.9747874,N,13701.5608706,E,5,08,2.2,89.8275,M,37.55,M,2,0000*62
[2021-02-22 16:40:20.309] $GPGGA,074019.90,3713.9747880,N,13701.5608705,E,5,08,2.2,89.8237,M,37.55,M,2,0000*6D
[2021-02-22 16:40:20.387] $GPGGA,074020.00,3713.9747848,N,13701.5608676,E,5,08,2.2,89.8253,M,37.55,M,3,0000*6C
[2021-02-22 16:40:20.496] $GPGGA,074020.10,3713.9747822,N,13701.5608666,E,5,08,2.2,89.8271,M,37.55,M,3,0000*60
[2021-02-22 16:40:20.605] $GPGGA,074020.20,3713.9747817,N,13701.5608679,E,5,08,2.2,89.8346,M,37.55,M,3,0000*6E
[2021-02-22 16:40:20.715] $GPGGA,074020.30,3713.9747783,N,13701.5608710,E,5,08,2.2,89.8283,M,37.55,M,3,0000*6B
[2021-02-22 16:40:20.809] $GPGGA,074020.40,3713.9747770,N,13701.5608744,E,5,08,2.2,89.8210,M,37.55,M,3,0000*6B
[2021-02-22 16:40:20.887] $GPGGA,074020.50,3713.9747744,N,13701.5608759,E,5,08,2.2,89.8221,M,37.55,M,3,0000*63
[2021-02-22 16:40:21.012] $GPGGA,074020.60,3713.9747746,N,13701.5608787,E,5,08,2.2,89.8280,M,37.55,M,3,0000*6A
[2021-02-22 16:40:21.090] $GPGGA,074020.70,3713.9747755,N,13701.5608830,E,5,08,2.2,89.8384,M,37.55,M,3,0000*6F
[2021-02-22 16:40:21.215] $GPGGA,074020.80,3713.9747768,N,13701.5608863,E,5,08,2.2,89.8357,M,37.55,M,3,0000*66
[2021-02-22 16:40:21.293] $GPGGA,074020.90,3713.9747783,N,13701.5608874,E,5,08,2.2,89.8493,M,37.55,M,3,0000*6B
[2021-02-22 16:40:21.418] $GPGGA,074021.00,3713.9747849,N,13701.5608926,E,5,08,2.2,89.8685,M,37.55,M,4,0000*6E
[2021-02-22 16:40:21.512] $GPGGA,074021.10,3713.9747898,N,13701.5609018,E,5,08,2.2,89.8670,M,37.55,M,4,0000*6C
[2021-02-22 16:40:21.605] $GPGGA,074021.20,3713.9747950,N,13701.5609111,E,5,08,2.2,89.8632,M,37.55,M,4,0000*64
[2021-02-22 16:40:21.684] $GPGGA,074021.30,3713.9747988,N,13701.5609163,E,5,08,2.2,89.8776,M,37.55,M,4,0000*64
[2021-02-22 16:40:21.809] $GPGGA,074021.40,3713.9748003,N,13701.5609247,E,5,08,2.2,89.8802,M,37.55,M,4,0000*6F
[2021-02-22 16:40:21.887] $GPGGA,074021.50,3713.9748013,N,13701.5609397,E,5,08,2.2,89.8737,M,37.55,M,4,0000*6A
[2021-02-22 16:40:22.012] $GPGGA,074021.60,3713.9748038,N,13701.5609515,E,5,08,2.2,89.8629,M,37.55,M,4,0000*62
