
[2021-02-22 16:33:09.434] $GPGGA,073254.70,,,,,0,00,0.0,,M,,M,0,0000*56
[2021-02-22 16:33:09.465] $GPGGA,073254.80,,,,,0,00,0.0,,M,,M,0,0000*59
[2021-02-22 16:33:09.465] $GPGGA,073254.90,,,,,0,00,0.0,,M,,M,0,0000*58
[2021-02-22 16:33:09.465] $GPGGA,073255.00,,,,,0,00,0.0,,M,,M,0,0000*50
[2021-02-22 16:33:09.465] $GPGGA,073255.10,,,,,0,00,0.0,,M,,M,0,0000*51
[2021-02-22 16:33:09.465] $GPGGA,073255.20,,,,,0,00,0.0,,M,,M,0,0000*52
[2021-02-22 16:33:09.465] $GPGGA,073255.30,,,,,0,00,0.0,,M,,M,0,0000*53
[2021-02-22 16:33:09.465] $GPGGA,073255.40,,,,,0,00,0.0,,M,,M,0,0000*54
[2021-02-22 16:33:09.465] $GPGGA,073255.50,,,,,0,00,0.0,,M,,M,0,0000*55
[2021-02-22 16:33:09.465] $GPGGA,073255.60,,,,,0,00,0.0,,M,,M,0,0000*56
[2021-02-22 16:33:09.465] $GPGGA,073255.70,,,,,0,00,0.0,,M,,M,0,0000*57
[2021-02-22 16:33:09.465] $GPGGA,073255.80,,,,,0,00,0.0,,M,,M,0,0000*58
[2021-02-22 16:33:09.465] $GPGGA,073255.90,,,,,0,00,0.0,,M,,M,0,0000*59
[2021-02-22 16:33:09.465] $GPGGA,073256.00,,,,,0,00,0.0,,M,,M,0,0000*53
[2021-02-22 16:33:09.465] $GPGGA,073256.10,,,,,0,00,0.0,,M,,M,0,0000*52
[2021-02-22 16:33:09.465] $GPGGA,073256.20,,,,,0,00,0.0,,M,,M,0,0000*51
[2021-02-22 16:33:09.465] $GPGGA,073256.30,,,,,0,00,0.0,,M,,M,0,0000*50
[2021-02-22 16:33:09.465] $GPGGA,073256.40,,,,,0,00,0.0,,M,,M,0,0000*57
[2021-02-22 16:33:09.465] $GPGGA,073256.50,,,,,0,00,0.0,,M,,M,0,0000*56
[2021-02-22 16:33:09.465] $GPGGA,073256.60,,,,,0,00,0.0,,M,,M,0,0000*55
[2021-02-22 16:33:09.465] $GPGGA,073256.70,,,,,0,00,0.0,,M,,M,0,0000*54
[2021-02-22 16:33:09.465] $GPGGA,073256.80,,,,,0,00,0.0,,M,,M,0,0000*5B
[2021-02-22 16:33:09.481] $GPGGA,073256.90,,,,,0,00,0.0,,M,,M,0,0000*5A
[2021-02-22 16:33:09.481] $GPGGA,073257.00,,,,,0,00,0.0,,M,,M,0,0000*52
[2021-02-22 16:33:09.481] $GPGGA,073257.10,,,,,0,00,0.0,,M,,M,0,0000*53
[2021-02-22 16:33:09.481] $GPGGA,073257.20,,,,,0,00,0.0,,M,,M,0,0000*50
[2021-02-22 16:33:09.481] $GPGGA,073257.30,,,,,0,00,0.0,,M,,M,0,0000*51
[2021-02-22 16:33:09.481] $GPGGA,073257.40,,,,,0,00,0.0,,M,,M,0,0000*56
[2021-02-22 16:33:09.481] $GPGGA,073257.50,,,,,0,00,0.0,,M,,M,0,0000*57
[2021-02-22 16:33:09.481] $GPGGA,073257.60,,,,,0,00,0.0,,M,,M,0,0000*54
[2021-02-22 16:33:09.481] $GPGGA,073257.70,,,,,0,00,0.0,,M,,M,0,0000*55
[2021-02-22 16:33:09.481] $GPGGA,073257.80,,,,,0,00,0.0,,M,,M,0,0000*5A
[2021-02-22 16:33:09.481] $GPGGA,073257.90,,,,,0,00,0.0,,M,,M,0,0000*5B
[2021-02-22 16:33:09.481] $GPGGA,073258.00,,,,,0,00,0.0,,M,,M,0,0000*5D
[2021-02-22 16:33:09.481] $GPGGA,073258.10,,,,,0,00,0.0,,M,,M,0,0000*5C
[2021-02-22 16:33:09.481] $GPGGA,073258.20,,,,,0,00,0.0,,M,,M,0,0000*5F
[2021-02-22 16:33:09.481] $GPGGA,073258.30,,,,,0,00,0.0,,M,,M,0,0000*5E
[2021-02-22 16:33:09.481] $GPGGA,073258.40,,,,,0,00,0.0,,M,,M,0,0000*59
[2021-02-22 16:33:09.481] $GPGGA,073258.50,,,,,0,00,0.0,,M,,M,0,0000*58
[2021-02-22 16:33:09.481] $GPGGA,073258.60,,,,,0,00,0.0,,M,,M,0,0000*5B
[2021-02-22 16:33:09.481] $GPGGA,073258.70,,,,,0,00,0.0,,M,,M,0,0000*5A
[2021-02-22 16:33:09.481] $GPGGA,073258.80,,,,,0,00,0.0,,M,,M,0,0000*55
[2021-02-22 16:33:09.481] $GPGGA,073258.90,,,,,0,00,0.0,,M,,M,0,0000*54
[2021-02-22 16:33:09.481] $GPGGA,073259.00,,,,,0,00,0.0,,M,,M,0,0000*5C
[2021-02-22 16:33:09.496] $GPGGA,073259.10,,,,,0,00,0.0,,M,,M,0,0000*5D
[2021-02-22 16:33:09.496] $GPGGA,073259.20,,,,,0,00,0.0,,M,,M,0,0000*5E
[2021-02-22 16:33:09.496] $GPGGA,073259.30,,,,,0,00,0.0,,M,,M,0,0000*5F
[2021-02-22 16:33:09.496] $GPGGA,073259.40,,,,,0,00,0.0,,M,,M,0,0000*58
[2021-02-22 16:33:09.496] $GPGGA,073259.50,,,,,0,00,0.0,,M,,M,0,0000*59
[2021-02-22 16:33:09.496] $GPGGA,073259.60,,,,,0,00,0.0,,M,,M,0,0000*5A
[2021-02-22 16:33:09.496] $GPGGA,073259.70,,,,,0,00,0.0,,M,,M,0,0000*5B
[2021-02-22 16:33:09.496] $GPGGA,073259.80,,,,,0,00,0.0,,M,,M,0,0000*54
[2021-02-22 16:33:09.496] $GPGGA,073259.90,,,,,0,00,0.0,,M,,M,0,0000*55
[2021-02-22 16:33:09.496] $GPGGA,073300.00,,,,,0,00,0.0,,M,,M,0,0000*51
[2021-02-22 16:33:09.496] $GPGGA,073300.10,,,,,0,00,0.0,,M,,M,0,0000*50
[2021-02-22 16:33:09.496] $GPGGA,073300.20,,,,,0,00,0.0,,M,,M,0,0000*53
[2021-02-22 16:33:09.496] $GPGGA,073300.30,,,,,0,00,0.0,,M,,M,0,0000*52
[2021-02-22 16:33:09.496] $GPGGA,073300.40,,,,,0,00,0.0,,M,,M,0,0000*55
[2021-02-22 16:33:09.496] $GPGGA,073300.50,,,,,0,00,0.0,,M,,M,0,0000*54
[2021-02-22 16:33:09.496] $GPGGA,073300.60,,,,,0,00,0.0,,M,,M,0,0000*57
[2021-02-22 16:33:09.496] $GPGGA,073300.70,,,,,0,00,0.0,,M,,M,0,0000*56
[2021-02-22 16:33:09.496] $GPGGA,073300.80,,,,,0,00,0.0,,M,,M,0,0000*59
[2021-02-22 16:33:09.496] $GPGGA,073300.90,,,,,0,00,0.0,,M,,M,0,0000*58
[2021-02-22 16:33:09.496] $GPGGA,073301.00,,,,,0,00,0.0,,M,,M,0,0000*50
[2021-02-22 16:33:09.496] $GPGGA,073301.10,,,,,0,00,0.0,,M,,M,0,0000*51
[2021-02-22 16:33:09.512] $GPGGA,073301.20,,,,,0,00,0.0,,M,,M,0,0000*52
[2021-02-22 16:33:09.512] $GPGGA,073301.30,,,,,0,00,0.0,,M,,M,0,0000*53
[2021-02-22 16:33:09.512] $GPGGA,073301.40,,,,,0,00,0.0,,M,,M,0,0000*54
[2021-02-22 16:33:09.512] $GPGGA,073301.50,,,,,0,00,0.0,,M,,M,0,0000*55
[2021-02-22 16:33:09.512] $GPGGA,073301.60,,,,,0,00,0.0,,M,,M,0,0000*56
[2021-02-22 16:33:09.512] $GPGGA,073301.70,,,,,0,00,0.0,,M,,M,0,0000*57
[2021-02-22 16:33:09.512] $GPGGA,073301.80,,,,,0,00,0.0,,M,,M,0,0000*58
[2021-02-22 16:33:09.512] $GPGGA,073301.90,,,,,0,00,0.0,,M,,M,0,0000*59
[2021-02-22 16:33:09.512] $GPGGA,073302.00,,,,,0,00,0.0,,M,,M,0,0000*53
[2021-02-22 16:33:09.512] $GPGGA,073302.10,,,,,0,00,0.0,,M,,M,0,0000*52
[2021-02-22 16:33:09.512] $GPGGA,073302.20,,,,,0,00,0.0,,M,,M,0,0000*51
[2021-02-22 16:33:09.512] $GPGGA,073302.30,,,,,0,00,0.0,,M,,M,0,0000*50
[2021-02-22 16:33:09.512] $GPGGA,073302.40,,,,,0,00,0.0,,M,,M,0,0000*57
[2021-02-22 16:33:09.512] $GPGGA,073302.50,,,,,0,00,0.0,,M,,M,0,0000*56
[2021-02-22 16:33:09.512] $GPGGA,073302.60,,,,,0,00,0.0,,M,,M,0,0000*55
[2021-02-22 16:33:09.512] $GPGGA,073302.70,,,,,0,00,0.0,,M,,M,0,0000*54
[2021-02-22 16:33:09.512] $GPGGA,073302.80,,,,,0,00,0.0,,M,,M,0,0000*5B
[2021-02-22 16:33:09.512] $GPGGA,073302.90,,,,,0,00,0.0,,M,,M,0,0000*5A
[2021-02-22 16:33:09.512] $GPGGA,073303.00,,,,,0,00,0.0,,M,,M,0,0000*52
[2021-02-22 16:33:09.512] $GPGGA,073303.10,,,,,0,00,0.0,,M,,M,0,0000*53
[2021-02-22 16:33:09.512] $GPGGA,073303.20,,,,,0,00,0.0,,M,,M,0,0000*50
[2021-02-22 16:33:09.512] $GPGGA,073303.30,,,,,0,00,0.0,,M,,M,0,0000*51
[2021-02-22 16:33:09.527] $GPGGA,073303.40,,,,,0,00,0.0,,M,,M,0,0000*56
[2021-02-22 16:33:09.527] $GPGGA,073303.50,,,,,0,00,0.0,,M,,M,0,0000*57
[2021-02-22 16:33:09.527] $GPGGA,073303.60,,,,,0,00,0.0,,M,,M,0,0000*54
[2021-02-22 16:33:09.527] $GPGGA,073303.70,,,,,0,00,0.0,,M,,M,0,0000*55
[2021-02-22 16:33:09.527] $GPGGA,073303.80,,,,,0,00,0.0,,M,,M,0,0000*5A
[2021-02-22 16:33:09.527] $GPGGA,073303.90,,,,,0,00,0.0,,M,,M,0,0000*5B
[2021-02-22 16:33:09.527] $GPGGA,073304.00,,,,,0,00,0.0,,M,,M,0,0000*55
[2021-02-22 16:33:09.527] $GPGGA,073304.10,,,,,0,00,0.0,,M,,M,0,0000*54
[2021-02-22 16:33:09.527] $GPGGA,073304.20,,,,,0,00,0.0,,M,,M,0,0000*57
[2021-02-22 16:33:09.527] $GPGGA,073304.30,,,,,0,00,0.0,,M,,M,0,0000*56
[2021-02-22 16:33:09.527] $GPGGA,073304.40,,,,,0,00,0.0,,M,,M,0,0000*51
[2021-02-22 16:33:09.527] $GPGGA,073304.50,,,,,0,00,0.0,,M,,M,0,0000*50
[2021-02-22 16:33:09.527] $GPGGA,073304.60,,,,,0,00,0.0,,M,,M,0,0000*53
[2021-02-22 16:33:09.527] $GPGGA,073304.70,,,,,0,00,0.0,,M,,M,0,0000*52
[2021-02-22 16:33:09.527] $GPGGA,073304.80,,,,,0,00,0.0,,M,,M,0,0000*5D
[2021-02-22 16:33:09.527] $GPGGA,073304.90,,,,,0,00,0.0,,M,,M,0,0000*5C
[2021-02-22 16:33:09.527] $GPGGA,073305.00,,,,,0,00,0.0,,M,,M,0,0000*54
[2021-02-22 16:33:09.527] $GPGGA,073305.10,,,,,0,00,0.0,,M,,M,0,0000*55
[2021-02-22 16:33:09.527] $GPGGA,073305.20,,,,,0,00,0.0,,M,,M,0,0000*56
[2021-02-22 16:33:09.527] $GPGGA,073305.30,,,,,0,00,0.0,,M,,M,0,0000*57
[2021-02-22 16:33:09.527] $GPGGA,073305.40,,,,,0,00,0.0,,M,,M,0,0000*50
[2021-02-22 16:33:09.543] $GPGGA,073305.50,,,,,0,00,0.0,,M,,M,0,0000*51
[2021-02-22 16:33:09.543] $GPGGA,073305.60,,,,,0,00,0.0,,M,,M,0,0000*52
[2021-02-22 16:33:09.543] $GPGGA,073305.70,,,,,0,00,0.0,,M,,M,0,0000*53
[2021-02-22 16:33:09.543] $GPGGA,073305.80,,,,,0,00,0.0,,M,,M,0,0000*5C
[2021-02-22 16:33:09.543] $GPGGA,073305.90,,,,,0,00,0.0,,M,,M,0,0000*5D
[2021-02-22 16:33:09.543] $GPGGA,073306.00,,,,,0,00,0.0,,M,,M,0,0000*57
[2021-02-22 16:33:09.543] $GPGGA,073306.10,,,,,0,00,0.0,,M,,M,0,0000*56
[2021-02-22 16:33:09.543] $GPGGA,073306.20,,,,,0,00,0.0,,M,,M,0,0000*55
[2021-02-22 16:33:09.543] $GPGGA,073306.30,,,,,0,00,0.0,,M,,M,0,0000*54
[2021-02-22 16:33:09.543] $GPGGA,073306.40,,,,,0,00,0.0,,M,,M,0,0000*53
[2021-02-22 16:33:09.543] $GPGGA,073306.50,,,,,0,00,0.0,,M,,M,0,0000*52
[2021-02-22 16:33:09.543] $GPGGA,073306.60,,,,,0,00,0.0,,M,,M,0,0000*51
[2021-02-22 16:33:09.543] $GPGGA,073306.70,,,,,0,00,0.0,,M,,M,0,0000*50
[2021-02-22 16:33:09.543] $GPGGA,073306.80,,,,,0,00,0.0,,M,,M,0,0000*5F
[2021-02-22 16:33:09.543] $GPGGA,073306.90,,,,,0,00,0.0,,M,,M,0,0000*5E
[2021-02-22 16:33:09.543] $GPGGA,073307.00,,,,,0,00,0.0,,M,,M,0,0000*56
[2021-02-22 16:33:09.543] $GPGGA,073307.10,,,,,0,00,0.0,,M,,M,0,0000*57
[2021-02-22 16:33:09.543] $GPGGA,073307.20,,,,,0,00,0.0,,M,,M,0,0000*54
[2021-02-22 16:33:09.543] $GPGGA,073307.30,,,,,0,00,0.0,,M,,M,0,0000*55
[2021-02-22 16:33:09.543] $GPGGA,073307.40,,,,,0,00,0.0,,M,,M,0,0000*52
[2021-02-22 16:33:09.543] $GPGGA,073307.50,,,,,0,00,0.0,,M,,M,0,0000*53
[2021-02-22 16:33:09.543] $GPGGA,073307.60,,,,,0,00,0.0,,M,,M,0,0000*50
[2021-02-22 16:33:09.543] $GPGGA,073307.70,,,,,0,00,0.0,,M,,M,0,0000*51
[2021-02-22 16:33:09.543] $GPGGA,073307.80,,,,,0,00,0.0,,M,,M,0,0000*5E
[2021-02-22 16:33:09.543] $GPGGA,073307.90,,,,,0,00,0.0,,M,,M,0,0000*5F
[2021-02-22 16:33:09.543] $GPGGA,073308.00,,,,,0,00,0.0,,M,,M,0,0000*59
[2021-02-22 16:33:09.543] $GPGGA,073308.10,,,,,0,00,0.0,,M,,M,0,0000*58
[2021-02-22 16:33:09.543] $GPGGA,073308.20,,,,,0,00,0.0,,M,,M,0,0000*5B
[2021-02-22 16:33:09.543] $GPGGA,073308.30,,,,,0,00,0.0,,M,,M,0,0000*5A
[2021-02-22 16:33:09.543] $GPGGA,073308.40,,,,,0,00,0.0,,M,,M,0,0000*5D
[2021-02-22 16:33:09.543] $GPGGA,073308.50,,,,,0,00,0.0,,M,,M,0,0000*5C
[2021-02-22 16:33:09.543] $GPGGA,073308.60,,,,,0,00,0.0,,M,,M,0,0000*5F
[2021-02-22 16:33:09.543] $GPGGA,073308.70,,,,,0,00,0.0,,M,,M,0,0000*5E
[2021-02-22 16:33:09.543] $GPGGA,073308.80,,,,,0,00,0.0,,M,,M,0,0000*51
[2021-02-22 16:33:09.543] $GPGGA,073308.90,,,,,0,00,0.0,,M,,M,0,0000*50
[2021-02-22 16:33:09.543] $GPGGA,073309.00,,,,,0,00,0.0,,M,,M,0,0000*58
[2021-02-22 16:33:09.543] $GPGGA,073309.10,,,,,0,00,0.0,,M,,M,0,0000*59
[2021-02-22 16:33:09.574] $GPGGA,073309.20,,,,,0,00,0.0,,M,,M,0,0000*5A
[2021-02-22 16:33:09.684] $GPGGA,073309.30,,,,,0,00,0.0,,M,,M,0,0000*5B
[2021-02-22 16:33:09.777] $GPGGA,073309.40,,,,,0,00,0.0,,M,,M,0,0000*5C
[2021-02-22 16:33:09.887] $GPGGA,073309.50,,,,,0,00,0.0,,M,,M,0,0000*5D
[2021-02-22 16:33:09.981] $GPGGA,073309.60,,,,,0,00,0.0,,M,,M,0,0000*5E
[2021-02-22 16:33:10.090] $GPGGA,073309.70,,,,,0,00,0.0,,M,,M,0,0000*5F
[2021-02-22 16:33:10.184] $GPGGA,073309.80,,,,,0,00,0.0,,M,,M,0,0000*50
[2021-02-22 16:33:10.277] $GPGGA,073309.90,,,,,0,00,0.0,,M,,M,0,0000*51
[2021-02-22 16:33:10.371] $GPGGA,073310.00,,,,,0,00,0.0,,M,,M,0,0000*50
[2021-02-22 16:33:10.480] $GPGGA,073310.10,,,,,0,00,0.0,,M,,M,0,0000*51
[2021-02-22 16:33:10.590] $GPGGA,073310.20,,,,,0,00,0.0,,M,,M,0,0000*52
[2021-02-22 16:33:10.684] $GPGGA,073310.30,,,,,0,00,0.0,,M,,M,0,0000*53
[2021-02-22 16:33:10.777] $GPGGA,073310.40,,,,,0,00,0.0,,M,,M,0,0000*54
[2021-02-22 16:33:10.871] $GPGGA,073310.50,,,,,0,00,0.0,,M,,M,0,0000*55
[2021-02-22 16:33:10.965] $GPGGA,073310.60,,,,,0,00,0.0,,M,,M,0,0000*56
[2021-02-22 16:33:11.074] $GPGGA,073310.70,,,,,0,00,0.0,,M,,M,0,0000*57
[2021-02-22 16:33:11.184] $GPGGA,073310.80,,,,,0,00,0.0,,M,,M,0,0000*58
[2021-02-22 16:33:11.277] $GPGGA,073310.90,,,,,0,00,0.0,,M,,M,0,0000*59
[2021-02-22 16:33:11.371] $GPGGA,073311.00,,,,,0,00,0.0,,M,,M,0,0000*51
[2021-02-22 16:33:11.480] $GPGGA,073311.10,,,,,0,00,0.0,,M,,M,0,0000*50
[2021-02-22 16:33:11.574] $GPGGA,073311.20,,,,,0,00,0.0,,M,,M,0,0000*53
[2021-02-22 16:33:11.668] $GPGGA,073311.30,,,,,0,00,0.0,,M,,M,0,0000*52
[2021-02-22 16:33:11.777] $GPGGA,073311.40,,,,,0,00,0.0,,M,,M,0,0000*55
[2021-02-22 16:33:11.887] $GPGGA,073311.50,,,,,0,00,0.0,,M,,M,0,0000*54
[2021-02-22 16:33:11.980] $GPGGA,073311.60,,,,,0,00,0.0,,M,,M,0,0000*57
[2021-02-22 16:33:12.074] $GPGGA,073311.70,,,,,0,00,0.0,,M,,M,0,0000*56
[2021-02-22 16:33:12.184] $GPGGA,073311.80,,,,,0,00,0.0,,M,,M,0,0000*59
[2021-02-22 16:33:12.277] $GPGGA,073311.90,,,,,0,00,0.0,,M,,M,0,0000*58
[2021-02-22 16:33:12.371] $GPGGA,073312.00,,,,,0,00,0.0,,M,,M,0,0000*52
[2021-02-22 16:33:12.480] $GPGGA,073312.10,,,,,0,00,0.0,,M,,M,0,0000*53
[2021-02-22 16:33:12.590] $GPGGA,073312.20,,,,,0,00,0.0,,M,,M,0,0000*50
[2021-02-22 16:33:12.684] $GPGGA,073312.30,,,,,0,00,0.0,,M,,M,0,0000*51
[2021-02-22 16:33:12.777] $GPGGA,073312.40,,,,,0,00,0.0,,M,,M,0,0000*56
[2021-02-22 16:33:12.871] $GPGGA,073312.50,,,,,0,00,0.0,,M,,M,0,0000*57
[2021-02-22 16:33:12.996] $GPGGA,073312.60,,,,,0,00,0.0,,M,,M,0,0000*54
[2021-02-22 16:33:13.074] $GPGGA,073312.70,,,,,0,00,0.0,,M,,M,0,0000*55
[2021-02-22 16:33:13.183] $GPGGA,073312.80,,,,,0,00,0.0,,M,,M,0,0000*5A
[2021-02-22 16:33:13.293] $GPGGA,073312.90,,,,,0,00,0.0,,M,,M,0,0000*5B
[2021-02-22 16:33:13.387] $GPGGA,073313.00,,,,,0,00,0.0,,M,,M,0,0000*53
[2021-02-22 16:33:13.480] $GPGGA,073313.10,,,,,0,00,0.0,,M,,M,0,0000*52
[2021-02-22 16:33:13.574] $GPGGA,073313.20,,,,,0,00,0.0,,M,,M,0,0000*51
[2021-02-22 16:33:13.683] $GPGGA,073313.30,,,,,0,00,0.0,,M,,M,0,0000*50
[2021-02-22 16:33:13.793] $GPGGA,073313.40,,,,,0,00,0.0,,M,,M,0,0000*57
[2021-02-22 16:33:13.887] $GPGGA,073313.50,,,,,0,00,0.0,,M,,M,0,0000*56
[2021-02-22 16:33:13.980] $GPGGA,073313.60,,,,,0,00,0.0,,M,,M,0,0000*55
[2021-02-22 16:33:14.090] $GPGGA,073313.70,,,,,0,00,0.0,,M,,M,0,0000*54
[2021-02-22 16:33:14.183] $GPGGA,073313.80,,,,,0,00,0.0,,M,,M,0,0000*5B
[2021-02-22 16:33:14.277] $GPGGA,073313.90,,,,,0,00,0.0,,M,,M,0,0000*5A
[2021-02-22 16:33:14.371] $GPGGA,073314.00,,,,,0,00,0.0,,M,,M,0,0000*54
[2021-02-22 16:33:14.465] $GPGGA,073314.10,,,,,0,00,0.0,,M,,M,0,0000*55
[2021-02-22 16:33:14.590] $GPGGA,073314.20,,,,,0,00,0.0,,M,,M,0,0000*56
[2021-02-22 16:33:14.683] $GPGGA,073314.30,,,,,0,00,0.0,,M,,M,0,0000*57
[2021-02-22 16:33:14.777] $GPGGA,073314.40,,,,,0,00,0.0,,M,,M,0,0000*50
[2021-02-22 16:33:14.871] $GPGGA,073314.50,,,,,0,00,0.0,,M,,M,0,0000*51
[2021-02-22 16:33:14.965] $GPGGA,073314.60,,,,,0,00,0.0,,M,,M,0,0000*52
[2021-02-22 16:33:15.074] $GPGGA,073314.70,,,,,0,00,0.0,,M,,M,0,0000*53
[2021-02-22 16:33:15.183] $GPGGA,073314.80,,,,,0,00,0.0,,M,,M,0,0000*5C
[2021-02-22 16:33:15.277] $GPGGA,073314.90,,,,,0,00,0.0,,M,,M,0,0000*5D
[2021-02-22 16:33:15.386] $GPGGA,073315.00,,,,,0,00,0.0,,M,,M,0,0000*55
[2021-02-22 16:33:15.480] $GPGGA,073315.10,,,,,0,00,0.0,,M,,M,0,0000*54
[2021-02-22 16:33:15.574] $GPGGA,073315.20,,,,,0,00,0.0,,M,,M,0,0000*57
[2021-02-22 16:33:15.668] $GPGGA,073315.30,,,,,0,00,0.0,,M,,M,0,0000*56
[2021-02-22 16:33:15.777] $GPGGA,073315.40,,,,,0,00,0.0,,M,,M,0,0000*51
[2021-02-22 16:33:15.886] $GPGGA,073315.50,,,,,0,00,0.0,,M,,M,0,0000*50
[2021-02-22 16:33:15.980] $GPGGA,073315.60,,,,,0,00,0.0,,M,,M,0,0000*53
[2021-02-22 16:33:16.074] $GPGGA,073315.70,,,,,0,00,0.0,,M,,M,0,0000*52
[2021-02-22 16:33:16.183] $GPGGA,073315.80,,,,,0,00,0.0,,M,,M,0,0000*5D
[2021-02-22 16:33:16.277] $GPGGA,073315.90,,,,,0,00,0.0,,M,,M,0,0000*5C
[2021-02-22 16:33:16.371] $GPGGA,073316.00,,,,,0,00,0.0,,M,,M,0,0000*56
[2021-02-22 16:33:16.464] $GPGGA,073316.10,,,,,0,00,0.0,,M,,M,0,0000*57
[2021-02-22 16:33:16.589] $GPGGA,073316.20,,,,,0,00,0.0,,M,,M,0,0000*54
[2021-02-22 16:33:16.683] $GPGGA,073316.30,,,,,0,00,0.0,,M,,M,0,0000*55
[2021-02-22 16:33:16.777] $GPGGA,073316.40,,,,,0,00,0.0,,M,,M,0,0000*52
[2021-02-22 16:33:16.886] $GPGGA,073316.50,,,,,0,00,0.0,,M,,M,0,0000*53
[2021-02-22 16:33:16.980] $GPGGA,073316.60,,,,,0,00,0.0,,M,,M,0,0000*50
[2021-02-22 16:33:17.074] $GPGGA,073316.70,,,,,0,00,0.0,,M,,M,0,0000*51
[2021-02-22 16:33:17.183] $GPGGA,073316.80,,,,,0,00,0.0,,M,,M,0,0000*5E
[2021-02-22 16:33:17.293] $GPGGA,073316.90,,,,,0,00,0.0,,M,,M,0,0000*5F
[2021-02-22 16:33:17.386] $GPGGA,073317.00,,,,,0,00,0.0,,M,,M,0,0000*57
[2021-02-22 16:33:17.480] $GPGGA,073317.10,,,,,0,00,0.0,,M,,M,0,0000*56
[2021-02-22 16:33:17.574] $GPGGA,073317.20,,,,,0,00,0.0,,M,,M,0,0000*55
[2021-02-22 16:33:17.683] $GPGGA,073317.30,,,,,0,00,0.0,,M,,M,0,0000*54
[2021-02-22 16:33:17.777] $GPGGA,073317.40,,,,,0,00,0.0,,M,,M,0,0000*53
[2021-02-22 16:33:17.886] $GPGGA,073317.50,,,,,0,00,0.0,,M,,M,0,0000*52
[2021-02-22 16:33:17.980] $GPGGA,073317.60,,,,,0,00,0.0,,M,,M,0,0000*51
[2021-02-22 16:33:18.089] $GPGGA,073317.70,,,,,0,00,0.0,,M,,M,0,0000*50
[2021-02-22 16:33:18.183] $GPGGA,073317.80,,,,,0,00,0.0,,M,,M,0,0000*5F
[2021-02-22 16:33:18.277] $GPGGA,073317.90,,,,,0,00,0.0,,M,,M,0,0000*5E
[2021-02-22 16:33:18.371] $GPGGA,073318.00,,,,,0,00,0.0,,M,,M,0,0000*58
[2021-02-22 16:33:18.480] $GPGGA,073318.10,,,,,0,00,0.0,,M,,M,0,0000*59
[2021-02-22 16:33:18.589] $GPGGA,073318.20,,,,,0,00,0.0,,M,,M,0,0000*5A
[2021-02-22 16:33:18.683] $GPGGA,073318.30,,,,,0,00,0.0,,M,,M,0,0000*5B
[2021-02-22 16:33:18.777] $GPGGA,073318.40,,,,,0,00,0.0,,M,,M,0,0000*5C
[2021-02-22 16:33:18.871] $GPGGA,073318.50,,,,,0,00,0.0,,M,,M,0,0000*5D
[2021-02-22 16:33:18.980] $GPGGA,073318.60,,,,,0,00,0.0,,M,,M,0,0000*5E
[2021-02-22 16:33:19.074] $GPGGA,073318.70,,,,,0,00,0.0,,M,,M,0,0000*5F
[2021-02-22 16:33:19.167] $GPGGA,073318.80,,,,,0,00,0.0,,M,,M,0,0000*50
[2021-02-22 16:33:19.277] $GPGGA,073318.90,,,,,0,00,0.0,,M,,M,0,0000*51
[2021-02-22 16:33:19.386] $GPGGA,073319.00,,,,,0,00,0.0,,M,,M,0,0000*59
[2021-02-22 16:33:19.480] $GPGGA,073319.10,,,,,0,00,0.0,,M,,M,0,0000*58
[2021-02-22 16:33:19.574] $GPGGA,073319.20,,,,,0,00,0.0,,M,,M,0,0000*5B
[2021-02-22 16:33:19.667] $GPGGA,073319.30,,,,,0,00,0.0,,M,,M,0,0000*5A
[2021-02-22 16:33:19.777] $GPGGA,073319.40,,,,,0,00,0.0,,M,,M,0,0000*5D
[2021-02-22 16:33:19.886] $GPGGA,073319.50,,,,,0,00,0.0,,M,,M,0,0000*5C
[2021-02-22 16:33:19.980] $GPGGA,073319.60,,,,,0,00,0.0,,M,,M,0,0000*5F
[2021-02-22 16:33:20.074] $GPGGA,073319.70,,,,,0,00,0.0,,M,,M,0,0000*5E
[2021-02-22 16:33:20.183] $GPGGA,073319.80,,,,,0,00,0.0,,M,,M,0,0000*51
[2021-02-22 16:33:20.277] $GPGGA,073319.90,,,,,0,00,0.0,,M,,M,0,0000*50
[2021-02-22 16:33:20.370] $GPGGA,073320.00,,,,,0,00,0.0,,M,,M,0,0000*53
[2021-02-22 16:33:20.480] $GPGGA,073320.10,,,,,0,00,0.0,,M,,M,0,0000*52
[2021-02-22 16:33:20.589] $GPGGA,073320.20,,,,,0,00,0.0,,M,,M,0,0000*51
[2021-02-22 16:33:20.683] $GPGGA,073320.30,,,,,0,00,0.0,,M,,M,0,0000*50
[2021-02-22 16:33:20.777] $GPGGA,073320.40,,,,,0,00,0.0,,M,,M,0,0000*57
[2021-02-22 16:33:20.886] $GPGGA,073320.50,,,,,0,00,0.0,,M,,M,0,0000*56
[2021-02-22 16:33:20.980] $GPGGA,073320.60,,,,,0,00,0.0,,M,,M,0,0000*55
[2021-02-22 16:33:21.074] $GPGGA,073320.70,,,,,0,00,0.0,,M,,M,0,0000*54
[2021-02-22 16:33:21.167] $GPGGA,073320.80,,,,,0,00,0.0,,M,,M,0,0000*5B
[2021-02-22 16:33:21.292] $GPGGA,073320.90,,,,,0,00,0.0,,M,,M,0,0000*5A
[2021-02-22 16:33:21.386] $GPGGA,073321.00,,,,,0,00,0.0,,M,,M,0,0000*52
[2021-02-22 16:33:21.480] $GPGGA,073321.10,,,,,0,00,0.0,,M,,M,0,0000*53
[2021-02-22 16:33:21.574] $GPGGA,073321.20,,,,,0,00,0.0,,M,,M,0,0000*50
[2021-02-22 16:33:21.683] $GPGGA,073321.30,,,,,0,00,0.0,,M,,M,0,0000*51
[2021-02-22 16:33:21.777] $GPGGA,073321.40,,,,,0,00,0.0,,M,,M,0,0000*56
[2021-02-22 16:33:21.886] $GPGGA,073321.50,,,,,0,00,0.0,,M,,M,0,0000*57
[2021-02-22 16:33:21.980] $GPGGA,073321.60,,,,,0,00,0.0,,M,,M,0,0000*54
[2021-02-22 16:33:22.089] $GPGGA,073321.70,,,,,0,00,0.0,,M,,M,0,0000*55
[2021-02-22 16:33:22.183] $GPGGA,073321.80,,,,,0,00,0.0,,M,,M,0,0000*5A
[2021-02-22 16:33:22.277] $GPGGA,073321.90,,,,,0,00,0.0,,M,,M,0,0000*5B
[2021-02-22 16:33:22.370] $GPGGA,073322.00,,,,,0,00,0.0,,M,,M,0,0000*51
[2021-02-22 16:33:22.480] $GPGGA,073322.10,,,,,0,00,0.0,,M,,M,0,0000*50
[2021-02-22 16:33:22.589] $GPGGA,073322.20,,,,,0,00,0.0,,M,,M,0,0000*53
[2021-02-22 16:33:22.683] $GPGGA,073322.30,,,,,0,00,0.0,,M,,M,0,0000*52
[2021-02-22 16:33:22.777] $GPGGA,073322.40,,,,,0,00,0.0,,M,,M,0,0000*55
[2021-02-22 16:33:22.870] $GPGGA,073322.50,,,,,0,00,0.0,,M,,M,0,0000*54
[2021-02-22 16:33:22.980] $GPGGA,073322.60,,,,,0,00,0.0,,M,,M,0,0000*57
[2021-02-22 16:33:23.073] $GPGGA,073322.70,,,,,0,00,0.0,,M,,M,0,0000*56
[2021-02-22 16:33:23.167] $GPGGA,073322.80,,,,,0,00,0.0,,M,,M,0,0000*59
[2021-02-22 16:33:23.277] $GPGGA,073322.90,,,,,0,00,0.0,,M,,M,0,0000*58
[2021-02-22 16:33:23.386] $GPGGA,073323.00,,,,,0,00,0.0,,M,,M,0,0000*50
[2021-02-22 16:33:23.480] $GPGGA,073323.10,,,,,0,00,0.0,,M,,M,0,0000*51
[2021-02-22 16:33:23.573] $GPGGA,073323.20,,,,,0,00,0.0,,M,,M,0,0000*52
[2021-02-22 16:33:23.667] $GPGGA,073323.30,,,,,0,00,0.0,,M,,M,0,0000*53
[2021-02-22 16:33:23.776] $GPGGA,073323.40,,,,,0,00,0.0,,M,,M,0,0000*54
[2021-02-22 16:33:23.886] $GPGGA,073323.50,,,,,0,00,0.0,,M,,M,0,0000*55
[2021-02-22 16:33:23.980] $GPGGA,073323.60,,,,,0,00,0.0,,M,,M,0,0000*56
[2021-02-22 16:33:24.089] $GPGGA,073323.70,,,,,0,00,0.0,,M,,M,0,0000*57
[2021-02-22 16:33:24.183] $GPGGA,073323.80,,,,,0,00,0.0,,M,,M,0,0000*58
[2021-02-22 16:33:24.276] $GPGGA,073323.90,,,,,0,00,0.0,,M,,M,0,0000*59
[2021-02-22 16:33:24.370] $GPGGA,073324.00,,,,,0,00,0.0,,M,,M,0,0000*57
[2021-02-22 16:33:24.480] $GPGGA,073324.10,,,,,0,00,0.0,,M,,M,0,0000*56
[2021-02-22 16:33:24.589] $GPGGA,073324.20,,,,,0,00,0.0,,M,,M,0,0000*55
[2021-02-22 16:33:24.683] $GPGGA,073324.30,,,,,0,00,0.0,,M,,M,0,0000*54
[2021-02-22 16:33:24.776] $GPGGA,073324.40,,,,,0,00,0.0,,M,,M,0,0000*53
[2021-02-22 16:33:24.886] $GPGGA,073324.50,,,,,0,00,0.0,,M,,M,0,0000*52
[2021-02-22 16:33:24.980] $GPGGA,073324.60,,,,,0,00,0.0,,M,,M,0,0000*51
[2021-02-22 16:33:25.073] $GPGGA,073324.70,,,,,0,00,0.0,,M,,M,0,0000*50
[2021-02-22 16:33:25.167] $GPGGA,073324.80,,,,,0,00,0.0,,M,,M,0,0000*5F
[2021-02-22 16:33:25.292] $GPGGA,073324.90,,,,,0,00,0.0,,M,,M,0,0000*5E
[2021-02-22 16:33:25.386] $GPGGA,073325.00,,,,,0,00,0.0,,M,,M,0,0000*56
[2021-02-22 16:33:25.479] $GPGGA,073325.10,,,,,0,00,0.0,,M,,M,0,0000*57
[2021-02-22 16:33:25.573] $GPGGA,073325.20,,,,,0,00,0.0,,M,,M,0,0000*54
[2021-02-22 16:33:25.683] $GPGGA,073325.30,,,,,0,00,0.0,,M,,M,0,0000*55
[2021-02-22 16:33:25.776] $GPGGA,073325.40,,,,,0,00,0.0,,M,,M,0,0000*52
[2021-02-22 16:33:25.870] $GPGGA,073325.50,,,,,0,00,0.0,,M,,M,0,0000*53
[2021-02-22 16:33:25.995] $GPGGA,073325.60,,,,,0,00,0.0,,M,,M,0,0000*50
[2021-02-22 16:33:26.089] $GPGGA,073325.70,,,,,0,00,0.0,,M,,M,0,0000*51
[2021-02-22 16:33:26.183] $GPGGA,073325.80,,,,,0,00,0.0,,M,,M,0,0000*5E
[2021-02-22 16:33:26.276] $GPGGA,073325.90,,,,,0,00,0.0,,M,,M,0,0000*5F
[2021-02-22 16:33:26.370] $GPGGA,073326.00,,,,,0,00,0.0,,M,,M,0,0000*55
[2021-02-22 16:33:26.479] $GPGGA,073326.10,,,,,0,00,0.0,,M,,M,0,0000*54
[2021-02-22 16:33:26.589] $GPGGA,073326.20,,,,,0,00,0.0,,M,,M,0,0000*57
[2021-02-22 16:33:26.683] $GPGGA,073326.30,,,,,0,00,0.0,,M,,M,0,0000*56
[2021-02-22 16:33:26.776] $GPGGA,073326.40,,,,,0,00,0.0,,M,,M,0,0000*51
[2021-02-22 16:33:26.870] $GPGGA,073326.50,,,,,0,00,0.0,,M,,M,0,0000*50
[2021-02-22 16:33:26.979] $GPGGA,073326.60,,,,,0,00,0.0,,M,,M,0,0000*53
[2021-02-22 16:33:27.073] $GPGGA,073326.70,,,,,0,00,0.0,,M,,M,0,0000*52
[2021-02-22 16:33:27.167] $GPGGA,073326.80,,,,,0,00,0.0,,M,,M,0,0000*5D
[2021-02-22 16:33:27.276] $GPGGA,073326.90,,,,,0,00,0.0,,M,,M,0,0000*5C
[2021-02-22 16:33:27.386] $GPGGA,073327.00,,,,,0,00,0.0,,M,,M,0,0000*54
[2021-02-22 16:33:27.479] $GPGGA,073327.10,,,,,0,00,0.0,,M,,M,0,0000*55
[2021-02-22 16:33:27.573] $GPGGA,073327.20,,,,,0,00,0.0,,M,,M,0,0000*56
[2021-02-22 16:33:27.682] $GPGGA,073327.30,,,,,0,00,0.0,,M,,M,0,0000*57
[2021-02-22 16:33:27.776] $GPGGA,073327.40,,,,,0,00,0.0,,M,,M,0,0000*50
[2021-02-22 16:33:27.870] $GPGGA,073327.50,,,,,0,00,0.0,,M,,M,0,0000*51
[2021-02-22 16:33:27.979] $GPGGA,073327.60,,,,,0,00,0.0,,M,,M,0,0000*52
[2021-02-22 16:33:28.089] $GPGGA,073327.70,,,,,0,00,0.0,,M,,M,0,0000*53
[2021-02-22 16:33:28.182] $GPGGA,073327.80,,,,,0,00,0.0,,M,,M,0,0000*5C
[2021-02-22 16:33:28.276] $GPGGA,073327.90,,,,,0,00,0.0,,M,,M,0,0000*5D
[2021-02-22 16:33:28.370] $GPGGA,073328.00,,,,,0,00,0.0,,M,,M,0,0000*5B
[2021-02-22 16:33:28.479] $GPGGA,073328.10,,,,,0,00,0.0,,M,,M,0,0000*5A
[2021-02-22 16:33:28.589] $GPGGA,073328.20,,,,,0,00,0.0,,M,,M,0,0000*59
[2021-02-22 16:33:28.682] $GPGGA,073328.30,,,,,0,00,0.0,,M,,M,0,0000*58
[2021-02-22 16:33:28.776] $GPGGA,073328.40,,,,,0,00,0.0,,M,,M,0,0000*5F
[2021-02-22 16:33:28.885] $GPGGA,073328.50,,,,,0,00,0.0,,M,,M,0,0000*5E
[2021-02-22 16:33:28.979] $GPGGA,073328.60,,,,,0,00,0.0,,M,,M,0,0000*5D
[2021-02-22 16:33:29.073] $GPGGA,073328.70,,,,,0,00,0.0,,M,,M,0,0000*5C
[2021-02-22 16:33:29.167] $GPGGA,073328.80,,,,,0,00,0.0,,M,,M,0,0000*53
[2021-02-22 16:33:29.292] $GPGGA,073328.90,,,,,0,00,0.0,,M,,M,0,0000*52
[2021-02-22 16:33:29.385] $GPGGA,073329.00,,,,,0,00,0.0,,M,,M,0,0000*5A
[2021-02-22 16:33:29.479] $GPGGA,073329.10,,,,,0,00,0.0,,M,,M,0,0000*5B
[2021-02-22 16:33:29.589] $GPGGA,073329.20,,,,,0,00,0.0,,M,,M,0,0000*58
[2021-02-22 16:33:29.682] $GPGGA,073329.30,,,,,0,00,0.0,,M,,M,0,0000*59
[2021-02-22 16:33:29.776] $GPGGA,073329.40,,,,,0,00,0.0,,M,,M,0,0000*5E
[2021-02-22 16:33:29.870] $GPGGA,073329.50,,,,,0,00,0.0,,M,,M,0,0000*5F
[2021-02-22 16:33:29.995] $GPGGA,073329.60,,,,,0,00,0.0,,M,,M,0,0000*5C
[2021-02-22 16:33:30.088] $GPGGA,073329.70,,,,,0,00,0.0,,M,,M,0,0000*5D
[2021-02-22 16:33:30.182] $GPGGA,073329.80,,,,,0,00,0.0,,M,,M,0,0000*52
[2021-02-22 16:33:30.276] $GPGGA,073329.90,,,,,0,00,0.0,,M,,M,0,0000*53
[2021-02-22 16:33:30.385] $GPGGA,073330.00,,,,,0,00,0.0,,M,,M,0,0000*52
[2021-02-22 16:33:30.479] $GPGGA,073330.10,,,,,0,00,0.0,,M,,M,0,0000*53
[2021-02-22 16:33:30.573] $GPGGA,073330.20,,,,,0,00,0.0,,M,,M,0,0000*50
[2021-02-22 16:33:30.682] $GPGGA,073330.30,,,,,0,00,0.0,,M,,M,0,0000*51
[2021-02-22 16:33:30.776] $GPGGA,073330.40,,,,,0,00,0.0,,M,,M,0,0000*56
[2021-02-22 16:33:30.885] $GPGGA,073330.50,,,,,0,00,0.0,,M,,M,0,0000*57
[2021-02-22 16:33:30.979] $GPGGA,073330.60,,,,,0,00,0.0,,M,,M,0,0000*54
[2021-02-22 16:33:31.073] $GPGGA,073330.70,,,,,0,00,0.0,,M,,M,0,0000*55
[2021-02-22 16:33:31.167] $GPGGA,073330.80,,,,,0,00,0.0,,M,,M,0,0000*5A
[2021-02-22 16:33:31.292] $GPGGA,073330.90,,,,,0,00,0.0,,M,,M,0,0000*5B
[2021-02-22 16:33:31.385] $GPGGA,073331.00,,,,,0,00,0.0,,M,,M,0,0000*53
[2021-02-22 16:33:31.479] $GPGGA,073331.10,,,,,0,00,0.0,,M,,M,0,0000*52
[2021-02-22 16:33:31.573] $GPGGA,073331.20,,,,,0,00,0.0,,M,,M,0,0000*51
[2021-02-22 16:33:31.682] $GPGGA,073331.30,,,,,0,00,0.0,,M,,M,0,0000*50
[2021-02-22 16:33:31.776] $GPGGA,073331.40,,,,,0,00,0.0,,M,,M,0,0000*57
[2021-02-22 16:33:31.870] $GPGGA,073331.50,,,,,0,00,0.0,,M,,M,0,0000*56
[2021-02-22 16:33:31.979] $GPGGA,073331.60,,,,,0,00,0.0,,M,,M,0,0000*55
[2021-02-22 16:33:32.088] $GPGGA,073331.70,,,,,0,00,0.0,,M,,M,0,0000*54
[2021-02-22 16:33:32.182] $GPGGA,073331.80,,,,,0,00,0.0,,M,,M,0,0000*5B
[2021-02-22 16:33:32.276] $GPGGA,073331.90,,,,,0,00,0.0,,M,,M,0,0000*5A
[2021-02-22 16:33:32.370] $GPGGA,073332.00,,,,,0,00,0.0,,M,,M,0,0000*50
[2021-02-22 16:33:32.479] $GPGGA,073332.10,,,,,0,00,0.0,,M,,M,0,0000*51
[2021-02-22 16:33:32.573] $GPGGA,073332.20,,,,,0,00,0.0,,M,,M,0,0000*52
[2021-02-22 16:33:32.682] $GPGGA,073332.30,,,,,0,00,0.0,,M,,M,0,0000*53
[2021-02-22 16:33:32.776] $GPGGA,073332.40,,,,,0,00,0.0,,M,,M,0,0000*54
[2021-02-22 16:33:32.885] $GPGGA,073332.50,,,,,0,00,0.0,,M,,M,0,0000*55
[2021-02-22 16:33:32.979] $GPGGA,073332.60,,,,,0,00,0.0,,M,,M,0,0000*56
[2021-02-22 16:33:33.073] $GPGGA,073332.70,,,,,0,00,0.0,,M,,M,0,0000*57
[2021-02-22 16:33:33.182] $GPGGA,073332.80,,,,,0,00,0.0,,M,,M,0,0000*58
[2021-02-22 16:33:33.291] $GPGGA,073332.90,,,,,0,00,0.0,,M,,M,0,0000*59
[2021-02-22 16:33:33.385] $GPGGA,073333.00,,,,,0,00,0.0,,M,,M,0,0000*51
[2021-02-22 16:33:33.479] $GPGGA,073333.10,,,,,0,00,0.0,,M,,M,0,0000*50
[2021-02-22 16:33:33.588] $GPGGA,073333.20,,,,,0,00,0.0,,M,,M,0,0000*53
[2021-02-22 16:33:33.682] $GPGGA,073333.30,,,,,0,00,0.0,,M,,M,0,0000*52
[2021-02-22 16:33:33.776] $GPGGA,073333.40,,,,,0,00,0.0,,M,,M,0,0000*55
[2021-02-22 16:33:33.870] $GPGGA,073333.50,,,,,0,00,0.0,,M,,M,0,0000*54
[2021-02-22 16:33:33.994] $GPGGA,073333.60,,,,,0,00,0.0,,M,,M,0,0000*57
[2021-02-22 16:33:34.088] $GPGGA,073333.70,,,,,0,00,0.0,,M,,M,0,0000*56
[2021-02-22 16:33:34.182] $GPGGA,073333.80,,,,,0,00,0.0,,M,,M,0,0000*59
[2021-02-22 16:33:34.276] $GPGGA,073333.90,,,,,0,00,0.0,,M,,M,0,0000*58
[2021-02-22 16:33:34.385] $GPGGA,073334.00,,,,,0,00,0.0,,M,,M,0,0000*56
[2021-02-22 16:33:34.479] $GPGGA,073334.10,,,,,0,00,0.0,,M,,M,0,0000*57
[2021-02-22 16:33:34.573] $GPGGA,073334.20,,,,,0,00,0.0,,M,,M,0,0000*54
[2021-02-22 16:33:34.682] $GPGGA,073334.30,,,,,0,00,0.0,,M,,M,0,0000*55
[2021-02-22 16:33:34.791] $GPGGA,073334.40,,,,,0,00,0.0,,M,,M,0,0000*52
[2021-02-22 16:33:34.885] $GPGGA,073334.50,,,,,0,00,0.0,,M,,M,0,0000*53
[2021-02-22 16:33:34.979] $GPGGA,073334.60,,,,,0,00,0.0,,M,,M,0,0000*50
[2021-02-22 16:33:35.073] $GPGGA,073334.70,,,,,0,00,0.0,,M,,M,0,0000*51
[2021-02-22 16:33:35.182] $GPGGA,073334.80,,,,,0,00,0.0,,M,,M,0,0000*5E
[2021-02-22 16:33:35.291] $GPGGA,073334.90,,,,,0,00,0.0,,M,,M,0,0000*5F
[2021-02-22 16:33:35.385] $GPGGA,073335.00,,,,,0,00,0.0,,M,,M,0,0000*57
[2021-02-22 16:33:35.479] $GPGGA,073335.10,,,,,0,00,0.0,,M,,M,0,0000*56
[2021-02-22 16:33:35.588] $GPGGA,073335.20,3713.9767550,N,13701.5617646,E,1,06,2.2,82.8994,M,37.55,M,,*57
[2021-02-22 16:33:35.697] $GPGGA,073335.30,3713.9768659,N,13701.5619232,E,1,06,2.2,82.4899,M,37.55,M,,*5A
[2021-02-22 16:33:35.776] $GPGGA,073335.40,3713.9769910,N,13701.5619912,E,1,06,2.2,82.4204,M,37.55,M,,*59
[2021-02-22 16:33:35.901] $GPGGA,073335.50,3713.9768710,N,13701.5618294,E,1,06,2.2,82.7067,M,37.55,M,,*57
[2021-02-22 16:33:35.979] $GPGGA,073335.60,3713.9769220,N,13701.5617117,E,1,06,2.2,82.9252,M,37.55,M,,*5E
[2021-02-22 16:33:36.104] $GPGGA,073335.70,3713.9769649,N,13701.5618607,E,1,06,2.2,82.7850,M,37.55,M,,*5B
[2021-02-22 16:33:36.182] $GPGGA,073335.80,3713.9769314,N,13701.5615548,E,1,06,2.2,82.8124,M,37.55,M,,*59
[2021-02-22 16:33:36.291] $GPGGA,073335.90,3713.9768582,N,13701.5615245,E,1,06,2.2,82.5273,M,37.55,M,,*56
[2021-02-22 16:33:36.369] $GPGGA,073336.00,3713.9767371,N,13701.5618803,E,1,06,2.2,81.9123,M,37.55,M,,*55
[2021-02-22 16:33:36.494] $GPGGA,073336.10,3713.9767339,N,13701.5616463,E,1,06,2.2,82.2470,M,37.55,M,,*57
[2021-02-22 16:33:36.604] $GPGGA,073336.20,3713.9766316,N,13701.5617874,E,1,06,2.2,82.2298,M,37.55,M,,*53
[2021-02-22 16:33:36.682] $GPGGA,073336.30,3713.9766261,N,13701.5618764,E,1,06,2.2,82.3478,M,37.55,M,,*5B
[2021-02-22 16:33:36.807] $GPGGA,073336.40,3713.9764894,N,13701.5618218,E,1,06,2.2,82.7015,M,37.55,M,,*5B
[2021-02-22 16:33:36.885] $GPGGA,073336.50,3713.9763662,N,13701.5618085,E,1,06,2.2,82.6911,M,37.55,M,,*50
[2021-02-22 16:33:36.994] $GPGGA,073336.60,3713.9763748,N,13701.5618341,E,1,06,2.2,82.3802,M,37.55,M,,*57
[2021-02-22 16:33:37.072] $GPGGA,073336.70,3713.9754522,N,13701.5619620,E,1,07,2.0,83.9025,M,37.55,M,,*5A
[2021-02-22 16:33:37.197] $GPGGA,073336.80,3713.9753905,N,13701.5617914,E,1,07,2.0,83.9718,M,37.55,M,,*54
[2021-02-22 16:33:37.276] $GPGGA,073336.90,3713.9752969,N,13701.5617223,E,1,07,2.0,84.3921,M,37.55,M,,*58
[2021-02-22 16:33:37.400] $GPGGA,073337.00,3713.9751887,N,13701.5615368,E,1,07,2.0,84.8899,M,37.55,M,,*57
[2021-02-22 16:33:37.479] $GPGGA,073337.10,3713.9751160,N,13701.5616655,E,1,07,2.0,84.9423,M,37.55,M,,*52
[2021-02-22 16:33:37.604] $GPGGA,073337.20,3713.9749693,N,13701.5614405,E,1,07,2.0,85.8097,M,37.55,M,,*5D
[2021-02-22 16:33:37.682] $GPGGA,073337.30,3713.9749736,N,13701.5616350,E,1,07,2.0,85.9691,M,37.55,M,,*56
[2021-02-22 16:33:37.791] $GPGGA,073337.40,3713.9748845,N,13701.5612822,E,1,09,2.0,85.7013,M,37.55,M,,*5D
[2021-02-22 16:33:37.885] $GPGGA,073337.50,3713.9749020,N,13701.5610871,E,1,09,2.0,86.1700,M,37.55,M,,*52
[2021-02-22 16:33:37.994] $GPGGA,073337.60,3713.9748790,N,13701.5610530,E,1,09,2.0,85.7438,M,37.55,M,,*59
[2021-02-22 16:33:38.072] $GPGGA,073337.70,3713.9748544,N,13701.5610825,E,1,09,2.0,85.9548,M,37.55,M,,*52
[2021-02-22 16:33:38.197] $GPGGA,073337.80,3713.9750655,N,13701.5613090,E,1,09,2.0,86.2820,M,37.55,M,,*59
[2021-02-22 16:33:38.307] $GPGGA,073337.90,3713.9751329,N,13701.5614781,E,1,09,2.0,87.1696,M,37.55,M,,*56
[2021-02-22 16:33:38.385] $GPGGA,073338.00,3713.9751665,N,13701.5616026,E,1,09,2.0,87.2489,M,37.55,M,,*5A
[2021-02-22 16:33:38.494] $GPGGA,073338.10,3713.9752314,N,13701.5616222,E,1,09,2.0,87.3147,M,37.55,M,,*5B
[2021-02-22 16:33:38.572] $GPGGA,073338.20,3713.9751842,N,13701.5616626,E,1,09,2.0,87.1208,M,37.55,M,,*59
[2021-02-22 16:33:38.697] $GPGGA,073338.30,3713.9752359,N,13701.5616313,E,1,09,2.0,86.9531,M,37.55,M,,*5D
[2021-02-22 16:33:38.775] $GPGGA,073338.40,3713.9751995,N,13701.5616701,E,1,09,2.0,87.2686,M,37.55,M,,*51
[2021-02-22 16:33:38.900] $GPGGA,073338.50,3713.9751136,N,13701.5616151,E,1,09,2.0,87.1207,M,37.55,M,,*5C
[2021-02-22 16:33:38.979] $GPGGA,073338.60,3713.9750981,N,13701.5614584,E,1,09,2.0,86.9600,M,37.55,M,,*5E
[2021-02-22 16:33:39.104] $GPGGA,073338.70,3713.9749819,N,13701.5611182,E,1,09,2.0,86.9955,M,37.55,M,,*5F
[2021-02-22 16:33:39.182] $GPGGA,073338.80,3713.9748763,N,13701.5609272,E,1,09,2.0,87.2890,M,37.55,M,,*54
[2021-02-22 16:33:39.291] $GPGGA,073338.90,3713.9749635,N,13701.5609493,E,1,09,2.0,87.0009,M,37.55,M,,*55
[2021-02-22 16:33:39.385] $GPGGA,073339.00,3713.9750086,N,13701.5611919,E,1,09,2.0,86.6238,M,37.55,M,,*5A
[2021-02-22 16:33:39.494] $GPGGA,073339.10,3713.9750634,N,13701.5612494,E,1,09,2.0,86.5843,M,37.55,M,,*5A
[2021-02-22 16:33:39.572] $GPGGA,073339.20,3713.9749071,N,13701.5612973,E,1,09,2.0,86.7626,M,37.55,M,,*5D
[2021-02-22 16:33:39.697] $GPGGA,073339.30,3713.9750287,N,13701.5615878,E,1,09,2.0,86.5976,M,37.55,M,,*5A
[2021-02-22 16:33:39.775] $GPGGA,073339.40,3713.9750868,N,13701.5618554,E,1,09,2.0,86.3583,M,37.55,M,,*58
[2021-02-22 16:33:39.900] $GPGGA,073339.50,3713.9751237,N,13701.5619483,E,1,09,2.0,86.2810,M,37.55,M,,*54
[2021-02-22 16:33:39.978] $GPGGA,073339.60,3713.9751594,N,13701.5617286,E,1,09,2.0,86.0132,M,37.55,M,,*5F
[2021-02-22 16:33:40.103] $GPGGA,073339.70,3713.9752777,N,13701.5619488,E,1,09,2.0,85.7409,M,37.55,M,,*5D
[2021-02-22 16:33:40.197] $GPGGA,073339.80,3713.9751095,N,13701.5620608,E,1,09,2.0,86.0468,M,37.55,M,,*59
[2021-02-22 16:33:40.275] $GPGGA,073339.90,3713.9749373,N,13701.5617826,E,1,09,2.0,86.1061,M,37.55,M,,*50
[2021-02-22 16:33:40.400] $GPGGA,073340.00,3713.9751168,N,13701.5620104,E,1,09,2.0,85.4051,M,37.55,M,,*5E
[2021-02-22 16:33:40.478] $GPGGA,073340.10,3713.9751288,N,13701.5621041,E,1,09,2.0,85.4745,M,37.55,M,,*51
[2021-02-22 16:33:40.603] $GPGGA,073340.20,3713.9751262,N,13701.5621357,E,1,09,2.0,85.3002,M,37.55,M,,*51
[2021-02-22 16:33:40.682] $GPGGA,073340.30,3713.9750866,N,13701.5619733,E,1,09,2.0,85.4772,M,37.55,M,,*55
[2021-02-22 16:33:40.791] $GPGGA,073340.40,3713.9750960,N,13701.5618569,E,1,09,2.0,85.3422,M,37.55,M,,*58
[2021-02-22 16:33:40.885] $GPGGA,073340.50,3713.9751718,N,13701.5618013,E,1,09,2.0,84.5974,M,37.55,M,,*58
[2021-02-22 16:33:40.994] $GPGGA,073340.60,3713.9752832,N,13701.5619319,E,1,09,2.0,84.5886,M,37.55,M,,*5B
[2021-02-22 16:33:41.072] $GPGGA,073340.70,3713.9752571,N,13701.5617747,E,1,09,2.0,84.6176,M,37.55,M,,*54
[2021-02-22 16:33:41.197] $GPGGA,073340.80,3713.9753371,N,13701.5617321,E,1,09,2.0,84.8404,M,37.55,M,,*56
[2021-02-22 16:33:41.275] $GPGGA,073340.90,3713.9752746,N,13701.5617797,E,1,09,2.0,84.9862,M,37.55,M,,*52
[2021-02-22 16:33:41.400] $GPGGA,073341.00,3713.9752108,N,13701.5615618,E,1,09,2.0,85.1059,M,37.55,M,,*5B
[2021-02-22 16:33:41.478] $GPGGA,073341.10,3713.9752350,N,13701.5617355,E,1,09,2.0,84.9280,M,37.55,M,,*54
[2021-02-22 16:33:41.603] $GPGGA,073341.20,3713.9753211,N,13701.5620209,E,1,09,2.0,84.7238,M,37.55,M,,*53
[2021-02-22 16:33:41.681] $GPGGA,073341.30,3713.9754225,N,13701.5620922,E,1,09,2.0,84.3687,M,37.55,M,,*54
[2021-02-22 16:33:41.806] $GPGGA,073341.40,3713.9753485,N,13701.5621445,E,1,09,2.0,84.5858,M,37.55,M,,*5F
[2021-02-22 16:33:41.900] $GPGGA,073341.50,3713.9754017,N,13701.5624095,E,1,09,2.0,84.2513,M,37.55,M,,*5F
[2021-02-22 16:33:41.978] $GPGGA,073341.60,3713.9754069,N,13701.5624319,E,1,09,2.0,84.0858,M,37.55,M,,*52
[2021-02-22 16:33:42.103] $GPGGA,073341.70,3713.9752529,N,13701.5621807,E,1,10,2.0,84.5040,M,37.55,M,,*59
[2021-02-22 16:33:42.181] $GPGGA,073341.80,3713.9751259,N,13701.5620052,E,1,10,2.0,84.5022,M,37.55,M,,*58
[2021-02-22 16:33:42.306] $GPGGA,073341.90,3713.9751111,N,13701.5619037,E,1,10,2.0,84.7483,M,37.55,M,,*52
[2021-02-22 16:33:42.385] $GPGGA,073342.00,3713.9751210,N,13701.5620936,E,1,10,2.0,84.7706,M,37.55,M,,*56
[2021-02-22 16:33:42.510] $GPGGA,073342.10,3713.9750720,N,13701.5622537,E,1,10,2.0,84.9706,M,37.55,M,,*51
[2021-02-22 16:33:42.572] $GPGGA,073342.20,3713.9750871,N,13701.5621179,E,1,10,2.0,85.3355,M,37.55,M,,*5D
[2021-02-22 16:33:42.697] $GPGGA,073342.30,3713.9749569,N,13701.5618537,E,1,10,2.0,85.8048,M,37.55,M,,*50
[2021-02-22 16:33:42.775] $GPGGA,073342.40,3713.9750486,N,13701.5619830,E,1,10,2.0,85.8841,M,37.55,M,,*55
[2021-02-22 16:33:42.898] $GPGGA,073342.50,3713.9750384,N,13701.5618697,E,1,10,2.0,86.1231,M,37.55,M,,*54
[2021-02-22 16:33:42.977] $GPGGA,073342.60,3713.9751122,N,13701.5620415,E,1,10,2.0,86.0032,M,37.55,M,,*5B
[2021-02-22 16:33:43.101] $GPGGA,073342.70,3713.9750100,N,13701.5621378,E,1,10,2.0,86.0510,M,37.55,M,,*53
[2021-02-22 16:33:43.180] $GPGGA,073342.80,3713.9748870,N,13701.5619925,E,1,10,2.0,86.3062,M,37.55,M,,*51
[2021-02-22 16:33:43.305] $GPGGA,073342.90,3713.9747841,N,13701.5620931,E,1,10,2.0,86.4696,M,37.55,M,,*58
[2021-02-22 16:33:43.383] $GPGGA,073343.00,3713.9747145,N,13701.5617774,E,1,10,2.0,86.7883,M,37.55,M,,*5F
[2021-02-22 16:33:43.492] $GPGGA,073343.10,3713.9746181,N,13701.5617738,E,1,10,2.0,87.1481,M,37.55,M,,*56
[2021-02-22 16:33:43.601] $GPGGA,073343.20,3713.9770414,N,13701.5576235,E,5,05,8.4,99.5179,M,37.55,M,1,0000*63
[2021-02-22 16:33:43.711] $GPGGA,073343.30,3713.9771035,N,13701.5577219,E,5,05,8.4,99.5323,M,37.55,M,1,0000*66
[2021-02-22 16:33:43.805] $GPGGA,073343.40,3713.9771486,N,13701.5578447,E,5,05,8.4,99.5835,M,37.55,M,1,0000*63
[2021-02-22 16:33:43.883] $GPGGA,073343.50,3713.9771994,N,13701.5579434,E,5,05,8.4,99.6132,M,37.55,M,1,0000*64
[2021-02-22 16:33:44.008] $GPGGA,073343.60,3713.9772422,N,13701.5580387,E,5,05,8.4,99.6462,M,37.55,M,1,0000*6D
[2021-02-22 16:33:44.086] $GPGGA,073343.70,3713.9772574,N,13701.5581130,E,5,05,8.4,99.6784,M,37.55,M,1,0000*6A
[2021-02-22 16:33:44.211] $GPGGA,073343.80,3713.9772811,N,13701.5582303,E,5,05,8.4,99.7365,M,37.55,M,1,0000*60
[2021-02-22 16:33:44.289] $GPGGA,073343.90,3713.9773130,N,13701.5583648,E,5,05,8.4,99.8019,M,37.55,M,1,0000*66
[2021-02-22 16:33:44.414] $GPGGA,073344.00,3713.9773691,N,13701.5584553,E,5,05,8.4,99.8264,M,37.55,M,2,0000*61
[2021-02-22 16:33:44.508] $GPGGA,073344.10,3713.9774418,N,13701.5585586,E,5,05,8.4,99.8377,M,37.55,M,2,0000*6E
[2021-02-22 16:33:44.601] $GPGGA,073344.20,3713.9775059,N,13701.5586433,E,5,05,8.4,99.8469,M,37.55,M,2,0000*69
[2021-02-22 16:33:44.680] $GPGGA,073344.30,3713.9775511,N,13701.5587525,E,5,05,8.4,99.8816,M,37.55,M,2,0000*62
[2021-02-22 16:33:44.804] $GPGGA,073344.40,3713.9775893,N,13701.5588671,E,5,05,8.4,99.9313,M,37.55,M,2,0000*60
[2021-02-22 16:33:44.883] $GPGGA,073344.50,3713.9776191,N,13701.5589856,E,5,05,8.4,99.9954,M,37.55,M,2,0000*6A
[2021-02-22 16:33:45.008] $GPGGA,073344.60,3713.9776385,N,13701.5590994,E,5,05,8.4,100.0628,M,37.55,M,2,0000*55
[2021-02-22 16:33:45.086] $GPGGA,073344.70,3713.9776499,N,13701.5591905,E,5,05,8.4,100.1212,M,37.55,M,2,0000*5B
[2021-02-22 16:33:45.211] $GPGGA,073344.80,3713.9776614,N,13701.5592510,E,5,05,8.4,100.1548,M,37.55,M,2,0000*50
[2021-02-22 16:33:45.289] $GPGGA,073344.90,3713.9776648,N,13701.5592967,E,5,05,8.4,100.1850,M,37.55,M,2,0000*50
[2021-02-22 16:33:45.414] $GPGGA,073345.00,3713.9776688,N,13701.5593243,E,5,05,8.4,100.2061,M,37.55,M,3,0000*50
[2021-02-22 16:33:45.492] $GPGGA,073345.10,3713.9776699,N,13701.5593409,E,5,05,8.4,100.2163,M,37.55,M,3,0000*5A
[2021-02-22 16:33:45.601] $GPGGA,073345.20,3713.9776826,N,13701.5593743,E,5,05,8.4,100.2289,M,37.55,M,3,0000*59
[2021-02-22 16:33:45.711] $GPGGA,073345.30,3713.9776843,N,13701.5593738,E,5,05,8.4,100.2267,M,37.55,M,3,0000*57
[2021-02-22 16:33:45.789] $GPGGA,073345.40,3713.9776824,N,13701.5593743,E,5,05,8.4,100.2291,M,37.55,M,3,0000*54
[2021-02-22 16:33:45.914] $GPGGA,073345.50,3713.9776844,N,13701.5593777,E,5,05,8.4,100.2302,M,37.55,M,3,0000*5F
[2021-02-22 16:33:45.992] $GPGGA,073345.60,3713.9776907,N,13701.5593995,E,5,05,8.4,100.2404,M,37.55,M,3,0000*59
[2021-02-22 16:33:46.101] $GPGGA,073345.70,3713.9776978,N,13701.5594259,E,5,05,8.4,100.2522,M,37.55,M,3,0000*59
[2021-02-22 16:33:46.179] $GPGGA,073345.80,3713.9777038,N,13701.5594514,E,5,05,8.4,100.2633,M,37.55,M,3,0000*57
[2021-02-22 16:33:46.304] $GPGGA,073345.90,3713.9777093,N,13701.5594975,E,5,05,8.4,100.2881,M,37.55,M,3,0000*5B
[2021-02-22 16:33:46.383] $GPGGA,073346.00,3713.9777220,N,13701.5595447,E,5,05,8.4,100.3112,M,37.55,M,4,0000*53
[2021-02-22 16:33:46.492] $GPGGA,073346.10,3713.9777352,N,13701.5596106,E,5,05,8.4,100.3453,M,37.55,M,4,0000*55
[2021-02-22 16:33:46.586] $GPGGA,073346.20,3713.9777432,N,13701.5596605,E,5,05,8.4,100.3736,M,37.55,M,4,0000*53
[2021-02-22 16:33:46.679] $GPGGA,073346.30,3713.9777445,N,13701.5596928,E,5,05,8.4,100.3955,M,37.55,M,4,0000*59
[2021-02-22 16:33:46.789] $GPGGA,073346.40,3713.9777441,N,13701.5597230,E,5,05,8.4,100.4172,M,37.55,M,4,0000*53
[2021-02-22 16:33:46.898] $GPGGA,073346.50,3713.9777462,N,13701.5597404,E,5,05,8.4,100.4288,M,37.55,M,4,0000*54
[2021-02-22 16:33:47.007] $GPGGA,073346.60,3713.9777470,N,13701.5597485,E,5,05,8.4,100.4354,M,37.55,M,4,0000*5D
[2021-02-22 16:33:47.101] $GPGGA,073346.70,3713.9777538,N,13701.5597752,E,5,05,8.4,100.4499,M,37.55,M,4,0000*5E
[2021-02-22 16:33:47.179] $GPGGA,073346.80,3713.9777657,N,13701.5598026,E,5,05,8.4,100.4600,M,37.55,M,4,0000*52
[2021-02-22 16:33:47.304] $GPGGA,073346.90,3713.9777732,N,13701.5598261,E,5,05,8.4,100.4713,M,37.55,M,4,0000*53
[2021-02-22 16:33:47.414] $GPGGA,073347.00,3713.9777778,N,13701.5598340,E,5,05,8.4,100.4763,M,37.55,M,5,0000*51
[2021-02-22 16:33:47.507] $GPGGA,073347.10,3713.9777829,N,13701.5598452,E,5,05,8.4,100.4783,M,37.55,M,5,0000*51
[2021-02-22 16:33:47.601] $GPGGA,073347.20,3713.9777844,N,13701.5598449,E,5,05,8.4,100.4767,M,37.55,M,5,0000*59
[2021-02-22 16:33:47.679] $GPGGA,073347.30,3713.9777850,N,13701.5598429,E,5,05,8.4,100.4731,M,37.55,M,5,0000*58
[2021-02-22 16:33:47.804] $GPGGA,073347.40,3713.9777879,N,13701.5598315,E,5,05,8.4,100.4607,M,37.55,M,5,0000*58
[2021-02-22 16:33:47.882] $GPGGA,073347.50,3713.9777887,N,13701.5598086,E,5,05,8.4,100.4423,M,37.55,M,5,0000*55
[2021-02-22 16:33:48.007] $GPGGA,073347.60,3713.9777905,N,13701.5597926,E,5,05,8.4,100.4269,M,37.55,M,5,0000*59
[2021-02-22 16:33:48.086] $GPGGA,073347.70,3713.9777921,N,13701.5597762,E,5,05,8.4,100.4115,M,37.55,M,5,0000*58
[2021-02-22 16:33:48.211] $GPGGA,073347.80,3713.9777925,N,13701.5597546,E,5,05,8.4,100.3951,M,37.55,M,5,0000*58
[2021-02-22 16:33:48.289] $GPGGA,073347.90,3713.9777919,N,13701.5597361,E,5,05,8.4,100.3822,M,37.55,M,5,0000*50
[2021-02-22 16:33:48.414] $GPGGA,073348.00,3713.9777946,N,13701.5597142,E,5,05,8.4,100.3661,M,37.55,M,6,0000*55
[2021-02-22 16:33:48.507] $GPGGA,073348.10,3713.9777962,N,13701.5596957,E,5,05,8.4,100.3521,M,37.55,M,6,0000*58
[2021-02-22 16:33:48.601] $GPGGA,073348.20,3713.9777988,N,13701.5596875,E,5,05,8.4,100.3415,M,37.55,M,1,0000*5F
[2021-02-22 16:33:48.679] $GPGGA,073348.30,3713.9778023,N,13701.5596727,E,5,05,8.4,100.3273,M,37.55,M,1,0000*57
[2021-02-22 16:33:48.804] $GPGGA,073348.40,3713.9778066,N,13701.5596668,E,5,05,8.4,100.3189,M,37.55,M,1,0000*5D
[2021-02-22 16:33:48.882] $GPGGA,073348.50,3713.9778114,N,13701.5596655,E,5,05,8.4,100.3117,M,37.55,M,1,0000*51
[2021-02-22 16:33:49.007] $GPGGA,073348.60,3713.9778168,N,13701.5596587,E,5,05,8.4,100.3028,M,37.55,M,1,0000*58
[2021-02-22 16:33:49.101] $GPGGA,073348.70,3713.9800310,N,13701.5562114,E,5,06,4.3,109.4908,M,37.55,M,1,0000*5C
[2021-02-22 16:33:49.195] $GPGGA,073348.80,3713.9806209,N,13701.5552855,E,5,06,4.3,111.9352,M,37.55,M,1,0000*52
[2021-02-22 16:33:49.304] $GPGGA,073348.90,3713.9810193,N,13701.5546667,E,5,06,4.3,113.5789,M,37.55,M,1,0000*52
[2021-02-22 16:33:49.382] $GPGGA,073349.00,3713.9814033,N,13701.5540788,E,5,06,4.3,115.1589,M,37.55,M,2,0000*50
[2021-02-22 16:33:49.492] $GPGGA,073349.10,3713.9817477,N,13701.5535640,E,5,06,4.3,116.5815,M,37.55,M,2,0000*5E
[2021-02-22 16:33:49.585] $GPGGA,073349.20,3713.9819939,N,13701.5531964,E,5,06,4.3,117.5965,M,37.55,M,2,0000*5E
[2021-02-22 16:33:49.710] $GPGGA,073349.30,3713.9822353,N,13701.5528509,E,5,06,4.3,118.5853,M,37.55,M,2,0000*55
[2021-02-22 16:33:49.789] $GPGGA,073349.40,3713.9824253,N,13701.5525911,E,5,06,4.3,119.3526,M,37.55,M,2,0000*55
[2021-02-22 16:33:49.914] $GPGGA,073349.50,3713.9825627,N,13701.5524129,E,5,06,4.3,119.8973,M,37.55,M,2,0000*57
[2021-02-22 16:33:49.992] $GPGGA,073349.60,3713.9826376,N,13701.5523299,E,5,06,4.3,120.1858,M,37.55,M,2,0000*52
[2021-02-22 16:33:50.101] $GPGGA,073349.70,3713.9825947,N,13701.5524251,E,5,06,4.3,119.9898,M,37.55,M,2,0000*55
[2021-02-22 16:33:50.195] $GPGGA,073349.80,3713.9824994,N,13701.5525976,E,5,06,4.3,119.5862,M,37.55,M,2,0000*53
[2021-02-22 16:33:50.304] $GPGGA,073349.90,3713.9823898,N,13701.5527883,E,5,06,4.3,119.1063,M,37.55,M,2,0000*5C
[2021-02-22 16:33:50.382] $GPGGA,073350.00,3713.9822608,N,13701.5530078,E,5,06,4.3,118.5470,M,37.55,M,3,0000*53
[2021-02-22 16:33:50.492] $GPGGA,073350.10,3713.9821316,N,13701.5532091,E,5,06,4.3,118.0037,M,37.55,M,3,0000*5C
[2021-02-22 16:33:50.601] $GPGGA,073350.20,3713.9819901,N,13701.5534219,E,5,06,4.3,117.4109,M,37.55,M,3,0000*5B
[2021-02-22 16:33:50.710] $GPGGA,073350.30,3713.9818560,N,13701.5536303,E,5,06,4.3,116.8405,M,37.55,M,3,0000*5C
[2021-02-22 16:33:50.788] $GPGGA,073350.40,3713.9817114,N,13701.5538607,E,5,06,4.3,116.2103,M,37.55,M,3,0000*55
[2021-02-22 16:33:50.898] $GPGGA,073350.50,3713.9815658,N,13701.5540845,E,5,06,4.3,115.5831,M,37.55,M,3,0000*52
[2021-02-22 16:33:51.007] $GPGGA,073350.60,3713.9814196,N,13701.5543038,E,5,06,4.3,114.9500,M,37.55,M,3,0000*56
[2021-02-22 16:33:51.085] $GPGGA,073350.70,3713.9812710,N,13701.5545113,E,5,06,4.3,114.3226,M,37.55,M,3,0000*5E
[2021-02-22 16:33:51.210] $GPGGA,073350.80,3713.9811123,N,13701.5547352,E,5,06,4.3,113.6594,M,37.55,M,3,0000*5D
[2021-02-22 16:33:51.288] $GPGGA,073350.90,3713.9809602,N,13701.5549523,E,5,06,4.3,113.0263,M,37.55,M,3,0000*56
[2021-02-22 16:33:51.413] $GPGGA,073351.00,3713.9808021,N,13701.5551836,E,5,06,4.3,112.3579,M,37.55,M,4,0000*51
[2021-02-22 16:33:51.507] $GPGGA,073351.10,3713.9806572,N,13701.5554039,E,5,06,4.3,111.7561,M,37.55,M,4,0000*51
[2021-02-22 16:33:51.601] $GPGGA,073351.20,3713.9805215,N,13701.5556051,E,5,06,4.3,111.2011,M,37.55,M,4,0000*5C
[2021-02-22 16:33:51.695] $GPGGA,073351.30,3713.9803727,N,13701.5558192,E,5,06,4.3,110.5991,M,37.55,M,4,0000*58
[2021-02-22 16:33:51.804] $GPGGA,073351.40,3713.9802367,N,13701.5560124,E,5,06,4.3,110.0487,M,37.55,M,4,0000*57
[2021-02-22 16:33:51.882] $GPGGA,073351.50,3713.9801215,N,13701.5561663,E,5,06,4.3,109.5881,M,37.55,M,4,0000*53
[2021-02-22 16:33:52.007] $GPGGA,073351.60,3713.9800182,N,13701.5562968,E,5,06,4.3,109.1699,M,37.55,M,4,0000*58
[2021-02-22 16:33:52.085] $GPGGA,073351.70,3713.9799158,N,13701.5564386,E,5,06,4.3,108.7292,M,37.55,M,4,0000*55
[2021-02-22 16:33:52.210] $GPGGA,073351.80,3713.9798183,N,13701.5565585,E,5,06,4.3,108.3113,M,37.55,M,4,0000*57
[2021-02-22 16:33:52.288] $GPGGA,073351.90,3713.9797199,N,13701.5566888,E,5,06,4.3,107.8781,M,37.55,M,4,0000*58
[2021-02-22 16:33:52.413] $GPGGA,073352.00,3713.9796238,N,13701.5568174,E,5,06,4.3,107.4596,M,37.55,M,5,0000*56
[2021-02-22 16:33:52.507] $GPGGA,073352.10,3713.9795230,N,13701.5569452,E,5,06,4.3,107.0352,M,37.55,M,5,0000*56
[2021-02-22 16:33:52.601] $GPGGA,073352.20,3713.9794516,N,13701.5570346,E,5,06,4.3,106.7299,M,37.55,M,5,0000*5D
[2021-02-22 16:33:52.710] $GPGGA,073352.30,3713.9794024,N,13701.5571007,E,5,06,4.3,106.5164,M,37.55,M,5,0000*5C
[2021-02-22 16:33:52.788] $GPGGA,073352.40,3713.9793605,N,13701.5571510,E,5,06,4.3,106.3405,M,37.55,M,5,0000*5E
[2021-02-22 16:33:52.913] $GPGGA,073352.50,3713.9793289,N,13701.5571805,E,5,06,4.3,106.2066,M,37.55,M,5,0000*56
[2021-02-22 16:33:52.991] $GPGGA,073352.60,3713.9792975,N,13701.5572075,E,5,06,4.3,106.0711,M,37.55,M,5,0000*55
[2021-02-22 16:33:53.101] $GPGGA,073352.70,3713.9792646,N,13701.5572360,E,5,06,4.3,105.9397,M,37.55,M,5,0000*5C
[2021-02-22 16:33:53.194] $GPGGA,073352.80,3713.9792274,N,13701.5572753,E,5,06,4.3,105.7839,M,37.55,M,5,0000*53
[2021-02-22 16:33:53.304] $GPGGA,073352.90,3713.9791906,N,13701.5573113,E,5,06,4.3,105.6453,M,37.55,M,5,0000*5D
[2021-02-22 16:33:53.382] $GPGGA,073353.00,3713.9791635,N,13701.5573340,E,5,06,4.3,105.5400,M,37.55,M,6,0000*58
[2021-02-22 16:33:53.491] $GPGGA,073353.10,3713.9791344,N,13701.5573566,E,5,06,4.3,105.4388,M,37.55,M,6,0000*5E
[2021-02-22 16:33:53.585] $GPGGA,073353.20,3713.9790901,N,13701.5573961,E,5,06,4.3,105.3182,M,37.55,M,1,0000*54
[2021-02-22 16:33:53.710] $GPGGA,073353.30,3713.9790700,N,13701.5574171,E,5,06,4.3,105.2745,M,37.55,M,1,0000*58
[2021-02-22 16:33:53.788] $GPGGA,073353.40,3713.9790429,N,13701.5574467,E,5,06,4.3,105.1940,M,37.55,M,1,0000*5D
[2021-02-22 16:33:53.913] $GPGGA,073353.50,3713.9790122,N,13701.5574785,E,5,06,4.3,105.0988,M,37.55,M,1,0000*58
[2021-02-22 16:33:53.991] $GPGGA,073353.60,3713.9789722,N,13701.5575240,E,5,06,4.3,104.9639,M,37.55,M,1,0000*55
[2021-02-22 16:33:54.101] $GPGGA,073353.70,3713.9789353,N,13701.5575677,E,5,06,4.3,104.8343,M,37.55,M,1,0000*5F
[2021-02-22 16:33:54.179] $GPGGA,073353.80,3713.9788959,N,13701.5576102,E,5,06,4.3,104.6950,M,37.55,M,1,0000*51
[2021-02-22 16:33:54.304] $GPGGA,073353.90,3713.9788578,N,13701.5576550,E,5,06,4.3,104.5579,M,37.55,M,1,0000*58
[2021-02-22 16:33:54.413] $GPGGA,073354.00,3713.9788108,N,13701.5577062,E,5,06,4.3,104.3820,M,37.55,M,2,0000*54
[2021-02-22 16:33:54.507] $GPGGA,073354.10,3713.9787668,N,13701.5577518,E,5,06,4.3,104.2234,M,37.55,M,2,0000*5D
[2021-02-22 16:33:54.601] $GPGGA,073354.20,3713.9787180,N,13701.5578085,E,5,06,4.3,104.0467,M,37.55,M,2,0000*53
[2021-02-22 16:33:54.694] $GPGGA,073354.30,3713.9786626,N,13701.5578704,E,5,06,4.3,103.8391,M,37.55,M,2,0000*57
[2021-02-22 16:33:54.804] $GPGGA,073354.40,3713.9785984,N,13701.5579453,E,5,06,4.3,103.5929,M,37.55,M,2,0000*50
[2021-02-22 16:33:54.882] $GPGGA,073354.50,3713.9785320,N,13701.5580236,E,5,06,4.3,103.3365,M,37.55,M,2,0000*52
[2021-02-22 16:33:55.007] $GPGGA,073354.60,3713.9784695,N,13701.5581095,E,5,06,4.3,103.0945,M,37.55,M,2,0000*5A
[2021-02-22 16:33:55.085] $GPGGA,073354.70,3713.9784151,N,13701.5581861,E,5,06,4.3,102.8972,M,37.55,M,2,0000*5A
[2021-02-22 16:33:55.210] $GPGGA,073354.80,3713.9783532,N,13701.5582703,E,5,06,4.3,102.6738,M,37.55,M,2,0000*55
[2021-02-22 16:33:55.288] $GPGGA,073354.90,3713.9782943,N,13701.5583567,E,5,06,4.3,102.4582,M,37.55,M,2,0000*5F
[2021-02-22 16:33:55.413] $GPGGA,073355.00,3713.9782446,N,13701.5584234,E,5,06,4.3,102.2810,M,37.55,M,3,0000*58
[2021-02-22 16:33:55.507] $GPGGA,073355.10,3713.9782019,N,13701.5584892,E,5,06,4.3,102.1336,M,37.55,M,3,0000*5D
[2021-02-22 16:33:55.601] $GPGGA,073355.20,3713.9781661,N,13701.5585474,E,5,06,4.3,102.0076,M,37.55,M,3,0000*57
[2021-02-22 16:33:55.679] $GPGGA,073355.30,3713.9781316,N,13701.5586033,E,5,06,4.3,101.8968,M,37.55,M,3,0000*5A
[2021-02-22 16:33:55.804] $GPGGA,073355.40,3713.9781048,N,13701.5586431,E,5,06,4.3,101.8175,M,37.55,M,3,0000*57
[2021-02-22 16:33:55.882] $GPGGA,073355.50,3713.9780769,N,13701.5586870,E,5,06,4.3,101.7271,M,37.55,M,3,0000*52
[2021-02-22 16:33:56.007] $GPGGA,073355.60,3713.9780691,N,13701.5587178,E,5,06,4.3,101.6995,M,37.55,M,3,0000*57
[2021-02-22 16:33:56.085] $GPGGA,073355.70,3713.9780679,N,13701.5587366,E,5,06,4.3,101.7034,M,37.55,M,3,0000*5E
[2021-02-22 16:33:56.210] $GPGGA,073355.80,3713.9780875,N,13701.5587280,E,5,06,4.3,101.7902,M,37.55,M,3,0000*56
[2021-02-22 16:33:56.304] $GPGGA,073355.90,3713.9781214,N,13701.5586909,E,5,06,4.3,101.9456,M,37.55,M,3,0000*52
[2021-02-22 16:33:56.382] $GPGGA,073356.00,3713.9781583,N,13701.5586581,E,5,06,4.3,102.0981,M,37.55,M,4,0000*57
[2021-02-22 16:33:56.491] $GPGGA,073356.10,3713.9781894,N,13701.5586231,E,5,06,4.3,102.2401,M,37.55,M,4,0000*56
[2021-02-22 16:33:56.601] $GPGGA,073356.20,3713.9782123,N,13701.5585832,E,5,06,4.3,102.3612,M,37.55,M,4,0000*58
[2021-02-22 16:33:56.710] $GPGGA,073356.30,3713.9782386,N,13701.5585446,E,5,06,4.3,102.4863,M,37.55,M,4,0000*54
[2021-02-22 16:33:56.788] $GPGGA,073356.40,3713.9782663,N,13701.5585022,E,5,06,4.3,102.6233,M,37.55,M,4,0000*56
[2021-02-22 16:33:56.913] $GPGGA,073356.50,3713.9782856,N,13701.5584608,E,5,06,4.3,102.7344,M,37.55,M,4,0000*50
[2021-02-22 16:33:56.991] $GPGGA,073356.60,3713.9783040,N,13701.5584234,E,5,06,4.3,102.8353,M,37.55,M,4,0000*5F
[2021-02-22 16:33:57.100] $GPGGA,073356.70,3713.9783294,N,13701.5583786,E,5,06,4.3,102.9562,M,37.55,M,4,0000*5B
[2021-02-22 16:33:57.194] $GPGGA,073356.80,3713.9783420,N,13701.5583443,E,5,06,4.3,103.0190,M,37.55,M,4,0000*56
[2021-02-22 16:33:57.304] $GPGGA,073356.90,3713.9783609,N,13701.5582990,E,5,06,4.4,103.1052,M,37.55,M,4,0000*55
[2021-02-22 16:33:57.382] $GPGGA,073357.00,3713.9783793,N,13701.5582506,E,5,06,4.4,103.1869,M,37.55,M,5,0000*5D
[2021-02-22 16:33:57.491] $GPGGA,073357.10,3713.9783903,N,13701.5582105,E,5,06,4.4,103.2452,M,37.55,M,5,0000*5B
[2021-02-22 16:33:57.600] $GPGGA,073357.20,3713.9783876,N,13701.5581507,E,5,06,4.4,103.3234,M,37.55,M,5,0000*59
[2021-02-22 16:33:57.710] $GPGGA,073357.30,3713.9783912,N,13701.5581012,E,5,06,4.4,103.3988,M,37.55,M,5,0000*56
[2021-02-22 16:33:57.788] $GPGGA,073357.40,3713.9784068,N,13701.5580535,E,5,06,4.4,103.5007,M,37.55,M,5,0000*5B
[2021-02-22 16:33:57.913] $GPGGA,073357.50,3713.9784303,N,13701.5580040,E,5,06,4.4,103.6154,M,37.55,M,5,0000*57
[2021-02-22 16:33:58.007] $GPGGA,073357.60,3713.9784578,N,13701.5579593,E,5,06,4.4,103.7452,M,37.55,M,5,0000*51
[2021-02-22 16:33:58.100] $GPGGA,073357.70,3713.9784825,N,13701.5579204,E,5,06,4.4,103.8645,M,37.55,M,5,0000*57
[2021-02-22 16:33:58.210] $GPGGA,073357.80,3713.9785078,N,13701.5578826,E,5,06,4.4,103.9822,M,37.55,M,5,0000*5C
[2021-02-22 16:33:58.288] $GPGGA,073357.90,3713.9785304,N,13701.5578554,E,5,06,4.4,104.0809,M,37.55,M,5,0000*5A
[2021-02-22 16:33:58.413] $GPGGA,073358.00,3713.9785474,N,13701.5578341,E,5,06,4.4,104.1560,M,37.55,M,6,0000*5E
[2021-02-22 16:33:58.507] $GPGGA,073358.10,3713.9785586,N,13701.5578249,E,5,06,4.4,104.2066,M,37.55,M,6,0000*5A
[2021-02-22 16:33:58.616] $GPGGA,073358.20,3713.9785683,N,13701.5578147,E,5,06,4.4,104.2688,M,37.55,M,1,0000*53
[2021-02-22 16:33:58.694] $GPGGA,073358.30,3713.9785715,N,13701.5578080,E,5,06,4.4,104.3170,M,37.55,M,1,0000*57
[2021-02-22 16:33:58.803] $GPGGA,073358.40,3713.9785768,N,13701.5578026,E,5,06,4.4,104.3614,M,37.55,M,1,0000*53
[2021-02-22 16:33:58.882] $GPGGA,073358.50,3713.9785846,N,13701.5577989,E,5,06,4.4,104.4104,M,37.55,M,1,0000*53
[2021-02-22 16:33:59.007] $GPGGA,073358.60,3713.9785938,N,13701.5577926,E,5,06,4.4,104.4609,M,37.55,M,1,0000*57
[2021-02-22 16:33:59.085] $GPGGA,073358.70,3713.9785992,N,13701.5577837,E,5,06,4.4,104.5048,M,37.55,M,1,0000*55
[2021-02-22 16:33:59.210] $GPGGA,073358.80,3713.9786065,N,13701.5577760,E,5,06,4.4,104.5501,M,37.55,M,1,0000*5D
[2021-02-22 16:33:59.288] $GPGGA,073358.90,3713.9786247,N,13701.5577607,E,5,06,4.4,104.6361,M,37.55,M,1,0000*5D
[2021-02-22 16:33:59.413] $GPGGA,073359.00,3713.9786349,N,13701.5577524,E,5,06,4.4,104.6864,M,37.55,M,2,0000*55
[2021-02-22 16:33:59.491] $GPGGA,073359.10,3713.9786473,N,13701.5577327,E,5,06,4.4,104.7581,M,37.55,M,2,0000*58
[2021-02-22 16:33:59.600] $GPGGA,073359.20,3713.9786757,N,13701.5576954,E,5,06,4.4,104.8863,M,37.55,M,2,0000*5F
[2021-02-22 16:33:59.678] $GPGGA,073359.30,3713.9787092,N,13701.5576418,E,5,06,4.4,105.0457,M,37.55,M,2,0000*56
[2021-02-22 16:33:59.803] $GPGGA,073359.40,3713.9787452,N,13701.5575857,E,5,06,4.4,105.2135,M,37.55,M,2,0000*5E
[2021-02-22 16:33:59.913] $GPGGA,073359.50,3713.9787920,N,13701.5575163,E,5,06,4.4,105.4252,M,37.55,M,2,0000*5D
[2021-02-22 16:33:59.991] $GPGGA,073359.60,3713.9788362,N,13701.5574538,E,5,06,4.4,105.6212,M,37.55,M,2,0000*50
[2021-02-22 16:34:00.100] $GPGGA,073359.70,3713.9788785,N,13701.5573983,E,5,06,4.4,105.8111,M,37.55,M,2,0000*59
[2021-02-22 16:34:00.194] $GPGGA,073359.80,3713.9789233,N,13701.5573347,E,5,06,4.4,106.0147,M,37.55,M,2,0000*55
[2021-02-22 16:34:00.303] $GPGGA,073359.90,3713.9789625,N,13701.5572712,E,5,06,4.4,106.2033,M,37.55,M,2,0000*52
[2021-02-22 16:34:00.382] $GPGGA,073400.00,3713.9790032,N,13701.5572069,E,5,06,4.4,106.3839,M,37.55,M,3,0000*51
[2021-02-22 16:34:00.491] $GPGGA,073400.10,3713.9790371,N,13701.5571593,E,5,06,4.4,106.5313,M,37.55,M,3,0000*52
[2021-02-22 16:34:00.600] $GPGGA,073400.20,3713.9790712,N,13701.5571176,E,5,06,4.4,106.6715,M,37.55,M,3,0000*5E
[2021-02-22 16:34:00.710] $GPGGA,073400.30,3713.9790995,N,13701.5570945,E,5,06,4.4,106.7781,M,37.55,M,3,0000*5B
[2021-02-22 16:34:00.788] $GPGGA,073400.40,3713.9791284,N,13701.5570784,E,5,06,4.4,106.8753,M,37.55,M,3,0000*55
[2021-02-22 16:34:00.913] $GPGGA,073400.50,3713.9791511,N,13701.5570679,E,5,06,4.4,106.9522,M,37.55,M,3,0000*59
[2021-02-22 16:34:00.991] $GPGGA,073400.60,3713.9791768,N,13701.5570592,E,5,06,4.4,107.0415,M,37.55,M,3,0000*5D
[2021-02-22 16:34:01.100] $GPGGA,073400.70,3713.9791940,N,13701.5570530,E,5,06,4.4,107.1110,M,37.55,M,3,0000*51
[2021-02-22 16:34:01.194] $GPGGA,073400.80,3713.9792104,N,13701.5570472,E,5,06,4.4,107.1821,M,37.55,M,3,0000*59
[2021-02-22 16:34:01.303] $GPGGA,073400.90,3713.9792250,N,13701.5570414,E,5,06,4.4,107.2464,M,37.55,M,3,0000*54
[2021-02-22 16:34:01.381] $GPGGA,073401.00,3713.9792385,N,13701.5570378,E,5,06,4.4,107.2981,M,37.55,M,4,0000*59
[2021-02-22 16:34:01.491] $GPGGA,073401.10,3713.9759970,N,13701.5585961,E,5,07,1.7,95.8460,M,37.55,M,4,0000*62
[2021-02-22 16:34:01.616] $GPGGA,073401.20,3713.9754168,N,13701.5588788,E,5,07,1.7,93.7944,M,37.55,M,4,0000*6B
[2021-02-22 16:34:01.694] $GPGGA,073401.30,3713.9751104,N,13701.5590249,E,5,07,1.7,92.7115,M,37.55,M,4,0000*69
[2021-02-22 16:34:01.803] $GPGGA,073401.40,3713.9749548,N,13701.5590849,E,5,07,1.7,92.1658,M,37.55,M,4,0000*69
[2021-02-22 16:34:01.881] $GPGGA,073401.50,3713.9748465,N,13701.5591385,E,5,07,1.7,91.7757,M,37.55,M,4,0000*66
[2021-02-22 16:34:02.022] $GPGGA,073401.60,3713.9747852,N,13701.5591773,E,5,07,1.7,91.5478,M,37.55,M,4,0000*63
[2021-02-22 16:34:02.085] $GPGGA,073401.70,3713.9747462,N,13701.5592038,E,5,07,1.7,91.4013,M,37.55,M,4,0000*6E
[2021-02-22 16:34:02.210] $GPGGA,073401.80,3713.9747186,N,13701.5592140,E,5,07,1.7,91.2959,M,37.55,M,4,0000*61
[2021-02-22 16:34:02.288] $GPGGA,073401.90,3713.9746836,N,13701.5592296,E,5,07,1.7,91.1694,M,37.55,M,4,0000*66
[2021-02-22 16:34:02.413] $GPGGA,073402.00,3713.9746730,N,13701.5592298,E,5,07,1.7,91.1351,M,37.55,M,5,0000*66
[2021-02-22 16:34:02.506] $GPGGA,073402.10,3713.9746723,N,13701.5592298,E,5,07,1.7,91.1353,M,37.55,M,5,0000*67
[2021-02-22 16:34:02.616] $GPGGA,073402.20,3713.9746759,N,13701.5592224,E,5,07,1.7,91.1567,M,37.55,M,5,0000*6F
[2021-02-22 16:34:02.694] $GPGGA,073402.30,3713.9746833,N,13701.5592131,E,5,07,1.7,91.1893,M,37.55,M,5,0000*6C
[2021-02-22 16:34:02.803] $GPGGA,073402.40,3713.9746694,N,13701.5592175,E,5,07,1.7,91.1411,M,37.55,M,5,0000*6E
[2021-02-22 16:34:02.881] $GPGGA,073402.50,3713.9746642,N,13701.5592251,E,5,07,1.7,91.1254,M,37.55,M,5,0000*66
[2021-02-22 16:34:03.006] $GPGGA,073402.60,3713.9746468,N,13701.5592454,E,5,07,1.7,91.0639,M,37.55,M,5,0000*62
[2021-02-22 16:34:03.084] $GPGGA,073402.70,3713.9746200,N,13701.5592766,E,5,07,1.7,90.9669,M,37.55,M,5,0000*64
[2021-02-22 16:34:03.209] $GPGGA,073402.80,3713.9745951,N,13701.5592925,E,5,07,1.7,90.8900,M,37.55,M,5,0000*6F
[2021-02-22 16:34:03.288] $GPGGA,073402.90,3713.9745667,N,13701.5593110,E,5,07,1.7,90.7995,M,37.55,M,5,0000*68
[2021-02-22 16:34:03.413] $GPGGA,073403.00,3713.9745548,N,13701.5593197,E,5,07,1.7,90.7637,M,37.55,M,6,0000*65
