
[2021-02-22 16:39:00.861] $GPGGA,,,,,,,,,,M,,M,,*56
[2021-02-22 16:39:00.877] $GPGGA,,,,,,,,,,M,,M,,*56
[2021-02-22 16:39:00.877] $GPGGA,,,,,,,,,,M,,M,,*56
[2021-02-22 16:39:00.877] $GPGGA,,,,,,,,,,M,,M,,*56
[2021-02-22 16:39:00.877] $GPGGA,073844.80,3713.99216628,N,13701.62564531,E,2,03,31.5,96.443,M,36.771,M,1.8,0196*41
[2021-02-22 16:39:00.877] $GPGGA,073845.00,3713.99257150,N,13701.62700550,E,2,03,31.5,100.956,M,36.771,M,2.0,0196*7E
[2021-02-22 16:39:00.877] $GPGGA,073845.10,3713.99257859,N,13701.62702456,E,2,03,31.5,100.956,M,36.771,M,1.1,0196*78
[2021-02-22 16:39:00.877] $GPGGA,073845.20,3713.99186393,N,13701.62433812,E,2,03,31.5,100.949,M,36.771,M,1.2,0196*79
[2021-02-22 16:39:00.877] $GPGGA,073845.30,3713.99185354,N,13701.62430799,E,2,03,31.5,100.949,M,36.771,M,1.3,0196*7E
[2021-02-22 16:39:00.877] $GNGGA,073845.40,3713.97292057,N,13701.55831531,E,1,05,2.6,98.453,M,36.771,M,,*47
[2021-02-22 16:39:00.877] $GNGGA,073845.50,3713.97292093,N,13701.55831705,E,1,05,2.6,98.447,M,36.771,M,,*4E
[2021-02-22 16:39:00.877] $GNGGA,073845.60,3713.97290147,N,13701.55826978,E,1,05,2.6,98.694,M,36.771,M,,*49
[2021-02-22 16:39:00.877] $GNGGA,073845.70,3713.97290087,N,13701.55826834,E,1,05,2.6,98.695,M,36.771,M,,*4D
[2021-02-22 16:39:00.877] $GNGGA,073845.80,3713.97289360,N,13701.55818745,E,1,05,2.6,98.913,M,36.771,M,,*45
[2021-02-22 16:39:00.877] $GNGGA,073845.90,3713.97289376,N,13701.55818637,E,1,05,2.6,98.912,M,36.771,M,,*46
[2021-02-22 16:39:00.892] $GNGGA,073846.00,3713.97288868,N,13701.55805353,E,1,05,2.6,99.041,M,36.771,M,,*4C
[2021-02-22 16:39:00.892] $GNGGA,073846.10,3713.97288734,N,13701.55805339,E,1,05,2.6,99.037,M,36.771,M,,*46
[2021-02-22 16:39:00.892] $GNGGA,073846.20,3713.97288686,N,13701.55793683,E,1,05,2.6,99.104,M,36.771,M,,*48
[2021-02-22 16:39:00.892] $GNGGA,073846.30,3713.97288483,N,13701.55793735,E,1,05,2.6,99.111,M,36.771,M,,*46
[2021-02-22 16:39:00.892] $GNGGA,073846.40,3713.97289514,N,13701.55785671,E,1,05,2.6,99.118,M,36.771,M,,*40
[2021-02-22 16:39:00.892] $GNGGA,073846.50,3713.97289589,N,13701.55786275,E,1,05,2.6,99.110,M,36.771,M,,*4E
[2021-02-22 16:39:00.892] $GNGGA,073846.60,3713.97292029,N,13701.55782508,E,1,05,2.6,99.069,M,36.771,M,,*4E
[2021-02-22 16:39:00.892] $GNGGA,073846.70,3713.97292244,N,13701.55782606,E,1,05,2.6,99.061,M,36.771,M,,*43
[2021-02-22 16:39:00.892] $GNGGA,073846.80,3713.97295390,N,13701.55780709,E,1,05,2.6,98.984,M,36.771,M,,*4C
[2021-02-22 16:39:00.892] $GNGGA,073846.90,3713.97295329,N,13701.55780875,E,1,05,2.6,98.990,M,36.771,M,,*4E
[2021-02-22 16:39:00.892] $GNGGA,073847.00,3713.97298734,N,13701.55780966,E,1,05,2.6,98.885,M,36.771,M,,*45
[2021-02-22 16:39:00.892] $GNGGA,073847.10,3713.97298659,N,13701.55780970,E,1,05,2.6,98.881,M,36.771,M,,*4D
[2021-02-22 16:39:00.923] $GNGGA,073847.20,3713.97301947,N,13701.55782489,E,1,05,2.6,98.746,M,36.771,M,,*42
[2021-02-22 16:39:00.923] $GNGGA,073847.30,3713.97301747,N,13701.55782339,E,1,05,2.6,98.752,M,36.771,M,,*44
[2021-02-22 16:39:00.923] $GNGGA,073847.40,3713.97387427,N,13701.55909281,E,2,05,1.6,94.862,M,36.771,M,1.4,0196*62
[2021-02-22 16:39:00.923] $GNGGA,073847.50,3713.97387588,N,13701.55909448,E,2,04,1.6,94.857,M,36.771,M,1.5,0196*62
[2021-02-22 16:39:00.923] $GNGGA,073847.60,3713.97399476,N,13701.55924445,E,2,05,1.6,94.345,M,36.771,M,1.6,0196*66
[2021-02-22 16:39:00.923] $GNGGA,073847.70,3713.97399479,N,13701.55924291,E,2,05,1.6,94.345,M,36.771,M,1.7,0196*66
[2021-02-22 16:39:00.923] $GNGGA,073847.80,3713.97406128,N,13701.55937714,E,2,05,1.6,94.084,M,36.771,M,1.8,0196*62
[2021-02-22 16:39:00.923] $GNGGA,073847.90,3713.97406026,N,13701.55937771,E,2,05,1.6,94.081,M,36.771,M,1.9,0196*6B
[2021-02-22 16:39:00.923] $GNGGA,073848.00,3713.97410546,N,13701.55949019,E,2,05,1.6,93.952,M,36.771,M,2.0,0196*63
[2021-02-22 16:39:00.923] $GNGGA,073848.10,3713.97409492,N,13701.55950151,E,2,05,1.6,93.926,M,36.771,M,1.1,0196*66
[2021-02-22 16:39:00.923] $GNGGA,073848.20,3713.97409180,N,13701.55948663,E,2,05,1.6,93.891,M,36.771,M,1.2,0196*62
[2021-02-22 16:39:00.923] $GNGGA,073848.30,3713.97408965,N,13701.55948797,E,2,05,1.6,93.867,M,36.771,M,1.3,0196*63
[2021-02-22 16:39:00.939] $GNGGA,073848.40,3713.97408701,N,13701.55947950,E,1,05,2.6,93.849,M,36.771,M,,*4C
[2021-02-22 16:39:00.939] $GNGGA,073848.50,3713.97408243,N,13701.55947542,E,1,04,2.6,93.836,M,36.771,M,,*48
[2021-02-22 16:39:00.939] $GNGGA,073848.60,3713.97407668,N,13701.55946853,E,1,05,2.6,93.822,M,36.771,M,,*41
[2021-02-22 16:39:00.939] $GNGGA,073848.70,3713.97406698,N,13701.55946441,E,1,05,2.6,93.798,M,36.771,M,,*4F
[2021-02-22 16:39:00.939] $GNGGA,073848.80,3713.97405640,N,13701.55946094,E,1,05,2.6,93.768,M,36.771,M,,*45
[2021-02-22 16:39:00.939] $GNGGA,073848.90,3713.97404518,N,13701.55945815,E,1,05,2.6,93.738,M,36.771,M,,*4C
[2021-02-22 16:39:00.939] $GNGGA,073849.00,3713.97403270,N,13701.55945941,E,1,06,1.5,93.710,M,36.771,M,,*43
[2021-02-22 16:39:00.939] $GNGGA,073849.10,3713.97402097,N,13701.55945513,E,1,05,1.5,93.678,M,36.771,M,,*4F
[2021-02-22 16:39:00.939] $GNGGA,073849.20,3713.97400804,N,13701.55945205,E,1,05,2.6,93.643,M,36.771,M,,*44
[2021-02-22 16:39:00.939] $GNGGA,073849.30,3713.97399541,N,13701.55944520,E,1,05,2.6,93.610,M,36.771,M,,*49
[2021-02-22 16:39:00.939] $GNGGA,073849.40,3713.97398186,N,13701.55943758,E,1,05,2.6,93.576,M,36.771,M,,*49
[2021-02-22 16:39:00.939] $GNGGA,073849.50,3713.97396636,N,13701.55942895,E,1,05,2.6,93.544,M,36.771,M,,*44
[2021-02-22 16:39:00.955] $GNGGA,073849.60,3713.97395007,N,13701.55941875,E,1,04,3.2,93.512,M,36.771,M,,*4A
[2021-02-22 16:39:00.955] $GNGGA,073849.70,3713.97393282,N,13701.55940771,E,1,02,3.2,93.507,M,36.771,M,,*4A
[2021-02-22 16:39:00.955] $GNGGA,073849.80,3713.97391576,N,13701.55939613,E,1,02,3.8,93.479,M,36.771,M,,*42
[2021-02-22 16:39:00.955] $GPGGA,,,,,,,,,,M,,M,,*56
[2021-02-22 16:39:00.955] $GPGGA,,,,,,,,,,M,,M,,*56
[2021-02-22 16:39:00.955] $GPGGA,,,,,,,,,,M,,M,,*56
[2021-02-22 16:39:00.955] $GPGGA,073850.50,3713.97379764,N,13701.55932952,E,1,01,3.8,93.218,M,36.771,M,,*5D
[2021-02-22 16:39:00.955] $GPGGA,,,,,,,,,,M,,M,,*56
[2021-02-22 16:39:00.955] $GPGGA,,,,,,,,,,M,,M,,*56
[2021-02-22 16:39:00.955] $GPGGA,,,,,,,,,,M,,M,,*56
[2021-02-22 16:39:00.955] $GPGGA,,,,,,,,,,M,,M,,*56
[2021-02-22 16:39:00.955] $GNGGA,073851.40,3713.97360889,N,13701.55918878,E,1,02,11.2,93.002,M,36.771,M,,*75
[2021-02-22 16:39:00.955] $GLGGA,073851.50,3713.97363791,N,13701.55920796,E,1,01,11.2,93.056,M,36.771,M,,*75
[2021-02-22 16:39:00.955] $GPGGA,,,,,,,,,,M,,M,,*56
[2021-02-22 16:39:00.955] $GPGGA,,,,,,,,,,M,,M,,*56
[2021-02-22 16:39:00.955] $GPGGA,,,,,,,,,,M,,M,,*56
[2021-02-22 16:39:00.955] $GPGGA,,,,,,,,,,M,,M,,*56
[2021-02-22 16:39:00.955] $GPGGA,,,,,,,,,,M,,M,,*56
[2021-02-22 16:39:00.955] $GPGGA,,,,,,,,,,M,,M,,*56
[2021-02-22 16:39:00.955] $GPGGA,,,,,,,,,,M,,M,,*56
[2021-02-22 16:39:00.955] $GPGGA,,,,,,,,,,M,,M,,*56
[2021-02-22 16:39:00.955] $GPGGA,,,,,,,,,,M,,M,,*56
[2021-02-22 16:39:00.955] $GPGGA,,,,,,,,,,M,,M,,*56
[2021-02-22 16:39:00.955] $GPGGA,,,,,,,,,,M,,M,,*56
[2021-02-22 16:39:00.955] $GPGGA,,,,,,,,,,M,,M,,*56
[2021-02-22 16:39:00.955] $GPGGA,,,,,,,,,,M,,M,,*56
[2021-02-22 16:39:00.955] $GPGGA,,,,,,,,,,M,,M,,*56
[2021-02-22 16:39:00.955] $GPGGA,,,,,,,,,,M,,M,,*56
[2021-02-22 16:39:00.955] $GPGGA,,,,,,,,,,M,,M,,*56
[2021-02-22 16:39:00.955] $GPGGA,,,,,,,,,,M,,M,,*56
[2021-02-22 16:39:00.955] $GPGGA,,,,,,,,,,M,,M,,*56
[2021-02-22 16:39:00.955] $GPGGA,,,,,,,,,,M,,M,,*56
[2021-02-22 16:39:00.955] $GPGGA,,,,,,,,,,M,,M,,*56
[2021-02-22 16:39:00.955] $GPGGA,,,,,,,,,,M,,M,,*56
[2021-02-22 16:39:00.955] $GPGGA,,,,,,,,,,M,,M,,*56
[2021-02-22 16:39:00.955] $GPGGA,,,,,,,,,,M,,M,,*56
[2021-02-22 16:39:00.955] $GPGGA,,,,,,,,,,M,,M,,*56
[2021-02-22 16:39:00.955] $GPGGA,,,,,,,,,,M,,M,,*56
[2021-02-22 16:39:00.955] $GPGGA,,,,,,,,,,M,,M,,*56
[2021-02-22 16:39:00.955] $GPGGA,,,,,,,,,,M,,M,,*56
[2021-02-22 16:39:00.955] $GPGGA,,,,,,,,,,M,,M,,*56
[2021-02-22 16:39:00.955] $GPGGA,,,,,,,,,,M,,M,,*56
[2021-02-22 16:39:00.955] $GPGGA,,,,,,,,,,M,,M,,*56
[2021-02-22 16:39:00.955] $GPGGA,,,,,,,,,,M,,M,,*56
[2021-02-22 16:39:00.955] $GPGGA,,,,,,,,,,M,,M,,*56
[2021-02-22 16:39:00.955] $GPGGA,,,,,,,,,,M,,M,,*56
[2021-02-22 16:39:00.955] $GPGGA,,,,,,,,,,M,,M,,*56
[2021-02-22 16:39:00.955] $GPGGA,,,,,,,,,,M,,M,,*56
[2021-02-22 16:39:00.955] $GPGGA,,,,,,,,,,M,,M,,*56
[2021-02-22 16:39:00.955] $GPGGA,,,,,,,,,,M,,M,,*56
[2021-02-22 16:39:00.955] $GPGGA,,,,,,,,,,M,,M,,*56
[2021-02-22 16:39:00.955] $GPGGA,,,,,,,,,,M,,M,,*56
[2021-02-22 16:39:00.955] $GPGGA,,,,,,,,,,M,,M,,*56
[2021-02-22 16:39:00.955] $GPGGA,,,,,,,,,,M,,M,,*56
[2021-02-22 16:39:00.955] $GPGGA,,,,,,,,,,M,,M,,*56
[2021-02-22 16:39:00.955] $GPGGA,,,,,,,,,,M,,M,,*56
[2021-02-22 16:39:00.955] $GPGGA,,,,,,,,,,M,,M,,*56
[2021-02-22 16:39:00.955] $GPGGA,,,,,,,,,,M,,M,,*56
[2021-02-22 16:39:00.986] $GPGGA,,,,,,,,,,M,,M,,*56
[2021-02-22 16:39:01.189] $GPGGA,,,,,,,,,,M,,M,,*56
[2021-02-22 16:39:01.392] $GPGGA,,,,,,,,,,M,,M,,*56
[2021-02-22 16:39:01.595] $GPGGA,,,,,,,,,,M,,M,,*56
[2021-02-22 16:39:01.783] $GPGGA,,,,,,,,,,M,,M,,*56
[2021-02-22 16:39:01.986] $GPGGA,,,,,,,,,,M,,M,,*56
[2021-02-22 16:39:02.189] $GPGGA,,,,,,,,,,M,,M,,*56
[2021-02-22 16:39:02.392] $GPGGA,,,,,,,,,,M,,M,,*56
[2021-02-22 16:39:02.580] $GPGGA,,,,,,,,,,M,,M,,*56
[2021-02-22 16:39:02.798] $GPGGA,,,,,,,,,,M,,M,,*56
[2021-02-22 16:39:02.986] $GPGGA,,,,,,,,,,M,,M,,*56
[2021-02-22 16:39:03.189] $GPGGA,,,,,,,,,,M,,M,,*56
[2021-02-22 16:39:03.376] $GPGGA,,,,,,,,,,M,,M,,*56
[2021-02-22 16:39:03.595] $GPGGA,,,,,,,,,,M,,M,,*56
[2021-02-22 16:39:03.783] $GPGGA,,,,,,,,,,M,,M,,*56
[2021-02-22 16:39:03.986] $GPGGA,,,,,,,,,,M,,M,,*56
[2021-02-22 16:39:04.189] $GPGGA,,,,,,,,,,M,,M,,*56
[2021-02-22 16:39:04.392] $GPGGA,,,,,,,,,,M,,M,,*56
[2021-02-22 16:39:04.580] $GPGGA,,,,,,,,,,M,,M,,*56
[2021-02-22 16:39:04.798] $GPGGA,,,,,,,,,,M,,M,,*56
[2021-02-22 16:39:04.986] $GPGGA,,,,,,,,,,M,,M,,*56
[2021-02-22 16:39:05.189] $GPGGA,,,,,,,,,,M,,M,,*56
[2021-02-22 16:39:05.392] $GPGGA,,,,,,,,,,M,,M,,*56
[2021-02-22 16:39:05.595] $GPGGA,,,,,,,,,,M,,M,,*56
[2021-02-22 16:39:05.783] $GPGGA,,,,,,,,,,M,,M,,*56
[2021-02-22 16:39:05.986] $GPGGA,,,,,,,,,,M,,M,,*56
[2021-02-22 16:39:06.189] $GPGGA,,,,,,,,,,M,,M,,*56
[2021-02-22 16:39:06.392] $GPGGA,,,,,,,,,,M,,M,,*56
[2021-02-22 16:39:06.579] $GPGGA,,,,,,,,,,M,,M,,*56
[2021-02-22 16:39:06.798] $GPGGA,,,,,,,,,,M,,M,,*56
[2021-02-22 16:39:06.986] $GPGGA,,,,,,,,,,M,,M,,*56
[2021-02-22 16:39:07.189] $GPGGA,,,,,,,,,,M,,M,,*56
[2021-02-22 16:39:07.376] $GPGGA,,,,,,,,,,M,,M,,*56
[2021-02-22 16:39:07.595] $GPGGA,,,,,,,,,,M,,M,,*56
[2021-02-22 16:39:07.782] $GPGGA,,,,,,,,,,M,,M,,*56
[2021-02-22 16:39:07.986] $GPGGA,,,,,,,,,,M,,M,,*56
[2021-02-22 16:39:08.189] $GPGGA,,,,,,,,,,M,,M,,*56
[2021-02-22 16:39:08.392] $GPGGA,,,,,,,,,,M,,M,,*56
[2021-02-22 16:39:08.579] $GPGGA,,,,,,,,,,M,,M,,*56
[2021-02-22 16:39:08.798] $GPGGA,,,,,,,,,,M,,M,,*56
[2021-02-22 16:39:08.985] $GPGGA,,,,,,,,,,M,,M,,*56
[2021-02-22 16:39:09.189] $GPGGA,,,,,,,,,,M,,M,,*56
[2021-02-22 16:39:09.376] $GPGGA,,,,,,,,,,M,,M,,*56
[2021-02-22 16:39:09.595] $GPGGA,,,,,,,,,,M,,M,,*56
[2021-02-22 16:39:09.782] $GPGGA,,,,,,,,,,M,,M,,*56
[2021-02-22 16:39:09.985] $GPGGA,,,,,,,,,,M,,M,,*56
[2021-02-22 16:39:10.204] $GPGGA,,,,,,,,,,M,,M,,*56
[2021-02-22 16:39:10.392] $GPGGA,,,,,,,,,,M,,M,,*56
[2021-02-22 16:39:10.595] $GPGGA,,,,,,,,,,M,,M,,*56
[2021-02-22 16:39:10.798] $GPGGA,,,,,,,,,,M,,M,,*56
[2021-02-22 16:39:11.001] $GPGGA,,,,,,,,,,M,,M,,*56
[2021-02-22 16:39:11.188] $GPGGA,,,,,,,,,,M,,M,,*56
[2021-02-22 16:39:11.392] $GPGGA,,,,,,,,,,M,,M,,*56
[2021-02-22 16:39:11.595] $GPGGA,,,,,,,,,,M,,M,,*56
[2021-02-22 16:39:11.798] $GPGGA,,,,,,,,,,M,,M,,*56
[2021-02-22 16:39:11.985] $GPGGA,,,,,,,,,,M,,M,,*56
[2021-02-22 16:39:12.204] $GPGGA,,,,,,,,,,M,,M,,*56
[2021-02-22 16:39:12.391] $GPGGA,,,,,,,,,,M,,M,,*56
[2021-02-22 16:39:12.595] $GPGGA,,,,,,,,,,M,,M,,*56
[2021-02-22 16:39:12.798] $GPGGA,,,,,,,,,,M,,M,,*56
[2021-02-22 16:39:13.001] $GPGGA,,,,,,,,,,M,,M,,*56
[2021-02-22 16:39:13.188] $GPGGA,,,,,,,,,,M,,M,,*56
[2021-02-22 16:39:13.391] $GPGGA,,,,,,,,,,M,,M,,*56
[2021-02-22 16:39:13.595] $GPGGA,,,,,,,,,,M,,M,,*56
[2021-02-22 16:39:13.798] $GPGGA,,,,,,,,,,M,,M,,*56
[2021-02-22 16:39:13.985] $GPGGA,,,,,,,,,,M,,M,,*56
[2021-02-22 16:39:14.204] $GPGGA,,,,,,,,,,M,,M,,*56
[2021-02-22 16:39:14.391] $GPGGA,,,,,,,,,,M,,M,,*56
[2021-02-22 16:39:14.594] $GPGGA,,,,,,,,,,M,,M,,*56
[2021-02-22 16:39:14.797] $GPGGA,,,,,,,,,,M,,M,,*56
[2021-02-22 16:39:15.001] $GPGGA,,,,,,,,,,M,,M,,*56
[2021-02-22 16:39:15.188] $GPGGA,,,,,,,,,,M,,M,,*56
[2021-02-22 16:39:15.391] $GPGGA,,,,,,,,,,M,,M,,*56
[2021-02-22 16:39:15.594] $GPGGA,,,,,,,,,,M,,M,,*56
[2021-02-22 16:39:15.797] $GPGGA,,,,,,,,,,M,,M,,*56
[2021-02-22 16:39:15.985] $GPGGA,,,,,,,,,,M,,M,,*56
[2021-02-22 16:39:16.204] $GPGGA,,,,,,,,,,M,,M,,*56
[2021-02-22 16:39:16.391] $GPGGA,,,,,,,,,,M,,M,,*56
[2021-02-22 16:39:16.594] $GPGGA,,,,,,,,,,M,,M,,*56
[2021-02-22 16:39:16.782] $GPGGA,,,,,,,,,,M,,M,,*56
[2021-02-22 16:39:17.001] $GPGGA,,,,,,,,,,M,,M,,*56
[2021-02-22 16:39:17.188] $GPGGA,,,,,,,,,,M,,M,,*56
[2021-02-22 16:39:17.391] $GPGGA,,,,,,,,,,M,,M,,*56
[2021-02-22 16:39:17.594] $GPGGA,,,,,,,,,,M,,M,,*56
[2021-02-22 16:39:17.797] $GPGGA,,,,,,,,,,M,,M,,*56
[2021-02-22 16:39:17.985] $GPGGA,,,,,,,,,,M,,M,,*56
[2021-02-22 16:39:18.204] $GPGGA,,,,,,,,,,M,,M,,*56
[2021-02-22 16:39:18.391] $GPGGA,,,,,,,,,,M,,M,,*56
[2021-02-22 16:39:18.594] $GPGGA,,,,,,,,,,M,,M,,*56
[2021-02-22 16:39:18.782] $GPGGA,,,,,,,,,,M,,M,,*56
[2021-02-22 16:39:19.000] $GPGGA,,,,,,,,,,M,,M,,*56
[2021-02-22 16:39:19.188] $GPGGA,,,,,,,,,,M,,M,,*56
[2021-02-22 16:39:19.391] $GPGGA,,,,,,,,,,M,,M,,*56
[2021-02-22 16:39:19.594] $GPGGA,,,,,,,,,,M,,M,,*56
[2021-02-22 16:39:19.797] $GPGGA,,,,,,,,,,M,,M,,*56
[2021-02-22 16:39:19.985] $GPGGA,,,,,,,,,,M,,M,,*56
[2021-02-22 16:39:20.203] $GPGGA,,,,,,,,,,M,,M,,*56
[2021-02-22 16:39:20.391] $GPGGA,,,,,,,,,,M,,M,,*56
[2021-02-22 16:39:20.594] $GPGGA,,,,,,,,,,M,,M,,*56
[2021-02-22 16:39:20.782] $GPGGA,,,,,,,,,,M,,M,,*56
[2021-02-22 16:39:21.000] $GPGGA,,,,,,,,,,M,,M,,*56
[2021-02-22 16:39:21.188] $GPGGA,,,,,,,,,,M,,M,,*56
[2021-02-22 16:39:21.391] $GPGGA,,,,,,,,,,M,,M,,*56
[2021-02-22 16:39:21.594] $GPGGA,,,,,,,,,,M,,M,,*56
[2021-02-22 16:39:21.797] $GPGGA,,,,,,,,,,M,,M,,*56
[2021-02-22 16:39:21.984] $GPGGA,,,,,,,,,,M,,M,,*56
[2021-02-22 16:39:22.203] $GPGGA,,,,,,,,,,M,,M,,*56
[2021-02-22 16:39:22.391] $GPGGA,,,,,,,,,,M,,M,,*56
[2021-02-22 16:39:22.594] $GPGGA,,,,,,,,,,M,,M,,*56
[2021-02-22 16:39:22.781] $GPGGA,,,,,,,,,,M,,M,,*56
[2021-02-22 16:39:23.000] $GPGGA,,,,,,,,,,M,,M,,*56
[2021-02-22 16:39:23.188] $GPGGA,,,,,,,,,,M,,M,,*56
[2021-02-22 16:39:23.391] $GPGGA,,,,,,,,,,M,,M,,*56
[2021-02-22 16:39:23.594] $GPGGA,,,,,,,,,,M,,M,,*56
[2021-02-22 16:39:23.797] $GPGGA,,,,,,,,,,M,,M,,*56
[2021-02-22 16:39:23.984] $GPGGA,,,,,,,,,,M,,M,,*56
[2021-02-22 16:39:24.203] $GPGGA,,,,,,,,,,M,,M,,*56
[2021-02-22 16:39:24.391] $GPGGA,,,,,,,,,,M,,M,,*56
[2021-02-22 16:39:24.594] $GPGGA,,,,,,,,,,M,,M,,*56
[2021-02-22 16:39:24.781] $GPGGA,,,,,,,,,,M,,M,,*56
[2021-02-22 16:39:25.000] $GPGGA,,,,,,,,,,M,,M,,*56
[2021-02-22 16:39:25.187] $GPGGA,,,,,,,,,,M,,M,,*56
[2021-02-22 16:39:25.391] $GPGGA,,,,,,,,,,M,,M,,*56
[2021-02-22 16:39:25.594] $GPGGA,,,,,,,,,,M,,M,,*56
[2021-02-22 16:39:25.797] $GPGGA,,,,,,,,,,M,,M,,*56
[2021-02-22 16:39:25.984] $GPGGA,,,,,,,,,,M,,M,,*56
[2021-02-22 16:39:26.187] $GPGGA,,,,,,,,,,M,,M,,*56
[2021-02-22 16:39:26.391] $GPGGA,,,,,,,,,,M,,M,,*56
[2021-02-22 16:39:26.594] $GPGGA,,,,,,,,,,M,,M,,*56
[2021-02-22 16:39:26.781] $GPGGA,,,,,,,,,,M,,M,,*56
[2021-02-22 16:39:27.000] $GPGGA,,,,,,,,,,M,,M,,*56
[2021-02-22 16:39:27.187] $GPGGA,,,,,,,,,,M,,M,,*56
[2021-02-22 16:39:27.390] $GPGGA,,,,,,,,,,M,,M,,*56
[2021-02-22 16:39:27.593] $GPGGA,,,,,,,,,,M,,M,,*56
[2021-02-22 16:39:27.797] $GPGGA,,,,,,,,,,M,,M,,*56
[2021-02-22 16:39:27.984] $GPGGA,,,,,,,,,,M,,M,,*56
[2021-02-22 16:39:28.187] $GPGGA,,,,,,,,,,M,,M,,*56
[2021-02-22 16:39:28.390] $GPGGA,,,,,,,,,,M,,M,,*56
[2021-02-22 16:39:28.593] $GPGGA,,,,,,,,,,M,,M,,*56
[2021-02-22 16:39:28.781] $GPGGA,,,,,,,,,,M,,M,,*56
[2021-02-22 16:39:29.000] $GPGGA,,,,,,,,,,M,,M,,*56
[2021-02-22 16:39:29.187] $GPGGA,,,,,,,,,,M,,M,,*56
[2021-02-22 16:39:29.390] $GPGGA,,,,,,,,,,M,,M,,*56
[2021-02-22 16:39:29.593] $GPGGA,,,,,,,,,,M,,M,,*56
[2021-02-22 16:39:29.797] $GPGGA,,,,,,,,,,M,,M,,*56
[2021-02-22 16:39:29.984] $GPGGA,,,,,,,,,,M,,M,,*56
[2021-02-22 16:39:30.187] $GPGGA,,,,,,,,,,M,,M,,*56
[2021-02-22 16:39:30.390] $GPGGA,,,,,,,,,,M,,M,,*56
[2021-02-22 16:39:30.593] $GPGGA,,,,,,,,,,M,,M,,*56
[2021-02-22 16:39:30.781] $GPGGA,,,,,,,,,,M,,M,,*56
[2021-02-22 16:39:31.000] $GPGGA,,,,,,,,,,M,,M,,*56
[2021-02-22 16:39:31.187] $GPGGA,,,,,,,,,,M,,M,,*56
[2021-02-22 16:39:31.390] $GPGGA,,,,,,,,,,M,,M,,*56
[2021-02-22 16:39:31.593] $GPGGA,,,,,,,,,,M,,M,,*56
[2021-02-22 16:39:31.796] $GPGGA,,,,,,,,,,M,,M,,*56
[2021-02-22 16:39:31.984] $GPGGA,,,,,,,,,,M,,M,,*56
[2021-02-22 16:39:32.187] $GPGGA,,,,,,,,,,M,,M,,*56
[2021-02-22 16:39:32.390] $GPGGA,,,,,,,,,,M,,M,,*56
[2021-02-22 16:39:32.593] $GPGGA,,,,,,,,,,M,,M,,*56
[2021-02-22 16:39:32.781] $GPGGA,,,,,,,,,,M,,M,,*56
[2021-02-22 16:39:32.999] $GPGGA,,,,,,,,,,M,,M,,*56
[2021-02-22 16:39:33.187] $GPGGA,,,,,,,,,,M,,M,,*56
[2021-02-22 16:39:33.390] $GPGGA,,,,,,,,,,M,,M,,*56
[2021-02-22 16:39:33.593] $GPGGA,,,,,,,,,,M,,M,,*56
[2021-02-22 16:39:33.796] $GPGGA,,,,,,,,,,M,,M,,*56
[2021-02-22 16:39:33.984] $GPGGA,,,,,,,,,,M,,M,,*56
[2021-02-22 16:39:34.187] $GPGGA,,,,,,,,,,M,,M,,*56
[2021-02-22 16:39:34.390] $GPGGA,,,,,,,,,,M,,M,,*56
[2021-02-22 16:39:34.593] $GPGGA,,,,,,,,,,M,,M,,*56
[2021-02-22 16:39:34.781] $GPGGA,,,,,,,,,,M,,M,,*56
[2021-02-22 16:39:34.999] $GPGGA,,,,,,,,,,M,,M,,*56
[2021-02-22 16:39:35.187] $GPGGA,,,,,,,,,,M,,M,,*56
[2021-02-22 16:39:35.390] $GPGGA,,,,,,,,,,M,,M,,*56
[2021-02-22 16:39:35.577] $GPGGA,,,,,,,,,,M,,M,,*56
[2021-02-22 16:39:35.796] $GPGGA,,,,,,,,,,M,,M,,*56
[2021-02-22 16:39:35.984] $GPGGA,,,,,,,,,,M,,M,,*56
[2021-02-22 16:39:36.187] $GPGGA,,,,,,,,,,M,,M,,*56
[2021-02-22 16:39:36.390] $GPGGA,,,,,,,,,,M,,M,,*56
[2021-02-22 16:39:36.593] $GPGGA,,,,,,,,,,M,,M,,*56
[2021-02-22 16:39:36.780] $GPGGA,,,,,,,,,,M,,M,,*56
[2021-02-22 16:39:36.999] $GPGGA,073936.60,3713.98826139,N,13701.60608974,E,2,03,37.6,98.071,M,36.771,M,1.6,0196*42
[2021-02-22 16:39:37.093] $GPGGA,073936.70,3713.98824037,N,13701.60601999,E,2,03,37.6,98.071,M,36.771,M,1.7,0196*45
[2021-02-22 16:39:37.202] $GNGGA,073936.80,3713.97500452,N,13701.55987185,E,1,06,2.1,95.831,M,36.771,M,,*45
[2021-02-22 16:39:37.280] $GNGGA,073936.90,3713.97500453,N,13701.55986788,E,1,04,2.1,95.837,M,36.771,M,,*4B
[2021-02-22 16:39:37.405] $GNGGA,073937.00,3713.97485256,N,13701.55938031,E,2,05,2.3,95.823,M,36.771,M,2.0,0196*6B
[2021-02-22 16:39:37.499] $GNGGA,073937.10,3713.97485241,N,13701.55937727,E,2,05,2.3,95.831,M,36.771,M,1.1,0196*62
[2021-02-22 16:39:37.608] $GNGGA,073937.20,3713.97479298,N,13701.55934714,E,2,05,2.3,95.819,M,36.771,M,1.2,0196*6C
[2021-02-22 16:39:37.702] $GNGGA,073937.30,3713.97479261,N,13701.55934538,E,2,05,2.3,95.821,M,36.771,M,1.3,0196*6D
[2021-02-22 16:39:37.812] $GNGGA,073937.40,3713.97481230,N,13701.55941239,E,2,05,2.3,95.799,M,36.771,M,1.4,0196*66
[2021-02-22 16:39:37.905] $GNGGA,073937.50,3713.97481214,N,13701.55940852,E,2,05,2.3,95.803,M,36.771,M,1.5,0196*6A
[2021-02-22 16:39:37.999] $GNGGA,073937.60,3713.97482539,N,13701.55945028,E,2,05,2.3,95.851,M,36.771,M,1.6,0196*66
[2021-02-22 16:39:38.093] $GNGGA,073937.70,3713.97482862,N,13701.55944441,E,2,05,2.3,95.851,M,36.771,M,1.7,0196*6F
[2021-02-22 16:39:38.202] $GNGGA,073937.80,3713.97484590,N,13701.55949044,E,2,05,2.3,95.921,M,36.771,M,1.8,0196*63
[2021-02-22 16:39:38.296] $GNGGA,073937.90,3713.97484763,N,13701.55948217,E,2,05,2.3,95.929,M,36.771,M,1.9,0196*60
[2021-02-22 16:39:38.405] $GNGGA,073938.00,3713.97486584,N,13701.55950587,E,2,06,2.3,96.016,M,36.771,M,1.0,0196*64
[2021-02-22 16:39:38.499] $GNGGA,073938.10,3713.97486577,N,13701.55949696,E,2,05,2.3,96.021,M,36.771,M,1.1,0196*64
[2021-02-22 16:39:38.608] $GNGGA,073938.20,3713.97487631,N,13701.55951062,E,2,06,2.3,96.132,M,36.771,M,1.2,0196*60
[2021-02-22 16:39:38.702] $GNGGA,073938.30,3713.97487546,N,13701.55951528,E,2,06,2.3,96.129,M,36.771,M,1.3,0196*62
[2021-02-22 16:39:38.811] $GNGGA,073938.40,3713.97488159,N,13701.55953727,E,2,06,2.3,96.224,M,36.771,M,1.4,0196*66
[2021-02-22 16:39:38.905] $GNGGA,073938.50,3713.97487908,N,13701.55953895,E,2,06,2.3,96.229,M,36.771,M,1.5,0196*6E
[2021-02-22 16:39:38.999] $GNGGA,073938.60,3713.97487532,N,13701.55956768,E,2,06,2.3,96.340,M,36.771,M,1.6,0196*6D
[2021-02-22 16:39:39.093] $GNGGA,073938.70,3713.97487639,N,13701.55957166,E,2,06,2.3,96.330,M,36.771,M,1.7,0196*6B
[2021-02-22 16:39:39.202] $GNGGA,073938.80,3713.97487705,N,13701.55958058,E,2,06,2.3,96.479,M,36.771,M,1.8,0196*6C
[2021-02-22 16:39:39.296] $GNGGA,073938.90,3713.97487681,N,13701.55958107,E,2,06,2.3,96.477,M,36.771,M,1.9,0196*64
[2021-02-22 16:39:39.405] $GNGGA,073939.00,3713.97487114,N,13701.55957600,E,2,06,2.3,96.485,M,36.771,M,1.0,0196*6C
[2021-02-22 16:39:39.499] $GNGGA,073939.10,3713.97487041,N,13701.55957309,E,2,06,2.3,96.493,M,36.771,M,1.1,0196*66
[2021-02-22 16:39:39.608] $GNGGA,073939.20,3713.97487475,N,13701.55958998,E,2,07,1.5,96.532,M,36.771,M,1.2,0196*66
[2021-02-22 16:39:39.702] $GNGGA,073939.30,3713.97487400,N,13701.55959035,E,2,07,1.5,96.536,M,36.771,M,1.3,0196*6F
[2021-02-22 16:39:39.811] $GNGGA,073939.40,3713.97488026,N,13701.55962180,E,2,07,1.5,96.568,M,36.771,M,1.4,0196*6C
[2021-02-22 16:39:39.905] $GNGGA,073939.50,3713.97487824,N,13701.55962072,E,2,07,1.5,96.575,M,36.771,M,1.5,0196*69
[2021-02-22 16:39:39.999] $GNGGA,073939.60,3713.97488306,N,13701.55968698,E,2,07,1.5,96.579,M,36.771,M,1.6,0196*69
[2021-02-22 16:39:40.093] $GNGGA,073939.70,3713.97488016,N,13701.55968479,E,2,07,1.5,96.591,M,36.771,M,1.7,0196*60
[2021-02-22 16:39:40.202] $GNGGA,073939.80,3713.97487644,N,13701.55970443,E,2,07,1.5,96.621,M,36.771,M,1.8,0196*66
[2021-02-22 16:39:40.296] $GNGGA,073939.90,3713.97487520,N,13701.55970395,E,2,07,1.5,96.625,M,36.771,M,1.9,0196*6F
[2021-02-22 16:39:40.405] $GNGGA,073940.00,3713.97486561,N,13701.55971229,E,2,07,1.5,96.654,M,36.771,M,1.0,0196*64
[2021-02-22 16:39:40.499] $GNGGA,073940.10,3713.97486465,N,13701.55971239,E,2,07,1.5,96.658,M,36.771,M,1.1,0196*6C
[2021-02-22 16:39:40.608] $GNGGA,073940.20,3713.97485149,N,13701.55971127,E,2,08,1.5,96.670,M,36.771,M,1.2,0196*6D
[2021-02-22 16:39:40.702] $GNGGA,073940.30,3713.97485012,N,13701.55970996,E,2,07,1.5,96.674,M,36.771,M,1.3,0196*6A
[2021-02-22 16:39:40.811] $GNGGA,073940.40,3713.97483167,N,13701.55969323,E,2,08,1.5,96.641,M,36.771,M,1.4,0196*6A
[2021-02-22 16:39:40.905] $GNGGA,073940.50,3713.97483070,N,13701.55969593,E,2,08,1.5,96.638,M,36.771,M,1.5,0196*6E
[2021-02-22 16:39:40.999] $GNGGA,073940.60,3713.97481161,N,13701.55969411,E,2,08,1.5,96.617,M,36.771,M,1.6,0196*6B
[2021-02-22 16:39:41.093] $GNGGA,073940.70,3713.97481181,N,13701.55969561,E,2,08,1.5,96.611,M,36.771,M,1.7,0196*65
[2021-02-22 16:39:41.202] $GNGGA,073940.80,3713.97479084,N,13701.55969069,E,2,08,1.5,96.575,M,36.771,M,1.8,0196*6A
[2021-02-22 16:39:41.296] $GNGGA,073940.90,3713.97478954,N,13701.55969218,E,2,08,1.5,96.577,M,36.771,M,1.9,0196*69
[2021-02-22 16:39:41.405] $GNGGA,073941.00,3713.97476965,N,13701.55969083,E,2,08,1.5,96.542,M,36.771,M,2.0,0196*61
[2021-02-22 16:39:41.499] $GNGGA,073941.10,3713.97476946,N,13701.55969506,E,2,08,1.5,96.534,M,36.771,M,1.1,0196*6A
[2021-02-22 16:39:41.608] $GNGGA,073941.20,3713.97475158,N,13701.55970168,E,2,08,1.5,96.511,M,36.771,M,1.2,0196*6D
[2021-02-22 16:39:41.702] $GNGGA,073941.30,3713.97475058,N,13701.55969905,E,2,08,1.5,96.516,M,36.771,M,1.3,0196*60
[2021-02-22 16:39:41.811] $GNGGA,073941.40,3713.97473135,N,13701.55969945,E,2,08,1.5,96.496,M,36.771,M,1.4,0196*61
[2021-02-22 16:39:41.905] $GNGGA,073941.50,3713.97472967,N,13701.55969861,E,2,08,1.5,96.502,M,36.771,M,1.5,0196*64
[2021-02-22 16:39:41.999] $GNGGA,073941.60,3713.97471089,N,13701.55969365,E,2,08,1.5,96.478,M,36.771,M,1.6,0196*6D
[2021-02-22 16:39:42.093] $GNGGA,073941.70,3713.97471093,N,13701.55969319,E,2,08,1.5,96.478,M,36.771,M,1.7,0196*6D
[2021-02-22 16:39:42.202] $GNGGA,073941.80,3713.97469598,N,13701.55968061,E,2,07,1.5,96.456,M,36.771,M,1.8,0196*64
[2021-02-22 16:39:42.296] $GNGGA,073941.90,3713.97469564,N,13701.55968220,E,2,07,1.5,96.456,M,36.771,M,1.9,0196*60
[2021-02-22 16:39:42.389] $GNGGA,073942.00,3713.97468550,N,13701.55967518,E,2,07,1.5,96.427,M,36.771,M,1.0,0196*60
[2021-02-22 16:39:42.499] $GNGGA,073942.10,3713.97468479,N,13701.55967592,E,2,07,1.5,96.425,M,36.771,M,1.1,0196*6A
[2021-02-22 16:39:42.608] $GNGGA,073942.20,3713.97467634,N,13701.55967277,E,2,07,1.5,96.393,M,36.771,M,1.2,0196*68
[2021-02-22 16:39:42.702] $GNGGA,073942.30,3713.97467660,N,13701.55967347,E,2,07,1.5,96.385,M,36.771,M,1.3,0196*6C
[2021-02-22 16:39:42.811] $GNGGA,073942.40,3713.97466929,N,13701.55967123,E,2,07,1.5,96.352,M,36.771,M,1.4,0196*65
[2021-02-22 16:39:42.905] $GNGGA,073942.50,3713.97467008,N,13701.55967075,E,2,07,1.5,96.348,M,36.771,M,1.5,0196*67
[2021-02-22 16:39:42.999] $GNGGA,073942.60,3713.97466175,N,13701.55966743,E,2,07,1.5,96.327,M,36.771,M,1.6,0196*67
[2021-02-22 16:39:43.092] $GNGGA,073942.70,3713.97465991,N,13701.55966795,E,2,07,1.5,96.326,M,36.771,M,1.7,0196*6C
[2021-02-22 16:39:43.202] $GNGGA,073942.80,3713.97464886,N,13701.55964365,E,2,07,1.5,96.273,M,36.771,M,1.8,0196*62
[2021-02-22 16:39:43.280] $GNGGA,073942.90,3713.97464786,N,13701.55963958,E,2,07,1.5,96.273,M,36.771,M,1.9,0196*6E
[2021-02-22 16:39:43.405] $GNGGA,073943.00,3713.97463640,N,13701.55962692,E,2,08,1.2,96.233,M,36.771,M,1.0,0196*67
[2021-02-22 16:39:43.499] $GNGGA,073943.10,3713.97463674,N,13701.55962874,E,2,07,1.2,96.233,M,36.771,M,1.1,0196*69
[2021-02-22 16:39:43.608] $GNGGA,073943.20,3713.97462547,N,13701.55961994,E,2,08,1.2,96.204,M,36.771,M,1.2,0196*6C
[2021-02-22 16:39:43.702] $GNGGA,073943.30,3713.97462666,N,13701.55962099,E,2,08,1.2,96.199,M,36.771,M,1.3,0196*6C
[2021-02-22 16:39:43.811] $GNGGA,073943.40,3713.97461661,N,13701.55961341,E,2,08,1.2,96.182,M,36.771,M,1.4,0196*67
[2021-02-22 16:39:43.905] $GNGGA,073943.50,3713.97461712,N,13701.55961303,E,2,08,1.2,96.185,M,36.771,M,1.5,0196*63
[2021-02-22 16:39:43.999] $GNGGA,073943.60,3713.97460986,N,13701.55961823,E,2,08,1.2,96.175,M,36.771,M,1.6,0196*67
[2021-02-22 16:39:44.108] $GNGGA,073943.70,3713.97460941,N,13701.55961401,E,2,08,1.2,96.183,M,36.771,M,1.7,0196*69
[2021-02-22 16:39:44.202] $GNGGA,073943.80,3713.97460244,N,13701.55962230,E,2,08,1.2,96.180,M,36.771,M,1.8,0196*63
[2021-02-22 16:39:44.296] $GNGGA,073943.90,3713.97460211,N,13701.55962169,E,2,08,1.2,96.180,M,36.771,M,1.9,0196*6C
[2021-02-22 16:39:44.405] $GNGGA,073944.00,3713.97459542,N,13701.55963271,E,2,08,1.2,96.182,M,36.771,M,2.0,0196*6A
[2021-02-22 16:39:44.499] $GNGGA,073944.10,3713.97459433,N,13701.55963265,E,2,08,1.2,96.178,M,36.771,M,1.1,0196*6E
[2021-02-22 16:39:44.608] $GNGGA,073944.20,3713.97458634,N,13701.55962616,E,2,08,1.2,96.186,M,36.771,M,1.2,0196*6A
[2021-02-22 16:39:44.702] $GNGGA,073944.30,3713.97458769,N,13701.55962900,E,2,08,1.2,96.181,M,36.771,M,1.3,0196*6C
[2021-02-22 16:39:44.811] $GNGGA,073944.40,3713.97458080,N,13701.55961985,E,2,08,1.2,96.181,M,36.771,M,1.4,0196*62
[2021-02-22 16:39:44.905] $GNGGA,073944.50,3713.97458033,N,13701.55961810,E,2,08,1.2,96.186,M,36.771,M,1.5,0196*60
[2021-02-22 16:39:44.999] $GNGGA,073944.60,3713.97457539,N,13701.55961439,E,2,09,1.2,96.180,M,36.771,M,1.6,0196*60
[2021-02-22 16:39:45.092] $GNGGA,073944.70,3713.97457424,N,13701.55960990,E,2,09,1.2,96.189,M,36.771,M,1.7,0196*6B
[2021-02-22 16:39:45.202] $GNGGA,073944.80,3713.97457060,N,13701.55961622,E,2,09,1.2,96.199,M,36.771,M,1.8,0196*69
[2021-02-22 16:39:45.295] $GNGGA,073944.90,3713.97456973,N,13701.55961222,E,2,09,1.2,96.210,M,36.771,M,1.9,0196*65
[2021-02-22 16:39:45.405] $GNGGA,073945.00,3713.97456420,N,13701.55961808,E,2,09,1.2,96.218,M,36.771,M,1.0,0196*65
[2021-02-22 16:39:45.499] $GNGGA,073945.10,3713.97456266,N,13701.55961169,E,2,09,1.2,96.231,M,36.771,M,1.1,0196*64
[2021-02-22 16:39:45.608] $GPGGA,073945.20,3713.97423231,N,13701.55919238,E,5,04,2.3,96.115,M,36.771,M,1.2,0196*7F
[2021-02-22 16:39:45.702] $GPGGA,073945.30,3713.97423024,N,13701.55918826,E,5,04,2.3,96.112,M,36.771,M,1.3,0196*7A
[2021-02-22 16:39:45.811] $GPGGA,073945.40,3713.97423343,N,13701.55918177,E,5,04,2.3,96.113,M,36.771,M,1.4,0196*74
[2021-02-22 16:39:45.905] $GPGGA,073945.50,3713.97423204,N,13701.55918489,E,5,04,2.3,96.119,M,36.771,M,1.5,0196*78
[2021-02-22 16:39:46.014] $GPGGA,073945.60,3713.97423387,N,13701.55917882,E,5,04,2.3,96.107,M,36.771,M,1.6,0196*75
[2021-02-22 16:39:46.108] $GPGGA,073945.70,3713.97423149,N,13701.55918111,E,5,04,2.3,96.123,M,36.771,M,1.7,0196*7F
[2021-02-22 16:39:46.202] $GPGGA,073945.80,3713.97423301,N,13701.55918172,E,5,04,2.3,96.110,M,36.771,M,1.8,0196*74
[2021-02-22 16:39:46.311] $GPGGA,073945.90,3713.97423234,N,13701.55918009,E,5,04,2.3,96.118,M,36.771,M,1.9,0196*76
[2021-02-22 16:39:46.405] $GPGGA,073946.00,3713.97449814,N,13701.55972474,E,5,05,2.3,96.661,M,36.771,M,1.0,0196*7B
[2021-02-22 16:39:46.498] $GPGGA,073946.10,3713.97449941,N,13701.55972273,E,5,05,2.3,96.662,M,36.771,M,1.1,0196*78
[2021-02-22 16:39:46.608] $GPGGA,073946.20,3713.97450106,N,13701.55972615,E,5,05,2.3,96.649,M,36.771,M,1.2,0196*76
[2021-02-22 16:39:46.702] $GPGGA,073946.30,3713.97449879,N,13701.55972345,E,5,05,2.3,96.662,M,36.771,M,1.3,0196*76
[2021-02-22 16:39:46.811] $GPGGA,073946.40,3713.97449974,N,13701.55972820,E,5,05,2.3,96.664,M,36.771,M,1.4,0196*74
[2021-02-22 16:39:46.905] $GPGGA,073946.50,3713.97449974,N,13701.55972848,E,5,05,2.3,96.650,M,36.771,M,1.5,0196*7D
[2021-02-22 16:39:47.014] $GPGGA,073946.60,3713.97450054,N,13701.55972894,E,5,05,2.3,96.653,M,36.771,M,1.6,0196*7C
[2021-02-22 16:39:47.108] $GPGGA,073946.70,3713.97449959,N,13701.55972707,E,5,05,2.3,96.647,M,36.771,M,1.7,0196*70
[2021-02-22 16:39:47.202] $GPGGA,073946.80,3713.97449871,N,13701.55973036,E,5,05,2.3,96.652,M,36.771,M,1.8,0196*7B
[2021-02-22 16:39:47.295] $GPGGA,073946.90,3713.97449949,N,13701.55972890,E,5,05,2.3,96.649,M,36.771,M,1.9,0196*7E
[2021-02-22 16:39:47.405] $GPGGA,073947.00,3713.97448311,N,13701.55961030,E,5,05,2.3,96.027,M,36.771,M,1.0,0196*77
[2021-02-22 16:39:47.498] $GPGGA,073947.10,3713.97448416,N,13701.55961326,E,5,05,2.3,96.013,M,36.771,M,1.1,0196*74
[2021-02-22 16:39:47.608] $GPGGA,073947.20,3713.97448494,N,13701.55960959,E,5,05,2.3,96.024,M,36.771,M,1.2,0196*79
[2021-02-22 16:39:47.702] $GPGGA,073947.30,3713.97448837,N,13701.55962349,E,5,05,2.3,95.983,M,36.771,M,1.3,0196*72
[2021-02-22 16:39:47.811] $GPGGA,073947.40,3713.97448191,N,13701.55960457,E,5,05,2.3,96.044,M,36.771,M,1.4,0196*7C
[2021-02-22 16:39:47.905] $GPGGA,073947.50,3713.97448439,N,13701.55960788,E,5,05,2.3,96.033,M,36.771,M,1.5,0196*7A
[2021-02-22 16:39:48.014] $GPGGA,073947.60,3713.97448569,N,13701.55960479,E,5,05,2.3,96.035,M,36.771,M,1.6,0196*75
[2021-02-22 16:39:48.108] $GPGGA,073947.70,3713.97448499,N,13701.55960314,E,5,05,2.3,96.046,M,36.771,M,1.7,0196*73
[2021-02-22 16:39:48.201] $GPGGA,073947.80,3713.97448353,N,13701.55960181,E,5,05,2.3,96.039,M,36.771,M,1.8,0196*74
[2021-02-22 16:39:48.295] $GPGGA,073947.90,3713.97448222,N,13701.55960641,E,5,05,2.3,96.042,M,36.771,M,1.9,0196*74
[2021-02-22 16:39:48.405] $GPGGA,073948.00,3713.97450155,N,13701.55964449,E,5,05,2.3,95.598,M,36.771,M,1.0,0196*7E
[2021-02-22 16:39:48.498] $GPGGA,073948.10,3713.97450160,N,13701.55964530,E,5,05,2.3,95.604,M,36.771,M,1.1,0196*71
[2021-02-22 16:39:48.608] $GPGGA,073948.20,3713.97450249,N,13701.55964802,E,5,05,2.3,95.590,M,36.771,M,1.2,0196*7B
[2021-02-22 16:39:48.701] $GPGGA,073948.30,3713.97450305,N,13701.55964578,E,5,05,2.3,95.594,M,36.771,M,1.3,0196*76
[2021-02-22 16:39:48.811] $GPGGA,073948.40,3713.97450145,N,13701.55964279,E,5,05,2.3,95.601,M,36.771,M,1.4,0196*79
[2021-02-22 16:39:48.905] $GPGGA,073948.50,3713.97450155,N,13701.55964866,E,5,05,2.3,95.599,M,36.771,M,1.5,0196*7E
[2021-02-22 16:39:49.014] $GPGGA,073948.60,3713.97450191,N,13701.55965101,E,5,05,2.3,95.594,M,36.771,M,1.6,0196*72
[2021-02-22 16:39:49.108] $GPGGA,073948.70,3713.97450234,N,13701.55964763,E,5,05,2.3,95.593,M,36.771,M,1.7,0196*7A
[2021-02-22 16:39:49.217] $GPGGA,073948.80,3713.97450245,N,13701.55964906,E,5,05,2.3,95.597,M,36.771,M,1.8,0196*75
[2021-02-22 16:39:49.295] $GPGGA,073948.90,3713.97450182,N,13701.55965059,E,5,05,2.3,95.580,M,36.771,M,1.9,0196*79
[2021-02-22 16:39:49.404] $GPGGA,073949.00,3713.97452986,N,13701.55970879,E,5,05,2.3,95.368,M,36.771,M,1.0,0196*78
[2021-02-22 16:39:49.498] $GPGGA,073949.10,3713.97453023,N,13701.55970761,E,5,05,2.3,95.372,M,36.771,M,1.1,0196*72
[2021-02-22 16:39:49.608] $GPGGA,073949.20,3713.97452910,N,13701.55970993,E,5,05,2.3,95.376,M,36.771,M,1.2,0196*7D
[2021-02-22 16:39:49.701] $GPGGA,073949.30,3713.97452792,N,13701.55971173,E,5,05,2.3,95.367,M,36.771,M,1.3,0196*7E
[2021-02-22 16:39:49.811] $GPGGA,073949.40,3713.97452800,N,13701.55971087,E,5,05,2.3,95.369,M,36.771,M,1.4,0196*7E
[2021-02-22 16:39:49.904] $GPGGA,073949.50,3713.97452760,N,13701.55971147,E,5,05,2.3,95.373,M,36.771,M,1.5,0196*71
[2021-02-22 16:39:50.014] $GPGGA,073949.60,3713.97452400,N,13701.55971196,E,5,05,2.3,95.374,M,36.771,M,1.6,0196*7F
[2021-02-22 16:39:50.108] $GPGGA,073949.70,3713.97452886,N,13701.55970978,E,5,05,2.3,95.366,M,36.771,M,1.7,0196*77
[2021-02-22 16:39:50.201] $GPGGA,073949.80,3713.97452443,N,13701.55970944,E,5,05,2.3,95.386,M,36.771,M,1.8,0196*73
[2021-02-22 16:39:50.295] $GPGGA,073949.90,3713.97452789,N,13701.55970302,E,5,05,2.3,95.392,M,36.771,M,1.9,0196*7B
[2021-02-22 16:39:50.404] $GPGGA,073950.00,3713.97452239,N,13701.55971444,E,5,05,2.3,95.383,M,36.771,M,2.0,0196*7A
[2021-02-22 16:39:50.498] $GPGGA,073950.10,3713.97454381,N,13701.55976986,E,5,05,2.3,95.321,M,36.771,M,1.1,0196*71
[2021-02-22 16:39:50.608] $GPGGA,073950.20,3713.97454263,N,13701.55976871,E,5,05,2.3,95.311,M,36.771,M,1.2,0196*76
[2021-02-22 16:39:50.701] $GPGGA,073950.30,3713.97454396,N,13701.55976467,E,5,05,2.3,95.322,M,36.771,M,1.3,0196*76
[2021-02-22 16:39:50.811] $GPGGA,073950.40,3713.97454493,N,13701.55976082,E,5,05,2.3,95.310,M,36.771,M,1.4,0196*7A
[2021-02-22 16:39:50.904] $GPGGA,073950.50,3713.97454283,N,13701.55976674,E,5,05,2.3,95.310,M,36.771,M,1.5,0196*72
[2021-02-22 16:39:51.014] $GPGGA,073950.60,3713.97453706,N,13701.55976558,E,5,05,2.3,95.344,M,36.771,M,1.6,0196*71
[2021-02-22 16:39:51.108] $GPGGA,073950.70,3713.97453662,N,13701.55976846,E,5,05,2.3,95.330,M,36.771,M,1.7,0196*73
[2021-02-22 16:39:51.201] $GPGGA,073950.80,3713.97453908,N,13701.55976363,E,5,05,2.3,95.335,M,36.771,M,1.8,0196*79
[2021-02-22 16:39:51.295] $GPGGA,073950.90,3713.97454049,N,13701.55976012,E,5,05,2.3,95.322,M,36.771,M,1.9,0196*71
[2021-02-22 16:39:51.404] $GPGGA,073951.00,3713.97453943,N,13701.55976141,E,5,05,2.3,95.324,M,36.771,M,2.0,0196*76
[2021-02-22 16:39:51.498] $GPGGA,073951.10,3713.97464829,N,13701.55999999,E,5,05,2.3,95.379,M,36.771,M,1.1,0196*78
[2021-02-22 16:39:51.607] $GPGGA,073951.20,3713.97464825,N,13701.56000150,E,5,05,2.3,95.376,M,36.771,M,1.2,0196*7C
[2021-02-22 16:39:51.701] $GPGGA,073951.30,3713.97464919,N,13701.56000121,E,5,05,2.3,95.377,M,36.771,M,1.3,0196*75
[2021-02-22 16:39:51.811] $GPGGA,073951.40,3713.97464739,N,13701.56000307,E,5,05,2.3,95.371,M,36.771,M,1.4,0196*79
[2021-02-22 16:39:51.904] $GPGGA,073951.50,3713.97465061,N,13701.56000969,E,5,05,2.3,95.363,M,36.771,M,1.5,0196*73
[2021-02-22 16:39:52.014] $GPGGA,073951.60,3713.97464778,N,13701.56000078,E,5,05,2.3,95.378,M,36.771,M,1.6,0196*7E
[2021-02-22 16:39:52.107] $GPGGA,073951.70,3713.97464630,N,13701.56000078,E,5,05,2.3,95.384,M,36.771,M,1.7,0196*70
[2021-02-22 16:39:52.201] $GPGGA,073951.80,3713.97464440,N,13701.56000319,E,5,05,2.3,95.385,M,36.771,M,1.8,0196*70
[2021-02-22 16:39:52.295] $GPGGA,073951.90,3713.97464740,N,13701.56000206,E,5,05,2.3,95.385,M,36.771,M,1.9,0196*7C
[2021-02-22 16:39:52.404] $GPGGA,073952.00,3713.97464841,N,13701.56000433,E,5,05,2.3,95.376,M,36.771,M,2.0,0196*7E
[2021-02-22 16:39:52.498] $GPGGA,073952.10,3713.97460999,N,13701.55997097,E,5,05,2.3,95.046,M,36.771,M,1.1,0196*73
[2021-02-22 16:39:52.607] $GPGGA,073952.20,3713.97460950,N,13701.55997139,E,5,05,2.3,95.046,M,36.771,M,1.2,0196*73
[2021-02-22 16:39:52.701] $GPGGA,073952.30,3713.97460981,N,13701.55997176,E,5,05,2.3,95.049,M,36.771,M,1.3,0196*7B
[2021-02-22 16:39:52.811] $GPGGA,073952.40,3713.97460781,N,13701.55996563,E,5,05,2.3,95.055,M,36.771,M,1.4,0196*79
[2021-02-22 16:39:52.904] $GPGGA,073952.50,3713.97461051,N,13701.55997213,E,5,05,2.3,95.051,M,36.771,M,1.5,0196*77
[2021-02-22 16:39:53.014] $GPGGA,073952.60,3713.97460747,N,13701.55996719,E,5,05,2.3,95.059,M,36.771,M,1.6,0196*70
[2021-02-22 16:39:53.107] $GPGGA,073952.70,3713.97461052,N,13701.55996531,E,5,05,2.3,95.060,M,36.771,M,1.7,0196*70
[2021-02-22 16:39:53.201] $GPGGA,073952.80,3713.97461355,N,13701.55997138,E,5,05,2.3,95.053,M,36.771,M,1.8,0196*78
[2021-02-22 16:39:53.295] $GPGGA,073952.90,3713.97461457,N,13701.55997115,E,5,05,2.3,95.036,M,36.771,M,1.9,0196*71
[2021-02-22 16:39:53.404] $GPGGA,073953.00,3713.97458697,N,13701.55993809,E,5,05,2.3,95.093,M,36.771,M,1.0,0196*7B
[2021-02-22 16:39:53.498] $GPGGA,073953.10,3713.97459140,N,13701.55993969,E,5,05,2.3,95.093,M,36.771,M,1.1,0196*70
[2021-02-22 16:39:53.607] $GPGGA,073953.20,3713.97459116,N,13701.55994346,E,5,05,2.3,95.080,M,36.771,M,1.2,0196*71
[2021-02-22 16:39:53.701] $GPGGA,073953.30,3713.97458920,N,13701.55992952,E,5,05,2.3,95.099,M,36.771,M,1.3,0196*7C
[2021-02-22 16:39:53.810] $GPGGA,073953.40,3713.97459371,N,13701.55994115,E,5,05,2.3,95.078,M,36.771,M,1.4,0196*71
[2021-02-22 16:39:53.904] $GPGGA,073953.50,3713.97459115,N,13701.55994448,E,5,05,2.3,95.082,M,36.771,M,1.5,0196*79
[2021-02-22 16:39:54.014] $GPGGA,073953.60,3713.97458873,N,13701.55994260,E,5,05,2.3,95.078,M,36.771,M,1.6,0196*78
[2021-02-22 16:39:54.107] $GPGGA,073953.70,3713.97458989,N,13701.55993510,E,5,05,2.3,95.089,M,36.771,M,1.7,0196*75
[2021-02-22 16:39:54.217] $GPGGA,073953.80,3713.97459127,N,13701.55994536,E,5,05,2.3,95.083,M,36.771,M,1.8,0196*71
[2021-02-22 16:39:54.310] $GPGGA,073953.90,3713.97459181,N,13701.55993915,E,5,05,2.3,95.093,M,36.771,M,1.9,0196*76
[2021-02-22 16:39:54.404] $GPGGA,073954.00,3713.97457310,N,13701.55992179,E,5,05,2.3,95.327,M,36.771,M,1.0,0196*7A
[2021-02-22 16:39:54.498] $GPGGA,073954.10,3713.97457167,N,13701.55993289,E,5,05,2.3,95.318,M,36.771,M,1.1,0196*79
[2021-02-22 16:39:54.607] $GPGGA,073954.20,3713.97457538,N,13701.55994060,E,5,05,2.3,95.276,M,36.771,M,1.2,0196*7C
[2021-02-22 16:39:54.701] $GPGGA,073954.30,3713.97456716,N,13701.55993173,E,5,05,2.3,95.328,M,36.771,M,1.3,0196*7D
[2021-02-22 16:39:54.810] $GPGGA,073954.40,3713.97457323,N,13701.55992678,E,5,05,2.3,95.332,M,36.771,M,1.4,0196*78
[2021-02-22 16:39:54.904] $GPGGA,073954.50,3713.97457292,N,13701.55992959,E,5,05,2.3,95.319,M,36.771,M,1.5,0196*76
[2021-02-22 16:39:55.014] $GPGGA,073954.60,3713.97457005,N,13701.55992428,E,5,05,2.3,95.332,M,36.771,M,1.6,0196*78
[2021-02-22 16:39:55.107] $GPGGA,073954.70,3713.97457091,N,13701.55993116,E,5,05,2.3,95.323,M,36.771,M,1.7,0196*7C
[2021-02-22 16:39:55.201] $GPGGA,073954.80,3713.97456843,N,13701.55993411,E,5,05,2.3,95.328,M,36.771,M,1.8,0196*73
[2021-02-22 16:39:55.295] $GPGGA,073954.90,3713.97457129,N,13701.55993075,E,5,05,2.3,95.328,M,36.771,M,1.9,0196*71
[2021-02-22 16:39:55.404] $GPGGA,073955.00,3713.97457349,N,13701.55993570,E,5,05,2.3,95.487,M,36.771,M,1.0,0196*76
[2021-02-22 16:39:55.498] $GPGGA,073955.10,3713.97457023,N,13701.55994000,E,5,05,2.3,95.481,M,36.771,M,1.1,0196*7A
[2021-02-22 16:39:55.607] $GPGGA,073955.20,3713.97457381,N,13701.55994904,E,5,05,2.3,95.466,M,36.771,M,1.2,0196*75
[2021-02-22 16:39:55.701] $GPGGA,073955.30,3713.97457109,N,13701.55994377,E,5,05,2.3,95.485,M,36.771,M,1.3,0196*74
[2021-02-22 16:39:55.810] $GPGGA,073955.40,3713.97457163,N,13701.55994484,E,5,05,2.3,95.477,M,36.771,M,1.4,0196*7E
[2021-02-22 16:39:55.904] $GPGGA,073955.50,3713.97457278,N,13701.55994503,E,5,05,2.3,95.480,M,36.771,M,1.5,0196*71
[2021-02-22 16:39:56.013] $GPGGA,073955.60,3713.97457022,N,13701.55994778,E,5,05,2.3,95.480,M,36.771,M,1.6,0196*72
[2021-02-22 16:39:56.107] $GPGGA,073955.70,3713.97457420,N,13701.55994962,E,5,05,2.3,95.466,M,36.771,M,1.7,0196*79
[2021-02-22 16:39:56.201] $GPGGA,073955.80,3713.97457375,N,13701.55994998,E,5,05,2.3,95.472,M,36.771,M,1.8,0196*7E
[2021-02-22 16:39:56.310] $GPGGA,073955.90,3713.97456913,N,13701.55994513,E,5,05,2.3,95.484,M,36.771,M,1.9,0196*73
[2021-02-22 16:39:56.404] $GPGGA,073956.00,3713.97458611,N,13701.55998686,E,5,05,2.3,95.022,M,36.771,M,1.0,0196*78
[2021-02-22 16:39:56.498] $GPGGA,073956.10,3713.97458661,N,13701.55998107,E,5,05,2.3,95.028,M,36.771,M,1.1,0196*7B
[2021-02-22 16:39:56.607] $GPGGA,073956.20,3713.97458548,N,13701.55997962,E,5,05,2.3,95.033,M,36.771,M,1.2,0196*7D
[2021-02-22 16:39:56.701] $GPGGA,073956.30,3713.97458697,N,13701.55998533,E,5,05,2.3,95.019,M,36.771,M,1.3,0196*73
[2021-02-22 16:39:56.810] $GPGGA,073956.40,3713.97458752,N,13701.55998520,E,5,05,2.3,95.014,M,36.771,M,1.4,0196*74
[2021-02-22 16:39:56.904] $GPGGA,073956.50,3713.97458576,N,13701.55998180,E,5,05,2.3,95.019,M,36.771,M,1.5,0196*73
[2021-02-22 16:39:57.013] $GPGGA,073956.60,3713.97458409,N,13701.55998357,E,5,05,2.3,95.020,M,36.771,M,1.6,0196*78
[2021-02-22 16:39:57.107] $GPGGA,073956.70,3713.97458456,N,13701.55997863,E,5,05,2.3,95.023,M,36.771,M,1.7,0196*72
[2021-02-22 16:39:57.201] $GPGGA,073956.80,3713.97458413,N,13701.55997624,E,5,05,2.3,95.025,M,36.771,M,1.8,0196*78
[2021-02-22 16:39:57.295] $GPGGA,073956.90,3713.97458611,N,13701.55998354,E,5,05,2.3,95.013,M,36.771,M,1.9,0196*70
[2021-02-22 16:39:57.404] $GPGGA,073957.00,3713.97458759,N,13701.55997562,E,5,05,2.3,95.020,M,36.771,M,2.0,0196*73
[2021-02-22 16:39:57.513] $GPGGA,073957.10,3713.97457562,N,13701.55994292,E,5,05,2.3,95.161,M,36.771,M,1.1,0196*7A
[2021-02-22 16:39:57.607] $GPGGA,073957.20,3713.97458583,N,13701.55996214,E,5,05,2.3,95.085,M,36.771,M,1.2,0196*7D
[2021-02-22 16:39:57.701] $GPGGA,073957.30,3713.97458343,N,13701.55995283,E,5,05,2.3,95.114,M,36.771,M,1.3,0196*73
[2021-02-22 16:39:57.810] $GPGGA,073957.40,3713.97457615,N,13701.55993632,E,5,05,2.3,95.171,M,36.771,M,1.4,0196*71
[2021-02-22 16:39:57.904] $GPGGA,073957.50,3713.97458216,N,13701.55994473,E,5,05,2.3,95.120,M,36.771,M,1.5,0196*7D
[2021-02-22 16:39:58.013] $GPGGA,073957.60,3713.97457954,N,13701.55992994,E,5,05,2.3,95.167,M,36.771,M,1.6,0196*7E
[2021-02-22 16:39:58.107] $GPGGA,073957.70,3713.97457526,N,13701.55992506,E,5,05,2.3,95.189,M,36.771,M,1.7,0196*70
[2021-02-22 16:39:58.216] $GPGGA,073957.80,3713.97457801,N,13701.55992361,E,5,05,2.3,95.188,M,36.771,M,1.8,0196*7E
[2021-02-22 16:39:58.295] $GPGGA,073957.90,3713.97458340,N,13701.55994066,E,5,05,2.3,95.118,M,36.771,M,1.9,0196*74
[2021-02-22 16:39:58.404] $GPGGA,073958.00,3713.97457836,N,13701.55992450,E,5,05,2.3,95.182,M,36.771,M,2.0,0196*79
[2021-02-22 16:39:58.498] $GPGGA,073958.10,3713.97457568,N,13701.55992744,E,5,05,2.3,95.170,M,36.771,M,2.1,0196*74
[2021-02-22 16:39:58.607] $GPGGA,073958.20,3713.97459604,N,13701.55996611,E,5,05,2.3,95.023,M,36.771,M,1.2,0196*72
[2021-02-22 16:39:58.701] $GPGGA,073958.30,3713.97459743,N,13701.55996839,E,5,05,2.3,95.009,M,36.771,M,1.3,0196*7C
[2021-02-22 16:39:58.810] $GPGGA,073958.40,3713.97459464,N,13701.55996574,E,5,05,2.3,95.020,M,36.771,M,1.4,0196*75
[2021-02-22 16:39:58.904] $GPGGA,073958.50,3713.97459520,N,13701.55996328,E,5,05,2.3,95.017,M,36.771,M,1.5,0196*7F
[2021-02-22 16:39:59.013] $GPGGA,073958.60,3713.97459712,N,13701.55996260,E,5,05,2.3,95.010,M,36.771,M,1.6,0196*76
[2021-02-22 16:39:59.107] $GPGGA,073958.70,3713.97459645,N,13701.55996655,E,5,05,2.3,95.003,M,36.771,M,1.7,0196*75
[2021-02-22 16:39:59.216] $GPGGA,073958.80,3713.97459655,N,13701.55996202,E,5,05,2.3,94.996,M,36.771,M,1.8,0196*76
[2021-02-22 16:39:59.294] $GPGGA,073958.90,3713.97459652,N,13701.55996293,E,5,05,2.3,95.009,M,36.771,M,1.9,0196*77
[2021-02-22 16:39:59.404] $GPGGA,073959.00,3713.97459195,N,13701.55996259,E,5,05,2.3,95.010,M,36.771,M,2.0,0196*77
[2021-02-22 16:39:59.498] $GPGGA,073959.10,3713.97459419,N,13701.55996514,E,5,05,2.3,95.002,M,36.771,M,2.1,0196*7B
[2021-02-22 16:39:59.607] $GPGGA,073959.20,3713.97457931,N,13701.55987973,E,5,05,2.3,95.535,M,36.771,M,1.2,0196*7D
[2021-02-22 16:39:59.701] $GPGGA,073959.30,3713.97458159,N,13701.55988518,E,5,05,2.3,95.535,M,36.771,M,1.3,0196*7A
[2021-02-22 16:39:59.810] $GPGGA,073959.40,3713.97458139,N,13701.55988595,E,5,05,2.3,95.534,M,36.771,M,1.4,0196*78
[2021-02-22 16:39:59.904] $GPGGA,073959.50,3713.97457906,N,13701.55987832,E,5,05,2.3,95.554,M,36.771,M,1.5,0196*7A
[2021-02-22 16:40:00.013] $GPGGA,073959.60,3713.97457840,N,13701.55988173,E,5,05,2.3,95.535,M,36.771,M,1.6,0196*7D
[2021-02-22 16:40:00.107] $GPGGA,073959.70,3713.97457314,N,13701.55987104,E,5,05,2.3,95.573,M,36.771,M,1.7,0196*7A
[2021-02-22 16:40:00.216] $GPGGA,073959.80,3713.97457516,N,13701.55988862,E,5,05,2.3,95.539,M,36.771,M,1.8,0196*76
[2021-02-22 16:40:00.310] $GPGGA,073959.90,3713.97456784,N,13701.55988855,E,5,05,2.3,95.539,M,36.771,M,1.9,0196*7A
[2021-02-22 16:40:00.404] $GPGGA,074000.00,3713.97456486,N,13701.55989209,E,5,05,2.3,95.554,M,36.771,M,2.0,0196*73
[2021-02-22 16:40:00.497] $GPGGA,074000.10,3713.97454048,N,13701.55967303,E,5,05,2.3,96.172,M,36.771,M,1.1,0196*7C
[2021-02-22 16:40:00.607] $GPGGA,074000.20,3713.97454252,N,13701.55967966,E,5,05,2.3,96.170,M,36.771,M,1.2,0196*7E
[2021-02-22 16:40:00.701] $GPGGA,074000.30,3713.97453858,N,13701.55967307,E,5,05,2.3,96.191,M,36.771,M,1.3,0196*7B
[2021-02-22 16:40:00.810] $GPGGA,074000.40,3713.97454208,N,13701.55968389,E,5,05,2.3,96.165,M,36.771,M,1.4,0196*71
[2021-02-22 16:40:00.904] $GPGGA,074000.50,3713.97454272,N,13701.55968493,E,5,05,2.3,96.167,M,36.771,M,1.5,0196*72
[2021-02-22 16:40:01.013] $GPGGA,074000.60,3713.97454602,N,13701.55968465,E,5,05,2.3,96.171,M,36.771,M,1.6,0196*7F
[2021-02-22 16:40:01.107] $GPGGA,074000.70,3713.97454241,N,13701.55968765,E,5,05,2.3,96.174,M,36.771,M,1.7,0196*7A
[2021-02-22 16:40:01.216] $GPGGA,074000.80,3713.97454779,N,13701.55970127,E,5,05,2.3,96.122,M,36.771,M,1.8,0196*7E
[2021-02-22 16:40:01.310] $GPGGA,074000.90,3713.97454046,N,13701.55968342,E,5,05,2.3,96.181,M,36.771,M,1.9,0196*74
[2021-02-22 16:40:01.404] $GPGGA,074001.00,3713.97454649,N,13701.55970195,E,5,05,2.3,96.116,M,36.771,M,2.0,0196*70
[2021-02-22 16:40:01.497] $GPGGA,074001.10,3713.97455143,N,13701.55972849,E,5,05,2.3,95.860,M,36.771,M,1.1,0196*7E
[2021-02-22 16:40:01.607] $GPGGA,074001.20,3713.97455083,N,13701.55973400,E,5,05,2.3,95.860,M,36.771,M,1.2,0196*73
[2021-02-22 16:40:01.701] $GPGGA,074001.30,3713.97455429,N,13701.55973233,E,5,05,2.3,95.856,M,36.771,M,1.3,0196*74
[2021-02-22 16:40:01.810] $GPGGA,074001.40,3713.97455398,N,13701.55972466,E,5,05,2.3,95.862,M,36.771,M,1.4,0196*79
[2021-02-22 16:40:01.904] $GPGGA,074001.50,3713.97455527,N,13701.55972276,E,5,05,2.3,95.868,M,36.771,M,1.5,0196*76
[2021-02-22 16:40:02.013] $GPGGA,074001.60,3713.97456109,N,13701.55971860,E,5,05,2.3,95.865,M,36.771,M,1.6,0196*7E
[2021-02-22 16:40:02.107] $GPGGA,074001.70,3713.97455645,N,13701.55971669,E,5,05,2.3,95.839,M,36.771,M,1.7,0196*7C
[2021-02-22 16:40:02.216] $GPGGA,074001.80,3713.97454887,N,13701.55971330,E,5,05,2.3,95.890,M,36.771,M,1.8,0196*77
[2021-02-22 16:40:02.294] $GPGGA,074001.90,3713.97456775,N,13701.55970820,E,5,05,2.3,95.866,M,36.771,M,1.9,0196*75
[2021-02-22 16:40:02.404] $GPGGA,074002.00,3713.97455177,N,13701.55976101,E,5,05,2.3,95.456,M,36.771,M,1.0,0196*72
[2021-02-22 16:40:02.497] $GPGGA,074002.10,3713.97455278,N,13701.55976183,E,5,05,2.3,95.440,M,36.771,M,1.1,0196*73
[2021-02-22 16:40:02.607] $GPGGA,074002.20,3713.97455204,N,13701.55976254,E,5,05,2.3,95.442,M,36.771,M,1.2,0196*73
[2021-02-22 16:40:02.700] $GPGGA,074002.30,3713.97455318,N,13701.55976172,E,5,05,2.3,95.446,M,36.771,M,1.3,0196*7C
[2021-02-22 16:40:02.810] $GPGGA,074002.40,3713.97455123,N,13701.55975517,E,5,05,2.3,95.449,M,36.771,M,1.4,0196*7D
[2021-02-22 16:40:02.904] $GPGGA,074002.50,3713.97455346,N,13701.55976471,E,5,05,2.3,95.438,M,36.771,M,1.5,0196*78
[2021-02-22 16:40:03.013] $GPGGA,074002.60,3713.97455539,N,13701.55975965,E,5,05,2.3,95.449,M,36.771,M,1.6,0196*7B
[2021-02-22 16:40:03.107] $GPGGA,074002.70,3713.97455227,N,13701.55975580,E,5,05,2.3,95.475,M,36.771,M,1.7,0196*7B
[2021-02-22 16:40:03.216] $GPGGA,074002.80,3713.97455726,N,13701.55975967,E,5,05,2.3,95.444,M,36.771,M,1.8,0196*78
[2021-02-22 16:40:03.294] $GPGGA,074002.90,3713.97455249,N,13701.55975325,E,5,05,2.3,95.455,M,36.771,M,1.9,0196*78
[2021-02-22 16:40:03.404] $GPGGA,074003.00,3713.97455645,N,13701.55976778,E,5,05,2.3,95.404,M,36.771,M,2.0,0196*79
[2021-02-22 16:40:03.497] $GPGGA,074003.10,3713.97455617,N,13701.55977534,E,5,05,2.3,95.387,M,36.771,M,2.1,0196*79
[2021-02-22 16:40:03.607] $GPGGA,074003.20,3713.97456852,N,13701.55977639,E,5,05,2.3,95.481,M,36.771,M,1.2,0196*79
[2021-02-22 16:40:03.700] $GPGGA,074003.30,3713.97457150,N,13701.55977888,E,5,05,2.3,95.477,M,36.771,M,1.3,0196*7E
[2021-02-22 16:40:03.810] $GPGGA,074003.40,3713.97456703,N,13701.55977068,E,5,05,2.3,95.510,M,36.771,M,1.4,0196*79
[2021-02-22 16:40:03.903] $GPGGA,074003.50,3713.97457005,N,13701.55977149,E,5,05,2.3,95.508,M,36.771,M,1.5,0196*72
[2021-02-22 16:40:04.013] $GPGGA,074003.60,3713.97457288,N,13701.55977539,E,5,05,2.3,95.492,M,36.771,M,1.6,0196*74
[2021-02-22 16:40:04.107] $GPGGA,074003.70,3713.97457147,N,13701.55977167,E,5,05,2.3,95.497,M,36.771,M,1.7,0196*7E
[2021-02-22 16:40:04.216] $GPGGA,074003.80,3713.97456755,N,13701.55977550,E,5,05,2.3,95.506,M,36.771,M,1.8,0196*73
[2021-02-22 16:40:04.310] $GPGGA,074003.90,3713.97456802,N,13701.55977530,E,5,05,2.3,95.499,M,36.771,M,1.9,0196*7F
[2021-02-22 16:40:04.403] $GPGGA,074004.00,3713.97457031,N,13701.55977682,E,5,05,2.3,95.488,M,36.771,M,2.0,0196*78
[2021-02-22 16:40:04.497] $GPGGA,074004.10,3713.97457007,N,13701.55977890,E,5,05,2.3,95.496,M,36.771,M,2.1,0196*7F
[2021-02-22 16:40:04.607] $GPGGA,074004.20,3713.97457140,N,13701.55977358,E,5,05,2.3,95.494,M,36.771,M,2.2,0196*70
[2021-02-22 16:40:04.700] $GPGGA,074004.30,3713.97456389,N,13701.55974006,E,5,04,2.3,95.586,M,36.771,M,1.3,0196*7D
[2021-02-22 16:40:04.810] $GPGGA,074004.40,3713.97456280,N,13701.55974015,E,5,04,2.3,95.580,M,36.771,M,1.4,0196*71
[2021-02-22 16:40:04.903] $GPGGA,074004.50,3713.97456023,N,13701.55973810,E,5,04,2.3,95.600,M,36.771,M,1.5,0196*7B
[2021-02-22 16:40:05.013] $GPGGA,074004.60,3713.97456173,N,13701.55974115,E,5,04,2.3,95.576,M,36.771,M,1.6,0196*76
[2021-02-22 16:40:05.107] $GPGGA,074004.70,3713.97455961,N,13701.55974066,E,5,04,2.3,95.590,M,36.771,M,1.7,0196*73
[2021-02-22 16:40:05.216] $GPGGA,074004.80,3713.97456180,N,13701.55974313,E,5,04,2.3,95.577,M,36.771,M,1.8,0196*7F
[2021-02-22 16:40:05.294] $GPGGA,074004.90,3713.97456319,N,13701.55975315,E,5,04,2.3,95.561,M,36.771,M,1.9,0196*7D
[2021-02-22 16:40:05.403] $GPGGA,074005.00,3713.97456230,N,13701.55974007,E,5,04,2.3,95.581,M,36.771,M,2.0,0196*7A
[2021-02-22 16:40:05.497] $GPGGA,074005.10,3713.97456210,N,13701.55974070,E,5,04,2.3,95.590,M,36.771,M,2.1,0196*78
[2021-02-22 16:40:05.606] $GPGGA,074005.20,3713.97456722,N,13701.55976858,E,5,05,2.3,95.489,M,36.771,M,1.2,0196*77
[2021-02-22 16:40:05.700] $GPGGA,074005.30,3713.97457026,N,13701.55976875,E,5,05,2.3,95.493,M,36.771,M,1.3,0196*71
[2021-02-22 16:40:05.810] $GPGGA,074005.40,3713.97456775,N,13701.55976492,E,5,05,2.3,95.502,M,36.771,M,1.4,0196*7D
[2021-02-22 16:40:05.903] $GPGGA,074005.50,3713.97456669,N,13701.55976549,E,5,05,2.3,95.505,M,36.771,M,1.5,0196*71
[2021-02-22 16:40:06.013] $GPGGA,074005.60,3713.97456877,N,13701.55976462,E,5,05,2.3,95.493,M,36.771,M,1.6,0196*76
[2021-02-22 16:40:06.106] $GPGGA,074005.70,3713.97456315,N,13701.55976230,E,5,05,2.3,95.505,M,36.771,M,1.7,0196*76
[2021-02-22 16:40:06.216] $GPGGA,074005.80,3713.97456469,N,13701.55975979,E,5,05,2.3,95.510,M,36.771,M,1.8,0196*7B
[2021-02-22 16:40:06.310] $GPGGA,074005.90,3713.97456586,N,13701.55976643,E,5,05,2.3,95.499,M,36.771,M,1.9,0196*7E
[2021-02-22 16:40:06.403] $GPGGA,074006.00,3713.97456358,N,13701.55976037,E,5,05,2.3,95.511,M,36.771,M,2.0,0196*7F
[2021-02-22 16:40:06.497] $GPGGA,074006.10,3713.97456858,N,13701.55976667,E,5,05,2.3,95.493,M,36.771,M,2.1,0196*7C
[2021-02-22 16:40:06.606] $GPGGA,074006.20,3713.97457625,N,13701.55987650,E,5,05,2.3,95.222,M,36.771,M,1.2,0196*7C
[2021-02-22 16:40:06.700] $GPGGA,074006.30,3713.97457676,N,13701.55987275,E,5,05,2.3,95.219,M,36.771,M,1.3,0196*71
[2021-02-22 16:40:06.810] $GPGGA,074006.40,3713.97457583,N,13701.55987268,E,5,05,2.3,95.225,M,36.771,M,1.4,0196*7B
[2021-02-22 16:40:06.903] $GPGGA,074006.50,3713.97457498,N,13701.55987193,E,5,05,2.3,95.224,M,36.771,M,1.5,0196*76
[2021-02-22 16:40:07.013] $GPGGA,074006.60,3713.97457682,N,13701.55987153,E,5,05,2.3,95.229,M,36.771,M,1.6,0196*7E
[2021-02-22 16:40:07.106] $GPGGA,074006.70,3713.97457575,N,13701.55986616,E,5,05,2.3,95.236,M,36.771,M,1.7,0196*7C
[2021-02-22 16:40:07.200] $GPGGA,074006.80,3713.97457623,N,13701.55987236,E,5,05,2.3,95.237,M,36.771,M,1.8,0196*7A
[2021-02-22 16:40:07.309] $GPGGA,074006.90,3713.97457381,N,13701.55987251,E,5,05,2.3,95.233,M,36.771,M,1.9,0196*72
[2021-02-22 16:40:07.403] $GPGGA,074007.00,3713.97457852,N,13701.55987388,E,5,05,2.3,95.224,M,36.771,M,2.0,0196*76
[2021-02-22 16:40:07.497] $GPGGA,074007.10,3713.97457548,N,13701.55987533,E,5,05,2.3,95.235,M,36.771,M,2.1,0196*76
[2021-02-22 16:40:07.606] $GPGGA,074007.20,3713.97457168,N,13701.55986831,E,5,05,2.3,95.357,M,36.771,M,1.2,0196*78
[2021-02-22 16:40:07.700] $GPGGA,074007.30,3713.97456247,N,13701.55987555,E,5,05,2.3,95.354,M,36.771,M,1.3,0196*7A
[2021-02-22 16:40:07.809] $GPGGA,074007.40,3713.97456800,N,13701.55987779,E,5,05,2.3,95.355,M,36.771,M,1.4,0196*7E
[2021-02-22 16:40:07.903] $GPGGA,074007.50,3713.97456568,N,13701.55987205,E,5,05,2.3,95.354,M,36.771,M,1.5,0196*72
[2021-02-22 16:40:08.013] $GPGGA,074007.60,3713.97456979,N,13701.55987493,E,5,05,2.3,95.354,M,36.771,M,1.6,0196*77
[2021-02-22 16:40:08.106] $GPGGA,074007.70,3713.97456796,N,13701.55987666,E,5,05,2.3,95.349,M,36.771,M,1.7,0196*7C
[2021-02-22 16:40:08.216] $GPGGA,074007.80,3713.97456521,N,13701.55986614,E,5,05,2.3,95.377,M,36.771,M,1.8,0196*7B
[2021-02-22 16:40:08.294] $GPGGA,074007.90,3713.97456873,N,13701.55987120,E,5,05,2.3,95.356,M,36.771,M,1.9,0196*73
[2021-02-22 16:40:08.403] $GPGGA,074008.00,3713.97456847,N,13701.55987441,E,5,05,2.3,95.350,M,36.771,M,2.0,0196*7C
[2021-02-22 16:40:08.497] $GPGGA,074008.10,3713.97455397,N,13701.55981137,E,5,05,2.3,95.538,M,36.771,M,1.1,0196*70
[2021-02-22 16:40:08.606] $GPGGA,074008.20,3713.97455656,N,13701.55982044,E,5,05,2.3,95.520,M,36.771,M,1.2,0196*77
[2021-02-22 16:40:08.700] $GPGGA,074008.30,3713.97454683,N,13701.55980401,E,5,05,2.3,95.584,M,36.771,M,1.3,0196*77
[2021-02-22 16:40:08.809] $GPGGA,074008.40,3713.97455220,N,13701.55981466,E,5,05,2.3,95.539,M,36.771,M,1.4,0196*7D
[2021-02-22 16:40:08.903] $GPGGA,074008.50,3713.97455621,N,13701.55982191,E,5,05,2.3,95.523,M,36.771,M,1.5,0196*7D
[2021-02-22 16:40:09.013] $GPGGA,074008.60,3713.97455437,N,13701.55981750,E,5,05,2.3,95.534,M,36.771,M,1.6,0196*76
[2021-02-22 16:40:09.106] $GPGGA,074008.70,3713.97455312,N,13701.55981118,E,5,05,2.3,95.535,M,36.771,M,1.7,0196*7D
[2021-02-22 16:40:09.216] $GPGGA,074008.80,3713.97455388,N,13701.55981744,E,5,05,2.3,95.534,M,36.771,M,1.8,0196*70
[2021-02-22 16:40:09.294] $GPGGA,074008.90,3713.97455570,N,13701.55981346,E,5,05,2.3,95.535,M,36.771,M,1.9,0196*76
[2021-02-22 16:40:09.403] $GPGGA,074009.00,3713.97455465,N,13701.55980436,E,5,05,2.3,95.540,M,36.771,M,2.0,0196*72
[2021-02-22 16:40:09.497] $GPGGA,074009.10,3713.97454367,N,13701.55976104,E,5,05,2.3,95.608,M,36.771,M,1.1,0196*77
[2021-02-22 16:40:09.606] $GPGGA,074009.20,3713.97454263,N,13701.55975403,E,5,05,2.3,95.622,M,36.771,M,1.2,0196*7B
[2021-02-22 16:40:09.700] $GPGGA,074009.30,3713.97454567,N,13701.55975658,E,5,05,2.3,95.604,M,36.771,M,1.3,0196*70
[2021-02-22 16:40:09.809] $GPGGA,074009.40,3713.97454457,N,13701.55975622,E,5,05,2.3,95.599,M,36.771,M,1.4,0196*78
[2021-02-22 16:40:09.903] $GPGGA,074009.50,3713.97454519,N,13701.55975434,E,5,05,2.3,95.606,M,36.771,M,1.5,0196*73
[2021-02-22 16:40:10.012] $GPGGA,074009.60,3713.97454310,N,13701.55975612,E,5,05,2.3,95.597,M,36.771,M,1.6,0196*71
[2021-02-22 16:40:10.106] $GPGGA,074009.70,3713.97454387,N,13701.55975790,E,5,05,2.3,95.606,M,36.771,M,1.7,0196*7F
[2021-02-22 16:40:10.216] $GPGGA,074009.80,3713.97454338,N,13701.55975119,E,5,05,2.3,95.607,M,36.771,M,1.8,0196*7D
[2021-02-22 16:40:10.309] $GPGGA,074009.90,3713.97454455,N,13701.55974968,E,5,05,2.3,95.614,M,36.771,M,1.9,0196*7C
[2021-02-22 16:40:10.403] $GPGGA,074010.00,3713.97455277,N,13701.55981269,E,5,04,2.3,95.437,M,36.771,M,1.0,0196*71
[2021-02-22 16:40:10.497] $GPGGA,074010.10,3713.97455674,N,13701.55981562,E,5,04,2.3,95.429,M,36.771,M,1.1,0196*75
[2021-02-22 16:40:10.606] $GPGGA,074010.20,3713.97455627,N,13701.55981034,E,5,04,2.3,95.436,M,36.771,M,1.2,0196*7B
[2021-02-22 16:40:10.700] $GPGGA,074010.30,3713.97455609,N,13701.55982067,E,5,04,2.3,95.416,M,36.771,M,1.3,0196*70
[2021-02-22 16:40:10.809] $GPGGA,074010.40,3713.97455495,N,13701.55981390,E,5,04,2.3,95.442,M,36.771,M,1.4,0196*7E
[2021-02-22 16:40:10.903] $GPGGA,074010.50,3713.97455530,N,13701.55981830,E,5,04,2.3,95.423,M,36.771,M,1.5,0196*76
[2021-02-22 16:40:11.012] $GPGGA,074010.60,3713.97455480,N,13701.55982121,E,5,04,2.3,95.433,M,36.771,M,1.6,0196*77
[2021-02-22 16:40:11.106] $GPGGA,074010.70,3713.97455579,N,13701.55981856,E,5,04,2.3,95.429,M,36.771,M,1.7,0196*71
[2021-02-22 16:40:11.216] $GPGGA,074010.80,3713.97455708,N,13701.55982094,E,5,04,2.3,95.424,M,36.771,M,1.8,0196*7D
[2021-02-22 16:40:11.309] $GPGGA,074010.90,3713.97455747,N,13701.55982173,E,5,04,2.3,95.420,M,36.771,M,1.9,0196*7A
[2021-02-22 16:40:11.403] $GPGGA,074011.00,3713.97455673,N,13701.55982297,E,5,04,2.3,95.423,M,36.771,M,2.0,0196*74
[2021-02-22 16:40:11.497] $GPGGA,074011.10,3713.97455797,N,13701.55982044,E,5,04,2.3,95.429,M,36.771,M,2.1,0196*79
[2021-02-22 16:40:11.606] $GPGGA,074011.20,3713.97455681,N,13701.55982372,E,5,04,2.3,95.417,M,36.771,M,2.2,0196*74
[2021-02-22 16:40:11.700] $GPGGA,074011.30,3713.97455162,N,13701.55981052,E,5,05,2.3,95.561,M,36.771,M,1.3,0196*7E
[2021-02-22 16:40:11.809] $GPGGA,074011.40,3713.97455368,N,13701.55981315,E,5,05,2.3,95.559,M,36.771,M,1.4,0196*7D
[2021-02-22 16:40:11.903] $GPGGA,074011.50,3713.97455282,N,13701.55981439,E,5,05,2.3,95.553,M,36.771,M,1.5,0196*7B
[2021-02-22 16:40:12.012] $GPGGA,074011.60,3713.97455245,N,13701.55980855,E,5,05,2.3,95.562,M,36.771,M,1.6,0196*75
[2021-02-22 16:40:12.106] $GPGGA,074011.70,3713.97455178,N,13701.55981257,E,5,05,2.3,95.553,M,36.771,M,1.7,0196*73
[2021-02-22 16:40:12.215] $GPGGA,074011.80,3713.97455089,N,13701.55980846,E,5,05,2.3,95.564,M,36.771,M,1.8,0196*73
[2021-02-22 16:40:12.309] $GPGGA,074011.90,3713.97455362,N,13701.55980845,E,5,05,2.3,95.566,M,36.771,M,1.9,0196*74
[2021-02-22 16:40:12.403] $GPGGA,074012.00,3713.97455333,N,13701.55981274,E,5,05,2.3,95.555,M,36.771,M,2.0,0196*79
[2021-02-22 16:40:12.497] $GPGGA,074012.10,3713.97453729,N,13701.55982266,E,5,05,2.3,95.709,M,36.771,M,1.1,0196*78
[2021-02-22 16:40:12.606] $GPGGA,074012.20,3713.97453597,N,13701.55981584,E,5,05,2.3,95.725,M,36.771,M,1.2,0196*79
[2021-02-22 16:40:12.700] $GPGGA,074012.30,3713.97453574,N,13701.55981871,E,5,05,2.3,95.713,M,36.771,M,1.3,0196*76
[2021-02-22 16:40:12.809] $GPGGA,074012.40,3713.97453488,N,13701.55982054,E,5,05,2.3,95.709,M,36.771,M,1.4,0196*73
[2021-02-22 16:40:12.903] $GPGGA,074012.50,3713.97453516,N,13701.55981968,E,5,05,2.3,95.716,M,36.771,M,1.5,0196*7E
[2021-02-22 16:40:13.012] $GPGGA,074012.60,3713.97453829,N,13701.55981963,E,5,05,2.3,95.701,M,36.771,M,1.6,0196*72
[2021-02-22 16:40:13.106] $GPGGA,074012.70,3713.97453515,N,13701.55982100,E,5,05,2.3,95.711,M,36.771,M,1.7,0196*7F
[2021-02-22 16:40:13.215] $GPGGA,074012.80,3713.97453488,N,13701.55981697,E,5,05,2.3,95.719,M,36.771,M,1.8,0196*78
[2021-02-22 16:40:13.309] $GPGGA,074012.90,3713.97453697,N,13701.55981557,E,5,05,2.3,95.713,M,36.771,M,1.9,0196*71
