
[2021-02-22 16:32:37.623] $GPGGA,,,,,,,,,,M,,M,,*56
[2021-02-22 16:32:37.655] $GPVTG,,T,,M,,N,,K,N*2C
[2021-02-22 16:32:37.655] $GPGGA,,,,,,,,,,M,,M,,*56
[2021-02-22 16:32:37.655] $GPVTG,,T,,M,,N,,K,N*2C
[2021-02-22 16:32:37.655] $GPGGA,,,,,,,,,,M,,M,,*56
[2021-02-22 16:32:37.655] $GPVTG,,T,,M,,N,,K,N*2C
[2021-02-22 16:32:37.655] $GPGGA,,,,,,,,,,M,,M,,*56
[2021-02-22 16:32:37.655] $GPVTG,,T,,M,,N,,K,N*2C
[2021-02-22 16:32:37.655] $GPGGA,,,,,,,,,,M,,M,,*56
[2021-02-22 16:32:37.655] $GPVTG,,T,,M,,N,,K,N*2C
[2021-02-22 16:32:37.655] $GPGGA,,,,,,,,,,M,,M,,*56
[2021-02-22 16:32:37.655] $GPVTG,,T,,M,,N,,K,N*2C
[2021-02-22 16:32:37.655] $GPGGA,,,,,,,,,,M,,M,,*56
[2021-02-22 16:32:37.655] $GPVTG,,T,,M,,N,,K,N*2C
[2021-02-22 16:32:37.655] $GPGGA,,,,,,,,,,M,,M,,*56
[2021-02-22 16:32:37.655] $GPVTG,,T,,M,,N,,K,N*2C
[2021-02-22 16:32:37.655] $GPGGA,,,,,,,,,,M,,M,,*56
[2021-02-22 16:32:37.655] $GPVTG,,T,,M,,N,,K,N*2C
[2021-02-22 16:32:37.655] $GPGGA,,,,,,,,,,M,,M,,*56
[2021-02-22 16:32:37.655] $GPVTG,,T,,M,,N,,K,N*2C
[2021-02-22 16:32:37.655] $GPGGA,,,,,,,,,,M,,M,,*56
[2021-02-22 16:32:37.655] $GPVTG,,T,,M,,N,,K,N*2C
[2021-02-22 16:32:37.655] $GPGGA,,,,,,,,,,M,,M,,*56
[2021-02-22 16:32:37.655] $GPVTG,,T,,M,,N,,K,N*2C
[2021-02-22 16:32:37.655] $GPGGA,,,,,,,,,,M,,M,,*56
[2021-02-22 16:32:37.655] $GPVTG,,T,,M,,N,,K,N*2C
[2021-02-22 16:32:37.655] $GPGGA,,,,,,,,,,M,,M,,*56
[2021-02-22 16:32:37.655] $GPVTG,,T,,M,,N,,K,N*2C
[2021-02-22 16:32:37.655] $GPGGA,,,,,,,,,,M,,M,,*56
[2021-02-22 16:32:37.655] $GPVTG,,T,,M,,N,,K,N*2C
[2021-02-22 16:32:37.655] $GPGGA,,,,,,,,,,M,,M,,*56
[2021-02-22 16:32:37.655] $GPVTG,,T,,M,,N,,K,N*2C
[2021-02-22 16:32:37.655] $GPGGA,,,,,,,,,,M,,M,,*56
[2021-02-22 16:32:37.655] $GPVTG,,T,,M,,N,,K,N*2C
[2021-02-22 16:32:37.655] $GPGGA,,,,,,,,,,M,,M,,*56
[2021-02-22 16:32:37.655] $GPVTG,,T,,M,,N,,K,N*2C
[2021-02-22 16:32:37.655] $GPGGA,,,,,,,,,,M,,M,,*56
[2021-02-22 16:32:37.655] $GPVTG,,T,,M,,N,,K,N*2C
[2021-02-22 16:32:37.655] $GPGGA,,,,,,,,,,M,,M,,*56
[2021-02-22 16:32:37.655] $GPVTG,,T,,M,,N,,K,N*2C
[2021-02-22 16:32:37.670] $GPGGA,,,,,,,,,,M,,M,,*56
[2021-02-22 16:32:37.670] $GPVTG,,T,,M,,N,,K,N*2C
[2021-02-22 16:32:37.670] $GPGGA,,,,,,,,,,M,,M,,*56
[2021-02-22 16:32:37.670] $GPVTG,,T,,M,,N,,K,N*2C
[2021-02-22 16:32:37.670] $GPGGA,,,,,,,,,,M,,M,,*56
[2021-02-22 16:32:37.670] $GPVTG,,T,,M,,N,,K,N*2C
[2021-02-22 16:32:37.670] $GPGGA,,,,,,,,,,M,,M,,*56
[2021-02-22 16:32:37.670] $GPVTG,,T,,M,,N,,K,N*2C
[2021-02-22 16:32:37.670] $GPGGA,,,,,,,,,,M,,M,,*56
[2021-02-22 16:32:37.670] $GPVTG,,T,,M,,N,,K,N*2C
[2021-02-22 16:32:37.670] $GPGGA,,,,,,,,,,M,,M,,*56
[2021-02-22 16:32:37.670] $GPVTG,,T,,M,,N,,K,N*2C
[2021-02-22 16:32:37.670] $GPGGA,,,,,,,,,,M,,M,,*56
[2021-02-22 16:32:37.670] $GPVTG,,T,,M,,N,,K,N*2C
[2021-02-22 16:32:37.670] $GPGGA,,,,,,,,,,M,,M,,*56
[2021-02-22 16:32:37.670] $GPVTG,,T,,M,,N,,K,N*2C
[2021-02-22 16:32:37.670] $GPGGA,,,,,,,,,,M,,M,,*56
[2021-02-22 16:32:37.670] $GPVTG,,T,,M,,N,,K,N*2C
[2021-02-22 16:32:37.670] $GPGGA,,,,,,,,,,M,,M,,*56
[2021-02-22 16:32:37.670] $GPVTG,,T,,M,,N,,K,N*2C
[2021-02-22 16:32:37.670] $GPGGA,,,,,,,,,,M,,M,,*56
[2021-02-22 16:32:37.670] $GPVTG,,T,,M,,N,,K,N*2C
[2021-02-22 16:32:37.670] $GPGGA,,,,,,,,,,M,,M,,*56
[2021-02-22 16:32:37.670] $GPVTG,,T,,M,,N,,K,N*2C
[2021-02-22 16:32:37.670] $GPGGA,,,,,,,,,,M,,M,,*56
[2021-02-22 16:32:37.670] $GPVTG,,T,,M,,N,,K,N*2C
[2021-02-22 16:32:37.670] $GPGGA,,,,,,,,,,M,,M,,*56
[2021-02-22 16:32:37.670] $GPVTG,,T,,M,,N,,K,N*2C
[2021-02-22 16:32:37.670] $GPGGA,,,,,,,,,,M,,M,,*56
[2021-02-22 16:32:37.670] $GPVTG,,T,,M,,N,,K,N*2C
[2021-02-22 16:32:37.670] $GPGGA,,,,,,,,,,M,,M,,*56
[2021-02-22 16:32:37.670] $GPVTG,,T,,M,,N,,K,N*2C
[2021-02-22 16:32:37.670] $GPGGA,,,,,,,,,,M,,M,,*56
[2021-02-22 16:32:37.670] $GPVTG,,T,,M,,N,,K,N*2C
[2021-02-22 16:32:37.670] $GPGGA,,,,,,,,,,M,,M,,*56
[2021-02-22 16:32:37.670] $GPVTG,,T,,M,,N,,K,N*2C
[2021-02-22 16:32:37.670] $GPGGA,,,,,,,,,,M,,M,,*56
[2021-02-22 16:32:37.670] $GPVTG,,T,,M,,N,,K,N*2C
[2021-02-22 16:32:37.670] $GPGGA,,,,,,,,,,M,,M,,*56
[2021-02-22 16:32:37.686] $GPVTG,,T,,M,,N,,K,N*2C
[2021-02-22 16:32:37.686] $GPGGA,,,,,,,,,,M,,M,,*56
[2021-02-22 16:32:37.686] $GPVTG,,T,,M,,N,,K,N*2C
[2021-02-22 16:32:37.686] $GPGGA,,,,,,,,,,M,,M,,*56
[2021-02-22 16:32:37.686] $GPVTG,,T,,M,,N,,K,N*2C
[2021-02-22 16:32:37.686] $GPGGA,,,,,,,,,,M,,M,,*56
[2021-02-22 16:32:37.686] $GPVTG,,T,,M,,N,,K,N*2C
[2021-02-22 16:32:37.686] $GPGGA,,,,,,,,,,M,,M,,*56
[2021-02-22 16:32:37.686] $GPVTG,,T,,M,,N,,K,N*2C
[2021-02-22 16:32:37.686] $GPGGA,,,,,,,,,,M,,M,,*56
[2021-02-22 16:32:37.686] $GPVTG,,T,,M,,N,,K,N*2C
[2021-02-22 16:32:37.686] $GPGGA,,,,,,,,,,M,,M,,*56
[2021-02-22 16:32:37.686] $GPVTG,,T,,M,,N,,K,N*2C
[2021-02-22 16:32:37.686] $GPGGA,,,,,,,,,,M,,M,,*56
[2021-02-22 16:32:37.686] $GPVTG,,T,,M,,N,,K,N*2C
[2021-02-22 16:32:37.686] $GPGGA,,,,,,,,,,M,,M,,*56
[2021-02-22 16:32:37.686] $GPVTG,,T,,M,,N,,K,N*2C
[2021-02-22 16:32:37.686] $GPGGA,,,,,,,,,,M,,M,,*56
[2021-02-22 16:32:37.686] $GPVTG,,T,,M,,N,,K,N*2C
[2021-02-22 16:32:37.686] $GPGGA,,,,,,,,,,M,,M,,*56
[2021-02-22 16:32:37.686] $GPVTG,,T,,M,,N,,K,N*2C
[2021-02-22 16:32:37.686] $GPGGA,,,,,,,,,,M,,M,,*56
[2021-02-22 16:32:37.686] $GPVTG,,T,,M,,N,,K,N*2C
[2021-02-22 16:32:37.686] $GPGGA,,,,,,,,,,M,,M,,*56
[2021-02-22 16:32:37.686] $GPVTG,,T,,M,,N,,K,N*2C
[2021-02-22 16:32:37.686] $GPGGA,,,,,,,,,,M,,M,,*56
[2021-02-22 16:32:37.686] $GPVTG,,T,,M,,N,,K,N*2C
[2021-02-22 16:32:37.686] $GPGGA,,,,,,,,,,M,,M,,*56
[2021-02-22 16:32:37.686] $GPVTG,,T,,M,,N,,K,N*2C
[2021-02-22 16:32:37.686] $GPGGA,,,,,,,,,,M,,M,,*56
[2021-02-22 16:32:37.686] $GPVTG,,T,,M,,N,,K,N*2C
[2021-02-22 16:32:37.686] $GPGGA,,,,,,,,,,M,,M,,*56
[2021-02-22 16:32:37.686] $GPVTG,,T,,M,,N,,K,N*2C
[2021-02-22 16:32:37.686] $GPGGA,,,,,,,,,,M,,M,,*56
[2021-02-22 16:32:37.686] $GPVTG,,T,,M,,N,,K,N*2C
[2021-02-22 16:32:37.686] $GPGGA,,,,,,,,,,M,,M,,*56
[2021-02-22 16:32:37.686] $GPVTG,,T,,M,,N,,K,N*2C
[2021-02-22 16:32:37.686] $GPGGA,,,,,,,,,,M,,M,,*56
[2021-02-22 16:32:37.686] $GPVTG,,T,,M,,N,,K,N*2C
[2021-02-22 16:32:37.686] $GPGGA,,,,,,,,,,M,,M,,*56
[2021-02-22 16:32:37.686] $GPVTG,,T,,M,,N,,K,N*2C
[2021-02-22 16:32:37.686] $GPGGA,,,,,,,,,,M,,M,,*56
[2021-02-22 16:32:37.686] $GPVTG,,T,,M,,N,,K,N*2C
[2021-02-22 16:32:37.686] $GPGGA,,,,,,,,,,M,,M,,*56
[2021-02-22 16:32:37.686] $GPVTG,,T,,M,,N,,K,N*2C
[2021-02-22 16:32:37.686] $GPGGA,,,,,,,,,,M,,M,,*56
[2021-02-22 16:32:37.686] $GPVTG,,T,,M,,N,,K,N*2C
[2021-02-22 16:32:37.686] $GPGGA,,,,,,,,,,M,,M,,*56
[2021-02-22 16:32:37.686] $GPVTG,,T,,M,,N,,K,N*2C
[2021-02-22 16:32:37.686] $GPGGA,,,,,,,,,,M,,M,,*56
[2021-02-22 16:32:37.686] $GPVTG,,T,,M,,N,,K,N*2C
[2021-02-22 16:32:37.780] $GPGGA,,,,,,,,,,M,,M,,*56
[2021-02-22 16:32:37.780] $GPVTG,,T,,M,,N,,K,N*2C
[2021-02-22 16:32:37.983] $GPGGA,,,,,,,,,,M,,M,,*56
[2021-02-22 16:32:37.983] $GPVTG,,T,,M,,N,,K,N*2C
[2021-02-22 16:32:38.170] $GPGGA,,,,,,,,,,M,,M,,*56
[2021-02-22 16:32:38.186] $GPVTG,,T,,M,,N,,K,N*2C
[2021-02-22 16:32:38.373] $GPGGA,,,,,,,,,,M,,M,,*56
[2021-02-22 16:32:38.373] $GPVTG,,T,,M,,N,,K,N*2C
[2021-02-22 16:32:38.577] $GPGGA,,,,,,,,,,M,,M,,*56
[2021-02-22 16:32:38.577] $GPVTG,,T,,M,,N,,K,N*2C
[2021-02-22 16:32:38.780] $GPGGA,,,,,,,,,,M,,M,,*56
[2021-02-22 16:32:38.780] $GPVTG,,T,,M,,N,,K,N*2C
[2021-02-22 16:32:38.983] $GPGGA,,,,,,,,,,M,,M,,*56
[2021-02-22 16:32:38.983] $GPVTG,,T,,M,,N,,K,N*2C
[2021-02-22 16:32:39.186] $GPGGA,,,,,,,,,,M,,M,,*56
[2021-02-22 16:32:39.186] $GPVTG,,T,,M,,N,,K,N*2C
[2021-02-22 16:32:39.373] $GPGGA,,,,,,,,,,M,,M,,*56
[2021-02-22 16:32:39.389] $GPVTG,,T,,M,,N,,K,N*2C
[2021-02-22 16:32:39.576] $GPGGA,,,,,,,,,,M,,M,,*56
[2021-02-22 16:32:39.576] $GPVTG,,T,,M,,N,,K,N*2C
[2021-02-22 16:32:39.780] $GPGGA,,,,,,,,,,M,,M,,*56
[2021-02-22 16:32:39.780] $GPVTG,,T,,M,,N,,K,N*2C
[2021-02-22 16:32:39.983] $GPGGA,,,,,,,,,,M,,M,,*56
[2021-02-22 16:32:39.983] $GPVTG,,T,,M,,N,,K,N*2C
[2021-02-22 16:32:40.186] $GPGGA,,,,,,,,,,M,,M,,*56
[2021-02-22 16:32:40.186] $GPVTG,,T,,M,,N,,K,N*2C
[2021-02-22 16:32:40.373] $GPGGA,,,,,,,,,,M,,M,,*56
[2021-02-22 16:32:40.389] $GPVTG,,T,,M,,N,,K,N*2C
[2021-02-22 16:32:40.576] $GPGGA,,,,,,,,,,M,,M,,*56
[2021-02-22 16:32:40.576] $GPVTG,,T,,M,,N,,K,N*2C
[2021-02-22 16:32:40.779] $GPGGA,,,,,,,,,,M,,M,,*56
[2021-02-22 16:32:40.779] $GPVTG,,T,,M,,N,,K,N*2C
[2021-02-22 16:32:40.983] $GPGGA,,,,,,,,,,M,,M,,*56
[2021-02-22 16:32:40.983] $GPVTG,,T,,M,,N,,K,N*2C
[2021-02-22 16:32:41.186] $GPGGA,,,,,,,,,,M,,M,,*56
[2021-02-22 16:32:41.186] $GPVTG,,T,,M,,N,,K,N*2C
[2021-02-22 16:32:41.373] $GPGGA,,,,,,,,,,M,,M,,*56
[2021-02-22 16:32:41.389] $GPVTG,,T,,M,,N,,K,N*2C
[2021-02-22 16:32:41.576] $GPGGA,,,,,,,,,,M,,M,,*56
[2021-02-22 16:32:41.576] $GPVTG,,T,,M,,N,,K,N*2C
[2021-02-22 16:32:41.779] $GPGGA,,,,,,,,,,M,,M,,*56
[2021-02-22 16:32:41.779] $GPVTG,,T,,M,,N,,K,N*2C
[2021-02-22 16:32:41.982] $GPGGA,,,,,,,,,,M,,M,,*56
[2021-02-22 16:32:41.982] $GPVTG,,T,,M,,N,,K,N*2C
[2021-02-22 16:32:42.186] $GPGGA,,,,,,,,,,M,,M,,*56
[2021-02-22 16:32:42.186] $GPVTG,,T,,M,,N,,K,N*2C
[2021-02-22 16:32:42.373] $GPGGA,,,,,,,,,,M,,M,,*56
[2021-02-22 16:32:42.389] $GPVTG,,T,,M,,N,,K,N*2C
[2021-02-22 16:32:42.576] $GPGGA,,,,,,,,,,M,,M,,*56
[2021-02-22 16:32:42.576] $GPVTG,,T,,M,,N,,K,N*2C
[2021-02-22 16:32:42.779] $GPGGA,,,,,,,,,,M,,M,,*56
[2021-02-22 16:32:42.779] $GPVTG,,T,,M,,N,,K,N*2C
[2021-02-22 16:32:42.982] $GPGGA,,,,,,,,,,M,,M,,*56
[2021-02-22 16:32:42.982] $GPVTG,,T,,M,,N,,K,N*2C
[2021-02-22 16:32:43.186] $GPGGA,,,,,,,,,,M,,M,,*56
[2021-02-22 16:32:43.186] $GPVTG,,T,,M,,N,,K,N*2C
[2021-02-22 16:32:43.373] $GPGGA,,,,,,,,,,M,,M,,*56
[2021-02-22 16:32:43.373] $GPVTG,,T,,M,,N,,K,N*2C
[2021-02-22 16:32:43.576] $GPGGA,,,,,,,,,,M,,M,,*56
[2021-02-22 16:32:43.576] $GPVTG,,T,,M,,N,,K,N*2C
[2021-02-22 16:32:43.779] $GPGGA,,,,,,,,,,M,,M,,*56
[2021-02-22 16:32:43.779] $GPVTG,,T,,M,,N,,K,N*2C
[2021-02-22 16:32:43.982] $GPGGA,,,,,,,,,,M,,M,,*56
[2021-02-22 16:32:43.982] $GPVTG,,T,,M,,N,,K,N*2C
[2021-02-22 16:32:44.185] $GPGGA,,,,,,,,,,M,,M,,*56
[2021-02-22 16:32:44.185] $GPVTG,,T,,M,,N,,K,N*2C
[2021-02-22 16:32:44.373] $GPGGA,,,,,,,,,,M,,M,,*56
[2021-02-22 16:32:44.373] $GPVTG,,T,,M,,N,,K,N*2C
[2021-02-22 16:32:44.576] $GPGGA,,,,,,,,,,M,,M,,*56
[2021-02-22 16:32:44.576] $GPVTG,,T,,M,,N,,K,N*2C
[2021-02-22 16:32:44.779] $GPGGA,,,,,,,,,,M,,M,,*56
[2021-02-22 16:32:44.779] $GPVTG,,T,,M,,N,,K,N*2C
[2021-02-22 16:32:44.982] $GPGGA,,,,,,,,,,M,,M,,*56
[2021-02-22 16:32:44.982] $GPVTG,,T,,M,,N,,K,N*2C
[2021-02-22 16:32:45.185] $GPGGA,,,,,,,,,,M,,M,,*56
[2021-02-22 16:32:45.185] $GPVTG,,T,,M,,N,,K,N*2C
[2021-02-22 16:32:45.373] $GPGGA,,,,,,,,,,M,,M,,*56
[2021-02-22 16:32:45.388] $GPVTG,,T,,M,,N,,K,N*2C
[2021-02-22 16:32:45.576] $GPGGA,,,,,,,,,,M,,M,,*56
[2021-02-22 16:32:45.576] $GPVTG,,T,,M,,N,,K,N*2C
[2021-02-22 16:32:45.779] $GPGGA,,,,,,,,,,M,,M,,*56
[2021-02-22 16:32:45.779] $GPVTG,,T,,M,,N,,K,N*2C
[2021-02-22 16:32:45.982] $GPGGA,,,,,,,,,,M,,M,,*56
[2021-02-22 16:32:45.982] $GPVTG,,T,,M,,N,,K,N*2C
[2021-02-22 16:32:46.185] $GPGGA,,,,,,,,,,M,,M,,*56
[2021-02-22 16:32:46.185] $GPVTG,,T,,M,,N,,K,N*2C
[2021-02-22 16:32:46.373] $GPGGA,,,,,,,,,,M,,M,,*56
[2021-02-22 16:32:46.388] $GPVTG,,T,,M,,N,,K,N*2C
[2021-02-22 16:32:46.576] $GPGGA,,,,,,,,,,M,,M,,*56
[2021-02-22 16:32:46.576] $GPVTG,,T,,M,,N,,K,N*2C
[2021-02-22 16:32:46.779] $GPGGA,,,,,,,,,,M,,M,,*56
[2021-02-22 16:32:46.779] $GPVTG,,T,,M,,N,,K,N*2C
[2021-02-22 16:32:46.982] $GPGGA,,,,,,,,,,M,,M,,*56
[2021-02-22 16:32:46.982] $GPVTG,,T,,M,,N,,K,N*2C
[2021-02-22 16:32:47.185] $GPGGA,,,,,,,,,,M,,M,,*56
[2021-02-22 16:32:47.185] $GPVTG,,T,,M,,N,,K,N*2C
[2021-02-22 16:32:47.373] $GPGGA,,,,,,,,,,M,,M,,*56
[2021-02-22 16:32:47.388] $GPVTG,,T,,M,,N,,K,N*2C
[2021-02-22 16:32:47.576] $GPGGA,,,,,,,,,,M,,M,,*56
[2021-02-22 16:32:47.576] $GPVTG,,T,,M,,N,,K,N*2C
[2021-02-22 16:32:47.779] $GPGGA,,,,,,,,,,M,,M,,*56
[2021-02-22 16:32:47.779] $GPVTG,,T,,M,,N,,K,N*2C
[2021-02-22 16:32:47.982] $GPGGA,,,,,,,,,,M,,M,,*56
[2021-02-22 16:32:47.982] $GPVTG,,T,,M,,N,,K,N*2C
[2021-02-22 16:32:48.185] $GPGGA,,,,,,,,,,M,,M,,*56
[2021-02-22 16:32:48.185] $GPVTG,,T,,M,,N,,K,N*2C
[2021-02-22 16:32:48.373] $GPGGA,,,,,,,,,,M,,M,,*56
[2021-02-22 16:32:48.388] $GPVTG,,T,,M,,N,,K,N*2C
[2021-02-22 16:32:48.576] $GPGGA,,,,,,,,,,M,,M,,*56
[2021-02-22 16:32:48.576] $GPVTG,,T,,M,,N,,K,N*2C
[2021-02-22 16:32:48.779] $GPGGA,,,,,,,,,,M,,M,,*56
[2021-02-22 16:32:48.779] $GPVTG,,T,,M,,N,,K,N*2C
[2021-02-22 16:32:48.982] $GPGGA,,,,,,,,,,M,,M,,*56
[2021-02-22 16:32:48.982] $GPVTG,,T,,M,,N,,K,N*2C
[2021-02-22 16:32:49.185] $GPGGA,,,,,,,,,,M,,M,,*56
[2021-02-22 16:32:49.185] $GPVTG,,T,,M,,N,,K,N*2C
[2021-02-22 16:32:49.373] $GPGGA,,,,,,,,,,M,,M,,*56
[2021-02-22 16:32:49.388] $GPVTG,,T,,M,,N,,K,N*2C
[2021-02-22 16:32:49.576] $GPGGA,,,,,,,,,,M,,M,,*56
[2021-02-22 16:32:49.576] $GPVTG,,T,,M,,N,,K,N*2C
[2021-02-22 16:32:49.779] $GPGGA,,,,,,,,,,M,,M,,*56
[2021-02-22 16:32:49.779] $GPVTG,,T,,M,,N,,K,N*2C
[2021-02-22 16:32:49.982] $GPGGA,,,,,,,,,,M,,M,,*56
[2021-02-22 16:32:49.982] $GPVTG,,T,,M,,N,,K,N*2C
[2021-02-22 16:32:50.185] $GPGGA,,,,,,,,,,M,,M,,*56
[2021-02-22 16:32:50.185] $GPVTG,,T,,M,,N,,K,N*2C
[2021-02-22 16:32:50.373] $GPGGA,,,,,,,,,,M,,M,,*56
[2021-02-22 16:32:50.388] $GPVTG,,T,,M,,N,,K,N*2C
[2021-02-22 16:32:50.576] $GPGGA,,,,,,,,,,M,,M,,*56
[2021-02-22 16:32:50.576] $GPVTG,,T,,M,,N,,K,N*2C
[2021-02-22 16:32:50.779] $GPGGA,,,,,,,,,,M,,M,,*56
[2021-02-22 16:32:50.779] $GPVTG,,T,,M,,N,,K,N*2C
[2021-02-22 16:32:50.982] $GPGGA,,,,,,,,,,M,,M,,*56
[2021-02-22 16:32:50.982] $GPVTG,,T,,M,,N,,K,N*2C
[2021-02-22 16:32:51.185] $GPGGA,,,,,,,,,,M,,M,,*56
[2021-02-22 16:32:51.185] $GPVTG,,T,,M,,N,,K,N*2C
[2021-02-22 16:32:51.372] $GPGGA,,,,,,,,,,M,,M,,*56
[2021-02-22 16:32:51.388] $GPVTG,,T,,M,,N,,K,N*2C
[2021-02-22 16:32:51.576] $GPGGA,,,,,,,,,,M,,M,,*56
[2021-02-22 16:32:51.576] $GPVTG,,T,,M,,N,,K,N*2C
[2021-02-22 16:32:51.779] $GPGGA,,,,,,,,,,M,,M,,*56
[2021-02-22 16:32:51.779] $GPVTG,,T,,M,,N,,K,N*2C
[2021-02-22 16:32:51.982] $GPGGA,,,,,,,,,,M,,M,,*56
[2021-02-22 16:32:51.982] $GPVTG,,T,,M,,N,,K,N*2C
[2021-02-22 16:32:52.185] $GPGGA,,,,,,,,,,M,,M,,*56
[2021-02-22 16:32:52.185] $GPVTG,,T,,M,,N,,K,N*2C
[2021-02-22 16:32:52.372] $GPGGA,,,,,,,,,,M,,M,,*56
[2021-02-22 16:32:52.388] $GPVTG,,T,,M,,N,,K,N*2C
[2021-02-22 16:32:52.576] $GPGGA,,,,,,,,,,M,,M,,*56
[2021-02-22 16:32:52.576] $GPVTG,,T,,M,,N,,K,N*2C
[2021-02-22 16:32:52.779] $GPGGA,,,,,,,,,,M,,M,,*56
[2021-02-22 16:32:52.779] $GPVTG,,T,,M,,N,,K,N*2C
[2021-02-22 16:32:52.982] $GPGGA,,,,,,,,,,M,,M,,*56
[2021-02-22 16:32:52.982] $GPVTG,,T,,M,,N,,K,N*2C
[2021-02-22 16:32:53.185] $GPGGA,,,,,,,,,,M,,M,,*56
[2021-02-22 16:32:53.185] $GPVTG,,T,,M,,N,,K,N*2C
[2021-02-22 16:32:53.372] $GPGGA,,,,,,,,,,M,,M,,*56
[2021-02-22 16:32:53.388] $GPVTG,,T,,M,,N,,K,N*2C
[2021-02-22 16:32:53.575] $GPGGA,,,,,,,,,,M,,M,,*56
[2021-02-22 16:32:53.575] $GPVTG,,T,,M,,N,,K,N*2C
[2021-02-22 16:32:53.779] $GPGGA,,,,,,,,,,M,,M,,*56
[2021-02-22 16:32:53.779] $GPVTG,,T,,M,,N,,K,N*2C
[2021-02-22 16:32:53.982] $GPGGA,,,,,,,,,,M,,M,,*56
[2021-02-22 16:32:53.982] $GPVTG,,T,,M,,N,,K,N*2C
[2021-02-22 16:32:54.185] $GPGGA,,,,,,,,,,M,,M,,*56
[2021-02-22 16:32:54.185] $GPVTG,,T,,M,,N,,K,N*2C
[2021-02-22 16:32:54.372] $GPGGA,,,,,,,,,,M,,M,,*56
[2021-02-22 16:32:54.388] $GPVTG,,T,,M,,N,,K,N*2C
[2021-02-22 16:32:54.575] $GPGGA,,,,,,,,,,M,,M,,*56
[2021-02-22 16:32:54.575] $GPVTG,,T,,M,,N,,K,N*2C
[2021-02-22 16:32:54.779] $GPGGA,,,,,,,,,,M,,M,,*56
[2021-02-22 16:32:54.779] $GPVTG,,T,,M,,N,,K,N*2C
[2021-02-22 16:32:54.982] $GPGGA,,,,,,,,,,M,,M,,*56
[2021-02-22 16:32:54.982] $GPVTG,,T,,M,,N,,K,N*2C
[2021-02-22 16:32:55.185] $GPGGA,,,,,,,,,,M,,M,,*56
[2021-02-22 16:32:55.185] $GPVTG,,T,,M,,N,,K,N*2C
[2021-02-22 16:32:55.372] $GPGGA,,,,,,,,,,M,,M,,*56
[2021-02-22 16:32:55.388] $GPVTG,,T,,M,,N,,K,N*2C
[2021-02-22 16:32:55.575] $GPGGA,,,,,,,,,,M,,M,,*56
[2021-02-22 16:32:55.575] $GPVTG,,T,,M,,N,,K,N*2C
[2021-02-22 16:32:55.778] $GPGGA,,,,,,,,,,M,,M,,*56
[2021-02-22 16:32:55.778] $GPVTG,,T,,M,,N,,K,N*2C
[2021-02-22 16:32:55.982] $GPGGA,,,,,,,,,,M,,M,,*56
[2021-02-22 16:32:55.982] $GPVTG,,T,,M,,N,,K,N*2C
[2021-02-22 16:32:56.185] $GPGGA,,,,,,,,,,M,,M,,*56
[2021-02-22 16:32:56.185] $GPVTG,,T,,M,,N,,K,N*2C
[2021-02-22 16:32:56.372] $GPGGA,,,,,,,,,,M,,M,,*56
[2021-02-22 16:32:56.388] $GPVTG,,T,,M,,N,,K,N*2C
[2021-02-22 16:32:56.575] $GPGGA,,,,,,,,,,M,,M,,*56
[2021-02-22 16:32:56.575] $GPVTG,,T,,M,,N,,K,N*2C
[2021-02-22 16:32:56.778] $GPGGA,,,,,,,,,,M,,M,,*56
[2021-02-22 16:32:56.778] $GPVTG,,T,,M,,N,,K,N*2C
[2021-02-22 16:32:56.981] $GPGGA,,,,,,,,,,M,,M,,*56
[2021-02-22 16:32:56.981] $GPVTG,,T,,M,,N,,K,N*2C
[2021-02-22 16:32:57.185] $GPGGA,,,,,,,,,,M,,M,,*56
[2021-02-22 16:32:57.185] $GPVTG,,T,,M,,N,,K,N*2C
[2021-02-22 16:32:57.372] $GPGGA,,,,,,,,,,M,,M,,*56
[2021-02-22 16:32:57.388] $GPVTG,,T,,M,,N,,K,N*2C
[2021-02-22 16:32:57.575] $GPGGA,,,,,,,,,,M,,M,,*56
[2021-02-22 16:32:57.575] $GPVTG,,T,,M,,N,,K,N*2C
[2021-02-22 16:32:57.778] $GPGGA,,,,,,,,,,M,,M,,*56
[2021-02-22 16:32:57.778] $GPVTG,,T,,M,,N,,K,N*2C
[2021-02-22 16:32:57.981] $GPGGA,,,,,,,,,,M,,M,,*56
[2021-02-22 16:32:57.981] $GPVTG,,T,,M,,N,,K,N*2C
[2021-02-22 16:32:58.185] $GPGGA,,,,,,,,,,M,,M,,*56
[2021-02-22 16:32:58.185] $GPVTG,,T,,M,,N,,K,N*2C
[2021-02-22 16:32:58.372] $GPGGA,,,,,,,,,,M,,M,,*56
[2021-02-22 16:32:58.388] $GPVTG,,T,,M,,N,,K,N*2C
[2021-02-22 16:32:58.575] $GPGGA,,,,,,,,,,M,,M,,*56
[2021-02-22 16:32:58.575] $GPVTG,,T,,M,,N,,K,N*2C
[2021-02-22 16:32:58.778] $GPGGA,,,,,,,,,,M,,M,,*56
[2021-02-22 16:32:58.778] $GPVTG,,T,,M,,N,,K,N*2C
[2021-02-22 16:32:58.981] $GPGGA,,,,,,,,,,M,,M,,*56
[2021-02-22 16:32:58.981] $GPVTG,,T,,M,,N,,K,N*2C
[2021-02-22 16:32:59.184] $GPGGA,,,,,,,,,,M,,M,,*56
[2021-02-22 16:32:59.184] $GPVTG,,T,,M,,N,,K,N*2C
[2021-02-22 16:32:59.372] $GPGGA,,,,,,,,,,M,,M,,*56
[2021-02-22 16:32:59.388] $GPVTG,,T,,M,,N,,K,N*2C
[2021-02-22 16:32:59.575] $GPGGA,,,,,,,,,,M,,M,,*56
[2021-02-22 16:32:59.575] $GPVTG,,T,,M,,N,,K,N*2C
[2021-02-22 16:32:59.778] $GPGGA,,,,,,,,,,M,,M,,*56
[2021-02-22 16:32:59.778] $GPVTG,,T,,M,,N,,K,N*2C
[2021-02-22 16:32:59.981] $GPGGA,,,,,,,,,,M,,M,,*56
[2021-02-22 16:32:59.981] $GPVTG,,T,,M,,N,,K,N*2C
[2021-02-22 16:33:00.184] $GPGGA,,,,,,,,,,M,,M,,*56
[2021-02-22 16:33:00.184] $GPVTG,,T,,M,,N,,K,N*2C
[2021-02-22 16:33:00.372] $GPGGA,,,,,,,,,,M,,M,,*56
[2021-02-22 16:33:00.387] $GPVTG,,T,,M,,N,,K,N*2C
[2021-02-22 16:33:00.575] $GPGGA,,,,,,,,,,M,,M,,*56
[2021-02-22 16:33:00.575] $GPVTG,,T,,M,,N,,K,N*2C
[2021-02-22 16:33:00.778] $GPGGA,,,,,,,,,,M,,M,,*56
[2021-02-22 16:33:00.778] $GPVTG,,T,,M,,N,,K,N*2C
[2021-02-22 16:33:00.981] $GPGGA,,,,,,,,,,M,,M,,*56
[2021-02-22 16:33:00.981] $GPVTG,,T,,M,,N,,K,N*2C
[2021-02-22 16:33:01.184] $GPGGA,,,,,,,,,,M,,M,,*56
[2021-02-22 16:33:01.184] $GPVTG,,T,,M,,N,,K,N*2C
[2021-02-22 16:33:01.372] $GPGGA,,,,,,,,,,M,,M,,*56
[2021-02-22 16:33:01.387] $GPVTG,,T,,M,,N,,K,N*2C
[2021-02-22 16:33:01.575] $GPGGA,,,,,,,,,,M,,M,,*56
[2021-02-22 16:33:01.575] $GPVTG,,T,,M,,N,,K,N*2C
[2021-02-22 16:33:01.778] $GPGGA,,,,,,,,,,M,,M,,*56
[2021-02-22 16:33:01.778] $GPVTG,,T,,M,,N,,K,N*2C
[2021-02-22 16:33:01.981] $GPGGA,,,,,,,,,,M,,M,,*56
[2021-02-22 16:33:01.981] $GPVTG,,T,,M,,N,,K,N*2C
[2021-02-22 16:33:02.184] $GPGGA,,,,,,,,,,M,,M,,*56
[2021-02-22 16:33:02.184] $GPVTG,,T,,M,,N,,K,N*2C
[2021-02-22 16:33:02.372] $GPGGA,,,,,,,,,,M,,M,,*56
[2021-02-22 16:33:02.387] $GPVTG,,T,,M,,N,,K,N*2C
[2021-02-22 16:33:02.575] $GPGGA,,,,,,,,,,M,,M,,*56
[2021-02-22 16:33:02.575] $GPVTG,,T,,M,,N,,K,N*2C
[2021-02-22 16:33:02.778] $GPGGA,,,,,,,,,,M,,M,,*56
[2021-02-22 16:33:02.778] $GPVTG,,T,,M,,N,,K,N*2C
[2021-02-22 16:33:02.981] $GPGGA,,,,,,,,,,M,,M,,*56
[2021-02-22 16:33:02.981] $GPVTG,,T,,M,,N,,K,N*2C
[2021-02-22 16:33:03.184] $GPGGA,,,,,,,,,,M,,M,,*56
[2021-02-22 16:33:03.184] $GPVTG,,T,,M,,N,,K,N*2C
[2021-02-22 16:33:03.372] $GPGGA,,,,,,,,,,M,,M,,*56
[2021-02-22 16:33:03.387] $GPVTG,,T,,M,,N,,K,N*2C
[2021-02-22 16:33:03.575] $GPGGA,,,,,,,,,,M,,M,,*56
[2021-02-22 16:33:03.575] $GPVTG,,T,,M,,N,,K,N*2C
[2021-02-22 16:33:03.778] $GPGGA,,,,,,,,,,M,,M,,*56
[2021-02-22 16:33:03.778] $GPVTG,,T,,M,,N,,K,N*2C
[2021-02-22 16:33:03.981] $GPGGA,,,,,,,,,,M,,M,,*56
[2021-02-22 16:33:03.981] $GPVTG,,T,,M,,N,,K,N*2C
[2021-02-22 16:33:04.184] $GPGGA,,,,,,,,,,M,,M,,*56
[2021-02-22 16:33:04.184] $GPVTG,,T,,M,,N,,K,N*2C
[2021-02-22 16:33:04.372] $GPGGA,,,,,,,,,,M,,M,,*56
[2021-02-22 16:33:04.387] $GPVTG,,T,,M,,N,,K,N*2C
[2021-02-22 16:33:04.575] $GPGGA,,,,,,,,,,M,,M,,*56
[2021-02-22 16:33:04.575] $GPVTG,,T,,M,,N,,K,N*2C
[2021-02-22 16:33:04.778] $GPGGA,,,,,,,,,,M,,M,,*56
[2021-02-22 16:33:04.778] $GPVTG,,T,,M,,N,,K,N*2C
[2021-02-22 16:33:04.981] $GPGGA,,,,,,,,,,M,,M,,*56
[2021-02-22 16:33:04.981] $GPVTG,,T,,M,,N,,K,N*2C
[2021-02-22 16:33:05.184] $GPGGA,,,,,,,,,,M,,M,,*56
[2021-02-22 16:33:05.184] $GPVTG,,T,,M,,N,,K,N*2C
[2021-02-22 16:33:05.372] $GPGGA,,,,,,,,,,M,,M,,*56
[2021-02-22 16:33:05.387] $GPVTG,,T,,M,,N,,K,N*2C
[2021-02-22 16:33:05.575] $GPGGA,,,,,,,,,,M,,M,,*56
[2021-02-22 16:33:05.575] $GPVTG,,T,,M,,N,,K,N*2C
[2021-02-22 16:33:05.778] $GPGGA,,,,,,,,,,M,,M,,*56
[2021-02-22 16:33:05.778] $GPVTG,,T,,M,,N,,K,N*2C
[2021-02-22 16:33:05.981] $GPGGA,,,,,,,,,,M,,M,,*56
[2021-02-22 16:33:05.981] $GPVTG,,T,,M,,N,,K,N*2C
[2021-02-22 16:33:06.184] $GPGGA,,,,,,,,,,M,,M,,*56
[2021-02-22 16:33:06.184] $GPVTG,,T,,M,,N,,K,N*2C
[2021-02-22 16:33:06.371] $GPGGA,,,,,,,,,,M,,M,,*56
[2021-02-22 16:33:06.387] $GPVTG,,T,,M,,N,,K,N*2C
[2021-02-22 16:33:06.575] $GPGGA,,,,,,,,,,M,,M,,*56
[2021-02-22 16:33:06.575] $GPVTG,,T,,M,,N,,K,N*2C
[2021-02-22 16:33:06.778] $GPGGA,,,,,,,,,,M,,M,,*56
[2021-02-22 16:33:06.778] $GPVTG,,T,,M,,N,,K,N*2C
[2021-02-22 16:33:06.981] $GPGGA,,,,,,,,,,M,,M,,*56
[2021-02-22 16:33:06.981] $GPVTG,,T,,M,,N,,K,N*2C
[2021-02-22 16:33:07.184] $GPGGA,,,,,,,,,,M,,M,,*56
[2021-02-22 16:33:07.184] $GPVTG,,T,,M,,N,,K,N*2C
[2021-02-22 16:33:07.371] $GPGGA,,,,,,,,,,M,,M,,*56
[2021-02-22 16:33:07.387] $GPVTG,,T,,M,,N,,K,N*2C
[2021-02-22 16:33:07.574] $GPGGA,,,,,,,,,,M,,M,,*56
[2021-02-22 16:33:07.574] $GPVTG,,T,,M,,N,,K,N*2C
[2021-02-22 16:33:07.778] $GPGGA,,,,,,,,,,M,,M,,*56
[2021-02-22 16:33:07.778] $GPVTG,,T,,M,,N,,K,N*2C
[2021-02-22 16:33:07.981] $GPGGA,,,,,,,,,,M,,M,,*56
[2021-02-22 16:33:07.981] $GPVTG,,T,,M,,N,,K,N*2C
[2021-02-22 16:33:08.184] $GPGGA,,,,,,,,,,M,,M,,*56
[2021-02-22 16:33:08.184] $GPVTG,,T,,M,,N,,K,N*2C
[2021-02-22 16:33:08.371] $GPGGA,,,,,,,,,,M,,M,,*56
[2021-02-22 16:33:08.387] $GPVTG,,T,,M,,N,,K,N*2C
[2021-02-22 16:33:08.574] $GPGGA,,,,,,,,,,M,,M,,*56
[2021-02-22 16:33:08.574] $GPVTG,,T,,M,,N,,K,N*2C
[2021-02-22 16:33:08.778] $GPGGA,,,,,,,,,,M,,M,,*56
[2021-02-22 16:33:08.778] $GPVTG,,T,,M,,N,,K,N*2C
[2021-02-22 16:33:08.981] $GPGGA,,,,,,,,,,M,,M,,*56
[2021-02-22 16:33:08.981] $GPVTG,,T,,M,,N,,K,N*2C
[2021-02-22 16:33:09.184] $GPGGA,,,,,,,,,,M,,M,,*56
[2021-02-22 16:33:09.184] $GPVTG,,T,,M,,N,,K,N*2C
[2021-02-22 16:33:09.387] $GPGGA,,,,,,,,,,M,,M,,*56
[2021-02-22 16:33:09.387] $GPVTG,,T,,M,,N,,K,N*2C
[2021-02-22 16:33:09.574] $GPGGA,,,,,,,,,,M,,M,,*56
[2021-02-22 16:33:09.574] $GPVTG,,T,,M,,N,,K,N*2C
[2021-02-22 16:33:09.777] $GPGGA,,,,,,,,,,M,,M,,*56
[2021-02-22 16:33:09.777] $GPVTG,,T,,M,,N,,K,N*2C
[2021-02-22 16:33:09.981] $GPGGA,,,,,,,,,,M,,M,,*56
[2021-02-22 16:33:09.981] $GPVTG,,T,,M,,N,,K,N*2C
[2021-02-22 16:33:10.184] $GPGGA,,,,,,,,,,M,,M,,*56
[2021-02-22 16:33:10.184] $GPVTG,,T,,M,,N,,K,N*2C
[2021-02-22 16:33:10.387] $GPGGA,,,,,,,,,,M,,M,,*56
[2021-02-22 16:33:10.387] $GPVTG,,T,,M,,N,,K,N*2C
[2021-02-22 16:33:10.574] $GPGGA,,,,,,,,,,M,,M,,*56
[2021-02-22 16:33:10.574] $GPVTG,,T,,M,,N,,K,N*2C
[2021-02-22 16:33:10.777] $GPGGA,,,,,,,,,,M,,M,,*56
[2021-02-22 16:33:10.777] $GPVTG,,T,,M,,N,,K,N*2C
[2021-02-22 16:33:10.981] $GPGGA,,,,,,,,,,M,,M,,*56
[2021-02-22 16:33:10.981] $GPVTG,,T,,M,,N,,K,N*2C
[2021-02-22 16:33:11.184] $GPGGA,,,,,,,,,,M,,M,,*56
[2021-02-22 16:33:11.184] $GPVTG,,T,,M,,N,,K,N*2C
[2021-02-22 16:33:11.371] $GPGGA,,,,,,,,,,M,,M,,*56
[2021-02-22 16:33:11.387] $GPVTG,,T,,M,,N,,K,N*2C
[2021-02-22 16:33:11.574] $GPGGA,,,,,,,,,,M,,M,,*56
[2021-02-22 16:33:11.574] $GPVTG,,T,,M,,N,,K,N*2C
[2021-02-22 16:33:11.777] $GPGGA,,,,,,,,,,M,,M,,*56
[2021-02-22 16:33:11.777] $GPVTG,,T,,M,,N,,K,N*2C
[2021-02-22 16:33:11.980] $GPGGA,,,,,,,,,,M,,M,,*56
[2021-02-22 16:33:11.980] $GPVTG,,T,,M,,N,,K,N*2C
[2021-02-22 16:33:12.184] $GPGGA,,,,,,,,,,M,,M,,*56
[2021-02-22 16:33:12.184] $GPVTG,,T,,M,,N,,K,N*2C
[2021-02-22 16:33:12.371] $GPGGA,,,,,,,,,,M,,M,,*56
[2021-02-22 16:33:12.387] $GPVTG,,T,,M,,N,,K,N*2C
[2021-02-22 16:33:12.574] $GPGGA,,,,,,,,,,M,,M,,*56
[2021-02-22 16:33:12.574] $GPVTG,,T,,M,,N,,K,N*2C
[2021-02-22 16:33:12.777] $GPGGA,,,,,,,,,,M,,M,,*56
[2021-02-22 16:33:12.777] $GPVTG,,T,,M,,N,,K,N*2C
[2021-02-22 16:33:12.980] $GPGGA,,,,,,,,,,M,,M,,*56
[2021-02-22 16:33:12.980] $GPVTG,,T,,M,,N,,K,N*2C
[2021-02-22 16:33:13.183] $GPGGA,,,,,,,,,,M,,M,,*56
[2021-02-22 16:33:13.183] $GPVTG,,T,,M,,N,,K,N*2C
[2021-02-22 16:33:13.371] $GPGGA,,,,,,,,,,M,,M,,*56
[2021-02-22 16:33:13.387] $GPVTG,,T,,M,,N,,K,N*2C
[2021-02-22 16:33:13.574] $GPGGA,,,,,,,,,,M,,M,,*56
[2021-02-22 16:33:13.574] $GPVTG,,T,,M,,N,,K,N*2C
[2021-02-22 16:33:13.777] $GPGGA,,,,,,,,,,M,,M,,*56
[2021-02-22 16:33:13.777] $GPVTG,,T,,M,,N,,K,N*2C
[2021-02-22 16:33:13.980] $GPGGA,,,,,,,,,,M,,M,,*56
[2021-02-22 16:33:13.980] $GPVTG,,T,,M,,N,,K,N*2C
[2021-02-22 16:33:14.183] $GPGGA,,,,,,,,,,M,,M,,*56
[2021-02-22 16:33:14.183] $GPVTG,,T,,M,,N,,K,N*2C
[2021-02-22 16:33:14.386] $GPGGA,,,,,,,,,,M,,M,,*56
[2021-02-22 16:33:14.386] $GPVTG,,T,,M,,N,,K,N*2C
[2021-02-22 16:33:14.574] $GPGGA,,,,,,,,,,M,,M,,*56
[2021-02-22 16:33:14.590] $GPVTG,,T,,M,,N,,K,N*2C
[2021-02-22 16:33:14.777] $GPGGA,,,,,,,,,,M,,M,,*56
[2021-02-22 16:33:14.777] $GPVTG,,T,,M,,N,,K,N*2C
[2021-02-22 16:33:14.980] $GPGGA,,,,,,,,,,M,,M,,*56
[2021-02-22 16:33:14.980] $GPVTG,,T,,M,,N,,K,N*2C
[2021-02-22 16:33:15.183] $GPGGA,,,,,,,,,,M,,M,,*56
[2021-02-22 16:33:15.183] $GPVTG,,T,,M,,N,,K,N*2C
[2021-02-22 16:33:15.371] $GPGGA,,,,,,,,,,M,,M,,*56
[2021-02-22 16:33:15.386] $GPVTG,,T,,M,,N,,K,N*2C
[2021-02-22 16:33:15.574] $GPGGA,,,,,,,,,,M,,M,,*56
[2021-02-22 16:33:15.574] $GPVTG,,T,,M,,N,,K,N*2C
[2021-02-22 16:33:15.777] $GPGGA,,,,,,,,,,M,,M,,*56
[2021-02-22 16:33:15.777] $GPVTG,,T,,M,,N,,K,N*2C
[2021-02-22 16:33:15.980] $GPGGA,,,,,,,,,,M,,M,,*56
[2021-02-22 16:33:15.980] $GPVTG,,T,,M,,N,,K,N*2C
[2021-02-22 16:33:16.183] $GPGGA,,,,,,,,,,M,,M,,*56
[2021-02-22 16:33:16.183] $GPVTG,,T,,M,,N,,K,N*2C
[2021-02-22 16:33:16.371] $GPGGA,,,,,,,,,,M,,M,,*56
[2021-02-22 16:33:16.386] $GPVTG,,T,,M,,N,,K,N*2C
[2021-02-22 16:33:16.574] $GPGGA,,,,,,,,,,M,,M,,*56
[2021-02-22 16:33:16.574] $GPVTG,,T,,M,,N,,K,N*2C
[2021-02-22 16:33:16.777] $GPGGA,,,,,,,,,,M,,M,,*56
[2021-02-22 16:33:16.777] $GPVTG,,T,,M,,N,,K,N*2C
[2021-02-22 16:33:16.980] $GPGGA,,,,,,,,,,M,,M,,*56
[2021-02-22 16:33:16.980] $GPVTG,,T,,M,,N,,K,N*2C
[2021-02-22 16:33:17.183] $GPGGA,,,,,,,,,,M,,M,,*56
[2021-02-22 16:33:17.183] $GPVTG,,T,,M,,N,,K,N*2C
[2021-02-22 16:33:17.371] $GPGGA,,,,,,,,,,M,,M,,*56
[2021-02-22 16:33:17.386] $GPVTG,,T,,M,,N,,K,N*2C
[2021-02-22 16:33:17.574] $GPGGA,,,,,,,,,,M,,M,,*56
[2021-02-22 16:33:17.574] $GPVTG,,T,,M,,N,,K,N*2C
[2021-02-22 16:33:17.777] $GPGGA,,,,,,,,,,M,,M,,*56
[2021-02-22 16:33:17.777] $GPVTG,,T,,M,,N,,K,N*2C
[2021-02-22 16:33:17.980] $GPGGA,,,,,,,,,,M,,M,,*56
[2021-02-22 16:33:17.980] $GPVTG,,T,,M,,N,,K,N*2C
[2021-02-22 16:33:18.183] $GPGGA,,,,,,,,,,M,,M,,*56
[2021-02-22 16:33:18.183] $GPVTG,,T,,M,,N,,K,N*2C
[2021-02-22 16:33:18.371] $GPGGA,,,,,,,,,,M,,M,,*56
[2021-02-22 16:33:18.386] $GPVTG,,T,,M,,N,,K,N*2C
[2021-02-22 16:33:18.574] $GPGGA,,,,,,,,,,M,,M,,*56
[2021-02-22 16:33:18.574] $GPVTG,,T,,M,,N,,K,N*2C
[2021-02-22 16:33:18.777] $GPGGA,,,,,,,,,,M,,M,,*56
[2021-02-22 16:33:18.777] $GPVTG,,T,,M,,N,,K,N*2C
[2021-02-22 16:33:18.980] $GPGGA,,,,,,,,,,M,,M,,*56
[2021-02-22 16:33:18.980] $GPVTG,,T,,M,,N,,K,N*2C
[2021-02-22 16:33:19.183] $GPGGA,,,,,,,,,,M,,M,,*56
[2021-02-22 16:33:19.183] $GPVTG,,T,,M,,N,,K,N*2C
[2021-02-22 16:33:19.371] $GPGGA,,,,,,,,,,M,,M,,*56
[2021-02-22 16:33:19.386] $GPVTG,,T,,M,,N,,K,N*2C
[2021-02-22 16:33:19.574] $GPGGA,,,,,,,,,,M,,M,,*56
[2021-02-22 16:33:19.574] $GPVTG,,T,,M,,N,,K,N*2C
[2021-02-22 16:33:19.777] $GPGGA,,,,,,,,,,M,,M,,*56
[2021-02-22 16:33:19.777] $GPVTG,,T,,M,,N,,K,N*2C
[2021-02-22 16:33:19.980] $GPGGA,,,,,,,,,,M,,M,,*56
[2021-02-22 16:33:19.980] $GPVTG,,T,,M,,N,,K,N*2C
[2021-02-22 16:33:20.183] $GPGGA,,,,,,,,,,M,,M,,*56
[2021-02-22 16:33:20.183] $GPVTG,,T,,M,,N,,K,N*2C
[2021-02-22 16:33:20.386] $GPGGA,,,,,,,,,,M,,M,,*56
[2021-02-22 16:33:20.386] $GPVTG,,T,,M,,N,,K,N*2C
[2021-02-22 16:33:20.574] $GPGGA,,,,,,,,,,M,,M,,*56
[2021-02-22 16:33:20.574] $GPVTG,,T,,M,,N,,K,N*2C
[2021-02-22 16:33:20.777] $GPGGA,,,,,,,,,,M,,M,,*56
[2021-02-22 16:33:20.777] $GPVTG,,T,,M,,N,,K,N*2C
[2021-02-22 16:33:20.980] $GPGGA,,,,,,,,,,M,,M,,*56
[2021-02-22 16:33:20.980] $GPVTG,,T,,M,,N,,K,N*2C
[2021-02-22 16:33:21.183] $GPGGA,,,,,,,,,,M,,M,,*56
[2021-02-22 16:33:21.183] $GPVTG,,T,,M,,N,,K,N*2C
[2021-02-22 16:33:21.386] $GPGGA,073321.00,3713.97478556,N,13701.55824837,E,2,04,3.0,90.902,M,36.771,M,47.0,0000*44
[2021-02-22 16:33:21.386] $GPVTG,195.51,T,203.96,M,0.25,N,0.46,K,D*24
[2021-02-22 16:33:21.589] $GPGGA,073321.20,3713.97347397,N,13701.55929844,E,1,04,3.0,88.727,M,36.771,M,,*50
[2021-02-22 16:33:21.589] $GPVTG,280.34,T,288.79,M,0.17,N,0.32,K,A*25
[2021-02-22 16:33:21.683] $GPGGA,073321.30,3713.97347496,N,13701.55930363,E,1,04,3.0,88.727,M,36.771,M,,*51
[2021-02-22 16:33:21.683] $GPVTG,76.87,T,85.32,M,0.15,N,0.28,K,A*2F
[2021-02-22 16:33:21.792] $GPGGA,073321.40,3713.97487072,N,13701.55948147,E,2,04,3.0,88.769,M,36.771,M,47.4,0000*48
[2021-02-22 16:33:21.792] $GPVTG,326.86,T,335.31,M,0.09,N,0.17,K,D*27
[2021-02-22 16:33:21.886] $GPGGA,073321.50,3713.97487091,N,13701.55947912,E,2,04,3.0,88.769,M,36.771,M,47.4,0000*43
[2021-02-22 16:33:21.886] $GPVTG,282.11,T,290.56,M,0.08,N,0.14,K,D*2B
[2021-02-22 16:33:21.980] $GPGGA,073321.60,3713.97469412,N,13701.56013843,E,2,05,2.5,87.683,M,36.771,M,47.6,0000*4C
[2021-02-22 16:33:21.995] $GPVTG,282.14,T,290.59,M,0.07,N,0.12,K,D*28
[2021-02-22 16:33:22.073] $GPGGA,073321.70,3713.97469542,N,13701.56013698,E,2,05,2.5,87.679,M,36.771,M,47.6,0000*44
[2021-02-22 16:33:22.089] $GPVTG,288.93,T,297.38,M,0.07,N,0.13,K,D*2C
[2021-02-22 16:33:22.183] $GPGGA,073321.80,3713.97463728,N,13701.56027707,E,2,05,2.5,87.918,M,36.771,M,47.8,0000*49
[2021-02-22 16:33:22.198] $GPVTG,267.61,T,276.06,M,0.07,N,0.13,K,D*22
[2021-02-22 16:33:22.277] $GPGGA,073321.90,3713.97463750,N,13701.56027656,E,2,05,2.5,87.915,M,36.771,M,47.8,0000*4F
[2021-02-22 16:33:22.292] $GPVTG,259.23,T,267.68,M,0.05,N,0.10,K,D*20
[2021-02-22 16:33:22.386] $GPGGA,073322.00,3713.97459687,N,13701.56031702,E,2,05,2.5,88.196,M,36.771,M,48.0,0000*4B
[2021-02-22 16:33:22.402] $GPVTG,250.75,T,259.20,M,0.03,N,0.06,K,D*2A
[2021-02-22 16:33:22.480] $GPGGA,073322.10,3713.97459642,N,13701.56031568,E,2,05,2.5,88.198,M,36.771,M,48.0,0000*43
[2021-02-22 16:33:22.495] $GPVTG,243.15,T,251.60,M,0.04,N,0.07,K,D*24
[2021-02-22 16:33:22.589] $GPGGA,073322.20,3713.97456900,N,13701.56034318,E,2,05,2.5,88.427,M,36.771,M,48.2,0000*41
[2021-02-22 16:33:22.589] $GPVTG,255.35,T,263.80,M,0.06,N,0.11,K,D*2B
[2021-02-22 16:33:22.683] $GPGGA,073322.30,3713.97456874,N,13701.56034232,E,2,05,2.5,88.426,M,36.771,M,48.2,0000*4A
[2021-02-22 16:33:22.683] $GPVTG,250.96,T,259.41,M,0.05,N,0.10,K,D*21
[2021-02-22 16:33:22.792] $GPGGA,073322.40,3713.97453355,N,13701.56031355,E,2,05,2.5,88.626,M,36.771,M,48.4,0000*41
[2021-02-22 16:33:22.792] $GPVTG,251.59,T,260.04,M,0.07,N,0.14,K,D*2E
[2021-02-22 16:33:22.886] $GPGGA,073322.50,3713.97453289,N,13701.56031092,E,2,05,2.5,88.628,M,36.771,M,48.4,0000*46
[2021-02-22 16:33:22.886] $GPVTG,251.43,T,259.88,M,0.07,N,0.14,K,D*2B
[2021-02-22 16:33:22.980] $GPGGA,073322.60,3713.97449437,N,13701.56025863,E,2,05,2.5,88.801,M,36.771,M,48.6,0000*49
[2021-02-22 16:33:22.995] $GPVTG,236.00,T,244.45,M,0.09,N,0.16,K,D*2C
[2021-02-22 16:33:23.073] $GPGGA,073322.70,3713.97449561,N,13701.56025646,E,2,05,2.5,88.812,M,36.771,M,48.6,0000*41
[2021-02-22 16:33:23.089] $GPVTG,259.21,T,267.66,M,0.05,N,0.09,K,D*24
[2021-02-22 16:33:23.183] $GPGGA,073322.80,3713.97446652,N,13701.56017031,E,2,05,2.5,88.995,M,36.771,M,48.8,0000*45
[2021-02-22 16:33:23.198] $GPVTG,265.87,T,274.32,M,0.07,N,0.13,K,D*2D
[2021-02-22 16:33:23.277] $GPGGA,073322.90,3713.97446492,N,13701.56016606,E,2,05,2.5,89.005,M,36.771,M,48.8,0000*48
[2021-02-22 16:33:23.292] $GPVTG,256.88,T,265.32,M,0.07,N,0.13,K,D*22
[2021-02-22 16:33:23.386] $GPGGA,073323.00,3713.97445560,N,13701.56006616,E,2,05,2.5,89.181,M,36.771,M,49.0,0000*4B
[2021-02-22 16:33:23.401] $GPVTG,290.23,T,298.68,M,0.08,N,0.15,K,D*2D
[2021-02-22 16:33:23.480] $GPGGA,073323.10,3713.97445256,N,13701.56006607,E,2,05,2.5,89.180,M,36.771,M,49.0,0000*49
[2021-02-22 16:33:23.495] $GPVTG,254.38,T,262.83,M,0.06,N,0.11,K,D*25
[2021-02-22 16:33:23.589] $GPGGA,073323.20,3713.97444724,N,13701.55997692,E,2,05,2.5,89.324,M,36.771,M,49.2,0000*4B
[2021-02-22 16:33:23.589] $GPVTG,282.15,T,290.60,M,0.03,N,0.06,K,D*22
[2021-02-22 16:33:23.683] $GPGGA,073323.30,3713.97444969,N,13701.55997398,E,2,05,2.5,89.323,M,36.771,M,49.2,0000*45
[2021-02-22 16:33:23.683] $GPVTG,306.27,T,314.72,M,0.06,N,0.11,K,D*23
[2021-02-22 16:33:23.792] $GPGGA,073323.40,3713.97444633,N,13701.55988546,E,2,05,2.5,89.439,M,36.771,M,49.4,0000*43
[2021-02-22 16:33:23.792] $GPVTG,283.40,T,291.85,M,0.06,N,0.10,K,D*2B
[2021-02-22 16:33:23.886] $GPGGA,073323.50,3713.97444571,N,13701.55988272,E,2,05,2.5,89.445,M,36.771,M,49.4,0000*4C
[2021-02-22 16:33:23.886] $GPVTG,274.01,T,282.46,M,0.05,N,0.10,K,D*28
[2021-02-22 16:33:23.980] $GPGGA,073323.60,3713.97445055,N,13701.55978267,E,2,05,2.5,89.579,M,36.771,M,49.6,0000*4A
[2021-02-22 16:33:23.995] $GPVTG,286.17,T,294.62,M,0.08,N,0.15,K,D*2B
[2021-02-22 16:33:24.073] $GPGGA,073323.70,3713.97445176,N,13701.55978319,E,2,05,2.5,89.584,M,36.771,M,49.6,0000*41
[2021-02-22 16:33:24.089] $GPVTG,309.04,T,317.49,M,0.05,N,0.10,K,D*24
[2021-02-22 16:33:24.183] $GPGGA,073323.80,3713.97445391,N,13701.55969027,E,2,05,2.5,89.710,M,36.771,M,49.8,0000*4A
[2021-02-22 16:33:24.198] $GPVTG,283.22,T,291.67,M,0.07,N,0.14,K,D*26
[2021-02-22 16:33:24.276] $GPGGA,073323.90,3713.97445606,N,13701.55968974,E,2,05,2.5,89.701,M,36.771,M,49.8,0000*4E
[2021-02-22 16:33:24.292] $GPVTG,290.27,T,298.72,M,0.09,N,0.17,K,D*21
[2021-02-22 16:33:24.386] $GPGGA,073324.00,3713.97445365,N,13701.55960818,E,2,05,2.5,89.816,M,36.771,M,50.0,0000*4A
[2021-02-22 16:33:24.401] $GPVTG,279.18,T,287.63,M,0.08,N,0.14,K,D*26
[2021-02-22 16:33:24.480] $GPGGA,073324.10,3713.97445504,N,13701.55960582,E,2,05,2.5,89.813,M,36.771,M,50.0,0000*41
[2021-02-22 16:33:24.495] $GPVTG,282.19,T,290.64,M,0.09,N,0.18,K,D*2F
[2021-02-22 16:33:24.589] $GPGGA,073324.20,3713.97446142,N,13701.55956495,E,2,06,1.5,89.910,M,36.771,M,50.2,0000*45
[2021-02-22 16:33:24.589] $GPVTG,270.96,T,279.41,M,0.08,N,0.14,K,D*28
[2021-02-22 16:33:24.683] $GPGGA,073324.30,3713.97446242,N,13701.55955923,E,2,06,1.5,89.912,M,36.771,M,50.2,0000*46
[2021-02-22 16:33:24.683] $GPVTG,276.20,T,284.65,M,0.11,N,0.21,K,D*29
[2021-02-22 16:33:24.792] $GPGGA,073324.40,3713.97447313,N,13701.55953175,E,2,06,1.5,90.007,M,36.771,M,50.4,0000*4B
[2021-02-22 16:33:24.792] $GPVTG,270.92,T,279.37,M,0.11,N,0.21,K,D*23
[2021-02-22 16:33:24.886] $GPGGA,073324.50,3713.97447305,N,13701.55953102,E,2,06,1.5,90.013,M,36.771,M,50.4,0000*48
[2021-02-22 16:33:24.886] $GPVTG,269.15,T,277.60,M,0.08,N,0.15,K,D*27
[2021-02-22 16:33:24.995] $GPGGA,073324.60,3713.97449299,N,13701.55952537,E,2,07,1.5,90.115,M,36.771,M,50.6,0000*46
[2021-02-22 16:33:24.995] $GPVTG,279.82,T,288.27,M,0.07,N,0.14,K,D*25
[2021-02-22 16:33:25.073] $GPGGA,073324.70,3713.97449495,N,13701.55952934,E,2,07,1.5,90.110,M,36.771,M,50.6,0000*47
[2021-02-22 16:33:25.089] $GPVTG,327.21,T,335.66,M,0.04,N,0.07,K,D*25
[2021-02-22 16:33:25.183] $GPGGA,073324.80,3713.97453253,N,13701.55954843,E,2,07,1.5,90.241,M,36.771,M,50.8,0000*41
[2021-02-22 16:33:25.198] $GPVTG,348.80,T,357.25,M,0.03,N,0.06,K,D*22
[2021-02-22 16:33:25.276] $GPGGA,073324.90,3713.97453091,N,13701.55954567,E,2,07,1.5,90.245,M,36.771,M,50.8,0000*43
[2021-02-22 16:33:25.292] $GPVTG,263.54,T,271.99,M,0.02,N,0.04,K,D*22
[2021-02-22 16:33:25.386] $GPGGA,073325.00,3713.97455645,N,13701.55953371,E,2,07,1.5,90.360,M,36.771,M,51.0,0000*4B
[2021-02-22 16:33:25.401] $GPVTG,249.33,T,257.78,M,0.02,N,0.04,K,D*20
[2021-02-22 16:33:25.479] $GPGGA,073325.10,3713.97455697,N,13701.55953433,E,2,07,1.5,90.360,M,36.771,M,51.0,0000*44
[2021-02-22 16:33:25.495] $GPVTG,260.77,T,269.22,M,0.01,N,0.01,K,D*2F
[2021-02-22 16:33:25.589] $GPGGA,073325.20,3713.97457561,N,13701.55951766,E,2,07,1.5,90.444,M,36.771,M,51.2,0000*4D
[2021-02-22 16:33:25.589] $GPVTG,258.61,T,267.06,M,0.03,N,0.05,K,D*2D
[2021-02-22 16:33:25.683] $GPGGA,073325.30,3713.97457645,N,13701.55951829,E,2,07,1.5,90.451,M,36.771,M,51.2,0000*49
[2021-02-22 16:33:25.683] $GPVTG,346.57,T,355.02,M,0.01,N,0.02,K,D*27
[2021-02-22 16:33:25.792] $GPGGA,073325.40,3713.97459289,N,13701.55949371,E,2,07,1.5,90.536,M,36.771,M,51.4,0000*4D
[2021-02-22 16:33:25.792] $GPVTG,353.63,T,2.08,M,0.08,N,0.14,K,D*21
[2021-02-22 16:33:25.886] $GPGGA,073325.50,3713.97459409,N,13701.55949440,E,2,07,1.5,90.534,M,36.771,M,51.4,0000*45
[2021-02-22 16:33:25.886] $GPVTG,347.20,T,355.65,M,0.07,N,0.12,K,D*20
[2021-02-22 16:33:25.979] $GPGGA,073325.60,3713.97459403,N,13701.55945040,E,2,07,1.5,90.599,M,36.771,M,51.6,0000*41
[2021-02-22 16:33:25.995] $GPVTG,356.67,T,5.12,M,0.05,N,0.10,K,D*25
[2021-02-22 16:33:26.073] $GPGGA,073325.70,3713.97459648,N,13701.55945083,E,2,07,1.5,90.594,M,36.771,M,51.6,0000*4F
[2021-02-22 16:33:26.089] $GPVTG,344.80,T,353.25,M,0.06,N,0.12,K,D*2A
[2021-02-22 16:33:26.183] $GPGGA,073325.80,3713.97458769,N,13701.55939005,E,2,07,1.5,90.651,M,36.771,M,51.8,0000*42
[2021-02-22 16:33:26.198] $GPVTG,316.26,T,324.71,M,0.07,N,0.12,K,D*21
[2021-02-22 16:33:26.276] $GPGGA,073325.90,3713.97458747,N,13701.55939262,E,2,07,1.5,90.648,M,36.771,M,51.8,0000*44
[2021-02-22 16:33:26.292] $GPVTG,318.82,T,327.27,M,0.03,N,0.05,K,D*23
[2021-02-22 16:33:26.386] $GPGGA,073326.00,3713.97457313,N,13701.55933597,E,2,07,1.5,90.705,M,36.771,M,52.0,0000*40
[2021-02-22 16:33:26.401] $GPVTG,270.46,T,278.91,M,0.04,N,0.07,K,D*27
[2021-02-22 16:33:26.479] $GPGGA,073326.10,3713.97457255,N,13701.55933745,E,2,07,1.5,90.709,M,36.771,M,52.0,0000*43
[2021-02-22 16:33:26.495] $GPVTG,213.33,T,221.78,M,0.01,N,0.03,K,D*2A
[2021-02-22 16:33:26.589] $GPGGA,073326.20,3713.97455711,N,13701.55928310,E,2,07,1.5,90.760,M,36.771,M,52.2,0000*44
[2021-02-22 16:33:26.589] $GPVTG,211.69,T,220.14,M,0.03,N,0.05,K,D*28
[2021-02-22 16:33:26.683] $GPGGA,073326.30,3713.97455748,N,13701.55927987,E,2,07,1.5,90.761,M,36.771,M,52.2,0000*43
[2021-02-22 16:33:26.683] $GPVTG,250.13,T,258.58,M,0.05,N,0.10,K,D*25
[2021-02-22 16:33:26.792] $GPGGA,073326.40,3713.97454216,N,13701.55922501,E,2,07,1.5,90.809,M,36.771,M,52.4,0000*4B
[2021-02-22 16:33:26.792] $GPVTG,263.52,T,271.97,M,0.04,N,0.08,K,D*20
[2021-02-22 16:33:26.886] $GPGGA,073326.50,3713.97454364,N,13701.55923155,E,2,07,1.5,90.804,M,36.771,M,52.4,0000*47
[2021-02-22 16:33:26.886] $GPVTG,62.80,T,71.25,M,0.02,N,0.04,K,D*2D
[2021-02-22 16:33:26.979] $GPGGA,073326.60,3713.97452740,N,13701.55918369,E,2,07,1.5,90.848,M,36.771,M,52.6,0000*4F
[2021-02-22 16:33:26.995] $GPVTG,65.62,T,74.07,M,0.04,N,0.07,K,D*26
[2021-02-22 16:33:27.073] $GPGGA,073326.70,3713.97452860,N,13701.55918047,E,2,07,1.5,90.848,M,36.771,M,52.6,0000*4C
[2021-02-22 16:33:27.089] $GPVTG,310.97,T,319.42,M,0.03,N,0.06,K,D*22
[2021-02-22 16:33:27.182] $GPGGA,073326.80,3713.97451360,N,13701.55913786,E,2,07,1.5,90.894,M,36.771,M,52.8,0000*45
[2021-02-22 16:33:27.198] $GPVTG,26.48,T,34.93,M,0.03,N,0.05,K,D*25
[2021-02-22 16:33:27.276] $GPGGA,073326.90,3713.97451574,N,13701.55914034,E,2,07,1.5,90.891,M,36.771,M,52.8,0000*4B
[2021-02-22 16:33:27.292] $GPVTG,32.25,T,40.69,M,0.05,N,0.09,K,D*27
[2021-02-22 16:33:27.386] $GPGGA,073327.00,3713.97450310,N,13701.55909872,E,2,07,1.5,90.932,M,36.771,M,53.0,0000*41
[2021-02-22 16:33:27.401] $GPVTG,342.96,T,351.41,M,0.05,N,0.08,K,D*23
[2021-02-22 16:33:27.479] $GPGGA,073327.10,3713.97450440,N,13701.55909938,E,2,07,1.5,90.935,M,36.771,M,53.0,0000*4A
[2021-02-22 16:33:27.495] $GPVTG,343.34,T,351.79,M,0.05,N,0.09,K,D*20
[2021-02-22 16:33:27.589] $GPGGA,073327.20,3713.97449244,N,13701.55905711,E,2,07,1.5,90.962,M,36.771,M,53.2,0000*4A
[2021-02-22 16:33:27.589] $GPVTG,305.42,T,313.86,M,0.07,N,0.13,K,D*2C
[2021-02-22 16:33:27.682] $GPGGA,073327.30,3713.97449460,N,13701.55905609,E,2,07,1.5,90.966,M,36.771,M,53.2,0000*47
[2021-02-22 16:33:27.682] $GPVTG,313.87,T,322.32,M,0.08,N,0.14,K,D*27
[2021-02-22 16:33:27.792] $GPGGA,073327.40,3713.97448349,N,13701.55902048,E,2,07,1.5,90.992,M,36.771,M,53.4,0000*44
[2021-02-22 16:33:27.792] $GPVTG,278.55,T,287.00,M,0.08,N,0.15,K,D*2A
[2021-02-22 16:33:27.886] $GPGGA,073327.50,3713.97448551,N,13701.55901965,E,2,07,1.5,90.989,M,36.771,M,53.4,0000*45
[2021-02-22 16:33:27.886] $GPVTG,286.74,T,295.19,M,0.09,N,0.17,K,D*20
[2021-02-22 16:33:27.979] $GPGGA,073327.60,3713.97447845,N,13701.55898625,E,2,07,1.5,91.022,M,36.771,M,53.6,0000*40
[2021-02-22 16:33:27.995] $GPVTG,278.06,T,286.51,M,0.10,N,0.18,K,D*2D
[2021-02-22 16:33:28.073] $GPGGA,073327.70,3713.97447972,N,13701.55898098,E,2,07,1.5,91.026,M,36.771,M,53.6,0000*40
[2021-02-22 16:33:28.089] $GPVTG,281.11,T,289.56,M,0.13,N,0.23,K,D*2E
[2021-02-22 16:33:28.182] $GPGGA,073327.80,3713.97447912,N,13701.55896843,E,2,07,1.5,91.039,M,36.771,M,53.8,0000*49
[2021-02-22 16:33:28.198] $GPVTG,284.71,T,293.16,M,0.11,N,0.19,K,D*29
[2021-02-22 16:33:28.276] $GPGGA,073327.90,3713.97447841,N,13701.55896665,E,2,07,1.5,91.045,M,36.771,M,53.8,0000*4E
[2021-02-22 16:33:28.292] $GPVTG,275.69,T,284.13,M,0.09,N,0.16,K,D*2B
[2021-02-22 16:33:28.386] $GPGGA,073328.00,3713.97447737,N,13701.55895203,E,2,07,1.5,91.065,M,36.771,M,54.0,0000*4C
[2021-02-22 16:33:28.401] $GPVTG,267.29,T,275.74,M,0.11,N,0.20,K,D*2F
[2021-02-22 16:33:28.479] $GPGGA,073328.10,3713.97447669,N,13701.55894706,E,2,07,1.5,91.073,M,36.771,M,54.0,0000*41
[2021-02-22 16:33:28.495] $GPVTG,262.57,T,271.02,M,0.12,N,0.23,K,D*26
[2021-02-22 16:33:28.589] $GPGGA,073328.20,3713.97447973,N,13701.55894083,E,2,07,1.5,91.080,M,36.771,M,54.2,0000*42
[2021-02-22 16:33:28.589] $GPVTG,268.38,T,276.83,M,0.13,N,0.24,K,D*2D
[2021-02-22 16:33:28.682] $GPGGA,073328.30,3713.97447846,N,13701.55893571,E,2,07,1.5,91.083,M,36.771,M,54.2,0000*48
[2021-02-22 16:33:28.682] $GPVTG,259.93,T,268.38,M,0.15,N,0.28,K,D*2B
[2021-02-22 16:33:28.792] $GPGGA,073328.40,3713.97448253,N,13701.55893972,E,2,07,1.5,91.084,M,36.771,M,54.4,0000*40
[2021-02-22 16:33:28.792] $GPVTG,257.91,T,266.36,M,0.12,N,0.23,K,D*2B
[2021-02-22 16:33:28.885] $GPGGA,073328.50,3713.97448066,N,13701.55893411,E,2,07,1.5,91.093,M,36.771,M,54.4,0000*4B
[2021-02-22 16:33:28.885] $GPVTG,252.35,T,260.80,M,0.13,N,0.24,K,D*2D
[2021-02-22 16:33:28.995] $GPGGA,073328.60,3713.97449036,N,13701.55899110,E,2,07,1.5,91.089,M,36.771,M,54.6,0000*4B
[2021-02-22 16:33:28.995] $GPVTG,239.79,T,248.24,M,0.11,N,0.21,K,D*2B
[2021-02-22 16:33:29.073] $GPGGA,073328.70,3713.97448987,N,13701.55898815,E,2,07,1.5,91.092,M,36.771,M,54.6,0000*4F
[2021-02-22 16:33:29.089] $GPVTG,243.24,T,251.69,M,0.11,N,0.20,K,D*2E
[2021-02-22 16:33:29.182] $GPGGA,073328.80,3713.97450661,N,13701.55907940,E,2,07,1.5,91.086,M,36.771,M,54.8,0000*43
[2021-02-22 16:33:29.198] $GPVTG,248.35,T,256.80,M,0.08,N,0.15,K,D*2B
[2021-02-22 16:33:29.276] $GPGGA,073328.90,3713.97450673,N,13701.55908313,E,2,07,1.5,91.074,M,36.771,M,54.8,0000*4F
[2021-02-22 16:33:29.292] $GPVTG,227.38,T,235.83,M,0.04,N,0.08,K,D*29
[2021-02-22 16:33:29.385] $GPGGA,073329.00,3713.97452018,N,13701.55914850,E,2,07,1.5,91.063,M,36.771,M,55.0,0000*40
[2021-02-22 16:33:29.401] $GPVTG,269.23,T,277.68,M,0.06,N,0.11,K,D*20
[2021-02-22 16:33:29.479] $GPGGA,073329.10,3713.97452163,N,13701.55914983,E,2,07,1.5,91.052,M,36.771,M,55.0,0000*41
[2021-02-22 16:33:29.495] $GPVTG,284.95,T,293.40,M,0.05,N,0.09,K,D*24
[2021-02-22 16:33:29.589] $GPGGA,073329.20,3713.97452095,N,13701.55913842,E,2,07,1.5,91.037,M,36.771,M,55.2,0000*40
[2021-02-22 16:33:29.589] $GPVTG,273.35,T,281.80,M,0.05,N,0.09,K,D*29
[2021-02-22 16:33:29.682] $GPGGA,073329.30,3713.97451856,N,13701.55913409,E,2,07,1.5,91.036,M,36.771,M,55.2,0000*47
[2021-02-22 16:33:29.682] $GPVTG,248.38,T,256.83,M,0.09,N,0.17,K,D*26
[2021-02-22 16:33:29.792] $GPGGA,073329.40,3713.97451757,N,13701.55911823,E,2,07,1.5,91.020,M,36.771,M,55.4,0000*49
[2021-02-22 16:33:29.792] $GPVTG,248.20,T,256.65,M,0.09,N,0.17,K,D*27
[2021-02-22 16:33:29.885] $GPGGA,073329.50,3713.97451796,N,13701.55911757,E,2,07,1.5,91.010,M,36.771,M,55.4,0000*4A
[2021-02-22 16:33:29.885] $GPVTG,251.75,T,260.20,M,0.10,N,0.18,K,D*2C
[2021-02-22 16:33:29.979] $GPGGA,073329.60,3713.97452058,N,13701.55910925,E,2,07,1.5,91.023,M,36.771,M,55.6,0000*47
[2021-02-22 16:33:29.995] $GPVTG,245.43,T,253.88,M,0.09,N,0.17,K,D*29
[2021-02-22 16:33:30.073] $GPGGA,073329.70,3713.97452165,N,13701.55910911,E,2,07,1.5,91.019,M,36.771,M,55.6,0000*47
[2021-02-22 16:33:30.088] $GPVTG,256.29,T,264.74,M,0.07,N,0.13,K,D*2A
[2021-02-22 16:33:30.182] $GPGGA,073329.80,3713.97452748,N,13701.55911581,E,2,07,1.5,91.023,M,36.771,M,55.8,0000*42
[2021-02-22 16:33:30.198] $GPVTG,281.65,T,290.10,M,0.03,N,0.05,K,D*22
[2021-02-22 16:33:30.276] $GPGGA,073329.90,3713.97453019,N,13701.55911977,E,2,07,1.5,91.012,M,36.771,M,55.8,0000*46
[2021-02-22 16:33:30.292] $GPVTG,6.76,T,15.21,M,0.03,N,0.06,K,D*13
[2021-02-22 16:33:30.385] $GPGGA,073330.00,3713.97454446,N,13701.55918532,E,2,07,1.5,91.037,M,36.771,M,56.0,0000*46
[2021-02-22 16:33:30.401] $GPVTG,28.11,T,36.56,M,0.05,N,0.09,K,D*26
[2021-02-22 16:33:30.479] $GPGGA,073330.10,3713.97454371,N,13701.55918801,E,2,07,1.5,91.029,M,36.771,M,56.0,0000*46
[2021-02-22 16:33:30.495] $GPVTG,65.00,T,73.45,M,0.03,N,0.06,K,D*25
[2021-02-22 16:33:30.588] $GPGGA,073330.20,3713.97455527,N,13701.55924006,E,2,07,1.5,91.050,M,36.771,M,56.2,0000*4D
[2021-02-22 16:33:30.588] $GPVTG,54.67,T,63.12,M,0.05,N,0.10,K,D*24
[2021-02-22 16:33:30.682] $GPGGA,073330.30,3713.97455657,N,13701.55923998,E,2,07,1.5,91.037,M,36.771,M,56.2,0000*40
[2021-02-22 16:33:30.682] $GPVTG,17.71,T,26.16,M,0.03,N,0.06,K,D*20
[2021-02-22 16:33:30.792] $GPGGA,073330.40,3713.97456393,N,13701.55927823,E,2,07,1.5,91.063,M,36.771,M,56.4,0000*4B
[2021-02-22 16:33:30.807] $GPVTG,14.08,T,22.52,M,0.02,N,0.04,K,D*2A
[2021-02-22 16:33:30.885] $GPGGA,073330.50,3713.97456693,N,13701.55927662,E,2,07,1.5,91.055,M,36.771,M,56.4,0000*41
[2021-02-22 16:33:30.885] $GPVTG,324.24,T,332.69,M,0.06,N,0.10,K,D*2F
[2021-02-22 16:33:30.979] $GPGGA,073330.60,3713.97457617,N,13701.55931191,E,2,07,1.5,91.057,M,36.771,M,56.6,0000*43
[2021-02-22 16:33:30.995] $GPVTG,343.85,T,352.30,M,0.06,N,0.12,K,D*2D
[2021-02-22 16:33:31.073] $GPGGA,073330.70,3713.97457490,N,13701.55930705,E,2,07,1.5,91.067,M,36.771,M,56.6,0000*46
[2021-02-22 16:33:31.088] $GPVTG,307.48,T,315.92,M,0.06,N,0.11,K,D*24
[2021-02-22 16:33:31.182] $GPGGA,073330.80,3713.97458036,N,13701.55933179,E,2,07,1.5,91.073,M,36.771,M,56.8,0000*4B
[2021-02-22 16:33:31.198] $GPVTG,291.03,T,299.48,M,0.06,N,0.12,K,D*24
[2021-02-22 16:33:31.276] $GPGGA,073330.90,3713.97457794,N,13701.55933223,E,2,07,1.5,91.071,M,36.771,M,56.8,0000*44
[2021-02-22 16:33:31.292] $GPVTG,245.46,T,253.91,M,0.06,N,0.10,K,D*2C
[2021-02-22 16:33:31.385] $GPGGA,073331.00,3713.97458202,N,13701.55934851,E,2,07,1.5,91.089,M,36.771,M,57.0,0000*4F
[2021-02-22 16:33:31.401] $GPVTG,249.32,T,257.77,M,0.07,N,0.13,K,D*2D
[2021-02-22 16:33:31.479] $GPGGA,073331.10,3713.97458380,N,13701.55934721,E,2,07,1.5,91.085,M,36.771,M,57.0,0000*41
[2021-02-22 16:33:31.495] $GPVTG,271.37,T,279.82,M,0.06,N,0.11,K,D*26
[2021-02-22 16:33:31.588] $GPGGA,073331.20,3713.97458625,N,13701.55936078,E,2,07,1.5,91.044,M,36.771,M,57.2,0000*4E
[2021-02-22 16:33:31.604] $GPVTG,335.79,T,344.24,M,0.05,N,0.09,K,D*24
[2021-02-22 16:33:31.682] $GPGGA,073331.30,3713.97458709,N,13701.55936002,E,2,07,1.5,91.045,M,36.771,M,57.2,0000*4C
[2021-02-22 16:33:31.682] $GPVTG,340.67,T,349.12,M,0.05,N,0.09,K,D*21
[2021-02-22 16:33:31.792] $GPGGA,073331.40,3713.97458811,N,13701.55934431,E,2,07,1.5,91.008,M,36.771,M,57.4,0000*44
[2021-02-22 16:33:31.792] $GPVTG,348.64,T,357.09,M,0.08,N,0.16,K,D*2C
[2021-02-22 16:33:31.885] $GPGGA,073331.50,3713.97458619,N,13701.55934367,E,2,07,1.5,91.015,M,36.771,M,57.4,0000*4B
[2021-02-22 16:33:31.885] $GPVTG,353.30,T,1.75,M,0.04,N,0.08,K,D*2F
[2021-02-22 16:33:31.995] $GPGGA,073331.60,3713.97458521,N,13701.55933000,E,2,07,1.5,90.988,M,36.771,M,57.6,0000*4B
[2021-02-22 16:33:31.995] $GPVTG,35.32,T,43.77,M,0.04,N,0.08,K,D*2A
[2021-02-22 16:33:32.073] $GPGGA,073331.70,3713.97458545,N,13701.55932879,E,2,07,1.5,90.997,M,36.771,M,57.6,0000*41
[2021-02-22 16:33:32.088] $GPVTG,37.92,T,46.37,M,0.04,N,0.08,K,D*23
[2021-02-22 16:33:32.182] $GPGGA,073331.80,3713.97459210,N,13701.55931578,E,2,07,1.5,90.989,M,36.771,M,57.8,0000*46
[2021-02-22 16:33:32.198] $GPVTG,23.84,T,32.29,M,0.07,N,0.13,K,D*24
[2021-02-22 16:33:32.276] $GPGGA,073331.90,3713.97459035,N,13701.55931219,E,2,07,1.5,91.008,M,36.771,M,57.8,0000*43
[2021-02-22 16:33:32.291] $GPVTG,24.29,T,32.74,M,0.04,N,0.07,K,D*2A
[2021-02-22 16:33:32.401] $GPGGA,073332.00,3713.97459390,N,13701.55929681,E,2,07,1.5,91.010,M,36.771,M,58.0,0000*47
[2021-02-22 16:33:32.401] $GPVTG,9.96,T,18.41,M,0.04,N,0.08,K,D*10
[2021-02-22 16:33:32.479] $GPGGA,073332.10,3713.97459826,N,13701.55930267,E,2,07,1.5,90.991,M,36.771,M,58.0,0000*45
[2021-02-22 16:33:32.495] $GPVTG,20.49,T,28.94,M,0.07,N,0.13,K,D*2B
[2021-02-22 16:33:32.588] $GPGGA,073332.20,3713.97459821,N,13701.55928653,E,2,07,1.5,91.008,M,36.771,M,58.2,0000*41
[2021-02-22 16:33:32.604] $GPVTG,41.23,T,49.67,M,0.05,N,0.10,K,D*2A
[2021-02-22 16:33:32.682] $GPGGA,073332.30,3713.97459916,N,13701.55928916,E,2,07,1.5,90.999,M,36.771,M,58.2,0000*4B
[2021-02-22 16:33:32.682] $GPVTG,52.52,T,60.96,M,0.04,N,0.08,K,D*23
[2021-02-22 16:33:32.791] $GPGGA,073332.40,3713.97460243,N,13701.55928053,E,2,07,1.5,90.984,M,36.771,M,58.4,0000*4F
[2021-02-22 16:33:32.791] $GPVTG,49.52,T,57.97,M,0.06,N,0.11,K,D*26
[2021-02-22 16:33:32.885] $GPGGA,073332.50,3713.97460017,N,13701.55927406,E,2,07,1.5,90.986,M,36.771,M,58.4,0000*44
[2021-02-22 16:33:32.885] $GPVTG,252.27,T,260.72,M,0.03,N,0.05,K,D*21
[2021-02-22 16:33:32.995] $GPGGA,073332.60,3713.97460044,N,13701.55926134,E,2,07,1.5,90.984,M,36.771,M,58.6,0000*44
[2021-02-22 16:33:32.995] $GPVTG,242.90,T,251.35,M,0.07,N,0.13,K,D*2E
[2021-02-22 16:33:33.073] $GPGGA,073332.70,3713.97459796,N,13701.55926251,E,2,07,1.5,90.974,M,36.771,M,58.6,0000*48
[2021-02-22 16:33:33.088] $GPVTG,218.32,T,226.77,M,0.09,N,0.17,K,D*25
[2021-02-22 16:33:33.182] $GPGGA,073332.80,3713.97459523,N,13701.55924696,E,2,07,1.5,90.987,M,36.771,M,58.8,0000*44
[2021-02-22 16:33:33.198] $GPVTG,218.69,T,227.14,M,0.13,N,0.23,K,D*23
[2021-02-22 16:33:33.276] $GPGGA,073332.90,3713.97459419,N,13701.55924950,E,2,07,1.5,90.978,M,36.771,M,58.8,0000*48
[2021-02-22 16:33:33.291] $GPVTG,208.00,T,216.45,M,0.11,N,0.20,K,D*2A
[2021-02-22 16:33:33.385] $GPGGA,073333.00,3713.97459627,N,13701.55923822,E,2,07,1.5,90.980,M,36.771,M,59.0,0000*42
[2021-02-22 16:33:33.401] $GPVTG,225.32,T,233.77,M,0.09,N,0.16,K,D*2E
[2021-02-22 16:33:33.479] $GPGGA,073333.10,3713.97459675,N,13701.55923854,E,2,07,1.5,90.980,M,36.771,M,59.0,0000*45
[2021-02-22 16:33:33.495] $GPVTG,231.71,T,240.16,M,0.05,N,0.09,K,D*2D
[2021-02-22 16:33:33.588] $GPGGA,073333.20,3713.97459129,N,13701.55921610,E,2,07,1.5,91.036,M,36.771,M,2.2,0000*7D
[2021-02-22 16:33:33.604] $GPVTG,263.04,T,271.49,M,0.06,N,0.12,K,D*29
[2021-02-22 16:33:33.682] $GPGGA,073333.30,3713.97458979,N,13701.55921574,E,2,07,1.5,91.029,M,36.771,M,2.2,0000*7F
[2021-02-22 16:33:33.682] $GPVTG,243.88,T,252.33,M,0.06,N,0.11,K,D*20
[2021-02-22 16:33:33.791] $GPGGA,073333.40,3713.97458272,N,13701.55919783,E,2,07,1.5,91.095,M,36.771,M,2.4,0000*78
[2021-02-22 16:33:33.791] $GPVTG,258.32,T,266.77,M,0.04,N,0.08,K,D*26
[2021-02-22 16:33:33.885] $GPGGA,073333.50,3713.97458230,N,13701.55919559,E,2,07,1.5,91.091,M,36.771,M,2.4,0000*7E
[2021-02-22 16:33:33.885] $GPVTG,256.57,T,265.02,M,0.06,N,0.12,K,D*23
[2021-02-22 16:33:33.994] $GPGGA,073333.60,3713.97457414,N,13701.55918300,E,2,07,1.5,91.139,M,36.771,M,2.6,0000*78
[2021-02-22 16:33:33.994] $GPVTG,247.96,T,256.41,M,0.08,N,0.15,K,D*20
[2021-02-22 16:33:34.073] $GPGGA,073333.70,3713.97457241,N,13701.55917841,E,2,07,1.5,91.135,M,36.771,M,2.6,0000*72
[2021-02-22 16:33:34.088] $GPVTG,246.15,T,254.60,M,0.12,N,0.22,K,D*24
[2021-02-22 16:33:34.182] $GPGGA,073333.80,3713.97456745,N,13701.55917123,E,2,07,1.5,91.173,M,36.771,M,2.8,0000*7C
[2021-02-22 16:33:34.198] $GPVTG,255.95,T,264.40,M,0.12,N,0.21,K,D*2C
[2021-02-22 16:33:34.276] $GPGGA,073333.90,3713.97456652,N,13701.55916718,E,2,07,1.5,91.183,M,36.771,M,2.8,0000*7A
[2021-02-22 16:33:34.291] $GPVTG,258.59,T,267.04,M,0.10,N,0.18,K,D*2A
[2021-02-22 16:33:34.385] $GPGGA,073334.00,3713.97455721,N,13701.55916428,E,2,07,1.5,91.229,M,36.771,M,3.0,0000*78
[2021-02-22 16:33:34.401] $GPVTG,233.47,T,241.92,M,0.10,N,0.18,K,D*23
[2021-02-22 16:33:34.479] $GPGGA,073334.10,3713.97455995,N,13701.55916748,E,2,07,1.5,91.217,M,36.771,M,3.0,0000*70
[2021-02-22 16:33:34.494] $GPVTG,252.92,T,261.37,M,0.05,N,0.10,K,D*2D
[2021-02-22 16:33:34.588] $GPGGA,073334.20,3713.97455002,N,13701.55916283,E,2,07,1.5,91.273,M,36.771,M,2.2,0000*77
[2021-02-22 16:33:34.588] $GPVTG,244.52,T,252.97,M,0.05,N,0.10,K,D*2C
[2021-02-22 16:33:34.682] $GPGGA,073334.30,3713.97455211,N,13701.55915883,E,2,07,1.5,91.281,M,36.771,M,2.2,0000*72
[2021-02-22 16:33:34.682] $GPVTG,296.94,T,305.39,M,0.06,N,0.11,K,D*2C
[2021-02-22 16:33:34.791] $GPGGA,073334.40,3713.97457533,N,13701.55930098,E,2,07,1.5,91.395,M,36.771,M,2.4,0000*77
[2021-02-22 16:33:34.791] $GPVTG,314.89,T,323.34,M,0.06,N,0.12,K,D*21
[2021-02-22 16:33:34.885] $GPGGA,073334.50,3713.97457297,N,13701.55929918,E,2,07,1.5,91.400,M,36.771,M,2.4,0000*7D
[2021-02-22 16:33:34.885] $GPVTG,274.57,T,283.02,M,0.04,N,0.08,K,D*22
[2021-02-22 16:33:34.994] $GPGGA,073334.60,3713.97458382,N,13701.55937332,E,2,07,1.5,91.466,M,36.771,M,2.6,0000*7B
[2021-02-22 16:33:34.994] $GPVTG,302.52,T,310.97,M,0.04,N,0.08,K,D*20
[2021-02-22 16:33:35.073] $GPGGA,073334.70,3713.97458140,N,13701.55937221,E,2,07,1.5,91.473,M,36.771,M,2.6,0000*71
[2021-02-22 16:33:35.088] $GPVTG,241.76,T,250.21,M,0.03,N,0.05,K,D*22
[2021-02-22 16:33:35.182] $GPGGA,073334.80,3713.97457899,N,13701.55941232,E,2,07,1.5,91.515,M,36.771,M,2.8,0000*70
[2021-02-22 16:33:35.198] $GPVTG,191.69,T,200.13,M,0.04,N,0.07,K,D*23
[2021-02-22 16:33:35.276] $GPGGA,073334.90,3713.97457972,N,13701.55941586,E,2,07,1.5,91.502,M,36.771,M,2.8,0000*7B
[2021-02-22 16:33:35.291] $GPVTG,145.81,T,154.26,M,0.03,N,0.06,K,D*2E
[2021-02-22 16:33:35.385] $GPGGA,073335.00,3713.97458055,N,13701.55944309,E,2,07,1.5,91.538,M,36.771,M,3.0,0000*74
[2021-02-22 16:33:35.401] $GPVTG,151.10,T,159.55,M,0.03,N,0.05,K,D*29
[2021-02-22 16:33:35.479] $GPGGA,073335.10,3713.97458074,N,13701.55944198,E,2,07,1.5,91.536,M,36.771,M,3.0,0000*72
[2021-02-22 16:33:35.494] $GPVTG,189.23,T,197.68,M,0.02,N,0.03,K,D*27
[2021-02-22 16:33:35.588] $GPGGA,073335.20,3713.97456960,N,13701.55943112,E,2,07,1.5,91.559,M,36.771,M,2.2,0000*7C
[2021-02-22 16:33:35.604] $GPVTG,138.16,T,146.61,M,0.05,N,0.09,K,D*23
[2021-02-22 16:33:35.682] $GPGGA,073335.30,3713.97456956,N,13701.55943396,E,2,07,1.5,91.553,M,36.771,M,2.2,0000*7C
[2021-02-22 16:33:35.682] $GPVTG,124.05,T,132.50,M,0.05,N,0.10,K,D*25
[2021-02-22 16:33:35.791] $GPGGA,073335.40,3713.97456173,N,13701.55941693,E,2,07,1.5,91.582,M,36.771,M,2.4,0000*7C
[2021-02-22 16:33:35.791] $GPVTG,120.44,T,128.89,M,0.04,N,0.07,K,D*2C
[2021-02-22 16:33:35.885] $GPGGA,073335.50,3713.97456081,N,13701.55941884,E,2,07,1.5,91.578,M,36.771,M,2.4,0000*7C
[2021-02-22 16:33:35.885] $GPVTG,129.44,T,137.89,M,0.05,N,0.09,K,D*24
[2021-02-22 16:33:35.994] $GPGGA,073335.60,3713.97455671,N,13701.55939850,E,2,07,1.5,91.611,M,36.771,M,2.6,0000*7D
[2021-02-22 16:33:35.994] $GPVTG,61.69,T,70.13,M,0.01,N,0.02,K,D*28
[2021-02-22 16:33:36.073] $GPGGA,073335.70,3713.97455497,N,13701.55939911,E,2,07,1.5,91.608,M,36.771,M,2.6,0000*7A
[2021-02-22 16:33:36.088] $GPVTG,161.07,T,169.52,M,0.02,N,0.04,K,D*28
[2021-02-22 16:33:36.182] $GPGGA,073335.80,3713.97455073,N,13701.55938019,E,2,07,1.5,91.633,M,36.771,M,2.8,0000*7D
[2021-02-22 16:33:36.197] $GPVTG,244.44,T,252.89,M,0.01,N,0.02,K,D*23
[2021-02-22 16:33:36.276] $GPGGA,073335.90,3713.97455020,N,13701.55938261,E,2,07,1.5,91.634,M,36.771,M,2.8,0000*70
[2021-02-22 16:33:36.291] $GPVTG,130.46,T,138.90,M,0.02,N,0.03,K,D*24
[2021-02-22 16:33:36.385] $GPGGA,073336.00,3713.97454650,N,13701.55936188,E,2,07,1.5,91.636,M,36.771,M,3.0,0000*7B
[2021-02-22 16:33:36.401] $GPVTG,247.48,T,255.93,M,0.01,N,0.02,K,D*20
[2021-02-22 16:33:36.479] $GPGGA,073336.10,3713.97454610,N,13701.55936503,E,2,07,1.5,91.628,M,36.771,M,3.0,0000*76
[2021-02-22 16:33:36.494] $GPVTG,147.40,T,155.85,M,0.02,N,0.03,K,D*2D
[2021-02-22 16:33:36.588] $GPGGA,073336.20,3713.97454526,N,13701.55934553,E,2,07,1.5,91.666,M,36.771,M,2.2,0000*7D
[2021-02-22 16:33:36.588] $GPVTG,119.35,T,127.80,M,0.03,N,0.05,K,D*23
[2021-02-22 16:33:36.682] $GPGGA,073336.30,3713.97454717,N,13701.55934671,E,2,07,1.5,91.657,M,36.771,M,2.2,0000*7D
[2021-02-22 16:33:36.682] $GPVTG,56.16,T,64.61,M,0.01,N,0.02,K,D*24
[2021-02-22 16:33:36.791] $GPGGA,073336.40,3713.97454520,N,13701.55933021,E,2,07,1.5,91.694,M,36.771,M,2.4,0000*71
[2021-02-22 16:33:36.791] $GPVTG,143.95,T,152.40,M,0.02,N,0.04,K,D*28
[2021-02-22 16:33:36.885] $GPGGA,073336.50,3713.97454678,N,13701.55933273,E,2,07,1.5,91.688,M,36.771,M,2.4,0000*76
[2021-02-22 16:33:36.885] $GPVTG,77.34,T,85.79,M,0.03,N,0.05,K,D*24
[2021-02-22 16:33:36.994] $GPGGA,073336.60,3713.97454804,N,13701.55931769,E,2,07,1.5,91.718,M,36.771,M,2.6,0000*76
[2021-02-22 16:33:36.994] $GPVTG,46.38,T,54.83,M,0.03,N,0.05,K,D*23
[2021-02-22 16:33:37.072] $GPGGA,073336.70,3713.97454508,N,13701.55931147,E,2,07,1.5,91.728,M,36.771,M,2.6,0000*7F
[2021-02-22 16:33:37.088] $GPVTG,240.65,T,249.10,M,0.04,N,0.07,K,D*2E
[2021-02-22 16:33:37.182] $GPGGA,073336.80,3713.97454468,N,13701.55929288,E,2,07,1.5,91.765,M,36.771,M,2.8,0000*79
[2021-02-22 16:33:37.197] $GPVTG,261.45,T,269.90,M,0.07,N,0.14,K,D*24
[2021-02-22 16:33:37.276] $GPGGA,073336.90,3713.97454602,N,13701.55929868,E,2,07,1.5,91.750,M,36.771,M,2.8,0000*74
[2021-02-22 16:33:37.291] $GPVTG,259.90,T,268.35,M,0.03,N,0.06,K,D*2E
[2021-02-22 16:33:37.385] $GPGGA,073337.00,3713.97454567,N,13701.55929121,E,2,07,1.5,91.761,M,36.771,M,3.0,0000*73
[2021-02-22 16:33:37.400] $GPVTG,223.56,T,232.01,M,0.03,N,0.05,K,D*22
[2021-02-22 16:33:37.479] $GPGGA,073337.10,3713.97454702,N,13701.55929097,E,2,07,1.5,91.769,M,36.771,M,3.0,0000*77
[2021-02-22 16:33:37.494] $GPVTG,27.18,T,35.63,M,0.02,N,0.04,K,D*2F
[2021-02-22 16:33:37.588] $GPGGA,073337.20,3713.97455012,N,13701.55928128,E,2,07,1.5,91.797,M,36.771,M,3.2,0000*74
[2021-02-22 16:33:37.604] $GPVTG,4.87,T,13.32,M,0.06,N,0.12,K,D*1B
[2021-02-22 16:33:37.682] $GPGGA,073337.30,3713.97455077,N,13701.55928155,E,2,07,1.5,91.796,M,36.771,M,3.2,0000*7D
[2021-02-22 16:33:37.682] $GPVTG,11.67,T,20.12,M,0.06,N,0.11,K,D*20
[2021-02-22 16:33:37.791] $GPGGA,073337.40,3713.97454853,N,13701.55926987,E,2,07,1.5,91.829,M,36.771,M,3.4,0000*71
[2021-02-22 16:33:37.791] $GPVTG,5.95,T,14.40,M,0.05,N,0.10,K,D*1A
[2021-02-22 16:33:37.885] $GPGGA,073337.50,3713.97454945,N,13701.55927123,E,2,07,1.5,91.828,M,36.771,M,3.4,0000*70
[2021-02-22 16:33:37.885] $GPVTG,19.63,T,28.08,M,0.05,N,0.09,K,D*25
[2021-02-22 16:33:37.994] $GPGGA,073337.60,3713.97454190,N,13701.55925441,E,2,07,1.5,91.849,M,36.771,M,3.6,0000*75
[2021-02-22 16:33:37.994] $GPVTG,352.23,T,0.67,M,0.01,N,0.03,K,D*20
[2021-02-22 16:33:38.072] $GPGGA,073337.70,3713.97454220,N,13701.55924953,E,2,07,1.5,91.852,M,36.771,M,3.6,0000*79
[2021-02-22 16:33:38.088] $GPVTG,284.16,T,292.61,M,0.05,N,0.09,K,D*2D
[2021-02-22 16:33:38.182] $GPGGA,073337.80,3713.97453394,N,13701.55923177,E,2,07,1.5,91.865,M,36.771,M,3.8,0000*7C
[2021-02-22 16:33:38.197] $GPVTG,249.90,T,258.35,M,0.07,N,0.12,K,D*2D
