,Format,Time,Latitude,LatType,Longitude,LonType,Status,Satellite,LevelAccuracy,Altitude(sea),M(sea),Altitude(geoid),M(geoid),DGPS use,checksum,Lat,Lon,UTM_X,UTM_Y
389,[2021-02-22 16:45:43.878] $GNGGA,74543.3,3713.9611429879997,N,13701.567170258999,E,4,5,1.75,93.56,M,37.564,M,61.3,3006*68,37.23268571646666,137.02611950431665,679735.449327983,4122608.7449556487
390,[2021-02-22 16:45:43.972] $GNGGA,74543.4,3713.961151303,N,13701.567178939,E,4,5,1.75,93.59700000000001,M,37.564,M,61.4,3006*6E,37.23268585504999,137.02611964898335,679735.4618335548,4122608.7606070805
391,[2021-02-22 16:45:44.081] $GNGGA,74543.5,3713.9611521340003,N,13701.56717977,E,4,5,1.75,93.604,M,37.564,M,61.5,3006*60,37.2326858689,137.02611966283334,679735.4630294206,4122608.7621701295
392,[2021-02-22 16:45:44.175] $GNGGA,74543.6,3713.961151783,N,13701.567177896,E,4,5,1.75,93.583,M,37.564,M,61.6,3006*6C,37.232685863049994,137.0261196316,679735.4602723189,4122608.761461721
393,[2021-02-22 16:45:44.284] $GNGGA,74543.7,3713.961151067,N,13701.567178581001,E,4,5,1.75,93.59299999999999,M,37.564,M,61.7,3006*64,37.23268585111667,137.0261196430167,679735.4613135406,4122608.760159323
394,[2021-02-22 16:45:44.378] $GNGGA,74543.8,3713.9611498759996,N,13701.567176081999,E,4,5,1.75,93.575,M,37.564,M,61.8,3006*65,37.232685831266664,137.02611960136667,679735.4576655284,4122608.757877743
395,[2021-02-22 16:45:44.472] $GNGGA,74543.9,3713.9611485,N,13701.567174805,E,4,5,1.75,93.574,M,37.564,M,61.9,3006*6C,37.232685808333336,137.02611958008336,679735.455831756,4122608.7552927257
396,[2021-02-22 16:45:44.581] $GNGGA,74544.0,3713.961146774,N,13701.567173872,E,4,5,1.75,93.56299999999999,M,37.564,M,62.0,3006*66,37.23268577956667,137.0261195645333,679735.4545204911,4122608.752071351
397,[2021-02-22 16:45:44.675] $GNGGA,74544.1,3713.961148157,N,13701.567174785,E,4,5,1.75,93.565,M,37.564,M,62.1,3006*69,37.232685802616665,137.02611957974997,679735.4558157567,4122608.754657791
398,[2021-02-22 16:45:44.784] $GNGGA,74544.2,3713.961147615,N,13701.567173971001,E,4,5,1.75,93.546,M,37.564,M,62.2,3006*64,37.232685793583336,137.02611956618333,679735.4546335895,4122608.7536297217
399,[2021-02-22 16:45:44.878] $GNGGA,74544.3,3713.961148715,N,13701.567174648999,E,4,5,1.75,93.54299999999999,M,37.564,M,62.3,3006*6C,37.23268581191667,137.02611957748334,679735.4555925742,4122608.7556853816
400,[2021-02-22 16:45:44.972] $GNGGA,74544.4,3713.961150143,N,13701.567173704,E,4,5,1.75,93.52,M,37.564,M,62.4,3006*6A,37.23268583571666,137.0261195617333,679735.4541387182,4122608.758296231
401,[2021-02-22 16:45:45.065] $GNGGA,74544.5,3713.961150956,N,13701.567174167,E,4,5,1.75,93.514,M,37.564,M,62.5,3006*65,37.232685849266666,137.02611956944997,679735.4547911525,4122608.759814346
402,[2021-02-22 16:45:45.175] $GNGGA,74544.6,3713.961151415,N,13701.567173366,E,4,5,1.75,93.495,M,37.564,M,62.6,3006*62,37.232685856916675,137.0261195561,679735.4535885858,4122608.7606378105
403,[2021-02-22 16:45:45.300] $GNGGA,74544.7,3713.961151194,N,13701.567171439,E,4,5,1.75,93.461,M,37.564,M,62.7,3006*6A,37.23268585323334,137.0261195239833,679735.4507479654,4122608.7601681296
404,[2021-02-22 16:45:45.378] $GNGGA,74544.8,3713.961152218,N,13701.567170111999,E,4,7,1.34,93.429,M,37.564,M,62.8,3006*68,37.232685870299996,137.02611950186667,679735.4487452612,4122608.7620197837
405,[2021-02-22 16:45:45.472] $GNGGA,74544.9,3713.9611981909998,N,13701.567166925,E,4,11,0.99,92.975,M,37.564,M,62.9,3006*63,37.23268663651667,137.02611944875,679735.4422129984,4122608.84693553
406,[2021-02-22 16:45:45.581] $GNGGA,74545.0,3713.961135661,N,13701.567089623,E,4,13,0.95,92.419,M,37.564,M,63.0,3006*6C,37.232685594349995,137.02611816038333,679735.330385328,4122608.7288538315
407,[2021-02-22 16:45:45.690] $GNGGA,74545.1,3713.96113657,N,13701.567089986002,E,4,13,0.95,92.419,M,37.564,M,63.1,3006*6C,37.232685609499995,137.02611816643338,679735.3308861018,4122608.7305463105
408,[2021-02-22 16:45:45.768] $GNGGA,74545.2,3713.9611367420002,N,13701.567090563998,E,4,13,0.95,92.42,M,37.564,M,63.2,3006*6D,37.23268561236667,137.02611817606663,679735.3317339488,4122608.730882681
409,[2021-02-22 16:45:45.878] $GNGGA,74545.3,3713.961137108,N,13701.567089778,E,4,13,0.95,92.421,M,37.564,M,63.3,3006*62,37.23268561846667,137.0261181629667,679735.3305572448,4122608.7315346366
410,[2021-02-22 16:45:45.971] $GNGGA,74545.4,3713.961136842,N,13701.567090806,E,4,13,0.95,92.419,M,37.564,M,63.4,3006*61,37.23268561403333,137.0261181801,679735.3320878283,4122608.7310752664
411,[2021-02-22 16:45:46.097] $GNGGA,74545.5,3713.961137063,N,13701.567090047,E,4,13,0.95,92.419,M,37.564,M,63.5,3006*66,37.23268561771667,137.02611816744997,679735.3309567773,4122608.731459932
412,[2021-02-22 16:45:46.175] $GNGGA,74545.6,3713.961137765,N,13701.567090193,E,4,13,0.95,92.417,M,37.564,M,63.6,3006*61,37.232685629416665,137.02611816988335,679735.3311448768,4122608.7327627433
413,[2021-02-22 16:45:46.268] $GNGGA,74545.7,3713.961136925,N,13701.567091608,E,4,13,0.95,92.417,M,37.564,M,63.7,3006*6E,37.23268561541666,137.0261181934667,679735.3332704236,4122608.73125414
414,[2021-02-22 16:45:46.378] $GNGGA,74545.8,3713.961137355,N,13701.567091579,E,4,13,0.95,92.415,M,37.564,M,63.8,3006*65,37.23268562258334,137.02611819298332,679735.3332105185,4122608.7320484105
415,[2021-02-22 16:45:46.487] $GNGGA,74545.9,3713.961137573,N,13701.567091093999,E,4,13,0.95,92.417,M,37.564,M,63.9,3006*63,37.232685626216664,137.0261181849,679735.3324847439,4122608.7324362006
416,[2021-02-22 16:45:46.565] $GNGGA,74546.0,3713.961138532,N,13701.567090626,E,4,13,0.95,92.41799999999999,M,37.564,M,64.0,3006*6C,37.2326856422,137.0261181771,679735.3317547715,4122608.734194841
417,[2021-02-22 16:45:46.675] $GNGGA,74546.1,3713.961138831,N,13701.567091041,E,4,13,0.95,92.41799999999999,M,37.564,M,64.1,3006*64,37.23268564718334,137.02611818401667,679735.3323565767,4122608.7347609075
418,[2021-02-22 16:45:46.768] $GNGGA,74546.2,3713.961137941,N,13701.56709041,E,4,13,0.95,92.421,M,37.564,M,64.2,3006*66,37.23268563235,137.0261181735,679735.3314587782,4122608.733095084
419,[2021-02-22 16:45:46.893] $GNGGA,74546.3,3713.9611363890003,N,13701.567091435,E,4,13,0.95,92.421,M,37.564,M,64.3,3006*6F,37.232685606483344,137.0261181905833,679735.3330358287,4122608.730257454
420,[2021-02-22 16:45:46.971] $GNGGA,74546.4,3713.961136035,N,13701.567091323,E,4,13,0.95,92.421,M,37.564,M,64.4,3006*6B,37.23268560058334,137.02611818871665,679735.3328842332,4122608.7295992672
421,[2021-02-22 16:45:47.065] $GNGGA,74546.5,3713.961136582,N,13701.567090885,E,4,13,0.95,92.415,M,37.564,M,64.5,3006*63,37.232685609700006,137.02611818141668,679735.3322149322,4122608.7305969573
422,[2021-02-22 16:45:47.175] $GNGGA,74546.6,3713.9611356220003,N,13701.567091001001,E,4,13,0.95,92.419,M,37.564,M,64.6,3006*60,37.232685593700005,137.02611818335004,679735.3324244597,4122608.7288253275
423,[2021-02-22 16:45:47.268] $GNGGA,74546.7,3713.961135738,N,13701.567092427,E,4,13,0.95,92.417,M,37.564,M,64.7,3006*67,37.23268559563333,137.0261182071167,679735.3345284268,4122608.729084974
424,[2021-02-22 16:45:47.393] $GNGGA,74546.8,3713.961136544,N,13701.5670924,E,4,13,0.95,92.419,M,37.564,M,64.8,3006*66,37.23268560906667,137.02611820666667,679735.3344565952,4122608.7305746353
425,[2021-02-22 16:45:47.471] $GNGGA,74546.9,3713.9611369570002,N,13701.567093413001,E,4,13,0.95,92.41799999999999,M,37.564,M,64.9,3006*6A,37.23268561595001,137.02611822355001,679735.3359381245,4122608.731370447
426,[2021-02-22 16:45:47.565] $GNGGA,74547.0,3713.96113662,N,13701.567093918999,E,4,13,0.95,92.41799999999999,M,37.564,M,65.0,3006*62,37.232685610333334,137.0261182319833,679735.3366996603,4122608.730763256
427,[2021-02-22 16:45:47.675] $GNGGA,74547.1,3713.961137485,N,13701.567093459,E,4,13,0.95,92.419,M,37.564,M,65.1,3006*66,37.23268562475,137.02611822431666,679735.33598524,4122608.7323483187
428,[2021-02-22 16:45:47.768] $GNGGA,74547.2,3713.961137445,N,13701.567094381999,E,4,13,0.95,92.42,M,37.564,M,65.2,3006*66,37.23268562408333,137.0261182397,679735.3373516218,4122608.7323035607
429,[2021-02-22 16:45:47.893] $GNGGA,74547.3,3713.961137573,N,13701.567093953001,E,4,13,0.95,92.416,M,37.564,M,65.3,3006*66,37.232685626216664,137.02611823255,679735.3367122138,4122608.7325266893
430,[2021-02-22 16:45:47.971] $GNGGA,74547.4,3713.961136752,N,13701.567093785,E,4,13,0.95,92.415,M,37.564,M,65.4,3006*60,37.23268561253334,137.02611822975004,679735.3364963,4122608.73100312
431,[2021-02-22 16:45:48.065] $GNGGA,74547.5,3713.961135788,N,13701.567093799,E,4,13,0.95,92.41799999999999,M,37.564,M,65.5,3006*64,37.232685596466666,137.02611822998333,679735.3365551572,4122608.7292208634
432,[2021-02-22 16:45:48.175] $GNGGA,74547.6,3713.96113623,N,13701.567093365,E,4,13,0.95,92.417,M,37.564,M,65.6,3006*69,37.23268560383334,137.02611822275,679735.3358959268,4122608.730024507
433,[2021-02-22 16:45:48.268] $GNGGA,74547.7,3713.961137035,N,13701.567092541001,E,4,13,0.95,92.416,M,37.564,M,65.7,3006*6F,37.23268561724999,137.0261182090167,679735.3346456517,4122608.7314870893
434,[2021-02-22 16:45:48.393] $GNGGA,74547.8,3713.9611373109997,N,13701.567092182,E,4,13,0.95,92.417,M,37.564,M,65.8,3006*60,37.23268562185,137.02611820303335,679735.3341038898,4122608.7319861273
435,[2021-02-22 16:45:48.471] $GNGGA,74547.9,3713.9611382259995,N,13701.567093418998,E,4,13,0.95,92.41799999999999,M,37.564,M,65.9,3006*63,37.23268563709999,137.02611822364997,679735.3358967619,4122608.733717362
436,[2021-02-22 16:45:48.565] $GNGGA,74548.0,3713.961138708,N,13701.567092641,E,4,13,0.95,92.412,M,37.564,M,66.0,3006*62,37.23268564513334,137.02611821068334,679735.3347272925,4122608.734584089
437,[2021-02-22 16:45:48.674] $GNGGA,74548.1,3713.961138106,N,13701.567093311001,E,4,13,0.95,92.41,M,37.564,M,66.1,3006*69,37.2326856351,137.02611822185003,679735.3357418204,4122608.7334920317
438,[2021-02-22 16:45:48.768] $GNGGA,74548.2,3713.961137883,N,13701.567093736001,E,4,13,0.95,92.41,M,37.564,M,66.2,3006*63,37.232685631383326,137.02611822893334,679735.3363790745,4122608.733093096
439,[2021-02-22 16:45:48.893] $GNGGA,74548.3,3713.961137442,N,13701.567093535,E,4,13,0.95,92.406,M,37.564,M,66.3,3006*64,37.23268562403333,137.02611822558336,679735.3360993227,4122608.7322712047
440,[2021-02-22 16:45:48.971] $GNGGA,74548.4,3713.961138886,N,13701.567094596001,E,4,13,0.95,92.40799999999999,M,37.564,M,66.4,3006*6F,37.232685648099995,137.0261182432667,679735.337611016,4122608.7349751364
441,[2021-02-22 16:45:49.065] $GNGGA,74548.5,3713.9611387229997,N,13701.567095455,E,4,13,0.95,92.406,M,37.564,M,66.5,3006*6E,37.23268564538333,137.02611825758336,679735.3388876315,4122608.7347008926
442,[2021-02-22 16:45:49.174] $GNGGA,74548.6,3713.961139215,N,13701.567095098999,E,4,13,0.95,92.406,M,37.564,M,66.6,3006*6B,37.23268565358334,137.02611825165,679735.3383417508,4122608.7355994675
443,[2021-02-22 16:45:49.268] $GNGGA,74548.7,3713.961139773,N,13701.567093581001,E,4,13,0.95,92.40700000000001,M,37.564,M,66.7,3006*65,37.232685662883334,137.02611822635004,679735.3360750726,4122608.7365833162
444,[2021-02-22 16:45:49.393] $GNGGA,74548.8,3713.9611389720003,N,13701.567091509,E,4,13,0.95,92.40700000000001,M,37.564,M,66.8,3006*69,37.23268564953334,137.02611819181666,679735.3330430066,4122608.7350364686
445,[2021-02-22 16:45:49.471] $GNGGA,74548.9,3713.961138101,N,13701.567090646002,E,4,13,0.95,92.40799999999999,M,37.564,M,66.9,3006*63,37.232685635016665,137.02611817743337,679735.3318014088,4122608.733398436
446,[2021-02-22 16:45:49.581] $GNGGA,74549.0,3713.9611370079997,N,13701.567091448998,E,4,13,0.95,92.406,M,37.564,M,67.0,3006*66,37.2326856168,137.02611819081665,679735.333032029,4122608.731402597
447,[2021-02-22 16:45:49.674] $GNGGA,74549.1,3713.9611379979997,N,13701.567093362,E,4,13,0.95,92.404,M,37.564,M,67.1,3006*68,37.232685633299994,137.02611822270003,679735.3358215088,4122608.733293924
448,[2021-02-22 16:45:49.799] $GNGGA,74549.2,3713.961138609,N,13701.5670957,E,4,13,0.95,92.404,M,37.564,M,67.2,3006*66,37.232685643483336,137.02611826166665,679735.3392544088,4122608.7344978307
449,[2021-02-22 16:45:49.878] $GNGGA,74549.3,3713.961139391,N,13701.567098911,E,4,13,0.95,92.40299999999999,M,37.564,M,67.3,3006*67,37.23268565651667,137.0261183151833,679735.3439714105,4122608.7360455934
450,[2021-02-22 16:45:49.971] $GNGGA,74549.4,3713.96114022,N,13701.567098607,E,4,13,0.95,92.405,M,37.564,M,67.4,3006*6C,37.232685670333325,137.0261183101167,679735.3434890887,4122608.737569016
451,[2021-02-22 16:45:50.081] $GNGGA,74549.5,3713.96113926,N,13701.56709783,E,4,13,0.95,92.406,M,37.564,M,67.5,3006*60,37.23268565433334,137.02611829716665,679735.3423781714,4122608.735769124
452,[2021-02-22 16:45:50.190] $GNGGA,74549.6,3713.961137943,N,13701.567097418001,E,4,13,0.95,92.404,M,37.564,M,67.6,3006*60,37.23268563238334,137.02611829030002,679735.341821103,4122608.733320592
453,[2021-02-22 16:45:50.268] $GNGGA,74549.7,3713.9611383009997,N,13701.567097512,E,4,13,0.95,92.406,M,37.564,M,67.7,3006*6A,37.23268563835,137.02611829186668,679735.3419459229,4122608.733985606
454,[2021-02-22 16:45:50.377] $GNGGA,74549.8,3713.9611387890004,N,13701.567098805,E,4,13,0.95,92.4,M,37.564,M,67.8,3006*6C,37.23268564648335,137.02611831341667,679735.3438385058,4122608.734928978
455,[2021-02-22 16:45:50.471] $GNGGA,74549.9,3713.9611395559996,N,13701.56709955,E,4,13,0.95,92.398,M,37.564,M,67.9,3006*67,37.23268565926666,137.02611832583335,679735.3449097407,4122608.7363709463
456,[2021-02-22 16:45:50.596] $GNGGA,74550.0,3713.961140775,N,13701.567099449,E,4,13,0.95,92.397,M,37.564,M,68.0,3006*6B,37.23268567958333,137.02611832415,679735.3447121421,4122608.7386220135
457,[2021-02-22 16:45:50.674] $GNGGA,74550.1,3713.961140715,N,13701.56709917,E,4,13,0.95,92.395,M,37.564,M,68.1,3006*60,37.23268567858333,137.0261183195,679735.3443019732,4122608.7385022277
458,[2021-02-22 16:45:50.768] $GNGGA,74550.2,3713.9611401429997,N,13701.56709847,E,4,13,0.95,92.39299999999999,M,37.564,M,68.2,3006*67,37.23268566904999,137.02611830783331,679735.3432895567,4122608.7374222865
459,[2021-02-22 16:45:50.877] $GNGGA,74550.3,3713.961139015,N,13701.567098776999,E,4,13,0.95,92.396,M,37.564,M,68.3,3006*6A,37.232685650250005,137.02611831295,679735.3437881544,4122608.7353460253
460,[2021-02-22 16:45:50.987] $GNGGA,74550.4,3713.9611390120003,N,13701.567099128999,E,4,13,0.95,92.4,M,37.564,M,68.4,3006*69,37.232685650200004,137.02611831881666,679735.3443087598,4122608.735351618
461,[2021-02-22 16:45:51.065] $GNGGA,74550.5,3713.961139555,N,13701.567099479,E,4,13,0.95,92.399,M,37.564,M,68.5,3006*68,37.232685659249995,137.02611832464999,679735.344804795,4122608.7363668503
462,[2021-02-22 16:45:51.174] $GNGGA,74550.6,3713.961139852,N,13701.567099403,E,4,13,0.95,92.396,M,37.564,M,68.6,3006*60,37.232685664200005,137.02611832338337,679735.3446806646,4122608.7369136796
463,[2021-02-22 16:45:51.268] $GNGGA,74550.7,3713.961140773,N,13701.567100424,E,4,13,0.95,92.397,M,37.564,M,68.7,3006*67,37.23268567955,137.02611834040002,679735.3461539118,4122608.738649175
464,[2021-02-22 16:45:51.393] $GNGGA,74550.8,3713.96113958,N,13701.567099367,E,4,13,0.95,92.399,M,37.564,M,68.8,3006*68,37.23268565966666,137.02611832278333,679735.3446381972,4122608.7364095356
465,[2021-02-22 16:45:51.471] $GNGGA,74550.9,3713.961138966,N,13701.567097668001,E,4,13,0.95,92.397,M,37.564,M,68.9,3006*67,37.23268564943333,137.0261182944667,679735.342150273,4122608.735220309
466,[2021-02-22 16:45:51.565] $GNGGA,74551.0,3713.961138485,N,13701.567097728,E,4,13,0.95,92.397,M,37.564,M,69.0,3006*62,37.232685641416666,137.02611829546666,679735.3422580268,4122608.7343327086
467,[2021-02-22 16:45:51.674] $GNGGA,74551.1,3713.9611393220002,N,13701.567098151001,E,4,13,0.95,92.396,M,37.564,M,69.1,3006*6F,37.232685655366666,137.02611830251666,679735.342850367,4122608.7358939378
468,[2021-02-22 16:45:51.768] $GNGGA,74551.2,3713.9611397070003,N,13701.567098778998,E,4,13,0.95,92.399,M,37.564,M,69.2,3006*6F,37.23268566178334,137.0261183129833,679735.3437637172,4122608.7366257855
469,[2021-02-22 16:45:51.893] $GNGGA,74551.3,3713.961139697,N,13701.5670983,E,4,13,0.95,92.397,M,37.564,M,69.3,3006*63,37.232685661616664,137.026118305,679735.343055844,4122608.7365921307
470,[2021-02-22 16:45:51.971] $GNGGA,74551.4,3713.961140675,N,13701.567099093001,E,4,13,0.95,92.397,M,37.564,M,69.4,3006*69,37.23268567791666,137.02611831821667,679735.3441897018,4122608.738425818
471,[2021-02-22 16:45:52.065] $GNGGA,74551.5,3713.961140123,N,13701.567099897,E,4,13,0.95,92.396,M,37.564,M,69.5,3006*60,37.23268566871666,137.02611833161666,679735.345400388,4122608.737430468
472,[2021-02-22 16:45:52.174] $GNGGA,74551.6,3713.961139249,N,13701.567099046,E,4,13,0.95,92.395,M,37.564,M,69.6,3006*66,37.23268565415,137.02611831743332,679735.3441766497,4122608.7357872683
473,[2021-02-22 16:45:52.268] $GNGGA,74551.7,3713.961139565,N,13701.56710003,E,4,13,0.95,92.396,M,37.564,M,69.7,3006*6C,37.23268565941667,137.02611833383335,679735.345619139,4122608.736402783
474,[2021-02-22 16:45:52.393] $GNGGA,74551.8,3713.961139298,N,13701.567099963999,E,4,13,0.95,92.39200000000001,M,37.564,M,69.8,3006*64,37.232685654966666,137.0261183327333,679735.345532111,4122608.7359069386
475,[2021-02-22 16:45:52.471] $GNGGA,74551.9,3713.961140122,N,13701.567099533999,E,4,13,0.95,92.39399999999999,M,37.564,M,69.9,3006*67,37.2326856687,137.0261183255666,679735.3448636718,4122608.7374171284
476,[2021-02-22 16:45:52.565] $GNGGA,74552.0,3713.961140377,N,13701.567098929,E,4,13,0.95,92.396,M,37.564,M,70.0,3006*6D,37.23268567295,137.0261183154833,679735.3439589957,4122608.7378695444
477,[2021-02-22 16:45:52.674] $GNGGA,74552.1,3713.96114077,N,13701.56709939,E,4,13,0.95,92.395,M,37.564,M,70.1,3006*64,37.2326856795,137.02611832316668,679735.3446251025,4122608.7386109
478,[2021-02-22 16:45:52.768] $GNGGA,74552.2,3713.9611405140004,N,13701.567098988,E,4,13,0.95,92.39399999999999,M,37.564,M,70.2,3006*67,37.232685675233334,137.02611831646666,679735.3440408147,4122608.7381247627
479,[2021-02-22 16:45:52.893] $GNGGA,74552.3,3713.961139835,N,13701.56710022,E,4,13,0.95,92.391,M,37.564,M,70.3,3006*6B,37.23268566391666,137.026118337,679735.3458893951,4122608.736908099
480,[2021-02-22 16:45:52.971] $GNGGA,74552.4,3713.9611393009995,N,13701.567101728,E,4,13,0.95,92.395,M,37.564,M,70.4,3006*6F,37.23268565501665,137.02611836213333,679735.3481403417,4122608.7359683164
481,[2021-02-22 16:45:53.065] $GNGGA,74552.5,3713.961140752,N,13701.567101563,E,4,13,0.95,92.391,M,37.564,M,70.5,3006*6A,37.2326856792,137.02611835938333,679735.3478389266,4122608.738646391
482,[2021-02-22 16:45:53.174] $GNGGA,74552.6,3713.961140445,N,13701.567101561,E,4,13,0.95,92.39299999999999,M,37.564,M,70.6,3006*6F,37.232685674083335,137.02611835935,679735.3478481218,4122608.7380786007
483,[2021-02-22 16:45:53.268] $GNGGA,74552.7,3713.961139566,N,13701.567101453,E,4,13,0.95,92.396,M,37.564,M,70.7,3006*64,37.23268565943333,137.02611835755,679735.3477232201,4122608.736449671
484,[2021-02-22 16:45:53.393] $GNGGA,74552.8,3713.9611400920003,N,13701.567102333,E,4,13,0.95,92.396,M,37.564,M,70.8,3006*66,37.232685668200006,137.02611837221664,679735.349003613,4122608.7374502416
485,[2021-02-22 16:45:53.471] $GNGGA,74552.9,3713.9611402940004,N,13701.567101773999,E,4,13,0.95,92.396,M,37.564,M,70.9,3006*66,37.23268567156668,137.02611836289995,679735.3481690482,4122608.7378061037
486,[2021-02-22 16:45:53.565] $GNGGA,74553.0,3713.9611399259998,N,13701.567101706001,E,4,13,0.95,92.395,M,37.564,M,71.0,3006*6C,37.23268566543333,137.0261183617667,679735.3480830723,4122608.7371234163
487,[2021-02-22 16:45:53.674] $GNGGA,74553.1,3713.961139006,N,13701.567102151,E,4,13,0.95,92.397,M,37.564,M,71.1,3006*62,37.232685650099995,137.02611836918334,679735.3487774886,4122608.73543617
488,[2021-02-22 16:45:53.768] $GNGGA,74553.2,3713.961139613,N,13701.56710233,E,4,13,0.95,92.396,M,37.564,M,71.2,3006*64,37.23268566021667,137.02611837216668,679735.3490181402,4122608.736564345
489,[2021-02-22 16:45:53.893] $GNGGA,74553.3,3713.9611393009995,N,13701.567101838998,E,4,13,0.95,92.396,M,37.564,M,71.3,3006*63,37.23268565501665,137.0261183639833,679735.3483044689,4122608.7359718303
490,[2021-02-22 16:45:53.971] $GNGGA,74553.4,3713.9611388020003,N,13701.567102265,E,4,13,0.95,92.395,M,37.564,M,71.4,3006*69,37.2326856467,137.02611837108333,679735.348954129,4122608.735062528
491,[2021-02-22 16:45:54.080] $GNGGA,74553.5,3713.961139318,N,13701.567102646999,E,4,13,0.95,92.39200000000001,M,37.564,M,71.5,3006*6B,37.232685655299996,137.02611837745,679735.3494985483,4122608.736028842
492,[2021-02-22 16:45:54.174] $GNGGA,74553.6,3713.961139935,N,13701.567102108998,E,4,13,0.95,92.39399999999999,M,37.564,M,71.6,3006*65,37.23268566558334,137.0261183684833,679735.3486786091,4122608.7371528177
493,[2021-02-22 16:45:54.299] $GNGGA,74553.7,3713.961140381,N,13701.567102027,E,4,13,0.95,92.39299999999999,M,37.564,M,71.7,3006*64,37.23268567301667,137.02611836711665,679735.348539707,4122608.7379749953
494,[2021-02-22 16:45:54.377] $GNGGA,74553.8,3713.961140741,N,13701.567101865,E,4,13,0.95,92.389,M,37.564,M,71.8,3006*6A,37.23268567901667,137.02611836441665,679735.3482859139,4122608.738635607
495,[2021-02-22 16:45:54.471] $GNGGA,74553.9,3713.9611410859998,N,13701.567102078001,E,4,13,0.95,92.391,M,37.564,M,71.9,3006*69,37.232685684766665,137.0261183679667,679735.3485872135,4122608.7392803477
496,[2021-02-22 16:45:54.580] $GNGGA,74554.0,3713.96114194,N,13701.567102126999,E,4,13,0.95,92.389,M,37.564,M,72.0,3006*6C,37.232685698999994,137.0261183687833,679735.3486258582,4122608.740861177
497,[2021-02-22 16:45:54.690] $GNGGA,74554.1,3713.9611419459998,N,13701.567102486999,E,4,13,0.95,92.389,M,37.564,M,72.1,3006*65,37.232685699099996,137.02611837478332,679735.3491579383,4122608.7408836675
498,[2021-02-22 16:45:54.768] $GNGGA,74554.2,3713.96114081,N,13701.56710296,E,4,13,0.95,92.399,M,37.564,M,72.2,3006*63,37.23268568016667,137.02611838266665,679735.3499023078,4122608.7387978644
499,[2021-02-22 16:45:54.877] $GNGGA,74554.3,3713.961141373,N,13701.567103435,E,4,13,0.95,92.396,M,37.564,M,72.3,3006*6F,37.23268568955,137.02611839058332,679735.3505823835,4122608.73985404
500,[2021-02-22 16:45:54.971] $GNGGA,74554.4,3713.96114086,N,13701.567103229,E,4,13,0.95,92.397,M,37.564,M,72.4,3006*6D,37.23268568099999,137.02611838714998,679735.3502980864,4122608.738898841
501,[2021-02-22 16:45:55.096] $GNGGA,74554.5,3713.96114085,N,13701.567104201002,E,4,13,0.95,92.398,M,37.564,M,72.5,3006*6C,37.232685680833335,137.02611840335,679735.351735737,4122608.738911113
502,[2021-02-22 16:45:55.174] $GNGGA,74554.6,3713.961141111,N,13701.567104468999,E,4,13,0.95,92.399,M,37.564,M,72.6,3006*68,37.23268568518333,137.02611840781663,679735.3521216781,4122608.739402256
503,[2021-02-22 16:45:55.268] $GNGGA,74554.7,3713.9611409759996,N,13701.567104681,E,4,13,0.95,92.399,M,37.564,M,72.7,3006*64,37.23268568293332,137.02611841135,679735.3524405017,4122608.7391593135
504,[2021-02-22 16:45:55.377] $GNGGA,74554.8,3713.961140848,N,13701.567104968,E,4,13,0.95,92.4,M,37.564,M,72.8,3006*67,37.2326856808,137.02611841613336,679735.3528699435,4122608.7389316927
505,[2021-02-22 16:45:55.486] $GNGGA,74554.9,3713.9611407290004,N,13701.567105246,E,4,13,0.95,92.402,M,37.564,M,72.9,3006*6B,37.23268567881667,137.02611842076666,679735.3532857171,4122608.7387204277
506,[2021-02-22 16:45:55.565] $GNGGA,74555.0,3713.96114072,N,13701.56710474,E,4,13,0.95,92.397,M,37.564,M,73.0,3006*6B,37.23268567866667,137.02611841233332,679735.3525378727,4122608.738687768
507,[2021-02-22 16:45:55.674] $GNGGA,74555.1,3713.961141435,N,13701.567105286002,E,4,13,0.95,92.397,M,37.564,M,73.1,3006*63,37.23268569058333,137.02611842143338,679735.3533169217,4122608.740027279
508,[2021-02-22 16:45:55.768] $GNGGA,74555.2,3713.96114155,N,13701.567106008999,E,4,13,0.95,92.398,M,37.564,M,73.2,3006*68,37.2326856925,137.02611843348333,679735.3543814316,4122608.74026283
509,[2021-02-22 16:45:55.893] $GNGGA,74555.3,3713.9611420290003,N,13701.567105469,E,4,13,0.95,92.397,M,37.564,M,73.3,3006*6E,37.23268570048334,137.02611842448331,679735.3535639954,4122608.7411315404
510,[2021-02-22 16:45:55.971] $GNGGA,74555.4,3713.9611416820003,N,13701.567106336,E,4,13,0.95,92.4,M,37.564,M,73.4,3006*6D,37.2326856947,137.02611843893334,679735.3548597256,4122608.7405172843
511,[2021-02-22 16:45:56.080] $GNGGA,74555.5,3713.9611416609996,N,13701.56710619,E,4,13,0.95,92.402,M,37.564,M,73.5,3006*6C,37.23268569434999,137.02611843649996,679735.3546446695,4122608.7404738264
512,[2021-02-22 16:45:56.174] $GNGGA,74555.6,3713.961140629,N,13701.56710609,E,4,13,0.95,92.404,M,37.564,M,73.6,3006*66,37.23268567715,137.0261184348333,679735.3545376575,4122608.7385622137
513,[2021-02-22 16:45:56.268] $GNGGA,74555.7,3713.9611400920003,N,13701.567106828,E,4,13,0.95,92.40100000000001,M,37.564,M,73.7,3006*6E,37.232685668200006,137.02611844713334,679735.3556501619,4122608.737592512
514,[2021-02-22 16:45:56.393] $GNGGA,74555.8,3713.961139921,N,13701.567106797,E,4,13,0.95,92.40100000000001,M,37.564,M,73.8,3006*6A,37.23268566535,137.02611844661666,679735.3556110918,4122608.7372753043
515,[2021-02-22 16:45:56.471] $GNGGA,74555.9,3713.961139849,N,13701.567106912,E,4,13,0.95,92.398,M,37.564,M,73.9,3006*61,37.232685664150004,137.02611844853334,679735.355783988,4122608.737145798
516,[2021-02-22 16:45:56.565] $GNGGA,74556.0,3713.961140696,N,13701.567106461001,E,4,13,0.95,92.395,M,37.564,M,74.0,3006*63,37.23268567826667,137.0261184410167,679735.3550835899,4122608.7386978576
517,[2021-02-22 16:45:56.674] $GNGGA,74556.1,3713.9611409209997,N,13701.567106166001,E,4,13,0.95,92.39399999999999,M,37.564,M,74.1,3006*63,37.232685682016665,137.02611843610003,679735.3546384819,4122608.739104606
518,[2021-02-22 16:45:56.768] $GNGGA,74556.2,3713.9611413459997,N,13701.567106095,E,4,13,0.95,92.39399999999999,M,37.564,M,74.2,3006*64,37.232685689099995,137.0261184349167,679735.3545166734,4122608.7398882993
519,[2021-02-22 16:45:56.893] $GNGGA,74556.3,3713.961141072,N,13701.567105635,E,4,13,0.95,92.39399999999999,M,37.564,M,74.3,3006*6F,37.23268568453334,137.02611842725003,679735.353847339,4122608.739367041
520,[2021-02-22 16:45:56.971] $GNGGA,74556.4,3713.9611415679997,N,13701.567106806,E,4,13,0.95,92.39299999999999,M,37.564,M,74.4,3006*6B,37.23268569279999,137.02611844676665,679735.3555592045,4122608.740321341
521,[2021-02-22 16:45:57.065] $GNGGA,74556.5,3713.961141725,N,13701.567106246,E,4,13,0.95,92.397,M,37.564,M,74.5,3006*6A,37.232685695416656,137.02611843743333,679735.3547249447,4122608.7405939535
522,[2021-02-22 16:45:57.174] $GNGGA,74556.6,3713.9611409609997,N,13701.567105996999,E,4,13,0.95,92.396,M,37.564,M,74.6,3006*60,37.23268568268333,137.02611843328333,679735.354387001,4122608.739173229
523,[2021-02-22 16:45:57.268] $GNGGA,74556.7,3713.961141538,N,13701.567105758999,E,4,13,0.95,92.396,M,37.564,M,74.7,3006*6D,37.2326856923,137.02611842931665,679735.354012242,4122608.740232726
524,[2021-02-22 16:45:57.393] $GNGGA,74556.8,3713.9611418229997,N,13701.56710695,E,4,13,0.95,92.399,M,37.564,M,74.8,3006*61,37.232685697049995,137.02611844916666,679735.3557620363,4122608.740797464
525,[2021-02-22 16:45:57.471] $GNGGA,74556.9,3713.961141291,N,13701.56710778,E,4,13,0.95,92.402,M,37.564,M,74.9,3006*65,37.23268568818333,137.026118463,679735.3570103765,4122608.739839921
526,[2021-02-22 16:45:57.564] $GNGGA,74557.0,3713.9611417509996,N,13701.56710705,E,4,13,0.95,92.402,M,37.564,M,75.0,3006*66,37.232685695849995,137.0261184508333,679735.3559127512,4122608.7406674814
527,[2021-02-22 16:45:57.674] $GNGGA,74557.1,3713.9611411729998,N,13701.567107672,E,4,13,0.95,92.4,M,37.564,M,75.1,3006*64,37.232685686216655,137.02611846119999,679735.3568553537,4122608.739618288
528,[2021-02-22 16:45:57.768] $GNGGA,74557.2,3713.961140928,N,13701.567107015,E,4,13,0.95,92.40299999999999,M,37.564,M,75.2,3006*67,37.23268568213334,137.02611845025,679735.3558935777,4122608.7391444235
529,[2021-02-22 16:45:57.893] $GNGGA,74557.3,3713.961141129,N,13701.56710744,E,4,13,0.95,92.402,M,37.564,M,75.3,3006*6A,37.23268568548334,137.02611845733333,679735.3565140481,4122608.7395295785
530,[2021-02-22 16:45:57.971] $GNGGA,74557.4,3713.961141349,N,13701.567108148998,E,4,13,0.95,92.399,M,37.564,M,75.4,3006*68,37.23268568915,137.02611846914996,679735.3575537034,4122608.73995886
531,[2021-02-22 16:45:58.064] $GNGGA,74557.5,3713.961141932,N,13701.567107431001,E,4,13,0.95,92.4,M,37.564,M,75.5,3006*6C,37.23268569886666,137.02611845718334,679735.3564689569,4122608.7410142594
532,[2021-02-22 16:45:58.174] $GNGGA,74557.6,3713.961141527,N,13701.567108492,E,4,13,0.95,92.40100000000001,M,37.564,M,75.6,3006*63,37.232685692116675,137.02611847486668,679735.3580538388,4122608.740298887
533,[2021-02-22 16:45:58.268] $GNGGA,74557.7,3713.9611412629997,N,13701.567108255,E,4,13,0.95,92.40299999999999,M,37.564,M,75.7,3006*6B,37.23268568771666,137.02611847091666,679735.3577138465,4122608.7398031754
534,[2021-02-22 16:45:58.393] $GNGGA,74557.8,3713.961141471,N,13701.567108841002,E,4,13,0.95,92.404,M,37.564,M,75.8,3006*66,37.23268569118333,137.02611848068335,679735.3585721062,4122608.740206372
535,[2021-02-22 16:45:58.471] $GNGGA,74557.9,3713.961141773,N,13701.567108563999,E,4,13,0.95,92.40299999999999,M,37.564,M,75.9,3006*6A,37.232685696216656,137.02611847606664,679735.3581505606,4122608.7407560847
536,[2021-02-22 16:45:58.580] $GNGGA,74558.0,3713.961141338,N,13701.567108421,E,4,13,0.95,92.404,M,37.564,M,76.0,3006*6A,37.23268568896666,137.02611847368334,679735.357956335,4122608.7399471244
537,[2021-02-22 16:45:58.674] $GNGGA,74558.1,3713.961140452,N,13701.567108775,E,4,13,0.95,92.402,M,37.564,M,76.1,3006*64,37.232685674200006,137.02611847958335,679735.35851485,4122608.738319875
538,[2021-02-22 16:45:58.799] $GNGGA,74558.2,3713.961141444,N,13701.567108644,E,4,13,0.95,92.402,M,37.564,M,76.2,3006*61,37.23268569073333,137.0261184774,679735.3582818788,4122608.740150206
539,[2021-02-22 16:45:58.877] $GNGGA,74558.3,3713.9611413740004,N,13701.567108533001,E,4,13,0.95,92.404,M,37.564,M,76.3,3006*60,37.23268568956668,137.02611847555002,679735.3581205201,4122608.740017245
540,[2021-02-22 16:45:58.971] $GNGGA,74558.4,3713.961141298,N,13701.567109632,E,4,13,0.95,92.406,M,37.564,M,76.4,3006*62,37.232685688299995,137.02611849386668,679735.3597485682,4122608.739911483
541,[2021-02-22 16:45:59.080] $GNGGA,74558.5,3713.961141362,N,13701.567109755,E,4,13,0.95,92.40700000000001,M,37.564,M,76.5,3006*67,37.23268568936667,137.02611849591668,679735.3599279097,4122608.740033731
542,[2021-02-22 16:45:59.189] $GNGGA,74558.6,3713.961141588,N,13701.567110057,E,4,13,0.95,92.40100000000001,M,37.564,M,76.6,3006*6E,37.23268569313333,137.02611850095,679735.3603655157,4122608.7404612233
543,[2021-02-22 16:45:59.267] $GNGGA,74558.7,3713.961141955,N,13701.567109868998,E,4,13,0.95,92.40799999999999,M,37.564,M,76.7,3006*66,37.23268569925,137.02611849781664,679735.3600729995,4122608.7411339567
544,[2021-02-22 16:45:59.377] $GNGGA,74558.8,3713.96114186,N,13701.567110364,E,4,13,0.95,92.40700000000001,M,37.564,M,76.8,3006*60,37.232685697666675,137.02611850606664,679735.3608086936,4122608.7409739452
545,[2021-02-22 16:45:59.471] $GNGGA,74558.9,3713.961142345,N,13701.567110498001,E,4,13,0.95,92.405,M,37.564,M,76.9,3006*69,37.23268570575,137.02611850830002,679735.3609876373,4122608.7418750823
546,[2021-02-22 16:45:59.596] $GNGGA,74559.0,3713.96114231,N,13701.567110318001,E,4,13,0.95,92.404,M,37.564,M,77.0,3006*67,37.232685705166666,137.02611850530002,679735.3607228673,4122608.7418046608
547,[2021-02-22 16:45:59.674] $GNGGA,74559.1,3713.961141825,N,13701.567110138001,E,4,13,0.95,92.40299999999999,M,37.564,M,77.1,3006*6E,37.23268569708333,137.02611850230002,679735.3604759078,4122608.7409020658
548,[2021-02-22 16:45:59.767] $GNGGA,74559.2,3713.961141737,N,13701.56710922,E,4,13,0.95,92.40299999999999,M,37.564,M,77.2,3006*60,37.23268569561667,137.026118487,679735.3591219834,4122608.740710275
549,[2021-02-22 16:45:59.877] $GNGGA,74559.3,3713.961141219,N,13701.567109655,E,4,13,0.95,92.405,M,37.564,M,77.3,3006*69,37.23268568698333,137.02611849425,679735.3597857031,4122608.7397661195
550,[2021-02-22 16:45:59.986] $GNGGA,74559.4,3713.9611418570003,N,13701.567109013,E,4,13,0.95,92.40299999999999,M,37.564,M,77.4,3006*6B,37.232685697616674,137.02611848355002,679735.3588111557,4122608.740925636
551,[2021-02-22 16:46:00.064] $GNGGA,74559.5,3713.961141134,N,13701.567109873999,E,4,13,0.95,92.404,M,37.564,M,77.5,3006*69,37.232685685566665,137.02611849789994,679735.3601128887,4122608.7396158627
552,[2021-02-22 16:46:00.174] $GNGGA,74559.6,3713.9611405809997,N,13701.567109981,E,4,13,0.95,92.406,M,37.564,M,77.6,3006*6B,37.23268567634999,137.02611849968332,679735.3602929984,4122608.7385966005
553,[2021-02-22 16:46:00.267] $GNGGA,74559.7,3713.961141028,N,13701.56711031,E,4,13,0.95,92.40700000000001,M,37.564,M,77.7,3006*67,37.23268568379999,137.02611850516666,679735.3607617806,4122608.7394336388
554,[2021-02-22 16:46:00.377] $GNGGA,74559.8,3713.961140875,N,13701.567109786001,E,4,13,0.95,92.40700000000001,M,37.564,M,77.8,3006*65,37.23268568125,137.02611849643336,679735.3599930261,4122608.7391341166
555,[2021-02-22 16:46:00.486] $GNGGA,74559.9,3713.961140816,N,13701.567109992,E,4,13,0.95,92.40700000000001,M,37.564,M,77.9,3006*6B,37.23268568026667,137.0261184998667,679735.3602999651,4122608.739031529
556,[2021-02-22 16:46:00.564] $GNGGA,74600.0,3713.961141659,N,13701.567111032,E,4,13,0.95,92.405,M,37.564,M,78.0,3006*67,37.232685694316665,137.0261185172,679735.361804391,4122608.740623381
557,[2021-02-22 16:46:00.674] $GNGGA,74600.1,3713.96114188,N,13701.567111816,E,4,13,0.95,92.404,M,37.564,M,78.1,3006*62,37.232685698000004,137.0261185302667,679735.3629549111,4122608.7410568865
558,[2021-02-22 16:46:00.767] $GNGGA,74600.2,3713.9611420779997,N,13701.567113068999,E,4,13,0.95,92.405,M,37.564,M,78.2,3006*6D,37.2326857013,137.02611855114998,679735.3647998202,4122608.7414627005
559,[2021-02-22 16:46:00.877] $GNGGA,74600.3,3713.961141728,N,13701.567111381999,E,4,13,0.95,92.41,M,37.564,M,78.3,3006*6C,37.23268569546667,137.02611852303332,679735.3623191891,4122608.7407620605
560,[2021-02-22 16:46:00.986] $GNGGA,74600.4,3713.961141615,N,13701.567111316,E,4,13,0.95,92.41,M,37.564,M,78.4,3006*6E,37.23268569358334,137.02611852193334,679735.362226072,4122608.7405510033
561,[2021-02-22 16:46:01.064] $GNGGA,74600.5,3713.961141882,N,13701.567112088,E,4,13,0.95,92.412,M,37.564,M,78.5,3006*6B,37.232685698033336,137.0261185348,679735.3633570211,4122608.741069194
562,[2021-02-22 16:46:01.174] $GNGGA,74600.6,3713.96114278,N,13701.567112419,E,4,13,0.95,92.41,M,37.564,M,78.6,3006*6B,37.232685712999995,137.02611854031665,679735.3638109084,4122608.742740316
563,[2021-02-22 16:46:01.267] $GNGGA,74600.7,3713.9611438559996,N,13701.567112975,E,4,13,0.95,92.40700000000001,M,37.564,M,78.7,3006*6F,37.232685730933326,137.02611854958337,679735.3645904534,4122608.7447477323
564,[2021-02-22 16:46:01.377] $GNGGA,74600.8,3713.9611438459997,N,13701.567113313,E,4,13,0.95,92.41,M,37.564,M,78.8,3006*63,37.232685730766654,137.0261185552167,679735.365090633,4122608.7447399353
565,[2021-02-22 16:46:01.486] $GNGGA,74600.9,3713.9611435059996,N,13701.567113529,E,4,13,0.95,92.40899999999999,M,37.564,M,78.9,3006*6D,37.2326857251,137.02611855881668,679735.3654234791,4122608.7441180223
566,[2021-02-22 16:46:01.564] $GNGGA,74601.0,3713.9611432590004,N,13701.567113231002,E,4,13,0.95,92.40700000000001,M,37.564,M,79.0,3006*60,37.23268572098333,137.02611855385004,679735.3649926189,4122608.743651819
567,[2021-02-22 16:46:01.674] $GNGGA,74601.1,3713.961142532,N,13701.567112748,E,4,13,0.95,92.40899999999999,M,37.564,M,79.1,3006*6F,37.23268570886666,137.02611854580002,679735.3643072061,4122608.74229211
568,[2021-02-22 16:46:01.767] $GNGGA,74601.2,3713.961143043,N,13701.56711385,E,4,13,0.95,92.40799999999999,M,37.564,M,79.2,3006*6B,37.23268571738333,137.0261185641667,679735.3659164562,4122608.7432719674
569,[2021-02-22 16:46:01.877] $GNGGA,74601.3,3713.9611433570003,N,13701.567113446,E,4,13,0.95,92.41,M,37.564,M,79.3,3006*6F,37.23268572261667,137.02611855743334,679735.3653066484,4122608.7438398525
570,[2021-02-22 16:46:01.986] $GNGGA,74601.4,3713.961142982,N,13701.567113931002,E,4,13,0.95,92.413,M,37.564,M,79.4,3006*62,37.23268571636667,137.02611856551673,679735.3660386446,4122608.7431617267
571,[2021-02-22 16:46:02.064] $GNGGA,74601.5,3713.961143075,N,13701.567114948,E,4,13,0.95,92.411,M,37.564,M,79.5,3006*69,37.23268571791667,137.02611858246667,679735.3675387483,4122608.743365896
572,[2021-02-22 16:46:02.174] $GNGGA,74601.6,3713.961142755,N,13701.567114544,E,4,13,0.95,92.412,M,37.564,M,79.6,3006*6E,37.23268571258333,137.02611857573334,679735.366954039,4122608.7427613433
573,[2021-02-22 16:46:02.267] $GNGGA,74601.7,3713.961142703,N,13701.567115318001,E,4,13,0.95,92.413,M,37.564,M,79.7,3006*62,37.23268571171666,137.02611858863338,679735.3681005794,4122608.742689679
574,[2021-02-22 16:46:02.377] $GNGGA,74601.8,3713.961142949,N,13701.56711612,E,4,13,0.95,92.414,M,37.564,M,79.8,3006*6F,37.23268571581667,137.026118602,679735.3692767157,4122608.743169984
575,[2021-02-22 16:46:02.486] $GNGGA,74601.9,3713.9611431609997,N,13701.567115816999,E,4,13,0.95,92.411,M,37.564,M,79.9,3006*67,37.23268571935,137.02611859695,679735.3688202933,4122608.7435524394
576,[2021-02-22 16:46:02.564] $GNGGA,74602.0,3713.961143069,N,13701.567116871001,E,4,13,0.95,92.412,M,37.564,M,80.0,3006*6B,37.23268571781667,137.0261186145167,679735.3703824375,4122608.7434156667
577,[2021-02-22 16:46:02.673] $GNGGA,74602.1,3713.961142937,N,13701.567116432,E,4,13,0.95,92.414,M,37.564,M,80.1,3006*65,37.23268571561667,137.0261186072,679735.3697385332,4122608.743157667
578,[2021-02-22 16:46:02.767] $GNGGA,74602.2,3713.961142615,N,13701.567115447,E,4,13,0.95,92.414,M,37.564,M,80.2,3006*6B,37.232685710249996,137.02611859078334,679735.3682948048,4122608.7425310253
579,[2021-02-22 16:46:02.892] $GNGGA,74602.3,3713.961142592,N,13701.567116462,E,4,13,0.95,92.414,M,37.564,M,80.3,3006*63,37.23268570986667,137.02611860769997,679735.3697965454,4122608.7425206187
580,[2021-02-22 16:46:02.970] $GNGGA,74602.4,3713.9611421120003,N,13701.567116021,E,4,13,0.95,92.417,M,37.564,M,80.4,3006*6F,37.23268570186667,137.02611860034997,679735.3691634589,4122608.7416190086
581,[2021-02-22 16:46:03.080] $GNGGA,74602.5,3713.961143022,N,13701.567115241001,E,4,13,0.95,92.412,M,37.564,M,80.5,3006*6E,37.232685717033334,137.02611858735003,679735.3679740928,4122608.7432771595
582,[2021-02-22 16:46:03.173] $GNGGA,74602.6,3713.961143125,N,13701.567115692,E,4,13,0.95,92.41,M,37.564,M,80.6,3006*60,37.232685718750005,137.0261185948667,679735.3686368885,4122608.7434819103
583,[2021-02-22 16:46:03.298] $GNGGA,74602.7,3713.96114338,N,13701.567116296,E,4,13,0.95,92.411,M,37.564,M,80.7,3006*6F,37.232685722999996,137.02611860493337,679735.3695199027,4122608.74397259
584,[2021-02-22 16:46:03.377] $GNGGA,74602.8,3713.961143537,N,13701.567116111,E,4,13,0.95,92.40899999999999,M,37.564,M,80.8,3006*60,37.23268572561667,137.02611860185,679735.3692401329,4122608.7442570715
585,[2021-02-22 16:46:03.470] $GNGGA,74602.9,3713.96114338,N,13701.567116556002,E,4,13,0.95,92.40899999999999,M,37.564,M,80.9,3006*6D,37.232685722999996,137.0261186092667,679735.369904351,4122608.74398082
586,[2021-02-22 16:46:03.580] $GNGGA,74603.0,3713.961142648,N,13701.567116898,E,4,13,0.95,92.41,M,37.564,M,81.0,3006*6A,37.232685710800006,137.0261186149667,679735.370439027,4122608.7426379775
587,[2021-02-22 16:46:03.689] $GNGGA,74603.1,3713.961142637,N,13701.567116041,E,4,13,0.95,92.41,M,37.564,M,81.1,3006*6E,37.23268571061667,137.02611860068333,679735.3691722539,4122608.7425905103
588,[2021-02-22 16:46:03.767] $GNGGA,74603.2,3713.961142356,N,13701.567116561,E,4,13,0.95,92.40700000000001,M,37.564,M,81.2,3006*6D,37.23268570593333,137.02611860935,679735.3699522758,4122608.7420873223
589,[2021-02-22 16:46:03.877] $GNGGA,74603.3,3713.961142201,N,13701.56711722,E,4,13,0.95,92.41,M,37.564,M,81.3,3006*6B,37.23268570335,137.02611862033334,679735.3709328449,4122608.7418215424
590,[2021-02-22 16:46:03.970] $GNGGA,74603.4,3713.96114222,N,13701.567116885,E,4,13,0.95,92.41,M,37.564,M,81.4,3006*6C,37.23268570366666,137.02611861474998,679735.3704367403,4122608.741846076
591,[2021-02-22 16:46:04.095] $GNGGA,74603.5,3713.96114251,N,13701.567117723,E,4,13,0.95,92.40700000000001,M,37.564,M,81.5,3006*6C,37.2326857085,137.02611862871666,679735.3716643737,4122608.742408889
592,[2021-02-22 16:46:04.173] $GNGGA,74603.6,3713.9611422559997,N,13701.567117438999,E,4,13,0.95,92.412,M,37.564,M,81.6,3006*65,37.23268570426666,137.0261186239833,679735.371254491,4122608.741930185
593,[2021-02-22 16:46:04.267] $GNGGA,74603.7,3713.961142312,N,13701.567117241,E,4,13,0.95,92.416,M,37.564,M,81.7,3006*69,37.232685705200005,137.02611862068335,679735.370959504,4122608.742027478
594,[2021-02-22 16:46:04.377] $GNGGA,74603.8,3713.9611427409995,N,13701.567117363,E,4,13,0.95,92.413,M,37.564,M,81.8,3006*6F,37.23268571234999,137.0261186227167,679735.3711229189,4122608.742824675
595,[2021-02-22 16:46:04.486] $GNGGA,74603.9,3713.961142278,N,13701.56711716,E,4,13,0.95,92.414,M,37.564,M,81.9,3006*66,37.23268570463333,137.02611861933337,679735.3708410808,4122608.741962039
596,[2021-02-22 16:46:04.564] $GNGGA,74604.0,3713.9611426670003,N,13701.567117661001,E,4,13,0.95,92.415,M,37.564,M,82.0,3006*6F,37.232685711116666,137.02611862768333,679735.3715664833,4122608.742697263
597,[2021-02-22 16:46:04.673] $GNGGA,74604.1,3713.96114199,N,13701.567118068,E,4,13,0.95,92.412,M,37.564,M,82.1,3006*6C,37.23268569983333,137.02611863446666,679735.3721950937,4122608.7414581864
598,[2021-02-22 16:46:04.767] $GNGGA,74604.2,3713.961141452,N,13701.567117847,E,4,13,0.95,92.413,M,37.564,M,82.2,3006*64,37.23268569086666,137.02611863078334,679735.3718896094,4122608.7404562817
599,[2021-02-22 16:46:04.876] $GNGGA,74604.3,3713.961141439,N,13701.567117541,E,4,13,0.95,92.413,M,37.564,M,82.3,3006*62,37.23268569065001,137.02611862568335,679735.3714376576,4122608.740422558
600,[2021-02-22 16:46:04.986] $GNGGA,74604.4,3713.96114111,N,13701.5671171,E,4,13,0.95,92.415,M,37.564,M,82.4,3006*6B,37.232685685166665,137.02611861833336,679735.3707985941,4122608.739800189
601,[2021-02-22 16:46:05.064] $GNGGA,74604.5,3713.961141368,N,13701.567117608998,E,4,13,0.95,92.412,M,37.564,M,82.5,3006*6F,37.23268568946667,137.02611862681667,679735.3715410132,4122608.7402934106
602,[2021-02-22 16:46:05.173] $GNGGA,74604.6,3713.96114226,N,13701.567117265,E,4,13,0.95,92.40899999999999,M,37.564,M,82.6,3006*61,37.23268570433333,137.02611862108333,679735.3709970466,4122608.741932075
603,[2021-02-22 16:46:05.267] $GNGGA,74604.7,3713.96114177,N,13701.567118285,E,4,13,0.95,92.412,M,37.564,M,82.7,3006*6D,37.23268569616666,137.02611863808335,679735.3725246725,4122608.741058216
604,[2021-02-22 16:46:05.376] $GNGGA,74604.8,3713.9611429,N,13701.567117515,E,4,13,0.95,92.413,M,37.564,M,82.8,3006*67,37.232685714999995,137.02611862525,679735.3713413773,4122608.7431235216
605,[2021-02-22 16:46:05.486] $GNGGA,74604.9,3713.9611423640004,N,13701.567118958,E,4,13,0.95,92.415,M,37.564,M,82.9,3006*63,37.232685706066675,137.02611864930003,679735.3734962938,4122608.742177985
606,[2021-02-22 16:46:05.564] $GNGGA,74605.0,3713.96114156,N,13701.567118723,E,4,13,0.95,92.417,M,37.564,M,83.0,3006*62,37.23268569266667,137.02611864538332,679735.3731806315,4122608.740683731
607,[2021-02-22 16:46:05.673] $GNGGA,74605.1,3713.9611417829997,N,13701.567119571,E,4,13,0.95,92.419,M,37.564,M,83.1,3006*67,37.23268569638333,137.0261186595167,679735.3744257077,4122608.7411229583
608,[2021-02-22 16:46:05.767] $GNGGA,74605.2,3713.9611422929997,N,13701.567120176001,E,4,13,0.95,92.419,M,37.564,M,83.2,3006*69,37.23268570488332,137.02611866960004,679735.3753001044,4122608.742085235
609,[2021-02-22 16:46:05.876] $GNGGA,74605.3,3713.9611425,N,13701.567119188001,E,4,13,0.95,92.416,M,37.564,M,83.3,3006*60,37.23268570833333,137.02611865313335,679735.3738310005,4122608.742436765
610,[2021-02-22 16:46:05.986] $GNGGA,74605.4,3713.9611430659997,N,13701.567118678,E,4,13,0.95,92.412,M,37.564,M,83.4,3006*69,37.232685717766664,137.02611864463333,679735.3730544811,4122608.743467311
611,[2021-02-22 16:46:06.064] $GNGGA,74605.5,3713.9611428020003,N,13701.567118615,E,4,13,0.95,92.414,M,37.564,M,83.5,3006*6F,37.23268571336667,137.02611864358335,679735.3729717769,4122608.7429771097
612,[2021-02-22 16:46:06.173] $GNGGA,74605.6,3713.961143225,N,13701.567118496001,E,4,13,0.95,92.411,M,37.564,M,83.6,3006*6D,37.23268572041667,137.02611864160002,679735.3727790746,4122608.7437555855
613,[2021-02-22 16:46:06.267] $GNGGA,74605.7,3713.9611430570003,N,13701.567118581,E,4,13,0.95,92.413,M,37.564,M,83.7,3006*6F,37.23268571761667,137.02611864301664,679735.372911406,4122608.7434475976
614,[2021-02-22 16:46:06.376] $GNGGA,74605.8,3713.9611428209996,N,13701.567119886999,E,4,13,0.95,92.411,M,37.564,M,83.8,3006*6F,37.232685713683324,137.02611866478333,679735.3748518697,4122608.7430525045
615,[2021-02-22 16:46:06.486] $GNGGA,74605.9,3713.9611429459997,N,13701.567120491001,E,4,13,0.95,92.411,M,37.564,M,83.9,3006*6E,37.232685715766664,137.02611867485,679735.3757400296,4122608.7433027825
616,[2021-02-22 16:46:06.564] $GNGGA,74606.0,3713.96114229,N,13701.567120638001,E,4,13,0.95,92.414,M,37.564,M,84.0,3006*6E,37.23268570483334,137.02611867730002,679735.3759833606,4122608.7420943114
617,[2021-02-22 16:46:06.673] $GNGGA,74606.1,3713.9611423320002,N,13701.567120479,E,4,13,0.95,92.412,M,37.564,M,84.1,3006*66,37.23268570553334,137.02611867465,679735.375746591,4122608.7421669504
618,[2021-02-22 16:46:06.767] $GNGGA,74606.2,3713.961142524,N,13701.56712103,E,4,13,0.95,92.412,M,37.564,M,84.2,3006*6F,37.23268570873333,137.02611868383335,679735.3765537286,4122608.7425394473
619,[2021-02-22 16:46:06.876] $GNGGA,74606.3,3713.961142718,N,13701.567120645,E,4,13,0.95,92.411,M,37.564,M,84.3,3006*64,37.23268571196667,137.0261186774167,679735.3759767688,4122608.7428860217
620,[2021-02-22 16:46:06.986] $GNGGA,74606.4,3713.961142549,N,13701.567120625,E,4,13,0.95,92.412,M,37.564,M,84.4,3006*67,37.232685709150005,137.02611867708333,679735.3759538842,4122608.742572862
621,[2021-02-22 16:46:07.079] $GNGGA,74606.5,3713.961142554,N,13701.567120555,E,4,13,0.95,92.414,M,37.564,M,84.5,3006*69,37.23268570923334,137.02611867591668,679735.3758501818,4122608.7425798937
622,[2021-02-22 16:46:07.173] $GNGGA,74606.6,3713.9611420829997,N,13701.567120701002,E,4,13,0.95,92.414,M,37.564,M,84.6,3006*65,37.232685701383325,137.02611867835006,679735.3760847133,4122608.7417135057
623,[2021-02-22 16:46:07.267] $GNGGA,74606.7,3713.9611421970003,N,13701.567120526,E,4,13,0.95,92.415,M,37.564,M,84.7,3006*67,37.23268570328334,137.0261186754333,679735.3758214293,4122608.741918784
624,[2021-02-22 16:46:07.392] $GNGGA,74606.8,3713.961141711,N,13701.567120381002,E,4,13,0.95,92.41799999999999,M,37.564,M,84.8,3006*6A,37.23268569518333,137.02611867301673,679735.3756262695,4122608.741015447
625,[2021-02-22 16:46:07.470] $GNGGA,74606.9,3713.9611415629997,N,13701.567120602,E,4,13,0.95,92.416,M,37.564,M,84.9,3006*6D,37.232685692716665,137.02611867669998,679735.3759589016,4122608.74074875
626,[2021-02-22 16:46:07.579] $GNGGA,74607.0,3713.961142249,N,13701.567120003001,E,4,13,0.95,92.414,M,37.564,M,85.0,3006*64,37.23268570415,137.02611866671666,679735.3750460363,4122608.7419983936
627,[2021-02-22 16:46:07.673] $GNGGA,74607.1,3713.961143128,N,13701.567120185,E,4,13,0.95,92.416,M,37.564,M,85.1,3006*6C,37.232685718800006,137.02611866975002,679735.3752803592,4122608.7436296656
628,[2021-02-22 16:46:07.798] $GNGGA,74607.2,3713.961142655,N,13701.567121608,E,4,13,0.95,92.41799999999999,M,37.564,M,85.2,3006*6D,37.23268571091666,137.0261186934667,679735.3774032076,4122608.742799998
629,[2021-02-22 16:46:07.876] $GNGGA,74607.3,3713.9611429779998,N,13701.567121037,E,4,13,0.95,92.414,M,37.564,M,85.3,3006*6B,37.2326857163,137.02611868395,679735.3765461054,4122608.743379239
630,[2021-02-22 16:46:07.970] $GNGGA,74607.4,3713.961142215,N,13701.567121148999,E,4,13,0.95,92.414,M,37.564,M,85.4,3006*63,37.23268570358334,137.02611868581667,679735.3767419183,4122608.741971791
631,[2021-02-22 16:46:08.079] $GNGGA,74607.5,3713.9611427840005,N,13701.567121251,E,4,13,0.95,92.412,M,37.564,M,85.5,3006*62,37.23268571306667,137.02611868751666,679735.3768702172,4122608.743027255
632,[2021-02-22 16:46:08.189] $GNGGA,74607.6,3713.9611429059996,N,13701.567121535,E,4,13,0.95,92.411,M,37.564,M,85.6,3006*60,37.2326857151,137.02611869224998,679735.377285325,4122608.743261854
633,[2021-02-22 16:46:08.267] $GNGGA,74607.7,3713.961142633,N,13701.567122535,E,4,13,0.95,92.41,M,37.564,M,85.7,3006*6B,37.23268571055,137.02611870891664,679735.3787747846,4122608.7427886524
634,[2021-02-22 16:46:08.376] $GNGGA,74607.8,3713.961143065,N,13701.567122862,E,4,13,0.95,92.40799999999999,M,37.564,M,85.8,3006*69,37.23268571775,137.02611871436665,679735.3792412035,4122608.74359789
635,[2021-02-22 16:46:08.470] $GNGGA,74607.9,3713.96114314,N,13701.567122497,E,4,13,0.95,92.412,M,37.564,M,85.9,3006*62,37.232685718999996,137.02611870828332,679735.3786985263,4122608.7437250325
636,[2021-02-22 16:46:08.595] $GNGGA,74608.0,3713.9611432029997,N,13701.567121843998,E,4,13,0.95,92.41,M,37.564,M,86.0,3006*69,37.23268572004999,137.0261186974,679735.3777304727,4122608.7438208675
637,[2021-02-22 16:46:08.673] $GNGGA,74608.1,3713.9611435240004,N,13701.567120791999,E,4,13,0.95,92.40799999999999,M,37.564,M,86.1,3006*67,37.23268572540001,137.02611867986664,679735.3761622212,4122608.74438119
638,[2021-02-22 16:46:08.767] $GNGGA,74608.2,3713.961143705,N,13701.567121613001,E,4,13,0.95,92.411,M,37.564,M,86.2,3006*67,37.23268572841667,137.02611869355002,679735.3773690352,4122608.744741892
639,[2021-02-22 16:46:08.876] $GNGGA,74608.3,3713.96114374,N,13701.567121086999,E,4,13,0.95,92.411,M,37.564,M,86.3,3006*6D,37.232685728999996,137.0261186847833,679735.3765898749,4122608.7447899673
640,[2021-02-22 16:46:08.986] $GNGGA,74608.4,3713.961143635,N,13701.567121511001,E,4,13,0.95,92.412,M,37.564,M,86.4,3006*67,37.23268572725,137.02611869185003,679735.3772209838,4122608.744609214
641,[2021-02-22 16:46:09.064] $GNGGA,74608.5,3713.961143818,N,13701.567122095,E,4,13,0.95,92.411,M,37.564,M,86.5,3006*6F,37.2326857303,137.02611870158333,679735.3780772716,4122608.7449661144
642,[2021-02-22 16:46:09.173] $GNGGA,74608.6,3713.961143703,N,13701.567122516,E,4,13,0.95,92.411,M,37.564,M,86.6,3006*64,37.23268572838333,137.0261187086,679735.3787043362,4122608.744766774
643,[2021-02-22 16:46:09.267] $GNGGA,74608.7,3713.961143915,N,13701.567122315,E,4,13,0.95,92.40899999999999,M,37.564,M,86.7,3006*61,37.23268573191667,137.02611870525,679735.3783987361,4122608.745152458
644,[2021-02-22 16:46:09.376] $GNGGA,74608.8,3713.9611426359997,N,13701.567123001001,E,4,13,0.95,92.414,M,37.564,M,86.8,3006*65,37.232685710599995,137.02611871668336,679735.3794637222,4122608.7428089506
645,[2021-02-22 16:46:09.486] $GNGGA,74608.9,3713.961143247,N,13701.567123593999,E,4,13,0.95,92.411,M,37.564,M,86.9,3006*6A,37.23268572078333,137.02611872656664,679735.3803163732,4122608.743957625
646,[2021-02-22 16:46:09.564] $GNGGA,74609.0,3713.9611429740003,N,13701.567124428,E,4,13,0.95,92.40899999999999,M,37.564,M,87.0,3006*68,37.232685716233334,137.0261187404667,679735.3815603824,4122608.7434791704
647,[2021-02-22 16:46:09.673] $GNGGA,74609.1,3713.961144046,N,13701.567125108999,E,4,13,0.95,92.413,M,37.564,M,87.1,3006*6A,37.2326857341,137.02611875181665,679735.3825249068,4122608.745483145
648,[2021-02-22 16:46:09.767] $GNGGA,74609.2,3713.961143422,N,13701.567125567,E,4,13,0.95,92.413,M,37.564,M,87.2,3006*67,37.2326857237,137.02611875945001,679735.3832268324,4122608.744343695
649,[2021-02-22 16:46:09.876] $GNGGA,74609.3,3713.9611433709997,N,13701.567124831001,E,4,13,0.95,92.40899999999999,M,37.564,M,87.3,3006*62,37.23268572284999,137.02611874718335,679735.3821405629,4122608.7442260855
650,[2021-02-22 16:46:09.985] $GNGGA,74609.4,3713.9611428890003,N,13701.56712458,E,4,13,0.95,92.411,M,37.564,M,87.4,3006*61,37.23268571481667,137.026118743,679735.3817884993,4122608.743326794
651,[2021-02-22 16:46:10.064] $GNGGA,74609.5,3713.961142446,N,13701.567123433,E,4,13,0.95,92.412,M,37.564,M,87.5,3006*63,37.23268570743333,137.02611872388334,679735.3801100203,4122608.7424712623
652,[2021-02-22 16:46:10.173] $GNGGA,74609.6,3713.961142357,N,13701.567123718998,E,4,13,0.95,92.41,M,37.564,M,87.6,3006*6D,37.232685705950004,137.02611872864998,679735.3805364352,4122608.742315729
653,[2021-02-22 16:46:10.267] $GNGGA,74609.7,3713.9611420809997,N,13701.567122828,E,4,13,0.95,92.412,M,37.564,M,87.7,3006*6B,37.23268570135,137.02611871380003,679735.3792298839,4122608.7417771285
654,[2021-02-22 16:46:10.376] $GNGGA,74609.8,3713.96114229,N,13701.567124162,E,4,13,0.95,92.413,M,37.564,M,87.8,3006*69,37.23268570483334,137.02611873603334,679735.3811941335,4122608.7422058494
655,[2021-02-22 16:46:10.485] $GNGGA,74609.9,3713.961142492,N,13701.567124848001,E,4,13,0.95,92.412,M,37.564,M,87.9,3006*6D,37.232685708199995,137.02611874746668,679735.3822004935,4122608.742601113
656,[2021-02-22 16:46:10.564] $GNGGA,74610.0,3713.96114193,N,13701.567125081001,E,4,13,0.95,92.414,M,37.564,M,88.0,3006*66,37.23268569883333,137.02611875135003,679735.3825672679,4122608.7415691977
657,[2021-02-22 16:46:10.673] $GNGGA,74610.1,3713.961142385,N,13701.567124718,E,4,13,0.95,92.413,M,37.564,M,88.1,3006*60,37.23268570641667,137.02611874529998,679735.3820125014,4122608.742399128
658,[2021-02-22 16:46:10.767] $GNGGA,74610.2,3713.9611421520003,N,13701.567124547,E,4,13,0.95,92.415,M,37.564,M,88.2,3006*66,37.23268570253334,137.02611874245,679735.3817688765,4122608.7419628347
659,[2021-02-22 16:46:10.876] $GNGGA,74610.3,3713.961142427,N,13701.567125423,E,4,13,0.95,92.416,M,37.564,M,88.3,3006*60,37.232685707116666,137.02611875705,679735.3830532905,4122608.7424991103
660,[2021-02-22 16:46:10.985] $GNGGA,74610.4,3713.9611426379997,N,13701.567125131001,E,4,13,0.95,92.416,M,37.564,M,88.4,3006*6A,37.23268571063333,137.02611875218335,679735.3826131749,4122608.742880066
661,[2021-02-22 16:46:11.079] $GNGGA,74610.5,3713.9611425079997,N,13701.567125492,E,4,13,0.95,92.417,M,37.564,M,88.5,3006*67,37.23268570846666,137.0261187582,679735.3831521124,4122608.742651085
662,[2021-02-22 16:46:11.173] $GNGGA,74610.6,3713.961142727,N,13701.567125267,E,4,13,0.95,92.414,M,37.564,M,88.6,3006*67,37.23268571211668,137.02611875444998,679735.3828107442,4122608.7430489557
663,[2021-02-22 16:46:11.267] $GNGGA,74610.7,3713.961142115,N,13701.567125988,E,4,13,0.95,92.419,M,37.564,M,88.7,3006*67,37.232685701916665,137.02611876646668,679735.3839010812,4122608.74194002
664,[2021-02-22 16:46:11.392] $GNGGA,74610.8,3713.9611426809997,N,13701.567124842,E,4,13,0.95,92.416,M,37.564,M,88.8,3006*64,37.23268571135,137.02611874736667,679735.3821841382,4122608.7429504376
665,[2021-02-22 16:46:11.470] $GNGGA,74610.9,3713.961142953,N,13701.567124394,E,4,13,0.95,92.413,M,37.564,M,88.9,3006*61,37.232685715883335,137.0261187399,679735.3815109367,4122608.7434392595
666,[2021-02-22 16:46:11.579] $GNGGA,74611.0,3713.961142745,N,13701.567125576,E,4,13,0.95,92.415,M,37.564,M,89.0,3006*65,37.23268571241667,137.0261187596,679735.383266936,4122608.743092022
667,[2021-02-22 16:46:11.673] $GNGGA,74611.1,3713.9611434979997,N,13701.567124821,E,4,13,0.95,92.414,M,37.564,M,89.1,3006*68,37.232685724966665,137.02611874701665,679735.3821207474,4122608.744460628
668,[2021-02-22 16:46:11.798] $GNGGA,74611.2,3713.96114332,N,13701.567125619,E,4,13,0.95,92.414,M,37.564,M,89.2,3006*68,37.23268572199999,137.02611876031665,679735.3833077574,4122608.7441567145
669,[2021-02-22 16:46:11.876] $GNGGA,74611.3,3713.961143639,N,13701.567125386999,E,4,13,0.95,92.412,M,37.564,M,89.3,3006*61,37.232685727316664,137.02611875644996,679735.3829520806,4122608.744739289
670,[2021-02-22 16:46:11.970] $GNGGA,74611.4,3713.96114314,N,13701.567124766001,E,4,13,0.95,92.412,M,37.564,M,89.4,3006*62,37.232685718999996,137.02611874610002,679735.3820535953,4122608.743796848
671,[2021-02-22 16:46:12.079] $GNGGA,74611.5,3713.961142809,N,13701.567125184,E,4,13,0.95,92.411,M,37.564,M,89.5,3006*6F,37.232685713483335,137.02611875306664,679735.3826847697,4122608.7431979687
672,[2021-02-22 16:46:12.188] $GNGGA,74611.6,3713.9611428040002,N,13701.567124395,E,4,13,0.95,92.413,M,37.564,M,89.6,3006*63,37.23268571340001,137.02611873991668,679735.3815183132,4122608.7431637505
673,[2021-02-22 16:46:12.267] $GNGGA,74611.7,3713.961142608,N,13701.56712386,E,4,13,0.95,92.414,M,37.564,M,89.7,3006*60,37.23268571013334,137.02611873100003,679735.3807349938,4122608.74278436
674,[2021-02-22 16:46:12.376] $GNGGA,74611.8,3713.961142912,N,13701.567123753,E,4,13,0.95,92.413,M,37.564,M,89.8,3006*6C,37.232685715200006,137.02611872921668,679735.3805647431,4122608.7433431516
675,[2021-02-22 16:46:12.470] $GNGGA,74611.9,3713.961143352,N,13701.567123247,E,4,13,0.95,92.412,M,37.564,M,89.9,3006*62,37.23268572253334,137.02611872078333,679735.3797991256,4122608.7441408173
676,[2021-02-22 16:46:12.595] $GNGGA,74612.0,3713.961144025,N,13701.567123862,E,4,13,0.95,92.413,M,37.564,M,90.0,3006*61,37.23268573375,137.02611873103334,679735.3806818584,4122608.7454048414
677,[2021-02-22 16:46:12.673] $GNGGA,74612.1,3713.9611435409997,N,13701.567123923998,E,4,13,0.95,92.413,M,37.564,M,90.1,3006*62,37.232685725683325,137.02611873206666,679735.3807926928,4122608.744511755
678,[2021-02-22 16:46:12.767] $GNGGA,74612.2,3713.961143338,N,13701.56712423,E,4,13,0.95,92.413,M,37.564,M,90.2,3006*63,37.2326857223,137.02611873716666,679735.3812531969,4122608.7441460383
679,[2021-02-22 16:46:12.876] $GNGGA,74612.3,3713.9611432029997,N,13701.567124023,E,4,13,0.95,92.414,M,37.564,M,90.3,3006*6D,37.23268572004999,137.0261187337167,679735.3809524607,4122608.7438898347
680,[2021-02-22 16:46:12.985] $GNGGA,74612.4,3713.9611433570003,N,13701.567123498999,E,4,13,0.95,92.414,M,37.564,M,90.4,3006*6F,37.23268572261667,137.0261187249833,679735.3801715448,4122608.744158039
681,[2021-02-22 16:46:13.079] $GNGGA,74612.5,3713.961143342,N,13701.5671229,E,4,13,0.95,92.414,M,37.564,M,90.5,3006*67,37.23268572236667,137.026118715,679735.3792864302,4122608.7441113405
682,[2021-02-22 16:46:13.173] $GNGGA,74612.6,3713.961143539,N,13701.567123077,E,4,13,0.95,92.415,M,37.564,M,90.6,3006*64,37.23268572565,137.02611871795003,679735.3795403563,4122608.7444812492
683,[2021-02-22 16:46:13.267] $GNGGA,74612.7,3713.961144054,N,13701.56712358,E,4,13,0.95,92.414,M,37.564,M,90.7,3006*61,37.232685734233335,137.02611872633332,679735.3802637284,4122608.7454495463
684,[2021-02-22 16:46:13.376] $GNGGA,74612.8,3713.9611435559996,N,13701.567123223,E,4,13,0.95,92.416,M,37.564,M,90.8,3006*6D,37.23268572593333,137.02611872038335,679735.3797555662,4122608.7445173073
685,[2021-02-22 16:46:13.485] $GNGGA,74612.9,3713.9611433440004,N,13701.567122637,E,4,13,0.95,92.417,M,37.564,M,90.9,3006*69,37.23268572240001,137.02611871061666,679735.3788974647,4122608.744106715
686,[2021-02-22 16:46:13.579] $GNGGA,74613.0,3713.9611436009995,N,13701.567121813001,E,4,13,0.95,92.415,M,37.564,M,91.0,3006*64,37.23268572668332,137.02611869688337,679735.3776688839,4122608.7445558975
687,[2021-02-22 16:46:13.673] $GNGGA,74613.1,3713.961142992,N,13701.56712206,E,4,13,0.95,92.416,M,37.564,M,91.1,3006*6C,37.23268571653334,137.02611870099997,679735.3780582123,4122608.743437509
688,[2021-02-22 16:46:13.766] $GNGGA,74613.2,3713.9611431420003,N,13701.567121136,E,4,13,0.95,92.415,M,37.564,M,91.2,3006*6A,37.232685719033334,137.0261186856,679735.3766860022,4122608.7436856534
689,[2021-02-22 16:46:13.876] $GNGGA,74613.3,3713.961142877,N,13701.567121065,E,4,13,0.95,92.415,M,37.564,M,91.3,3006*63,37.23268571461666,137.02611868441667,679735.3765915089,4122608.7431933484
690,[2021-02-22 16:46:13.985] $GNGGA,74613.4,3713.961142803,N,13701.567121446002,E,4,13,0.95,92.415,M,37.564,M,91.4,3006*65,37.23268571338333,137.02611869076668,679735.3771578041,4122608.7430685614
691,[2021-02-22 16:46:14.079] $GNGGA,74613.5,3713.961142987,N,13701.567120795,E,4,13,0.95,92.417,M,37.564,M,91.5,3006*66,37.23268571645,137.02611867991666,679735.3761879158,4122608.7433882235
