,Format,Time,Latitude,LatType,Longitude,LonType,Status,Satellite,LevelAccuracy,Altitude(sea),M(sea),Altitude(geoid),M(geoid),DGPS use,checksum,Lat,Lon,UTM_X,UTM_Y
437,[2021-02-22 16:49:38.974] $GNGGA,74938.4,3713.9610780000003,N,13701.56739,E,4,5,1.75,93.609,M,37.564,M,101.4,3006*5D,37.23268463333334,137.02612316666665,679735.7768212254,4122608.6317301015
438,[2021-02-22 16:49:39.083] $GNGGA,74938.5,3713.961025,N,13701.56744,E,4,5,1.75,93.785,M,37.564,M,101.5,3006*5B,37.23268375000001,137.02612399999998,679735.8528518484,4122608.5353011903
439,[2021-02-22 16:49:39.177] $GNGGA,74938.6,3713.961024,N,13701.56744,E,4,5,1.75,93.789,M,37.564,M,101.6,3006*59,37.23268373333334,137.02612399999998,679735.8528914326,4122608.5334519176
440,[2021-02-22 16:49:39.271] $GNGGA,74938.7,3713.961023,N,13701.56744,E,4,5,1.75,93.79,M,37.564,M,101.7,3006*51,37.232683716666656,137.02612399999998,679735.8529310166,4122608.5316026434
441,[2021-02-22 16:49:39.380] $GNGGA,74938.8,3713.961021,N,13701.56744,E,4,9,1.12,93.79799999999999,M,37.564,M,101.8,3006*51,37.232683683333335,137.02612399999998,679735.8530101848,4122608.5279040984
442,[2021-02-22 16:49:39.474] $GNGGA,74938.9,3713.960983,N,13701.567369999999,E,4,11,0.99,93.439,M,37.564,M,101.9,3006*50,37.23268305,137.0261228333333,679735.7510086434,4122608.4554161713
443,[2021-02-22 16:49:39.599] $GNGGA,74939.0,3713.9609729999997,N,13701.56729,E,4,13,0.95,92.992,M,37.564,M,102.0,3006*58,37.232682883333325,137.0261215,679735.6331122185,4122608.4343913742
444,[2021-02-22 16:49:39.677] $GNGGA,74939.1,3713.960979,N,13701.567280000001,E,4,13,0.95,92.964,M,37.564,M,102.1,3006*55,37.23268298333333,137.02612133333335,679735.6180881835,4122608.4451705017
445,[2021-02-22 16:49:39.771] $GNGGA,74939.2,3713.960986,N,13701.56727,E,4,13,0.95,92.945,M,37.564,M,102.2,3006*59,37.2326831,137.02612116666663,679735.6030245553,4122608.4577989047
446,[2021-02-22 16:49:39.880] $GNGGA,74939.3,3713.9609920000003,N,13701.56727,E,4,13,0.95,92.929,M,37.564,M,102.3,3006*5A,37.23268320000001,137.02612116666663,679735.6027870511,4122608.4688945403
447,[2021-02-22 16:49:39.974] $GNGGA,74939.4,3713.9609969999997,N,13701.56726,E,4,13,0.95,92.90799999999999,M,37.564,M,102.4,3006*57,37.23268328333332,137.026121,679735.5878026001,4122608.4778243946
448,[2021-02-22 16:49:40.099] $GNGGA,74939.5,3713.961,N,13701.56726,E,4,13,0.95,92.896,M,37.564,M,102.5,3006*5E,37.23268333333333,137.026121,679735.587683848,4122608.4833722133
449,[2021-02-22 16:49:40.177] $GNGGA,74939.6,3713.961004,N,13701.56725,E,4,13,0.95,92.881,M,37.564,M,102.6,3006*50,37.2326834,137.02612083333332,679735.5727389788,4122608.4904527967
450,[2021-02-22 16:49:40.271] $GNGGA,74939.7,3713.961007,N,13701.56725,E,4,13,0.95,92.87,M,37.564,M,102.7,3006*56,37.232683449999996,137.02612083333332,679735.5726202268,4122608.496000614
451,[2021-02-22 16:49:40.380] $GNGGA,74939.8,3713.9610119999998,N,13701.56725,E,4,13,0.95,92.855,M,37.564,M,102.8,3006*5D,37.232683533333336,137.02612083333332,679735.5724223066,4122608.505246979
452,[2021-02-22 16:49:40.489] $GNGGA,74939.9,3713.961014,N,13701.56724,E,4,13,0.95,92.84200000000001,M,37.564,M,102.9,3006*57,37.23268356666667,137.02612066666666,679735.5575566055,4122608.5086290147
453,[2021-02-22 16:49:40.567] $GNGGA,74940.0,3713.9610159999997,N,13701.56724,E,4,13,0.95,92.831,M,37.564,M,103.0,3006*51,37.232683599999994,137.02612066666666,679735.5574774375,4122608.51232756
454,[2021-02-22 16:49:40.677] $GNGGA,74940.1,3713.961018,N,13701.56723,E,4,13,0.95,92.822,M,37.564,M,103.1,3006*52,37.23268363333333,137.02612050000002,679735.5426117387,4122608.5157095976
455,[2021-02-22 16:49:40.771] $GNGGA,74940.2,3713.961021,N,13701.56723,E,4,13,0.95,92.818,M,37.564,M,103.2,3006*52,37.232683683333335,137.02612050000002,679735.5424929867,4122608.521257417
456,[2021-02-22 16:49:40.895] $GNGGA,74940.3,3713.961024,N,13701.56723,E,4,13,0.95,92.807,M,37.564,M,103.3,3006*5D,37.23268373333334,137.02612050000002,679735.5423742345,4122608.526805235
457,[2021-02-22 16:49:40.974] $GNGGA,74940.4,3713.9610270000003,N,13701.567219999999,E,4,13,0.95,92.791,M,37.564,M,103.4,3006*52,37.23268378333334,137.0261203333333,679735.5274689449,4122608.5320365457
458,[2021-02-22 16:49:41.067] $GNGGA,74940.5,3713.961029,N,13701.567219999999,E,4,13,0.95,92.78200000000001,M,37.564,M,103.5,3006*50,37.232683816666665,137.0261203333333,679735.527389777,4122608.5357350893
459,[2021-02-22 16:49:41.177] $GNGGA,74940.6,3713.9610299999995,N,13701.567219999999,E,4,13,0.95,92.77600000000001,M,37.564,M,103.6,3006*5F,37.232683833333326,137.0261203333333,679735.5273501929,4122608.537584361
460,[2021-02-22 16:49:41.286] $GNGGA,74940.7,3713.961146,N,13701.56709,E,4,13,0.95,92.382,M,37.564,M,103.7,3006*52,37.23268576666666,137.02611816666666,679735.330533521,4122608.7479853947
461,[2021-02-22 16:49:41.364] $GNGGA,74940.8,3713.961145,N,13701.56709,E,4,13,0.95,92.383,M,37.564,M,103.8,3006*59,37.23268575000001,137.02611816666666,679735.3305731049,4122608.746136124
462,[2021-02-22 16:49:41.474] $GNGGA,74940.9,3713.961146,N,13701.56709,E,4,13,0.95,92.384,M,37.564,M,103.9,3006*5E,37.23268576666666,137.02611816666666,679735.330533521,4122608.7479853947
463,[2021-02-22 16:49:41.567] $GNGGA,74941.0,3713.961146,N,13701.56709,E,4,13,0.95,92.385,M,37.564,M,104.0,3006*55,37.23268576666666,137.02611816666666,679735.330533521,4122608.7479853947
464,[2021-02-22 16:49:41.692] $GNGGA,74941.1,3713.961146,N,13701.56709,E,4,13,0.95,92.387,M,37.564,M,104.1,3006*59,37.23268576666666,137.02611816666666,679735.330533521,4122608.7479853947
465,[2021-02-22 16:49:41.770] $GNGGA,74941.2,3713.961146,N,13701.56709,E,4,13,0.95,92.389,M,37.564,M,104.2,3006*5E,37.23268576666666,137.02611816666666,679735.330533521,4122608.7479853947
466,[2021-02-22 16:49:41.864] $GNGGA,74941.3,3713.961146,N,13701.56709,E,4,13,0.95,92.39,M,37.564,M,104.3,3006*58,37.23268576666666,137.02611816666666,679735.330533521,4122608.7479853947
467,[2021-02-22 16:49:41.974] $GNGGA,74941.4,3713.961146,N,13701.56709,E,4,13,0.95,92.387,M,37.564,M,104.4,3006*58,37.23268576666666,137.02611816666666,679735.330533521,4122608.7479853947
468,[2021-02-22 16:49:42.067] $GNGGA,74941.5,3713.961146,N,13701.56709,E,4,12,1.06,92.391,M,37.564,M,104.5,3006*57,37.23268576666666,137.02611816666666,679735.330533521,4122608.7479853947
469,[2021-02-22 16:49:42.192] $GNGGA,74941.6,3713.961146,N,13701.56709,E,4,12,1.06,92.39,M,37.564,M,104.6,3006*58,37.23268576666666,137.02611816666666,679735.330533521,4122608.7479853947
470,[2021-02-22 16:49:42.269] $GNGGA,74941.7,3713.961146,N,13701.56709,E,4,12,1.06,92.39200000000001,M,37.564,M,104.7,3006*54,37.23268576666666,137.02611816666666,679735.330533521,4122608.7479853947
471,[2021-02-22 16:49:42.378] $GNGGA,74941.8,3713.961148,N,13701.56709,E,4,12,1.06,92.39399999999999,M,37.564,M,104.8,3006*5B,37.2326858,137.02611816666666,679735.330454353,4122608.7516839416
472,[2021-02-22 16:49:42.472] $GNGGA,74941.9,3713.961148,N,13701.56709,E,4,12,1.06,92.39,M,37.564,M,104.9,3006*59,37.2326858,137.02611816666666,679735.330454353,4122608.7516839416
473,[2021-02-22 16:49:42.581] $GNGGA,74942.0,3713.961147,N,13701.56709,E,4,12,1.06,92.389,M,37.564,M,105.0,3006*59,37.23268578333333,137.02611816666666,679735.330493937,4122608.7498346684
474,[2021-02-22 16:49:42.690] $GNGGA,74942.1,3713.961147,N,13701.56709,E,4,12,1.06,92.39,M,37.564,M,105.1,3006*57,37.23268578333333,137.02611816666666,679735.330493937,4122608.7498346684
475,[2021-02-22 16:49:42.769] $GNGGA,74942.2,3713.961148,N,13701.56709,E,4,12,1.06,92.39,M,37.564,M,105.2,3006*52,37.2326858,137.02611816666666,679735.330454353,4122608.7516839416
476,[2021-02-22 16:49:42.878] $GNGGA,74942.3,3713.961148,N,13701.56709,E,4,12,1.06,92.38799999999999,M,37.564,M,105.3,3006*5F,37.2326858,137.02611816666666,679735.330454353,4122608.7516839416
477,[2021-02-22 16:49:42.972] $GNGGA,74942.4,3713.961148,N,13701.56709,E,4,12,1.06,92.38799999999999,M,37.564,M,105.4,3006*5F,37.2326858,137.02611816666666,679735.330454353,4122608.7516839416
478,[2021-02-22 16:49:43.081] $GNGGA,74942.5,3713.961147,N,13701.56709,E,4,12,1.06,92.38799999999999,M,37.564,M,105.5,3006*5E,37.23268578333333,137.02611816666666,679735.330493937,4122608.7498346684
479,[2021-02-22 16:49:43.190] $GNGGA,74942.6,3713.961146,N,13701.56709,E,4,12,1.06,92.38799999999999,M,37.564,M,105.6,3006*5A,37.23268576666666,137.02611816666666,679735.330533521,4122608.7479853947
480,[2021-02-22 16:49:43.269] $GNGGA,74942.7,3713.961146,N,13701.56709,E,4,12,1.06,92.391,M,37.564,M,105.7,3006*5F,37.23268576666666,137.02611816666666,679735.330533521,4122608.7479853947
481,[2021-02-22 16:49:43.378] $GNGGA,74942.8,3713.961145,N,13701.56709,E,4,12,1.06,92.39,M,37.564,M,105.8,3006*5A,37.23268575000001,137.02611816666666,679735.3305731049,4122608.746136124
482,[2021-02-22 16:49:43.472] $GNGGA,74942.9,3713.961145,N,13701.56708,E,4,12,1.06,92.39,M,37.564,M,105.9,3006*59,37.23268575000001,137.02611800000003,679735.3157865745,4122608.745819616
483,[2021-02-22 16:49:43.581] $GNGGA,74943.0,3713.961145,N,13701.56709,E,4,12,1.06,92.389,M,37.564,M,106.0,3006*5F,37.23268575000001,137.02611816666666,679735.3305731049,4122608.746136124
484,[2021-02-22 16:49:43.690] $GNGGA,74943.1,3713.961145,N,13701.56709,E,4,13,0.95,92.39,M,37.564,M,106.1,3006*56,37.23268575000001,137.02611816666666,679735.3305731049,4122608.746136124
485,[2021-02-22 16:49:43.769] $GNGGA,74943.2,3713.961145,N,13701.56709,E,4,13,0.95,92.387,M,37.564,M,106.2,3006*56,37.23268575000001,137.02611816666666,679735.3305731049,4122608.746136124
486,[2021-02-22 16:49:43.878] $GNGGA,74943.3,3713.961145,N,13701.56709,E,4,13,0.95,92.38799999999999,M,37.564,M,106.3,3006*52,37.23268575000001,137.02611816666666,679735.3305731049,4122608.746136124
487,[2021-02-22 16:49:43.972] $GNGGA,74943.4,3713.961145,N,13701.56709,E,4,13,0.95,92.389,M,37.564,M,106.4,3006*52,37.23268575000001,137.02611816666666,679735.3305731049,4122608.746136124
488,[2021-02-22 16:49:44.081] $GNGGA,74943.5,3713.961146,N,13701.56709,E,4,13,0.95,92.38600000000001,M,37.564,M,106.5,3006*59,37.23268576666666,137.02611816666666,679735.330533521,4122608.7479853947
489,[2021-02-22 16:49:44.190] $GNGGA,74943.6,3713.961145,N,13701.56709,E,4,13,0.95,92.39,M,37.564,M,106.6,3006*51,37.23268575000001,137.02611816666666,679735.3305731049,4122608.746136124
490,[2021-02-22 16:49:44.268] $GNGGA,74943.7,3713.961145,N,13701.56709,E,4,13,0.95,92.391,M,37.564,M,106.7,3006*50,37.23268575000001,137.02611816666666,679735.3305731049,4122608.746136124
491,[2021-02-22 16:49:44.378] $GNGGA,74943.8,3713.961146,N,13701.56709,E,4,13,0.95,92.389,M,37.564,M,106.8,3006*52,37.23268576666666,137.02611816666666,679735.330533521,4122608.7479853947
492,[2021-02-22 16:49:44.472] $GNGGA,74943.9,3713.961146,N,13701.56709,E,4,13,0.95,92.38799999999999,M,37.564,M,106.9,3006*57,37.23268576666666,137.02611816666666,679735.330533521,4122608.7479853947
493,[2021-02-22 16:49:44.597] $GNGGA,74944.0,3713.961146,N,13701.56709,E,4,13,0.95,92.38799999999999,M,37.564,M,107.0,3006*56,37.23268576666666,137.02611816666666,679735.330533521,4122608.7479853947
494,[2021-02-22 16:49:44.675] $GNGGA,74944.1,3713.961146,N,13701.56709,E,4,13,0.95,92.385,M,37.564,M,107.1,3006*55,37.23268576666666,137.02611816666666,679735.330533521,4122608.7479853947
495,[2021-02-22 16:49:44.768] $GNGGA,74944.2,3713.961146,N,13701.56709,E,4,13,0.95,92.387,M,37.564,M,107.2,3006*52,37.23268576666666,137.02611816666666,679735.330533521,4122608.7479853947
496,[2021-02-22 16:49:44.878] $GNGGA,74944.3,3713.961146,N,13701.56709,E,4,13,0.95,92.383,M,37.564,M,107.3,3006*5F,37.23268576666666,137.02611816666666,679735.330533521,4122608.7479853947
497,[2021-02-22 16:49:44.987] $GNGGA,74944.4,3713.961146,N,13701.56709,E,4,13,0.95,92.383,M,37.564,M,107.4,3006*57,37.23268576666666,137.02611816666666,679735.330533521,4122608.7479853947
498,[2021-02-22 16:49:45.065] $GNGGA,74944.5,3713.961146,N,13701.56709,E,4,13,0.95,92.38600000000001,M,37.564,M,107.5,3006*5E,37.23268576666666,137.02611816666666,679735.330533521,4122608.7479853947
499,[2021-02-22 16:49:45.175] $GNGGA,74944.6,3713.961146,N,13701.56709,E,4,13,0.95,92.38600000000001,M,37.564,M,107.6,3006*53,37.23268576666666,137.02611816666666,679735.330533521,4122608.7479853947
500,[2021-02-22 16:49:45.268] $GNGGA,74944.7,3713.961147,N,13701.56709,E,4,13,0.95,92.389,M,37.564,M,107.7,3006*5A,37.23268578333333,137.02611816666666,679735.330493937,4122608.7498346684
501,[2021-02-22 16:49:45.393] $GNGGA,74944.8,3713.961147,N,13701.56709,E,4,13,0.95,92.39,M,37.564,M,107.8,3006*5E,37.23268578333333,137.02611816666666,679735.330493937,4122608.7498346684
502,[2021-02-22 16:49:45.472] $GNGGA,74944.9,3713.961147,N,13701.56709,E,4,13,0.95,92.39200000000001,M,37.564,M,107.9,3006*5D,37.23268578333333,137.02611816666666,679735.330493937,4122608.7498346684
503,[2021-02-22 16:49:45.565] $GNGGA,74945.0,3713.961147,N,13701.56709,E,4,13,0.95,92.39200000000001,M,37.564,M,108.0,3006*55,37.23268578333333,137.02611816666666,679735.330493937,4122608.7498346684
504,[2021-02-22 16:49:45.675] $GNGGA,74945.1,3713.961147,N,13701.56709,E,4,13,0.95,92.395,M,37.564,M,108.1,3006*50,37.23268578333333,137.02611816666666,679735.330493937,4122608.7498346684
505,[2021-02-22 16:49:45.784] $GNGGA,74945.2,3713.961147,N,13701.5671,E,4,13,0.95,92.395,M,37.564,M,108.2,3006*51,37.23268578333333,137.02611833333333,679735.3452804695,4122608.7501511765
506,[2021-02-22 16:49:45.878] $GNGGA,74945.3,3713.961147,N,13701.5671,E,4,13,0.95,92.396,M,37.564,M,108.3,3006*5A,37.23268578333333,137.02611833333333,679735.3452804695,4122608.7501511765
507,[2021-02-22 16:49:45.972] $GNGGA,74945.4,3713.961147,N,13701.5671,E,4,13,0.95,92.399,M,37.564,M,108.4,3006*5B,37.23268578333333,137.02611833333333,679735.3452804695,4122608.7501511765
508,[2021-02-22 16:49:46.065] $GNGGA,74945.5,3713.961146,N,13701.5671,E,4,13,0.95,92.398,M,37.564,M,108.5,3006*5A,37.23268576666666,137.02611833333333,679735.3453200536,4122608.748301903
509,[2021-02-22 16:49:46.175] $GNGGA,74945.6,3713.961147,N,13701.5671,E,4,13,0.95,92.397,M,37.564,M,108.6,3006*51,37.23268578333333,137.02611833333333,679735.3452804695,4122608.7501511765
510,[2021-02-22 16:49:46.284] $GNGGA,74945.7,3713.961147,N,13701.5671,E,4,13,0.95,92.39399999999999,M,37.564,M,108.7,3006*57,37.23268578333333,137.02611833333333,679735.3452804695,4122608.7501511765
511,[2021-02-22 16:49:46.378] $GNGGA,74945.8,3713.961147,N,13701.5671,E,4,13,0.95,92.398,M,37.564,M,108.8,3006*50,37.23268578333333,137.02611833333333,679735.3452804695,4122608.7501511765
512,[2021-02-22 16:49:46.471] $GNGGA,74945.9,3713.961147,N,13701.5671,E,4,13,0.95,92.397,M,37.564,M,108.9,3006*55,37.23268578333333,137.02611833333333,679735.3452804695,4122608.7501511765
513,[2021-02-22 16:49:46.565] $GNGGA,74946.0,3713.961146,N,13701.5671,E,4,13,0.95,92.396,M,37.564,M,109.0,3006*5C,37.23268576666666,137.02611833333333,679735.3453200536,4122608.748301903
514,[2021-02-22 16:49:46.675] $GNGGA,74946.1,3713.961144,N,13701.56709,E,4,13,0.95,92.395,M,37.564,M,109.1,3006*56,37.23268573333333,137.02611816666666,679735.3306126889,4122608.7442868496
515,[2021-02-22 16:49:46.784] $GNGGA,74946.2,3713.961144,N,13701.56709,E,4,13,0.95,92.395,M,37.564,M,109.2,3006*59,37.23268573333333,137.02611816666666,679735.3306126889,4122608.7442868496
516,[2021-02-22 16:49:46.878] $GNGGA,74946.3,3713.961144,N,13701.56709,E,4,13,0.95,92.39299999999999,M,37.564,M,109.3,3006*5A,37.23268573333333,137.02611816666666,679735.3306126889,4122608.7442868496
517,[2021-02-22 16:49:46.971] $GNGGA,74946.4,3713.961143,N,13701.56709,E,4,13,0.95,92.395,M,37.564,M,109.4,3006*5C,37.23268571666667,137.02611816666666,679735.3306522728,4122608.742437578
518,[2021-02-22 16:49:47.065] $GNGGA,74946.5,3713.961144,N,13701.56709,E,4,13,0.95,92.39299999999999,M,37.564,M,109.5,3006*5A,37.23268573333333,137.02611816666666,679735.3306126889,4122608.7442868496
519,[2021-02-22 16:49:47.175] $GNGGA,74946.6,3713.961144,N,13701.56709,E,4,13,0.95,92.396,M,37.564,M,109.6,3006*53,37.23268573333333,137.02611816666666,679735.3306126889,4122608.7442868496
520,[2021-02-22 16:49:47.284] $GNGGA,74946.7,3713.961145,N,13701.56709,E,4,13,0.95,92.397,M,37.564,M,109.7,3006*54,37.23268575000001,137.02611816666666,679735.3305731049,4122608.746136124
521,[2021-02-22 16:49:47.378] $GNGGA,74946.8,3713.961145,N,13701.56709,E,4,13,0.95,92.397,M,37.564,M,109.8,3006*54,37.23268575000001,137.02611816666666,679735.3305731049,4122608.746136124
522,[2021-02-22 16:49:47.471] $GNGGA,74946.9,3713.961145,N,13701.56709,E,4,13,0.95,92.397,M,37.564,M,109.9,3006*5E,37.23268575000001,137.02611816666666,679735.3305731049,4122608.746136124
523,[2021-02-22 16:49:47.565] $GNGGA,74947.0,3713.961145,N,13701.56709,E,4,13,0.95,92.397,M,37.564,M,110.0,3006*56,37.23268575000001,137.02611816666666,679735.3305731049,4122608.746136124
524,[2021-02-22 16:49:47.675] $GNGGA,74947.1,3713.961145,N,13701.56709,E,4,13,0.95,92.39399999999999,M,37.564,M,110.1,3006*5D,37.23268575000001,137.02611816666666,679735.3305731049,4122608.746136124
525,[2021-02-22 16:49:47.784] $GNGGA,74947.2,3713.961146,N,13701.56709,E,4,13,0.95,92.396,M,37.564,M,110.2,3006*50,37.23268576666666,137.02611816666666,679735.330533521,4122608.7479853947
526,[2021-02-22 16:49:47.878] $GNGGA,74947.3,3713.961145,N,13701.56709,E,4,13,0.95,92.395,M,37.564,M,110.3,3006*59,37.23268575000001,137.02611816666666,679735.3305731049,4122608.746136124
527,[2021-02-22 16:49:47.971] $GNGGA,74947.4,3713.961146,N,13701.56709,E,4,13,0.95,92.395,M,37.564,M,110.4,3006*54,37.23268576666666,137.02611816666666,679735.330533521,4122608.7479853947
528,[2021-02-22 16:49:48.065] $GNGGA,74947.5,3713.961145,N,13701.56709,E,4,13,0.95,92.39399999999999,M,37.564,M,110.5,3006*5D,37.23268575000001,137.02611816666666,679735.3305731049,4122608.746136124
529,[2021-02-22 16:49:48.174] $GNGGA,74947.6,3713.961145,N,13701.56709,E,4,13,0.95,92.395,M,37.564,M,110.6,3006*5A,37.23268575000001,137.02611816666666,679735.3305731049,4122608.746136124
530,[2021-02-22 16:49:48.299] $GNGGA,74947.7,3713.961146,N,13701.56709,E,4,13,0.95,92.397,M,37.564,M,110.7,3006*52,37.23268576666666,137.02611816666666,679735.330533521,4122608.7479853947
531,[2021-02-22 16:49:48.378] $GNGGA,74947.8,3713.961147,N,13701.56709,E,4,13,0.95,92.39399999999999,M,37.564,M,110.8,3006*53,37.23268578333333,137.02611816666666,679735.330493937,4122608.7498346684
532,[2021-02-22 16:49:48.471] $GNGGA,74947.9,3713.961147,N,13701.56709,E,4,13,0.95,92.39399999999999,M,37.564,M,110.9,3006*54,37.23268578333333,137.02611816666666,679735.330493937,4122608.7498346684
533,[2021-02-22 16:49:48.565] $GNGGA,74948.0,3713.961146,N,13701.56709,E,4,13,0.95,92.395,M,37.564,M,111.0,3006*55,37.23268576666666,137.02611816666666,679735.330533521,4122608.7479853947
534,[2021-02-22 16:49:48.674] $GNGGA,74948.1,3713.961147,N,13701.56709,E,4,13,0.95,92.395,M,37.564,M,111.1,3006*58,37.23268578333333,137.02611816666666,679735.330493937,4122608.7498346684
535,[2021-02-22 16:49:48.784] $GNGGA,74948.2,3713.961145,N,13701.56709,E,4,13,0.95,92.397,M,37.564,M,111.2,3006*53,37.23268575000001,137.02611816666666,679735.3305731049,4122608.746136124
536,[2021-02-22 16:49:48.878] $GNGGA,74948.3,3713.961145,N,13701.56709,E,4,13,0.95,92.398,M,37.564,M,111.3,3006*54,37.23268575000001,137.02611816666666,679735.3305731049,4122608.746136124
537,[2021-02-22 16:49:48.971] $GNGGA,74948.4,3713.961145,N,13701.56709,E,4,13,0.95,92.398,M,37.564,M,111.4,3006*55,37.23268575000001,137.02611816666666,679735.3305731049,4122608.746136124
538,[2021-02-22 16:49:49.081] $GNGGA,74948.5,3713.961145,N,13701.56709,E,4,13,0.95,92.395,M,37.564,M,111.5,3006*53,37.23268575000001,137.02611816666666,679735.3305731049,4122608.746136124
539,[2021-02-22 16:49:49.190] $GNGGA,74948.6,3713.961146,N,13701.56709,E,4,13,0.95,92.397,M,37.564,M,111.6,3006*52,37.23268576666666,137.02611816666666,679735.330533521,4122608.7479853947
540,[2021-02-22 16:49:49.268] $GNGGA,74948.7,3713.961146,N,13701.56709,E,4,13,0.95,92.399,M,37.564,M,111.7,3006*59,37.23268576666666,137.02611816666666,679735.330533521,4122608.7479853947
541,[2021-02-22 16:49:49.378] $GNGGA,74948.8,3713.961146,N,13701.56709,E,4,13,0.95,92.39399999999999,M,37.564,M,111.8,3006*5B,37.23268576666666,137.02611816666666,679735.330533521,4122608.7479853947
542,[2021-02-22 16:49:49.471] $GNGGA,74948.9,3713.961147,N,13701.56709,E,4,13,0.95,92.39399999999999,M,37.564,M,111.9,3006*5D,37.23268578333333,137.02611816666666,679735.330493937,4122608.7498346684
543,[2021-02-22 16:49:49.596] $GNGGA,74949.0,3713.961147,N,13701.56709,E,4,13,0.95,92.39299999999999,M,37.564,M,112.0,3006*57,37.23268578333333,137.02611816666666,679735.330493937,4122608.7498346684
544,[2021-02-22 16:49:49.674] $GNGGA,74949.1,3713.961147,N,13701.56708,E,4,13,0.95,92.39399999999999,M,37.564,M,112.1,3006*5F,37.23268578333333,137.02611800000003,679735.3157074066,4122608.74951816
545,[2021-02-22 16:49:49.768] $GNGGA,74949.2,3713.961147,N,13701.56708,E,4,13,0.95,92.39,M,37.564,M,112.2,3006*58,37.23268578333333,137.02611800000003,679735.3157074066,4122608.74951816
546,[2021-02-22 16:49:49.877] $GNGGA,74949.3,3713.961147,N,13701.56708,E,4,13,0.95,92.389,M,37.564,M,112.3,3006*5B,37.23268578333333,137.02611800000003,679735.3157074066,4122608.74951816
547,[2021-02-22 16:49:49.987] $GNGGA,74949.4,3713.961148,N,13701.56709,E,4,13,0.95,92.389,M,37.564,M,112.4,3006*53,37.2326858,137.02611816666666,679735.330454353,4122608.7516839416
548,[2021-02-22 16:49:50.065] $GNGGA,74949.5,3713.961149,N,13701.56708,E,4,13,0.95,92.387,M,37.564,M,112.5,3006*57,37.23268581666667,137.02611800000003,679735.3156282386,4122608.753216706
549,[2021-02-22 16:49:50.174] $GNGGA,74949.6,3713.961148,N,13701.56708,E,4,13,0.95,92.38799999999999,M,37.564,M,112.6,3006*5C,37.2326858,137.02611800000003,679735.3156678227,4122608.751367433
550,[2021-02-22 16:49:50.268] $GNGGA,74949.7,3713.961149,N,13701.56708,E,4,13,0.95,92.38799999999999,M,37.564,M,112.7,3006*53,37.23268581666667,137.02611800000003,679735.3156282386,4122608.753216706
551,[2021-02-22 16:49:50.393] $GNGGA,74949.8,3713.961148,N,13701.56709,E,4,13,0.95,92.387,M,37.564,M,112.8,3006*55,37.2326858,137.02611816666666,679735.330454353,4122608.7516839416
552,[2021-02-22 16:49:50.471] $GNGGA,74949.9,3713.961149,N,13701.56709,E,4,13,0.95,92.389,M,37.564,M,112.9,3006*57,37.23268581666667,137.02611816666666,679735.330414769,4122608.753533214
553,[2021-02-22 16:49:50.565] $GNGGA,74950.0,3713.961148,N,13701.56709,E,4,13,0.95,92.38799999999999,M,37.564,M,113.0,3006*5A,37.2326858,137.02611816666666,679735.330454353,4122608.7516839416
554,[2021-02-22 16:49:50.674] $GNGGA,74950.1,3713.961148,N,13701.56709,E,4,13,0.95,92.389,M,37.564,M,113.1,3006*56,37.2326858,137.02611816666666,679735.330454353,4122608.7516839416
555,[2021-02-22 16:49:50.768] $GNGGA,74950.2,3713.961148,N,13701.56709,E,4,13,0.95,92.38799999999999,M,37.564,M,113.2,3006*5A,37.2326858,137.02611816666666,679735.330454353,4122608.7516839416
556,[2021-02-22 16:49:50.893] $GNGGA,74950.3,3713.961148,N,13701.56709,E,4,13,0.95,92.389,M,37.564,M,113.3,3006*5B,37.2326858,137.02611816666666,679735.330454353,4122608.7516839416
557,[2021-02-22 16:49:50.971] $GNGGA,74950.4,3713.961149,N,13701.56709,E,4,13,0.95,92.389,M,37.564,M,113.4,3006*57,37.23268581666667,137.02611816666666,679735.330414769,4122608.753533214
558,[2021-02-22 16:49:51.065] $GNGGA,74950.5,3713.961149,N,13701.56709,E,4,13,0.95,92.391,M,37.564,M,113.5,3006*53,37.23268581666667,137.02611816666666,679735.330414769,4122608.753533214
559,[2021-02-22 16:49:51.174] $GNGGA,74950.6,3713.961149,N,13701.56709,E,4,13,0.95,92.389,M,37.564,M,113.6,3006*5F,37.23268581666667,137.02611816666666,679735.330414769,4122608.753533214
560,[2021-02-22 16:49:51.268] $GNGGA,74950.7,3713.961149,N,13701.56709,E,4,13,0.95,92.39,M,37.564,M,113.7,3006*56,37.23268581666667,137.02611816666666,679735.330414769,4122608.753533214
561,[2021-02-22 16:49:51.393] $GNGGA,74950.8,3713.961149,N,13701.56709,E,4,13,0.95,92.39,M,37.564,M,113.8,3006*54,37.23268581666667,137.02611816666666,679735.330414769,4122608.753533214
562,[2021-02-22 16:49:51.471] $GNGGA,74950.9,3713.961149,N,13701.56709,E,4,13,0.95,92.391,M,37.564,M,113.9,3006*5B,37.23268581666667,137.02611816666666,679735.330414769,4122608.753533214
563,[2021-02-22 16:49:51.565] $GNGGA,74951.0,3713.961149,N,13701.56709,E,4,13,0.95,92.39,M,37.564,M,114.0,3006*5C,37.23268581666667,137.02611816666666,679735.330414769,4122608.753533214
564,[2021-02-22 16:49:51.674] $GNGGA,74951.1,3713.961149,N,13701.56709,E,4,13,0.95,92.39,M,37.564,M,114.1,3006*52,37.23268581666667,137.02611816666666,679735.330414769,4122608.753533214
565,[2021-02-22 16:49:51.768] $GNGGA,74951.2,3713.96115,N,13701.56709,E,4,13,0.95,92.389,M,37.564,M,114.2,3006*53,37.232685833333335,137.02611816666666,679735.330375185,4122608.7553824866
566,[2021-02-22 16:49:51.893] $GNGGA,74951.3,3713.961149,N,13701.56709,E,4,13,0.95,92.391,M,37.564,M,114.3,3006*53,37.23268581666667,137.02611816666666,679735.330414769,4122608.753533214
567,[2021-02-22 16:49:51.971] $GNGGA,74951.4,3713.961149,N,13701.56709,E,4,13,0.95,92.391,M,37.564,M,114.4,3006*5A,37.23268581666667,137.02611816666666,679735.330414769,4122608.753533214
568,[2021-02-22 16:49:52.065] $GNGGA,74951.5,3713.961149,N,13701.56709,E,4,13,0.95,92.39,M,37.564,M,114.5,3006*5E,37.23268581666667,137.02611816666666,679735.330414769,4122608.753533214
569,[2021-02-22 16:49:52.174] $GNGGA,74951.6,3713.961149,N,13701.56709,E,4,13,0.95,92.391,M,37.564,M,114.6,3006*52,37.23268581666667,137.02611816666666,679735.330414769,4122608.753533214
570,[2021-02-22 16:49:52.268] $GNGGA,74951.7,3713.961148,N,13701.56709,E,4,13,0.95,92.389,M,37.564,M,114.7,3006*5B,37.2326858,137.02611816666666,679735.330454353,4122608.7516839416
571,[2021-02-22 16:49:52.393] $GNGGA,74951.8,3713.961148,N,13701.56709,E,4,13,0.95,92.387,M,37.564,M,114.8,3006*53,37.2326858,137.02611816666666,679735.330454353,4122608.7516839416
572,[2021-02-22 16:49:52.471] $GNGGA,74951.9,3713.961147,N,13701.56709,E,4,13,0.95,92.38600000000001,M,37.564,M,114.9,3006*5F,37.23268578333333,137.02611816666666,679735.330493937,4122608.7498346684
573,[2021-02-22 16:49:52.565] $GNGGA,74952.0,3713.961147,N,13701.56708,E,4,13,0.95,92.38600000000001,M,37.564,M,115.0,3006*5B,37.23268578333333,137.02611800000003,679735.3157074066,4122608.74951816
574,[2021-02-22 16:49:52.674] $GNGGA,74952.1,3713.961148,N,13701.56708,E,4,13,0.95,92.385,M,37.564,M,115.1,3006*5F,37.2326858,137.02611800000003,679735.3156678227,4122608.751367433
575,[2021-02-22 16:49:52.768] $GNGGA,74952.2,3713.961148,N,13701.56708,E,4,13,0.95,92.387,M,37.564,M,115.2,3006*54,37.2326858,137.02611800000003,679735.3156678227,4122608.751367433
576,[2021-02-22 16:49:52.893] $GNGGA,74952.3,3713.961148,N,13701.56708,E,4,13,0.95,92.385,M,37.564,M,115.3,3006*5D,37.2326858,137.02611800000003,679735.3156678227,4122608.751367433
577,[2021-02-22 16:49:52.971] $GNGGA,74952.4,3713.961147,N,13701.56708,E,4,13,0.95,92.384,M,37.564,M,115.4,3006*5A,37.23268578333333,137.02611800000003,679735.3157074066,4122608.74951816
578,[2021-02-22 16:49:53.065] $GNGGA,74952.5,3713.961148,N,13701.56708,E,4,13,0.95,92.38799999999999,M,37.564,M,115.5,3006*5D,37.2326858,137.02611800000003,679735.3156678227,4122608.751367433
579,[2021-02-22 16:49:53.174] $GNGGA,74952.6,3713.961149,N,13701.56708,E,4,13,0.95,92.387,M,37.564,M,115.6,3006*50,37.23268581666667,137.02611800000003,679735.3156282386,4122608.753216706
580,[2021-02-22 16:49:53.299] $GNGGA,74952.7,3713.96115,N,13701.56708,E,4,13,0.95,92.387,M,37.564,M,115.7,3006*5D,37.232685833333335,137.02611800000003,679735.3155886547,4122608.755065978
581,[2021-02-22 16:49:53.377] $GNGGA,74952.8,3713.96115,N,13701.56708,E,4,13,0.95,92.38799999999999,M,37.564,M,115.8,3006*50,37.232685833333335,137.02611800000003,679735.3155886547,4122608.755065978
582,[2021-02-22 16:49:53.471] $GNGGA,74952.9,3713.96115,N,13701.56708,E,4,13,0.95,92.387,M,37.564,M,115.9,3006*5B,37.232685833333335,137.02611800000003,679735.3155886547,4122608.755065978
583,[2021-02-22 16:49:53.580] $GNGGA,74953.0,3713.96115,N,13701.56708,E,4,13,0.95,92.39200000000001,M,37.564,M,116.0,3006*53,37.232685833333335,137.02611800000003,679735.3155886547,4122608.755065978
584,[2021-02-22 16:49:53.690] $GNGGA,74953.1,3713.961149,N,13701.56708,E,4,13,0.95,92.389,M,37.564,M,116.1,3006*5D,37.23268581666667,137.02611800000003,679735.3156282386,4122608.753216706
585,[2021-02-22 16:49:53.768] $GNGGA,74953.2,3713.961149,N,13701.56708,E,4,13,0.95,92.389,M,37.564,M,116.2,3006*5B,37.23268581666667,137.02611800000003,679735.3156282386,4122608.753216706
586,[2021-02-22 16:49:53.877] $GNGGA,74953.3,3713.961149,N,13701.56708,E,4,13,0.95,92.391,M,37.564,M,116.3,3006*56,37.23268581666667,137.02611800000003,679735.3156282386,4122608.753216706
587,[2021-02-22 16:49:53.971] $GNGGA,74953.4,3713.961148,N,13701.56708,E,4,13,0.95,92.39,M,37.564,M,116.4,3006*54,37.2326858,137.02611800000003,679735.3156678227,4122608.751367433
588,[2021-02-22 16:49:54.096] $GNGGA,74953.5,3713.961148,N,13701.56708,E,4,13,0.95,92.39,M,37.564,M,116.5,3006*58,37.2326858,137.02611800000003,679735.3156678227,4122608.751367433
589,[2021-02-22 16:49:54.174] $GNGGA,74953.6,3713.961148,N,13701.56709,E,4,13,0.95,92.39399999999999,M,37.564,M,116.6,3006*55,37.2326858,137.02611816666666,679735.330454353,4122608.7516839416
590,[2021-02-22 16:49:54.268] $GNGGA,74953.7,3713.961148,N,13701.56709,E,4,13,0.95,92.391,M,37.564,M,116.7,3006*52,37.2326858,137.02611816666666,679735.330454353,4122608.7516839416
591,[2021-02-22 16:49:54.377] $GNGGA,74953.8,3713.961148,N,13701.56709,E,4,13,0.95,92.39299999999999,M,37.564,M,116.8,3006*5F,37.2326858,137.02611816666666,679735.330454353,4122608.7516839416
592,[2021-02-22 16:49:54.486] $GNGGA,74953.9,3713.961148,N,13701.56709,E,4,13,0.95,92.391,M,37.564,M,116.9,3006*56,37.2326858,137.02611816666666,679735.330454353,4122608.7516839416
593,[2021-02-22 16:49:54.565] $GNGGA,74954.0,3713.961148,N,13701.56709,E,4,13,0.95,92.391,M,37.564,M,117.0,3006*54,37.2326858,137.02611816666666,679735.330454353,4122608.7516839416
594,[2021-02-22 16:49:54.674] $GNGGA,74954.1,3713.961149,N,13701.56709,E,4,13,0.95,92.391,M,37.564,M,117.1,3006*5B,37.23268581666667,137.02611816666666,679735.330414769,4122608.753533214
595,[2021-02-22 16:49:54.768] $GNGGA,74954.2,3713.961149,N,13701.56709,E,4,13,0.95,92.38600000000001,M,37.564,M,117.2,3006*5E,37.23268581666667,137.02611816666666,679735.330414769,4122608.753533214
596,[2021-02-22 16:49:54.877] $GNGGA,74954.3,3713.961149,N,13701.56709,E,4,13,0.95,92.39,M,37.564,M,117.3,3006*50,37.23268581666667,137.02611816666666,679735.330414769,4122608.753533214
597,[2021-02-22 16:49:54.987] $GNGGA,74954.4,3713.96115,N,13701.56709,E,4,13,0.95,92.387,M,37.564,M,117.4,3006*5D,37.232685833333335,137.02611816666666,679735.330375185,4122608.7553824866
598,[2021-02-22 16:49:55.065] $GNGGA,74954.5,3713.96115,N,13701.56709,E,4,13,0.95,92.38799999999999,M,37.564,M,117.5,3006*55,37.232685833333335,137.02611816666666,679735.330375185,4122608.7553824866
599,[2021-02-22 16:49:55.174] $GNGGA,74954.6,3713.961149,N,13701.56709,E,4,13,0.95,92.38600000000001,M,37.564,M,117.6,3006*55,37.23268581666667,137.02611816666666,679735.330414769,4122608.753533214
600,[2021-02-22 16:49:55.268] $GNGGA,74954.7,3713.961149,N,13701.56709,E,4,13,0.95,92.385,M,37.564,M,117.7,3006*56,37.23268581666667,137.02611816666666,679735.330414769,4122608.753533214
601,[2021-02-22 16:49:55.377] $GNGGA,74954.8,3713.961149,N,13701.56709,E,4,13,0.95,92.39,M,37.564,M,117.8,3006*5A,37.23268581666667,137.02611816666666,679735.330414769,4122608.753533214
602,[2021-02-22 16:49:55.486] $GNGGA,74954.9,3713.961149,N,13701.56709,E,4,13,0.95,92.38600000000001,M,37.564,M,117.9,3006*5C,37.23268581666667,137.02611816666666,679735.330414769,4122608.753533214
603,[2021-02-22 16:49:55.565] $GNGGA,74955.0,3713.961149,N,13701.56709,E,4,13,0.95,92.387,M,37.564,M,118.0,3006*57,37.23268581666667,137.02611816666666,679735.330414769,4122608.753533214
604,[2021-02-22 16:49:55.674] $GNGGA,74955.1,3713.961148,N,13701.56709,E,4,13,0.95,92.39,M,37.564,M,118.1,3006*5F,37.2326858,137.02611816666666,679735.330454353,4122608.7516839416
605,[2021-02-22 16:49:55.768] $GNGGA,74955.2,3713.961148,N,13701.56709,E,4,13,0.95,92.389,M,37.564,M,118.2,3006*5D,37.2326858,137.02611816666666,679735.330454353,4122608.7516839416
606,[2021-02-22 16:49:55.877] $GNGGA,74955.3,3713.961147,N,13701.56709,E,4,13,0.95,92.39,M,37.564,M,118.3,3006*58,37.23268578333333,137.02611816666666,679735.330493937,4122608.7498346684
607,[2021-02-22 16:49:55.986] $GNGGA,74955.4,3713.961147,N,13701.56709,E,4,13,0.95,92.38799999999999,M,37.564,M,118.4,3006*5F,37.23268578333333,137.02611816666666,679735.330493937,4122608.7498346684
608,[2021-02-22 16:49:56.065] $GNGGA,74955.5,3713.961147,N,13701.56708,E,4,13,0.95,92.387,M,37.564,M,118.5,3006*53,37.23268578333333,137.02611800000003,679735.3157074066,4122608.74951816
609,[2021-02-22 16:49:56.174] $GNGGA,74955.6,3713.961147,N,13701.56708,E,4,13,0.95,92.387,M,37.564,M,118.6,3006*55,37.23268578333333,137.02611800000003,679735.3157074066,4122608.74951816
610,[2021-02-22 16:49:56.268] $GNGGA,74955.7,3713.961148,N,13701.56708,E,4,13,0.95,92.387,M,37.564,M,118.7,3006*5E,37.2326858,137.02611800000003,679735.3156678227,4122608.751367433
611,[2021-02-22 16:49:56.377] $GNGGA,74955.8,3713.961148,N,13701.56708,E,4,13,0.95,92.385,M,37.564,M,118.8,3006*55,37.2326858,137.02611800000003,679735.3156678227,4122608.751367433
612,[2021-02-22 16:49:56.486] $GNGGA,74955.9,3713.961149,N,13701.56708,E,4,13,0.95,92.384,M,37.564,M,118.9,3006*59,37.23268581666667,137.02611800000003,679735.3156282386,4122608.753216706
613,[2021-02-22 16:49:56.565] $GNGGA,74956.0,3713.961149,N,13701.56708,E,4,13,0.95,92.38799999999999,M,37.564,M,119.0,3006*5A,37.23268581666667,137.02611800000003,679735.3156282386,4122608.753216706
614,[2021-02-22 16:49:56.674] $GNGGA,74956.1,3713.961149,N,13701.56708,E,4,13,0.95,92.384,M,37.564,M,119.1,3006*5D,37.23268581666667,137.02611800000003,679735.3156282386,4122608.753216706
615,[2021-02-22 16:49:56.768] $GNGGA,74956.2,3713.961148,N,13701.56708,E,4,13,0.95,92.384,M,37.564,M,119.2,3006*5A,37.2326858,137.02611800000003,679735.3156678227,4122608.751367433
616,[2021-02-22 16:49:56.877] $GNGGA,74956.3,3713.961147,N,13701.56708,E,4,13,0.95,92.385,M,37.564,M,119.3,3006*53,37.23268578333333,137.02611800000003,679735.3157074066,4122608.74951816
617,[2021-02-22 16:49:56.986] $GNGGA,74956.4,3713.961147,N,13701.56708,E,4,13,0.95,92.385,M,37.564,M,119.4,3006*5A,37.23268578333333,137.02611800000003,679735.3157074066,4122608.74951816
618,[2021-02-22 16:49:57.064] $GNGGA,74956.5,3713.961147,N,13701.56708,E,4,13,0.95,92.38600000000001,M,37.564,M,119.5,3006*51,37.23268578333333,137.02611800000003,679735.3157074066,4122608.74951816
619,[2021-02-22 16:49:57.174] $GNGGA,74956.6,3713.961148,N,13701.56708,E,4,13,0.95,92.385,M,37.564,M,119.6,3006*5F,37.2326858,137.02611800000003,679735.3156678227,4122608.751367433
620,[2021-02-22 16:49:57.268] $GNGGA,74956.7,3713.961147,N,13701.56708,E,4,13,0.95,92.384,M,37.564,M,119.7,3006*54,37.23268578333333,137.02611800000003,679735.3157074066,4122608.74951816
621,[2021-02-22 16:49:57.377] $GNGGA,74956.8,3713.961147,N,13701.56708,E,4,13,0.95,92.387,M,37.564,M,119.8,3006*5B,37.23268578333333,137.02611800000003,679735.3157074066,4122608.74951816
622,[2021-02-22 16:49:57.486] $GNGGA,74956.9,3713.961147,N,13701.56708,E,4,13,0.95,92.389,M,37.564,M,119.9,3006*53,37.23268578333333,137.02611800000003,679735.3157074066,4122608.74951816
623,[2021-02-22 16:49:57.564] $GNGGA,74957.0,3713.961147,N,13701.56708,E,4,13,0.95,92.38600000000001,M,37.564,M,120.0,3006*5B,37.23268578333333,137.02611800000003,679735.3157074066,4122608.74951816
624,[2021-02-22 16:49:57.674] $GNGGA,74957.1,3713.961147,N,13701.56708,E,4,13,0.95,92.387,M,37.564,M,120.1,3006*51,37.23268578333333,137.02611800000003,679735.3157074066,4122608.74951816
625,[2021-02-22 16:49:57.768] $GNGGA,74957.2,3713.961147,N,13701.56709,E,4,13,0.95,92.39,M,37.564,M,120.2,3006*5B,37.23268578333333,137.02611816666666,679735.330493937,4122608.7498346684
626,[2021-02-22 16:49:57.893] $GNGGA,74957.3,3713.961147,N,13701.56709,E,4,13,0.95,92.391,M,37.564,M,120.3,3006*50,37.23268578333333,137.02611816666666,679735.330493937,4122608.7498346684
627,[2021-02-22 16:49:57.971] $GNGGA,74957.4,3713.961148,N,13701.56709,E,4,13,0.95,92.39,M,37.564,M,120.4,3006*53,37.2326858,137.02611816666666,679735.330454353,4122608.7516839416
628,[2021-02-22 16:49:58.064] $GNGGA,74957.5,3713.961147,N,13701.56709,E,4,13,0.95,92.389,M,37.564,M,120.5,3006*56,37.23268578333333,137.02611816666666,679735.330493937,4122608.7498346684
629,[2021-02-22 16:49:58.174] $GNGGA,74957.6,3713.961147,N,13701.56709,E,4,13,0.95,92.38799999999999,M,37.564,M,120.6,3006*5A,37.23268578333333,137.02611816666666,679735.330493937,4122608.7498346684
630,[2021-02-22 16:49:58.299] $GNGGA,74957.7,3713.961147,N,13701.56709,E,4,13,0.95,92.391,M,37.564,M,120.7,3006*5F,37.23268578333333,137.02611816666666,679735.330493937,4122608.7498346684
631,[2021-02-22 16:49:58.377] $GNGGA,74957.8,3713.961147,N,13701.56709,E,4,13,0.95,92.38799999999999,M,37.564,M,120.8,3006*53,37.23268578333333,137.02611816666666,679735.330493937,4122608.7498346684
632,[2021-02-22 16:49:58.471] $GNGGA,74957.9,3713.961147,N,13701.56709,E,4,13,0.95,92.39,M,37.564,M,120.9,3006*55,37.23268578333333,137.02611816666666,679735.330493937,4122608.7498346684
633,[2021-02-22 16:49:58.580] $GNGGA,74958.0,3713.961147,N,13701.56709,E,4,13,0.95,92.39,M,37.564,M,121.0,3006*55,37.23268578333333,137.02611816666666,679735.330493937,4122608.7498346684
634,[2021-02-22 16:49:58.689] $GNGGA,74958.1,3713.961147,N,13701.56709,E,4,13,0.95,92.387,M,37.564,M,121.1,3006*5E,37.23268578333333,137.02611816666666,679735.330493937,4122608.7498346684
635,[2021-02-22 16:49:58.767] $GNGGA,74958.2,3713.961147,N,13701.56709,E,4,13,0.95,92.384,M,37.564,M,121.2,3006*51,37.23268578333333,137.02611816666666,679735.330493937,4122608.7498346684
636,[2021-02-22 16:49:58.877] $GNGGA,74958.3,3713.961147,N,13701.56709,E,4,13,0.95,92.384,M,37.564,M,121.3,3006*52,37.23268578333333,137.02611816666666,679735.330493937,4122608.7498346684
637,[2021-02-22 16:49:58.971] $GNGGA,74958.4,3713.961148,N,13701.56709,E,4,13,0.95,92.383,M,37.564,M,121.4,3006*5B,37.2326858,137.02611816666666,679735.330454353,4122608.7516839416
638,[2021-02-22 16:49:59.096] $GNGGA,74958.5,3713.961148,N,13701.56709,E,4,13,0.95,92.382,M,37.564,M,121.5,3006*5A,37.2326858,137.02611816666666,679735.330454353,4122608.7516839416
639,[2021-02-22 16:49:59.174] $GNGGA,74958.6,3713.961148,N,13701.56709,E,4,13,0.95,92.382,M,37.564,M,121.6,3006*59,37.2326858,137.02611816666666,679735.330454353,4122608.7516839416
640,[2021-02-22 16:49:59.267] $GNGGA,74958.7,3713.961147,N,13701.56709,E,4,13,0.95,92.383,M,37.564,M,121.7,3006*57,37.23268578333333,137.02611816666666,679735.330493937,4122608.7498346684
641,[2021-02-22 16:49:59.377] $GNGGA,74958.8,3713.961147,N,13701.56709,E,4,13,0.95,92.384,M,37.564,M,121.8,3006*5B,37.23268578333333,137.02611816666666,679735.330493937,4122608.7498346684
642,[2021-02-22 16:49:59.471] $GNGGA,74958.9,3713.961146,N,13701.56709,E,4,13,0.95,92.383,M,37.564,M,121.9,3006*5B,37.23268576666666,137.02611816666666,679735.330533521,4122608.7479853947
643,[2021-02-22 16:49:59.596] $GNGGA,74959.0,3713.961147,N,13701.56709,E,4,13,0.95,92.383,M,37.564,M,122.0,3006*54,37.23268578333333,137.02611816666666,679735.330493937,4122608.7498346684
644,[2021-02-22 16:49:59.674] $GNGGA,74959.1,3713.961147,N,13701.56709,E,4,13,0.95,92.383,M,37.564,M,122.1,3006*5A,37.23268578333333,137.02611816666666,679735.330493937,4122608.7498346684
645,[2021-02-22 16:49:59.767] $GNGGA,74959.2,3713.961147,N,13701.56709,E,4,13,0.95,92.382,M,37.564,M,122.2,3006*5C,37.23268578333333,137.02611816666666,679735.330493937,4122608.7498346684
646,[2021-02-22 16:49:59.877] $GNGGA,74959.3,3713.961148,N,13701.56709,E,4,13,0.95,92.385,M,37.564,M,122.3,3006*5F,37.2326858,137.02611816666666,679735.330454353,4122608.7516839416
647,[2021-02-22 16:49:59.971] $GNGGA,74959.4,3713.961148,N,13701.56709,E,4,13,0.95,92.383,M,37.564,M,122.4,3006*51,37.2326858,137.02611816666666,679735.330454353,4122608.7516839416
648,[2021-02-22 16:50:00.095] $GNGGA,74959.5,3713.961147,N,13701.56709,E,4,13,0.95,92.384,M,37.564,M,122.5,3006*50,37.23268578333333,137.02611816666666,679735.330493937,4122608.7498346684
649,[2021-02-22 16:50:00.174] $GNGGA,74959.6,3713.961147,N,13701.56709,E,4,13,0.95,92.385,M,37.564,M,122.6,3006*5C,37.23268578333333,137.02611816666666,679735.330493937,4122608.7498346684
650,[2021-02-22 16:50:00.267] $GNGGA,74959.7,3713.961147,N,13701.56709,E,4,13,0.95,92.38799999999999,M,37.564,M,122.7,3006*54,37.23268578333333,137.02611816666666,679735.330493937,4122608.7498346684
651,[2021-02-22 16:50:00.377] $GNGGA,74959.8,3713.961147,N,13701.56709,E,4,13,0.95,92.38799999999999,M,37.564,M,122.8,3006*57,37.23268578333333,137.02611816666666,679735.330493937,4122608.7498346684
652,[2021-02-22 16:50:00.470] $GNGGA,74959.9,3713.961147,N,13701.56709,E,4,13,0.95,92.387,M,37.564,M,122.9,3006*52,37.23268578333333,137.02611816666666,679735.330493937,4122608.7498346684
653,[2021-02-22 16:50:00.595] $GNGGA,75000.0,3713.961148,N,13701.56709,E,4,13,0.95,92.39,M,37.564,M,123.0,3006*5D,37.2326858,137.02611816666666,679735.330454353,4122608.7516839416
654,[2021-02-22 16:50:00.674] $GNGGA,75000.1,3713.961147,N,13701.56709,E,4,13,0.95,92.389,M,37.564,M,123.1,3006*55,37.23268578333333,137.02611816666666,679735.330493937,4122608.7498346684
655,[2021-02-22 16:50:00.767] $GNGGA,75000.2,3713.961147,N,13701.56709,E,4,13,0.95,92.389,M,37.564,M,123.2,3006*57,37.23268578333333,137.02611816666666,679735.330493937,4122608.7498346684
656,[2021-02-22 16:50:00.877] $GNGGA,75000.3,3713.961147,N,13701.56709,E,4,13,0.95,92.39,M,37.564,M,123.3,3006*51,37.23268578333333,137.02611816666666,679735.330493937,4122608.7498346684
657,[2021-02-22 16:50:00.970] $GNGGA,75000.4,3713.961146,N,13701.56709,E,4,13,0.95,92.39,M,37.564,M,123.4,3006*5C,37.23268576666666,137.02611816666666,679735.330533521,4122608.7479853947
658,[2021-02-22 16:50:01.095] $GNGGA,75000.5,3713.961146,N,13701.56709,E,4,13,0.95,92.39200000000001,M,37.564,M,123.5,3006*50,37.23268576666666,137.02611816666666,679735.330533521,4122608.7479853947
659,[2021-02-22 16:50:01.174] $GNGGA,75000.6,3713.961146,N,13701.56709,E,4,13,0.95,92.391,M,37.564,M,123.6,3006*56,37.23268576666666,137.02611816666666,679735.330533521,4122608.7479853947
660,[2021-02-22 16:50:01.267] $GNGGA,75000.7,3713.961146,N,13701.56709,E,4,13,0.95,92.39299999999999,M,37.564,M,123.7,3006*50,37.23268576666666,137.02611816666666,679735.330533521,4122608.7479853947
661,[2021-02-22 16:50:01.377] $GNGGA,75000.8,3713.961146,N,13701.56709,E,4,13,0.95,92.38799999999999,M,37.564,M,123.8,3006*52,37.23268576666666,137.02611816666666,679735.330533521,4122608.7479853947
662,[2021-02-22 16:50:01.470] $GNGGA,75000.9,3713.961146,N,13701.56709,E,4,13,0.95,92.38799999999999,M,37.564,M,123.9,3006*56,37.23268576666666,137.02611816666666,679735.330533521,4122608.7479853947
663,[2021-02-22 16:50:01.595] $GNGGA,75001.0,3713.961146,N,13701.56709,E,4,13,0.95,92.38799999999999,M,37.564,M,124.0,3006*51,37.23268576666666,137.02611816666666,679735.330533521,4122608.7479853947
664,[2021-02-22 16:50:01.674] $GNGGA,75001.1,3713.961146,N,13701.56709,E,4,13,0.95,92.39,M,37.564,M,124.1,3006*54,37.23268576666666,137.02611816666666,679735.330533521,4122608.7479853947
665,[2021-02-22 16:50:01.767] $GNGGA,75001.2,3713.961146,N,13701.56708,E,4,13,0.95,92.387,M,37.564,M,124.2,3006*59,37.23268576666666,137.02611800000003,679735.3157469906,4122608.747668887
666,[2021-02-22 16:50:01.877] $GNGGA,75001.3,3713.961147,N,13701.56708,E,4,13,0.95,92.39299999999999,M,37.564,M,124.3,3006*55,37.23268578333333,137.02611800000003,679735.3157074066,4122608.74951816
667,[2021-02-22 16:50:01.986] $GNGGA,75001.4,3713.961146,N,13701.56708,E,4,13,0.95,92.391,M,37.564,M,124.4,3006*5F,37.23268576666666,137.02611800000003,679735.3157469906,4122608.747668887
668,[2021-02-22 16:50:02.064] $GNGGA,75001.5,3713.961146,N,13701.56708,E,4,13,0.95,92.391,M,37.564,M,124.5,3006*52,37.23268576666666,137.02611800000003,679735.3157469906,4122608.747668887
669,[2021-02-22 16:50:02.174] $GNGGA,75001.6,3713.961146,N,13701.56708,E,4,13,0.95,92.395,M,37.564,M,124.6,3006*5A,37.23268576666666,137.02611800000003,679735.3157469906,4122608.747668887
670,[2021-02-22 16:50:02.267] $GNGGA,75001.7,3713.961146,N,13701.56709,E,4,13,0.95,92.397,M,37.564,M,124.7,3006*59,37.23268576666666,137.02611816666666,679735.330533521,4122608.7479853947
671,[2021-02-22 16:50:02.392] $GNGGA,75001.8,3713.961147,N,13701.56708,E,4,13,0.95,92.39399999999999,M,37.564,M,124.8,3006*58,37.23268578333333,137.02611800000003,679735.3157074066,4122608.74951816
672,[2021-02-22 16:50:02.470] $GNGGA,75001.9,3713.961146,N,13701.56708,E,4,13,0.95,92.395,M,37.564,M,124.9,3006*55,37.23268576666666,137.02611800000003,679735.3157469906,4122608.747668887
673,[2021-02-22 16:50:02.580] $GNGGA,75002.0,3713.961146,N,13701.56708,E,4,13,0.95,92.398,M,37.564,M,125.0,3006*55,37.23268576666666,137.02611800000003,679735.3157469906,4122608.747668887
674,[2021-02-22 16:50:02.673] $GNGGA,75002.1,3713.961146,N,13701.56708,E,4,13,0.95,92.397,M,37.564,M,125.1,3006*50,37.23268576666666,137.02611800000003,679735.3157469906,4122608.747668887
675,[2021-02-22 16:50:02.798] $GNGGA,75002.2,3713.961145,N,13701.56708,E,4,13,0.95,92.4,M,37.564,M,125.2,3006*5D,37.23268575000001,137.02611800000003,679735.3157865745,4122608.745819616
676,[2021-02-22 16:50:02.877] $GNGGA,75002.3,3713.961144,N,13701.56708,E,4,13,0.95,92.399,M,37.564,M,125.3,3006*59,37.23268573333333,137.02611800000003,679735.3158261585,4122608.743970342
677,[2021-02-22 16:50:02.970] $GNGGA,75002.4,3713.961145,N,13701.56708,E,4,13,0.95,92.40100000000001,M,37.564,M,125.4,3006*5C,37.23268575000001,137.02611800000003,679735.3157865745,4122608.745819616
678,[2021-02-22 16:50:03.080] $GNGGA,75002.5,3713.961145,N,13701.56708,E,4,13,0.95,92.40299999999999,M,37.564,M,125.5,3006*57,37.23268575000001,137.02611800000003,679735.3157865745,4122608.745819616
679,[2021-02-22 16:50:03.189] $GNGGA,75002.6,3713.961145,N,13701.56708,E,4,13,0.95,92.40299999999999,M,37.564,M,125.6,3006*5F,37.23268575000001,137.02611800000003,679735.3157865745,4122608.745819616
680,[2021-02-22 16:50:03.267] $GNGGA,75002.7,3713.961145,N,13701.56709,E,4,13,0.95,92.404,M,37.564,M,125.7,3006*5A,37.23268575000001,137.02611816666666,679735.3305731049,4122608.746136124
681,[2021-02-22 16:50:03.377] $GNGGA,75002.8,3713.961146,N,13701.56709,E,4,13,0.95,92.404,M,37.564,M,125.8,3006*54,37.23268576666666,137.02611816666666,679735.330533521,4122608.7479853947
682,[2021-02-22 16:50:03.470] $GNGGA,75002.9,3713.961145,N,13701.56709,E,4,13,0.95,92.404,M,37.564,M,125.9,3006*5F,37.23268575000001,137.02611816666666,679735.3305731049,4122608.746136124
683,[2021-02-22 16:50:03.580] $GNGGA,75003.0,3713.961145,N,13701.56709,E,4,13,0.95,92.404,M,37.564,M,126.0,3006*5B,37.23268575000001,137.02611816666666,679735.3305731049,4122608.746136124
684,[2021-02-22 16:50:03.689] $GNGGA,75003.1,3713.961146,N,13701.56709,E,4,13,0.95,92.406,M,37.564,M,126.1,3006*53,37.23268576666666,137.02611816666666,679735.330533521,4122608.7479853947
685,[2021-02-22 16:50:03.767] $GNGGA,75003.2,3713.961147,N,13701.56709,E,4,13,0.95,92.405,M,37.564,M,126.2,3006*57,37.23268578333333,137.02611816666666,679735.330493937,4122608.7498346684
686,[2021-02-22 16:50:03.876] $GNGGA,75003.3,3713.961146,N,13701.56709,E,4,13,0.95,92.405,M,37.564,M,126.3,3006*58,37.23268576666666,137.02611816666666,679735.330533521,4122608.7479853947
687,[2021-02-22 16:50:03.970] $GNGGA,75003.4,3713.961146,N,13701.56709,E,4,13,0.95,92.40299999999999,M,37.564,M,126.4,3006*52,37.23268576666666,137.02611816666666,679735.330533521,4122608.7479853947
688,[2021-02-22 16:50:04.080] $GNGGA,75003.5,3713.961146,N,13701.56709,E,4,13,0.95,92.402,M,37.564,M,126.5,3006*56,37.23268576666666,137.02611816666666,679735.330533521,4122608.7479853947
689,[2021-02-22 16:50:04.189] $GNGGA,75003.6,3713.961146,N,13701.56709,E,4,13,0.95,92.405,M,37.564,M,126.6,3006*5E,37.23268576666666,137.02611816666666,679735.330533521,4122608.7479853947
690,[2021-02-22 16:50:04.267] $GNGGA,75003.7,3713.961147,N,13701.56709,E,4,13,0.95,92.40299999999999,M,37.564,M,126.7,3006*53,37.23268578333333,137.02611816666666,679735.330493937,4122608.7498346684
691,[2021-02-22 16:50:04.376] $GNGGA,75003.8,3713.961147,N,13701.56709,E,4,13,0.95,92.406,M,37.564,M,126.8,3006*52,37.23268578333333,137.02611816666666,679735.330493937,4122608.7498346684
692,[2021-02-22 16:50:04.470] $GNGGA,75003.9,3713.961147,N,13701.56709,E,4,13,0.95,92.405,M,37.564,M,126.9,3006*50,37.23268578333333,137.02611816666666,679735.330493937,4122608.7498346684
693,[2021-02-22 16:50:04.580] $GNGGA,75004.0,3713.961147,N,13701.56709,E,4,13,0.95,92.40799999999999,M,37.564,M,127.0,3006*5B,37.23268578333333,137.02611816666666,679735.330493937,4122608.7498346684
694,[2021-02-22 16:50:04.689] $GNGGA,75004.1,3713.961147,N,13701.56709,E,4,13,0.95,92.40899999999999,M,37.564,M,127.1,3006*57,37.23268578333333,137.02611816666666,679735.330493937,4122608.7498346684
695,[2021-02-22 16:50:04.767] $GNGGA,75004.2,3713.961146,N,13701.56708,E,4,13,0.95,92.411,M,37.564,M,127.2,3006*5D,37.23268576666666,137.02611800000003,679735.3157469906,4122608.747668887
696,[2021-02-22 16:50:04.876] $GNGGA,75004.3,3713.961145,N,13701.56708,E,4,13,0.95,92.414,M,37.564,M,127.3,3006*54,37.23268575000001,137.02611800000003,679735.3157865745,4122608.745819616
697,[2021-02-22 16:50:04.970] $GNGGA,75004.4,3713.961144,N,13701.56709,E,4,13,0.95,92.412,M,37.564,M,127.4,3006*59,37.23268573333333,137.02611816666666,679735.3306126889,4122608.7442868496
698,[2021-02-22 16:50:05.080] $GNGGA,75004.5,3713.961144,N,13701.56709,E,4,13,0.95,92.413,M,37.564,M,127.5,3006*5F,37.23268573333333,137.02611816666666,679735.3306126889,4122608.7442868496
699,[2021-02-22 16:50:05.189] $GNGGA,75004.6,3713.961144,N,13701.56708,E,4,13,0.95,92.412,M,37.564,M,127.6,3006*5C,37.23268573333333,137.02611800000003,679735.3158261585,4122608.743970342
700,[2021-02-22 16:50:05.267] $GNGGA,75004.7,3713.961144,N,13701.56708,E,4,13,0.95,92.412,M,37.564,M,127.7,3006*54,37.23268573333333,137.02611800000003,679735.3158261585,4122608.743970342
701,[2021-02-22 16:50:05.376] $GNGGA,75004.8,3713.961143,N,13701.56708,E,4,13,0.95,92.414,M,37.564,M,127.8,3006*5E,37.23268571666667,137.02611800000003,679735.3158657425,4122608.742121071
702,[2021-02-22 16:50:05.470] $GNGGA,75004.9,3713.961143,N,13701.56708,E,4,13,0.95,92.414,M,37.564,M,127.9,3006*5C,37.23268571666667,137.02611800000003,679735.3158657425,4122608.742121071
703,[2021-02-22 16:50:05.580] $GNGGA,75005.0,3713.961142,N,13701.56708,E,4,13,0.95,92.416,M,37.564,M,128.0,3006*56,37.232685700000005,137.02611800000003,679735.3159053264,4122608.740271798
704,[2021-02-22 16:50:05.689] $GNGGA,75005.1,3713.961142,N,13701.56708,E,4,13,0.95,92.414,M,37.564,M,128.1,3006*5F,37.232685700000005,137.02611800000003,679735.3159053264,4122608.740271798
705,[2021-02-22 16:50:05.767] $GNGGA,75005.2,3713.961143,N,13701.56709,E,4,13,0.95,92.412,M,37.564,M,128.2,3006*54,37.23268571666667,137.02611816666666,679735.3306522728,4122608.742437578
706,[2021-02-22 16:50:05.876] $GNGGA,75005.3,3713.961144,N,13701.56709,E,4,13,0.95,92.41,M,37.564,M,128.3,3006*55,37.23268573333333,137.02611816666666,679735.3306126889,4122608.7442868496
707,[2021-02-22 16:50:05.970] $GNGGA,75005.4,3713.961144,N,13701.56709,E,4,13,0.95,92.413,M,37.564,M,128.4,3006*5E,37.23268573333333,137.02611816666666,679735.3306126889,4122608.7442868496
708,[2021-02-22 16:50:06.079] $GNGGA,75005.5,3713.961144,N,13701.56709,E,4,13,0.95,92.413,M,37.564,M,128.5,3006*51,37.23268573333333,137.02611816666666,679735.3306126889,4122608.7442868496
709,[2021-02-22 16:50:06.189] $GNGGA,75005.6,3713.961144,N,13701.56709,E,4,13,0.95,92.414,M,37.564,M,128.6,3006*50,37.23268573333333,137.02611816666666,679735.3306126889,4122608.7442868496
710,[2021-02-22 16:50:06.267] $GNGGA,75005.7,3713.961144,N,13701.56708,E,4,13,0.95,92.414,M,37.564,M,128.7,3006*50,37.23268573333333,137.02611800000003,679735.3158261585,4122608.743970342
711,[2021-02-22 16:50:06.376] $GNGGA,75005.8,3713.961144,N,13701.56709,E,4,13,0.95,92.413,M,37.564,M,128.8,3006*5F,37.23268573333333,137.02611816666666,679735.3306126889,4122608.7442868496
712,[2021-02-22 16:50:06.470] $GNGGA,75005.9,3713.961145,N,13701.56709,E,4,13,0.95,92.413,M,37.564,M,128.9,3006*52,37.23268575000001,137.02611816666666,679735.3305731049,4122608.746136124
713,[2021-02-22 16:50:06.595] $GNGGA,75006.0,3713.961145,N,13701.56709,E,4,13,0.95,92.413,M,37.564,M,129.0,3006*5E,37.23268575000001,137.02611816666666,679735.3305731049,4122608.746136124
714,[2021-02-22 16:50:06.673] $GNGGA,75006.1,3713.961145,N,13701.56709,E,4,13,0.95,92.413,M,37.564,M,129.1,3006*5E,37.23268575000001,137.02611816666666,679735.3305731049,4122608.746136124
715,[2021-02-22 16:50:06.767] $GNGGA,75006.2,3713.961145,N,13701.56709,E,4,13,0.95,92.414,M,37.564,M,129.2,3006*57,37.23268575000001,137.02611816666666,679735.3305731049,4122608.746136124
716,[2021-02-22 16:50:06.876] $GNGGA,75006.3,3713.961146,N,13701.56709,E,4,13,0.95,92.413,M,37.564,M,129.3,3006*57,37.23268576666666,137.02611816666666,679735.330533521,4122608.7479853947
717,[2021-02-22 16:50:06.986] $GNGGA,75006.4,3713.961145,N,13701.56709,E,4,13,0.95,92.416,M,37.564,M,129.4,3006*5B,37.23268575000001,137.02611816666666,679735.3305731049,4122608.746136124
718,[2021-02-22 16:50:07.064] $GNGGA,75006.5,3713.961146,N,13701.56709,E,4,13,0.95,92.412,M,37.564,M,129.5,3006*54,37.23268576666666,137.02611816666666,679735.330533521,4122608.7479853947
719,[2021-02-22 16:50:07.173] $GNGGA,75006.6,3713.961145,N,13701.56709,E,4,13,0.95,92.411,M,37.564,M,129.6,3006*5F,37.23268575000001,137.02611816666666,679735.3305731049,4122608.746136124
720,[2021-02-22 16:50:07.267] $GNGGA,75006.7,3713.961145,N,13701.56709,E,4,13,0.95,92.412,M,37.564,M,129.7,3006*5E,37.23268575000001,137.02611816666666,679735.3305731049,4122608.746136124
721,[2021-02-22 16:50:07.392] $GNGGA,75006.8,3713.961145,N,13701.56709,E,4,13,0.95,92.40899999999999,M,37.564,M,129.8,3006*52,37.23268575000001,137.02611816666666,679735.3305731049,4122608.746136124
722,[2021-02-22 16:50:07.470] $GNGGA,75006.9,3713.961145,N,13701.56709,E,4,13,0.95,92.40899999999999,M,37.564,M,129.9,3006*5E,37.23268575000001,137.02611816666666,679735.3305731049,4122608.746136124
723,[2021-02-22 16:50:07.579] $GNGGA,75007.0,3713.961145,N,13701.56709,E,4,13,0.95,92.40700000000001,M,37.564,M,130.0,3006*58,37.23268575000001,137.02611816666666,679735.3305731049,4122608.746136124
724,[2021-02-22 16:50:07.673] $GNGGA,75007.1,3713.961145,N,13701.56709,E,4,13,0.95,92.41,M,37.564,M,130.1,3006*59,37.23268575000001,137.02611816666666,679735.3305731049,4122608.746136124
725,[2021-02-22 16:50:07.798] $GNGGA,75007.2,3713.961144,N,13701.56709,E,4,13,0.95,92.40899999999999,M,37.564,M,130.2,3006*5F,37.23268573333333,137.02611816666666,679735.3306126889,4122608.7442868496
726,[2021-02-22 16:50:07.876] $GNGGA,75007.3,3713.961144,N,13701.56709,E,4,13,0.95,92.40899999999999,M,37.564,M,130.3,3006*5B,37.23268573333333,137.02611816666666,679735.3306126889,4122608.7442868496
727,[2021-02-22 16:50:07.970] $GNGGA,75007.4,3713.961144,N,13701.56709,E,4,13,0.95,92.411,M,37.564,M,130.4,3006*5F,37.23268573333333,137.02611816666666,679735.3306126889,4122608.7442868496
728,[2021-02-22 16:50:08.079] $GNGGA,75007.5,3713.961144,N,13701.56709,E,4,13,0.95,92.40700000000001,M,37.564,M,130.5,3006*55,37.23268573333333,137.02611816666666,679735.3306126889,4122608.7442868496
729,[2021-02-22 16:50:08.173] $GNGGA,75007.6,3713.961144,N,13701.56708,E,4,13,0.95,92.412,M,37.564,M,130.6,3006*54,37.23268573333333,137.02611800000003,679735.3158261585,4122608.743970342
730,[2021-02-22 16:50:08.298] $GNGGA,75007.7,3713.961144,N,13701.56708,E,4,13,0.95,92.41,M,37.564,M,130.7,3006*5F,37.23268573333333,137.02611800000003,679735.3158261585,4122608.743970342
731,[2021-02-22 16:50:08.376] $GNGGA,75007.8,3713.961144,N,13701.56708,E,4,13,0.95,92.412,M,37.564,M,130.8,3006*5A,37.23268573333333,137.02611800000003,679735.3158261585,4122608.743970342
732,[2021-02-22 16:50:08.470] $GNGGA,75007.9,3713.961145,N,13701.56708,E,4,13,0.95,92.413,M,37.564,M,130.9,3006*5F,37.23268575000001,137.02611800000003,679735.3157865745,4122608.745819616
733,[2021-02-22 16:50:08.579] $GNGGA,75008.0,3713.961146,N,13701.56708,E,4,13,0.95,92.413,M,37.564,M,131.0,3006*56,37.23268576666666,137.02611800000003,679735.3157469906,4122608.747668887
734,[2021-02-22 16:50:08.673] $GNGGA,75008.1,3713.961147,N,13701.56708,E,4,13,0.95,92.411,M,37.564,M,131.1,3006*56,37.23268578333333,137.02611800000003,679735.3157074066,4122608.74951816
735,[2021-02-22 16:50:08.798] $GNGGA,75008.2,3713.961145,N,13701.56708,E,4,13,0.95,92.413,M,37.564,M,131.2,3006*5D,37.23268575000001,137.02611800000003,679735.3157865745,4122608.745819616
736,[2021-02-22 16:50:08.876] $GNGGA,75008.3,3713.961144,N,13701.56708,E,4,13,0.95,92.412,M,37.564,M,131.3,3006*5D,37.23268573333333,137.02611800000003,679735.3158261585,4122608.743970342
737,[2021-02-22 16:50:08.970] $GNGGA,75008.4,3713.961143,N,13701.56709,E,4,13,0.95,92.41,M,37.564,M,131.4,3006*5D,37.23268571666667,137.02611816666666,679735.3306522728,4122608.742437578
738,[2021-02-22 16:50:09.079] $GNGGA,75008.5,3713.961143,N,13701.56709,E,4,13,0.95,92.411,M,37.564,M,131.5,3006*59,37.23268571666667,137.02611816666666,679735.3306522728,4122608.742437578
739,[2021-02-22 16:50:09.173] $GNGGA,75008.6,3713.961145,N,13701.56709,E,4,13,0.95,92.40799999999999,M,37.564,M,131.6,3006*5D,37.23268575000001,137.02611816666666,679735.3305731049,4122608.746136124
740,[2021-02-22 16:50:09.298] $GNGGA,75008.7,3713.961144,N,13701.56708,E,4,13,0.95,92.412,M,37.564,M,131.7,3006*57,37.23268573333333,137.02611800000003,679735.3158261585,4122608.743970342
741,[2021-02-22 16:50:09.376] $GNGGA,75008.8,3713.961144,N,13701.56708,E,4,13,0.95,92.412,M,37.564,M,131.8,3006*55,37.23268573333333,137.02611800000003,679735.3158261585,4122608.743970342
742,[2021-02-22 16:50:09.470] $GNGGA,75008.9,3713.961144,N,13701.56709,E,4,13,0.95,92.412,M,37.564,M,131.9,3006*59,37.23268573333333,137.02611816666666,679735.3306126889,4122608.7442868496
743,[2021-02-22 16:50:09.579] $GNGGA,75009.0,3713.961143,N,13701.56709,E,4,13,0.95,92.412,M,37.564,M,132.0,3006*5E,37.23268571666667,137.02611816666666,679735.3306522728,4122608.742437578
744,[2021-02-22 16:50:09.673] $GNGGA,75009.1,3713.961143,N,13701.56709,E,4,13,0.95,92.412,M,37.564,M,132.1,3006*50,37.23268571666667,137.02611816666666,679735.3306522728,4122608.742437578
745,[2021-02-22 16:50:09.798] $GNGGA,75009.2,3713.961143,N,13701.56709,E,4,13,0.95,92.41,M,37.564,M,132.2,3006*55,37.23268571666667,137.02611816666666,679735.3306522728,4122608.742437578
746,[2021-02-22 16:50:09.876] $GNGGA,75009.3,3713.961144,N,13701.56709,E,4,13,0.95,92.40899999999999,M,37.564,M,132.3,3006*59,37.23268573333333,137.02611816666666,679735.3306126889,4122608.7442868496
747,[2021-02-22 16:50:09.970] $GNGGA,75009.4,3713.961145,N,13701.56709,E,4,13,0.95,92.411,M,37.564,M,132.4,3006*5A,37.23268575000001,137.02611816666666,679735.3305731049,4122608.746136124
748,[2021-02-22 16:50:10.079] $GNGGA,75009.5,3713.961145,N,13701.56709,E,4,13,0.95,92.414,M,37.564,M,132.5,3006*5E,37.23268575000001,137.02611816666666,679735.3305731049,4122608.746136124
749,[2021-02-22 16:50:10.173] $GNGGA,75009.6,3713.961145,N,13701.56709,E,4,13,0.95,92.411,M,37.564,M,132.6,3006*5C,37.23268575000001,137.02611816666666,679735.3305731049,4122608.746136124
750,[2021-02-22 16:50:10.298] $GNGGA,75009.7,3713.961145,N,13701.56709,E,4,13,0.95,92.411,M,37.564,M,132.7,3006*58,37.23268575000001,137.02611816666666,679735.3305731049,4122608.746136124
751,[2021-02-22 16:50:10.376] $GNGGA,75009.8,3713.961145,N,13701.56709,E,4,13,0.95,92.412,M,37.564,M,132.8,3006*58,37.23268575000001,137.02611816666666,679735.3305731049,4122608.746136124
