,Format,Time,Latitude,LatType,Longitude,LonType,Status,Satellite,LevelAccuracy,Altitude(sea),M(sea),Altitude(geoid),M(geoid),DGPS use,checksum,Lat,Lon,UTM_X,UTM_Y
437,[2021-02-22 16:49:38.974] $GNGGA,74938.4,3713.9610779629998,N,13701.567394903,E,4,5,1.75,93.609,M,37.564,M,101.4,3006*5D,37.23268463271666,137.02612324838333,679735.7840725273,4122608.631816861
438,[2021-02-22 16:49:39.083] $GNGGA,74938.5,3713.961024697,N,13701.56743516,E,4,5,1.75,93.785,M,37.564,M,101.5,3006*5B,37.23268374495,137.02612391933332,679735.8457071593,4122608.53458767
439,[2021-02-22 16:49:39.177] $GNGGA,74938.6,3713.9610236840003,N,13701.567436348001,E,4,5,1.75,93.789,M,37.564,M,101.6,3006*59,37.232683728066675,137.02612393913333,679735.8475039001,4122608.532751959
440,[2021-02-22 16:49:39.271] $GNGGA,74938.7,3713.9610227259996,N,13701.567437688,E,4,5,1.75,93.79,M,37.564,M,101.7,3006*51,37.23268371209999,137.02612396146665,679735.8495232159,4122608.5310227643
441,[2021-02-22 16:49:39.380] $GNGGA,74938.8,3713.961020635,N,13701.567440002,E,4,9,1.12,93.79799999999999,M,37.564,M,101.8,3006*51,37.23268367725,137.02612400003335,679735.8530275924,4122608.527229178
442,[2021-02-22 16:49:39.474] $GNGGA,74938.9,3713.960983433,N,13701.567374005,E,4,11,0.99,93.439,M,37.564,M,101.9,3006*50,37.23268305721667,137.02612290008335,679735.7569135143,4122608.4563436685
443,[2021-02-22 16:49:39.599] $GNGGA,74939.0,3713.96097274,N,13701.567286845,E,4,13,0.95,92.992,M,37.564,M,102.0,3006*58,37.232682879,137.02612144741667,679735.6284573601,4122608.4338107053
444,[2021-02-22 16:49:39.677] $GNGGA,74939.1,3713.960979277,N,13701.56727943,E,4,13,0.95,92.964,M,37.564,M,102.1,3006*55,37.23268298795001,137.02612132383334,679735.6172343851,4122608.445664711
445,[2021-02-22 16:49:39.771] $GNGGA,74939.2,3713.960985694,N,13701.567273483999,E,4,13,0.95,92.945,M,37.564,M,102.2,3006*59,37.2326830949,137.02612122473332,679735.6081882991,4122608.4573432966
446,[2021-02-22 16:49:39.880] $GNGGA,74939.3,3713.960991728,N,13701.567268108998,E,4,13,0.95,92.929,M,37.564,M,102.3,3006*5A,37.23268319546666,137.02612113515,679735.6000016881,4122608.4683316858
447,[2021-02-22 16:49:39.974] $GNGGA,74939.4,3713.960996914,N,13701.567262291,E,4,13,0.95,92.90799999999999,M,37.564,M,102.4,3006*57,37.23268328190001,137.02612103818336,679735.5911936027,4122608.47773787
448,[2021-02-22 16:49:40.099] $GNGGA,74939.5,3713.961000336,N,13701.567258625,E,4,13,0.95,92.896,M,37.564,M,102.5,3006*5E,37.23268333893333,137.0261209770833,679735.5856373999,4122608.4839500487
449,[2021-02-22 16:49:40.177] $GNGGA,74939.6,3713.961003587,N,13701.567254596,E,4,13,0.95,92.881,M,37.564,M,102.6,3006*50,37.232683393116666,137.02612090993333,679735.5795512196,4122608.4898345144
450,[2021-02-22 16:49:40.271] $GNGGA,74939.7,3713.96100738,N,13701.567250704,E,4,13,0.95,92.87,M,37.564,M,102.7,3006*56,37.23268345633333,137.02612084506666,679735.573646158,4122608.4967256193
451,[2021-02-22 16:49:40.380] $GNGGA,74939.8,3713.961011548,N,13701.567245196002,E,4,13,0.95,92.855,M,37.564,M,102.8,3006*5D,37.23268352579999,137.02612075326672,679735.5653367542,4122608.5042590555
452,[2021-02-22 16:49:40.489] $GNGGA,74939.9,3713.961014164,N,13701.567239547,E,4,13,0.95,92.84200000000001,M,37.564,M,102.9,3006*57,37.232683569399995,137.02612065911669,679735.556880286,4122608.5089179585
453,[2021-02-22 16:49:40.567] $GNGGA,74940.0,3713.96101638,N,13701.567235841001,E,4,13,0.95,92.831,M,37.564,M,103.0,3006*51,37.23268360633333,137.02612059735,679735.5513126776,4122608.5128986486
454,[2021-02-22 16:49:40.677] $GNGGA,74940.1,3713.961018333,N,13701.567231925,E,4,13,0.95,92.822,M,37.564,M,103.1,3006*52,37.23268363888333,137.02612053208333,679735.545444964,4122608.516386333
455,[2021-02-22 16:49:40.771] $GNGGA,74940.2,3713.961020864,N,13701.56722948,E,4,13,0.95,92.818,M,37.564,M,103.2,3006*52,37.23268368106667,137.02612049133333,679735.5417294691,4122608.520989457
456,[2021-02-22 16:49:40.895] $GNGGA,74940.3,3713.961024132,N,13701.567225285,E,4,13,0.95,92.807,M,37.564,M,103.3,3006*5D,37.232683735533335,137.0261204214167,679735.5353971608,4122608.5269001056
457,[2021-02-22 16:49:40.974] $GNGGA,74940.4,3713.961026805,N,13701.567223339,E,4,13,0.95,92.791,M,37.564,M,103.4,3006*52,37.232683780083335,137.02612038898334,679735.5324138907,4122608.531781619
458,[2021-02-22 16:49:41.067] $GNGGA,74940.5,3713.961028515,N,13701.567219561,E,4,13,0.95,92.78200000000001,M,37.564,M,103.5,3006*50,37.23268380858333,137.02612032601667,679735.5267598501,4122608.534824297
459,[2021-02-22 16:49:41.177] $GNGGA,74940.6,3713.961030465,N,13701.567216644,E,4,13,0.95,92.77600000000001,M,37.564,M,103.6,3006*5F,37.23268384108333,137.0261202774,679735.5223694278,4122608.5383380535
460,[2021-02-22 16:49:41.286] $GNGGA,74940.7,3713.96114608,N,13701.56709412,E,4,13,0.95,92.382,M,37.564,M,103.7,3006*52,37.23268576800001,137.02611823533334,679735.3366224087,4122608.74826374
461,[2021-02-22 16:49:41.364] $GNGGA,74940.8,3713.961144945,N,13701.567093095,E,4,13,0.95,92.383,M,37.564,M,103.8,3006*59,37.23268574908334,137.02611821825,679735.3351517136,4122608.7461323743
462,[2021-02-22 16:49:41.474] $GNGGA,74940.9,3713.9611456209996,N,13701.567090773,E,4,13,0.95,92.384,M,37.564,M,103.9,3006*5E,37.232685760349995,137.02611817955,679735.3316915223,4122608.7473089877
463,[2021-02-22 16:49:41.567] $GNGGA,74941.0,3713.961145545,N,13701.567090438999,E,4,13,0.95,92.385,M,37.564,M,104.0,3006*55,37.23268575908334,137.02611817398332,679735.3312006611,4122608.7471578727
464,[2021-02-22 16:49:41.692] $GNGGA,74941.1,3713.961145829,N,13701.567089249,E,4,13,0.95,92.387,M,37.564,M,104.1,3006*59,37.23268576381666,137.02611815415,679735.3294298225,4122608.7476453995
465,[2021-02-22 16:49:41.770] $GNGGA,74941.2,3713.961145784,N,13701.56708896,E,4,13,0.95,92.389,M,37.564,M,104.2,3006*5E,37.23268576306668,137.02611814933337,679735.329004276,4122608.7475530365
466,[2021-02-22 16:49:41.864] $GNGGA,74941.3,3713.9611455759996,N,13701.56708701,E,4,13,0.95,92.39,M,37.564,M,104.3,3006*58,37.232685759599995,137.02611811683332,679735.3261291308,4122608.747106669
467,[2021-02-22 16:49:41.974] $GNGGA,74941.4,3713.961146011,N,13701.567087011,E,4,13,0.95,92.387,M,37.564,M,104.4,3006*58,37.23268576685,137.02611811685,679735.3261133926,4122608.747911132
468,[2021-02-22 16:49:42.067] $GNGGA,74941.5,3713.961146247,N,13701.56708721,E,4,12,1.06,92.391,M,37.564,M,104.5,3006*57,37.232685770783334,137.02611812016667,679735.326398302,4122608.748353861
469,[2021-02-22 16:49:42.192] $GNGGA,74941.6,3713.961146147,N,13701.567086528,E,4,12,1.06,92.39,M,37.564,M,104.6,3006*58,37.232685769116664,137.02611810880003,679735.3253938211,4122608.7481473475
470,[2021-02-22 16:49:42.269] $GNGGA,74941.7,3713.9611462559997,N,13701.567086423998,E,4,12,1.06,92.39200000000001,M,37.564,M,104.7,3006*54,37.23268577093333,137.02611810706662,679735.3252357204,4122608.748345625
471,[2021-02-22 16:49:42.378] $GNGGA,74941.8,3713.9611477340004,N,13701.567086975,E,4,12,1.06,92.39399999999999,M,37.564,M,104.8,3006*5B,37.232685795566674,137.02611811624996,679735.3259919529,4122608.751096292
472,[2021-02-22 16:49:42.472] $GNGGA,74941.9,3713.9611482859996,N,13701.567087186,E,4,12,1.06,92.39,M,37.564,M,104.9,3006*59,37.23268580476666,137.0261181197667,679735.326282106,4122608.7521237666
473,[2021-02-22 16:49:42.581] $GNGGA,74942.0,3713.96114686,N,13701.567087696001,E,4,12,1.06,92.389,M,37.564,M,105.0,3006*59,37.232685781,137.02611812826666,679735.3270926608,4122608.7495028465
474,[2021-02-22 16:49:42.690] $GNGGA,74942.1,3713.961146779,N,13701.567087668,E,4,12,1.06,92.39,M,37.564,M,105.1,3006*57,37.23268577965,137.02611812779998,679735.327054464,4122608.7493521688
475,[2021-02-22 16:49:42.769] $GNGGA,74942.2,3713.96114777,N,13701.56708763,E,4,12,1.06,92.39,M,37.564,M,105.2,3006*52,37.23268579616667,137.02611812716665,679735.3269590493,4122608.7511835955
476,[2021-02-22 16:49:42.878] $GNGGA,74942.3,3713.961147635,N,13701.567087364,E,4,12,1.06,92.38799999999999,M,37.564,M,105.3,3006*5F,37.232685793916666,137.02611812273335,679735.3265710734,4122608.7509255256
477,[2021-02-22 16:49:42.972] $GNGGA,74942.4,3713.961147847,N,13701.567087921001,E,4,12,1.06,92.38799999999999,M,37.564,M,105.4,3006*5F,37.23268579745,137.02611813201668,679735.3273862909,4122608.7513352004
478,[2021-02-22 16:49:43.081] $GNGGA,74942.5,3713.961146644,N,13701.567086798,E,4,12,1.06,92.38799999999999,M,37.564,M,105.5,3006*5E,37.2326857774,137.02611811330004,679735.3257733866,4122608.749074982
479,[2021-02-22 16:49:43.190] $GNGGA,74942.6,3713.9611463459996,N,13701.567086401,E,4,12,1.06,92.38799999999999,M,37.564,M,105.6,3006*5A,37.232685772433335,137.02611810668336,679735.3251981544,4122608.7485113326
480,[2021-02-22 16:49:43.269] $GNGGA,74942.7,3713.961145692,N,13701.567085848,E,4,12,1.06,92.391,M,37.564,M,105.7,3006*5F,37.23268576153333,137.02611809746668,679735.3244063475,4122608.747284406
481,[2021-02-22 16:49:43.378] $GNGGA,74942.8,3713.9611445859996,N,13701.567085513001,E,4,12,1.06,92.39,M,37.564,M,105.8,3006*5A,37.2326857431,137.02611809188332,679735.3239547748,4122608.745228506
482,[2021-02-22 16:49:43.472] $GNGGA,74942.9,3713.961144932,N,13701.567084753999,E,4,12,1.06,92.39,M,37.564,M,105.9,3006*59,37.232685748866665,137.0261180792333,679735.3228187803,4122608.745844331
483,[2021-02-22 16:49:43.581] $GNGGA,74943.0,3713.961144818,N,13701.567085516,E,4,12,1.06,92.389,M,37.564,M,106.0,3006*5F,37.232685746966666,137.02611809193334,679735.3239500294,4122608.745657634
484,[2021-02-22 16:49:43.690] $GNGGA,74943.1,3713.961144856,N,13701.567085506002,E,4,13,0.95,92.39,M,37.564,M,106.1,3006*56,37.232685747599994,137.0261180917667,679735.3239337414,4122608.7457275884
485,[2021-02-22 16:49:43.769] $GNGGA,74943.2,3713.961145179,N,13701.567085761,E,4,13,0.95,92.387,M,37.564,M,106.2,3006*56,37.232685752983336,137.02611809601666,679735.3242980088,4122608.746332975
486,[2021-02-22 16:49:43.878] $GNGGA,74943.3,3713.961144995,N,13701.567086232,E,4,13,0.95,92.38799999999999,M,37.564,M,106.3,3006*52,37.23268574991666,137.02611810386668,679735.3250017393,4122608.746007616
487,[2021-02-22 16:49:43.972] $GNGGA,74943.4,3713.961145302,N,13701.567085501001,E,4,13,0.95,92.389,M,37.564,M,106.4,3006*52,37.23268575503334,137.02611809168334,679735.3239086918,4122608.7465522075
488,[2021-02-22 16:49:44.081] $GNGGA,74943.5,3713.961145538,N,13701.567086286,E,4,13,0.95,92.38600000000001,M,37.564,M,106.5,3006*59,37.23268575896667,137.0261181047667,679735.3250600945,4122608.7470134804
489,[2021-02-22 16:49:44.190] $GNGGA,74943.6,3713.9611451909996,N,13701.567085722,E,4,13,0.95,92.39,M,37.564,M,106.6,3006*51,37.23268575318332,137.02611809536666,679735.324239866,4122608.7463539303
490,[2021-02-22 16:49:44.268] $GNGGA,74943.7,3713.961145179,N,13701.567086736,E,4,13,0.95,92.391,M,37.564,M,106.7,3006*50,37.232685752983336,137.02611811226666,679735.3257396946,4122608.7463638345
491,[2021-02-22 16:49:44.378] $GNGGA,74943.8,3713.961145671,N,13701.567086152,E,4,13,0.95,92.389,M,37.564,M,106.8,3006*52,37.23268576118333,137.02611810253333,679735.3248566878,4122608.7472551926
492,[2021-02-22 16:49:44.472] $GNGGA,74943.9,3713.961146174,N,13701.567086298,E,4,13,0.95,92.38799999999999,M,37.564,M,106.9,3006*57,37.23268576956667,137.02611810496668,679735.3250526622,4122608.7481899983
493,[2021-02-22 16:49:44.597] $GNGGA,74944.0,3713.9611463409997,N,13701.567086635,E,4,13,0.95,92.38799999999999,M,37.564,M,107.0,3006*56,37.232685772349996,137.0261181105833,679735.3255443524,4122608.748509492
494,[2021-02-22 16:49:44.675] $GNGGA,74944.1,3713.961146119,N,13701.567087198,E,4,13,0.95,92.385,M,37.564,M,107.1,3006*55,37.23268576865,137.02611811996667,679735.3263856255,4122608.748116773
495,[2021-02-22 16:49:44.768] $GNGGA,74944.2,3713.961146071,N,13701.567088251999,E,4,13,0.95,92.387,M,37.564,M,107.2,3006*52,37.23268576785,137.02611813753333,679735.3279460256,4122608.7480613673
496,[2021-02-22 16:49:44.878] $GNGGA,74944.3,3713.961145914,N,13701.567087864,E,4,13,0.95,92.383,M,37.564,M,107.3,3006*5F,37.232685765233335,137.02611813106662,679735.3273785196,4122608.7477587517
497,[2021-02-22 16:49:44.987] $GNGGA,74944.4,3713.96114589,N,13701.567088527,E,4,13,0.95,92.383,M,37.564,M,107.4,3006*57,37.232685764833334,137.02611814211667,679735.3283598198,4122608.7477353546
498,[2021-02-22 16:49:45.065] $GNGGA,74944.5,3713.9611458229997,N,13701.56708914,E,4,13,0.95,92.38600000000001,M,37.564,M,107.5,3006*5E,37.23268576371667,137.0261181523333,679735.3292688853,4122608.747630854
499,[2021-02-22 16:49:45.175] $GNGGA,74944.6,3713.961146204,N,13701.567089545,E,4,13,0.95,92.38600000000001,M,37.564,M,107.6,3006*53,37.23268577006667,137.02611815908332,679735.3298526586,4122608.748348246
500,[2021-02-22 16:49:45.268] $GNGGA,74944.7,3713.961147103,N,13701.567091284,E,4,13,0.95,92.389,M,37.564,M,107.7,3006*5A,37.23268578505,137.02611818806665,679735.33238845,4122608.750065783
501,[2021-02-22 16:49:45.393] $GNGGA,74944.8,3713.961147109,N,13701.567092685,E,4,13,0.95,92.39,M,37.564,M,107.8,3006*5E,37.23268578515,137.02611821141664,679735.3344598062,4122608.750121222
502,[2021-02-22 16:49:45.472] $GNGGA,74944.9,3713.961147266,N,13701.567092563,E,4,13,0.95,92.39200000000001,M,37.564,M,107.9,3006*5D,37.23268578776667,137.02611820938333,679735.3342731972,4122608.7504076962
503,[2021-02-22 16:49:45.565] $GNGGA,74945.0,3713.961147048,N,13701.567094385,E,4,13,0.95,92.39200000000001,M,37.564,M,108.0,3006*55,37.23268578413333,137.02611823975002,679735.3369759349,4122608.7500622226
504,[2021-02-22 16:49:45.675] $GNGGA,74945.1,3713.961147133,N,13701.567094724,E,4,13,0.95,92.395,M,37.564,M,108.1,3006*50,37.23268578555,137.02611824539997,679735.3374738281,4122608.75023014
505,[2021-02-22 16:49:45.784] $GNGGA,74945.2,3713.9611467809996,N,13701.567096628001,E,4,13,0.95,92.395,M,37.564,M,108.2,3006*51,37.23268577968333,137.02611827713338,679735.3403031246,4122608.7496394585
506,[2021-02-22 16:49:45.878] $GNGGA,74945.3,3713.961146623,N,13701.567096813998,E,4,13,0.95,92.396,M,37.564,M,108.3,3006*5A,37.23268577705,137.02611828023328,679735.3405843992,4122608.7493531615
507,[2021-02-22 16:49:45.972] $GNGGA,74945.4,3713.961146653,N,13701.567097036,E,4,13,0.95,92.399,M,37.564,M,108.4,3006*5B,37.232685777549996,137.02611828393336,679735.3409114797,4122608.749415665
508,[2021-02-22 16:49:46.065] $GNGGA,74945.5,3713.9611461970003,N,13701.567097748999,E,4,13,0.95,92.398,M,37.564,M,108.5,3006*5A,37.23268576995001,137.02611829581667,679735.3419838082,4122608.748594965
509,[2021-02-22 16:49:46.175] $GNGGA,74945.6,3713.961146975,N,13701.567096597,E,4,13,0.95,92.397,M,37.564,M,108.6,3006*51,37.23268578291667,137.02611827661667,679735.3402496041,4122608.749997237
510,[2021-02-22 16:49:46.284] $GNGGA,74945.7,3713.9611471740004,N,13701.567096565,E,4,13,0.95,92.39399999999999,M,37.564,M,108.7,3006*57,37.23268578623334,137.02611827608334,679735.3401944092,4122608.75036423
511,[2021-02-22 16:49:46.378] $GNGGA,74945.8,3713.961147352,N,13701.567096391002,E,4,13,0.95,92.398,M,37.564,M,108.8,3006*50,37.2326857892,137.02611827318339,679735.3399300819,4122608.750687892
512,[2021-02-22 16:49:46.471] $GNGGA,74945.9,3713.961146603,N,13701.567095543,E,4,13,0.95,92.397,M,37.564,M,108.9,3006*55,37.23268577671667,137.02611825904998,679735.3387058269,4122608.749275949
513,[2021-02-22 16:49:46.565] $GNGGA,74946.0,3713.9611459879998,N,13701.567095241002,E,4,13,0.95,92.396,M,37.564,M,109.0,3006*5C,37.232685766466666,137.02611825401667,679735.3382836193,4122608.7481290866
514,[2021-02-22 16:49:46.675] $GNGGA,74946.1,3713.961144375,N,13701.567094446002,E,4,13,0.95,92.395,M,37.564,M,109.1,3006*56,37.23268573958333,137.02611824076672,679735.3371719422,4122608.745121046
515,[2021-02-22 16:49:46.784] $GNGGA,74946.2,3713.961143974,N,13701.567093471001,E,4,13,0.95,92.395,M,37.564,M,109.2,3006*59,37.2326857329,137.0261182245167,679735.3357461272,4122608.7443486294
516,[2021-02-22 16:49:46.878] $GNGGA,74946.3,3713.961143555,N,13701.567092999,E,4,13,0.95,92.39299999999999,M,37.564,M,109.3,3006*5A,37.23268572591667,137.02611821665,679735.3350647849,4122608.743558845
517,[2021-02-22 16:49:46.971] $GNGGA,74946.4,3713.9611431290004,N,13701.567092143001,E,4,13,0.95,92.395,M,37.564,M,109.4,3006*5C,37.232685718816676,137.02611820238334,679735.3338159224,4122608.742743962
518,[2021-02-22 16:49:47.065] $GNGGA,74946.5,3713.961143663,N,13701.567090841001,E,4,13,0.95,92.39299999999999,M,37.564,M,109.5,3006*5A,37.232685727716664,137.02611818068337,679735.3318695795,4122608.743690264
519,[2021-02-22 16:49:47.175] $GNGGA,74946.6,3713.961144355,N,13701.567090776001,E,4,13,0.95,92.396,M,37.564,M,109.6,3006*53,37.23268573925,137.02611817960002,679735.3317460737,4122608.744967904
520,[2021-02-22 16:49:47.284] $GNGGA,74946.7,3713.961144848,N,13701.567090421,E,4,13,0.95,92.397,M,37.564,M,109.7,3006*54,37.23268574746666,137.02611817368333,679735.3312016365,4122608.745868358
521,[2021-02-22 16:49:47.378] $GNGGA,74946.8,3713.961144776,N,13701.567089962,E,4,13,0.95,92.397,M,37.564,M,109.8,3006*54,37.23268574626666,137.02611816603334,679735.3305257849,4122608.7457206817
522,[2021-02-22 16:49:47.471] $GNGGA,74946.9,3713.9611448279998,N,13701.567089663,E,4,13,0.95,92.397,M,37.564,M,109.9,3006*5E,37.23268574713333,137.02611816105002,679735.3300816105,4122608.7458073813
523,[2021-02-22 16:49:47.565] $GNGGA,74947.0,3713.961145174,N,13701.567089523998,E,4,13,0.95,92.397,M,37.564,M,110.0,3006*56,37.232685752900004,137.0261181587333,679735.3298623771,4122608.746442831
524,[2021-02-22 16:49:47.675] $GNGGA,74947.1,3713.961145286,N,13701.567089432,E,4,13,0.95,92.39399999999999,M,37.564,M,110.1,3006*5D,37.23268575476667,137.02611815719996,679735.3297219054,4122608.7466470385
525,[2021-02-22 16:49:47.784] $GNGGA,74947.2,3713.961145658,N,13701.567088815,E,4,13,0.95,92.396,M,37.564,M,110.2,3006*50,37.23268576096667,137.02611814691667,679735.328794857,4122608.7473154385
526,[2021-02-22 16:49:47.878] $GNGGA,74947.3,3713.961145068,N,13701.567088553,E,4,13,0.95,92.395,M,37.564,M,110.3,3006*59,37.23268575113333,137.02611814255,679735.3284308016,4122608.746216074
527,[2021-02-22 16:49:47.971] $GNGGA,74947.4,3713.9611456340003,N,13701.56708955,E,4,13,0.95,92.395,M,37.564,M,110.4,3006*54,37.232685760566675,137.02611815916666,679735.3298826144,4122608.7472943203
528,[2021-02-22 16:49:48.065] $GNGGA,74947.5,3713.961145349,N,13701.567089766,E,4,13,0.95,92.39399999999999,M,37.564,M,110.5,3006*5D,37.232685755816675,137.0261181627667,679735.3302132878,4122608.7467741137
529,[2021-02-22 16:49:48.174] $GNGGA,74947.6,3713.9611454859996,N,13701.567089848999,E,4,13,0.95,92.395,M,37.564,M,110.6,3006*5A,37.23268575809999,137.02611816414998,679735.330330589,4122608.747030089
530,[2021-02-22 16:49:48.299] $GNGGA,74947.7,3713.9611463240003,N,13701.567090649,E,4,13,0.95,92.397,M,37.564,M,110.7,3006*52,37.23268577206667,137.0261181774833,679735.331480341,4122608.7486051023
531,[2021-02-22 16:49:48.378] $GNGGA,74947.8,3713.9611471209996,N,13701.567089711001,E,4,13,0.95,92.39399999999999,M,37.564,M,110.8,3006*53,37.23268578534999,137.02611816185,679735.3300618173,4122608.7500492823
532,[2021-02-22 16:49:48.471] $GNGGA,74947.9,3713.961146791,N,13701.567089418999,E,4,13,0.95,92.39399999999999,M,37.564,M,110.9,3006*54,37.23268577985,137.0261181569833,679735.3296431097,4122608.749429781
533,[2021-02-22 16:49:48.565] $GNGGA,74948.0,3713.961146262,N,13701.567088813,E,4,13,0.95,92.395,M,37.564,M,111.0,3006*55,37.23268577103334,137.02611814688336,679735.328767991,4122608.748432338
534,[2021-02-22 16:49:48.674] $GNGGA,74948.1,3713.96114679,N,13701.56708799,E,4,13,0.95,92.395,M,37.564,M,111.1,3006*58,37.232685779833325,137.02611813316668,679735.3275301594,4122608.749382702
535,[2021-02-22 16:49:48.784] $GNGGA,74948.2,3713.961145115,N,13701.567088187,E,4,13,0.95,92.397,M,37.564,M,111.2,3006*53,37.23268575191666,137.02611813644998,679735.3278877542,4122608.7462914055
536,[2021-02-22 16:49:48.878] $GNGGA,74948.3,3713.961144996,N,13701.567088073001,E,4,13,0.95,92.398,M,37.564,M,111.3,3006*54,37.23268574993333,137.02611813455,679735.3277238994,4122608.746067734
537,[2021-02-22 16:49:48.971] $GNGGA,74948.4,3713.9611452579998,N,13701.567087423999,E,4,13,0.95,92.398,M,37.564,M,111.4,3006*55,37.2326857543,137.0261181237333,679735.3267538807,4122608.7465317016
538,[2021-02-22 16:49:49.081] $GNGGA,74948.5,3713.961145323,N,13701.567087114,E,4,13,0.95,92.395,M,37.564,M,111.5,3006*53,37.232685755383336,137.02611811856667,679735.326292927,4122608.746642094
539,[2021-02-22 16:49:49.190] $GNGGA,74948.6,3713.961146235,N,13701.567086928,E,4,13,0.95,92.397,M,37.564,M,111.6,3006*52,37.23268577058333,137.02611811546666,679735.3259817972,4122608.748322745
540,[2021-02-22 16:49:49.268] $GNGGA,74948.7,3713.9611459370003,N,13701.567086729,E,4,13,0.95,92.399,M,37.564,M,111.7,3006*59,37.23268576561667,137.02611811215,679735.3256993399,4122608.7477653613
541,[2021-02-22 16:49:49.378] $GNGGA,74948.8,3713.9611461940003,N,13701.567087066001,E,4,13,0.95,92.39399999999999,M,37.564,M,111.8,3006*5B,37.23268576990001,137.02611811776669,679735.3261874764,4122608.7482512924
542,[2021-02-22 16:49:49.471] $GNGGA,74948.9,3713.961146942,N,13701.567086466,E,4,13,0.95,92.39399999999999,M,37.564,M,111.9,3006*5D,37.23268578236667,137.02611810776665,679735.3252706716,4122608.7496155575
543,[2021-02-22 16:49:49.596] $GNGGA,74949.0,3713.961146634,N,13701.567085986999,E,4,13,0.95,92.39299999999999,M,37.564,M,112.0,3006*57,37.232685777233336,137.02611809978333,679735.3245745897,4122608.7490308206
544,[2021-02-22 16:49:49.674] $GNGGA,74949.1,3713.9611468790004,N,13701.567084429,E,4,13,0.95,92.39399999999999,M,37.564,M,112.1,3006*5F,37.23268578131667,137.02611807381663,679735.3222611484,4122608.74943458
545,[2021-02-22 16:49:49.768] $GNGGA,74949.2,3713.961147294,N,13701.567084224,E,4,13,0.95,92.39,M,37.564,M,112.2,3006*58,37.23268578823334,137.02611807039997,679735.321941596,4122608.750195541
546,[2021-02-22 16:49:49.877] $GNGGA,74949.3,3713.9611470170003,N,13701.567084676999,E,4,13,0.95,92.389,M,37.564,M,112.3,3006*5B,37.232685783616674,137.02611807794997,679735.3226223907,4122608.7496976294
547,[2021-02-22 16:49:49.987] $GNGGA,74949.4,3713.9611480659996,N,13701.567085125,E,4,13,0.95,92.389,M,37.564,M,112.4,3006*53,37.23268580109999,137.02611808541667,679735.3232433065,4122608.7516516945
548,[2021-02-22 16:49:50.065] $GNGGA,74949.5,3713.961148527,N,13701.567083875,E,4,13,0.95,92.387,M,37.564,M,112.5,3006*57,37.23268580878334,137.02611806458333,679735.3213767405,4122608.7524646474
549,[2021-02-22 16:49:50.174] $GNGGA,74949.6,3713.961148283,N,13701.567084131999,E,4,13,0.95,92.38799999999999,M,37.564,M,112.6,3006*5C,37.23268580471667,137.02611806886668,679735.3217664158,4122608.7520215586
550,[2021-02-22 16:49:50.268] $GNGGA,74949.7,3713.961148628,N,13701.567083827,E,4,13,0.95,92.38799999999999,M,37.564,M,112.7,3006*53,37.23268581046667,137.02611806378334,679735.3213017695,4122608.752649904
551,[2021-02-22 16:49:50.393] $GNGGA,74949.8,3713.961148357,N,13701.567085186001,E,4,13,0.95,92.387,M,37.564,M,112.8,3006*55,37.23268580595,137.02611808643337,679735.323321989,4122608.7521917643
552,[2021-02-22 16:49:50.471] $GNGGA,74949.9,3713.9611485190003,N,13701.567085953,E,4,13,0.95,92.389,M,37.564,M,112.9,3006*57,37.232685808650004,137.02611809921666,679735.3244496993,4122608.752515623
553,[2021-02-22 16:49:50.565] $GNGGA,74950.0,3713.9611476229998,N,13701.567085608998,E,4,13,0.95,92.38799999999999,M,37.564,M,113.0,3006*5A,37.232685793716655,137.0261180934833,679735.3239765066,4122608.7508477853
554,[2021-02-22 16:49:50.674] $GNGGA,74950.1,3713.961148476,N,13701.567086851,E,4,13,0.95,92.389,M,37.564,M,113.1,3006*56,37.23268580793333,137.02611811418333,679735.3257792325,4122608.752464526
555,[2021-02-22 16:49:50.768] $GNGGA,74950.2,3713.9611482859996,N,13701.567087678,E,4,13,0.95,92.38799999999999,M,37.564,M,113.2,3006*5A,37.23268580476666,137.02611812796667,679735.3270095993,4122608.7521393388
556,[2021-02-22 16:49:50.893] $GNGGA,74950.3,3713.961148399,N,13701.567087655,E,4,13,0.95,92.389,M,37.564,M,113.3,3006*5B,37.232685806650004,137.02611812758332,679735.3269711162,4122608.7523475806
557,[2021-02-22 16:49:50.971] $GNGGA,74950.4,3713.96114867,N,13701.567088061001,E,4,13,0.95,92.389,M,37.564,M,113.4,3006*57,37.23268581116666,137.02611813435,679735.3275607245,4122608.7528615827
558,[2021-02-22 16:49:51.065] $GNGGA,74950.5,3713.961148922,N,13701.567088211,E,4,13,0.95,92.391,M,37.564,M,113.5,3006*53,37.23268581536667,137.02611813685002,679735.3277725489,4122608.7533323476
559,[2021-02-22 16:49:51.174] $GNGGA,74950.6,3713.9611494190003,N,13701.56708759,E,4,13,0.95,92.389,M,37.564,M,113.6,3006*5F,37.23268582365001,137.02611812649997,679735.3268346267,4122608.7542317817
560,[2021-02-22 16:49:51.268] $GNGGA,74950.7,3713.961149314,N,13701.567087886999,E,4,13,0.95,92.39,M,37.564,M,113.7,3006*56,37.232685821900006,137.02611813145,679735.3272779464,4122608.754047008
561,[2021-02-22 16:49:51.393] $GNGGA,74950.8,3713.96114942,N,13701.567088974,E,4,13,0.95,92.39,M,37.564,M,113.8,3006*54,37.232685823666664,137.02611814956666,679735.3288810445,4122608.754277434
562,[2021-02-22 16:49:51.471] $GNGGA,74950.9,3713.961149267,N,13701.567088405,E,4,13,0.95,92.391,M,37.564,M,113.9,3006*5B,37.23268582111667,137.02611814008333,679735.3280457484,4122608.753976488
563,[2021-02-22 16:49:51.565] $GNGGA,74951.0,3713.961149381,N,13701.567088787,E,4,13,0.95,92.39,M,37.564,M,114.0,3006*5C,37.232685823016666,137.02611814645,679735.3286060804,4122608.754199394
564,[2021-02-22 16:49:51.674] $GNGGA,74951.1,3713.961149492,N,13701.567088355,E,4,13,0.95,92.39,M,37.564,M,114.1,3006*52,37.232685824866664,137.02611813925,679735.3279629095,4122608.7543909904
565,[2021-02-22 16:49:51.768] $GNGGA,74951.2,3713.961150196,N,13701.567089075,E,4,13,0.95,92.389,M,37.564,M,114.2,3006*53,37.2326858366,137.02611815125002,679735.3289996753,4122608.7557156677
566,[2021-02-22 16:49:51.893] $GNGGA,74951.3,3713.961148852,N,13701.567088112,E,4,13,0.95,92.391,M,37.564,M,114.3,3006*53,37.232685814199996,137.0261181352,679735.3276289314,4122608.7531997645
567,[2021-02-22 16:49:51.971] $GNGGA,74951.4,3713.96114901,N,13701.567087596999,E,4,13,0.95,92.391,M,37.564,M,114.4,3006*5A,37.23268581683334,137.02611812661664,679735.3268611669,4122608.7534756497
568,[2021-02-22 16:49:52.065] $GNGGA,74951.5,3713.96114868,N,13701.56708632,E,4,13,0.95,92.39,M,37.564,M,114.5,3006*5E,37.23268581133333,137.02611810533332,679735.3249859918,4122608.752824971
569,[2021-02-22 16:49:52.174] $GNGGA,74951.6,3713.961148553,N,13701.567086616002,E,4,13,0.95,92.391,M,37.564,M,114.6,3006*52,37.23268580921666,137.02611811026668,679735.3254287015,4122608.7525994824
570,[2021-02-22 16:49:52.268] $GNGGA,74951.7,3713.961147752,N,13701.567088406999,E,4,13,0.95,92.389,M,37.564,M,114.7,3006*5B,37.232685795866665,137.02611814011664,679735.328108673,4122608.751174901
571,[2021-02-22 16:49:52.393] $GNGGA,74951.8,3713.9611475509996,N,13701.567087865,E,4,13,0.95,92.387,M,37.564,M,114.8,3006*53,37.232685792516655,137.0261181310833,679735.3273151992,4122608.750786042
572,[2021-02-22 16:49:52.471] $GNGGA,74951.9,3713.96114705,N,13701.567086101999,E,4,13,0.95,92.38600000000001,M,37.564,M,114.9,3006*5F,37.23268578416667,137.0261181017,679735.324728169,4122608.749803758
573,[2021-02-22 16:49:52.565] $GNGGA,74952.0,3713.961147022,N,13701.567084882,E,4,13,0.95,92.38600000000001,M,37.564,M,115.0,3006*5B,37.232685783700006,137.02611808136663,679735.3229253155,4122608.7497133636
574,[2021-02-22 16:49:52.674] $GNGGA,74952.1,3713.9611479309997,N,13701.567082877,E,4,13,0.95,92.385,M,37.564,M,115.1,3006*5F,37.23268579885,137.02611804795,679735.3199246387,4122608.751330892
575,[2021-02-22 16:49:52.768] $GNGGA,74952.2,3713.9611477840003,N,13701.567081637,E,4,13,0.95,92.387,M,37.564,M,115.2,3006*54,37.23268579640001,137.02611802728333,679735.3180969259,4122608.7510198047
576,[2021-02-22 16:49:52.893] $GNGGA,74952.3,3713.961147732,N,13701.567082061001,E,4,13,0.95,92.385,M,37.564,M,115.3,3006*5D,37.232685795533335,137.02611803435002,679735.3187259347,4122608.7509370614
577,[2021-02-22 16:49:52.971] $GNGGA,74952.4,3713.9611474790004,N,13701.567081718,E,4,13,0.95,92.384,M,37.564,M,115.4,3006*5A,37.23268579131667,137.02611802863333,679735.3182287704,4122608.750458338
578,[2021-02-22 16:49:53.065] $GNGGA,74952.5,3713.96114803,N,13701.567081254,E,4,13,0.95,92.38799999999999,M,37.564,M,115.5,3006*5D,37.23268580049999,137.02611802089996,679735.3175208605,4122608.7514626007
579,[2021-02-22 16:49:53.174] $GNGGA,74952.6,3713.96114862,N,13701.567080689,E,4,13,0.95,92.387,M,37.564,M,115.6,3006*50,37.23268581033334,137.02611801148333,679735.3166620723,4122608.75253579
580,[2021-02-22 16:49:53.299] $GNGGA,74952.7,3713.9611497909996,N,13701.567081633999,E,4,13,0.95,92.387,M,37.564,M,115.7,3006*5D,37.23268582984999,137.0261180272333,679735.3180130428,4122608.754731198
581,[2021-02-22 16:49:53.377] $GNGGA,74952.8,3713.961149902,N,13701.567081171,E,4,13,0.95,92.38799999999999,M,37.564,M,115.8,3006*50,37.232685831699996,137.02611801951667,679735.3173240352,4122608.7549218135
582,[2021-02-22 16:49:53.471] $GNGGA,74952.9,3713.9611496609996,N,13701.567082128999,E,4,13,0.95,92.387,M,37.564,M,115.9,3006*5B,37.232685827683326,137.02611803548328,679735.3187501201,4122608.7545064585
583,[2021-02-22 16:49:53.580] $GNGGA,74953.0,3713.9611497540004,N,13701.567083075,E,4,13,0.95,92.39200000000001,M,37.564,M,116.0,3006*53,37.23268582923334,137.02611805125,679735.3201452497,4122608.7547083846
584,[2021-02-22 16:49:53.690] $GNGGA,74953.1,3713.9611491220003,N,13701.56708301,E,4,13,0.95,92.389,M,37.564,M,116.1,3006*5D,37.232685818700006,137.0261180501667,679735.3200741574,4122608.7535375874
585,[2021-02-22 16:49:53.768] $GNGGA,74953.2,3713.9611490240004,N,13701.567083437,E,4,13,0.95,92.389,M,37.564,M,116.2,3006*5B,37.23268581706668,137.0261180572833,679735.3207094162,4122608.7533698743
586,[2021-02-22 16:49:53.877] $GNGGA,74953.3,3713.961148845,N,13701.567083648,E,4,13,0.95,92.391,M,37.564,M,116.3,3006*56,37.23268581408333,137.02611806080003,679735.321028503,4122608.75304553
587,[2021-02-22 16:49:53.971] $GNGGA,74953.4,3713.961148449,N,13701.567084823999,E,4,13,0.95,92.39,M,37.564,M,116.4,3006*54,37.23268580748334,137.02611808039995,679735.3227830679,4122608.7523504407
588,[2021-02-22 16:49:54.096] $GNGGA,74953.5,3713.961148157,N,13701.567084901,E,4,13,0.95,92.39,M,37.564,M,116.5,3006*58,37.232685802616665,137.02611808168334,679735.3229084858,4122608.7518128892
589,[2021-02-22 16:49:54.174] $GNGGA,74953.6,3713.961147728,N,13701.567085212,E,4,13,0.95,92.39399999999999,M,37.564,M,116.6,3006*55,37.232685795466665,137.02611808686666,679735.3233853288,4122608.751029395
590,[2021-02-22 16:49:54.268] $GNGGA,74953.7,3713.9611477709996,N,13701.567086268,E,4,13,0.95,92.391,M,37.564,M,116.7,3006*52,37.23268579618333,137.02611810446666,679735.3249450839,4122608.751142337
591,[2021-02-22 16:49:54.377] $GNGGA,74953.8,3713.9611484240004,N,13701.567087078998,E,4,13,0.95,92.39299999999999,M,37.564,M,116.8,3006*5F,37.23268580706668,137.02611811798332,679735.3261184215,4122608.752375582
592,[2021-02-22 16:49:54.486] $GNGGA,74953.9,3713.96114793,N,13701.567087442,E,4,13,0.95,92.391,M,37.564,M,116.9,3006*56,37.23268579883334,137.0261181240333,679735.3266747273,4122608.7514735307
593,[2021-02-22 16:49:54.565] $GNGGA,74954.0,3713.961148283,N,13701.567087758,E,4,13,0.95,92.391,M,37.564,M,117.0,3006*54,37.23268580471667,137.0261181293,679735.3271280108,4122608.7521363236
594,[2021-02-22 16:49:54.674] $GNGGA,74954.1,3713.961148707,N,13701.56708812,E,4,13,0.95,92.391,M,37.564,M,117.1,3006*5B,37.232685811783334,137.02611813533335,679735.3276465022,4122608.7529318733
595,[2021-02-22 16:49:54.768] $GNGGA,74954.2,3713.961149151,N,13701.567089243,E,4,13,0.95,92.38600000000001,M,37.564,M,117.2,3006*5E,37.23268581918334,137.02611815404998,679735.3292894505,4122608.7537884954
596,[2021-02-22 16:49:54.877] $GNGGA,74954.3,3713.961148917,N,13701.56708853,E,4,13,0.95,92.39,M,37.564,M,117.3,3006*50,37.23268581528333,137.0261181421667,679735.3282444372,4122608.7533331974
597,[2021-02-22 16:49:54.987] $GNGGA,74954.4,3713.961149878,N,13701.567088774,E,4,13,0.95,92.387,M,37.564,M,117.4,3006*5D,37.232685831299996,137.0261181462333,679735.3285671831,4122608.755118071
598,[2021-02-22 16:49:55.065] $GNGGA,74954.5,3713.961149583,N,13701.567088831001,E,4,13,0.95,92.38799999999999,M,37.564,M,117.5,3006*55,37.232685826383324,137.02611814718335,679735.3286631498,4122608.75457434
599,[2021-02-22 16:49:55.174] $GNGGA,74954.6,3713.9611491459996,N,13701.567089989,E,4,13,0.95,92.38600000000001,M,37.564,M,117.6,3006*55,37.23268581909999,137.02611816648331,679735.330392723,4122608.7538028588
600,[2021-02-22 16:49:55.268] $GNGGA,74954.7,3713.9611486179997,N,13701.567089577,E,4,13,0.95,92.385,M,37.564,M,117.7,3006*56,37.23268581029999,137.02611815961666,679735.3298044205,4122608.7528134026
601,[2021-02-22 16:49:55.377] $GNGGA,74954.8,3713.961148888,N,13701.567088568001,E,4,13,0.95,92.39,M,37.564,M,117.8,3006*5A,37.2326858148,137.02611814280002,679735.3283017743,4122608.7532807714
602,[2021-02-22 16:49:55.486] $GNGGA,74954.9,3713.961149205,N,13701.567089432,E,4,13,0.95,92.38600000000001,M,37.564,M,117.9,3006*5C,37.23268582008333,137.02611815719996,679735.3295667758,4122608.7538943365
603,[2021-02-22 16:49:55.565] $GNGGA,74955.0,3713.961148574,N,13701.567088541002,E,4,13,0.95,92.387,M,37.564,M,118.0,3006*57,37.232685809566675,137.02611814235004,679735.3282742815,4122608.7526992466
604,[2021-02-22 16:49:55.674] $GNGGA,74955.1,3713.96114845,N,13701.567087305,E,4,13,0.95,92.39,M,37.564,M,118.1,3006*5F,37.232685807500005,137.02611812175,679735.3264515703,4122608.752430816
605,[2021-02-22 16:49:55.768] $GNGGA,74955.2,3713.96114819,N,13701.567086858999,E,4,13,0.95,92.389,M,37.564,M,118.2,3006*5D,37.232685803166675,137.02611811431663,679735.3258023801,4122608.751935889
606,[2021-02-22 16:49:55.877] $GNGGA,74955.3,3713.9611471609996,N,13701.567086281999,E,4,13,0.95,92.39,M,37.564,M,118.3,3006*58,37.23268578601666,137.0261181047,679735.3249899329,4122608.750014723
607,[2021-02-22 16:49:55.986] $GNGGA,74955.4,3713.961147497,N,13701.567085669,E,4,13,0.95,92.38799999999999,M,37.564,M,118.4,3006*5F,37.232685791616674,137.02611809448334,679735.3240702171,4122608.7506166785
608,[2021-02-22 16:49:56.065] $GNGGA,74955.5,3713.961146698,N,13701.567084645,E,4,13,0.95,92.387,M,37.564,M,118.5,3006*53,37.2326857783,137.02611807741667,679735.3225877049,4122608.7491066987
609,[2021-02-22 16:49:56.174] $GNGGA,74955.6,3713.961147098,N,13701.567084753999,E,4,13,0.95,92.387,M,37.564,M,118.6,3006*55,37.23268578496667,137.0261180792333,679735.3227330414,4122608.7498498578
610,[2021-02-22 16:49:56.268] $GNGGA,74955.7,3713.96114758,N,13701.56708401,E,4,13,0.95,92.387,M,37.564,M,118.7,3006*5E,37.232685793,137.02611806683333,679735.3216138469,4122608.7507176585
611,[2021-02-22 16:49:56.377] $GNGGA,74955.8,3713.961148328,N,13701.567084003,E,4,13,0.95,92.385,M,37.564,M,118.8,3006*55,37.232685805466666,137.02611806671666,679735.3215738856,4122608.752100693
612,[2021-02-22 16:49:56.486] $GNGGA,74955.9,3713.9611487290003,N,13701.567083058999,E,4,13,0.95,92.384,M,37.564,M,118.9,3006*59,37.23268581215001,137.0261180509833,679735.3201621633,4122608.7528123744
613,[2021-02-22 16:49:56.565] $GNGGA,74956.0,3713.9611487340003,N,13701.567082972,E,4,13,0.95,92.38799999999999,M,37.564,M,119.0,3006*5A,37.23268581223334,137.02611804953332,679735.3200333223,4122608.752818867
614,[2021-02-22 16:49:56.674] $GNGGA,74956.1,3713.961149291,N,13701.56708259,E,4,13,0.95,92.384,M,37.564,M,119.1,3006*5D,37.23268582151667,137.02611804316666,679735.3194464295,4122608.75383682
615,[2021-02-22 16:49:56.768] $GNGGA,74956.2,3713.9611479490004,N,13701.5670818,E,4,13,0.95,92.384,M,37.564,M,119.2,3006*5A,37.23268579915001,137.02611803,679735.318331416,4122608.7513300935
616,[2021-02-22 16:49:56.877] $GNGGA,74956.3,3713.961146925,N,13701.567081468998,E,4,13,0.95,92.385,M,37.564,M,119.3,3006*53,37.23268578208333,137.02611802448334,679735.3178825163,4122608.7494259593
617,[2021-02-22 16:49:56.986] $GNGGA,74956.4,3713.961146792,N,13701.567081461999,E,4,13,0.95,92.385,M,37.564,M,119.4,3006*5A,37.232685779866664,137.02611802436667,679735.3178774308,4122608.749179785
618,[2021-02-22 16:49:57.064] $GNGGA,74956.5,3713.961146644,N,13701.567080253999,E,4,13,0.95,92.38600000000001,M,37.564,M,119.5,3006*51,37.2326857774,137.02611800423333,679735.3160970751,4122608.748867859
619,[2021-02-22 16:49:57.174] $GNGGA,74956.6,3713.961147598,N,13701.567080268998,E,4,13,0.95,92.385,M,37.564,M,119.6,3006*5F,37.23268579329999,137.0261180044833,679735.3160814889,4122608.7506325385
620,[2021-02-22 16:49:57.268] $GNGGA,74956.7,3713.9611473409996,N,13701.567081113999,E,4,13,0.95,92.384,M,37.564,M,119.7,3006*54,37.23268578901666,137.02611801856665,679735.3173411248,4122608.7501840196
621,[2021-02-22 16:49:57.377] $GNGGA,74956.8,3713.961146706,N,13701.56708179,E,4,13,0.95,92.387,M,37.564,M,119.8,3006*5B,37.232685778433336,137.02611802983333,679735.3183658305,4122608.7490311293
622,[2021-02-22 16:49:57.486] $GNGGA,74956.9,3713.9611466359997,N,13701.567082687,E,4,13,0.95,92.389,M,37.564,M,119.9,3006*53,37.23268577726666,137.0261180447833,679735.3196949516,4122608.7489300696
623,[2021-02-22 16:49:57.564] $GNGGA,74957.0,3713.96114728,N,13701.567082518999,E,4,13,0.95,92.38600000000001,M,37.564,M,120.0,3006*5B,37.232685788,137.02611804198332,679735.3194210475,4122608.7501156847
624,[2021-02-22 16:49:57.674] $GNGGA,74957.1,3713.9611472409997,N,13701.567084508,E,4,13,0.95,92.387,M,37.564,M,120.1,3006*51,37.23268578734999,137.02611807513333,679735.3223636331,4122608.750106517
625,[2021-02-22 16:49:57.768] $GNGGA,74957.2,3713.961146675,N,13701.567085376,E,4,13,0.95,92.39,M,37.564,M,120.2,3006*5B,37.232685777916664,137.02611808960003,679735.323669513,4122608.749087302
626,[2021-02-22 16:49:57.893] $GNGGA,74957.3,3713.961147445,N,13701.567085548999,E,4,13,0.95,92.391,M,37.564,M,120.3,3006*50,37.23268579075,137.0261180924833,679735.323894834,4122608.7505167173
627,[2021-02-22 16:49:57.971] $GNGGA,74957.4,3713.9611476540003,N,13701.567086795,E,4,13,0.95,92.39,M,37.564,M,120.4,3006*53,37.23268579423334,137.02611811325002,679735.3257289687,4122608.750942653
628,[2021-02-22 16:49:58.064] $GNGGA,74957.5,3713.961146948,N,13701.567086948,E,4,13,0.95,92.389,M,37.564,M,120.5,3006*56,37.23268578246667,137.02611811580002,679735.3259831481,4122608.749641907
629,[2021-02-22 16:49:58.174] $GNGGA,74957.6,3713.9611471929998,N,13701.567087897,E,4,13,0.95,92.38799999999999,M,37.564,M,120.6,3006*5A,37.23268578654999,137.02611813161664,679735.3273766879,4122608.750125016
630,[2021-02-22 16:49:58.299] $GNGGA,74957.7,3713.961146908,N,13701.567087743,E,4,13,0.95,92.391,M,37.564,M,120.7,3006*5F,37.2326857818,137.02611812905002,679735.327160262,4122608.7495930996
631,[2021-02-22 16:49:58.377] $GNGGA,74957.8,3713.96114727,N,13701.567087045,E,4,13,0.95,92.38799999999999,M,37.564,M,120.8,3006*53,37.232685787833326,137.02611811741664,679735.3261138289,4122608.7502404433
632,[2021-02-22 16:49:58.471] $GNGGA,74957.9,3713.9611471040002,N,13701.567086285,E,4,13,0.95,92.39,M,37.564,M,120.9,3006*55,37.23268578506668,137.02611810475003,679735.3249966273,4122608.749909411
633,[2021-02-22 16:49:58.580] $GNGGA,74958.0,3713.961146628,N,13701.567086191,E,4,13,0.95,92.39,M,37.564,M,121.0,3006*55,37.232685777133334,137.02611810318334,679735.3248764738,4122608.7490261807
634,[2021-02-22 16:49:58.689] $GNGGA,74958.1,3713.961146665,N,13701.567085835,E,4,13,0.95,92.387,M,37.564,M,121.1,3006*5E,37.23268577774999,137.02611809725002,679735.3243486105,4122608.749083335
635,[2021-02-22 16:49:58.767] $GNGGA,74958.2,3713.961146925,N,13701.567085845,E,4,13,0.95,92.384,M,37.564,M,121.2,3006*51,37.23268578208333,137.02611809741666,679735.3243531024,4122608.7495644633
636,[2021-02-22 16:49:58.877] $GNGGA,74958.3,3713.961147257,N,13701.5670855,E,4,13,0.95,92.384,M,37.564,M,121.3,3006*52,37.232685787616674,137.02611809166666,679735.3238298242,4122608.7501675044
637,[2021-02-22 16:49:58.971] $GNGGA,74958.4,3713.961147952,N,13701.567086878998,E,4,13,0.95,92.383,M,37.564,M,121.4,3006*5B,37.2326857992,137.02611811464996,679735.3258413732,4122608.751496393
638,[2021-02-22 16:49:59.096] $GNGGA,74958.5,3713.9611476890004,N,13701.567087943,E,4,13,0.95,92.382,M,37.564,M,121.5,3006*5A,37.232685794816675,137.02611813238332,679735.3274250744,4122608.751043713
639,[2021-02-22 16:49:59.174] $GNGGA,74958.6,3713.9611477209996,N,13701.567088472,E,4,13,0.95,92.382,M,37.564,M,121.6,3006*59,37.232685795349994,137.02611814120002,679735.3282060161,4122608.7511196313
640,[2021-02-22 16:49:59.267] $GNGGA,74958.7,3713.9611474390003,N,13701.567088576001,E,4,13,0.95,92.383,M,37.564,M,121.7,3006*57,37.23268579065,137.02611814293337,679735.3283709625,4122608.750601429
641,[2021-02-22 16:49:59.377] $GNGGA,74958.8,3713.961147078,N,13701.567088961001,E,4,13,0.95,92.384,M,37.564,M,121.8,3006*5B,37.23268578463334,137.02611814935003,679735.3289545329,4122608.749946027
642,[2021-02-22 16:49:59.471] $GNGGA,74958.9,3713.9611463429997,N,13701.567088416,E,4,13,0.95,92.383,M,37.564,M,121.9,3006*5B,37.23268577238332,137.0261181402667,679735.328177761,4122608.74856956
643,[2021-02-22 16:49:59.596] $GNGGA,74959.0,3713.961146684,N,13701.567088541002,E,4,13,0.95,92.383,M,37.564,M,122.0,3006*54,37.23268577806667,137.02611814235004,679735.3283490952,4122608.74920412
644,[2021-02-22 16:49:59.674] $GNGGA,74959.1,3713.961147265,N,13701.567088756,E,4,13,0.95,92.383,M,37.564,M,122.1,3006*5A,37.23268578774999,137.02611814593337,679735.3286440056,4122608.7502853526
645,[2021-02-22 16:49:59.767] $GNGGA,74959.2,3713.9611471059998,N,13701.567087974,E,4,13,0.95,92.382,M,37.564,M,122.2,3006*5C,37.2326857851,137.02611813289997,679735.3274939886,4122608.7499665674
646,[2021-02-22 16:49:59.877] $GNGGA,74959.3,3713.961147578,N,13701.567087726002,E,4,13,0.95,92.385,M,37.564,M,122.3,3006*5F,37.23268579296667,137.0261181287667,679735.3271086044,4122608.750831574
647,[2021-02-22 16:49:59.971] $GNGGA,74959.4,3713.9611475770002,N,13701.567087433,E,4,13,0.95,92.383,M,37.564,M,122.4,3006*51,37.23268579295001,137.02611812388332,679735.3266753951,4122608.750820453
648,[2021-02-22 16:50:00.095] $GNGGA,74959.5,3713.9611471840003,N,13701.567087497,E,4,13,0.95,92.384,M,37.564,M,122.5,3006*50,37.23268578640001,137.02611812495,679735.3267855844,4122608.7500957143
649,[2021-02-22 16:50:00.174] $GNGGA,74959.6,3713.961147085,N,13701.5670877,E,4,13,0.95,92.385,M,37.564,M,122.6,3006*5C,37.23268578475,137.0261181283333,679735.327089669,4122608.74991906
650,[2021-02-22 16:50:00.267] $GNGGA,74959.7,3713.9611473190002,N,13701.567087576,E,4,13,0.95,92.38799999999999,M,37.564,M,122.7,3006*54,37.23268578865,137.02611812626668,679735.3268970572,4122608.750347865
651,[2021-02-22 16:50:00.377] $GNGGA,74959.8,3713.96114694,N,13701.567087616999,E,4,13,0.95,92.38799999999999,M,37.564,M,122.8,3006*57,37.232685782333334,137.02611812695,679735.3269726823,4122608.749648288
652,[2021-02-22 16:50:00.470] $GNGGA,74959.9,3713.961147119,N,13701.567087923999,E,4,13,0.95,92.387,M,37.564,M,122.9,3006*52,37.23268578531667,137.02611813206664,679735.3274195415,4122608.7499890253
653,[2021-02-22 16:50:00.595] $GNGGA,75000.0,3713.961147621,N,13701.567087285,E,4,13,0.95,92.39,M,37.564,M,123.0,3006*5D,37.23268579368333,137.02611812141666,679735.3264548111,4122608.7508971347
654,[2021-02-22 16:50:00.674] $GNGGA,75000.1,3713.961147377,N,13701.567087485,E,4,13,0.95,92.389,M,37.564,M,123.1,3006*55,37.232685789616674,137.02611812475,679735.3267602038,4122608.7504522433
655,[2021-02-22 16:50:00.767] $GNGGA,75000.2,3713.9611465790003,N,13701.567087013,E,4,13,0.95,92.389,M,37.564,M,123.2,3006*57,37.23268577631667,137.02611811688334,679735.3260938661,4122608.7489615846
656,[2021-02-22 16:50:00.877] $GNGGA,75000.3,3713.9611465609996,N,13701.567086554,E,4,13,0.95,92.39,M,37.564,M,123.3,3006*51,37.23268577601666,137.02611810923332,679735.3254158748,4122608.7489137677
657,[2021-02-22 16:50:00.970] $GNGGA,75000.4,3713.961146397,N,13701.567086731999,E,4,13,0.95,92.39,M,37.564,M,123.4,3006*5C,37.23268577328333,137.02611811219998,679735.325685567,4122608.7486161212
658,[2021-02-22 16:50:01.095] $GNGGA,75000.5,3713.961146217,N,13701.567086357,E,4,13,0.95,92.39200000000001,M,37.564,M,123.5,3006*50,37.23268577028334,137.02611810595,679735.3251381977,4122608.748271385
659,[2021-02-22 16:50:01.174] $GNGGA,75000.6,3713.961145678,N,13701.567086648001,E,4,13,0.95,92.391,M,37.564,M,123.6,3006*56,37.23268576129999,137.0261181108,679735.325589823,4122608.747283836
660,[2021-02-22 16:50:01.267] $GNGGA,75000.7,3713.9611455520003,N,13701.567086162,E,4,13,0.95,92.39299999999999,M,37.564,M,123.7,3006*50,37.23268575920001,137.02611810270002,679735.3248761867,4122608.7470354475
661,[2021-02-22 16:50:01.377] $GNGGA,75000.8,3713.9611456559996,N,13701.567086758001,E,4,13,0.95,92.38799999999999,M,37.564,M,123.8,3006*52,37.23268576093333,137.02611811263336,679735.3257533469,4122608.747246634
662,[2021-02-22 16:50:01.470] $GNGGA,75000.9,3713.9611463270003,N,13701.567085813998,E,4,13,0.95,92.38799999999999,M,37.564,M,123.9,3006*56,37.23268577211667,137.02611809689995,679735.3243309301,4122608.7484576185
663,[2021-02-22 16:50:01.595] $GNGGA,75001.0,3713.96114645,N,13701.567085486999,E,4,13,0.95,92.38799999999999,M,37.564,M,124.0,3006*51,37.23268577416667,137.02611809145,679735.3238425467,4122608.7486747284
664,[2021-02-22 16:50:01.674] $GNGGA,75001.1,3713.961146089,N,13701.567086051002,E,4,13,0.95,92.39,M,37.564,M,124.1,3006*54,37.232685768150006,137.02611810085006,679735.3246908027,4122608.7480249936
665,[2021-02-22 16:50:01.767] $GNGGA,75001.2,3713.961146413,N,13701.567084793998,E,4,13,0.95,92.387,M,37.564,M,124.2,3006*59,37.232685773549996,137.0261180799,679735.3228193028,4122608.74858437
666,[2021-02-22 16:50:01.877] $GNGGA,75001.3,3713.961146576,N,13701.567084809,E,4,13,0.95,92.39299999999999,M,37.564,M,124.3,3006*55,37.23268577626666,137.02611808014998,679735.322835032,4122608.748886278
667,[2021-02-22 16:50:01.986] $GNGGA,75001.4,3713.96114586,N,13701.567084818998,E,4,13,0.95,92.391,M,37.564,M,124.4,3006*5F,37.23268576433333,137.02611808031665,679735.32287816,4122608.747562514
668,[2021-02-22 16:50:02.064] $GNGGA,75001.5,3713.961146195,N,13701.567084379,E,4,13,0.95,92.391,M,37.564,M,124.5,3006*52,37.232685769916664,137.0261180729833,679735.3222142913,4122608.7481680945
669,[2021-02-22 16:50:02.174] $GNGGA,75001.6,3713.9611461570003,N,13701.567084843,E,4,13,0.95,92.395,M,37.564,M,124.6,3006*5A,37.23268576928334,137.02611808071669,679735.3229018946,4122608.74811251
670,[2021-02-22 16:50:02.267] $GNGGA,75001.7,3713.9611463779997,N,13701.567085505,E,4,13,0.95,92.397,M,37.564,M,124.7,3006*59,37.23268577296667,137.02611809175,679735.3238720116,4122608.74854215
671,[2021-02-22 16:50:02.392] $GNGGA,75001.8,3713.961146838,N,13701.567084936001,E,4,13,0.95,92.39399999999999,M,37.564,M,124.8,3006*58,37.232685780633325,137.0261180822667,679735.3230124527,4122608.749374805
672,[2021-02-22 16:50:02.470] $GNGGA,75001.9,3713.96114587,N,13701.567083898999,E,4,13,0.95,92.395,M,37.564,M,124.9,3006*55,37.232685764500005,137.0261180649833,679735.3215174016,4122608.7475518896
673,[2021-02-22 16:50:02.580] $GNGGA,75002.0,3713.9611460809997,N,13701.567083713999,E,4,13,0.95,92.398,M,37.564,M,125.0,3006*55,37.23268576801666,137.02611806189998,679735.3212354986,4122608.747936229
674,[2021-02-22 16:50:02.673] $GNGGA,75002.1,3713.961146328,N,13701.567082966001,E,4,13,0.95,92.397,M,37.564,M,125.1,3006*50,37.23268577213333,137.02611804943336,679735.3201196943,4122608.748369325
675,[2021-02-22 16:50:02.798] $GNGGA,75002.2,3713.9611447290004,N,13701.567081669,E,4,13,0.95,92.4,M,37.564,M,125.2,3006*5D,37.23268574548334,137.02611802781666,679735.3182651724,4122608.7453712868
676,[2021-02-22 16:50:02.877] $GNGGA,75002.3,3713.961144114,N,13701.567082098001,E,4,13,0.95,92.399,M,37.564,M,125.3,3006*59,37.23268573523333,137.0261180349667,679735.3189238602,4122608.7442475613
677,[2021-02-22 16:50:02.970] $GNGGA,75002.4,3713.961145402,N,13701.56708366,E,4,13,0.95,92.40100000000001,M,37.564,M,125.4,3006*5C,37.2326857567,137.026118061,679735.3211825315,4122608.746678865
678,[2021-02-22 16:50:03.080] $GNGGA,75002.5,3713.96114461,N,13701.567084385,E,4,13,0.95,92.40299999999999,M,37.564,M,125.5,3006*57,37.2326857435,137.02611807308332,679735.3222859057,4122608.7452371875
679,[2021-02-22 16:50:03.189] $GNGGA,75002.6,3713.9611452470003,N,13701.56708454,E,4,13,0.95,92.40299999999999,M,37.564,M,125.6,3006*5F,37.23268575411668,137.02611807566666,679735.3224898811,4122608.7464200817
680,[2021-02-22 16:50:03.267] $GNGGA,75002.7,3713.9611454309997,N,13701.567086251001,E,4,13,0.95,92.404,M,37.564,M,125.7,3006*5A,37.23268575718333,137.02611810418335,679735.3250125765,4122608.746814501
681,[2021-02-22 16:50:03.377] $GNGGA,75002.8,3713.961145787,N,13701.567086574,E,4,13,0.95,92.404,M,37.564,M,125.8,3006*54,37.23268576311667,137.02611810956665,679735.325476087,4122608.7474830663
682,[2021-02-22 16:50:03.470] $GNGGA,75002.9,3713.9611453740004,N,13701.56708773,E,4,13,0.95,92.404,M,37.564,M,125.9,3006*5F,37.23268575623334,137.02611812883336,679735.327201762,4122608.7467559045
683,[2021-02-22 16:50:03.580] $GNGGA,75003.0,3713.9611453420002,N,13701.567088483998,E,4,13,0.95,92.404,M,37.564,M,126.0,3006*5B,37.232685755700004,137.02611814139996,679735.3283179274,4122608.746720591
684,[2021-02-22 16:50:03.689] $GNGGA,75003.1,3713.9611463829997,N,13701.567088693,E,4,13,0.95,92.406,M,37.564,M,126.1,3006*53,37.23268577304999,137.02611814488333,679735.32858576,4122608.7486522975
685,[2021-02-22 16:50:03.767] $GNGGA,75003.2,3713.96114655,N,13701.567089111999,E,4,13,0.95,92.405,M,37.564,M,126.2,3006*57,37.23268577583334,137.02611815186663,679735.3291987024,4122608.74897439
686,[2021-02-22 16:50:03.876] $GNGGA,75003.3,3713.961146278,N,13701.567089188999,E,4,13,0.95,92.405,M,37.564,M,126.3,3006*58,37.23268577129999,137.02611815314998,679735.3293233284,4122608.748473824
687,[2021-02-22 16:50:03.970] $GNGGA,75003.4,3713.961145855,N,13701.567089846001,E,4,13,0.95,92.40299999999999,M,37.564,M,126.4,3006*52,37.23268576425,137.0261181641,679735.3303115511,4122608.7477123765
688,[2021-02-22 16:50:04.080] $GNGGA,75003.5,3713.96114567,N,13701.56708971,E,4,13,0.95,92.402,M,37.564,M,126.5,3006*56,37.23268576116667,137.02611816183332,679735.3301177751,4122608.7473659576
689,[2021-02-22 16:50:04.189] $GNGGA,75003.6,3713.9611457759997,N,13701.567090305,E,4,13,0.95,92.405,M,37.564,M,126.6,3006*5E,37.23268576293333,137.02611817175,679735.3309933777,4122608.747580811
690,[2021-02-22 16:50:04.267] $GNGGA,75003.7,3713.9611466320002,N,13701.567090096001,E,4,13,0.95,92.40299999999999,M,37.564,M,126.7,3006*53,37.23268577720001,137.02611816826666,679735.3306504543,4122608.749157175
691,[2021-02-22 16:50:04.376] $GNGGA,75003.8,3713.9611467809996,N,13701.56708939,E,4,13,0.95,92.406,M,37.564,M,126.8,3006*52,37.23268577968333,137.0261181565,679735.3296006282,4122608.7494103704
692,[2021-02-22 16:50:04.470] $GNGGA,75003.9,3713.961146549,N,13701.567088738,E,4,13,0.95,92.405,M,37.564,M,126.9,3006*50,37.23268577581666,137.02611814563332,679735.3286457283,4122608.7489607027
693,[2021-02-22 16:50:04.580] $GNGGA,75004.0,3713.961146608,N,13701.567086602,E,4,13,0.95,92.40799999999999,M,37.564,M,127.0,3006*5B,37.2326857768,137.02611811003334,679735.3254849918,4122608.749002203
694,[2021-02-22 16:50:04.689] $GNGGA,75004.1,3713.9611466990004,N,13701.567085121002,E,4,13,0.95,92.40899999999999,M,37.564,M,127.1,3006*57,37.23268577831667,137.02611808535002,679735.3232915055,4122608.7491236134
695,[2021-02-22 16:50:04.767] $GNGGA,75004.2,3713.9611460779997,N,13701.567084449,E,4,13,0.95,92.411,M,37.564,M,127.2,3006*5D,37.23268576796666,137.02611807415,679735.3223224294,4122608.747953945
696,[2021-02-22 16:50:04.876] $GNGGA,75004.3,3713.961144983,N,13701.567084903001,E,4,13,0.95,92.414,M,37.564,M,127.3,3006*54,37.232685749716666,137.0261180817167,679735.323037087,4122608.7459433605
697,[2021-02-22 16:50:04.970] $GNGGA,75004.4,3713.9611443870003,N,13701.567085196,E,4,13,0.95,92.412,M,37.564,M,127.4,3006*59,37.232685739783335,137.0261180866,679735.3234939212,4122608.744850469
698,[2021-02-22 16:50:05.080] $GNGGA,75004.5,3713.961143746,N,13701.567085315,E,4,13,0.95,92.413,M,37.564,M,127.5,3006*5F,37.2326857291,137.02611808858333,679735.3236952529,4122608.7436688505
699,[2021-02-22 16:50:05.189] $GNGGA,75004.6,3713.9611438290003,N,13701.567084651,E,4,13,0.95,92.412,M,37.564,M,127.6,3006*5C,37.23268573048334,137.02611807751668,679735.3227101429,4122608.7438013256
700,[2021-02-22 16:50:05.267] $GNGGA,75004.7,3713.961143555,N,13701.56708448,E,4,13,0.95,92.412,M,37.564,M,127.7,3006*54,37.23268572591667,137.0261180746667,679735.322468141,4122608.7432892113
701,[2021-02-22 16:50:05.376] $GNGGA,75004.8,3713.96114341,N,13701.567084066,E,4,13,0.95,92.414,M,37.564,M,127.8,3006*5E,37.232685723500005,137.02611806776665,679735.321861714,4122608.743007963
702,[2021-02-22 16:50:05.470] $GNGGA,75004.9,3713.9611427520003,N,13701.567084547,E,4,13,0.95,92.414,M,37.564,M,127.9,3006*5C,37.23268571253334,137.02611807578333,679735.3225989933,4122608.741806368
703,[2021-02-22 16:50:05.580] $GNGGA,75005.0,3713.961141932,N,13701.567083638998,E,4,13,0.95,92.416,M,37.564,M,128.0,3006*56,37.23268569886666,137.02611806064996,679735.3212888327,4122608.7402612227
704,[2021-02-22 16:50:05.689] $GNGGA,75005.1,3713.9611422840003,N,13701.567084498001,E,4,13,0.95,92.414,M,37.564,M,128.1,3006*5F,37.23268570473334,137.0261180749667,679735.322545067,4122608.7409393564
705,[2021-02-22 16:50:05.767] $GNGGA,75005.2,3713.9611429879997,N,13701.567085196,E,4,13,0.95,92.412,M,37.564,M,128.2,3006*54,37.23268571646666,137.0261180866,679735.3235492992,4122608.7422633357
706,[2021-02-22 16:50:05.876] $GNGGA,75005.3,3713.961143504,N,13701.567085532,E,4,13,0.95,92.41,M,37.564,M,128.3,3006*55,37.23268572506667,137.0261180922,679735.3240257005,4122608.743228196
707,[2021-02-22 16:50:05.970] $GNGGA,75005.4,3713.961143997,N,13701.567086853998,E,4,13,0.95,92.413,M,37.564,M,128.4,3006*5E,37.232685733283326,137.0261181142333,679735.3259609627,4122608.744181728
708,[2021-02-22 16:50:06.079] $GNGGA,75005.5,3713.961144173,N,13701.567086101999,E,4,13,0.95,92.413,M,37.564,M,128.5,3006*51,37.23268573621666,137.0261181017,679735.3248420523,4122608.7444834
709,[2021-02-22 16:50:06.189] $GNGGA,75005.6,3713.9611444079997,N,13701.567085096001,E,4,13,0.95,92.414,M,37.564,M,128.6,3006*50,37.23268574013333,137.02611808493336,679735.3233452273,4122608.744886138
710,[2021-02-22 16:50:06.267] $GNGGA,75005.7,3713.9611443090002,N,13701.567084923001,E,4,13,0.95,92.414,M,37.564,M,128.7,3006*50,37.23268573848334,137.02611808205003,679735.3230933386,4122608.7446975857
711,[2021-02-22 16:50:06.376] $GNGGA,75005.8,3713.961144073,N,13701.567085906001,E,4,13,0.95,92.413,M,37.564,M,128.8,3006*5F,37.23268573455,137.02611809843336,679735.3245561952,4122608.74429227
712,[2021-02-22 16:50:06.470] $GNGGA,75005.9,3713.961144506,N,13701.567086677,E,4,13,0.95,92.413,M,37.564,M,128.9,3006*52,37.232685741766666,137.02611811128332,679735.3256790949,4122608.745117407
713,[2021-02-22 16:50:06.595] $GNGGA,75006.0,3713.9611446390004,N,13701.5670867,E,4,13,0.95,92.413,M,37.564,M,129.0,3006*5E,37.232685743983346,137.02611811166668,679735.3257078403,4122608.7453640895
714,[2021-02-22 16:50:06.673] $GNGGA,75006.1,3713.961145089,N,13701.567086957,E,4,13,0.95,92.413,M,37.564,M,129.1,3006*5E,37.23268575148334,137.02611811595003,679735.3260700444,4122608.7462043944
715,[2021-02-22 16:50:06.767] $GNGGA,75006.2,3713.961144723,N,13701.567087255,E,4,13,0.95,92.414,M,37.564,M,129.2,3006*57,37.232685745383336,137.02611812091666,679735.3265251673,4122608.7455369937
716,[2021-02-22 16:50:06.876] $GNGGA,75006.3,3713.961145562,N,13701.567087223,E,4,13,0.95,92.413,M,37.564,M,129.3,3006*57,37.23268575936667,137.02611812038333,679735.3264446388,4122608.747087519
717,[2021-02-22 16:50:06.986] $GNGGA,75006.4,3713.961145493,N,13701.567086985,E,4,13,0.95,92.416,M,37.564,M,129.4,3006*5B,37.23268575821666,137.02611811641665,679735.3260954511,4122608.746952387
718,[2021-02-22 16:50:07.064] $GNGGA,75006.5,3713.961145761,N,13701.567086881001,E,4,13,0.95,92.412,M,37.564,M,129.5,3006*54,37.23268576268334,137.02611811468336,679735.3259310656,4122608.747444702
719,[2021-02-22 16:50:07.173] $GNGGA,75006.6,3713.961145366,N,13701.567086813,E,4,13,0.95,92.411,M,37.564,M,129.6,3006*5F,37.232685756100004,137.02611811355,679735.3258461517,4122608.7467120863
720,[2021-02-22 16:50:07.267] $GNGGA,75006.7,3713.961145139,N,13701.567087515,E,4,13,0.95,92.412,M,37.564,M,129.7,3006*5E,37.23268575231667,137.02611812525004,679735.3268931531,4122608.74631452
721,[2021-02-22 16:50:07.392] $GNGGA,75006.8,3713.961145132,N,13701.567088288999,E,4,13,0.95,92.40899999999999,M,37.564,M,129.8,3006*52,37.2326857522,137.02611813815,679735.3280379055,4122608.746326072
722,[2021-02-22 16:50:07.470] $GNGGA,75006.9,3713.96114476,N,13701.567087436999,E,4,13,0.95,92.40899999999999,M,37.564,M,129.9,3006*5E,37.23268574600001,137.02611812394997,679735.3267928154,4122608.7456111773
723,[2021-02-22 16:50:07.579] $GNGGA,75007.0,3713.961144688,N,13701.567087035,E,4,13,0.95,92.40700000000001,M,37.564,M,130.0,3006*58,37.232685744799994,137.02611811724998,679735.3262012466,4122608.7454653033
724,[2021-02-22 16:50:07.673] $GNGGA,75007.1,3713.961145147,N,13701.567086252,E,4,13,0.95,92.41,M,37.564,M,130.1,3006*59,37.23268575245,137.0261181042,679735.3250252947,4122608.7462893403
725,[2021-02-22 16:50:07.798] $GNGGA,75007.2,3713.961144095,N,13701.56708651,E,4,13,0.95,92.40899999999999,M,37.564,M,130.2,3006*5F,37.232685734916664,137.0261181085,679735.325448428,4122608.744352069
726,[2021-02-22 16:50:07.876] $GNGGA,75007.3,3713.961143795,N,13701.567086,E,4,13,0.95,92.40899999999999,M,37.564,M,130.3,3006*5B,37.23268572991667,137.0261181,679735.3247061905,4122608.743781146
727,[2021-02-22 16:50:07.970] $GNGGA,75007.4,3713.961143953,N,13701.567085309,E,4,13,0.95,92.411,M,37.564,M,130.4,3006*5F,37.23268573255,137.02611808848334,679735.3236781895,4122608.74405146
728,[2021-02-22 16:50:08.079] $GNGGA,75007.5,3713.9611441,N,13701.567085439,E,4,13,0.95,92.40700000000001,M,37.564,M,130.5,3006*55,37.232685735,137.02611809064996,679735.3238645892,4122608.7443274176
729,[2021-02-22 16:50:08.173] $GNGGA,75007.6,3713.961143808,N,13701.567084185,E,4,13,0.95,92.412,M,37.564,M,130.6,3006*54,37.23268573013334,137.02611806975003,679735.3220219245,4122608.7437477414
730,[2021-02-22 16:50:08.298] $GNGGA,75007.7,3713.96114368,N,13701.567083941001,E,4,13,0.95,92.41,M,37.564,M,130.7,3006*5F,37.23268572800001,137.02611806568333,679735.3216661962,4122608.743503312
731,[2021-02-22 16:50:08.376] $GNGGA,75007.8,3713.961144176,N,13701.56708375,E,4,13,0.95,92.412,M,37.564,M,130.8,3006*5A,37.23268573626666,137.02611806250002,679735.3213641427,4122608.7444145046
732,[2021-02-22 16:50:08.470] $GNGGA,75007.9,3713.961145134,N,13701.56708222,E,4,13,0.95,92.413,M,37.564,M,130.9,3006*5F,37.23268575223334,137.026118037,679735.3190638786,4122608.746137683
733,[2021-02-22 16:50:08.579] $GNGGA,75008.0,3713.961146162,N,13701.567081217,E,4,13,0.95,92.413,M,37.564,M,131.0,3006*56,37.23268576936667,137.02611802028332,679735.3175400973,4122608.748006989
734,[2021-02-22 16:50:08.673] $GNGGA,75008.1,3713.9611465690004,N,13701.567080293,E,4,13,0.95,92.411,M,37.564,M,131.1,3006*56,37.23268577615001,137.02611800488333,679735.3161577117,4122608.7487303982
735,[2021-02-22 16:50:08.798] $GNGGA,75008.2,3713.961145067,N,13701.567081976002,E,4,13,0.95,92.413,M,37.564,M,131.2,3006*5D,37.23268575111667,137.02611803293334,679735.3187057402,4122608.7460060576
736,[2021-02-22 16:50:08.876] $GNGGA,75008.3,3713.96114382,N,13701.567083879,E,4,13,0.95,92.412,M,37.564,M,131.3,3006*5D,37.23268573033333,137.02611806464998,679735.3215689766,4122608.7437602463
