,Format,Time,Latitude,LatType,Longitude,LonType,Status,Satellite,LevelAccuracy,Altitude(sea),M(sea),Altitude(geoid),M(geoid),DGPS use,checksum,Lat,Lon,UTM_X,UTM_Y
1088,[2021-02-22 16:50:56.326] $GPGGA,75055.9,3713.9611229999996,N,13701.56708,E,4,13,1.0,92.4394,M,37.55,M,3.0,0000*68,37.23268538333332,137.02611800000003,679735.316657422,4122608.7051356127
1089,[2021-02-22 16:50:56.420] $GPGGA,75056.0,3713.9611229999996,N,13701.56708,E,4,13,1.0,92.4395,M,37.55,M,4.0,0000*61,37.23268538333332,137.02611800000003,679735.316657422,4122608.7051356127
1090,[2021-02-22 16:50:56.498] $GPGGA,75056.1,3713.9611240000004,N,13701.56708,E,4,13,1.0,92.4424,M,37.55,M,4.0,0000*66,37.2326854,137.02611800000003,679735.3166178379,4122608.706984888
1091,[2021-02-22 16:50:56.607] $GPGGA,75056.2,3713.9611240000004,N,13701.56708,E,4,13,1.0,92.441,M,37.55,M,4.0,0000*61,37.2326854,137.02611800000003,679735.3166178379,4122608.706984888
1092,[2021-02-22 16:50:56.717] $GPGGA,75056.3,3713.9611240000004,N,13701.56708,E,4,13,1.0,92.4409,M,37.55,M,4.0,0000*67,37.2326854,137.02611800000003,679735.3166178379,4122608.706984888
1093,[2021-02-22 16:50:56.810] $GPGGA,75056.4,3713.9611240000004,N,13701.56708,E,4,13,1.0,92.4413,M,37.55,M,4.0,0000*64,37.2326854,137.02611800000003,679735.3166178379,4122608.706984888
1094,[2021-02-22 16:50:56.920] $GPGGA,75056.5,3713.9611229999996,N,13701.56708,E,4,13,1.0,92.4415,M,37.55,M,4.0,0000*67,37.23268538333332,137.02611800000003,679735.316657422,4122608.7051356127
1095,[2021-02-22 16:50:56.998] $GPGGA,75056.6,3713.9611240000004,N,13701.56708,E,4,13,1.0,92.4407,M,37.55,M,4.0,0000*67,37.2326854,137.02611800000003,679735.3166178379,4122608.706984888
1096,[2021-02-22 16:50:57.123] $GPGGA,75056.7,3713.9611229999996,N,13701.56708,E,4,13,1.0,92.4395,M,37.55,M,4.0,0000*6D,37.23268538333332,137.02611800000003,679735.316657422,4122608.7051356127
1097,[2021-02-22 16:50:57.201] $GPGGA,75056.8,3713.9611229999996,N,13701.56708,E,4,13,1.0,92.4382,M,37.55,M,4.0,0000*67,37.23268538333332,137.02611800000003,679735.316657422,4122608.7051356127
1098,[2021-02-22 16:50:57.326] $GPGGA,75056.9,3713.9611229999996,N,13701.56708,E,4,13,1.0,92.4386,M,37.55,M,4.0,0000*60,37.23268538333332,137.02611800000003,679735.316657422,4122608.7051356127
1099,[2021-02-22 16:50:57.404] $GPGGA,75057.0,3713.9611229999996,N,13701.56708,E,4,13,1.0,92.4376,M,37.55,M,5.0,0000*65,37.23268538333332,137.02611800000003,679735.316657422,4122608.7051356127
1100,[2021-02-22 16:50:57.498] $GPGGA,75057.1,3713.9611229999996,N,13701.56708,E,4,13,1.0,92.4375,M,37.55,M,5.0,0000*69,37.23268538333332,137.02611800000003,679735.316657422,4122608.7051356127
1101,[2021-02-22 16:50:57.623] $GPGGA,75057.2,3713.9611270000005,N,13701.56708,E,4,13,1.0,92.445,M,37.55,M,5.0,0000*6C,37.232685450000005,137.02611800000003,679735.316499086,4122608.7125327066
1102,[2021-02-22 16:50:57.717] $GPGGA,75057.3,3713.961129,N,13701.56707,E,4,13,1.0,92.4499,M,37.55,M,5.0,0000*6B,37.23268548333333,137.0261178333333,679735.3016333808,4122608.7159147416
1103,[2021-02-22 16:50:57.826] $GPGGA,75057.4,3713.961129,N,13701.56707,E,4,13,1.0,92.454,M,37.55,M,5.0,0000*62,37.23268548333333,137.0261178333333,679735.3016333808,4122608.7159147416
1104,[2021-02-22 16:50:57.904] $GPGGA,75057.5,3713.961128,N,13701.56707,E,4,13,1.0,92.4572,M,37.55,M,5.0,0000*6C,37.23268546666666,137.0261178333333,679735.3016729648,4122608.7140654693
1105,[2021-02-22 16:50:58.029] $GPGGA,75057.6,3713.961128,N,13701.56707,E,4,13,1.0,92.4601,M,37.55,M,5.0,0000*67,37.23268546666666,137.0261178333333,679735.3016729648,4122608.7140654693
1106,[2021-02-22 16:50:58.107] $GPGGA,75057.7,3713.961128,N,13701.56707,E,4,13,1.0,92.461,M,37.55,M,5.0,0000*64,37.23268546666666,137.0261178333333,679735.3016729648,4122608.7140654693
1107,[2021-02-22 16:50:58.216] $GPGGA,75057.8,3713.961128,N,13701.56707,E,4,13,1.0,92.4601,M,37.55,M,5.0,0000*6C,37.23268546666666,137.0261178333333,679735.3016729648,4122608.7140654693
1108,[2021-02-22 16:50:58.310] $GPGGA,75057.9,3713.961128,N,13701.56707,E,4,13,1.0,92.4609,M,37.55,M,5.0,0000*64,37.23268546666666,137.0261178333333,679735.3016729648,4122608.7140654693
1109,[2021-02-22 16:50:58.420] $GPGGA,75058.0,3713.961128,N,13701.56707,E,4,13,1.0,92.4599,M,37.55,M,6.0,0000*64,37.23268546666666,137.0261178333333,679735.3016729648,4122608.7140654693
1110,[2021-02-22 16:50:58.513] $GPGGA,75058.1,3713.961128,N,13701.56707,E,4,13,1.0,92.4587,M,37.55,M,6.0,0000*68,37.23268546666666,137.0261178333333,679735.3016729648,4122608.7140654693
1111,[2021-02-22 16:50:58.623] $GPGGA,75058.2,3713.961129,N,13701.56707,E,4,13,1.0,92.4593,M,37.55,M,1.0,0000*63,37.23268548333333,137.0261178333333,679735.3016333808,4122608.7159147416
1112,[2021-02-22 16:50:58.701] $GPGGA,75058.3,3713.9611299999997,N,13701.56707,E,4,13,1.0,92.4606,M,37.55,M,1.0,0000*62,37.232685499999995,137.0261178333333,679735.3015937969,4122608.7177640144
1113,[2021-02-22 16:50:58.826] $GPGGA,75058.4,3713.961131,N,13701.56707,E,4,13,1.0,92.4617,M,37.55,M,1.0,0000*64,37.23268551666666,137.0261178333333,679735.3015542129,4122608.7196132885
1114,[2021-02-22 16:50:58.904] $GPGGA,75058.5,3713.9611299999997,N,13701.56707,E,4,13,1.0,92.4593,M,37.55,M,1.0,0000*6D,37.232685499999995,137.0261178333333,679735.3015937969,4122608.7177640144
1115,[2021-02-22 16:50:59.029] $GPGGA,75058.6,3713.9611299999997,N,13701.56707,E,4,13,1.0,92.4585,M,37.55,M,1.0,0000*6B,37.232685499999995,137.0261178333333,679735.3015937969,4122608.7177640144
1116,[2021-02-22 16:50:59.107] $GPGGA,75058.7,3713.9611299999997,N,13701.56707,E,4,13,1.0,92.4572,M,37.55,M,1.0,0000*66,37.232685499999995,137.0261178333333,679735.3015937969,4122608.7177640144
1117,[2021-02-22 16:50:59.216] $GPGGA,75058.8,3713.9611299999997,N,13701.56707,E,4,13,1.0,92.4577,M,37.55,M,1.0,0000*6B,37.232685499999995,137.0261178333333,679735.3015937969,4122608.7177640144
1118,[2021-02-22 16:50:59.310] $GPGGA,75058.9,3713.9611299999997,N,13701.56707,E,4,13,1.0,92.4569,M,37.55,M,1.0,0000*67,37.232685499999995,137.0261178333333,679735.3015937969,4122608.7177640144
1119,[2021-02-22 16:50:59.420] $GPGGA,75059.0,3713.9611299999997,N,13701.56707,E,4,13,1.0,92.4557,M,37.55,M,2.0,0000*60,37.232685499999995,137.0261178333333,679735.3015937969,4122608.7177640144
1120,[2021-02-22 16:50:59.513] $GPGGA,75059.1,3713.9611299999997,N,13701.56707,E,4,13,1.0,92.4559,M,37.55,M,2.0,0000*6D,37.232685499999995,137.0261178333333,679735.3015937969,4122608.7177640144
1121,[2021-02-22 16:50:59.623] $GPGGA,75059.2,3713.9611299999997,N,13701.56707,E,4,13,1.0,92.456,M,37.55,M,2.0,0000*6E,37.232685499999995,137.0261178333333,679735.3015937969,4122608.7177640144
1122,[2021-02-22 16:50:59.732] $GPGGA,75059.3,3713.9611299999997,N,13701.56707,E,4,13,1.0,92.4556,M,37.55,M,2.0,0000*6E,37.232685499999995,137.0261178333333,679735.3015937969,4122608.7177640144
1123,[2021-02-22 16:50:59.810] $GPGGA,75059.4,3713.961129,N,13701.56707,E,4,13,1.0,92.4539,M,37.55,M,2.0,0000*67,37.23268548333333,137.0261178333333,679735.3016333808,4122608.7159147416
1124,[2021-02-22 16:50:59.919] $GPGGA,75059.5,3713.961128,N,13701.56707,E,4,13,1.0,92.45200000000001,M,37.55,M,2.0,0000*65,37.23268546666666,137.0261178333333,679735.3016729648,4122608.7140654693
1125,[2021-02-22 16:50:59.998] $GPGGA,75059.6,3713.961129,N,13701.56707,E,4,13,1.0,92.4522,M,37.55,M,2.0,0000*61,37.23268548333333,137.0261178333333,679735.3016333808,4122608.7159147416
1126,[2021-02-22 16:51:00.123] $GPGGA,75059.7,3713.961129,N,13701.56708,E,4,13,1.0,92.4537,M,37.55,M,2.0,0000*6B,37.23268548333333,137.02611800000003,679735.3164199181,4122608.716231251
1127,[2021-02-22 16:51:00.201] $GPGGA,75059.8,3713.9611299999997,N,13701.56707,E,4,13,1.0,92.4531,M,37.55,M,2.0,0000*63,37.232685499999995,137.0261178333333,679735.3015937969,4122608.7177640144
1128,[2021-02-22 16:51:00.326] $GPGGA,75059.9,3713.9611299999997,N,13701.56708,E,4,13,1.0,92.454,M,37.55,M,2.0,0000*65,37.232685499999995,137.02611800000003,679735.3163803341,4122608.718080522
1129,[2021-02-22 16:51:00.404] $GPGGA,75100.0,3713.9611299999997,N,13701.56708,E,4,13,1.0,92.4554,M,37.55,M,3.0,0000*69,37.232685499999995,137.02611800000003,679735.3163803341,4122608.718080522
1130,[2021-02-22 16:51:00.513] $GPGGA,75100.1,3713.9611299999997,N,13701.56708,E,4,13,1.0,92.4567,M,37.55,M,3.0,0000*6A,37.232685499999995,137.02611800000003,679735.3163803341,4122608.718080522
1131,[2021-02-22 16:51:00.623] $GPGGA,75100.2,3713.961129,N,13701.56708,E,4,13,1.0,92.4586,M,37.55,M,3.0,0000*61,37.23268548333333,137.02611800000003,679735.3164199181,4122608.716231251
1132,[2021-02-22 16:51:00.716] $GPGGA,75100.3,3713.9611299999997,N,13701.56708,E,4,13,1.0,92.4613,M,37.55,M,3.0,0000*66,37.232685499999995,137.02611800000003,679735.3163803341,4122608.718080522
1133,[2021-02-22 16:51:00.810] $GPGGA,75100.4,3713.961129,N,13701.56707,E,4,13,1.0,92.4618,M,37.55,M,3.0,0000*63,37.23268548333333,137.0261178333333,679735.3016333808,4122608.7159147416
1134,[2021-02-22 16:51:00.919] $GPGGA,75100.5,3713.961129,N,13701.56707,E,4,13,1.0,92.4623,M,37.55,M,3.0,0000*63,37.23268548333333,137.0261178333333,679735.3016333808,4122608.7159147416
1135,[2021-02-22 16:51:00.997] $GPGGA,75100.6,3713.9611299999997,N,13701.56708,E,4,13,1.0,92.4625,M,37.55,M,3.0,0000*64,37.232685499999995,137.02611800000003,679735.3163803341,4122608.718080522
1136,[2021-02-22 16:51:01.123] $GPGGA,75100.7,3713.9611299999997,N,13701.56708,E,4,13,1.0,92.4605,M,37.55,M,3.0,0000*6B,37.232685499999995,137.02611800000003,679735.3163803341,4122608.718080522
1137,[2021-02-22 16:51:01.201] $GPGGA,75100.8,3713.9611299999997,N,13701.56708,E,4,13,1.0,92.4619,M,37.55,M,3.0,0000*6C,37.232685499999995,137.02611800000003,679735.3163803341,4122608.718080522
1138,[2021-02-22 16:51:01.326] $GPGGA,75100.9,3713.9611299999997,N,13701.56707,E,4,13,1.0,92.4617,M,37.55,M,3.0,0000*6B,37.232685499999995,137.0261178333333,679735.3015937969,4122608.7177640144
1139,[2021-02-22 16:51:01.435] $GPGGA,75101.0,3713.9611299999997,N,13701.56707,E,4,13,1.0,92.461,M,37.55,M,4.0,0000*6D,37.232685499999995,137.0261178333333,679735.3015937969,4122608.7177640144
1140,[2021-02-22 16:51:01.529] $GPGGA,75101.1,3713.9611299999997,N,13701.56707,E,4,13,1.0,92.4606,M,37.55,M,4.0,0000*6F,37.232685499999995,137.0261178333333,679735.3015937969,4122608.7177640144
1141,[2021-02-22 16:51:01.623] $GPGGA,75101.2,3713.9611299999997,N,13701.56707,E,4,13,1.0,92.4602,M,37.55,M,4.0,0000*68,37.232685499999995,137.0261178333333,679735.3015937969,4122608.7177640144
1142,[2021-02-22 16:51:01.701] $GPGGA,75101.3,3713.9611299999997,N,13701.56707,E,4,13,1.0,92.4597,M,37.55,M,4.0,0000*60,37.232685499999995,137.0261178333333,679735.3015937969,4122608.7177640144
1143,[2021-02-22 16:51:01.826] $GPGGA,75101.4,3713.9611299999997,N,13701.56707,E,4,13,1.0,92.4589,M,37.55,M,4.0,0000*60,37.232685499999995,137.0261178333333,679735.3015937969,4122608.7177640144
1144,[2021-02-22 16:51:01.904] $GPGGA,75101.5,3713.961131,N,13701.56707,E,4,13,1.0,92.4593,M,37.55,M,4.0,0000*66,37.23268551666666,137.0261178333333,679735.3015542129,4122608.7196132885
1145,[2021-02-22 16:51:02.029] $GPGGA,75101.6,3713.961131,N,13701.56707,E,4,13,1.0,92.4589,M,37.55,M,4.0,0000*6F,37.23268551666666,137.0261178333333,679735.3015542129,4122608.7196132885
1146,[2021-02-22 16:51:02.107] $GPGGA,75101.7,3713.961131,N,13701.56707,E,4,13,1.0,92.4595,M,37.55,M,4.0,0000*67,37.23268551666666,137.0261178333333,679735.3015542129,4122608.7196132885
1147,[2021-02-22 16:51:02.232] $GPGGA,75101.8,3713.961131,N,13701.56707,E,4,13,1.0,92.4591,M,37.55,M,4.0,0000*65,37.23268551666666,137.0261178333333,679735.3015542129,4122608.7196132885
1148,[2021-02-22 16:51:02.310] $GPGGA,75101.9,3713.9611299999997,N,13701.56708,E,4,13,1.0,92.4597,M,37.55,M,4.0,0000*6B,37.232685499999995,137.02611800000003,679735.3163803341,4122608.718080522
1149,[2021-02-22 16:51:02.419] $GPGGA,75102.0,3713.9611299999997,N,13701.56708,E,4,13,1.0,92.4592,M,37.55,M,5.0,0000*60,37.232685499999995,137.02611800000003,679735.3163803341,4122608.718080522
1150,[2021-02-22 16:51:02.513] $GPGGA,75102.1,3713.961131,N,13701.56708,E,4,13,1.0,92.4596,M,37.55,M,5.0,0000*6F,37.23268551666666,137.02611800000003,679735.3163407501,4122608.7199297966
1151,[2021-02-22 16:51:02.622] $GPGGA,75102.2,3713.961131,N,13701.56708,E,4,13,1.0,92.4584,M,37.55,M,5.0,0000*69,37.23268551666666,137.02611800000003,679735.3163407501,4122608.7199297966
1152,[2021-02-22 16:51:02.700] $GPGGA,75102.3,3713.961131,N,13701.56708,E,4,13,1.0,92.4588,M,37.55,M,5.0,0000*65,37.23268551666666,137.02611800000003,679735.3163407501,4122608.7199297966
1153,[2021-02-22 16:51:02.826] $GPGGA,75102.4,3713.961132,N,13701.56708,E,4,13,1.0,92.4581,M,37.55,M,5.0,0000*64,37.23268553333333,137.02611800000003,679735.3163011662,4122608.7217790685
1154,[2021-02-22 16:51:02.904] $GPGGA,75102.5,3713.961131,N,13701.56708,E,4,13,1.0,92.4582,M,37.55,M,5.0,0000*6C,37.23268551666666,137.02611800000003,679735.3163407501,4122608.7199297966
1155,[2021-02-22 16:51:03.029] $GPGGA,75102.6,3713.961132,N,13701.56708,E,4,13,1.0,92.4588,M,37.55,M,5.0,0000*69,37.23268553333333,137.02611800000003,679735.3163011662,4122608.7217790685
1156,[2021-02-22 16:51:03.122] $GPGGA,75102.7,3713.961131,N,13701.56708,E,4,13,1.0,92.4574,M,37.55,M,5.0,0000*6B,37.23268551666666,137.02611800000003,679735.3163407501,4122608.7199297966
1157,[2021-02-22 16:51:03.200] $GPGGA,75102.8,3713.961131,N,13701.56708,E,4,13,1.0,92.4578,M,37.55,M,5.0,0000*67,37.23268551666666,137.02611800000003,679735.3163407501,4122608.7199297966
1158,[2021-02-22 16:51:03.326] $GPGGA,75102.9,3713.961131,N,13701.56708,E,4,13,1.0,92.4581,M,37.55,M,5.0,0000*6D,37.23268551666666,137.02611800000003,679735.3163407501,4122608.7199297966
1159,[2021-02-22 16:51:03.404] $GPGGA,75103.0,3713.961131,N,13701.56708,E,4,13,1.0,92.4559,M,37.55,M,6.0,0000*6C,37.23268551666666,137.02611800000003,679735.3163407501,4122608.7199297966
1160,[2021-02-22 16:51:03.513] $GPGGA,75103.1,3713.961131,N,13701.56708,E,4,13,1.0,92.4568,M,37.55,M,6.0,0000*6F,37.23268551666666,137.02611800000003,679735.3163407501,4122608.7199297966
1161,[2021-02-22 16:51:03.622] $GPGGA,75103.2,3713.961131,N,13701.56708,E,4,13,1.0,92.4576,M,37.55,M,1.0,0000*63,37.23268551666666,137.02611800000003,679735.3163407501,4122608.7199297966
1162,[2021-02-22 16:51:03.732] $GPGGA,75103.3,3713.961131,N,13701.56707,E,4,13,1.0,92.45700000000001,M,37.55,M,1.0,0000*60,37.23268551666666,137.0261178333333,679735.3015542129,4122608.7196132885
1163,[2021-02-22 16:51:03.810] $GPGGA,75103.4,3713.961131,N,13701.56708,E,4,13,1.0,92.4574,M,37.55,M,1.0,0000*6B,37.23268551666666,137.02611800000003,679735.3163407501,4122608.7199297966
1164,[2021-02-22 16:51:03.919] $GPGGA,75103.5,3713.961132,N,13701.56707,E,4,13,1.0,92.4587,M,37.55,M,1.0,0000*67,37.23268553333333,137.0261178333333,679735.301514629,4122608.7214625604
1165,[2021-02-22 16:51:03.997] $GPGGA,75103.6,3713.961132,N,13701.56707,E,4,13,1.0,92.459,M,37.55,M,1.0,0000*6F,37.23268553333333,137.0261178333333,679735.301514629,4122608.7214625604
1166,[2021-02-22 16:51:04.122] $GPGGA,75103.7,3713.961131,N,13701.56708,E,4,13,1.0,92.4589,M,37.55,M,1.0,0000*6B,37.23268551666666,137.02611800000003,679735.3163407501,4122608.7199297966
1167,[2021-02-22 16:51:04.200] $GPGGA,75103.8,3713.961132,N,13701.56708,E,4,13,1.0,92.4605,M,37.55,M,1.0,0000*61,37.23268553333333,137.02611800000003,679735.3163011662,4122608.7217790685
1168,[2021-02-22 16:51:04.325] $GPGGA,75103.9,3713.961131,N,13701.56708,E,4,13,1.0,92.4612,M,37.55,M,1.0,0000*66,37.23268551666666,137.02611800000003,679735.3163407501,4122608.7199297966
1169,[2021-02-22 16:51:04.404] $GPGGA,75104.0,3713.961131,N,13701.56708,E,4,13,1.0,92.4615,M,37.55,M,2.0,0000*6F,37.23268551666666,137.02611800000003,679735.3163407501,4122608.7199297966
1170,[2021-02-22 16:51:04.497] $GPGGA,75104.1,3713.961131,N,13701.56708,E,4,13,1.0,92.4632,M,37.55,M,2.0,0000*63,37.23268551666666,137.02611800000003,679735.3163407501,4122608.7199297966
1171,[2021-02-22 16:51:04.622] $GPGGA,75104.2,3713.961131,N,13701.56708,E,4,13,1.0,92.4639,M,37.55,M,2.0,0000*65,37.23268551666666,137.02611800000003,679735.3163407501,4122608.7199297966
1172,[2021-02-22 16:51:04.716] $GPGGA,75104.3,3713.961132,N,13701.56708,E,4,13,1.0,92.4634,M,37.55,M,2.0,0000*60,37.23268553333333,137.02611800000003,679735.3163011662,4122608.7217790685
1173,[2021-02-22 16:51:04.825] $GPGGA,75104.4,3713.961132,N,13701.56708,E,4,13,1.0,92.4638,M,37.55,M,2.0,0000*67,37.23268553333333,137.02611800000003,679735.3163011662,4122608.7217790685
1174,[2021-02-22 16:51:04.903] $GPGGA,75104.5,3713.961132,N,13701.56708,E,4,13,1.0,92.4642,M,37.55,M,2.0,0000*6F,37.23268553333333,137.02611800000003,679735.3163011662,4122608.7217790685
1175,[2021-02-22 16:51:05.029] $GPGGA,75104.6,3713.961132,N,13701.56708,E,4,13,1.0,92.4641,M,37.55,M,2.0,0000*6A,37.23268553333333,137.02611800000003,679735.3163011662,4122608.7217790685
1176,[2021-02-22 16:51:05.107] $GPGGA,75104.7,3713.961132,N,13701.56708,E,4,13,1.0,92.4637,M,37.55,M,2.0,0000*6E,37.23268553333333,137.02611800000003,679735.3163011662,4122608.7217790685
1177,[2021-02-22 16:51:05.232] $GPGGA,75104.8,3713.961132,N,13701.56708,E,4,13,1.0,92.4645,M,37.55,M,2.0,0000*61,37.23268553333333,137.02611800000003,679735.3163011662,4122608.7217790685
1178,[2021-02-22 16:51:05.310] $GPGGA,75104.9,3713.961132,N,13701.56708,E,4,13,1.0,92.4627,M,37.55,M,2.0,0000*6B,37.23268553333333,137.02611800000003,679735.3163011662,4122608.7217790685
1179,[2021-02-22 16:51:05.435] $GPGGA,75105.0,3713.961132,N,13701.56708,E,4,13,1.0,92.4613,M,37.55,M,3.0,0000*6E,37.23268553333333,137.02611800000003,679735.3163011662,4122608.7217790685
1180,[2021-02-22 16:51:05.528] $GPGGA,75105.1,3713.961132,N,13701.56708,E,4,13,1.0,92.4607,M,37.55,M,3.0,0000*69,37.23268553333333,137.02611800000003,679735.3163011662,4122608.7217790685
1181,[2021-02-22 16:51:05.622] $GPGGA,75105.2,3713.961133,N,13701.56708,E,4,13,1.0,92.4618,M,37.55,M,3.0,0000*60,37.23268555,137.02611800000003,679735.3162615822,4122608.7236283417
1182,[2021-02-22 16:51:05.700] $GPGGA,75105.3,3713.961132,N,13701.56708,E,4,13,1.0,92.4625,M,37.55,M,3.0,0000*6F,37.23268553333333,137.02611800000003,679735.3163011662,4122608.7217790685
1183,[2021-02-22 16:51:05.825] $GPGGA,75105.4,3713.961132,N,13701.56708,E,4,13,1.0,92.4621,M,37.55,M,3.0,0000*67,37.23268553333333,137.02611800000003,679735.3163011662,4122608.7217790685
1184,[2021-02-22 16:51:05.903] $GPGGA,75105.5,3713.961132,N,13701.56708,E,4,13,1.0,92.4615,M,37.55,M,3.0,0000*63,37.23268553333333,137.02611800000003,679735.3163011662,4122608.7217790685
1185,[2021-02-22 16:51:06.028] $GPGGA,75105.6,3713.961133,N,13701.56708,E,4,13,1.0,92.4647,M,37.55,M,3.0,0000*6D,37.23268555,137.02611800000003,679735.3162615822,4122608.7236283417
1186,[2021-02-22 16:51:06.107] $GPGGA,75105.7,3713.961133,N,13701.56708,E,4,13,1.0,92.4639,M,37.55,M,3.0,0000*61,37.23268555,137.02611800000003,679735.3162615822,4122608.7236283417
1187,[2021-02-22 16:51:06.216] $GPGGA,75105.8,3713.961133,N,13701.56708,E,4,13,1.0,92.4638,M,37.55,M,3.0,0000*6C,37.23268555,137.02611800000003,679735.3162615822,4122608.7236283417
1188,[2021-02-22 16:51:06.310] $GPGGA,75105.9,3713.961132,N,13701.56708,E,4,13,1.0,92.4636,M,37.55,M,3.0,0000*63,37.23268553333333,137.02611800000003,679735.3163011662,4122608.7217790685
1189,[2021-02-22 16:51:06.419] $GPGGA,75106.0,3713.961132,N,13701.56708,E,4,13,1.0,92.4618,M,37.55,M,4.0,0000*60,37.23268553333333,137.02611800000003,679735.3163011662,4122608.7217790685
1190,[2021-02-22 16:51:06.513] $GPGGA,75106.1,3713.961132,N,13701.56708,E,4,13,1.0,92.4639,M,37.55,M,4.0,0000*67,37.23268553333333,137.02611800000003,679735.3163011662,4122608.7217790685
1191,[2021-02-22 16:51:06.622] $GPGGA,75106.2,3713.961133,N,13701.56708,E,4,13,1.0,92.4638,M,37.55,M,4.0,0000*62,37.23268555,137.02611800000003,679735.3162615822,4122608.7236283417
1192,[2021-02-22 16:51:06.732] $GPGGA,75106.3,3713.961132,N,13701.56708,E,4,13,1.0,92.463,M,37.55,M,4.0,0000*6C,37.23268553333333,137.02611800000003,679735.3163011662,4122608.7217790685
1193,[2021-02-22 16:51:06.810] $GPGGA,75106.4,3713.961132,N,13701.56708,E,4,13,1.0,92.4613,M,37.55,M,4.0,0000*68,37.23268553333333,137.02611800000003,679735.3163011662,4122608.7217790685
1194,[2021-02-22 16:51:06.919] $GPGGA,75106.5,3713.961132,N,13701.56708,E,4,13,1.0,92.462,M,37.55,M,4.0,0000*6E,37.23268553333333,137.02611800000003,679735.3163011662,4122608.7217790685
1195,[2021-02-22 16:51:06.997] $GPGGA,75106.6,3713.961132,N,13701.56708,E,4,13,1.0,92.4622,M,37.55,M,4.0,0000*6C,37.23268553333333,137.02611800000003,679735.3163011662,4122608.7217790685
1196,[2021-02-22 16:51:07.122] $GPGGA,75106.7,3713.961133,N,13701.56708,E,4,13,1.0,92.4626,M,37.55,M,4.0,0000*6C,37.23268555,137.02611800000003,679735.3162615822,4122608.7236283417
1197,[2021-02-22 16:51:07.200] $GPGGA,75106.8,3713.961132,N,13701.56708,E,4,13,1.0,92.4644,M,37.55,M,4.0,0000*60,37.23268553333333,137.02611800000003,679735.3163011662,4122608.7217790685
1198,[2021-02-22 16:51:07.325] $GPGGA,75106.9,3713.961133,N,13701.56708,E,4,13,1.0,92.4671,M,37.55,M,4.0,0000*63,37.23268555,137.02611800000003,679735.3162615822,4122608.7236283417
1199,[2021-02-22 16:51:07.403] $GPGGA,75107.0,3713.961132,N,13701.56708,E,4,13,1.0,92.4655,M,37.55,M,5.0,0000*6C,37.23268553333333,137.02611800000003,679735.3163011662,4122608.7217790685
1200,[2021-02-22 16:51:07.513] $GPGGA,75107.1,3713.961132,N,13701.56708,E,4,13,1.0,92.4665,M,37.55,M,5.0,0000*6D,37.23268553333333,137.02611800000003,679735.3163011662,4122608.7217790685
1201,[2021-02-22 16:51:07.606] $GPGGA,75107.2,3713.961132,N,13701.56708,E,4,13,1.0,92.4669,M,37.55,M,5.0,0000*67,37.23268553333333,137.02611800000003,679735.3163011662,4122608.7217790685
1202,[2021-02-22 16:51:07.731] $GPGGA,75107.3,3713.961132,N,13701.56708,E,4,13,1.0,92.4672,M,37.55,M,5.0,0000*60,37.23268553333333,137.02611800000003,679735.3163011662,4122608.7217790685
1203,[2021-02-22 16:51:07.810] $GPGGA,75107.4,3713.961132,N,13701.56708,E,4,13,1.0,92.4687,M,37.55,M,5.0,0000*68,37.23268553333333,137.02611800000003,679735.3163011662,4122608.7217790685
1204,[2021-02-22 16:51:07.919] $GPGGA,75107.5,3713.961132,N,13701.56708,E,4,13,1.0,92.4694,M,37.55,M,5.0,0000*6A,37.23268553333333,137.02611800000003,679735.3163011662,4122608.7217790685
1205,[2021-02-22 16:51:07.997] $GPGGA,75107.6,3713.961131,N,13701.56708,E,4,13,1.0,92.4693,M,37.55,M,5.0,0000*65,37.23268551666666,137.02611800000003,679735.3163407501,4122608.7199297966
1206,[2021-02-22 16:51:08.122] $GPGGA,75107.7,3713.961132,N,13701.56708,E,4,13,1.0,92.4707,M,37.55,M,5.0,0000*63,37.23268553333333,137.02611800000003,679735.3163011662,4122608.7217790685
1207,[2021-02-22 16:51:08.200] $GPGGA,75107.8,3713.961131,N,13701.56708,E,4,13,1.0,92.4715,M,37.55,M,5.0,0000*6F,37.23268551666666,137.02611800000003,679735.3163407501,4122608.7199297966
1208,[2021-02-22 16:51:08.325] $GPGGA,75107.9,3713.961131,N,13701.56708,E,4,13,1.0,92.4711,M,37.55,M,5.0,0000*67,37.23268551666666,137.02611800000003,679735.3163407501,4122608.7199297966
1209,[2021-02-22 16:51:08.435] $GPGGA,75108.0,3713.961131,N,13701.56708,E,4,13,1.0,92.4703,M,37.55,M,6.0,0000*67,37.23268551666666,137.02611800000003,679735.3163407501,4122608.7199297966
1210,[2021-02-22 16:51:08.528] $GPGGA,75108.1,3713.961132,N,13701.56708,E,4,13,1.0,92.4694,M,37.55,M,6.0,0000*6D,37.23268553333333,137.02611800000003,679735.3163011662,4122608.7217790685
1211,[2021-02-22 16:51:08.622] $GPGGA,75108.2,3713.961132,N,13701.56708,E,4,13,1.0,92.4705,M,37.55,M,1.0,0000*60,37.23268553333333,137.02611800000003,679735.3163011662,4122608.7217790685
1212,[2021-02-22 16:51:08.700] $GPGGA,75108.3,3713.961132,N,13701.56708,E,4,13,1.0,92.4716,M,37.55,M,1.0,0000*6E,37.23268553333333,137.02611800000003,679735.3163011662,4122608.7217790685
1213,[2021-02-22 16:51:08.825] $GPGGA,75108.4,3713.961132,N,13701.56708,E,4,13,1.0,92.4711,M,37.55,M,1.0,0000*69,37.23268553333333,137.02611800000003,679735.3163011662,4122608.7217790685
1214,[2021-02-22 16:51:08.903] $GPGGA,75108.5,3713.961132,N,13701.56708,E,4,13,1.0,92.4709,M,37.55,M,1.0,0000*6C,37.23268553333333,137.02611800000003,679735.3163011662,4122608.7217790685
1215,[2021-02-22 16:51:09.028] $GPGGA,75108.6,3713.961132,N,13701.56708,E,4,13,1.0,92.4711,M,37.55,M,1.0,0000*68,37.23268553333333,137.02611800000003,679735.3163011662,4122608.7217790685
1216,[2021-02-22 16:51:09.106] $GPGGA,75108.7,3713.961133,N,13701.56708,E,4,13,1.0,92.4706,M,37.55,M,1.0,0000*61,37.23268555,137.02611800000003,679735.3162615822,4122608.7236283417
1217,[2021-02-22 16:51:09.231] $GPGGA,75108.8,3713.961133,N,13701.56708,E,4,13,1.0,92.4718,M,37.55,M,1.0,0000*65,37.23268555,137.02611800000003,679735.3162615822,4122608.7236283417
1218,[2021-02-22 16:51:09.309] $GPGGA,75108.9,3713.961133,N,13701.56708,E,4,13,1.0,92.4703,M,37.55,M,1.0,0000*6F,37.23268555,137.02611800000003,679735.3162615822,4122608.7236283417
1219,[2021-02-22 16:51:09.419] $GPGGA,75109.0,3713.961132,N,13701.56708,E,4,13,1.0,92.4683,M,37.55,M,2.0,0000*67,37.23268553333333,137.02611800000003,679735.3163011662,4122608.7217790685
1220,[2021-02-22 16:51:09.528] $GPGGA,75109.1,3713.961132,N,13701.56708,E,4,13,1.0,92.4686,M,37.55,M,2.0,0000*6F,37.23268553333333,137.02611800000003,679735.3163011662,4122608.7217790685
1221,[2021-02-22 16:51:09.622] $GPGGA,75109.2,3713.961132,N,13701.56708,E,4,13,1.0,92.4688,M,37.55,M,2.0,0000*64,37.23268553333333,137.02611800000003,679735.3163011662,4122608.7217790685
1222,[2021-02-22 16:51:09.700] $GPGGA,75109.3,3713.961133,N,13701.56708,E,4,13,1.0,92.4674,M,37.55,M,2.0,0000*69,37.23268555,137.02611800000003,679735.3162615822,4122608.7236283417
1223,[2021-02-22 16:51:09.825] $GPGGA,75109.4,3713.961133,N,13701.56708,E,4,13,1.0,92.4678,M,37.55,M,2.0,0000*65,37.23268555,137.02611800000003,679735.3162615822,4122608.7236283417
1224,[2021-02-22 16:51:09.903] $GPGGA,75109.5,3713.961133,N,13701.56708,E,4,13,1.0,92.4685,M,37.55,M,2.0,0000*66,37.23268555,137.02611800000003,679735.3162615822,4122608.7236283417
1225,[2021-02-22 16:51:10.028] $GPGGA,75109.6,3713.961133,N,13701.56708,E,4,13,1.0,92.4677,M,37.55,M,2.0,0000*6E,37.23268555,137.02611800000003,679735.3162615822,4122608.7236283417
1226,[2021-02-22 16:51:10.106] $GPGGA,75109.7,3713.961133,N,13701.56708,E,4,13,1.0,92.4689,M,37.55,M,2.0,0000*6F,37.23268555,137.02611800000003,679735.3162615822,4122608.7236283417
1227,[2021-02-22 16:51:10.216] $GPGGA,75109.8,3713.961133,N,13701.56708,E,4,13,1.0,92.4676,M,37.55,M,2.0,0000*6A,37.23268555,137.02611800000003,679735.3162615822,4122608.7236283417
1228,[2021-02-22 16:51:10.325] $GPGGA,75109.9,3713.961132,N,13701.56708,E,4,13,1.0,92.46700000000001,M,37.55,M,2.0,0000*61,37.23268553333333,137.02611800000003,679735.3163011662,4122608.7217790685
1229,[2021-02-22 16:51:10.403] $GPGGA,75110.0,3713.961132,N,13701.56708,E,4,13,1.0,92.4672,M,37.55,M,3.0,0000*6A,37.23268553333333,137.02611800000003,679735.3163011662,4122608.7217790685
1230,[2021-02-22 16:51:10.512] $GPGGA,75110.1,3713.961132,N,13701.56708,E,4,13,1.0,92.4697,M,37.55,M,3.0,0000*61,37.23268553333333,137.02611800000003,679735.3163011662,4122608.7217790685
1231,[2021-02-22 16:51:10.622] $GPGGA,75110.2,3713.961132,N,13701.56708,E,4,13,1.0,92.469,M,37.55,M,3.0,0000*69,37.23268553333333,137.02611800000003,679735.3163011662,4122608.7217790685
1232,[2021-02-22 16:51:10.731] $GPGGA,75110.3,3713.961132,N,13701.56708,E,4,13,1.0,92.4705,M,37.55,M,3.0,0000*63,37.23268553333333,137.02611800000003,679735.3163011662,4122608.7217790685
1233,[2021-02-22 16:51:10.809] $GPGGA,75110.4,3713.961132,N,13701.56708,E,4,13,1.0,92.4696,M,37.55,M,3.0,0000*6B,37.23268553333333,137.02611800000003,679735.3163011662,4122608.7217790685
1234,[2021-02-22 16:51:10.919] $GPGGA,75110.5,3713.961132,N,13701.56708,E,4,13,1.0,92.4689,M,37.55,M,3.0,0000*6F,37.23268553333333,137.02611800000003,679735.3163011662,4122608.7217790685
1235,[2021-02-22 16:51:10.997] $GPGGA,75110.6,3713.961132,N,13701.56708,E,4,13,1.0,92.4675,M,37.55,M,3.0,0000*6E,37.23268553333333,137.02611800000003,679735.3163011662,4122608.7217790685
1236,[2021-02-22 16:51:11.122] $GPGGA,75110.7,3713.961133,N,13701.56708,E,4,13,1.0,92.4667,M,37.55,M,3.0,0000*61,37.23268555,137.02611800000003,679735.3162615822,4122608.7236283417
1237,[2021-02-22 16:51:11.200] $GPGGA,75110.8,3713.961132,N,13701.56708,E,4,13,1.0,92.4689,M,37.55,M,3.0,0000*6B,37.23268553333333,137.02611800000003,679735.3163011662,4122608.7217790685
1238,[2021-02-22 16:51:11.325] $GPGGA,75110.9,3713.961132,N,13701.56708,E,4,13,1.0,92.4691,M,37.55,M,3.0,0000*60,37.23268553333333,137.02611800000003,679735.3163011662,4122608.7217790685
1239,[2021-02-22 16:51:11.403] $GPGGA,75111.0,3713.961133,N,13701.56708,E,4,13,1.0,92.4691,M,37.55,M,4.0,0000*6E,37.23268555,137.02611800000003,679735.3162615822,4122608.7236283417
1240,[2021-02-22 16:51:11.497] $GPGGA,75111.1,3713.961132,N,13701.56708,E,4,13,1.0,92.4678,M,37.55,M,4.0,0000*6E,37.23268553333333,137.02611800000003,679735.3163011662,4122608.7217790685
1241,[2021-02-22 16:51:11.622] $GPGGA,75111.2,3713.961133,N,13701.56708,E,4,13,1.0,92.4687,M,37.55,M,4.0,0000*6E,37.23268555,137.02611800000003,679735.3162615822,4122608.7236283417
1242,[2021-02-22 16:51:11.731] $GPGGA,75111.3,3713.961133,N,13701.56708,E,4,13,1.0,92.4668,M,37.55,M,4.0,0000*65,37.23268555,137.02611800000003,679735.3162615822,4122608.7236283417
1243,[2021-02-22 16:51:11.809] $GPGGA,75111.4,3713.961133,N,13701.56708,E,4,13,1.0,92.4667,M,37.55,M,4.0,0000*6D,37.23268555,137.02611800000003,679735.3162615822,4122608.7236283417
1244,[2021-02-22 16:51:11.919] $GPGGA,75111.5,3713.961133,N,13701.56708,E,4,13,1.0,92.4657,M,37.55,M,4.0,0000*67,37.23268555,137.02611800000003,679735.3162615822,4122608.7236283417
1245,[2021-02-22 16:51:12.028] $GPGGA,75111.6,3713.961133,N,13701.56708,E,4,13,1.0,92.4671,M,37.55,M,4.0,0000*64,37.23268555,137.02611800000003,679735.3162615822,4122608.7236283417
1246,[2021-02-22 16:51:12.106] $GPGGA,75111.7,3713.961133,N,13701.56708,E,4,13,1.0,92.4675,M,37.55,M,4.0,0000*65,37.23268555,137.02611800000003,679735.3162615822,4122608.7236283417
1247,[2021-02-22 16:51:12.231] $GPGGA,75111.8,3713.961133,N,13701.56708,E,4,13,1.0,92.4674,M,37.55,M,4.0,0000*6C,37.23268555,137.02611800000003,679735.3162615822,4122608.7236283417
1248,[2021-02-22 16:51:12.309] $GPGGA,75111.9,3713.961133,N,13701.56708,E,4,13,1.0,92.4658,M,37.55,M,4.0,0000*64,37.23268555,137.02611800000003,679735.3162615822,4122608.7236283417
1249,[2021-02-22 16:51:12.434] $GPGGA,75112.0,3713.961133,N,13701.56708,E,4,13,1.0,92.4649,M,37.55,M,5.0,0000*6E,37.23268555,137.02611800000003,679735.3162615822,4122608.7236283417
1250,[2021-02-22 16:51:12.528] $GPGGA,75112.1,3713.961133,N,13701.56708,E,4,13,1.0,92.4666,M,37.55,M,5.0,0000*62,37.23268555,137.02611800000003,679735.3162615822,4122608.7236283417
1251,[2021-02-22 16:51:12.622] $GPGGA,75112.2,3713.9611340000006,N,13701.56708,E,4,13,1.0,92.4668,M,37.55,M,5.0,0000*68,37.23268556666668,137.02611800000003,679735.3162219982,4122608.725477617
1252,[2021-02-22 16:51:12.700] $GPGGA,75112.3,3713.9611340000006,N,13701.56708,E,4,13,1.0,92.4667,M,37.55,M,5.0,0000*65,37.23268556666668,137.02611800000003,679735.3162219982,4122608.725477617
1253,[2021-02-22 16:51:12.825] $GPGGA,75112.4,3713.9611340000006,N,13701.56708,E,4,13,1.0,92.4664,M,37.55,M,5.0,0000*6D,37.23268556666668,137.02611800000003,679735.3162219982,4122608.725477617
1254,[2021-02-22 16:51:12.903] $GPGGA,75112.5,3713.9611340000006,N,13701.56708,E,4,13,1.0,92.4662,M,37.55,M,5.0,0000*67,37.23268556666668,137.02611800000003,679735.3162219982,4122608.725477617
1255,[2021-02-22 16:51:13.028] $GPGGA,75112.6,3713.9611340000006,N,13701.56708,E,4,13,1.0,92.4673,M,37.55,M,5.0,0000*63,37.23268556666668,137.02611800000003,679735.3162219982,4122608.725477617
1256,[2021-02-22 16:51:13.106] $GPGGA,75112.7,3713.9611340000006,N,13701.56708,E,4,13,1.0,92.4669,M,37.55,M,5.0,0000*63,37.23268556666668,137.02611800000003,679735.3162219982,4122608.725477617
1257,[2021-02-22 16:51:13.231] $GPGGA,75112.8,3713.9611340000006,N,13701.56708,E,4,13,1.0,92.4676,M,37.55,M,5.0,0000*69,37.23268556666668,137.02611800000003,679735.3162219982,4122608.725477617
1258,[2021-02-22 16:51:13.309] $GPGGA,75112.9,3713.9611340000006,N,13701.56708,E,4,13,1.0,92.46799999999999,M,37.55,M,5.0,0000*65,37.23268556666668,137.02611800000003,679735.3162219982,4122608.725477617
1259,[2021-02-22 16:51:13.434] $GPGGA,75113.0,3713.961133,N,13701.56708,E,4,13,1.0,92.4654,M,37.55,M,6.0,0000*62,37.23268555,137.02611800000003,679735.3162615822,4122608.7236283417
1260,[2021-02-22 16:51:13.512] $GPGGA,75113.1,3713.961133,N,13701.56708,E,4,13,1.0,92.4647,M,37.55,M,6.0,0000*65,37.23268555,137.02611800000003,679735.3162615822,4122608.7236283417
1261,[2021-02-22 16:51:13.622] $GPGGA,75113.2,3713.9611299999997,N,13701.56708,E,4,13,1.0,92.4531,M,37.55,M,1.0,0000*62,37.232685499999995,137.02611800000003,679735.3163803341,4122608.718080522
1262,[2021-02-22 16:51:13.700] $GPGGA,75113.3,3713.961129,N,13701.56708,E,4,13,1.0,92.4448,M,37.55,M,1.0,0000*63,37.23268548333333,137.02611800000003,679735.3164199181,4122608.716231251
1263,[2021-02-22 16:51:13.825] $GPGGA,75113.4,3713.961129,N,13701.56708,E,4,13,1.0,92.4402,M,37.55,M,1.0,0000*67,37.23268548333333,137.02611800000003,679735.3164199181,4122608.716231251
1264,[2021-02-22 16:51:13.918] $GPGGA,75113.5,3713.961128,N,13701.56708,E,4,13,1.0,92.4352,M,37.55,M,1.0,0000*6F,37.23268546666666,137.02611800000003,679735.3164595021,4122608.714381977
1265,[2021-02-22 16:51:14.012] $GPGGA,75113.6,3713.961129,N,13701.56708,E,4,13,1.0,92.4325,M,37.55,M,1.0,0000*69,37.23268548333333,137.02611800000003,679735.3164199181,4122608.716231251
1266,[2021-02-22 16:51:14.122] $GPGGA,75113.7,3713.961129,N,13701.56708,E,4,13,1.0,92.4321,M,37.55,M,1.0,0000*6A,37.23268548333333,137.02611800000003,679735.3164199181,4122608.716231251
1267,[2021-02-22 16:51:14.200] $GPGGA,75113.8,3713.9611299999997,N,13701.56708,E,4,13,1.0,92.4309,M,37.55,M,1.0,0000*64,37.232685499999995,137.02611800000003,679735.3163803341,4122608.718080522
1268,[2021-02-22 16:51:14.325] $GPGGA,75113.9,3713.9611299999997,N,13701.56708,E,4,13,1.0,92.4311,M,37.55,M,1.0,0000*6F,37.232685499999995,137.02611800000003,679735.3163803341,4122608.718080522
1269,[2021-02-22 16:51:14.403] $GPGGA,75114.0,3713.9611299999997,N,13701.56708,E,4,13,1.0,92.4306,M,37.55,M,2.0,0000*6B,37.232685499999995,137.02611800000003,679735.3163803341,4122608.718080522
1270,[2021-02-22 16:51:14.528] $GPGGA,75114.1,3713.9611299999997,N,13701.56708,E,4,13,1.0,92.4312,M,37.55,M,2.0,0000*61,37.232685499999995,137.02611800000003,679735.3163803341,4122608.718080522
1271,[2021-02-22 16:51:14.606] $GPGGA,75114.2,3713.9611299999997,N,13701.56708,E,4,13,1.0,92.4312,M,37.55,M,2.0,0000*61,37.232685499999995,137.02611800000003,679735.3163803341,4122608.718080522
1272,[2021-02-22 16:51:14.731] $GPGGA,75114.3,3713.961131,N,13701.56708,E,4,13,1.0,92.4347,M,37.55,M,2.0,0000*6D,37.23268551666666,137.02611800000003,679735.3163407501,4122608.7199297966
1273,[2021-02-22 16:51:14.809] $GPGGA,75114.4,3713.961131,N,13701.56708,E,4,13,1.0,92.4354,M,37.55,M,2.0,0000*67,37.23268551666666,137.02611800000003,679735.3163407501,4122608.7199297966
1274,[2021-02-22 16:51:14.918] $GPGGA,75114.5,3713.961131,N,13701.56708,E,4,13,1.0,92.4356,M,37.55,M,2.0,0000*67,37.23268551666666,137.02611800000003,679735.3163407501,4122608.7199297966
1275,[2021-02-22 16:51:14.997] $GPGGA,75114.6,3713.9611299999997,N,13701.56708,E,4,13,1.0,92.4361,M,37.55,M,2.0,0000*6B,37.232685499999995,137.02611800000003,679735.3163803341,4122608.718080522
1276,[2021-02-22 16:51:15.122] $GPGGA,75114.7,3713.9611299999997,N,13701.56709,E,4,13,1.0,92.4374,M,37.55,M,2.0,0000*61,37.232685499999995,137.02611816666666,679735.3311668645,4122608.71839703
1277,[2021-02-22 16:51:15.200] $GPGGA,75114.8,3713.9611299999997,N,13701.56708,E,4,13,1.0,92.4376,M,37.55,M,2.0,0000*6F,37.232685499999995,137.02611800000003,679735.3163803341,4122608.718080522
1278,[2021-02-22 16:51:15.325] $GPGGA,75114.9,3713.9611299999997,N,13701.56709,E,4,13,1.0,92.4401,M,37.55,M,2.0,0000*6D,37.232685499999995,137.02611816666666,679735.3311668645,4122608.71839703
1279,[2021-02-22 16:51:15.403] $GPGGA,75115.0,3713.9611299999997,N,13701.56709,E,4,13,1.0,92.4403,M,37.55,M,3.0,0000*63,37.232685499999995,137.02611816666666,679735.3311668645,4122608.71839703
1280,[2021-02-22 16:51:15.496] $GPGGA,75115.1,3713.9611299999997,N,13701.56708,E,4,13,1.0,92.4396,M,37.55,M,3.0,0000*6B,37.232685499999995,137.02611800000003,679735.3163803341,4122608.718080522
1281,[2021-02-22 16:51:15.621] $GPGGA,75115.2,3713.961131,N,13701.56708,E,4,13,1.0,92.4404,M,37.55,M,3.0,0000*63,37.23268551666666,137.02611800000003,679735.3163407501,4122608.7199297966
1282,[2021-02-22 16:51:15.700] $GPGGA,75115.3,3713.9611299999997,N,13701.56708,E,4,13,1.0,92.4413,M,37.55,M,3.0,0000*63,37.232685499999995,137.02611800000003,679735.3163803341,4122608.718080522
1283,[2021-02-22 16:51:15.825] $GPGGA,75115.4,3713.9611299999997,N,13701.56708,E,4,13,1.0,92.44,M,37.55,M,3.0,0000*69,37.232685499999995,137.02611800000003,679735.3163803341,4122608.718080522
1284,[2021-02-22 16:51:15.903] $GPGGA,75115.5,3713.9611299999997,N,13701.56709,E,4,13,1.0,92.4397,M,37.55,M,3.0,0000*69,37.232685499999995,137.02611816666666,679735.3311668645,4122608.71839703
1285,[2021-02-22 16:51:16.028] $GPGGA,75115.6,3713.9611299999997,N,13701.56709,E,4,13,1.0,92.4397,M,37.55,M,3.0,0000*68,37.232685499999995,137.02611816666666,679735.3311668645,4122608.71839703
1286,[2021-02-22 16:51:16.106] $GPGGA,75115.7,3713.9611299999997,N,13701.56709,E,4,13,1.0,92.4376,M,37.55,M,3.0,0000*63,37.232685499999995,137.02611816666666,679735.3311668645,4122608.71839703
1287,[2021-02-22 16:51:16.231] $GPGGA,75115.8,3713.9611299999997,N,13701.56709,E,4,13,1.0,92.4379,M,37.55,M,3.0,0000*60,37.232685499999995,137.02611816666666,679735.3311668645,4122608.71839703
1288,[2021-02-22 16:51:16.309] $GPGGA,75115.9,3713.9611299999997,N,13701.56709,E,4,13,1.0,92.4361,M,37.55,M,3.0,0000*6D,37.232685499999995,137.02611816666666,679735.3311668645,4122608.71839703
1289,[2021-02-22 16:51:16.434] $GPGGA,75116.0,3713.9611299999997,N,13701.56709,E,4,13,1.0,92.4348,M,37.55,M,4.0,0000*60,37.232685499999995,137.02611816666666,679735.3311668645,4122608.71839703
1290,[2021-02-22 16:51:16.528] $GPGGA,75116.1,3713.961131,N,13701.56709,E,4,13,1.0,92.4361,M,37.55,M,4.0,0000*60,37.23268551666666,137.02611816666666,679735.3311272806,4122608.7202463048
1291,[2021-02-22 16:51:16.621] $GPGGA,75116.2,3713.961131,N,13701.56709,E,4,13,1.0,92.4364,M,37.55,M,4.0,0000*69,37.23268551666666,137.02611816666666,679735.3311272806,4122608.7202463048
1292,[2021-02-22 16:51:16.700] $GPGGA,75116.3,3713.9611299999997,N,13701.56709,E,4,13,1.0,92.4363,M,37.55,M,4.0,0000*60,37.232685499999995,137.02611816666666,679735.3311668645,4122608.71839703
1293,[2021-02-22 16:51:16.825] $GPGGA,75116.4,3713.9611299999997,N,13701.56709,E,4,13,1.0,92.4347,M,37.55,M,4.0,0000*61,37.232685499999995,137.02611816666666,679735.3311668645,4122608.71839703
1294,[2021-02-22 16:51:16.903] $GPGGA,75116.5,3713.961131,N,13701.56709,E,4,13,1.0,92.436,M,37.55,M,4.0,0000*64,37.23268551666666,137.02611816666666,679735.3311272806,4122608.7202463048
1295,[2021-02-22 16:51:17.028] $GPGGA,75116.6,3713.9611299999997,N,13701.56709,E,4,13,1.0,92.4356,M,37.55,M,4.0,0000*61,37.232685499999995,137.02611816666666,679735.3311668645,4122608.71839703
1296,[2021-02-22 16:51:17.106] $GPGGA,75116.7,3713.961129,N,13701.56709,E,4,13,1.0,92.43299999999999,M,37.55,M,4.0,0000*6A,37.23268548333333,137.02611816666666,679735.3312064486,4122608.7165477583
1297,[2021-02-22 16:51:17.215] $GPGGA,75116.8,3713.9611299999997,N,13701.56709,E,4,13,1.0,92.4335,M,37.55,M,4.0,0000*61,37.232685499999995,137.02611816666666,679735.3311668645,4122608.71839703
1298,[2021-02-22 16:51:17.309] $GPGGA,75116.9,3713.961131,N,13701.56709,E,4,13,1.0,92.4332,M,37.55,M,4.0,0000*67,37.23268551666666,137.02611816666666,679735.3311272806,4122608.7202463048
1299,[2021-02-22 16:51:17.418] $GPGGA,75117.0,3713.961131,N,13701.56709,E,4,13,1.0,92.4308,M,37.55,M,5.0,0000*6D,37.23268551666666,137.02611816666666,679735.3311272806,4122608.7202463048
1300,[2021-02-22 16:51:17.512] $GPGGA,75117.1,3713.961131,N,13701.56709,E,4,13,1.0,92.4297,M,37.55,M,5.0,0000*69,37.23268551666666,137.02611816666666,679735.3311272806,4122608.7202463048
1301,[2021-02-22 16:51:17.606] $GPGGA,75117.2,3713.961131,N,13701.56709,E,4,13,1.0,92.4309,M,37.55,M,5.0,0000*67,37.23268551666666,137.02611816666666,679735.3311272806,4122608.7202463048
1302,[2021-02-22 16:51:17.731] $GPGGA,75117.3,3713.9611299999997,N,13701.56709,E,4,13,1.0,92.4305,M,37.55,M,5.0,0000*60,37.232685499999995,137.02611816666666,679735.3311668645,4122608.71839703
1303,[2021-02-22 16:51:17.809] $GPGGA,75117.4,3713.961129,N,13701.56709,E,4,13,1.0,92.432,M,37.55,M,5.0,0000*68,37.23268548333333,137.02611816666666,679735.3312064486,4122608.7165477583
1304,[2021-02-22 16:51:17.918] $GPGGA,75117.5,3713.9611299999997,N,13701.56709,E,4,13,1.0,92.4319,M,37.55,M,5.0,0000*60,37.232685499999995,137.02611816666666,679735.3311668645,4122608.71839703
1305,[2021-02-22 16:51:18.012] $GPGGA,75117.6,3713.9611299999997,N,13701.56709,E,4,13,1.0,92.43299999999999,M,37.55,M,5.0,0000*65,37.232685499999995,137.02611816666666,679735.3311668645,4122608.71839703
1306,[2021-02-22 16:51:18.121] $GPGGA,75117.7,3713.961131,N,13701.56709,E,4,13,1.0,92.4339,M,37.55,M,5.0,0000*68,37.23268551666666,137.02611816666666,679735.3311272806,4122608.7202463048
1307,[2021-02-22 16:51:18.199] $GPGGA,75117.8,3713.961131,N,13701.56709,E,4,13,1.0,92.4338,M,37.55,M,5.0,0000*6B,37.23268551666666,137.02611816666666,679735.3311272806,4122608.7202463048
1308,[2021-02-22 16:51:18.324] $GPGGA,75117.9,3713.961131,N,13701.56709,E,4,13,1.0,92.4347,M,37.55,M,5.0,0000*6A,37.23268551666666,137.02611816666666,679735.3311272806,4122608.7202463048
1309,[2021-02-22 16:51:18.403] $GPGGA,75118.0,3713.961131,N,13701.56709,E,4,13,1.0,92.4342,M,37.55,M,6.0,0000*6D,37.23268551666666,137.02611816666666,679735.3311272806,4122608.7202463048
1310,[2021-02-22 16:51:18.512] $GPGGA,75118.1,3713.961131,N,13701.56709,E,4,13,1.0,92.4349,M,37.55,M,6.0,0000*6F,37.23268551666666,137.02611816666666,679735.3311272806,4122608.7202463048
1311,[2021-02-22 16:51:18.606] $GPGGA,75118.2,3713.9611299999997,N,13701.56709,E,4,13,1.0,92.4353,M,37.55,M,1.0,0000*6E,37.232685499999995,137.02611816666666,679735.3311668645,4122608.71839703
1312,[2021-02-22 16:51:18.731] $GPGGA,75118.3,3713.961129,N,13701.56709,E,4,13,1.0,92.4345,M,37.55,M,1.0,0000*6D,37.23268548333333,137.02611816666666,679735.3312064486,4122608.7165477583
1313,[2021-02-22 16:51:18.809] $GPGGA,75118.4,3713.961131,N,13701.56709,E,4,13,1.0,92.4365,M,37.55,M,1.0,0000*6B,37.23268551666666,137.02611816666666,679735.3311272806,4122608.7202463048
1314,[2021-02-22 16:51:18.918] $GPGGA,75118.5,3713.961131,N,13701.56709,E,4,13,1.0,92.436,M,37.55,M,1.0,0000*60,37.23268551666666,137.02611816666666,679735.3311272806,4122608.7202463048
1315,[2021-02-22 16:51:18.996] $GPGGA,75118.6,3713.961131,N,13701.56709,E,4,13,1.0,92.4371,M,37.55,M,1.0,0000*6B,37.23268551666666,137.02611816666666,679735.3311272806,4122608.7202463048
1316,[2021-02-22 16:51:19.121] $GPGGA,75118.7,3713.9611299999997,N,13701.56709,E,4,13,1.0,92.43700000000001,M,37.55,M,1.0,0000*6A,37.232685499999995,137.02611816666666,679735.3311668645,4122608.71839703
1317,[2021-02-22 16:51:19.231] $GPGGA,75118.8,3713.961129,N,13701.56709,E,4,13,1.0,92.4368,M,37.55,M,1.0,0000*67,37.23268548333333,137.02611816666666,679735.3312064486,4122608.7165477583
1318,[2021-02-22 16:51:19.309] $GPGGA,75118.9,3713.961129,N,13701.56709,E,4,13,1.0,92.4377,M,37.55,M,1.0,0000*66,37.23268548333333,137.02611816666666,679735.3312064486,4122608.7165477583
1319,[2021-02-22 16:51:19.434] $GPGGA,75119.0,3713.9611299999997,N,13701.56709,E,4,13,1.0,92.4351,M,37.55,M,2.0,0000*6B,37.232685499999995,137.02611816666666,679735.3311668645,4122608.71839703
1320,[2021-02-22 16:51:19.528] $GPGGA,75119.1,3713.9611299999997,N,13701.56709,E,4,13,1.0,92.4362,M,37.55,M,2.0,0000*6D,37.232685499999995,137.02611816666666,679735.3311668645,4122608.71839703
1321,[2021-02-22 16:51:19.621] $GPGGA,75119.2,3713.961131,N,13701.56709,E,4,13,1.0,92.439,M,37.55,M,2.0,0000*6F,37.23268551666666,137.02611816666666,679735.3311272806,4122608.7202463048
1322,[2021-02-22 16:51:19.699] $GPGGA,75119.3,3713.961131,N,13701.56709,E,4,13,1.0,92.4384,M,37.55,M,2.0,0000*6F,37.23268551666666,137.02611816666666,679735.3311272806,4122608.7202463048
1323,[2021-02-22 16:51:19.824] $GPGGA,75119.4,3713.9611299999997,N,13701.56709,E,4,13,1.0,92.4384,M,37.55,M,2.0,0000*6D,37.232685499999995,137.02611816666666,679735.3311668645,4122608.71839703
1324,[2021-02-22 16:51:19.902] $GPGGA,75119.5,3713.961129,N,13701.56709,E,4,13,1.0,92.4382,M,37.55,M,2.0,0000*64,37.23268548333333,137.02611816666666,679735.3312064486,4122608.7165477583
1325,[2021-02-22 16:51:20.027] $GPGGA,75119.6,3713.961129,N,13701.56709,E,4,13,1.0,92.4371,M,37.55,M,2.0,0000*60,37.23268548333333,137.02611816666666,679735.3312064486,4122608.7165477583
1326,[2021-02-22 16:51:20.106] $GPGGA,75119.7,3713.9611299999997,N,13701.56709,E,4,13,1.0,92.4379,M,37.55,M,2.0,0000*6F,37.232685499999995,137.02611816666666,679735.3311668645,4122608.71839703
1327,[2021-02-22 16:51:20.231] $GPGGA,75119.8,3713.9611299999997,N,13701.56709,E,4,13,1.0,92.4369,M,37.55,M,2.0,0000*6F,37.232685499999995,137.02611816666666,679735.3311668645,4122608.71839703
1328,[2021-02-22 16:51:20.324] $GPGGA,75119.9,3713.9611299999997,N,13701.56709,E,4,13,1.0,92.4376,M,37.55,M,2.0,0000*65,37.232685499999995,137.02611816666666,679735.3311668645,4122608.71839703
1329,[2021-02-22 16:51:20.434] $GPGGA,75120.0,3713.9611299999997,N,13701.56709,E,4,13,1.0,92.4345,M,37.55,M,3.0,0000*64,37.232685499999995,137.02611816666666,679735.3311668645,4122608.71839703
1330,[2021-02-22 16:51:20.527] $GPGGA,75120.1,3713.9611299999997,N,13701.56709,E,4,13,1.0,92.435,M,37.55,M,3.0,0000*66,37.232685499999995,137.02611816666666,679735.3311668645,4122608.71839703
1331,[2021-02-22 16:51:20.621] $GPGGA,75120.2,3713.9611299999997,N,13701.56709,E,4,13,1.0,92.4355,M,37.55,M,3.0,0000*65,37.232685499999995,137.02611816666666,679735.3311668645,4122608.71839703
1332,[2021-02-22 16:51:20.699] $GPGGA,75120.3,3713.961129,N,13701.56709,E,4,13,1.0,92.4343,M,37.55,M,3.0,0000*66,37.23268548333333,137.02611816666666,679735.3312064486,4122608.7165477583
1333,[2021-02-22 16:51:20.824] $GPGGA,75120.4,3713.961129,N,13701.56709,E,4,13,1.0,92.4344,M,37.55,M,3.0,0000*6F,37.23268548333333,137.02611816666666,679735.3312064486,4122608.7165477583
1334,[2021-02-22 16:51:20.934] $GPGGA,75120.5,3713.961129,N,13701.56709,E,4,13,1.0,92.4354,M,37.55,M,3.0,0000*69,37.23268548333333,137.02611816666666,679735.3312064486,4122608.7165477583
1335,[2021-02-22 16:51:21.012] $GPGGA,75120.6,3713.9611299999997,N,13701.56709,E,4,13,1.0,92.4345,M,37.55,M,3.0,0000*6A,37.232685499999995,137.02611816666666,679735.3311668645,4122608.71839703
1336,[2021-02-22 16:51:21.121] $GPGGA,75120.7,3713.961129,N,13701.56709,E,4,13,1.0,92.432,M,37.55,M,3.0,0000*6C,37.23268548333333,137.02611816666666,679735.3312064486,4122608.7165477583
1337,[2021-02-22 16:51:21.199] $GPGGA,75120.8,3713.9611299999997,N,13701.56709,E,4,13,1.0,92.4325,M,37.55,M,3.0,0000*60,37.232685499999995,137.02611816666666,679735.3311668645,4122608.71839703
1338,[2021-02-22 16:51:21.324] $GPGGA,75120.9,3713.961129,N,13701.56709,E,4,13,1.0,92.4322,M,37.55,M,3.0,0000*63,37.23268548333333,137.02611816666666,679735.3312064486,4122608.7165477583
1339,[2021-02-22 16:51:21.402] $GPGGA,75121.0,3713.961129,N,13701.56709,E,4,13,1.0,92.4302,M,37.55,M,4.0,0000*6B,37.23268548333333,137.02611816666666,679735.3312064486,4122608.7165477583
1340,[2021-02-22 16:51:21.512] $GPGGA,75121.1,3713.961129,N,13701.56709,E,4,13,1.0,92.4309,M,37.55,M,4.0,0000*64,37.23268548333333,137.02611816666666,679735.3312064486,4122608.7165477583
1341,[2021-02-22 16:51:21.621] $GPGGA,75121.2,3713.961129,N,13701.56709,E,4,13,1.0,92.4329,M,37.55,M,4.0,0000*6F,37.23268548333333,137.02611816666666,679735.3312064486,4122608.7165477583
1342,[2021-02-22 16:51:21.730] $GPGGA,75121.3,3713.9611299999997,N,13701.56709,E,4,13,1.0,92.4321,M,37.55,M,4.0,0000*69,37.232685499999995,137.02611816666666,679735.3311668645,4122608.71839703
1343,[2021-02-22 16:51:21.809] $GPGGA,75121.4,3713.961131,N,13701.56709,E,4,13,1.0,92.4334,M,37.55,M,4.0,0000*67,37.23268551666666,137.02611816666666,679735.3311272806,4122608.7202463048
1344,[2021-02-22 16:51:21.918] $GPGGA,75121.5,3713.9611299999997,N,13701.56709,E,4,13,1.0,92.4337,M,37.55,M,4.0,0000*6E,37.232685499999995,137.02611816666666,679735.3311668645,4122608.71839703
1345,[2021-02-22 16:51:22.012] $GPGGA,75121.6,3713.9611299999997,N,13701.56709,E,4,13,1.0,92.4357,M,37.55,M,4.0,0000*67,37.232685499999995,137.02611816666666,679735.3311668645,4122608.71839703
1346,[2021-02-22 16:51:22.121] $GPGGA,75121.7,3713.9611299999997,N,13701.56709,E,4,13,1.0,92.4369,M,37.55,M,4.0,0000*68,37.232685499999995,137.02611816666666,679735.3311668645,4122608.71839703
1347,[2021-02-22 16:51:22.199] $GPGGA,75121.8,3713.961129,N,13701.56709,E,4,13,1.0,92.4366,M,37.55,M,4.0,0000*67,37.23268548333333,137.02611816666666,679735.3312064486,4122608.7165477583
1348,[2021-02-22 16:51:22.324] $GPGGA,75121.9,3713.961129,N,13701.56709,E,4,13,1.0,92.4367,M,37.55,M,4.0,0000*61,37.23268548333333,137.02611816666666,679735.3312064486,4122608.7165477583
1349,[2021-02-22 16:51:22.402] $GPGGA,75122.0,3713.961129,N,13701.56709,E,4,13,1.0,92.4359,M,37.55,M,5.0,0000*6F,37.23268548333333,137.02611816666666,679735.3312064486,4122608.7165477583
1350,[2021-02-22 16:51:22.512] $GPGGA,75122.1,3713.961129,N,13701.56709,E,4,13,1.0,92.436,M,37.55,M,5.0,0000*6E,37.23268548333333,137.02611816666666,679735.3312064486,4122608.7165477583
1351,[2021-02-22 16:51:22.605] $GPGGA,75122.2,3713.961128,N,13701.56709,E,4,13,1.0,92.4329,M,37.55,M,5.0,0000*6D,37.23268546666666,137.02611816666666,679735.3312460325,4122608.7146984856
1352,[2021-02-22 16:51:22.730] $GPGGA,75122.3,3713.961128,N,13701.56709,E,4,13,1.0,92.4334,M,37.55,M,5.0,0000*68,37.23268546666666,137.02611816666666,679735.3312460325,4122608.7146984856
1353,[2021-02-22 16:51:22.824] $GPGGA,75122.4,3713.961128,N,13701.56709,E,4,13,1.0,92.4315,M,37.55,M,5.0,0000*61,37.23268546666666,137.02611816666666,679735.3312460325,4122608.7146984856
1354,[2021-02-22 16:51:22.918] $GPGGA,75122.5,3713.961129,N,13701.56709,E,4,13,1.0,92.4326,M,37.55,M,5.0,0000*61,37.23268548333333,137.02611816666666,679735.3312064486,4122608.7165477583
1355,[2021-02-22 16:51:23.027] $GPGGA,75122.6,3713.961129,N,13701.56709,E,4,13,1.0,92.4311,M,37.55,M,5.0,0000*63,37.23268548333333,137.02611816666666,679735.3312064486,4122608.7165477583
1356,[2021-02-22 16:51:23.105] $GPGGA,75122.7,3713.961129,N,13701.56709,E,4,13,1.0,92.4305,M,37.55,M,5.0,0000*66,37.23268548333333,137.02611816666666,679735.3312064486,4122608.7165477583
1357,[2021-02-22 16:51:23.230] $GPGGA,75122.8,3713.9611299999997,N,13701.56709,E,4,13,1.0,92.4306,M,37.55,M,5.0,0000*67,37.232685499999995,137.02611816666666,679735.3311668645,4122608.71839703
1358,[2021-02-22 16:51:23.308] $GPGGA,75122.9,3713.9611299999997,N,13701.56709,E,4,13,1.0,92.4298,M,37.55,M,5.0,0000*6B,37.232685499999995,137.02611816666666,679735.3311668645,4122608.71839703
1359,[2021-02-22 16:51:23.433] $GPGGA,75123.0,3713.961131,N,13701.56709,E,4,13,1.0,92.4273,M,37.55,M,6.0,0000*69,37.23268551666666,137.02611816666666,679735.3311272806,4122608.7202463048
1360,[2021-02-22 16:51:23.527] $GPGGA,75123.1,3713.961132,N,13701.56708,E,4,13,1.0,92.4264,M,37.55,M,6.0,0000*6C,37.23268553333333,137.02611800000003,679735.3163011662,4122608.7217790685
1361,[2021-02-22 16:51:23.621] $GPGGA,75123.2,3713.961133,N,13701.56708,E,4,13,1.0,92.4252,M,37.55,M,1.0,0000*67,37.23268555,137.02611800000003,679735.3162615822,4122608.7236283417
1362,[2021-02-22 16:51:23.699] $GPGGA,75123.3,3713.961133,N,13701.56708,E,4,13,1.0,92.4231,M,37.55,M,1.0,0000*68,37.23268555,137.02611800000003,679735.3162615822,4122608.7236283417
1363,[2021-02-22 16:51:23.824] $GPGGA,75123.4,3713.961133,N,13701.56708,E,4,13,1.0,92.4231,M,37.55,M,1.0,0000*60,37.23268555,137.02611800000003,679735.3162615822,4122608.7236283417
1364,[2021-02-22 16:51:23.902] $GPGGA,75123.5,3713.961132,N,13701.56708,E,4,13,1.0,92.4207,M,37.55,M,1.0,0000*66,37.23268553333333,137.02611800000003,679735.3163011662,4122608.7217790685
1365,[2021-02-22 16:51:24.027] $GPGGA,75123.6,3713.961131,N,13701.56709,E,4,13,1.0,92.4213,M,37.55,M,1.0,0000*62,37.23268551666666,137.02611816666666,679735.3311272806,4122608.7202463048
1366,[2021-02-22 16:51:24.105] $GPGGA,75123.7,3713.961129,N,13701.56709,E,4,13,1.0,92.4214,M,37.55,M,1.0,0000*6B,37.23268548333333,137.02611816666666,679735.3312064486,4122608.7165477583
1367,[2021-02-22 16:51:24.230] $GPGGA,75123.8,3713.961128,N,13701.56709,E,4,13,1.0,92.4202,M,37.55,M,1.0,0000*6C,37.23268546666666,137.02611816666666,679735.3312460325,4122608.7146984856
1368,[2021-02-22 16:51:24.308] $GPGGA,75123.9,3713.961129,N,13701.56708,E,4,13,1.0,92.4192,M,37.55,M,1.0,0000*66,37.23268548333333,137.02611800000003,679735.3164199181,4122608.716231251
1369,[2021-02-22 16:51:24.433] $GPGGA,75124.0,3713.961131,N,13701.56708,E,4,13,1.0,92.4146,M,37.55,M,2.0,0000*60,37.23268551666666,137.02611800000003,679735.3163407501,4122608.7199297966
1370,[2021-02-22 16:51:24.512] $GPGGA,75124.1,3713.961136,N,13701.56708,E,4,13,1.0,92.4142,M,37.55,M,2.0,0000*64,37.232685599999996,137.02611800000003,679735.3161428303,4122608.7291761604
1371,[2021-02-22 16:51:24.605] $GPGGA,75124.2,3713.961137,N,13701.56708,E,4,13,1.0,92.4137,M,37.55,M,2.0,0000*6C,37.232685616666664,137.02611800000003,679735.3161032463,4122608.7310254327
1372,[2021-02-22 16:51:24.730] $GPGGA,75124.3,3713.961137,N,13701.56708,E,4,13,1.0,92.4129,M,37.55,M,2.0,0000*65,37.232685616666664,137.02611800000003,679735.3161032463,4122608.7310254327
1373,[2021-02-22 16:51:24.808] $GPGGA,75124.4,3713.961137,N,13701.56708,E,4,13,1.0,92.4134,M,37.55,M,2.0,0000*65,37.232685616666664,137.02611800000003,679735.3161032463,4122608.7310254327
1374,[2021-02-22 16:51:24.933] $GPGGA,75124.5,3713.961138,N,13701.56708,E,4,13,1.0,92.4145,M,37.55,M,2.0,0000*60,37.23268563333333,137.02611800000003,679735.3160636623,4122608.7328747055
1375,[2021-02-22 16:51:25.012] $GPGGA,75124.6,3713.961138,N,13701.56708,E,4,13,1.0,92.4157,M,37.55,M,2.0,0000*67,37.23268563333333,137.02611800000003,679735.3160636623,4122608.7328747055
1376,[2021-02-22 16:51:25.121] $GPGGA,75124.7,3713.961137,N,13701.56708,E,4,13,1.0,92.4152,M,37.55,M,2.0,0000*67,37.232685616666664,137.02611800000003,679735.3161032463,4122608.7310254327
1377,[2021-02-22 16:51:25.199] $GPGGA,75124.8,3713.961138,N,13701.56708,E,4,13,1.0,92.416,M,37.55,M,2.0,0000*66,37.23268563333333,137.02611800000003,679735.3160636623,4122608.7328747055
1378,[2021-02-22 16:51:25.324] $GPGGA,75124.9,3713.961139,N,13701.56708,E,4,13,1.0,92.4184,M,37.55,M,2.0,0000*6E,37.23268565,137.02611800000003,679735.3160240784,4122608.7347239787
1379,[2021-02-22 16:51:25.402] $GPGGA,75125.0,3713.961139,N,13701.56708,E,4,13,1.0,92.4174,M,37.55,M,3.0,0000*6B,37.23268565,137.02611800000003,679735.3160240784,4122608.7347239787
1380,[2021-02-22 16:51:25.511] $GPGGA,75125.1,3713.96114,N,13701.56708,E,4,13,1.0,92.4194,M,37.55,M,3.0,0000*6C,37.23268566666667,137.02611800000003,679735.3159844943,4122608.736573251
1381,[2021-02-22 16:51:25.621] $GPGGA,75125.2,3713.961139,N,13701.56708,E,4,13,1.0,92.4207,M,37.55,M,3.0,0000*6E,37.23268565,137.02611800000003,679735.3160240784,4122608.7347239787
1382,[2021-02-22 16:51:25.730] $GPGGA,75125.3,3713.961139,N,13701.56708,E,4,13,1.0,92.417,M,37.55,M,3.0,0000*6B,37.23268565,137.02611800000003,679735.3160240784,4122608.7347239787
1383,[2021-02-22 16:51:25.808] $GPGGA,75125.4,3713.96114,N,13701.56708,E,4,13,1.0,92.4179,M,37.55,M,3.0,0000*6E,37.23268566666667,137.02611800000003,679735.3159844943,4122608.736573251
1384,[2021-02-22 16:51:25.918] $GPGGA,75125.5,3713.96114,N,13701.56708,E,4,13,1.0,92.4173,M,37.55,M,3.0,0000*6F,37.23268566666667,137.02611800000003,679735.3159844943,4122608.736573251
1385,[2021-02-22 16:51:26.011] $GPGGA,75125.6,3713.961139,N,13701.56708,E,4,13,1.0,92.4173,M,37.55,M,3.0,0000*6F,37.23268565,137.02611800000003,679735.3160240784,4122608.7347239787
1386,[2021-02-22 16:51:26.121] $GPGGA,75125.7,3713.961138,N,13701.56708,E,4,13,1.0,92.416,M,37.55,M,3.0,0000*6E,37.23268563333333,137.02611800000003,679735.3160636623,4122608.7328747055
1387,[2021-02-22 16:51:26.199] $GPGGA,75125.8,3713.961138,N,13701.56708,E,4,13,1.0,92.4149,M,37.55,M,3.0,0000*6C,37.23268563333333,137.02611800000003,679735.3160636623,4122608.7328747055
1388,[2021-02-22 16:51:26.324] $GPGGA,75125.9,3713.961139,N,13701.56708,E,4,13,1.0,92.4151,M,37.55,M,3.0,0000*63,37.23268565,137.02611800000003,679735.3160240784,4122608.7347239787
1389,[2021-02-22 16:51:26.433] $GPGGA,75126.0,3713.9611409999998,N,13701.56708,E,4,13,1.0,92.4126,M,37.55,M,4.0,0000*69,37.23268568333334,137.02611800000003,679735.3159449105,4122608.738422524
1390,[2021-02-22 16:51:26.527] $GPGGA,75126.1,3713.961142,N,13701.56708,E,4,13,1.0,92.4131,M,37.55,M,4.0,0000*68,37.232685700000005,137.02611800000003,679735.3159053264,4122608.740271798
1391,[2021-02-22 16:51:26.621] $GPGGA,75126.2,3713.9611409999998,N,13701.56708,E,4,13,1.0,92.4099,M,37.55,M,4.0,0000*64,37.23268568333334,137.02611800000003,679735.3159449105,4122608.738422524
1392,[2021-02-22 16:51:26.699] $GPGGA,75126.3,3713.9611409999998,N,13701.56708,E,4,13,1.0,92.4109,M,37.55,M,4.0,0000*69,37.23268568333334,137.02611800000003,679735.3159449105,4122608.738422524
1393,[2021-02-22 16:51:26.824] $GPGGA,75126.4,3713.961142,N,13701.56708,E,4,13,1.0,92.4114,M,37.55,M,4.0,0000*6E,37.232685700000005,137.02611800000003,679735.3159053264,4122608.740271798
1394,[2021-02-22 16:51:26.902] $GPGGA,75126.5,3713.961142,N,13701.56707,E,4,13,1.0,92.4112,M,37.55,M,4.0,0000*6C,37.232685700000005,137.0261178333333,679735.3011187892,4122608.7399552893
1395,[2021-02-22 16:51:27.027] $GPGGA,75126.6,3713.961143,N,13701.56707,E,4,13,1.0,92.4102,M,37.55,M,4.0,0000*6E,37.23268571666667,137.0261178333333,679735.3010792054,4122608.7418045616
1396,[2021-02-22 16:51:27.105] $GPGGA,75126.7,3713.961144,N,13701.56707,E,4,13,1.0,92.4102,M,37.55,M,4.0,0000*69,37.23268573333333,137.0261178333333,679735.3010396214,4122608.7436538334
1397,[2021-02-22 16:51:27.230] $GPGGA,75126.8,3713.961144,N,13701.56707,E,4,13,1.0,92.4108,M,37.55,M,4.0,0000*6B,37.23268573333333,137.0261178333333,679735.3010396214,4122608.7436538334
1398,[2021-02-22 16:51:27.308] $GPGGA,75126.9,3713.961144,N,13701.56707,E,4,13,1.0,92.4124,M,37.55,M,4.0,0000*69,37.23268573333333,137.0261178333333,679735.3010396214,4122608.7436538334
1399,[2021-02-22 16:51:27.433] $GPGGA,75127.0,3713.961143,N,13701.56707,E,4,13,1.0,92.4119,M,37.55,M,5.0,0000*62,37.23268571666667,137.0261178333333,679735.3010792054,4122608.7418045616
1400,[2021-02-22 16:51:27.527] $GPGGA,75127.1,3713.961143,N,13701.56707,E,4,13,1.0,92.4123,M,37.55,M,5.0,0000*62,37.23268571666667,137.0261178333333,679735.3010792054,4122608.7418045616
1401,[2021-02-22 16:51:27.621] $GPGGA,75127.2,3713.961145,N,13701.56707,E,4,13,1.0,92.42399999999999,M,37.55,M,5.0,0000*69,37.23268575000001,137.0261178333333,679735.3010000375,4122608.7455031066
1402,[2021-02-22 16:51:27.699] $GPGGA,75127.3,3713.961145,N,13701.56706,E,4,13,1.0,92.4301,M,37.55,M,5.0,0000*6C,37.23268575000001,137.02611766666666,679735.2862135071,4122608.7451866
1403,[2021-02-22 16:51:27.824] $GPGGA,75127.4,3713.961145,N,13701.56706,E,4,13,1.0,92.4341,M,37.55,M,5.0,0000*60,37.23268575000001,137.02611766666666,679735.2862135071,4122608.7451866
1404,[2021-02-22 16:51:27.902] $GPGGA,75127.5,3713.961144,N,13701.56706,E,4,13,1.0,92.43700000000001,M,37.55,M,5.0,0000*6A,37.23268573333333,137.02611766666666,679735.2862530911,4122608.7433373258
1405,[2021-02-22 16:51:28.027] $GPGGA,75127.6,3713.961142,N,13701.56706,E,4,13,1.0,92.4401,M,37.55,M,5.0,0000*66,37.232685700000005,137.02611766666666,679735.286332259,4122608.739638782
