,Format,Time,Latitude,LatType,Longitude,LonType,Status,Satellite,LevelAccuracy,Altitude(sea),M(sea),Altitude(geoid),M(geoid),DGPS use,checksum,Lat,Lon,UTM_X,UTM_Y
1015,[2021-02-22 16:46:59.529] $GPGGA,74659.1,3713.9611323,N,13701.5670821,E,4,13,0.9,92.4362,M,37.55,M,2.0,0000*64,37.23268553833333,137.02611803500002,679735.3193944646,4122608.7224003174
1016,[2021-02-22 16:46:59.607] $GPGGA,74659.2,3713.9611321999996,N,13701.567082700003,E,4,13,0.9,92.438,M,37.55,M,2.0,0000*6C,37.23268553666666,137.02611804500006,679735.3202856168,4122608.722234379
1017,[2021-02-22 16:46:59.701] $GPGGA,74659.3,3713.9611321,N,13701.5670812,E,4,13,0.9,92.4367,M,37.55,M,2.0,0000*61,37.23268553500001,137.02611801999998,679735.3180715885,4122608.7220019777
1018,[2021-02-22 16:46:59.826] $GPGGA,74659.4,3713.961132,N,13701.5670815,E,4,13,0.9,92.4357,M,37.55,M,2.0,0000*63,37.23268553333333,137.026118025,679735.3185191439,4122608.721826545
1019,[2021-02-22 16:46:59.920] $GPGGA,74659.5,3713.9611317000004,N,13701.567081799998,E,4,13,0.9,92.4362,M,37.55,M,2.0,0000*6D,37.23268552833334,137.02611803,679735.3189746159,4122608.7212812607
1020,[2021-02-22 16:47:00.013] $GPGGA,74659.6,3713.9611321999996,N,13701.5670826,E,4,13,0.9,92.4373,M,37.55,M,2.0,0000*65,37.23268553666666,137.02611804333335,679735.3201377474,4122608.722231214
1021,[2021-02-22 16:47:00.123] $GPGGA,74659.7,3713.9611321,N,13701.5670824,E,4,13,0.9,92.4364,M,37.55,M,2.0,0000*63,37.23268553500001,137.02611804000003,679735.3198459761,4122608.72203996
1022,[2021-02-22 16:47:00.201] $GPGGA,74659.8,3713.9611318,N,13701.567080899998,E,4,13,0.9,92.433,M,37.55,M,2.0,0000*68,37.23268553,137.02611801499995,679735.3176398645,4122608.7214376996
1023,[2021-02-22 16:47:00.326] $GPGGA,74659.9,3713.9611321,N,13701.567080399998,E,4,13,0.9,92.4337,M,37.55,M,2.0,0000*69,37.23268553500001,137.02611800666665,679735.316888665,4122608.721976658
1024,[2021-02-22 16:47:00.404] $GPGGA,74700.0,3713.9611318999996,N,13701.567080200002,E,4,13,0.9,92.4337,M,37.55,M,3.0,0000*61,37.23268553166666,137.02611800333335,679735.3166008544,4122608.7216004706
1025,[2021-02-22 16:47:00.513] $GPGGA,74700.1,3713.9611321,N,13701.5670808,E,4,13,0.9,92.4357,M,37.55,M,3.0,0000*67,37.23268553500001,137.0261180133333,679735.3174801267,4122608.7219893183
1026,[2021-02-22 16:47:00.623] $GPGGA,74700.2,3713.9611318999996,N,13701.567081099998,E,4,13,0.9,92.4377,M,37.55,M,3.0,0000*65,37.23268553166666,137.0261180183333,679735.3179316404,4122608.721628956
1027,[2021-02-22 16:47:00.732] $GPGGA,74700.3,3713.9611313,N,13701.5670815,E,4,13,0.9,92.4375,M,37.55,M,3.0,0000*68,37.232685521666674,137.026118025,679735.3185468526,4122608.720532056
1028,[2021-02-22 16:47:00.810] $GPGGA,74700.4,3713.9611308,N,13701.5670806,E,4,13,0.9,92.4404,M,37.55,M,3.0,0000*66,37.23268551333333,137.02611801,679735.3172358584,4122608.719578931
1029,[2021-02-22 16:47:00.919] $GPGGA,74700.5,3713.9611318,N,13701.567080899998,E,4,13,0.9,92.4412,M,37.55,M,3.0,0000*6E,37.23268553,137.02611801499995,679735.3176398645,4122608.7214376996
1030,[2021-02-22 16:47:01.013] $GPGGA,74700.6,3713.9611318,N,13701.5670805,E,4,13,0.9,92.4402,M,37.55,M,3.0,0000*60,37.23268553,137.02611800833336,679735.3170484096,4122608.72142504
1031,[2021-02-22 16:47:01.123] $GPGGA,74700.7,3713.9611314000003,N,13701.5670805,E,4,13,0.9,92.441,M,37.55,M,3.0,0000*6E,37.232685523333345,137.02611800833336,679735.3170642431,4122608.7206853325
1032,[2021-02-22 16:47:01.201] $GPGGA,74700.8,3713.9611311999997,N,13701.5670805,E,4,13,0.9,92.4433,M,37.55,M,3.0,0000*66,37.23268552,137.02611800833336,679735.31707216,4122608.720315476
1033,[2021-02-22 16:47:01.326] $GPGGA,74700.9,3713.9611306,N,13701.567080399998,E,4,13,0.9,92.4421,M,37.55,M,3.0,0000*60,37.232685509999996,137.02611800666665,679735.316948041,4122608.7192027476
1034,[2021-02-22 16:47:01.404] $GPGGA,74701.0,3713.9611308,N,13701.5670801,E,4,13,0.9,92.4419,M,37.55,M,4.0,0000*6F,37.23268551333333,137.02611800166667,679735.3164965318,4122608.7195631065
1035,[2021-02-22 16:47:01.497] $GPGGA,74701.1,3713.961131,N,13701.56708,E,4,13,0.9,92.4436,M,37.55,M,4.0,0000*6B,37.23268551666666,137.02611800000003,679735.3163407501,4122608.7199297966
1036,[2021-02-22 16:47:01.623] $GPGGA,74701.2,3713.9611309,N,13701.567080899998,E,4,13,0.9,92.4425,M,37.55,M,4.0,0000*6B,37.23268551500001,137.02611801499995,679735.3176754902,4122608.719773356
1037,[2021-02-22 16:47:01.701] $GPGGA,74701.3,3713.9611309,N,13701.5670799,E,4,13,0.9,92.4423,M,37.55,M,4.0,0000*6A,37.23268551500001,137.02611799833332,679735.3161968414,4122608.7197417044
1038,[2021-02-22 16:47:01.826] $GPGGA,74701.4,3713.9611311,N,13701.5670787,E,4,13,0.9,92.4418,M,37.55,M,4.0,0000*63,37.23268551833333,137.02611797833333,679735.3144145416,4122608.720073577
1039,[2021-02-22 16:47:01.904] $GPGGA,74701.5,3713.9611313,N,13701.5670778,E,4,13,0.9,92.441,M,37.55,M,4.0,0000*68,37.232685521666674,137.02611796333335,679735.3130758364,4122608.720414948
1040,[2021-02-22 16:47:02.029] $GPGGA,74701.6,3713.9611311,N,13701.567077700001,E,4,13,0.9,92.439,M,37.55,M,4.0,0000*69,37.23268551833333,137.0261179616667,679735.3129358906,4122608.720041926
1041,[2021-02-22 16:47:02.107] $GPGGA,74701.7,3713.9611313,N,13701.567077200001,E,4,13,0.9,92.439,M,37.55,M,4.0,0000*6F,37.232685521666674,137.02611795333337,679735.3121886471,4122608.720395957
1042,[2021-02-22 16:47:02.232] $GPGGA,74701.8,3713.9611314000003,N,13701.567077700001,E,4,13,0.9,92.4401,M,37.55,M,4.0,0000*6D,37.232685523333345,137.0261179616667,679735.3129240153,4122608.7205967093
1043,[2021-02-22 16:47:02.310] $GPGGA,74701.9,3713.9611314999997,N,13701.567078400001,E,4,13,0.9,92.4418,M,37.55,M,4.0,0000*69,37.232685524999994,137.02611797333336,679735.3139551134,4122608.7208037903
1044,[2021-02-22 16:47:02.435] $GPGGA,74702.0,3713.9611321999996,N,13701.5670785,E,4,13,0.9,92.4412,M,37.55,M,5.0,0000*6D,37.23268553666666,137.026117975,679735.3140752695,4122608.7221014462
1045,[2021-02-22 16:47:02.529] $GPGGA,74702.1,3713.9611324,N,13701.5670787,E,4,13,0.9,92.4423,M,37.55,M,5.0,0000*6A,37.23268554,137.02611797833333,679735.3143630824,4122608.7224776326
1046,[2021-02-22 16:47:02.622] $GPGGA,74702.2,3713.9611325,N,13701.567078999999,E,4,13,0.9,92.4424,M,37.55,M,5.0,0000*69,37.232685541666676,137.02611798333328,679735.3148027142,4122608.7226720555
1047,[2021-02-22 16:47:02.716] $GPGGA,74702.3,3713.9611325,N,13701.567078799999,E,4,13,0.9,92.4403,M,37.55,M,5.0,0000*64,37.232685541666676,137.02611797999998,679735.3145069866,4122608.722665725
1048,[2021-02-22 16:47:02.826] $GPGGA,74702.4,3713.9611324,N,13701.5670789,E,4,13,0.9,92.4407,M,37.55,M,5.0,0000*67,37.23268554,137.02611798166663,679735.3146588099,4122608.7224839623
1049,[2021-02-22 16:47:02.904] $GPGGA,74702.5,3713.9611329000004,N,13701.567079499999,E,4,13,0.9,92.4412,M,37.55,M,5.0,0000*62,37.23268554833334,137.02611799166664,679735.3155262094,4122608.7234275904
1050,[2021-02-22 16:47:03.029] $GPGGA,74702.6,3713.9611324,N,13701.567078999999,E,4,13,0.9,92.442,M,37.55,M,5.0,0000*68,37.23268554,137.02611798333328,679735.3148066725,4122608.7224871274
1051,[2021-02-22 16:47:03.107] $GPGGA,74702.7,3713.9611318,N,13701.5670789,E,4,13,0.9,92.4419,M,37.55,M,5.0,0000*64,37.23268553,137.02611798166663,679735.3146825603,4122608.7213743986
1052,[2021-02-22 16:47:03.232] $GPGGA,74702.8,3713.9611323,N,13701.567078799999,E,4,13,0.9,92.4412,M,37.55,M,5.0,0000*69,37.23268553833333,137.02611797999998,679735.3145149035,4122608.722295869
1053,[2021-02-22 16:47:03.326] $GPGGA,74702.9,3713.9611335999994,N,13701.567078400001,E,4,13,0.9,92.4403,M,37.55,M,5.0,0000*60,37.23268555999999,137.02611797333336,679735.313871987,4122608.7246872643
1054,[2021-02-22 16:47:03.404] $GPGGA,74703.0,3713.9611340000006,N,13701.5670782,E,4,13,0.9,92.4389,M,37.55,M,6.0,0000*69,37.23268556666668,137.02611797,679735.3135604213,4122608.725420645
1055,[2021-02-22 16:47:03.513] $GPGGA,74703.1,3713.961135,N,13701.567078299999,E,4,13,0.9,92.4371,M,37.55,M,6.0,0000*6F,37.232685583333335,137.02611797166665,679735.3136687,4122608.7272730814
1056,[2021-02-22 16:47:03.622] $GPGGA,74703.2,3713.9611338,N,13701.567076499998,E,4,13,0.9,92.4394,M,37.55,M,1.0,0000*66,37.232685563333334,137.02611794166663,679735.311054624,4122608.7249969826
1057,[2021-02-22 16:47:03.732] $GPGGA,74703.3,3713.9611325,N,13701.567076299998,E,4,13,0.9,92.4415,M,37.55,M,1.0,0000*63,37.232685541666676,137.0261179383333,679735.3108103535,4122608.7225865987
1058,[2021-02-22 16:47:03.810] $GPGGA,74703.4,3713.9611314000003,N,13701.5670761,E,4,13,0.9,92.4438,M,37.55,M,1.0,0000*6B,37.232685523333345,137.026117935,679735.3105581683,4122608.720546068
1059,[2021-02-22 16:47:03.919] $GPGGA,74703.5,3713.9611313,N,13701.567076199999,E,4,13,0.9,92.4461,M,37.55,M,1.0,0000*62,37.232685521666674,137.02611793666665,679735.3107099893,4122608.7203643066
1060,[2021-02-22 16:47:04.013] $GPGGA,74703.6,3713.9611323,N,13701.567076,E,4,13,0.9,92.4464,M,37.55,M,1.0,0000*65,37.23268553833333,137.02611793333335,679735.3103746779,4122608.7222072477
1061,[2021-02-22 16:47:04.122] $GPGGA,74703.7,3713.9611331,N,13701.567076,E,4,13,0.9,92.4461,M,37.55,M,1.0,0000*62,37.23268555166666,137.02611793333335,679735.3103430108,4122608.7236866653
1062,[2021-02-22 16:47:04.200] $GPGGA,74703.8,3713.9611329000004,N,13701.5670766,E,4,13,0.9,92.448,M,37.55,M,1.0,0000*6D,37.23268554833334,137.02611794333333,679735.3112381168,4122608.723335804
1063,[2021-02-22 16:47:04.325] $GPGGA,74703.9,3713.9611326,N,13701.567077000002,E,4,13,0.9,92.4459,M,37.55,M,1.0,0000*60,37.23268554333333,137.02611795,679735.311841456,4122608.7227936797
1064,[2021-02-22 16:47:04.404] $GPGGA,74704.0,3713.9611324,N,13701.567076299998,E,4,13,0.9,92.4432,M,37.55,M,2.0,0000*60,37.23268554,137.0261179383333,679735.3108143118,4122608.72240167
1065,[2021-02-22 16:47:04.513] $GPGGA,74704.1,3713.9611316,N,13701.5670766,E,4,13,0.9,92.4433,M,37.55,M,2.0,0000*64,37.232685526666664,137.02611794333333,679735.3112895759,4122608.720931747
1066,[2021-02-22 16:47:04.607] $GPGGA,74704.2,3713.9611321999996,N,13701.5670771,E,4,13,0.9,92.4454,M,37.55,M,2.0,0000*67,37.23268553666666,137.02611795166666,679735.3120051522,4122608.722057135
1067,[2021-02-22 16:47:04.732] $GPGGA,74704.3,3713.9611327,N,13701.567076299998,E,4,13,0.9,92.4458,M,37.55,M,2.0,0000*6C,37.232685544999995,137.0261179383333,679735.3108024368,4122608.7229564516
1068,[2021-02-22 16:47:04.810] $GPGGA,74704.4,3713.9611331,N,13701.567076199999,E,4,13,0.9,92.4452,M,37.55,M,2.0,0000*67,37.23268555166666,137.02611793666665,679735.3106387382,4122608.7236929955
1069,[2021-02-22 16:47:04.919] $GPGGA,74704.5,3713.9611331999995,N,13701.5670764,E,4,13,0.9,92.4435,M,37.55,M,2.0,0000*62,37.232685553333326,137.02611793999998,679735.3109305096,4122608.723884252
1070,[2021-02-22 16:47:04.997] $GPGGA,74704.6,3713.9611325,N,13701.5670761,E,4,13,0.9,92.4425,M,37.55,M,2.0,0000*63,37.232685541666676,137.026117935,679735.310514626,4122608.722580268
1071,[2021-02-22 16:47:05.122] $GPGGA,74704.7,3713.9611325,N,13701.5670764,E,4,13,0.9,92.4431,M,37.55,M,2.0,0000*62,37.232685541666676,137.02611793999998,679735.3109582184,4122608.7225897633
1072,[2021-02-22 16:47:05.232] $GPGGA,74704.8,3713.961132,N,13701.5670773,E,4,13,0.9,92.4432,M,37.55,M,2.0,0000*6D,37.23268553333333,137.02611795500002,679735.3123088032,4122608.7216936117
1073,[2021-02-22 16:47:05.310] $GPGGA,74704.9,3713.9611314999997,N,13701.567077700001,E,4,13,0.9,92.4434,M,37.55,M,2.0,0000*68,37.232685524999994,137.0261179616667,679735.312920057,4122608.720781635
1074,[2021-02-22 16:47:05.435] $GPGGA,74705.0,3713.961132,N,13701.567077700001,E,4,13,0.9,92.442,M,37.55,M,3.0,0000*62,37.23268553333333,137.0261179616667,679735.312900265,4122608.721706272
1075,[2021-02-22 16:47:05.529] $GPGGA,74705.1,3713.9611324,N,13701.567077700001,E,4,13,0.9,92.4427,M,37.55,M,3.0,0000*60,37.23268554,137.0261179616667,679735.3128844313,4122608.722445981
1076,[2021-02-22 16:47:05.622] $GPGGA,74705.2,3713.9611318,N,13701.5670775,E,4,13,0.9,92.4423,M,37.55,M,3.0,0000*6A,37.23268553,137.02611795833332,679735.3126124474,4122608.721330087
1077,[2021-02-22 16:47:05.700] $GPGGA,74705.3,3713.9611318,N,13701.5670774,E,4,13,0.9,92.4433,M,37.55,M,3.0,0000*6B,37.23268553,137.02611795666667,679735.3124645826,4122608.721326923
1078,[2021-02-22 16:47:05.825] $GPGGA,74705.4,3713.9611311999997,N,13701.5670779,E,4,13,0.9,92.4446,M,37.55,M,3.0,0000*69,37.23268552,137.026117965,679735.3132276598,4122608.7202331834
1079,[2021-02-22 16:47:05.903] $GPGGA,74705.5,3713.9611313,N,13701.567078,E,4,13,0.9,92.4449,M,37.55,M,3.0,0000*60,37.232685521666674,137.02611796666665,679735.3133715661,4122608.720421278
1080,[2021-02-22 16:47:06.028] $GPGGA,74705.6,3713.9611318,N,13701.567078100003,E,4,13,0.9,92.4461,M,37.55,M,3.0,0000*63,37.23268553,137.0261179683334,679735.3134996458,4122608.7213490778
1081,[2021-02-22 16:47:06.107] $GPGGA,74705.7,3713.961132,N,13701.5670782,E,4,13,0.9,92.4483,M,37.55,M,3.0,0000*66,37.23268553333333,137.02611797,679735.3136395894,4122608.721722097
1082,[2021-02-22 16:47:06.232] $GPGGA,74705.8,3713.9611321999996,N,13701.5670775,E,4,13,0.9,92.4517,M,37.55,M,3.0,0000*6F,37.23268553666666,137.02611795833332,679735.312596614,4122608.722069795
1083,[2021-02-22 16:47:06.325] $GPGGA,74705.9,3713.9611316,N,13701.5670764,E,4,13,0.9,92.4503,M,37.55,M,3.0,0000*6C,37.232685526666664,137.02611793999998,679735.310993844,4122608.7209254173
1084,[2021-02-22 16:47:06.435] $GPGGA,74706.0,3713.9611321,N,13701.567075600002,E,4,13,0.9,92.4479,M,37.55,M,4.0,0000*68,37.23268553500001,137.0261179266667,679735.3097911351,4122608.7218247335
1085,[2021-02-22 16:47:06.528] $GPGGA,74706.1,3713.9611314000003,N,13701.567076299998,E,4,13,0.9,92.4498,M,37.55,M,4.0,0000*66,37.232685523333345,137.0261179383333,679735.3108538958,4122608.720552399
1086,[2021-02-22 16:47:06.622] $GPGGA,74706.2,3713.9611311999997,N,13701.567077200001,E,4,13,0.9,92.4493,M,37.55,M,4.0,0000*68,37.23268552,137.02611795333337,679735.3121926056,4122608.7202110277
1087,[2021-02-22 16:47:06.700] $GPGGA,74706.3,3713.9611325,N,13701.5670785,E,4,13,0.9,92.4494,M,37.55,M,4.0,0000*62,37.232685541666676,137.026117975,679735.3140633942,4122608.7226562304
1088,[2021-02-22 16:47:06.825] $GPGGA,74706.4,3713.9611326,N,13701.567079100001,E,4,13,0.9,92.4498,M,37.55,M,4.0,0000*6F,37.23268554333333,137.02611798500004,679735.3149466297,4122608.7228601463
1089,[2021-02-22 16:47:06.919] $GPGGA,74706.5,3713.9611321,N,13701.567078799999,E,4,13,0.9,92.4495,M,37.55,M,4.0,0000*6C,37.23268553500001,137.02611797999998,679735.3145228202,4122608.7219260163
1090,[2021-02-22 16:47:07.013] $GPGGA,74706.6,3713.9611313,N,13701.5670779,E,4,13,0.9,92.4495,M,37.55,M,4.0,0000*60,37.232685521666674,137.026117965,679735.3132237012,4122608.7204181133
1091,[2021-02-22 16:47:07.122] $GPGGA,74706.7,3713.9611309,N,13701.567077700001,E,4,13,0.9,92.4504,M,37.55,M,4.0,0000*6D,37.23268551500001,137.0261179616667,679735.3129438075,4122608.7196720727
1092,[2021-02-22 16:47:07.200] $GPGGA,74706.8,3713.9611309,N,13701.5670774,E,4,13,0.9,92.4497,M,37.55,M,4.0,0000*6A,37.23268551500001,137.02611795666667,679735.3125002082,4122608.7196625783
1093,[2021-02-22 16:47:07.325] $GPGGA,74706.9,3713.961132,N,13701.5670787,E,4,13,0.9,92.4513,M,37.55,M,4.0,0000*61,37.23268553333333,137.02611797833333,679735.314378916,4122608.721737923
1094,[2021-02-22 16:47:07.403] $GPGGA,74707.0,3713.9611323,N,13701.567079100001,E,4,13,0.9,92.4512,M,37.55,M,5.0,0000*6D,37.23268553833333,137.02611798500004,679735.3149585049,4122608.722305365
1095,[2021-02-22 16:47:07.513] $GPGGA,74707.1,3713.9611333000003,N,13701.567078799999,E,4,13,0.9,92.4508,M,37.55,M,5.0,0000*6E,37.23268555500001,137.02611797999998,679735.3144753195,4122608.724145143
1096,[2021-02-22 16:47:07.622] $GPGGA,74707.2,3713.9611340000006,N,13701.5670782,E,4,13,0.9,92.4504,M,37.55,M,5.0,0000*6F,37.23268556666668,137.02611797,679735.3135604213,4122608.725420645
1097,[2021-02-22 16:47:07.731] $GPGGA,74707.3,3713.9611331,N,13701.5670773,E,4,13,0.9,92.4496,M,37.55,M,5.0,0000*6C,37.23268555166666,137.02611795500002,679735.3122652608,4122608.72372781
1098,[2021-02-22 16:47:07.810] $GPGGA,74707.4,3713.9611324,N,13701.5670774,E,4,13,0.9,92.4511,M,37.55,M,5.0,0000*66,37.23268554,137.02611795666667,679735.3124408323,4122608.722436486
1099,[2021-02-22 16:47:07.919] $GPGGA,74707.5,3713.9611318999996,N,13701.567077700001,E,4,13,0.9,92.4513,M,37.55,M,5.0,0000*68,37.23268553166666,137.0261179616667,679735.3129042233,4122608.7215213445
1100,[2021-02-22 16:47:07.997] $GPGGA,74707.6,3713.961132,N,13701.567078299999,E,4,13,0.9,92.4526,M,37.55,M,5.0,0000*6C,37.23268553333333,137.02611797166665,679735.3137874521,4122608.7217252627
1101,[2021-02-22 16:47:08.122] $GPGGA,74707.7,3713.9611329000004,N,13701.567078600001,E,4,13,0.9,92.4523,M,37.55,M,5.0,0000*64,37.23268554833334,137.02611797666668,679735.3141954255,4122608.723399105
1102,[2021-02-22 16:47:08.200] $GPGGA,74707.8,3713.9611336999997,N,13701.5670775,E,4,13,0.9,92.4516,M,37.55,M,5.0,0000*6E,37.23268556166666,137.02611795833332,679735.312537238,4122608.724843705
1103,[2021-02-22 16:47:08.325] $GPGGA,74707.9,3713.9611341,N,13701.5670774,E,4,13,0.9,92.4511,M,37.55,M,5.0,0000*68,37.23268556833333,137.02611795666667,679735.3123735395,4122608.7255802485
1104,[2021-02-22 16:47:08.403] $GPGGA,74708.0,3713.9611343,N,13701.5670782,E,4,13,0.9,92.4486,M,37.55,M,6.0,0000*69,37.232685571666664,137.02611797,679735.3135485463,4122608.7259754245
1105,[2021-02-22 16:47:08.513] $GPGGA,74708.1,3713.9611335,N,13701.5670796,E,4,13,0.9,92.4499,M,37.55,M,6.0,0000*62,37.23268555833333,137.02611799333332,679735.3156503262,4122608.7245403174
1106,[2021-02-22 16:47:08.606] $GPGGA,74708.2,3713.9611323,N,13701.5670792,E,4,13,0.9,92.4505,M,37.55,M,1.0,0000*61,37.23268553833333,137.0261179866667,679735.3151063697,4122608.72230853
1107,[2021-02-22 16:47:08.731] $GPGGA,74708.3,3713.961132,N,13701.5670782,E,4,13,0.9,92.4508,M,37.55,M,1.0,0000*6F,37.23268553333333,137.02611797,679735.3136395894,4122608.721722097
1108,[2021-02-22 16:47:08.825] $GPGGA,74708.4,3713.961132,N,13701.5670761,E,4,13,0.9,92.4525,M,37.55,M,1.0,0000*6A,37.23268553333333,137.026117935,679735.310534418,4122608.7216556305
1109,[2021-02-22 16:47:08.903] $GPGGA,74708.5,3713.9611318,N,13701.5670755,E,4,13,0.9,92.4546,M,37.55,M,1.0,0000*62,37.23268553,137.026117925,679735.3096551411,4122608.721266786
1110,[2021-02-22 16:47:09.028] $GPGGA,74708.6,3713.9611313,N,13701.5670764,E,4,13,0.9,92.4545,M,37.55,M,1.0,0000*6B,37.232685521666674,137.02611793999998,679735.3110057191,4122608.720370637
1111,[2021-02-22 16:47:09.106] $GPGGA,74708.7,3713.9611308,N,13701.5670773,E,4,13,0.9,92.4551,M,37.55,M,1.0,0000*63,37.23268551333333,137.02611795500002,679735.312356304,4122608.719474484
1112,[2021-02-22 16:47:09.231] $GPGGA,74708.8,3713.9611305,N,13701.567078100003,E,4,13,0.9,92.4545,M,37.55,M,1.0,0000*69,37.232685508333326,137.0261179683334,679735.313551105,4122608.7189450227
1113,[2021-02-22 16:47:09.309] $GPGGA,74708.9,3713.9611306999996,N,13701.567078600001,E,4,13,0.9,92.4561,M,37.55,M,1.0,0000*6B,37.23268551166666,137.02611797666668,679735.3142825103,4122608.719330702
1114,[2021-02-22 16:47:09.434] $GPGGA,74709.0,3713.9611309,N,13701.5670782,E,4,13,0.9,92.4556,M,37.55,M,2.0,0000*6E,37.23268551500001,137.02611797,679735.3136831317,4122608.719687898
1115,[2021-02-22 16:47:09.528] $GPGGA,74709.1,3713.9611314999997,N,13701.5670779,E,4,13,0.9,92.4561,M,37.55,M,2.0,0000*62,37.232685524999994,137.026117965,679735.3132157845,4122608.7207879657
1116,[2021-02-22 16:47:09.622] $GPGGA,74709.2,3713.9611327,N,13701.567078799999,E,4,13,0.9,92.4554,M,37.55,M,2.0,0000*68,37.232685544999995,137.02611797999998,679735.3144990699,4122608.7230355786
1117,[2021-02-22 16:47:09.700] $GPGGA,74709.3,3713.9611326,N,13701.567078299999,E,4,13,0.9,92.4555,M,37.55,M,2.0,0000*62,37.23268554333333,137.02611797166665,679735.3137637016,4122608.7228348264
1118,[2021-02-22 16:47:09.825] $GPGGA,74709.4,3713.9611323,N,13701.567078400001,E,4,13,0.9,92.4541,M,37.55,M,2.0,0000*62,37.23268553833333,137.02611797333336,679735.3139234462,4122608.722283209
1119,[2021-02-22 16:47:09.903] $GPGGA,74709.5,3713.9611321999996,N,13701.567077599999,E,4,13,0.9,92.4507,M,37.55,M,2.0,0000*6D,37.23268553666666,137.02611795999997,679735.3127444766,4122608.72207296
1120,[2021-02-22 16:47:10.028] $GPGGA,74709.6,3713.9611318999996,N,13701.5670773,E,4,13,0.9,92.4502,M,37.55,M,2.0,0000*66,37.23268553166666,137.02611795500002,679735.3123127617,4122608.721508683
1121,[2021-02-22 16:47:10.106] $GPGGA,74709.7,3713.9611318,N,13701.567076700001,E,4,13,0.9,92.4517,M,37.55,M,2.0,0000*67,37.23268553,137.02611794500004,679735.3114295285,4122608.7213047673
1122,[2021-02-22 16:47:10.231] $GPGGA,74709.8,3713.9611311999997,N,13701.5670768,E,4,13,0.9,92.4522,M,37.55,M,2.0,0000*6B,37.23268552,137.0261179466667,679735.3116011438,4122608.7201983687
1123,[2021-02-22 16:47:10.325] $GPGGA,74709.9,3713.9611311999997,N,13701.5670779,E,4,13,0.9,92.452,M,37.55,M,2.0,0000*68,37.23268552,137.026117965,679735.3132276598,4122608.7202331834
1124,[2021-02-22 16:47:10.419] $GPGGA,74710.0,3713.9611309,N,13701.5670785,E,4,13,0.9,92.4513,M,37.55,M,3.0,0000*61,37.23268551500001,137.026117975,679735.3141267286,4122608.7196973935
1125,[2021-02-22 16:47:10.513] $GPGGA,74710.1,3713.9611316,N,13701.5670789,E,4,13,0.9,92.4531,M,37.55,M,3.0,0000*62,37.232685526666664,137.02611798166663,679735.3146904771,4122608.7210045424
1126,[2021-02-22 16:47:10.606] $GPGGA,74710.2,3713.9611311999997,N,13701.567077599999,E,4,13,0.9,92.4526,M,37.55,M,3.0,0000*63,37.23268552,137.02611795999997,679735.3127840606,4122608.720223688
1127,[2021-02-22 16:47:10.731] $GPGGA,74710.3,3713.9611306999996,N,13701.567076199999,E,4,13,0.9,92.4543,M,37.55,M,3.0,0000*60,37.23268551166666,137.02611793666665,679735.3107337398,4122608.7192547405
1128,[2021-02-22 16:47:10.809] $GPGGA,74710.4,3713.9611306,N,13701.5670757,E,4,13,0.9,92.4549,M,37.55,M,3.0,0000*6A,37.232685509999996,137.02611792833335,679735.3099983737,4122608.7190539883
1129,[2021-02-22 16:47:10.919] $GPGGA,74710.5,3713.961131,N,13701.5670761,E,4,13,0.9,92.4554,M,37.55,M,3.0,0000*65,37.23268551666666,137.026117935,679735.310574002,4122608.719806358
1130,[2021-02-22 16:47:11.012] $GPGGA,74710.6,3713.9611303999995,N,13701.5670757,E,4,13,0.9,92.4543,M,37.55,M,3.0,0000*60,37.23268550666666,137.02611792833335,679735.3100062906,4122608.718684133
1131,[2021-02-22 16:47:11.122] $GPGGA,74710.7,3713.9611298,N,13701.567075100002,E,4,13,0.9,92.4549,M,37.55,M,3.0,0000*69,37.23268549666666,137.02611791833337,679735.3091428517,4122608.7175555793
1132,[2021-02-22 16:47:11.200] $GPGGA,74710.8,3713.9611299999997,N,13701.5670752,E,4,13,0.9,92.4554,M,37.55,M,3.0,0000*69,37.232685499999995,137.02611792000002,679735.3092827976,4122608.7179285996
1133,[2021-02-22 16:47:11.325] $GPGGA,74710.9,3713.9611299000003,N,13701.5670753,E,4,13,0.9,92.4548,M,37.55,M,3.0,0000*65,37.23268549833334,137.02611792166667,679735.3094346208,4122608.7177468385
1134,[2021-02-22 16:47:11.403] $GPGGA,74711.0,3713.9611299999997,N,13701.5670766,E,4,13,0.9,92.4539,M,37.55,M,4.0,0000*6B,37.232685499999995,137.02611794333333,679735.3113529102,4122608.717972909
1135,[2021-02-22 16:47:11.512] $GPGGA,74711.1,3713.9611308,N,13701.5670768,E,4,13,0.9,92.4537,M,37.55,M,4.0,0000*62,37.23268551333333,137.0261179466667,679735.3116169774,4122608.7194586587
1136,[2021-02-22 16:47:11.606] $GPGGA,74711.2,3713.9611314000003,N,13701.5670773,E,4,13,0.9,92.4536,M,37.55,M,4.0,0000*67,37.232685523333345,137.02611795500002,679735.3123325537,4122608.7205840494
1137,[2021-02-22 16:47:11.731] $GPGGA,74711.3,3713.9611314000003,N,13701.567076499998,E,4,13,0.9,92.4536,M,37.55,M,4.0,0000*61,37.232685523333345,137.02611794166663,679735.3111496256,4122608.720558728
1138,[2021-02-22 16:47:11.825] $GPGGA,74711.4,3713.9611318,N,13701.5670759,E,4,13,0.9,92.4519,M,37.55,M,4.0,0000*68,37.23268553,137.0261179316667,679735.3102466073,4122608.7212794465
1139,[2021-02-22 16:47:11.919] $GPGGA,74711.5,3713.961131,N,13701.5670764,E,4,13,0.9,92.4525,M,37.55,M,4.0,0000*60,37.23268551666666,137.02611793999998,679735.3110175943,4122608.719815854
1140,[2021-02-22 16:47:11.997] $GPGGA,74711.6,3713.9611306999996,N,13701.567077000002,E,4,13,0.9,92.4523,M,37.55,M,4.0,0000*66,37.23268551166666,137.02611795,679735.3119166655,4122608.7192800613
1141,[2021-02-22 16:47:12.122] $GPGGA,74711.7,3713.9611313,N,13701.5670771,E,4,13,0.9,92.4522,M,37.55,M,4.0,0000*62,37.232685521666674,137.02611795166666,679735.3120407778,4122608.7203927925
1142,[2021-02-22 16:47:12.200] $GPGGA,74711.8,3713.9611305,N,13701.5670773,E,4,13,0.9,92.4544,M,37.55,M,4.0,0000*68,37.232685508333326,137.02611795500002,679735.3123681792,4122608.7189197014
1143,[2021-02-22 16:47:12.325] $GPGGA,74711.9,3713.961131,N,13701.567079100001,E,4,13,0.9,92.4556,M,37.55,M,4.0,0000*62,37.23268551666666,137.02611798500004,679735.3150099639,4122608.7199013107
1144,[2021-02-22 16:47:12.434] $GPGGA,74712.0,3713.9611321,N,13701.567080300001,E,4,13,0.9,92.4577,M,37.55,M,5.0,0000*6C,37.23268553500001,137.026118005,679735.3167408025,4122608.7219734923
1145,[2021-02-22 16:47:12.528] $GPGGA,74712.1,3713.9611327,N,13701.567080399998,E,4,13,0.9,92.4583,M,37.55,M,5.0,0000*67,37.232685544999995,137.02611800666665,679735.3168649146,4122608.723086219
1146,[2021-02-22 16:47:12.622] $GPGGA,74712.2,3713.9611331999995,N,13701.567078600001,E,4,13,0.9,92.4581,M,37.55,M,5.0,0000*67,37.232685553333326,137.02611797666668,679735.3141835504,4122608.7239538846
1147,[2021-02-22 16:47:12.716] $GPGGA,74712.3,3713.9611336999997,N,13701.5670773,E,4,13,0.9,92.459,M,37.55,M,5.0,0000*69,37.23268556166666,137.02611795500002,679735.3122415105,4122608.724837375
1148,[2021-02-22 16:47:12.825] $GPGGA,74712.4,3713.9611342,N,13701.5670785,E,4,13,0.9,92.4585,M,37.55,M,5.0,0000*61,37.232685569999994,137.026117975,679735.3139961015,4122608.7257999927
1149,[2021-02-22 16:47:12.903] $GPGGA,74712.5,3713.9611346999995,N,13701.5670805,E,4,13,0.9,92.4579,M,37.55,M,5.0,0000*61,37.23268557833333,137.02611800833336,679735.3169336161,4122608.7267879318
1150,[2021-02-22 16:47:13.028] $GPGGA,74712.6,3713.9611348000003,N,13701.5670815,E,4,13,0.9,92.453,M,37.55,M,5.0,0000*61,37.23268558,137.026118025,679735.3184083088,4122608.727004509
1151,[2021-02-22 16:47:13.106] $GPGGA,74712.7,3713.9611344000004,N,13701.5670833,E,4,13,0.9,92.4525,M,37.55,M,5.0,0000*6C,37.232685573333335,137.026118055,679735.321085719,4122608.726321771
1152,[2021-02-22 16:47:13.231] $GPGGA,74712.8,3713.9611340000006,N,13701.5670834,E,4,13,0.9,92.4508,M,37.55,M,5.0,0000*6F,37.23268556666668,137.02611805666666,679735.3212494175,4122608.7255852297
1153,[2021-02-22 16:47:13.309] $GPGGA,74712.9,3713.9611339000003,N,13701.567083700002,E,4,13,0.9,92.4503,M,37.55,M,5.0,0000*68,37.23268556500001,137.0261180616667,679735.321696975,4122608.725409796
1154,[2021-02-22 16:47:13.434] $GPGGA,74713.0,3713.9611346,N,13701.5670842,E,4,13,0.9,92.4478,M,37.55,M,6.0,0000*64,37.23268557666667,137.02611807,679735.3224085907,4122608.726720112
1155,[2021-02-22 16:47:13.528] $GPGGA,74713.1,3713.9611363000004,N,13701.567085600002,E,4,13,0.9,92.4478,M,37.55,M,6.0,0000*67,37.232685605,137.02611809333337,679735.3244114151,4122608.7299081865
1156,[2021-02-22 16:47:13.622] $GPGGA,74713.2,3713.9611361999996,N,13701.567088799999,E,4,13,0.9,92.4384,M,37.55,M,1.0,0000*65,37.23268560333333,137.02611814666665,679735.3291470587,4122608.729824541
1157,[2021-02-22 16:47:13.715] $GPGGA,74713.3,3713.9611357,N,13701.567090999999,E,4,13,0.9,92.4315,M,37.55,M,1.0,0000*6A,37.232685595,137.0261181833333,679735.332419887,4122608.728969537
1158,[2021-02-22 16:47:13.825] $GPGGA,74713.4,3713.9611366999998,N,13701.567093099999,E,4,13,0.9,92.4287,M,37.55,M,1.0,0000*67,37.23268561166667,137.02611821833332,679735.3354854765,4122608.730885276
1159,[2021-02-22 16:47:13.903] $GPGGA,74713.5,3713.9611376000003,N,13701.5670935,E,4,13,0.9,92.4269,M,37.55,M,1.0,0000*62,37.23268562666667,137.026118225,679735.336041315,4122608.7325622826
1160,[2021-02-22 16:47:14.028] $GPGGA,74713.6,3713.9611376999997,N,13701.567092700001,E,4,13,0.9,92.4241,M,37.55,M,1.0,0000*69,37.23268562833332,137.02611821166667,679735.3348544331,4122608.7327218875
1161,[2021-02-22 16:47:14.122] $GPGGA,74713.7,3713.9611369000004,N,13701.5670928,E,4,13,0.9,92.4259,M,37.55,M,1.0,0000*61,37.232685615,137.02611821333332,679735.3350339652,4122608.731245637
1162,[2021-02-22 16:47:14.200] $GPGGA,74713.8,3713.961136,N,13701.5670919,E,4,13,0.9,92.424,M,37.55,M,1.0,0000*6D,37.232685599999996,137.02611819833334,679735.3337388024,4122608.729552805
1163,[2021-02-22 16:47:14.325] $GPGGA,74713.9,3713.9611354000003,N,13701.5670907,E,4,13,0.9,92.4235,M,37.55,M,1.0,0000*66,37.23268559,137.02611817833335,679735.3319881696,4122608.7284052605
1164,[2021-02-22 16:47:14.403] $GPGGA,74714.0,3713.961135,N,13701.567088799999,E,4,13,0.9,92.422,M,37.55,M,2.0,0000*6D,37.232685583333335,137.02611814666665,679735.3291945594,4122608.727605414
1165,[2021-02-22 16:47:14.512] $GPGGA,74714.1,3713.9611346999995,N,13701.567086200002,E,4,13,0.9,92.4231,M,37.55,M,2.0,0000*6E,37.23268557833333,137.0261181033334,679735.3253619455,4122608.7269683406
1166,[2021-02-22 16:47:14.606] $GPGGA,74714.2,3713.9611335,N,13701.5670842,E,4,13,0.9,92.4256,M,37.55,M,2.0,0000*6B,37.23268555833333,137.02611807,679735.322452133,4122608.7246859116
1167,[2021-02-22 16:47:14.731] $GPGGA,74714.3,3713.9611314999997,N,13701.5670813,E,4,13,0.9,92.4278,M,37.55,M,2.0,0000*60,37.232685524999994,137.02611802166663,679735.3182432038,4122608.720895577
1168,[2021-02-22 16:47:14.809] $GPGGA,74714.4,3713.9611308,N,13701.5670792,E,4,13,0.9,92.4287,M,37.55,M,2.0,0000*6D,37.23268551333333,137.0261179866667,679735.3151657457,4122608.71953462
1169,[2021-02-22 16:47:14.918] $GPGGA,74714.5,3713.9611299999997,N,13701.567080399998,E,4,13,0.9,92.432,M,37.55,M,2.0,0000*68,37.232685499999995,137.02611800666665,679735.3169717913,4122608.7180931834
1170,[2021-02-22 16:47:15.012] $GPGGA,74714.6,3713.9611301,N,13701.5670822,E,4,13,0.9,92.4327,M,37.55,M,2.0,0000*69,37.23268550166667,137.02611803666667,679735.3196294119,4122608.7183350828
1171,[2021-02-22 16:47:15.122] $GPGGA,74714.7,3713.9611318,N,13701.567084,E,4,13,0.9,92.4319,M,37.55,M,2.0,0000*69,37.23268553,137.0261180666667,679735.3222236983,4122608.721535818
1172,[2021-02-22 16:47:15.200] $GPGGA,74714.8,3713.9611324,N,13701.5670868,E,4,13,0.9,92.4329,M,37.55,M,2.0,0000*60,37.23268554,137.02611811333333,679735.3263401735,4122608.7227340043
1173,[2021-02-22 16:47:15.325] $GPGGA,74714.9,3713.9611338,N,13701.5670887,E,4,13,0.9,92.4322,M,37.55,M,2.0,0000*66,37.232685563333334,137.026118145,679735.3290941975,4122608.725383122
1174,[2021-02-22 16:47:15.403] $GPGGA,74715.0,3713.9611344000004,N,13701.5670894,E,4,13,0.9,92.4321,M,37.55,M,3.0,0000*65,37.232685573333335,137.02611815666663,679735.3301055012,4122608.726514841
1175,[2021-02-22 16:47:15.512] $GPGGA,74715.1,3713.9611348000003,N,13701.5670887,E,4,13,0.9,92.4318,M,37.55,M,3.0,0000*60,37.23268558,137.026118145,679735.3290546135,4122608.727232394
1176,[2021-02-22 16:47:15.622] $GPGGA,74715.2,3713.9611346,N,13701.567088299998,E,4,13,0.9,92.4312,M,37.55,M,3.0,0000*63,37.23268557666667,137.02611813833332,679735.3284710663,4122608.72684988
1177,[2021-02-22 16:47:15.731] $GPGGA,74715.3,3713.9611345,N,13701.567087399999,E,4,13,0.9,92.4308,M,37.55,M,3.0,0000*62,37.232685575,137.02611812333333,679735.3271442386,4122608.726636466
1178,[2021-02-22 16:47:15.809] $GPGGA,74715.4,3713.9611342,N,13701.5670867,E,4,13,0.9,92.4316,M,37.55,M,3.0,0000*6F,37.232685569999994,137.02611811166668,679735.3261210574,4122608.726059529
1179,[2021-02-22 16:47:15.918] $GPGGA,74715.5,3713.9611335999994,N,13701.567084600001,E,4,13,0.9,92.4329,M,37.55,M,3.0,0000*62,37.23268555999999,137.02611807666668,679735.3230396364,4122608.724883499
1180,[2021-02-22 16:47:16.028] $GPGGA,74715.6,3713.9611328,N,13701.5670829,E,4,13,0.9,92.4342,M,37.55,M,3.0,0000*6A,37.232685546666666,137.0261180483333,679735.3205575894,4122608.723350275
1181,[2021-02-22 16:47:16.106] $GPGGA,74715.7,3713.9611328,N,13701.5670841,E,4,13,0.9,92.4346,M,37.55,M,3.0,0000*61,37.232685546666666,137.02611806833335,679735.3223319768,4122608.723388256
1182,[2021-02-22 16:47:16.231] $GPGGA,74715.8,3713.9611325,N,13701.567084399998,E,4,13,0.9,92.4336,M,37.55,M,3.0,0000*61,37.232685541666676,137.0261180733333,679735.3227874445,4122608.7228429695
1183,[2021-02-22 16:47:16.309] $GPGGA,74715.9,3713.961132,N,13701.567082799998,E,4,13,0.9,92.433,M,37.55,M,3.0,0000*69,37.23268553333333,137.02611804666665,679735.3204413917,4122608.7218676913
1184,[2021-02-22 16:47:16.434] $GPGGA,74716.0,3713.9611318999996,N,13701.5670826,E,4,13,0.9,92.4315,M,37.55,M,4.0,0000*67,37.23268553166666,137.02611804333335,679735.3201496226,4122608.721676433
1185,[2021-02-22 16:47:16.528] $GPGGA,74716.1,3713.9611318,N,13701.5670842,E,4,13,0.9,92.4304,M,37.55,M,4.0,0000*65,37.23268553,137.02611807,679735.3225194258,4122608.721542148
1186,[2021-02-22 16:47:16.621] $GPGGA,74716.2,3713.9611325,N,13701.5670845,E,4,13,0.9,92.4274,M,37.55,M,4.0,0000*69,37.232685541666676,137.02611807500003,679735.3229353139,4122608.722846134
1187,[2021-02-22 16:47:16.700] $GPGGA,74716.3,3713.9611323,N,13701.567083700002,E,4,13,0.9,92.4271,M,37.55,M,4.0,0000*6E,37.23268553833333,137.0261180616667,679735.3217603094,4122608.722450959
1188,[2021-02-22 16:47:16.825] $GPGGA,74716.4,3713.9611324,N,13701.5670831,E,4,13,0.9,92.4274,M,37.55,M,4.0,0000*6D,37.23268554,137.02611805166666,679735.320869155,4122608.722616896
1189,[2021-02-22 16:47:16.903] $GPGGA,74716.5,3713.961133,N,13701.5670834,E,4,13,0.9,92.4277,M,37.55,M,4.0,0000*6F,37.23268555,137.02611805666666,679735.3212890015,4122608.723735954
1190,[2021-02-22 16:47:17.028] $GPGGA,74716.6,3713.961133,N,13701.5670829,E,4,13,0.9,92.4272,M,37.55,M,4.0,0000*65,37.23268555,137.0261180483333,679735.3205496726,4122608.7237201286
1191,[2021-02-22 16:47:17.106] $GPGGA,74716.7,3713.9611323,N,13701.567081000001,E,4,13,0.9,92.4256,M,37.55,M,4.0,0000*6A,37.23268553833333,137.0261180166667,679735.3177679442,4122608.7223655013
1192,[2021-02-22 16:47:17.231] $GPGGA,74716.8,3713.9611321,N,13701.5670801,E,4,13,0.9,92.4255,M,37.55,M,4.0,0000*64,37.23268553500001,137.02611800166667,679735.3164450726,4122608.7219671626
1193,[2021-02-22 16:47:17.309] $GPGGA,74716.9,3713.9611335999994,N,13701.5670805,E,4,13,0.9,92.4267,M,37.55,M,4.0,0000*66,37.23268555999999,137.02611800833336,679735.3169771584,4122608.7247537305
1194,[2021-02-22 16:47:17.434] $GPGGA,74717.0,3713.9611336999997,N,13701.567081700001,E,4,13,0.9,92.4259,M,37.55,M,5.0,0000*60,37.23268556166666,137.02611802833334,679735.3187475831,4122608.724976638
1195,[2021-02-22 16:47:17.528] $GPGGA,74717.1,3713.9611341,N,13701.5670814,E,4,13,0.9,92.4258,M,37.55,M,5.0,0000*62,37.23268556833333,137.02611802333334,679735.3182881526,4122608.725706851
1196,[2021-02-22 16:47:17.621] $GPGGA,74717.2,3713.9611350999994,N,13701.567082,E,4,13,0.9,92.4257,M,37.55,M,5.0,0000*68,37.232685584999984,137.02611803333332,679735.3191357602,4122608.7275751154
1197,[2021-02-22 16:47:17.731] $GPGGA,74717.3,3713.9611343,N,13701.567080899998,E,4,13,0.9,92.4267,M,37.55,M,5.0,0000*62,37.232685571666664,137.02611801499995,679735.3175409046,4122608.7260608827
1198,[2021-02-22 16:47:17.809] $GPGGA,74717.4,3713.9611349,N,13701.5670801,E,4,13,0.9,92.4261,M,37.55,M,5.0,0000*61,37.232685581666665,137.02611800166667,679735.3163342376,4122608.727145125
1199,[2021-02-22 16:47:17.934] $GPGGA,74717.5,3713.9611344000004,N,13701.5670789,E,4,13,0.9,92.426,M,37.55,M,5.0,0000*63,37.232685573333335,137.02611798166663,679735.3145796419,4122608.7261825074
1200,[2021-02-22 16:47:18.012] $GPGGA,74717.6,3713.9611340000006,N,13701.567078100003,E,4,13,0.9,92.4258,M,37.55,M,5.0,0000*67,37.23268556666668,137.0261179683334,679735.313412561,4122608.725417481
1201,[2021-02-22 16:47:18.121] $GPGGA,74717.7,3713.9611327,N,13701.567078299999,E,4,13,0.9,92.4261,M,37.55,M,5.0,0000*6F,37.232685544999995,137.02611797166665,679735.3137597432,4122608.7230197536
1202,[2021-02-22 16:47:18.199] $GPGGA,74717.8,3713.9611317000004,N,13701.567078799999,E,4,13,0.9,92.427,M,37.55,M,5.0,0000*68,37.23268552833334,137.02611797999998,679735.3145386537,4122608.721186307
1203,[2021-02-22 16:47:18.324] $GPGGA,74717.9,3713.9611318999996,N,13701.5670807,E,4,13,0.9,92.4264,M,37.55,M,5.0,0000*6A,37.23268553166666,137.02611801166665,679735.3173401786,4122608.721616296
1204,[2021-02-22 16:47:18.403] $GPGGA,74718.0,3713.9611325,N,13701.5670796,E,4,13,0.9,92.4246,M,37.55,M,6.0,0000*67,37.232685541666676,137.02611799333332,679735.3156899102,4122608.7226910456
1205,[2021-02-22 16:47:18.512] $GPGGA,74718.1,3713.9611335,N,13701.567078400001,E,4,13,0.9,92.4258,M,37.55,M,6.0,0000*6B,37.23268555833333,137.02611797333336,679735.3138759454,4122608.724502337
1206,[2021-02-22 16:47:18.621] $GPGGA,74718.2,3713.9611335,N,13701.567078299999,E,4,13,0.9,92.426,M,37.55,M,1.0,0000*63,37.23268555833333,137.02611797166665,679735.313728076,4122608.7244991716
1207,[2021-02-22 16:47:18.731] $GPGGA,74718.3,3713.9611328,N,13701.5670792,E,4,13,0.9,92.4253,M,37.55,M,1.0,0000*6E,37.232685546666666,137.0261179866667,679735.3150865777,4122608.7232331666
1208,[2021-02-22 16:47:18.809] $GPGGA,74718.4,3713.9611329000004,N,13701.5670799,E,4,13,0.9,92.4261,M,37.55,M,1.0,0000*62,37.23268554833334,137.02611799833332,679735.3161176734,4122608.723440251
1209,[2021-02-22 16:47:18.918] $GPGGA,74718.5,3713.9611321,N,13701.567080200002,E,4,13,0.9,92.4274,M,37.55,M,1.0,0000*62,37.23268553500001,137.02611800333335,679735.3165929376,4122608.721970327
1210,[2021-02-22 16:47:19.012] $GPGGA,74718.6,3713.9611311,N,13701.5670789,E,4,13,0.9,92.4298,M,37.55,M,1.0,0000*6C,37.23268551833333,137.02611798166663,679735.3147102691,4122608.7200799068
1211,[2021-02-22 16:47:19.121] $GPGGA,74718.7,3713.9611299999997,N,13701.5670771,E,4,13,0.9,92.4293,M,37.55,M,1.0,0000*61,37.232685499999995,137.02611795166666,679735.3120922369,4122608.7179887355
1212,[2021-02-22 16:47:19.199] $GPGGA,74718.8,3713.9611302000003,N,13701.567076299998,E,4,13,0.9,92.4282,M,37.55,M,1.0,0000*6F,37.23268550333334,137.0261179383333,679735.3109013967,4122608.7183332713
1213,[2021-02-22 16:47:19.324] $GPGGA,74718.9,3713.9611303999995,N,13701.5670774,E,4,13,0.9,92.4292,M,37.55,M,1.0,0000*6F,37.23268550666666,137.02611795666667,679735.3125200003,4122608.7187379394
1214,[2021-02-22 16:47:19.434] $GPGGA,74719.0,3713.9611302000003,N,13701.567077599999,E,4,13,0.9,92.4287,M,37.55,M,2.0,0000*64,37.23268550333334,137.02611795999997,679735.3128236445,4122608.718374417
1215,[2021-02-22 16:47:19.528] $GPGGA,74719.1,3713.9611299999997,N,13701.567077200001,E,4,13,0.9,92.4289,M,37.55,M,2.0,0000*6D,37.232685499999995,137.02611795333337,679735.3122401063,4122608.7179919006
1216,[2021-02-22 16:47:19.621] $GPGGA,74719.2,3713.9611296,N,13701.567076299998,E,4,13,0.9,92.4269,M,37.55,M,2.0,0000*6E,37.23268549333333,137.0261179383333,679735.310925147,4122608.7172237067
1217,[2021-02-22 16:47:19.699] $GPGGA,74719.3,3713.9611291,N,13701.5670759,E,4,13,0.9,92.4272,M,37.55,M,2.0,0000*6B,37.232685485000005,137.0261179316667,679735.3103534839,4122608.716286411
1218,[2021-02-22 16:47:19.824] $GPGGA,74719.4,3713.9611296,N,13701.567077200001,E,4,13,0.9,92.4284,M,37.55,M,2.0,0000*6B,37.23268549333333,137.02611795333337,679735.3122559399,4122608.7172521926
1219,[2021-02-22 16:47:19.903] $GPGGA,74719.5,3713.9611295,N,13701.567077700001,E,4,13,0.9,92.4289,M,37.55,M,2.0,0000*61,37.23268549166667,137.0261179616667,679735.3129992249,4122608.7170830914
1220,[2021-02-22 16:47:20.027] $GPGGA,74719.6,3713.9611299999997,N,13701.5670779,E,4,13,0.9,92.4304,M,37.55,M,2.0,0000*65,37.232685499999995,137.026117965,679735.3132751605,4122608.7180140563
1221,[2021-02-22 16:47:20.106] $GPGGA,74719.7,3713.9611305,N,13701.567078299999,E,4,13,0.9,92.4295,M,37.55,M,2.0,0000*6D,37.232685508333326,137.02611797166665,679735.313846828,4122608.718951352
1222,[2021-02-22 16:47:20.231] $GPGGA,74719.8,3713.9611306999996,N,13701.567078100003,E,4,13,0.9,92.4285,M,37.55,M,2.0,0000*63,37.23268551166666,137.0261179683334,679735.3135431883,4122608.719314877
1223,[2021-02-22 16:47:20.309] $GPGGA,74719.9,3713.9611306999996,N,13701.567077599999,E,4,13,0.9,92.4285,M,37.55,M,2.0,0000*6A,37.23268551166666,137.02611795999997,679735.3128038526,4122608.719299051
1224,[2021-02-22 16:47:20.434] $GPGGA,74720.0,3713.9611305,N,13701.567077200001,E,4,13,0.9,92.4273,M,37.55,M,3.0,0000*67,37.232685508333326,137.02611795333337,679735.3122203144,4122608.7189165372
1225,[2021-02-22 16:47:20.527] $GPGGA,74720.1,3713.9611294,N,13701.567076299998,E,4,13,0.9,92.4279,M,37.55,M,3.0,0000*65,37.232685489999994,137.0261179383333,679735.3109330637,4122608.7168538515
1226,[2021-02-22 16:47:20.621] $GPGGA,74720.2,3713.9611295,N,13701.567075799998,E,4,13,0.9,92.4282,M,37.55,M,3.0,0000*6B,37.23268549166667,137.02611792999994,679735.3101897765,4122608.7170229545
1227,[2021-02-22 16:47:20.699] $GPGGA,74720.3,3713.9611295,N,13701.5670775,E,4,13,0.9,92.4297,M,37.55,M,3.0,0000*61,37.23268549166667,137.02611795833332,679735.3127034906,4122608.7170767616
1228,[2021-02-22 16:47:20.824] $GPGGA,74720.4,3713.9611295,N,13701.567078,E,4,13,0.9,92.4296,M,37.55,M,3.0,0000*6D,37.23268549166667,137.02611796666665,679735.3134428173,4122608.717092586
1229,[2021-02-22 16:47:20.918] $GPGGA,74720.5,3713.9611294,N,13701.567077599999,E,4,13,0.9,92.4292,M,37.55,M,3.0,0000*60,37.232685489999994,137.02611795999997,679735.3128553117,4122608.716894997
1230,[2021-02-22 16:47:21.027] $GPGGA,74720.6,3713.9611296,N,13701.5670774,E,4,13,0.9,92.4299,M,37.55,M,3.0,0000*68,37.23268549333333,137.02611795666667,679735.3125516674,4122608.717258522
1231,[2021-02-22 16:47:21.106] $GPGGA,74720.7,3713.9611301,N,13701.5670768,E,4,13,0.9,92.4293,M,37.55,M,3.0,0000*61,37.23268550166667,137.0261179466667,679735.3116446862,4122608.7181641683
1232,[2021-02-22 16:47:21.230] $GPGGA,74720.8,3713.9611296,N,13701.567076700001,E,4,13,0.9,92.4302,M,37.55,M,3.0,0000*67,37.23268549333333,137.02611794500004,679735.3115166132,4122608.7172363666
1233,[2021-02-22 16:47:21.324] $GPGGA,74720.9,3713.9611295,N,13701.5670768,E,4,13,0.9,92.4306,M,37.55,M,3.0,0000*6E,37.23268549166667,137.0261179466667,679735.3116684365,4122608.717054605
1234,[2021-02-22 16:47:21.402] $GPGGA,74721.0,3713.9611294,N,13701.5670764,E,4,13,0.9,92.4295,M,37.55,M,4.0,0000*67,37.232685489999994,137.02611793999998,679735.3110809287,4122608.716857016
1235,[2021-02-22 16:47:21.512] $GPGGA,74721.1,3713.9611298,N,13701.567076,E,4,13,0.9,92.4288,M,37.55,M,4.0,0000*62,37.23268549666666,137.02611793333335,679735.3104736379,4122608.7175840647
1236,[2021-02-22 16:47:21.606] $GPGGA,74721.2,3713.9611306,N,13701.5670757,E,4,13,0.9,92.4276,M,37.55,M,4.0,0000*62,37.232685509999996,137.02611792833335,679735.3099983737,4122608.7190539883
1237,[2021-02-22 16:47:21.731] $GPGGA,74721.3,3713.9611311999997,N,13701.567075799998,E,4,13,0.9,92.4261,M,37.55,M,4.0,0000*6F,37.23268552,137.02611792999994,679735.3101224838,4122608.7201667167
1238,[2021-02-22 16:47:21.809] $GPGGA,74721.4,3713.9611318999996,N,13701.567075799998,E,4,13,0.9,92.4281,M,37.55,M,4.0,0000*6D,37.23268553166666,137.02611792999994,679735.310094775,4122608.7214612076
1239,[2021-02-22 16:47:21.918] $GPGGA,74721.5,3713.961132,N,13701.567076499998,E,4,13,0.9,92.4284,M,37.55,M,4.0,0000*6D,37.23268553333333,137.02611794166663,679735.3111258752,4122608.7216682904
1240,[2021-02-22 16:47:22.012] $GPGGA,74721.6,3713.961131,N,13701.567076499998,E,4,13,0.9,92.4295,M,37.55,M,4.0,0000*6D,37.23268551666666,137.02611794166663,679735.3111654592,4122608.7198190177
1241,[2021-02-22 16:47:22.121] $GPGGA,74721.7,3713.9611301,N,13701.567076700001,E,4,13,0.9,92.4296,M,37.55,M,4.0,0000*6D,37.23268550166667,137.02611794500004,679735.3114968212,4122608.7181610037
1242,[2021-02-22 16:47:22.199] $GPGGA,74721.8,3713.9611305,N,13701.567077000002,E,4,13,0.9,92.427,M,37.55,M,4.0,0000*68,37.232685508333326,137.02611795,679735.3119245823,4122608.718910207
1243,[2021-02-22 16:47:22.324] $GPGGA,74721.9,3713.9611305,N,13701.567077000002,E,4,13,0.9,92.4227,M,37.55,M,4.0,0000*6B,37.232685508333326,137.02611795,679735.3119245823,4122608.718910207
1244,[2021-02-22 16:47:22.402] $GPGGA,74722.0,3713.9611306,N,13701.567076499998,E,4,13,0.9,92.4234,M,37.55,M,5.0,0000*65,37.232685509999996,137.02611794166663,679735.3111812928,4122608.7190793096
1245,[2021-02-22 16:47:22.512] $GPGGA,74722.1,3713.9611311999997,N,13701.567077700001,E,4,13,0.9,92.4245,M,37.55,M,5.0,0000*64,37.23268552,137.0261179616667,679735.3129319322,4122608.720226853
1246,[2021-02-22 16:47:22.605] $GPGGA,74722.2,3713.9611316,N,13701.567077200001,E,4,13,0.9,92.4249,M,37.55,M,5.0,0000*6A,37.232685526666664,137.02611795333337,679735.3121767719,4122608.720950737
1247,[2021-02-22 16:47:22.699] $GPGGA,74722.3,3713.9611306999996,N,13701.567076700001,E,4,13,0.9,92.4263,M,37.55,M,5.0,0000*67,37.23268551166666,137.02611794500004,679735.3114730709,4122608.7192705655
1248,[2021-02-22 16:47:22.809] $GPGGA,74722.4,3713.9611303999995,N,13701.5670761,E,4,13,0.9,92.4256,M,37.55,M,5.0,0000*63,37.23268550666666,137.026117935,679735.3105977523,4122608.7186967935
1249,[2021-02-22 16:47:22.918] $GPGGA,74722.5,3713.9611301,N,13701.567074899998,E,4,13,0.9,92.4269,M,37.55,M,5.0,0000*61,37.23268550166667,137.02611791499996,679735.3088352378,4122608.7181040314
1250,[2021-02-22 16:47:23.027] $GPGGA,74722.6,3713.9611303999995,N,13701.5670745,E,4,13,0.9,92.4278,M,37.55,M,5.0,0000*6B,37.23268550666666,137.02611790833333,679735.3082319053,4122608.718646152
1251,[2021-02-22 16:47:23.105] $GPGGA,74722.7,3713.9611308,N,13701.5670746,E,4,13,0.9,92.4266,M,37.55,M,5.0,0000*6A,37.23268551333333,137.02611790999998,679735.3083639366,4122608.719389027
1252,[2021-02-22 16:47:23.230] $GPGGA,74722.8,3713.9611314000003,N,13701.5670748,E,4,13,0.9,92.4248,M,37.55,M,5.0,0000*6A,37.232685523333345,137.0261179133333,679735.3086359159,4122608.720504922
1253,[2021-02-22 16:47:23.308] $GPGGA,74722.9,3713.9611311999997,N,13701.567074,E,4,13,0.9,92.4247,M,37.55,M,5.0,0000*6A,37.23268552,137.02611790000003,679735.3074609137,4122608.720109746
1254,[2021-02-22 16:47:23.434] $GPGGA,74723.0,3713.9611308,N,13701.567075799998,E,4,13,0.9,92.4221,M,37.55,M,6.0,0000*63,37.23268551333333,137.02611792999994,679735.3101383173,4122608.7194270073
1255,[2021-02-22 16:47:23.527] $GPGGA,74723.1,3713.9611311999997,N,13701.567076199999,E,4,13,0.9,92.4208,M,37.55,M,6.0,0000*6B,37.23268552,137.02611793666665,679735.3107139478,4122608.720179377
1256,[2021-02-22 16:47:23.621] $GPGGA,74723.2,3713.9611318999996,N,13701.567078100003,E,4,13,0.9,92.4196,M,37.55,M,1.0,0000*6D,37.23268553166666,137.0261179683334,679735.3134956874,4122608.721534004
1257,[2021-02-22 16:47:23.699] $GPGGA,74723.3,3713.9611321,N,13701.567078299999,E,4,13,0.9,92.4193,M,37.55,M,1.0,0000*60,37.23268553500001,137.02611797166665,679735.3137834936,4122608.7219101912
1258,[2021-02-22 16:47:23.824] $GPGGA,74723.4,3713.9611325,N,13701.567077700001,E,4,13,0.9,92.4191,M,37.55,M,1.0,0000*6A,37.232685541666676,137.0261179616667,679735.312880473,4122608.7226309096
1259,[2021-02-22 16:47:23.902] $GPGGA,74723.5,3713.9611321999996,N,13701.5670771,E,4,13,0.9,92.4183,M,37.55,M,1.0,0000*69,37.23268553666666,137.02611795166666,679735.3120051522,4122608.722057135
1260,[2021-02-22 16:47:24.027] $GPGGA,74723.6,3713.9611321,N,13701.567077000002,E,4,13,0.9,92.4184,M,37.55,M,1.0,0000*6F,37.23268553500001,137.02611795,679735.311861248,4122608.7218690454
1261,[2021-02-22 16:47:24.105] $GPGGA,74723.7,3713.9611318999996,N,13701.5670778,E,4,13,0.9,92.4168,M,37.55,M,1.0,0000*6F,37.23268553166666,137.02611796333335,679735.313052086,4122608.721524509
1262,[2021-02-22 16:47:24.230] $GPGGA,74723.8,3713.9611314000003,N,13701.567077700001,E,4,13,0.9,92.4177,M,37.55,M,1.0,0000*6C,37.232685523333345,137.0261179616667,679735.3129240153,4122608.7205967093
1263,[2021-02-22 16:47:24.308] $GPGGA,74723.9,3713.9611314000003,N,13701.5670774,E,4,13,0.9,92.4184,M,37.55,M,1.0,0000*62,37.232685523333345,137.02611795666667,679735.3124804161,4122608.720587215
1264,[2021-02-22 16:47:24.433] $GPGGA,74724.0,3713.9611316,N,13701.5670782,E,4,13,0.9,92.4181,M,37.55,M,2.0,0000*61,37.232685526666664,137.02611797,679735.313655423,4122608.7209823877
1265,[2021-02-22 16:47:24.527] $GPGGA,74724.1,3713.9611318999996,N,13701.5670785,E,4,13,0.9,92.4174,M,37.55,M,2.0,0000*62,37.23268553166666,137.026117975,679735.3140871447,4122608.7215466644
1266,[2021-02-22 16:47:24.621] $GPGGA,74724.2,3713.9611327,N,13701.567077700001,E,4,13,0.9,92.417,M,37.55,M,2.0,0000*65,37.232685544999995,137.0261179616667,679735.3128725563,4122608.7230007625
1267,[2021-02-22 16:47:24.699] $GPGGA,74724.3,3713.9611333000003,N,13701.567077700001,E,4,13,0.9,92.4172,M,37.55,M,2.0,0000*63,37.23268555500001,137.0261179616667,679735.3128488058,4122608.7241103277
1268,[2021-02-22 16:47:24.824] $GPGGA,74724.4,3713.961133,N,13701.5670771,E,4,13,0.9,92.4166,M,37.55,M,2.0,0000*64,37.23268555,137.02611795166666,679735.311973485,4122608.723536554
1269,[2021-02-22 16:47:24.933] $GPGGA,74724.5,3713.9611334,N,13701.5670775,E,4,13,0.9,92.416,M,37.55,M,2.0,0000*63,37.23268555666667,137.02611795833332,679735.3125491133,4122608.7242889237
1270,[2021-02-22 16:47:25.012] $GPGGA,74724.6,3713.9611328,N,13701.567078600001,E,4,13,0.9,92.416,M,37.55,M,2.0,0000*61,37.232685546666666,137.02611797666668,679735.3141993841,4122608.7232141765
1271,[2021-02-22 16:47:25.121] $GPGGA,74724.7,3713.9611318999996,N,13701.567078299999,E,4,13,0.9,92.4147,M,37.55,M,2.0,0000*62,37.23268553166666,137.02611797166665,679735.3137914104,4122608.7215403337
1272,[2021-02-22 16:47:25.199] $GPGGA,74724.8,3713.9611317000004,N,13701.567078799999,E,4,13,0.9,92.4153,M,37.55,M,2.0,0000*6D,37.23268552833334,137.02611797999998,679735.3145386537,4122608.721186307
1273,[2021-02-22 16:47:25.324] $GPGGA,74724.9,3713.961132,N,13701.5670785,E,4,13,0.9,92.4153,M,37.55,M,2.0,0000*65,37.23268553333333,137.026117975,679735.3140831862,4122608.7217315924
1274,[2021-02-22 16:47:25.402] $GPGGA,74725.0,3713.9611323,N,13701.5670789,E,4,13,0.9,92.4133,M,37.55,M,3.0,0000*65,37.23268553833333,137.02611798166663,679735.3146627683,4122608.7222990342
1275,[2021-02-22 16:47:25.511] $GPGGA,74725.1,3713.9611335,N,13701.5670794,E,4,13,0.9,92.4129,M,37.55,M,3.0,0000*64,37.23268555833333,137.02611799,679735.3153545965,4122608.7245339877
1276,[2021-02-22 16:47:25.621] $GPGGA,74725.2,3713.9611341,N,13701.567079499999,E,4,13,0.9,92.4147,M,37.55,M,3.0,0000*6D,37.23268556833333,137.02611799166664,679735.3154787087,4122608.725646715
1277,[2021-02-22 16:47:25.730] $GPGGA,74725.3,3713.9611341,N,13701.567078799999,E,4,13,0.9,92.4138,M,37.55,M,3.0,0000*68,37.23268556833333,137.02611797999998,679735.3144436523,4122608.7256245604
1278,[2021-02-22 16:47:25.808] $GPGGA,74725.4,3713.9611331999995,N,13701.5670785,E,4,13,0.9,92.4145,M,37.55,M,3.0,0000*6C,37.232685553333326,137.026117975,679735.3140356855,4122608.72395072
1279,[2021-02-22 16:47:25.918] $GPGGA,74725.5,3713.9611333000003,N,13701.567078600001,E,4,13,0.9,92.4138,M,37.55,M,3.0,0000*65,37.23268555500001,137.02611797666668,679735.314179592,4122608.724138813
1280,[2021-02-22 16:47:26.011] $GPGGA,74725.6,3713.9611333000003,N,13701.5670805,E,4,13,0.9,92.4133,M,37.55,M,3.0,0000*69,37.23268555500001,137.02611800833336,679735.3169890336,4122608.72419895
1281,[2021-02-22 16:47:26.121] $GPGGA,74725.7,3713.9611326,N,13701.5670815,E,4,13,0.9,92.4137,M,37.55,M,3.0,0000*69,37.23268554333333,137.026118025,679735.3184953935,4122608.7229361087
1282,[2021-02-22 16:47:26.199] $GPGGA,74725.8,3713.9611321999996,N,13701.567081799998,E,4,13,0.9,92.4146,M,37.55,M,3.0,0000*69,37.23268553666666,137.02611803,679735.318954824,4122608.7222058936
1283,[2021-02-22 16:47:26.324] $GPGGA,74725.9,3713.961132,N,13701.5670824,E,4,13,0.9,92.4148,M,37.55,M,3.0,0000*6B,37.23268553333333,137.02611804000003,679735.3198499344,4122608.721855031
1284,[2021-02-22 16:47:26.402] $GPGGA,74726.0,3713.961132,N,13701.567083599999,E,4,13,0.9,92.413,M,37.55,M,4.0,0000*6A,37.23268553333333,137.02611806,679735.3216243152,4122608.7218930116
1285,[2021-02-22 16:47:26.527] $GPGGA,74726.1,3713.9611329000004,N,13701.567086399999,E,4,13,0.9,92.4153,M,37.55,M,4.0,0000*60,37.23268554833334,137.02611810666664,679735.3257289174,4122608.723645981
1286,[2021-02-22 16:47:26.621] $GPGGA,74726.2,3713.9611327,N,13701.5670867,E,4,13,0.9,92.4161,M,37.55,M,4.0,0000*6F,37.232685544999995,137.02611811166668,679735.3261804334,4122608.7232856196
1287,[2021-02-22 16:47:26.699] $GPGGA,74726.3,3713.9611328,N,13701.5670867,E,4,13,0.9,92.4167,M,37.55,M,4.0,0000*67,37.232685546666666,137.02611811166668,679735.3261764749,4122608.7234705477
1288,[2021-02-22 16:47:26.824] $GPGGA,74726.4,3713.9611325,N,13701.567085699999,E,4,13,0.9,92.4185,M,37.55,M,4.0,0000*62,37.232685541666676,137.02611809499996,679735.3247096924,4122608.722884116
1289,[2021-02-22 16:47:26.902] $GPGGA,74726.5,3713.9611317000004,N,13701.567086000001,E,4,13,0.9,92.4185,M,37.55,M,4.0,0000*66,37.23268552833334,137.0261181,679735.3251849586,4122608.721414193
1290,[2021-02-22 16:47:27.027] $GPGGA,74726.6,3713.961131,N,13701.5670854,E,4,13,0.9,92.4185,M,37.55,M,4.0,0000*65,37.23268551666666,137.02611809,679735.3243254782,4122608.7201007106
1291,[2021-02-22 16:47:27.105] $GPGGA,74726.7,3713.9611309,N,13701.5670849,E,4,13,0.9,92.4167,M,37.55,M,4.0,0000*6C,37.23268551500001,137.02611808166668,679735.32359011,4122608.719899959
1292,[2021-02-22 16:47:27.230] $GPGGA,74726.8,3713.9611306,N,13701.5670834,E,4,13,0.9,92.4149,M,37.55,M,4.0,0000*6A,37.232685509999996,137.02611805666666,679735.321384003,4122608.7192976996
1293,[2021-02-22 16:47:27.308] $GPGGA,74726.9,3713.9611305,N,13701.5670831,E,4,13,0.9,92.4144,M,37.55,M,4.0,0000*60,37.232685508333326,137.02611805166666,679735.3209443645,4122608.7191032767
1294,[2021-02-22 16:47:27.433] $GPGGA,74727.0,3713.9611309,N,13701.5670824,E,4,13,0.9,92.4133,M,37.55,M,5.0,0000*61,37.23268551500001,137.02611804000003,679735.3198934768,4122608.7198208314
1295,[2021-02-22 16:47:27.527] $GPGGA,74727.1,3713.9611316,N,13701.5670835,E,4,13,0.9,92.4119,M,37.55,M,5.0,0000*66,37.232685526666664,137.02611805833334,679735.3214922863,4122608.7211501375
1296,[2021-02-22 16:47:27.621] $GPGGA,74727.2,3713.9611323,N,13701.567078799999,E,4,13,0.9,92.4189,M,37.55,M,5.0,0000*63,37.23268553833333,137.02611797999998,679735.3145149035,4122608.722295869
1297,[2021-02-22 16:47:27.699] $GPGGA,74727.3,3713.961132,N,13701.5670761,E,4,13,0.9,92.4225,M,37.55,M,5.0,0000*63,37.23268553333333,137.026117935,679735.310534418,4122608.7216556305
1298,[2021-02-22 16:47:27.824] $GPGGA,74727.4,3713.9611321999996,N,13701.5670745,E,4,13,0.9,92.4251,M,37.55,M,5.0,0000*63,37.23268553666666,137.02611790833333,679735.3081606542,4122608.7219748427
1299,[2021-02-22 16:47:27.902] $GPGGA,74727.5,3713.9611317000004,N,13701.567073500002,E,4,13,0.9,92.4277,M,37.55,M,5.0,0000*67,37.23268552833334,137.0261178916667,679735.3067017974,4122608.7210185584
1300,[2021-02-22 16:47:28.027] $GPGGA,74727.6,3713.9611316,N,13701.567073100001,E,4,13,0.9,92.4282,M,37.55,M,5.0,0000*6B,37.232685526666664,137.026117885,679735.3061142894,4122608.720820968
1301,[2021-02-22 16:47:28.105] $GPGGA,74727.7,3713.9611318,N,13701.5670725,E,4,13,0.9,92.4281,M,37.55,M,5.0,0000*62,37.23268553,137.026117875,679735.3052191834,4122608.7211718336
1302,[2021-02-22 16:47:28.230] $GPGGA,74727.8,3713.9611323,N,13701.567070299998,E,4,13,0.9,92.4284,M,37.55,M,5.0,0000*64,37.23268553833333,137.0261178383333,679735.3019463507,4122608.7220268375
1303,[2021-02-22 16:47:28.308] $GPGGA,74727.9,3713.9611316,N,13701.5670694,E,4,13,0.9,92.4267,M,37.55,M,5.0,0000*61,37.232685526666664,137.02611782333332,679735.3006432733,4122608.7207038603
1304,[2021-02-22 16:47:28.433] $GPGGA,74728.0,3713.9611311999997,N,13701.5670697,E,4,13,0.9,92.4249,M,37.55,M,6.0,0000*6F,37.23268552,137.02611782833335,679735.3011027039,4122608.719973647
1305,[2021-02-22 16:47:28.511] $GPGGA,74728.1,3713.9611311999997,N,13701.567070500001,E,4,13,0.9,92.4262,M,37.55,M,6.0,0000*6D,37.23268552,137.0261178416667,679735.3022856273,4122608.719998968
1306,[2021-02-22 16:47:28.605] $GPGGA,74728.2,3713.9611303999995,N,13701.567070899999,E,4,13,0.9,92.4276,M,37.55,M,1.0,0000*67,37.23268550666666,137.02611784833329,679735.3029087494,4122608.7185322093
1307,[2021-02-22 16:47:28.730] $GPGGA,74728.3,3713.9611303999995,N,13701.567071399999,E,4,13,0.9,92.4273,M,37.55,M,1.0,0000*6F,37.23268550666666,137.02611785666664,679735.3036480783,4122608.718548035
1308,[2021-02-22 16:47:28.808] $GPGGA,74728.4,3713.9611306999996,N,13701.567071599999,E,4,13,0.9,92.4285,M,37.55,M,1.0,0000*60,37.23268551166666,137.02611785999997,679735.3039319329,4122608.719109147
1309,[2021-02-22 16:47:28.933] $GPGGA,74728.5,3713.9611303,N,13701.567071700001,E,4,13,0.9,92.429,M,37.55,M,1.0,0000*60,37.232685505000006,137.02611786166668,679735.3040956359,4122608.718372605
1310,[2021-02-22 16:47:29.011] $GPGGA,74728.6,3713.9611305,N,13701.567073100001,E,4,13,0.9,92.4307,M,37.55,M,1.0,0000*6E,37.232685508333326,137.026117885,679735.3061578318,4122608.718786769
1311,[2021-02-22 16:47:29.121] $GPGGA,74728.7,3713.9611303,N,13701.567075100002,E,4,13,0.9,92.431,M,37.55,M,1.0,0000*69,37.232685505000006,137.02611791833337,679735.3091230597,4122608.7184802173
1312,[2021-02-22 16:47:29.199] $GPGGA,74728.8,3713.9611296,N,13701.567076,E,4,13,0.9,92.4324,M,37.55,M,1.0,0000*6E,37.23268549333333,137.02611793333335,679735.3104815546,4122608.71721421
1313,[2021-02-22 16:47:29.324] $GPGGA,74728.9,3713.9611296999997,N,13701.5670746,E,4,13,0.9,92.4322,M,37.55,M,1.0,0000*6C,37.23268549499999,137.02611790999998,679735.308407479,4122608.717354826
1314,[2021-02-22 16:47:29.402] $GPGGA,74729.0,3713.961129,N,13701.5670711,E,4,13,0.9,92.4316,M,37.55,M,2.0,0000*65,37.23268548333333,137.0261178516667,679735.3032599059,4122608.7159495587
1315,[2021-02-22 16:47:29.511] $GPGGA,74729.1,3713.9611291,N,13701.567069,E,4,13,0.9,92.4325,M,37.55,M,2.0,0000*6D,37.232685485000005,137.02611781666667,679735.3001507715,4122608.7160680196
1316,[2021-02-22 16:47:29.605] $GPGGA,74729.2,3713.9611294,N,13701.567070299998,E,4,13,0.9,92.4315,M,37.55,M,2.0,0000*63,37.232685489999994,137.0261178383333,679735.3020611441,4122608.7166639464
1317,[2021-02-22 16:47:29.730] $GPGGA,74729.3,3713.9611291,N,13701.567072799999,E,4,13,0.9,92.4328,M,37.55,M,2.0,0000*60,37.232685485000005,137.02611787999996,679735.3057696503,4122608.7161882934
1318,[2021-02-22 16:47:29.808] $GPGGA,74729.4,3713.9611299999997,N,13701.567075600002,E,4,13,0.9,92.4336,M,37.55,M,2.0,0000*68,37.232685499999995,137.0261179266667,679735.3098742616,4122608.7179412586
1319,[2021-02-22 16:47:29.917] $GPGGA,74729.5,3713.9611296999997,N,13701.5670753,E,4,13,0.9,92.4315,M,37.55,M,2.0,0000*62,37.23268549499999,137.02611792166667,679735.3094425376,4122608.717376981
1320,[2021-02-22 16:47:30.011] $GPGGA,74729.6,3713.9611301,N,13701.5670747,E,4,13,0.9,92.4298,M,37.55,M,2.0,0000*6E,37.23268550166667,137.02611791166666,679735.3085395102,4122608.7180977017
1321,[2021-02-22 16:47:30.121] $GPGGA,74729.7,3713.9611311,N,13701.5670747,E,4,13,0.9,92.4295,M,37.55,M,2.0,0000*63,37.23268551833333,137.02611791166666,679735.3084999262,4122608.7199469744
1322,[2021-02-22 16:47:30.230] $GPGGA,74729.8,3713.9611317000004,N,13701.5670755,E,4,13,0.9,92.4275,M,37.55,M,2.0,0000*67,37.23268552833334,137.026117925,679735.3096590994,4122608.7210818604
1323,[2021-02-22 16:47:30.308] $GPGGA,74729.9,3713.9611321999996,N,13701.567076899999,E,4,13,0.9,92.4276,M,37.55,M,2.0,0000*6C,37.23268553666666,137.02611794833334,679735.3117094224,4122608.7220508046
1324,[2021-02-22 16:47:30.433] $GPGGA,74730.0,3713.9611316,N,13701.567076199999,E,4,13,0.9,92.4279,M,37.55,M,3.0,0000*6F,37.232685526666664,137.02611793666665,679735.3106981141,4122608.7209190866
1325,[2021-02-22 16:47:30.527] $GPGGA,74730.1,3713.9611299999997,N,13701.5670748,E,4,13,0.9,92.427,M,37.55,M,3.0,0000*68,37.232685499999995,137.0261179133333,679735.3086913335,4122608.7179159382
