,Format,Time,Latitude,LatType,Longitude,LonType,Status,Satellite,LevelAccuracy,Altitude(sea),M(sea),Altitude(geoid),M(geoid),DGPS use,checksum,Lat,Lon,UTM_X,UTM_Y
1088,[2021-02-22 16:50:56.326] $GPGGA,75055.9,3713.9611229,N,13701.567079100001,E,4,13,1.0,92.4394,M,37.55,M,3.0,0000*68,37.23268538166667,137.02611798500004,679735.3153305942,4122608.704922201
1089,[2021-02-22 16:50:56.420] $GPGGA,75056.0,3713.9611228,N,13701.567079499999,E,4,13,1.0,92.4395,M,37.55,M,4.0,0000*61,37.23268538,137.02611799166664,679735.3159260075,4122608.7047499334
1090,[2021-02-22 16:50:56.498] $GPGGA,75056.1,3713.9611234999998,N,13701.567080399998,E,4,13,1.0,92.4424,M,37.55,M,4.0,0000*66,37.232685391666664,137.02611800666665,679735.3172290871,4122608.7060729098
1091,[2021-02-22 16:50:56.607] $GPGGA,75056.2,3713.9611236999995,N,13701.5670805,E,4,13,1.0,92.441,M,37.55,M,4.0,0000*61,37.232685395,137.02611800833336,679735.3173690396,4122608.7064459305
1092,[2021-02-22 16:50:56.717] $GPGGA,75056.3,3713.9611234999998,N,13701.5670808,E,4,13,1.0,92.4409,M,37.55,M,4.0,0000*67,37.232685391666664,137.0261180133333,679735.3178205489,4122608.706085571
1093,[2021-02-22 16:50:56.810] $GPGGA,75056.4,3713.9611236,N,13701.567080399998,E,4,13,1.0,92.4413,M,37.55,M,4.0,0000*64,37.232685393333334,137.02611800666665,679735.3172251288,4122608.706257838
1094,[2021-02-22 16:50:56.920] $GPGGA,75056.5,3713.9611234,N,13701.5670813,E,4,13,1.0,92.4415,M,37.55,M,4.0,0000*67,37.23268539,137.02611802166663,679735.318563834,4122608.705916469
1095,[2021-02-22 16:50:56.998] $GPGGA,75056.6,3713.9611240000004,N,13701.567081000001,E,4,13,1.0,92.4407,M,37.55,M,4.0,0000*67,37.2326854,137.0261180166667,679735.3180964912,4122608.7070165384
1096,[2021-02-22 16:50:57.123] $GPGGA,75056.7,3713.9611234,N,13701.5670805,E,4,13,1.0,92.4395,M,37.55,M,4.0,0000*6D,37.23268539,137.02611800833336,679735.3173809149,4122608.7058911496
1097,[2021-02-22 16:50:57.201] $GPGGA,75056.8,3713.9611227,N,13701.567080399998,E,4,13,1.0,92.4382,M,37.55,M,4.0,0000*67,37.232685378333336,137.02611800666665,679735.3172607543,4122608.7045934927
1098,[2021-02-22 16:50:57.326] $GPGGA,75056.9,3713.9611233,N,13701.5670821,E,4,13,1.0,92.4386,M,37.55,M,4.0,0000*60,37.23268538833334,137.02611803500002,679735.3197507204,4122608.705756863
1099,[2021-02-22 16:50:57.404] $GPGGA,75057.0,3713.9611229999996,N,13701.5670812,E,4,13,1.0,92.4376,M,37.55,M,5.0,0000*65,37.23268538333332,137.02611801999998,679735.3184318027,4122608.7051735935
1100,[2021-02-22 16:50:57.498] $GPGGA,75057.1,3713.9611229,N,13701.5670805,E,4,13,1.0,92.4375,M,37.55,M,5.0,0000*69,37.23268538166667,137.02611800833336,679735.3174007069,4122608.704966512
1101,[2021-02-22 16:50:57.623] $GPGGA,75057.2,3713.9611266,N,13701.5670752,E,4,13,1.0,92.445,M,37.55,M,5.0,0000*6C,37.23268544333334,137.02611792000002,679735.309417383,4122608.711641073
1102,[2021-02-22 16:50:57.717] $GPGGA,75057.3,3713.9611286,N,13701.567072799999,E,4,13,1.0,92.4499,M,37.55,M,5.0,0000*6B,37.23268547666666,137.02611787999996,679735.3057894423,4122608.715263655
1103,[2021-02-22 16:50:57.826] $GPGGA,75057.4,3713.9611287000002,N,13701.5670722,E,4,13,1.0,92.454,M,37.55,M,5.0,0000*62,37.23268547833334,137.02611786999998,679735.3048982946,4122608.715429592
1104,[2021-02-22 16:50:57.904] $GPGGA,75057.5,3713.9611280999998,N,13701.567071899999,E,4,13,1.0,92.4572,M,37.55,M,5.0,0000*6C,37.23268546833334,137.02611786499997,679735.3044784481,4122608.714310534
1105,[2021-02-22 16:50:58.029] $GPGGA,75057.6,3713.9611281999996,N,13701.5670726,E,4,13,1.0,92.4601,M,37.55,M,5.0,0000*67,37.23268546999999,137.02611787666666,679735.3055095484,4122608.7145176157
1106,[2021-02-22 16:50:58.107] $GPGGA,75057.7,3713.9611281999996,N,13701.567072400001,E,4,13,1.0,92.461,M,37.55,M,5.0,0000*64,37.23268546999999,137.02611787333336,679735.3052138209,4122608.7145112846
1107,[2021-02-22 16:50:58.216] $GPGGA,75057.8,3713.9611279,N,13701.5670727,E,4,13,1.0,92.4601,M,37.55,M,5.0,0000*6C,37.232685465,137.0261178783333,679735.3056692884,4122608.7139659994
1108,[2021-02-22 16:50:58.310] $GPGGA,75057.9,3713.9611281999996,N,13701.567073299999,E,4,13,1.0,92.4609,M,37.55,M,5.0,0000*64,37.23268546999999,137.0261178883333,679735.3065446026,4122608.7145397705
1109,[2021-02-22 16:50:58.420] $GPGGA,75058.0,3713.9611276999995,N,13701.5670736,E,4,13,1.0,92.4599,M,37.55,M,6.0,0000*64,37.232685461666655,137.02611789333335,679735.3070079959,4122608.7136246306
1110,[2021-02-22 16:50:58.513] $GPGGA,75058.1,3713.9611274999997,N,13701.5670727,E,4,13,1.0,92.4587,M,37.55,M,6.0,0000*68,37.232685458333336,137.0261178783333,679735.305685122,4122608.713226291
1111,[2021-02-22 16:50:58.623] $GPGGA,75058.2,3713.9611286,N,13701.567072999998,E,4,13,1.0,92.4593,M,37.55,M,1.0,0000*63,37.23268547666666,137.0261178833333,679735.3060851742,4122608.7152699856
1112,[2021-02-22 16:50:58.701] $GPGGA,75058.3,3713.9611303,N,13701.567073299999,E,4,13,1.0,92.4606,M,37.55,M,1.0,0000*62,37.232685505000006,137.0261178883333,679735.3064614761,4122608.718423245
1113,[2021-02-22 16:50:58.826] $GPGGA,75058.4,3713.9611308,N,13701.5670739,E,4,13,1.0,92.4617,M,37.55,M,1.0,0000*64,37.23268551333333,137.02611789833333,679735.3073288802,4122608.7193668713
1114,[2021-02-22 16:50:58.904] $GPGGA,75058.5,3713.9611303999995,N,13701.5670732,E,4,13,1.0,92.4593,M,37.55,M,1.0,0000*6D,37.23268550666666,137.02611788666664,679735.3063096551,4122608.7186050056
1115,[2021-02-22 16:50:59.029] $GPGGA,75058.6,3713.9611302000003,N,13701.5670736,E,4,13,1.0,92.4585,M,37.55,M,1.0,0000*6B,37.23268550333334,137.02611789333335,679735.3069090359,4122608.7182478146
1116,[2021-02-22 16:50:59.107] $GPGGA,75058.7,3713.9611299999997,N,13701.567072999998,E,4,13,1.0,92.4572,M,37.55,M,1.0,0000*66,37.232685499999995,137.0261178833333,679735.3060297567,4122608.7178589664
1117,[2021-02-22 16:50:59.216] $GPGGA,75058.8,3713.9611299999997,N,13701.567073700002,E,4,13,1.0,92.4577,M,37.55,M,1.0,0000*6B,37.232685499999995,137.02611789500003,679735.3070648198,4122608.7178811226
1118,[2021-02-22 16:50:59.310] $GPGGA,75058.9,3713.9611302000003,N,13701.567073700002,E,4,13,1.0,92.4569,M,37.55,M,1.0,0000*67,37.23268550333334,137.02611789500003,679735.3070569031,4122608.7182509797
1119,[2021-02-22 16:50:59.420] $GPGGA,75059.0,3713.9611298,N,13701.5670734,E,4,13,1.0,92.4557,M,37.55,M,2.0,0000*60,37.23268549666666,137.02611789,679735.3066291375,4122608.717501772
1120,[2021-02-22 16:50:59.513] $GPGGA,75059.1,3713.9611301,N,13701.567074,E,4,13,1.0,92.4559,M,37.55,M,2.0,0000*6D,37.23268550166667,137.02611790000003,679735.307504456,4122608.7180755464
1121,[2021-02-22 16:50:59.623] $GPGGA,75059.2,3713.9611303999995,N,13701.5670738,E,4,13,1.0,92.456,M,37.55,M,2.0,0000*6E,37.23268550666666,137.02611789666668,679735.307196849,4122608.718623997
1122,[2021-02-22 16:50:59.732] $GPGGA,75059.3,3713.9611296,N,13701.5670736,E,4,13,1.0,92.4556,M,37.55,M,2.0,0000*6E,37.23268549333333,137.02611789333335,679735.3069327864,4122608.7171382494
1123,[2021-02-22 16:50:59.810] $GPGGA,75059.4,3713.9611287000002,N,13701.5670746,E,4,13,1.0,92.4539,M,37.55,M,2.0,0000*67,37.23268547833334,137.02611790999998,679735.308447063,4122608.7155055553
1124,[2021-02-22 16:50:59.919] $GPGGA,75059.5,3713.9611284000002,N,13701.5670739,E,4,13,1.0,92.452,M,37.55,M,2.0,0000*65,37.23268547333334,137.02611789833333,679735.3074238817,4122608.714928618
1125,[2021-02-22 16:50:59.998] $GPGGA,75059.6,3713.9611286,N,13701.567074899998,E,4,13,1.0,92.4522,M,37.55,M,2.0,0000*61,37.23268547666666,137.02611791499996,679735.3088946138,4122608.7153301225
1126,[2021-02-22 16:51:00.123] $GPGGA,75059.7,3713.9611294,N,13701.5670754,E,4,13,1.0,92.4537,M,37.55,M,2.0,0000*6B,37.232685489999994,137.02611792333335,679735.3096022799,4122608.7168253656
1127,[2021-02-22 16:51:00.201] $GPGGA,75059.8,3713.9611299000003,N,13701.567074899998,E,4,13,1.0,92.4531,M,37.55,M,2.0,0000*63,37.23268549833334,137.02611791499996,679735.3088431545,4122608.717734178
1128,[2021-02-22 16:51:00.326] $GPGGA,75059.9,3713.9611296,N,13701.567075600002,E,4,13,1.0,92.454,M,37.55,M,2.0,0000*65,37.23268549333333,137.0261179266667,679735.3098900951,4122608.7172015514
1129,[2021-02-22 16:51:00.404] $GPGGA,75100.0,3713.9611303,N,13701.5670757,E,4,13,1.0,92.4554,M,37.55,M,3.0,0000*69,37.232685505000006,137.02611792833335,679735.3100102489,4122608.7184992074
1130,[2021-02-22 16:51:00.513] $GPGGA,75100.1,3713.9611299999997,N,13701.567075600002,E,4,13,1.0,92.4567,M,37.55,M,3.0,0000*6A,37.232685499999995,137.0261179266667,679735.3098742616,4122608.7179412586
1131,[2021-02-22 16:51:00.623] $GPGGA,75100.2,3713.9611291,N,13701.567075799998,E,4,13,1.0,92.4586,M,37.55,M,3.0,0000*61,37.232685485000005,137.02611792999994,679735.31020561,4122608.716283245
1132,[2021-02-22 16:51:00.716] $GPGGA,75100.3,3713.9611296999997,N,13701.5670757,E,4,13,1.0,92.4613,M,37.55,M,3.0,0000*66,37.23268549499999,137.02611792833335,679735.3100339994,4122608.7173896423
1133,[2021-02-22 16:51:00.810] $GPGGA,75100.4,3713.9611291,N,13701.567074899998,E,4,13,1.0,92.4618,M,37.55,M,3.0,0000*63,37.232685485000005,137.02611791499996,679735.3088748218,4122608.7162547596
1134,[2021-02-22 16:51:00.919] $GPGGA,75100.5,3713.9611289000004,N,13701.567074899998,E,4,13,1.0,92.4623,M,37.55,M,3.0,0000*63,37.23268548166667,137.02611791499996,679735.3088827385,4122608.715884905
1135,[2021-02-22 16:51:00.997] $GPGGA,75100.6,3713.9611296,N,13701.5670754,E,4,13,1.0,92.4625,M,37.55,M,3.0,0000*64,37.23268549333333,137.02611792333335,679735.3095943631,4122608.7171952208
1136,[2021-02-22 16:51:01.123] $GPGGA,75100.7,3713.9611299999997,N,13701.567075600002,E,4,13,1.0,92.4605,M,37.55,M,3.0,0000*6B,37.232685499999995,137.0261179266667,679735.3098742616,4122608.7179412586
1137,[2021-02-22 16:51:01.201] $GPGGA,75100.8,3713.9611299000003,N,13701.5670752,E,4,13,1.0,92.4619,M,37.55,M,3.0,0000*6C,37.23268549833334,137.02611792000002,679735.3092867559,4122608.717743674
1138,[2021-02-22 16:51:01.326] $GPGGA,75100.9,3713.9611303,N,13701.567074899998,E,4,13,1.0,92.4617,M,37.55,M,3.0,0000*6B,37.232685505000006,137.02611791499996,679735.3088273209,4122608.7184738866
1139,[2021-02-22 16:51:01.435] $GPGGA,75101.0,3713.9611298,N,13701.567074399998,E,4,13,1.0,92.461,M,37.55,M,4.0,0000*6D,37.23268549666666,137.02611790666663,679735.3081077886,4122608.717533423
1140,[2021-02-22 16:51:01.529] $GPGGA,75101.1,3713.9611298,N,13701.567074,E,4,13,1.0,92.4606,M,37.55,M,4.0,0000*6F,37.23268549666666,137.02611790000003,679735.3075163313,4122608.717520763
1141,[2021-02-22 16:51:01.623] $GPGGA,75101.2,3713.9611299999997,N,13701.567074,E,4,13,1.0,92.4602,M,37.55,M,4.0,0000*68,37.232685499999995,137.02611790000003,679735.3075084145,4122608.7178906184
1142,[2021-02-22 16:51:01.701] $GPGGA,75101.3,3713.9611299999997,N,13701.5670746,E,4,13,1.0,92.4597,M,37.55,M,4.0,0000*60,37.232685499999995,137.02611790999998,679735.3083956038,4122608.717909608
1143,[2021-02-22 16:51:01.826] $GPGGA,75101.4,3713.9611301,N,13701.5670738,E,4,13,1.0,92.4589,M,37.55,M,4.0,0000*60,37.23268550166667,137.02611789666668,679735.3072087241,4122608.7180692162
1144,[2021-02-22 16:51:01.904] $GPGGA,75101.5,3713.961131,N,13701.567074300001,E,4,13,1.0,92.4593,M,37.55,M,4.0,0000*66,37.23268551666666,137.02611790500004,679735.3079124275,4122608.719749387
1145,[2021-02-22 16:51:02.029] $GPGGA,75101.6,3713.9611311,N,13701.567074300001,E,4,13,1.0,92.4589,M,37.55,M,4.0,0000*6F,37.23268551833333,137.02611790500004,679735.3079084691,4122608.719934313
1146,[2021-02-22 16:51:02.107] $GPGGA,75101.7,3713.9611311999997,N,13701.567074399998,E,4,13,1.0,92.4595,M,37.55,M,4.0,0000*67,37.23268552,137.02611790666663,679735.308052371,4122608.7201224063
1147,[2021-02-22 16:51:02.232] $GPGGA,75101.8,3713.9611306,N,13701.5670748,E,4,13,1.0,92.4591,M,37.55,M,4.0,0000*65,37.232685509999996,137.0261179133333,679735.3086675832,4122608.719025503
1148,[2021-02-22 16:51:02.310] $GPGGA,75101.9,3713.9611303999995,N,13701.5670752,E,4,13,1.0,92.4597,M,37.55,M,4.0,0000*6B,37.23268550666666,137.02611792000002,679735.309266964,4122608.7186683076
1149,[2021-02-22 16:51:02.419] $GPGGA,75102.0,3713.9611303999995,N,13701.5670757,E,4,13,1.0,92.4592,M,37.55,M,5.0,0000*60,37.23268550666666,137.02611792833335,679735.3100062906,4122608.718684133
1150,[2021-02-22 16:51:02.513] $GPGGA,75102.1,3713.9611309,N,13701.567076299998,E,4,13,1.0,92.4596,M,37.55,M,5.0,0000*6F,37.23268551500001,137.0261179383333,679735.3108736878,4122608.7196277613
1151,[2021-02-22 16:51:02.622] $GPGGA,75102.2,3713.9611305,N,13701.567076899999,E,4,13,1.0,92.4584,M,37.55,M,5.0,0000*69,37.232685508333326,137.02611794833334,679735.3117767151,4122608.718907041
1152,[2021-02-22 16:51:02.700] $GPGGA,75102.3,3713.9611308,N,13701.567076499998,E,4,13,1.0,92.4588,M,37.55,M,5.0,0000*65,37.23268551333333,137.02611794166663,679735.311173376,4122608.7194491634
1153,[2021-02-22 16:51:02.826] $GPGGA,75102.4,3713.9611314999997,N,13701.5670755,E,4,13,1.0,92.4581,M,37.55,M,5.0,0000*64,37.232685524999994,137.026117925,679735.3096670163,4122608.7207120033
1154,[2021-02-22 16:51:02.904] $GPGGA,75102.5,3713.9611311999997,N,13701.567075799998,E,4,13,1.0,92.4582,M,37.55,M,5.0,0000*6C,37.23268552,137.02611792999994,679735.3101224838,4122608.7201667167
1155,[2021-02-22 16:51:03.029] $GPGGA,75102.6,3713.9611316,N,13701.567076299998,E,4,13,1.0,92.4588,M,37.55,M,5.0,0000*69,37.232685526666664,137.0261179383333,679735.310845979,4122608.720922251
1156,[2021-02-22 16:51:03.122] $GPGGA,75102.7,3713.9611313,N,13701.5670766,E,4,13,1.0,92.4574,M,37.55,M,5.0,0000*6B,37.232685521666674,137.02611794333333,679735.3113014512,4122608.720376966
1157,[2021-02-22 16:51:03.200] $GPGGA,75102.8,3713.9611313,N,13701.567076899999,E,4,13,1.0,92.4578,M,37.55,M,5.0,0000*67,37.232685521666674,137.02611794833334,679735.3117450479,4122608.720386462
1158,[2021-02-22 16:51:03.326] $GPGGA,75102.9,3713.9611313,N,13701.5670775,E,4,13,1.0,92.4581,M,37.55,M,5.0,0000*6D,37.232685521666674,137.02611795833332,679735.3126322394,4122608.720405452
1159,[2021-02-22 16:51:03.404] $GPGGA,75103.0,3713.961131,N,13701.5670768,E,4,13,1.0,92.4559,M,37.55,M,6.0,0000*6C,37.23268551666666,137.0261179466667,679735.3116090605,4122608.7198285144
1160,[2021-02-22 16:51:03.513] $GPGGA,75103.1,3713.9611311999997,N,13701.5670759,E,4,13,1.0,92.4568,M,37.55,M,6.0,0000*6F,37.23268552,137.0261179316667,679735.3102703576,4122608.720169882
1161,[2021-02-22 16:51:03.622] $GPGGA,75103.2,3713.9611309,N,13701.5670754,E,4,13,1.0,92.4576,M,37.55,M,1.0,0000*63,37.23268551500001,137.02611792333335,679735.3095429039,4122608.7195992763
1162,[2021-02-22 16:51:03.732] $GPGGA,75103.3,3713.961131,N,13701.567074899998,E,4,13,1.0,92.457,M,37.55,M,1.0,0000*60,37.23268551666666,137.02611791499996,679735.3087996122,4122608.719768377
1163,[2021-02-22 16:51:03.810] $GPGGA,75103.4,3713.9611314000003,N,13701.5670754,E,4,13,1.0,92.4574,M,37.55,M,1.0,0000*6B,37.232685523333345,137.02611792333335,679735.3095231119,4122608.7205239134
1164,[2021-02-22 16:51:03.919] $GPGGA,75103.5,3713.9611318,N,13701.5670748,E,4,13,1.0,92.4587,M,37.55,M,1.0,0000*67,37.23268553,137.0261179133333,679735.3086200824,4122608.7212446304
1165,[2021-02-22 16:51:03.997] $GPGGA,75103.6,3713.9611314999997,N,13701.5670748,E,4,13,1.0,92.459,M,37.55,M,1.0,0000*6F,37.232685524999994,137.0261179133333,679735.3086319576,4122608.7206898476
1166,[2021-02-22 16:51:04.122] $GPGGA,75103.7,3713.961131,N,13701.567075100002,E,4,13,1.0,92.4589,M,37.55,M,1.0,0000*6B,37.23268551666666,137.02611791833337,679735.3090953509,4122608.7197747077
1167,[2021-02-22 16:51:04.200] $GPGGA,75103.8,3713.9611314999997,N,13701.567075600002,E,4,13,1.0,92.4605,M,37.55,M,1.0,0000*61,37.232685524999994,137.0261179266667,679735.3098148856,4122608.7207151684
1168,[2021-02-22 16:51:04.325] $GPGGA,75103.9,3713.9611311999997,N,13701.567076199999,E,4,13,1.0,92.4612,M,37.55,M,1.0,0000*66,37.23268552,137.02611793666665,679735.3107139478,4122608.720179377
1169,[2021-02-22 16:51:04.404] $GPGGA,75104.0,3713.9611308,N,13701.5670759,E,4,13,1.0,92.4615,M,37.55,M,2.0,0000*6F,37.23268551333333,137.0261179316667,679735.3102861913,4122608.7194301724
1170,[2021-02-22 16:51:04.497] $GPGGA,75104.1,3713.9611311,N,13701.5670759,E,4,13,1.0,92.4632,M,37.55,M,2.0,0000*63,37.23268551833333,137.0261179316667,679735.3102743161,4122608.7199849547
1171,[2021-02-22 16:51:04.622] $GPGGA,75104.2,3713.9611314000003,N,13701.5670761,E,4,13,1.0,92.4639,M,37.55,M,2.0,0000*65,37.232685523333345,137.026117935,679735.3105581683,4122608.720546068
1172,[2021-02-22 16:51:04.716] $GPGGA,75104.3,3713.9611318999996,N,13701.567076499998,E,4,13,1.0,92.4634,M,37.55,M,2.0,0000*60,37.23268553166666,137.02611794166663,679735.3111298337,4122608.7214833624
1173,[2021-02-22 16:51:04.825] $GPGGA,75104.4,3713.9611318999996,N,13701.567076899999,E,4,13,1.0,92.4638,M,37.55,M,2.0,0000*67,37.23268553166666,137.02611794833334,679735.3117212977,4122608.721496023
1174,[2021-02-22 16:51:04.903] $GPGGA,75104.5,3713.9611321,N,13701.5670766,E,4,13,1.0,92.4642,M,37.55,M,2.0,0000*6F,37.23268553500001,137.02611794333333,679735.3112697839,4122608.721856384
1175,[2021-02-22 16:51:05.029] $GPGGA,75104.6,3713.9611318,N,13701.567076899999,E,4,13,1.0,92.4641,M,37.55,M,2.0,0000*6A,37.23268553,137.02611794833334,679735.311725256,4122608.721311097
1176,[2021-02-22 16:51:05.107] $GPGGA,75104.7,3713.9611316,N,13701.567077200001,E,4,13,1.0,92.4637,M,37.55,M,2.0,0000*6E,37.232685526666664,137.02611795333337,679735.3121767719,4122608.720950737
1177,[2021-02-22 16:51:05.232] $GPGGA,75104.8,3713.9611317000004,N,13701.567076700001,E,4,13,1.0,92.4645,M,37.55,M,2.0,0000*61,37.23268552833334,137.02611794500004,679735.3114334869,4122608.7211198416
1178,[2021-02-22 16:51:05.310] $GPGGA,75104.9,3713.9611316,N,13701.567076899999,E,4,13,1.0,92.4627,M,37.55,M,2.0,0000*6B,37.232685526666664,137.02611794833334,679735.3117331727,4122608.7209412414
1179,[2021-02-22 16:51:05.435] $GPGGA,75105.0,3713.9611321,N,13701.5670766,E,4,13,1.0,92.4613,M,37.55,M,3.0,0000*6E,37.23268553500001,137.02611794333333,679735.3112697839,4122608.721856384
1180,[2021-02-22 16:51:05.528] $GPGGA,75105.1,3713.9611324,N,13701.5670771,E,4,13,1.0,92.4607,M,37.55,M,3.0,0000*69,37.23268554,137.02611795166666,679735.3119972354,4122608.722426991
1181,[2021-02-22 16:51:05.622] $GPGGA,75105.2,3713.9611326,N,13701.567077700001,E,4,13,1.0,92.4618,M,37.55,M,3.0,0000*60,37.23268554333333,137.0261179616667,679735.3128765146,4122608.7228158354
1182,[2021-02-22 16:51:05.700] $GPGGA,75105.3,3713.9611321999996,N,13701.5670773,E,4,13,1.0,92.4625,M,37.55,M,3.0,0000*6F,37.23268553666666,137.02611795500002,679735.3123008865,4122608.7220634655
1183,[2021-02-22 16:51:05.825] $GPGGA,75105.4,3713.9611321999996,N,13701.567076899999,E,4,13,1.0,92.4621,M,37.55,M,3.0,0000*67,37.23268553666666,137.02611794833334,679735.3117094224,4122608.7220508046
1184,[2021-02-22 16:51:05.903] $GPGGA,75105.5,3713.9611321999996,N,13701.567075799998,E,4,13,1.0,92.4615,M,37.55,M,3.0,0000*63,37.23268553666666,137.02611792999994,679735.3100828999,4122608.7220159876
1185,[2021-02-22 16:51:06.028] $GPGGA,75105.6,3713.9611333000003,N,13701.567077000002,E,4,13,1.0,92.4647,M,37.55,M,3.0,0000*6D,37.23268555500001,137.02611795,679735.3118137472,4122608.7240881715
1186,[2021-02-22 16:51:06.107] $GPGGA,75105.7,3713.9611331,N,13701.567076700001,E,4,13,1.0,92.4639,M,37.55,M,3.0,0000*61,37.23268555166666,137.02611794500004,679735.3113780693,4122608.7237088205
1187,[2021-02-22 16:51:06.216] $GPGGA,75105.8,3713.9611327,N,13701.567076299998,E,4,13,1.0,92.4638,M,37.55,M,3.0,0000*6C,37.232685544999995,137.0261179383333,679735.3108024368,4122608.7229564516
1188,[2021-02-22 16:51:06.310] $GPGGA,75105.9,3713.9611323,N,13701.567076700001,E,4,13,1.0,92.4636,M,37.55,M,3.0,0000*63,37.23268553833333,137.02611794500004,679735.3114097365,4122608.7222294025
1189,[2021-02-22 16:51:06.419] $GPGGA,75106.0,3713.9611321,N,13701.567076700001,E,4,13,1.0,92.4618,M,37.55,M,4.0,0000*60,37.23268553500001,137.02611794500004,679735.3114176533,4122608.72185955
1190,[2021-02-22 16:51:06.513] $GPGGA,75106.1,3713.9611324,N,13701.567076700001,E,4,13,1.0,92.4639,M,37.55,M,4.0,0000*67,37.23268554,137.02611794500004,679735.3114057782,4122608.7224143306
1191,[2021-02-22 16:51:06.622] $GPGGA,75106.2,3713.9611326,N,13701.567076199999,E,4,13,1.0,92.4638,M,37.55,M,4.0,0000*62,37.23268554333333,137.02611793666665,679735.3106585302,4122608.722768359
1192,[2021-02-22 16:51:06.732] $GPGGA,75106.3,3713.961132,N,13701.567076299998,E,4,13,1.0,92.463,M,37.55,M,4.0,0000*6C,37.23268553333333,137.0261179383333,679735.3108301456,4122608.7216619607
1193,[2021-02-22 16:51:06.810] $GPGGA,75106.4,3713.9611321,N,13701.567076,E,4,13,1.0,92.4613,M,37.55,M,4.0,0000*68,37.23268553500001,137.02611793333335,679735.3103825947,4122608.721837395
1194,[2021-02-22 16:51:06.919] $GPGGA,75106.5,3713.9611323,N,13701.567075600002,E,4,13,1.0,92.462,M,37.55,M,4.0,0000*6E,37.23268553833333,137.0261179266667,679735.3097832184,4122608.7221945873
1195,[2021-02-22 16:51:06.997] $GPGGA,75106.6,3713.9611324,N,13701.5670761,E,4,13,1.0,92.4622,M,37.55,M,4.0,0000*6C,37.23268554,137.026117935,679735.3105185844,4122608.72239534
1196,[2021-02-22 16:51:07.122] $GPGGA,75106.7,3713.9611325,N,13701.567076499998,E,4,13,1.0,92.4626,M,37.55,M,4.0,0000*6C,37.232685541666676,137.02611794166663,679735.3111060832,4122608.7225929284
1197,[2021-02-22 16:51:07.200] $GPGGA,75106.8,3713.9611321999996,N,13701.5670774,E,4,13,1.0,92.4644,M,37.55,M,4.0,0000*60,37.23268553666666,137.02611795666667,679735.3124487491,4122608.722066629
1198,[2021-02-22 16:51:07.325] $GPGGA,75106.9,3713.9611326,N,13701.5670774,E,4,13,1.0,92.4671,M,37.55,M,4.0,0000*63,37.23268554333333,137.02611795666667,679735.3124329154,4122608.7228063396
1199,[2021-02-22 16:51:07.403] $GPGGA,75107.0,3713.9611317000004,N,13701.567076700001,E,4,13,1.0,92.4655,M,37.55,M,5.0,0000*6C,37.23268552833334,137.02611794500004,679735.3114334869,4122608.7211198416
1200,[2021-02-22 16:51:07.513] $GPGGA,75107.1,3713.9611314999997,N,13701.567077700001,E,4,13,1.0,92.4665,M,37.55,M,5.0,0000*6D,37.232685524999994,137.0261179616667,679735.312920057,4122608.720781635
1201,[2021-02-22 16:51:07.606] $GPGGA,75107.2,3713.9611318,N,13701.567078,E,4,13,1.0,92.4669,M,37.55,M,5.0,0000*67,37.23268553,137.02611796666665,679735.3133517741,4122608.721345913
1202,[2021-02-22 16:51:07.731] $GPGGA,75107.3,3713.961132,N,13701.5670778,E,4,13,1.0,92.4672,M,37.55,M,5.0,0000*60,37.23268553333333,137.02611796333335,679735.3130481276,4122608.7217094367
1203,[2021-02-22 16:51:07.810] $GPGGA,75107.4,3713.961132,N,13701.5670782,E,4,13,1.0,92.4687,M,37.55,M,5.0,0000*68,37.23268553333333,137.02611797,679735.3136395894,4122608.721722097
1204,[2021-02-22 16:51:07.919] $GPGGA,75107.5,3713.961132,N,13701.567078299999,E,4,13,1.0,92.4694,M,37.55,M,5.0,0000*6A,37.23268553333333,137.02611797166665,679735.3137874521,4122608.7217252627
1205,[2021-02-22 16:51:07.997] $GPGGA,75107.6,3713.9611311999997,N,13701.5670789,E,4,13,1.0,92.4693,M,37.55,M,5.0,0000*65,37.23268552,137.02611798166663,679735.3147063107,4122608.720264834
1206,[2021-02-22 16:51:08.122] $GPGGA,75107.7,3713.9611316,N,13701.567078600001,E,4,13,1.0,92.4707,M,37.55,M,5.0,0000*63,37.232685526666664,137.02611797666668,679735.3142468848,4122608.720995048
1207,[2021-02-22 16:51:08.200] $GPGGA,75107.8,3713.9611314000003,N,13701.567078400001,E,4,13,1.0,92.4715,M,37.55,M,5.0,0000*6F,37.232685523333345,137.02611797333336,679735.3139590718,4122608.720618866
1208,[2021-02-22 16:51:08.325] $GPGGA,75107.9,3713.9611313,N,13701.5670771,E,4,13,1.0,92.4711,M,37.55,M,5.0,0000*67,37.232685521666674,137.02611795166666,679735.3120407778,4122608.7203927925
1209,[2021-02-22 16:51:08.435] $GPGGA,75108.0,3713.9611313,N,13701.5670766,E,4,13,1.0,92.4703,M,37.55,M,6.0,0000*67,37.232685521666674,137.02611794333333,679735.3113014512,4122608.720376966
1210,[2021-02-22 16:51:08.528] $GPGGA,75108.1,3713.9611317000004,N,13701.5670766,E,4,13,1.0,92.4694,M,37.55,M,6.0,0000*6D,37.23268552833334,137.02611794333333,679735.3112856175,4122608.7211166755
1211,[2021-02-22 16:51:08.622] $GPGGA,75108.2,3713.9611316,N,13701.567077599999,E,4,13,1.0,92.4705,M,37.55,M,1.0,0000*60,37.232685526666664,137.02611795999997,679735.312768227,4122608.720963397
1212,[2021-02-22 16:51:08.700] $GPGGA,75108.3,3713.961132,N,13701.567078999999,E,4,13,1.0,92.4716,M,37.55,M,1.0,0000*6E,37.23268553333333,137.02611798333328,679735.3148225062,4122608.721747418
1213,[2021-02-22 16:51:08.825] $GPGGA,75108.4,3713.9611321999996,N,13701.567078400001,E,4,13,1.0,92.4711,M,37.55,M,1.0,0000*69,37.23268553666666,137.02611797333336,679735.3139274046,4122608.7220982807
1214,[2021-02-22 16:51:08.903] $GPGGA,75108.5,3713.9611318999996,N,13701.567078100003,E,4,13,1.0,92.4709,M,37.55,M,1.0,0000*6C,37.23268553166666,137.0261179683334,679735.3134956874,4122608.721534004
1215,[2021-02-22 16:51:09.028] $GPGGA,75108.6,3713.9611318,N,13701.5670771,E,4,13,1.0,92.4711,M,37.55,M,1.0,0000*68,37.23268553,137.02611795166666,679735.3120209858,4122608.721317427
1216,[2021-02-22 16:51:09.106] $GPGGA,75108.7,3713.9611325,N,13701.5670771,E,4,13,1.0,92.4706,M,37.55,M,1.0,0000*61,37.232685541666676,137.02611795166666,679735.3119932769,4122608.7226119186
1217,[2021-02-22 16:51:09.231] $GPGGA,75108.8,3713.9611326,N,13701.567077599999,E,4,13,1.0,92.4718,M,37.55,M,1.0,0000*65,37.23268554333333,137.02611795999997,679735.312728643,4122608.7228126707
1218,[2021-02-22 16:51:09.309] $GPGGA,75108.9,3713.9611326,N,13701.567077700001,E,4,13,1.0,92.4703,M,37.55,M,1.0,0000*6F,37.23268554333333,137.0261179616667,679735.3128765146,4122608.7228158354
1219,[2021-02-22 16:51:09.419] $GPGGA,75109.0,3713.9611321999996,N,13701.5670779,E,4,13,1.0,92.4683,M,37.55,M,2.0,0000*67,37.23268553666666,137.026117965,679735.3131880758,4122608.722082455
1220,[2021-02-22 16:51:09.528] $GPGGA,75109.1,3713.961132,N,13701.567077700001,E,4,13,1.0,92.4686,M,37.55,M,2.0,0000*6F,37.23268553333333,137.0261179616667,679735.312900265,4122608.721706272
1221,[2021-02-22 16:51:09.622] $GPGGA,75109.2,3713.9611323,N,13701.567077200001,E,4,13,1.0,92.4688,M,37.55,M,2.0,0000*64,37.23268553833333,137.02611795333337,679735.3121490632,4122608.722245229
1222,[2021-02-22 16:51:09.700] $GPGGA,75109.3,3713.9611327,N,13701.5670768,E,4,13,1.0,92.4674,M,37.55,M,2.0,0000*69,37.232685544999995,137.0261179466667,679735.3115417678,4122608.722972277
1223,[2021-02-22 16:51:09.825] $GPGGA,75109.4,3713.961133,N,13701.567076899999,E,4,13,1.0,92.4678,M,37.55,M,2.0,0000*65,37.23268555,137.02611794833334,679735.3116777552,4122608.723530224
1224,[2021-02-22 16:51:09.903] $GPGGA,75109.5,3713.961133,N,13701.5670778,E,4,13,1.0,92.4685,M,37.55,M,2.0,0000*66,37.23268555,137.02611796333335,679735.3130085438,4122608.7235587095
1225,[2021-02-22 16:51:10.028] $GPGGA,75109.6,3713.9611329000004,N,13701.567077599999,E,4,13,1.0,92.4677,M,37.55,M,2.0,0000*6E,37.23268554833334,137.02611795999997,679735.3127167678,4122608.7233674545
1226,[2021-02-22 16:51:10.106] $GPGGA,75109.7,3713.9611331,N,13701.567078100003,E,4,13,1.0,92.4689,M,37.55,M,2.0,0000*6F,37.23268555166666,137.0261179683334,679735.3134481867,4122608.7237531315
1227,[2021-02-22 16:51:10.216] $GPGGA,75109.8,3713.9611325,N,13701.5670771,E,4,13,1.0,92.4676,M,37.55,M,2.0,0000*6A,37.232685541666676,137.02611795166666,679735.3119932769,4122608.7226119186
1228,[2021-02-22 16:51:10.325] $GPGGA,75109.9,3713.9611318,N,13701.5670773,E,4,13,1.0,92.467,M,37.55,M,2.0,0000*61,37.23268553,137.02611795500002,679735.31231672,4122608.7213237574
1229,[2021-02-22 16:51:10.403] $GPGGA,75110.0,3713.9611317000004,N,13701.5670775,E,4,13,1.0,92.4672,M,37.55,M,3.0,0000*6A,37.23268552833334,137.02611795833332,679735.3126164059,4122608.7211451614
1230,[2021-02-22 16:51:10.512] $GPGGA,75110.1,3713.9611318999996,N,13701.5670785,E,4,13,1.0,92.4697,M,37.55,M,3.0,0000*61,37.23268553166666,137.026117975,679735.3140871447,4122608.7215466644
1231,[2021-02-22 16:51:10.622] $GPGGA,75110.2,3713.9611317000004,N,13701.5670787,E,4,13,1.0,92.469,M,37.55,M,3.0,0000*69,37.23268552833334,137.02611797833333,679735.3143907911,4122608.721183142
1232,[2021-02-22 16:51:10.731] $GPGGA,75110.3,3713.961132,N,13701.5670794,E,4,13,1.0,92.4705,M,37.55,M,3.0,0000*63,37.23268553333333,137.02611799,679735.3154139724,4122608.7217600783
1233,[2021-02-22 16:51:10.809] $GPGGA,75110.4,3713.9611321,N,13701.567079100001,E,4,13,1.0,92.4696,M,37.55,M,3.0,0000*6B,37.23268553500001,137.02611798500004,679735.3149664216,4122608.721935512
1234,[2021-02-22 16:51:10.919] $GPGGA,75110.5,3713.9611318999996,N,13701.567079100001,E,4,13,1.0,92.4689,M,37.55,M,3.0,0000*6F,37.23268553166666,137.02611798500004,679735.3149743384,4122608.7215656554
1235,[2021-02-22 16:51:10.997] $GPGGA,75110.6,3713.9611321999996,N,13701.5670789,E,4,13,1.0,92.4675,M,37.55,M,3.0,0000*6E,37.23268553666666,137.02611798166663,679735.3146667267,4122608.7221141066
1236,[2021-02-22 16:51:11.122] $GPGGA,75110.7,3713.9611326,N,13701.567079100001,E,4,13,1.0,92.4667,M,37.55,M,3.0,0000*61,37.23268554333333,137.02611798500004,679735.3149466297,4122608.7228601463
1237,[2021-02-22 16:51:11.200] $GPGGA,75110.8,3713.9611324,N,13701.5670796,E,4,13,1.0,92.4689,M,37.55,M,3.0,0000*6B,37.23268554,137.02611799333332,679735.3156938686,4122608.7225061175
1238,[2021-02-22 16:51:11.325] $GPGGA,75110.9,3713.9611321,N,13701.567078999999,E,4,13,1.0,92.4691,M,37.55,M,3.0,0000*60,37.23268553500001,137.02611798333328,679735.3148185477,4122608.7219323465
1239,[2021-02-22 16:51:11.403] $GPGGA,75111.0,3713.9611327,N,13701.5670801,E,4,13,1.0,92.4691,M,37.55,M,4.0,0000*6E,37.232685544999995,137.02611800166667,679735.3164213223,4122608.7230767244
1240,[2021-02-22 16:51:11.497] $GPGGA,75111.1,3713.9611323,N,13701.567079499999,E,4,13,1.0,92.4678,M,37.55,M,4.0,0000*6E,37.23268553833333,137.02611799166664,679735.3155499599,4122608.7223180253
1241,[2021-02-22 16:51:11.622] $GPGGA,75111.2,3713.9611326,N,13701.567079299999,E,4,13,1.0,92.4687,M,37.55,M,4.0,0000*6E,37.23268554333333,137.02611798833334,679735.3152423571,4122608.722866476
1242,[2021-02-22 16:51:11.731] $GPGGA,75111.3,3713.9611326,N,13701.5670789,E,4,13,1.0,92.4668,M,37.55,M,4.0,0000*65,37.23268554333333,137.02611798166663,679735.3146508932,4122608.7228538166
1243,[2021-02-22 16:51:11.809] $GPGGA,75111.4,3713.9611327,N,13701.567078799999,E,4,13,1.0,92.4667,M,37.55,M,4.0,0000*6D,37.232685544999995,137.02611797999998,679735.3144990699,4122608.7230355786
1244,[2021-02-22 16:51:11.919] $GPGGA,75111.5,3713.9611326,N,13701.567078999999,E,4,13,1.0,92.4657,M,37.55,M,4.0,0000*67,37.23268554333333,137.02611798333328,679735.3147987558,4122608.7228569817
1245,[2021-02-22 16:51:12.028] $GPGGA,75111.6,3713.9611327,N,13701.567079499999,E,4,13,1.0,92.4671,M,37.55,M,4.0,0000*64,37.232685544999995,137.02611799166664,679735.3155341262,4122608.7230577334
1246,[2021-02-22 16:51:12.106] $GPGGA,75111.7,3713.961133,N,13701.567079700002,E,4,13,1.0,92.4675,M,37.55,M,4.0,0000*65,37.23268555,137.02611799500002,679735.3158179875,4122608.7236188455
1247,[2021-02-22 16:51:12.231] $GPGGA,75111.8,3713.9611333000003,N,13701.567079299999,E,4,13,1.0,92.4674,M,37.55,M,4.0,0000*6C,37.23268555500001,137.02611798833334,679735.3152146484,4122608.724160969
1248,[2021-02-22 16:51:12.309] $GPGGA,75111.9,3713.9611331,N,13701.5670787,E,4,13,1.0,92.4658,M,37.55,M,4.0,0000*64,37.23268555166666,137.02611797833333,679735.3143353737,4122608.723772122
1249,[2021-02-22 16:51:12.434] $GPGGA,75112.0,3713.9611326,N,13701.567079100001,E,4,13,1.0,92.4649,M,37.55,M,5.0,0000*6E,37.23268554333333,137.02611798500004,679735.3149466297,4122608.7228601463
1250,[2021-02-22 16:51:12.528] $GPGGA,75112.1,3713.9611331,N,13701.567079700002,E,4,13,1.0,92.4666,M,37.55,M,5.0,0000*62,37.23268555166666,137.02611799500002,679735.3158140292,4122608.7238037726
1251,[2021-02-22 16:51:12.622] $GPGGA,75112.2,3713.9611341,N,13701.5670801,E,4,13,1.0,92.4668,M,37.55,M,5.0,0000*68,37.23268556833333,137.02611800166667,679735.3163659048,4122608.7256657053
1252,[2021-02-22 16:51:12.700] $GPGGA,75112.3,3713.9611341,N,13701.567080200002,E,4,13,1.0,92.4667,M,37.55,M,5.0,0000*65,37.23268556833333,137.02611800333335,679735.3165137696,4122608.7256688713
1253,[2021-02-22 16:51:12.825] $GPGGA,75112.4,3713.9611335999994,N,13701.567079799997,E,4,13,1.0,92.4664,M,37.55,M,5.0,0000*6D,37.23268555999999,137.0261179966666,679735.3159420952,4122608.7247315743
1254,[2021-02-22 16:51:12.903] $GPGGA,75112.5,3713.9611335999994,N,13701.567079499999,E,4,13,1.0,92.4662,M,37.55,M,5.0,0000*67,37.23268555999999,137.02611799166664,679735.3154985006,4122608.72472208
1255,[2021-02-22 16:51:13.028] $GPGGA,75112.6,3713.9611340000006,N,13701.567079299999,E,4,13,1.0,92.4673,M,37.55,M,5.0,0000*63,37.23268556666668,137.02611798833334,679735.3151869396,4122608.72545546
1256,[2021-02-22 16:51:13.106] $GPGGA,75112.7,3713.9611341,N,13701.567079799997,E,4,13,1.0,92.4669,M,37.55,M,5.0,0000*63,37.23268556833333,137.0261179966666,679735.3159223034,4122608.725656211
1257,[2021-02-22 16:51:13.231] $GPGGA,75112.8,3713.9611336999997,N,13701.567080399998,E,4,13,1.0,92.4676,M,37.55,M,5.0,0000*69,37.23268556166666,137.02611800666665,679735.3168253307,4122608.724935492
1258,[2021-02-22 16:51:13.309] $GPGGA,75112.9,3713.9611341,N,13701.5670801,E,4,13,1.0,92.468,M,37.55,M,5.0,0000*65,37.23268556833333,137.02611800166667,679735.3163659048,4122608.7256657053
1259,[2021-02-22 16:51:13.434] $GPGGA,75113.0,3713.9611334,N,13701.567078999999,E,4,13,1.0,92.4654,M,37.55,M,6.0,0000*62,37.23268555666667,137.02611798333328,679735.3147670885,4122608.724336399
1260,[2021-02-22 16:51:13.512] $GPGGA,75113.1,3713.9611331,N,13701.567079100001,E,4,13,1.0,92.4647,M,37.55,M,6.0,0000*65,37.23268555166666,137.02611798500004,679735.3149268376,4122608.7237847825
1261,[2021-02-22 16:51:13.622] $GPGGA,75113.2,3713.9611303,N,13701.567081600002,E,4,13,1.0,92.4531,M,37.55,M,1.0,0000*62,37.232685505000006,137.0261180266667,679735.3187343059,4122608.718685947
1262,[2021-02-22 16:51:13.700] $GPGGA,75113.3,3713.9611288,N,13701.567082799998,E,4,13,1.0,92.4448,M,37.55,M,1.0,0000*63,37.232685479999994,137.02611804666665,679735.3205680604,4122608.715950018
1263,[2021-02-22 16:51:13.825] $GPGGA,75113.4,3713.9611288,N,13701.5670834,E,4,13,1.0,92.4402,M,37.55,M,1.0,0000*67,37.232685479999994,137.02611805666666,679735.3214552542,4122608.7159690084
1264,[2021-02-22 16:51:13.918] $GPGGA,75113.5,3713.9611283,N,13701.5670834,E,4,13,1.0,92.4352,M,37.55,M,1.0,0000*6F,37.23268547166667,137.02611805666666,679735.3214750462,4122608.7150443722
1265,[2021-02-22 16:51:14.012] $GPGGA,75113.6,3713.9611286,N,13701.5670834,E,4,13,1.0,92.4325,M,37.55,M,1.0,0000*69,37.23268547666666,137.02611805666666,679735.3214631709,4122608.715599154
1266,[2021-02-22 16:51:14.122] $GPGGA,75113.7,3713.9611291999995,N,13701.567083700002,E,4,13,1.0,92.4321,M,37.55,M,1.0,0000*6A,37.23268548666666,137.0261180616667,679735.3218830198,4122608.7167182127
1267,[2021-02-22 16:51:14.200] $GPGGA,75113.8,3713.9611296999997,N,13701.5670839,E,4,13,1.0,92.4309,M,37.55,M,1.0,0000*64,37.23268549499999,137.026118065,679735.3221589553,4122608.7176491786
1268,[2021-02-22 16:51:14.325] $GPGGA,75113.9,3713.9611298,N,13701.5670842,E,4,13,1.0,92.4311,M,37.55,M,1.0,0000*6F,37.23268549666666,137.02611807,679735.3225985938,4122608.7178436015
1269,[2021-02-22 16:51:14.403] $GPGGA,75114.0,3713.9611296999997,N,13701.5670842,E,4,13,1.0,92.4306,M,37.55,M,2.0,0000*6B,37.23268549499999,137.02611807,679735.3226025521,4122608.717658674
1270,[2021-02-22 16:51:14.528] $GPGGA,75114.1,3713.9611303,N,13701.567083700002,E,4,13,1.0,92.4312,M,37.55,M,2.0,0000*61,37.232685505000006,137.0261180616667,679735.3218394774,4122608.718752414
1271,[2021-02-22 16:51:14.606] $GPGGA,75114.2,3713.9611302000003,N,13701.5670835,E,4,13,1.0,92.4312,M,37.55,M,2.0,0000*61,37.23268550333334,137.02611805833334,679735.3215477037,4122608.7185611576
1272,[2021-02-22 16:51:14.731] $GPGGA,75114.3,3713.9611305,N,13701.567084799999,E,4,13,1.0,92.4347,M,37.55,M,2.0,0000*6D,37.232685508333326,137.02611807999997,679735.3234580742,4122608.719157083
1273,[2021-02-22 16:51:14.809] $GPGGA,75114.4,3713.9611305,N,13701.5670847,E,4,13,1.0,92.4354,M,37.55,M,2.0,0000*67,37.232685508333326,137.02611807833333,679735.3233102117,4122608.7191539183
1274,[2021-02-22 16:51:14.918] $GPGGA,75114.5,3713.9611306,N,13701.5670847,E,4,13,1.0,92.4356,M,37.55,M,2.0,0000*67,37.232685509999996,137.02611807833333,679735.3233062532,4122608.7193388455
1275,[2021-02-22 16:51:14.997] $GPGGA,75114.6,3713.9611302000003,N,13701.567084799999,E,4,13,1.0,92.4361,M,37.55,M,2.0,0000*6B,37.23268550333334,137.02611807999997,679735.3234699493,4122608.7186023025
1276,[2021-02-22 16:51:15.122] $GPGGA,75114.7,3713.9611298,N,13701.5670854,E,4,13,1.0,92.4374,M,37.55,M,2.0,0000*61,37.23268549666666,137.02611809,679735.324372979,4122608.717881582
1277,[2021-02-22 16:51:15.200] $GPGGA,75114.8,3713.9611299999997,N,13701.567084600001,E,4,13,1.0,92.4376,M,37.55,M,2.0,0000*6F,37.232685499999995,137.02611807666668,679735.3231821387,4122608.718226116
1278,[2021-02-22 16:51:15.325] $GPGGA,75114.9,3713.9611303,N,13701.567084999999,E,4,13,1.0,92.4401,M,37.55,M,2.0,0000*6D,37.232685505000006,137.02611808333333,679735.323761723,4122608.7187935603
1279,[2021-02-22 16:51:15.403] $GPGGA,75115.0,3713.9611303,N,13701.567085499999,E,4,13,1.0,92.4403,M,37.55,M,3.0,0000*63,37.232685505000006,137.02611809166666,679735.3245010496,4122608.7188093853
1280,[2021-02-22 16:51:15.496] $GPGGA,75115.1,3713.9611303,N,13701.567084600001,E,4,13,1.0,92.4396,M,37.55,M,3.0,0000*6B,37.232685505000006,137.02611807666668,679735.3231702634,4122608.7187809
1281,[2021-02-22 16:51:15.621] $GPGGA,75115.2,3713.9611305,N,13701.5670847,E,4,13,1.0,92.4404,M,37.55,M,3.0,0000*63,37.232685508333326,137.02611807833333,679735.3233102117,4122608.7191539183
1282,[2021-02-22 16:51:15.700] $GPGGA,75115.3,3713.9611302000003,N,13701.5670847,E,4,13,1.0,92.4413,M,37.55,M,3.0,0000*63,37.23268550333334,137.02611807833333,679735.3233220867,4122608.718599139
1283,[2021-02-22 16:51:15.825] $GPGGA,75115.4,3713.9611302000003,N,13701.567084799999,E,4,13,1.0,92.44,M,37.55,M,3.0,0000*69,37.23268550333334,137.02611807999997,679735.3234699493,4122608.7186023025
1284,[2021-02-22 16:51:15.903] $GPGGA,75115.5,3713.9611301,N,13701.5670852,E,4,13,1.0,92.4397,M,37.55,M,3.0,0000*69,37.23268550166667,137.02611808666666,679735.3240653696,4122608.7184300357
1285,[2021-02-22 16:51:16.028] $GPGGA,75115.6,3713.9611302000003,N,13701.567086000001,E,4,13,1.0,92.4397,M,37.55,M,3.0,0000*68,37.23268550333334,137.0261181,679735.3252443346,4122608.7186402837
1286,[2021-02-22 16:51:16.106] $GPGGA,75115.7,3713.9611299000003,N,13701.567085499999,E,4,13,1.0,92.4376,M,37.55,M,3.0,0000*63,37.23268549833334,137.02611809166666,679735.3245168832,4122608.718069676
1287,[2021-02-22 16:51:16.231] $GPGGA,75115.8,3713.9611298,N,13701.567085699999,E,4,13,1.0,92.4379,M,37.55,M,3.0,0000*60,37.23268549666666,137.02611809499996,679735.3248165691,4122608.717891078
1288,[2021-02-22 16:51:16.309] $GPGGA,75115.9,3713.9611299999997,N,13701.5670861,E,4,13,1.0,92.4361,M,37.55,M,3.0,0000*6D,37.232685499999995,137.02611810166664,679735.3254001163,4122608.7182735926
1289,[2021-02-22 16:51:16.434] $GPGGA,75116.0,3713.9611299999997,N,13701.5670859,E,4,13,1.0,92.4348,M,37.55,M,4.0,0000*60,37.232685499999995,137.02611809833334,679735.3251043889,4122608.718267263
1290,[2021-02-22 16:51:16.528] $GPGGA,75116.1,3713.9611308,N,13701.5670868,E,4,13,1.0,92.4361,M,37.55,M,4.0,0000*60,37.23268551333333,137.02611811333333,679735.3264035077,4122608.7197751664
1291,[2021-02-22 16:51:16.621] $GPGGA,75116.2,3713.9611309,N,13701.5670866,E,4,13,1.0,92.4364,M,37.55,M,4.0,0000*69,37.23268551500001,137.02611811,679735.3261038195,4122608.719953765
1292,[2021-02-22 16:51:16.700] $GPGGA,75116.3,3713.9611303,N,13701.567086300001,E,4,13,1.0,92.4363,M,37.55,M,4.0,0000*60,37.232685505000006,137.02611810500005,679735.3256839777,4122608.718834706
1293,[2021-02-22 16:51:16.825] $GPGGA,75116.4,3713.9611303999995,N,13701.567085699999,E,4,13,1.0,92.4347,M,37.55,M,4.0,0000*61,37.23268550666666,137.02611809499996,679735.3247928187,4122608.7190006417
1294,[2021-02-22 16:51:16.903] $GPGGA,75116.5,3713.9611306999996,N,13701.5670866,E,4,13,1.0,92.436,M,37.55,M,4.0,0000*64,37.23268551166666,137.02611811,679735.3261117365,4122608.7195839086
1295,[2021-02-22 16:51:17.028] $GPGGA,75116.6,3713.9611301,N,13701.567086300001,E,4,13,1.0,92.4356,M,37.55,M,4.0,0000*61,37.23268550166667,137.02611810500005,679735.3256918944,4122608.718464851
1296,[2021-02-22 16:51:17.106] $GPGGA,75116.7,3713.9611294,N,13701.567085699999,E,4,13,1.0,92.433,M,37.55,M,4.0,0000*6A,37.232685489999994,137.02611809499996,679735.3248324028,4122608.7171513685
1297,[2021-02-22 16:51:17.215] $GPGGA,75116.8,3713.9611303,N,13701.5670859,E,4,13,1.0,92.4335,M,37.55,M,4.0,0000*61,37.232685505000006,137.02611809833334,679735.3250925136,4122608.7188220457
1298,[2021-02-22 16:51:17.309] $GPGGA,75116.9,3713.9611308,N,13701.5670861,E,4,13,1.0,92.4332,M,37.55,M,4.0,0000*67,37.23268551333333,137.02611810166664,679735.3253684492,4122608.7197530107
1299,[2021-02-22 16:51:17.418] $GPGGA,75117.0,3713.9611309,N,13701.5670859,E,4,13,1.0,92.4308,M,37.55,M,5.0,0000*6D,37.23268551500001,137.02611809833334,679735.3250687632,4122608.7199316095
1300,[2021-02-22 16:51:17.512] $GPGGA,75117.1,3713.9611305,N,13701.567085699999,E,4,13,1.0,92.4297,M,37.55,M,5.0,0000*69,37.232685508333326,137.02611809499996,679735.3247888603,4122608.71918557
1301,[2021-02-22 16:51:17.606] $GPGGA,75117.2,3713.961131,N,13701.567085799998,E,4,13,1.0,92.4309,M,37.55,M,5.0,0000*67,37.23268551666666,137.0261180966666,679735.3249169332,4122608.720113371
1302,[2021-02-22 16:51:17.731] $GPGGA,75117.3,3713.9611299999997,N,13701.5670853,E,4,13,1.0,92.4305,M,37.55,M,5.0,0000*60,37.232685499999995,137.0261180883333,679735.3242171928,4122608.718248272
1303,[2021-02-22 16:51:17.809] $GPGGA,75117.4,3713.9611294,N,13701.567085699999,E,4,13,1.0,92.432,M,37.55,M,5.0,0000*68,37.232685489999994,137.02611809499996,679735.3248324028,4122608.7171513685
1304,[2021-02-22 16:51:17.918] $GPGGA,75117.5,3713.9611295,N,13701.5670866,E,4,13,1.0,92.4319,M,37.55,M,5.0,0000*60,37.23268549166667,137.02611811,679735.3261592372,4122608.717364783
1305,[2021-02-22 16:51:18.012] $GPGGA,75117.6,3713.9611302000003,N,13701.5670875,E,4,13,1.0,92.433,M,37.55,M,5.0,0000*65,37.23268550333334,137.02611812499998,679735.3274623145,4122608.71868776
1306,[2021-02-22 16:51:18.121] $GPGGA,75117.7,3713.9611308,N,13701.5670885,E,4,13,1.0,92.4339,M,37.55,M,5.0,0000*68,37.23268551333333,137.02611814166664,679735.3289172174,4122608.7198289726
1307,[2021-02-22 16:51:18.199] $GPGGA,75117.8,3713.9611311,N,13701.567088,E,4,13,1.0,92.4338,M,37.55,M,5.0,0000*6B,37.23268551833333,137.0261181333333,679735.3281660156,4122608.720367929
1308,[2021-02-22 16:51:18.324] $GPGGA,75117.9,3713.9611311999997,N,13701.567087399999,E,4,13,1.0,92.4347,M,37.55,M,5.0,0000*6A,37.23268552,137.02611812333333,679735.3272748657,4122608.720533866
1309,[2021-02-22 16:51:18.403] $GPGGA,75118.0,3713.9611309,N,13701.5670868,E,4,13,1.0,92.4342,M,37.55,M,6.0,0000*6D,37.23268551500001,137.02611811333333,679735.3263995494,4122608.719960095
1310,[2021-02-22 16:51:18.512] $GPGGA,75118.1,3713.961131,N,13701.5670868,E,4,13,1.0,92.4349,M,37.55,M,6.0,0000*6F,37.23268551666666,137.02611811333333,679735.326395591,4122608.7201450216
1311,[2021-02-22 16:51:18.606] $GPGGA,75118.2,3713.9611303999995,N,13701.567087200001,E,4,13,1.0,92.4353,M,37.55,M,1.0,0000*6E,37.23268550666666,137.02611812000004,679735.3270108055,4122608.7190481173
1312,[2021-02-22 16:51:18.731] $GPGGA,75118.3,3713.9611291999995,N,13701.5670868,E,4,13,1.0,92.4345,M,37.55,M,1.0,0000*6D,37.23268548666666,137.02611811333333,679735.3264668421,4122608.716816331
1313,[2021-02-22 16:51:18.809] $GPGGA,75118.4,3713.9611306999996,N,13701.567087700001,E,4,13,1.0,92.4365,M,37.55,M,1.0,0000*6B,37.23268551166666,137.02611812833337,679735.3277382569,4122608.719618725
1314,[2021-02-22 16:51:18.918] $GPGGA,75118.5,3713.9611308,N,13701.5670866,E,4,13,1.0,92.436,M,37.55,M,1.0,0000*60,37.23268551333333,137.02611811,679735.3261077781,4122608.7197688366
1315,[2021-02-22 16:51:18.996] $GPGGA,75118.6,3713.9611306999996,N,13701.567087000001,E,4,13,1.0,92.4371,M,37.55,M,1.0,0000*6B,37.23268551166666,137.02611811666668,679735.3267031983,4122608.719596569
1316,[2021-02-22 16:51:19.121] $GPGGA,75118.7,3713.9611298,N,13701.567087600002,E,4,13,1.0,92.437,M,37.55,M,1.0,0000*6A,37.23268549666666,137.02611812666672,679735.3276260198,4122608.7179512144
1317,[2021-02-22 16:51:19.231] $GPGGA,75118.8,3713.9611293000007,N,13701.567087600002,E,4,13,1.0,92.4368,M,37.55,M,1.0,0000*67,37.232685488333345,137.02611812666672,679735.3276458117,4122608.71702658
1318,[2021-02-22 16:51:19.309] $GPGGA,75118.9,3713.9611294,N,13701.567088,E,4,13,1.0,92.4377,M,37.55,M,1.0,0000*66,37.232685489999994,137.0261181333333,679735.3282333084,4122608.717224166
1319,[2021-02-22 16:51:19.434] $GPGGA,75119.0,3713.9611295,N,13701.567088299998,E,4,13,1.0,92.4351,M,37.55,M,2.0,0000*6B,37.23268549166667,137.02611813833332,679735.3286729446,4122608.71741859
1320,[2021-02-22 16:51:19.528] $GPGGA,75119.1,3713.9611296999997,N,13701.5670879,E,4,13,1.0,92.4362,M,37.55,M,2.0,0000*6D,37.23268549499999,137.02611813166666,679735.3280735683,4122608.717775781
1321,[2021-02-22 16:51:19.621] $GPGGA,75119.2,3713.9611306999996,N,13701.5670882,E,4,13,1.0,92.439,M,37.55,M,2.0,0000*6F,37.23268551166666,137.02611813666667,679735.3284775813,4122608.7196345497
1322,[2021-02-22 16:51:19.699] $GPGGA,75119.3,3713.9611306,N,13701.567087799998,E,4,13,1.0,92.4384,M,37.55,M,2.0,0000*6F,37.232685509999996,137.02611812999996,679735.3278900734,4122608.7194369636
1323,[2021-02-22 16:51:19.824] $GPGGA,75119.4,3713.9611303999995,N,13701.567088,E,4,13,1.0,92.4384,M,37.55,M,2.0,0000*6D,37.23268550666666,137.0261181333333,679735.3281937244,4122608.719073438
1324,[2021-02-22 16:51:19.902] $GPGGA,75119.5,3713.9611293000007,N,13701.5670881,E,4,13,1.0,92.4382,M,37.55,M,2.0,0000*64,37.232685488333345,137.02611813500002,679735.3283851339,4122608.717042405
1325,[2021-02-22 16:51:20.027] $GPGGA,75119.6,3713.961129,N,13701.5670889,E,4,13,1.0,92.4371,M,37.55,M,2.0,0000*60,37.23268548333333,137.02611814833335,679735.3295799326,4122608.716512942
1326,[2021-02-22 16:51:20.106] $GPGGA,75119.7,3713.9611296999997,N,13701.5670899,E,4,13,1.0,92.4379,M,37.55,M,2.0,0000*6F,37.23268549499999,137.02611816499999,679735.331030875,4122608.717839083
1327,[2021-02-22 16:51:20.231] $GPGGA,75119.8,3713.9611302000003,N,13701.5670902,E,4,13,1.0,92.4369,M,37.55,M,2.0,0000*6F,37.23268550333334,137.02611817000002,679735.3314546819,4122608.718773218
1328,[2021-02-22 16:51:20.324] $GPGGA,75119.9,3713.9611303999995,N,13701.5670901,E,4,13,1.0,92.4376,M,37.55,M,2.0,0000*65,37.23268550666666,137.0261181683333,679735.3312988959,4122608.719139905
1329,[2021-02-22 16:51:20.434] $GPGGA,75120.0,3713.9611296999997,N,13701.5670891,E,4,13,1.0,92.4345,M,37.55,M,3.0,0000*64,37.23268549499999,137.02611815166668,679735.3298479536,4122608.717813763
1330,[2021-02-22 16:51:20.527] $GPGGA,75120.1,3713.9611299999997,N,13701.567088799999,E,4,13,1.0,92.435,M,37.55,M,3.0,0000*66,37.232685499999995,137.02611814666665,679735.3293924793,4122608.7183590503
1331,[2021-02-22 16:51:20.621] $GPGGA,75120.2,3713.9611296999997,N,13701.5670893,E,4,13,1.0,92.4355,M,37.55,M,3.0,0000*65,37.23268549499999,137.02611815499998,679735.3301436811,4122608.717820093
1332,[2021-02-22 16:51:20.699] $GPGGA,75120.3,3713.961129,N,13701.5670891,E,4,13,1.0,92.4343,M,37.55,M,3.0,0000*66,37.23268548333333,137.02611815166668,679735.3298756623,4122608.716519273
1333,[2021-02-22 16:51:20.824] $GPGGA,75120.4,3713.9611291999995,N,13701.5670902,E,4,13,1.0,92.4344,M,37.55,M,3.0,0000*6F,37.23268548666666,137.02611817000002,679735.3314942659,4122608.7169239437
1334,[2021-02-22 16:51:20.934] $GPGGA,75120.5,3713.9611294,N,13701.5670913,E,4,13,1.0,92.4354,M,37.55,M,3.0,0000*69,37.232685489999994,137.02611818833336,679735.3331128673,4122608.7173286127
1335,[2021-02-22 16:51:21.012] $GPGGA,75120.6,3713.9611296999997,N,13701.567090999999,E,4,13,1.0,92.4345,M,37.55,M,3.0,0000*6A,37.23268549499999,137.0261181833333,679735.3326573907,4122608.7178738997
1336,[2021-02-22 16:51:21.121] $GPGGA,75120.7,3713.9611291999995,N,13701.56709,E,4,13,1.0,92.432,M,37.55,M,3.0,0000*6C,37.23268548666666,137.02611816666666,679735.3311985317,4122608.7169176126
1337,[2021-02-22 16:51:21.199] $GPGGA,75120.8,3713.9611296,N,13701.5670902,E,4,13,1.0,92.4325,M,37.55,M,3.0,0000*60,37.23268549333333,137.02611817000002,679735.3314784323,4122608.717663653
1338,[2021-02-22 16:51:21.324] $GPGGA,75120.9,3713.9611291,N,13701.5670898,E,4,13,1.0,92.4322,M,37.55,M,3.0,0000*63,37.232685485000005,137.02611816333334,679735.3309067604,4122608.7167263567
1339,[2021-02-22 16:51:21.402] $GPGGA,75121.0,3713.9611284999996,N,13701.56709,E,4,13,1.0,92.4302,M,37.55,M,4.0,0000*6B,37.23268547499999,137.02611816666666,679735.3312262405,4122608.715623121
1340,[2021-02-22 16:51:21.512] $GPGGA,75121.1,3713.9611286,N,13701.567090600001,E,4,13,1.0,92.4309,M,37.55,M,4.0,0000*64,37.23268547666666,137.0261181766667,679735.3321094782,4122608.7158270404
1341,[2021-02-22 16:51:21.621] $GPGGA,75121.2,3713.9611291999995,N,13701.567091799998,E,4,13,1.0,92.4329,M,37.55,M,4.0,0000*6F,37.23268548666666,137.02611819666663,679735.3338601062,4122608.716974584
1342,[2021-02-22 16:51:21.730] $GPGGA,75121.3,3713.9611295,N,13701.567090999999,E,4,13,1.0,92.4321,M,37.55,M,4.0,0000*69,37.23268549166667,137.0261181833333,679735.3326653076,4122608.7175040473
1343,[2021-02-22 16:51:21.809] $GPGGA,75121.4,3713.9611305,N,13701.567090399998,E,4,13,1.0,92.4334,M,37.55,M,4.0,0000*67,37.232685508333326,137.02611817333332,679735.3317385344,4122608.7193343276
1344,[2021-02-22 16:51:21.918] $GPGGA,75121.5,3713.9611299999997,N,13701.567089200002,E,4,13,1.0,92.4337,M,37.55,M,4.0,0000*6E,37.232685499999995,137.02611815333333,679735.3299839433,4122608.71837171
1345,[2021-02-22 16:51:22.012] $GPGGA,75121.6,3713.9611296999997,N,13701.5670909,E,4,13,1.0,92.4357,M,37.55,M,4.0,0000*67,37.23268549499999,137.02611818166665,679735.3325095258,4122608.7178707346
1346,[2021-02-22 16:51:22.121] $GPGGA,75121.7,3713.9611295,N,13701.5670919,E,4,13,1.0,92.4369,M,37.55,M,4.0,0000*68,37.23268549166667,137.02611819833334,679735.3339960981,4122608.7175325328
1347,[2021-02-22 16:51:22.199] $GPGGA,75121.8,3713.9611294,N,13701.5670935,E,4,13,1.0,92.4366,M,37.55,M,4.0,0000*67,37.232685489999994,137.026118225,679735.3363659036,4122608.7173982454
1348,[2021-02-22 16:51:22.324] $GPGGA,75121.9,3713.9611291999995,N,13701.5670935,E,4,13,1.0,92.4367,M,37.55,M,4.0,0000*61,37.23268548666666,137.026118225,679735.3363738204,4122608.7170283906
1349,[2021-02-22 16:51:22.402] $GPGGA,75122.0,3713.9611289000004,N,13701.567093700001,E,4,13,1.0,92.4359,M,37.55,M,5.0,0000*6F,37.23268548166667,137.02611822833336,679735.3366814276,4122608.716479939
1350,[2021-02-22 16:51:22.512] $GPGGA,75122.1,3713.9611294,N,13701.567093099999,E,4,13,1.0,92.436,M,37.55,M,5.0,0000*6E,37.232685489999994,137.02611821833332,679735.3357744396,4122608.717385584
1351,[2021-02-22 16:51:22.605] $GPGGA,75122.2,3713.9611281999996,N,13701.5670908,E,4,13,1.0,92.4329,M,37.55,M,5.0,0000*6D,37.23268546999999,137.02611818,679735.3324210392,4122608.71509366
1352,[2021-02-22 16:51:22.730] $GPGGA,75122.3,3713.9611284000002,N,13701.567092399999,E,4,13,1.0,92.4334,M,37.55,M,5.0,0000*68,37.23268547333334,137.02611820666664,679735.3347789649,4122608.7155141574
1353,[2021-02-22 16:51:22.824] $GPGGA,75122.4,3713.9611284000002,N,13701.567092899999,E,4,13,1.0,92.4315,M,37.55,M,5.0,0000*61,37.23268547333334,137.02611821499997,679735.3355182915,4122608.715529983
1354,[2021-02-22 16:51:22.918] $GPGGA,75122.5,3713.9611288,N,13701.567092399999,E,4,13,1.0,92.4326,M,37.55,M,5.0,0000*61,37.232685479999994,137.02611820666664,679735.3347631313,4122608.7162538655
1355,[2021-02-22 16:51:23.027] $GPGGA,75122.6,3713.9611288,N,13701.5670921,E,4,13,1.0,92.4311,M,37.55,M,5.0,0000*63,37.232685479999994,137.0261182016667,679735.3343195412,4122608.71624437
1356,[2021-02-22 16:51:23.105] $GPGGA,75122.7,3713.9611289000004,N,13701.5670921,E,4,13,1.0,92.4305,M,37.55,M,5.0,0000*66,37.23268548166667,137.0261182016667,679735.3343155829,4122608.7164292983
1357,[2021-02-22 16:51:23.230] $GPGGA,75122.8,3713.9611296,N,13701.567091100002,E,4,13,1.0,92.4306,M,37.55,M,5.0,0000*67,37.23268549333333,137.02611818500006,679735.332809223,4122608.7176921386
1358,[2021-02-22 16:51:23.308] $GPGGA,75122.9,3713.9611299999997,N,13701.5670905,E,4,13,1.0,92.4298,M,37.55,M,5.0,0000*6B,37.232685499999995,137.02611817500002,679735.3319061934,4122608.718412857
1359,[2021-02-22 16:51:23.433] $GPGGA,75123.0,3713.9611306,N,13701.5670868,E,4,13,1.0,92.4273,M,37.55,M,6.0,0000*69,37.232685509999996,137.02611811333333,679735.3264114247,4122608.7194053126
1360,[2021-02-22 16:51:23.527] $GPGGA,75123.1,3713.9611318999996,N,13701.567084600001,E,4,13,1.0,92.4264,M,37.55,M,6.0,0000*6C,37.23268553166666,137.02611807666668,679735.3231069292,4122608.7217397336
1361,[2021-02-22 16:51:23.621] $GPGGA,75123.2,3713.9611331999995,N,13701.567083200001,E,4,13,1.0,92.4252,M,37.55,M,1.0,0000*67,37.232685553333326,137.02611805333336,679735.3209853573,4122608.724099478
1362,[2021-02-22 16:51:23.699] $GPGGA,75123.3,3713.9611329000004,N,13701.5670822,E,4,13,1.0,92.4231,M,37.55,M,1.0,0000*68,37.23268554833334,137.02611803666667,679735.3195185768,4122608.723513048
1363,[2021-02-22 16:51:23.824] $GPGGA,75123.4,3713.9611327,N,13701.567083200001,E,4,13,1.0,92.4231,M,37.55,M,1.0,0000*60,37.232685544999995,137.02611805333336,679735.3210051493,4122608.723174842
1364,[2021-02-22 16:51:23.902] $GPGGA,75123.5,3713.9611321,N,13701.567083599999,E,4,13,1.0,92.4207,M,37.55,M,1.0,0000*66,37.23268553500001,137.02611806,679735.3216203568,4122608.72207794
1365,[2021-02-22 16:51:24.027] $GPGGA,75123.6,3713.961131,N,13701.567087200001,E,4,13,1.0,92.4213,M,37.55,M,1.0,0000*62,37.23268551666666,137.02611812000004,679735.326987055,4122608.720157682
1366,[2021-02-22 16:51:24.105] $GPGGA,75123.7,3713.9611291999995,N,13701.567087600002,E,4,13,1.0,92.4214,M,37.55,M,1.0,0000*6B,37.23268548666666,137.02611812666672,679735.3276497703,4122608.7168416516
1367,[2021-02-22 16:51:24.230] $GPGGA,75123.8,3713.9611276999995,N,13701.567084999999,E,4,13,1.0,92.4202,M,37.55,M,1.0,0000*6C,37.232685461666655,137.02611808333333,679735.3238646414,4122608.7139854496
1368,[2021-02-22 16:51:24.308] $GPGGA,75123.9,3713.9611284999996,N,13701.567081799998,E,4,13,1.0,92.4192,M,37.55,M,1.0,0000*66,37.23268547499999,137.02611803,679735.3191012846,4122608.715363585
1369,[2021-02-22 16:51:24.433] $GPGGA,75124.0,3713.9611313,N,13701.5670805,E,4,13,1.0,92.4146,M,37.55,M,2.0,0000*60,37.232685521666674,137.02611800833336,679735.3170682015,4122608.7205004054
1370,[2021-02-22 16:51:24.512] $GPGGA,75124.1,3713.9611354999997,N,13701.567081700001,E,4,13,1.0,92.4142,M,37.55,M,2.0,0000*64,37.232685591666666,137.02611802833334,679735.3186763319,4122608.7283053296
1371,[2021-02-22 16:51:24.605] $GPGGA,75124.2,3713.9611369000004,N,13701.5670822,E,4,13,1.0,92.4137,M,37.55,M,2.0,0000*6C,37.232685615,137.02611803666667,679735.319360241,4122608.730910138
1372,[2021-02-22 16:51:24.730] $GPGGA,75124.3,3713.9611366999998,N,13701.567081799998,E,4,13,1.0,92.4129,M,37.55,M,2.0,0000*65,37.23268561166667,137.02611803,679735.318776696,4122608.730527622
1373,[2021-02-22 16:51:24.808] $GPGGA,75124.4,3713.9611372,N,13701.5670824,E,4,13,1.0,92.4134,M,37.55,M,2.0,0000*65,37.23268562,137.02611804000003,679735.3196440978,4122608.7314712494
1374,[2021-02-22 16:51:24.933] $GPGGA,75124.5,3713.9611376999997,N,13701.567082299998,E,4,13,1.0,92.4145,M,37.55,M,2.0,0000*60,37.23268562833332,137.02611803833332,679735.3194764387,4122608.7323927185
1375,[2021-02-22 16:51:25.012] $GPGGA,75124.6,3713.9611376000003,N,13701.5670807,E,4,13,1.0,92.4157,M,37.55,M,2.0,0000*67,37.23268562666667,137.02611801166665,679735.31711455,4122608.7321571526
1376,[2021-02-22 16:51:25.121] $GPGGA,75124.7,3713.9611371,N,13701.5670792,E,4,13,1.0,92.4152,M,37.55,M,2.0,0000*67,37.232685618333335,137.0261179866667,679735.3149163666,4122608.731185039
1377,[2021-02-22 16:51:25.199] $GPGGA,75124.8,3713.961138,N,13701.567079299999,E,4,13,1.0,92.416,M,37.55,M,2.0,0000*66,37.23268563333333,137.02611798833334,679735.3150286038,4122608.7328525493
1378,[2021-02-22 16:51:25.324] $GPGGA,75124.9,3713.9611386999995,N,13701.567079700002,E,4,13,1.0,92.4184,M,37.55,M,2.0,0000*6E,37.23268564499999,137.02611799500002,679735.3155923589,4122608.7341597006
1379,[2021-02-22 16:51:25.402] $GPGGA,75125.0,3713.9611393,N,13701.5670807,E,4,13,1.0,92.4174,M,37.55,M,3.0,0000*6B,37.232685655000004,137.02611801166665,679735.3170472573,4122608.735300917
1380,[2021-02-22 16:51:25.511] $GPGGA,75125.1,3713.9611395,N,13701.567081799998,E,4,13,1.0,92.4194,M,37.55,M,3.0,0000*6C,37.23268565833334,137.02611803,679735.3186658609,4122608.7357055875
1381,[2021-02-22 16:51:25.621] $GPGGA,75125.2,3713.9611394000003,N,13701.5670822,E,4,13,1.0,92.4207,M,37.55,M,3.0,0000*6E,37.232685656666675,137.02611803666667,679735.319261281,4122608.73553332
1382,[2021-02-22 16:51:25.730] $GPGGA,75125.3,3713.9611391999997,N,13701.567081000001,E,4,13,1.0,92.417,M,37.55,M,3.0,0000*6B,37.232685653333334,137.0261180166667,679735.3174948149,4122608.7351254835
1383,[2021-02-22 16:51:25.808] $GPGGA,75125.4,3713.96114,N,13701.5670806,E,4,13,1.0,92.4179,M,37.55,M,3.0,0000*6E,37.23268566666667,137.02611801,679735.3168716859,4122608.736592243
1384,[2021-02-22 16:51:25.918] $GPGGA,75125.5,3713.9611395999996,N,13701.567080399998,E,4,13,1.0,92.4173,M,37.55,M,3.0,0000*6F,37.23268565999999,137.02611800666665,679735.3165917853,4122608.7358462
1385,[2021-02-22 16:51:26.011] $GPGGA,75125.6,3713.9611388999997,N,13701.567080899998,E,4,13,1.0,92.4173,M,37.55,M,3.0,0000*6F,37.23268564833332,137.02611801499995,679735.3173588184,4122608.734567536
1386,[2021-02-22 16:51:26.121] $GPGGA,75125.7,3713.9611379000003,N,13701.567080399998,E,4,13,1.0,92.416,M,37.55,M,3.0,0000*6E,37.23268563166667,137.02611800666665,679735.316659078,4122608.732702439
1387,[2021-02-22 16:51:26.199] $GPGGA,75125.8,3713.9611379000003,N,13701.5670794,E,4,13,1.0,92.4149,M,37.55,M,3.0,0000*6C,37.23268563166667,137.02611799,679735.3151804269,4122608.7326707887
1388,[2021-02-22 16:51:26.324] $GPGGA,75125.9,3713.9611391999997,N,13701.5670778,E,4,13,1.0,92.4151,M,37.55,M,3.0,0000*63,37.232685653333334,137.02611796333335,679735.3127631231,4122608.735024201
1389,[2021-02-22 16:51:26.433] $GPGGA,75126.0,3713.9611405,N,13701.567076700001,E,4,13,1.0,92.4126,M,37.55,M,4.0,0000*69,37.232685675000006,137.02611794500004,679735.311085148,4122608.7373934407
1390,[2021-02-22 16:51:26.527] $GPGGA,75126.1,3713.9611416000002,N,13701.567076299998,E,4,13,1.0,92.4131,M,37.55,M,4.0,0000*68,37.23268569333334,137.0261179383333,679735.3104501395,4122608.73941498
1391,[2021-02-22 16:51:26.621] $GPGGA,75126.2,3713.9611409000004,N,13701.5670752,E,4,13,1.0,92.4099,M,37.55,M,4.0,0000*64,37.23268568166667,137.02611792000002,679735.3088513322,4122608.7380856737
1392,[2021-02-22 16:51:26.699] $GPGGA,75126.3,3713.9611409000004,N,13701.567075600002,E,4,13,1.0,92.4109,M,37.55,M,4.0,0000*69,37.23268568166667,137.0261179266667,679735.3094427963,4122608.738098334
1393,[2021-02-22 16:51:26.824] $GPGGA,75126.4,3713.9611415,N,13701.5670757,E,4,13,1.0,92.4114,M,37.55,M,4.0,0000*6E,37.23268569166666,137.02611792833335,679735.3095669085,4122608.739211061
1394,[2021-02-22 16:51:26.902] $GPGGA,75126.5,3713.961142,N,13701.5670745,E,4,13,1.0,92.4112,M,37.55,M,4.0,0000*6C,37.232685700000005,137.02611790833333,679735.3077727312,4122608.740097718
1395,[2021-02-22 16:51:27.027] $GPGGA,75126.6,3713.961143,N,13701.567073299999,E,4,13,1.0,92.4102,M,37.55,M,4.0,0000*6E,37.23268571666667,137.0261178883333,679735.3059587597,4122608.7419090094
1396,[2021-02-22 16:51:27.105] $GPGGA,75126.7,3713.9611437,N,13701.5670732,E,4,13,1.0,92.4102,M,37.55,M,4.0,0000*69,37.23268572833333,137.02611788666664,679735.3057831883,4122608.7432003343
