,Format,Time,Latitude,LatType,Longitude,LonType,Status,Satellite,LevelAccuracy,Altitude(sea),M(sea),Altitude(geoid),M(geoid),DGPS use,checksum,Lat,Lon,UTM_X,UTM_Y
402,[2021-02-22 16:45:54.705] $GPGGA,74554.3,3713.96120067,N,13701.56669396,E,4,6.0,1.4,93.29799999999999,M,36.771,M,1.3,0196*78,37.23268667783333,137.02611156600003,679734.7427636256,4122608.8365501715
403,[2021-02-22 16:45:54.815] $GPGGA,74554.4,3713.96120093,N,13701.56669637,E,4,6.0,1.4,93.289,M,36.771,M,1.4,0196*7D,37.23268668216667,137.02611160616667,679734.7463168857,4122608.8371072626
404,[2021-02-22 16:45:54.908] $GPGGA,74554.5,3713.9612026,N,13701.56669563,E,4,6.0,1.4,93.291,M,36.771,M,1.5,0196*78,37.23268671,137.0261115938333,679734.7451565734,4122608.8401721255
405,[2021-02-22 16:45:55.002] $GPGGA,74554.6,3713.96120111,N,13701.56669444,E,4,6.0,1.4,93.29700000000001,M,36.771,M,1.6,0196*7F,37.23268668516666,137.02611157400003,679734.7434559632,4122608.837379045
406,[2021-02-22 16:45:55.096] $GPGGA,74554.7,3713.96119896,N,13701.56669467,E,4,6.0,1.4,93.304,M,36.771,M,1.7,0196*79,37.23268664933333,137.02611157783335,679734.7438811562,4122608.833410388
407,[2021-02-22 16:45:55.205] $GPGGA,74554.8,3713.9612011,N,13701.56669575,E,4,6.0,1.4,93.296,M,36.771,M,1.8,0196*7C,37.232686685,137.02611159583333,679734.7453933907,4122608.837402014
408,[2021-02-22 16:45:55.299] $GPGGA,74554.9,3713.96119827,N,13701.56669446,E,4,6.0,1.4,93.29700000000001,M,36.771,M,1.9,0196*7B,37.232686637833325,137.0261115743333,679734.7435979489,4122608.832127742
409,[2021-02-22 16:45:55.408] $GPGGA,74555.0,3713.96119988,N,13701.56669451,E,4,6.0,1.4,93.294,M,36.771,M,2.0,0196*78,37.232686664666666,137.02611157516668,679734.7436081558,4122608.8351066555
410,[2021-02-22 16:45:55.502] $GPGGA,74555.1,3713.96119906,N,13701.56669426,E,4,6.0,1.4,93.294,M,36.771,M,2.1,0196*7E,37.232686651,137.026111571,679734.7432709502,4122608.833582339
411,[2021-02-22 16:45:55.611] $GPGGA,74555.2,3713.96120113,N,13701.56669624,E,4,6.0,1.4,93.27799999999999,M,36.771,M,1.2,0196*79,37.232686685500006,137.026111604,679734.7461167438,4122608.837473002
412,[2021-02-22 16:45:55.705] $GPGGA,74555.3,3713.96119985,N,13701.56669565,E,4,6.0,1.4,93.26899999999999,M,36.771,M,1.3,0196*72,37.23268666416667,137.02611159416668,679734.7452950078,4122608.835087259
413,[2021-02-22 16:45:55.815] $GPGGA,74555.4,3713.96120114,N,13701.5666958,E,4,6.0,1.4,93.28,M,36.771,M,1.4,0196*74,37.232686685666664,137.02611159666665,679734.7454657397,4122608.8374775676
414,[2021-02-22 16:45:55.893] $GPGGA,74555.5,3713.96120072,N,13701.56669437,E,4,6.0,1.4,93.27799999999999,M,36.771,M,1.5,0196*7F,37.23268667866667,137.02611157283334,679734.7433678919,4122608.836655613
415,[2021-02-22 16:45:56.002] $GPGGA,74555.6,3713.96120036,N,13701.56669298,E,4,6.0,1.4,93.281,M,36.771,M,1.6,0196*7A,37.23268667266667,137.02611154966667,679734.741326813,4122608.83594588
416,[2021-02-22 16:45:56.096] $GPGGA,74555.7,3713.96119913,N,13701.56669474,E,4,6.0,1.4,93.279,M,36.771,M,1.7,0196*7D,37.23268665216667,137.026111579,679734.7439779316,4122608.833726981
417,[2021-02-22 16:45:56.205] $GPGGA,74555.8,3713.96119745,N,13701.56669448,E,4,6.0,1.4,93.27799999999999,M,36.771,M,1.8,0196*7E,37.23268662416667,137.02611157466666,679734.743659982,4122608.8306119726
418,[2021-02-22 16:45:56.299] $GPGGA,74555.9,3713.96120083,N,13701.56669573,E,4,6.0,1.4,93.26899999999999,M,36.771,M,1.9,0196*70,37.232686680499995,137.0261115955,679734.7453745062,4122608.8369020773
419,[2021-02-22 16:45:56.408] $GPGGA,74556.0,3713.96120121,N,13701.56669461,E,4,6.0,1.4,93.275,M,36.771,M,2.0,0196*76,37.23268668683334,137.02611157683333,679734.743703372,4122608.8375693522
420,[2021-02-22 16:45:56.502] $GPGGA,74556.1,3713.96120007,N,13701.56669401,E,4,6.0,1.4,93.27600000000001,M,36.771,M,2.1,0196*76,37.23268666783333,137.02611156683335,679734.7428613083,4122608.835442192
421,[2021-02-22 16:45:56.611] $GPGGA,74556.2,3713.96119798,N,13701.5666966,E,4,6.0,1.4,93.285,M,36.771,M,1.2,0196*77,37.232686633,137.02611161,679734.7467737482,4122608.831659187
422,[2021-02-22 16:45:56.705] $GPGGA,74556.3,3713.96119703,N,13701.56669525,E,4,6.0,1.4,93.294,M,36.771,M,1.3,0196*77,37.23268661716667,137.0261115875,679734.7448151703,4122608.82985965
423,[2021-02-22 16:45:56.814] $GPGGA,74556.4,3713.96119849,N,13701.56669789,E,4,6.0,1.4,93.286,M,36.771,M,1.4,0196*71,37.2326866415,137.02611163150002,679734.7486610245,4122608.832643145
424,[2021-02-22 16:45:56.908] $GPGGA,74556.5,3713.96119834,N,13701.56669626,E,4,6.0,1.4,93.29299999999999,M,36.771,M,1.5,0196*7B,37.232686639,137.02611160433332,679734.7462567547,4122608.832314164
425,[2021-02-22 16:45:57.002] $GPGGA,74556.6,3713.96119609,N,13701.56669479,E,4,6.0,1.4,93.295,M,36.771,M,1.6,0196*75,37.2326866015,137.02611157983333,679734.7441721989,4122608.828106773
426,[2021-02-22 16:45:57.096] $GPGGA,74556.7,3713.96119657,N,13701.56669688,E,4,6.0,1.4,93.29299999999999,M,36.771,M,1.7,0196*74,37.2326866095,137.02611161466666,679734.7472435839,4122608.8290605745
427,[2021-02-22 16:45:57.205] $GPGGA,74556.8,3713.96119639,N,13701.5666956,E,4,6.0,1.4,93.294,M,36.771,M,1.8,0196*7E,37.2326866065,137.02611159333335,679734.7453580356,4122608.8286871924
428,[2021-02-22 16:45:57.299] $GPGGA,74556.9,3713.96119755,N,13701.56669645,E,4,6.0,1.4,93.301,M,36.771,M,1.9,0196*7C,37.23268662583334,137.02611160749998,679734.7465689697,4122608.8308592523
429,[2021-02-22 16:45:57.408] $GPGGA,74557.0,3713.96119857,N,13701.56669614,E,4,6.0,1.4,93.296,M,36.771,M,2.0,0196*78,37.232686642833336,137.02611160233334,679734.7460702135,4122608.8327356987
430,[2021-02-22 16:45:57.502] $GPGGA,74557.1,3713.96119879,N,13701.56669794,E,4,6.0,1.4,93.289,M,36.771,M,2.1,0196*73,37.23268664649999,137.0261116323333,679734.7487230796,4122608.833199508
431,[2021-02-22 16:45:57.611] $GPGGA,74557.2,3713.96119848,N,13701.56669637,E,4,7.0,1.3,93.29700000000001,M,36.771,M,1.2,0196*73,37.23268664133333,137.02611160616667,679734.746413866,4122608.8325765426
432,[2021-02-22 16:45:57.705] $GPGGA,74557.3,3713.96120172,N,13701.56669714,E,4,7.0,1.3,93.285,M,36.771,M,1.3,0196*7A,37.232686695333335,137.026111619,679734.7474241776,4122608.8385925596
433,[2021-02-22 16:45:57.814] $GPGGA,74557.4,3713.9611995,N,13701.56669589,E,4,7.0,1.3,93.295,M,36.771,M,1.4,0196*7F,37.232686658333336,137.02611159816666,679734.7456637361,4122608.8344476093
434,[2021-02-22 16:45:57.893] $GPGGA,74557.5,3713.96119999,N,13701.56669691,E,4,7.0,1.3,93.295,M,36.771,M,1.5,0196*70,37.232686666499994,137.02611161516668,679734.7471525698,4122608.8353860364
435,[2021-02-22 16:45:58.002] $GPGGA,74557.6,3713.96119908,N,13701.5666971,E,4,7.0,1.3,93.286,M,36.771,M,1.6,0196*72,37.23268665133333,137.02611161833335,679734.7474695349,4122608.833709213
436,[2021-02-22 16:45:58.096] $GPGGA,74557.7,3713.96119944,N,13701.56669533,E,4,7.0,1.3,93.294,M,36.771,M,1.7,0196*7A,37.23268665733333,137.02611158883334,679734.7448380684,4122608.834318929
437,[2021-02-22 16:45:58.205] $GPGGA,74557.8,3713.96119912,N,13701.56669561,E,4,7.0,1.3,93.29299999999999,M,36.771,M,1.8,0196*79,37.232686652,137.02611159350002,679734.7452647577,4122608.8337360225
438,[2021-02-22 16:45:58.299] $GPGGA,74557.9,3713.96119787,N,13701.56669847,E,4,7.0,1.3,93.289,M,36.771,M,1.9,0196*79,37.23268663116667,137.02611164116666,679734.7495431837,4122608.8315149555
439,[2021-02-22 16:45:58.408] $GPGGA,74558.0,3713.96119777,N,13701.56669601,E,4,7.0,1.3,93.3,M,36.771,M,2.0,0196*76,37.2326866295,137.0261116001667,679734.7459096576,4122608.831252166
440,[2021-02-22 16:45:58.502] $GPGGA,74558.1,3713.96120059,N,13701.56669666,E,4,6.0,1.4,93.291,M,36.771,M,1.1,0196*7A,37.232686676499995,137.026111611,679734.7467591551,4122608.8364876877
441,[2021-02-22 16:45:58.611] $GPGGA,74558.2,3713.96120041,N,13701.56669706,E,4,6.0,1.4,93.281,M,36.771,M,1.2,0196*75,37.232686673500005,137.02611161766666,679734.7473577396,4122608.836167481
442,[2021-02-22 16:45:58.705] $GPGGA,74558.3,3713.961201,N,13701.56669703,E,4,6.0,1.4,93.29,M,36.771,M,1.3,0196*74,37.232686683333334,137.02611161716666,679734.7472900248,4122608.837257601
443,[2021-02-22 16:45:58.814] $GPGGA,74558.4,3713.96120105,N,13701.56669755,E,4,6.0,1.4,93.29,M,36.771,M,1.4,0196*72,37.23268668416667,137.02611162583335,679734.7480569489,4122608.837366523
444,[2021-02-22 16:45:58.893] $GPGGA,74558.5,3713.96119983,N,13701.5666947,E,4,6.0,1.4,93.288,M,36.771,M,1.5,0196*73,37.23268666383334,137.02611157833334,679734.7438910787,4122608.8350202055
445,[2021-02-22 16:45:59.002] $GPGGA,74558.6,3713.96119895,N,13701.56669717,E,4,6.0,1.4,93.292,M,36.771,M,1.6,0196*7C,37.23268664916666,137.0261116195,679734.7475781852,4122608.833471022
446,[2021-02-22 16:45:59.096] $GPGGA,74558.7,3713.96119687,N,13701.56669322,E,4,6.0,1.4,93.294,M,36.771,M,1.7,0196*75,37.232686614500004,137.02611155366665,679734.7418198369,4122608.829499515
447,[2021-02-22 16:45:59.205] $GPGGA,74558.8,3713.96119848,N,13701.56669732,E,4,6.0,1.4,93.287,M,36.771,M,1.8,0196*7F,37.23268664133333,137.02611162200003,679734.7478185892,4122608.832606612
448,[2021-02-22 16:45:59.299] $GPGGA,74558.9,3713.96120002,N,13701.56669811,E,4,6.0,1.4,93.287,M,36.771,M,1.9,0196*7D,37.232686667,137.02611163516667,679734.7489257653,4122608.8354794956
449,[2021-02-22 16:45:59.408] $GPGGA,74559.0,3713.96118794,N,13701.56669226,E,4,6.0,1.4,93.305,M,36.771,M,2.0,0196*79,37.23268646566667,137.02611153766665,679734.7407538138,4122608.812955124
450,[2021-02-22 16:45:59.502] $GPGGA,74559.1,3713.96118892,N,13701.56669786,E,4,6.0,1.4,93.307,M,36.771,M,1.1,0196*7E,37.232686482,137.026111631,679734.7489954815,4122608.8149446566
451,[2021-02-22 16:45:59.611] $GPGGA,74559.2,3713.96118863,N,13701.56669575,E,4,6.0,1.4,93.307,M,36.771,M,1.2,0196*7E,37.23268647716667,137.02611159583333,679734.7458870012,4122608.8143415856
452,[2021-02-22 16:45:59.705] $GPGGA,74559.3,3713.96118926,N,13701.56669476,E,4,6.0,1.4,93.3,M,36.771,M,1.3,0196*7B,37.23268648766667,137.02611157933336,679734.7443982007,4122608.815475292
453,[2021-02-22 16:45:59.814] $GPGGA,74559.4,3713.96118859,N,13701.56669666,E,4,6.0,1.4,93.306,M,36.771,M,1.4,0196*77,37.23268647649999,137.026111611,679734.7472341612,4122608.8142964137
454,[2021-02-22 16:45:59.908] $GPGGA,74559.5,3713.96118991,N,13701.5666969,E,4,6.0,1.4,93.3,M,36.771,M,1.5,0196*7D,37.23268649850001,137.026111615,679734.7475367845,4122608.8167450526
455,[2021-02-22 16:46:00.002] $GPGGA,74559.6,3713.96118777,N,13701.56669597,E,4,6.0,1.4,93.305,M,36.771,M,1.6,0196*7A,37.23268646283333,137.02611159949998,679734.7462463474,4122608.8127581705
456,[2021-02-22 16:46:00.096] $GPGGA,74559.7,3713.96119148,N,13701.56669645,E,4,6.0,1.4,93.305,M,36.771,M,1.7,0196*7D,37.23268652466667,137.02611160749998,679734.7468092436,4122608.8196341675
457,[2021-02-22 16:46:00.205] $GPGGA,74559.8,3713.96118895,N,13701.56669692,E,4,6.0,1.4,93.301,M,36.771,M,1.8,0196*7B,37.23268648250001,137.02611161533332,679734.7476043592,4122608.814970383
458,[2021-02-22 16:46:00.299] $GPGGA,74559.9,3713.96118868,N,13701.56669418,E,4,6.0,1.4,93.304,M,36.771,M,1.9,0196*7C,37.232686478,137.02611156966665,679734.7435635354,4122608.8143843557
459,[2021-02-22 16:46:00.408] $GPGGA,74600.0,3713.96119748,N,13701.56669484,E,4,7.0,1.3,93.288,M,36.771,M,1.0,0196*79,37.23268662466666,137.02611158066665,679734.7441911098,4122608.8306788444
460,[2021-02-22 16:46:00.502] $GPGGA,74600.1,3713.96119723,N,13701.56669557,E,4,7.0,1.3,93.286,M,36.771,M,1.1,0196*75,37.232686620500004,137.02611159283333,679734.7452804224,4122608.830239633
461,[2021-02-22 16:46:00.611] $GPGGA,74600.2,3713.96119808,N,13701.56669817,E,4,7.0,1.3,93.28200000000001,M,36.771,M,1.2,0196*7E,37.23268663466666,137.0261116361667,679734.7490912788,4122608.8318938054
462,[2021-02-22 16:46:00.705] $GPGGA,74600.3,3713.96119645,N,13701.56669585,E,4,7.0,1.3,93.295,M,36.771,M,1.3,0196*79,37.2326866075,137.02611159749998,679734.7457253204,4122608.8288060604
463,[2021-02-22 16:46:00.814] $GPGGA,74600.4,3713.96119689,N,13701.56669727,E,4,7.0,1.3,93.29299999999999,M,36.771,M,1.4,0196*75,37.232686614833334,137.02611162116665,679734.7478075906,4122608.829664685
464,[2021-02-22 16:46:00.908] $GPGGA,74600.5,3713.96119804,N,13701.56669901,E,4,7.0,1.3,93.292,M,36.771,M,1.5,0196*75,37.232686634,137.02611165016665,679734.7503349275,4122608.8318464225
465,[2021-02-22 16:46:01.002] $GPGGA,74600.6,3713.96119625,N,13701.56669827,E,4,7.0,1.3,93.288,M,36.771,M,1.6,0196*76,37.232686604166666,137.02611163783334,679734.7493115797,4122608.8285128013
466,[2021-02-22 16:46:01.095] $GPGGA,74600.7,3713.96119941,N,13701.56669933,E,4,7.0,1.3,93.29,M,36.771,M,1.7,0196*76,37.23268665683334,137.0261116555,679734.7507538665,4122608.8343900526
467,[2021-02-22 16:46:01.205] $GPGGA,74600.8,3713.96119779,N,13701.5666997,E,4,7.0,1.3,93.285,M,36.771,M,1.8,0196*70,37.232686629833324,137.02611166166668,679734.751365096,4122608.8314059414
468,[2021-02-22 16:46:01.299] $GPGGA,74600.9,3713.96119911,N,13701.56669665,E,4,7.0,1.3,93.286,M,36.771,M,1.9,0196*78,37.232686651833326,137.0261116108333,679734.7468029486,4122608.833750446
469,[2021-02-22 16:46:01.408] $GPGGA,74601.0,3713.96119815,N,13701.56669677,E,4,7.0,1.3,93.287,M,36.771,M,2.0,0196*7D,37.23268663583334,137.02611161283332,679734.7470183884,4122608.831978945
470,[2021-02-22 16:46:01.502] $GPGGA,74601.1,3713.96119787,N,13701.56669761,E,4,7.0,1.3,93.285,M,36.771,M,2.1,0196*7D,37.23268663116667,137.0261116268333,679734.7482715417,4122608.831487735
471,[2021-02-22 16:46:01.611] $GPGGA,74601.2,3713.96119655,N,13701.56669629,E,4,7.0,1.3,93.29,M,36.771,M,2.2,0196*7A,37.232686609166656,137.02611160483332,679734.7463719703,4122608.829004913
472,[2021-02-22 16:46:01.705] $GNGGA,74601.3,3713.96119998,N,13701.56670151,E,4,9.0,1.2,93.288,M,36.771,M,1.3,0196*6F,37.23268666633333,137.02611169183334,679734.7539547678,4122608.835513135
473,[2021-02-22 16:46:01.814] $GNGGA,74601.4,3713.96119654,N,13701.56670008,E,4,9.0,1.2,93.29700000000001,M,36.771,M,1.4,0196*63,37.232686609,137.026111668,679734.7519764632,4122608.8291063793
474,[2021-02-22 16:46:01.908] $GNGGA,74601.5,3713.96120168,N,13701.5667022,E,4,9.0,1.2,93.289,M,36.771,M,1.5,0196*66,37.23268669466667,137.02611170333333,679734.7549077456,4122608.8386787404
475,[2021-02-22 16:46:02.002] $GNGGA,74601.6,3713.96120057,N,13701.56670199,E,4,9.0,1.2,93.291,M,36.771,M,1.6,0196*63,37.23268667616667,137.0261116998333,679734.7546411656,4122608.836619402
476,[2021-02-22 16:46:02.095] $GNGGA,74601.7,3713.96120007,N,13701.5667018,E,4,9.0,1.2,93.288,M,36.771,M,1.7,0196*66,37.23268666783333,137.0261116966667,679734.7543800185,4122608.83568875
477,[2021-02-22 16:46:02.205] $GNGGA,74601.8,3713.96119924,N,13701.56670234,E,4,9.0,1.2,93.29299999999999,M,36.771,M,1.8,0196*62,37.232686654,137.02611170566666,679734.7552113414,4122608.8341709455
478,[2021-02-22 16:46:02.299] $GNGGA,74601.9,3713.96119804,N,13701.56670293,E,4,9.0,1.2,93.292,M,36.771,M,1.9,0196*6D,37.232686634,137.0261117155,679734.7561312498,4122608.8319704924
479,[2021-02-22 16:46:02.392] $GNGGA,74602.0,3713.96119602,N,13701.56670194,E,4,9.0,1.2,93.29899999999999,M,36.771,M,1.0,0196*69,37.23268660033333,137.026111699,679734.7547473421,4122608.828203626
480,[2021-02-22 16:46:02.486] $GNGGA,74602.1,3713.96120011,N,13701.56669979,E,4,9.0,1.2,93.29299999999999,M,36.771,M,1.1,0196*6E,37.232686668499994,137.0261116631667,679734.7514063403,4122608.8356991033
481,[2021-02-22 16:46:02.611] $GNGGA,74602.2,3713.96119708,N,13701.56670028,E,4,9.0,1.2,93.29700000000001,M,36.771,M,1.2,0196*6A,37.23268661800001,137.02611167133333,679734.7522508176,4122608.830111317
482,[2021-02-22 16:46:02.705] $GNGGA,74602.3,3713.96119694,N,13701.56670175,E,4,9.0,1.2,93.29899999999999,M,36.771,M,1.3,0196*69,37.232686615666665,137.02611169583332,679734.7544299789,4122608.8298989437
483,[2021-02-22 16:46:02.814] $GNGGA,74602.4,3713.96119803,N,13701.56670461,E,4,9.0,1.2,93.295,M,36.771,M,1.4,0196*65,37.23268663383334,137.02611174350002,679734.7586157832,4122608.8320051725
484,[2021-02-22 16:46:02.908] $GNGGA,74602.5,3713.96119694,N,13701.56670274,E,4,9.0,1.2,93.29799999999999,M,36.771,M,1.5,0196*6A,37.232686615666665,137.02611171233332,679734.755893846,4122608.8299302785
485,[2021-02-22 16:46:03.002] $GNGGA,74602.6,3713.96119713,N,13701.56670206,E,4,9.0,1.2,93.303,M,36.771,M,1.6,0196*62,37.232686618833334,137.02611170100002,679734.7548808432,4122608.830260118
486,[2021-02-22 16:46:03.095] $GNGGA,74602.7,3713.96119847,N,13701.56669878,E,4,9.0,1.2,93.304,M,36.771,M,1.7,0196*60,37.23268664116666,137.0261116463333,679734.749977814,4122608.8326343284
487,[2021-02-22 16:46:03.205] $GNGGA,74602.8,3713.96119854,N,13701.56670014,E,4,9.0,1.2,93.29700000000001,M,36.771,M,1.8,0196*63,37.232686642333334,137.02611166900002,679734.7519860163,4122608.832806823
488,[2021-02-22 16:46:03.298] $GNGGA,74602.9,3713.96119698,N,13701.56670158,E,4,9.0,1.2,93.29,M,36.771,M,0.9,0196*62,37.23268661633333,137.02611169300002,679734.7541770262,4122608.8299675356
489,[2021-02-22 16:46:03.408] $GNGGA,74603.0,3713.96119929,N,13701.56670143,E,4,9.0,1.2,93.28299999999999,M,36.771,M,1.0,0196*6F,37.23268665483334,137.0261116905,679734.753863788,4122608.834234608
490,[2021-02-22 16:46:03.502] $GNGGA,74603.1,3713.96120145,N,13701.56670233,E,4,9.0,1.2,93.291,M,36.771,M,1.1,0196*60,37.232686690833326,137.02611170549997,679734.755109073,4122608.838257521
491,[2021-02-22 16:46:03.611] $GNGGA,74603.2,3713.96120123,N,13701.56670351,E,4,9.0,1.2,93.289,M,36.771,M,1.2,0196*6C,37.23268668716666,137.02611172516666,679734.7568625945,4122608.837888029
492,[2021-02-22 16:46:03.705] $GNGGA,74603.3,3713.96119999,N,13701.56670248,E,4,9.0,1.2,93.286,M,36.771,M,1.3,0196*69,37.232686666499994,137.026111708,679734.7553886672,4122608.8355623307
493,[2021-02-22 16:46:03.814] $GNGGA,74603.4,3713.96119813,N,13701.56670373,E,4,9.0,1.2,93.28399999999999,M,36.771,M,1.4,0196*61,37.2326866355,137.02611172883334,679734.7573106085,4122608.832162247
494,[2021-02-22 16:46:03.908] $GNGGA,74603.5,3713.96119944,N,13701.5667033,E,4,9.0,1.2,93.289,M,36.771,M,1.5,0196*68,37.23268665733333,137.02611172166667,679734.7566229339,4122608.8345711846
495,[2021-02-22 16:46:04.001] $GNGGA,74603.6,3713.96120009,N,13701.56670406,E,4,9.0,1.2,93.29,M,36.771,M,1.6,0196*68,37.23268666816667,137.0261117343333,679734.7577209792,4122608.835797268
496,[2021-02-22 16:46:04.095] $GNGGA,74603.7,3713.96120043,N,13701.56670399,E,4,9.0,1.2,93.29,M,36.771,M,1.7,0196*67,37.23268667383334,137.02611173316666,679734.7576040139,4122608.836423804
497,[2021-02-22 16:46:04.205] $GNGGA,74603.8,3713.96119854,N,13701.56670425,E,4,9.0,1.2,93.294,M,36.771,M,1.8,0196*67,37.232686642333334,137.02611173750003,679734.7580632824,4122608.832936907
498,[2021-02-22 16:46:04.298] $GNGGA,74603.9,3713.96120104,N,13701.56670307,E,4,9.0,1.2,93.29299999999999,M,36.771,M,1.9,0196*61,37.232686684,137.02611171783334,679734.7562195095,4122608.8375227405
499,[2021-02-22 16:46:04.408] $GNGGA,74604.0,3713.96120169,N,13701.56670273,E,4,9.0,1.2,93.287,M,36.771,M,2.0,0196*69,37.23268669483334,137.02611171216665,679734.7556910368,4122608.838714009
500,[2021-02-22 16:46:04.501] $GNGGA,74604.1,3713.96119968,N,13701.56670599,E,4,9.0,1.2,93.285,M,36.771,M,2.1,0196*6B,37.23268666133333,137.0261117665,679734.7605910106,4122608.83510015
501,[2021-02-22 16:46:04.611] $GNGGA,74604.2,3713.96119672,N,13701.56670307,E,4,9.0,1.2,93.303,M,36.771,M,1.2,0196*62,37.232686611999995,137.02611171783334,679734.7563905118,4122608.8295338824
502,[2021-02-22 16:46:04.705] $GNGGA,74604.3,3713.96119759,N,13701.56670245,E,4,9.0,1.2,93.302,M,36.771,M,1.3,0196*6C,37.232686626500005,137.0261117075,679734.755439308,4122608.8311231276
503,[2021-02-22 16:46:04.814] $GNGGA,74604.4,3713.96119621,N,13701.56670163,E,4,9.0,1.2,93.30799999999999,M,36.771,M,1.4,0196*6F,37.2326866035,137.02611169383334,679734.7542814382,4122608.8285451764
504,[2021-02-22 16:46:04.908] $GNGGA,74604.5,3713.96119976,N,13701.56669962,E,4,9.0,1.2,93.303,M,36.771,M,1.5,0196*68,37.232686662666666,137.02611166033333,679734.7511688208,4122608.835046478
505,[2021-02-22 16:46:05.001] $GNGGA,74604.6,3713.9611985,N,13701.56670169,E,4,9.0,1.2,93.302,M,36.771,M,1.6,0196*67,37.23268664166667,137.02611169483336,679734.754279512,4122608.8327819104
506,[2021-02-22 16:46:05.095] $GNGGA,74604.7,3713.96119818,N,13701.56670282,E,4,9.0,1.2,93.304,M,36.771,M,1.7,0196*6B,37.232686636333334,137.02611171366667,679734.755963055,4122608.832225908
507,[2021-02-22 16:46:05.205] $GNGGA,74604.8,3713.96119766,N,13701.56670102,E,4,9.0,1.2,93.305,M,36.771,M,1.8,0196*67,37.232686627666666,137.02611168366664,679734.7533220595,4122608.831207316
508,[2021-02-22 16:46:05.298] $GNGGA,74604.9,3713.96119824,N,13701.56670271,E,4,9.0,1.2,93.304,M,36.771,M,1.9,0196*68,37.23268663733333,137.02611171183332,679734.7557980267,4122608.832333383
509,[2021-02-22 16:46:05.408] $GNGGA,74605.0,3713.96120174,N,13701.5667016,E,4,9.0,1.2,93.302,M,36.771,M,2.0,0196*69,37.232686695666665,137.02611169333335,679734.7540181815,4122608.838770707
510,[2021-02-22 16:46:05.501] $GNGGA,74605.1,3713.96120316,N,13701.56669892,E,4,10.0,1.1,93.274,M,36.771,M,1.1,0196*6B,37.23268671933334,137.02611164866664,679734.7499991771,4122608.841311851
511,[2021-02-22 16:46:05.611] $GNGGA,74605.2,3713.96120194,N,13701.56670216,E,4,10.0,1.1,93.27600000000001,M,36.771,M,1.2,0196*6F,37.232686699000006,137.02611170266667,679734.7548383097,4122608.8391582863
512,[2021-02-22 16:46:05.705] $GNGGA,74605.3,3713.96120402,N,13701.56670021,E,4,10.0,1.1,93.27,M,36.771,M,1.3,0196*65,37.23268673366667,137.02611167016667,679734.7518726013,4122608.8429430537
513,[2021-02-22 16:46:05.814] $GNGGA,74605.4,3713.96120481,N,13701.56669995,E,4,10.0,1.1,93.272,M,36.771,M,1.4,0196*62,37.23268674683333,137.02611166583335,679734.7514568819,4122608.844395749
514,[2021-02-22 16:46:05.908] $GNGGA,74605.5,3713.96120257,N,13701.56670011,E,4,10.0,1.1,93.272,M,36.771,M,1.5,0196*62,37.232686709499994,137.02611166849996,679734.7517821285,4122608.840258442
515,[2021-02-22 16:46:06.001] $GNGGA,74605.6,3713.96120443,N,13701.56669867,E,4,10.0,1.1,93.272,M,36.771,M,1.6,0196*60,37.2326867405,137.02611164450002,679734.7495792457,4122608.843652514
516,[2021-02-22 16:46:06.095] $GNGGA,74605.7,3713.96120181,N,13701.56670026,E,4,10.0,1.1,93.277,M,36.771,M,1.7,0196*6B,37.23268669683334,137.026111671,679734.752034014,4122608.8388577444
517,[2021-02-22 16:46:06.204] $GNGGA,74605.8,3713.96120384,N,13701.56670078,E,4,10.0,1.1,93.274,M,36.771,M,1.8,0196*64,37.23268673066667,137.02611167966668,679734.7527225597,4122608.842628226
518,[2021-02-22 16:46:06.298] $GNGGA,74605.9,3713.96120246,N,13701.56670021,E,4,10.0,1.1,93.27600000000001,M,36.771,M,1.9,0196*65,37.232686707666666,137.02611167016667,679734.7519343521,4122608.8400581875
519,[2021-02-22 16:46:06.408] $GNGGA,74606.0,3713.96120559,N,13701.56670092,E,4,10.0,1.1,93.27600000000001,M,36.771,M,2.0,0196*64,37.232686759833335,137.026111682,679734.752860297,4122608.845868884
520,[2021-02-22 16:46:06.501] $GNGGA,74606.1,3713.9611981,N,13701.56670279,E,4,9.0,1.2,93.29299999999999,M,36.771,M,1.1,0196*6A,37.232686635,137.02611171316667,679734.7559218636,4122608.832077017
521,[2021-02-22 16:46:06.611] $GNGGA,74606.2,3713.96119819,N,13701.56670458,E,4,9.0,1.2,93.295,M,36.771,M,1.2,0196*60,37.23268663649999,137.026111743,679734.7585650894,4122608.832300106
522,[2021-02-22 16:46:06.704] $GNGGA,74606.3,3713.96119856,N,13701.56670264,E,4,9.0,1.2,93.29799999999999,M,36.771,M,1.3,0196*6F,37.232686642666664,137.02611171066667,679734.7556818554,4122608.8329229346
523,[2021-02-22 16:46:06.814] $GNGGA,74606.4,3713.96119769,N,13701.56670383,E,4,9.0,1.2,93.287,M,36.771,M,1.4,0196*6A,37.23268662816667,137.0261117305,679734.7574758903,4122608.8313517324
524,[2021-02-22 16:46:06.908] $GNGGA,74606.5,3713.96119707,N,13701.56670122,E,4,9.0,1.2,93.296,M,36.771,M,1.5,0196*6B,37.23268661783332,137.026111687,679734.7536411483,4122608.8301225738
525,[2021-02-22 16:46:07.001] $GNGGA,74606.6,3713.96119866,N,13701.56670028,E,4,9.0,1.2,93.288,M,36.771,M,1.6,0196*67,37.23268664433333,137.02611167133333,679734.7521882752,4122608.833033167
526,[2021-02-22 16:46:07.095] $GNGGA,74606.7,3713.96119631,N,13701.56670333,E,4,9.0,1.2,93.289,M,36.771,M,1.7,0196*63,37.23268660516667,137.02611172216666,679734.7567911894,4122608.828783911
527,[2021-02-22 16:46:07.204] $GNGGA,74606.8,3713.96119797,N,13701.56670126,E,4,9.0,1.2,93.295,M,36.771,M,1.8,0196*65,37.232686632833335,137.02611168766668,679734.7536646692,4122608.831788186
528,[2021-02-22 16:46:07.298] $GNGGA,74606.9,3713.96119853,N,13701.56670167,E,4,9.0,1.2,93.288,M,36.771,M,1.9,0196*6B,37.23268664216667,137.0261116945,679734.75424875,4122608.832836757
529,[2021-02-22 16:46:07.407] $GNGGA,74607.0,3713.96119865,N,13701.56670552,E,4,9.0,1.2,93.292,M,36.771,M,2.0,0196*65,37.23268664416667,137.02611175866667,679734.7599368156,4122608.8331805235
530,[2021-02-22 16:46:07.501] $GNGGA,74607.1,3713.96120163,N,13701.56670301,E,4,10.0,1.1,93.287,M,36.771,M,1.1,0196*6C,37.23268669383333,137.02611171683333,679734.7561074344,4122608.8386119134
531,[2021-02-22 16:46:07.611] $GNGGA,74607.2,3713.96119925,N,13701.5667021,E,4,10.0,1.1,93.29299999999999,M,36.771,M,1.2,0196*68,37.23268665416667,137.02611170166668,679734.7548560718,4122608.834181843
532,[2021-02-22 16:46:07.704] $GNGGA,74607.3,3713.9611996,N,13701.56670183,E,4,10.0,1.1,93.296,M,36.771,M,1.3,0196*65,37.23268666,137.02611169716664,679734.7544429764,4122608.834820541
533,[2021-02-22 16:46:07.814] $GNGGA,74607.4,3713.96120058,N,13701.56670195,E,4,10.0,1.1,93.289,M,36.771,M,1.4,0196*64,37.23268667633333,137.02611169916668,679734.7545816258,4122608.836636627
534,[2021-02-22 16:46:07.907] $GNGGA,74607.5,3713.96119812,N,13701.56670165,E,4,10.0,1.1,93.286,M,36.771,M,1.5,0196*68,37.23268663533333,137.02611169416667,679734.7542354073,4122608.8320779214
535,[2021-02-22 16:46:08.001] $GNGGA,74607.6,3713.96119845,N,13701.56670074,E,4,10.0,1.1,93.28399999999999,M,36.771,M,1.6,0196*69,37.232686640833336,137.026111679,679734.752876768,4122608.832659379
536,[2021-02-22 16:46:08.095] $GNGGA,74607.7,3713.96119767,N,13701.5667015,E,4,10.0,1.1,93.286,M,36.771,M,1.7,0196*63,37.232686627833324,137.02611169166664,679734.7540314184,4122608.8312409995
537,[2021-02-22 16:46:08.204] $GNGGA,74607.8,3713.9612,N,13701.56670234,E,4,10.0,1.1,93.27799999999999,M,36.771,M,1.8,0196*6F,37.232686666666666,137.02611170566666,679734.7551812578,4122608.8355763927
538,[2021-02-22 16:46:08.298] $GNGGA,74607.9,3713.96120088,N,13701.56670506,E,4,10.0,1.1,93.286,M,36.771,M,1.9,0196*68,37.232686681333334,137.026111751,679734.7591683612,4122608.8372898423
539,[2021-02-22 16:46:08.407] $GNGGA,74608.0,3713.96120155,N,13701.56670035,E,4,9.0,1.2,93.292,M,36.771,M,1.0,0196*6D,37.232686692499996,137.0261116725,679734.7521773846,4122608.838379781
540,[2021-02-22 16:46:08.501] $GNGGA,74608.1,3713.96119943,N,13701.56669976,E,4,9.0,1.2,93.286,M,36.771,M,1.1,0196*6B,37.23268665716666,137.02611166266666,679734.751388897,4122608.834440648
541,[2021-02-22 16:46:08.611] $GNGGA,74608.2,3713.96120137,N,13701.56670008,E,4,9.0,1.2,93.28299999999999,M,36.771,M,1.2,0196*67,37.23268668949999,137.026111668,679734.7517852732,4122608.838038365
542,[2021-02-22 16:46:08.704] $GNGGA,74608.3,3713.96119971,N,13701.56670094,E,4,9.0,1.2,93.289,M,36.771,M,1.3,0196*68,37.23268666183333,137.02611168233335,679734.7531226244,4122608.834995793
543,[2021-02-22 16:46:08.814] $GNGGA,74608.4,3713.96120208,N,13701.56670074,E,4,9.0,1.2,93.281,M,36.771,M,1.4,0196*61,37.232686701333336,137.026111679,679734.7527330787,4122608.839372238
544,[2021-02-22 16:46:08.907] $GNGGA,74608.5,3713.96119983,N,13701.56670007,E,4,9.0,1.2,93.28399999999999,M,36.771,M,1.5,0196*62,37.23268666383334,137.02611166783333,679734.7518314463,4122608.83519017
545,[2021-02-22 16:46:09.001] $GNGGA,74608.6,3713.96119998,N,13701.5667012,E,4,9.0,1.2,93.28399999999999,M,36.771,M,1.6,0196*6C,37.23268666633333,137.02611168666667,679734.753496385,4122608.8355033244
546,[2021-02-22 16:46:09.111] $GNGGA,74608.7,3713.96119857,N,13701.56670053,E,4,9.0,1.2,93.285,M,36.771,M,1.7,0196*6A,37.232686642833336,137.0261116755,679734.7525615022,4122608.8328746455
547,[2021-02-22 16:46:09.204] $GNGGA,74608.8,3713.96119852,N,13701.56669948,E,4,9.0,1.2,93.28299999999999,M,36.771,M,1.8,0196*62,37.232686642,137.026111658,679734.7510108934,4122608.832748947
548,[2021-02-22 16:46:09.298] $GNGGA,74608.9,3713.96119937,N,13701.56670313,E,4,9.0,1.2,93.27799999999999,M,36.771,M,1.9,0196*68,37.23268665616667,137.02611171883336,679734.7563743354,4122608.8344363556
549,[2021-02-22 16:46:09.407] $GNGGA,74609.0,3713.96120088,N,13701.56670369,E,4,9.0,1.2,93.27799999999999,M,36.771,M,2.0,0196*60,37.232686681333334,137.02611172816665,679734.7571426065,4122608.8372464813
550,[2021-02-22 16:46:09.501] $GNGGA,74609.1,3713.96120219,N,13701.56670238,E,4,9.0,1.2,93.281,M,36.771,M,2.1,0196*69,37.232686703166664,137.02611170633335,679734.7551537178,4122608.839627566
551,[2021-02-22 16:46:09.610] $GNGGA,74609.2,3713.9612012,N,13701.56670349,E,4,9.0,1.2,93.28,M,36.771,M,2.2,0196*66,37.23268668666667,137.02611172483333,679734.75683421,4122608.837831918
552,[2021-02-22 16:46:09.704] $GNGGA,74609.3,3713.96119994,N,13701.56670667,E,4,10.0,1.1,93.29799999999999,M,36.771,M,1.3,0196*63,37.23268666566666,137.02611177783336,679734.7615862053,4122608.8356024832
553,[2021-02-22 16:46:09.814] $GNGGA,74609.4,3713.96119857,N,13701.56670694,E,4,10.0,1.1,93.292,M,36.771,M,1.4,0196*6B,37.232686642833336,137.02611178233332,679734.7620396671,4122608.8330775267
554,[2021-02-22 16:46:09.907] $GNGGA,74609.5,3713.96119926,N,13701.56670027,E,4,10.0,1.1,93.29299999999999,M,36.771,M,1.5,0196*63,37.23268665433333,137.02611167116663,679734.7521497366,4122608.8341424135
555,[2021-02-22 16:46:10.001] $GNGGA,74609.6,3713.96119825,N,13701.56670256,E,4,10.0,1.1,93.302,M,36.771,M,1.6,0196*6C,37.2326866375,137.02611170933335,679734.7555758359,4122608.832347129
556,[2021-02-22 16:46:10.095] $GNGGA,74609.7,3713.96119737,N,13701.56670612,E,4,10.0,1.1,93.291,M,36.771,M,1.7,0196*6F,37.232686622833334,137.02611176866665,679734.7608746722,4122608.830832445
557,[2021-02-22 16:46:10.204] $GNGGA,74609.8,3713.96119865,N,13701.56670434,E,4,10.0,1.1,93.29899999999999,M,36.771,M,1.8,0196*69,37.23268664416667,137.02611173900002,679734.7581920048,4122608.833143176
558,[2021-02-22 16:46:10.298] $GNGGA,74609.9,3713.96119856,N,13701.56670612,E,4,10.0,1.1,93.29799999999999,M,36.771,M,1.9,0196*6E,37.232686642666664,137.02611176866665,679734.7608275674,4122608.8330330797
559,[2021-02-22 16:46:10.407] $GNGGA,74610.0,3713.96119827,N,13701.56670611,E,4,10.0,1.1,93.296,M,36.771,M,2.0,0196*6E,37.232686637833325,137.02611176850002,679734.760824263,4122608.832496474
560,[2021-02-22 16:46:10.501] $GNGGA,74610.1,3713.96119876,N,13701.56670454,E,4,9.0,1.2,93.289,M,36.771,M,1.1,0196*6F,37.232686646,137.0261117423333,679734.758483378,4122608.833352926
561,[2021-02-22 16:46:10.610] $GNGGA,74610.2,3713.96119994,N,13701.56670482,E,4,9.0,1.2,93.288,M,36.771,M,1.2,0196*68,37.23268666566666,137.026111747,679734.7588506938,4122608.8355439296
562,[2021-02-22 16:46:10.704] $GNGGA,74610.3,3713.96119922,N,13701.56670242,E,4,9.0,1.2,93.29299999999999,M,36.771,M,1.3,0196*65,37.23268665366666,137.02611170699998,679734.755330426,4122608.8341364916
563,[2021-02-22 16:46:10.814] $GNGGA,74610.4,3713.96119959,N,13701.56670629,E,4,9.0,1.2,93.289,M,36.771,M,1.4,0196*6B,37.23268665983333,137.02611177149996,679734.7610381654,4122608.834943211
564,[2021-02-22 16:46:10.907] $GNGGA,74610.5,3713.9612007,N,13701.56670473,E,4,9.0,1.2,93.28299999999999,M,36.771,M,1.5,0196*64,37.23268667833334,137.02611174549997,679734.758687529,4122608.8369465293
565,[2021-02-22 16:46:11.001] $GNGGA,74610.6,3713.96120035,N,13701.56670493,E,4,9.0,1.2,93.29,M,36.771,M,1.6,0196*69,37.232686672499995,137.02611174883333,679734.7589971153,4122608.836305613
566,[2021-02-22 16:46:11.095] $GNGGA,74610.7,3713.96119945,N,13701.56670468,E,4,9.0,1.2,93.285,M,36.771,M,1.7,0196*6D,37.232686657500004,137.0261117446667,679734.7586630832,4122608.8346333555
567,[2021-02-22 16:46:11.204] $GNGGA,74610.8,3713.96120128,N,13701.56670492,E,4,9.0,1.2,93.289,M,36.771,M,1.8,0196*6D,37.232686688,137.02611174866666,679734.7589455163,4122608.838025121
568,[2021-02-22 16:46:11.298] $GNGGA,74610.9,3713.96120031,N,13701.56670157,E,4,9.0,1.2,93.29299999999999,M,36.771,M,1.9,0196*63,37.23268667183333,137.02611169283333,679734.7540304236,4122608.836125295
569,[2021-02-22 16:46:11.407] $GNGGA,74611.0,3713.96120155,N,13701.56670464,E,4,9.0,1.2,93.277,M,36.771,M,2.0,0196*6D,37.232686692499996,137.02611174399996,679734.7585208039,4122608.8385155625
570,[2021-02-22 16:46:11.501] $GNGGA,74611.1,3713.9612016,N,13701.56670407,E,4,9.0,1.2,93.28,M,36.771,M,2.1,0196*66,37.232686693333335,137.02611173449998,679734.7576759936,4122608.8385899854
571,[2021-02-22 16:46:11.610] $GNGGA,74611.2,3713.96119885,N,13701.56670516,E,4,9.0,1.2,93.279,M,36.771,M,1.2,0196*6A,37.2326866475,137.02611175266665,679734.7593965812,4122608.8335389844
572,[2021-02-22 16:46:11.704] $GNGGA,74611.3,3713.96119699,N,13701.56670219,E,4,9.0,1.2,93.286,M,36.771,M,1.3,0196*61,37.232686616500004,137.0261117031667,679734.7550786101,4122608.8300053338
573,[2021-02-22 16:46:11.813] $GNGGA,74611.4,3713.96119828,N,13701.566703,E,4,9.0,1.2,93.287,M,36.771,M,1.4,0196*6D,37.23268663800001,137.02611171666666,679734.7562252543,4122608.8324165335
574,[2021-02-22 16:46:11.907] $GNGGA,74611.5,3713.96119989,N,13701.56670375,E,4,9.0,1.2,93.279,M,36.771,M,1.5,0196*64,37.23268666483334,137.02611172916667,679734.7572705153,4122608.8354176013
575,[2021-02-22 16:46:12.017] $GNGGA,74611.6,3713.96119996,N,13701.56670326,E,4,9.0,1.2,93.281,M,36.771,M,1.6,0196*6B,37.232686666,137.02611172099998,679734.7565432016,4122608.8355315397
576,[2021-02-22 16:46:12.095] $GNGGA,74611.7,3713.96119973,N,13701.56670126,E,4,9.0,1.2,93.27799999999999,M,36.771,M,1.7,0196*64,37.23268666216667,137.02611168766668,679734.7535950016,4122608.835042907
577,[2021-02-22 16:46:12.204] $GNGGA,74611.8,3713.96119613,N,13701.56670206,E,4,9.0,1.2,93.288,M,36.771,M,1.8,0196*63,37.23268660216667,137.02611170100002,679734.754920427,4122608.828410845
578,[2021-02-22 16:46:12.298] $GNGGA,74611.9,3713.96119866,N,13701.5666994,E,4,9.0,1.2,93.286,M,36.771,M,1.9,0196*60,37.23268664433333,137.0261116566667,679734.7508870634,4122608.8330053138
579,[2021-02-22 16:46:12.392] $GNGGA,74612.0,3713.96119858,N,13701.56670235,E,4,9.0,1.2,93.285,M,36.771,M,2.0,0196*6F,37.232686643,137.0261117058333,679734.7552522507,4122608.832950742
580,[2021-02-22 16:46:12.485] $GNGGA,74612.1,3713.96119918,N,13701.56670213,E,4,9.0,1.2,93.286,M,36.771,M,2.1,0196*6D,37.232686653,137.02611170216667,679734.7549032008,4122608.834053343
581,[2021-02-22 16:46:12.610] $GNGGA,74612.2,3713.96119737,N,13701.56670111,E,4,9.0,1.2,93.296,M,36.771,M,1.2,0196*6D,37.232686622833334,137.02611168516665,679734.75346662,4122608.8306738758
582,[2021-02-22 16:46:12.704] $GNGGA,74612.3,3713.96119839,N,13701.56670211,E,4,9.0,1.2,93.288,M,36.771,M,1.3,0196*60,37.232686639833325,137.02611170183334,679734.7549049,4122608.832591783
583,[2021-02-22 16:46:12.813] $GNGGA,74612.4,3713.96119758,N,13701.56670052,E,4,9.0,1.2,93.296,M,36.771,M,1.4,0196*62,37.23268662633333,137.0261116753333,679734.7525859019,4122608.831043549
584,[2021-02-22 16:46:12.907] $GNGGA,74612.5,3713.96119873,N,13701.56670047,E,4,9.0,1.2,93.29,M,36.771,M,1.5,0196*66,37.2326866455,137.02611167450004,679734.7524664525,4122608.8331686296
585,[2021-02-22 16:46:13.001] $GNGGA,74612.6,3713.96119905,N,13701.56670213,E,4,9.0,1.2,93.29,M,36.771,M,1.6,0196*65,37.23268665083334,137.02611170216667,679734.7549083466,4122608.833812937
586,[2021-02-22 16:46:13.095] $GNGGA,74612.7,3713.96119839,N,13701.56670062,E,4,9.0,1.2,93.288,M,36.771,M,1.7,0196*66,37.232686639833325,137.02611167700002,679734.7527017061,4122608.832544623
587,[2021-02-22 16:46:13.204] $GNGGA,74612.8,3713.96119877,N,13701.56670263,E,4,9.0,1.2,93.29299999999999,M,36.771,M,1.8,0196*65,37.23268664616667,137.0261117105,679734.7556587567,4122608.8333109664
588,[2021-02-22 16:46:13.298] $GNGGA,74612.9,3713.9611973,N,13701.56669858,E,4,9.0,1.2,93.29299999999999,M,36.771,M,1.9,0196*63,37.232686621666666,137.026111643,679734.7497283996,4122608.83046435
589,[2021-02-22 16:46:13.407] $GNGGA,74613.0,3713.96119906,N,13701.56670219,E,4,10.0,1.1,93.289,M,36.771,M,1.0,0196*6E,37.232686651,137.0261117031667,679734.7549966716,4122608.833833329
590,[2021-02-22 16:46:13.501] $GNGGA,74613.1,3713.96119862,N,13701.56670055,E,4,10.0,1.1,93.291,M,36.771,M,1.1,0196*6E,37.23268664366666,137.02611167583333,679734.7525890952,4122608.8329677414
591,[2021-02-22 16:46:13.610] $GNGGA,74613.2,3713.96119981,N,13701.56670081,E,4,10.0,1.1,93.285,M,36.771,M,1.2,0196*6E,37.232686663500004,137.02611168016665,679734.7529264385,4122608.8351766053
592,[2021-02-22 16:46:13.704] $GNGGA,74613.3,3713.96119918,N,13701.5666997,E,4,10.0,1.1,93.286,M,36.771,M,1.3,0196*62,37.232686653,137.02611166166668,679734.7513100745,4122608.8339764327
593,[2021-02-22 16:46:13.813] $GNGGA,74613.4,3713.96119825,N,13701.56669907,E,4,10.0,1.1,93.287,M,36.771,M,1.4,0196*6C,37.2326866375,137.02611165116667,679734.7504153355,4122608.8322366686
594,[2021-02-22 16:46:13.907] $GNGGA,74613.5,3713.96119893,N,13701.56669945,E,4,10.0,1.1,93.279,M,36.771,M,1.5,0196*66,37.23268664883334,137.02611165750002,679734.7509503082,4122608.8335062014
595,[2021-02-22 16:46:14.001] $GNGGA,74613.6,3713.96120142,N,13701.56669965,E,4,10.0,1.1,93.289,M,36.771,M,1.6,0196*64,37.23268669033334,137.02611166083335,679734.7511474742,4122608.8381172204
596,[2021-02-22 16:46:14.095] $GNGGA,74613.7,3713.96119785,N,13701.56669783,E,4,10.0,1.1,93.292,M,36.771,M,1.7,0196*6F,37.232686630833335,137.0261116305,679734.7485976375,4122608.8314577127
597,[2021-02-22 16:46:14.204] $GNGGA,74613.8,3713.96119855,N,13701.56670216,E,4,10.0,1.1,93.288,M,36.771,M,1.8,0196*67,37.232686642500006,137.02611170266667,679734.754972499,4122608.832889251
598,[2021-02-22 16:46:14.298] $GNGGA,74613.9,3713.96119915,N,13701.56670166,E,4,10.0,1.1,93.286,M,36.771,M,1.9,0196*68,37.23268665250001,137.0261116943333,679734.7542094197,4122608.833982989
599,[2021-02-22 16:46:14.407] $GNGGA,74614.0,3713.96119815,N,13701.56670119,E,4,10.0,1.1,93.29299999999999,M,36.771,M,2.0,0196*61,37.23268663583334,137.0261116865,679734.7535540373,4122608.832118841
600,[2021-02-22 16:46:14.501] $GNGGA,74614.1,3713.9612007,N,13701.56669973,E,4,9.0,1.2,93.28,M,36.771,M,1.1,0196*66,37.23268667833334,137.02611166216667,679734.7512942652,4122608.836788276
601,[2021-02-22 16:46:14.610] $GNGGA,74614.2,3713.96120112,N,13701.56669947,E,4,9.0,1.2,93.281,M,36.771,M,1.2,0196*65,37.232686685333334,137.02611165783335,679734.7508931917,4122608.8375567407
602,[2021-02-22 16:46:14.704] $GNGGA,74614.3,3713.96119773,N,13701.56669964,E,4,9.0,1.2,93.28200000000001,M,36.771,M,1.3,0196*6C,37.232686628833335,137.02611166066666,679734.7512787502,4122608.8312930865
603,[2021-02-22 16:46:14.813] $GNGGA,74614.4,3713.96119839,N,13701.5666986,E,4,9.0,1.2,93.287,M,36.771,M,1.4,0196*6D,37.232686639833325,137.0261116433333,679734.749714823,4122608.8324806886
604,[2021-02-22 16:46:14.907] $GNGGA,74614.5,3713.96120065,N,13701.56669783,E,4,9.0,1.2,93.274,M,36.771,M,1.5,0196*68,37.232686677500006,137.0261116305,679734.7484868027,4122608.8366356767
605,[2021-02-22 16:46:15.001] $GNGGA,74614.6,3713.96120125,N,13701.56670071,E,4,9.0,1.2,93.281,M,36.771,M,1.6,0196*65,37.232686687500006,137.0261116785,679734.7527215751,4122608.837836393
606,[2021-02-22 16:46:15.095] $GNGGA,74614.7,3713.96120262,N,13701.5667016,E,4,9.0,1.2,93.272,M,36.771,M,1.7,0196*68,37.23268671033334,137.02611169333335,679734.7539833476,4122608.8403980676
607,[2021-02-22 16:46:15.204] $GNGGA,74614.8,3713.96119713,N,13701.56669785,E,4,9.0,1.2,93.285,M,36.771,M,1.8,0196*6C,37.232686618833334,137.02611163083336,679734.7486557144,4122608.8301268686
608,[2021-02-22 16:46:15.298] $GNGGA,74614.9,3713.96120109,N,13701.56670099,E,4,9.0,1.2,93.27600000000001,M,36.771,M,1.9,0196*65,37.23268668483334,137.02611168316668,679734.753141931,4122608.837549373
609,[2021-02-22 16:46:15.407] $GNGGA,74615.0,3713.96120013,N,13701.56669994,E,4,9.0,1.2,93.28299999999999,M,36.771,M,2.0,0196*6B,37.23268666883334,137.02611166566666,679734.7516273437,4122608.8357408373
610,[2021-02-22 16:46:15.501] $GNGGA,74615.1,3713.96119912,N,13701.56670154,E,4,9.0,1.2,93.281,M,36.771,M,1.1,0196*64,37.232686652,137.02611169233333,679734.7540331704,4122608.833923712
611,[2021-02-22 16:46:15.610] $GNGGA,74615.2,3713.96119569,N,13701.56670017,E,4,9.0,1.2,93.29299999999999,M,36.771,M,1.2,0196*61,37.23268659483333,137.02611166949998,679734.752143186,4122608.8275373452
612,[2021-02-22 16:46:15.704] $GNGGA,74615.3,3713.96119765,N,13701.56669762,E,4,9.0,1.2,93.287,M,36.771,M,1.3,0196*67,37.2326866275,137.02611162699998,679734.7482950361,4122608.831081211
613,[2021-02-22 16:46:15.813] $GNGGA,74615.4,3713.96119989,N,13701.56670293,E,4,9.0,1.2,93.27600000000001,M,36.771,M,1.4,0196*66,37.23268666483334,137.0261117155,679734.7560580197,4122608.835391648
614,[2021-02-22 16:46:15.907] $GNGGA,74615.5,3713.96119808,N,13701.56670024,E,4,9.0,1.2,93.295,M,36.771,M,1.5,0196*6D,37.23268663466666,137.02611167066667,679734.7521520874,4122608.8319593226
615,[2021-02-22 16:46:16.001] $GNGGA,74615.6,3713.96119932,N,13701.56669991,E,4,9.0,1.2,93.28299999999999,M,36.771,M,1.6,0196*6D,37.23268665533333,137.02611166516667,679734.7516150485,4122608.8342419765
616,[2021-02-22 16:46:16.094] $GNGGA,74615.7,3713.96119767,N,13701.56670083,E,4,9.0,1.2,93.287,M,36.771,M,1.7,0196*65,37.232686627833324,137.0261116805,679734.7530407246,4122608.8312197938
617,[2021-02-22 16:46:16.204] $GNGGA,74615.8,3713.961199,N,13701.56670129,E,4,9.0,1.2,93.289,M,36.771,M,1.8,0196*65,37.23268665,137.02611168816665,679734.753668256,4122608.8336938866
618,[2021-02-22 16:46:16.298] $GNGGA,74615.9,3713.96120139,N,13701.56670061,E,4,9.0,1.2,93.28200000000001,M,36.771,M,1.9,0196*6B,37.23268668983333,137.02611167683332,679734.7525681664,4122608.8380921264
619,[2021-02-22 16:46:16.407] $GNGGA,74616.0,3713.96119762,N,13701.56669998,E,4,9.0,1.2,93.292,M,36.771,M,2.0,0196*6F,37.232686627,137.02611166633335,679734.7517858478,4122608.831100428
620,[2021-02-22 16:46:16.501] $GNGGA,74616.1,3713.96119923,N,13701.56670087,E,4,10.0,1.1,93.281,M,36.771,M,1.1,0196*61,37.23268665383334,137.02611168116667,679734.7530381179,4122608.834105928
621,[2021-02-22 16:46:16.610] $GNGGA,74616.2,3713.96120073,N,13701.5667031,E,4,10.0,1.1,93.277,M,36.771,M,1.2,0196*63,37.23268667883334,137.0261117183333,679734.7562761365,4122608.8369504176
622,[2021-02-22 16:46:16.704] $GNGGA,74616.3,3713.96119978,N,13701.56670203,E,4,10.0,1.1,93.285,M,36.771,M,1.3,0196*65,37.232686662999996,137.02611170050002,679734.7547315878,4122608.835159742
623,[2021-02-22 16:46:16.813] $GNGGA,74616.4,3713.96119849,N,13701.56670108,E,4,10.0,1.1,93.28399999999999,M,36.771,M,1.4,0196*6F,37.2326866415,137.02611168466666,679734.7533779256,4122608.8327441104
624,[2021-02-22 16:46:16.907] $GNGGA,74616.5,3713.9612012,N,13701.56669997,E,4,10.0,1.1,93.281,M,36.771,M,1.5,0196*60,37.23268668666667,137.02611166616668,679734.7516293516,4122608.837720508
625,[2021-02-22 16:46:17.001] $GNGGA,74616.6,3713.96119948,N,13701.56670069,E,4,10.0,1.1,93.288,M,36.771,M,1.6,0196*65,37.232686658,137.02611167816667,679734.7527620642,4122608.8345625475
626,[2021-02-22 16:46:17.094] $GNGGA,74616.7,3713.9612004,N,13701.56669952,E,4,10.0,1.1,93.28299999999999,M,36.771,M,1.7,0196*6C,37.23268667333333,137.02611165866668,679734.7509956245,4122608.836226847
627,[2021-02-22 16:46:17.204] $GNGGA,74616.8,3713.96119868,N,13701.566702,E,4,10.0,1.1,93.27799999999999,M,36.771,M,1.8,0196*64,37.232686644666664,137.0261117,679734.7547307675,4122608.833124591
628,[2021-02-22 16:46:17.297] $GNGGA,74616.9,3713.96119893,N,13701.56669817,E,4,10.0,1.1,93.29,M,36.771,M,1.9,0196*62,37.23268664883334,137.0261116361667,679734.7490576324,4122608.833465688
629,[2021-02-22 16:46:17.407] $GNGGA,74617.0,3713.96119994,N,13701.56670168,E,4,10.0,1.1,93.29,M,36.771,M,2.0,0196*6F,37.23268666566666,137.02611169466667,679734.7542077228,4122608.8354445463
630,[2021-02-22 16:46:17.501] $GNGGA,74617.1,3713.96119911,N,13701.56670045,E,4,10.0,1.1,93.295,M,36.771,M,2.1,0196*69,37.232686651833326,137.02611167416666,679734.752421834,4122608.8338707187
631,[2021-02-22 16:46:17.610] $GNGGA,74617.2,3713.96119969,N,13701.56669923,E,4,10.0,1.1,93.289,M,36.771,M,2.2,0196*6A,37.232686661500004,137.02611165383334,679734.7505949182,4122608.8349046847
632,[2021-02-22 16:46:17.704] $GNGGA,74617.3,3713.96119771,N,13701.56670232,E,4,9.0,1.2,93.307,M,36.771,M,1.3,0196*61,37.23268662849999,137.02611170533334,679734.7552423328,4122608.8313409244
633,[2021-02-22 16:46:17.813] $GNGGA,74617.4,3713.96119746,N,13701.56670166,E,4,9.0,1.2,93.30799999999999,M,36.771,M,1.4,0196*68,37.23268662433333,137.0261116943333,679734.7542763165,4122608.830857718
634,[2021-02-22 16:46:17.907] $GNGGA,74617.5,3713.96119765,N,13701.56670277,E,4,9.0,1.2,93.304,M,36.771,M,1.5,0196*66,37.2326866275,137.02611171283334,679734.7559101019,4122608.8312442107
635,[2021-02-22 16:46:18.001] $GNGGA,74617.6,3713.96119783,N,13701.56670242,E,4,9.0,1.2,93.305,M,36.771,M,1.6,0196*69,37.23268663049999,137.02611170699998,679734.7553854475,4122608.8315660027
636,[2021-02-22 16:46:18.094] $GNGGA,74617.7,3713.9611985,N,13701.56670246,E,4,9.0,1.2,93.31,M,36.771,M,1.7,0196*68,37.23268664166667,137.0261117076667,679734.755418075,4122608.832806282
637,[2021-02-22 16:46:18.204] $GNGGA,74617.8,3713.96119801,N,13701.5667016,E,4,9.0,1.2,93.302,M,36.771,M,1.8,0196*68,37.2326866335,137.02611169333335,679734.7541658292,4122608.831872919
638,[2021-02-22 16:46:18.297] $GNGGA,74617.9,3713.96119945,N,13701.56670298,E,4,9.0,1.2,93.29899999999999,M,36.771,M,1.9,0196*6E,37.232686657500004,137.02611171633333,679734.7561493691,4122608.834579549
639,[2021-02-22 16:46:18.391] $GNGGA,74618.0,3713.96119715,N,13701.56670265,E,4,9.0,1.2,93.309,M,36.771,M,2.0,0196*63,37.23268661916666,137.0261117108333,679734.7557524524,4122608.8303157757
640,[2021-02-22 16:46:18.501] $GNGGA,74618.1,3713.96120019,N,13701.56670055,E,4,9.0,1.2,93.296,M,36.771,M,1.1,0196*67,37.23268666983333,137.02611167583333,679734.7525269485,4122608.835871099
641,[2021-02-22 16:46:18.610] $GNGGA,74618.2,3713.96120036,N,13701.56670362,E,4,9.0,1.2,93.287,M,36.771,M,1.2,0196*6D,37.23268667266667,137.026111727,679734.7570596857,4122608.8362826435
642,[2021-02-22 16:46:18.704] $GNGGA,74618.3,3713.96119893,N,13701.56670236,E,4,9.0,1.2,93.286,M,36.771,M,1.3,0196*61,37.23268664883334,137.026111706,679734.7552531868,4122608.8335983045
643,[2021-02-22 16:46:18.813] $GNGGA,74618.4,3713.96120094,N,13701.56670291,E,4,9.0,1.2,93.287,M,36.771,M,1.4,0196*68,37.23268668233333,137.02611171516668,679734.7559868824,4122608.83733275
644,[2021-02-22 16:46:18.907] $GNGGA,74618.5,3713.96120141,N,13701.56670256,E,4,9.0,1.2,93.28200000000001,M,36.771,M,1.5,0196*6F,37.23268669016666,137.02611170933335,679734.7554507509,4122608.8381908294
645,[2021-02-22 16:46:19.000] $GNGGA,74618.6,3713.96120191,N,13701.56670158,E,4,9.0,1.2,93.292,M,36.771,M,1.6,0196*6E,37.2326866985,137.02611169300002,679734.7539818778,4122608.8390844488
646,[2021-02-22 16:46:19.094] $GNGGA,74618.7,3713.96120242,N,13701.56670278,E,4,9.0,1.2,93.281,M,36.771,M,1.7,0196*60,37.232686707,137.02611171299998,679734.7557360708,4122608.8400655594
647,[2021-02-22 16:46:19.204] $GNGGA,74618.8,3713.96120123,N,13701.56670246,E,4,9.0,1.2,93.288,M,36.771,M,1.8,0196*60,37.23268668716666,137.0261117076667,679734.7553100111,4122608.837854795
648,[2021-02-22 16:46:19.297] $GNGGA,74618.9,3713.96119994,N,13701.566703,E,4,9.0,1.2,93.295,M,36.771,M,1.9,0196*61,37.23268666566666,137.02611171666666,679734.7561595452,4122608.8354863254
649,[2021-02-22 16:46:19.407] $GNGGA,74619.0,3713.96119952,N,13701.56670075,E,4,9.0,1.2,93.28299999999999,M,36.771,M,2.0,0196*6F,37.232686658666665,137.02611167916663,679734.7528491971,4122608.834638417
650,[2021-02-22 16:46:19.500] $GNGGA,74619.1,3713.96119983,N,13701.56670106,E,4,9.0,1.2,93.27600000000001,M,36.771,M,2.1,0196*6C,37.23268666383334,137.02611168433333,679734.7532953112,4122608.835221505
651,[2021-02-22 16:46:19.610] $GNGGA,74619.2,3713.96119972,N,13701.56670214,E,4,9.0,1.2,93.285,M,36.771,M,1.2,0196*6D,37.232686662,137.0261117023333,679734.7548966092,4122608.835052266
652,[2021-02-22 16:46:19.704] $GNGGA,74619.3,3713.96119735,N,13701.56669811,E,4,9.0,1.2,93.296,M,36.771,M,1.3,0196*65,37.232686622500005,137.02611163516667,679734.7490314541,4122608.830541938
653,[2021-02-22 16:46:19.813] $GNGGA,74619.4,3713.96120179,N,13701.56670304,E,4,9.0,1.2,93.287,M,36.771,M,1.4,0196*66,37.2326866965,137.02611171733335,679734.7561454636,4122608.8389087454
654,[2021-02-22 16:46:19.907] $GNGGA,74619.5,3713.96119945,N,13701.56670129,E,4,9.0,1.2,93.291,M,36.771,M,1.5,0196*61,37.232686657500004,137.02611168816665,679734.7536504432,4122608.8345260597
655,[2021-02-22 16:46:20.000] $GNGGA,74619.6,3713.96119673,N,13701.56670175,E,4,9.0,1.2,93.3,M,36.771,M,1.6,0196*6B,37.23268661216667,137.02611169583332,679734.7544382915,4122608.8295105975
656,[2021-02-22 16:46:20.094] $GNGGA,74619.7,3713.96120043,N,13701.5667014,E,4,9.0,1.2,93.28399999999999,M,36.771,M,1.7,0196*6F,37.23268667383334,137.02611169,679734.7537743042,4122608.83634183
657,[2021-02-22 16:46:20.204] $GNGGA,74619.8,3713.96119974,N,13701.56670166,E,4,9.0,1.2,93.292,M,36.771,M,1.8,0196*6B,37.232686662333336,137.0261116943333,679734.7541860653,4122608.8350740597
658,[2021-02-22 16:46:20.297] $GNGGA,74619.9,3713.96119981,N,13701.56669949,E,4,9.0,1.2,93.28299999999999,M,36.771,M,1.9,0196*6C,37.232686663500004,137.02611165816668,679734.7509746186,4122608.8351348266
659,[2021-02-22 16:46:20.407] $GNGGA,74620.0,3713.96119956,N,13701.56670118,E,4,9.0,1.2,93.295,M,36.771,M,2.0,0196*6C,37.23268665933333,137.0261116863333,679734.7534834358,4122608.8347259983
660,[2021-02-22 16:46:20.500] $GNGGA,74620.1,3713.961199,N,13701.56670035,E,4,9.0,1.2,93.291,M,36.771,M,2.1,0196*65,37.23268665,137.0261116725,679734.7522783234,4122608.8336641346
661,[2021-02-22 16:46:20.610] $GNGGA,74620.2,3713.96120064,N,13701.56670197,E,4,9.0,1.2,93.296,M,36.771,M,1.2,0196*69,37.232686677333334,137.0261116995,679734.7546088251,4122608.836748217
662,[2021-02-22 16:46:20.703] $GNGGA,74620.3,3713.96120345,N,13701.56670294,E,4,9.0,1.2,93.285,M,36.771,M,1.3,0196*6B,37.232686724166676,137.02611171566664,679734.755931885,4122608.841975375
663,[2021-02-22 16:46:20.813] $GNGGA,74620.4,3713.96120292,N,13701.56670325,E,4,9.0,1.2,93.292,M,36.771,M,1.4,0196*6D,37.23268671533332,137.02611172083334,679734.7564112497,4122608.8410050706
664,[2021-02-22 16:46:20.907] $GNGGA,74620.5,3713.96120295,N,13701.56670222,E,4,9.0,1.2,93.286,M,36.771,M,1.5,0196*69,37.23268671583333,137.0261117036667,679734.7548870507,4122608.841027949
665,[2021-02-22 16:46:21.000] $GNGGA,74620.6,3713.96120302,N,13701.56669978,E,4,9.0,1.2,93.289,M,36.771,M,1.6,0196*65,37.232686717,137.026111663,679734.7512763629,4122608.84108017
666,[2021-02-22 16:46:21.094] $GNGGA,74620.7,3713.9612017,N,13701.56669994,E,4,9.0,1.2,93.28399999999999,M,36.771,M,1.7,0196*6D,37.232686695,137.02611166566666,679734.751565197,4122608.8386441953
667,[2021-02-22 16:46:21.203] $GNGGA,74620.8,3713.9612041,N,13701.5666994,E,4,9.0,1.2,93.28399999999999,M,36.771,M,1.8,0196*67,37.232686735,137.0261116566667,679734.7506717272,4122608.8430653578
668,[2021-02-22 16:46:21.297] $GNGGA,74620.9,3713.96120397,N,13701.56669839,E,4,9.0,1.2,93.28299999999999,M,36.771,M,1.9,0196*67,37.23268673283333,137.02611163983332,679734.7491834294,4122608.8427929855
669,[2021-02-22 16:46:21.407] $GNGGA,74621.0,3713.96120381,N,13701.56670247,E,4,9.0,1.2,93.28200000000001,M,36.771,M,2.0,0196*68,37.23268673016666,137.02611170783334,679734.7552226709,4122608.8426262364
670,[2021-02-22 16:46:21.500] $GNGGA,74621.1,3713.96120576,N,13701.56670277,E,4,9.0,1.2,93.28299999999999,M,36.771,M,2.1,0196*64,37.232686762666674,137.02611171283334,679734.7555890769,4122608.8462418146
671,[2021-02-22 16:46:21.610] $GNGGA,74621.2,3713.96120251,N,13701.56669781,E,4,9.0,1.2,93.28299999999999,M,36.771,M,1.2,0196*61,37.2326867085,137.02611163016667,679734.7483836047,4122608.8400746887
672,[2021-02-22 16:46:21.703] $GNGGA,74621.3,3713.96120195,N,13701.56669995,E,4,9.0,1.2,93.295,M,36.771,M,1.3,0196*66,37.23268669916666,137.02611166583335,679734.7515700917,4122608.8391068294
673,[2021-02-22 16:46:21.813] $GNGGA,74621.4,3713.96120205,N,13701.56670129,E,4,9.0,1.2,93.291,M,36.771,M,1.4,0196*6F,37.23268670083333,137.02611168816665,679734.7535475253,4122608.839334167
674,[2021-02-22 16:46:21.906] $GNGGA,74621.5,3713.96120393,N,13701.56669916,E,4,9.0,1.2,93.28399999999999,M,36.771,M,1.5,0196*69,37.23268673216666,137.02611165266666,679734.7503235759,4122608.8427433856
675,[2021-02-22 16:46:22.000] $GNGGA,74621.6,3713.96119961,N,13701.56669954,E,4,9.0,1.2,93.301,M,36.771,M,1.6,0196*6E,37.23268666016667,137.026111659,679734.7510564678,4122608.834766555
676,[2021-02-22 16:46:22.094] $GNGGA,74621.7,3713.96120093,N,13701.56670035,E,4,9.0,1.2,93.294,M,36.771,M,1.7,0196*6B,37.23268668216667,137.0261116725,679734.7522019267,4122608.837233232
677,[2021-02-22 16:46:22.203] $GNGGA,74621.8,3713.96120261,N,13701.56670048,E,4,9.0,1.2,93.296,M,36.771,M,1.8,0196*6C,37.23268671016666,137.02611167466668,679734.752327651,4122608.840344123
678,[2021-02-22 16:46:22.297] $GNGGA,74621.9,3713.96120229,N,13701.56669937,E,4,9.0,1.2,93.295,M,36.771,M,1.9,0196*6A,37.23268670483334,137.02611165616665,679734.7506990093,4122608.8397172266
679,[2021-02-22 16:46:22.391] $GNGGA,74622.0,3713.96120192,N,13701.56669945,E,4,9.0,1.2,93.291,M,36.771,M,2.0,0196*68,37.23268669866667,137.02611165750002,679734.7508319526,4122608.839035527
680,[2021-02-22 16:46:22.485] $GNGGA,74622.1,3713.96120164,N,13701.56669945,E,4,9.0,1.2,93.287,M,36.771,M,1.1,0196*65,37.232686694,137.02611165750002,679734.750843036,4122608.83851773
681,[2021-02-22 16:46:22.610] $GNGGA,74622.2,3713.96120163,N,13701.56670059,E,4,9.0,1.2,93.27600000000001,M,36.771,M,1.2,0196*60,37.23268669383333,137.02611167649997,679734.7525290919,4122608.8385353186
682,[2021-02-22 16:46:22.703] $GNGGA,74622.3,3713.96120144,N,13701.56670096,E,4,9.0,1.2,93.288,M,36.771,M,1.3,0196*67,37.23268669066667,137.02611168266668,679734.7530837187,4122608.838195667
683,[2021-02-22 16:46:22.813] $GNGGA,74622.4,3713.96120285,N,13701.56669925,E,4,9.0,1.2,93.28399999999999,M,36.771,M,1.4,0196*6C,37.232686714166675,137.02611165416667,679734.7504994075,4122608.84074902
684,[2021-02-22 16:46:22.906] $GNGGA,74622.5,3713.9612003,N,13701.56670105,E,4,9.0,1.2,93.289,M,36.771,M,1.5,0196*6F,37.23268667166667,137.0261116841667,679734.7532619231,4122608.836090345
685,[2021-02-22 16:46:23.000] $GNGGA,74622.6,3713.96119928,N,13701.5666983,E,4,9.0,1.2,93.29299999999999,M,36.771,M,1.6,0196*69,37.232686654666665,137.0261116383333,679734.7492359966,4122608.8341170475
686,[2021-02-22 16:46:23.094] $GNGGA,74622.7,3713.96120005,N,13701.56670183,E,4,9.0,1.2,93.287,M,36.771,M,1.7,0196*69,37.232686667500005,137.02611169716664,679734.7544251636,4122608.835652716
687,[2021-02-22 16:46:23.203] $GNGGA,74622.8,3713.96120086,N,13701.56669937,E,4,9.0,1.2,93.288,M,36.771,M,1.8,0196*62,37.232686681000004,137.02611165616665,679734.7507556141,4122608.837072766
688,[2021-02-22 16:46:23.297] $GNGGA,74622.9,3713.96120197,N,13701.56669845,E,4,9.0,1.2,93.279,M,36.771,M,1.9,0196*69,37.23268669949999,137.02611164083334,679734.7493513179,4122608.8390963366
689,[2021-02-22 16:46:23.406] $GNGGA,74623.0,3713.9612038,N,13701.56670026,E,4,9.0,1.2,93.28399999999999,M,36.771,M,2.0,0196*68,37.232686730000005,137.026111671,679734.7519552421,4122608.842537796
690,[2021-02-22 16:46:23.500] $GNGGA,74623.1,3713.96120185,N,13701.5667017,E,4,9.0,1.2,93.29700000000001,M,36.771,M,1.1,0196*6C,37.23268669750001,137.026111695,679734.7541616897,4122608.8389772926
691,[2021-02-22 16:46:23.610] $GNGGA,74623.2,3713.96120414,N,13701.56670256,E,4,9.0,1.2,93.292,M,36.771,M,1.2,0196*63,37.23268673566667,137.02611170933335,679734.755342687,4122608.843239346
692,[2021-02-22 16:46:23.703] $GNGGA,74623.3,3713.96120481,N,13701.56670313,E,4,9.0,1.2,93.279,M,36.771,M,1.3,0196*6A,37.23268674683333,137.02611171883336,679734.7561589993,4122608.8444963982
693,[2021-02-22 16:46:23.813] $GNGGA,74623.4,3713.96120147,N,13701.56670187,E,4,9.0,1.2,93.295,M,36.771,M,1.4,0196*68,37.23268669116666,137.02611169783336,679734.7544281055,4122608.838279948
694,[2021-02-22 16:46:23.906] $GNGGA,74623.5,3713.96120375,N,13701.56670137,E,4,9.0,1.2,93.289,M,36.771,M,1.5,0196*6D,37.232686729166666,137.02611168950003,679734.7535985278,4122608.8424804644
695,[2021-02-22 16:46:24.000] $GNGGA,74623.6,3713.96120484,N,13701.56670196,E,4,9.0,1.2,93.281,M,36.771,M,1.6,0196*67,37.232686747333325,137.02611169933337,679734.754427789,4122608.844514845
696,[2021-02-22 16:46:24.094] $GNGGA,74623.7,3713.96120024,N,13701.56670293,E,4,9.0,1.2,93.29,M,36.771,M,1.7,0196*6F,37.232686670666666,137.0261117155,679734.7560441653,4122608.836038893
697,[2021-02-22 16:46:24.203] $GNGGA,74623.8,3713.96120292,N,13701.56670423,E,4,9.0,1.2,93.29299999999999,M,36.771,M,1.8,0196*6E,37.23268671533332,137.02611173716664,679734.7578603263,4122608.841036088
698,[2021-02-22 16:46:24.297] $GNGGA,74623.9,3713.96120248,N,13701.56670027,E,4,9.0,1.2,93.29,M,36.771,M,1.9,0196*6A,37.232686708,137.02611167116663,679734.7520222766,4122608.840097073
699,[2021-02-22 16:46:24.406] $GNGGA,74624.0,3713.96120108,N,13701.56670216,E,4,9.0,1.2,93.295,M,36.771,M,2.0,0196*6C,37.23268668466667,137.02611170266667,679734.7548723518,4122608.8375679106
700,[2021-02-22 16:46:24.500] $GNGGA,74624.1,3713.96120267,N,13701.56670132,E,4,9.0,1.2,93.288,M,36.771,M,1.1,0196*6C,37.232686711166664,137.02611168866665,679734.7535673414,4122608.840481668
701,[2021-02-22 16:46:24.609] $GNGGA,74624.2,3713.96120424,N,13701.56670045,E,4,9.0,1.2,93.292,M,36.771,M,1.2,0196*67,37.232686737333324,137.02611167416666,679734.7522187689,4122608.843357489
702,[2021-02-22 16:46:24.703] $GNGGA,74624.3,3713.96120276,N,13701.56670061,E,4,9.0,1.2,93.287,M,36.771,M,1.3,0196*64,37.23268671266667,137.02611167683332,679734.7525139364,4122608.840625631
703,[2021-02-22 16:46:24.813] $GNGGA,74624.4,3713.96120204,N,13701.56670081,E,4,9.0,1.2,93.288,M,36.771,M,1.4,0196*60,37.23268670066667,137.02611168016665,679734.7528381665,4122608.839300485
704,[2021-02-22 16:46:24.906] $GNGGA,74624.5,3713.96120183,N,13701.56670157,E,4,9.0,1.2,93.29299999999999,M,36.771,M,1.5,0196*6C,37.23268669716666,137.02611169283333,679734.7539702563,4122608.83893619
705,[2021-02-22 16:46:25.000] $GNGGA,74624.6,3713.96119914,N,13701.56670042,E,4,9.0,1.2,93.29,M,36.771,M,1.6,0196*66,37.232686652333335,137.02611167366666,679734.7523762862,4122608.833925249
706,[2021-02-22 16:46:25.094] $GNGGA,74624.7,3713.96120183,N,13701.56670188,E,4,9.0,1.2,93.292,M,36.771,M,1.7,0196*6F,37.23268669716666,137.026111698,679734.7544286391,4122608.8389460025
707,[2021-02-22 16:46:25.203] $GNGGA,74624.8,3713.96119959,N,13701.56670082,E,4,9.0,1.2,93.296,M,36.771,M,1.8,0196*65,37.23268665983333,137.02611168033334,679734.7529499353,4122608.834770082
708,[2021-02-22 16:46:25.297] $GNGGA,74624.9,3713.96120155,N,13701.56670238,E,4,9.0,1.2,93.29299999999999,M,36.771,M,1.9,0196*6D,37.232686692499996,137.02611170633335,679734.7551790515,4122608.8384440322
709,[2021-02-22 16:46:25.406] $GNGGA,74625.0,3713.96120339,N,13701.5667007,E,4,9.0,1.2,93.289,M,36.771,M,2.0,0196*62,37.232686723166665,137.0261116783333,679734.7526220751,4122608.8417935204
710,[2021-02-22 16:46:25.500] $GNGGA,74625.1,3713.96120137,N,13701.56670065,E,4,9.0,1.2,93.29299999999999,M,36.771,M,2.1,0196*61,37.23268668949999,137.02611167749998,679734.7526281044,4122608.838056406
711,[2021-02-22 16:46:25.609] $GNGGA,74625.2,3713.96120168,N,13701.5667051,E,4,9.0,1.2,93.285,M,36.771,M,2.2,0196*6B,37.23268669466667,137.0261117516667,679734.7591958428,4122608.8387705265
