,Format,Time,Latitude,LatType,Longitude,LonType,Status,Satellite,LevelAccuracy,Altitude(sea),M(sea),Altitude(geoid),M(geoid),DGPS use,checksum,Lat,Lon,UTM_X,UTM_Y
756,[2021-02-22 16:49:44.675] $GPGGA,74944.3,3713.96134778,N,13701.56642404,E,4,7.0,1.3,93.205,M,36.771,M,2.3,0000*73,37.23268912966666,137.02610706733336,679734.3378223674,4122609.1000535395
758,[2021-02-22 16:49:44.784] $GPGGA,74944.4,3713.96134831,N,13701.56642062,E,4,7.0,1.3,93.209,M,36.771,M,2.4,0000*79,37.2326891385,137.02610701033333,679734.3327443924,4122609.100925409
760,[2021-02-22 16:49:44.878] $GPGGA,74944.5,3713.96134897,N,13701.56642621,E,4,7.0,1.3,93.210,M,36.771,M,2.5,0000*7C,37.2326891495,137.02610710349998,679734.3409839362,4122609.102322855
762,[2021-02-22 16:49:44.987] $GPGGA,74944.6,3713.96135112,N,13701.56642685,E,4,7.0,1.3,93.203,M,36.771,M,2.6,0000*75,37.23268918533333,137.0261071141667,679734.3418451736,4122609.1063190484
764,[2021-02-22 16:49:45.081] $GPGGA,74944.7,3713.96134996,N,13701.56643173,E,4,7.0,1.3,93.193,M,36.771,M,2.7,0000*75,37.23268916600001,137.0261071955,679734.3491069152,4122609.1043283483
766,[2021-02-22 16:49:45.190] $GPGGA,74944.8,3713.96134997,N,13701.56642624,E,4,7.0,1.3,93.206,M,36.771,M,2.8,0000*7F,37.232689166166665,137.026107104,679734.3409887152,4122609.1041730773
768,[2021-02-22 16:49:45.284] $GPGGA,74944.9,3713.96134842,N,13701.56642727,E,4,7.0,1.3,93.202,M,36.771,M,2.9,0000*70,37.23268914033333,137.0261071211667,679734.3425730835,4122609.1013393053
770,[2021-02-22 16:49:45.393] $GPGGA,74945.0,3713.96135051,N,13701.56643214,E,4,7.0,1.3,93.204,M,36.771,M,3.0,0000*79,37.23268917516667,137.02610720233335,679734.3496913943,4122609.1053584255
772,[2021-02-22 16:49:45.472] $GPGGA,74945.1,3713.96134939,N,13701.56642994,E,4,7.0,1.3,93.213,M,36.771,M,3.1,0000*7B,37.2326891565,137.02610716566664,679734.3464826874,4122609.103217607
774,[2021-02-22 16:49:45.581] $GPGGA,74945.2,3713.96134949,N,13701.56643249,E,4,8.0,1.3,93.207,M,36.771,M,2.2,0000*7D,37.232689158166664,137.02610720816668,679734.3502492966,4122609.103483243
776,[2021-02-22 16:49:45.675] $GPGGA,74945.3,3713.96134549,N,13701.5664312,E,4,8.0,1.3,93.214,M,36.771,M,2.3,0000*7F,37.2326890915,137.02610718666668,679734.3485001699,4122609.0960453236
778,[2021-02-22 16:49:45.784] $GPGGA,74945.4,3713.9613475,N,13701.56643375,E,4,8.0,1.3,93.218,M,36.771,M,2.4,0000*7B,37.23268912500001,137.02610722916666,679734.3521911697,4122609.0998430713
780,[2021-02-22 16:49:45.878] $GPGGA,74945.5,3713.96134753,N,13701.56642986,E,4,8.0,1.3,93.209,M,36.771,M,2.5,0000*7F,37.232689125499995,137.02610716433333,679734.3464380227,4122609.0997754275
782,[2021-02-22 16:49:45.987] $GPGGA,74945.6,3713.96134725,N,13701.56643412,E,4,8.0,1.3,93.218,M,36.771,M,2.6,0000*7F,37.232689120833335,137.02610723533337,679734.3527481715,4122609.0993924635
784,[2021-02-22 16:49:46.081] $GPGGA,74945.7,3713.96134832,N,13701.56643239,E,4,8.0,1.3,93.207,M,36.771,M,2.7,0000*77,37.23268913866667,137.02610720650003,679734.3501477471,4122609.10131643
786,[2021-02-22 16:49:46.190] $GPGGA,74945.8,3713.96134845,N,13701.56643095,E,4,8.0,1.3,93.212,M,36.771,M,2.8,0000*77,37.23268914083334,137.02610718250003,679734.3480133398,4122609.101511258
788,[2021-02-22 16:49:46.284] $GPGGA,74945.9,3713.96134917,N,13701.56643016,E,4,8.0,1.3,93.205,M,36.771,M,2.9,0000*7C,37.23268915283334,137.02610716933333,679734.346816702,4122609.102817732
790,[2021-02-22 16:49:46.393] $GPGGA,74946.0,3713.96134397,N,13701.56642644,E,4,8.0,1.3,93.214,M,36.771,M,3.0,0000*7C,37.232689066166664,137.02610710733336,679734.3415219497,4122609.0930837723
792,[2021-02-22 16:49:46.471] $GPGGA,74946.1,3713.96134627,N,13701.56642748,E,4,8.0,1.3,93.213,M,36.771,M,3.1,0000*78,37.2326891045,137.02610712466668,679734.3429687044,4122609.0973700164
794,[2021-02-22 16:49:46.581] $GPGGA,74946.2,3713.96134691,N,13701.56643112,E,4,7.0,1.4,93.215,M,36.771,M,2.2,0000*72,37.232689115166664,137.02610718533333,679734.3483256683,4122609.098668759
796,[2021-02-22 16:49:46.675] $GPGGA,74946.3,3713.96134659,N,13701.56643146,E,4,7.0,1.4,93.215,M,36.771,M,2.3,0000*77,37.23268910983333,137.026107191,679734.348841076,4122609.098087753
798,[2021-02-22 16:49:46.784] $GPGGA,74946.4,3713.96134438,N,13701.56642965,E,4,7.0,1.4,93.216,M,36.771,M,2.4,0000*79,37.232689073,137.02610716083333,679734.3462521958,4122609.0939435726
800,[2021-02-22 16:49:46.878] $GPGGA,74946.5,3713.96134561,N,13701.56642721,E,4,7.0,1.4,93.218,M,36.771,M,2.5,0000*74,37.2326890935,137.02610712016667,679734.3425955932,4122609.0961409495
802,[2021-02-22 16:49:46.987] $GPGGA,74946.6,3713.96134577,N,13701.56642687,E,4,7.0,1.4,93.213,M,36.771,M,2.6,0000*75,37.232689096166666,137.02610711449998,679734.3420865142,4122609.096426073
804,[2021-02-22 16:49:47.081] $GPGGA,74946.7,3713.96134756,N,13701.56642982,E,4,7.0,1.4,93.215,M,36.771,M,2.7,0000*78,37.232689126000004,137.0261071636667,679734.3463776909,4122609.099829641
806,[2021-02-22 16:49:47.190] $GPGGA,74946.8,3713.96134735,N,13701.56642464,E,4,7.0,1.4,93.217,M,36.771,M,2.8,0000*7A,37.2326891225,137.0261070773333,679734.3387265755,4122609.099277343
808,[2021-02-22 16:49:47.284] $GPGGA,74946.9,3713.9613454,N,13701.56642869,E,4,7.0,1.4,93.207,M,36.771,M,2.9,0000*7A,37.23268909,137.02610714483333,679734.3447923112,4122609.0957994456
810,[2021-02-22 16:49:47.393] $GPGGA,74947.0,3713.96134627,N,13701.5664252,E,4,7.0,1.4,93.213,M,36.771,M,3.0,0000*7D,37.2326891045,137.02610708666666,679734.3395973732,4122609.0972978533
812,[2021-02-22 16:49:47.471] $GPGGA,74947.1,3713.96134523,N,13701.56642844,E,4,7.0,1.4,93.211,M,36.771,M,3.1,0000*77,37.23268908716666,137.02610714066668,679734.3444293783,4122609.095477157
814,[2021-02-22 16:49:47.581] $GPGGA,74947.2,3713.96134993,N,13701.56642574,E,4,7.0,1.4,93.205,M,36.771,M,2.2,0000*7A,37.2326891655,137.02610709566667,679734.3402509718,4122609.1040832824
816,[2021-02-22 16:49:47.675] $GPGGA,74947.3,3713.96134764,N,13701.56642466,E,4,7.0,1.4,93.210,M,36.771,M,2.3,0000*7A,37.23268912733334,137.0261070776667,679734.338744675,4122609.0998142655
818,[2021-02-22 16:49:47.784] $GPGGA,74947.4,3713.96134805,N,13701.56642664,E,4,7.0,1.4,93.200,M,36.771,M,2.4,0000*73,37.23268913416667,137.02610711066666,679734.3416561754,4122609.100635136
820,[2021-02-22 16:49:47.878] $GPGGA,74947.5,3713.96134674,N,13701.56642758,E,4,7.0,1.4,93.216,M,36.771,M,2.5,0000*72,37.232689112333325,137.02610712633336,679734.3430979671,4122609.0982423383
822,[2021-02-22 16:49:47.987] $GPGGA,74947.6,3713.96135071,N,13701.56642253,E,4,7.0,1.4,93.192,M,36.771,M,2.6,0000*71,37.23268917849999,137.0261070421667,679734.3354736213,4122609.1054241154
824,[2021-02-22 16:49:48.081] $GPGGA,74947.7,3713.96134755,N,13701.566428,E,4,7.0,1.4,93.210,M,36.771,M,2.7,0000*74,37.23268912583333,137.02610713333334,679734.343686936,4122609.099753543
826,[2021-02-22 16:49:48.190] $GPGGA,74947.8,3713.96134997,N,13701.56642651,E,4,7.0,1.4,93.203,M,36.771,M,2.8,0000*7C,37.232689166166665,137.0261071085,679734.3413879517,4122609.1041816236
828,[2021-02-22 16:49:48.284] $GPGGA,74947.9,3713.96134766,N,13701.56642367,E,4,7.0,1.4,93.205,M,36.771,M,2.9,0000*7A,37.23268912766666,137.02610706116664,679734.3372800116,4122609.0998199154
830,[2021-02-22 16:49:48.393] $GPGGA,74948.0,3713.96134738,N,13701.56642575,E,4,7.0,1.4,93.203,M,36.771,M,3.0,0000*7C,37.23268912299999,137.0261070958333,679734.3403666943,4122609.0993679524
832,[2021-02-22 16:49:48.471] $GPGGA,74948.1,3713.96134831,N,13701.56642504,E,4,7.0,1.4,93.205,M,36.771,M,3.1,0000*7A,37.2326891385,137.026107084,679734.3392800391,4122609.101065305
834,[2021-02-22 16:49:48.581] $GPGGA,74948.2,3713.96134749,N,13701.56642542,E,4,7.0,1.4,93.211,M,36.771,M,2.2,0000*7C,37.232689124833335,137.02610709033334,679734.3398743874,4122609.0995609295
836,[2021-02-22 16:49:48.674] $GPGGA,74948.3,3713.96134803,N,13701.56642411,E,4,7.0,1.4,93.204,M,36.771,M,2.3,0000*7E,37.23268913383333,137.0261070685,679734.337915976,4122609.100518075
838,[2021-02-22 16:49:48.784] $GPGGA,74948.4,3713.96134793,N,13701.56642647,E,4,7.0,1.4,93.214,M,36.771,M,2.4,0000*78,37.23268913216667,137.02610710783335,679734.3414095561,4122609.100407841
840,[2021-02-22 16:49:48.878] $GPGGA,74948.5,3713.96134777,N,13701.56642425,E,4,7.0,1.4,93.200,M,36.771,M,2.5,0000*71,37.2326891295,137.02610707083335,679734.3381332791,4122609.100041693
842,[2021-02-22 16:49:48.987] $GPGGA,74948.6,3713.96134916,N,13701.56642436,E,4,7.0,1.4,93.219,M,36.771,M,2.6,0000*72,37.23268915266666,137.0261070726667,679734.3382409108,4122609.102615664
844,[2021-02-22 16:49:49.081] $GPGGA,74948.7,3713.96134896,N,13701.56642519,E,4,7.0,1.4,93.223,M,36.771,M,2.7,0000*7E,37.23268914933334,137.02610708650002,679734.3394761091,4122609.1022720803
846,[2021-02-22 16:49:49.190] $GPGGA,74948.8,3713.96134658,N,13701.56642354,E,4,7.0,1.4,93.218,M,36.771,M,2.8,0000*75,37.23268910966666,137.02610705900003,679734.3371305414,4122609.0978185856
848,[2021-02-22 16:49:49.284] $GPGGA,74948.9,3713.96134813,N,13701.56642213,E,4,7.0,1.4,93.217,M,36.771,M,2.9,0000*79,37.232689135499996,137.0261070355,679734.3349842834,4122609.1006403314
850,[2021-02-22 16:49:49.393] $GPGGA,74949.0,3713.96134732,N,13701.5664244,E,4,7.0,1.4,93.217,M,36.771,M,3.0,0000*75,37.232689122000004,137.02610707333332,679734.3383728869,4122609.0992142684
852,[2021-02-22 16:49:49.471] $GPGGA,74949.1,3713.96134845,N,13701.56641975,E,4,7.0,1.4,93.216,M,36.771,M,3.1,0000*73,37.23268914083334,137.02610699583335,679734.3314524228,4122609.1011567716
854,[2021-02-22 16:49:49.581] $GPGGA,74949.2,3713.96134802,N,13701.56642503,E,4,7.0,1.4,93.203,M,36.771,M,2.2,0000*7B,37.23268913366666,137.02610708383335,679734.3392767345,4122609.100528698
856,[2021-02-22 16:49:49.674] $GPGGA,74949.3,3713.96134725,N,13701.56642455,E,4,7.0,1.4,93.206,M,36.771,M,2.3,0000*76,37.232689120833335,137.02610707583335,679734.3385974595,4122609.099089567
858,[2021-02-22 16:49:49.784] $GPGGA,74949.4,3713.96134849,N,13701.56642391,E,4,7.0,1.4,93.207,M,36.771,M,2.4,0000*7D,37.2326891415,137.02610706516668,679734.3376020378,4122609.101362409
860,[2021-02-22 16:49:49.877] $GPGGA,74949.5,3713.96134902,N,13701.56642324,E,4,7.0,1.4,93.204,M,36.771,M,2.5,0000*7E,37.23268915033333,137.02610705399997,679734.3365903556,4122609.102321317
862,[2021-02-22 16:49:49.987] $GPGGA,74949.6,3713.96135038,N,13701.56642274,E,4,7.0,1.4,93.200,M,36.771,M,2.6,0000*7F,37.232689173,137.02610704566663,679734.3357971951,4122609.104820503
864,[2021-02-22 16:49:50.081] $GPGGA,74949.7,3713.96134941,N,13701.56642416,E,4,7.0,1.4,93.200,M,36.771,M,2.7,0000*7B,37.23268915683333,137.02610706933334,679734.3379352828,4122609.1030716533
866,[2021-02-22 16:49:50.190] $GPGGA,74949.8,3713.96134901,N,13701.56642395,E,4,7.0,1.4,93.201,M,36.771,M,2.8,0000*72,37.23268915016667,137.02610706583334,679734.3376405983,4122609.102325298
868,[2021-02-22 16:49:50.284] $GPGGA,74949.9,3713.96134909,N,13701.56642451,E,4,7.0,1.4,93.202,M,36.771,M,2.9,0000*76,37.232689151500004,137.02610707516666,679734.3384654766,4122609.102490964
870,[2021-02-22 16:49:50.393] $GPGGA,74950.0,3713.96134906,N,13701.5664247,E,4,7.0,1.4,93.199,M,36.771,M,3.0,0000*72,37.232689150999995,137.02610707833335,679734.3387476101,4122609.1024414976
872,[2021-02-22 16:49:50.471] $GPGGA,74950.1,3713.96134757,N,13701.56642507,E,4,7.0,1.4,93.203,M,36.771,M,3.1,0000*79,37.23268912616666,137.02610708449998,679734.3393536891,4122609.0996977924
874,[2021-02-22 16:49:50.581] $GPGGA,74950.2,3713.96134979,N,13701.56642594,E,4,7.0,1.4,93.207,M,36.771,M,2.2,0000*74,37.23268916316667,137.02610709900003,679734.3405522456,4122609.1038307147
876,[2021-02-22 16:49:50.674] $GPGGA,74950.3,3713.96135096,N,13701.56642426,E,4,7.0,1.4,93.211,M,36.771,M,2.3,0000*72,37.23268918266666,137.02610707099998,679734.3380217906,4122609.10594119
878,[2021-02-22 16:49:50.784] $GPGGA,74950.4,3713.96135041,N,13701.56642819,E,4,7.0,1.4,93.208,M,36.771,M,2.4,0000*70,37.2326891735,137.0261071365,679734.34385467,4122609.105048477
880,[2021-02-22 16:49:50.877] $GPGGA,74950.5,3713.96135372,N,13701.56642453,E,4,7.0,1.4,93.209,M,36.771,M,2.5,0000*70,37.232689228666665,137.0261070755,679734.3383117783,4122609.111053728
882,[2021-02-22 16:49:50.987] $GPGGA,74950.6,3713.9613524,N,13701.56642699,E,4,7.0,1.4,93.195,M,36.771,M,2.6,0000*72,37.23268920666666,137.02610711650001,679734.3420015153,4122609.1086905487
884,[2021-02-22 16:49:51.080] $GPGGA,74950.7,3713.96134998,N,13701.56642796,E,4,7.0,1.4,93.215,M,36.771,M,2.7,0000*78,37.23268916633333,137.02610713266668,679734.3435316032,4122609.10424601
886,[2021-02-22 16:49:51.190] $GPGGA,74950.8,3713.96135279,N,13701.56642452,E,4,7.0,1.4,93.205,M,36.771,M,2.8,0000*77,37.23268921316667,137.02610707533336,679734.3383338051,4122609.1093335897
888,[2021-02-22 16:49:51.284] $GPGGA,74950.9,3713.96135025,N,13701.56642428,E,4,7.0,1.4,93.211,M,36.771,M,2.9,0000*74,37.23268917083333,137.02610707133334,679734.3380794717,4122609.1046288386
890,[2021-02-22 16:49:51.393] $GPGGA,74951.0,3713.96135094,N,13701.56642623,E,4,7.0,1.4,93.202,M,36.771,M,3.0,0000*75,37.23268918233333,137.0261071038333,679734.3409355283,4122609.105966556
892,[2021-02-22 16:49:51.471] $GPGGA,74951.1,3713.96135162,N,13701.56642519,E,4,7.0,1.4,93.206,M,36.771,M,3.1,0000*73,37.232689193666666,137.02610708650002,679734.3393708164,4122609.1071911445
894,[2021-02-22 16:49:51.580] $GPGGA,74951.2,3713.96134939,N,13701.56642525,E,4,7.0,1.4,93.206,M,36.771,M,2.2,0000*7A,37.2326891565,137.02610708749998,679734.3395478043,4122609.1030691653
896,[2021-02-22 16:49:51.674] $GPGGA,74951.3,3713.9613495,N,13701.56642834,E,4,7.0,1.4,93.205,M,36.771,M,2.3,0000*7B,37.23268915833333,137.02610713900003,679734.344112493,4122609.1033703866
898,[2021-02-22 16:49:51.784] $GPGGA,74951.4,3713.96134849,N,13701.56642599,E,4,7.0,1.4,93.199,M,36.771,M,2.4,0000*7E,37.2326891415,137.02610709983335,679734.3406776369,4122609.1014282424
900,[2021-02-22 16:49:51.877] $GPGGA,74951.5,3713.96134872,N,13701.56642362,E,4,7.0,1.4,93.198,M,36.771,M,2.5,0000*75,37.23268914533334,137.02610706033332,679734.3371641205,4122609.1017785626
902,[2021-02-22 16:49:51.987] $GPGGA,74951.6,3713.96134742,N,13701.56642299,E,4,7.0,1.4,93.200,M,36.771,M,2.6,0000*7E,37.23268912366666,137.0261070498333,679734.3362840274,4122609.099354568
904,[2021-02-22 16:49:52.080] $GPGGA,74951.7,3713.96134891,N,13701.56642415,E,4,7.0,1.4,93.201,M,36.771,M,2.7,0000*7C,37.2326891485,137.02610706916664,679734.3379402842,4122609.1021466986
906,[2021-02-22 16:49:52.190] $GPGGA,74951.8,3713.96134729,N,13701.56642415,E,4,7.0,1.4,93.197,M,36.771,M,2.8,0000*7C,37.2326891215,137.02610706916664,679734.3380044099,4122609.099150878
908,[2021-02-22 16:49:52.284] $GPGGA,74951.9,3713.96134623,N,13701.56642433,E,4,7.0,1.4,93.200,M,36.771,M,2.9,0000*7E,37.23268910383333,137.02610707216667,679734.3383125286,4122609.097196346
910,[2021-02-22 16:49:52.393] $GPGGA,74952.0,3713.96134703,N,13701.56642125,E,4,7.0,1.4,93.202,M,36.771,M,3.0,0000*7F,37.232689117166665,137.0261070208333,679734.3337266092,4122609.0985782794
912,[2021-02-22 16:49:52.471] $GPGGA,74952.1,3713.96134511,N,13701.56641886,E,4,7.0,1.4,93.202,M,36.771,M,3.1,0000*7D,37.23268908516666,137.026106981,679734.3302686302,4122609.094952031
914,[2021-02-22 16:49:52.580] $GPGGA,74952.2,3713.96134988,N,13701.56642383,E,4,7.0,1.4,93.200,M,36.771,M,2.2,0000*7F,37.232689164666674,137.0261070638333,679734.337428719,4122609.103930366
916,[2021-02-22 16:49:52.674] $GPGGA,74952.3,3713.96135068,N,13701.56642259,E,4,7.0,1.4,93.205,M,36.771,M,2.3,0000*7A,37.23268917800001,137.02610704316666,679734.335563525,4122609.105370538
918,[2021-02-22 16:49:52.784] $GPGGA,74952.4,3713.96134925,N,13701.5664246,E,4,7.0,1.4,93.199,M,36.771,M,2.4,0000*71,37.232689154166664,137.02610707666668,679734.3385922244,4122609.102789695
920,[2021-02-22 16:49:52.877] $GPGGA,74952.5,3713.96135043,N,13701.56642329,E,4,7.0,1.4,93.195,M,36.771,M,2.5,0000*7F,37.232689173833336,137.02610705483335,679734.3366084795,4122609.104930375
922,[2021-02-22 16:49:52.987] $GPGGA,74952.6,3713.96135186,N,13701.56642349,E,4,7.0,1.4,93.203,M,36.771,M,2.6,0000*7D,37.232689197666666,137.02610705816664,679734.3368476022,4122609.1075811647
924,[2021-02-22 16:49:53.080] $GPGGA,74952.7,3713.96135222,N,13701.56642217,E,4,7.0,1.4,93.200,M,36.771,M,2.7,0000*79,37.232689203666666,137.02610703616668,679734.3348815321,4122609.1082051243
926,[2021-02-22 16:49:53.190] $GPGGA,74952.8,3713.96135187,N,13701.56642079,E,4,7.0,1.4,93.205,M,36.771,M,2.8,0000*7A,37.232689197833324,137.0261070131667,679734.3328548481,4122609.1075142003
928,[2021-02-22 16:49:53.283] $GPGGA,74952.9,3713.96135333,N,13701.56642382,E,4,7.0,1.4,93.196,M,36.771,M,2.9,0000*79,37.23268922216667,137.02610706366667,679734.3372773712,4122609.1103100404
930,[2021-02-22 16:49:53.393] $GPGGA,74953.0,3713.96135222,N,13701.5664253,E,4,7.0,1.4,93.195,M,36.771,M,3.0,0000*74,37.232689203666666,137.0261070883333,679734.3395097147,4122609.108304191
932,[2021-02-22 16:49:53.471] $GPGGA,74953.1,3713.96134959,N,13701.56642382,E,4,7.0,1.4,93.200,M,36.771,M,3.1,0000*72,37.232689159833335,137.02610706366667,679734.3374254145,4122609.10339376
934,[2021-02-22 16:49:53.580] $GPGGA,74953.2,3713.9613514,N,13701.56642517,E,4,8.0,1.3,93.207,M,36.771,M,2.2,0000*77,37.232689189999995,137.02610708616666,679734.3393499504,4122609.1067836722
936,[2021-02-22 16:49:53.674] $GPGGA,74953.3,3713.96135231,N,13701.56642566,E,4,8.0,1.3,93.210,M,36.771,M,2.3,0000*72,37.23268920516667,137.02610709433333,679734.3400384675,4122609.108482019
938,[2021-02-22 16:49:53.783] $GPGGA,74953.4,3713.96134921,N,13701.56642644,E,4,8.0,1.3,93.214,M,36.771,M,2.4,0000*7E,37.232689153500004,137.02610710733336,679734.3413145307,4122609.102773961
940,[2021-02-22 16:49:53.877] $GPGGA,74953.5,3713.96135047,N,13701.56642789,E,4,8.0,1.3,93.216,M,36.771,M,2.5,0000*74,37.2326891745,137.0261071315,679734.3434087003,4122609.1051499387
942,[2021-02-22 16:49:53.987] $GPGGA,74953.6,3713.96135053,N,13701.56642894,E,4,8.0,1.3,93.209,M,36.771,M,2.6,0000*7C,37.2326891755,137.02610714899996,679734.3449589065,4122609.105294128
944,[2021-02-22 16:49:54.080] $GPGGA,74953.7,3713.9613522,N,13701.56642934,E,4,8.0,1.3,93.213,M,36.771,M,2.7,0000*7A,37.23268920333333,137.02610715566666,679734.3454842678,4122609.1083950726
946,[2021-02-22 16:49:54.190] $GPGGA,74953.8,3713.96135061,N,13701.56642782,E,4,8.0,1.3,93.209,M,36.771,M,2.8,0000*75,37.23268917683333,137.02610713033334,679734.3432996541,4122609.1054066215
948,[2021-02-22 16:49:54.283] $GPGGA,74953.9,3713.96135029,N,13701.56643017,E,4,8.0,1.3,93.213,M,36.771,M,2.9,0000*78,37.232689171500006,137.02610716949997,679734.346787152,4122609.104889233
950,[2021-02-22 16:49:54.393] $GPGGA,74954.0,3713.96134952,N,13701.56643029,E,4,8.0,1.3,93.215,M,36.771,M,3.0,0000*71,37.23268915866667,137.0261071715,679734.346995073,4122609.1034690915
952,[2021-02-22 16:49:54.486] $GPGGA,74954.1,3713.96135038,N,13701.56642944,E,4,8.0,1.3,93.210,M,36.771,M,3.1,0000*73,37.232689173,137.0261071573333,679734.3457041729,4122609.1050325623
954,[2021-02-22 16:49:54.580] $GPGGA,74954.2,3713.96135148,N,13701.56643146,E,4,8.0,1.3,93.213,M,36.771,M,3.2,0000*7D,37.23268919133333,137.026107191,679734.3486475114,4122609.107130696
956,[2021-02-22 16:49:54.674] $GPGGA,74954.3,3713.96135121,N,13701.56643146,E,4,8.0,1.3,93.209,M,36.771,M,3.3,0000*79,37.23268918683333,137.026107191,679734.3486581991,4122609.1066313935
958,[2021-02-22 16:49:54.783] $GPGGA,74954.4,3713.96134987,N,13701.56642984,E,4,8.0,1.3,93.212,M,36.771,M,3.4,0000*71,37.2326891645,137.026107164,679734.3463158223,4122609.1041020937
960,[2021-02-22 16:49:54.877] $GPGGA,74954.5,3713.9613527,N,13701.56643138,E,4,8.0,1.3,93.209,M,36.771,M,3.5,0000*77,37.23268921166667,137.0261071896667,679734.348480931,4122609.1093842774
962,[2021-02-22 16:49:54.987] $GPGGA,74954.6,3713.96135091,N,13701.56642925,E,4,8.0,1.3,93.209,M,36.771,M,3.6,0000*7F,37.23268918183334,137.02610715416665,679734.3454022498,4122609.106006664
964,[2021-02-22 16:49:55.080] $GPGGA,74954.7,3713.96135038,N,13701.56643181,E,4,8.0,1.3,93.204,M,36.771,M,3.7,0000*76,37.232689173,137.02610719683332,679734.3492085829,4122609.1051075743
966,[2021-02-22 16:49:55.190] $GPGGA,74954.8,3713.96134874,N,13701.56643015,E,4,8.0,1.3,93.220,M,36.771,M,3.8,0000*7D,37.23268914566666,137.0261071691667,679734.3468189393,4122609.102022227
968,[2021-02-22 16:49:55.283] $GPGGA,74954.9,3713.96135256,N,13701.56642976,E,4,8.0,1.3,93.203,M,36.771,M,3.9,0000*7A,37.23268920933333,137.02610716266665,679734.3460910493,4122609.109074105
970,[2021-02-22 16:49:55.393] $GPGGA,74955.0,3713.96135089,N,13701.5664313,E,4,8.0,1.3,93.206,M,36.771,M,4.0,0000*72,37.2326891815,137.02610718833333,679734.3484342825,4122609.1060345625
972,[2021-02-22 16:49:55.486] $GPGGA,74955.1,3713.96135105,N,13701.56642468,E,4,8.0,1.3,93.207,M,36.771,M,4.1,0000*7F,37.23268918416667,137.02610707800002,679734.3386392664,4122609.1061209184
974,[2021-02-22 16:49:55.580] $GPGGA,74955.2,3713.9613492,N,13701.56642778,E,4,8.0,1.3,93.209,M,36.771,M,4.2,0000*7D,37.232689153333325,137.02610712966666,679734.3432963185,4122609.1027978794
976,[2021-02-22 16:49:55.674] $GPGGA,74955.3,3713.96135038,N,13701.56642614,E,4,8.0,1.3,93.208,M,36.771,M,4.3,0000*76,37.232689173,137.02610710233333,679734.3408246187,4122609.1049281145
978,[2021-02-22 16:49:55.783] $GPGGA,74955.4,3713.9613493,N,13701.56642491,E,4,8.0,1.3,93.208,M,36.771,M,4.4,0000*79,37.232689154999996,137.02610708183332,679734.3390486236,4122609.102891971
980,[2021-02-22 16:49:55.877] $GPGGA,74955.5,3713.96134839,N,13701.56642525,E,4,8.0,1.3,93.200,M,36.771,M,4.5,0000*77,37.23268913983333,137.02610708749998,679734.3395873881,4122609.101219893
982,[2021-02-22 16:49:55.986] $GPGGA,74955.6,3713.96134746,N,13701.5664212,E,4,8.0,1.3,93.209,M,36.771,M,4.6,0000*78,37.232689124333326,137.02610701999998,679734.3336356557,4122609.0993718836
984,[2021-02-22 16:49:56.080] $GPGGA,74955.7,3713.96135009,N,13701.56642545,E,4,8.0,1.3,93.201,M,36.771,M,4.7,0000*7A,37.232689168166665,137.02610709083334,679734.3398158278,4122609.104369987
986,[2021-02-22 16:49:56.190] $GPGGA,74955.8,3713.9613507,N,13701.56642317,E,4,8.0,1.3,93.203,M,36.771,M,4.8,0000*77,37.23268917833333,137.0261070528333,679734.3364203505,4122609.10542588
988,[2021-02-22 16:49:56.283] $GPGGA,74955.9,3713.96134971,N,13701.56642279,E,4,8.0,1.3,93.202,M,36.771,M,2.9,0000*70,37.232689161833335,137.02610704650002,679734.3358976532,4122609.1035830723
990,[2021-02-22 16:49:56.393] $GPGGA,74956.0,3713.96134906,N,13701.56642238,E,4,8.0,1.3,93.200,M,36.771,M,3.0,0000*75,37.232689150999995,137.02610703966667,679734.3353171349,4122609.102368068
992,[2021-02-22 16:49:56.486] $GPGGA,74956.1,3713.96134848,N,13701.56642139,E,4,8.0,1.3,93.189,M,36.771,M,3.1,0000*7E,37.23268914133334,137.02610702316667,679734.3338762263,4122609.1012641573
994,[2021-02-22 16:49:56.580] $GPGGA,74956.2,3713.96134819,N,13701.56641928,E,4,8.0,1.3,93.207,M,36.771,M,3.2,0000*74,37.2326891365,137.02610698799998,679734.3307677438,4122609.100661085
996,[2021-02-22 16:49:56.674] $GPGGA,74956.3,3713.96134844,N,13701.56642071,E,4,8.0,1.3,93.196,M,36.771,M,3.3,0000*71,37.23268914066667,137.02610701183335,679734.3328723253,4122609.101168664
998,[2021-02-22 16:49:56.783] $GPGGA,74956.4,3713.96134606,N,13701.56642078,E,4,8.0,1.3,93.198,M,36.771,M,3.4,0000*7E,37.23268910099999,137.026107013,679734.3330700393,4122609.0967696095
1000,[2021-02-22 16:49:56.877] $GPGGA,74956.5,3713.96134856,N,13701.56641751,E,4,8.0,1.3,93.191,M,36.771,M,3.5,0000*73,37.23268914266666,137.0261069585,679734.328135886,4122609.1012892937
1002,[2021-02-22 16:49:56.986] $GPGGA,74956.6,3713.96134855,N,13701.56642056,E,4,8.0,1.3,93.209,M,36.771,M,2.6,0000*70,37.2326891425,137.02610700933337,679734.3326461761,4122609.101367336
1004,[2021-02-22 16:49:57.080] $GPGGA,74956.7,3713.96134809,N,13701.56641915,E,4,8.0,1.3,93.207,M,36.771,M,2.7,0000*7A,37.23268913483333,137.02610698583334,679734.3305794792,4122609.1004720423
1006,[2021-02-22 16:49:57.189] $GPGGA,74956.8,3713.96134822,N,13701.5664229,E,4,8.0,1.3,93.201,M,36.771,M,2.8,0000*70,37.23268913700001,137.0261070483333,679734.3361192816,4122609.100831139
1008,[2021-02-22 16:49:57.283] $GPGGA,74956.9,3713.96134914,N,13701.56642137,E,4,8.0,1.3,93.197,M,36.771,M,2.9,0000*76,37.23268915233333,137.02610702283334,679734.333820529,4122609.102484043
1010,[2021-02-22 16:49:57.393] $GPGGA,74957.0,3713.9613475,N,13701.56642252,E,4,8.0,1.3,93.202,M,36.771,M,3.0,0000*77,37.23268912500001,137.026107042,679734.3355858967,4122609.0994876344
1012,[2021-02-22 16:49:57.486] $GPGGA,74957.1,3713.96135017,N,13701.56642321,E,4,8.0,1.3,93.207,M,36.771,M,3.1,0000*72,37.2326891695,137.0261070535,679734.3365004784,4122609.1044470314
1014,[2021-02-22 16:49:57.580] $GPGGA,74957.2,3713.9613474,N,13701.56642516,E,4,8.0,1.3,93.200,M,36.771,M,3.2,0000*73,37.23268912333334,137.02610708599997,679734.3394934948,4122609.0993862655
1016,[2021-02-22 16:49:57.674] $GPGGA,74957.3,3713.9613482,N,13701.56642501,E,4,8.0,1.3,93.202,M,36.771,M,3.3,0000*7E,37.23268913666667,137.0261070835,679734.3392400328,4122609.1008609366
1018,[2021-02-22 16:49:57.783] $GPGGA,74957.4,3713.96134819,N,13701.566425,E,4,8.0,1.3,93.209,M,36.771,M,2.4,0000*7F,37.2326891365,137.02610708333336,679734.339225645,4122609.100842126
1020,[2021-02-22 16:49:57.877] $GPGGA,74957.5,3713.9613465,N,13701.56642834,E,4,8.0,1.3,93.210,M,36.771,M,2.5,0000*7E,37.23268910833334,137.02610713900003,679734.3442312443,4122609.0978225693
1022,[2021-02-22 16:49:57.986] $GPGGA,74957.6,3713.96134637,N,13701.566426,E,4,8.0,1.3,93.215,M,36.771,M,2.6,0000*73,37.23268910616666,137.0261071,679734.3407763382,4122609.0975081
1024,[2021-02-22 16:49:58.080] $GPGGA,74957.7,3713.96134591,N,13701.566427,E,4,8.0,1.3,93.209,M,36.771,M,2.7,0000*70,37.232689098499996,137.02610711666668,679734.3422732023,4122609.0966890855
1026,[2021-02-22 16:49:58.189] $GPGGA,74957.8,3713.96134611,N,13701.56642619,E,4,8.0,1.3,93.203,M,36.771,M,2.8,0000*78,37.23268910183333,137.02610710316668,679734.3410675761,4122609.097033302
1028,[2021-02-22 16:49:58.283] $GPGGA,74957.9,3713.96134478,N,13701.56642456,E,4,8.0,1.3,93.218,M,36.771,M,2.9,0000*76,37.23268907966667,137.026107076,679734.3387100152,4122609.0945221796
1030,[2021-02-22 16:49:58.393] $GPGGA,74958.0,3713.96134541,N,13701.5664254,E,4,8.0,1.3,93.217,M,36.771,M,3.0,0000*7A,37.232689090166666,137.02610709,679734.3399271471,4122609.095713808
1032,[2021-02-22 16:49:58.486] $GPGGA,74958.1,3713.96134602,N,13701.5664201,E,4,8.0,1.3,93.227,M,36.771,M,3.1,0000*7D,37.232689100333324,137.02610700166665,679734.3320661361,4122609.0966741145
1034,[2021-02-22 16:49:58.580] $GPGGA,74958.2,3713.96134557,N,13701.56642503,E,4,8.0,1.3,93.214,M,36.771,M,3.2,0000*79,37.23268909283333,137.02610708383335,679734.3393737148,4122609.0959979803
1036,[2021-02-22 16:49:58.674] $GPGGA,74958.3,3713.96134594,N,13701.56642443,E,4,8.0,1.3,93.210,M,36.771,M,2.3,0000*76,37.23268909899999,137.02610707383334,679734.3384718751,4122609.0966632203
1038,[2021-02-22 16:49:58.783] $GPGGA,74958.4,3713.96134738,N,13701.56642791,E,4,8.0,1.3,93.208,M,36.771,M,2.4,0000*77,37.23268912299999,137.02610713183336,679734.3435605885,4122609.099436318
1040,[2021-02-22 16:49:58.877] $GPGGA,74958.5,3713.96134817,N,13701.56642873,E,4,8.0,1.3,93.204,M,36.771,M,2.5,0000*7A,37.23268913616666,137.02610714550002,679734.3447418129,4122609.100923197
1042,[2021-02-22 16:49:58.986] $GPGGA,74958.6,3713.96134553,N,13701.56642777,E,4,8.0,1.3,93.210,M,36.771,M,2.6,0000*79,37.232689092166666,137.02610712950002,679734.3434268072,4122609.096010734
1044,[2021-02-22 16:49:59.080] $GPGGA,74958.7,3713.96134667,N,13701.56642723,E,4,8.0,1.3,93.209,M,36.771,M,2.7,0000*74,37.232689111166664,137.0261071205,679734.3425832065,4122609.098101812
1046,[2021-02-22 16:49:59.189] $GPGGA,74958.8,3713.96134517,N,13701.56642727,E,4,8.0,1.3,93.207,M,36.771,M,2.8,0000*7A,37.232689086166666,137.0261071211667,679734.3427017308,4122609.0953291696
1048,[2021-02-22 16:49:59.283] $GPGGA,74958.9,3713.96134578,N,13701.5664287,E,4,8.0,1.3,93.206,M,36.771,M,2.9,0000*7F,37.23268909633334,137.026107145,679734.3447920554,4122609.0965024857
1050,[2021-02-22 16:49:59.392] $GPGGA,74959.0,3713.96134516,N,13701.56642861,E,4,8.0,1.3,93.202,M,36.771,M,3.0,0000*73,37.232689086,137.02610714349998,679734.3446835185,4122609.095353088
1052,[2021-02-22 16:49:59.486] $GPGGA,74959.1,3713.96134534,N,13701.5664281,E,4,8.0,1.3,93.208,M,36.771,M,3.1,0000*7F,37.232689089000004,137.026107135,679734.3439222808,4122609.0956698162
1054,[2021-02-22 16:49:59.580] $GPGGA,74959.2,3713.96134726,N,13701.56642685,E,4,8.0,1.3,93.212,M,36.771,M,2.2,0000*76,37.23268912099999,137.0261071141667,679734.341997967,4122609.099180855
1056,[2021-02-22 16:49:59.674] $GPGGA,74959.3,3713.96134481,N,13701.5664253,E,4,8.0,1.3,93.213,M,36.771,M,2.3,0000*74,37.232689080166665,137.0261070883333,679734.3398030304,4122609.09460108
1058,[2021-02-22 16:49:59.783] $GPGGA,74959.4,3713.96134509,N,13701.56642649,E,4,8.0,1.3,93.208,M,36.771,M,2.4,0000*72,37.23268908483333,137.02610710816668,679734.3415515483,4122609.0951565397
1060,[2021-02-22 16:49:59.877] $GPGGA,74959.5,3713.96134611,N,13701.56642601,E,4,8.0,1.3,93.208,M,36.771,M,2.5,0000*74,37.23268910183333,137.02610710016668,679734.3408014183,4122609.097027605
1062,[2021-02-22 16:49:59.986] $GPGGA,74959.6,3713.9613453,N,13701.56642508,E,4,8.0,1.3,93.205,M,36.771,M,2.6,0000*73,37.23268908833334,137.02610708466668,679734.3394583325,4122609.09550026
1064,[2021-02-22 16:50:00.080] $GPGGA,74959.7,3713.96134501,N,13701.56642472,E,4,8.0,1.3,93.215,M,36.771,M,2.7,0000*7C,37.2326890835,137.02610707866666,679734.3389374942,4122609.094952577
1066,[2021-02-22 16:50:00.189] $GPGGA,74959.8,3713.96134523,N,13701.5664258,E,4,8.0,1.3,93.208,M,36.771,M,2.8,0000*7C,37.23268908716666,137.02610709666664,679734.3405257296,4122609.095393599
1068,[2021-02-22 16:50:00.283] $GPGGA,74959.9,3713.96134556,N,13701.56642476,E,4,8.0,1.3,93.202,M,36.771,M,2.9,0000*7C,37.23268909266667,137.02610707933334,679734.3389748718,4122609.095970943
1070,[2021-02-22 16:50:00.392] $GPGGA,75000.0,3713.96134519,N,13701.56642308,E,4,8.0,1.3,93.212,M,36.771,M,3.0,0000*7D,37.232689086499995,137.0261070513333,679734.3365053758,4122609.0952335373
1072,[2021-02-22 16:50:00.486] $GPGGA,75000.1,3713.96134686,N,13701.56642502,E,4,8.0,1.3,93.206,M,36.771,M,3.1,0000*71,37.23268911433334,137.0261070836667,679734.3393078633,4122609.0983832264
1074,[2021-02-22 16:50:00.580] $GPGGA,75000.2,3713.96134471,N,13701.56642458,E,4,8.0,1.3,93.203,M,36.771,M,3.2,0000*70,37.23268907850001,137.02610707633332,679734.338742358,4122609.094393364
1076,[2021-02-22 16:50:00.674] $GPGGA,75000.3,3713.96134656,N,13701.56642626,E,4,8.0,1.3,93.203,M,36.771,M,2.3,0000*7D,37.232689109333336,137.02610710433336,679734.3411532701,4122609.097867692
1078,[2021-02-22 16:50:00.783] $GPGGA,75000.4,3713.96134704,N,13701.56642618,E,4,8.0,1.3,93.202,M,36.771,M,2.4,0000*77,37.23268911733334,137.026107103,679734.3410159749,4122609.09875281
1080,[2021-02-22 16:50:00.877] $GPGGA,75000.5,3713.96134725,N,13701.56642739,E,4,8.0,1.3,93.210,M,36.771,M,2.5,0000*75,37.232689120833335,137.02610712316667,679734.3427968335,4122609.099179454
1082,[2021-02-22 16:50:00.986] $GPGGA,75000.6,3713.9613451,N,13701.56642551,E,4,8.0,1.3,93.205,M,36.771,M,2.6,0000*79,37.232689085000004,137.02610709183335,679734.3401020714,4122609.0951440153
1084,[2021-02-22 16:50:01.080] $GPGGA,75000.7,3713.96134667,N,13701.56642622,E,4,8.0,1.3,93.198,M,36.771,M,2.7,0000*7A,37.232689111166664,137.02610710366667,679734.3410897672,4122609.0980698457
1086,[2021-02-22 16:50:01.189] $GPGGA,75000.8,3713.96134489,N,13701.56642617,E,4,8.0,1.3,93.201,M,36.771,M,2.8,0000*7D,37.2326890815,137.02610710283335,679734.3410862961,4122609.0947765564
1088,[2021-02-22 16:50:01.283] $GPGGA,75000.9,3713.96134612,N,13701.5664251,E,4,8.0,1.3,93.194,M,36.771,M,2.9,0000*76,37.232689102,137.026107085,679734.3394554481,4122609.0970172966
1090,[2021-02-22 16:50:01.392] $GPGGA,75001.0,3713.96134503,N,13701.56642345,E,4,8.0,1.3,93.207,M,36.771,M,3.0,0000*7A,37.23268908383333,137.0261070575,679734.3370588174,4122609.0949493656
1092,[2021-02-22 16:50:01.486] $GPGGA,75001.1,3713.96134601,N,13701.56642505,E,4,8.0,1.3,93.201,M,36.771,M,3.1,0000*7F,37.23268910016667,137.02610708416663,679734.3393858655,4122609.0968122934
1094,[2021-02-22 16:50:01.580] $GPGGA,75001.2,3713.96134512,N,13701.56642196,E,4,8.0,1.3,93.209,M,36.771,M,2.2,0000*79,37.232689085333334,137.0261070326667,679734.3348520611,4122609.0950686405
1096,[2021-02-22 16:50:01.674] $GPGGA,75001.3,3713.96134557,N,13701.56642144,E,4,8.0,1.3,93.208,M,36.771,M,2.3,0000*76,37.23268909283333,137.026107024,679734.3340653474,4122609.095884355
1098,[2021-02-22 16:50:01.783] $GPGGA,75001.4,3713.96134517,N,13701.56642101,E,4,8.0,1.3,93.210,M,36.771,M,2.4,0000*7A,37.232689086166666,137.02610701683332,679734.3334453588,4122609.095131037
1100,[2021-02-22 16:50:01.877] $GPGGA,75001.5,3713.96134529,N,13701.56641917,E,4,8.0,1.3,93.214,M,36.771,M,2.5,0000*7F,37.232689088166666,137.0261069861667,679734.3307198903,4122609.095294712
1102,[2021-02-22 16:50:01.986] $GPGGA,75001.6,3713.96134615,N,13701.56642199,E,4,8.0,1.3,93.209,M,36.771,M,2.6,0000*72,37.2326891025,137.02610703316668,679734.3348556479,4122609.096974341
1104,[2021-02-22 16:50:02.080] $GPGGA,75001.7,3713.96134491,N,13701.56642213,E,4,8.0,1.3,93.216,M,36.771,M,2.7,0000*73,37.23268908183334,137.0261070355,679734.3351117431,4122609.0946856746
1106,[2021-02-22 16:50:02.189] $GPGGA,75001.8,3713.96134391,N,13701.56641953,E,4,8.0,1.3,93.210,M,36.771,M,2.8,0000*7E,37.23268906516666,137.02610699216666,679734.3313068267,4122609.0927541093
1108,[2021-02-22 16:50:02.283] $GPGGA,75001.9,3713.96134381,N,13701.56641928,E,4,8.0,1.3,93.215,M,36.771,M,2.9,0000*76,37.2326890635,137.02610698799998,679734.3309411206,4122609.0925612696
1110,[2021-02-22 16:50:02.392] $GPGGA,75002.0,3713.96134383,N,13701.56641882,E,4,8.0,1.3,93.216,M,36.771,M,3.0,0000*74,37.23268906383333,137.02610698033337,679734.3302601533,4122609.0925836954
1112,[2021-02-22 16:50:02.486] $GPGGA,75002.1,3713.96134379,N,13701.56642058,E,4,8.0,1.3,93.212,M,36.771,M,3.1,0000*79,37.23268906316666,137.02610700966665,679734.3328641624,4122609.092565429
1114,[2021-02-22 16:50:02.580] $GPGGA,75002.2,3713.96134397,N,13701.56641801,E,4,8.0,1.3,93.215,M,36.771,M,3.2,0000*79,37.232689066166664,137.02610696683334,679734.3290568998,4122609.092816957
1116,[2021-02-22 16:50:02.673] $GPGGA,75002.3,3713.96134746,N,13701.56641842,E,4,8.0,1.3,93.208,M,36.771,M,2.3,0000*7B,37.232689124333326,137.02610697366669,679734.3295250025,4122609.0992838955
1118,[2021-02-22 16:50:02.783] $GPGGA,75002.4,3713.96134746,N,13701.56642266,E,4,8.0,1.3,93.210,M,36.771,M,2.4,0000*7D,37.232689124333326,137.02610704433332,679734.3357944891,4122609.099418094
1120,[2021-02-22 16:50:02.877] $GPGGA,75002.5,3713.96134691,N,13701.56642247,E,4,8.0,1.3,93.205,M,36.771,M,2.5,0000*71,37.232689115166664,137.02610704116668,679734.3355353188,4122609.098394981
1122,[2021-02-22 16:50:02.986] $GPGGA,75002.6,3713.96134748,N,13701.56642135,E,4,8.0,1.3,93.210,M,36.771,M,2.6,0000*76,37.23268912466667,137.0261070225,679734.3338566637,4122609.0994136194
1124,[2021-02-22 16:50:03.080] $GPGGA,75002.7,3713.96134885,N,13701.56642226,E,4,8.0,1.3,93.214,M,36.771,M,2.7,0000*7D,37.2326891475,137.0261070376667,679734.3351480105,4122609.101975924
1126,[2021-02-22 16:50:03.189] $GPGGA,75002.8,3713.96134711,N,13701.56642436,E,4,8.0,1.3,93.211,M,36.771,M,2.8,0000*7D,37.2326891185,137.0261070726667,679734.3383220575,4122609.0988246542
1128,[2021-02-22 16:50:03.283] $GPGGA,75002.9,3713.96134822,N,13701.56642542,E,4,8.0,1.3,93.211,M,36.771,M,2.9,0000*70,37.23268913700001,137.02610709033334,679734.3398454911,4122609.1009108988
1130,[2021-02-22 16:50:03.392] $GPGGA,75003.0,3713.96134886,N,13701.56642556,E,4,8.0,1.3,93.211,M,36.771,M,3.0,0000*7B,37.23268914766666,137.02610709266668,679734.3400271689,4122609.102098863
1132,[2021-02-22 16:50:03.486] $GPGGA,75003.1,3713.96134902,N,13701.56642625,E,4,8.0,1.3,93.217,M,36.771,M,3.1,0000*77,37.23268915033333,137.02610710416667,679734.3410411058,4122609.102416585
1134,[2021-02-22 16:50:03.580] $GPGGA,75003.2,3713.96134865,N,13701.56642385,E,4,8.0,1.3,93.217,M,36.771,M,2.2,0000*79,37.23268914416667,137.02610706416667,679734.3375069837,4122609.1016563945
1136,[2021-02-22 16:50:03.673] $GPGGA,75003.3,3713.96134842,N,13701.56642521,E,4,8.0,1.3,93.216,M,36.771,M,2.3,0000*75,37.23268914033333,137.02610708683335,679734.3395270564,4122609.101274105
1138,[2021-02-22 16:50:03.783] $GPGGA,75003.4,3713.96134904,N,13701.56642484,E,4,8.0,1.3,93.211,M,36.771,M,2.4,0000*7F,37.23268915066667,137.0261070806667,679734.3389554154,4122609.102408944
1140,[2021-02-22 16:50:03.876] $GPGGA,75003.5,3713.96134811,N,13701.56642431,E,4,8.0,1.3,93.217,M,36.771,M,2.5,0000*72,37.232689135166666,137.0261070718333,679734.3382085367,4122609.1006723456
1142,[2021-02-22 16:50:03.986] $GPGGA,75003.6,3713.96134604,N,13701.56642534,E,4,8.0,1.3,93.218,M,36.771,M,2.6,0000*73,37.23268910066667,137.026107089,679734.3398134888,4122609.0968769514
1144,[2021-02-22 16:50:04.080] $GPGGA,75003.7,3713.96134743,N,13701.5664249,E,4,8.0,1.3,93.219,M,36.771,M,2.7,0000*7F,37.23268912383333,137.02610708166665,679734.3391078592,4122609.099433513
1146,[2021-02-22 16:50:04.189] $GPGGA,75003.8,3713.96135042,N,13701.56642598,E,4,8.0,1.3,93.214,M,36.771,M,2.8,0000*7C,37.232689173666664,137.02610709966666,679734.3405864497,4122609.104997022
1148,[2021-02-22 16:50:04.283] $GPGGA,75003.9,3713.96134827,N,13701.56642281,E,4,8.0,1.3,93.215,M,36.771,M,2.9,0000*78,37.23268913783333,137.02610704683335,679734.3359842259,4122609.100920754
1150,[2021-02-22 16:50:04.392] $GPGGA,75004.0,3713.96134838,N,13701.56642434,E,4,8.0,1.3,93.223,M,36.771,M,3.0,0000*7D,37.23268913966666,137.02610707233336,679734.338242214,4122609.101172597
1152,[2021-02-22 16:50:04.486] $GPGGA,75004.1,3713.96134921,N,13701.56641962,E,4,8.0,1.3,93.210,M,36.771,M,3.1,0000*79,37.232689153500004,137.02610699366664,679734.3312301117,4122609.1025581043
1154,[2021-02-22 16:50:04.580] $GPGGA,75004.2,3713.96134885,N,13701.56641835,E,4,8.0,1.3,93.220,M,36.771,M,3.2,0000*76,37.2326891475,137.0261069725,679734.3293664743,4122609.1018521693
1156,[2021-02-22 16:50:04.673] $GPGGA,75004.3,3713.96134754,N,13701.56641991,E,4,8.0,1.3,93.210,M,36.771,M,2.3,0000*78,37.232689125666674,137.0261069985,679734.3317250296,4122609.099478998
1158,[2021-02-22 16:50:04.783] $GPGGA,75004.4,3713.96134687,N,13701.56642225,E,4,8.0,1.3,93.210,M,36.771,M,2.4,0000*70,37.2326891145,137.0261070375,679734.3352115959,4122609.098314047
1160,[2021-02-22 16:50:04.876] $GPGGA,75004.5,3713.96134824,N,13701.5664234,E,4,8.0,1.3,93.213,M,36.771,M,2.5,0000*76,37.23268913733334,137.02610705666663,679734.3368578166,4122609.1008839495
1162,[2021-02-22 16:50:04.986] $GPGGA,75004.6,3713.96134772,N,13701.56642251,E,4,8.0,1.3,93.214,M,36.771,M,2.6,0000*7C,37.23268912866667,137.02610704183334,679734.3355624023,4122609.0998941585
1164,[2021-02-22 16:50:05.080] $GPGGA,75004.7,3713.96134547,N,13701.56642104,E,4,8.0,1.3,93.214,M,36.771,M,2.7,0000*7B,37.23268909116668,137.02610701733332,679734.3334778418,4122609.0956867686
1166,[2021-02-22 16:50:05.189] $GPGGA,75004.8,3713.96134763,N,13701.56642187,E,4,8.0,1.3,93.217,M,36.771,M,2.8,0000*77,37.232689127166665,137.02610703116667,679734.3346196271,4122609.0997074666
1168,[2021-02-22 16:50:05.283] $GPGGA,75004.9,3713.96134616,N,13701.56642183,E,4,8.0,1.3,93.220,M,36.771,M,2.9,0000*74,37.23268910266667,137.02610703050001,679734.3346186688,4122609.0969877695
1170,[2021-02-22 16:50:05.392] $GPGGA,75005.0,3713.96134461,N,13701.5664245,E,4,8.0,1.3,93.212,M,36.771,M,3.0,0000*7C,37.23268907683333,137.02610707500003,679734.3386280282,4122609.094205904
1172,[2021-02-22 16:50:05.486] $GPGGA,75005.1,3713.96134446,N,13701.56642029,E,4,8.0,1.3,93.217,M,36.771,M,3.1,0000*76,37.23268907433334,137.02610700483336,679734.3324088372,4122609.093795265
1174,[2021-02-22 16:50:05.580] $GPGGA,75005.2,3713.96134699,N,13701.56642048,E,4,8.0,1.3,93.212,M,36.771,M,2.2,0000*75,37.2326891165,137.026107008,679734.3325896295,4122609.0984799378
1176,[2021-02-22 16:50:05.673] $GPGGA,75005.3,3713.96134616,N,13701.56641993,E,4,8.0,1.3,93.218,M,36.771,M,2.3,0000*74,37.23268910266667,137.02610699883334,679734.3318092272,4122609.0969276335
1178,[2021-02-22 16:50:05.783] $GPGGA,75005.4,3713.96134759,N,13701.56642168,E,4,8.0,1.3,93.211,M,36.771,M,2.4,0000*78,37.2326891265,137.02610702799998,679734.3343402621,4122609.0996274827
1180,[2021-02-22 16:50:05.876] $GPGGA,75005.5,3713.96134815,N,13701.56642162,E,4,8.0,1.3,93.213,M,36.771,M,2.5,0000*77,37.23268913583333,137.02610702700002,679734.3342293813,4122609.100661176
1182,[2021-02-22 16:50:05.986] $GPGGA,75005.6,3713.96134738,N,13701.56642074,E,4,8.0,1.3,93.214,M,36.771,M,2.6,0000*76,37.23268912299999,137.0261070123333,679734.3329586423,4122609.0992093827
1184,[2021-02-22 16:50:06.079] $GPGGA,75005.7,3713.96134658,N,13701.56642069,E,4,8.0,1.3,93.214,M,36.771,M,2.7,0000*7D,37.23268910966666,137.0261070115,679734.3329163769,4122609.0977283823
1186,[2021-02-22 16:50:06.189] $GPGGA,75005.8,3713.96134902,N,13701.56642143,E,4,8.0,1.3,93.211,M,36.771,M,2.8,0000*71,37.23268915033333,137.0261070238333,679734.3339139929,4122609.10226403
1188,[2021-02-22 16:50:06.283] $GPGGA,75005.9,3713.96134731,N,13701.56642296,E,4,8.0,1.3,93.216,M,36.771,M,2.9,0000*73,37.23268912183333,137.02610704933338,679734.3362440281,4122609.099150199
1190,[2021-02-22 16:50:06.392] $GPGGA,75006.0,3713.96134601,N,13701.56642294,E,4,8.0,1.3,93.220,M,36.771,M,3.0,0000*74,37.23268910016667,137.02610704900002,679734.3362659104,4122609.0967455106
1192,[2021-02-22 16:50:06.486] $GPGGA,75006.1,3713.96134921,N,13701.5664224,E,4,8.0,1.3,93.208,M,36.771,M,3.1,0000*7A,37.232689153500004,137.02610704,679734.3353407693,4122609.102646093
1194,[2021-02-22 16:50:06.579] $GPGGA,75006.2,3713.96134809,N,13701.56642209,E,4,8.0,1.3,93.221,M,36.771,M,3.2,0000*77,37.23268913483333,137.02610703483333,679734.3349267202,4122609.100565095
1196,[2021-02-22 16:50:06.673] $GPGGA,75006.3,3713.96134606,N,13701.56642352,E,4,8.0,1.3,93.204,M,36.771,M,2.3,0000*7F,37.23268910099999,137.02610705866667,679734.3371215506,4122609.096856331
1198,[2021-02-22 16:50:06.783] $GPGGA,75006.4,3713.9613459,N,13701.56642179,E,4,8.0,1.3,93.207,M,36.771,M,2.4,0000*7B,37.23268909833334,137.02610702983333,679734.3345698118,4122609.0965056936
1200,[2021-02-22 16:50:06.876] $GPGGA,75006.5,3713.96134639,N,13701.566422,E,4,8.0,1.3,93.205,M,36.771,M,2.5,0000*74,37.2326891065,137.02610703333332,679734.3348609316,4122609.097418483
1202,[2021-02-22 16:50:06.986] $GPGGA,75006.6,3713.96134706,N,13701.56642235,E,4,8.0,1.3,93.208,M,36.771,M,2.6,0000*72,37.23268911766667,137.02610703916667,679734.3353519421,4122609.0986685744
1204,[2021-02-22 16:50:07.079] $GPGGA,75006.7,3713.96134427,N,13701.56642045,E,4,8.0,1.3,93.204,M,36.771,M,2.7,0000*7B,37.232689071166675,137.02610700750003,679734.3326529413,4122609.093448968
1206,[2021-02-22 16:50:07.189] $GPGGA,75006.8,3713.96134351,N,13701.56642366,E,4,8.0,1.3,93.206,M,36.771,M,2.8,0000*7D,37.23268905850001,137.026107061,679734.3374295004,4122609.092145119
1208,[2021-02-22 16:50:07.283] $GPGGA,75006.9,3713.96134545,N,13701.566422,E,4,8.0,1.3,93.210,M,36.771,M,2.9,0000*78,37.23268909083333,137.02610703333332,679734.3348981403,4122609.095680167
1210,[2021-02-22 16:50:07.392] $GPGGA,75007.0,3713.96134574,N,13701.56642232,E,4,8.0,1.3,93.197,M,36.771,M,3.0,0000*77,37.23268909566667,137.02610703866665,679734.3353598323,4122609.0962265837
1212,[2021-02-22 16:50:07.486] $GPGGA,75007.1,3713.96134555,N,13701.56642002,E,4,8.0,1.3,93.200,M,36.771,M,3.1,0000*78,37.232689092499996,137.02610700033335,679734.3319664521,4122609.095802426
1214,[2021-02-22 16:50:07.579] $GPGGA,75007.2,3713.96134811,N,13701.56642316,E,4,8.0,1.3,93.207,M,36.771,M,2.2,0000*75,37.232689135166666,137.02610705266667,679734.3365080885,4122609.1006359477
1216,[2021-02-22 16:50:07.673] $GPGGA,75007.3,3713.96134661,N,13701.56642202,E,4,8.0,1.3,93.205,M,36.771,M,2.3,0000*7A,37.23268911016667,137.02610703366665,679734.3348817974,4122609.097825957
1218,[2021-02-22 16:50:07.782] $GPGGA,75007.4,3713.96134578,N,13701.56642299,E,4,8.0,1.3,93.202,M,36.771,M,2.4,0000*74,37.23268909633334,137.0261070498333,679734.3363489448,4122609.0963217607
1220,[2021-02-22 16:50:07.876] $GPGGA,75007.5,3713.96134668,N,13701.56642222,E,4,8.0,1.3,93.209,M,36.771,M,2.5,0000*7D,37.232689111333336,137.026107037,679734.3351747587,4122609.0979617364
1222,[2021-02-22 16:50:07.986] $GPGGA,75007.6,3713.96134645,N,13701.56641926,E,4,8.0,1.3,93.206,M,36.771,M,2.6,0000*71,37.2326891075,137.02610698766665,679734.3308070474,4122609.0974427173
1224,[2021-02-22 16:50:08.079] $GPGGA,75007.7,3713.96134704,N,13701.56642164,E,4,8.0,1.3,93.206,M,36.771,M,2.7,0000*78,37.23268911733334,137.02610702733335,679734.3343028913,4122609.0986091164
1226,[2021-02-22 16:50:08.189] $GPGGA,75007.8,3713.96134727,N,13701.56641913,E,4,8.0,1.3,93.210,M,36.771,M,2.8,0000*75,37.232689121166665,137.0261069855,679734.3305823657,4122609.0989550054
1228,[2021-02-22 16:50:08.282] $GPGGA,75007.9,3713.96134705,N,13701.56641934,E,4,8.0,1.3,93.216,M,36.771,M,2.9,0000*76,37.232689117499994,137.026106989,679734.33090159,4122609.098554813
1230,[2021-02-22 16:50:08.392] $GPGGA,75008.0,3713.9613524,N,13701.56641915,E,4,8.0,1.3,93.202,M,36.771,M,3.0,0000*7B,37.23268920666666,137.02610698583334,679734.3304088733,4122609.108442408
1232,[2021-02-22 16:50:08.486] $GPGGA,75008.1,3713.96134917,N,13701.5664171,E,4,8.0,1.3,93.208,M,36.771,M,3.1,0000*72,37.23268915283334,137.02610695166666,679734.3275054899,4122609.102404374
1234,[2021-02-22 16:50:08.579] $GPGGA,75008.2,3713.9613475,N,13701.56641822,E,4,8.0,1.3,93.215,M,36.771,M,3.2,0000*7D,37.23268912500001,137.02610697033333,679734.3292276871,4122609.099351538
1236,[2021-02-22 16:50:08.673] $GPGGA,75008.3,3713.9613471,N,13701.56642258,E,4,8.0,1.3,93.214,M,36.771,M,2.3,0000*7D,37.232689118333326,137.02610704299997,679734.3356904465,4122609.098749824
1238,[2021-02-22 16:50:08.782] $GPGGA,75008.4,3713.96134599,N,13701.5664258,E,4,8.0,1.3,93.209,M,36.771,M,2.4,0000*70,37.232689099833344,137.02610709666664,679734.3404956459,4122609.096799047
1240,[2021-02-22 16:50:08.876] $GPGGA,75008.5,3713.96134457,N,13701.56642372,E,4,8.0,1.3,93.217,M,36.771,M,2.5,0000*77,37.232689076166665,137.02610706199997,679734.3374762578,4122609.0941072456
1242,[2021-02-22 16:50:08.986] $GPGGA,75008.6,3713.96134715,N,13701.56642283,E,4,8.0,1.3,93.218,M,36.771,M,2.6,0000*72,37.232689119166665,137.02610704716665,679734.3360581318,4122609.0988501995
1244,[2021-02-22 16:50:09.079] $GPGGA,75008.7,3713.96134697,N,13701.56642056,E,4,8.0,1.3,93.212,M,36.771,M,2.7,0000*79,37.23268911616666,137.02610700933337,679734.3327087185,4122609.0984454844
1246,[2021-02-22 16:50:09.189] $GPGGA,75008.8,3713.96134609,N,13701.566423,E,4,8.0,1.3,93.213,M,36.771,M,2.8,0000*7F,37.2326891015,137.02610705,679734.3363514622,4122609.096895352
1248,[2021-02-22 16:50:09.282] $GPGGA,75008.9,3713.96134642,N,13701.56642507,E,4,8.0,1.3,93.222,M,36.771,M,2.9,0000*73,37.232689107000006,137.02610708449998,679734.3393992104,4122609.09757113
1250,[2021-02-22 16:50:09.392] $GPGGA,75009.0,3713.96134423,N,13701.56642798,E,4,8.0,1.3,93.215,M,36.771,M,3.0,0000*76,37.23268907050001,137.026107133,679734.3437887818,4122609.093613326
1252,[2021-02-22 16:50:09.485] $GPGGA,75009.1,3713.9613444,N,13701.56642575,E,4,8.0,1.3,93.213,M,36.771,M,3.1,0000*74,37.23268907333333,137.0261070958333,679734.3404846538,4122609.0938571193
1254,[2021-02-22 16:50:09.579] $GPGGA,75009.2,3713.96134931,N,13701.56642796,E,4,8.0,1.3,93.219,M,36.771,M,2.2,0000*7B,37.23268915516667,137.02610713266668,679734.3435581243,4122609.103006998
1256,[2021-02-22 16:50:09.673] $GPGGA,75009.3,3713.96134856,N,13701.56642809,E,4,8.0,1.3,93.217,M,36.771,M,2.3,0000*7C,37.23268914266666,137.02610713483335,679734.3437800374,4122609.101624157
1258,[2021-02-22 16:50:09.782] $GPGGA,75009.4,3713.9613508,N,13701.56642805,E,4,8.0,1.3,93.210,M,36.771,M,2.4,0000*75,37.23268918000001,137.02610713416666,679734.343632221,4122609.1057652635
1260,[2021-02-22 16:50:09.876] $GPGGA,75009.5,3713.96134813,N,13701.56643009,E,4,8.0,1.3,93.224,M,36.771,M,2.5,0000*74,37.232689135499996,137.02610716816667,679734.3467543625,4122609.1008922704
1262,[2021-02-22 16:50:09.985] $GPGGA,75009.6,3713.96135422,N,13701.5664304,E,4,8.0,1.3,93.214,M,36.771,M,2.6,0000*75,37.232689237,137.02610717333334,679734.3469716803,4122609.112164154
1264,[2021-02-22 16:50:10.079] $GPGGA,75009.7,3713.96135017,N,13701.56643325,E,4,8.0,1.3,93.216,M,36.771,M,2.7,0000*75,37.2326891695,137.02610722083332,679734.3513461545,4122609.104764804
1266,[2021-02-22 16:50:10.189] $GPGGA,75009.8,3713.96135075,N,13701.56643164,E,4,8.0,1.3,93.221,M,36.771,M,2.8,0000*72,37.23268917916667,137.02610719400002,679734.3489425675,4122609.1057864246
1268,[2021-02-22 16:50:10.282] $GPGGA,75009.9,3713.96134943,N,13701.56643117,E,4,8.0,1.3,93.221,M,36.771,M,2.9,0000*7B,37.23268915716667,137.02610718616666,679734.3482998473,4122609.1033305083
1270,[2021-02-22 16:50:10.392] $GPGGA,75010.0,3713.96134786,N,13701.56643148,E,4,8.0,1.3,93.217,M,36.771,M,3.0,0000*7A,37.232689130999994,137.02610719133335,679734.3488203812,4122609.100436962
1272,[2021-02-22 16:50:10.485] $GPGGA,75010.1,3713.96134852,N,13701.56643092,E,4,8.0,1.3,93.215,M,36.771,M,3.1,0000*78,37.23268914199999,137.02610718199998,679734.3479662042,4122609.101639758
1274,[2021-02-22 16:50:10.579] $GPGGA,75010.2,3713.9613502,N,13701.56643014,E,4,8.0,1.3,93.220,M,36.771,M,3.2,0000*7C,37.23268917000001,137.026107169,679734.3467463565,4122609.104721849
1276,[2021-02-22 16:50:10.673] $GPGGA,75010.3,3713.96134541,N,13701.56642669,E,4,8.0,1.3,93.211,M,36.771,M,2.3,0000*71,37.232689090166666,137.02610711149998,679734.3418346089,4122609.095754638
1278,[2021-02-22 16:50:10.782] $GPGGA,75010.4,3713.96134813,N,13701.56642884,E,4,8.0,1.3,93.206,M,36.771,M,2.4,0000*70,37.232689135499996,137.0261071473333,679734.3449060449,4122609.1008527074
1280,[2021-02-22 16:50:10.876] $GPGGA,75010.5,3713.96134628,N,13701.56642955,E,4,8.0,1.3,93.205,M,36.771,M,2.5,0000*78,37.23268910466667,137.02610715916666,679734.3460291193,4122609.097454026
1282,[2021-02-22 16:50:10.985] $GPGGA,75010.6,3713.96134755,N,13701.56643019,E,4,8.0,1.3,93.206,M,36.771,M,2.6,0000*70,37.23268912583333,137.02610716983332,679734.346925186,4122609.099822857
1284,[2021-02-22 16:50:11.079] $GPGGA,75010.7,3713.96134673,N,13701.56642796,E,4,8.0,1.3,93.209,M,36.771,M,2.7,0000*7B,37.23268911216667,137.02610713266668,679734.3436602504,4122609.098235874
1286,[2021-02-22 16:50:11.189] $GPGGA,75010.8,3713.96134659,N,13701.56642906,E,4,8.0,1.3,93.208,M,36.771,M,2.8,0000*75,37.23268910983333,137.026107151,679734.3452923079,4122609.098011791
1288,[2021-02-22 16:50:11.282] $GPGGA,75010.9,3713.96134733,N,13701.5664295,E,4,8.0,1.3,93.206,M,36.771,M,2.9,0000*75,37.23268912216667,137.02610715833333,679734.3459136242,4122609.09939418
1290,[2021-02-22 16:50:11.392] $GPGGA,75011.0,3713.96134479,N,13701.5664275,E,4,8.0,1.3,93.210,M,36.771,M,3.0,0000*71,37.23268907983334,137.026107125,679734.3430568627,4122609.0946337273
1292,[2021-02-22 16:50:11.485] $GPGGA,75011.1,3713.96134642,N,13701.56642927,E,4,8.0,1.3,93.212,M,36.771,M,3.1,0000*77,37.232689107000006,137.02610715449998,679734.3456095529,4122609.0977040627
1294,[2021-02-22 16:50:11.579] $GPGGA,75011.2,3713.96134922,N,13701.56643256,E,4,8.0,1.3,93.215,M,36.771,M,2.2,0000*74,37.23268915366666,137.02610720933333,679734.3503634911,4122609.102986155
1296,[2021-02-22 16:50:11.673] $GPGGA,75011.3,3713.96134778,N,13701.56643035,E,4,8.0,1.3,93.226,M,36.771,M,2.3,0000*72,37.23268912966666,137.0261071725,679734.3471526672,4122609.100253255
1298,[2021-02-22 16:50:11.782] $GPGGA,75011.4,3713.96134948,N,13701.56643234,E,4,8.0,1.3,93.222,M,36.771,M,2.4,0000*78,37.23268915800001,137.02610720566665,679734.350027893,4122609.103460005
1300,[2021-02-22 16:50:11.876] $GPGGA,75011.5,3713.96134718,N,13701.56642844,E,4,8.0,1.3,93.222,M,36.771,M,2.5,0000*7F,37.23268911966666,137.02610714066668,679734.3443521899,4122609.0990832387
1302,[2021-02-22 16:50:11.985] $GPGGA,75011.6,3713.96134809,N,13701.56643129,E,4,8.0,1.3,93.217,M,36.771,M,2.6,0000*75,37.23268913483333,137.0261071881667,679734.3485303333,4122609.1008562804
1304,[2021-02-22 16:50:12.079] $GPGGA,75011.7,3713.96134747,N,13701.56643059,E,4,8.0,1.3,93.225,M,36.771,M,2.7,0000*77,37.2326891245,137.0261071765,679734.3475198144,4122609.099687576
1306,[2021-02-22 16:50:12.188] $GPGGA,75011.8,3713.9613483,N,13701.56643107,E,4,8.0,1.3,93.217,M,36.771,M,2.8,0000*73,37.23268913833333,137.0261071845,679734.3481967143,4122609.1012376645
1308,[2021-02-22 16:50:12.282] $GPGGA,75011.9,3713.96134888,N,13701.56643045,E,4,8.0,1.3,93.220,M,36.771,M,2.9,0000*73,37.232689148000006,137.02610717416667,679734.3472569899,4122609.1022906224
1310,[2021-02-22 16:50:12.392] $GPGGA,75012.0,3713.96134963,N,13701.56642937,E,4,8.0,1.3,93.216,M,36.771,M,3.0,0000*7D,37.2326891605,137.02610715616663,679734.3456303539,4122609.1036433917
1312,[2021-02-22 16:50:12.485] $GPGGA,75012.1,3713.96134743,N,13701.56643146,E,4,8.0,1.3,93.217,M,36.771,M,3.1,0000*7F,37.23268912383333,137.026107191,679734.3488078257,4122609.099641142
1314,[2021-02-22 16:50:12.579] $GPGGA,75012.2,3713.96135146,N,13701.56643337,E,4,8.0,1.3,93.217,M,36.771,M,3.2,0000*79,37.232689191,137.02610722283336,679734.3514725328,4122609.107154164
1316,[2021-02-22 16:50:12.673] $GPGGA,75012.3,3713.96134781,N,13701.56642932,E,4,8.0,1.3,93.214,M,36.771,M,2.3,0000*79,37.23268913016667,137.02610715533336,679734.3456284684,4122609.100276133
1318,[2021-02-22 16:50:12.782] $GPGGA,75012.4,3713.96134956,N,13701.56643111,E,4,8.0,1.3,93.218,M,36.771,M,2.4,0000*79,37.23268915933334,137.0261071851667,679734.3482059875,4122609.1035690163
1320,[2021-02-22 16:50:12.876] $GPGGA,75012.5,3713.96134821,N,13701.56642766,E,4,8.0,1.3,93.215,M,36.771,M,2.5,0000*72,37.23268913683333,137.02610712766668,679734.3431580695,4122609.1009633015
1322,[2021-02-22 16:50:12.985] $GPGGA,75012.6,3713.96134886,N,13701.56643001,E,4,8.0,1.3,93.224,M,36.771,M,2.6,0000*7A,37.23268914766666,137.0261071668333,679734.3466071713,4122609.102239708
1324,[2021-02-22 16:50:13.079] $GPGGA,75012.7,3713.96134737,N,13701.56643215,E,4,8.0,1.3,93.220,M,36.771,M,2.7,0000*7C,37.232689122833335,137.0261072025,679734.349830471,4122609.0995520256
1326,[2021-02-22 16:50:13.188] $GPGGA,75012.8,3713.96134907,N,13701.56643114,E,4,8.0,1.3,93.226,M,36.771,M,2.8,0000*75,37.23268915116667,137.02610718566666,679734.3482697394,4122609.102663821
1328,[2021-02-22 16:50:13.282] $GPGGA,75012.9,3713.96134879,N,13701.56643039,E,4,8.0,1.3,93.224,M,36.771,M,2.9,0000*71,37.2326891465,137.02610717316665,679734.3471718318,4122609.1021222877
1330,[2021-02-22 16:50:13.391] $GPGGA,75013.0,3713.96134698,N,13701.56643003,E,4,8.0,1.3,93.224,M,36.771,M,3.0,0000*79,37.23268911633334,137.02610716716666,679734.3467111631,4122609.098763709
1332,[2021-02-22 16:50:13.485] $GPGGA,75013.1,3713.96134828,N,13701.56642971,E,4,8.0,1.3,93.214,M,36.771,M,3.1,0000*72,37.232689138000005,137.02610716183332,679734.3461865352,4122609.1011576355
1334,[2021-02-22 16:50:13.579] $GPGGA,75013.2,3713.96134668,N,13701.56643109,E,4,8.0,1.3,93.224,M,36.771,M,2.2,0000*7C,37.232689111333336,137.0261071848333,679734.3482904099,4122609.098242477
1336,[2021-02-22 16:50:13.673] $GPGGA,75013.3,3713.96134883,N,13701.56643069,E,4,8.0,1.3,93.230,M,36.771,M,2.3,0000*75,37.23268914716667,137.02610717816665,679734.3476138454,4122609.1022057533
1338,[2021-02-22 16:50:13.782] $GPGGA,75013.4,3713.9613488,N,13701.56643078,E,4,8.0,1.3,93.229,M,36.771,M,2.4,0000*7E,37.23268914666667,137.02610717966667,679734.3477481116,4122609.1021531234
1340,[2021-02-22 16:50:13.876] $GPGGA,75013.5,3713.96134759,N,13701.56642882,E,4,8.0,1.3,93.229,M,36.771,M,2.5,0000*79,37.2326891265,137.02610714700003,679734.3448978525,4122609.099853468
1342,[2021-02-22 16:50:13.985] $GPGGA,75013.6,3713.96134598,N,13701.56642875,E,4,8.0,1.3,93.223,M,36.771,M,2.6,0000*74,37.23268909966666,137.02610714583335,679734.3448580734,4122609.0968739223
1344,[2021-02-22 16:50:14.079] $GPGGA,75013.7,3713.96134827,N,13701.56643054,E,4,8.0,1.3,93.225,M,36.771,M,2.7,0000*71,37.23268913783333,137.02610717566668,679734.3474142172,4122609.1011654125
1346,[2021-02-22 16:50:14.188] $GPGGA,75013.8,3713.96134702,N,13701.56643004,E,4,8.0,1.3,93.226,M,36.771,M,2.8,0000*7F,37.23268911700001,137.02610716733335,679734.3467243703,4122609.0988379964
1348,[2021-02-22 16:50:14.282] $GPGGA,75013.9,3713.96134569,N,13701.56642755,E,4,8.0,1.3,93.237,M,36.771,M,2.9,0000*72,37.23268909483333,137.02610712583333,679734.3430951674,4122609.096299654
1350,[2021-02-22 16:50:14.391] $GPGGA,75014.0,3713.96134805,N,13701.56643015,E,4,8.0,1.3,93.225,M,36.771,M,3.0,0000*72,37.23268913416667,137.0261071691667,679734.3468462521,4122609.1007462298
1352,[2021-02-22 16:50:14.485] $GPGGA,75014.1,3713.96135162,N,13701.56642837,E,4,8.0,1.3,93.218,M,36.771,M,3.1,0000*7C,37.232689193666666,137.0261071395,679734.3440729313,4122609.107291794
1354,[2021-02-22 16:50:14.579] $GPGGA,75014.2,3713.96134486,N,13701.56642714,E,4,8.0,1.3,93.225,M,36.771,M,3.2,0000*72,37.23268908099999,137.026107119,679734.3425217742,4122609.0947517795
1356,[2021-02-22 16:50:14.673] $GPGGA,75014.3,3713.96134809,N,13701.56642483,E,4,8.0,1.3,93.209,M,36.771,M,2.3,0000*7B,37.23268913483333,137.0261070805,679734.3389782293,4122609.100651818
1358,[2021-02-22 16:50:14.782] $GPGGA,75014.4,3713.96135369,N,13701.56642771,E,4,8.0,1.3,93.208,M,36.771,M,2.4,0000*78,37.23268922816667,137.0261071285,679734.343015083,4122609.1110988995
1360,[2021-02-22 16:50:14.876] $GPGGA,75014.5,3713.96135029,N,13701.56642702,E,4,8.0,1.3,93.214,M,36.771,M,2.5,0000*76,37.232689171500006,137.026107117,679734.3421293976,4122609.104789534
1362,[2021-02-22 16:50:14.985] $GPGGA,75014.6,3713.96135189,N,13701.56642761,E,4,8.0,1.3,93.213,M,36.771,M,2.6,0000*7F,37.23268919816667,137.0261071268333,679734.3429384644,4122609.1077670427
1364,[2021-02-22 16:50:15.079] $GPGGA,75014.7,3713.96135156,N,13701.5664267,E,4,8.0,1.3,93.211,M,36.771,M,2.7,0000*7E,37.23268919266666,137.02610711166668,679734.3416059571,4122609.107127982
1366,[2021-02-22 16:50:15.188] $GPGGA,75014.8,3713.96135259,N,13701.56642698,E,4,8.0,1.3,93.215,M,36.771,M,2.8,0000*70,37.232689209833325,137.02610711633332,679734.3419792062,4122609.109041594
1368,[2021-02-22 16:50:15.282] $GPGGA,75014.9,3713.96134978,N,13701.56642693,E,4,8.0,1.3,93.215,M,36.771,M,2.9,0000*72,37.232689162999996,137.0261071155,679734.3420165041,4122609.1038435544
1370,[2021-02-22 16:50:15.391] $GPGGA,75015.0,3713.96135322,N,13701.56642965,E,4,8.0,1.3,93.218,M,36.771,M,3.0,0000*7D,37.232689220333334,137.02610716083333,679734.3459022753,4122609.110291144
1372,[2021-02-22 16:50:15.485] $GPGGA,75015.1,3713.9613513,N,13701.56642728,E,4,8.0,1.3,93.220,M,36.771,M,3.1,0000*70,37.23268918833333,137.02610712133333,679734.3424738661,4122609.1066655274
1374,[2021-02-22 16:50:15.579] $GPGGA,75015.2,3713.96135026,N,13701.5664295,E,4,8.0,1.3,93.220,M,36.771,M,2.2,0000*76,37.232689171,137.02610715833333,679734.3457976436,4122609.1048125485
1376,[2021-02-22 16:50:15.673] $GPGGA,75015.3,3713.96134984,N,13701.56643127,E,4,8.0,1.3,93.206,M,36.771,M,2.3,0000*7B,37.23268916399999,137.0261071878333,679734.3484314829,4122609.104091875
1378,[2021-02-22 16:50:15.782] $GPGGA,75015.4,3713.9613512,N,13701.56642717,E,4,8.0,1.3,93.213,M,36.771,M,2.4,0000*7C,37.232689186666676,137.02610711950004,679734.3423151758,4122609.10647712
1380,[2021-02-22 16:50:15.876] $GPGGA,75015.5,3713.96135154,N,13701.56642775,E,4,8.0,1.3,93.211,M,36.771,M,2.5,0000*79,37.23268919233333,137.0261071291667,679734.3431593367,4122609.10712423
1382,[2021-02-22 16:50:15.985] $GPGGA,75015.6,3713.9613487,N,13701.56643121,E,4,8.0,1.3,93.212,M,36.771,M,2.6,0000*72,37.232689144999995,137.02610718683334,679734.3483878921,4122609.1019818047
