,Format,Time,Latitude,LatType,Longitude,LonType,Status,Satellite,LevelAccuracy,Altitude(sea),M(sea),Altitude(geoid),M(geoid),DGPS use,checksum,Lat,Lon,UTM_X,UTM_Y
1297,[2021-02-22 14:46:45.560] $GPGGA,54645.1,3713.9714246,N,13701.489650900001,E,4,15,0.8,91.8054,M,37.55,M,3.0,0000*62,37.23285707666666,137.02482751500003,679620.4183564506,4122625.305688206
1298,[2021-02-22 14:46:45.654] $GPGGA,54645.2,3713.9714236999994,N,13701.489649399999,E,4,15,0.8,91.8068,M,37.55,M,3.0,0000*6D,37.23285706166666,137.02482749,679620.416174077,4122625.3039764143
1299,[2021-02-22 14:46:45.732] $GPGGA,54645.3,3713.9714228,N,13701.4896491,E,4,15,0.8,91.8074,M,37.55,M,3.0,0000*6A,37.23285704666666,137.024827485,679620.4157660864,4122625.3023025803
1300,[2021-02-22 14:46:45.857] $GPGGA,54645.4,3713.9714235,N,13701.489649599998,E,4,15,0.8,91.8069,M,37.55,M,3.0,0000*6A,37.23285705833333,137.0248274933333,679620.4164777156,4122625.3036128855
1301,[2021-02-22 14:46:45.935] $GPGGA,54645.5,3713.9714228,N,13701.489649599998,E,4,15,0.8,91.8072,M,37.55,M,3.0,0000*6D,37.23285704666666,137.0248274933333,679620.4165054068,4122625.302318395
1302,[2021-02-22 14:46:46.060] $GPGGA,54645.6,3713.9714221,N,13701.4896497,E,4,15,0.8,91.8069,M,37.55,M,3.0,0000*6C,37.232857034999995,137.02482749499998,679620.4166809646,4122625.3010270665
1303,[2021-02-22 14:46:46.138] $GPGGA,54645.7,3713.9714225000002,N,13701.48965,E,4,15,0.8,91.8067,M,37.55,M,3.0,0000*68,37.232857041666676,137.0248275,679620.4171087369,4122625.301776266
1304,[2021-02-22 14:46:46.263] $GPGGA,54645.8,3713.9714229,N,13701.489651,E,4,15,0.8,91.8052,M,37.55,M,3.0,0000*6C,37.23285704833333,137.02482751666668,679620.4185715653,4122625.3025476043
1305,[2021-02-22 14:46:46.373] $GPGGA,54645.9,3713.9714235,N,13701.4896521,E,4,15,0.8,91.8055,M,37.55,M,3.0,0000*65,37.23285705833333,137.024827535,679620.4201743418,4122625.3036919627
1306,[2021-02-22 14:46:46.435] $GPGGA,54646.0,3713.9714246,N,13701.489653,E,4,15,0.8,91.8016,M,37.55,M,4.0,0000*6B,37.23285707666666,137.02482755000003,679620.4214616143,4122625.3057546304
1307,[2021-02-22 14:46:46.545] $GPGGA,54646.1,3713.9714254,N,13701.489652200002,E,4,15,0.8,91.8032,M,37.55,M,4.0,0000*6C,37.232857089999996,137.0248275366667,679620.4202470488,4122625.3072087425
1308,[2021-02-22 14:46:46.654] $GPGGA,54646.2,3713.9714272,N,13701.4896519,E,4,15,0.8,91.8027,M,37.55,M,4.0,0000*67,37.23285712,137.02482753166666,679620.4197322449,4122625.3105279454
1309,[2021-02-22 14:46:46.763] $GPGGA,54646.3,3713.9714289999997,N,13701.4896523,E,4,15,0.8,91.8035,M,37.55,M,4.0,0000*60,37.23285715,137.02482753833334,679620.4202524992,4122625.3138692877
1310,[2021-02-22 14:46:46.842] $GPGGA,54646.4,3713.9714288000005,N,13701.489653,E,4,15,0.8,91.8035,M,37.55,M,4.0,0000*6C,37.23285714666668,137.02482755000003,679620.4212954671,4122625.313521576
1311,[2021-02-22 14:46:46.967] $GPGGA,54646.5,3713.9714286,N,13701.4896533,E,4,15,0.8,91.8036,M,37.55,M,4.0,0000*63,37.232857143333334,137.02482755499997,679620.42174697,4122625.313161209
1312,[2021-02-22 14:46:47.045] $GPGGA,54646.6,3713.9714284999995,N,13701.489654100002,E,4,15,0.8,91.8032,M,37.55,M,4.0,0000*62,37.23285714166666,137.02482756833336,679620.4229338511,4122625.3130015866
1313,[2021-02-22 14:46:47.154] $GPGGA,54646.7,3713.9714276999994,N,13701.4896526,E,4,15,0.8,91.8039,M,37.55,M,4.0,0000*64,37.23285712833333,137.02482754333334,679620.4207475216,4122625.3114747223
1314,[2021-02-22 14:46:47.232] $GPGGA,54646.8,3713.9714272,N,13701.489652700002,E,4,15,0.8,91.8021,M,37.55,M,4.0,0000*66,37.23285712,137.02482754500002,679620.4209151677,4122625.31055325
1315,[2021-02-22 14:46:47.357] $GPGGA,54646.9,3713.9714269,N,13701.4896533,E,4,15,0.8,91.8002,M,37.55,M,4.0,0000*69,37.232857115,137.02482755499997,679620.4218142201,4122625.3100174465
1316,[2021-02-22 14:46:47.435] $GPGGA,54647.0,3713.9714261999993,N,13701.489652200002,E,4,15,0.8,91.8003,M,37.55,M,5.0,0000*6A,37.232857103333316,137.0248275366667,679620.4202154018,4122625.3086881605
1317,[2021-02-22 14:46:47.545] $GPGGA,54647.1,3713.9714252999997,N,13701.4896506,E,4,15,0.8,91.8022,M,37.55,M,5.0,0000*6C,37.232857088333326,137.02482751000002,679620.4178851636,4122625.306973207
1318,[2021-02-22 14:46:47.638] $GPGGA,54647.2,3713.9714242,N,13701.489651,E,4,15,0.8,91.8009,M,37.55,M,5.0,0000*61,37.232857069999994,137.02482751666668,679620.4185201387,4122625.30495166
1319,[2021-02-22 14:46:47.763] $GPGGA,54647.3,3713.9714224,N,13701.489649000001,E,4,15,0.8,91.8019,M,37.55,M,5.0,0000*68,37.232857040000006,137.02482748333335,679620.4156340455,4122625.301559708
1320,[2021-02-22 14:46:47.842] $GPGGA,54647.4,3713.9714212,N,13701.489648199999,E,4,15,0.8,91.8026,M,37.55,M,5.0,0000*65,37.232857020000004,137.02482746999996,679620.4144985911,4122625.299315277
1321,[2021-02-22 14:46:47.951] $GPGGA,54647.5,3713.9714212,N,13701.489648299997,E,4,15,0.8,91.8022,M,37.55,M,5.0,0000*61,37.232857020000004,137.0248274716666,679620.4146464556,4122625.29931844
1322,[2021-02-22 14:46:48.045] $GPGGA,54647.6,3713.9714214,N,13701.4896479,E,4,15,0.8,91.8031,M,37.55,M,5.0,0000*63,37.23285702333334,137.024827465,679620.414047088,4122625.2996756425
1323,[2021-02-22 14:46:48.154] $GPGGA,54647.7,3713.9714221999993,N,13701.489648899998,E,4,15,0.8,91.8035,M,37.55,M,5.0,0000*6C,37.23285703666666,137.02482748166665,679620.4154940883,4122625.3011866906
1324,[2021-02-22 14:46:48.263] $GPGGA,54647.8,3713.9714225000002,N,13701.489648899998,E,4,15,0.8,91.8035,M,37.55,M,5.0,0000*64,37.232857041666676,137.02482748166665,679620.4154822206,4122625.301741474
1325,[2021-02-22 14:46:48.341] $GPGGA,54647.9,3713.9714229999995,N,13701.489649399999,E,4,15,0.8,91.8044,M,37.55,M,5.0,0000*6B,37.23285704999999,137.02482749,679620.4162017682,4122625.3026819234
1326,[2021-02-22 14:46:48.466] $GPGGA,54648.0,3713.9714240000003,N,13701.489650100002,E,4,15,0.8,91.8013,M,37.55,M,6.0,0000*66,37.232857066666675,137.0248275016667,679620.4171972676,4122625.3045533393
1327,[2021-02-22 14:46:48.560] $GPGGA,54648.1,3713.9714246,N,13701.4896533,E,4,15,0.8,91.8016,M,37.55,M,6.0,0000*65,37.23285707666666,137.02482755499997,679620.4219052056,4122625.305764119
1328,[2021-02-22 14:46:48.654] $GPGGA,54648.2,3713.9714244,N,13701.4896539,E,4,15,0.8,91.8015,M,37.55,M,1.0,0000*6A,37.23285707333334,137.024827565,679620.4228003111,4122625.3054132443
1329,[2021-02-22 14:46:48.748] $GPGGA,54648.3,3713.9714243,N,13701.489654899999,E,4,15,0.8,91.8006,M,37.55,M,1.0,0000*69,37.232857071666665,137.02482758166664,679620.4242829122,4122625.3052599463
1330,[2021-02-22 14:46:48.857] $GPGGA,54648.4,3713.9714249,N,13701.4896567,E,4,15,0.8,91.7994,M,37.55,M,1.0,0000*65,37.232857081666666,137.02482761166667,679620.4269207492,4122625.3064264455
1331,[2021-02-22 14:46:48.935] $GPGGA,54648.5,3713.9714259999996,N,13701.489658,E,4,15,0.8,91.7991,M,37.55,M,1.0,0000*63,37.2328571,137.02482763333333,679620.4287994776,4122625.3085017647
1332,[2021-02-22 14:46:49.060] $GPGGA,54648.6,3713.9714273000004,N,13701.489656099999,E,4,15,0.8,91.7993,M,37.55,M,1.0,0000*6F,37.23285712166667,137.02482760166666,679620.4259386164,4122625.3108457206
1333,[2021-02-22 14:46:49.138] $GPGGA,54648.7,3713.9714295000003,N,13701.489654299998,E,4,15,0.8,91.7979,M,37.55,M,1.0,0000*62,37.23285715833334,137.0248275716666,679620.4231900143,4122625.314857186
1334,[2021-02-22 14:46:49.263] $GPGGA,54648.8,3713.9714306999995,N,13701.489654199999,E,4,15,0.8,91.7984,M,37.55,M,1.0,0000*64,37.23285717833332,137.02482756999996,679620.4229946792,4122625.317073147
1335,[2021-02-22 14:46:49.341] $GPGGA,54648.9,3713.9714308,N,13701.489656200001,E,4,15,0.8,91.8003,M,37.55,M,1.0,0000*61,37.23285717999999,137.02482760333336,679620.4259480293,4122625.317321336
1336,[2021-02-22 14:46:49.466] $GPGGA,54649.0,3713.9714284999995,N,13701.4896572,E,4,15,0.8,91.798,M,37.55,M,2.0,0000*62,37.23285714166666,137.02482762,679620.427517662,4122625.3130996414
1337,[2021-02-22 14:46:49.560] $GPGGA,54649.1,3713.9714270000004,N,13701.489659600002,E,4,15,0.8,91.7979,M,37.55,M,2.0,0000*65,37.23285711666668,137.02482766000006,679620.4311257644,4122625.310401648
1338,[2021-02-22 14:46:49.654] $GPGGA,54649.2,3713.9714289000003,N,13701.4896611,E,4,15,0.8,91.7986,M,37.55,M,2.0,0000*6C,37.23285714833334,137.02482768500002,679620.4332685723,4122625.3139627115
1339,[2021-02-22 14:46:49.732] $GPGGA,54649.3,3713.9714324,N,13701.489660199999,E,4,15,0.8,91.7984,M,37.55,M,2.0,0000*6B,37.23285720666667,137.02482766999998,679620.4317993289,4122625.3204066963
1340,[2021-02-22 14:46:49.857] $GPGGA,54649.4,3713.9714338,N,13701.4896593,E,4,15,0.8,91.7994,M,37.55,M,2.0,0000*6B,37.23285722999999,137.024827655,679620.4304131637,4122625.3229672085
1341,[2021-02-22 14:46:49.966] $GPGGA,54649.5,3713.9714354000002,N,13701.4896571,E,4,15,0.8,91.7986,M,37.55,M,2.0,0000*6F,37.23285725666668,137.02482761833335,679620.4270968412,4122625.325856459
1342,[2021-02-22 14:46:50.044] $GPGGA,54649.6,3713.9714358,N,13701.489658,E,4,15,0.8,91.7979,M,37.55,M,2.0,0000*6E,37.23285726333333,137.02482763333333,679620.4284118004,4122625.3266246337
1343,[2021-02-22 14:46:50.154] $GPGGA,54649.7,3713.9714351,N,13701.489660799998,E,4,15,0.8,91.7982,M,37.55,M,2.0,0000*61,37.23285725166666,137.02482768,679620.4325797115,4122625.325418709
1344,[2021-02-22 14:46:50.248] $GPGGA,54649.8,3713.971436,N,13701.489663299999,E,4,15,0.8,91.7988,M,37.55,M,2.0,0000*6E,37.23285726666666,137.02482772166664,679620.4362407301,4122625.3271621317
1345,[2021-02-22 14:46:50.357] $GPGGA,54649.9,3713.9714376,N,13701.489663,E,4,15,0.8,91.7992,M,37.55,M,2.0,0000*60,37.23285729333333,137.0248277166667,679620.435733847,4122625.3301114785
1346,[2021-02-22 14:46:50.435] $GPGGA,54650.0,3713.9714394000002,N,13701.4896606,E,4,15,0.8,91.7958,M,37.55,M,3.0,0000*6F,37.232857323333334,137.0248276766667,679620.4321138815,4122625.3333642557
1347,[2021-02-22 14:46:50.544] $GPGGA,54650.1,3713.9714401,N,13701.489658899998,E,4,15,0.8,91.7975,M,37.55,M,3.0,0000*6E,37.232857335,137.02482764833331,679620.4295724822,4122625.334604974
1348,[2021-02-22 14:46:50.654] $GPGGA,54650.2,3713.9714397,N,13701.4896585,E,4,15,0.8,91.7968,M,37.55,M,3.0,0000*65,37.23285732833333,137.02482764166666,679620.4289968456,4122625.3338526124
1349,[2021-02-22 14:46:50.763] $GPGGA,54650.3,3713.9714389,N,13701.489658899998,E,4,15,0.8,91.7977,M,37.55,M,3.0,0000*69,37.232857315,137.02482764833331,679620.429619953,4122625.332385847
1350,[2021-02-22 14:46:50.841] $GPGGA,54650.4,3713.9714376,N,13701.489661700001,E,4,15,0.8,91.7978,M,37.55,M,3.0,0000*65,37.23285729333333,137.024827695,679620.4338115994,4122625.330070358
1351,[2021-02-22 14:46:50.966] $GPGGA,54650.5,3713.9714361,N,13701.4896641,E,4,15,0.8,91.799,M,37.55,M,3.0,0000*67,37.23285726833334,137.024827735,679620.4374196971,4122625.3273723647
1352,[2021-02-22 14:46:51.044] $GPGGA,54650.6,3713.9714340000005,N,13701.489664200002,E,4,15,0.8,91.7986,M,37.55,M,3.0,0000*63,37.23285723333334,137.0248277366667,679620.4376506398,4122625.323492055
1353,[2021-02-22 14:46:51.154] $GPGGA,54650.7,3713.9714310000004,N,13701.4896634,E,4,15,0.8,91.7986,M,37.55,M,3.0,0000*66,37.23285718333334,137.02482772333332,679620.4365863914,4122625.317918933
1354,[2021-02-22 14:46:51.232] $GPGGA,54650.8,3713.9714291,N,13701.489663600001,E,4,15,0.8,91.799,M,37.55,M,3.0,0000*64,37.232857151666664,137.02482772666667,679620.4369572846,4122625.3144116406
1355,[2021-02-22 14:46:51.357] $GPGGA,54650.9,3713.9714289999997,N,13701.489663999999,E,4,15,0.8,91.799,M,37.55,M,3.0,0000*65,37.23285715,137.02482773333332,679620.4375526984,4122625.3142393664
1356,[2021-02-22 14:46:51.435] $GPGGA,54651.0,3713.9714306999995,N,13701.489663299999,E,4,15,0.8,91.7966,M,37.55,M,4.0,0000*68,37.23285717833332,137.02482772166664,679620.4364503922,4122625.317360986
1357,[2021-02-22 14:46:51.544] $GPGGA,54651.1,3713.9714325000004,N,13701.4896627,E,4,15,0.8,91.7979,M,37.55,M,4.0,0000*62,37.23285720833334,137.02482771166663,679620.4354919969,4122625.3206707006
1358,[2021-02-22 14:46:51.638] $GPGGA,54651.2,3713.971435,N,13701.489660799998,E,4,15,0.8,91.7986,M,37.55,M,4.0,0000*6E,37.232857249999995,137.02482768,679620.4325836673,4122625.3252337817
1359,[2021-02-22 14:46:51.763] $GPGGA,54651.3,3713.9714363000007,N,13701.4896585,E,4,15,0.8,91.799,M,37.55,M,4.0,0000*6E,37.23285727166668,137.02482764166666,679620.4291313458,4122625.3275650875
1360,[2021-02-22 14:46:51.857] $GPGGA,54651.4,3713.9714365,N,13701.489659,E,4,15,0.8,91.7989,M,37.55,M,4.0,0000*63,37.23285727500001,137.02482765000002,679620.4298627612,4122625.3279507556
1361,[2021-02-22 14:46:51.935] $GPGGA,54651.5,3713.9714351999996,N,13701.489654799998,E,4,15,0.8,91.7998,M,37.55,M,4.0,0000*63,37.23285725333333,137.02482757999994,679620.4237038535,4122625.325413852
1362,[2021-02-22 14:46:52.060] $GPGGA,54651.6,3713.9714343,N,13701.489646899998,E,4,15,0.8,91.7988,M,37.55,M,4.0,0000*63,37.23285723833334,137.0248274483333,679620.4120581266,4122625.323499626
1363,[2021-02-22 14:46:52.138] $GPGGA,54651.7,3713.9714343,N,13701.4896411,E,4,15,0.8,91.7997,M,37.55,M,4.0,0000*63,37.23285723833334,137.02482735166666,679620.4034819603,4122625.323316169
1364,[2021-02-22 14:46:52.263] $GPGGA,54651.8,3713.9714374,N,13701.489639,E,4,15,0.8,91.7994,M,37.55,M,4.0,0000*65,37.23285729,137.02482731666666,679620.4002541641,4122625.328982488
1365,[2021-02-22 14:46:52.341] $GPGGA,54651.9,3713.9714391999996,N,13701.4896363,E,4,15,0.8,91.8009,M,37.55,M,4.0,0000*62,37.232857319999994,137.0248272716667,679620.3961906075,4122625.332225774
1366,[2021-02-22 14:46:52.466] $GPGGA,54652.0,3713.9714398,N,13701.4896282,E,4,15,0.8,91.799,M,37.55,M,5.0,0000*6B,37.23285733,137.02482713666666,679620.3841898064,4122625.3330791304
1367,[2021-02-22 14:46:52.560] $GPGGA,54652.1,3713.9714375,N,13701.489620800001,E,4,15,0.8,91.7996,M,37.55,M,5.0,0000*6D,37.23285729166666,137.02482701333335,679620.3733387867,4122625.328591737
1368,[2021-02-22 14:46:52.654] $GPGGA,54652.2,3713.9714368,N,13701.4896223,E,4,15,0.8,91.8,M,37.55,M,5.0,0000*62,37.23285728,137.0248270383333,679620.37558445,4122625.327344691
1369,[2021-02-22 14:46:52.732] $GPGGA,54652.3,3713.9714381999997,N,13701.489630899998,E,4,15,0.8,91.7992,M,37.55,M,5.0,0000*63,37.232857303333326,137.0248271816666,679620.3882454513,4122625.330205697
1370,[2021-02-22 14:46:52.857] $GPGGA,54652.4,3713.9714399000004,N,13701.4896379,E,4,15,0.8,91.8004,M,37.55,M,5.0,0000*60,37.23285733166668,137.02482729833332,679620.3985287528,4122625.3335708766
1371,[2021-02-22 14:46:52.935] $GPGGA,54652.5,3713.9714404,N,13701.489640799999,E,4,15,0.8,91.8004,M,37.55,M,5.0,0000*63,37.23285734,137.02482734666665,679620.4027970553,4122625.3345872406
1372,[2021-02-22 14:46:53.060] $GPGGA,54652.6,3713.9714409999997,N,13701.4896405,E,4,15,0.8,91.8005,M,37.55,M,5.0,0000*69,37.232857349999996,137.02482734166668,679620.4023297288,4122625.335687314
1373,[2021-02-22 14:46:53.138] $GPGGA,54652.7,3713.9714408,N,13701.489639399999,E,4,15,0.8,91.7987,M,37.55,M,5.0,0000*62,37.23285734666667,137.02482732333328,679620.4007111196,4122625.335282667
1374,[2021-02-22 14:46:53.263] $GPGGA,54652.8,3713.9714386,N,13701.489635799999,E,4,15,0.8,91.8007,M,37.55,M,5.0,0000*62,37.23285731,137.02482726333332,679620.3954750134,4122625.3311003973
1375,[2021-02-22 14:46:53.341] $GPGGA,54652.9,3713.9714369999997,N,13701.489634799998,E,4,15,0.8,91.7993,M,37.55,M,5.0,0000*60,37.23285728333333,137.02482724666663,679620.3940596557,4122625.3281099293
1376,[2021-02-22 14:46:53.466] $GPGGA,54653.0,3713.9714368,N,13701.489634,E,4,15,0.8,91.7967,M,37.55,M,6.0,0000*61,37.23285728,137.02482723333335,679620.3928846538,4122625.3277147696
1377,[2021-02-22 14:46:53.544] $GPGGA,54653.1,3713.9714357000003,N,13701.4896343,E,4,15,0.8,91.7974,M,37.55,M,6.0,0000*6D,37.23285726166667,137.02482723833333,679620.393371762,4122625.325690062
1378,[2021-02-22 14:46:53.638] $GPGGA,54653.2,3713.9714353,N,13701.4896345,E,4,15,0.8,91.7991,M,37.55,M,1.0,0000*60,37.232857255000006,137.02482724166669,679620.3936833169,4122625.324956678
1379,[2021-02-22 14:46:53.763] $GPGGA,54653.3,3713.9714354000002,N,13701.489633399999,E,4,15,0.8,91.7991,M,37.55,M,1.0,0000*60,37.23285725666668,137.02482722333332,679620.3920528423,4122625.3251068117
1380,[2021-02-22 14:46:53.841] $GPGGA,54653.4,3713.9714354999996,N,13701.489632700002,E,4,15,0.8,91.7989,M,37.55,M,1.0,0000*6D,37.232857258333325,137.02482721166672,679620.3910138394,4122625.325269596
1381,[2021-02-22 14:46:53.966] $GPGGA,54653.5,3713.9714339,N,13701.4896317,E,4,15,0.8,91.7992,M,37.55,M,1.0,0000*6F,37.23285723166667,137.024827195,679620.3895984795,4122625.322279131
1382,[2021-02-22 14:46:54.044] $GPGGA,54653.6,3713.9714325000004,N,13701.4896315,E,4,15,0.8,91.8002,M,37.55,M,1.0,0000*6C,37.23285720833334,137.0248271916667,679620.3893581352,4122625.319683824
1383,[2021-02-22 14:46:54.169] $GPGGA,54653.7,3713.9714299999996,N,13701.4896304,E,4,15,0.8,91.8012,M,37.55,M,1.0,0000*6B,37.232857166666655,137.0248271733333,679620.3878305117,4122625.315025847
1384,[2021-02-22 14:46:54.247] $GPGGA,54653.8,3713.9714279,N,13701.4896296,E,4,15,0.8,91.7993,M,37.55,M,1.0,0000*6E,37.23285713166667,137.02482716000003,679620.3867306691,4122625.3111170717
1385,[2021-02-22 14:46:54.357] $GPGGA,54653.9,3713.9714268,N,13701.4896289,E,4,15,0.8,91.7993,M,37.55,M,1.0,0000*61,37.23285711333333,137.02482714833334,679620.3857391279,4122625.30906073
1386,[2021-02-22 14:46:54.435] $GPGGA,54654.0,3713.9714274000003,N,13701.4896291,E,4,15,0.8,91.7976,M,37.55,M,2.0,0000*63,37.23285712333333,137.0248271516667,679620.386011126,4122625.3101766193
1387,[2021-02-22 14:46:54.544] $GPGGA,54654.1,3713.9714283,N,13701.489629,E,4,15,0.8,91.7981,M,37.55,M,2.0,0000*63,37.23285713833333,137.02482715,679620.385827654,4122625.311837802
1388,[2021-02-22 14:46:54.654] $GPGGA,54654.2,3713.9714304999998,N,13701.489628600002,E,4,15,0.8,91.7988,M,37.55,M,2.0,0000*61,37.232857175,137.02482714333334,679620.3851491665,4122625.315893549
1389,[2021-02-22 14:46:54.763] $GPGGA,54654.3,3713.9714310000004,N,13701.489627,E,4,15,0.8,91.8002,M,37.55,M,2.0,0000*69,37.23285718333334,137.02482711666667,679620.3827635458,4122625.3167675766
1390,[2021-02-22 14:46:54.841] $GPGGA,54654.4,3713.9714301,N,13701.4896271,E,4,15,0.8,91.799,M,37.55,M,2.0,0000*62,37.23285716833333,137.02482711833332,679620.3829470134,4122625.3151063933
1391,[2021-02-22 14:46:54.966] $GPGGA,54654.5,3713.9714297,N,13701.4896282,E,4,15,0.8,91.8004,M,37.55,M,2.0,0000*6A,37.232857161666665,137.02482713666666,679620.384589351,4122625.3144014785
1392,[2021-02-22 14:46:55.044] $GPGGA,54654.6,3713.9714299999996,N,13701.4896305,E,4,15,0.8,91.7999,M,37.55,M,2.0,0000*6A,37.232857166666655,137.024827175,679620.3879783805,4122625.315029009
1393,[2021-02-22 14:46:55.169] $GPGGA,54654.7,3713.9714298,N,13701.4896322,E,4,15,0.8,91.801,M,37.55,M,2.0,0000*69,37.232857163333335,137.02482720333333,679620.3904999935,4122625.3147129295
1394,[2021-02-22 14:46:55.232] $GPGGA,54654.8,3713.9714301,N,13701.489634099999,E,4,15,0.8,91.8003,M,37.55,M,2.0,0000*60,37.23285716833333,137.024827235,679620.3932975605,4122625.3153278087
1395,[2021-02-22 14:46:55.372] $GPGGA,54654.9,3713.9714303000005,N,13701.489636700002,E,4,15,0.8,91.7994,M,37.55,M,2.0,0000*6F,37.23285717166667,137.02482727833333,679620.3971341394,4122625.315779904
1396,[2021-02-22 14:46:55.466] $GPGGA,54655.0,3713.9714314000003,N,13701.489638699999,E,4,15,0.8,91.7968,M,37.55,M,3.0,0000*6D,37.232857190000004,137.02482731166666,679620.4000479216,4122625.317877365
1397,[2021-02-22 14:46:55.560] $GPGGA,54655.1,3713.9714314999997,N,13701.4896433,E,4,15,0.8,91.7978,M,37.55,M,3.0,0000*64,37.23285719166667,137.0248273883333,679620.4068457534,4122625.318207792
1398,[2021-02-22 14:46:55.669] $GPGGA,54655.2,3713.9714328,N,13701.4896493,E,4,15,0.8,91.7977,M,37.55,M,3.0,0000*6C,37.232857213333325,137.02482748833336,679620.4156662289,4122625.3208016297
1399,[2021-02-22 14:46:55.747] $GPGGA,54655.3,3713.9714349,N,13701.489654899999,E,4,15,0.8,91.7971,M,37.55,M,3.0,0000*6A,37.23285724833334,137.02482758166664,679620.423863588,4122625.3248622348
1400,[2021-02-22 14:46:55.857] $GPGGA,54655.4,3713.9714366,N,13701.4896591,E,4,15,0.8,91.7966,M,37.55,M,3.0,0000*63,37.232857276666664,137.02482765166667,679620.4300066697,4122625.3281388464
1401,[2021-02-22 14:46:55.935] $GPGGA,54655.5,3713.9714366999997,N,13701.4896606,E,4,15,0.8,91.7973,M,37.55,M,3.0,0000*6A,37.23285727833333,137.0248276766667,679620.4322206904,4122625.32837122
1402,[2021-02-22 14:46:56.075] $GPGGA,54655.6,3713.9714373,N,13701.4896613,E,4,15,0.8,91.7966,M,37.55,M,3.0,0000*6C,37.23285728833334,137.02482768833332,679620.4332320067,4122625.329502925
1403,[2021-02-22 14:46:56.138] $GPGGA,54655.7,3713.9714366999997,N,13701.489659600002,E,4,15,0.8,91.7967,M,37.55,M,3.0,0000*67,37.23285727833333,137.02482766000006,679620.4307420432,4122625.328339589
1404,[2021-02-22 14:46:56.263] $GPGGA,54655.8,3713.9714359,N,13701.489657799997,E,4,15,0.8,91.7974,M,37.55,M,3.0,0000*67,37.23285726500001,137.02482762999995,679620.428112111,4122625.3268032363
1405,[2021-02-22 14:46:56.341] $GPGGA,54655.9,3713.9714357000003,N,13701.489658899998,E,4,15,0.8,91.7955,M,37.55,M,3.0,0000*65,37.23285726166667,137.02482764833331,679620.4297465414,4122625.326468176
1406,[2021-02-22 14:46:56.466] $GPGGA,54656.0,3713.9714373,N,13701.489659600002,E,4,15,0.8,91.7937,M,37.55,M,4.0,0000*64,37.23285728833334,137.02482766000006,679620.4307183078,4122625.3294491526
1407,[2021-02-22 14:46:56.560] $GPGGA,54656.1,3713.9714372000003,N,13701.4896597,E,4,15,0.8,91.7959,M,37.55,M,4.0,0000*6D,37.232857286666665,137.0248276616667,679620.430870126,4122625.3292673873
1408,[2021-02-22 14:46:56.653] $GPGGA,54656.2,3713.9714379,N,13701.489660299998,E,4,15,0.8,91.7962,M,37.55,M,4.0,0000*63,37.23285729833334,137.02482767166663,679620.4317296195,4122625.3305808594
1409,[2021-02-22 14:46:56.747] $GPGGA,54656.3,3713.9714391999996,N,13701.4896613,E,4,15,0.8,91.7953,M,37.55,M,4.0,0000*64,37.232857319999994,137.02482768833332,679620.4331568448,4122625.3330165413
1410,[2021-02-22 14:46:56.857] $GPGGA,54656.4,3713.9714401,N,13701.489662,E,4,15,0.8,91.7977,M,37.55,M,4.0,0000*68,37.232857335,137.0248277,679620.4341562978,4122625.3347030287
1411,[2021-02-22 14:46:56.935] $GPGGA,54656.5,3713.9714408,N,13701.4896637,E,4,15,0.8,91.7961,M,37.55,M,4.0,0000*61,37.23285734666667,137.02482772833332,679620.4366423078,4122625.336051292
1412,[2021-02-22 14:46:57.060] $GPGGA,54656.6,3713.9714406999997,N,13701.489665000001,E,4,15,0.8,91.797,M,37.55,M,4.0,0000*6C,37.232857345,137.02482775,679620.4385685091,4122625.3359074844
1413,[2021-02-22 14:46:57.169] $GPGGA,54656.7,3713.9714411,N,13701.4896659,E,4,15,0.8,91.7963,M,37.55,M,4.0,0000*61,37.23285735166667,137.02482776500003,679620.4398834729,4122625.3366756607
1414,[2021-02-22 14:46:57.247] $GPGGA,54656.8,3713.9714405,N,13701.4896666,E,4,15,0.8,91.7974,M,37.55,M,4.0,0000*61,37.232857341666666,137.02482777666665,679620.4409422597,4122625.335588239
1415,[2021-02-22 14:46:57.372] $GPGGA,54656.9,3713.9714399000004,N,13701.489667700002,E,4,15,0.8,91.7987,M,37.55,M,4.0,0000*6E,37.23285733166668,137.02482779500005,679620.442592516,4122625.3345134705
1416,[2021-02-22 14:46:57.435] $GPGGA,54657.0,3713.9714391999996,N,13701.4896664,E,4,15,0.8,91.796,M,37.55,M,5.0,0000*67,37.232857319999994,137.02482777333336,679620.4406979596,4122625.333177857
1417,[2021-02-22 14:46:57.544] $GPGGA,54657.1,3713.9714378,N,13701.4896652,E,4,15,0.8,91.7971,M,37.55,M,5.0,0000*67,37.232857296666666,137.02482775333334,679620.4389789612,4122625.3305509193
1418,[2021-02-22 14:46:57.638] $GPGGA,54657.2,3713.9714333000006,N,13701.489661399999,E,4,15,0.8,91.8066,M,37.55,M,5.0,0000*69,37.23285722166668,137.02482768999997,679620.4335381044,4122625.3221089994
1419,[2021-02-22 14:46:57.763] $GPGGA,54657.3,3713.9714309,N,13701.489658,E,4,15,0.8,91.8129,M,37.55,M,5.0,0000*65,37.23285718166667,137.02482763333333,679620.428605639,4122625.3175632004
1420,[2021-02-22 14:46:57.841] $GPGGA,54657.4,3713.971432,N,13701.4896546,E,4,15,0.8,91.8176,M,37.55,M,5.0,0000*69,37.23285719999999,137.02482757666664,679620.4235347152,4122625.3194898535
1421,[2021-02-22 14:46:57.966] $GPGGA,54657.5,3713.9714335,N,13701.489652200002,E,4,15,0.8,91.82,M,37.55,M,5.0,0000*6C,37.232857225000004,137.0248275366667,679620.419926622,4122625.3221878503
1422,[2021-02-22 14:46:58.044] $GPGGA,54657.6,3713.9714354999996,N,13701.4896511,E,4,15,0.8,91.8212,M,37.55,M,5.0,0000*6A,37.232857258333325,137.02482751833335,679620.4182209878,4122625.3258516006
1423,[2021-02-22 14:46:58.153] $GPGGA,54657.7,3713.9714373,N,13701.489652200002,E,4,15,0.8,91.8217,M,37.55,M,5.0,0000*6A,37.23285728833334,137.0248275366667,679620.4197762981,4122625.3292150865
1424,[2021-02-22 14:46:58.231] $GPGGA,54657.8,3713.9714381999997,N,13701.489655000001,E,4,15,0.8,91.8199,M,37.55,M,5.0,0000*6B,37.232857303333326,137.02482758333335,679620.4238809126,4122625.330967996
1425,[2021-02-22 14:46:58.356] $GPGGA,54657.9,3713.9714381,N,13701.4896546,E,4,15,0.8,91.8192,M,37.55,M,5.0,0000*65,37.23285730166666,137.02482757666664,679620.423293406,4122625.330770416
1426,[2021-02-22 14:46:58.466] $GPGGA,54658.0,3713.9714361999995,N,13701.4896521,E,4,15,0.8,91.8159,M,37.55,M,6.0,0000*6B,37.23285726999999,137.024827535,679620.4196719439,4122625.3271777215
1427,[2021-02-22 14:46:58.544] $GPGGA,54658.1,3713.9714335999997,N,13701.489651,E,4,15,0.8,91.8161,M,37.55,M,6.0,0000*62,37.23285722666666,137.02482751666668,679620.4181482852,4122625.3223348195
1428,[2021-02-22 14:46:58.653] $GPGGA,54658.2,3713.9714319,N,13701.489649599998,E,4,15,0.8,91.8163,M,37.55,M,1.0,0000*66,37.232857198333335,137.0248274933333,679620.4161454209,4122625.319146774
1429,[2021-02-22 14:46:58.763] $GPGGA,54658.3,3713.9714326,N,13701.4896497,E,4,15,0.8,91.8183,M,37.55,M,1.0,0000*64,37.23285720999999,137.02482749499998,679620.4162655964,4122625.320444426
1430,[2021-02-22 14:46:58.856] $GPGGA,54658.4,3713.9714341,N,13701.489650100002,E,4,15,0.8,91.8194,M,37.55,M,1.0,0000*6A,37.232857235000004,137.0248275016667,679620.4167977229,4122625.3232309907
1431,[2021-02-22 14:46:58.934] $GPGGA,54658.5,3713.9714361,N,13701.4896514,E,4,15,0.8,91.8187,M,37.55,M,1.0,0000*6F,37.23285726833334,137.0248275233333,679620.4186408437,4122625.3269706545
1432,[2021-02-22 14:46:59.059] $GPGGA,54658.6,3713.9714374,N,13701.4896521,E,4,15,0.8,91.8199,M,37.55,M,1.0,0000*61,37.23285729,137.024827535,679620.4196244732,4122625.329396849
1433,[2021-02-22 14:46:59.138] $GPGGA,54658.7,3713.9714361999995,N,13701.4896518,E,4,15,0.8,91.819,M,37.55,M,1.0,0000*64,37.23285726999999,137.02482753,679620.4192283504,4122625.3271682323
1434,[2021-02-22 14:46:59.263] $GPGGA,54658.8,3713.9714338,N,13701.4896523,E,4,15,0.8,91.8196,M,37.55,M,1.0,0000*6A,37.23285722999999,137.02482753833334,679620.4200626165,4122625.3227457935
1435,[2021-02-22 14:46:59.341] $GPGGA,54658.9,3713.9714317000003,N,13701.489656,E,4,15,0.8,91.8191,M,37.55,M,1.0,0000*66,37.232857195,137.0248276,679620.4256166951,4122625.3189793564
1436,[2021-02-22 14:46:59.466] $GPGGA,54659.0,3713.9714299,N,13701.4896591,E,4,15,0.8,91.8168,M,37.55,M,2.0,0000*62,37.232857165000006,137.02482765166667,679620.4302717142,4122625.3157487223
1437,[2021-02-22 14:46:59.559] $GPGGA,54659.1,3713.9714276999994,N,13701.4896605,E,4,15,0.8,91.8179,M,37.55,M,2.0,0000*6D,37.23285712833333,137.02482767499998,679620.4324288515,4122625.3117246046
1438,[2021-02-22 14:46:59.653] $GPGGA,54659.2,3713.9714289999997,N,13701.4896626,E,4,15,0.8,91.8175,M,37.55,M,2.0,0000*6A,37.23285715,137.02482770999998,679620.4354825886,4122625.314195083
1439,[2021-02-22 14:46:59.731] $GPGGA,54659.3,3713.9714304,N,13701.489663600001,E,4,15,0.8,91.817,M,37.55,M,2.0,0000*63,37.232857173333336,137.02482772666667,679620.436905858,4122625.316815696
1440,[2021-02-22 14:46:59.856] $GPGGA,54659.4,3713.9714311,N,13701.4896637,E,4,15,0.8,91.8166,M,37.55,M,2.0,0000*66,37.232857185,137.02482772833332,679620.437026029,4122625.318113349
1441,[2021-02-22 14:46:59.950] $GPGGA,54659.5,3713.9714306999995,N,13701.489665600002,E,4,15,0.8,91.817,M,37.55,M,2.0,0000*60,37.23285717833332,137.02482776000002,679620.4398512918,4122625.317433737
1442,[2021-02-22 14:47:00.059] $GPGGA,54659.6,3713.9714299999996,N,13701.489669,E,4,15,0.8,91.8178,M,37.55,M,2.0,0000*66,37.232857166666655,137.02482781666666,679620.4449063876,4122625.31624679
1443,[2021-02-22 14:47:00.138] $GPGGA,54659.7,3713.9714299999996,N,13701.489674,E,4,15,0.8,91.8176,M,37.55,M,2.0,0000*65,37.232857166666655,137.02482790000002,679620.4522996378,4122625.316404944
1444,[2021-02-22 14:47:00.263] $GPGGA,54659.8,3713.9714299999996,N,13701.4896799,E,4,15,0.8,91.8176,M,37.55,M,2.0,0000*6E,37.232857166666655,137.0248279983333,679620.4610236685,4122625.3165915646
1445,[2021-02-22 14:47:00.341] $GPGGA,54659.9,3713.9714301,N,13701.4896854,E,4,15,0.8,91.8158,M,37.55,M,2.0,0000*6C,37.23285716833333,137.02482809,679620.4691522877,4122625.3169504623
1446,[2021-02-22 14:47:00.466] $GPGGA,54700.0,3713.9714304,N,13701.4896885,E,4,15,0.8,91.8142,M,37.55,M,3.0,0000*6B,37.232857173333336,137.02482814166663,679620.473724231,4122625.3176032994
1447,[2021-02-22 14:47:00.559] $GPGGA,54700.1,3713.9714302,N,13701.489690900002,E,4,15,0.8,91.815,M,37.55,M,3.0,0000*6A,37.23285717,137.0248281816667,679620.4772809068,4122625.3173093596
1448,[2021-02-22 14:47:00.653] $GPGGA,54700.2,3713.9714287,N,13701.489689700002,E,4,15,0.8,91.8156,M,37.55,M,3.0,0000*65,37.232857145000004,137.0248281616667,679620.4755658665,4122625.314497493
1449,[2021-02-22 14:47:00.762] $GPGGA,54700.3,3713.9714280999997,N,13701.489687600002,E,4,15,0.8,91.817,M,37.55,M,3.0,0000*69,37.232857134999996,137.0248281266667,679620.4724844382,4122625.3133215047
1450,[2021-02-22 14:47:00.841] $GPGGA,54700.4,3713.9714274999997,N,13701.4896872,E,4,15,0.8,91.8174,M,37.55,M,3.0,0000*65,37.232857124999995,137.02482812000002,679620.471916711,4122625.312199289
1451,[2021-02-22 14:47:00.966] $GPGGA,54700.5,3713.9714267,N,13701.4896868,E,4,15,0.8,91.8174,M,37.55,M,3.0,0000*6C,37.23285711166667,137.0248281133333,679620.4713568955,4122625.310707219
1452,[2021-02-22 14:47:01.044] $GPGGA,54700.6,3713.9714255999997,N,13701.489683200001,E,4,15,0.8,91.8181,M,37.55,M,3.0,0000*68,37.23285709333333,137.02482805333335,679620.4660772745,4122625.3085591486
1453,[2021-02-22 14:47:01.169] $GPGGA,54700.7,3713.9714247,N,13701.489677700001,E,4,15,0.8,91.8173,M,37.55,M,3.0,0000*6A,37.23285707833333,137.0248279616667,679620.4579803047,4122625.306720835
1454,[2021-02-22 14:47:01.247] $GPGGA,54700.8,3713.9714242,N,13701.489671899999,E,4,15,0.8,91.8172,M,37.55,M,3.0,0000*69,37.232857069999994,137.02482786499996,679620.4494239112,4122625.305612741
1455,[2021-02-22 14:47:01.372] $GPGGA,54700.9,3713.9714259999996,N,13701.489667299998,E,4,15,0.8,91.8174,M,37.55,M,3.0,0000*63,37.2328571,137.0248277883333,679620.4425509174,4122625.308795931
1456,[2021-02-22 14:47:01.450] $GPGGA,54701.0,3713.9714276,N,13701.489663999999,E,4,15,0.8,91.8155,M,37.55,M,4.0,0000*68,37.232857126666666,137.02482773333332,679620.4376080809,4122625.311650385
1457,[2021-02-22 14:47:01.544] $GPGGA,54701.1,3713.9714273000004,N,13701.489665000001,E,4,15,0.8,91.8152,M,37.55,M,4.0,0000*6A,37.23285712166667,137.02482775,679620.4390985982,4122625.311127234
1458,[2021-02-22 14:47:01.637] $GPGGA,54701.2,3713.9714278000006,N,13701.489666999998,E,4,15,0.8,91.8166,M,37.55,M,4.0,0000*67,37.23285713000001,137.0248277833333,679620.4420361179,4122625.312115133
1459,[2021-02-22 14:47:01.762] $GPGGA,54701.3,3713.9714276,N,13701.4896674,E,4,15,0.8,91.8169,M,37.55,M,4.0,0000*63,37.232857126666666,137.02482779,679620.4426354899,4122625.3117579296
1460,[2021-02-22 14:47:01.841] $GPGGA,54701.4,3713.9714269,N,13701.4896674,E,4,15,0.8,91.8174,M,37.55,M,4.0,0000*66,37.232857115,137.02482779,679620.4426631812,4122625.310463438
1461,[2021-02-22 14:47:01.966] $GPGGA,54701.5,3713.9714263000005,N,13701.4896655,E,4,15,0.8,91.8186,M,37.55,M,4.0,0000*63,37.232857105,137.02482775833334,679620.4398774841,4122625.309293777
1462,[2021-02-22 14:47:02.044] $GPGGA,54701.6,3713.9714261,N,13701.489663,E,4,15,0.8,91.8178,M,37.55,M,4.0,0000*60,37.23285710166667,137.0248277166667,679620.4361887742,4122625.3088448453
1463,[2021-02-22 14:47:02.169] $GPGGA,54701.7,3713.9714252,N,13701.4896616,E,4,15,0.8,91.8191,M,37.55,M,4.0,0000*62,37.23285708666666,137.02482769333335,679620.4341542651,4122625.3071362167
1464,[2021-02-22 14:47:02.247] $GPGGA,54701.8,3713.9714254,N,13701.4896613,E,4,15,0.8,91.8174,M,37.55,M,4.0,0000*65,37.232857089999996,137.02482768833332,679620.4337027575,4122625.307496582
1465,[2021-02-22 14:47:02.356] $GPGGA,54701.9,3713.9714259,N,13701.4896611,E,4,15,0.8,91.8175,M,37.55,M,4.0,0000*6A,37.232857098333334,137.02482768500002,679620.433387249,4122625.3084148928
1466,[2021-02-22 14:47:02.465] $GPGGA,54702.0,3713.9714265000002,N,13701.48966,E,4,15,0.8,91.816,M,37.55,M,5.0,0000*6A,37.232857108333334,137.02482766666665,679620.4317369973,4122625.309489663
1467,[2021-02-22 14:47:02.559] $GPGGA,54702.1,3713.9714267,N,13701.489659399998,E,4,15,0.8,91.8156,M,37.55,M,5.0,0000*62,37.23285711166667,137.02482765666664,679620.430841894,4122625.3098405385
1468,[2021-02-22 14:47:02.653] $GPGGA,54702.2,3713.9714271,N,13701.489658899998,E,4,15,0.8,91.8153,M,37.55,M,5.0,0000*6F,37.23285711833333,137.02482764833331,679620.430086748,4122625.3105644323
1469,[2021-02-22 14:47:02.747] $GPGGA,54702.3,3713.9714274999997,N,13701.489658700002,E,4,15,0.8,91.8166,M,37.55,M,5.0,0000*62,37.232857124999995,137.02482764500002,679620.4297751975,4122625.311297815
1470,[2021-02-22 14:47:02.856] $GPGGA,54702.4,3713.9714273000004,N,13701.489660199999,E,4,15,0.8,91.8172,M,37.55,M,5.0,0000*68,37.23285712166667,137.02482766999998,679620.4320010792,4122625.3109754063
1471,[2021-02-22 14:47:02.934] $GPGGA,54702.5,3713.9714272,N,13701.489661000001,E,4,15,0.8,91.817,M,37.55,M,5.0,0000*69,37.23285712,137.02482768333337,679620.4331879602,4122625.310815784
1472,[2021-02-22 14:47:03.059] $GPGGA,54702.6,3713.9714273000004,N,13701.489661700001,E,4,15,0.8,91.817,M,37.55,M,5.0,0000*6C,37.23285712166667,137.024827695,679620.4342190559,4122625.311022852
1473,[2021-02-22 14:47:03.137] $GPGGA,54702.7,3713.9714283,N,13701.4896626,E,4,15,0.8,91.8181,M,37.55,M,5.0,0000*6E,37.23285713833333,137.02482770999998,679620.4355102798,4122625.312900592
1474,[2021-02-22 14:47:03.262] $GPGGA,54702.8,3713.9714294,N,13701.4896618,E,4,15,0.8,91.8183,M,37.55,M,5.0,0000*68,37.23285715666667,137.02482769666665,679620.4342838444,4122625.3149094875
1475,[2021-02-22 14:47:03.340] $GPGGA,54702.9,3713.9714297,N,13701.489662,E,4,15,0.8,91.816,M,37.55,M,5.0,0000*6C,37.232857161666665,137.0248277,679620.4345677104,4122625.3154705954
1476,[2021-02-22 14:47:03.465] $GPGGA,54703.0,3713.9714301,N,13701.489662900001,E,4,15,0.8,91.8134,M,37.55,M,6.0,0000*61,37.23285716833333,137.02482771500004,679620.4358826741,4122625.3162387726
1477,[2021-02-22 14:47:03.559] $GPGGA,54703.1,3713.9714297,N,13701.4896644,E,4,15,0.8,91.8145,M,37.55,M,6.0,0000*63,37.232857161666665,137.02482774,679620.4381164699,4122625.315546509
1478,[2021-02-22 14:47:03.653] $GPGGA,54703.2,3713.9714291,N,13701.4896655,E,4,15,0.8,91.8145,M,37.55,M,1.0,0000*61,37.232857151666664,137.02482775833334,679620.4397667192,4122625.31447174
1479,[2021-02-22 14:47:03.731] $GPGGA,54703.3,3713.9714298,N,13701.489665399999,E,4,15,0.8,91.8144,M,37.55,M,1.0,0000*69,37.232857163333335,137.02482775666664,679620.4395911589,4122625.3157630675
1480,[2021-02-22 14:47:03.856] $GPGGA,54703.4,3713.9714308,N,13701.489666,E,4,15,0.8,91.8142,M,37.55,M,1.0,0000*67,37.23285717999999,137.02482776666668,679620.440438794,4122625.317631318
1481,[2021-02-22 14:47:03.934] $GPGGA,54703.5,3713.9714313,N,13701.4896662,E,4,15,0.8,91.815,M,37.55,M,1.0,0000*6D,37.232857188333334,137.02482776999997,679620.4407147412,4122625.31856228
1482,[2021-02-22 14:47:04.059] $GPGGA,54703.6,3713.9714317000003,N,13701.4896666,E,4,15,0.8,91.816,M,37.55,M,1.0,0000*6D,37.232857195,137.02482777666665,679620.441290378,4122625.319314642
1483,[2021-02-22 14:47:04.137] $GPGGA,54703.7,3713.9714310000004,N,13701.4896666,E,4,15,0.8,91.8178,M,37.55,M,1.0,0000*62,37.23285718333334,137.02482777666665,679620.4413180692,4122625.318020151
1484,[2021-02-22 14:47:04.262] $GPGGA,54703.8,3713.9714306,N,13701.4896664,E,4,15,0.8,91.8175,M,37.55,M,1.0,0000*65,37.23285717666667,137.02482777333336,679620.441038166,4122625.3172741164
1485,[2021-02-22 14:47:04.356] $GPGGA,54703.9,3713.9714299999996,N,13701.4896662,E,4,15,0.8,91.8178,M,37.55,M,1.0,0000*69,37.232857166666655,137.02482776999997,679620.4407661678,4122625.3161582244
1486,[2021-02-22 14:47:04.434] $GPGGA,54704.0,3713.9714287,N,13701.4896659,E,4,15,0.8,91.8166,M,37.55,M,2.0,0000*6D,37.232857145000004,137.02482776500003,679620.440374003,4122625.3137446837
1487,[2021-02-22 14:47:04.559] $GPGGA,54704.1,3713.9714272,N,13701.4896669,E,4,15,0.8,91.8183,M,37.55,M,2.0,0000*6E,37.23285712,137.02482778166666,679620.4419119888,4122625.3110024044
1488,[2021-02-22 14:47:04.637] $GPGGA,54704.2,3713.9714269,N,13701.489668799999,E,4,15,0.8,91.8188,M,37.55,M,2.0,0000*63,37.232857115,137.02482781333333,679620.4447332912,4122625.3105077213
1489,[2021-02-22 14:47:04.762] $GPGGA,54704.3,3713.9714273000004,N,13701.489670200002,E,4,15,0.8,91.8182,M,37.55,M,2.0,0000*60,37.23285712166667,137.0248278366667,679620.4467875797,4122625.311291713
1490,[2021-02-22 14:47:04.840] $GPGGA,54704.4,3713.9714279,N,13701.4896694,E,4,15,0.8,91.8187,M,37.55,M,2.0,0000*66,37.23285713166667,137.0248278233333,679620.4455809216,4122625.312375973
1491,[2021-02-22 14:47:04.965] $GPGGA,54704.5,3713.9714293000006,N,13701.4896683,E,4,15,0.8,91.8176,M,37.55,M,2.0,0000*6B,37.232857155000005,137.02482780500003,679620.4438990272,4122625.31493016
1492,[2021-02-22 14:47:05.043] $GPGGA,54704.6,3713.9714283,N,13701.489667700002,E,4,15,0.8,91.8172,M,37.55,M,2.0,0000*66,37.23285713833333,137.02482779500005,679620.4430513991,4122625.3130619093
1493,[2021-02-22 14:47:05.168] $GPGGA,54704.7,3713.9714274000003,N,13701.489667299998,E,4,15,0.8,91.8174,M,37.55,M,2.0,0000*6D,37.23285712333333,137.0248277883333,679620.442495535,4122625.3113849116
1494,[2021-02-22 14:47:05.247] $GPGGA,54704.8,3713.9714255999997,N,13701.4896678,E,4,15,0.8,91.8178,M,37.55,M,2.0,0000*65,37.23285709333333,137.0248277966667,679620.4433060703,4122625.3080720366
1495,[2021-02-22 14:47:05.372] $GPGGA,54704.9,3713.9714246,N,13701.4896676,E,4,15,0.8,91.8172,M,37.55,M,2.0,0000*61,37.23285707666666,137.02482779333334,679620.4430498979,4122625.3062164383
1496,[2021-02-22 14:47:05.434] $GPGGA,54705.0,3713.9714265000002,N,13701.489667700002,E,4,15,0.8,91.8166,M,37.55,M,3.0,0000*6D,37.232857108333334,137.02482779500005,679620.4431226051,4122625.3097332194
1497,[2021-02-22 14:47:05.543] $GPGGA,54705.1,3713.9714282,N,13701.4896679,E,4,15,0.8,91.8158,M,37.55,M,3.0,0000*66,37.23285713666667,137.02482779833335,679620.4433510817,4122625.3128833077
1498,[2021-02-22 14:47:05.637] $GPGGA,54705.2,3713.9714302,N,13701.4896679,E,4,15,0.8,91.8141,M,37.55,M,3.0,0000*64,37.23285717,137.02482779833335,679620.4432719639,4122625.316581854
1499,[2021-02-22 14:47:05.762] $GPGGA,54705.3,3713.9714304999998,N,13701.489667299998,E,4,15,0.8,91.8157,M,37.55,M,3.0,0000*6F,37.232857175,137.0248277883333,679620.4423729024,4122625.317117657
1500,[2021-02-22 14:47:05.840] $GPGGA,54705.4,3713.9714301,N,13701.489669799998,E,4,15,0.8,91.8152,M,37.55,M,3.0,0000*6C,37.23285716833333,137.02482782999996,679620.44608535,4122625.3164570243
1501,[2021-02-22 14:47:05.965] $GPGGA,54705.5,3713.9714287,N,13701.4896701,E,4,15,0.8,91.8158,M,37.55,M,3.0,0000*69,37.232857145000004,137.024827835,679620.4465843304,4122625.3138775323
1502,[2021-02-22 14:47:06.075] $GPGGA,54705.6,3713.9714278000006,N,13701.4896697,E,4,15,0.8,91.8153,M,37.55,M,3.0,0000*6F,37.23285713000001,137.02482782833334,679620.4460284731,4122625.312200535
1503,[2021-02-22 14:47:06.137] $GPGGA,54705.7,3713.9714279,N,13701.4896679,E,4,15,0.8,91.8169,M,37.55,M,3.0,0000*66,37.23285713166667,137.02482779833335,679620.4433629494,4122625.3123285263
1504,[2021-02-22 14:47:06.262] $GPGGA,54705.8,3713.9714294,N,13701.4896667,E,4,15,0.8,91.8167,M,37.55,M,3.0,0000*6B,37.23285715666667,137.0248277783333,679620.4415292279,4122625.315064478
1505,[2021-02-22 14:47:06.340] $GPGGA,54705.9,3713.9714299,N,13701.4896664,E,4,15,0.8,91.8163,M,37.55,M,3.0,0000*60,37.232857165000006,137.02482777333336,679620.4410658572,4122625.315979626
1506,[2021-02-22 14:47:06.465] $GPGGA,54706.0,3713.9714306999995,N,13701.4896659,E,4,15,0.8,91.8159,M,37.55,M,4.0,0000*6C,37.23285717833332,137.02482776500003,679620.4402948853,4122625.317443226
1507,[2021-02-22 14:47:06.575] $GPGGA,54706.1,3713.9714289999997,N,13701.489667500002,E,4,15,0.8,91.8166,M,37.55,M,4.0,0000*60,37.23285715,137.0248277916667,679620.4427279766,4122625.314350074
1508,[2021-02-22 14:47:06.653] $GPGGA,54706.2,3713.9714299999996,N,13701.489668399998,E,4,15,0.8,91.8158,M,37.55,M,4.0,0000*68,37.232857166666655,137.02482780666662,679620.4440191961,4122625.3162278114
1509,[2021-02-22 14:47:06.746] $GPGGA,54706.3,3713.9714303000005,N,13701.489668200002,E,4,15,0.8,91.8167,M,37.55,M,4.0,0000*60,37.23285717166667,137.02482780333338,679620.4437116061,4122625.316776271
1510,[2021-02-22 14:47:06.856] $GPGGA,54706.4,3713.9714303000005,N,13701.489667700002,E,4,15,0.8,91.8154,M,37.55,M,4.0,0000*6D,37.23285717166667,137.02482779500005,679620.4429722812,4122625.3167604543
1511,[2021-02-22 14:47:06.934] $GPGGA,54706.5,3713.9714304999998,N,13701.489667200001,E,4,15,0.8,91.8145,M,37.55,M,4.0,0000*6F,37.232857175,137.0248277866667,679620.4422250425,4122625.3171144947
1512,[2021-02-22 14:47:07.059] $GPGGA,54706.6,3713.9714291,N,13701.4896664,E,4,15,0.8,91.8141,M,37.55,M,4.0,0000*63,37.232857151666664,137.02482777333336,679620.4410975042,4122625.3145002066
1513,[2021-02-22 14:47:07.137] $GPGGA,54706.7,3713.9714284,N,13701.489665000001,E,4,15,0.8,91.8136,M,37.55,M,4.0,0000*61,37.23285714,137.02482775,679620.4390550834,4122625.313161434
1514,[2021-02-22 14:47:07.262] $GPGGA,54706.8,3713.9714276,N,13701.489663299999,E,4,15,0.8,91.8149,M,37.55,M,4.0,0000*6E,37.232857126666666,137.02482772166664,679620.4365730248,4122625.311628244
1515,[2021-02-22 14:47:07.340] $GPGGA,54706.9,3713.9714278000006,N,13701.4896623,E,4,15,0.8,91.8148,M,37.55,M,4.0,0000*61,37.23285713000001,137.024827705,679620.4350864657,4122625.311966468
1516,[2021-02-22 14:47:07.465] $GPGGA,54707.0,3713.9714283,N,13701.489662799999,E,4,15,0.8,91.8126,M,37.55,M,5.0,0000*6F,37.23285713833333,137.02482771333328,679620.4358060065,4122625.312906919
1517,[2021-02-22 14:47:07.559] $GPGGA,54707.1,3713.9714282,N,13701.4896653,E,4,15,0.8,91.813,M,37.55,M,5.0,0000*64,37.23285713666667,137.024827755,679620.439506591,4122625.312801068
1518,[2021-02-22 14:47:07.653] $GPGGA,54707.2,3713.9714278000006,N,13701.489668,E,4,15,0.8,91.8134,M,37.55,M,5.0,0000*68,37.23285713000001,137.0248278,679620.4435147697,4122625.312146763
1519,[2021-02-22 14:47:07.731] $GPGGA,54707.3,3713.9714268,N,13701.4896697,E,4,15,0.8,91.813,M,37.55,M,5.0,0000*6A,37.23285711333333,137.02482782833334,679620.4460680321,4122625.310351262
1520,[2021-02-22 14:47:07.856] $GPGGA,54707.4,3713.9714255999997,N,13701.489670700003,E,4,15,0.8,91.8144,M,37.55,M,5.0,0000*6B,37.23285709333333,137.02482784500003,679620.4475941546,4122625.308163765
1521,[2021-02-22 14:47:07.965] $GPGGA,54707.5,3713.9714249,N,13701.4896711,E,4,15,0.8,91.8156,M,37.55,M,5.0,0000*60,37.232857081666666,137.02482785166669,679620.448213306,4122625.306881928
1522,[2021-02-22 14:47:08.043] $GPGGA,54707.6,3713.9714236,N,13701.4896713,E,4,15,0.8,91.8149,M,37.55,M,5.0,0000*67,37.23285706000001,137.02482785499998,679620.4485604594,4122625.3044841997
1523,[2021-02-22 14:47:08.153] $GPGGA,54707.7,3713.9714218000004,N,13701.4896704,E,4,15,0.8,91.8148,M,37.55,M,5.0,0000*6D,37.232857030000005,137.02482784,679620.4473008803,4122625.3011270426
1524,[2021-02-22 14:47:08.246] $GPGGA,54707.8,3713.9714194,N,13701.4896679,E,4,15,0.8,91.8162,M,37.55,M,5.0,0000*66,37.23285699,137.02482779833335,679620.4436991999,4122625.2966097114
1525,[2021-02-22 14:47:08.356] $GPGGA,54707.9,3713.9714172,N,13701.4896683,E,4,15,0.8,91.8158,M,37.55,M,5.0,0000*63,37.23285695333333,137.02482780500003,679620.4443776899,4122625.292553964
1526,[2021-02-22 14:47:08.434] $GPGGA,54708.0,3713.9714163000003,N,13701.4896699,E,4,15,0.8,91.8143,M,37.55,M,6.0,0000*67,37.232856938333335,137.02482783166664,679620.4467791272,4122625.2909402275
1527,[2021-02-22 14:47:08.543] $GPGGA,54708.1,3713.9714162,N,13701.489668399998,E,4,15,0.8,91.8169,M,37.55,M,6.0,0000*63,37.232856936666664,137.02482780666662,679620.4445651086,4122625.2907078536
1528,[2021-02-22 14:47:08.653] $GPGGA,54708.2,3713.9714178000004,N,13701.489666299998,E,4,15,0.8,91.8183,M,37.55,M,1.0,0000*61,37.23285696333334,137.02482777166662,679620.4413966485,4122625.293600267
1529,[2021-02-22 14:47:08.762] $GPGGA,54708.3,3713.9714188000003,N,13701.489665000001,E,4,15,0.8,91.8186,M,37.55,M,1.0,0000*6A,37.23285698,137.02482775,679620.4394348487,4122625.2954084184
1530,[2021-02-22 14:47:08.840] $GPGGA,54708.4,3713.9714200000003,N,13701.4896646,E,4,15,0.8,91.8189,M,37.55,M,1.0,0000*66,37.232857,137.02482774333336,679620.4387959222,4122625.297614894
1531,[2021-02-22 14:47:08.965] $GPGGA,54708.5,3713.9714199,N,13701.4896646,E,4,15,0.8,91.8188,M,37.55,M,1.0,0000*65,37.232856998333325,137.02482774333336,679620.4387998781,4122625.297429965
1532,[2021-02-22 14:47:09.043] $GPGGA,54708.6,3713.9714191,N,13701.489663299999,E,4,15,0.8,91.8182,M,37.55,M,1.0,0000*66,37.23285698499999,137.02482772166664,679620.4369092754,4122625.295909426
1533,[2021-02-22 14:47:09.168] $GPGGA,54708.7,3713.9714182999996,N,13701.489662799999,E,4,15,0.8,91.8185,M,37.55,M,1.0,0000*69,37.232856971666656,137.02482771333328,679620.4362015955,4122625.294414194
1534,[2021-02-22 14:47:09.246] $GPGGA,54708.8,3713.971419,N,13701.4896637,E,4,15,0.8,91.8175,M,37.55,M,1.0,0000*65,37.232856983333335,137.02482772833332,679620.4375046915,4122625.2957371534
1535,[2021-02-22 14:47:09.356] $GPGGA,54708.9,3713.9714192,N,13701.489662200001,E,4,15,0.8,91.8184,M,37.55,M,1.0,0000*6C,37.23285698666667,137.02482770333336,679620.4352788099,4122625.296059562
1536,[2021-02-22 14:47:09.434] $GPGGA,54709.0,3713.9714196000004,N,13701.4896599,E,4,15,0.8,91.8164,M,37.55,M,2.0,0000*6E,37.23285699333334,137.024827665,679620.4318620891,4122625.2967265206
1537,[2021-02-22 14:47:09.543] $GPGGA,54709.1,3713.9714203000003,N,13701.489660100002,E,4,15,0.8,91.8162,M,37.55,M,2.0,0000*64,37.23285700500001,137.0248276683334,679620.4321301336,4122625.298027338
1538,[2021-02-22 14:47:09.668] $GPGGA,54709.2,3713.9714200000003,N,13701.489660799998,E,4,15,0.8,91.8172,M,37.55,M,2.0,0000*6C,37.232857,137.02482768,679620.4331770507,4122625.297494697
1539,[2021-02-22 14:47:09.746] $GPGGA,54709.3,3713.9714195,N,13701.489660100002,E,4,15,0.8,91.8169,M,37.55,M,2.0,0000*61,37.23285699166667,137.0248276683334,679620.4321617808,4122625.2965479186
1540,[2021-02-22 14:47:09.856] $GPGGA,54709.4,3713.9714193000004,N,13701.4896606,E,4,15,0.8,91.8163,M,37.55,M,2.0,0000*6D,37.23285698833334,137.0248276766667,679620.4329090151,4122625.296193879
1541,[2021-02-22 14:47:09.949] $GPGGA,54709.5,3713.9714185999997,N,13701.4896606,E,4,15,0.8,91.8159,M,37.55,M,2.0,0000*61,37.23285697666667,137.0248276766667,679620.4329367063,4122625.2948993887
1542,[2021-02-22 14:47:10.059] $GPGGA,54709.6,3713.9714172,N,13701.4896593,E,4,15,0.8,91.8167,M,37.55,M,2.0,0000*6B,37.23285695333333,137.024827655,679620.4310698411,4122625.292269287
1543,[2021-02-22 14:47:10.152] $GPGGA,54709.7,3713.9714162,N,13701.4896588,E,4,15,0.8,91.8161,M,37.55,M,2.0,0000*67,37.232856936666664,137.02482764666667,679620.4303700753,4122625.2904041996
1544,[2021-02-22 14:47:10.262] $GPGGA,54709.8,3713.9714147,N,13701.489657700002,E,4,15,0.8,91.8166,M,37.55,M,2.0,0000*68,37.232856911666666,137.02482762833338,679620.4288029041,4122625.2875954974
1545,[2021-02-22 14:47:10.340] $GPGGA,54709.9,3713.9714141000004,N,13701.4896544,E,4,15,0.8,91.8176,M,37.55,M,2.0,0000*6E,37.23285690166668,137.02482757333334,679620.4239470924,4122625.2863815543
1546,[2021-02-22 14:47:10.465] $GPGGA,54710.0,3713.9714134000005,N,13701.4896504,E,4,15,0.8,91.8155,M,37.55,M,3.0,0000*69,37.23285689,137.02482750666667,679620.4180601831,4122625.2849605395
1547,[2021-02-22 14:47:10.559] $GPGGA,54710.1,3713.9714134000005,N,13701.489651299999,E,4,15,0.8,91.8155,M,37.55,M,3.0,0000*6E,37.23285689,137.02482752166665,679620.419390966,4122625.2849890073
1548,[2021-02-22 14:47:10.668] $GPGGA,54710.2,3713.9714126999997,N,13701.4896505,E,4,15,0.8,91.8168,M,37.55,M,3.0,0000*66,37.23285687833333,137.02482750833332,679620.4182357388,4122625.2836692114
1549,[2021-02-22 14:47:10.731] $GPGGA,54710.3,3713.9714119000005,N,13701.489649899999,E,4,15,0.8,91.8177,M,37.55,M,3.0,0000*60,37.23285686500001,137.02482749833328,679620.4173801921,4122625.282170817
1550,[2021-02-22 14:47:10.856] $GPGGA,54710.4,3713.971412,N,13701.489646899998,E,4,15,0.8,91.8182,M,37.55,M,3.0,0000*68,37.232856866666665,137.0248274483333,679620.4129402897,4122625.2822608515
1551,[2021-02-22 14:47:10.934] $GPGGA,54710.5,3713.971411,N,13701.489641999999,E,4,15,0.8,91.8184,M,37.55,M,3.0,0000*61,37.23285685,137.02482736666664,679620.4057344651,4122625.280256587
1552,[2021-02-22 14:47:11.059] $GPGGA,54710.6,3713.9714105,N,13701.4896424,E,4,15,0.8,91.8181,M,37.55,M,3.0,0000*67,37.23285684166666,137.02482737333332,679620.4063457071,4122625.2793446034
1553,[2021-02-22 14:47:11.137] $GPGGA,54710.7,3713.9714111000003,N,13701.4896444,E,4,15,0.8,91.8182,M,37.55,M,3.0,0000*66,37.232856851666675,137.0248274066667,679620.4092792731,4122625.28051743
1554,[2021-02-22 14:47:11.262] $GPGGA,54710.8,3713.9714096999996,N,13701.489644100002,E,4,15,0.8,91.8184,M,37.55,M,3.0,0000*65,37.232856828333325,137.0248274016667,679620.4088910623,4122625.277918957
1555,[2021-02-22 14:47:11.340] $GPGGA,54710.9,3713.9714103,N,13701.489644799998,E,4,15,0.8,91.8177,M,37.55,M,3.0,0000*6D,37.23285683833334,137.0248274133333,679620.4099023761,4122625.2790506645
1556,[2021-02-22 14:47:11.465] $GPGGA,54711.0,3713.971411,N,13701.489646200002,E,4,15,0.8,91.8154,M,37.55,M,4.0,0000*69,37.23285685,137.0248274366667,679620.4119447994,4122625.280389436
1557,[2021-02-22 14:47:11.543] $GPGGA,54711.1,3713.9714113000005,N,13701.489647499999,E,4,15,0.8,91.8158,M,37.55,M,4.0,0000*61,37.23285685500001,137.02482745833333,679620.4138551725,4122625.2809853395
1558,[2021-02-22 14:47:11.637] $GPGGA,54711.2,3713.9714108999997,N,13701.4896485,E,4,15,0.8,91.8156,M,37.55,M,4.0,0000*68,37.23285684833333,137.02482747500002,679620.4153496479,4122625.280277259
1559,[2021-02-22 14:47:11.762] $GPGGA,54711.3,3713.9714108999997,N,13701.489649599998,E,4,15,0.8,91.8163,M,37.55,M,4.0,0000*6D,37.23285684833333,137.0248274933333,679620.4169761575,4122625.2803120534
1560,[2021-02-22 14:47:11.840] $GPGGA,54711.4,3713.9714113000005,N,13701.489649399999,E,4,15,0.8,91.8164,M,37.55,M,4.0,0000*64,37.23285685500001,137.02482749,679620.4166646071,4122625.2810454387
1561,[2021-02-22 14:47:11.965] $GPGGA,54711.5,3713.9714117,N,13701.489648800001,E,4,15,0.8,91.8157,M,37.55,M,4.0,0000*6C,37.23285686166666,137.02482748,679620.4157615943,4122625.2817661664
1562,[2021-02-22 14:47:12.043] $GPGGA,54711.6,3713.9714114,N,13701.4896498,E,4,15,0.8,91.8168,M,37.55,M,4.0,0000*61,37.232856856666665,137.02482749666663,679620.4172521094,4122625.281243016
1563,[2021-02-22 14:47:12.168] $GPGGA,54711.7,3713.9714111000003,N,13701.4896516,E,4,15,0.8,91.8165,M,37.55,M,4.0,0000*6F,37.232856851666675,137.0248275266667,679620.4199255516,4122625.2807451705
1564,[2021-02-22 14:47:12.246] $GPGGA,54711.8,3713.9714105999997,N,13701.4896533,E,4,15,0.8,91.8161,M,37.55,M,4.0,0000*65,37.23285684333333,137.02482755499997,679620.4224590301,4122625.279874305
1565,[2021-02-22 14:47:12.355] $GPGGA,54711.9,3713.9714115999996,N,13701.489655000001,E,4,15,0.8,91.8155,M,37.55,M,4.0,0000*67,37.23285685999999,137.02482758333335,679620.424933179,4122625.2817773493
1566,[2021-02-22 14:47:12.434] $GPGGA,54712.0,3713.9714123000003,N,13701.489652899998,E,4,15,0.8,91.8139,M,37.55,M,5.0,0000*6E,37.23285687166668,137.0248275483333,679620.4218003196,4122625.283005418
1567,[2021-02-22 14:47:12.543] $GPGGA,54712.1,3713.9714129,N,13701.489653600001,E,4,15,0.8,91.8137,M,37.55,M,5.0,0000*65,37.23285688166666,137.02482756,679620.4228116426,4122625.2841371214
1568,[2021-02-22 14:47:12.668] $GPGGA,54712.2,3713.9714134000005,N,13701.489654100002,E,4,15,0.8,91.8138,M,37.55,M,5.0,0000*65,37.23285689,137.02482756833336,679620.4235311903,4122625.2850775733
1569,[2021-02-22 14:47:12.762] $GPGGA,54712.3,3713.9714126000003,N,13701.489653999999,E,4,15,0.8,91.816,M,37.55,M,5.0,0000*6B,37.232856876666666,137.02482756666666,679620.4234149683,4122625.283594992
1570,[2021-02-22 14:47:12.840] $GPGGA,54712.4,3713.9714128,N,13701.489655200001,E,4,15,0.8,91.8144,M,37.55,M,5.0,0000*67,37.23285688,137.02482758666667,679620.4251814374,4122625.2840028033
1571,[2021-02-22 14:47:12.965] $GPGGA,54712.5,3713.9714139,N,13701.4896571,E,4,15,0.8,91.8134,M,37.55,M,5.0,0000*60,37.23285689833333,137.02482761833335,679620.4279473573,4122625.2860971014
1572,[2021-02-22 14:47:13.043] $GPGGA,54712.6,3713.9714149000006,N,13701.489658,E,4,15,0.8,91.8138,M,37.55,M,5.0,0000*66,37.23285691500001,137.02482763333333,679620.4292385812,4122625.2879748433
1573,[2021-02-22 14:47:13.152] $GPGGA,54712.7,3713.9714168000005,N,13701.489660299998,E,4,15,0.8,91.8126,M,37.55,M,5.0,0000*63,37.23285694666667,137.02482767166663,679620.4325643121,4122625.29156121
1574,[2021-02-22 14:47:13.262] $GPGGA,54712.8,3713.9714184,N,13701.4896606,E,4,15,0.8,91.8128,M,37.55,M,5.0,0000*65,37.232856973333334,137.0248276766667,679620.4329446182,4122625.2945295344
1575,[2021-02-22 14:47:13.355] $GPGGA,54712.9,3713.9714196000004,N,13701.4896599,E,4,15,0.8,91.813,M,37.55,M,5.0,0000*6B,37.23285699333334,137.024827665,679620.4318620891,4122625.2967265206
1576,[2021-02-22 14:47:13.465] $GPGGA,54713.0,3713.9714191,N,13701.489659399998,E,4,15,0.8,91.8113,M,37.55,M,6.0,0000*6B,37.23285698499999,137.02482765666664,679620.4311425416,4122625.295786067
1577,[2021-02-22 14:47:13.558] $GPGGA,54713.1,3713.9714182,N,13701.4896584,E,4,15,0.8,91.8125,M,37.55,M,6.0,0000*6C,37.23285697,137.02482763999998,679620.4296994972,4122625.294090093
1578,[2021-02-22 14:47:13.668] $GPGGA,54713.2,3713.9714182999996,N,13701.4896571,E,4,15,0.8,91.8177,M,37.55,M,1.0,0000*64,37.232856971666656,137.02482761833335,679620.4277732982,4122625.2942338986
1579,[2021-02-22 14:47:13.746] $GPGGA,54713.3,3713.9714185000003,N,13701.4896563,E,4,15,0.8,91.819,M,37.55,M,1.0,0000*69,37.232856975000004,137.024827605,679620.426582468,4122625.2945784503
1580,[2021-02-22 14:47:13.855] $GPGGA,54713.4,3713.9714182,N,13701.489655399999,E,4,15,0.8,91.8188,M,37.55,M,1.0,0000*64,37.23285697,137.02482758999997,679620.4252635462,4122625.2939952007
1581,[2021-02-22 14:47:13.949] $GPGGA,54713.5,3713.9714187,N,13701.4896545,E,4,15,0.8,91.8194,M,37.55,M,1.0,0000*6D,37.23285697833334,137.024827575,679620.4239129839,4122625.29489137
1582,[2021-02-22 14:47:14.058] $GPGGA,54713.6,3713.9714189,N,13701.489655500001,E,4,15,0.8,91.8195,M,37.55,M,1.0,0000*60,37.23285698166667,137.02482759166668,679620.4253837239,4122625.2952928552
1583,[2021-02-22 14:47:14.152] $GPGGA,54713.7,3713.9714193000004,N,13701.4896563,E,4,15,0.8,91.8181,M,37.55,M,1.0,0000*6A,37.23285698833334,137.024827605,679620.4265508209,4122625.2960578674
1584,[2021-02-22 14:47:14.262] $GPGGA,54713.8,3713.9714202,N,13701.489655899999,E,4,15,0.8,91.8181,M,37.55,M,1.0,0000*67,37.232857003333336,137.02482759833333,679620.4259237554,4122625.2977095605
1585,[2021-02-22 14:47:14.340] $GPGGA,54713.9,3713.9714212,N,13701.4896556,E,4,15,0.8,91.8186,M,37.55,M,1.0,0000*6F,37.232857020000004,137.02482759333333,679620.4254406008,4122625.299549345
1586,[2021-02-22 14:47:14.465] $GPGGA,54714.0,3713.9714212,N,13701.4896551,E,4,15,0.8,91.8178,M,37.55,M,2.0,0000*64,37.232857020000004,137.024827585,679620.4247012782,4122625.299533529
1587,[2021-02-22 14:47:14.574] $GPGGA,54714.1,3713.9714206999993,N,13701.489656900001,E,4,15,0.8,91.8189,M,37.55,M,2.0,0000*64,37.23285701166665,137.024827615,679620.4273826256,4122625.2986658267
1588,[2021-02-22 14:47:14.668] $GPGGA,54714.2,3713.9714212,N,13701.489657600001,E,4,15,0.8,91.8166,M,37.55,M,2.0,0000*6C,37.232857020000004,137.02482762666668,679620.4283979022,4122625.299612606
1589,[2021-02-22 14:47:14.730] $GPGGA,54714.3,3713.9714214,N,13701.4896581,E,4,15,0.8,91.8148,M,37.55,M,2.0,0000*6F,37.23285702333334,137.02482763499998,679620.429129313,4122625.2999982745
1590,[2021-02-22 14:47:14.855] $GPGGA,54714.4,3713.9714212,N,13701.4896595,E,4,15,0.8,91.8145,M,37.55,M,2.0,0000*66,37.232857020000004,137.0248276583333,679620.4312073323,4122625.2996727033
1591,[2021-02-22 14:47:14.965] $GPGGA,54714.5,3713.9714225000002,N,13701.489661200001,E,4,15,0.8,91.8146,M,37.55,M,2.0,0000*6C,37.232857041666676,137.02482768666667,679620.4336696137,4122625.30213053
1592,[2021-02-22 14:47:15.043] $GPGGA,54714.6,3713.9714225000002,N,13701.4896618,E,4,15,0.8,91.8161,M,37.55,M,2.0,0000*60,37.232857041666676,137.02482769666665,679620.4345568008,4122625.302149509
1593,[2021-02-22 14:47:15.168] $GPGGA,54714.7,3713.9714232,N,13701.489662399998,E,4,15,0.8,91.8148,M,37.55,M,2.0,0000*63,37.23285705333334,137.02482770666666,679620.4354163011,4122625.303462978
1594,[2021-02-22 14:47:15.246] $GPGGA,54714.8,3713.9714242,N,13701.4896632,E,4,15,0.8,91.8149,M,37.55,M,2.0,0000*6D,37.232857069999994,137.02482772,679620.4365596628,4122625.305337554
1595,[2021-02-22 14:47:15.371] $GPGGA,54714.9,3713.9714251,N,13701.4896646,E,4,15,0.8,91.8141,M,37.55,M,2.0,0000*65,37.232857085,137.02482774333336,679620.438594172,4122625.307046182
1596,[2021-02-22 14:47:15.433] $GPGGA,54715.0,3713.9714249,N,13701.4896641,E,4,15,0.8,91.8127,M,37.55,M,3.0,0000*62,37.232857081666666,137.024827735,679620.4378627567,4122625.306660513
1597,[2021-02-22 14:47:15.543] $GPGGA,54715.1,3713.9714249,N,13701.4896646,E,4,15,0.8,91.8128,M,37.55,M,3.0,0000*6B,37.232857081666666,137.02482774333336,679620.4386020837,4122625.306676329
1598,[2021-02-22 14:47:15.636] $GPGGA,54715.2,3713.9714246,N,13701.489664300001,E,4,15,0.8,91.8126,M,37.55,M,3.0,0000*6C,37.23285707666666,137.02482773833336,679620.4381703556,4122625.306112057
1599,[2021-02-22 14:47:15.761] $GPGGA,54715.3,3713.9714236999994,N,13701.489663999999,E,4,15,0.8,91.8137,M,37.55,M,3.0,0000*68,37.23285706166666,137.02482773333332,679620.4377623606,4122625.304438222
1600,[2021-02-22 14:47:15.840] $GPGGA,54715.4,3713.9714233000004,N,13701.4896637,E,4,15,0.8,91.8121,M,37.55,M,3.0,0000*6C,37.23285705500001,137.02482772833332,679620.4373345883,4122625.3036890263
1601,[2021-02-22 14:47:15.965] $GPGGA,54715.5,3713.9714221,N,13701.489662,E,4,15,0.8,91.8132,M,37.55,M,3.0,0000*6A,37.232857034999995,137.0248277,679620.434868358,4122625.301416124
1602,[2021-02-22 14:47:16.043] $GPGGA,54715.6,3713.9714217,N,13701.4896618,E,4,15,0.8,91.8149,M,37.55,M,3.0,0000*6B,37.23285702833333,137.02482769666665,679620.4345884479,4122625.30067009
1603,[2021-02-22 14:47:16.168] $GPGGA,54715.7,3713.9714221,N,13701.489661399999,E,4,15,0.8,91.8153,M,37.55,M,3.0,0000*68,37.232857034999995,137.02482768999997,679620.4339811641,4122625.301397146
1604,[2021-02-22 14:47:16.246] $GPGGA,54715.8,3713.9714225999996,N,13701.489661000001,E,4,15,0.8,91.8164,M,37.55,M,3.0,0000*60,37.232857043333325,137.02482768333337,679620.4333699311,4122625.3023091303
1605,[2021-02-22 14:47:16.355] $GPGGA,54715.9,3713.9714229,N,13701.4896626,E,4,15,0.8,91.815,M,37.55,M,3.0,0000*6C,37.23285704833333,137.02482770999998,679620.4357238979,4122625.3029145217
1606,[2021-02-22 14:47:16.433] $GPGGA,54716.0,3713.9714233000004,N,13701.4896644,E,4,15,0.8,91.8135,M,37.55,M,4.0,0000*6D,37.23285705500001,137.02482774,679620.4383696467,4122625.3037111675
1607,[2021-02-22 14:47:16.543] $GPGGA,54716.1,3713.9714239,N,13701.489666100002,E,4,15,0.8,91.8128,M,37.55,M,4.0,0000*6D,37.232857065,137.02482776833338,679620.4408596193,4122625.3048745007
