,Format,Time,Latitude,LatType,Longitude,LonType,Status,Satellite,LevelAccuracy,Altitude(sea),M(sea),Altitude(geoid),M(geoid),DGPS use,checksum,Lat,Lon,UTM_X,UTM_Y
1391,[2021-02-22 14:28:35.369] $GPGGA,52835.6,3713.9714208000005,N,13701.489647999999,E,4,14.0,0.9,91.8258,M,37.55,M,3.0,0000*6E,37.232857013333344,137.02482746666664,679620.4142186856,4122625.2985692434
1392,[2021-02-22 14:28:35.479] $GPGGA,52835.7,3713.9714212,N,13701.4896465,E,4,14.0,0.9,91.8262,M,37.55,M,3.0,0000*66,37.232857020000004,137.02482744166664,679620.4119848877,4122625.2992615052
1393,[2021-02-22 14:28:35.557] $GPGGA,52835.8,3713.9714212999997,N,13701.4896467,E,4,14.0,0.9,91.8277,M,37.55,M,3.0,0000*6E,37.23285702166666,137.024827445,679620.4122766653,4122625.2994527575
1394,[2021-02-22 14:28:35.666] $GPGGA,52835.9,3713.9714219,N,13701.4896466,E,4,14.0,0.9,91.8274,M,37.55,M,3.0,0000*67,37.232857031666676,137.0248274433333,679620.4121050609,4122625.3005591594
1395,[2021-02-22 14:28:35.760] $GPGGA,52836.0,3713.9714223000005,N,13701.4896463,E,4,14.0,0.9,91.8254,M,37.55,M,4.0,0000*64,37.23285703833334,137.02482743833335,679620.4116456461,4122625.3012893787
1396,[2021-02-22 14:28:35.854] $GPGGA,52836.1,3713.9714227,N,13701.489647100001,E,4,14.0,0.9,91.8241,M,37.55,M,4.0,0000*66,37.232857044999996,137.02482745166668,679620.4128127432,4122625.302054392
1397,[2021-02-22 14:28:35.948] $GPGGA,52836.2,3713.9714218000004,N,13701.4896458,E,4,14.0,0.9,91.8241,M,37.55,M,4.0,0000*62,37.232857030000005,137.02482743000002,679620.410926103,4122625.3003489277
1398,[2021-02-22 14:28:36.073] $GPGGA,52836.3,3713.9714210999996,N,13701.489646099999,E,4,14.0,0.9,91.825,M,37.55,M,4.0,0000*60,37.23285701833333,137.02482743499996,679620.4113973832,4122625.2990639247
1399,[2021-02-22 14:28:36.151] $GPGGA,52836.4,3713.9714204,N,13701.4896449,E,4,14.0,0.9,91.8264,M,37.55,M,4.0,0000*6E,37.23285700666667,137.02482741500003,679620.4096507004,4122625.2977314782
1400,[2021-02-22 14:28:36.276] $GPGGA,52836.5,3713.9714218000004,N,13701.489644,E,4,14.0,0.9,91.8279,M,37.55,M,4.0,0000*67,37.232857030000005,137.0248274,679620.4082645306,4122625.3002919927
1401,[2021-02-22 14:28:36.369] $GPGGA,52836.6,3713.9714238000006,N,13701.489644799998,E,4,14.0,0.9,91.8285,M,37.55,M,4.0,0000*6D,37.23285706333334,137.0248274133333,679620.4093683312,4122625.3040158413
1402,[2021-02-22 14:28:36.448] $GPGGA,52836.7,3713.971425,N,13701.4896466,E,4,14.0,0.9,91.8299,M,37.55,M,4.0,0000*63,37.23285708333334,137.0248274433333,679620.4119824284,4122625.306291904
1403,[2021-02-22 14:28:36.573] $GPGGA,52836.8,3713.9714267,N,13701.4896485,E,4,14.0,0.9,91.829,M,37.55,M,4.0,0000*6C,37.23285711166667,137.02482747500002,679620.4147246175,4122625.3094957643
1404,[2021-02-22 14:28:36.651] $GPGGA,52836.9,3713.9714267,N,13701.489649599998,E,4,14.0,0.9,91.8293,M,37.55,M,4.0,0000*6C,37.23285711166667,137.0248274933333,679620.4163511271,4122625.3095305576
1405,[2021-02-22 14:28:36.776] $GPGGA,52837.0,3713.9714255000004,N,13701.4896505,E,4,14.0,0.9,91.8265,M,37.55,M,5.0,0000*66,37.232857091666666,137.02482750833332,679620.4177293851,4122625.307339899
1406,[2021-02-22 14:28:36.869] $GPGGA,52837.1,3713.9714249,N,13701.489653400002,E,4,14.0,0.9,91.8282,M,37.55,M,5.0,0000*61,37.232857081666666,137.0248275566667,679620.4220412092,4122625.306322065
1407,[2021-02-22 14:28:36.979] $GPGGA,52837.2,3713.9714255000004,N,13701.489655200001,E,4,14.0,0.9,91.8264,M,37.55,M,5.0,0000*67,37.232857091666666,137.02482758666667,679620.4246790395,4122625.3074885644
1408,[2021-02-22 14:28:37.057] $GPGGA,52837.3,3713.9714264,N,13701.4896556,E,4,14.0,0.9,91.8256,M,37.55,M,5.0,0000*61,37.232857106666664,137.02482759333333,679620.4252348945,4122625.30916556
1409,[2021-02-22 14:28:37.166] $GPGGA,52837.4,3713.9714259,N,13701.4896558,E,4,14.0,0.9,91.8273,M,37.55,M,5.0,0000*61,37.232857098333334,137.02482759666668,679620.4255504075,4122625.3082472505
1410,[2021-02-22 14:28:37.260] $GPGGA,52837.5,3713.9714258,N,13701.4896563,E,4,14.0,0.9,91.8285,M,37.55,M,5.0,0000*60,37.23285709666666,137.024827605,679620.4262936882,4122625.3080781368
1411,[2021-02-22 14:28:37.369] $GPGGA,52837.6,3713.9714258,N,13701.4896556,E,4,14.0,0.9,91.828,M,37.55,M,5.0,0000*60,37.23285709666666,137.02482759333333,679620.42525863,4122625.3080559955
1412,[2021-02-22 14:28:37.447] $GPGGA,52837.7,3713.9714264,N,13701.489655000001,E,4,14.0,0.9,91.8289,M,37.55,M,5.0,0000*61,37.232857106666664,137.02482758333335,679620.4243477075,4122625.3091465817
1413,[2021-02-22 14:28:37.573] $GPGGA,52837.8,3713.9714264,N,13701.489654299998,E,4,14.0,0.9,91.8269,M,37.55,M,5.0,0000*62,37.232857106666664,137.0248275716666,679620.4233126469,4122625.30912444
1414,[2021-02-22 14:28:37.651] $GPGGA,52837.9,3713.9714247,N,13701.489652200002,E,4,14.0,0.9,91.8274,M,37.55,M,5.0,0000*69,37.23285707833333,137.0248275366667,679620.4202747401,4122625.305914252
1415,[2021-02-22 14:28:37.776] $GPGGA,52838.0,3713.9714231,N,13701.489651499998,E,4,14.0,0.9,91.8271,M,37.55,M,6.0,0000*6C,37.23285705166666,137.02482752499995,679620.4193029716,4122625.3029332757
1416,[2021-02-22 14:28:37.869] $GPGGA,52838.1,3713.9714212,N,13701.489649500001,E,4,14.0,0.9,91.8252,M,37.55,M,6.0,0000*64,37.232857020000004,137.02482749166668,679620.416420841,4122625.2993563977
1417,[2021-02-22 14:28:37.979] $GPGGA,52838.2,3713.9714197,N,13701.489648700002,E,4,14.0,0.9,91.8256,M,37.55,M,1.0,0000*69,37.23285699499999,137.02482747833335,679620.4152972586,4122625.296557183
1418,[2021-02-22 14:28:38.072] $GPGGA,52838.3,3713.9714196000004,N,13701.489648700002,E,4,14.0,0.9,91.8274,M,37.55,M,1.0,0000*69,37.23285699333334,137.02482747833335,679620.4153012146,4122625.296372257
1419,[2021-02-22 14:28:38.151] $GPGGA,52838.4,3713.9714200000003,N,13701.4896466,E,4,14.0,0.9,91.827,M,37.55,M,1.0,0000*69,37.232857,137.0248274433333,679620.4121802228,4122625.2970455424
1420,[2021-02-22 14:28:38.276] $GPGGA,52838.5,3713.9714204,N,13701.4896442,E,4,14.0,0.9,91.8275,M,37.55,M,1.0,0000*6F,37.23285700666667,137.02482740333335,679620.4086156443,4122625.2977093374
1421,[2021-02-22 14:28:38.354] $GPGGA,52838.6,3713.9714206,N,13701.4896443,E,4,14.0,0.9,91.8273,M,37.55,M,1.0,0000*69,37.232857010000004,137.024827405,679620.408755597,4122625.2980823545
1422,[2021-02-22 14:28:38.479] $GPGGA,52838.7,3713.971421,N,13701.4896444,E,4,14.0,0.9,91.8256,M,37.55,M,1.0,0000*6F,37.23285701666667,137.0248274066667,679620.4088876402,4122625.2988252263
1423,[2021-02-22 14:28:38.557] $GPGGA,52838.8,3713.9714212999997,N,13701.4896425,E,4,14.0,0.9,91.8272,M,37.55,M,1.0,0000*62,37.23285702166666,137.02482737500003,679620.406066338,4122625.2993199085
1424,[2021-02-22 14:28:38.666] $GPGGA,52838.9,3713.9714204,N,13701.489641299999,E,4,14.0,0.9,91.8274,M,37.55,M,1.0,0000*66,37.23285700666667,137.02482735499996,679620.4043275556,4122625.2976176077
1425,[2021-02-22 14:28:38.760] $GPGGA,52839.0,3713.9714217,N,13701.489642100001,E,4,14.0,0.9,91.8262,M,37.55,M,2.0,0000*69,37.23285702833333,137.02482736833335,679620.405459054,4122625.3000469655
1426,[2021-02-22 14:28:38.854] $GPGGA,52839.1,3713.9714215000004,N,13701.4896411,E,4,14.0,0.9,91.8271,M,37.55,M,2.0,0000*6B,37.23285702500001,137.02482735166666,679620.403988314,4122625.2996454816
1427,[2021-02-22 14:28:38.963] $GPGGA,52839.2,3713.971421,N,13701.489639700001,E,4,14.0,0.9,91.8282,M,37.55,M,2.0,0000*68,37.23285701666667,137.02482732833334,679620.4019379858,4122625.2986765625
1428,[2021-02-22 14:28:39.072] $GPGGA,52839.3,3713.9714219,N,13701.489639700001,E,4,14.0,0.9,91.8279,M,37.55,M,2.0,0000*64,37.232857031666676,137.02482732833334,679620.4019023827,4122625.3003409076
1429,[2021-02-22 14:28:39.150] $GPGGA,52839.4,3713.9714225999996,N,13701.4896411,E,4,14.0,0.9,91.8269,M,37.55,M,2.0,0000*67,37.232857043333325,137.02482735166666,679620.4039447992,4122625.30167968
1430,[2021-02-22 14:28:39.276] $GPGGA,52839.5,3713.9714227,N,13701.4896417,E,4,14.0,0.9,91.8285,M,37.55,M,2.0,0000*63,37.232857044999996,137.02482736166664,679620.4048280327,4122625.301883586
1431,[2021-02-22 14:28:39.354] $GPGGA,52839.6,3713.9714225999996,N,13701.4896419,E,4,14.0,0.9,91.83,M,37.55,M,2.0,0000*63,37.232857043333325,137.024827365,679620.4051277197,4122625.3017049846
1432,[2021-02-22 14:28:39.479] $GPGGA,52839.7,3713.9714225000002,N,13701.489642800001,E,4,14.0,0.9,91.8293,M,37.55,M,2.0,0000*68,37.232857041666676,137.02482738000003,679620.406462463,4122625.3015485257
1433,[2021-02-22 14:28:39.557] $GPGGA,52839.8,3713.9714229,N,13701.4896432,E,4,14.0,0.9,91.8276,M,37.55,M,2.0,0000*6B,37.23285704833333,137.02482738666666,679620.4070380953,4122625.3023008863
1434,[2021-02-22 14:28:39.666] $GPGGA,52839.9,3713.9714236,N,13701.489644,E,4,14.0,0.9,91.8269,M,37.55,M,2.0,0000*6F,37.23285706000001,137.0248274,679620.4081933247,4122625.3036206816
1435,[2021-02-22 14:28:39.744] $GPGGA,52840.0,3713.9714229,N,13701.489642800001,E,4,14.0,0.9,91.8238,M,37.55,M,3.0,0000*6D,37.23285704833333,137.02482738000003,679620.4064466394,4122625.3022882342
1436,[2021-02-22 14:28:39.854] $GPGGA,52840.1,3713.9714225999996,N,13701.489643500001,E,4,14.0,0.9,91.8255,M,37.55,M,3.0,0000*64,37.232857043333325,137.02482739166666,679620.4074935587,4122625.3017555936
1437,[2021-02-22 14:28:39.979] $GPGGA,52840.2,3713.9714225000002,N,13701.489643399998,E,4,14.0,0.9,91.8249,M,37.55,M,3.0,0000*68,37.232857041666676,137.02482738999996,679620.4073496455,4122625.3015675037
1438,[2021-02-22 14:28:40.057] $GPGGA,52840.3,3713.9714227,N,13701.4896438,E,4,14.0,0.9,91.8238,M,37.55,M,3.0,0000*61,37.232857044999996,137.02482739666667,679620.4079331985,4122625.30195001
1439,[2021-02-22 14:28:40.182] $GPGGA,52840.4,3713.9714217,N,13701.4896432,E,4,14.0,0.9,91.8254,M,37.55,M,3.0,0000*65,37.23285702833333,137.02482738666666,679620.407085566,4122625.3000817588
1440,[2021-02-22 14:28:40.260] $GPGGA,52840.5,3713.9714221,N,13701.489643,E,4,14.0,0.9,91.8246,M,37.55,M,3.0,0000*60,37.232857034999995,137.02482738333336,679620.4067740156,4122625.3008151418
1441,[2021-02-22 14:28:40.369] $GPGGA,52840.6,3713.9714209,N,13701.489643,E,4,14.0,0.9,91.8254,M,37.55,M,3.0,0000*6A,37.23285701499999,137.02482738333336,679620.4068214863,4122625.2985960147
1442,[2021-02-22 14:28:40.447] $GPGGA,52840.7,3713.9714206,N,13701.4896426,E,4,14.0,0.9,91.8267,M,37.55,M,3.0,0000*63,37.232857010000004,137.02482737666668,679620.4062418937,4122625.2980285822
1443,[2021-02-22 14:28:40.572] $GPGGA,52840.8,3713.9714208000005,N,13701.489642100001,E,4,14.0,0.9,91.8258,M,37.55,M,3.0,0000*69,37.232857013333344,137.02482736833335,679620.405494657,4122625.298382622
1444,[2021-02-22 14:28:40.650] $GPGGA,52840.9,3713.9714205,N,13701.4896419,E,4,14.0,0.9,91.827,M,37.55,M,3.0,0000*64,37.232857008333326,137.024827365,679620.4052107935,4122625.2978215115
1445,[2021-02-22 14:28:40.775] $GPGGA,52841.0,3713.9714203000003,N,13701.489641799999,E,4,14.0,0.9,91.826,M,37.55,M,4.0,0000*6D,37.23285700500001,137.0248273633333,679620.4050708362,4122625.297448497
1446,[2021-02-22 14:28:40.869] $GPGGA,52841.1,3713.9714197,N,13701.4896412,E,4,14.0,0.9,91.8273,M,37.55,M,4.0,0000*6A,37.23285699499999,137.0248273533333,679620.4042073846,4122625.2963199527
1447,[2021-02-22 14:28:40.979] $GPGGA,52841.2,3713.9714181000004,N,13701.489639899999,E,4,14.0,0.9,91.8296,M,37.55,M,4.0,0000*61,37.23285696833334,137.02482733166664,679620.4023484333,4122625.293319999
1448,[2021-02-22 14:28:41.057] $GPGGA,52841.3,3713.971419,N,13701.489639500001,E,4,14.0,0.9,91.8287,M,37.55,M,4.0,0000*6C,37.232856983333335,137.02482732500005,679620.4017213768,4122625.294971691
1449,[2021-02-22 14:28:41.166] $GPGGA,52841.4,3713.971419,N,13701.489639700001,E,4,14.0,0.9,91.8284,M,37.55,M,4.0,0000*6A,37.232856983333335,137.02482732833334,679620.4020171036,4122625.2949780165
1450,[2021-02-22 14:28:41.244] $GPGGA,52841.5,3713.9714188000003,N,13701.4896398,E,4,14.0,0.9,91.8278,M,37.55,M,4.0,0000*6E,37.23285698,137.02482733,679620.4021728798,4122625.294611326
1451,[2021-02-22 14:28:41.369] $GPGGA,52841.6,3713.9714184,N,13701.489639500001,E,4,14.0,0.9,91.8288,M,37.55,M,4.0,0000*63,37.232856973333334,137.02482732500005,679620.4017451121,4122625.2938621272
1452,[2021-02-22 14:28:41.447] $GPGGA,52841.7,3713.9714178000004,N,13701.4896389,E,4,14.0,0.9,91.8301,M,37.55,M,4.0,0000*6C,37.23285696333334,137.024827315,679620.4008816537,4122625.2927335864
1453,[2021-02-22 14:28:41.572] $GPGGA,52841.8,3713.9714191,N,13701.4896391,E,4,14.0,0.9,91.8292,M,37.55,M,4.0,0000*66,37.23285698499999,137.02482731833334,679620.4011259584,4122625.2951439647
1454,[2021-02-22 14:28:41.682] $GPGGA,52841.9,3713.9714188000003,N,13701.489638299998,E,4,14.0,0.9,91.8288,M,37.55,M,4.0,0000*67,37.23285698,137.02482730499997,679620.3999549032,4122625.2945638797
1455,[2021-02-22 14:28:41.760] $GPGGA,52842.0,3713.9714194,N,13701.4896386,E,4,14.0,0.9,91.826,M,37.55,M,5.0,0000*62,37.23285699,137.02482731,679620.400374766,4122625.2956829327
1456,[2021-02-22 14:28:41.853] $GPGGA,52842.1,3713.971418,N,13701.4896379,E,4,14.0,0.9,91.8287,M,37.55,M,5.0,0000*6F,37.23285696666667,137.02482729833332,679620.3993950924,4122625.29307181
1457,[2021-02-22 14:28:41.947] $GPGGA,52842.2,3713.9714187,N,13701.489638299998,E,4,14.0,0.9,91.8277,M,37.55,M,5.0,0000*61,37.23285697833334,137.02482730499997,679620.3999588591,4122625.294378953
1458,[2021-02-22 14:28:42.072] $GPGGA,52842.3,3713.9714192,N,13701.489637600002,E,4,14.0,0.9,91.8299,M,37.55,M,5.0,0000*6E,37.23285698666667,137.02482729333337,679620.3989040303,4122625.295281447
1459,[2021-02-22 14:28:42.150] $GPGGA,52842.4,3713.9714197999997,N,13701.4896379,E,4,14.0,0.9,91.8309,M,37.55,M,5.0,0000*64,37.23285699666667,137.02482729833332,679620.3993238864,4122625.2964005
1460,[2021-02-22 14:28:42.275] $GPGGA,52842.5,3713.971419,N,13701.489638299998,E,4,14.0,0.9,91.8307,M,37.55,M,5.0,0000*66,37.232856983333335,137.02482730499997,679620.3999469914,4122625.294933733
1461,[2021-02-22 14:28:42.353] $GPGGA,52842.6,3713.9714200000003,N,13701.4896398,E,4,14.0,0.9,91.8309,M,37.55,M,5.0,0000*6B,37.232857,137.02482733,679620.4021254091,4122625.296830454
1462,[2021-02-22 14:28:42.478] $GPGGA,52842.7,3713.9714195,N,13701.489640600003,E,4,14.0,0.9,91.8289,M,37.55,M,5.0,0000*6C,37.23285699166667,137.02482734333336,679620.4033281092,4122625.295931121
1463,[2021-02-22 14:28:42.557] $GPGGA,52842.8,3713.9714197999997,N,13701.489640799999,E,4,14.0,0.9,91.8281,M,37.55,M,5.0,0000*68,37.23285699666667,137.02482734666665,679620.4036119683,4122625.2964922288
1464,[2021-02-22 14:28:42.666] $GPGGA,52842.9,3713.9714196000004,N,13701.489641999999,E,4,14.0,0.9,91.8285,M,37.55,M,5.0,0000*69,37.23285699333334,137.02482736666664,679620.4053942587,4122625.2961603324
1465,[2021-02-22 14:28:42.760] $GPGGA,52843.0,3713.9714200999997,N,13701.4896442,E,4,14.0,0.9,91.8243,M,37.55,M,6.0,0000*61,37.23285700166666,137.02482740333335,679620.4086275119,4122625.2971545537
1466,[2021-02-22 14:28:42.853] $GPGGA,52843.1,3713.9714195,N,13701.4896456,E,4,14.0,0.9,91.8251,M,37.55,M,6.0,0000*68,37.23285699166667,137.02482742666666,679620.4107213549,4122625.2960892743
1467,[2021-02-22 14:28:42.963] $GPGGA,52843.2,3713.9714182,N,13701.4896493,E,4,14.0,0.9,91.8439,M,37.55,M,1.0,0000*6B,37.23285697,137.02482748833336,679620.4162437886,4122625.293802253
1468,[2021-02-22 14:28:43.072] $GPGGA,52843.3,3713.971419,N,13701.4896497,E,4,14.0,0.9,91.856,M,37.55,M,1.0,0000*60,37.232856983333335,137.02482749499998,679620.4168035972,4122625.2952943225
1469,[2021-02-22 14:28:43.150] $GPGGA,52843.4,3713.9714197,N,13701.489649500001,E,4,14.0,0.9,91.8638,M,37.55,M,1.0,0000*6C,37.23285699499999,137.02482749166668,679620.4164801793,4122625.2965824874
1470,[2021-02-22 14:28:43.275] $GPGGA,52843.5,3713.9714206,N,13701.489649899999,E,4,14.0,0.9,91.8664,M,37.55,M,1.0,0000*63,37.232857010000004,137.02482749833328,679620.4170360297,4122625.298259486
1471,[2021-02-22 14:28:43.369] $GPGGA,52843.6,3713.9714210999996,N,13701.48965,E,4,14.0,0.9,91.8683,M,37.55,M,1.0,0000*6E,37.23285701833333,137.0248275,679620.4171641194,4122625.299187285
1472,[2021-02-22 14:28:43.463] $GPGGA,52843.7,3713.9714217,N,13701.489648100001,E,4,14.0,0.9,91.8704,M,37.55,M,1.0,0000*6F,37.23285702833333,137.02482746833337,679620.414330954,4122625.3002367495
1473,[2021-02-22 14:28:43.572] $GPGGA,52843.8,3713.9714224,N,13701.4896486,E,4,14.0,0.9,91.8703,M,37.55,M,1.0,0000*60,37.232857040000006,137.02482747666667,679620.4150425852,4122625.301547057
1474,[2021-02-22 14:28:43.650] $GPGGA,52843.9,3713.971422,N,13701.4896477,E,4,14.0,0.9,91.871,M,37.55,M,1.0,0000*69,37.23285703333334,137.0248274616667,679620.413727626,4122625.30077888
1475,[2021-02-22 14:28:43.775] $GPGGA,52844.0,3713.9714209,N,13701.4896478,E,4,14.0,0.9,91.8671,M,37.55,M,2.0,0000*66,37.23285701499999,137.02482746333334,679620.413919003,4122625.2987478413
1476,[2021-02-22 14:28:43.869] $GPGGA,52844.1,3713.9714189,N,13701.4896484,E,4,14.0,0.9,91.8655,M,37.55,M,2.0,0000*69,37.23285698166667,137.02482747333332,679620.41488531,4122625.2950682766
1477,[2021-02-22 14:28:43.978] $GPGGA,52844.2,3713.9714172,N,13701.4896485,E,4,14.0,0.9,91.8654,M,37.55,M,2.0,0000*6E,37.23285695333333,137.02482747500002,679620.4151004269,4122625.291927676
1478,[2021-02-22 14:28:44.056] $GPGGA,52844.3,3713.971416,N,13701.489649500001,E,4,14.0,0.9,91.8662,M,37.55,M,2.0,0000*68,37.23285693333333,137.02482749166668,679620.4166265471,4122625.2897401806
1479,[2021-02-22 14:28:44.181] $GPGGA,52844.4,3713.9714166999997,N,13701.489649399999,E,4,14.0,0.9,91.8676,M,37.55,M,2.0,0000*6C,37.23285694499999,137.02482749,679620.4164509892,4122625.2910315064
1480,[2021-02-22 14:28:44.260] $GPGGA,52844.5,3713.9714178000004,N,13701.489649500001,E,4,14.0,0.9,91.8669,M,37.55,M,2.0,0000*6C,37.23285696333334,137.02482749166668,679620.4165553411,4122625.2930688714
1481,[2021-02-22 14:28:44.369] $GPGGA,52844.6,3713.9714185000003,N,13701.48965,E,4,14.0,0.9,91.8662,M,37.55,M,2.0,0000*6B,37.232856975000004,137.0248275,679620.4172669725,4122625.294379178
1482,[2021-02-22 14:28:44.447] $GPGGA,52844.7,3713.9714185999997,N,13701.489650200001,E,4,14.0,0.9,91.8663,M,37.55,M,2.0,0000*6A,37.23285697666667,137.02482750333334,679620.4175587478,4122625.2945704297
1483,[2021-02-22 14:28:44.572] $GPGGA,52844.8,3713.9714175,N,13701.489649899999,E,4,14.0,0.9,91.8665,M,37.55,M,2.0,0000*6C,37.232856958333336,137.02482749833328,679620.4171586623,4122625.292526741
1484,[2021-02-22 14:28:44.650] $GPGGA,52844.9,3713.9714162,N,13701.4896505,E,4,14.0,0.9,91.866,M,37.55,M,2.0,0000*6A,37.232856936666664,137.02482750833332,679620.4180972828,4122625.2901416654
1485,[2021-02-22 14:28:44.775] $GPGGA,52845.0,3713.9714155,N,13701.48965,E,4,14.0,0.9,91.8643,M,37.55,M,3.0,0000*63,37.232856925,137.0248275,679620.4173856492,4122625.2888313592
1486,[2021-02-22 14:28:44.869] $GPGGA,52845.1,3713.9714159,N,13701.4896505,E,4,14.0,0.9,91.8658,M,37.55,M,3.0,0000*61,37.23285693166667,137.02482750833332,679620.4181091504,4122625.2895868835
1487,[2021-02-22 14:28:44.978] $GPGGA,52845.2,3713.971416,N,13701.4896525,E,4,14.0,0.9,91.8664,M,37.55,M,3.0,0000*65,37.23285693333333,137.0248275416667,679620.4210624981,4122625.2898350717
1488,[2021-02-22 14:28:45.056] $GPGGA,52845.3,3713.9714162,N,13701.4896546,E,4,14.0,0.9,91.8666,M,37.55,M,3.0,0000*61,37.232856936666664,137.02482757666664,679620.4241597457,4122625.2902713506
1489,[2021-02-22 14:28:45.166] $GPGGA,52845.4,3713.9714162,N,13701.489655399999,E,4,14.0,0.9,91.867,M,37.55,M,3.0,0000*62,37.232856936666664,137.02482758999997,679620.4253426639,4122625.2902966556
1490,[2021-02-22 14:28:45.275] $GPGGA,52845.5,3713.9714168000005,N,13701.4896553,E,4,14.0,0.9,91.8657,M,37.55,M,3.0,0000*6B,37.23285694666667,137.02482758833332,679620.4251710663,4122625.2914030566
1491,[2021-02-22 14:28:45.353] $GPGGA,52845.6,3713.971417,N,13701.489653400002,E,4,14.0,0.9,91.8656,M,37.55,M,3.0,0000*61,37.232856950000006,137.0248275566667,679620.4223537244,4122625.2917128135
1492,[2021-02-22 14:28:45.478] $GPGGA,52845.7,3713.9714181000004,N,13701.489651299999,E,4,14.0,0.9,91.8664,M,37.55,M,3.0,0000*6A,37.23285696833334,137.02482752166665,679620.4192050392,4122625.2936805882
1493,[2021-02-22 14:28:45.556] $GPGGA,52845.8,3713.971419,N,13701.489649500001,E,4,14.0,0.9,91.8652,M,37.55,M,3.0,0000*6F,37.232856983333335,137.02482749166668,679620.4165078705,4122625.2952879975
1494,[2021-02-22 14:28:45.681] $GPGGA,52845.9,3713.9714197999997,N,13701.489647999999,E,4,14.0,0.9,91.8657,M,37.55,M,3.0,0000*67,37.23285699666667,137.02482746666664,679620.4142582444,4122625.2967199693
1495,[2021-02-22 14:28:45.759] $GPGGA,52846.0,3713.9714195,N,13701.4896463,E,4,14.0,0.9,91.8643,M,37.55,M,4.0,0000*6F,37.23285699166667,137.02482743833335,679620.411756411,4122625.2961114156
1496,[2021-02-22 14:28:45.853] $GPGGA,52846.1,3713.9714185999997,N,13701.4896464,E,4,14.0,0.9,91.8628,M,37.55,M,4.0,0000*66,37.23285697666667,137.02482744,679620.4119398785,4122625.294450234
1497,[2021-02-22 14:28:45.947] $GPGGA,52846.2,3713.9714188000003,N,13701.4896459,E,4,14.0,0.9,91.8631,M,37.55,M,4.0,0000*6D,37.23285698,137.02482743166667,679620.411192642,4122625.2948042727
1498,[2021-02-22 14:28:46.072] $GPGGA,52846.3,3713.9714200000003,N,13701.4896443,E,4,14.0,0.9,91.8633,M,37.55,M,4.0,0000*66,37.232857,137.024827405,679620.4087793323,4122625.296972791
1499,[2021-02-22 14:28:46.150] $GPGGA,52846.4,3713.9714200999997,N,13701.4896438,E,4,14.0,0.9,91.8628,M,37.55,M,4.0,0000*66,37.23285700166666,137.02482739666667,679620.4080360517,4122625.297141902
1500,[2021-02-22 14:28:46.275] $GPGGA,52846.5,3713.971421,N,13701.4896437,E,4,14.0,0.9,91.8628,M,37.55,M,4.0,0000*68,37.23285701666667,137.02482739500002,679620.4078525841,4122625.298803085
1501,[2021-02-22 14:28:46.353] $GPGGA,52846.6,3713.9714215999998,N,13701.489645200003,E,4,14.0,0.9,91.8626,M,37.55,M,4.0,0000*60,37.23285702666666,137.02482742000004,679620.4100468254,4122625.299960093
1502,[2021-02-22 14:28:46.478] $GPGGA,52846.7,3713.9714210999996,N,13701.489646799999,E,4,14.0,0.9,91.8632,M,37.55,M,4.0,0000*6A,37.23285701833333,137.02482744666665,679620.4124324393,4122625.2990860664
1503,[2021-02-22 14:28:46.556] $GPGGA,52846.8,3713.9714215999998,N,13701.489648100001,E,4,14.0,0.9,91.8627,M,37.55,M,4.0,0000*61,37.23285702666666,137.02482746833337,679620.4143349098,4122625.300051822
1504,[2021-02-22 14:28:46.666] $GPGGA,52846.9,3713.9714219,N,13701.4896492,E,4,14.0,0.9,91.8633,M,37.55,M,4.0,0000*68,37.232857031666676,137.0248274866667,679620.4159495563,4122625.3006413993
1505,[2021-02-22 14:28:46.759] $GPGGA,52847.0,3713.9714214,N,13701.4896497,E,4,14.0,0.9,91.8632,M,37.55,M,5.0,0000*68,37.23285702333334,137.02482749499998,679620.4167086559,4122625.299732578
1506,[2021-02-22 14:28:46.869] $GPGGA,52847.1,3713.9714214,N,13701.4896514,E,4,14.0,0.9,91.8635,M,37.55,M,5.0,0000*64,37.23285702333334,137.0248275233333,679620.4192223593,4122625.2997863498
1507,[2021-02-22 14:28:46.978] $GPGGA,52847.2,3713.9714212,N,13701.489651299999,E,4,14.0,0.9,91.8657,M,37.55,M,5.0,0000*62,37.232857020000004,137.02482752166665,679620.4190824067,4122625.2994133322
1508,[2021-02-22 14:28:47.056] $GPGGA,52847.3,3713.9714228,N,13701.4896524,E,4,14.0,0.9,91.8619,M,37.55,M,5.0,0000*64,37.23285704666666,137.02482754,679620.4206456288,4122625.3024069606
1509,[2021-02-22 14:28:47.166] $GPGGA,52847.4,3713.9714232,N,13701.4896518,E,4,14.0,0.9,91.8624,M,37.55,M,5.0,0000*69,37.23285705333334,137.02482753,679620.4197426159,4122625.3031276935
1510,[2021-02-22 14:28:47.259] $GPGGA,52847.5,3713.9714234,N,13701.4896525,E,4,14.0,0.9,91.8614,M,37.55,M,5.0,0000*63,37.23285705666666,137.0248275416667,679620.4207697625,4122625.303519688
1511,[2021-02-22 14:28:47.369] $GPGGA,52847.6,3713.9714234,N,13701.4896525,E,4,14.0,0.9,91.8627,M,37.55,M,5.0,0000*60,37.23285705666666,137.0248275416667,679620.4207697625,4122625.303519688
1512,[2021-02-22 14:28:47.447] $GPGGA,52847.7,3713.9714231,N,13701.4896519,E,4,14.0,0.9,91.8649,M,37.55,M,5.0,0000*63,37.23285705166666,137.02482753166666,679620.4198944364,4122625.3029459277
1513,[2021-02-22 14:28:47.572] $GPGGA,52847.8,3713.9714232,N,13701.4896521,E,4,14.0,0.9,91.8641,M,37.55,M,5.0,0000*6C,37.23285705333334,137.024827535,679620.4201862095,4122625.303137182
1514,[2021-02-22 14:28:47.650] $GPGGA,52847.9,3713.9714224,N,13701.489651299999,E,4,14.0,0.9,91.8637,M,37.55,M,5.0,0000*6A,37.232857040000006,137.02482752166665,679620.4190349359,4122625.30163246
1515,[2021-02-22 14:28:47.775] $GPGGA,52848.0,3713.9714225999996,N,13701.489651299999,E,4,14.0,0.9,91.8623,M,37.55,M,6.0,0000*68,37.232857043333325,137.02482752166665,679620.4190270242,4122625.302002312
1516,[2021-02-22 14:28:47.869] $GPGGA,52848.1,3713.9714224,N,13701.489651299999,E,4,14.0,0.9,91.8616,M,37.55,M,6.0,0000*6D,37.232857040000006,137.02482752166665,679620.4190349359,4122625.30163246
1517,[2021-02-22 14:28:47.978] $GPGGA,52848.2,3713.9714215999998,N,13701.489651299999,E,4,14.0,0.9,91.8616,M,37.55,M,1.0,0000*68,37.23285702666666,137.02482752166665,679620.4190665832,4122625.30015304
1518,[2021-02-22 14:28:48.056] $GPGGA,52848.3,3713.9714218000004,N,13701.4896514,E,4,14.0,0.9,91.862,M,37.55,M,1.0,0000*65,37.232857030000005,137.0248275233333,679620.4192065358,4122625.30052606
1519,[2021-02-22 14:28:48.166] $GPGGA,52848.4,3713.9714206999993,N,13701.4896511,E,4,14.0,0.9,91.8619,M,37.55,M,1.0,0000*63,37.23285701166665,137.02482751833335,679620.4188064594,4122625.2984823687
1520,[2021-02-22 14:28:48.259] $GPGGA,52848.5,3713.9714209,N,13701.489650900001,E,4,14.0,0.9,91.8618,M,37.55,M,1.0,0000*64,37.23285701499999,137.02482751500003,679620.4185028186,4122625.298845897
1521,[2021-02-22 14:28:48.369] $GPGGA,52848.6,3713.9714209,N,13701.4896511,E,4,14.0,0.9,91.8626,M,37.55,M,1.0,0000*63,37.23285701499999,137.02482751833335,679620.4187985476,4122625.298852223
1522,[2021-02-22 14:28:48.462] $GPGGA,52848.7,3713.9714203000003,N,13701.489651299999,E,4,14.0,0.9,91.8634,M,37.55,M,1.0,0000*69,37.23285700500001,137.02482752166665,679620.4191180096,4122625.2977489876
1523,[2021-02-22 14:28:48.572] $GPGGA,52848.8,3713.9714206999993,N,13701.489651700002,E,4,14.0,0.9,91.8632,M,37.55,M,1.0,0000*60,37.23285701166665,137.02482752833336,679620.4196936509,4122625.298501347
1524,[2021-02-22 14:28:48.650] $GPGGA,52848.9,3713.9714212999997,N,13701.4896512,E,4,14.0,0.9,91.8619,M,37.55,M,1.0,0000*68,37.23285702166666,137.02482752,679620.4189305885,4122625.299595095
1525,[2021-02-22 14:28:48.775] $GPGGA,52849.0,3713.9714221999993,N,13701.489649899999,E,4,14.0,0.9,91.8596,M,37.55,M,2.0,0000*67,37.23285703666666,137.02482749833328,679620.4169727357,4122625.30121832
1526,[2021-02-22 14:28:48.869] $GPGGA,52849.1,3713.9714225000002,N,13701.489649599998,E,4,14.0,0.9,91.8608,M,37.55,M,2.0,0000*6A,37.232857041666676,137.0248274933333,679620.4165172745,4122625.301763615
1527,[2021-02-22 14:28:48.962] $GPGGA,52849.2,3713.9714219,N,13701.489648299997,E,4,14.0,0.9,91.8623,M,37.55,M,2.0,0000*6B,37.232857031666676,137.0248274716666,679620.4146187643,4122625.3006129325
1528,[2021-02-22 14:28:49.072] $GPGGA,52849.3,3713.9714221999993,N,13701.4896484,E,4,14.0,0.9,91.8617,M,37.55,M,2.0,0000*62,37.23285703666666,137.02482747333332,679620.4147547658,4122625.301170875
1529,[2021-02-22 14:28:49.150] $GPGGA,52849.4,3713.9714223000005,N,13701.4896472,E,4,14.0,0.9,91.8615,M,37.55,M,2.0,0000*6F,37.23285703833334,137.02482745333333,679620.4129764312,4122625.301317848
1530,[2021-02-22 14:28:49.275] $GPGGA,52849.5,3713.9714235,N,13701.489647100001,E,4,14.0,0.9,91.8604,M,37.55,M,2.0,0000*6A,37.23285705833333,137.02482745166668,679620.4127810961,4122625.3035338097
1531,[2021-02-22 14:28:49.353] $GPGGA,52849.6,3713.9714238000006,N,13701.489647299999,E,4,14.0,0.9,91.8607,M,37.55,M,2.0,0000*65,37.23285706333334,137.02482745499998,679620.4130649552,4122625.304094919
1532,[2021-02-22 14:28:49.478] $GPGGA,52849.7,3713.9714243,N,13701.489646099999,E,4,14.0,0.9,91.8607,M,37.55,M,2.0,0000*6B,37.232857071666665,137.02482743499996,679620.4112707948,4122625.3049815963
1533,[2021-02-22 14:28:49.556] $GPGGA,52849.8,3713.9714261999993,N,13701.489646,E,4,14.0,0.9,91.8583,M,37.55,M,2.0,0000*69,37.232857103333316,137.02482743333331,679620.4110477708,4122625.30849205
1534,[2021-02-22 14:28:49.665] $GPGGA,52849.9,3713.9714261999993,N,13701.489645,E,4,14.0,0.9,91.8568,M,37.55,M,2.0,0000*6E,37.232857103333316,137.02482741666668,679620.4095691234,4122625.3084604195
1535,[2021-02-22 14:28:49.759] $GPGGA,52850.0,3713.9714254,N,13701.489645200003,E,4,14.0,0.9,91.8572,M,37.55,M,3.0,0000*62,37.232857089999996,137.02482742000004,679620.4098965018,4122625.3069873285
1536,[2021-02-22 14:28:49.853] $GPGGA,52850.1,3713.9714238000006,N,13701.4896466,E,4,14.0,0.9,91.8582,M,37.55,M,3.0,0000*61,37.23285706333334,137.0248274433333,679620.4120298991,4122625.304072777
1537,[2021-02-22 14:28:49.947] $GPGGA,52850.2,3713.9714236,N,13701.4896465,E,4,14.0,0.9,91.8587,M,37.55,M,3.0,0000*6A,37.23285706000001,137.02482744166664,679620.4118899463,4122625.3036997584
1538,[2021-02-22 14:28:50.072] $GPGGA,52850.3,3713.9714234,N,13701.489645,E,4,14.0,0.9,91.8602,M,37.55,M,3.0,0000*61,37.23285705666666,137.02482741666668,679620.4096798883,4122625.3032824583
1539,[2021-02-22 14:28:50.150] $GPGGA,52850.4,3713.9714232,N,13701.489646200002,E,4,14.0,0.9,91.8632,M,37.55,M,3.0,0000*62,37.23285705333334,137.0248274366667,679620.411462181,4122625.302950561
1540,[2021-02-22 14:28:50.275] $GPGGA,52850.5,3713.9714218000004,N,13701.489647,E,4,14.0,0.9,91.8636,M,37.55,M,3.0,0000*6C,37.232857030000005,137.02482745,679620.4127004794,4122625.3003868833
1541,[2021-02-22 14:28:50.353] $GPGGA,52850.6,3713.9714204,N,13701.489647400002,E,4,14.0,0.9,91.8631,M,37.55,M,3.0,0000*61,37.23285700666667,137.02482745666669,679620.4133473244,4122625.2978105554
1542,[2021-02-22 14:28:50.478] $GPGGA,52850.7,3713.9714205,N,13701.4896477,E,4,14.0,0.9,91.8633,M,37.55,M,3.0,0000*60,37.232857008333326,137.0248274616667,679620.4137869643,4122625.29800497
1543,[2021-02-22 14:28:50.572] $GPGGA,52850.8,3713.9714219,N,13701.4896484,E,4,14.0,0.9,91.8625,M,37.55,M,3.0,0000*69,37.232857031666676,137.02482747333332,679620.4147666334,4122625.300616095
1544,[2021-02-22 14:28:50.650] $GPGGA,52850.9,3713.9714218000004,N,13701.489648700002,E,4,14.0,0.9,91.8633,M,37.55,M,3.0,0000*6D,37.232857030000005,137.02482747833335,679620.415214185,4122625.3004406565
1545,[2021-02-22 14:28:50.775] $GPGGA,52851.0,3713.9714221,N,13701.4896492,E,4,14.0,0.9,91.8623,M,37.55,M,4.0,0000*6D,37.232857034999995,137.0248274866667,679620.4159416445,4122625.301011252
1546,[2021-02-22 14:28:50.868] $GPGGA,52851.1,3713.9714218000004,N,13701.489650900001,E,4,14.0,0.9,91.862,M,37.55,M,4.0,0000*66,37.232857030000005,137.02482751500003,679620.4184672155,4122625.3005102444
1547,[2021-02-22 14:28:50.978] $GPGGA,52851.2,3713.9714209,N,13701.4896514,E,4,14.0,0.9,91.8625,M,37.55,M,4.0,0000*6C,37.23285701499999,137.0248275233333,679620.4192421387,4122625.2988617127
1548,[2021-02-22 14:28:51.056] $GPGGA,52851.3,3713.9714219,N,13701.4896532,E,4,14.0,0.9,91.8597,M,37.55,M,4.0,0000*62,37.232857031666676,137.02482755333332,679620.4218641501,4122625.300767922
1549,[2021-02-22 14:28:51.181] $GPGGA,52851.4,3713.9714206,N,13701.489654700003,E,4,14.0,0.9,91.8596,M,37.55,M,4.0,0000*68,37.232857010000004,137.0248275783334,679620.4241335578,4122625.2984113134
1550,[2021-02-22 14:28:51.259] $GPGGA,52851.5,3713.9714203000003,N,13701.4896563,E,4,14.0,0.9,91.8593,M,37.55,M,4.0,0000*6F,37.23285700500001,137.024827605,679620.4265112621,4122625.297907142
1551,[2021-02-22 14:28:51.368] $GPGGA,52851.6,3713.9714225999996,N,13701.489657700002,E,4,14.0,0.9,91.8572,M,37.55,M,4.0,0000*61,37.232857043333325,137.02482762833338,679620.4284903888,4122625.302204748
1552,[2021-02-22 14:28:51.446] $GPGGA,52851.7,3713.9714236,N,13701.489658700002,E,4,14.0,0.9,91.8571,M,37.55,M,4.0,0000*6D,37.23285706000001,137.02482764500002,679620.4299294772,4122625.3040856533
1553,[2021-02-22 14:28:51.572] $GPGGA,52851.8,3713.971425,N,13701.4896595,E,4,14.0,0.9,91.8579,M,37.55,M,4.0,0000*69,37.23285708333334,137.0248276583333,679620.4310570086,4122625.306699939
1554,[2021-02-22 14:28:51.650] $GPGGA,52851.9,3713.971425,N,13701.489662099999,E,4,14.0,0.9,91.8571,M,37.55,M,4.0,0000*6C,37.23285708333334,137.02482770166665,679620.4349014994,4122625.3067821795
1555,[2021-02-22 14:28:51.775] $GPGGA,52852.0,3713.9714235,N,13701.4896637,E,4,14.0,0.9,91.8567,M,37.55,M,5.0,0000*64,37.23285705833333,137.02482772833332,679620.4373266767,4122625.3040588787
1556,[2021-02-22 14:28:51.868] $GPGGA,52852.1,3713.9714240999997,N,13701.489664899998,E,4,14.0,0.9,91.8559,M,37.55,M,5.0,0000*62,37.23285706833333,137.0248277483333,679620.4390773198,4122625.305206399
1557,[2021-02-22 14:28:51.978] $GPGGA,52852.2,3713.9714238000006,N,13701.489664700002,E,4,14.0,0.9,91.8561,M,37.55,M,5.0,0000*6A,37.23285706333334,137.02482774500004,679620.4387934653,4122625.3046452925
1558,[2021-02-22 14:28:52.056] $GPGGA,52852.3,3713.9714235,N,13701.489663499999,E,4,14.0,0.9,91.8562,M,37.55,M,5.0,0000*60,37.23285705833333,137.02482772499997,679620.4370309452,4122625.304052552
1559,[2021-02-22 14:28:52.165] $GPGGA,52852.4,3713.9714240000003,N,13701.4896626,E,4,14.0,0.9,91.8586,M,37.55,M,5.0,0000*6D,37.232857066666675,137.02482770999998,679620.435680383,4122625.3049487225
1560,[2021-02-22 14:28:52.259] $GPGGA,52852.5,3713.9714254,N,13701.489663100001,E,4,14.0,0.9,91.8588,M,37.55,M,5.0,0000*61,37.232857089999996,137.02482771833334,679620.4363643277,4122625.3075535167
1561,[2021-02-22 14:28:52.368] $GPGGA,52852.6,3713.9714258,N,13701.4896616,E,4,14.0,0.9,91.8596,M,37.55,M,5.0,0000*64,37.23285709666666,137.02482769333335,679620.4341305298,4122625.3082457795
1562,[2021-02-22 14:28:52.478] $GPGGA,52852.7,3713.9714249,N,13701.489661200001,E,4,14.0,0.9,91.8613,M,37.55,M,5.0,0000*6F,37.232857081666666,137.02482768666667,679620.4335746724,4122625.3065687832
1563,[2021-02-22 14:28:52.556] $GPGGA,52852.8,3713.9714244,N,13701.489660100002,E,4,14.0,0.9,91.8626,M,37.55,M,5.0,0000*69,37.23285707333334,137.0248276683334,679620.4319679423,4122625.305609354
1564,[2021-02-22 14:28:52.681] $GPGGA,52852.9,3713.9714240000003,N,13701.4896583,E,4,14.0,0.9,91.8629,M,37.55,M,5.0,0000*6A,37.232857066666675,137.02482763833333,679620.4293221912,4122625.3048127107
1565,[2021-02-22 14:28:52.759] $GPGGA,52853.0,3713.9714236999994,N,13701.4896586,E,4,14.0,0.9,91.861,M,37.55,M,6.0,0000*6E,37.23285706166666,137.0248276433333,679620.4297776523,4122625.3042674162
1566,[2021-02-22 14:28:52.853] $GPGGA,52853.1,3713.9714225000002,N,13701.489659399998,E,4,14.0,0.9,91.8616,M,37.55,M,6.0,0000*69,37.232857041666676,137.02482765666664,679620.4310080414,4122625.3020735946
1567,[2021-02-22 14:28:52.978] $GPGGA,52853.2,3713.9714221,N,13701.4896581,E,4,14.0,0.9,91.864,M,37.55,M,1.0,0000*6E,37.232857034999995,137.02482763499998,679620.4291016217,4122625.301292765
1568,[2021-02-22 14:28:53.071] $GPGGA,52853.3,3713.9714240999997,N,13701.4896566,E,4,14.0,0.9,91.8649,M,37.55,M,1.0,0000*69,37.23285706833333,137.02482761000002,679620.4268045318,4122625.304943865
1569,[2021-02-22 14:28:53.149] $GPGGA,52853.4,3713.9714261,N,13701.489654199999,E,4,14.0,0.9,91.8661,M,37.55,M,1.0,0000*60,37.23285710166667,137.02482756999996,679620.4231766501,4122625.308566496
1570,[2021-02-22 14:28:53.275] $GPGGA,52853.5,3713.9714261999993,N,13701.489654199999,E,4,14.0,0.9,91.8648,M,37.55,M,1.0,0000*69,37.232857103333316,137.02482756999996,679620.4231726943,4122625.3087514215
1571,[2021-02-22 14:28:53.353] $GPGGA,52853.6,3713.9714244999996,N,13701.4896544,E,4,14.0,0.9,91.865,M,37.55,M,1.0,0000*60,37.23285707499999,137.02482757333334,679620.4235356802,4122625.3056139844
1572,[2021-02-22 14:28:53.478] $GPGGA,52853.7,3713.9714243,N,13701.4896523,E,4,14.0,0.9,91.8647,M,37.55,M,1.0,0000*60,37.232857071666665,137.02482753833334,679620.420438426,4122625.3051777068
1573,[2021-02-22 14:28:53.556] $GPGGA,52853.8,3713.9714261,N,13701.4896514,E,4,14.0,0.9,91.8646,M,37.55,M,1.0,0000*6A,37.23285710166667,137.0248275233333,679620.4190364326,4122625.30847793
1574,[2021-02-22 14:28:53.665] $GPGGA,52853.9,3713.9714280000003,N,13701.4896506,E,4,14.0,0.9,91.8639,M,37.55,M,1.0,0000*6F,37.23285713333333,137.02482751000002,679620.4177783546,4122625.311966243
1575,[2021-02-22 14:28:53.759] $GPGGA,52854.0,3713.9714284,N,13701.489649500001,E,4,14.0,0.9,91.8625,M,37.55,M,2.0,0000*60,37.23285714,137.02482749166668,679620.416136017,4122625.3126711585
1576,[2021-02-22 14:28:53.853] $GPGGA,52854.1,3713.9714282,N,13701.4896479,E,4,14.0,0.9,91.8629,M,37.55,M,2.0,0000*69,37.23285713666667,137.024827465,679620.4137780876,4122625.3122506943
1577,[2021-02-22 14:28:53.946] $GPGGA,52854.2,3713.9714294,N,13701.489647600001,E,4,14.0,0.9,91.8621,M,37.55,M,2.0,0000*6A,37.23285715666667,137.02482746000004,679620.4132870256,4122625.314460332
1578,[2021-02-22 14:28:54.071] $GPGGA,52854.3,3713.9714299,N,13701.4896477,E,4,14.0,0.9,91.8636,M,37.55,M,2.0,0000*61,37.232857165000006,137.0248274616667,679620.4134151108,4122625.3153881324
1579,[2021-02-22 14:28:54.181] $GPGGA,52854.4,3713.9714284999995,N,13701.489647,E,4,14.0,0.9,91.8641,M,37.55,M,2.0,0000*6C,37.23285714166666,137.02482745,679620.4124354349,4122625.3127770075
1580,[2021-02-22 14:28:54.259] $GPGGA,52854.5,3713.9714273000004,N,13701.489647400002,E,4,14.0,0.9,91.8637,M,37.55,M,2.0,0000*61,37.23285712166667,137.02482745666669,679620.413074368,4122625.310570534
1581,[2021-02-22 14:28:54.368] $GPGGA,52854.6,3713.9714258,N,13701.489646799999,E,4,14.0,0.9,91.8646,M,37.55,M,2.0,0000*60,37.23285709666666,137.02482744666665,679620.4122465126,4122625.307777646
1582,[2021-02-22 14:28:54.446] $GPGGA,52854.7,3713.9714255999997,N,13701.4896467,E,4,14.0,0.9,91.8634,M,37.55,M,2.0,0000*65,37.23285709333333,137.024827445,679620.4121065622,4122625.307404629
1583,[2021-02-22 14:28:54.571] $GPGGA,52854.8,3713.9714257,N,13701.489645700001,E,4,14.0,0.9,91.8633,M,37.55,M,2.0,0000*6F,37.232857095,137.02482742833337,679620.4106239589,4122625.307557926
1584,[2021-02-22 14:28:54.649] $GPGGA,52854.9,3713.9714258,N,13701.4896459,E,4,14.0,0.9,91.8639,M,37.55,M,2.0,0000*65,37.23285709666666,137.02482743166667,679620.4109157298,4122625.3077491783
1585,[2021-02-22 14:28:54.774] $GPGGA,52855.0,3713.9714261999993,N,13701.489645399999,E,4,14.0,0.9,91.8618,M,37.55,M,3.0,0000*6B,37.232857103333316,137.02482742333333,679620.4101605813,4122625.308473071
1586,[2021-02-22 14:28:54.868] $GPGGA,52855.1,3713.9714261,N,13701.489645500002,E,4,14.0,0.9,91.8612,M,37.55,M,3.0,0000*62,37.23285710166667,137.024827425,679620.4103124042,4122625.3082913086
1587,[2021-02-22 14:28:54.978] $GPGGA,52855.2,3713.9714234,N,13701.4896451,E,4,14.0,0.9,91.8638,M,37.55,M,3.0,0000*6D,37.23285705666666,137.02482741833333,679620.4098277504,4122625.3032856206
1588,[2021-02-22 14:28:55.056] $GPGGA,52855.3,3713.9714225000002,N,13701.489643,E,4,14.0,0.9,91.8657,M,37.55,M,3.0,0000*62,37.232857041666676,137.02482738333336,679620.406758192,4122625.3015548526
1589,[2021-02-22 14:28:55.165] $GPGGA,52855.4,3713.9714231,N,13701.4896411,E,4,14.0,0.9,91.865,M,37.55,M,3.0,0000*64,37.23285705166666,137.02482735166666,679620.4039250199,4122625.3026043167
1590,[2021-02-22 14:28:55.259] $GPGGA,52855.5,3713.9714221,N,13701.489638699999,E,4,14.0,0.9,91.866,M,37.55,M,3.0,0000*6F,37.232857034999995,137.02482731166666,679620.4004158193,4122625.30067913
1591,[2021-02-22 14:28:55.368] $GPGGA,52855.6,3713.9714199,N,13701.4896365,E,4,14.0,0.9,91.867,M,37.55,M,3.0,0000*61,37.232856998333325,137.024827275,679620.3972498205,4122625.2965411423
1592,[2021-02-22 14:28:55.446] $GPGGA,52855.7,3713.9714199,N,13701.489635299999,E,4,14.0,0.9,91.8682,M,37.55,M,3.0,0000*68,37.232856998333325,137.02482725499996,679620.3954754374,4122625.296503186
1593,[2021-02-22 14:28:55.571] $GPGGA,52855.8,3713.9714205,N,13701.489634399999,E,4,14.0,0.9,91.8664,M,37.55,M,3.0,0000*6F,37.232857008333326,137.02482723999998,679620.3941209193,4122625.2975842813
1594,[2021-02-22 14:28:55.649] $GPGGA,52855.9,3713.9714203000003,N,13701.489633899999,E,4,14.0,0.9,91.8651,M,37.55,M,3.0,0000*64,37.23285700500001,137.02482723166665,679620.3933895063,4122625.297198615
1595,[2021-02-22 14:28:55.774] $GPGGA,52856.0,3713.9714204,N,13701.4896345,E,4,14.0,0.9,91.8626,M,37.55,M,4.0,0000*65,37.23285700666667,137.02482724166669,679620.3942727441,4122625.2974025197
1596,[2021-02-22 14:28:55.868] $GPGGA,52856.1,3713.9714203000003,N,13701.4896377,E,4,14.0,0.9,91.8652,M,37.55,M,4.0,0000*61,37.23285700500001,137.02482729500002,679620.3990083778,4122625.297318812
1597,[2021-02-22 14:28:55.977] $GPGGA,52856.2,3713.9714206,N,13701.4896405,E,4,14.0,0.9,91.8638,M,37.55,M,4.0,0000*69,37.232857010000004,137.02482734166668,679620.40313673,4122625.297962158
1598,[2021-02-22 14:28:56.071] $GPGGA,52856.3,3713.9714214,N,13701.4896424,E,4,14.0,0.9,91.865,M,37.55,M,4.0,0000*66,37.23285702333334,137.02482737333332,679620.4059145153,4122625.2995016733
1599,[2021-02-22 14:28:56.149] $GPGGA,52856.4,3713.9714231,N,13701.4896442,E,4,14.0,0.9,91.8655,M,37.55,M,4.0,0000*63,37.23285705166666,137.02482740333335,679620.4085088354,4122625.3027023715
1600,[2021-02-22 14:28:56.274] $GPGGA,52856.5,3713.9714236999994,N,13701.489645500002,E,4,14.0,0.9,91.8666,M,37.55,M,4.0,0000*62,37.23285706166666,137.024827425,679620.4104073454,4122625.303853055
1601,[2021-02-22 14:28:56.352] $GPGGA,52856.6,3713.9714244,N,13701.4896464,E,4,14.0,0.9,91.8662,M,37.55,M,4.0,0000*63,37.23285707333334,137.02482744,679620.411710437,4122625.305176014
1602,[2021-02-22 14:28:56.477] $GPGGA,52856.7,3713.9714252999997,N,13701.4896467,E,4,14.0,0.9,91.8662,M,37.55,M,4.0,0000*67,37.232857088333326,137.024827445,679620.4121184298,4122625.3068498475
1603,[2021-02-22 14:28:56.556] $GPGGA,52856.8,3713.9714252999997,N,13701.4896479,E,4,14.0,0.9,91.8675,M,37.55,M,4.0,0000*61,37.232857088333326,137.024827465,679620.4138928084,4122625.3068878045
1604,[2021-02-22 14:28:56.680] $GPGGA,52856.9,3713.9714249,N,13701.489648899998,E,4,14.0,0.9,91.8682,M,37.55,M,4.0,0000*6C,37.232857081666666,137.02482748166665,679620.4153872792,4122625.306179727
1605,[2021-02-22 14:28:56.759] $GPGGA,52857.0,3713.9714247,N,13701.4896484,E,4,14.0,0.9,91.8681,M,37.55,M,5.0,0000*65,37.23285707833333,137.02482747333332,679620.4146558685,4122625.305794056
1606,[2021-02-22 14:28:56.852] $GPGGA,52857.1,3713.9714244999996,N,13701.489647400002,E,4,14.0,0.9,91.8668,M,37.55,M,5.0,0000*6E,37.23285707499999,137.02482745666669,679620.413185133,4122625.3053925703
1607,[2021-02-22 14:28:56.977] $GPGGA,52857.2,3713.9714261,N,13701.4896484,E,4,14.0,0.9,91.8493,M,37.55,M,5.0,0000*62,37.23285710166667,137.02482747333332,679620.414600486,4122625.308383038
1608,[2021-02-22 14:28:57.071] $GPGGA,52857.3,3713.9714271,N,13701.489649000001,E,4,14.0,0.9,91.8368,M,37.55,M,5.0,0000*64,37.23285711833333,137.02482748333335,679620.4154481188,4122625.310251288
1609,[2021-02-22 14:28:57.149] $GPGGA,52857.4,3713.9714280000003,N,13701.4896492,E,4,14.0,0.9,91.8312,M,37.55,M,5.0,0000*62,37.23285713333333,137.0248274866667,679620.415708247,4122625.31192196
1610,[2021-02-22 14:28:57.274] $GPGGA,52857.5,3713.9714274000003,N,13701.489649500001,E,4,14.0,0.9,91.8273,M,37.55,M,5.0,0000*69,37.23285712333333,137.02482749166668,679620.4161755758,4122625.3108218852
1611,[2021-02-22 14:28:57.352] $GPGGA,52857.6,3713.9714266,N,13701.4896493,E,4,14.0,0.9,91.827,M,37.55,M,5.0,0000*6C,37.23285711,137.02482748833336,679620.415911494,4122625.3093361408
1612,[2021-02-22 14:28:57.477] $GPGGA,52857.7,3713.9714268,N,13701.489650100002,E,4,14.0,0.9,91.826,M,37.55,M,5.0,0000*68,37.23285711333333,137.0248275016667,679620.4170865028,4122625.309731301
1613,[2021-02-22 14:28:57.555] $GPGGA,52857.8,3713.9714280000003,N,13701.4896505,E,4,14.0,0.9,91.8248,M,37.55,M,5.0,0000*6F,37.23285713333333,137.02482750833332,679620.4176304879,4122625.31196308
1614,[2021-02-22 14:28:57.665] $GPGGA,52857.9,3713.9714278000006,N,13701.4896507,E,4,14.0,0.9,91.8262,M,37.55,M,5.0,0000*63,37.23285713000001,137.02482751166667,679620.4179341309,4122625.311599553
1615,[2021-02-22 14:28:57.774] $GPGGA,52858.0,3713.9714271,N,13701.4896507,E,4,14.0,0.9,91.8249,M,37.55,M,6.0,0000*66,37.23285711833333,137.02482751166667,679620.4179618221,4122625.3103050604
1616,[2021-02-22 14:28:57.868] $GPGGA,52858.1,3713.9714255000004,N,13701.4896504,E,4,14.0,0.9,91.8275,M,37.55,M,6.0,0000*6D,37.232857091666666,137.02482750666667,679620.4175815206,4122625.307336736
1617,[2021-02-22 14:28:57.977] $GPGGA,52858.2,3713.9714247,N,13701.489649899999,E,4,14.0,0.9,91.8267,M,37.55,M,1.0,0000*6C,37.23285707833333,137.02482749833328,679620.4168738383,4122625.3058415027
1618,[2021-02-22 14:28:58.055] $GPGGA,52858.3,3713.9714240000003,N,13701.489649500001,E,4,14.0,0.9,91.8242,M,37.55,M,1.0,0000*61,37.232857066666675,137.02482749166668,679620.416310076,4122625.30453436
1619,[2021-02-22 14:28:58.180] $GPGGA,52858.4,3713.9714239,N,13701.489649399999,E,4,14.0,0.9,91.8236,M,37.55,M,1.0,0000*6A,37.232857065,137.02482749,679620.4161661653,4122625.304346268
1620,[2021-02-22 14:28:58.259] $GPGGA,52858.5,3713.9714229,N,13701.4896485,E,4,14.0,0.9,91.8237,M,37.55,M,1.0,0000*6B,37.23285704833333,137.02482747500002,679620.4148749412,4122625.302468529
1621,[2021-02-22 14:28:58.368] $GPGGA,52858.6,3713.9714233000004,N,13701.489649000001,E,4,14.0,0.9,91.8231,M,37.55,M,1.0,0000*61,37.23285705500001,137.02482748333335,679620.4155984424,4122625.303224055
1622,[2021-02-22 14:28:58.446] $GPGGA,52858.7,3713.9714235,N,13701.4896484,E,4,14.0,0.9,91.8225,M,37.55,M,1.0,0000*66,37.23285705833333,137.02482747333332,679620.4147033391,4122625.303574929
1623,[2021-02-22 14:28:58.571] $GPGGA,52858.8,3713.9714235,N,13701.489647299999,E,4,14.0,0.9,91.8225,M,37.55,M,1.0,0000*61,37.23285705833333,137.02482745499998,679620.4130768229,4122625.3035401353
1624,[2021-02-22 14:28:58.649] $GPGGA,52858.9,3713.9714234,N,13701.4896477,E,4,14.0,0.9,91.8233,M,37.55,M,1.0,0000*62,37.23285705666666,137.0248274616667,679620.4136722435,4122625.303367861
1625,[2021-02-22 14:28:58.774] $GPGGA,52859.0,3713.9714236999994,N,13701.489647600001,E,4,14.0,0.9,91.8213,M,37.55,M,2.0,0000*69,37.23285706166666,137.02482746000004,679620.4135125113,4122625.303919479
1626,[2021-02-22 14:28:58.868] $GPGGA,52859.1,3713.9714244999996,N,13701.489647600001,E,4,14.0,0.9,91.8223,M,37.55,M,2.0,0000*6E,37.23285707499999,137.02482746000004,679620.4134808643,4122625.3053988963
1627,[2021-02-22 14:28:58.977] $GPGGA,52859.2,3713.9714243,N,13701.4896479,E,4,14.0,0.9,91.8244,M,37.55,M,2.0,0000*65,37.232857071666665,137.024827465,679620.4139323672,4122625.3050385313
1628,[2021-02-22 14:28:59.055] $GPGGA,52859.3,3713.9714252,N,13701.489648299997,E,4,14.0,0.9,91.8235,M,37.55,M,2.0,0000*67,37.23285708666666,137.0248274716666,679620.4144882201,4122625.306715529
1629,[2021-02-22 14:28:59.165] $GPGGA,52859.4,3713.9714258,N,13701.489648299997,E,4,14.0,0.9,91.823,M,37.55,M,2.0,0000*6F,37.23285709666666,137.0248274716666,679620.4144644847,4122625.3078250918
1630,[2021-02-22 14:28:59.258] $GPGGA,52859.5,3713.9714261,N,13701.489648700002,E,4,14.0,0.9,91.8235,M,37.55,M,2.0,0000*65,37.23285710166667,137.02482747833335,679620.4150440819,4122625.308392526
1631,[2021-02-22 14:28:59.368] $GPGGA,52859.6,3713.9714261999993,N,13701.4896492,E,4,14.0,0.9,91.8233,M,37.55,M,2.0,0000*67,37.232857103333316,137.0248274866667,679620.415779453,4122625.308593268
1632,[2021-02-22 14:28:59.477] $GPGGA,52859.7,3713.9714258,N,13701.489649000001,E,4,14.0,0.9,91.8243,M,37.55,M,2.0,0000*6A,37.23285709666666,137.02482748333335,679620.4154995453,4122625.307847233
1633,[2021-02-22 14:28:59.555] $GPGGA,52859.8,3713.9714273000004,N,13701.489649500001,E,4,14.0,0.9,91.8221,M,37.55,M,2.0,0000*6D,37.23285712166667,137.02482749166668,679620.4161795317,4122625.310636958
1634,[2021-02-22 14:28:59.680] $GPGGA,52859.9,3713.9714276999994,N,13701.4896497,E,4,14.0,0.9,91.8215,M,37.55,M,2.0,0000*6D,37.23285712833333,137.02482749499998,679620.4164594349,4122625.311382993
1635,[2021-02-22 14:28:59.758] $GPGGA,52900.0,3713.9714264,N,13701.489648700002,E,4,14.0,0.9,91.8215,M,37.55,M,3.0,0000*6B,37.232857106666664,137.02482747833335,679620.4150322143,4122625.3089473085
1636,[2021-02-22 14:28:59.852] $GPGGA,52900.1,3713.9714242,N,13701.489648199999,E,4,14.0,0.9,91.8239,M,37.55,M,3.0,0000*65,37.232857069999994,137.02482746999996,679620.4143799144,4122625.304863094
1637,[2021-02-22 14:28:59.946] $GPGGA,52900.2,3713.9714248000005,N,13701.489649000001,E,4,14.0,0.9,91.824,M,37.55,M,3.0,0000*61,37.23285708000001,137.02482748333335,679620.4155391041,4122625.3059979626
1638,[2021-02-22 14:29:00.071] $GPGGA,52900.3,3713.9714244999996,N,13701.489648100001,E,4,14.0,0.9,91.8241,M,37.55,M,3.0,0000*6C,37.23285707499999,137.02482746833337,679620.4142201891,4122625.3054147116
1639,[2021-02-22 14:29:00.149] $GPGGA,52900.4,3713.9714236,N,13701.489647100001,E,4,14.0,0.9,91.825,M,37.55,M,3.0,0000*60,37.23285706000001,137.02482745166668,679620.4127771402,4122625.3037187373
1640,[2021-02-22 14:29:00.274] $GPGGA,52900.5,3713.9714233000004,N,13701.489647499999,E,4,14.0,0.9,91.8255,M,37.55,M,3.0,0000*65,37.23285705500001,137.02482745833333,679620.4133804658,4122625.3031766084
1641,[2021-02-22 14:29:00.352] $GPGGA,52900.6,3713.9714223000005,N,13701.4896472,E,4,14.0,0.9,91.8249,M,37.55,M,3.0,0000*6D,37.23285703833334,137.02482745333333,679620.4129764312,4122625.301317848
1642,[2021-02-22 14:29:00.477] $GPGGA,52900.7,3713.9714214,N,13701.489647400002,E,4,14.0,0.9,91.8244,M,37.55,M,3.0,0000*63,37.23285702333334,137.02482745666669,679620.4133077655,4122625.299659826
1643,[2021-02-22 14:29:00.555] $GPGGA,52900.8,3713.9714218000004,N,13701.489646799999,E,4,14.0,0.9,91.8246,M,37.55,M,3.0,0000*6F,37.232857030000005,137.02482744666665,679620.4124047481,4122625.3003805587
1644,[2021-02-22 14:29:00.680] $GPGGA,52900.9,3713.9714221,N,13701.489646099999,E,4,14.0,0.9,91.8245,M,37.55,M,3.0,0000*6E,37.232857034999995,137.02482743499996,679620.4113578245,4122625.3009131965
1645,[2021-02-22 14:29:00.758] $GPGGA,52901.0,3713.9714229,N,13701.4896464,E,4,14.0,0.9,91.8229,M,37.55,M,4.0,0000*66,37.23285704833333,137.02482744,679620.4117697753,4122625.3024021043
1646,[2021-02-22 14:29:00.852] $GPGGA,52901.1,3713.971422,N,13701.4896459,E,4,14.0,0.9,91.8233,M,37.55,M,4.0,0000*6B,37.23285703333334,137.02482743166667,679620.4110660534,4122625.300721944
1647,[2021-02-22 14:29:00.961] $GPGGA,52901.2,3713.9714215999998,N,13701.4896446,E,4,14.0,0.9,91.8256,M,37.55,M,4.0,0000*60,37.23285702666666,137.02482741,679620.409159634,4122625.299941114
1648,[2021-02-22 14:29:01.071] $GPGGA,52901.3,3713.9714229,N,13701.489645299998,E,4,14.0,0.9,91.8239,M,37.55,M,4.0,0000*60,37.23285704833333,137.02482742166663,679620.4101432567,4122625.302367311
1649,[2021-02-22 14:29:01.149] $GPGGA,52901.4,3713.9714232,N,13701.489645299998,E,4,14.0,0.9,91.8232,M,37.55,M,4.0,0000*66,37.23285705333334,137.02482742166663,679620.410131389,4122625.3029220942
1650,[2021-02-22 14:29:01.274] $GPGGA,52901.5,3713.9714225000002,N,13701.4896458,E,4,14.0,0.9,91.8225,M,37.55,M,4.0,0000*6C,37.232857041666676,137.02482743000002,679620.4108984119,4122625.301643418
1651,[2021-02-22 14:29:01.368] $GPGGA,52901.6,3713.9714234,N,13701.4896458,E,4,14.0,0.9,91.8228,M,37.55,M,4.0,0000*62,37.23285705666666,137.02482743000002,679620.4108628088,4122625.303307762
1652,[2021-02-22 14:29:01.461] $GPGGA,52901.7,3713.9714218000004,N,13701.4896456,E,4,14.0,0.9,91.824,M,37.55,M,4.0,0000*6D,37.232857030000005,137.02482742666666,679620.4106303696,4122625.3003426017
1653,[2021-02-22 14:29:01.571] $GPGGA,52901.8,3713.9714215999998,N,13701.4896458,E,4,14.0,0.9,91.8222,M,37.55,M,4.0,0000*66,37.23285702666666,137.02482743000002,679620.4109340148,4122625.2999790707
1654,[2021-02-22 14:29:01.649] $GPGGA,52901.9,3713.9714209,N,13701.4896465,E,4,14.0,0.9,91.8213,M,37.55,M,4.0,0000*65,37.23285701499999,137.02482744166664,679620.4119967554,4122625.2987067215
1655,[2021-02-22 14:29:01.774] $GPGGA,52902.0,3713.9714197,N,13701.4896465,E,4,14.0,0.9,91.82,M,37.55,M,5.0,0000*68,37.23285699499999,137.02482744166664,679620.412044226,4122625.296487595
1656,[2021-02-22 14:29:01.868] $GPGGA,52902.1,3713.9714195,N,13701.4896465,E,4,14.0,0.9,91.8215,M,37.55,M,5.0,0000*6F,37.23285699166667,137.02482744166664,679620.4120521378,4122625.296117742
1657,[2021-02-22 14:29:01.977] $GPGGA,52902.2,3713.9714203000003,N,13701.489645500002,E,4,14.0,0.9,91.8223,M,37.55,M,5.0,0000*66,37.23285700500001,137.024827425,679620.4105418456,4122625.29756553
1658,[2021-02-22 14:29:02.055] $GPGGA,52902.3,3713.9714212999997,N,13701.4896458,E,4,14.0,0.9,91.8225,M,37.55,M,5.0,0000*6D,37.23285702166666,137.02482743000002,679620.4109458826,4122625.2994242897
1659,[2021-02-22 14:29:02.180] $GPGGA,52902.4,3713.9714210999996,N,13701.489645399999,E,4,14.0,0.9,91.8216,M,37.55,M,5.0,0000*64,37.23285701833333,137.02482742333333,679620.4103623317,4122625.2990417834
1660,[2021-02-22 14:29:02.258] $GPGGA,52902.5,3713.9714193000004,N,13701.4896444,E,4,14.0,0.9,91.8228,M,37.55,M,5.0,0000*60,37.23285698833334,137.0248274066667,679620.4089548903,4122625.2956814636
1661,[2021-02-22 14:29:02.368] $GPGGA,52902.6,3713.9714188000003,N,13701.489642700002,E,4,14.0,0.9,91.8229,M,37.55,M,5.0,0000*6D,37.23285698,137.02482737833338,679620.4064609687,4122625.294703055
1662,[2021-02-22 14:29:02.446] $GPGGA,52902.7,3713.9714188000003,N,13701.4896417,E,4,14.0,0.9,91.8212,M,37.55,M,5.0,0000*67,37.23285698,137.02482736166664,679620.4049823122,4122625.2946714237
1663,[2021-02-22 14:29:02.571] $GPGGA,52902.8,3713.9714182999996,N,13701.489641600001,E,4,14.0,0.9,91.8218,M,37.55,M,5.0,0000*68,37.232856971666656,137.02482736,679620.4048542273,4122625.2937436234
1664,[2021-02-22 14:29:02.649] $GPGGA,52902.9,3713.9714182,N,13701.489640799999,E,4,14.0,0.9,91.8217,M,37.55,M,5.0,0000*68,37.23285697,137.02482734666665,679620.4036752625,4122625.2935333923
1665,[2021-02-22 14:29:02.774] $GPGGA,52903.0,3713.9714184,N,13701.48964,E,4,14.0,0.9,91.8205,M,37.55,M,6.0,0000*6E,37.232856973333334,137.02482733333332,679620.4024844324,4122625.293877943
1666,[2021-02-22 14:29:02.868] $GPGGA,52903.1,3713.9714181000004,N,13701.489639899999,E,4,14.0,0.9,91.82,M,37.55,M,6.0,0000*68,37.23285696833334,137.02482733166664,679620.4023484333,4122625.293319999
1667,[2021-02-22 14:29:02.977] $GPGGA,52903.2,3713.9714175,N,13701.489639200003,E,4,14.0,0.9,91.823,M,37.55,M,1.0,0000*6F,37.232856958333336,137.02482732000004,679620.4013371193,4122625.292188293
1668,[2021-02-22 14:29:03.071] $GPGGA,52903.3,3713.9714179,N,13701.4896382,E,4,14.0,0.9,91.8237,M,37.55,M,1.0,0000*64,37.23285696499999,137.02482730333335,679620.399842644,4122625.292896371
1669,[2021-02-22 14:29:03.149] $GPGGA,52903.4,3713.9714179,N,13701.489638,E,4,14.0,0.9,91.8243,M,37.55,M,1.0,0000*62,37.23285696499999,137.02482729999997,679620.3995469105,4122625.292890044
1670,[2021-02-22 14:29:03.274] $GPGGA,52903.5,3713.9714182999996,N,13701.489637399998,E,4,14.0,0.9,91.8245,M,37.55,M,1.0,0000*6B,37.232856971666656,137.02482729,679620.3986438998,4122625.293610774
1671,[2021-02-22 14:29:03.352] $GPGGA,52903.6,3713.9714195,N,13701.4896391,E,4,14.0,0.9,91.823,M,37.55,M,1.0,0000*66,37.23285699166667,137.02482731833334,679620.4011101348,4122625.2958836756
1672,[2021-02-22 14:29:03.477] $GPGGA,52903.7,3713.9714197999997,N,13701.4896393,E,4,14.0,0.9,91.825,M,37.55,M,1.0,0000*6E,37.23285699666667,137.02482732166663,679620.401393994,4122625.296444783
1673,[2021-02-22 14:29:03.555] $GPGGA,52903.8,3713.9714194,N,13701.489638799998,E,4,14.0,0.9,91.826,M,37.55,M,1.0,0000*64,37.23285699,137.0248273133333,679620.4006704927,4122625.2956892583
1674,[2021-02-22 14:29:03.680] $GPGGA,52903.9,3713.9714188000003,N,13701.489638100002,E,4,14.0,0.9,91.8264,M,37.55,M,1.0,0000*65,37.23285698,137.0248273016667,679620.3996591787,4122625.2945575537
1675,[2021-02-22 14:29:03.758] $GPGGA,52904.0,3713.9714189,N,13701.4896384,E,4,14.0,0.9,91.8243,M,37.55,M,2.0,0000*69,37.23285698166667,137.02482730666665,679620.4000988118,4122625.2947519696
1676,[2021-02-22 14:29:03.852] $GPGGA,52904.1,3713.9714187,N,13701.4896385,E,4,14.0,0.9,91.8238,M,37.55,M,2.0,0000*6B,37.23285697833334,137.0248273083333,679620.4002545881,4122625.29438528
1677,[2021-02-22 14:29:03.946] $GPGGA,52904.2,3713.9714184,N,13701.489637399998,E,4,14.0,0.9,91.8248,M,37.55,M,2.0,0000*62,37.232856973333334,137.02482729,679620.3986399439,4122625.2937957025
1678,[2021-02-22 14:29:04.071] $GPGGA,52904.3,3713.9714189,N,13701.4896375,E,4,14.0,0.9,91.8264,M,37.55,M,2.0,0000*61,37.23285698166667,137.02482729166667,679620.398768029,4122625.2947235038
1679,[2021-02-22 14:29:04.149] $GPGGA,52904.4,3713.971418,N,13701.4896378,E,4,14.0,0.9,91.8261,M,37.55,M,2.0,0000*67,37.23285696666667,137.02482729666667,679620.3992472278,4122625.293068647
1680,[2021-02-22 14:29:04.274] $GPGGA,52904.5,3713.971417,N,13701.4896378,E,4,14.0,0.9,91.8269,M,37.55,M,2.0,0000*61,37.232856950000006,137.02482729666667,679620.3992867867,4122625.2912193746
1681,[2021-02-22 14:29:04.352] $GPGGA,52904.6,3713.9714178000004,N,13701.489638699999,E,4,14.0,0.9,91.8257,M,37.55,M,2.0,0000*67,37.23285696333334,137.02482731166666,679620.4005859224,4122625.2927272595
1682,[2021-02-22 14:29:04.477] $GPGGA,52904.7,3713.9714185000003,N,13701.489639,E,4,14.0,0.9,91.825,M,37.55,M,2.0,0000*65,37.232856975000004,137.02482731666666,679620.4010018269,4122625.2940312405
1683,[2021-02-22 14:29:04.555] $GPGGA,52904.8,3713.9714194,N,13701.489639,E,4,14.0,0.9,91.8265,M,37.55,M,2.0,0000*6C,37.23285699,137.02482731666666,679620.4009662239,4122625.295695584
1684,[2021-02-22 14:29:04.664] $GPGGA,52904.9,3713.9714200999997,N,13701.489639399999,E,4,14.0,0.9,91.8264,M,37.55,M,2.0,0000*67,37.23285700166666,137.02482732333328,679620.4015299885,4122625.2970027267
1685,[2021-02-22 14:29:04.758] $GPGGA,52905.0,3713.9714212999997,N,13701.489640600003,E,4,14.0,0.9,91.8244,M,37.55,M,3.0,0000*63,37.23285702166666,137.02482734333336,679620.4032569033,4122625.2992598102
1686,[2021-02-22 14:29:04.852] $GPGGA,52905.1,3713.9714212999997,N,13701.4896424,E,4,14.0,0.9,91.8247,M,37.55,M,3.0,0000*61,37.23285702166666,137.02482737333332,679620.4059184712,4122625.299316746
1687,[2021-02-22 14:29:04.977] $GPGGA,52905.2,3713.9714221999993,N,13701.489643500001,E,4,14.0,0.9,91.8252,M,37.55,M,3.0,0000*64,37.23285703666666,137.02482739166666,679620.4075093823,4122625.301015884
1688,[2021-02-22 14:29:05.055] $GPGGA,52905.3,3713.9714236999994,N,13701.4896447,E,4,14.0,0.9,91.826,M,37.55,M,3.0,0000*65,37.23285706166666,137.02482741166665,679620.4092244226,4122625.3038277496
1689,[2021-02-22 14:29:05.180] $GPGGA,52905.4,3713.9714252999997,N,13701.4896466,E,4,14.0,0.9,91.8272,M,37.55,M,3.0,0000*60,37.232857088333326,137.0248274433333,679620.4119705607,4122625.3068466843
1690,[2021-02-22 14:29:05.258] $GPGGA,52905.5,3713.9714264,N,13701.489648299997,E,4,14.0,0.9,91.8278,M,37.55,M,3.0,0000*64,37.232857106666664,137.0248274716666,679620.4144407494,4122625.3089346555
1691,[2021-02-22 14:29:05.367] $GPGGA,52905.6,3713.9714267,N,13701.489649500001,E,4,14.0,0.9,91.8275,M,37.55,M,3.0,0000*6E,37.23285711166667,137.02482749166668,679620.416203267,4122625.309527395
1692,[2021-02-22 14:29:05.461] $GPGGA,52905.7,3713.9714258,N,13701.48965,E,4,14.0,0.9,91.8283,M,37.55,M,3.0,0000*67,37.23285709666666,137.0248275,679620.4169781927,4122625.307878864
1693,[2021-02-22 14:29:05.571] $GPGGA,52905.8,3713.9714259,N,13701.489650900001,E,4,14.0,0.9,91.8279,M,37.55,M,3.0,0000*65,37.232857098333334,137.02482751500003,679620.418305024,4122625.3080922603
1694,[2021-02-22 14:29:05.649] $GPGGA,52905.9,3713.9714257,N,13701.489651700002,E,4,14.0,0.9,91.8278,M,37.55,M,3.0,0000*64,37.232857095,137.02482752833336,679620.4194958564,4122625.3077477105
1695,[2021-02-22 14:29:05.774] $GPGGA,52906.0,3713.9714251,N,13701.489651299999,E,4,14.0,0.9,91.825,M,37.55,M,4.0,0000*61,37.232857085,137.02482752166665,679620.418928127,4122625.3066254933
1696,[2021-02-22 14:29:05.867] $GPGGA,52906.1,3713.9714231,N,13701.4896516,E,4,14.0,0.9,91.8257,M,37.55,M,4.0,0000*64,37.23285705166666,137.0248275266667,679620.4194508451,4122625.302936439
1697,[2021-02-22 14:29:05.977] $GPGGA,52906.2,3713.9714221,N,13701.4896516,E,4,14.0,0.9,91.8263,M,37.55,M,4.0,0000*61,37.232857034999995,137.0248275266667,679620.419490404,4122625.3010871657
