,Format,Time,Latitude,LatType,Longitude,LonType,Status,Satellite,LevelAccuracy,Altitude(sea),M(sea),Altitude(geoid),M(geoid),DGPS use,checksum,Lat,Lon,UTM_X,UTM_Y
394,[2021-02-22 14:45:15.426] $GNGGA,54515.0,3713.97147762,N,13701.48927119,E,4,9.0,1.3,92.691,M,36.771,M,1.0,0979*61,37.232857960333334,137.0248211865,679619.8548009942,4122625.391726165
395,[2021-02-22 14:45:15.520] $GNGGA,54515.1,3713.97147973,N,13701.48926803,E,4,9.0,1.3,92.685,M,36.771,M,1.1,0979*69,37.232857995500005,137.0248211338333,679619.8500449915,4122625.3955281777
396,[2021-02-22 14:45:15.629] $GNGGA,54515.2,3713.97147781,N,13701.48927052,E,4,9.0,1.3,92.68,M,36.771,M,1.2,0979*62,37.2328579635,137.02482117533333,679619.8538027823,4122625.3920563343
397,[2021-02-22 14:45:15.723] $GNGGA,54515.3,3713.9714788,N,13701.48926618,E,4,9.0,1.3,92.68299999999999,M,36.771,M,1.3,0979*66,37.23285798,137.024821103,679619.8473462809,4122625.3937498373
398,[2021-02-22 14:45:15.832] $GNGGA,54515.4,3713.9714801,N,13701.48926798,E,4,9.0,1.3,92.679,M,36.771,M,1.4,0979*64,37.23285800166666,137.024821133,679619.8499564225,4122625.396210826
399,[2021-02-22 14:45:15.926] $GNGGA,54515.5,3713.97147939,N,13701.48927161,E,4,9.0,1.3,92.677,M,36.771,M,1.5,0979*66,37.23285798983333,137.0248211935,679619.8553520098,4122625.3950126604
400,[2021-02-22 14:45:16.035] $GNGGA,54515.6,3713.97147916,N,13701.48927567,E,4,9.0,1.3,92.68299999999999,M,36.771,M,1.6,0979*62,37.232857986,137.02482126116666,679619.8613644247,4122625.394715749
401,[2021-02-22 14:45:16.129] $GNGGA,54515.7,3713.97147764,N,13701.48927255,E,4,9.0,1.3,92.681,M,36.771,M,1.7,0979*6D,37.232857960666664,137.02482120916667,679619.8568111666,4122625.391806168
402,[2021-02-22 14:45:16.223] $GNGGA,54515.8,3713.97148065,N,13701.48927531,E,4,9.0,1.3,92.684,M,36.771,M,1.8,0979*64,37.23285801083334,137.02482125516664,679619.860773166,4122625.3974597803
403,[2021-02-22 14:45:16.317] $GNGGA,54515.9,3713.97147704,N,13701.48927484,E,4,9.0,1.3,92.67200000000001,M,36.771,M,1.9,0979*6D,37.23285795066666,137.02482124733334,679619.8602210107,4122625.390769039
404,[2021-02-22 14:45:16.426] $GNGGA,54516.0,3713.97147768,N,13701.48927833,E,4,9.0,1.3,92.69,M,36.771,M,2.0,0979*6B,37.23285796133333,137.0248213055,679619.8653561807,4122625.392062964
405,[2021-02-22 14:45:16.520] $GNGGA,54516.1,3713.9714776,N,13701.4892823,E,4,9.0,1.3,92.66799999999999,M,36.771,M,1.1,0979*61,37.23285796,137.02482137166666,679619.8712295834,4122625.3920405945
406,[2021-02-22 14:45:16.629] $GNGGA,54516.2,3713.97148167,N,13701.48928565,E,4,9.0,1.3,92.67399999999999,M,36.771,M,1.2,0979*65,37.23285802783333,137.02482142749997,679619.8760220516,4122625.3996730954
407,[2021-02-22 14:45:16.723] $GNGGA,54516.3,3713.97147965,N,13701.48928225,E,4,9.0,1.3,92.679,M,36.771,M,1.3,0979*6E,37.23285799416667,137.02482137083334,679619.8710745557,4122625.3958300226
408,[2021-02-22 14:45:16.832] $GNGGA,54516.4,3713.97147991,N,13701.48928707,E,4,9.0,1.3,92.681,M,36.771,M,1.4,0979*67,37.23285799850001,137.02482145116667,679619.8781913612,4122625.3964632945
409,[2021-02-22 14:45:16.926] $GNGGA,54516.5,3713.97147773,N,13701.48928605,E,4,9.0,1.3,92.68,M,36.771,M,1.5,0979*67,37.23285796216667,137.02482143416665,679619.8767693755,4122625.3923996147
410,[2021-02-22 14:45:17.035] $GNGGA,54516.6,3713.97148035,N,13701.48928353,E,4,9.0,1.3,92.67299999999999,M,36.771,M,1.6,0979*67,37.23285800583333,137.02482139216667,679619.8729395356,4122625.3971649995
411,[2021-02-22 14:45:17.129] $GNGGA,54516.7,3713.97147765,N,13701.4892808,E,4,9.0,1.3,92.681,M,36.771,M,1.7,0979*6A,37.232857960833336,137.0248213466667,679619.8690096333,4122625.3920856137
412,[2021-02-22 14:45:17.238] $GNGGA,54516.8,3713.97148076,N,13701.48928205,E,4,9.0,1.3,92.682,M,36.771,M,1.8,0979*6C,37.23285801266667,137.02482136749998,679619.8707349142,4122625.3978763893
413,[2021-02-22 14:45:17.317] $GNGGA,54516.9,3713.97147771,N,13701.48927885,E,4,9.0,1.3,92.67299999999999,M,36.771,M,1.9,0979*60,37.232857961833325,137.02482131416664,679619.8661238884,4122625.3921348886
414,[2021-02-22 14:45:17.426] $GNGGA,54517.0,3713.97147665,N,13701.48927777,E,4,9.0,1.3,92.679,M,36.771,M,2.0,0979*6E,37.23285794416667,137.02482129616666,679619.8645688809,4122625.3901405
415,[2021-02-22 14:45:17.520] $GNGGA,54517.1,3713.97147507,N,13701.48927455,E,4,9.0,1.3,92.679,M,36.771,M,1.1,0979*69,37.232857917833336,137.0248212425,679619.8598701318,4122625.387116799
416,[2021-02-22 14:45:17.629] $GNGGA,54517.2,3713.97147249,N,13701.48927466,E,4,9.0,1.3,92.68,M,36.771,M,1.2,0979*62,37.232857874833336,137.02482124433334,679619.8601348462,4122625.382349156
417,[2021-02-22 14:45:17.723] $GNGGA,54517.3,3713.97147271,N,13701.48927335,E,4,9.0,1.3,92.67299999999999,M,36.771,M,1.3,0979*64,37.2328578785,137.0248212225,679619.8581891118,4122625.3827145603
418,[2021-02-22 14:45:17.832] $GNGGA,54517.4,3713.97147375,N,13701.48927024,E,4,9.0,1.3,92.679,M,36.771,M,1.4,0979*68,37.232857895833334,137.02482117066668,679619.8535493715,4122625.384539432
419,[2021-02-22 14:45:17.926] $GNGGA,54517.5,3713.97147245,N,13701.48926753,E,4,9.0,1.3,92.679,M,36.771,M,1.5,0979*6C,37.23285787416667,137.02482112549998,679619.8495936544,4122625.3820496583
420,[2021-02-22 14:45:18.035] $GNGGA,54517.6,3713.97147298,N,13701.48926863,E,4,9.0,1.3,92.684,M,36.771,M,1.6,0979*62,37.232857882999994,137.02482114383335,679619.8511992069,4122625.3830645652
421,[2021-02-22 14:45:18.129] $GNGGA,54517.7,3713.97147319,N,13701.48926952,E,4,9.0,1.3,92.67299999999999,M,36.771,M,1.7,0979*61,37.2328578865,137.02482115866664,679619.8525068918,4122625.383481065
422,[2021-02-22 14:45:18.223] $GNGGA,54517.8,3713.97147283,N,13701.48926695,E,4,9.0,1.3,92.678,M,36.771,M,1.8,0979*6C,37.2328578805,137.02482111583333,679619.8487210071,4122625.382734036
423,[2021-02-22 14:45:18.316] $GNGGA,54517.9,3713.97147492,N,13701.48926854,E,4,9.0,1.3,92.681,M,36.771,M,1.9,0979*6F,37.23285791533334,137.0248211423333,679619.8509893799,4122625.3866493087
424,[2021-02-22 14:45:18.426] $GNGGA,54518.0,3713.97147337,N,13701.48927083,E,4,9.0,1.3,92.68299999999999,M,36.771,M,2.0,0979*6A,37.232857889499996,137.02482118049997,679619.8544368027,4122625.38385537
425,[2021-02-22 14:45:18.520] $GNGGA,54518.1,3713.97147764,N,13701.48927569,E,4,9.0,1.3,92.685,M,36.771,M,1.1,0979*6C,37.232857960666664,137.0248212615,679619.8614541262,4122625.3919054875
426,[2021-02-22 14:45:18.629] $GNGGA,54518.2,3713.97148158,N,13701.48927411,E,4,9.0,1.3,92.68299999999999,M,36.771,M,1.2,0979*62,37.23285802633333,137.02482123516666,679619.8589619977,4122625.399141645
427,[2021-02-22 14:45:18.723] $GNGGA,54518.3,3713.97148432,N,13701.48927534,E,4,9.0,1.3,92.686,M,36.771,M,1.3,0979*68,37.23285807199999,137.02482125566667,679619.8606723478,4122625.4042475554
428,[2021-02-22 14:45:18.832] $GNGGA,54518.4,3713.97148457,N,13701.48927807,E,4,9.0,1.3,92.67200000000001,M,36.771,M,1.4,0979*6D,37.232858076166664,137.02482130116667,679619.8646991713,4122625.404796225
429,[2021-02-22 14:45:18.926] $GNGGA,54518.5,3713.97148376,N,13701.48927554,E,4,9.0,1.3,92.691,M,36.771,M,1.5,0979*6F,37.23285806266666,137.02482125899996,679619.8609902274,4122625.40321829
430,[2021-02-22 14:45:19.035] $GNGGA,54518.6,3713.97148213,N,13701.48927399,E,4,9.0,1.3,92.686,M,36.771,M,1.6,0979*6C,37.232858035499994,137.02482123316668,679619.8587628038,4122625.4001549482
431,[2021-02-22 14:45:19.129] $GNGGA,54518.7,3713.97148474,N,13701.48927239,E,4,9.0,1.3,92.694,M,36.771,M,1.7,0979*63,37.232858079,137.0248212065,679619.8562937166,4122625.4049309418
432,[2021-02-22 14:45:19.223] $GNGGA,54518.8,3713.97148268,N,13701.4892768,E,4,9.0,1.3,92.676,M,36.771,M,1.8,0979*62,37.23285804466667,137.02482128000003,679619.8628960545,4122625.401260932
433,[2021-02-22 14:45:19.316] $GNGGA,54518.9,3713.97148505,N,13701.48927326,E,4,9.0,1.3,92.684,M,36.771,M,1.9,0979*6A,37.232858084166665,137.024821221,679619.8575678782,4122625.405531734
434,[2021-02-22 14:45:19.426] $GNGGA,54519.0,3713.97148273,N,13701.48926973,E,4,9.0,1.3,92.693,M,36.771,M,1.0,0979*60,37.232858045499995,137.0248211621667,679619.8524400231,4122625.4011297654
435,[2021-02-22 14:45:19.520] $GNGGA,54519.1,3713.97147871,N,13701.48927548,E,4,9.0,1.3,92.685,M,36.771,M,1.1,0979*65,37.23285797850001,137.024821258,679619.8611012832,4122625.3938775677
436,[2021-02-22 14:45:19.629] $GNGGA,54519.2,3713.9714796,N,13701.4892725,E,4,9.0,1.3,92.7,M,36.771,M,1.2,0979*66,37.23285799333333,137.02482120833335,679619.8566597014,4122625.39542916
437,[2021-02-22 14:45:19.723] $GNGGA,54519.3,3713.97148059,N,13701.48927325,E,4,9.0,1.3,92.68299999999999,M,36.771,M,1.3,0979*63,37.23285800983333,137.0248212208333,679619.8577295197,4122625.3972836626
438,[2021-02-22 14:45:19.832] $GNGGA,54519.4,3713.97148043,N,13701.489275,E,4,9.0,1.3,92.686,M,36.771,M,1.4,0979*6C,37.23285800716666,137.02482125,679619.8603234893,4122625.397043132
439,[2021-02-22 14:45:19.926] $GNGGA,54519.5,3713.97148247,N,13701.48927234,E,4,9.0,1.3,92.68299999999999,M,36.771,M,1.5,0979*6F,37.232858041166665,137.02482120566668,679619.8563095827,4122625.4007315114
440,[2021-02-22 14:45:20.035] $GNGGA,54519.6,3713.97147952,N,13701.48927049,E,4,9.0,1.3,92.685,M,36.771,M,1.6,0979*61,37.232857992,137.02482117483333,679619.8536907787,4122625.3952176403
441,[2021-02-22 14:45:20.129] $GNGGA,54519.7,3713.97148147,N,13701.48927146,E,4,9.0,1.3,92.69,M,36.771,M,1.7,0979*68,37.2328580245,137.024821191,679619.8550479285,4122625.398854403
442,[2021-02-22 14:45:20.223] $GNGGA,54519.8,3713.97148081,N,13701.48927127,E,4,9.0,1.3,92.691,M,36.771,M,1.8,0979*65,37.23285801349999,137.02482118783334,679619.8547930943,4122625.397627874
443,[2021-02-22 14:45:20.316] $GNGGA,54519.9,3713.97148081,N,13701.48927243,E,4,9.0,1.3,92.694,M,36.771,M,1.9,0979*61,37.23285801349999,137.0248212071667,679619.856508331,4122625.397664565
444,[2021-02-22 14:45:20.426] $GNGGA,54520.0,3713.97148244,N,13701.48927469,E,4,9.0,1.3,92.679,M,36.771,M,1.0,0979*6D,37.232858040666656,137.02482124483336,679619.8597855967,4122625.400750364
445,[2021-02-22 14:45:20.519] $GNGGA,54520.1,3713.97147998,N,13701.48927456,E,4,9.0,1.3,92.68,M,36.771,M,1.1,0979*62,37.23285799966666,137.02482124266663,679619.8596906819,4122625.3961970424
446,[2021-02-22 14:45:20.629] $GNGGA,54520.2,3713.97148095,N,13701.48927358,E,4,9.0,1.3,92.68299999999999,M,36.771,M,1.2,0979*63,37.23285801583333,137.02482122633333,679619.858203237,4122625.397959839
447,[2021-02-22 14:45:20.723] $GNGGA,54520.3,3713.97148097,N,13701.48927416,E,4,9.0,1.3,92.68299999999999,M,36.771,M,1.3,0979*6C,37.23285801616666,137.02482123599998,679619.8590600608,4122625.39801517
448,[2021-02-22 14:45:20.832] $GNGGA,54520.4,3713.9714811,N,13701.4892731,E,4,9.0,1.3,92.67299999999999,M,36.771,M,1.4,0979*6C,37.23285801833333,137.02482121833333,679619.8574875502,4122625.3982220464
449,[2021-02-22 14:45:20.926] $GNGGA,54520.5,3713.97147942,N,13701.48927208,E,4,9.0,1.3,92.682,M,36.771,M,1.5,0979*6A,37.23285799033333,137.0248212013333,679619.8560457852,4122625.395083006
450,[2021-02-22 14:45:21.035] $GNGGA,54520.6,3713.97148101,N,13701.48927244,E,4,9.0,1.3,92.682,M,36.771,M,1.6,0979*62,37.23285801683334,137.02482120733333,679619.856515203,4122625.398034738
451,[2021-02-22 14:45:21.129] $GNGGA,54520.7,3713.97147938,N,13701.48927154,E,4,9.0,1.3,92.682,M,36.771,M,1.7,0979*6D,37.23285798966666,137.02482119233335,679619.8552489011,4122625.394991954
452,[2021-02-22 14:45:21.238] $GNGGA,54520.8,3713.97148017,N,13701.48927419,E,4,9.0,1.3,92.68,M,36.771,M,1.8,0979*68,37.23285800283334,137.02482123650003,679619.8591360702,4122625.396536702
453,[2021-02-22 14:45:21.316] $GNGGA,54520.9,3713.97147928,N,13701.48927399,E,4,9.0,1.3,92.682,M,36.771,M,1.9,0979*6F,37.232857988,137.02482123316668,679619.8588755463,4122625.394884523
454,[2021-02-22 14:45:21.426] $GNGGA,54521.0,3713.97148128,N,13701.48927627,E,4,9.0,1.3,92.679,M,36.771,M,2.0,0979*6E,37.232858021333335,137.0248212711667,679619.8621677516,4122625.398655185
455,[2021-02-22 14:45:21.519] $GNGGA,54521.1,3713.97147946,N,13701.48927691,E,4,9.0,1.3,92.679,M,36.771,M,2.1,0979*6C,37.232857990999996,137.02482128183337,679619.8631860865,4122625.395309752
456,[2021-02-22 14:45:21.629] $GNGGA,54521.2,3713.97148369,N,13701.48928065,E,4,9.0,1.3,92.669,M,36.771,M,1.2,0979*64,37.232858061499996,137.02482134416667,679619.8685488994,4122625.4032504736
457,[2021-02-22 14:45:21.722] $GNGGA,54521.3,3713.97148027,N,13701.48928398,E,4,9.0,1.3,92.666,M,36.771,M,1.3,0979*63,37.232858004499995,137.02482139966665,679619.8736080907,4122625.397031292
458,[2021-02-22 14:45:21.832] $GNGGA,54521.4,3713.97148177,N,13701.489286,E,4,9.0,1.3,92.671,M,36.771,M,1.4,0979*65,37.23285802950001,137.02482143333333,679619.8765356259,4122625.3998690955
459,[2021-02-22 14:45:21.926] $GNGGA,54521.5,3713.97147937,N,13701.48928765,E,4,9.0,1.3,92.667,M,36.771,M,1.5,0979*63,37.232857989500005,137.02482146083332,679619.8790703381,4122625.3954830314
460,[2021-02-22 14:45:22.035] $GNGGA,54521.6,3713.97148067,N,13701.48928908,E,4,9.0,1.3,92.671,M,36.771,M,1.6,0979*62,37.23285801116666,137.0248214846667,679619.8811333841,4122625.397932316
461,[2021-02-22 14:45:22.129] $GNGGA,54521.7,3713.97147872,N,13701.48928957,E,4,9.0,1.3,92.675,M,36.771,M,1.7,0979*6F,37.232857978666665,137.02482149283333,679619.8819350601,4122625.394341735
462,[2021-02-22 14:45:22.238] $GNGGA,54521.8,3713.97148083,N,13701.48928846,E,4,9.0,1.3,92.67399999999999,M,36.771,M,1.8,0979*66,37.23285801383333,137.02482147433332,679619.8802102888,4122625.398208589
463,[2021-02-22 14:45:22.332] $GNGGA,54521.9,3713.97148145,N,13701.4892871,E,4,9.0,1.3,92.676,M,36.771,M,1.9,0979*63,37.23285802416666,137.02482145166667,679619.878174801,4122625.3993121204
464,[2021-02-22 14:45:22.426] $GNGGA,54522.0,3713.97147993,N,13701.48928862,E,4,9.0,1.3,92.675,M,36.771,M,2.0,0979*66,37.23285799883334,137.024821477,679619.8804824745,4122625.396549306
465,[2021-02-22 14:45:22.504] $GNGGA,54522.1,3713.97148,N,13701.48928344,E,4,9.0,1.3,92.684,M,36.771,M,1.1,0979*68,37.232858,137.02482139066666,679619.8728203027,4122625.3965149084
466,[2021-02-22 14:45:22.629] $GNGGA,54522.2,3713.97147853,N,13701.48928059,E,4,9.0,1.3,92.679,M,36.771,M,1.2,0979*64,37.2328579755,137.02482134316665,679619.8686642998,4122625.39370633
467,[2021-02-22 14:45:22.722] $GNGGA,54522.3,3713.9714789,N,13701.48928188,E,4,9.0,1.3,92.68,M,36.771,M,1.3,0979*60,37.23285798166667,137.02482136466668,679619.8705571247,4122625.3944313643
468,[2021-02-22 14:45:22.832] $GNGGA,54522.4,3713.97147874,N,13701.48927907,E,4,9.0,1.3,92.684,M,36.771,M,1.4,0979*6E,37.232857978999995,137.02482131783333,679619.8664084484,4122625.3940465976
469,[2021-02-22 14:45:22.926] $GNGGA,54522.5,3713.97148109,N,13701.48927913,E,4,9.0,1.3,92.675,M,36.771,M,1.5,0979*69,37.232858018166674,137.02482131883335,679619.8664042058,4122625.3983942866
470,[2021-02-22 14:45:23.035] $GNGGA,54522.6,3713.97147857,N,13701.48927869,E,4,9.0,1.3,92.68299999999999,M,36.771,M,1.6,0979*61,37.23285797616667,137.02482131149998,679619.8658532829,4122625.393720203
471,[2021-02-22 14:45:23.129] $GNGGA,54522.7,3713.97148003,N,13701.48927565,E,4,9.0,1.3,92.679,M,36.771,M,1.7,0979*63,37.232858000499995,137.0248212608333,679619.8613004321,4122625.3963239826
472,[2021-02-22 14:45:23.238] $GNGGA,54522.8,3713.97147972,N,13701.48927584,E,4,9.0,1.3,92.681,M,36.771,M,1.8,0979*6B,37.23285799533333,137.02482126400002,679619.8615936451,4122625.39575672
473,[2021-02-22 14:45:23.316] $GNGGA,54522.9,3713.97148256,N,13701.48927844,E,4,9.0,1.3,92.678,M,36.771,M,1.9,0979*6E,37.23285804266667,137.02482130733333,679619.8653257844,4122625.401090892
474,[2021-02-22 14:45:23.425] $GNGGA,54523.0,3713.97148121,N,13701.48927642,E,4,9.0,1.3,92.677,M,36.771,M,2.0,0979*68,37.232858020166674,137.02482127366667,679619.8623923176,4122625.398530482
475,[2021-02-22 14:45:23.519] $GNGGA,54523.1,3713.97148361,N,13701.48927786,E,4,9.0,1.3,92.685,M,36.771,M,1.1,0979*69,37.23285806016668,137.02482129766668,679619.8644266304,4122625.4030142836
476,[2021-02-22 14:45:23.629] $GNGGA,54523.2,3713.97148319,N,13701.48927732,E,4,9.0,1.3,92.682,M,36.771,M,1.2,0979*6E,37.232858053166666,137.0248212886667,679619.8636447764,4122625.4022205076
477,[2021-02-22 14:45:23.722] $GNGGA,54523.3,3713.97148412,N,13701.48928039,E,4,9.0,1.3,92.67200000000001,M,36.771,M,1.3,0979*6E,37.23285806866666,137.02482133983335,679619.8681474396,4122625.404037437
478,[2021-02-22 14:45:23.832] $GNGGA,54523.4,3713.97148202,N,13701.48927811,E,4,9.0,1.3,92.682,M,36.771,M,1.4,0979*6B,37.232858033666666,137.02482130183333,679619.8648591901,4122625.400081847
479,[2021-02-22 14:45:23.925] $GNGGA,54523.5,3713.97148401,N,13701.48927771,E,4,9.0,1.3,92.677,M,36.771,M,1.5,0979*6D,37.23285806683333,137.02482129516665,679619.8641890079,4122625.4037492475
480,[2021-02-22 14:45:24.035] $GNGGA,54523.6,3713.97148136,N,13701.48927958,E,4,9.0,1.3,92.678,M,36.771,M,1.6,0979*66,37.23285802266667,137.02482132633332,679619.8670589153,4122625.3989078244
481,[2021-02-22 14:45:24.129] $GNGGA,54523.7,3713.97148205,N,13701.4892794,E,4,9.0,1.3,92.681,M,36.771,M,1.7,0979*6A,37.23285803416666,137.02482132333336,679619.866765465,4122625.400178128
482,[2021-02-22 14:45:24.238] $GNGGA,54523.8,3713.97148238,N,13701.48927929,E,4,9.0,1.3,92.677,M,36.771,M,1.8,0979*62,37.23285803966667,137.02482132149999,679619.8665897555,4122625.400784909
483,[2021-02-22 14:45:24.332] $GNGGA,54523.9,3713.97148217,N,13701.48927865,E,4,9.0,1.3,92.685,M,36.771,M,1.9,0979*6B,37.23285803616666,137.02482131083335,679619.8656517296,4122625.400376318
484,[2021-02-22 14:45:24.425] $GNGGA,54524.0,3713.97148519,N,13701.4892782,E,4,9.0,1.3,92.675,M,36.771,M,2.0,0979*68,37.232858086499995,137.02482130333334,679619.8648668696,4122625.405946887
485,[2021-02-22 14:45:24.519] $GNGGA,54524.1,3713.97148042,N,13701.4892792,E,4,9.0,1.3,92.67200000000001,M,36.771,M,1.1,0979*66,37.232858007,137.02482131999997,679619.8665342099,4122625.397157488
486,[2021-02-22 14:45:24.629] $GNGGA,54524.2,3713.97148017,N,13701.48928142,E,4,9.0,1.3,92.682,M,36.771,M,1.2,0979*6A,37.23285800283334,137.02482135699998,679619.8698267043,4122625.3967653913
487,[2021-02-22 14:45:24.722] $GNGGA,54524.3,3713.9714805,N,13701.48928155,E,4,9.0,1.3,92.669,M,36.771,M,1.3,0979*6A,37.23285800833333,137.0248213591667,679619.8700058792,4122625.3973797625
488,[2021-02-22 14:45:24.832] $GNGGA,54524.4,3713.9714796,N,13701.48928053,E,4,9.0,1.3,92.681,M,36.771,M,1.4,0979*6E,37.23285799333333,137.0248213421667,679619.8685332583,4122625.3956831545
489,[2021-02-22 14:45:24.925] $GNGGA,54524.5,3713.97147869,N,13701.48928138,E,4,9.0,1.3,92.677,M,36.771,M,1.5,0979*63,37.23285797816667,137.02482135633335,679619.8698261073,4122625.394027202
490,[2021-02-22 14:45:25.035] $GNGGA,54524.6,3713.97147919,N,13701.48928009,E,4,9.0,1.3,92.67200000000001,M,36.771,M,1.6,0979*63,37.232857986499994,137.02482133483332,679619.8678988685,4122625.394911033
491,[2021-02-22 14:45:25.128] $GNGGA,54524.7,3713.97147905,N,13701.48928058,E,4,9.0,1.3,92.677,M,36.771,M,1.7,0979*6F,37.23285798416667,137.024821343,679619.8686289456,4122625.394667636
492,[2021-02-22 14:45:25.238] $GNGGA,54524.8,3713.97148104,N,13701.48928119,E,4,9.0,1.3,92.671,M,36.771,M,1.8,0979*6B,37.232858017333335,137.0248213531667,679619.8694522012,4122625.398366982
493,[2021-02-22 14:45:25.332] $GNGGA,54524.9,3713.97147816,N,13701.48927939,E,4,9.0,1.3,92.685,M,36.771,M,1.9,0979*60,37.23285796933333,137.02482132316666,679619.8669045602,4122625.3929841425
494,[2021-02-22 14:45:25.425] $GNGGA,54525.0,3713.97148175,N,13701.48928141,E,4,9.0,1.3,92.678,M,36.771,M,2.0,0979*6B,37.232858029166664,137.02482135683331,679619.8697494131,4122625.399686924
495,[2021-02-22 14:45:25.519] $GNGGA,54525.1,3713.97147868,N,13701.4892787,E,4,9.0,1.3,92.677,M,36.771,M,2.1,0979*6A,37.232857978,137.02482131166667,679619.8658637219,4122625.393923938
496,[2021-02-22 14:45:25.628] $GNGGA,54525.2,3713.97148143,N,13701.48927983,E,4,9.0,1.3,92.67200000000001,M,36.771,M,1.2,0979*6E,37.23285802383333,137.0248213305,679619.8674258096,4122625.399045181
497,[2021-02-22 14:45:25.722] $GNGGA,54525.3,3713.97147877,N,13701.48927796,E,4,9.0,1.3,92.675,M,36.771,M,1.3,0979*62,37.232857979500004,137.02482129933333,679619.8647659593,4122625.3940669675
498,[2021-02-22 14:45:25.832] $GNGGA,54525.4,3713.97147726,N,13701.48928086,E,4,9.0,1.3,92.684,M,36.771,M,1.4,0979*6E,37.23285795433333,137.02482134766666,679619.8691137773,4122625.3913662946
499,[2021-02-22 14:45:25.925] $GNGGA,54525.5,3713.9714791,N,13701.48927866,E,4,9.0,1.3,92.681,M,36.771,M,1.5,0979*69,37.232857985,137.024821311,679619.8657879609,4122625.394699368
500,[2021-02-22 14:45:26.035] $GNGGA,54525.6,3713.97148013,N,13701.48928149,E,4,9.0,1.3,92.671,M,36.771,M,1.6,0979*68,37.23285800216667,137.0248213581667,679619.8699317954,4122625.396693634
501,[2021-02-22 14:45:26.128] $GNGGA,54525.7,3713.97148009,N,13701.48927791,E,4,9.0,1.3,92.684,M,36.771,M,1.7,0979*65,37.232858001500006,137.0248212985,679619.8646398096,4122625.396506425
502,[2021-02-22 14:45:26.238] $GNGGA,54525.8,3713.97147917,N,13701.4892792,E,4,9.0,1.3,92.68,M,36.771,M,1.8,0979*6C,37.23285798616667,137.02482131999997,679619.8665836584,4122625.3948458987
503,[2021-02-22 14:45:26.316] $GNGGA,54525.9,3713.97147837,N,13701.48928055,E,4,9.0,1.3,92.677,M,36.771,M,1.9,0979*63,37.23285797283334,137.02482134250002,679619.8686114876,4122625.393409183
504,[2021-02-22 14:45:26.425] $GNGGA,54526.0,3713.97147921,N,13701.48927873,E,4,9.0,1.3,92.681,M,36.771,M,2.0,0979*6F,37.23285798683334,137.02482131216667,679619.8658871138,4122625.394905003
505,[2021-02-22 14:45:26.519] $GNGGA,54526.1,3713.97147953,N,13701.48927916,E,4,9.0,1.3,92.678,M,36.771,M,2.1,0979*6E,37.23285799216667,137.02482131933334,679619.8665102755,4122625.3955103713
506,[2021-02-22 14:45:26.628] $GNGGA,54526.2,3713.97147676,N,13701.48927524,E,4,9.0,1.3,92.68799999999999,M,36.771,M,1.2,0979*67,37.232857945999996,137.024821254,679619.8608235453,4122625.3902638936
507,[2021-02-22 14:45:26.722] $GNGGA,54526.3,3713.97147681,N,13701.48927699,E,4,9.0,1.3,92.684,M,36.771,M,1.3,0979*66,37.232857946833334,137.02482128316666,679619.8634092052,4122625.390411712
508,[2021-02-22 14:45:26.832] $GNGGA,54526.4,3713.9714773,N,13701.4892743,E,4,9.0,1.3,92.681,M,36.771,M,1.4,0979*69,37.232857955,137.02482123833332,679619.8594122522,4122625.3912327685
509,[2021-02-22 14:45:26.925] $GNGGA,54526.5,3713.97147869,N,13701.48927478,E,4,9.0,1.3,92.679,M,36.771,M,1.5,0979*61,37.23285797816667,137.02482124633332,679619.8600670183,4122625.393818441
510,[2021-02-22 14:45:27.035] $GNGGA,54526.6,3713.97147828,N,13701.48927559,E,4,9.0,1.3,92.684,M,36.771,M,1.6,0979*64,37.23285797133333,137.02482125983335,679619.8612809463,4122625.393085859
511,[2021-02-22 14:45:27.128] $GNGGA,54526.7,3713.97147817,N,13701.48927317,E,4,9.0,1.3,92.68799999999999,M,36.771,M,1.7,0979*68,37.2328579695,137.0248212195,679619.857706964,4122625.3928058925
512,[2021-02-22 14:45:27.238] $GNGGA,54526.8,3713.97147785,N,13701.48927594,E,4,9.0,1.3,92.68799999999999,M,36.771,M,1.8,0979*61,37.23285796416667,137.02482126566667,679619.8618154823,4122625.3923017425
513,[2021-02-22 14:45:27.316] $GNGGA,54526.9,3713.97147948,N,13701.48927396,E,4,9.0,1.3,92.68299999999999,M,36.771,M,1.9,0979*61,37.23285799133333,137.02482123266665,679619.8588232744,4122625.3952534283
514,[2021-02-22 14:45:27.425] $GNGGA,54527.0,3713.97147723,N,13701.48927357,E,4,9.0,1.3,92.68700000000001,M,36.771,M,2.0,0979*69,37.232857953833324,137.02482122616664,679619.858335605,4122625.3910802286
515,[2021-02-22 14:45:27.519] $GNGGA,54527.1,3713.97147657,N,13701.48927194,E,4,9.0,1.3,92.686,M,36.771,M,2.1,0979*67,37.232857942833334,137.024821199,679619.8559515192,4122625.3898081514
516,[2021-02-22 14:45:27.628] $GNGGA,54527.2,3713.97148076,N,13701.48927415,E,4,9.0,1.3,92.681,M,36.771,M,1.2,0979*65,37.23285801266667,137.02482123583334,679619.8590535844,4122625.397626507
517,[2021-02-22 14:45:27.722] $GNGGA,54527.3,3713.97148057,N,13701.48927599,E,4,9.0,1.3,92.68,M,36.771,M,1.3,0979*62,37.232858009500006,137.0248212665,679619.8617818146,4122625.397333347
518,[2021-02-22 14:45:27.831] $GNGGA,54527.4,3713.97148111,N,13701.4892733,E,4,9.0,1.3,92.679,M,36.771,M,1.4,0979*62,37.232858018499996,137.02482122166668,679619.857782886,4122625.3982468653
519,[2021-02-22 14:45:27.925] $GNGGA,54527.5,3713.97147905,N,13701.48927528,E,4,9.0,1.3,92.68299999999999,M,36.771,M,1.5,0979*6A,37.23285798416667,137.02482125466665,679619.8607921018,4122625.3944999943
520,[2021-02-22 14:45:28.035] $GNGGA,54527.6,3713.97148253,N,13701.48927537,E,4,9.0,1.3,92.675,M,36.771,M,1.6,0979*6A,37.23285804216666,137.02482125616666,679619.860787516,4122625.400938308
521,[2021-02-22 14:45:28.128] $GNGGA,54527.7,3713.9714802,N,13701.48927482,E,4,9.0,1.3,92.678,M,36.771,M,1.7,0979*6E,37.232858003333334,137.024821247,679619.8600664309,4122625.3966121064
522,[2021-02-22 14:45:28.238] $GNGGA,54527.8,3713.97147957,N,13701.48927655,E,4,9.0,1.3,92.678,M,36.771,M,1.8,0979*60,37.23285799283334,137.02482127583335,679619.8626494186,4122625.3955017864
523,[2021-02-22 14:45:28.316] $GNGGA,54527.9,3713.97147998,N,13701.48927551,E,4,9.0,1.3,92.675,M,36.771,M,1.9,0979*69,37.23285799966666,137.02482125850003,679619.8610954038,4122625.396227091
524,[2021-02-22 14:45:28.425] $GNGGA,54528.0,3713.97148096,N,13701.48927698,E,4,9.0,1.3,92.678,M,36.771,M,2.0,0979*66,37.232858016,137.02482128300002,679619.8632302526,4122625.3980858754
525,[2021-02-22 14:45:28.519] $GNGGA,54528.1,3713.97148077,N,13701.48927723,E,4,9.0,1.3,92.675,M,36.771,M,1.1,0979*66,37.23285801283334,137.0248212871667,679619.8636074322,4122625.3977424223
526,[2021-02-22 14:45:28.628] $GNGGA,54528.2,3713.97147746,N,13701.48927825,E,4,9.0,1.3,92.678,M,36.771,M,1.2,0979*68,37.23285795766667,137.02482130416666,679619.8652465912,4122625.3916535936
527,[2021-02-22 14:45:28.722] $GNGGA,54528.3,3713.97147898,N,13701.48927912,E,4,9.0,1.3,92.675,M,36.771,M,1.3,0979*6C,37.232857983,137.02482131866665,679619.8664728843,4122625.394492005
528,[2021-02-22 14:45:28.831] $GNGGA,54528.4,3713.9714791,N,13701.48927968,E,4,9.0,1.3,92.66799999999999,M,36.771,M,1.4,0979*6C,37.232857985,137.02482132799997,679619.8672961803,4122625.394731632
529,[2021-02-22 14:45:28.925] $GNGGA,54528.5,3713.97147782,N,13701.48927935,E,4,9.0,1.3,92.67399999999999,M,36.771,M,1.5,0979*6C,37.23285796366667,137.0248213225,679619.866858864,4122625.392354125
530,[2021-02-22 14:45:29.034] $GNGGA,54528.6,3713.97147835,N,13701.48927994,E,4,9.0,1.3,92.679,M,36.771,M,1.6,0979*69,37.23285797249999,137.02482133233335,679619.8677103012,4122625.3933529
531,[2021-02-22 14:45:29.128] $GNGGA,54528.7,3713.97147885,N,13701.48927793,E,4,9.0,1.3,92.67200000000001,M,36.771,M,1.7,0979*60,37.23285798083334,137.02482129883333,679619.8647184344,4122625.394213961
532,[2021-02-22 14:45:29.238] $GNGGA,54528.8,3713.97147529,N,13701.48928114,E,4,9.0,1.3,92.67399999999999,M,36.771,M,1.8,0979*6B,37.2328579215,137.02482135233336,679619.8696057318,4122625.3877320844
533,[2021-02-22 14:45:29.331] $GNGGA,54528.9,3713.97147834,N,13701.48928065,E,4,9.0,1.3,92.67299999999999,M,36.771,M,1.9,0979*6A,37.232857972333335,137.02482134416667,679619.8687605388,4122625.393356867
534,[2021-02-22 14:45:29.441] $GNGGA,54529.0,3713.97148032,N,13701.48927952,E,4,9.0,1.3,92.666,M,36.771,M,2.0,0979*6F,37.232858005333334,137.0248213253333,679619.8670113359,4122625.396982684
535,[2021-02-22 14:45:29.519] $GNGGA,54529.1,3713.97148166,N,13701.48928262,E,4,9.0,1.3,92.67,M,36.771,M,1.1,0979*6C,37.232858027666666,137.024821377,679619.8715421426,4122625.399558763
536,[2021-02-22 14:45:29.628] $GNGGA,54529.2,3713.97148203,N,13701.48928333,E,4,9.0,1.3,92.671,M,36.771,M,1.2,0979*68,37.23285803383333,137.02482138883332,679619.8725773457,4122625.400265451
537,[2021-02-22 14:45:29.722] $GNGGA,54529.3,3713.97148183,N,13701.48928435,E,4,9.0,1.3,92.665,M,36.771,M,1.3,0979*67,37.2328580305,137.02482140583334,679619.8740934813,4122625.3999278597
538,[2021-02-22 14:45:29.831] $GNGGA,54529.4,3713.97148646,N,13701.48927925,E,4,9.0,1.3,92.663,M,36.771,M,1.4,0979*6C,37.23285810766667,137.02482132083335,679619.8663692118,4122625.408328675
539,[2021-02-22 14:45:29.925] $GNGGA,54529.5,3713.97148336,N,13701.48928161,E,4,9.0,1.3,92.665,M,36.771,M,1.5,0979*6F,37.232858056000005,137.02482136016667,679619.8699814571,4122625.4026705795
540,[2021-02-22 14:45:30.034] $GNGGA,54529.6,3713.97148485,N,13701.48928205,E,4,9.0,1.3,92.65700000000001,M,36.771,M,1.6,0979*60,37.23285808083333,137.02482136749998,679619.8705731188,4122625.405439912
541,[2021-02-22 14:45:30.128] $GNGGA,54529.7,3713.97148051,N,13701.48928085,E,4,9.0,1.3,92.67299999999999,M,36.771,M,1.7,0979*61,37.232858008499996,137.02482134750002,679619.8689704277,4122625.3973761136
542,[2021-02-22 14:45:30.238] $GNGGA,54529.8,3713.97148255,N,13701.48928055,E,4,9.0,1.3,92.666,M,36.771,M,1.8,0979*6E,37.2328580425,137.02482134250002,679619.8684461319,4122625.40113914
543,[2021-02-22 14:45:30.331] $GNGGA,54529.9,3713.97148342,N,13701.4892791,E,4,9.0,1.3,92.664,M,36.771,M,1.9,0979*6C,37.232858057,137.02482131833332,679619.8662676713,4122625.402702143
544,[2021-02-22 14:45:30.441] $GNGGA,54530.0,3713.97148146,N,13701.48927922,E,4,9.0,1.3,92.671,M,36.771,M,1.0,0979*67,37.23285802433334,137.02482132033336,679619.8665226477,4122625.399081365
545,[2021-02-22 14:45:30.519] $GNGGA,54530.1,3713.97148303,N,13701.48927901,E,4,9.0,1.3,92.67399999999999,M,36.771,M,1.1,0979*60,37.2328580505,137.0248213168333,679619.8661500185,4122625.401978079
546,[2021-02-22 14:45:30.628] $GNGGA,54530.2,3713.97148637,N,13701.48927657,E,4,9.0,1.3,92.67299999999999,M,36.771,M,1.2,0979*69,37.23285810616667,137.02482127616668,679619.8624099911,4122625.4080774714
547,[2021-02-22 14:45:30.722] $GNGGA,54530.3,3713.97148494,N,13701.48927791,E,4,9.0,1.3,92.667,M,36.771,M,1.3,0979*6C,37.23285808233334,137.0248212985,679619.8644479496,4122625.405475396
548,[2021-02-22 14:45:30.831] $GNGGA,54530.4,3713.97148332,N,13701.4892762,E,4,9.0,1.3,92.671,M,36.771,M,1.4,0979*6B,37.23285805533334,137.02482127,679619.861983543,4122625.402425488
549,[2021-02-22 14:45:30.925] $GNGGA,54530.5,3713.97148473,N,13701.48928037,E,4,9.0,1.3,92.67,M,36.771,M,1.5,0979*67,37.23285807883333,137.02482133950002,679619.8680937368,4122625.4051648607
550,[2021-02-22 14:45:31.034] $GNGGA,54530.6,3713.97148278,N,13701.48927935,E,4,9.0,1.3,92.67299999999999,M,36.771,M,1.6,0979*6D,37.232858046333334,137.0248213225,679619.8666626525,4122625.401526517
551,[2021-02-22 14:45:31.128] $GNGGA,54530.7,3713.97148364,N,13701.48927738,E,4,9.0,1.3,92.67200000000001,M,36.771,M,1.7,0979*63,37.23285806066666,137.02482128966668,679619.8637156931,4122625.403054577
552,[2021-02-22 14:45:31.237] $GNGGA,54530.8,3713.9714822,N,13701.489279,E,4,9.0,1.3,92.67299999999999,M,36.771,M,1.8,0979*66,37.23285803666667,137.02482131666667,679619.8661680686,4122625.400442867
553,[2021-02-22 14:45:31.331] $GNGGA,54530.9,3713.97148413,N,13701.48927808,E,4,9.0,1.3,92.67399999999999,M,36.771,M,1.9,0979*6E,37.23285806883333,137.02482130133336,679619.8647313655,4122625.403982862
554,[2021-02-22 14:45:31.441] $GNGGA,54531.0,3713.97148329,N,13701.48927741,E,4,9.0,1.3,92.676,M,36.771,M,2.0,0979*62,37.23285805483333,137.0248212901667,679619.8637738989,4122625.4024082823
555,[2021-02-22 14:45:31.519] $GNGGA,54531.1,3713.97148377,N,13701.48927955,E,4,10.0,1.2,92.682,M,36.771,M,1.1,0979*63,37.23285806283333,137.02482132583333,679619.8669192183,4122625.4033636213
556,[2021-02-22 14:45:31.628] $GNGGA,54531.2,3713.97148513,N,13701.48927926,E,4,10.0,1.2,92.678,M,36.771,M,1.2,0979*66,37.2328580855,137.024821321,679619.8664366087,4122625.4058694593
557,[2021-02-22 14:45:31.722] $GNGGA,54531.3,3713.97148347,N,13701.48928011,E,4,10.0,1.2,92.671,M,36.771,M,1.3,0979*6A,37.23285805783333,137.02482133516665,679619.867759129,4122625.4028265523
558,[2021-02-22 14:45:31.831] $GNGGA,54531.4,3713.9714837,N,13701.48928117,E,4,10.0,1.2,92.67299999999999,M,36.771,M,1.4,0979*6B,37.23285806166667,137.0248213528333,679619.8693173983,4122625.403285414
559,[2021-02-22 14:45:31.925] $GNGGA,54531.5,3713.9714848,N,13701.48928029,E,4,10.0,1.2,92.678,M,36.771,M,1.5,0979*64,37.23285807999999,137.02482133816665,679619.8679726729,4122625.4052917785
560,[2021-02-22 14:45:32.034] $GNGGA,54531.6,3713.97148138,N,13701.48927909,E,4,10.0,1.2,92.677,M,36.771,M,1.6,0979*69,37.232858023,137.0248213181667,679619.8663335876,4122625.39892931
561,[2021-02-22 14:45:32.128] $GNGGA,54531.7,3713.97148006,N,13701.48927738,E,4,10.0,1.2,92.679,M,36.771,M,1.7,0979*67,37.232858001,137.02482128966668,679619.8638573135,4122625.3964341823
562,[2021-02-22 14:45:32.237] $GNGGA,54531.8,3713.97148185,N,13701.48927777,E,4,10.0,1.2,92.682,M,36.771,M,1.8,0979*62,37.23285803083334,137.02482129616666,679619.8643631754,4122625.399756717
563,[2021-02-22 14:45:32.331] $GNGGA,54531.9,3713.97148095,N,13701.48927554,E,4,10.0,1.2,92.67399999999999,M,36.771,M,1.9,0979*68,37.23285801583333,137.02482125899996,679619.8611013875,4122625.398021835
564,[2021-02-22 14:45:32.425] $GNGGA,54532.0,3713.97148362,N,13701.48927683,E,4,10.0,1.2,92.676,M,36.771,M,2.0,0979*68,37.232858060333335,137.0248212805,679619.862903225,4122625.403000196
565,[2021-02-22 14:45:32.503] $GNGGA,54532.1,3713.97148209,N,13701.4892729,E,4,10.0,1.2,92.677,M,36.771,M,1.1,0979*60,37.23285803483333,137.024821215,679619.8571526582,4122625.4000465004
566,[2021-02-22 14:45:32.628] $GNGGA,54532.2,3713.97147998,N,13701.48927218,E,4,10.0,1.2,92.682,M,36.771,M,1.2,0979*66,37.23285799966666,137.02482120300002,679619.8561715013,4122625.3961217618
567,[2021-02-22 14:45:32.722] $GNGGA,54532.3,3713.97148109,N,13701.4892756,E,4,10.0,1.2,92.678,M,36.771,M,1.3,0979*64,37.232858018166674,137.02482125999998,679619.8611845699,4122625.398282631
568,[2021-02-22 14:45:32.831] $GNGGA,54532.4,3713.97147805,N,13701.48927639,E,4,10.0,1.2,92.67399999999999,M,36.771,M,1.4,0979*6D,37.2328579675,137.02482127316668,679619.862472963,4122625.3926858306
569,[2021-02-22 14:45:32.925] $GNGGA,54532.5,3713.97147659,N,13701.48927459,E,4,10.0,1.2,92.676,M,36.771,M,1.5,0979*6C,37.23285794316666,137.02482124316666,679619.8598691487,4122625.3899289574
570,[2021-02-22 14:45:33.034] $GNGGA,54532.6,3713.97148019,N,13701.48927602,E,4,10.0,1.2,92.67299999999999,M,36.771,M,1.6,0979*68,37.23285800316666,137.02482126700002,679619.8618412073,4122625.396631571
571,[2021-02-22 14:45:33.128] $GNGGA,54532.7,3713.97148033,N,13701.48927548,E,4,10.0,1.2,92.677,M,36.771,M,1.7,0979*69,37.23285800549999,137.024821258,679619.861037198,4122625.396873387
572,[2021-02-22 14:45:33.237] $GNGGA,54532.8,3713.97148321,N,13701.48927787,E,4,10.0,1.2,92.68,M,36.771,M,1.8,0979*60,37.232858053499996,137.0248212978333,679619.8644572377,4122625.4022748894
573,[2021-02-22 14:45:33.331] $GNGGA,54532.9,3713.97147997,N,13701.48927784,E,4,10.0,1.2,92.68,M,36.771,M,1.9,0979*6B,37.232857999500006,137.02482129733332,679619.86454105,4122625.396282299
574,[2021-02-22 14:45:33.440] $GNGGA,54533.0,3713.97148142,N,13701.48927495,E,4,10.0,1.2,92.664,M,36.771,M,1.0,0979*6C,37.23285802366667,137.02482124916668,679619.8602103939,4122625.3988723317
575,[2021-02-22 14:45:33.519] $GNGGA,54533.1,3713.97147805,N,13701.48927276,E,4,10.0,1.2,92.67299999999999,M,36.771,M,1.1,0979*64,37.2328579675,137.02482121266667,679619.8571054648,4122625.392571011
576,[2021-02-22 14:45:33.628] $GNGGA,54533.2,3713.97148151,N,13701.48927192,E,4,10.0,1.2,92.67399999999999,M,36.771,M,1.2,0979*6D,37.232858025166664,137.02482119866664,679619.8557265224,4122625.3989429236
577,[2021-02-22 14:45:33.722] $GNGGA,54533.3,3713.97148072,N,13701.48927282,E,4,10.0,1.2,92.66799999999999,M,36.771,M,1.3,0979*62,37.232858012,137.02482121366663,679619.8570885588,4122625.3975104676
578,[2021-02-22 14:45:33.831] $GNGGA,54533.4,3713.97148174,N,13701.48927018,E,4,10.0,1.2,92.685,M,36.771,M,1.4,0979*67,37.232858029,137.02482116966667,679619.8531445765,4122625.39931322
579,[2021-02-22 14:45:33.925] $GNGGA,54533.5,3713.97148383,N,13701.48927011,E,4,10.0,1.2,92.675,M,36.771,M,1.5,0979*6B,37.23285806383333,137.02482116849998,679619.8529583921,4122625.403175985
580,[2021-02-22 14:45:34.034] $GNGGA,54533.6,3713.97148392,N,13701.48927092,E,4,10.0,1.2,92.67299999999999,M,36.771,M,1.6,0979*66,37.23285806533334,137.02482118199998,679619.8541525385,4122625.4033680414
581,[2021-02-22 14:45:34.128] $GNGGA,54533.7,3713.97148006,N,13701.48927174,E,4,10.0,1.2,92.679,M,36.771,M,1.7,0979*6B,37.232858001,137.02482119566665,679619.8555177278,4122625.396255786
582,[2021-02-22 14:45:34.237] $GNGGA,54533.8,3713.97148414,N,13701.48927157,E,4,10.0,1.2,92.676,M,36.771,M,1.8,0979*62,37.232858069,137.02482119283334,679619.8551049593,4122625.4037954407
583,[2021-02-22 14:45:34.315] $GNGGA,54533.9,3713.97148264,N,13701.48927165,E,4,10.0,1.2,92.676,M,36.771,M,1.9,0979*62,37.232858044000004,137.02482119416663,679619.8552825855,4122625.401024063
584,[2021-02-22 14:45:34.425] $GNGGA,54534.0,3713.97148164,N,13701.48927193,E,4,10.0,1.2,92.67200000000001,M,36.771,M,2.0,0979*68,37.232858027333336,137.02482119883334,679619.8557361703,4122625.3991836477
585,[2021-02-22 14:45:34.503] $GNGGA,54534.1,3713.97148323,N,13701.48926696,E,4,9.0,1.3,92.68299999999999,M,36.771,M,1.1,0979*6E,37.23285805383333,137.02482111599997,679619.8483243797,4122625.4019667855
586,[2021-02-22 14:45:34.628] $GNGGA,54534.2,3713.9714851,N,13701.48926784,E,4,9.0,1.3,92.686,M,36.771,M,1.2,0979*6F,37.232858085000004,137.02482113066668,679619.8495516202,4122625.40545276
587,[2021-02-22 14:45:34.722] $GNGGA,54534.3,3713.97148215,N,13701.48926797,E,4,9.0,1.3,92.68299999999999,M,36.771,M,1.3,0979*6A,37.23285803583333,137.02482113283335,679619.8498605432,4122625.400001519
588,[2021-02-22 14:45:34.831] $GNGGA,54534.4,3713.97148159,N,13701.48926649,E,4,9.0,1.3,92.67399999999999,M,36.771,M,1.4,0979*6B,37.2328580265,137.02482110816666,679619.8476942938,4122625.398919112
589,[2021-02-22 14:45:34.925] $GNGGA,54534.5,3713.97148287,N,13701.48926896,E,4,9.0,1.3,92.679,M,36.771,M,1.5,0979*6A,37.23285804783333,137.02482114933335,679619.8512959245,4122625.401364309
590,[2021-02-22 14:45:35.034] $GNGGA,54534.6,3713.97148101,N,13701.48927224,E,4,9.0,1.3,92.677,M,36.771,M,1.6,0979*6B,37.23285801683334,137.02482120399998,679619.8562194695,4122625.398028412
591,[2021-02-22 14:45:35.128] $GNGGA,54534.7,3713.97148195,N,13701.48926994,E,4,9.0,1.3,92.678,M,36.771,M,1.7,0979*68,37.2328580325,137.02482116566668,679619.8527813939,4122625.3996939757
592,[2021-02-22 14:45:35.237] $GNGGA,54534.8,3713.97148282,N,13701.48927162,E,4,9.0,1.3,92.691,M,36.771,M,1.8,0979*6A,37.232858047,137.02482119366667,679619.8552311092,4122625.4013559828
593,[2021-02-22 14:45:35.331] $GNGGA,54534.9,3713.97148112,N,13701.4892723,E,4,9.0,1.3,92.685,M,36.771,M,1.9,0979*61,37.23285801866667,137.024821205,679619.8563038385,4122625.398233729
594,[2021-02-22 14:45:35.425] $GNGGA,54535.0,3713.97148067,N,13701.48927156,E,4,9.0,1.3,92.681,M,36.771,M,1.0,0979*64,37.23285801116666,137.02482119266668,679619.8552274422,4122625.3973781485
595,[2021-02-22 14:45:35.518] $GNGGA,54535.1,3713.9714817,N,13701.4892721,E,4,9.0,1.3,92.68299999999999,M,36.771,M,1.1,0979*60,37.23285802833333,137.02482120166667,679619.8559851655,4122625.3992999797
596,[2021-02-22 14:45:35.628] $GNGGA,54535.2,3713.97148243,N,13701.48927054,E,4,9.0,1.3,92.67,M,36.771,M,1.2,0979*6D,37.2328580405,137.02482117566666,679619.853649595,4122625.4006006056
597,[2021-02-22 14:45:35.722] $GNGGA,54535.3,3713.97148124,N,13701.48927035,E,4,9.0,1.3,92.678,M,36.771,M,1.3,0979*60,37.23285802066667,137.02482117250003,679619.8534157292,4122625.3983939616
598,[2021-02-22 14:45:35.831] $GNGGA,54535.4,3713.97148049,N,13701.4892672,E,4,9.0,1.3,92.68,M,36.771,M,1.4,0979*6F,37.23285800816667,137.02482112,679619.8487876505,4122625.3969073715
599,[2021-02-22 14:45:35.925] $GNGGA,54535.5,3713.97148213,N,13701.48927123,E,4,9.0,1.3,92.67200000000001,M,36.771,M,1.5,0979*6B,37.232858035499994,137.02482118716665,679619.8546817282,4122625.4000676484
600,[2021-02-22 14:45:36.034] $GNGGA,54535.6,3713.97148127,N,13701.48926835,E,4,9.0,1.3,92.681,M,36.771,M,1.6,0979*6C,37.23285802116666,137.02482113916665,679619.8504572387,4122625.3983861776
601,[2021-02-22 14:45:36.128] $GNGGA,54535.7,3713.97147771,N,13701.48927006,E,4,9.0,1.3,92.678,M,36.771,M,1.7,0979*69,37.232857961833325,137.02482116766666,679619.8531265595,4122625.3918568557
602,[2021-02-22 14:45:36.237] $GNGGA,54535.8,3713.97147929,N,13701.48926839,E,4,9.0,1.3,92.68299999999999,M,36.771,M,1.8,0979*6B,37.23285798816667,137.02482113983334,679619.8505947136,4122625.3947258852
603,[2021-02-22 14:45:36.331] $GNGGA,54535.9,3713.97148243,N,13701.48926688,E,4,9.0,1.3,92.677,M,36.771,M,1.9,0979*6C,37.2328580405,137.02482111466668,679619.8482377387,4122625.400484837
604,[2021-02-22 14:45:36.425] $GNGGA,54536.0,3713.97148021,N,13701.48927275,E,4,9.0,1.3,92.67,M,36.771,M,1.0,0979*69,37.232858003500006,137.02482121249997,679619.8570052274,4122625.396565125
605,[2021-02-22 14:45:36.518] $GNGGA,54536.1,3713.97147792,N,13701.48927456,E,4,9.0,1.3,92.66799999999999,M,36.771,M,1.1,0979*67,37.23285796533333,137.02482124266663,679619.859772173,4122625.39238754
606,[2021-02-22 14:45:36.628] $GNGGA,54536.2,3713.97148093,N,13701.48927178,E,4,9.0,1.3,92.66799999999999,M,36.771,M,1.2,0979*67,37.23285801549999,137.02482119633333,679619.855542458,4122625.397865917
607,[2021-02-22 14:45:36.721] $GNGGA,54536.3,3713.97148168,N,13701.48927016,E,4,9.0,1.3,92.665,M,36.771,M,1.3,0979*66,37.232858028,137.0248211693333,679619.8531173758,4122625.3992016315
608,[2021-02-22 14:45:36.831] $GNGGA,54536.4,3713.97147876,N,13701.48927476,E,4,9.0,1.3,92.671,M,36.771,M,1.4,0979*68,37.23285797933333,137.02482124600002,679619.8600346772,4122625.3939472563
609,[2021-02-22 14:45:36.925] $GNGGA,54536.5,3713.97148097,N,13701.48927371,E,4,9.0,1.3,92.66799999999999,M,36.771,M,1.5,0979*68,37.23285801616666,137.02482122850003,679619.8583946727,4122625.398000936
610,[2021-02-22 14:45:37.034] $GNGGA,54536.6,3713.97148234,N,13701.48927348,E,4,9.0,1.3,92.671,M,36.771,M,1.6,0979*61,37.232858039,137.02482122466665,679619.8580003835,4122625.400527165
611,[2021-02-22 14:45:37.128] $GNGGA,54536.7,3713.97148017,N,13701.48927448,E,4,9.0,1.3,92.667,M,36.771,M,1.7,0979*62,37.23285800283334,137.0248212413333,679619.8595648755,4122625.396545875
612,[2021-02-22 14:45:37.237] $GNGGA,54536.8,3713.97148396,N,13701.48927903,E,4,9.0,1.3,92.664,M,36.771,M,1.8,0979*69,37.232858066000006,137.02482131716667,679619.8661428054,4122625.4036985366
613,[2021-02-22 14:45:37.331] $GNGGA,54536.9,3713.97148267,N,13701.48927854,E,4,9.0,1.3,92.676,M,36.771,M,1.9,0979*66,37.2328580445,137.024821309,679619.8654692974,4122625.4012974743
614,[2021-02-22 14:45:37.440] $GNGGA,54537.0,3713.97148432,N,13701.48928031,E,4,9.0,1.3,92.671,M,36.771,M,2.0,0979*61,37.23285807199999,137.0248213385,679619.8680212353,4122625.40440476
615,[2021-02-22 14:45:37.518] $GNGGA,54537.1,3713.97148289,N,13701.48927792,E,4,9.0,1.3,92.664,M,36.771,M,1.1,0979*61,37.23285804816666,137.0248212986667,679619.8645438333,4122625.4016847033
616,[2021-02-22 14:45:37.628] $GNGGA,54537.2,3713.97148524,N,13701.48928237,E,4,9.0,1.3,92.662,M,36.771,M,1.2,0979*62,37.23285808733334,137.02482137283332,679619.8710308587,4122625.4061712516
617,[2021-02-22 14:45:37.721] $GNGGA,54537.3,3713.97148291,N,13701.4892816,E,4,9.0,1.3,92.67200000000001,M,36.771,M,1.3,0979*6B,37.2328580485,137.02482135999998,679619.869984468,4122625.4018380907
618,[2021-02-22 14:45:37.831] $GNGGA,54537.4,3713.97148313,N,13701.48928401,E,4,9.0,1.3,92.67299999999999,M,36.771,M,1.4,0979*63,37.23285805216666,137.02482140016667,679619.8735393151,4122625.40232116
619,[2021-02-22 14:45:37.925] $GNGGA,54537.5,3713.97148734,N,13701.48928452,E,4,9.0,1.3,92.66799999999999,M,36.771,M,1.5,0979*6E,37.232858122333326,137.02482140866667,679619.8741268835,4122625.4101227275
620,[2021-02-22 14:45:38.034] $GNGGA,54537.6,3713.9714893,N,13701.48928786,E,4,9.0,1.3,92.656,M,36.771,M,1.6,0979*63,37.232858154999995,137.02482146433331,679619.8789880346,4122625.4138529473
621,[2021-02-22 14:45:38.128] $GNGGA,54537.7,3713.97148837,N,13701.48928442,E,4,9.0,1.3,92.666,M,36.771,M,1.7,0979*6D,37.2328581395,137.02482140700002,679619.8739382734,4122625.412024316
622,[2021-02-22 14:45:38.237] $GNGGA,54537.8,3713.97148697,N,13701.48928308,E,4,9.0,1.3,92.67299999999999,M,36.771,M,1.8,0979*64,37.23285811616667,137.02482138466667,679619.8720122641,4122625.40939295
623,[2021-02-22 14:45:38.331] $GNGGA,54537.9,3713.97148813,N,13701.48928488,E,4,9.0,1.3,92.666,M,36.771,M,1.9,0979*6D,37.2328581355,137.02482141466666,679619.8746279438,4122625.4115950414
624,[2021-02-22 14:45:38.440] $GNGGA,54538.0,3713.9714868,N,13701.48928376,E,4,9.0,1.3,92.664,M,36.771,M,2.0,0979*61,37.23285811333333,137.024821396,679619.8730244709,4122625.4091000813
625,[2021-02-22 14:45:38.518] $GNGGA,54538.1,3713.97148945,N,13701.48928051,E,4,9.0,1.3,92.689,M,36.771,M,1.1,0979*61,37.23285815749999,137.02482134183333,679619.8681140279,4122625.4138978533
626,[2021-02-22 14:45:38.628] $GNGGA,54538.2,3713.97149128,N,13701.48928373,E,4,9.0,1.3,92.67200000000001,M,36.771,M,1.2,0979*64,37.232858188,137.02482139549997,679619.872802885,4122625.4173838724
627,[2021-02-22 14:45:38.721] $GNGGA,54538.3,3713.97148653,N,13701.48927918,E,4,9.0,1.3,92.684,M,36.771,M,1.3,0979*6F,37.232858108833334,137.02482131966664,679619.8662629339,4122625.408455911
628,[2021-02-22 14:45:38.831] $GNGGA,54538.4,3713.97148698,N,13701.48927723,E,4,9.0,1.3,92.67200000000001,M,36.771,M,1.4,0979*67,37.23285811633334,137.0248212871667,679619.8633617724,4122625.4092264036
629,[2021-02-22 14:45:38.924] $GNGGA,54538.5,3713.97148475,N,13701.4892766,E,4,9.0,1.3,92.676,M,36.771,M,1.5,0979*64,37.23285807916667,137.02482127666667,679619.8625184343,4122625.4050825993
630,[2021-02-22 14:45:39.034] $GNGGA,54538.6,3713.97148662,N,13701.48927729,E,4,9.0,1.3,92.67399999999999,M,36.771,M,1.6,0979*6E,37.23285811033334,137.02482128816666,679619.8634647273,4122625.408562563
631,[2021-02-22 14:45:39.128] $GNGGA,54538.7,3713.9714873,N,13701.48927696,E,4,9.0,1.3,92.676,M,36.771,M,1.7,0979*6F,37.23285812166666,137.02482128266664,679619.8629498712,4122625.4098096294
632,[2021-02-22 14:45:39.237] $GNGGA,54538.8,3713.97148557,N,13701.48927382,E,4,9.0,1.3,92.675,M,36.771,M,1.8,0979*6F,37.23285809283333,137.02482123033332,679619.8583753484,4122625.4065110693
633,[2021-02-22 14:45:39.331] $GNGGA,54538.9,3713.97148529,N,13701.48927168,E,4,9.0,1.3,92.675,M,36.771,M,1.9,0979*60,37.232858088166665,137.02482119466669,679619.8552221195,4122625.405925582
634,[2021-02-22 14:45:39.440] $GNGGA,54539.0,3713.97148315,N,13701.48926855,E,4,9.0,1.3,92.669,M,36.771,M,2.0,0979*60,37.2328580525,137.0248211425,679619.8506785996,4122625.4018691364
635,[2021-02-22 14:45:39.518] $GNGGA,54539.1,3713.97148044,N,13701.4892719,E,4,10.0,1.2,92.681,M,36.771,M,1.1,0979*6A,37.232858007333334,137.0248211983333,679619.8557392783,4122625.3969635717
636,[2021-02-22 14:45:39.627] $GNGGA,54539.2,3713.97147923,N,13701.48927134,E,4,10.0,1.2,92.665,M,36.771,M,1.2,0979*69,37.23285798716666,137.024821189,679619.8549591013,4122625.3947082367
637,[2021-02-22 14:45:39.721] $GNGGA,54539.3,3713.97147939,N,13701.48927579,E,4,10.0,1.2,92.676,M,36.771,M,1.3,0979*6D,37.23285798983333,137.02482126316664,679619.8615327628,4122625.395144877
638,[2021-02-22 14:45:39.831] $GNGGA,54539.4,3713.97148122,N,13701.48927395,E,4,10.0,1.2,92.67,M,36.771,M,1.4,0979*62,37.23285802033333,137.0248212325,679619.858739656,4122625.3984708465
639,[2021-02-22 14:45:39.924] $GNGGA,54539.5,3713.97147987,N,13701.48927182,E,4,10.0,1.2,92.681,M,36.771,M,1.5,0979*60,37.23285799783333,137.024821197,679619.8556435365,4122625.3959069545
640,[2021-02-22 14:45:40.034] $GNGGA,54539.6,3713.97148204,N,13701.48927217,E,4,10.0,1.2,92.67,M,36.771,M,1.6,0979*6E,37.232858034,137.02482120283332,679619.8560752198,4122625.3999309475
641,[2021-02-22 14:45:40.127] $GNGGA,54539.7,3713.97147983,N,13701.48927544,E,4,10.0,1.2,92.66799999999999,M,36.771,M,1.7,0979*6D,37.23285799716666,137.02482125733331,679619.8609978289,4122625.395947486
642,[2021-02-22 14:45:40.237] $GNGGA,54539.8,3713.97147892,N,13701.48927392,E,4,10.0,1.2,92.66799999999999,M,36.771,M,1.8,0979*61,37.232857982,137.02482123200002,679619.8587862833,4122625.3942165696
643,[2021-02-22 14:45:40.331] $GNGGA,54539.9,3713.97147954,N,13701.48927555,E,4,10.0,1.2,92.67399999999999,M,36.771,M,1.9,0979*6A,37.23285799233334,137.02482125916666,679619.8611719536,4122625.3954146784
644,[2021-02-22 14:45:40.440] $GNGGA,54540.0,3713.9714774,N,13701.48927571,E,4,10.0,1.2,92.67299999999999,M,36.771,M,2.0,0979*6D,37.23285795666666,137.02482126183332,679619.8614931921,4122625.391462296
645,[2021-02-22 14:45:40.534] $GNGGA,54540.1,3713.97148042,N,13701.48927582,E,4,10.0,1.2,92.67200000000001,M,36.771,M,2.1,0979*6A,37.232858007,137.02482126366667,679619.8615363775,4122625.3970505763
646,[2021-02-22 14:45:40.627] $GNGGA,54540.2,3713.97148182,N,13701.48927652,E,4,10.0,1.2,92.675,M,36.771,M,1.2,0979*6D,37.23285803033333,137.02482127533332,679619.862516049,4122625.3996617
647,[2021-02-22 14:45:40.721] $GNGGA,54540.3,3713.97148381,N,13701.48927707,E,4,10.0,1.2,92.682,M,36.771,M,1.3,0979*65,37.2328580635,137.02482128450004,679619.8632505886,4122625.4033591487
648,[2021-02-22 14:45:40.831] $GNGGA,54540.4,3713.97148299,N,13701.48927849,E,4,10.0,1.2,92.681,M,36.771,M,1.4,0979*6B,37.23285804983333,137.02482130816668,679619.8653827064,4122625.40188766
649,[2021-02-22 14:45:40.924] $GNGGA,54540.5,3713.97148318,N,13701.48927745,E,4,10.0,1.2,92.677,M,36.771,M,1.5,0979*69,37.232858053,137.02482129083333,679619.8638373944,4122625.4022061266
650,[2021-02-22 14:45:41.034] $GNGGA,54540.6,3713.97148393,N,13701.4892775,E,4,10.0,1.2,92.67299999999999,M,36.771,M,1.6,0979*6A,37.2328580655,137.0248212916667,679619.8638816621,4122625.4035946624
651,[2021-02-22 14:45:41.127] $GNGGA,54540.7,3713.9714849,N,13701.48927681,E,4,10.0,1.2,92.682,M,36.771,M,1.7,0979*6D,37.23285808166667,137.02482128016666,679619.8628230178,4122625.4053666326
652,[2021-02-22 14:45:41.237] $GNGGA,54540.8,3713.97148219,N,13701.48927964,E,4,10.0,1.2,92.68,M,36.771,M,1.8,0979*6C,37.2328580365,137.02482132733334,679619.867114802,4122625.4004446184
653,[2021-02-22 14:45:41.330] $GNGGA,54540.9,3713.9714849,N,13701.4892751,E,4,10.0,1.2,92.682,M,36.771,M,1.9,0979*66,37.23285808166667,137.0248212516667,679619.8602945306,4122625.4053125447
654,[2021-02-22 14:45:41.440] $GNGGA,54541.0,3713.97148409,N,13701.48927553,E,4,10.0,1.2,92.685,M,36.771,M,2.0,0979*64,37.232858068166664,137.02482125883333,679619.8609623893,4122625.403828234
655,[2021-02-22 14:45:41.518] $GNGGA,54541.1,3713.9714833,N,13701.48927924,E,4,10.0,1.2,92.667,M,36.771,M,1.1,0979*6A,37.232858055,137.0248213206667,679619.8664794315,4122625.402484658
656,[2021-02-22 14:45:41.627] $GNGGA,54541.2,3713.97148295,N,13701.48927808,E,4,10.0,1.2,92.682,M,36.771,M,1.2,0979*60,37.232858049166666,137.02482130133336,679619.8647780447,4122625.401800721
657,[2021-02-22 14:45:41.721] $GNGGA,54541.3,3713.97148063,N,13701.48927813,E,4,10.0,1.2,92.679,M,36.771,M,1.3,0979*65,37.232858010499996,137.02482130216669,679619.8649437533,4122625.3975119903
658,[2021-02-22 14:45:41.830] $GNGGA,54541.4,3713.97148072,N,13701.48927441,E,4,10.0,1.2,92.684,M,36.771,M,1.4,0979*6C,37.232858012,137.02482124016666,679619.859439614,4122625.3975607594
659,[2021-02-22 14:45:41.924] $GNGGA,54541.5,3713.97148179,N,13701.48927475,E,4,10.0,1.2,92.682,M,36.771,M,1.5,0979*67,37.23285802983333,137.02482124583332,679619.8599000259,4122625.399550236
660,[2021-02-22 14:45:42.034] $GNGGA,54541.6,3713.97148333,N,13701.48927645,E,4,10.0,1.2,92.677,M,36.771,M,1.6,0979*60,37.232858055499996,137.02482127416664,679619.8623528087,4122625.4024518863
661,[2021-02-22 14:45:42.127] $GNGGA,54541.7,3713.97148309,N,13701.48927451,E,4,10.0,1.2,92.678,M,36.771,M,1.7,0979*61,37.23285805150001,137.02482124183337,679619.8594937287,4122625.4019466992
662,[2021-02-22 14:45:42.237] $GNGGA,54541.8,3713.97148308,N,13701.48927408,E,4,10.0,1.2,92.678,M,36.771,M,1.8,0979*6C,37.232858051333324,137.0248212346667,679619.8588583039,4122625.401914603
663,[2021-02-22 14:45:42.330] $GNGGA,54541.9,3713.97148216,N,13701.48927638,E,4,10.0,1.2,92.677,M,36.771,M,1.9,0979*6C,37.232858036,137.024821273,679619.8622955882,4122625.400286023
664,[2021-02-22 14:45:42.424] $GNGGA,54542.0,3713.97148101,N,13701.48927806,E,4,10.0,1.2,92.667,M,36.771,M,1.0,0979*68,37.23285801683334,137.024821301,679619.8648252145,4122625.398212502
665,[2021-02-22 14:45:42.518] $GNGGA,54542.1,3713.97148314,N,13701.4892808,E,4,10.0,1.2,92.664,M,36.771,M,1.1,0979*64,37.232858052333334,137.0248213466667,679619.8687924558,4122625.4022381185
666,[2021-02-22 14:45:42.627] $GNGGA,54542.2,3713.97148431,N,13701.48928254,E,4,10.0,1.2,92.663,M,36.771,M,1.2,0979*68,37.232858071833334,137.02482137566668,679619.8713190195,4122625.404456804
667,[2021-02-22 14:45:42.721] $GNGGA,54542.3,3713.97148068,N,13701.4892795,E,4,10.0,1.2,92.677,M,36.771,M,1.3,0979*65,37.232858011333335,137.024821325,679619.8669675228,4122625.397647789
668,[2021-02-22 14:45:42.830] $GNGGA,54542.4,3713.97148157,N,13701.4892837,E,4,10.0,1.2,92.67399999999999,M,36.771,M,1.4,0979*6C,37.23285802616666,137.02482139500003,679619.8731426473,4122625.3994264887
669,[2021-02-22 14:45:42.924] $GNGGA,54542.5,3713.97148251,N,13701.48928356,E,4,10.0,1.2,92.67399999999999,M,36.771,M,1.5,0979*6D,37.23285804183333,137.02482139266667,679619.872898449,4122625.401160377
670,[2021-02-22 14:45:43.034] $GNGGA,54542.6,3713.97148119,N,13701.48928301,E,4,10.0,1.2,92.67,M,36.771,M,1.6,0979*64,37.23285801983333,137.02482138349998,679619.8721374073,4122625.3987019397
671,[2021-02-22 14:45:43.127] $GNGGA,54542.7,3713.97148026,N,13701.48928132,E,4,10.0,1.2,92.682,M,36.771,M,1.7,0979*66,37.23285800433334,137.02482135533333,679619.8696752795,4122625.3969286615
672,[2021-02-22 14:45:43.237] $GNGGA,54542.8,3713.97148044,N,13701.4892851,E,4,10.0,1.2,92.67299999999999,M,36.771,M,1.8,0979*68,37.232858007333334,137.02482141833335,679619.8752574562,4122625.3973810957
673,[2021-02-22 14:45:43.330] $GNGGA,54542.9,3713.97148582,N,13701.489286,E,4,11.0,0.9,92.662,M,36.771,M,0.9,0979*6F,37.232858097000005,137.02482143333333,679619.8763754128,4122625.4073586487
674,[2021-02-22 14:45:43.440] $GNGGA,54543.0,3713.971486,N,13701.48928779,E,4,11.0,0.9,92.65299999999999,M,36.771,M,1.0,0979*6B,37.232858099999994,137.02482146316666,679619.8790150741,4122625.407748134
675,[2021-02-22 14:45:43.518] $GNGGA,54543.1,3713.97148709,N,13701.48928863,E,4,11.0,0.9,92.661,M,36.771,M,1.1,0979*66,37.23285811816667,137.02482147716668,679619.8802140242,4122625.409790411
676,[2021-02-22 14:45:43.627] $GNGGA,54543.2,3713.97148749,N,13701.48928882,E,4,11.0,0.9,92.661,M,36.771,M,1.2,0979*6D,37.232858124833335,137.02482148033332,679619.8804791415,4122625.4105361304
677,[2021-02-22 14:45:43.721] $GNGGA,54543.3,3713.97148588,N,13701.48928869,E,4,11.0,0.9,92.656,M,36.771,M,1.3,0979*63,37.232858097999994,137.02482147816664,679619.8803506063,4122625.407554689
678,[2021-02-22 14:45:43.830] $GNGGA,54543.4,3713.97148525,N,13701.48929188,E,4,11.0,0.9,92.661,M,36.771,M,1.4,0979*67,37.2328580875,137.02482153133334,679619.8850924224,4122625.40649055
679,[2021-02-22 14:45:43.924] $GNGGA,54543.5,3713.97148418,N,13701.48928917,E,4,11.0,0.9,92.667,M,36.771,M,1.5,0979*61,37.23285806966667,137.0248214861667,679619.8811276113,4122625.4044261095
680,[2021-02-22 14:45:44.033] $GNGGA,54543.6,3713.97148876,N,13701.48929346,E,4,11.0,0.9,92.654,M,36.771,M,1.6,0979*6A,37.232858146,137.02482155766666,679619.8872898356,4122625.4130314733
681,[2021-02-22 14:45:44.127] $GNGGA,54543.7,3713.97148611,N,13701.4892949,E,4,11.0,0.9,92.664,M,36.771,M,1.7,0979*6A,37.23285810183334,137.02482158166666,679619.8895239225,4122625.408176449
682,[2021-02-22 14:45:44.237] $GNGGA,54543.8,3713.97148796,N,13701.48929711,E,4,11.0,0.9,92.65899999999999,M,36.771,M,1.8,0979*60,37.232858132666664,137.02482161850003,679619.8927185574,4122625.4116675057
683,[2021-02-22 14:45:44.330] $GNGGA,54543.9,3713.97148833,N,13701.48929729,E,4,11.0,0.9,92.65799999999999,M,36.771,M,1.9,0979*6A,37.232858138833336,137.02482162149997,679619.8929700732,4122625.412357431
684,[2021-02-22 14:45:44.440] $GNGGA,54544.0,3713.97148524,N,13701.48929673,E,4,11.0,0.9,92.656,M,36.771,M,2.0,0979*65,37.23285808733334,137.02482161216668,679619.8922642691,4122625.4066254664
685,[2021-02-22 14:45:44.518] $GNGGA,54544.1,3713.97148401,N,13701.48929769,E,4,11.0,0.9,92.648,M,36.771,M,2.1,0979*66,37.23285806683333,137.02482162816668,679619.8937324296,4122625.404381226
686,[2021-02-22 14:45:44.627] $GNGGA,54544.2,3713.9714869,N,13701.4892984,E,4,11.0,0.9,92.64399999999999,M,36.771,M,2.2,0979*64,37.232858115000006,137.02482164,679619.8946679445,4122625.4097480816
687,[2021-02-22 14:45:44.721] $GNGGA,54544.3,3713.97148068,N,13701.48929918,E,4,10.0,1.2,92.66,M,36.771,M,1.3,0979*67,37.232858011333335,137.024821653,679619.8960673487,4122625.398270279
688,[2021-02-22 14:45:44.830] $GNGGA,54544.4,3713.97148341,N,13701.48929878,E,4,10.0,1.2,92.652,M,36.771,M,1.4,0979*69,37.23285805683333,137.0248216463333,679619.8953678884,4122625.4033061387
689,[2021-02-22 14:45:44.924] $GNGGA,54544.5,3713.97148102,N,13701.48929521,E,4,10.0,1.2,92.65299999999999,M,36.771,M,1.5,0979*6C,37.232858017,137.02482158683335,679619.8901836607,4122625.398773457
690,[2021-02-22 14:45:45.033] $GNGGA,54544.6,3713.97148011,N,13701.4892945,E,4,10.0,1.2,92.65899999999999,M,36.771,M,1.6,0979*62,37.23285800183333,137.02482157499998,679619.8891698126,4122625.3970681624
691,[2021-02-22 14:45:45.127] $GNGGA,54544.7,3713.97148228,N,13701.4892946,E,4,10.0,1.2,92.65,M,36.771,M,1.7,0979*60,37.232858038,137.02482157666668,679619.889231839,4122625.4010842466
692,[2021-02-22 14:45:45.236] $GNGGA,54544.8,3713.97148204,N,13701.48929393,E,4,10.0,1.2,92.655,M,36.771,M,1.8,0979*60,37.232858034,137.02482156550002,679619.8882506397,4122625.4006192284
693,[2021-02-22 14:45:45.330] $GNGGA,54544.9,3713.97148398,N,13701.4892959,E,4,10.0,1.2,92.652,M,36.771,M,1.9,0979*66,37.232858066333336,137.02482159833335,679619.8910868345,4122625.4042691286
694,[2021-02-22 14:45:45.440] $GNGGA,54545.0,3713.97148136,N,13701.48929494,E,4,10.0,1.2,92.65299999999999,M,36.771,M,2.0,0979*66,37.23285802266667,137.02482158233335,679619.8897709751,4122625.39939367
695,[2021-02-22 14:45:45.518] $GNGGA,54545.1,3713.97148094,N,13701.48929528,E,4,10.0,1.2,92.65899999999999,M,36.771,M,2.1,0979*63,37.23285801566667,137.024821588,679619.8902903296,4122625.398627731
696,[2021-02-22 14:45:45.627] $GNGGA,54545.2,3713.97148553,N,13701.48928706,E,4,10.0,1.2,92.67299999999999,M,36.771,M,1.2,0979*69,37.232858092166666,137.02482145099998,679619.8779542528,4122625.406855887
697,[2021-02-22 14:45:45.721] $GNGGA,54545.3,3713.97148253,N,13701.48928706,E,4,10.0,1.2,92.67,M,36.771,M,1.3,0979*6D,37.23285804216666,137.02482145099998,679619.8780729291,4122625.401308069
698,[2021-02-22 14:45:45.830] $GNGGA,54545.4,3713.97148277,N,13701.4892842,E,4,10.0,1.2,92.675,M,36.771,M,1.4,0979*69,37.23285804616666,137.02482140333333,679619.8738344992,4122625.4016614314
699,[2021-02-22 14:45:45.924] $GNGGA,54545.5,3713.97148133,N,13701.48928415,E,4,10.0,1.2,92.676,M,36.771,M,1.5,0979*6F,37.232858022166674,137.0248214025,679619.8738175316,4122625.3989968984
700,[2021-02-22 14:45:46.033] $GNGGA,54545.6,3713.97148318,N,13701.48928263,E,4,10.0,1.2,92.67,M,36.771,M,1.6,0979*65,37.232858053,137.0248213771667,679619.8714968015,4122625.4023699732
701,[2021-02-22 14:45:46.127] $GNGGA,54545.7,3713.9714812,N,13701.48928049,E,4,10.0,1.2,92.679,M,36.771,M,1.7,0979*6F,37.23285802,137.0248213415,679619.8684108157,4122625.3986407253
702,[2021-02-22 14:45:46.236] $GNGGA,54545.8,3713.97148225,N,13701.48928162,E,4,10.0,1.2,92.675,M,36.771,M,1.8,0979*6D,37.232858037499994,137.02482136033336,679619.8700401556,4122625.4006182025
703,[2021-02-22 14:45:46.330] $GNGGA,54545.9,3713.97148268,N,13701.48928251,E,4,10.0,1.2,92.67,M,36.771,M,1.9,0979*62,37.23285804466667,137.02482137516665,679619.87133914,4122625.4014415424
