,Format,Time,Latitude,LatType,Longitude,LonType,Status,Satellite,LevelAccuracy,Altitude(sea),M(sea),Altitude(geoid),M(geoid),DGPS use,checksum,Lat,Lon,UTM_X,UTM_Y
807,[2021-02-22 14:27:14.016] $GPGGA,52714.3,3713.9716759999997,N,13701.489,E,4,6.0,1.6,92.594,M,36.771,M,2.3,0000*7C,37.23286126666667,137.02481666666668,679619.4459583601,4122625.7500069393
808,[2021-02-22 14:27:14.125] $GPGGA,52714.4,3713.9716740000003,N,13701.489,E,4,6.0,1.6,92.585,M,36.771,M,2.4,0000*7D,37.23286123333334,137.02481666666668,679619.4460374775,4122625.746308395
809,[2021-02-22 14:27:14.219] $GPGGA,52714.5,3713.9716759999997,N,13701.489,E,4,6.0,1.6,92.59700000000001,M,36.771,M,2.5,0000*71,37.23286126666667,137.02481666666668,679619.4459583601,4122625.7500069393
810,[2021-02-22 14:27:14.328] $GPGGA,52714.6,3713.9716780000003,N,13701.489,E,4,6.0,1.6,92.598,M,36.771,M,2.6,0000*70,37.2328613,137.02481666666668,679619.4458792427,4122625.753705484
811,[2021-02-22 14:27:14.422] $GPGGA,52714.7,3713.9716780000003,N,13701.489,E,4,6.0,1.6,92.59100000000001,M,36.771,M,2.7,0000*7D,37.2328613,137.02481666666668,679619.4458792427,4122625.753705484
812,[2021-02-22 14:27:14.531] $GPGGA,52714.8,3713.971675,N,13701.489,E,4,6.0,1.6,92.59299999999999,M,36.771,M,2.8,0000*73,37.23286125,137.02481666666668,679619.4459979187,4122625.748157666
813,[2021-02-22 14:27:14.625] $GPGGA,52714.9,3713.9716780000003,N,13701.489,E,4,6.0,1.6,92.59700000000001,M,36.771,M,2.9,0000*7B,37.2328613,137.02481666666668,679619.4458792427,4122625.753705484
814,[2021-02-22 14:27:14.735] $GPGGA,52715.0,3713.9716759999997,N,13701.489,E,4,6.0,1.6,92.596,M,36.771,M,3.0,0000*7F,37.23286126666667,137.02481666666668,679619.4459583601,4122625.7500069393
815,[2021-02-22 14:27:14.828] $GPGGA,52715.1,3713.9716770000005,N,13701.489,E,4,6.0,1.6,92.59299999999999,M,36.771,M,3.1,0000*70,37.23286128333334,137.02481666666668,679619.4459188014,4122625.751856212
816,[2021-02-22 14:27:14.938] $GPGGA,52715.2,3713.9716759999997,N,13701.489,E,4,6.0,1.6,92.59899999999999,M,36.771,M,3.2,0000*79,37.23286126666667,137.02481666666668,679619.4459583601,4122625.7500069393
817,[2021-02-22 14:27:15.016] $GPGGA,52715.3,3713.9716780000003,N,13701.489,E,4,6.0,1.6,92.59200000000001,M,36.771,M,2.3,0000*70,37.2328613,137.02481666666668,679619.4458792427,4122625.753705484
818,[2021-02-22 14:27:15.125] $GPGGA,52715.4,3713.9716780000003,N,13701.489,E,4,6.0,1.6,92.595,M,36.771,M,2.4,0000*78,37.2328613,137.02481666666668,679619.4458792427,4122625.753705484
819,[2021-02-22 14:27:15.219] $GPGGA,52715.5,3713.9716780000003,N,13701.489,E,4,6.0,1.6,92.59,M,36.771,M,2.5,0000*70,37.2328613,137.02481666666668,679619.4458792427,4122625.753705484
820,[2021-02-22 14:27:15.328] $GPGGA,52715.6,3713.9716780000003,N,13701.489,E,4,6.0,1.6,92.587,M,36.771,M,2.6,0000*7C,37.2328613,137.02481666666668,679619.4458792427,4122625.753705484
821,[2021-02-22 14:27:15.422] $GPGGA,52715.7,3713.9716789999998,N,13701.489,E,4,6.0,1.6,92.59200000000001,M,36.771,M,2.7,0000*73,37.23286131666666,137.02481666666668,679619.445839684,4122625.7555547543
822,[2021-02-22 14:27:15.531] $GPGGA,52715.8,3713.9716780000003,N,13701.489,E,4,6.0,1.6,92.595,M,36.771,M,2.8,0000*7E,37.2328613,137.02481666666668,679619.4458792427,4122625.753705484
823,[2021-02-22 14:27:15.625] $GPGGA,52715.9,3713.9716780000003,N,13701.489,E,4,6.0,1.6,92.589,M,36.771,M,2.9,0000*72,37.2328613,137.02481666666668,679619.4458792427,4122625.753705484
824,[2021-02-22 14:27:15.735] $GPGGA,52716.0,3713.9716770000005,N,13701.489,E,4,6.0,1.6,92.59299999999999,M,36.771,M,3.0,0000*75,37.23286128333334,137.02481666666668,679619.4459188014,4122625.751856212
825,[2021-02-22 14:27:15.828] $GPGGA,52716.1,3713.9716770000005,N,13701.489,E,4,6.0,1.6,92.59100000000001,M,36.771,M,3.1,0000*71,37.23286128333334,137.02481666666668,679619.4459188014,4122625.751856212
826,[2021-02-22 14:27:15.938] $GPGGA,52716.2,3713.9716740000003,N,13701.489,E,4,6.0,1.6,92.59299999999999,M,36.771,M,3.2,0000*76,37.23286123333334,137.02481666666668,679619.4460374775,4122625.746308395
827,[2021-02-22 14:27:16.016] $GPGGA,52716.3,3713.971675,N,13701.489,E,4,6.0,1.6,92.595,M,36.771,M,2.3,0000*74,37.23286125,137.02481666666668,679619.4459979187,4122625.748157666
828,[2021-02-22 14:27:16.125] $GPGGA,52716.4,3713.9716729999996,N,13701.489,E,4,6.0,1.6,92.586,M,36.771,M,2.4,0000*73,37.23286121666666,137.02481666666668,679619.4460770361,4122625.744459121
829,[2021-02-22 14:27:16.219] $GPGGA,52716.5,3713.9716719999997,N,13701.489,E,4,6.0,1.6,92.59299999999999,M,36.771,M,2.5,0000*76,37.232861199999995,137.02481666666668,679619.4461165948,4122625.7426098487
830,[2021-02-22 14:27:16.328] $GPGGA,52716.6,3713.9716710000002,N,13701.489,E,4,6.0,1.6,92.59,M,36.771,M,2.6,0000*7F,37.232861183333334,137.02481666666668,679619.4461561535,4122625.7407605774
831,[2021-02-22 14:27:16.422] $GPGGA,52716.7,3713.9716700000004,N,13701.489,E,4,6.0,1.6,92.59100000000001,M,36.771,M,2.7,0000*76,37.232861166666666,137.02481666666668,679619.4461957121,4122625.738911304
832,[2021-02-22 14:27:16.531] $GPGGA,52716.8,3713.9716689999996,N,13701.489,E,4,6.0,1.6,92.595,M,36.771,M,2.8,0000*7C,37.23286114999999,137.02481666666668,679619.4462352708,4122625.737062031
833,[2021-02-22 14:27:16.625] $GPGGA,52716.9,3713.9716700000004,N,13701.489,E,4,6.0,1.6,92.59100000000001,M,36.771,M,2.9,0000*79,37.232861166666666,137.02481666666668,679619.4461957121,4122625.738911304
834,[2021-02-22 14:27:16.734] $GPGGA,52717.0,3713.9716689999996,N,13701.489,E,4,6.0,1.6,92.595,M,36.771,M,3.0,0000*77,37.23286114999999,137.02481666666668,679619.4462352708,4122625.737062031
835,[2021-02-22 14:27:16.828] $GPGGA,52717.1,3713.9716710000002,N,13701.489,E,4,6.0,1.6,92.598,M,36.771,M,3.1,0000*7F,37.232861183333334,137.02481666666668,679619.4461561535,4122625.7407605774
836,[2021-02-22 14:27:16.938] $GPGGA,52717.2,3713.9716710000002,N,13701.489,E,4,6.0,1.6,92.59200000000001,M,36.771,M,3.2,0000*73,37.232861183333334,137.02481666666668,679619.4461561535,4122625.7407605774
837,[2021-02-22 14:27:17.016] $GPGGA,52717.3,3713.971675,N,13701.489,E,4,8.0,1.2,92.604,M,36.771,M,2.3,0000*78,37.23286125,137.02481666666668,679619.4459979187,4122625.748157666
838,[2021-02-22 14:27:17.125] $GPGGA,52717.4,3713.9716729999996,N,13701.489,E,4,8.0,1.2,92.601,M,36.771,M,2.4,0000*7E,37.23286121666666,137.02481666666668,679619.4460770361,4122625.744459121
839,[2021-02-22 14:27:17.219] $GPGGA,52717.5,3713.9716740000003,N,13701.48901,E,4,8.0,1.2,92.6,M,36.771,M,2.5,0000*70,37.23286123333334,137.02481683333335,679619.4608239726,4122625.7466247
840,[2021-02-22 14:27:17.328] $GPGGA,52717.6,3713.9716740000003,N,13701.489,E,4,8.0,1.2,92.602,M,36.771,M,2.6,0000*78,37.23286123333334,137.02481666666668,679619.4460374775,4122625.746308395
841,[2021-02-22 14:27:17.422] $GPGGA,52717.7,3713.9716729999996,N,13701.489,E,4,8.0,1.2,92.602,M,36.771,M,2.7,0000*7E,37.23286121666666,137.02481666666668,679619.4460770361,4122625.744459121
842,[2021-02-22 14:27:17.531] $GPGGA,52717.8,3713.9716710000002,N,13701.48901,E,4,8.0,1.2,92.602,M,36.771,M,2.8,0000*7E,37.232861183333334,137.02481683333335,679619.4609426486,4122625.741076883
843,[2021-02-22 14:27:17.625] $GPGGA,52717.9,3713.9716719999997,N,13701.48901,E,4,8.0,1.2,92.60600000000001,M,36.771,M,2.9,0000*7F,37.232861199999995,137.02481683333335,679619.46090309,4122625.742926154
844,[2021-02-22 14:27:17.734] $GPGGA,52718.0,3713.9716719999997,N,13701.489,E,4,8.0,1.2,92.604,M,36.771,M,3.0,0000*7D,37.232861199999995,137.02481666666668,679619.4461165948,4122625.7426098487
845,[2021-02-22 14:27:17.828] $GPGGA,52718.1,3713.9716710000002,N,13701.489,E,4,8.0,1.2,92.59899999999999,M,36.771,M,3.1,0000*73,37.232861183333334,137.02481666666668,679619.4461561535,4122625.7407605774
846,[2021-02-22 14:27:17.937] $GPGGA,52718.2,3713.9716719999997,N,13701.48901,E,4,8.0,1.2,92.603,M,36.771,M,3.2,0000*76,37.232861199999995,137.02481683333335,679619.46090309,4122625.742926154
847,[2021-02-22 14:27:18.016] $GPGGA,52718.3,3713.9716740000003,N,13701.489,E,4,8.0,1.2,92.6,M,36.771,M,2.3,0000*74,37.23286123333334,137.02481666666668,679619.4460374775,4122625.746308395
848,[2021-02-22 14:27:18.125] $GPGGA,52718.4,3713.9716719999997,N,13701.489,E,4,8.0,1.2,92.59700000000001,M,36.771,M,2.4,0000*75,37.232861199999995,137.02481666666668,679619.4461165948,4122625.7426098487
849,[2021-02-22 14:27:18.219] $GPGGA,52718.5,3713.9716719999997,N,13701.489,E,4,8.0,1.2,92.6,M,36.771,M,2.5,0000*71,37.232861199999995,137.02481666666668,679619.4461165948,4122625.7426098487
850,[2021-02-22 14:27:18.328] $GPGGA,52718.6,3713.9716719999997,N,13701.489,E,4,8.0,1.2,92.59700000000001,M,36.771,M,2.6,0000*75,37.232861199999995,137.02481666666668,679619.4461165948,4122625.7426098487
851,[2021-02-22 14:27:18.422] $GPGGA,52718.7,3713.9716700000004,N,13701.48901,E,4,8.0,1.2,92.604,M,36.771,M,2.7,0000*77,37.232861166666666,137.02481683333335,679619.4609822072,4122625.7392276097
852,[2021-02-22 14:27:18.531] $GPGGA,52718.8,3713.9716710000002,N,13701.48901,E,4,8.0,1.2,92.598,M,36.771,M,2.8,0000*79,37.232861183333334,137.02481683333335,679619.4609426486,4122625.741076883
853,[2021-02-22 14:27:18.625] $GPGGA,52718.9,3713.9716710000002,N,13701.48901,E,4,8.0,1.2,92.598,M,36.771,M,2.9,0000*7E,37.232861183333334,137.02481683333335,679619.4609426486,4122625.741076883
854,[2021-02-22 14:27:18.734] $GPGGA,52719.0,3713.9716700000004,N,13701.48901,E,4,8.0,1.2,92.603,M,36.771,M,3.0,0000*72,37.232861166666666,137.02481683333335,679619.4609822072,4122625.7392276097
855,[2021-02-22 14:27:18.828] $GPGGA,52719.1,3713.9716719999997,N,13701.48901,E,4,8.0,1.2,92.59700000000001,M,36.771,M,3.1,0000*7B,37.232861199999995,137.02481683333335,679619.46090309,4122625.742926154
856,[2021-02-22 14:27:18.937] $GPGGA,52719.2,3713.9716719999997,N,13701.48901,E,4,8.0,1.2,92.603,M,36.771,M,3.2,0000*79,37.232861199999995,137.02481683333335,679619.46090309,4122625.742926154
857,[2021-02-22 14:27:19.031] $GPGGA,52719.3,3713.9716689999996,N,13701.48901,E,4,8.0,1.2,92.585,M,36.771,M,2.3,0000*7C,37.23286114999999,137.02481683333335,679619.461021766,4122625.737378336
858,[2021-02-22 14:27:19.125] $GPGGA,52719.4,3713.9716700000004,N,13701.48901,E,4,8.0,1.2,92.584,M,36.771,M,2.4,0000*7A,37.232861166666666,137.02481683333335,679619.4609822072,4122625.7392276097
859,[2021-02-22 14:27:19.219] $GPGGA,52719.5,3713.9716670000003,N,13701.48901,E,4,8.0,1.2,92.585,M,36.771,M,2.5,0000*72,37.232861116666676,137.02481683333335,679619.4611008833,4122625.7336797933
860,[2021-02-22 14:27:19.328] $GPGGA,52719.6,3713.9716689999996,N,13701.48901,E,4,8.0,1.2,92.583,M,36.771,M,2.6,0000*78,37.23286114999999,137.02481683333335,679619.461021766,4122625.737378336
861,[2021-02-22 14:27:19.422] $GPGGA,52719.7,3713.9716689999996,N,13701.48901,E,4,8.0,1.2,92.59100000000001,M,36.771,M,2.7,0000*7A,37.23286114999999,137.02481683333335,679619.461021766,4122625.737378336
862,[2021-02-22 14:27:19.531] $GPGGA,52719.8,3713.9716689999996,N,13701.48901,E,4,8.0,1.2,92.584,M,36.771,M,2.8,0000*73,37.23286114999999,137.02481683333335,679619.461021766,4122625.737378336
863,[2021-02-22 14:27:19.625] $GPGGA,52719.9,3713.9716689999996,N,13701.48901,E,4,8.0,1.2,92.583,M,36.771,M,2.9,0000*73,37.23286114999999,137.02481683333335,679619.461021766,4122625.737378336
864,[2021-02-22 14:27:19.734] $GPGGA,52720.0,3713.9716689999996,N,13701.489,E,4,8.0,1.2,92.58,M,36.771,M,3.0,0000*79,37.23286114999999,137.02481666666668,679619.4462352708,4122625.737062031
865,[2021-02-22 14:27:19.828] $GPGGA,52720.1,3713.9716710000002,N,13701.489,E,4,8.0,1.2,92.585,M,36.771,M,3.1,0000*77,37.232861183333334,137.02481666666668,679619.4461561535,4122625.7407605774
866,[2021-02-22 14:27:19.937] $GPGGA,52720.2,3713.9716689999996,N,13701.489,E,4,8.0,1.2,92.585,M,36.771,M,3.2,0000*7F,37.23286114999999,137.02481666666668,679619.4462352708,4122625.737062031
867,[2021-02-22 14:27:20.015] $GPGGA,52720.3,3713.9716710000002,N,13701.48901,E,4,12.0,1.0,92.594,M,36.771,M,2.3,0000*71,37.232861183333334,137.02481683333335,679619.4609426486,4122625.741076883
868,[2021-02-22 14:27:20.125] $GPGGA,52720.4,3713.9716700000004,N,13701.48901,E,4,12.0,1.0,92.595,M,36.771,M,2.4,0000*7B,37.232861166666666,137.02481683333335,679619.4609822072,4122625.7392276097
869,[2021-02-22 14:27:20.219] $GPGGA,52720.5,3713.9716689999996,N,13701.48901,E,4,12.0,1.0,92.596,M,36.771,M,2.5,0000*7D,37.23286114999999,137.02481683333335,679619.461021766,4122625.737378336
870,[2021-02-22 14:27:20.328] $GPGGA,52720.6,3713.9716689999996,N,13701.48901,E,4,12.0,1.0,92.596,M,36.771,M,2.6,0000*76,37.23286114999999,137.02481683333335,679619.461021766,4122625.737378336
871,[2021-02-22 14:27:20.422] $GPGGA,52720.7,3713.9716689999996,N,13701.48901,E,4,12.0,1.0,92.595,M,36.771,M,2.7,0000*7A,37.23286114999999,137.02481683333335,679619.461021766,4122625.737378336
872,[2021-02-22 14:27:20.531] $GPGGA,52720.8,3713.971668,N,13701.489,E,4,12.0,1.0,92.595,M,36.771,M,2.8,0000*76,37.23286113333333,137.02481666666668,679619.4462748294,4122625.7352127605
873,[2021-02-22 14:27:20.625] $GPGGA,52720.9,3713.9716700000004,N,13701.489,E,4,12.0,1.0,92.595,M,36.771,M,2.9,0000*71,37.232861166666666,137.02481666666668,679619.4461957121,4122625.738911304
874,[2021-02-22 14:27:20.734] $GPGGA,52721.0,3713.9716689999996,N,13701.48901,E,4,12.0,1.0,92.589,M,36.771,M,3.0,0000*7F,37.23286114999999,137.02481683333335,679619.461021766,4122625.737378336
875,[2021-02-22 14:27:20.828] $GPGGA,52721.1,3713.971668,N,13701.48901,E,4,12.0,1.0,92.59100000000001,M,36.771,M,3.1,0000*7C,37.23286113333333,137.02481683333335,679619.4610613247,4122625.735529066
876,[2021-02-22 14:27:20.937] $GPGGA,52721.2,3713.9716689999996,N,13701.48901,E,4,12.0,1.0,92.6,M,36.771,M,3.2,0000*74,37.23286114999999,137.02481683333335,679619.461021766,4122625.737378336
877,[2021-02-22 14:27:21.015] $GPGGA,52721.3,3713.971668,N,13701.48901,E,4,12.0,1.0,92.594,M,36.771,M,3.3,0000*7C,37.23286113333333,137.02481683333335,679619.4610613247,4122625.735529066
878,[2021-02-22 14:27:21.125] $GPGGA,52721.4,3713.9716670000003,N,13701.48901,E,4,12.0,1.0,92.59,M,36.771,M,3.4,0000*78,37.232861116666676,137.02481683333335,679619.4611008833,4122625.7336797933
879,[2021-02-22 14:27:21.219] $GPGGA,52721.5,3713.9716659999995,N,13701.48901,E,4,12.0,1.0,92.598,M,36.771,M,3.5,0000*74,37.232861099999994,137.02481683333335,679619.4611404419,4122625.731830519
880,[2021-02-22 14:27:21.328] $GPGGA,52721.6,3713.971665,N,13701.48901,E,4,12.0,1.0,92.595,M,36.771,M,3.6,0000*72,37.232861083333326,137.02481683333335,679619.4611800006,4122625.729981247
881,[2021-02-22 14:27:21.422] $GPGGA,52721.7,3713.9716630000003,N,13701.48901,E,4,12.0,1.0,92.596,M,36.771,M,3.7,0000*7C,37.232861050000004,137.02481683333335,679619.461259118,4122625.726282703
882,[2021-02-22 14:27:21.531] $GPGGA,52721.8,3713.9716630000003,N,13701.48901,E,4,12.0,1.0,92.598,M,36.771,M,3.8,0000*72,37.232861050000004,137.02481683333335,679619.461259118,4122625.726282703
883,[2021-02-22 14:27:21.625] $GPGGA,52721.9,3713.9716659999995,N,13701.48901,E,4,12.0,1.0,92.59100000000001,M,36.771,M,3.9,0000*73,37.232861099999994,137.02481683333335,679619.4611404419,4122625.731830519
884,[2021-02-22 14:27:21.734] $GPGGA,52722.0,3713.971665,N,13701.48901,E,4,12.0,1.0,92.601,M,36.771,M,4.0,0000*7C,37.232861083333326,137.02481683333335,679619.4611800006,4122625.729981247
885,[2021-02-22 14:27:21.828] $GPGGA,52722.1,3713.9716670000003,N,13701.48901,E,4,12.0,1.0,92.598,M,36.771,M,4.1,0000*79,37.232861116666676,137.02481683333335,679619.4611008833,4122625.7336797933
886,[2021-02-22 14:27:21.937] $GPGGA,52722.2,3713.9716659999995,N,13701.48901,E,4,12.0,1.0,92.59200000000001,M,36.771,M,4.2,0000*7B,37.232861099999994,137.02481683333335,679619.4611404419,4122625.731830519
887,[2021-02-22 14:27:22.015] $GPGGA,52722.3,3713.971665,N,13701.48901,E,4,12.0,1.0,92.595,M,36.771,M,4.3,0000*7C,37.232861083333326,137.02481683333335,679619.4611800006,4122625.729981247
888,[2021-02-22 14:27:22.125] $GPGGA,52722.4,3713.9716659999995,N,13701.48901,E,4,12.0,1.0,92.59700000000001,M,36.771,M,4.4,0000*78,37.232861099999994,137.02481683333335,679619.4611404419,4122625.731830519
889,[2021-02-22 14:27:22.218] $GPGGA,52722.5,3713.9716659999995,N,13701.48901,E,4,12.0,1.0,92.605,M,36.771,M,4.5,0000*7C,37.232861099999994,137.02481683333335,679619.4611404419,4122625.731830519
890,[2021-02-22 14:27:22.328] $GPGGA,52722.6,3713.971664,N,13701.48901,E,4,12.0,1.0,92.598,M,36.771,M,4.6,0000*7C,37.23286106666667,137.02481683333335,679619.4612195594,4122625.7281319764
891,[2021-02-22 14:27:22.422] $GPGGA,52722.7,3713.971664,N,13701.48901,E,4,12.0,1.0,92.598,M,36.771,M,4.7,0000*72,37.23286106666667,137.02481683333335,679619.4612195594,4122625.7281319764
892,[2021-02-22 14:27:22.531] $GPGGA,52722.8,3713.971665,N,13701.48901,E,4,12.0,1.0,92.59700000000001,M,36.771,M,4.8,0000*71,37.232861083333326,137.02481683333335,679619.4611800006,4122625.729981247
893,[2021-02-22 14:27:22.625] $GPGGA,52722.9,3713.971665,N,13701.48901,E,4,12.0,1.0,92.598,M,36.771,M,4.9,0000*7D,37.232861083333326,137.02481683333335,679619.4611800006,4122625.729981247
894,[2021-02-22 14:27:22.734] $GPGGA,52723.0,3713.971664,N,13701.48901,E,4,12.0,1.0,92.594,M,36.771,M,5.0,0000*72,37.23286106666667,137.02481683333335,679619.4612195594,4122625.7281319764
895,[2021-02-22 14:27:22.828] $GPGGA,52723.1,3713.971665,N,13701.48901,E,4,12.0,1.0,92.6,M,36.771,M,5.1,0000*7B,37.232861083333326,137.02481683333335,679619.4611800006,4122625.729981247
896,[2021-02-22 14:27:22.937] $GPGGA,52723.2,3713.9716630000003,N,13701.48901,E,4,12.0,1.0,92.595,M,36.771,M,5.2,0000*74,37.232861050000004,137.02481683333335,679619.461259118,4122625.726282703
897,[2021-02-22 14:27:23.031] $GPGGA,52723.3,3713.971665,N,13701.48901,E,4,12.0,1.0,92.59899999999999,M,36.771,M,5.3,0000*79,37.232861083333326,137.02481683333335,679619.4611800006,4122625.729981247
898,[2021-02-22 14:27:23.125] $GPGGA,52723.4,3713.9716630000003,N,13701.48901,E,4,12.0,1.0,92.596,M,36.771,M,5.4,0000*71,37.232861050000004,137.02481683333335,679619.461259118,4122625.726282703
899,[2021-02-22 14:27:23.218] $GPGGA,52723.5,3713.971664,N,13701.48901,E,4,12.0,1.0,92.595,M,36.771,M,5.5,0000*76,37.23286106666667,137.02481683333335,679619.4612195594,4122625.7281319764
900,[2021-02-22 14:27:23.328] $GPGGA,52723.6,3713.971662,N,13701.48901,E,4,12.0,1.0,92.6,M,36.771,M,5.6,0000*7A,37.232861033333336,137.02481683333335,679619.4612986767,4122625.72443343
901,[2021-02-22 14:27:23.421] $GPGGA,52723.7,3713.971661,N,13701.48901,E,4,12.0,1.0,92.598,M,36.771,M,5.7,0000*74,37.23286101666667,137.02481683333335,679619.4613382354,4122625.722584158
902,[2021-02-22 14:27:23.531] $GPGGA,52723.8,3713.97166,N,13701.48901,E,4,12.0,1.0,92.6,M,36.771,M,5.8,0000*7D,37.232861,137.02481683333335,679619.4613777942,4122625.7207348854
903,[2021-02-22 14:27:23.625] $GPGGA,52723.9,3713.9716590000003,N,13701.48901,E,4,12.0,1.0,92.59200000000001,M,36.771,M,5.9,0000*7A,37.232860983333346,137.02481683333335,679619.4614173528,4122625.7188856145
904,[2021-02-22 14:27:23.734] $GPGGA,52724.0,3713.971658,N,13701.48901,E,4,12.0,1.0,92.601,M,36.771,M,6.0,0000*7D,37.232860966666664,137.02481683333335,679619.4614569114,4122625.7170363404
905,[2021-02-22 14:27:23.828] $GPGGA,52724.1,3713.971658,N,13701.48901,E,4,12.0,1.0,92.595,M,36.771,M,6.1,0000*78,37.232860966666664,137.02481683333335,679619.4614569114,4122625.7170363404
906,[2021-02-22 14:27:23.937] $GPGGA,52724.2,3713.971657,N,13701.48901,E,4,12.0,1.0,92.601,M,36.771,M,6.2,0000*74,37.232860949999996,137.02481683333335,679619.46149647,4122625.7151870676
907,[2021-02-22 14:27:24.031] $GPGGA,52724.3,3713.971658,N,13701.48901,E,4,12.0,1.0,92.596,M,36.771,M,2.3,0000*76,37.232860966666664,137.02481683333335,679619.4614569114,4122625.7170363404
908,[2021-02-22 14:27:24.125] $GPGGA,52724.4,3713.971656,N,13701.48901,E,4,12.0,1.0,92.601,M,36.771,M,2.4,0000*7B,37.23286093333334,137.02481683333335,679619.4615360287,4122625.7133377967
909,[2021-02-22 14:27:24.218] $GPGGA,52724.5,3713.971658,N,13701.48901,E,4,12.0,1.0,92.595,M,36.771,M,2.5,0000*72,37.232860966666664,137.02481683333335,679619.4614569114,4122625.7170363404
910,[2021-02-22 14:27:24.328] $GPGGA,52724.6,3713.971657,N,13701.48901,E,4,12.0,1.0,92.59899999999999,M,36.771,M,2.6,0000*72,37.232860949999996,137.02481683333335,679619.46149647,4122625.7151870676
911,[2021-02-22 14:27:24.421] $GPGGA,52724.7,3713.971657,N,13701.48901,E,4,12.0,1.0,92.598,M,36.771,M,2.7,0000*76,37.232860949999996,137.02481683333335,679619.46149647,4122625.7151870676
912,[2021-02-22 14:27:24.531] $GPGGA,52724.8,3713.971656,N,13701.48901,E,4,12.0,1.0,92.598,M,36.771,M,2.8,0000*77,37.23286093333334,137.02481683333335,679619.4615360287,4122625.7133377967
913,[2021-02-22 14:27:24.625] $GPGGA,52724.9,3713.971657,N,13701.48901,E,4,12.0,1.0,92.595,M,36.771,M,2.9,0000*76,37.232860949999996,137.02481683333335,679619.46149647,4122625.7151870676
914,[2021-02-22 14:27:24.734] $GPGGA,52725.0,3713.971656,N,13701.48901,E,4,12.0,1.0,92.59700000000001,M,36.771,M,3.0,0000*7D,37.23286093333334,137.02481683333335,679619.4615360287,4122625.7133377967
915,[2021-02-22 14:27:24.828] $GPGGA,52725.1,3713.971655,N,13701.489,E,4,12.0,1.0,92.601,M,36.771,M,3.1,0000*71,37.23286091666666,137.02481666666668,679619.4467890924,4122625.7111722175
916,[2021-02-22 14:27:24.937] $GPGGA,52725.2,3713.971657,N,13701.489,E,4,12.0,1.0,92.6,M,36.771,M,3.2,0000*73,37.232860949999996,137.02481666666668,679619.4467099749,4122625.7148707635
917,[2021-02-22 14:27:25.031] $GPGGA,52725.3,3713.971655,N,13701.48901,E,4,12.0,1.0,92.59700000000001,M,36.771,M,2.3,0000*78,37.23286091666666,137.02481683333335,679619.4615755875,4122625.711488522
918,[2021-02-22 14:27:25.124] $GPGGA,52725.4,3713.971657,N,13701.48901,E,4,12.0,1.0,92.596,M,36.771,M,2.4,0000*7E,37.232860949999996,137.02481683333335,679619.46149647,4122625.7151870676
919,[2021-02-22 14:27:25.640] $GPGGA,52725.5,3713.971656,N,13701.48901,E,4,12.0,1.0,92.59299999999999,M,36.771,M,2.5,0000*7B,37.23286093333334,137.02481683333335,679619.4615360287,4122625.7133377967
920,[2021-02-22 14:27:25.640] $GPGGA,52725.6,3713.971657,N,13701.48901,E,4,12.0,1.0,92.595,M,36.771,M,2.6,0000*79,37.232860949999996,137.02481683333335,679619.46149647,4122625.7151870676
921,[2021-02-22 14:27:25.640] $GPGGA,52725.7,3713.971656,N,13701.48901,E,4,12.0,1.0,92.596,M,36.771,M,2.7,0000*74,37.23286093333334,137.02481683333335,679619.4615360287,4122625.7133377967
922,[2021-02-22 14:27:25.640] $GPGGA,52725.8,3713.971656,N,13701.48901,E,4,12.0,1.0,92.59299999999999,M,36.771,M,2.8,0000*77,37.23286093333334,137.02481683333335,679619.4615360287,4122625.7133377967
923,[2021-02-22 14:27:25.640] $GPGGA,52725.9,3713.971656,N,13701.48901,E,4,12.0,1.0,92.589,M,36.771,M,2.9,0000*76,37.23286093333334,137.02481683333335,679619.4615360287,4122625.7133377967
924,[2021-02-22 14:27:25.734] $GPGGA,52726.0,3713.971656,N,13701.48901,E,4,12.0,1.0,92.59299999999999,M,36.771,M,3.0,0000*7A,37.23286093333334,137.02481683333335,679619.4615360287,4122625.7133377967
925,[2021-02-22 14:27:25.828] $GPGGA,52726.1,3713.971655,N,13701.48901,E,4,12.0,1.0,92.594,M,36.771,M,3.1,0000*7F,37.23286091666666,137.02481683333335,679619.4615755875,4122625.711488522
926,[2021-02-22 14:27:25.937] $GPGGA,52726.2,3713.971656,N,13701.48901,E,4,12.0,1.0,92.59700000000001,M,36.771,M,3.2,0000*7D,37.23286093333334,137.02481683333335,679619.4615360287,4122625.7133377967
927,[2021-02-22 14:27:26.031] $GPGGA,52726.3,3713.971655,N,13701.48901,E,4,12.0,1.0,92.596,M,36.771,M,3.3,0000*7D,37.23286091666666,137.02481683333335,679619.4615755875,4122625.711488522
928,[2021-02-22 14:27:26.124] $GPGGA,52726.4,3713.971653,N,13701.48901,E,4,12.0,1.0,92.596,M,36.771,M,3.4,0000*7E,37.23286088333334,137.02481683333335,679619.4616547048,4122625.7077899785
929,[2021-02-22 14:27:26.218] $GPGGA,52726.5,3713.971654,N,13701.48901,E,4,12.0,1.0,92.596,M,36.771,M,3.5,0000*72,37.232860900000006,137.02481683333335,679619.4616151461,4122625.7096392508
930,[2021-02-22 14:27:26.328] $GPGGA,52726.6,3713.971653,N,13701.48901,E,4,12.0,1.0,92.598,M,36.771,M,3.6,0000*7F,37.23286088333334,137.02481683333335,679619.4616547048,4122625.7077899785
931,[2021-02-22 14:27:26.421] $GPGGA,52726.7,3713.971652,N,13701.48901,E,4,12.0,1.0,92.59100000000001,M,36.771,M,3.7,0000*79,37.23286086666667,137.02481683333335,679619.4616942635,4122625.705940707
932,[2021-02-22 14:27:26.531] $GPGGA,52726.8,3713.971655,N,13701.489,E,4,12.0,1.0,92.595,M,36.771,M,3.8,0000*7B,37.23286091666666,137.02481666666668,679619.4467890924,4122625.7111722175
933,[2021-02-22 14:27:26.624] $GPGGA,52726.9,3713.971656,N,13701.489,E,4,12.0,1.0,92.595,M,36.771,M,3.9,0000*7C,37.23286093333334,137.02481666666668,679619.4467495336,4122625.713021492
934,[2021-02-22 14:27:26.734] $GPGGA,52727.0,3713.971656,N,13701.489,E,4,12.0,1.0,92.594,M,36.771,M,4.0,0000*7D,37.23286093333334,137.02481666666668,679619.4467495336,4122625.713021492
935,[2021-02-22 14:27:26.827] $GPGGA,52727.1,3713.971656,N,13701.489,E,4,12.0,1.0,92.596,M,36.771,M,4.1,0000*7E,37.23286093333334,137.02481666666668,679619.4467495336,4122625.713021492
936,[2021-02-22 14:27:26.937] $GPGGA,52727.2,3713.971655,N,13701.489,E,4,12.0,1.0,92.59100000000001,M,36.771,M,4.2,0000*79,37.23286091666666,137.02481666666668,679619.4467890924,4122625.7111722175
937,[2021-02-22 14:27:27.031] $GPGGA,52727.3,3713.971655,N,13701.48899,E,4,12.0,1.0,92.588,M,36.771,M,2.3,0000*78,37.23286091666666,137.0248165,679619.4320025949,4122625.7108559124
938,[2021-02-22 14:27:27.124] $GPGGA,52727.4,3713.971655,N,13701.489,E,4,12.0,1.0,92.579,M,36.771,M,2.4,0000*79,37.23286091666666,137.02481666666668,679619.4467890924,4122625.7111722175
939,[2021-02-22 14:27:27.218] $GPGGA,52727.5,3713.971656,N,13701.489,E,4,12.0,1.0,92.584,M,36.771,M,2.5,0000*75,37.23286093333334,137.02481666666668,679619.4467495336,4122625.713021492
940,[2021-02-22 14:27:27.327] $GPGGA,52727.6,3713.97166,N,13701.489,E,4,12.0,1.0,92.585,M,36.771,M,2.6,0000*75,37.232861,137.02481666666668,679619.4465912989,4122625.7204185803
941,[2021-02-22 14:27:27.421] $GPGGA,52727.7,3713.971664,N,13701.489,E,4,12.0,1.0,92.586,M,36.771,M,2.7,0000*70,37.23286106666667,137.02481666666668,679619.4464330642,4122625.727815671
942,[2021-02-22 14:27:27.531] $GPGGA,52727.8,3713.9716630000003,N,13701.489,E,4,12.0,1.0,92.579,M,36.771,M,2.8,0000*7D,37.232861050000004,137.02481666666668,679619.4464726228,4122625.7259663986
943,[2021-02-22 14:27:27.624] $GPGGA,52727.9,3713.9716689999996,N,13701.489,E,4,12.0,1.0,92.57799999999999,M,36.771,M,2.9,0000*70,37.23286114999999,137.02481666666668,679619.4462352708,4122625.737062031
944,[2021-02-22 14:27:27.734] $GPGGA,52728.0,3713.971665,N,13701.489,E,4,12.0,1.0,92.587,M,36.771,M,3.0,0000*7D,37.232861083333326,137.02481666666668,679619.4463935056,4122625.7296649427
945,[2021-02-22 14:27:27.827] $GPGGA,52728.1,3713.971664,N,13701.489,E,4,12.0,1.0,92.583,M,36.771,M,3.1,0000*7F,37.23286106666667,137.02481666666668,679619.4464330642,4122625.727815671
946,[2021-02-22 14:27:27.937] $GPGGA,52728.2,3713.971661,N,13701.489,E,4,12.0,1.0,92.581,M,36.771,M,3.2,0000*70,37.23286101666667,137.02481666666668,679619.4465517402,4122625.7222678536
947,[2021-02-22 14:27:28.030] $GPGGA,52728.3,3713.97166,N,13701.48901,E,4,12.0,1.0,92.585,M,36.771,M,2.3,0000*7A,37.232861,137.02481683333335,679619.4613777942,4122625.7207348854
948,[2021-02-22 14:27:28.124] $GPGGA,52728.4,3713.971661,N,13701.48901,E,4,12.0,1.0,92.585,M,36.771,M,2.4,0000*71,37.23286101666667,137.02481683333335,679619.4613382354,4122625.722584158
949,[2021-02-22 14:27:28.218] $GPGGA,52728.5,3713.971662,N,13701.489,E,4,12.0,1.0,92.589,M,36.771,M,2.5,0000*70,37.232861033333336,137.02481666666668,679619.4465121815,4122625.7241171245
950,[2021-02-22 14:27:28.327] $GPGGA,52728.6,3713.97166,N,13701.489,E,4,12.0,1.0,92.584,M,36.771,M,2.6,0000*72,37.232861,137.02481666666668,679619.4465912989,4122625.7204185803
951,[2021-02-22 14:27:28.421] $GPGGA,52728.7,3713.971657,N,13701.48899,E,4,12.0,1.0,92.584,M,36.771,M,2.7,0000*78,37.232860949999996,137.0248165,679619.4319234776,4122625.714554458
952,[2021-02-22 14:27:28.531] $GPGGA,52728.8,3713.971656,N,13701.48899,E,4,12.0,1.0,92.585,M,36.771,M,2.8,0000*77,37.23286093333334,137.0248165,679619.4319630362,4122625.7127051875
953,[2021-02-22 14:27:28.624] $GPGGA,52728.9,3713.971654,N,13701.48899,E,4,12.0,1.0,92.585,M,36.771,M,2.9,0000*74,37.232860900000006,137.0248165,679619.4320421536,4122625.709006641
954,[2021-02-22 14:27:28.734] $GPGGA,52729.0,3713.971653,N,13701.489,E,4,12.0,1.0,92.58200000000001,M,36.771,M,3.0,0000*78,37.23286088333334,137.02481666666668,679619.4468682096,4122625.707473674
955,[2021-02-22 14:27:28.827] $GPGGA,52729.1,3713.971653,N,13701.48899,E,4,12.0,1.0,92.584,M,36.771,M,3.1,0000*74,37.23286088333334,137.0248165,679619.4320817122,4122625.7071573692
956,[2021-02-22 14:27:28.937] $GPGGA,52729.2,3713.971655,N,13701.48899,E,4,12.0,1.0,92.586,M,36.771,M,3.2,0000*75,37.23286091666666,137.0248165,679619.4320025949,4122625.7108559124
957,[2021-02-22 14:27:29.030] $GPGGA,52729.3,3713.971655,N,13701.48899,E,4,12.0,1.0,92.58200000000001,M,36.771,M,3.3,0000*7B,37.23286091666666,137.0248165,679619.4320025949,4122625.7108559124
958,[2021-02-22 14:27:29.124] $GPGGA,52729.4,3713.971657,N,13701.48899,E,4,12.0,1.0,92.584,M,36.771,M,3.4,0000*74,37.232860949999996,137.0248165,679619.4319234776,4122625.714554458
959,[2021-02-22 14:27:29.218] $GPGGA,52729.5,3713.971656,N,13701.48899,E,4,12.0,1.0,92.587,M,36.771,M,3.5,0000*79,37.23286093333334,137.0248165,679619.4319630362,4122625.7127051875
960,[2021-02-22 14:27:29.327] $GPGGA,52729.6,3713.971655,N,13701.48899,E,4,12.0,1.0,92.59200000000001,M,36.771,M,3.6,0000*71,37.23286091666666,137.0248165,679619.4320025949,4122625.7108559124
961,[2021-02-22 14:27:29.421] $GPGGA,52729.7,3713.971654,N,13701.48899,E,4,12.0,1.0,92.584,M,36.771,M,3.7,0000*7D,37.232860900000006,137.0248165,679619.4320421536,4122625.709006641
962,[2021-02-22 14:27:29.530] $GPGGA,52729.8,3713.971653,N,13701.48899,E,4,12.0,1.0,92.583,M,36.771,M,3.8,0000*7E,37.23286088333334,137.0248165,679619.4320817122,4122625.7071573692
963,[2021-02-22 14:27:29.624] $GPGGA,52729.9,3713.971651,N,13701.48899,E,4,12.0,1.0,92.584,M,36.771,M,3.9,0000*7C,37.23286085,137.0248165,679619.4321608295,4122625.703458824
964,[2021-02-22 14:27:29.734] $GPGGA,52730.0,3713.971651,N,13701.48899,E,4,12.0,1.0,92.588,M,36.771,M,4.0,0000*79,37.23286085,137.0248165,679619.4321608295,4122625.703458824
965,[2021-02-22 14:27:29.827] $GPGGA,52730.1,3713.971652,N,13701.48899,E,4,12.0,1.0,92.583,M,36.771,M,4.1,0000*75,37.23286086666667,137.0248165,679619.4321212709,4122625.705308097
966,[2021-02-22 14:27:29.937] $GPGGA,52730.2,3713.971653,N,13701.48899,E,4,12.0,1.0,92.585,M,36.771,M,4.2,0000*7E,37.23286088333334,137.0248165,679619.4320817122,4122625.7071573692
967,[2021-02-22 14:27:30.030] $GPGGA,52730.3,3713.971654,N,13701.48899,E,4,12.0,1.0,92.588,M,36.771,M,4.3,0000*79,37.232860900000006,137.0248165,679619.4320421536,4122625.709006641
968,[2021-02-22 14:27:30.124] $GPGGA,52730.4,3713.971653,N,13701.48899,E,4,12.0,1.0,92.58,M,36.771,M,4.4,0000*72,37.23286088333334,137.0248165,679619.4320817122,4122625.7071573692
969,[2021-02-22 14:27:30.218] $GPGGA,52730.5,3713.971652,N,13701.48899,E,4,12.0,1.0,92.588,M,36.771,M,4.5,0000*77,37.23286086666667,137.0248165,679619.4321212709,4122625.705308097
970,[2021-02-22 14:27:30.327] $GPGGA,52730.6,3713.971652,N,13701.48899,E,4,12.0,1.0,92.587,M,36.771,M,4.6,0000*76,37.23286086666667,137.0248165,679619.4321212709,4122625.705308097
971,[2021-02-22 14:27:30.421] $GPGGA,52730.7,3713.971652,N,13701.48899,E,4,12.0,1.0,92.588,M,36.771,M,4.7,0000*7C,37.23286086666667,137.0248165,679619.4321212709,4122625.705308097
972,[2021-02-22 14:27:30.530] $GPGGA,52730.8,3713.971653,N,13701.48899,E,4,12.0,1.0,92.589,M,36.771,M,4.8,0000*77,37.23286088333334,137.0248165,679619.4320817122,4122625.7071573692
973,[2021-02-22 14:27:30.624] $GPGGA,52730.9,3713.971652,N,13701.48899,E,4,12.0,1.0,92.583,M,36.771,M,4.9,0000*7E,37.23286086666667,137.0248165,679619.4321212709,4122625.705308097
974,[2021-02-22 14:27:30.733] $GPGGA,52731.0,3713.971651,N,13701.48899,E,4,12.0,1.0,92.589,M,36.771,M,5.0,0000*7F,37.23286085,137.0248165,679619.4321608295,4122625.703458824
975,[2021-02-22 14:27:30.827] $GPGGA,52731.1,3713.971651,N,13701.48899,E,4,12.0,1.0,92.584,M,36.771,M,5.1,0000*70,37.23286085,137.0248165,679619.4321608295,4122625.703458824
976,[2021-02-22 14:27:30.937] $GPGGA,52731.2,3713.971653,N,13701.48899,E,4,12.0,1.0,92.585,M,36.771,M,5.2,0000*70,37.23286088333334,137.0248165,679619.4320817122,4122625.7071573692
977,[2021-02-22 14:27:31.030] $GPGGA,52731.3,3713.971654,N,13701.48899,E,4,12.0,1.0,92.584,M,36.771,M,5.3,0000*75,37.232860900000006,137.0248165,679619.4320421536,4122625.709006641
978,[2021-02-22 14:27:31.124] $GPGGA,52731.4,3713.971654,N,13701.489,E,4,12.0,1.0,92.588,M,36.771,M,5.4,0000*7C,37.232860900000006,137.02481666666668,679619.4468286509,4122625.7093229457
979,[2021-02-22 14:27:31.218] $GPGGA,52731.5,3713.971653,N,13701.48899,E,4,12.0,1.0,92.584,M,36.771,M,5.5,0000*76,37.23286088333334,137.0248165,679619.4320817122,4122625.7071573692
980,[2021-02-22 14:27:31.327] $GPGGA,52731.6,3713.971654,N,13701.489,E,4,12.0,1.0,92.586,M,36.771,M,5.6,0000*7B,37.232860900000006,137.02481666666668,679619.4468286509,4122625.7093229457
981,[2021-02-22 14:27:31.421] $GPGGA,52731.7,3713.971653,N,13701.48899,E,4,12.0,1.0,92.586,M,36.771,M,5.7,0000*7D,37.23286088333334,137.0248165,679619.4320817122,4122625.7071573692
982,[2021-02-22 14:27:31.530] $GPGGA,52731.8,3713.971652,N,13701.489,E,4,12.0,1.0,92.587,M,36.771,M,5.8,0000*7E,37.23286086666667,137.02481666666668,679619.4469077683,4122625.705624401
983,[2021-02-22 14:27:31.624] $GPGGA,52731.9,3713.971653,N,13701.489,E,4,12.0,1.0,92.586,M,36.771,M,5.9,0000*7F,37.23286088333334,137.02481666666668,679619.4468682096,4122625.707473674
984,[2021-02-22 14:27:31.733] $GPGGA,52732.0,3713.971652,N,13701.489,E,4,12.0,1.0,92.586,M,36.771,M,6.0,0000*74,37.23286086666667,137.02481666666668,679619.4469077683,4122625.705624401
985,[2021-02-22 14:27:31.827] $GPGGA,52732.1,3713.971652,N,13701.489,E,4,12.0,1.0,92.584,M,36.771,M,6.1,0000*7C,37.23286086666667,137.02481666666668,679619.4469077683,4122625.705624401
986,[2021-02-22 14:27:31.937] $GPGGA,52732.2,3713.971653,N,13701.489,E,4,12.0,1.0,92.581,M,36.771,M,6.2,0000*7A,37.23286088333334,137.02481666666668,679619.4468682096,4122625.707473674
987,[2021-02-22 14:27:32.030] $GPGGA,52732.3,3713.97165,N,13701.489,E,4,12.0,1.0,92.589,M,36.771,M,6.3,0000*70,37.23286083333333,137.02481666666668,679619.4469868857,4122625.701925856
988,[2021-02-22 14:27:32.124] $GPGGA,52732.4,3713.971652,N,13701.489,E,4,12.0,1.0,92.585,M,36.771,M,6.4,0000*7F,37.23286086666667,137.02481666666668,679619.4469077683,4122625.705624401
989,[2021-02-22 14:27:32.218] $GPGGA,52732.5,3713.97165,N,13701.489,E,4,12.0,1.0,92.588,M,36.771,M,6.5,0000*71,37.23286083333333,137.02481666666668,679619.4469868857,4122625.701925856
990,[2021-02-22 14:27:32.327] $GPGGA,52732.6,3713.971653,N,13701.489,E,4,12.0,1.0,92.589,M,36.771,M,6.6,0000*78,37.23286088333334,137.02481666666668,679619.4468682096,4122625.707473674
991,[2021-02-22 14:27:32.421] $GPGGA,52732.7,3713.971652,N,13701.489,E,4,12.0,1.0,92.58,M,36.771,M,6.7,0000*73,37.23286086666667,137.02481666666668,679619.4469077683,4122625.705624401
992,[2021-02-22 14:27:32.530] $GPGGA,52732.8,3713.97165,N,13701.489,E,4,12.0,1.0,92.59100000000001,M,36.771,M,6.8,0000*79,37.23286083333333,137.02481666666668,679619.4469868857,4122625.701925856
993,[2021-02-22 14:27:32.624] $GPGGA,52732.9,3713.971651,N,13701.489,E,4,12.0,1.0,92.585,M,36.771,M,6.9,0000*7B,37.23286085,137.02481666666668,679619.446947327,4122625.7037751293
994,[2021-02-22 14:27:32.733] $GPGGA,52733.0,3713.971649,N,13701.489,E,4,12.0,1.0,92.59299999999999,M,36.771,M,7.0,0000*77,37.232860816666665,137.02481666666668,679619.4470264442,4122625.700076584
995,[2021-02-22 14:27:32.827] $GPGGA,52733.1,3713.971651,N,13701.48899,E,4,12.0,1.0,92.58,M,36.771,M,7.1,0000*7D,37.23286085,137.0248165,679619.4321608295,4122625.703458824
996,[2021-02-22 14:27:32.936] $GPGGA,52733.2,3713.971649,N,13701.48899,E,4,12.0,1.0,92.58200000000001,M,36.771,M,7.2,0000*78,37.232860816666665,137.0248165,679619.4322399469,4122625.699760279
997,[2021-02-22 14:27:33.030] $GPGGA,52733.3,3713.9716479999997,N,13701.48899,E,4,12.0,1.0,92.587,M,36.771,M,7.3,0000*76,37.2328608,137.0248165,679619.4322795057,4122625.697911006
998,[2021-02-22 14:27:33.139] $GPGGA,52733.4,3713.97165,N,13701.48899,E,4,12.0,1.0,92.583,M,36.771,M,7.4,0000*75,37.23286083333333,137.0248165,679619.4322003883,4122625.7016095514
999,[2021-02-22 14:27:33.218] $GPGGA,52733.5,3713.9716479999997,N,13701.48899,E,4,12.0,1.0,92.588,M,36.771,M,7.5,0000*7F,37.2328608,137.0248165,679619.4322795057,4122625.697911006
1000,[2021-02-22 14:27:33.327] $GPGGA,52733.6,3713.971649,N,13701.48899,E,4,12.0,1.0,92.588,M,36.771,M,7.6,0000*7C,37.232860816666665,137.0248165,679619.4322399469,4122625.699760279
1001,[2021-02-22 14:27:33.421] $GPGGA,52733.7,3713.97165,N,13701.48899,E,4,12.0,1.0,92.584,M,36.771,M,7.7,0000*7A,37.23286083333333,137.0248165,679619.4322003883,4122625.7016095514
1002,[2021-02-22 14:27:33.530] $GPGGA,52733.8,3713.971649,N,13701.48899,E,4,12.0,1.0,92.59,M,36.771,M,7.8,0000*71,37.232860816666665,137.0248165,679619.4322399469,4122625.699760279
1003,[2021-02-22 14:27:33.624] $GPGGA,52733.9,3713.97165,N,13701.48899,E,4,12.0,1.0,92.583,M,36.771,M,7.9,0000*7C,37.23286083333333,137.0248165,679619.4322003883,4122625.7016095514
1004,[2021-02-22 14:27:33.733] $GPGGA,52734.0,3713.9716479999997,N,13701.48899,E,4,12.0,1.0,92.589,M,36.771,M,8.0,0000*71,37.2328608,137.0248165,679619.4322795057,4122625.697911006
1005,[2021-02-22 14:27:33.827] $GPGGA,52734.1,3713.971651,N,13701.48899,E,4,12.0,1.0,92.59100000000001,M,36.771,M,8.1,0000*7B,37.23286085,137.0248165,679619.4321608295,4122625.703458824
1006,[2021-02-22 14:27:33.936] $GPGGA,52734.2,3713.971652,N,13701.48899,E,4,12.0,1.0,92.588,M,36.771,M,8.2,0000*7C,37.23286086666667,137.0248165,679619.4321212709,4122625.705308097
1007,[2021-02-22 14:27:34.030] $GPGGA,52734.3,3713.971651,N,13701.48899,E,4,12.0,1.0,92.583,M,36.771,M,8.3,0000*7C,37.23286085,137.0248165,679619.4321608295,4122625.703458824
1008,[2021-02-22 14:27:34.139] $GPGGA,52734.4,3713.971649,N,13701.48899,E,4,12.0,1.0,92.587,M,36.771,M,8.4,0000*7A,37.232860816666665,137.0248165,679619.4322399469,4122625.699760279
1009,[2021-02-22 14:27:34.218] $GPGGA,52734.5,3713.971652,N,13701.48899,E,4,12.0,1.0,92.58200000000001,M,36.771,M,8.5,0000*75,37.23286086666667,137.0248165,679619.4321212709,4122625.705308097
1010,[2021-02-22 14:27:34.327] $GPGGA,52734.6,3713.97165,N,13701.48899,E,4,12.0,1.0,92.589,M,36.771,M,8.6,0000*72,37.23286083333333,137.0248165,679619.4322003883,4122625.7016095514
1011,[2021-02-22 14:27:34.421] $GPGGA,52734.7,3713.971651,N,13701.48899,E,4,12.0,1.0,92.59,M,36.771,M,8.7,0000*73,37.23286085,137.0248165,679619.4321608295,4122625.703458824
1012,[2021-02-22 14:27:34.530] $GPGGA,52734.8,3713.971652,N,13701.48899,E,4,12.0,1.0,92.583,M,36.771,M,8.8,0000*7D,37.23286086666667,137.0248165,679619.4321212709,4122625.705308097
1013,[2021-02-22 14:27:34.624] $GPGGA,52734.9,3713.971652,N,13701.48899,E,4,12.0,1.0,92.584,M,36.771,M,8.9,0000*75,37.23286086666667,137.0248165,679619.4321212709,4122625.705308097
1014,[2021-02-22 14:27:34.733] $GPGGA,52735.0,3713.97165,N,13701.48899,E,4,12.0,1.0,92.595,M,36.771,M,9.0,0000*72,37.23286083333333,137.0248165,679619.4322003883,4122625.7016095514
1015,[2021-02-22 14:27:34.827] $GPGGA,52735.1,3713.971652,N,13701.48899,E,4,12.0,1.0,92.59,M,36.771,M,9.1,0000*74,37.23286086666667,137.0248165,679619.4321212709,4122625.705308097
1016,[2021-02-22 14:27:34.936] $GPGGA,52735.2,3713.971652,N,13701.48899,E,4,12.0,1.0,92.59299999999999,M,36.771,M,9.2,0000*79,37.23286086666667,137.0248165,679619.4321212709,4122625.705308097
1017,[2021-02-22 14:27:35.030] $GPGGA,52735.3,3713.971651,N,13701.48899,E,4,12.0,1.0,92.59100000000001,M,36.771,M,9.3,0000*71,37.23286085,137.0248165,679619.4321608295,4122625.703458824
1018,[2021-02-22 14:27:35.139] $GPGGA,52735.4,3713.971651,N,13701.48899,E,4,12.0,1.0,92.594,M,36.771,M,9.4,0000*71,37.23286085,137.0248165,679619.4321608295,4122625.703458824
1019,[2021-02-22 14:27:35.218] $GPGGA,52735.5,3713.97165,N,13701.48899,E,4,12.0,1.0,92.59299999999999,M,36.771,M,9.5,0000*70,37.23286083333333,137.0248165,679619.4322003883,4122625.7016095514
1020,[2021-02-22 14:27:35.327] $GPGGA,52735.6,3713.97165,N,13701.48899,E,4,12.0,1.0,92.598,M,36.771,M,9.6,0000*7D,37.23286083333333,137.0248165,679619.4322003883,4122625.7016095514
1021,[2021-02-22 14:27:35.421] $GPGGA,52735.7,3713.971649,N,13701.489,E,4,12.0,1.0,92.596,M,36.771,M,9.7,0000*7C,37.232860816666665,137.02481666666668,679619.4470264442,4122625.700076584
1022,[2021-02-22 14:27:35.530] $GPGGA,52735.8,3713.97165,N,13701.489,E,4,12.0,1.0,92.59100000000001,M,36.771,M,9.8,0000*75,37.23286083333333,137.02481666666668,679619.4469868857,4122625.701925856
1023,[2021-02-22 14:27:35.624] $GPGGA,52735.9,3713.9716479999997,N,13701.489,E,4,12.0,1.0,92.59299999999999,M,36.771,M,9.9,0000*70,37.2328608,137.02481666666668,679619.447066003,4122625.698227311
1024,[2021-02-22 14:27:35.733] $GPGGA,52736.0,3713.971647,N,13701.489,E,4,12.0,1.0,92.59200000000001,M,36.771,M,10.0,0000*43,37.23286078333333,137.02481666666668,679619.4471055617,4122625.6963780387
1038,[2021-02-22 14:27:37.139] $GPGGA,52737.4,3713.971652,N,13701.48905,E,4,10.0,1.1,92.595,M,36.771,M,2.4,0000*71,37.23286086666667,137.0248175,679619.5208402441,4122625.7072059275
1039,[2021-02-22 14:27:37.217] $GPGGA,52737.5,3713.971653,N,13701.48905,E,4,10.0,1.1,92.59299999999999,M,36.771,M,2.5,0000*79,37.23286088333334,137.0248175,679619.5208006854,4122625.7090551993
1040,[2021-02-22 14:27:37.327] $GPGGA,52737.6,3713.971652,N,13701.48905,E,4,10.0,1.1,92.59899999999999,M,36.771,M,2.6,0000*70,37.23286086666667,137.0248175,679619.5208402441,4122625.7072059275
1041,[2021-02-22 14:27:37.420] $GPGGA,52737.7,3713.971651,N,13701.48905,E,4,10.0,1.1,92.594,M,36.771,M,2.7,0000*77,37.23286085,137.0248175,679619.5208798028,4122625.705356655
1042,[2021-02-22 14:27:37.530] $GPGGA,52737.8,3713.971651,N,13701.48905,E,4,10.0,1.1,92.59200000000001,M,36.771,M,2.8,0000*72,37.23286085,137.0248175,679619.5208798028,4122625.705356655
1043,[2021-02-22 14:27:37.624] $GPGGA,52737.9,3713.971651,N,13701.48905,E,4,10.0,1.1,92.598,M,36.771,M,2.9,0000*78,37.23286085,137.0248175,679619.5208798028,4122625.705356655
1044,[2021-02-22 14:27:37.733] $GPGGA,52738.0,3713.971651,N,13701.48905,E,4,10.0,1.1,92.588,M,36.771,M,3.0,0000*78,37.23286085,137.0248175,679619.5208798028,4122625.705356655
1045,[2021-02-22 14:27:37.827] $GPGGA,52738.1,3713.971651,N,13701.48905,E,4,10.0,1.1,92.594,M,36.771,M,3.1,0000*71,37.23286085,137.0248175,679619.5208798028,4122625.705356655
1046,[2021-02-22 14:27:37.936] $GPGGA,52738.2,3713.971652,N,13701.48905,E,4,10.0,1.1,92.594,M,36.771,M,3.2,0000*7C,37.23286086666667,137.0248175,679619.5208402441,4122625.7072059275
1047,[2021-02-22 14:27:38.030] $GPGGA,52738.3,3713.971654,N,13701.48905,E,4,10.0,1.1,92.59200000000001,M,36.771,M,3.3,0000*70,37.232860900000006,137.0248175,679619.5207611267,4122625.710904472
1048,[2021-02-22 14:27:38.139] $GPGGA,52738.4,3713.971654,N,13701.48905,E,4,10.0,1.1,92.595,M,36.771,M,3.4,0000*7C,37.232860900000006,137.0248175,679619.5207611267,4122625.710904472
1049,[2021-02-22 14:27:38.217] $GPGGA,52738.5,3713.971654,N,13701.48905,E,4,10.0,1.1,92.59200000000001,M,36.771,M,3.5,0000*79,37.232860900000006,137.0248175,679619.5207611267,4122625.710904472
1050,[2021-02-22 14:27:38.327] $GPGGA,52738.6,3713.971654,N,13701.48905,E,4,10.0,1.1,92.59100000000001,M,36.771,M,3.6,0000*75,37.232860900000006,137.0248175,679619.5207611267,4122625.710904472
1051,[2021-02-22 14:27:38.420] $GPGGA,52738.7,3713.971655,N,13701.48905,E,4,10.0,1.1,92.594,M,36.771,M,3.7,0000*74,37.23286091666666,137.0248175,679619.520721568,4122625.7127537425
1052,[2021-02-22 14:27:38.530] $GPGGA,52738.8,3713.971657,N,13701.48905,E,4,10.0,1.1,92.594,M,36.771,M,3.8,0000*7B,37.232860949999996,137.0248175,679619.5206424505,4122625.716452288
1053,[2021-02-22 14:27:38.624] $GPGGA,52738.9,3713.971657,N,13701.48905,E,4,10.0,1.1,92.594,M,36.771,M,3.9,0000*76,37.232860949999996,137.0248175,679619.5206424505,4122625.716452288
1054,[2021-02-22 14:27:38.733] $GPGGA,52739.0,3713.9716590000003,N,13701.48905,E,4,10.0,1.1,92.594,M,36.771,M,4.0,0000*7D,37.232860983333346,137.0248175,679619.5205633332,4122625.720150834
1055,[2021-02-22 14:27:38.827] $GPGGA,52739.1,3713.9716590000003,N,13701.48905,E,4,10.0,1.1,92.596,M,36.771,M,4.1,0000*7A,37.232860983333346,137.0248175,679619.5205633332,4122625.720150834
1056,[2021-02-22 14:27:38.936] $GPGGA,52739.2,3713.9716630000003,N,13701.48906,E,4,10.0,1.1,92.59299999999999,M,36.771,M,4.2,0000*74,37.232861050000004,137.02481766666668,679619.5351915958,4122625.7278642287
1057,[2021-02-22 14:27:39.030] $GPGGA,52739.3,3713.9716689999996,N,13701.48906,E,4,10.0,1.1,92.594,M,36.771,M,4.3,0000*73,37.23286114999999,137.02481766666668,679619.5349542438,4122625.738959861
1058,[2021-02-22 14:27:39.124] $GPGGA,52739.4,3713.971664,N,13701.489080000001,E,4,11.0,1.0,92.588,M,36.771,M,2.4,0000*7F,37.23286106666667,137.02481800000004,679619.5647250297,4122625.7303461116
1059,[2021-02-22 14:27:39.217] $GPGGA,52739.5,3713.971665,N,13701.489080000001,E,4,11.0,1.0,92.589,M,36.771,M,2.5,0000*7F,37.232861083333326,137.02481800000004,679619.564685471,4122625.7321953834
1060,[2021-02-22 14:27:39.327] $GPGGA,52739.6,3713.971665,N,13701.489080000001,E,4,11.0,1.0,92.588,M,36.771,M,2.6,0000*78,37.232861083333326,137.02481800000004,679619.564685471,4122625.7321953834
1061,[2021-02-22 14:27:39.420] $GPGGA,52739.7,3713.971668,N,13701.489090000001,E,4,11.0,1.0,92.589,M,36.771,M,2.7,0000*76,37.23286113333333,137.02481816666668,679619.5793532877,4122625.7380595063
1062,[2021-02-22 14:27:39.530] $GPGGA,52739.8,3713.9716719999997,N,13701.489090000001,E,4,11.0,1.0,92.588,M,36.771,M,2.8,0000*72,37.232861199999995,137.02481816666668,679619.5791950529,4122625.745456596
1063,[2021-02-22 14:27:39.623] $GPGGA,52739.9,3713.9716759999997,N,13701.489080000001,E,4,11.0,1.0,92.59,M,36.771,M,2.9,0000*75,37.23286126666667,137.02481800000004,679619.5642503253,4122625.752537381
1064,[2021-02-22 14:27:39.733] $GPGGA,52740.0,3713.9716780000003,N,13701.489080000001,E,4,11.0,1.0,92.586,M,36.771,M,3.0,0000*78,37.2328613,137.02481800000004,679619.5641712078,4122625.7562359245
1065,[2021-02-22 14:27:39.827] $GPGGA,52740.1,3713.9716810000004,N,13701.489090000001,E,4,11.0,1.0,92.588,M,36.771,M,3.1,0000*73,37.23286135000001,137.02481816666668,679619.5788390245,4122625.7621000484
1066,[2021-02-22 14:27:39.936] $GPGGA,52740.2,3713.9716840000006,N,13701.489080000001,E,4,11.0,1.0,92.589,M,36.771,M,3.2,0000*70,37.23286140000001,137.02481800000004,679619.5639338556,4122625.7673315606
1067,[2021-02-22 14:27:40.030] $GPGGA,52740.3,3713.971686,N,13701.48907,E,4,11.0,1.0,92.573,M,36.771,M,2.3,0000*72,37.23286143333333,137.02481783333332,679619.5490682386,4122625.7707137982
1068,[2021-02-22 14:27:40.139] $GPGGA,52740.4,3713.971685,N,13701.48907,E,4,11.0,1.0,92.58,M,36.771,M,2.4,0000*75,37.232861416666665,137.02481783333332,679619.5491077973,4122625.768864527
1069,[2021-02-22 14:27:40.217] $GPGGA,52740.5,3713.9716840000006,N,13701.48907,E,4,11.0,1.0,92.581,M,36.771,M,2.5,0000*75,37.23286140000001,137.02481783333332,679619.5491473561,4122625.767015255
1070,[2021-02-22 14:27:40.327] $GPGGA,52740.6,3713.9716829999998,N,13701.48907,E,4,11.0,1.0,92.573,M,36.771,M,2.6,0000*71,37.23286138333333,137.02481783333332,679619.5491869147,4122625.7651659814
1071,[2021-02-22 14:27:40.420] $GPGGA,52740.7,3713.9716829999998,N,13701.48907,E,4,11.0,1.0,92.581,M,36.771,M,2.7,0000*7D,37.23286138333333,137.02481783333332,679619.5491869147,4122625.7651659814
1072,[2021-02-22 14:27:40.530] $GPGGA,52740.8,3713.971686,N,13701.48907,E,4,11.0,1.0,92.579,M,36.771,M,2.8,0000*73,37.23286143333333,137.02481783333332,679619.5490682386,4122625.7707137982
1073,[2021-02-22 14:27:40.623] $GPGGA,52740.9,3713.9716840000006,N,13701.48907,E,4,11.0,1.0,92.57700000000001,M,36.771,M,2.9,0000*7E,37.23286140000001,137.02481783333332,679619.5491473561,4122625.767015255
1074,[2021-02-22 14:27:40.733] $GPGGA,52741.0,3713.9716829999998,N,13701.48907,E,4,11.0,1.0,92.583,M,36.771,M,3.0,0000*7A,37.23286138333333,137.02481783333332,679619.5491869147,4122625.7651659814
1075,[2021-02-22 14:27:40.827] $GPGGA,52741.1,3713.9716829999998,N,13701.48907,E,4,11.0,1.0,92.571,M,36.771,M,3.1,0000*7F,37.23286138333333,137.02481783333332,679619.5491869147,4122625.7651659814
1076,[2021-02-22 14:27:40.936] $GPGGA,52741.2,3713.9716829999998,N,13701.48907,E,4,11.0,1.0,92.581,M,36.771,M,3.2,0000*71,37.23286138333333,137.02481783333332,679619.5491869147,4122625.7651659814
1077,[2021-02-22 14:27:41.030] $GPGGA,52741.3,3713.9716840000006,N,13701.48907,E,4,11.0,1.0,92.57700000000001,M,36.771,M,3.3,0000*7B,37.23286140000001,137.02481783333332,679619.5491473561,4122625.767015255
1078,[2021-02-22 14:27:41.139] $GPGGA,52741.4,3713.971708,N,13701.48903,E,4,11.0,1.0,92.58200000000001,M,36.771,M,2.4,0000*75,37.232861799999995,137.0248171666667,679619.4890519696,4122625.81013257
1079,[2021-02-22 14:27:41.217] $GPGGA,52741.5,3713.9717090000004,N,13701.48903,E,4,11.0,1.0,92.589,M,36.771,M,2.5,0000*73,37.23286181666668,137.0248171666667,679619.4890124109,4122625.8119818443
1080,[2021-02-22 14:27:41.326] $GPGGA,52741.6,3713.971705,N,13701.48903,E,4,11.0,1.0,92.57799999999999,M,36.771,M,2.6,0000*78,37.232861750000005,137.0248171666667,679619.4891706456,4122625.8045847532
1081,[2021-02-22 14:27:41.420] $GPGGA,52741.7,3713.971705,N,13701.48903,E,4,11.0,1.0,92.584,M,36.771,M,2.7,0000*73,37.232861750000005,137.0248171666667,679619.4891706456,4122625.8045847532
1082,[2021-02-22 14:27:41.530] $GPGGA,52741.8,3713.971707,N,13701.48903,E,4,11.0,1.0,92.57700000000001,M,36.771,M,2.8,0000*71,37.23286178333334,137.0248171666667,679619.4890915283,4122625.808283299
1083,[2021-02-22 14:27:41.623] $GPGGA,52741.9,3713.971707,N,13701.48903,E,4,11.0,1.0,92.573,M,36.771,M,2.9,0000*72,37.23286178333334,137.0248171666667,679619.4890915283,4122625.808283299
1084,[2021-02-22 14:27:41.733] $GPGGA,52742.0,3713.971708,N,13701.48903,E,4,11.0,1.0,92.579,M,36.771,M,3.0,0000*7C,37.232861799999995,137.0248171666667,679619.4890519696,4122625.81013257
1085,[2021-02-22 14:27:41.826] $GPGGA,52742.1,3713.971707,N,13701.48903,E,4,11.0,1.0,92.57700000000001,M,36.771,M,3.1,0000*73,37.23286178333334,137.0248171666667,679619.4890915283,4122625.808283299
1086,[2021-02-22 14:27:41.936] $GPGGA,52742.2,3713.9717060000003,N,13701.48903,E,4,11.0,1.0,92.581,M,36.771,M,3.2,0000*73,37.23286176666667,137.0248171666667,679619.489131087,4122625.8064340265
1087,[2021-02-22 14:27:42.030] $GPGGA,52742.3,3713.971707,N,13701.48903,E,4,11.0,1.0,92.58,M,36.771,M,3.3,0000*72,37.23286178333334,137.0248171666667,679619.4890915283,4122625.808283299
1088,[2021-02-22 14:27:42.139] $GPGGA,52742.4,3713.9717090000004,N,13701.48903,E,4,11.0,1.0,92.583,M,36.771,M,3.4,0000*70,37.23286181666668,137.0248171666667,679619.4890124109,4122625.8119818443
1089,[2021-02-22 14:27:42.217] $GPGGA,52742.5,3713.971707,N,13701.48903,E,4,11.0,1.0,92.58,M,36.771,M,3.5,0000*77,37.23286178333334,137.0248171666667,679619.4890915283,4122625.808283299
1090,[2021-02-22 14:27:42.326] $GPGGA,52742.6,3713.971707,N,13701.48903,E,4,11.0,1.0,92.57600000000001,M,36.771,M,3.6,0000*74,37.23286178333334,137.0248171666667,679619.4890915283,4122625.808283299
1091,[2021-02-22 14:27:42.420] $GPGGA,52742.7,3713.971707,N,13701.48903,E,4,11.0,1.0,92.57799999999999,M,36.771,M,3.7,0000*7C,37.23286178333334,137.0248171666667,679619.4890915283,4122625.808283299
1092,[2021-02-22 14:27:42.530] $GPGGA,52742.8,3713.971708,N,13701.48903,E,4,11.0,1.0,92.586,M,36.771,M,3.8,0000*76,37.232861799999995,137.0248171666667,679619.4890519696,4122625.81013257
1093,[2021-02-22 14:27:42.623] $GPGGA,52742.9,3713.971707,N,13701.48903,E,4,11.0,1.0,92.57700000000001,M,36.771,M,3.9,0000*75,37.23286178333334,137.0248171666667,679619.4890915283,4122625.808283299
1094,[2021-02-22 14:27:42.733] $GPGGA,52743.0,3713.971708,N,13701.48903,E,4,11.0,1.0,92.585,M,36.771,M,4.0,0000*7E,37.232861799999995,137.0248171666667,679619.4890519696,4122625.81013257
1095,[2021-02-22 14:27:42.826] $GPGGA,52743.1,3713.971708,N,13701.48903,E,4,11.0,1.0,92.57600000000001,M,36.771,M,4.1,0000*7D,37.232861799999995,137.0248171666667,679619.4890519696,4122625.81013257
1096,[2021-02-22 14:27:42.936] $GPGGA,52743.2,3713.9717100000003,N,13701.48903,E,4,11.0,1.0,92.583,M,36.771,M,4.2,0000*75,37.232861833333345,137.0248171666667,679619.4889728521,4122625.813831117
1097,[2021-02-22 14:27:43.029] $GPGGA,52743.3,3713.971707,N,13701.48904,E,4,11.0,1.0,92.579,M,36.771,M,4.3,0000*72,37.23286178333334,137.02481733333335,679619.503878021,4122625.8085996043
1098,[2021-02-22 14:27:43.139] $GPGGA,52743.4,3713.9717100000003,N,13701.48903,E,4,11.0,1.0,92.588,M,36.771,M,2.4,0000*71,37.232861833333345,137.0248171666667,679619.4889728521,4122625.813831117
1099,[2021-02-22 14:27:43.217] $GPGGA,52743.5,3713.9717090000004,N,13701.48903,E,4,11.0,1.0,92.586,M,36.771,M,2.5,0000*7B,37.23286181666668,137.0248171666667,679619.4890124109,4122625.8119818443
1100,[2021-02-22 14:27:43.326] $GPGGA,52743.6,3713.9717100000003,N,13701.48903,E,4,11.0,1.0,92.587,M,36.771,M,2.6,0000*76,37.232861833333345,137.0248171666667,679619.4889728521,4122625.813831117
1101,[2021-02-22 14:27:43.420] $GPGGA,52743.7,3713.9717100000003,N,13701.48903,E,4,11.0,1.0,92.59299999999999,M,36.771,M,2.7,0000*7F,37.232861833333345,137.0248171666667,679619.4889728521,4122625.813831117
1102,[2021-02-22 14:27:43.529] $GPGGA,52743.8,3713.9717090000004,N,13701.48903,E,4,11.0,1.0,92.59,M,36.771,M,2.8,0000*7E,37.23286181666668,137.0248171666667,679619.4890124109,4122625.8119818443
1103,[2021-02-22 14:27:43.623] $GPGGA,52743.9,3713.9717100000003,N,13701.48903,E,4,11.0,1.0,92.59299999999999,M,36.771,M,2.9,0000*74,37.232861833333345,137.0248171666667,679619.4889728521,4122625.813831117
1104,[2021-02-22 14:27:43.733] $GPGGA,52744.0,3713.9717100000003,N,13701.48903,E,4,11.0,1.0,92.58200000000001,M,36.771,M,3.0,0000*7D,37.232861833333345,137.0248171666667,679619.4889728521,4122625.813831117
1105,[2021-02-22 14:27:43.826] $GPGGA,52744.1,3713.971708,N,13701.48903,E,4,11.0,1.0,92.586,M,36.771,M,3.1,0000*7F,37.232861799999995,137.0248171666667,679619.4890519696,4122625.81013257
1106,[2021-02-22 14:27:43.936] $GPGGA,52744.2,3713.971708,N,13701.48903,E,4,11.0,1.0,92.59200000000001,M,36.771,M,3.2,0000*7F,37.232861799999995,137.0248171666667,679619.4890519696,4122625.81013257
1107,[2021-02-22 14:27:44.029] $GPGGA,52744.3,3713.9717090000004,N,13701.48903,E,4,11.0,1.0,92.59700000000001,M,36.771,M,2.3,0000*7B,37.23286181666668,137.0248171666667,679619.4890124109,4122625.8119818443
1108,[2021-02-22 14:27:44.139] $GPGGA,52744.4,3713.9717100000003,N,13701.48903,E,4,11.0,1.0,92.594,M,36.771,M,2.4,0000*78,37.232861833333345,137.0248171666667,679619.4889728521,4122625.813831117
1109,[2021-02-22 14:27:44.217] $GPGGA,52744.5,3713.971707,N,13701.48903,E,4,11.0,1.0,92.59,M,36.771,M,2.5,0000*7E,37.23286178333334,137.0248171666667,679619.4890915283,4122625.808283299
1110,[2021-02-22 14:27:44.326] $GPGGA,52744.6,3713.9717100000003,N,13701.48903,E,4,11.0,1.0,92.603,M,36.771,M,2.6,0000*7F,37.232861833333345,137.0248171666667,679619.4889728521,4122625.813831117
1111,[2021-02-22 14:27:44.420] $GPGGA,52744.7,3713.971707,N,13701.48903,E,4,11.0,1.0,92.59299999999999,M,36.771,M,2.7,0000*71,37.23286178333334,137.0248171666667,679619.4890915283,4122625.808283299
1112,[2021-02-22 14:27:44.529] $GPGGA,52744.8,3713.971708,N,13701.48903,E,4,11.0,1.0,92.594,M,36.771,M,2.8,0000*7B,37.232861799999995,137.0248171666667,679619.4890519696,4122625.81013257
1113,[2021-02-22 14:27:44.623] $GPGGA,52744.9,3713.9717060000003,N,13701.48903,E,4,11.0,1.0,92.596,M,36.771,M,2.9,0000*7F,37.23286176666667,137.0248171666667,679619.489131087,4122625.8064340265
1114,[2021-02-22 14:27:44.732] $GPGGA,52745.0,3713.9717090000004,N,13701.48903,E,4,11.0,1.0,92.596,M,36.771,M,3.0,0000*74,37.23286181666668,137.0248171666667,679619.4890124109,4122625.8119818443
1115,[2021-02-22 14:27:44.826] $GPGGA,52745.1,3713.971707,N,13701.48903,E,4,11.0,1.0,92.594,M,36.771,M,3.1,0000*73,37.23286178333334,137.0248171666667,679619.4890915283,4122625.808283299
1116,[2021-02-22 14:27:44.936] $GPGGA,52745.2,3713.9717090000004,N,13701.48903,E,4,11.0,1.0,92.601,M,36.771,M,3.2,0000*77,37.23286181666668,137.0248171666667,679619.4890124109,4122625.8119818443
1117,[2021-02-22 14:27:45.029] $GPGGA,52745.3,3713.971708,N,13701.48903,E,4,11.0,1.0,92.598,M,36.771,M,3.3,0000*72,37.232861799999995,137.0248171666667,679619.4890519696,4122625.81013257
1118,[2021-02-22 14:27:45.139] $GPGGA,52745.4,3713.971711,N,13701.48903,E,4,12.0,1.0,92.59200000000001,M,36.771,M,2.4,0000*76,37.23286185,137.0248171666667,679619.4889332935,4122625.815680388
1119,[2021-02-22 14:27:45.217] $GPGGA,52745.5,3713.9717100000003,N,13701.48903,E,4,12.0,1.0,92.6,M,36.771,M,2.5,0000*7E,37.232861833333345,137.0248171666667,679619.4889728521,4122625.813831117
1120,[2021-02-22 14:27:45.326] $GPGGA,52745.6,3713.971711,N,13701.48903,E,4,12.0,1.0,92.598,M,36.771,M,2.6,0000*7F,37.23286185,137.0248171666667,679619.4889332935,4122625.815680388
1121,[2021-02-22 14:27:45.420] $GPGGA,52745.7,3713.9717100000003,N,13701.48903,E,4,12.0,1.0,92.59700000000001,M,36.771,M,2.7,0000*74,37.232861833333345,137.0248171666667,679619.4889728521,4122625.813831117
1122,[2021-02-22 14:27:45.529] $GPGGA,52745.8,3713.9717090000004,N,13701.48903,E,4,12.0,1.0,92.59899999999999,M,36.771,M,2.8,0000*7C,37.23286181666668,137.0248171666667,679619.4890124109,4122625.8119818443
1123,[2021-02-22 14:27:45.623] $GPGGA,52745.9,3713.971711,N,13701.48903,E,4,12.0,1.0,92.59700000000001,M,36.771,M,2.9,0000*77,37.23286185,137.0248171666667,679619.4889332935,4122625.815680388
1124,[2021-02-22 14:27:45.732] $GPGGA,52746.0,3713.971711,N,13701.48903,E,4,12.0,1.0,92.595,M,36.771,M,3.0,0000*75,37.23286185,137.0248171666667,679619.4889332935,4122625.815680388
1125,[2021-02-22 14:27:45.826] $GPGGA,52746.1,3713.9717119999996,N,13701.48903,E,4,12.0,1.0,92.59,M,36.771,M,3.1,0000*73,37.23286186666665,137.0248171666667,679619.488893735,4122625.8175296597
1126,[2021-02-22 14:27:45.936] $GPGGA,52746.2,3713.9717119999996,N,13701.48903,E,4,12.0,1.0,92.59899999999999,M,36.771,M,3.2,0000*73,37.23286186666665,137.0248171666667,679619.488893735,4122625.8175296597
1127,[2021-02-22 14:27:46.029] $GPGGA,52746.3,3713.971711,N,13701.48903,E,4,12.0,1.0,92.598,M,36.771,M,3.3,0000*72,37.23286185,137.0248171666667,679619.4889332935,4122625.815680388
1128,[2021-02-22 14:27:46.139] $GPGGA,52746.4,3713.9717100000003,N,13701.48903,E,4,12.0,1.0,92.596,M,36.771,M,3.4,0000*74,37.232861833333345,137.0248171666667,679619.4889728521,4122625.813831117
1129,[2021-02-22 14:27:46.217] $GPGGA,52746.5,3713.9717100000003,N,13701.48903,E,4,12.0,1.0,92.594,M,36.771,M,3.5,0000*70,37.232861833333345,137.0248171666667,679619.4889728521,4122625.813831117
1130,[2021-02-22 14:27:46.326] $GPGGA,52746.6,3713.9717100000003,N,13701.48903,E,4,12.0,1.0,92.594,M,36.771,M,3.6,0000*7D,37.232861833333345,137.0248171666667,679619.4889728521,4122625.813831117
1131,[2021-02-22 14:27:46.420] $GPGGA,52746.7,3713.9717100000003,N,13701.48903,E,4,12.0,1.0,92.59,M,36.771,M,3.7,0000*7E,37.232861833333345,137.0248171666667,679619.4889728521,4122625.813831117
1132,[2021-02-22 14:27:46.529] $GPGGA,52746.8,3713.9717100000003,N,13701.48903,E,4,12.0,1.0,92.596,M,36.771,M,3.8,0000*7D,37.232861833333345,137.0248171666667,679619.4889728521,4122625.813831117
1133,[2021-02-22 14:27:46.623] $GPGGA,52746.9,3713.9717100000003,N,13701.48903,E,4,12.0,1.0,92.59700000000001,M,36.771,M,3.9,0000*7E,37.232861833333345,137.0248171666667,679619.4889728521,4122625.813831117
