,Format,Time,Latitude,LatType,Longitude,LonType,Status,Satellite,LevelAccuracy,Altitude(sea),M(sea),Altitude(geoid),M(geoid),DGPS use,checksum,Lat,Lon,UTM_X,UTM_Y
515,[2021-02-22 14:52:18.489] $GNGGA,55217.9,3713.935863143,N,13701.490264566999,E,4,6,1.95,100.78399999999999,M,37.565,M,85.9,2006*58,37.23226438571667,137.02483774278332,679622.7325239917,4122559.5622805213
516,[2021-02-22 14:52:18.598] $GNGGA,55218.0,3713.9358009740004,N,13701.490189893999,E,4,6,1.95,100.934,M,37.565,M,86.0,2006*59,37.232263349566665,137.02483649823333,679622.6245672357,4122559.4449511585
517,[2021-02-22 14:52:18.692] $GNGGA,55218.1,3713.935815834,N,13701.490213697,E,4,5,2.13,100.855,M,37.565,M,86.1,2006*5D,37.232263597233334,137.02483689495,679622.6591759718,4122559.4731842484
518,[2021-02-22 14:52:18.817] $GNGGA,55218.2,3713.9358372990005,N,13701.490246271002,E,4,6,1.95,100.79899999999999,M,37.565,M,86.2,2006*5D,37.23226395498334,137.02483743785,679622.7064927586,4122559.5139092146
519,[2021-02-22 14:52:18.895] $GNGGA,55218.3,3713.935804675,N,13701.490214353,E,4,6,1.95,100.86,M,37.565,M,86.3,2006*54,37.232263411249995,137.02483690588335,679622.6605874083,4122559.4525689688
520,[2021-02-22 14:52:18.989] $GNGGA,55218.4,3713.9358634940004,N,13701.490317074,E,4,5,3.72,100.678,M,37.565,M,86.4,2006*53,37.23226439156667,137.02483861790003,679622.810150176,4122559.564590446
521,[2021-02-22 14:52:19.098] $GNGGA,55218.5,3713.9358841559997,N,13701.490356245,E,4,5,3.72,100.59899999999999,M,37.565,M,86.5,2006*58,37.23226473593333,137.02483927075,679622.8672534503,4122559.6040391126
522,[2021-02-22 14:52:19.192] $GNGGA,55218.6,3713.9359094909996,N,13701.490401341001,E,4,5,3.72,100.50299999999999,M,37.565,M,86.6,2006*51,37.23226515818333,137.02484002235002,679622.9329329424,4122559.652316843
523,[2021-02-22 14:52:19.317] $GNGGA,55218.7,3713.9364157229998,N,13701.491225692,E,4,5,3.72,98.771,M,37.565,M,86.7,2006*65,37.23227359538333,137.0248537615333,679624.1318428228,4122560.6145525104
524,[2021-02-22 14:52:19.395] $GNGGA,55218.8,3713.935792612,N,13701.490216109,E,4,6,1.95,100.87700000000001,M,37.565,M,86.8,2006*5C,37.232263210199996,137.02483693514998,679622.6636611283,4122559.43031674
525,[2021-02-22 14:52:19.488] $GNGGA,55218.9,3713.936412405,N,13701.491224508998,E,4,6,1.95,98.774,M,37.565,M,86.9,2006*68,37.23227354008333,137.02485374181666,679624.1302248231,4122560.6083792066
526,[2021-02-22 14:52:19.598] $GNGGA,55219.0,3713.936412271,N,13701.491226788,E,4,6,1.95,98.77,M,37.565,M,87.0,2006*60,37.23227353785,137.02485377980003,679624.1335999967,4122560.6082034917
527,[2021-02-22 14:52:19.692] $GNGGA,55219.1,3713.935942217,N,13701.490464334,E,4,6,1.95,100.374,M,37.565,M,87.1,2006*59,37.23226570361667,137.02484107223333,679623.024783651,4122559.7148286398
528,[2021-02-22 14:52:19.817] $GNGGA,55219.2,3713.935943242,N,13701.490469121001,E,4,6,1.95,100.366,M,37.565,M,87.2,2006*50,37.2322657207,137.02484115201668,679623.0318214559,4122559.716875559
529,[2021-02-22 14:52:19.895] $GNGGA,55219.3,3713.935942867,N,13701.490468138001,E,4,6,1.96,100.365,M,37.565,M,87.3,2006*55,37.232265714449994,137.02484113563335,679623.030382768,4122559.716150989
530,[2021-02-22 14:52:19.988] $GNGGA,55219.4,3713.935785485,N,13701.490214568,E,4,6,1.96,100.896,M,37.565,M,87.4,2006*5B,37.23226309141666,137.02483690946667,679622.6616644469,4122559.417088235
531,[2021-02-22 14:52:20.098] $GNGGA,55219.5,3713.936408918,N,13701.491224963998,E,4,6,1.96,98.77799999999999,M,37.565,M,87.5,2006*6A,37.232273481966665,137.0248537494,679624.131035558,4122560.601945186
532,[2021-02-22 14:52:20.192] $GNGGA,55219.6,3713.9364094929997,N,13701.491225268,E,4,6,1.96,98.77600000000001,M,37.565,M,87.6,2006*6D,37.23227349154999,137.02485375446668,679624.1314623252,4122560.603018132
533,[2021-02-22 14:52:20.317] $GNGGA,55219.7,3713.935939433,N,13701.490465158999,E,4,6,1.96,100.369,M,37.565,M,87.7,2006*52,37.232265657216665,137.0248410859833,679623.0261136751,4122559.70970636
534,[2021-02-22 14:52:20.395] $GNGGA,55219.8,3713.93593864,N,13701.49046394,E,4,6,1.96,100.37,M,37.565,M,87.8,2006*5B,37.232265644,137.02484106566664,679623.0243425567,4122559.708201329
535,[2021-02-22 14:52:20.488] $GNGGA,55219.9,3713.9359353140003,N,13701.490462938,E,4,6,1.96,100.376,M,37.565,M,87.9,2006*5A,37.23226558856667,137.02484104896666,679623.0229925124,4122559.702018957
536,[2021-02-22 14:52:20.598] $GNGGA,55220.0,3713.9359327290003,N,13701.490462852,E,4,6,1.96,100.37700000000001,M,37.565,M,88.0,2006*5E,37.23226554548334,137.0248410475333,679623.022967604,4122559.6972358674
537,[2021-02-22 14:52:20.723] $GNGGA,55220.1,3713.935930275,N,13701.490461898999,E,4,6,1.96,100.37700000000001,M,37.565,M,88.1,2006*54,37.23226550458334,137.02484103164997,679623.0216555167,4122559.692667609
538,[2021-02-22 14:52:20.801] $GNGGA,55220.2,3713.9364025140003,N,13701.491225211,E,4,6,1.96,98.76899999999999,M,37.565,M,88.2,2006*6D,37.23227337523334,137.02485375351668,679624.1316541234,4122560.5901102605
539,[2021-02-22 14:52:20.895] $GNGGA,55220.3,3713.935925245,N,13701.490459635,E,4,6,1.96,100.37799999999999,M,37.565,M,88.3,2006*5F,37.23226542075,137.02484099391665,679623.0185068096,4122559.6832941584
540,[2021-02-22 14:52:20.988] $GNGGA,55220.4,3713.9359223409997,N,13701.490459868,E,4,6,1.96,100.37700000000001,M,37.565,M,88.4,2006*54,37.23226537234999,137.0248409978,679623.0189662178,4122559.6779312403
541,[2021-02-22 14:52:21.113] $GNGGA,55220.5,3713.9359176059997,N,13701.490457078999,E,4,6,1.96,100.383,M,37.565,M,88.5,2006*59,37.23226529343333,137.02484095131663,679623.0150295381,4122559.6690867194
542,[2021-02-22 14:52:21.192] $GNGGA,55220.6,3713.935912856,N,13701.490456865,E,4,6,1.96,100.384,M,37.565,M,88.6,2006*54,37.23226521426667,137.02484094775,679623.0149010117,4122559.660295908
543,[2021-02-22 14:52:21.301] $GNGGA,55220.7,3713.9359080259997,N,13701.490455651001,E,4,6,1.96,100.384,M,37.565,M,88.7,2006*5A,37.23226513376665,137.02484092751666,679623.0132969846,4122559.651325521
544,[2021-02-22 14:52:21.395] $GNGGA,55220.8,3713.93590318,N,13701.490451148,E,4,6,1.96,100.39299999999999,M,37.565,M,88.8,2006*51,37.232265053,137.0248408524667,679623.0068302767,4122559.642221516
545,[2021-02-22 14:52:21.520] $GNGGA,55220.9,3713.9359045290003,N,13701.490457038,E,4,12,1.04,100.38,M,37.565,M,88.9,2006*5D,37.23226507548333,137.02484095063332,679623.0154862229,4122559.6449024887
546,[2021-02-22 14:52:21.598] $GNGGA,55221.0,3713.9363902279997,N,13701.491237813001,E,4,14,1.0,98.71,M,37.565,M,89.0,2006*60,37.23227317046666,137.02485396355004,679624.1507742315,4122560.5677887127
547,[2021-02-22 14:52:21.691] $GNGGA,55221.1,3713.93639029,N,13701.491240571999,E,4,14,1.0,98.70700000000001,M,37.565,M,89.1,2006*6F,37.232273171500005,137.02485400953333,679624.1548514008,4122560.5679906392
558,[2021-02-22 14:52:22.816] $GNGGA,55222.2,3713.9363964609997,N,13701.491248199,E,4,14,1.0,98.694,M,37.565,M,90.2,2006*68,37.23227327435,137.02485413665,679624.165885031,4122560.5796437473
559,[2021-02-22 14:52:22.895] $GNGGA,55222.3,3713.9363973629997,N,13701.491250758001,E,4,14,1.0,98.691,M,37.565,M,90.3,2006*6B,37.23227328938333,137.02485417930004,679624.1696332463,4122560.5813927334
560,[2021-02-22 14:52:22.988] $GNGGA,55222.4,3713.936397759,N,13701.491248078999,E,4,14,1.0,98.689,M,37.565,M,90.4,2006*62,37.23227329598333,137.02485413465,679624.1656562458,4122560.5820403066
561,[2021-02-22 14:52:23.098] $GNGGA,55222.5,3713.936398055,N,13701.491248485,E,4,14,1.0,98.686,M,37.565,M,90.5,2006*6E,37.23227330091667,137.02485414141665,679624.1662448706,4122560.5826005335
562,[2021-02-22 14:52:23.191] $GNGGA,55222.6,3713.9363978320002,N,13701.491247106002,E,4,14,1.0,98.68799999999999,M,37.565,M,90.6,2006*67,37.23227329720001,137.02485411843338,679624.1642146239,4122560.5821445277
563,[2021-02-22 14:52:23.316] $GNGGA,55222.7,3713.9364009640003,N,13701.491246398,E,4,14,1.0,98.68299999999999,M,37.565,M,90.7,2006*63,37.23227334940001,137.02485410663334,679624.1630438303,4122560.587914053
564,[2021-02-22 14:52:23.394] $GNGGA,55222.8,3713.936401235,N,13701.491243311,E,4,14,1.0,98.684,M,37.565,M,90.8,2006*6E,37.23227335391667,137.02485405518334,679624.1584684831,4122560.5883175596
565,[2021-02-22 14:52:23.488] $GNGGA,55222.9,3713.936402565,N,13701.491242306001,E,4,14,1.0,98.686,M,37.565,M,90.9,2006*6A,37.23227337608334,137.02485403843338,679624.156929818,4122560.590745304
566,[2021-02-22 14:52:23.598] $GNGGA,55223.0,3713.936403241,N,13701.491242888998,E,4,14,1.0,98.68299999999999,M,37.565,M,91.0,2006*63,37.23227338735,137.02485404814996,679624.1577651292,4122560.592013852
567,[2021-02-22 14:52:23.691] $GNGGA,55223.1,3713.936402359,N,13701.491244503,E,4,14,1.0,98.682,M,37.565,M,91.1,2006*62,37.23227337265,137.02485407505,679624.1601865824,4122560.590433846
568,[2021-02-22 14:52:23.816] $GNGGA,55223.2,3713.9363999,N,13701.491246672,E,4,14,1.0,98.68299999999999,M,37.565,M,91.2,2006*67,37.232273331666676,137.0248541112,679624.163491074,4122560.5859550945
569,[2021-02-22 14:52:23.894] $GNGGA,55223.3,3713.936398123,N,13701.491249833001,E,4,14,1.0,98.684,M,37.565,M,91.3,2006*6C,37.23227330205,137.02485416388333,679624.1682354163,4122560.5827689217
570,[2021-02-22 14:52:23.988] $GNGGA,55223.4,3713.9363968740004,N,13701.491250894,E,4,14,1.0,98.686,M,37.565,M,91.4,2006*6E,37.23227328123335,137.02485418156667,679624.1698536862,4122560.5804927424
571,[2021-02-22 14:52:24.098] $GNGGA,55223.5,3713.936396611,N,13701.491253257,E,4,14,1.0,98.684,M,37.565,M,91.5,2006*67,37.232273276849995,137.02485422095,679624.1733581662,4122560.5800811257
572,[2021-02-22 14:52:24.191] $GNGGA,55223.6,3713.9363942809996,N,13701.491255108998,E,4,14,1.0,98.686,M,37.565,M,91.6,2006*64,37.23227323801665,137.02485425181666,679624.176188817,4122560.575830901
573,[2021-02-22 14:52:24.316] $GNGGA,55223.7,3713.936393016,N,13701.491258438999,E,4,14,1.0,98.68299999999999,M,37.565,M,91.7,2006*61,37.23227321693332,137.02485430731662,679624.1811627974,4122560.573596902
574,[2021-02-22 14:52:24.394] $GNGGA,55223.8,3713.936391981,N,13701.491261755,E,4,14,1.0,98.68299999999999,M,37.565,M,91.8,2006*67,37.23227319968333,137.02485436258334,679624.1861069853,4122560.5717877937
575,[2021-02-22 14:52:24.488] $GNGGA,55223.9,3713.9363893259997,N,13701.491261603998,E,4,14,1.0,98.68700000000001,M,37.565,M,91.9,2006*68,37.232273155433326,137.02485436006666,679624.1859887348,4122560.5668732
576,[2021-02-22 14:52:24.598] $GNGGA,55224.0,3713.93638754,N,13701.491264738,E,4,14,1.0,98.68299999999999,M,37.565,M,92.0,2006*6B,37.232273125666666,137.02485441230002,679624.1906935129,4122560.5636695325
577,[2021-02-22 14:52:24.722] $GNGGA,55224.1,3713.936386999,N,13701.491268998001,E,4,14,1.0,98.682,M,37.565,M,92.1,2006*6B,37.23227311665,137.0248544833,679624.1970140086,4122560.5628038226
578,[2021-02-22 14:52:24.801] $GNGGA,55224.2,3713.9363864459997,N,13701.491265695,E,4,14,1.0,98.679,M,37.565,M,92.2,2006*6F,37.23227310743332,137.02485442825,679624.1921518666,4122560.561676697
579,[2021-02-22 14:52:24.894] $GNGGA,55224.3,3713.936387314,N,13701.491263598999,E,4,14,1.0,98.679,M,37.565,M,92.3,2006*67,37.2322731219,137.02485439331664,679624.1890182539,4122560.563215569
580,[2021-02-22 14:52:24.988] $GNGGA,55224.4,3713.936387274,N,13701.491261594,E,4,14,1.0,98.68,M,37.565,M,92.4,2006*69,37.232273121233334,137.02485435990002,679624.1860551257,4122560.5630781786
581,[2021-02-22 14:52:25.113] $GNGGA,55224.5,3713.936387326,N,13701.491261733001,E,4,14,1.0,98.68,M,37.565,M,92.5,2006*60,37.232273122100004,137.02485436221667,679624.1862586002,4122560.563178737
582,[2021-02-22 14:52:25.191] $GNGGA,55224.6,3713.9363891529997,N,13701.491261331,E,4,14,1.0,98.679,M,37.565,M,92.6,2006*6E,37.23227315254999,137.02485435551668,679624.1855919063,4122560.566544641
583,[2021-02-22 14:52:25.301] $GNGGA,55224.7,3713.93638994,N,13701.491261071002,E,4,14,1.0,98.679,M,37.565,M,92.7,2006*63,37.23227316566667,137.02485435118336,679624.1851763233,4122560.567991796
584,[2021-02-22 14:52:25.394] $GNGGA,55224.8,3713.936389942,N,13701.491259932,E,4,14,1.0,98.68299999999999,M,37.565,M,92.8,2006*61,37.23227316569999,137.02485433219996,679624.1834920426,4122560.5679594656
585,[2021-02-22 14:52:25.519] $GNGGA,55224.9,3713.936391833,N,13701.491259707,E,4,14,1.0,98.679,M,37.565,M,92.9,2006*62,37.232273197216664,137.02485432845,679624.1830845424,4122560.5714493226
586,[2021-02-22 14:52:25.597] $GNGGA,55225.0,3713.9363945490004,N,13701.491257347,E,4,14,1.0,98.677,M,37.565,M,93.0,2006*67,37.23227324248334,137.02485428911663,679624.1794874558,4122560.576397297
587,[2021-02-22 14:52:25.691] $GNGGA,55225.1,3713.936396095,N,13701.491253465,E,4,14,1.0,98.681,M,37.565,M,93.1,2006*6B,37.23227326825,137.02485422441666,679624.1736861388,4122560.5791334813
588,[2021-02-22 14:52:25.800] $GNGGA,55225.2,3713.9363973890004,N,13701.491252762,E,4,14,1.0,98.675,M,37.565,M,93.2,2006*6A,37.232273289816675,137.0248542127,679624.172595452,4122560.581504204
589,[2021-02-22 14:52:25.910] $GNGGA,55225.3,3713.9363985890004,N,13701.491252263,E,4,14,1.0,98.67200000000001,M,37.565,M,93.3,2006*60,37.23227330981668,137.02485420438333,679624.1718101294,4122560.583707547
590,[2021-02-22 14:52:25.988] $GNGGA,55225.4,3713.936397797,N,13701.491252365,E,4,14,1.0,98.676,M,37.565,M,93.4,2006*61,37.23227329661667,137.02485420608332,679624.1719922808,4122560.582246148
591,[2021-02-22 14:52:26.097] $GNGGA,55225.5,3713.9363973170002,N,13701.491253465,E,4,14,1.0,98.677,M,37.565,M,93.5,2006*6A,37.23227328861667,137.02485422441666,679624.1736377978,4122560.5813932917
592,[2021-02-22 14:52:26.191] $GNGGA,55225.6,3713.9363968820003,N,13701.491253558,E,4,14,1.0,98.677,M,37.565,M,93.6,2006*63,37.232273281366666,137.0248542259667,679624.1737925236,4122560.5805918006
593,[2021-02-22 14:52:26.316] $GNGGA,55225.7,3713.9363977909998,N,13701.491253616,E,4,14,1.0,98.67399999999999,M,37.565,M,93.7,2006*65,37.23227329651666,137.02485422693334,679624.1738423264,4122560.5822746227
594,[2021-02-22 14:52:26.394] $GNGGA,55225.8,3713.936398548,N,13701.491253443,E,4,14,1.0,98.67299999999999,M,37.565,M,93.8,2006*69,37.23227330913334,137.02485422405002,679624.1735565715,4122560.5836690506
595,[2021-02-22 14:52:26.488] $GNGGA,55225.9,3713.936399185,N,13701.491252634,E,4,14,1.0,98.67299999999999,M,37.565,M,93.9,2006*6E,37.23227331974999,137.02485421056667,679624.1723351353,4122560.5848214463
596,[2021-02-22 14:52:26.597] $GNGGA,55226.0,3713.9363990240004,N,13701.491253753999,E,4,14,1.0,98.671,M,37.565,M,94.0,2006*64,37.23227331706668,137.02485422923334,679624.1739976053,4122560.5845591417
597,[2021-02-22 14:52:26.691] $GNGGA,55226.1,3713.9363979359996,N,13701.491254559,E,4,14,1.0,98.669,M,37.565,M,94.1,2006*61,37.23227329893333,137.02485424264998,679624.1752309637,4122560.5825725948
598,[2021-02-22 14:52:26.816] $GNGGA,55226.2,3713.936397804,N,13701.491253938999,E,4,14,1.0,98.67,M,37.565,M,94.2,2006*64,37.23227329673334,137.02485423231667,679624.1743194193,4122560.5823088815
599,[2021-02-22 14:52:26.894] $GNGGA,55226.3,3713.936397907,N,13701.491253258999,E,4,14,1.0,98.669,M,37.565,M,94.3,2006*63,37.232273298449996,137.02485422098331,679624.173309853,4122560.5824778466
600,[2021-02-22 14:52:26.988] $GNGGA,55226.4,3713.936398142,N,13701.491251794,E,4,14,1.0,98.67399999999999,M,37.565,M,94.4,2006*6F,37.23227330236667,137.02485419656665,679624.1711343187,4122560.5828660866
601,[2021-02-22 14:52:27.097] $GNGGA,55226.5,3713.9363982259997,N,13701.491251655,E,4,14,1.0,98.675,M,37.565,M,94.5,2006*63,37.232273303766654,137.02485419425,679624.1709254622,4122560.5830170265
602,[2021-02-22 14:52:27.191] $GNGGA,55226.6,3713.936398584,N,13701.491251225,E,4,14,1.0,98.678,M,37.565,M,94.6,2006*62,37.23227330973333,137.02485418708332,679624.1702754744,4122560.5836654664
603,[2021-02-22 14:52:27.316] $GNGGA,55226.7,3713.936398247,N,13701.491251799,E,4,14,1.0,98.676,M,37.565,M,94.7,2006*66,37.23227330411667,137.02485419664998,679624.1711375582,4122560.583060417
604,[2021-02-22 14:52:27.394] $GNGGA,55226.8,3713.93639737,N,13701.491252608,E,4,14,1.0,98.675,M,37.565,M,94.8,2006*65,37.2322732895,137.02485421013333,679624.1723684884,4122560.5814641956
605,[2021-02-22 14:52:27.488] $GNGGA,55226.9,3713.936397199,N,13701.491254158,E,4,14,1.0,98.67399999999999,M,37.565,M,94.9,2006*65,37.23227328665,137.02485423596667,679624.1746671796,4122560.581196998
606,[2021-02-22 14:52:27.597] $GNGGA,55227.0,3713.9363952040003,N,13701.49125452,E,4,14,1.0,98.67399999999999,M,37.565,M,95.0,2006*6B,37.2322732534,137.02485424199998,679624.1752813704,4122560.57751915
607,[2021-02-22 14:52:27.691] $GNGGA,55227.1,3713.936393778,N,13701.491255948999,E,4,14,1.0,98.67299999999999,M,37.565,M,95.1,2006*66,37.23227322963333,137.02485426581663,679624.177450787,4122560.574927288
608,[2021-02-22 14:52:27.816] $GNGGA,55227.2,3713.936392692,N,13701.491258048998,E,4,14,1.0,98.67200000000001,M,37.565,M,95.2,2006*67,37.23227321153333,137.02485430081663,679624.1805989379,4122560.5729854032
609,[2021-02-22 14:52:27.894] $GNGGA,55227.3,3713.936389674,N,13701.49126034,E,4,14,1.0,98.671,M,37.565,M,95.3,2006*67,37.23227316123334,137.024854339,679624.1841059426,4122560.567476767
610,[2021-02-22 14:52:27.988] $GNGGA,55227.4,3713.936388572,N,13701.491262898,E,4,14,1.0,98.675,M,37.565,M,95.4,2006*6B,37.23227314286667,137.02485438163333,679624.1879319507,4122560.5655197795
611,[2021-02-22 14:52:28.097] $GNGGA,55227.5,3713.936386625,N,13701.491266933,E,4,14,1.0,98.67200000000001,M,37.565,M,95.5,2006*67,37.23227311041667,137.02485444888336,679624.1939753718,4122560.562046877
612,[2021-02-22 14:52:28.191] $GNGGA,55227.6,3713.93638362,N,13701.491269381,E,4,14,1.0,98.675,M,37.565,M,95.6,2006*6C,37.23227306033333,137.02485448968335,679624.1977140065,4122560.556567246
613,[2021-02-22 14:52:28.316] $GNGGA,55227.7,3713.936381406,N,13701.491277799,E,4,14,1.0,98.67200000000001,M,37.565,M,95.7,2006*6D,37.23227302343333,137.0248546299833,679624.2102489556,4122560.5527392267
614,[2021-02-22 14:52:28.394] $GNGGA,55227.8,3713.936378494,N,13701.491280625,E,4,14,1.0,98.67299999999999,M,37.565,M,95.8,2006*6F,37.232272974900006,137.0248546770833,679624.2145428468,4122560.5474435366
615,[2021-02-22 14:52:28.488] $GNGGA,55227.9,3713.936376232,N,13701.491282846999,E,4,14,1.0,98.67299999999999,M,37.565,M,95.9,2006*63,37.2322729372,137.02485471411666,679624.2179179164,4122560.543330766
616,[2021-02-22 14:52:28.597] $GNGGA,55228.0,3713.936375083,N,13701.491283107,E,4,14,1.0,98.67399999999999,M,37.565,M,96.0,2006*6F,37.23227291805,137.02485471845,679624.218347822,4122560.5412141755
617,[2021-02-22 14:52:28.691] $GNGGA,55228.1,3713.936376479,N,13701.491280971999,E,4,14,1.0,98.675,M,37.565,M,96.1,2006*65,37.232272941316666,137.02485468286665,679624.2151356542,4122560.5437282277
618,[2021-02-22 14:52:28.816] $GNGGA,55228.2,3713.936378827,N,13701.491277938001,E,4,14,1.0,98.67399999999999,M,37.565,M,96.2,2006*6B,37.232272980450006,137.02485463230002,679624.2105565163,4122560.5479743527
619,[2021-02-22 14:52:28.894] $GNGGA,55228.3,3713.93637993,N,13701.491271163999,E,4,14,1.0,98.676,M,37.565,M,96.3,2006*68,37.23227299883333,137.02485451939998,679624.2004964286,4122560.549799829
620,[2021-02-22 14:52:28.988] $GNGGA,55228.4,3713.9363809670003,N,13701.491269241002,E,4,14,1.0,98.678,M,37.565,M,96.4,2006*6F,37.23227301611667,137.02485448735,679624.1976119438,4122560.5516567
621,[2021-02-22 14:52:29.097] $GNGGA,55228.5,3713.936382499,N,13701.491268648,E,4,14,1.0,98.67200000000001,M,37.565,M,96.5,2006*67,37.23227304165,137.02485447746665,679624.1966744915,4122560.554471027
622,[2021-02-22 14:52:29.222] $GNGGA,55228.6,3713.93638386,N,13701.491265641002,E,4,14,1.0,98.676,M,37.565,M,96.6,2006*6C,37.23227306433334,137.02485442735002,679624.1921743208,4122560.556892773
623,[2021-02-22 14:52:29.300] $GNGGA,55228.7,3713.936386045,N,13701.491264606999,E,4,14,1.0,98.67299999999999,M,37.565,M,96.7,2006*60,37.23227310074999,137.02485441011666,679624.1905589465,4122560.5609007254
624,[2021-02-22 14:52:29.394] $GNGGA,55228.8,3713.9363866470003,N,13701.491263168,E,4,14,1.0,98.67200000000001,M,37.565,M,96.8,2006*6C,37.232273110783346,137.02485438613334,679624.1884073401,4122560.561968473
625,[2021-02-22 14:52:29.503] $GNGGA,55228.9,3713.936386787,N,13701.491263188998,E,4,14,1.0,98.67299999999999,M,37.565,M,96.9,2006*6F,37.23227311311667,137.0248543864833,679624.1884328505,4122560.5622280333
626,[2021-02-22 14:52:29.613] $GNGGA,55229.0,3713.9363883140004,N,13701.491268523001,E,4,14,1.0,98.667,M,37.565,M,97.0,2006*65,37.232273138566676,137.02485447538334,679624.1962596257,4122560.565220593
627,[2021-02-22 14:52:29.691] $GNGGA,55229.1,3713.936387532,N,13701.491265393,E,4,14,1.0,98.66799999999999,M,37.565,M,97.1,2006*67,37.23227312553333,137.02485442321665,679624.1916623492,4122560.563675455
628,[2021-02-22 14:52:29.800] $GNGGA,55229.2,3713.936386959,N,13701.491265788001,E,4,14,1.0,98.669,M,37.565,M,97.2,2006*68,37.23227311598333,137.02485442980003,679624.1922690928,4122560.5626283176
629,[2021-02-22 14:52:29.894] $GNGGA,55229.3,3713.93638727,N,13701.49127002,E,4,14,1.0,98.664,M,37.565,M,97.3,2006*65,37.23227312116667,137.02485450033333,679624.1985144808,4122560.563337304
630,[2021-02-22 14:52:30.019] $GNGGA,55229.4,3713.936387667,N,13701.491264876002,E,4,14,1.0,98.665,M,37.565,M,97.4,2006*68,37.23227312778333,137.02485441460004,679624.1908925464,4122560.563908755
631,[2021-02-22 14:52:30.097] $GNGGA,55229.5,3713.936387775,N,13701.491264111999,E,4,14,1.0,98.665,M,37.565,M,97.5,2006*61,37.232273129583334,137.02485440186666,679624.189758572,4122560.5640843106
632,[2021-02-22 14:52:30.191] $GNGGA,55229.6,3713.936387026,N,13701.491263102,E,4,14,1.0,98.66799999999999,M,37.565,M,97.6,2006*6B,37.2322731171,137.02485438503334,679624.1882947545,4122560.562667258
633,[2021-02-22 14:52:30.300] $GNGGA,55229.7,3713.936387028,N,13701.49126335,E,4,14,1.0,98.66799999999999,M,37.565,M,97.7,2006*60,37.23227311713333,137.0248543891667,679624.1886613867,4122560.5626788004
634,[2021-02-22 14:52:30.425] $GNGGA,55229.8,3713.9363862659998,N,13701.491264196002,E,4,14,1.0,98.66799999999999,M,37.565,M,97.8,2006*66,37.23227310443333,137.02485440326672,679624.1899424788,4122560.5612964155
635,[2021-02-22 14:52:30.488] $GNGGA,55229.9,3713.936387609,N,13701.491264013,E,4,14,1.0,98.666,M,37.565,M,97.9,2006*68,37.23227312681667,137.02485440021667,679624.1896187518,4122560.563774199
636,[2021-02-22 14:52:30.597] $GNGGA,55230.0,3713.936387456,N,13701.491263057,E,4,14,1.0,98.667,M,37.565,M,98.0,2006*61,37.23227312426666,137.02485438428332,679624.1882112044,4122560.563461021
637,[2021-02-22 14:52:30.691] $GNGGA,55230.1,3713.9363878209997,N,13701.491261911002,E,4,14,1.0,98.67,M,37.565,M,98.1,2006*62,37.232273130349995,137.02485436518336,679624.1865022227,4122560.564099756
638,[2021-02-22 14:52:30.816] $GNGGA,55230.2,3713.936389849,N,13701.491259572,E,4,14,1.0,98.671,M,37.565,M,98.2,2006*61,37.23227316415001,137.0248543262,679624.1829634078,4122560.5677760975
639,[2021-02-22 14:52:30.894] $GNGGA,55230.3,3713.936390865,N,13701.491257872,E,4,14,1.0,98.676,M,37.565,M,98.3,2006*63,37.23227318108333,137.02485429786665,679624.180409491,4122560.569601184
640,[2021-02-22 14:52:30.988] $GNGGA,55230.4,3713.9363919840002,N,13701.491257926002,E,4,14,1.0,98.675,M,37.565,M,98.4,2006*6F,37.232273199733335,137.0248542987667,679624.1804450763,4122560.5716722286
641,[2021-02-22 14:52:31.097] $GNGGA,55230.5,3713.9363923859996,N,13701.491256972,E,4,14,1.0,98.671,M,37.565,M,98.5,2006*60,37.23227320643333,137.02485428286667,679624.1790185288,4122560.5723854587
642,[2021-02-22 14:52:31.191] $GNGGA,55230.6,3713.936392498,N,13701.491254855,E,4,14,1.0,98.675,M,37.565,M,98.6,2006*6A,37.23227320829999,137.02485424758333,679624.1758837719,4122560.5725256153
643,[2021-02-22 14:52:31.316] $GNGGA,55230.7,3713.936393016,N,13701.491253401999,E,4,14,1.0,98.67200000000001,M,37.565,M,98.7,2006*67,37.23227321693332,137.02485422336667,679624.1737147858,4122560.573437578
644,[2021-02-22 14:52:31.394] $GNGGA,55230.8,3713.936392572,N,13701.491253443999,E,4,14,1.0,98.67,M,37.565,M,98.8,2006*61,37.23227320953333,137.02485422406664,679624.1737944516,4122560.57261783
645,[2021-02-22 14:52:31.488] $GNGGA,55230.9,3713.936391492,N,13701.491254912,E,4,14,1.0,98.67,M,37.565,M,98.9,2006*64,37.23227319153333,137.02485424853333,679624.1760078513,4122560.5706670512
646,[2021-02-22 14:52:31.597] $GNGGA,55231.0,3713.936390393,N,13701.491255382,E,4,14,1.0,98.67200000000001,M,37.565,M,99.0,2006*63,37.23227317321666,137.02485425636664,679624.1767462941,4122560.5686495663
647,[2021-02-22 14:52:31.691] $GNGGA,55231.1,3713.9363900559997,N,13701.491257135,E,4,14,1.0,98.66799999999999,M,37.565,M,99.1,2006*6E,37.2322731676,137.02485428558336,679624.1793517236,4122560.5680818115
648,[2021-02-22 14:52:31.816] $GNGGA,55231.2,3713.936390555,N,13701.491258203001,E,4,14,1.0,98.663,M,37.565,M,99.2,2006*6A,37.23227317591667,137.02485430338334,679624.1809111927,4122560.5690383804
649,[2021-02-22 14:52:31.894] $GNGGA,55231.3,3713.936390073,N,13701.491258026,E,4,14,1.0,98.666,M,37.565,M,99.3,2006*6B,37.23227316788333,137.02485430043336,679624.1806685391,4122560.568141431
650,[2021-02-22 14:52:31.988] $GNGGA,55231.4,3713.9363907059997,N,13701.491258116,E,4,14,1.0,98.667,M,37.565,M,99.4,2006*6D,37.232273178433324,137.02485430193337,679624.1807765779,4122560.5693148673
651,[2021-02-22 14:52:32.097] $GNGGA,55231.5,3713.936391779,N,13701.491259567,E,4,14,1.0,98.664,M,37.565,M,99.5,2006*64,37.23227319631667,137.02485432611664,679624.1828796617,4122560.571345035
652,[2021-02-22 14:52:32.191] $GNGGA,55231.6,3713.9363918709996,N,13701.49125946,E,4,14,1.0,98.666,M,37.565,M,99.6,2006*67,37.23227319784999,137.02485432433332,679624.1827178086,4122560.5715117813
653,[2021-02-22 14:52:32.316] $GNGGA,55231.7,3713.936392625,N,13701.491258752,E,4,14,1.0,98.662,M,37.565,M,99.7,2006*6C,37.232273210416665,137.02485431253334,679624.1816410904,4122560.572883739
654,[2021-02-22 14:52:32.394] $GNGGA,55231.8,3713.9363924609997,N,13701.491258973001,E,4,14,1.0,98.665,M,37.565,M,99.8,2006*64,37.23227320768333,137.0248543162167,679624.1819743648,4122560.572587448
655,[2021-02-22 14:52:32.488] $GNGGA,55231.9,3713.9363922320003,N,13701.491258663998,E,4,14,1.0,98.667,M,37.565,M,99.9,2006*6F,37.23227320386667,137.02485431106663,679624.1815265103,4122560.572154192
656,[2021-02-22 14:52:32.597] $GNGGA,55232.0,3713.936391832,N,13701.491258692,E,4,14,1.0,98.665,M,37.565,M,100.0,2006*5F,37.2322731972,137.02485431153332,679624.1815837395,4122560.571415367
657,[2021-02-22 14:52:32.691] $GNGGA,55232.1,3713.936392285,N,13701.491259078,E,4,14,1.0,98.663,M,37.565,M,100.1,2006*5F,37.232273204749994,137.02485431796666,679624.1821365814,4122560.572265297
658,[2021-02-22 14:52:32.816] $GNGGA,55232.2,3713.9363921070003,N,13701.491259478,E,4,14,1.0,98.664,M,37.565,M,100.2,2006*55,37.232273201783336,137.0248543246333,679624.1827350877,4122560.57194878
659,[2021-02-22 14:52:32.894] $GNGGA,55232.3,3713.936392212,N,13701.491259277,E,4,14,1.0,98.663,M,37.565,M,100.3,2006*5C,37.23227320353333,137.02485432128333,679624.1824337242,4122560.572136596
660,[2021-02-22 14:52:32.988] $GNGGA,55232.4,3713.93639075,N,13701.491257701999,E,4,14,1.0,98.671,M,37.565,M,100.4,2006*57,37.23227317916666,137.02485429503332,679624.1801626673,4122560.5693831407
661,[2021-02-22 14:52:33.097] $GNGGA,55232.5,3713.93639105,N,13701.491258111,E,4,14,1.0,98.667,M,37.565,M,100.5,2006*5D,37.23227318416667,137.02485430184998,679624.1807555719,4122560.5699508586
662,[2021-02-22 14:52:33.191] $GNGGA,55232.6,3713.936391455,N,13701.491259588,E,4,14,1.0,98.665,M,37.565,M,100.6,2006*5B,37.23227319091666,137.02485432646665,679624.1829235319,4122560.5707465326
663,[2021-02-22 14:52:33.316] $GNGGA,55232.7,3713.936393412,N,13701.491263344,E,4,14,1.0,98.666,M,37.565,M,100.7,2006*56,37.23227322353333,137.02485438906666,679624.1883999667,4122560.5744843655
664,[2021-02-22 14:52:33.394] $GNGGA,55232.8,3713.9363930120003,N,13701.491259771,E,4,14,1.0,98.665,M,37.565,M,100.8,2006*5A,37.23227321686667,137.02485432951667,679624.1831325359,4122560.57363164
665,[2021-02-22 14:52:33.488] $GNGGA,55232.9,3713.936392604,N,13701.491260047,E,4,14,1.0,98.662,M,37.565,M,100.9,2006*55,37.232273210066666,137.02485433411664,679624.183556784,4122560.5728858663
666,[2021-02-22 14:52:33.597] $GNGGA,55233.0,3713.936392142,N,13701.491263586999,E,4,14,1.0,98.663,M,37.565,M,101.0,2006*5B,37.23227320236666,137.02485439311664,679624.1888095203,4122560.5721434755
667,[2021-02-22 14:52:33.722] $GNGGA,55233.1,3713.936390495,N,13701.491259867,E,4,14,1.0,98.665,M,37.565,M,101.1,2006*5A,37.23227317491667,137.02485433111667,679624.1833740567,4122560.5689800573
668,[2021-02-22 14:52:33.800] $GNGGA,55233.2,3713.93639051,N,13701.491259651999,E,4,14,1.0,98.666,M,37.565,M,101.2,2006*5D,37.23227317516666,137.02485432753332,679624.1830555506,4122560.5690009957
669,[2021-02-22 14:52:33.894] $GNGGA,55233.3,3713.936391224,N,13701.491259568,E,4,14,1.0,98.667,M,37.565,M,101.3,2006*57,37.23227318706667,137.02485432613332,679624.1829030977,4122560.570318719
670,[2021-02-22 14:52:34.003] $GNGGA,55233.4,3713.936392102,N,13701.491259918,E,4,14,1.0,98.665,M,37.565,M,101.4,2006*5A,37.232273201699996,137.02485433196668,679624.1833858993,4122560.57195345
671,[2021-02-22 14:52:34.112] $GNGGA,55233.5,3713.936392403,N,13701.491259438999,E,4,14,1.0,98.667,M,37.565,M,101.5,2006*52,37.23227320671667,137.0248543239833,679624.1826657102,4122560.5724949315
672,[2021-02-22 14:52:34.191] $GNGGA,55233.6,3713.9363924390004,N,13701.491259522,E,4,14,1.0,98.669,M,37.565,M,101.6,2006*5E,37.23227320731667,137.02485432536665,679624.1827870153,4122560.572564131
673,[2021-02-22 14:52:34.300] $GNGGA,55233.7,3713.936391659,N,13701.491259851002,E,4,14,1.0,98.66799999999999,M,37.565,M,101.7,2006*51,37.23227319431667,137.02485433085005,679624.1833043569,4122560.571132104
674,[2021-02-22 14:52:34.394] $GNGGA,55233.8,3713.936391604,N,13701.491259533,E,4,14,1.0,98.66799999999999,M,37.565,M,101.8,2006*50,37.232273193400005,137.02485432555,679624.1828363138,4122560.5710203364
675,[2021-02-22 14:52:34.519] $GNGGA,55233.9,3713.9363913429997,N,13701.491259612,E,4,14,1.0,98.66799999999999,M,37.565,M,101.9,2006*56,37.23227318904999,137.02485432686663,679624.182963449,4122560.570540173
676,[2021-02-22 14:52:34.597] $GNGGA,55234.0,3713.936392292,N,13701.491259542,E,4,14,1.0,98.66799999999999,M,37.565,M,102.0,2006*5A,37.23227320486667,137.02485432569998,679624.1828224027,4122560.57229292
677,[2021-02-22 14:52:34.691] $GNGGA,55234.1,3713.9363938990004,N,13701.491264696999,E,4,14,1.0,98.663,M,37.565,M,102.1,2006*54,37.232273231650005,137.02485441161662,679624.1903813259,4122560.575427757
678,[2021-02-22 14:52:34.800] $GNGGA,55234.2,3713.9363934109997,N,13701.491261623001,E,4,14,1.0,98.664,M,37.565,M,102.2,2006*55,37.23227322351666,137.02485436038336,679624.1858552349,4122560.5744280787
679,[2021-02-22 14:52:34.925] $GNGGA,55234.3,3713.9363943609997,N,13701.491265848,E,4,14,1.0,98.662,M,37.565,M,102.3,2006*53,37.232273239349986,137.0248544308,679624.1920649924,4122560.576318526
680,[2021-02-22 14:52:34.987] $GNGGA,55234.4,3713.9363932379997,N,13701.491265879,E,4,14,1.0,98.662,M,37.565,M,102.4,2006*5B,37.23227322063333,137.02485443131667,679624.1921552585,4122560.5742427763
681,[2021-02-22 14:52:35.097] $GNGGA,55234.5,3713.936393388,N,13701.491265225,E,4,14,1.0,98.663,M,37.565,M,102.5,2006*53,37.23227322313333,137.0248544204167,679624.1911822812,4122560.5744994804
682,[2021-02-22 14:52:35.190] $GNGGA,55234.6,3713.936391829,N,13701.491259908998,E,4,14,1.0,98.667,M,37.565,M,102.6,2006*5F,37.23227319715,137.02485433181667,679624.1833833891,4122560.5714483154
683,[2021-02-22 14:52:35.300] $GNGGA,55234.7,3713.9363931690004,N,13701.491261016,E,4,14,1.0,98.664,M,37.565,M,102.7,2006*5F,37.232273219483346,137.02485435026665,679624.1849672571,4122560.573961357
684,[2021-02-22 14:52:35.409] $GNGGA,55234.8,3713.936393372,N,13701.491263339,E,4,14,1.0,98.664,M,37.565,M,102.8,2006*5B,37.23227322286667,137.02485438898333,679624.188394156,4122560.5744102364
685,[2021-02-22 14:52:35.487] $GNGGA,55234.9,3713.936392198,N,13701.491260576002,E,4,14,1.0,98.663,M,37.565,M,102.9,2006*55,37.2322732033,137.0248543429334,679624.1843550641,4122560.572151794
686,[2021-02-22 14:52:35.597] $GNGGA,55235.0,3713.93639309,N,13701.491264045,E,4,14,1.0,98.662,M,37.565,M,103.0,2006*5D,37.23227321816666,137.02485440075,679624.1894492473,4122560.573911072
687,[2021-02-22 14:52:35.690] $GNGGA,55235.1,3713.936393725,N,13701.491262257,E,4,14,1.0,98.65899999999999,M,37.565,M,103.1,2006*5B,37.23227322875,137.02485437094998,679624.1867802801,4122560.575028805
688,[2021-02-22 14:52:35.800] $GNGGA,55235.2,3713.936394296,N,13701.491265896,E,4,14,1.0,98.65899999999999,M,37.565,M,103.2,2006*51,37.23227323826666,137.02485443160003,679624.1921385438,4122560.576199843
689,[2021-02-22 14:52:35.909] $GNGGA,55235.3,3713.93639474,N,13701.491266087,E,4,14,1.0,98.655,M,37.565,M,103.3,2006*58,37.23227324566667,137.0248544347833,679624.1924033967,4122560.5770269632
690,[2021-02-22 14:52:35.987] $GNGGA,55235.4,3713.936394948,N,13701.491265367,E,4,14,1.0,98.65799999999999,M,37.565,M,103.4,2006*5D,37.232273249133335,137.02485442278333,679624.1913305366,4122560.577388837
691,[2021-02-22 14:52:36.097] $GNGGA,55235.5,3713.936395238,N,13701.491265716,E,4,14,1.0,98.65700000000001,M,37.565,M,103.5,2006*5D,37.23227325396667,137.0248544286,679624.191835118,4122560.577936165
692,[2021-02-22 14:52:36.190] $GNGGA,55235.6,3713.93639531,N,13701.491261495,E,4,14,1.0,98.66,M,37.565,M,103.6,2006*5E,37.23227325516667,137.02485435825002,679624.1855908436,4122560.5779357995
693,[2021-02-22 14:52:36.300] $GNGGA,55235.7,3713.9363952870003,N,13701.491260993998,E,4,14,1.0,98.66,M,37.565,M,103.7,2006*5C,37.232273254783344,137.02485434989998,679624.1848509398,4122560.5778774195
694,[2021-02-22 14:52:36.409] $GNGGA,55235.8,3713.936395537,N,13701.491262138,E,4,14,1.0,98.65899999999999,M,37.565,M,103.8,2006*56,37.23227325895,137.0248543689667,679624.1865326425,4122560.5783759225
695,[2021-02-22 14:52:36.487] $GNGGA,55235.9,3713.9363956409998,N,13701.491261964,E,4,14,1.0,98.65799999999999,M,37.565,M,103.9,2006*57,37.23227326068332,137.02485436606668,679624.1862712409,4122560.5785627416
696,[2021-02-22 14:52:36.597] $GNGGA,55236.0,3713.9363949709996,N,13701.491261072,E,4,14,1.0,98.66,M,37.565,M,104.0,2006*5B,37.23227324951666,137.0248543512,679624.1849787766,4122560.5772955143
697,[2021-02-22 14:52:36.690] $GNGGA,55236.1,3713.9363956,N,13701.491262454,E,4,14,1.0,98.656,M,37.565,M,104.1,2006*55,37.23227326000001,137.0248543742333,679624.1869974027,4122560.578502422
698,[2021-02-22 14:52:36.800] $GNGGA,55236.2,3713.936395307,N,13701.491261116002,E,4,14,1.0,98.65799999999999,M,37.565,M,104.2,2006*59,37.232273255116674,137.02485435193336,679624.1850305505,4122560.577918263
699,[2021-02-22 14:52:36.909] $GNGGA,55236.3,3713.9363943840003,N,13701.491260896999,E,4,14,1.0,98.66,M,37.565,M,104.3,2006*59,37.23227323973334,137.0248543482833,679624.1847432293,4122560.576204458
700,[2021-02-22 14:52:36.987] $GNGGA,55236.4,3713.9363952159997,N,13701.491261156001,E,4,14,1.0,98.65799999999999,M,37.565,M,104.4,2006*5C,37.23227325359999,137.02485435260004,679624.185093297,4122560.5777512435
701,[2021-02-22 14:52:37.097] $GNGGA,55236.5,3713.936393911,N,13701.491260625,E,4,14,1.0,98.661,M,37.565,M,104.5,2006*5E,37.232273231849994,137.02485434374998,679624.1843597472,4122560.5753211454
702,[2021-02-22 14:52:37.190] $GNGGA,55236.6,3713.9363933679997,N,13701.49125813,E,4,14,1.0,98.662,M,37.565,M,104.6,2006*51,37.23227322279999,137.02485430216666,679624.1806919704,4122560.574238073
703,[2021-02-22 14:52:37.300] $GNGGA,55236.7,3713.93639311,N,13701.491258213999,E,4,14,1.0,98.662,M,37.565,M,104.7,2006*59,37.2322732185,137.02485430356666,679624.1808263822,4122560.573763618
704,[2021-02-22 14:52:37.425] $GNGGA,55236.8,3713.93639378,N,13701.491259026001,E,4,14,1.0,98.661,M,37.565,M,104.8,2006*57,37.23227322966667,137.0248543171,679624.1820005508,4122560.575028315
705,[2021-02-22 14:52:37.487] $GNGGA,55236.9,3713.936393431,N,13701.491258974,E,4,14,1.0,98.661,M,37.565,M,104.9,2006*51,37.232273223849994,137.02485431623333,679624.1819374668,4122560.5743812732
706,[2021-02-22 14:52:37.597] $GNGGA,55237.0,3713.936393943,N,13701.491263611999,E,4,14,1.0,98.66,M,37.565,M,105.0,2006*5F,37.23227323238333,137.0248543935333,679624.1887752402,4122560.5754748057
707,[2021-02-22 14:52:37.690] $GNGGA,55237.1,3713.936393651,N,13701.491260228999,E,4,14,1.0,98.65899999999999,M,37.565,M,105.1,2006*56,37.23227322751667,137.02485433715,679624.1837844843,4122560.574827812
708,[2021-02-22 14:52:37.815] $GNGGA,55237.2,3713.93639321,N,13701.491259545,E,4,14,1.0,98.662,M,37.565,M,105.2,2006*58,37.23227322016666,137.02485432575,679624.1827905257,4122560.5739906463
709,[2021-02-22 14:52:37.893] $GNGGA,55237.3,3713.936394476,N,13701.49126349,E,4,14,1.0,98.65899999999999,M,37.565,M,105.3,2006*51,37.23227324126667,137.02485439149999,679624.1885737601,4122560.5764566087
710,[2021-02-22 14:52:37.987] $GNGGA,55237.4,3713.9363937079997,N,13701.491264311999,E,4,14,1.0,98.65899999999999,M,37.565,M,105.4,2006*56,37.23227322846667,137.0248544052,679624.1898196028,4122560.575062368
711,[2021-02-22 14:52:38.097] $GNGGA,55237.5,3713.936394275,N,13701.49126226,E,4,14,1.0,98.65799999999999,M,37.565,M,105.5,2006*5D,37.23227323791667,137.024854371,679624.1867629609,4122560.5760459993
712,[2021-02-22 14:52:38.222] $GNGGA,55237.6,3713.936395052,N,13701.49126459,E,4,14,1.0,98.65700000000001,M,37.565,M,105.6,2006*5A,37.23227325086667,137.02485440983335,679624.1901775054,4122560.5775565845
713,[2021-02-22 14:52:38.300] $GNGGA,55237.7,3713.9363946309995,N,13701.491263771999,E,4,14,1.0,98.655,M,37.565,M,105.7,2006*53,37.232273243849995,137.02485439619997,679624.1889846104,4122560.5767521653
714,[2021-02-22 14:52:38.393] $GNGGA,55237.8,3713.936394067,N,13701.491263122,E,4,14,1.0,98.65700000000001,M,37.565,M,105.8,2006*57,37.232273234450005,137.02485438536667,679624.1880457948,4122560.575688618
715,[2021-02-22 14:52:38.503] $GNGGA,55237.9,3713.936392982,N,13701.491260617,E,4,14,1.0,98.65899999999999,M,37.565,M,105.9,2006*5F,37.232273216366664,137.02485434361668,679624.1843846707,4122560.5736029204
716,[2021-02-22 14:52:38.612] $GNGGA,55238.0,3713.936393535,N,13701.491261736,E,4,14,1.0,98.656,M,37.565,M,106.0,2006*5E,37.23227322558334,137.0248543622667,679624.1860174171,4122560.574660964
717,[2021-02-22 14:52:38.690] $GNGGA,55238.1,3713.936393967,N,13701.491263905,E,4,14,1.0,98.656,M,37.565,M,106.1,2006*59,37.23227323278334,137.0248543984167,679624.1892075441,4122560.5755284578
718,[2021-02-22 14:52:38.800] $GNGGA,55238.2,3713.936393472,N,13701.49126341,E,4,14,1.0,98.65899999999999,M,37.565,M,106.2,2006*56,37.23227322453334,137.02485439016667,679624.188495186,4122560.57459741
719,[2021-02-22 14:52:38.893] $GNGGA,55238.3,3713.936393034,N,13701.491262218,E,4,14,1.0,98.66,M,37.565,M,106.3,2006*55,37.23227321723334,137.02485437029998,679624.1867499471,4122560.573749725
720,[2021-02-22 14:52:39.018] $GNGGA,55238.4,3713.9363940109997,N,13701.491264305,E,4,14,1.0,98.656,M,37.565,M,106.4,2006*5B,37.23227323351666,137.02485440508332,679624.1897972639,4122560.5756224757
721,[2021-02-22 14:52:39.097] $GNGGA,55238.5,3713.936394153,N,13701.491262346,E,4,14,1.0,98.65299999999999,M,37.565,M,106.5,2006*58,37.23227323588333,137.0248543724333,679624.1868949498,4122560.5758231087
722,[2021-02-22 14:52:39.190] $GNGGA,55238.6,3713.9363939940004,N,13701.491261783001,E,4,14,1.0,98.65700000000001,M,37.565,M,106.6,2006*56,37.23227323323334,137.02485436305003,679624.1860687566,4122560.5755112674
723,[2021-02-22 14:52:39.300] $GNGGA,55238.7,3713.936393292,N,13701.491260801002,E,4,14,1.0,98.65799999999999,M,37.565,M,106.7,2006*50,37.23227322153333,137.02485434668336,679624.1846444833,4122560.574182016
724,[2021-02-22 14:52:39.393] $GNGGA,55238.8,3713.9363944829997,N,13701.49126236,E,4,14,1.0,98.652,M,37.565,M,106.8,2006*55,37.232273241383325,137.02485437266665,679624.1869025959,4122560.5764338095
725,[2021-02-22 14:52:39.518] $GNGGA,55238.9,3713.936394399,N,13701.491261571999,E,4,14,1.0,98.656,M,37.565,M,106.9,2006*5B,37.23227323998333,137.02485435953332,679624.1857407348,4122560.576253546
726,[2021-02-22 14:52:39.596] $GNGGA,55239.0,3713.936393861,N,13701.491260646999,E,4,14,1.0,98.65899999999999,M,37.565,M,107.0,2006*5B,37.23227323101666,137.02485434411662,679624.1843942523,4122560.5752293803
727,[2021-02-22 14:52:39.690] $GNGGA,55239.1,3713.936395047,N,13701.491261972,E,4,14,1.0,98.655,M,37.565,M,107.1,2006*55,37.23227325078333,137.0248543662,679624.1863065677,4122560.5774645284
728,[2021-02-22 14:52:39.800] $GNGGA,55239.2,3713.9363953509996,N,13701.491261918998,E,4,14,1.0,98.655,M,37.565,M,107.2,2006*5C,37.23227325585,137.02485436531663,679624.1862161687,4122560.578025029
729,[2021-02-22 14:52:39.893] $GNGGA,55239.3,3713.9363943820003,N,13701.491262428,E,4,14,1.0,98.65799999999999,M,37.565,M,107.3,2006*52,37.2322732397,137.02485437380003,679624.1870071437,4122560.576249187
730,[2021-02-22 14:52:40.018] $GNGGA,55239.4,3713.936393894,N,13701.491262454,E,4,14,1.0,98.656,M,37.565,M,107.4,2006*5C,37.232273231566666,137.0248543742333,679624.18706489,4122560.5753475633
731,[2021-02-22 14:52:40.096] $GNGGA,55239.5,3713.9363938429997,N,13701.491262467,E,4,14,1.0,98.655,M,37.565,M,107.5,2006*55,37.23227323071666,137.02485437444997,679624.1870861296,4122560.57525366
732,[2021-02-22 14:52:40.190] $GNGGA,55239.6,3713.936392565,N,13701.491262212,E,4,14,1.0,98.65899999999999,M,37.565,M,107.6,2006*55,37.23227320941667,137.0248543702,679624.1867596286,4122560.5728822253
733,[2021-02-22 14:52:40.299] $GNGGA,55239.7,3713.9363925079997,N,13701.491263651002,E,4,14,1.0,98.65700000000001,M,37.565,M,107.7,2006*52,37.232273208466665,137.02485439418336,679624.1888896821,4122560.572822334
734,[2021-02-22 14:52:40.393] $GNGGA,55239.8,3713.9363923990004,N,13701.491261443998,E,4,14,1.0,98.65700000000001,M,37.565,M,107.8,2006*58,37.23227320665001,137.0248543574,679624.1856305834,4122560.5725509548
735,[2021-02-22 14:52:40.518] $GNGGA,55239.9,3713.936393627,N,13701.491262824,E,4,14,1.0,98.655,M,37.565,M,107.9,2006*52,37.23227322711667,137.02485438040003,679624.1876225611,4122560.5748655116
736,[2021-02-22 14:52:40.596] $GNGGA,55240.0,3713.936393682,N,13701.491262026,E,4,14,1.0,98.655,M,37.565,M,108.0,2006*56,37.23227322803333,137.02485436709998,679624.1864404106,4122560.5749419793
737,[2021-02-22 14:52:40.690] $GNGGA,55240.1,3713.936394556,N,13701.491263581001,E,4,14,1.0,98.65299999999999,M,37.565,M,108.1,2006*54,37.2322732426,137.0248543930167,679624.1887051603,4122560.5766074304
738,[2021-02-22 14:52:40.799] $GNGGA,55240.2,3713.9363940820003,N,13701.491262484,E,4,14,1.0,98.65700000000001,M,37.565,M,108.2,2006*59,37.23227323470001,137.02485437473334,679624.1871018158,4122560.5756961764
739,[2021-02-22 14:52:40.893] $GNGGA,55240.3,3713.9363928420003,N,13701.491259174,E,4,14,1.0,98.66,M,37.565,M,108.3,2006*5D,37.23227321403334,137.02485431956666,679624.1822564983,4122560.57329838
740,[2021-02-22 14:52:41.018] $GNGGA,55240.4,3713.9363944640004,N,13701.491263289,E,4,14,1.0,98.65100000000001,M,37.565,M,108.4,2006*59,37.23227324106667,137.02485438815,679624.1882770271,4122560.576428061
741,[2021-02-22 14:52:41.096] $GNGGA,55240.5,3713.936394288,N,13701.491262921001,E,4,14,1.0,98.65100000000001,M,37.565,M,108.5,2006*55,37.23227323813334,137.02485438201668,679624.1877398425,4122560.5760909477
742,[2021-02-22 14:52:41.190] $GNGGA,55240.6,3713.9363951459995,N,13701.491263802,E,4,14,1.0,98.654,M,37.565,M,108.6,2006*51,37.23227325243333,137.02485439670002,679624.1890086028,4122560.577705491
743,[2021-02-22 14:52:41.299] $GNGGA,55240.7,3713.936395442,N,13701.491263781001,E,4,14,1.0,98.654,M,37.565,M,108.7,2006*54,37.232273257366664,137.02485439635,679624.1889658403,4122560.5782522103
744,[2021-02-22 14:52:41.393] $GNGGA,55240.8,3713.9363952070003,N,13701.491262133,E,4,14,1.0,98.65,M,37.565,M,108.8,2006*59,37.232273253449996,137.02485436888335,679624.1865383037,4122560.5777655034
745,[2021-02-22 14:52:41.518] $GNGGA,55240.9,3713.9363948940004,N,13701.491262835,E,4,14,1.0,98.654,M,37.565,M,108.9,2006*53,37.232273248233334,137.02485438058335,679624.1875887047,4122560.5772088864
746,[2021-02-22 14:52:41.596] $GNGGA,55241.0,3713.9363943820003,N,13701.491260941999,E,4,14,1.0,98.652,M,37.565,M,109.0,2006*5A,37.2322732397,137.0248543490333,679624.1848098482,4122560.576202182
747,[2021-02-22 14:52:41.690] $GNGGA,55241.1,3713.9363946470003,N,13701.491261891999,E,4,14,1.0,98.649,M,37.565,M,109.1,2006*51,37.232273244116676,137.02485436486666,679624.1862040955,4122560.5767222894
748,[2021-02-22 14:52:41.799] $GNGGA,55241.2,3713.9363940959997,N,13701.491259654,E,4,14,1.0,98.655,M,37.565,M,109.2,2006*59,37.232273234933324,137.02485432756666,679624.1829166497,4122560.5756325484
749,[2021-02-22 14:52:41.893] $GNGGA,55241.3,3713.9363951220002,N,13701.491261995,E,4,14,1.0,98.654,M,37.565,M,109.3,2006*5E,37.232273252033345,137.02485436658333,679624.1863376088,4122560.577603952
750,[2021-02-22 14:52:42.018] $GNGGA,55241.4,3713.93639546,N,13701.491263765,E,4,14,1.0,98.65299999999999,M,37.565,M,109.4,2006*59,37.23227325766667,137.0248543960833,679624.1889414659,4122560.578284992
751,[2021-02-22 14:52:42.096] $GNGGA,55241.5,3713.9363953370002,N,13701.491263875,E,4,14,1.0,98.65299999999999,M,37.565,M,109.5,2006*52,37.23227325561667,137.02485439791664,679624.1891089834,4122560.5780610107
752,[2021-02-22 14:52:42.190] $GNGGA,55241.6,3713.936395183,N,13701.49126409,E,4,14,1.0,98.65299999999999,M,37.565,M,109.6,2006*5B,37.232273253049996,137.02485440150002,679624.1894329926,4122560.577783022
753,[2021-02-22 14:52:42.299] $GNGGA,55241.7,3713.936394444,N,13701.49126287,E,4,14,1.0,98.65899999999999,M,37.565,M,109.7,2006*5E,37.232273240733335,137.0248543811667,679624.1876582622,4122560.5763778207
754,[2021-02-22 14:52:42.409] $GNGGA,55241.8,3713.936395407,N,13701.491263913,E,4,14,1.0,98.656,M,37.565,M,109.8,2006*52,37.23227325678333,137.02485439855,679624.189162406,4122560.578191661
755,[2021-02-22 14:52:42.487] $GNGGA,55241.9,3713.936395038,N,13701.491263881999,E,4,14,1.0,98.654,M,37.565,M,109.9,2006*51,37.23227325063333,137.0248543980333,679624.189131164,4122560.5775082987
756,[2021-02-22 14:52:42.596] $GNGGA,55242.0,3713.936396124,N,13701.491263513,E,4,14,1.0,98.655,M,37.565,M,110.0,2006*51,37.23227326873334,137.02485439188334,679624.1885425796,4122560.579504938
757,[2021-02-22 14:52:42.690] $GNGGA,55242.1,3713.936396173,N,13701.491261983001,E,4,14,1.0,98.655,M,37.565,M,110.1,2006*54,37.23227326955,137.02485436638332,679624.1862782869,4122560.579547156
758,[2021-02-22 14:52:42.815] $GNGGA,55242.2,3713.936395747,N,13701.491261573,E,4,14,1.0,98.654,M,37.565,M,110.2,2006*54,37.23227326245001,137.02485435955,679624.1856888903,4122560.5787463984
759,[2021-02-22 14:52:42.893] $GNGGA,55242.3,3713.9363960190003,N,13701.491263758999,E,4,14,1.0,98.652,M,37.565,M,110.3,2006*55,37.23227326698334,137.0248543959833,679624.1889104807,4122560.5793185458
760,[2021-02-22 14:52:42.987] $GNGGA,55242.4,3713.93639611,N,13701.491265323,E,4,14,1.0,98.652,M,37.565,M,110.4,2006*52,37.232273268499995,137.02485442205,679624.1912195082,4122560.5795362983
761,[2021-02-22 14:52:43.096] $GNGGA,55242.5,3713.9363951590003,N,13701.491264251,E,4,14,1.0,98.649,M,37.565,M,110.5,2006*53,37.23227325265001,137.02485440418334,679624.1896720052,4122560.577743734
762,[2021-02-22 14:52:43.206] $GNGGA,55242.6,3713.936395485,N,13701.491264642,E,4,14,1.0,98.648,M,37.565,M,110.6,2006*50,37.23227325808333,137.0248544107,679624.1902372643,4122560.5783589636
763,[2021-02-22 14:52:43.284] $GNGGA,55242.7,3713.936395451,N,13701.491265906001,E,4,14,1.0,98.65,M,37.565,M,110.7,2006*5E,37.232273257516674,137.02485443176667,679624.1921076371,4122560.578336071
764,[2021-02-22 14:52:43.393] $GNGGA,55242.8,3713.9363951440005,N,13701.491264564,E,4,14,1.0,98.652,M,37.565,M,110.8,2006*54,37.232273252400006,137.0248544094,679624.1901354198,4122560.5777258957
765,[2021-02-22 14:52:43.487] $GNGGA,55242.9,3713.936395817,N,13701.491267741001,E,4,14,1.0,98.646,M,37.565,M,110.9,2006*58,37.23227326361667,137.02485446235005,679624.1948065052,4122560.5790709453
766,[2021-02-22 14:52:43.612] $GNGGA,55243.0,3713.9363955629997,N,13701.49126749,E,4,14,1.0,98.648,M,37.565,M,111.0,2006*57,37.23227325938333,137.0248544581667,679624.1944454082,4122560.5785932913
767,[2021-02-22 14:52:43.690] $GNGGA,55243.1,3713.93639508,N,13701.491265605,E,4,14,1.0,98.65,M,37.565,M,111.1,2006*5A,37.232273251333325,137.02485442675,679624.191677238,4122560.577640468
768,[2021-02-22 14:52:43.799] $GNGGA,55243.2,3713.936394821,N,13701.491264852,E,4,14,1.0,98.648,M,37.565,M,111.2,2006*5C,37.232273247016664,137.0248544142,679624.190574051,4122560.577137689
769,[2021-02-22 14:52:43.893] $GNGGA,55243.3,3713.9363950320003,N,13701.491263954,E,4,14,1.0,98.646,M,37.565,M,111.3,2006*59,37.23227325053334,137.02485439923333,679624.1892378659,4122560.5774994823
770,[2021-02-22 14:52:44.002] $GNGGA,55243.4,3713.9363959479997,N,13701.491265572,E,4,14,1.0,98.65,M,37.565,M,111.4,2006*54,37.23227326579999,137.0248544262,679624.1915941022,4122560.5792445918
771,[2021-02-22 14:52:44.112] $GNGGA,55243.5,3713.93639654,N,13701.491266684,E,4,14,1.0,98.647,M,37.565,M,111.5,2006*5C,37.23227327566667,137.0248544447333,679624.1932149533,4122560.5803745366
772,[2021-02-22 14:52:44.190] $GNGGA,55243.6,3713.9363977659996,N,13701.491268636,E,4,14,1.0,98.64299999999999,M,37.565,M,111.6,2006*58,37.2322732961,137.02485447726664,679624.1960528006,4122560.5827034866
773,[2021-02-22 14:52:44.299] $GNGGA,55243.7,3713.9363975190004,N,13701.491267308,E,4,14,1.0,98.647,M,37.565,M,111.7,2006*51,37.23227329198333,137.02485445513335,679624.1940989147,4122560.582204711
774,[2021-02-22 14:52:44.393] $GNGGA,55243.8,3713.936397817,N,13701.491267358999,E,4,14,1.0,98.64399999999999,M,37.565,M,111.8,2006*55,37.23227329694999,137.0248544559833,679624.1941625332,4122560.5827574073
775,[2021-02-22 14:52:44.502] $GNGGA,55243.9,3713.93639754,N,13701.491265521001,E,4,14,1.0,98.648,M,37.565,M,111.9,2006*5D,37.23227329233334,137.02485442535,679624.191455713,4122560.582187023
776,[2021-02-22 14:52:44.627] $GNGGA,55244.0,3713.936396552,N,13701.491263605,E,4,14,1.0,98.65,M,37.565,M,112.0,2006*51,37.232273275866675,137.02485439341663,679624.1886616808,4122560.5802993374
777,[2021-02-22 14:52:44.690] $GNGGA,55244.1,3713.936397105,N,13701.491264397,E,4,14,1.0,98.65,M,37.565,M,112.1,2006*5F,37.23227328508334,137.02485440661667,679624.1898109078,4122560.5813470352
778,[2021-02-22 14:52:44.799] $GNGGA,55244.2,3713.936397158,N,13701.491265473998,E,4,14,1.0,98.652,M,37.565,M,112.2,2006*5E,37.23227328596667,137.02485442456666,679624.1914013274,4122560.5814791145
779,[2021-02-22 14:52:44.893] $GNGGA,55244.3,3713.9363975909996,N,13701.491264311999,E,4,14,1.0,98.649,M,37.565,M,112.3,2006*53,37.232273293183326,137.0248544052,679624.1896659957,4122560.5822430914
780,[2021-02-22 14:52:45.002] $GNGGA,55244.4,3713.936398012,N,13701.491265221,E,4,14,1.0,98.65,M,37.565,M,112.4,2006*5A,37.232273300200006,137.02485442035,679624.1909934442,4122560.5830503893
781,[2021-02-22 14:52:45.112] $GNGGA,55244.5,3713.93639786,N,13701.491264393999,E,4,14,1.0,98.65,M,37.565,M,112.5,2006*56,37.23227329766667,137.02485440656665,679624.1897766027,4122560.5827431413
782,[2021-02-22 14:52:45.190] $GNGGA,55244.6,3713.93639781,N,13701.491263872,E,4,14,1.0,98.652,M,37.565,M,112.6,2006*57,37.232273296833334,137.02485439786668,679624.1890067229,4122560.5826341663
783,[2021-02-22 14:52:45.299] $GNGGA,55244.7,3713.936398059,N,13701.491264848999,E,4,14,1.0,98.645,M,37.565,M,112.7,2006*54,37.23227330098333,137.02485441414998,679624.1904415212,4122560.583125538
784,[2021-02-22 14:52:45.393] $GNGGA,55244.8,3713.936398328,N,13701.491266762,E,4,14,1.0,98.645,M,37.565,M,112.8,2006*55,37.23227330546666,137.02485444603332,679624.1932595582,4122560.583683502
785,[2021-02-22 14:52:45.502] $GNGGA,55244.9,3713.936398094,N,13701.491265886001,E,4,14,1.0,98.65,M,37.565,M,112.9,2006*53,37.23227330156667,137.02485443143334,679624.1919735109,4122560.583223064
786,[2021-02-22 14:52:45.612] $GNGGA,55245.0,3713.936398303,N,13701.49126622,E,4,14,1.0,98.647,M,37.565,M,113.0,2006*5D,37.23227330504999,137.02485443700002,679624.1924591173,4122560.5836201254
787,[2021-02-22 14:52:45.690] $GNGGA,55245.1,3713.936397754,N,13701.491265703,E,4,14,1.0,98.65,M,37.565,M,113.1,2006*55,37.2322732959,137.02485442838335,679624.191716366,4122560.582588522
788,[2021-02-22 14:52:45.799] $GNGGA,55245.2,3713.936398352,N,13701.491266255,E,4,14,1.0,98.652,M,37.565,M,113.2,2006*5F,37.23227330586666,137.02485443758331,679624.192508928,4122560.583711847
789,[2021-02-22 14:52:45.893] $GNGGA,55245.3,3713.936398352,N,13701.491264293001,E,4,14,1.0,98.655,M,37.565,M,113.3,2006*50,37.23227330586666,137.02485440488334,679624.1896077978,4122560.5836497885
790,[2021-02-22 14:52:46.002] $GNGGA,55245.4,3713.9363986040003,N,13701.49126525,E,4,14,1.0,98.654,M,37.565,M,113.4,2006*59,37.232273310066674,137.02485442083335,679624.1910129073,4122560.5841460763
791,[2021-02-22 14:52:46.127] $GNGGA,55245.5,3713.936398122,N,13701.491263398,E,4,14,1.0,98.65299999999999,M,37.565,M,113.5,2006*5E,37.232273302033335,137.02485438996666,679624.1882934939,4122560.5831961455
792,[2021-02-22 14:52:46.190] $GNGGA,55245.6,3713.93639732,N,13701.491262968,E,4,14,1.0,98.652,M,37.565,M,113.6,2006*54,37.232273288666676,137.0248543828,679624.1876893947,4122560.581699429
793,[2021-02-22 14:52:46.299] $GNGGA,55245.7,3713.936397483,N,13701.491263288,E,4,14,1.0,98.652,M,37.565,M,113.7,2006*5E,37.23227329138333,137.02485438813332,679624.188156118,4122560.582010981
794,[2021-02-22 14:52:46.393] $GNGGA,55245.8,3713.936397996,N,13701.491265188999,E,4,14,1.0,98.652,M,37.565,M,113.8,2006*53,37.232273299933325,137.02485441981668,679624.1909467616,4122560.5830197874
795,[2021-02-22 14:52:46.518] $GNGGA,55245.9,3713.9363978240003,N,13701.491263846001,E,4,14,1.0,98.65100000000001,M,37.565,M,113.9,2006*54,37.232273297066676,137.02485439743333,679624.1889677229,4122560.5826592343
796,[2021-02-22 14:52:46.596] $GNGGA,55246.0,3713.9363979940003,N,13701.491265473998,E,4,14,1.0,98.65,M,37.565,M,114.0,2006*50,37.2322732999,137.02485442456666,679624.1913682562,4122560.5830251053
797,[2021-02-22 14:52:46.690] $GNGGA,55246.1,3713.9363981559995,N,13701.491265722,E,4,14,1.0,98.648,M,37.565,M,114.1,2006*50,37.23227330259999,137.02485442869997,679624.1917285547,4122560.58333253
798,[2021-02-22 14:52:46.799] $GNGGA,55246.2,3713.936398258,N,13701.491267075,E,4,14,1.0,98.649,M,37.565,M,114.2,2006*5B,37.2322733043,137.02485445124998,679624.1937251484,4122560.5835639536
799,[2021-02-22 14:52:46.924] $GNGGA,55246.3,3713.936399484,N,13701.491266508001,E,4,14,1.0,98.648,M,37.565,M,114.3,2006*52,37.23227332473334,137.02485444180002,679624.1928382518,4122560.585813227
800,[2021-02-22 14:52:46.987] $GNGGA,55246.4,3713.9363995709996,N,13701.491264719,E,4,14,1.0,98.65,M,37.565,M,114.4,2006*50,37.23227332618333,137.0248544119833,679624.1901894821,4122560.585917524
801,[2021-02-22 14:52:47.096] $GNGGA,55246.5,3713.936399678,N,13701.491266148001,E,4,14,1.0,98.647,M,37.565,M,114.5,2006*5C,37.232273327966666,137.02485443580005,679624.1922982614,4122560.586160599
802,[2021-02-22 14:52:47.190] $GNGGA,55246.6,3713.9363981509996,N,13701.491264264,E,4,14,1.0,98.649,M,37.565,M,114.6,2006*50,37.23227330251666,137.02485440439997,679624.1895728648,4122560.5832771678
803,[2021-02-22 14:52:47.315] $GNGGA,55246.7,3713.936397029,N,13701.491265633,E,4,14,1.0,98.648,M,37.565,M,114.7,2006*57,37.23227328381667,137.0248544272167,679624.1916415411,4122560.581245586
804,[2021-02-22 14:52:47.393] $GNGGA,55246.8,3713.9363957709998,N,13701.491264608001,E,4,14,1.0,98.65100000000001,M,37.565,M,114.8,2006*5E,37.23227326284999,137.02485441013334,679624.1901756775,4122560.5788867786
805,[2021-02-22 14:52:47.487] $GNGGA,55246.9,3713.936396372,N,13701.49126513,E,4,14,1.0,98.65100000000001,M,37.565,M,114.9,2006*57,37.23227327286667,137.0248544188333,679624.1909237604,4122560.5800147047
806,[2021-02-22 14:52:47.596] $GNGGA,55247.0,3713.936396478,N,13701.491264219,E,4,14,1.0,98.649,M,37.565,M,115.0,2006*5A,37.232273274633336,137.02485440364998,679624.189572507,4122560.580181912
807,[2021-02-22 14:52:47.721] $GNGGA,55247.1,3713.9363971390003,N,13701.491264699,E,4,14,1.0,98.65100000000001,M,37.565,M,115.1,2006*5E,37.23227328565001,137.02485441164998,679624.1902561169,4122560.581419464
808,[2021-02-22 14:52:47.799] $GNGGA,55247.2,3713.936397937,N,13701.491263322,E,4,14,1.0,98.652,M,37.565,M,115.2,2006*59,37.232273298950005,137.02485438869996,679624.1881884311,4122560.582851628
809,[2021-02-22 14:52:47.893] $GNGGA,55247.3,3713.9363981459996,N,13701.491262448,E,4,14,1.0,98.65,M,37.565,M,115.3,2006*50,37.23227330243332,137.02485437413333,679624.1868878164,4122560.583210477
810,[2021-02-22 14:52:48.002] $GNGGA,55247.4,3713.93639895,N,13701.491263136,E,4,14,1.0,98.649,M,37.565,M,115.4,2006*5A,37.23227331583333,137.0248543856,679624.1878733295,4122560.584719056
811,[2021-02-22 14:52:48.096] $GNGGA,55247.5,3713.936398533,N,13701.491264339,E,4,14,1.0,98.65,M,37.565,M,115.5,2006*51,37.232273308883336,137.02485440565002,679624.189668656,4122560.5839859615
812,[2021-02-22 14:52:48.221] $GNGGA,55247.6,3713.936398662,N,13701.491263885,E,4,14,1.0,98.647,M,37.565,M,115.6,2006*5B,37.23227331103333,137.02485439808333,679624.1889922407,4122560.584210157
813,[2021-02-22 14:52:48.299] $GNGGA,55247.7,3713.936398507,N,13701.491264494,E,4,14,1.0,98.649,M,37.565,M,115.7,2006*5E,37.23227330845,137.0248544082333,679624.1898988715,4122560.5839427826
814,[2021-02-22 14:52:48.393] $GNGGA,55247.8,3713.936398083,N,13701.491263557,E,4,14,1.0,98.647,M,37.565,M,115.8,2006*50,37.23227330138333,137.02485439261667,679624.188530145,4122560.583129053
815,[2021-02-22 14:52:48.502] $GNGGA,55247.9,3713.936398773,N,13701.491265365,E,4,14,1.0,98.645,M,37.565,M,115.9,2006*5B,37.232273312883336,137.02485442275002,679624.191176269,4122560.5844622403
816,[2021-02-22 14:52:48.596] $GNGGA,55248.0,3713.936398325,N,13701.491265606,E,4,14,1.0,98.64399999999999,M,37.565,M,116.0,2006*51,37.23227330541667,137.02485442676667,679624.1915503457,4122560.583641389
817,[2021-02-22 14:52:48.721] $GNGGA,55248.1,3713.936398515,N,13701.491265093999,E,4,14,1.0,98.647,M,37.565,M,116.1,2006*5A,37.23227330858333,137.0248544182333,679624.1907857534,4122560.583976554
818,[2021-02-22 14:52:48.799] $GNGGA,55248.2,3713.936398829,N,13701.491265826999,E,4,14,1.0,98.645,M,37.565,M,116.2,2006*5A,37.23227331381667,137.02485443044998,679624.1918571901,4122560.5845804135
819,[2021-02-22 14:52:48.893] $GNGGA,55248.3,3713.936399139,N,13701.49126537,E,4,14,1.0,98.645,M,37.565,M,116.3,2006*5A,37.23227331898333,137.0248544228333,679624.191169179,4122560.5851392313
820,[2021-02-22 14:52:49.002] $GNGGA,55248.4,3713.936399015,N,13701.491264478,E,4,14,1.0,98.649,M,37.565,M,116.4,2006*57,37.23227331691667,137.02485440796667,679624.1898551224,4122560.5848817076
821,[2021-02-22 14:52:49.096] $GNGGA,55248.5,3713.9363986079998,N,13701.491264836,E,4,14,1.0,98.647,M,37.565,M,116.5,2006*54,37.23227331013333,137.02485441393333,679624.1904005813,4122560.5841403757
822,[2021-02-22 14:52:49.221] $GNGGA,55248.6,3713.936398213,N,13701.491264166001,E,4,14,1.0,98.649,M,37.565,M,116.6,2006*58,37.23227330355,137.02485440276666,679624.189425506,4122560.583388722
823,[2021-02-22 14:52:49.299] $GNGGA,55248.7,3713.936398785,N,13701.491265413,E,4,14,1.0,98.648,M,37.565,M,116.7,2006*55,37.23227331308334,137.02485442355,679624.1912467699,4122560.5844859495
824,[2021-02-22 14:52:49.393] $GNGGA,55248.8,3713.936398503,N,13701.491264783,E,4,14,1.0,98.65,M,37.565,M,116.8,2006*5B,37.232273308383334,137.02485441305004,679624.190326371,4122560.583944528
825,[2021-02-22 14:52:49.502] $GNGGA,55248.9,3713.936398882,N,13701.491264328999,E,4,14,1.0,98.65,M,37.565,M,116.9,2006*5B,37.2322733147,137.02485440548332,679624.1896400615,4122560.58463104
