,Format,Time,Latitude,LatType,Longitude,LonType,Status,Satellite,LevelAccuracy,Altitude(sea),M(sea),Altitude(geoid),M(geoid),DGPS use,checksum,Lat,Lon,UTM_X,UTM_Y
1117,[2021-02-22 14:53:44.451] $GPGGA,55344.0,3713.9364664000004,N,13701.490429799998,E,4,13,1.1,93.7262,M,37.55,M,2.0,0000*61,37.23227444000001,137.02484049666663,679622.9529836145,4122560.683093382
1118,[2021-02-22 14:53:44.545] $GPGGA,55344.1,3713.9364661,N,13701.490429299998,E,4,13,1.1,93.7276,M,37.55,M,2.0,0000*6B,37.232274435,137.0248404883333,679622.9522561539,4122560.6825227845
1119,[2021-02-22 14:53:44.654] $GPGGA,55344.2,3713.9364655,N,13701.490428000001,E,4,13,1.1,93.7291,M,37.55,M,2.0,0000*64,37.232274425,137.02484046666666,679622.9503576311,4122560.6813721005
1120,[2021-02-22 14:53:44.733] $GPGGA,55344.3,3713.9364658,N,13701.4904285,E,4,13,1.1,93.7311,M,37.55,M,2.0,0000*64,37.23227443,137.024840475,679622.951085094,4122560.681942697
1121,[2021-02-22 14:53:44.842] $GPGGA,55344.4,3713.9364656,N,13701.4904282,E,4,13,1.1,93.7313,M,37.55,M,2.0,0000*68,37.23227442666666,137.02484047000002,679622.9506494089,4122560.681563353
1122,[2021-02-22 14:53:44.951] $GPGGA,55344.5,3713.9364659000003,N,13701.4904275,E,4,13,1.1,93.7329,M,37.55,M,2.0,0000*67,37.23227443166667,137.02484045833336,679622.9496024796,4122560.682095994
1123,[2021-02-22 14:53:45.029] $GPGGA,55344.6,3713.9364656999996,N,13701.490427899998,E,4,13,1.1,93.7342,M,37.55,M,2.0,0000*6B,37.23227442833333,137.02484046499995,679622.9502018493,4122560.681738792
1124,[2021-02-22 14:53:45.154] $GPGGA,55344.7,3713.9364651,N,13701.490426800001,E,4,13,1.1,93.7359,M,37.55,M,2.0,0000*66,37.23227441833333,137.02484044666667,679622.9485990623,4122560.6805944364
1125,[2021-02-22 14:53:45.232] $GPGGA,55344.8,3713.9364649000004,N,13701.4904271,E,4,13,1.1,93.7385,M,37.55,M,2.0,0000*69,37.232274415,137.02484045166668,679622.9490505732,4122560.680234069
1126,[2021-02-22 14:53:45.342] $GPGGA,55344.9,3713.9364649000004,N,13701.4904264,E,4,13,1.1,93.7408,M,37.55,M,2.0,0000*6E,37.232274415,137.02484044,679622.9480155092,4122560.6802119277
1127,[2021-02-22 14:53:45.451] $GPGGA,55345.0,3713.9364649000004,N,13701.4904259,E,4,13,1.1,93.7406,M,37.55,M,3.0,0000*67,37.232274415,137.02484043166666,679622.9472761787,4122560.6801961125
1128,[2021-02-22 14:53:45.529] $GPGGA,55345.1,3713.9364659000003,N,13701.4904266,E,4,13,1.1,93.7414,M,37.55,M,3.0,0000*68,37.23227443166667,137.02484044333335,679622.9482716841,4122560.682067526
1129,[2021-02-22 14:53:45.639] $GPGGA,55345.2,3713.9364659000003,N,13701.490427,E,4,13,1.1,93.7413,M,37.55,M,3.0,0000*6B,37.23227443166667,137.02484045000003,679622.948863149,4122560.682080179
1130,[2021-02-22 14:53:45.748] $GPGGA,55345.3,3713.9364659999997,N,13701.4904277,E,4,13,1.1,93.7422,M,37.55,M,3.0,0000*65,37.23227443333333,137.02484046166666,679622.9498942527,4122560.682287248
1131,[2021-02-22 14:53:45.826] $GPGGA,55345.4,3713.9364658,N,13701.490426800001,E,4,13,1.1,93.7426,M,37.55,M,3.0,0000*63,37.23227443,137.02484044666667,679622.9485713713,4122560.681888926
1132,[2021-02-22 14:53:45.951] $GPGGA,55345.5,3713.9364656999996,N,13701.490426800001,E,4,13,1.1,93.743,M,37.55,M,3.0,0000*6A,37.23227442833333,137.02484044666667,679622.9485753272,4122560.681703998
1133,[2021-02-22 14:53:46.029] $GPGGA,55345.6,3713.9364645000005,N,13701.490426700002,E,4,13,1.1,93.7445,M,37.55,M,3.0,0000*67,37.232274408333346,137.02484044500002,679622.9484749341,4122560.6794817094
1134,[2021-02-22 14:53:46.154] $GPGGA,55345.7,3713.9364649000004,N,13701.490426299999,E,4,13,1.1,93.7452,M,37.55,M,3.0,0000*68,37.232274415,137.02484043833329,679622.9478676391,4122560.6802087645
1135,[2021-02-22 14:53:46.217] $GPGGA,55345.8,3713.9364643,N,13701.490425400001,E,4,13,1.1,93.7466,M,37.55,M,3.0,0000*6E,37.232274405,137.02484042333336,679622.9465605856,4122560.679070734
1136,[2021-02-22 14:53:46.342] $GPGGA,55345.9,3713.9364648,N,13701.490425999998,E,4,13,1.1,93.7459,M,37.55,M,3.0,0000*6F,37.23227441333333,137.0248404333333,679622.947427998,4122560.6800143486
1137,[2021-02-22 14:53:46.420] $GPGGA,55346.0,3713.9364654,N,13701.4904259,E,4,13,1.1,93.7428,M,37.55,M,4.0,0000*63,37.23227442333333,137.02484043166666,679622.9472563994,4122560.6811207486
1138,[2021-02-22 14:53:46.529] $GPGGA,55346.1,3713.9364649000004,N,13701.490425799999,E,4,13,1.1,93.7426,M,37.55,M,4.0,0000*61,37.232274415,137.02484043,679622.947128313,4122560.6801929497
1139,[2021-02-22 14:53:46.623] $GPGGA,55346.2,3713.9364649000004,N,13701.4904259,E,4,13,1.1,93.7423,M,37.55,M,4.0,0000*66,37.232274415,137.02484043166666,679622.9472761787,4122560.6801961125
1140,[2021-02-22 14:53:46.748] $GPGGA,55346.3,3713.9364651999995,N,13701.490425799999,E,4,13,1.1,93.7417,M,37.55,M,4.0,0000*6B,37.232274419999996,137.02484043,679622.9471164454,4122560.68074773
1141,[2021-02-22 14:53:46.842] $GPGGA,55346.4,3713.9364649999998,N,13701.4904256,E,4,13,1.1,93.743,M,37.55,M,4.0,0000*65,37.23227441666666,137.0248404266667,679622.9468286282,4122560.6803715504
1142,[2021-02-22 14:53:46.935] $GPGGA,55346.5,3713.9364647,N,13701.4904257,E,4,13,1.1,93.7436,M,37.55,M,4.0,0000*65,37.232274411666666,137.02484042833336,679622.9469883613,4122560.679819932
1143,[2021-02-22 14:53:47.045] $GPGGA,55346.6,3713.9364651999995,N,13701.490425999998,E,4,13,1.1,93.744,M,37.55,M,4.0,0000*67,37.232274419999996,137.0248404333333,679622.9474121744,4122560.6807540576
1144,[2021-02-22 14:53:47.123] $GPGGA,55346.7,3713.9364651999995,N,13701.490426299999,E,4,13,1.1,93.7451,M,37.55,M,4.0,0000*65,37.232274419999996,137.02484043833329,679622.9478557715,4122560.680763547
1145,[2021-02-22 14:53:47.248] $GPGGA,55346.8,3713.9364666,N,13701.490426800001,E,4,13,1.1,93.745,M,37.55,M,4.0,0000*67,37.23227444333333,137.02484044666667,679622.9485397243,4122560.6833683434
1146,[2021-02-22 14:53:47.326] $GPGGA,55346.9,3713.9364669,N,13701.490426499999,E,4,13,1.1,93.7442,M,37.55,M,4.0,0000*67,37.232274448333335,137.02484044166664,679622.9480842553,4122560.683913636
1147,[2021-02-22 14:53:47.451] $GPGGA,55347.0,3713.9364671,N,13701.490426499999,E,4,13,1.1,93.7414,M,37.55,M,5.0,0000*64,37.23227445166666,137.02484044166664,679622.9480763436,4122560.68428349
1148,[2021-02-22 14:53:47.545] $GPGGA,55347.1,3713.9364661,N,13701.4904262,E,4,13,1.1,93.7417,M,37.55,M,5.0,0000*60,37.232274435,137.02484043666664,679622.9476723053,4122560.682424729
1149,[2021-02-22 14:53:47.654] $GPGGA,55347.2,3713.9364659000003,N,13701.4904266,E,4,13,1.1,93.7416,M,37.55,M,5.0,0000*6D,37.23227443166667,137.02484044333335,679622.9482716841,4122560.682067526
1150,[2021-02-22 14:53:47.732] $GPGGA,55347.3,3713.9364665,N,13701.4904269,E,4,13,1.1,93.7426,M,37.55,M,5.0,0000*6F,37.23227444166666,137.02484044833332,679622.948691546,4122560.683186579
1151,[2021-02-22 14:53:47.842] $GPGGA,55347.4,3713.9364664000004,N,13701.490426499999,E,4,13,1.1,93.7423,M,37.55,M,5.0,0000*60,37.23227444000001,137.02484044166664,679622.9481040346,4122560.682989001
1152,[2021-02-22 14:53:47.951] $GPGGA,55347.5,3713.9364659999997,N,13701.490426299999,E,4,13,1.1,93.7444,M,37.55,M,5.0,0000*62,37.23227443333333,137.02484043833329,679622.9478241246,4122560.682242965
1153,[2021-02-22 14:53:48.045] $GPGGA,55347.6,3713.9364649999998,N,13701.490426100001,E,4,13,1.1,93.7446,M,37.55,M,5.0,0000*62,37.23227441666666,137.024840435,679622.9475679542,4122560.6803873647
1154,[2021-02-22 14:53:48.123] $GPGGA,55347.7,3713.9364656,N,13701.490426499999,E,4,13,1.1,93.745,M,37.55,M,5.0,0000*66,37.23227442666666,137.02484044166664,679622.9481356816,4122560.6815095814
1155,[2021-02-22 14:53:48.248] $GPGGA,55347.8,3713.9364658,N,13701.490426700002,E,4,13,1.1,93.7468,M,37.55,M,5.0,0000*6E,37.23227443,137.02484044500002,679622.9484235079,4122560.6818857626
1156,[2021-02-22 14:53:48.326] $GPGGA,55347.9,3713.9364659000003,N,13701.4904266,E,4,13,1.1,93.7463,M,37.55,M,5.0,0000*64,37.23227443166667,137.02484044333335,679622.9482716841,4122560.682067526
1157,[2021-02-22 14:53:48.451] $GPGGA,55348.0,3713.9364666,N,13701.4904262,E,4,13,1.1,93.7457,M,37.55,M,6.0,0000*6E,37.23227444333333,137.02484043666664,679622.947652526,4122560.683349365
1158,[2021-02-22 14:53:48.545] $GPGGA,55348.1,3713.9364663,N,13701.490426299999,E,4,13,1.1,93.7465,M,37.55,M,6.0,0000*6A,37.232274438333334,137.02484043833329,679622.947812257,4122560.682797747
1159,[2021-02-22 14:53:48.623] $GPGGA,55348.2,3713.9364659000003,N,13701.490425999998,E,4,13,1.1,93.7466,M,37.55,M,1.0,0000*67,37.23227443166667,137.0248404333333,679622.9473844834,4122560.6820485475
1160,[2021-02-22 14:53:48.748] $GPGGA,55348.3,3713.9364651999995,N,13701.4904259,E,4,13,1.1,93.7448,M,37.55,M,1.0,0000*6B,37.232274419999996,137.02484043166666,679622.9472643111,4122560.6807508944
1161,[2021-02-22 14:53:48.826] $GPGGA,55348.4,3713.9364656,N,13701.490426700002,E,4,13,1.1,93.7442,M,37.55,M,1.0,0000*6F,37.23227442666666,137.02484044500002,679622.9484314197,4122560.6815159083
1162,[2021-02-22 14:53:48.951] $GPGGA,55348.5,3713.9364662000003,N,13701.490426800001,E,4,13,1.1,93.7452,M,37.55,M,1.0,0000*67,37.23227443666668,137.02484044666667,679622.9485555479,4122560.6826286353
1163,[2021-02-22 14:53:49.029] $GPGGA,55348.6,3713.936467,N,13701.490426700002,E,4,13,1.1,93.744,M,37.55,M,1.0,0000*6B,37.23227445,137.02484044500002,679622.9483760375,4122560.6841048887
1164,[2021-02-22 14:53:49.154] $GPGGA,55348.7,3713.9364664000004,N,13701.4904262,E,4,13,1.1,93.745,M,37.55,M,1.0,0000*6B,37.23227444000001,137.02484043666664,679622.9476604377,4122560.682979512
1165,[2021-02-22 14:53:49.232] $GPGGA,55348.8,3713.9364656999996,N,13701.4904262,E,4,13,1.1,93.7446,M,37.55,M,1.0,0000*63,37.23227442833333,137.02484043666664,679622.9476881288,4122560.681685019
1166,[2021-02-22 14:53:49.342] $GPGGA,55348.9,3713.9364649000004,N,13701.490426100001,E,4,13,1.1,93.7438,M,37.55,M,1.0,0000*67,37.232274415,137.024840435,679622.94757191,4122560.680202439
1167,[2021-02-22 14:53:49.420] $GPGGA,55349.0,3713.9364654,N,13701.4904255,E,4,13,1.1,93.742,M,37.55,M,2.0,0000*6E,37.23227442333333,137.024840425,679622.9466649368,4122560.6811080966
1168,[2021-02-22 14:53:49.529] $GPGGA,55349.1,3713.9364659000003,N,13701.4904266,E,4,13,1.1,93.7405,M,37.55,M,2.0,0000*65,37.23227443166667,137.02484044333335,679622.9482716841,4122560.682067526
1169,[2021-02-22 14:53:49.623] $GPGGA,55349.2,3713.9364662000003,N,13701.490426700002,E,4,13,1.1,93.7406,M,37.55,M,2.0,0000*6C,37.23227443666668,137.02484044500002,679622.9484076845,4122560.682625472
1170,[2021-02-22 14:53:49.748] $GPGGA,55349.3,3713.9364659999997,N,13701.490427399998,E,4,13,1.1,93.7391,M,37.55,M,2.0,0000*64,37.23227443333333,137.02484045666662,679622.9494506512,4122560.6822777577
1171,[2021-02-22 14:53:49.826] $GPGGA,55349.4,3713.9364661,N,13701.490427,E,4,13,1.1,93.7391,M,37.55,M,2.0,0000*66,37.232274435,137.02484045000003,679622.9488552372,4122560.6824500337
1172,[2021-02-22 14:53:49.951] $GPGGA,55349.5,3713.9364662000003,N,13701.4904273,E,4,13,1.1,93.7388,M,37.55,M,2.0,0000*6F,37.23227443666668,137.02484045499997,679622.949294876,4122560.682644451
1173,[2021-02-22 14:53:50.029] $GPGGA,55349.6,3713.9364658,N,13701.490427399998,E,4,13,1.1,93.7382,M,37.55,M,2.0,0000*68,37.23227443,137.02484045666662,679622.9494585629,4122560.6819079034
1174,[2021-02-22 14:53:50.154] $GPGGA,55349.7,3713.9364654,N,13701.490427,E,4,13,1.1,93.7401,M,37.55,M,2.0,0000*6D,37.23227442333333,137.02484045000003,679622.9488829282,4122560.6811555424
1175,[2021-02-22 14:53:50.232] $GPGGA,55349.8,3713.9364651,N,13701.4904271,E,4,13,1.1,93.7407,M,37.55,M,2.0,0000*60,37.23227441833333,137.02484045166668,679622.9490426615,4122560.6806039256
1176,[2021-02-22 14:53:50.342] $GPGGA,55349.9,3713.9364649000004,N,13701.4904269,E,4,13,1.1,93.7416,M,37.55,M,2.0,0000*61,37.232274415,137.02484044833332,679622.9487548397,4122560.6802277435
1177,[2021-02-22 14:53:50.451] $GPGGA,55350.0,3713.9364653000002,N,13701.490426499999,E,4,13,1.1,93.7418,M,37.55,M,3.0,0000*68,37.232274421666666,137.02484044166664,679622.9481475491,4122560.6809547995
1178,[2021-02-22 14:53:50.545] $GPGGA,55350.1,3713.9364646,N,13701.490427,E,4,13,1.1,93.7409,M,37.55,M,3.0,0000*69,37.232274409999995,137.02484045000003,679622.9489145752,4122560.679676124
1179,[2021-02-22 14:53:50.654] $GPGGA,55350.2,3713.9364641999996,N,13701.490427200002,E,4,13,1.1,93.7419,M,37.55,M,3.0,0000*6D,37.23227440333333,137.02484045333338,679622.9492261345,4122560.678942742
1180,[2021-02-22 14:53:50.732] $GPGGA,55350.3,3713.9364643,N,13701.490426800001,E,4,13,1.1,93.7437,M,37.55,M,3.0,0000*6A,37.232274405,137.02484044666667,679622.9486307092,4122560.6791150174
1181,[2021-02-22 14:53:50.841] $GPGGA,55350.4,3713.9364645000005,N,13701.490427399998,E,4,13,1.1,93.7425,M,37.55,M,3.0,0000*65,37.232274408333346,137.02484045666662,679622.9495099891,4122560.679503851
1182,[2021-02-22 14:53:50.935] $GPGGA,55350.5,3713.936464,N,13701.490426700002,E,4,13,1.1,93.7423,M,37.55,M,3.0,0000*65,37.232274399999994,137.02484044500002,679622.9484947134,4122560.678557072
1183,[2021-02-22 14:53:51.045] $GPGGA,55350.6,3713.9364646,N,13701.490426499999,E,4,13,1.1,93.744,M,37.55,M,3.0,0000*67,37.232274409999995,137.02484044166664,679622.9481752402,4122560.6796603086
1184,[2021-02-22 14:53:51.123] $GPGGA,55350.7,3713.9364643,N,13701.4904276,E,4,13,1.1,93.7434,M,37.55,M,3.0,0000*62,37.232274405,137.02484046,679622.9498136389,4122560.679140321
1185,[2021-02-22 14:53:51.248] $GPGGA,55350.8,3713.9364644,N,13701.4904277,E,4,13,1.1,93.7418,M,37.55,M,3.0,0000*65,37.232274406666676,137.02484046166666,679622.9499575463,4122560.6793284137
1186,[2021-02-22 14:53:51.326] $GPGGA,55350.9,3713.9364651999995,N,13701.4904278,E,4,13,1.1,93.7418,M,37.55,M,3.0,0000*6C,37.232274419999996,137.0248404633333,679622.9500737651,4122560.680810992
1187,[2021-02-22 14:53:51.451] $GPGGA,55351.0,3713.9364654,N,13701.490427399998,E,4,13,1.1,93.7395,M,37.55,M,4.0,0000*6B,37.23227442333333,137.02484045666662,679622.9494743863,4122560.6811681953
1188,[2021-02-22 14:53:51.545] $GPGGA,55351.1,3713.9364656,N,13701.490428000001,E,4,13,1.1,93.7399,M,37.55,M,4.0,0000*6F,37.23227442666666,137.02484046666666,679622.9503536753,4122560.681557027
1189,[2021-02-22 14:53:51.654] $GPGGA,55351.2,3713.9364655,N,13701.490427899998,E,4,13,1.1,93.7406,M,37.55,M,4.0,0000*68,37.232274425,137.02484046499995,679622.950209761,4122560.6813689373
1190,[2021-02-22 14:53:51.732] $GPGGA,55351.3,3713.9364661,N,13701.4904284,E,4,13,1.1,93.7412,M,37.55,M,4.0,0000*69,37.232274435,137.02484047333334,679622.9509253609,4122560.682494317
1191,[2021-02-22 14:53:51.841] $GPGGA,55351.4,3713.9364658,N,13701.4904285,E,4,13,1.1,93.7423,M,37.55,M,4.0,0000*67,37.23227443,137.024840475,679622.951085094,4122560.681942697
1192,[2021-02-22 14:53:51.920] $GPGGA,55351.5,3713.9364663,N,13701.4904278,E,4,13,1.1,93.7434,M,37.55,M,4.0,0000*6A,37.232274438333334,137.0248404633333,679622.9500302507,4122560.6828451925
1193,[2021-02-22 14:53:52.045] $GPGGA,55351.6,3713.9364671,N,13701.4904277,E,4,13,1.1,93.7452,M,37.55,M,4.0,0000*65,37.23227445166666,137.02484046166666,679622.9498507383,4122560.684321447
1194,[2021-02-22 14:53:52.154] $GPGGA,55351.7,3713.9364668000007,N,13701.490428000001,E,4,13,1.1,93.7435,M,37.55,M,4.0,0000*65,37.23227444666668,137.02484046666666,679622.9503062048,4122560.683776156
1195,[2021-02-22 14:53:52.232] $GPGGA,55351.8,3713.9364661,N,13701.4904283,E,4,13,1.1,93.7431,M,37.55,M,4.0,0000*64,37.232274435,137.02484047166666,679622.9507774952,4122560.682491154
1196,[2021-02-22 14:53:52.341] $GPGGA,55351.9,3713.9364659999997,N,13701.490428100002,E,4,13,1.1,93.7424,M,37.55,M,4.0,0000*62,37.23227443333333,137.02484046833337,679622.950485722,4122560.6822999
1197,[2021-02-22 14:53:52.420] $GPGGA,55352.0,3713.9364648,N,13701.4904264,E,4,13,1.1,93.7412,M,37.55,M,5.0,0000*6D,37.23227441333333,137.02484044,679622.948019465,4122560.680027002
1198,[2021-02-22 14:53:52.529] $GPGGA,55352.1,3713.9364656999996,N,13701.4904271,E,4,13,1.1,93.7399,M,37.55,M,5.0,0000*62,37.23227442833333,137.02484045166668,679622.9490189264,4122560.6817134866
1199,[2021-02-22 14:53:52.638] $GPGGA,55352.2,3713.9364656999996,N,13701.4904271,E,4,13,1.1,93.7388,M,37.55,M,5.0,0000*61,37.23227442833333,137.02484045166668,679622.9490189264,4122560.6817134866
1200,[2021-02-22 14:53:52.748] $GPGGA,55352.3,3713.9364659999997,N,13701.490427200002,E,4,13,1.1,93.7394,M,37.55,M,5.0,0000*6A,37.23227443333333,137.02484045333338,679622.9491549289,4122560.6822714326
1201,[2021-02-22 14:53:52.826] $GPGGA,55352.4,3713.9364665,N,13701.4904282,E,4,13,1.1,93.7408,M,37.55,M,5.0,0000*65,37.23227444166666,137.02484047000002,679622.9506138061,4122560.683227699
1202,[2021-02-22 14:53:52.951] $GPGGA,55352.5,3713.9364655,N,13701.4904275,E,4,13,1.1,93.742,M,37.55,M,5.0,0000*65,37.232274425,137.02484045833336,679622.9496183029,4122560.6813562857
1203,[2021-02-22 14:53:53.029] $GPGGA,55352.6,3713.9364649000004,N,13701.490426700002,E,4,13,1.1,93.743,M,37.55,M,5.0,0000*69,37.232274415,137.02484044500002,679622.9484591107,4122560.680221417
1204,[2021-02-22 14:53:53.154] $GPGGA,55352.7,3713.9364643,N,13701.4904266,E,4,13,1.1,93.7441,M,37.55,M,5.0,0000*65,37.232274405,137.02484044333335,679622.9483349778,4122560.679108691
1205,[2021-02-22 14:53:53.232] $GPGGA,55352.8,3713.9364649999998,N,13701.4904264,E,4,13,1.1,93.7449,M,37.55,M,5.0,0000*62,37.23227441666666,137.02484044,679622.9480115534,4122560.680396855
1206,[2021-02-22 14:53:53.341] $GPGGA,55352.9,3713.9364646,N,13701.4904255,E,4,13,1.1,93.7451,M,37.55,M,5.0,0000*6F,37.232274409999995,137.024840425,679622.9466965836,4122560.6796286777
1207,[2021-02-22 14:53:53.419] $GPGGA,55353.0,3713.9364646,N,13701.4904256,E,4,13,1.1,93.7416,M,37.55,M,6.0,0000*64,37.232274409999995,137.0248404266667,679622.9468444516,4122560.679631841
1208,[2021-02-22 14:53:53.529] $GPGGA,55353.1,3713.9364648,N,13701.4904271,E,4,13,1.1,93.7406,M,37.55,M,6.0,0000*6F,37.23227441333333,137.02484045166668,679622.9490545291,4122560.680049143
1209,[2021-02-22 14:53:53.638] $GPGGA,55353.2,3713.9364647,N,13701.4904273,E,4,13,1.1,93.7403,M,37.55,M,1.0,0000*63,37.232274411666666,137.02484045499997,679622.949354214,4122560.679870541
1210,[2021-02-22 14:53:53.748] $GPGGA,55353.3,3713.936464,N,13701.490426800001,E,4,13,1.1,93.7415,M,37.55,M,1.0,0000*68,37.232274399999994,137.02484044666667,679622.9486425768,4122560.678560235
1211,[2021-02-22 14:53:53.826] $GPGGA,55353.4,3713.9364646,N,13701.490427,E,4,13,1.1,93.7378,M,37.55,M,1.0,0000*6C,37.232274409999995,137.02484045000003,679622.9489145752,4122560.679676124
1212,[2021-02-22 14:53:53.951] $GPGGA,55353.5,3713.9364639,N,13701.4904266,E,4,13,1.1,93.7395,M,37.55,M,1.0,0000*61,37.23227439833333,137.02484044333335,679622.9483508014,4122560.6783689824
1213,[2021-02-22 14:53:54.044] $GPGGA,55353.6,3713.9364630000005,N,13701.4904259,E,4,13,1.1,93.7417,M,37.55,M,1.0,0000*6A,37.23227438333334,137.02484043166666,679622.94735134,4122560.676682497
1214,[2021-02-22 14:53:54.122] $GPGGA,55353.7,3713.9364623,N,13701.490425799999,E,4,13,1.1,93.7426,M,37.55,M,1.0,0000*6A,37.23227437166666,137.02484043,679622.9472311654,4122560.675384842
1215,[2021-02-22 14:53:54.248] $GPGGA,55353.8,3713.9364631,N,13701.4904266,E,4,13,1.1,93.7434,M,37.55,M,1.0,0000*68,37.232274385,137.02484044333335,679622.9483824483,4122560.676889564
1216,[2021-02-22 14:53:54.326] $GPGGA,55353.9,3713.9364641999996,N,13701.4904273,E,4,13,1.1,93.745,M,37.55,M,1.0,0000*6B,37.23227440333333,137.02484045499997,679622.9493739933,4122560.6789459046
1217,[2021-02-22 14:53:54.451] $GPGGA,55354.0,3713.9364651999995,N,13701.4904264,E,4,13,1.1,93.7429,M,37.55,M,2.0,0000*6F,37.232274419999996,137.02484044,679622.9480036416,4122560.68076671
1218,[2021-02-22 14:53:54.544] $GPGGA,55354.1,3713.9364649000004,N,13701.490426800001,E,4,13,1.1,93.7426,M,37.55,M,2.0,0000*67,37.232274415,137.02484044666667,679622.948606974,4122560.6802245798
1219,[2021-02-22 14:53:54.654] $GPGGA,55354.2,3713.9364655,N,13701.490426800001,E,4,13,1.1,93.7431,M,37.55,M,2.0,0000*6F,37.232274425,137.02484044666667,679622.9485832389,4122560.681334144
1220,[2021-02-22 14:53:54.732] $GPGGA,55354.3,3713.9364645000005,N,13701.4904269,E,4,13,1.1,93.744,M,37.55,M,2.0,0000*68,37.232274408333346,137.02484044833332,679622.9487706631,4122560.6794880354
1221,[2021-02-22 14:53:54.841] $GPGGA,55354.4,3713.9364636,N,13701.490426499999,E,4,13,1.1,93.7449,M,37.55,M,2.0,0000*6E,37.23227439333334,137.02484044166664,679622.9482147987,4122560.677811038
1222,[2021-02-22 14:53:54.919] $GPGGA,55354.5,3713.9364641,N,13701.490426700002,E,4,13,1.1,93.7437,M,37.55,M,2.0,0000*64,37.232274401666665,137.02484044500002,679622.9484907575,4122560.678742
1223,[2021-02-22 14:53:55.044] $GPGGA,55354.6,3713.936464,N,13701.490427,E,4,13,1.1,93.7443,M,37.55,M,2.0,0000*63,37.232274399999994,137.02484045000003,679622.9489383104,4122560.6785665606
1224,[2021-02-22 14:53:55.122] $GPGGA,55354.7,3713.9364643,N,13701.490427399998,E,4,13,1.1,93.7451,M,37.55,M,2.0,0000*66,37.232274405,137.02484045666662,679622.9495179008,4122560.679133995
1225,[2021-02-22 14:53:55.247] $GPGGA,55354.8,3713.9364638,N,13701.490427899998,E,4,13,1.1,93.7449,M,37.55,M,2.0,0000*61,37.232274396666675,137.02484046499995,679622.9502770106,4122560.678225176
1226,[2021-02-22 14:53:55.326] $GPGGA,55354.9,3713.9364641,N,13701.490427,E,4,13,1.1,93.7442,M,37.55,M,2.0,0000*6C,37.232274401666665,137.02484045000003,679622.9489343545,4122560.678751489
1227,[2021-02-22 14:53:55.451] $GPGGA,55355.0,3713.9364645000005,N,13701.4904255,E,4,13,1.1,93.7417,M,37.55,M,3.0,0000*66,37.232274408333346,137.024840425,679622.9467005396,4122560.679443752
1228,[2021-02-22 14:53:55.544] $GPGGA,55355.1,3713.9364647,N,13701.4904255,E,4,13,1.1,93.742,M,37.55,M,3.0,0000*61,37.232274411666666,137.024840425,679622.9466926279,4122560.6798136057
1229,[2021-02-22 14:53:55.638] $GPGGA,55355.2,3713.9364641999996,N,13701.4904256,E,4,13,1.1,93.74,M,37.55,M,3.0,0000*66,37.23227440333333,137.0248404266667,679622.946860275,4122560.678892133
1230,[2021-02-22 14:53:55.747] $GPGGA,55355.3,3713.9364644,N,13701.4904271,E,4,13,1.1,93.7417,M,37.55,M,3.0,0000*62,37.232274406666676,137.02484045166668,679622.9490703525,4122560.679309435
1231,[2021-02-22 14:53:55.825] $GPGGA,55355.4,3713.9364636,N,13701.490426700002,E,4,13,1.1,93.7431,M,37.55,M,3.0,0000*63,37.23227439333334,137.02484044500002,679622.9485105368,4122560.6778173647
1232,[2021-02-22 14:53:55.951] $GPGGA,55355.5,3713.9364633,N,13701.4904257,E,4,13,1.1,93.7437,M,37.55,M,3.0,0000*62,37.23227438833333,137.02484042833336,679622.9470437435,4122560.677230951
1233,[2021-02-22 14:53:56.029] $GPGGA,55355.6,3713.9364631999997,N,13701.4904252,E,4,13,1.1,93.7443,M,37.55,M,3.0,0000*66,37.23227438666666,137.02484042,679622.9463083666,4122560.6770302085
1234,[2021-02-22 14:53:56.154] $GPGGA,55355.7,3713.9364633,N,13701.490424200001,E,4,13,1.1,93.7466,M,37.55,M,3.0,0000*60,37.23227438833333,137.02484040333334,679622.9448257496,4122560.6771835047
1235,[2021-02-22 14:53:56.232] $GPGGA,55355.8,3713.9364638,N,13701.4904252,E,4,13,1.1,93.7464,M,37.55,M,3.0,0000*67,37.232274396666675,137.02484042,679622.9462846314,4122560.678139773
1236,[2021-02-22 14:53:56.341] $GPGGA,55355.9,3713.9364634999997,N,13701.4904259,E,4,13,1.1,93.7454,M,37.55,M,3.0,0000*63,37.232274391666664,137.02484043166666,679622.9473315608,4122560.6776071307
1237,[2021-02-22 14:53:56.419] $GPGGA,55356.0,3713.9364636999994,N,13701.490426700002,E,4,13,1.1,93.7449,M,37.55,M,4.0,0000*6D,37.23227439499999,137.02484044500002,679622.9485065809,4122560.678002289
1238,[2021-02-22 14:53:56.529] $GPGGA,55356.1,3713.9364629,N,13701.490425999998,E,4,13,1.1,93.746,M,37.55,M,4.0,0000*6F,37.23227438166666,137.0248404333333,679622.9475031593,4122560.6765007316
1239,[2021-02-22 14:53:56.638] $GPGGA,55356.2,3713.9364634000003,N,13701.490425400001,E,4,13,1.1,93.7473,M,37.55,M,4.0,0000*65,37.23227439000001,137.02484042333336,679622.9465961884,4122560.6774063907
1240,[2021-02-22 14:53:56.747] $GPGGA,55356.3,3713.9364653000002,N,13701.490425100003,E,4,13,1.1,93.7458,M,37.55,M,4.0,0000*69,37.232274421666666,137.02484041833335,679622.9460774278,4122560.680910517
1241,[2021-02-22 14:53:56.825] $GPGGA,55356.4,3713.9364645000005,N,13701.490424700001,E,4,13,1.1,93.7464,M,37.55,M,4.0,0000*61,37.232274408333346,137.02484041166667,679622.9455176098,4122560.6794184484
1242,[2021-02-22 14:53:56.950] $GPGGA,55356.5,3713.9364641999996,N,13701.490425299999,E,4,13,1.1,93.7462,M,37.55,M,4.0,0000*64,37.23227440333333,137.02484042166665,679622.9464166713,4122560.6788826426
1243,[2021-02-22 14:53:57.044] $GPGGA,55356.6,3713.9364631,N,13701.4904273,E,4,13,1.1,93.7461,M,37.55,M,4.0,0000*62,37.232274385,137.02484045499997,679622.9494175079,4122560.676911706
1244,[2021-02-22 14:53:57.154] $GPGGA,55356.7,3713.9364616999997,N,13701.4904266,E,4,13,1.1,93.7473,M,37.55,M,4.0,0000*60,37.23227436166666,137.02484044333335,679622.9484378302,4122560.6743005826
1245,[2021-02-22 14:53:57.232] $GPGGA,55356.8,3713.9364619000003,N,13701.4904256,E,4,13,1.1,93.7486,M,37.55,M,4.0,0000*68,37.23227436500001,137.0248404266667,679622.9469512597,4122560.6746388082
1246,[2021-02-22 14:53:57.341] $GPGGA,55356.9,3713.9364625,N,13701.490423500001,E,4,13,1.1,93.7485,M,37.55,M,4.0,0000*60,37.232274374999996,137.0248403916667,679622.9438223348,4122560.6756819445
1247,[2021-02-22 14:53:57.450] $GPGGA,55357.0,3713.9364622000003,N,13701.490422100002,E,4,13,1.1,93.7474,M,37.55,M,5.0,0000*65,37.232274370000006,137.02484036833337,679622.9417640788,4122560.675082881
1248,[2021-02-22 14:53:57.544] $GPGGA,55357.1,3713.9364619000003,N,13701.4904224,E,4,13,1.1,93.7477,M,37.55,M,5.0,0000*6A,37.23227436500001,137.02484037333332,679622.9422195387,4122560.67453759
1249,[2021-02-22 14:53:57.653] $GPGGA,55357.2,3713.9364671,N,13701.490420200002,E,4,13,1.1,93.7629,M,37.55,M,5.0,0000*6A,37.23227445166666,137.0248403366667,679622.9387607853,4122560.684084216
1250,[2021-02-22 14:53:57.732] $GPGGA,55357.3,3713.9364693,N,13701.4904185,E,4,13,1.1,93.7755,M,37.55,M,5.0,0000*61,37.23227448833334,137.02484030833335,679622.9361600312,4122560.688098844
1251,[2021-02-22 14:53:57.841] $GPGGA,55357.4,3713.9364706999995,N,13701.490416600001,E,4,13,1.1,93.7852,M,37.55,M,5.0,0000*6F,37.23227451166667,137.02484027666668,679622.9332951929,4122560.6906277267
1252,[2021-02-22 14:53:57.935] $GPGGA,55357.5,3713.9364706,N,13701.4904143,E,4,13,1.1,93.7917,M,37.55,M,5.0,0000*68,37.23227451,137.02484023833333,679622.9298982254,4122560.6903700493
1253,[2021-02-22 14:53:58.044] $GPGGA,55357.6,3713.9364708999997,N,13701.4904125,E,4,13,1.1,93.7943,M,37.55,M,5.0,0000*65,37.232274515,137.0248402083333,679622.927224767,4122560.690867895
1254,[2021-02-22 14:53:58.122] $GPGGA,55357.7,3713.9364703,N,13701.4904122,E,4,13,1.1,93.7972,M,37.55,M,5.0,0000*6B,37.232274505,137.02484020333335,679622.9268049076,4122560.6897488423
1255,[2021-02-22 14:53:58.247] $GPGGA,55357.8,3713.9364704000004,N,13701.4904143,E,4,13,1.1,93.7961,M,37.55,M,5.0,0000*66,37.23227450666667,137.02484023833333,679622.929906137,4122560.690000195
1256,[2021-02-22 14:53:58.325] $GPGGA,55357.9,3713.9364691,N,13701.4904155,E,4,13,1.1,93.7957,M,37.55,M,5.0,0000*68,37.232274485,137.02484025833334,679622.9317319578,4122560.6876340974
1257,[2021-02-22 14:53:58.450] $GPGGA,55358.0,3713.9364681999996,N,13701.490415200002,E,4,13,1.1,93.7941,M,37.55,M,6.0,0000*6F,37.232274469999986,137.02484025333337,679622.9313239659,4122560.6859602616
1258,[2021-02-22 14:53:58.544] $GPGGA,55358.1,3713.9364681999996,N,13701.490413999998,E,4,13,1.1,93.7948,M,37.55,M,6.0,0000*64,37.232274469999986,137.0248402333333,679622.9295495668,4122560.6859223046
1259,[2021-02-22 14:53:58.653] $GPGGA,55358.2,3713.9364696999996,N,13701.4904137,E,4,13,1.1,93.7923,M,37.55,M,1.0,0000*69,37.232274495,137.02484022833335,679622.9290466341,4122560.688686725
1260,[2021-02-22 14:53:58.732] $GPGGA,55358.3,3713.9364702,N,13701.4904135,E,4,13,1.1,93.7908,M,37.55,M,1.0,0000*6E,37.23227450333332,137.024840225,679622.9287311214,4122560.689605033
1261,[2021-02-22 14:53:58.841] $GPGGA,55358.4,3713.9364702,N,13701.4904137,E,4,13,1.1,93.7882,M,37.55,M,1.0,0000*68,37.23227450333332,137.02484022833335,679622.9290268549,4122560.689611361
1262,[2021-02-22 14:53:58.935] $GPGGA,55358.5,3713.9364693,N,13701.490416,E,4,13,1.1,93.7866,M,37.55,M,1.0,0000*68,37.23227448833334,137.0248402666667,679622.9324633789,4122560.6880197674
1263,[2021-02-22 14:53:59.044] $GPGGA,55358.6,3713.9364685,N,13701.490418000001,E,4,13,1.1,93.7859,M,37.55,M,1.0,0000*6E,37.232274475000004,137.0248403,679622.9354523454,4122560.6866036113
1264,[2021-02-22 14:53:59.122] $GPGGA,55358.7,3713.9364688,N,13701.490418399999,E,4,13,1.1,93.7859,M,37.55,M,1.0,0000*66,37.23227448,137.02484030666665,679622.9360319404,4122560.6871710448
1265,[2021-02-22 14:53:59.247] $GPGGA,55358.8,3713.9364688,N,13701.4904167,E,4,13,1.1,93.7855,M,37.55,M,1.0,0000*68,37.23227448,137.02484027833333,679622.9335182176,4122560.6871172716
1266,[2021-02-22 14:53:59.357] $GPGGA,55358.9,3713.9364693999996,N,13701.490415299999,E,4,13,1.1,93.7849,M,37.55,M,1.0,0000*6E,37.23227448999999,137.02484025499996,679622.9314243544,4122560.688182551
1267,[2021-02-22 14:53:59.435] $GPGGA,55359.0,3713.9364704000004,N,13701.490415,E,4,13,1.1,93.7829,M,37.55,M,2.0,0000*68,37.23227450666667,137.02484025,679622.9309412034,4122560.6900223363
1268,[2021-02-22 14:53:59.528] $GPGGA,55359.1,3713.9364704000004,N,13701.490416,E,4,13,1.1,93.7828,M,37.55,M,2.0,0000*6B,37.23227450666667,137.0248402666667,679622.9324198643,4122560.6900539664
1269,[2021-02-22 14:53:59.638] $GPGGA,55359.2,3713.9364688,N,13701.490417500001,E,4,13,1.1,93.7807,M,37.55,M,2.0,0000*64,37.23227448,137.02484029166666,679622.9347011474,4122560.6871425766
1270,[2021-02-22 14:53:59.747] $GPGGA,55359.3,3713.9364689999998,N,13701.490418599999,E,4,13,1.1,93.7816,M,37.55,M,2.0,0000*60,37.232274483333335,137.02484031,679622.9363197623,4122560.687547225
1271,[2021-02-22 14:53:59.825] $GPGGA,55359.4,3713.9364692000004,N,13701.490418399999,E,4,13,1.1,93.7805,M,37.55,M,2.0,0000*65,37.23227448666667,137.02484030666665,679622.936016117,4122560.687910754
1272,[2021-02-22 14:53:59.950] $GPGGA,55359.5,3713.9364693,N,13701.490416499999,E,4,13,1.1,93.7811,M,37.55,M,2.0,0000*6F,37.23227448833334,137.02484027499997,679622.9332027049,4122560.688035583
1273,[2021-02-22 14:54:00.028] $GPGGA,55359.6,3713.9364696000002,N,13701.490414700002,E,4,13,1.1,93.7818,M,37.55,M,2.0,0000*60,37.232274493333335,137.024840245,679622.9305292511,4122560.688533428
1274,[2021-02-22 14:54:00.153] $GPGGA,55359.7,3713.9364703,N,13701.4904151,E,4,13,1.1,93.7808,M,37.55,M,2.0,0000*6A,37.232274505,137.02484025166666,679622.9310930226,4122560.6898405724
1275,[2021-02-22 14:54:00.231] $GPGGA,55359.8,3713.9364706,N,13701.490416799998,E,4,13,1.1,93.7812,M,37.55,M,2.0,0000*61,37.23227451,137.02484027999998,679622.9335948778,4122560.690449126
1276,[2021-02-22 14:54:00.341] $GPGGA,55359.9,3713.9364698,N,13701.490418399999,E,4,13,1.1,93.7801,M,37.55,M,2.0,0000*66,37.23227449666667,137.02484030666665,679622.9359923819,4122560.6890203175
1277,[2021-02-22 14:54:00.419] $GPGGA,55400.0,3713.9364692000004,N,13701.490418200001,E,4,13,1.1,93.7794,M,37.55,M,3.0,0000*6A,37.23227448666667,137.02484030333335,679622.935720388,4122560.6879044273
1278,[2021-02-22 14:54:00.528] $GPGGA,55400.1,3713.9364698,N,13701.4904178,E,4,13,1.1,93.78,M,37.55,M,3.0,0000*66,37.23227449666667,137.02484029666667,679622.9351051878,4122560.6890013395
1279,[2021-02-22 14:54:00.622] $GPGGA,55400.2,3713.9364699000002,N,13701.490416999999,E,4,13,1.1,93.7805,M,37.55,M,3.0,0000*69,37.23227449833334,137.02484028333333,679622.9339183024,4122560.6891609607
1280,[2021-02-22 14:54:00.747] $GPGGA,55400.3,3713.9364701,N,13701.490416499999,E,4,13,1.1,93.7808,M,37.55,M,3.0,0000*61,37.232274501666666,137.02484027499997,679622.933171058,4122560.6895149997
1281,[2021-02-22 14:54:00.825] $GPGGA,55400.4,3713.936471,N,13701.490417200002,E,4,13,1.1,93.7799,M,37.55,M,3.0,0000*67,37.23227451666667,137.02484028666672,679622.934170526,4122560.6912014876
1282,[2021-02-22 14:54:00.950] $GPGGA,55400.5,3713.9364703,N,13701.4904171,E,4,13,1.1,93.7801,M,37.55,M,3.0,0000*69,37.232274505,137.024840285,679622.934050347,4122560.689903833
1283,[2021-02-22 14:54:01.044] $GPGGA,55400.6,3713.93647,N,13701.490418000001,E,4,13,1.1,93.7804,M,37.55,M,3.0,0000*62,37.2322745,137.0248403,679622.9353930075,4122560.68937752
1284,[2021-02-22 14:54:01.153] $GPGGA,55400.7,3713.9364699000002,N,13701.490418599999,E,4,13,1.1,93.7809,M,37.55,M,3.0,0000*69,37.23227449833334,137.02484031,679622.9362841595,4122560.689211571
1285,[2021-02-22 14:54:01.247] $GPGGA,55400.8,3713.9364699000002,N,13701.490418200001,E,4,13,1.1,93.7827,M,37.55,M,3.0,0000*6E,37.23227449833334,137.02484030333335,679622.935692697,4122560.689198918
1286,[2021-02-22 14:54:01.325] $GPGGA,55400.9,3713.9364695,N,13701.490416600001,E,4,13,1.1,93.7811,M,37.55,M,3.0,0000*6C,37.232274491666665,137.02484027666668,679622.9333426632,4122560.6884086
1287,[2021-02-22 14:54:01.450] $GPGGA,55401.0,3713.9364706999995,N,13701.4904169,E,4,13,1.1,93.7798,M,37.55,M,4.0,0000*68,37.23227451166667,137.02484028166668,679622.9337387921,4122560.6906372155
1288,[2021-02-22 14:54:01.544] $GPGGA,55401.1,3713.9364701,N,13701.490416600001,E,4,13,1.1,93.7794,M,37.55,M,4.0,0000*6C,37.232274501666666,137.02484027666668,679622.9333189281,4122560.689518163
1289,[2021-02-22 14:54:01.653] $GPGGA,55401.2,3713.9364696000002,N,13701.490416799998,E,4,13,1.1,93.7786,M,37.55,M,4.0,0000*6D,37.232274493333335,137.02484027999998,679622.9336344365,4122560.688599853
1290,[2021-02-22 14:54:01.731] $GPGGA,55401.3,3713.9364695,N,13701.4904188,E,4,13,1.1,93.7777,M,37.55,M,4.0,0000*6F,37.232274491666665,137.02484031333333,679622.9365957165,4122560.688478187
1291,[2021-02-22 14:54:01.841] $GPGGA,55401.4,3713.9364693999996,N,13701.490418599999,E,4,13,1.1,93.778,M,37.55,M,4.0,0000*6F,37.23227448999999,137.02484031,679622.9363039389,4122560.688286933
1292,[2021-02-22 14:54:01.919] $GPGGA,55401.5,3713.9364696000002,N,13701.4904177,E,4,13,1.1,93.7789,M,37.55,M,4.0,0000*6B,37.232274493333335,137.02484029500002,679622.934965234,4122560.6886283206
1293,[2021-02-22 14:54:02.044] $GPGGA,55401.6,3713.9364698,N,13701.490416600001,E,4,13,1.1,93.7787,M,37.55,M,4.0,0000*68,37.23227449666667,137.02484027666668,679622.9333307957,4122560.688963382
1294,[2021-02-22 14:54:02.122] $GPGGA,55401.7,3713.9364693,N,13701.4904163,E,4,13,1.1,93.7778,M,37.55,M,4.0,0000*67,37.23227448833334,137.02484027166665,679622.9329069735,4122560.688029256
1295,[2021-02-22 14:54:02.247] $GPGGA,55401.8,3713.9364698,N,13701.4904169,E,4,13,1.1,93.7786,M,37.55,M,4.0,0000*68,37.23227449666667,137.02484028166668,679622.9337743949,4122560.6889728718
1296,[2021-02-22 14:54:02.325] $GPGGA,55401.9,3713.9364701,N,13701.490417500001,E,4,13,1.1,93.7784,M,37.55,M,4.0,0000*67,37.232274501666666,137.02484029166666,679622.9346497211,4122560.6895466307
1297,[2021-02-22 14:54:02.450] $GPGGA,55402.0,3713.93647,N,13701.490417899999,E,4,13,1.1,93.7774,M,37.55,M,5.0,0000*6E,37.2322745,137.02484029833332,679622.9352451396,4122560.689374357
1298,[2021-02-22 14:54:02.544] $GPGGA,55402.1,3713.9364696999996,N,13701.490417500001,E,4,13,1.1,93.7765,M,37.55,M,5.0,0000*6C,37.232274495,137.02484029166666,679622.9346655445,4122560.688806922
1299,[2021-02-22 14:54:02.653] $GPGGA,55402.2,3713.9364698,N,13701.490416999999,E,4,13,1.1,93.7769,M,37.55,M,5.0,0000*69,37.23227449666667,137.02484028333333,679622.9339222582,4122560.688976034
1300,[2021-02-22 14:54:02.731] $GPGGA,55402.3,3713.9364689000004,N,13701.490416600001,E,4,13,1.1,93.7782,M,37.55,M,5.0,0000*6A,37.23227448166667,137.02484027666668,679622.9333663983,4122560.687299037
1301,[2021-02-22 14:54:02.841] $GPGGA,55402.4,3713.9364686999998,N,13701.490416600001,E,4,13,1.1,93.7791,M,37.55,M,5.0,0000*61,37.23227447833333,137.02484027666668,679622.9333743101,4122560.6869291817
1302,[2021-02-22 14:54:02.950] $GPGGA,55402.5,3713.9364688,N,13701.490416799998,E,4,13,1.1,93.7804,M,37.55,M,5.0,0000*62,37.23227448,137.02484027999998,679622.9336660833,4122560.6871204358
1303,[2021-02-22 14:54:03.028] $GPGGA,55402.6,3713.9364693,N,13701.490416799998,E,4,13,1.1,93.7814,M,37.55,M,5.0,0000*6A,37.23227448833334,137.02484027999998,679622.9336463041,4122560.6880450724
1304,[2021-02-22 14:54:03.153] $GPGGA,55402.7,3713.9364696000002,N,13701.4904163,E,4,13,1.1,93.782,M,37.55,M,5.0,0000*62,37.232274493333335,137.02484027166665,679622.9328951059,4122560.6885840376
1305,[2021-02-22 14:54:03.231] $GPGGA,55402.8,3713.9364698,N,13701.490416799998,E,4,13,1.1,93.7818,M,37.55,M,5.0,0000*63,37.23227449666667,137.02484027999998,679622.9336265246,4122560.6889697085
1306,[2021-02-22 14:54:03.356] $GPGGA,55402.9,3713.9364698,N,13701.490417500001,E,4,13,1.1,93.7817,M,37.55,M,5.0,0000*61,37.23227449666667,137.02484029166666,679622.9346615887,4122560.68899185
1307,[2021-02-22 14:54:03.419] $GPGGA,55403.0,3713.9364692000004,N,13701.4904181,E,4,13,1.1,93.7812,M,37.55,M,6.0,0000*6E,37.23227448666667,137.02484030166664,679622.9355725178,4122560.6879012636
1308,[2021-02-22 14:54:03.528] $GPGGA,55403.1,3713.9364695,N,13701.4904181,E,4,13,1.1,93.7813,M,37.55,M,6.0,0000*69,37.232274491666665,137.02484030166664,679622.9355606502,4122560.688456046
1309,[2021-02-22 14:54:03.637] $GPGGA,55403.2,3713.9364693999996,N,13701.4904171,E,4,13,1.1,93.782,M,37.55,M,1.0,0000*63,37.23227448999999,137.024840285,679622.9340859496,4122560.6882394864
1310,[2021-02-22 14:54:03.747] $GPGGA,55403.3,3713.9364696999996,N,13701.490416600001,E,4,13,1.1,93.7819,M,37.55,M,1.0,0000*6D,37.232274495,137.02484027666668,679622.9333347515,4122560.6887784544
1311,[2021-02-22 14:54:03.825] $GPGGA,55403.4,3713.9364695,N,13701.490416799998,E,4,13,1.1,93.7808,M,37.55,M,1.0,0000*66,37.232274491666665,137.02484027999998,679622.9336383922,4122560.688414926
1312,[2021-02-22 14:54:03.950] $GPGGA,55403.5,3713.9364689000004,N,13701.490418200001,E,4,13,1.1,93.7794,M,37.55,M,1.0,0000*64,37.23227448166667,137.02484030333335,679622.9357322556,4122560.687349646
1313,[2021-02-22 14:54:04.028] $GPGGA,55403.6,3713.9364689000004,N,13701.490419400001,E,4,13,1.1,93.7783,M,37.55,M,1.0,0000*66,37.23227448166667,137.02484032333334,679622.9375066478,4122560.687387603
1314,[2021-02-22 14:54:04.153] $GPGGA,55403.7,3713.9364678999996,N,13701.490419799999,E,4,13,1.1,93.7775,M,37.55,M,1.0,0000*6D,37.232274464999996,137.02484032999996,679622.9381376667,4122560.685550982
1315,[2021-02-22 14:54:04.231] $GPGGA,55403.8,3713.9364685,N,13701.4904192,E,4,13,1.1,93.7768,M,37.55,M,1.0,0000*67,37.232274475000004,137.02484031999998,679622.9372267376,4122560.686641568
1316,[2021-02-22 14:54:04.341] $GPGGA,55403.9,3713.9364695,N,13701.4904189,E,4,13,1.1,93.7753,M,37.55,M,1.0,0000*65,37.232274491666665,137.02484031500003,679622.9367435845,4122560.688481351
1317,[2021-02-22 14:54:04.419] $GPGGA,55404.0,3713.9364695,N,13701.490417899999,E,4,13,1.1,93.7736,M,37.55,M,2.0,0000*64,37.232274491666665,137.02484029833332,679622.935264919,4122560.6884497204
1318,[2021-02-22 14:54:04.528] $GPGGA,55404.1,3713.9364693,N,13701.4904188,E,4,13,1.1,93.7733,M,37.55,M,2.0,0000*68,37.23227448833334,137.02484031333333,679622.9366036282,4122560.6881083334
1319,[2021-02-22 14:54:04.653] $GPGGA,55404.2,3713.9364696000002,N,13701.490419799999,E,4,13,1.1,93.7734,M,37.55,M,2.0,0000*68,37.232274493333335,137.02484032999996,679622.9380704171,4122560.6886947444
1320,[2021-02-22 14:54:04.747] $GPGGA,55404.3,3713.9364696999996,N,13701.490420700002,E,4,13,1.1,93.7746,M,37.55,M,2.0,0000*68,37.232274495,137.02484034500006,679622.9393972657,4122560.6889081406
1321,[2021-02-22 14:54:04.856] $GPGGA,55404.4,3713.9364695,N,13701.4904204,E,4,13,1.1,93.7739,M,37.55,M,2.0,0000*66,37.232274491666665,137.02484034,679622.9389615736,4122560.6885287967
1322,[2021-02-22 14:54:04.934] $GPGGA,55404.5,3713.9364704000004,N,13701.4904209,E,4,13,1.1,93.772,M,37.55,M,2.0,0000*6B,37.23227450666667,137.02484034833336,679622.9396653037,4122560.690208957
1323,[2021-02-22 14:54:05.044] $GPGGA,55404.6,3713.9364703,N,13701.490419999998,E,4,13,1.1,93.7703,M,37.55,M,2.0,0000*67,37.232274505,137.02484033333332,679622.9383384619,4122560.6899955613
1324,[2021-02-22 14:54:05.122] $GPGGA,55404.7,3713.9364708999997,N,13701.4904195,E,4,13,1.1,93.7707,M,37.55,M,2.0,0000*67,37.232274515,137.02484032499999,679622.9375753963,4122560.6910893098
1325,[2021-02-22 14:54:05.247] $GPGGA,55404.8,3713.9364708000003,N,13701.490419,E,4,13,1.1,93.7721,M,37.55,M,2.0,0000*68,37.23227451333334,137.02484031666668,679622.9368400238,4122560.6908885683
1326,[2021-02-22 14:54:05.325] $GPGGA,55404.9,3713.9364696999996,N,13701.4904188,E,4,13,1.1,93.7737,M,37.55,M,2.0,0000*60,37.232274495,137.02484031333333,679622.9365878048,4122560.6888480415
1327,[2021-02-22 14:54:05.450] $GPGGA,55405.0,3713.9364691,N,13701.4904196,E,4,13,1.1,93.7725,M,37.55,M,3.0,0000*63,37.232274485,137.02484032666666,679622.9377944674,4122560.6877637836
1328,[2021-02-22 14:54:05.544] $GPGGA,55405.1,3713.9364689999998,N,13701.4904197,E,4,13,1.1,93.7724,M,37.55,M,3.0,0000*63,37.232274483333335,137.0248403283333,679622.937946289,4122560.687582019
1329,[2021-02-22 14:54:05.653] $GPGGA,55405.2,3713.9364688,N,13701.4904199,E,4,13,1.1,93.7739,M,37.55,M,3.0,0000*6B,37.23227448,137.02484033166667,679622.9382499342,4122560.687218491
1330,[2021-02-22 14:54:05.731] $GPGGA,55405.3,3713.9364693999996,N,13701.490419799999,E,4,13,1.1,93.774,M,37.55,M,3.0,0000*68,37.23227448999999,137.02484032999996,679622.9380783289,4122560.688324889
1331,[2021-02-22 14:54:05.840] $GPGGA,55405.4,3713.9364689999998,N,13701.490419799999,E,4,13,1.1,93.7748,M,37.55,M,3.0,0000*63,37.232274483333335,137.02484032999996,679622.9380941523,4122560.6875851816
1332,[2021-02-22 14:54:05.919] $GPGGA,55405.5,3713.9364695,N,13701.490420299999,E,4,13,1.1,93.7726,M,37.55,M,3.0,0000*6E,37.232274491666665,137.02484033833332,679622.9388137057,4122560.688525634
1333,[2021-02-22 14:54:06.044] $GPGGA,55405.6,3713.9364693,N,13701.490420700002,E,4,13,1.1,93.7727,M,37.55,M,3.0,0000*6E,37.23227448833334,137.02484034500006,679622.9394130891,4122560.688168432
1334,[2021-02-22 14:54:06.122] $GPGGA,55405.7,3713.9364692000004,N,13701.4904208,E,4,13,1.1,93.772,M,37.55,M,3.0,0000*66,37.23227448666667,137.0248403466667,679622.9395649083,4122560.6879866673
1335,[2021-02-22 14:54:06.247] $GPGGA,55405.8,3713.9364693999996,N,13701.4904204,E,4,13,1.1,93.7744,M,37.55,M,3.0,0000*61,37.23227448999999,137.02484034,679622.9389655296,4122560.688343868
1336,[2021-02-22 14:54:06.325] $GPGGA,55405.9,3713.9364706999995,N,13701.4904206,E,4,13,1.1,93.7733,M,37.55,M,3.0,0000*69,37.23227451166667,137.0248403433333,679622.9392098323,4122560.6907542488
1337,[2021-02-22 14:54:06.450] $GPGGA,55406.0,3713.9364704000004,N,13701.490419799999,E,4,13,1.1,93.7718,M,37.55,M,4.0,0000*6A,37.23227450666667,137.02484032999996,679622.9380387702,4122560.6901741633
1338,[2021-02-22 14:54:06.544] $GPGGA,55406.1,3713.9364699000002,N,13701.490420500002,E,4,13,1.1,93.7718,M,37.55,M,4.0,0000*69,37.23227449833334,137.0248403416667,679622.9390936204,4122560.689271669
1339,[2021-02-22 14:54:06.622] $GPGGA,55406.2,3713.9364696000002,N,13701.490421,E,4,13,1.1,93.7727,M,37.55,M,4.0,0000*6D,37.232274493333335,137.02484035,679622.9398448139,4122560.6887327014
1340,[2021-02-22 14:54:06.747] $GPGGA,55406.3,3713.9364696000002,N,13701.490420500002,E,4,13,1.1,93.772,M,37.55,M,4.0,0000*6F,37.232274493333335,137.0248403416667,679622.939105488,4122560.6887168866
1341,[2021-02-22 14:54:06.825] $GPGGA,55406.4,3713.9364698,N,13701.4904204,E,4,13,1.1,93.7724,M,37.55,M,4.0,0000*63,37.23227449666667,137.02484034,679622.938949706,4122560.6890835785
1342,[2021-02-22 14:54:06.950] $GPGGA,55406.5,3713.9364704000004,N,13701.4904196,E,4,13,1.1,93.7733,M,37.55,M,4.0,0000*68,37.23227450666667,137.02484032666666,679622.9377430412,4122560.690167838
1343,[2021-02-22 14:54:07.028] $GPGGA,55406.6,3713.9364699000002,N,13701.490419999998,E,4,13,1.1,93.7742,M,37.55,M,4.0,0000*64,37.23227449833334,137.02484033333332,679622.9383542853,4122560.6892558536
1344,[2021-02-22 14:54:07.153] $GPGGA,55406.7,3713.9364685,N,13701.490420200002,E,4,13,1.1,93.7752,M,37.55,M,4.0,0000*6B,37.232274475000004,137.0248403366667,679622.9387054032,4122560.686673199
1345,[2021-02-22 14:54:07.231] $GPGGA,55406.8,3713.936468,N,13701.4904208,E,4,13,1.1,93.7748,M,37.55,M,4.0,0000*60,37.23227446666667,137.0248403466667,679622.9396123786,4122560.6857675402
1346,[2021-02-22 14:54:07.340] $GPGGA,55406.9,3713.9364683,N,13701.4904204,E,4,13,1.1,93.7737,M,37.55,M,4.0,0000*66,37.23227447166666,137.02484034,679622.939009044,4122560.686309669
1347,[2021-02-22 14:54:07.419] $GPGGA,55407.0,3713.9364683,N,13701.4904189,E,4,13,1.1,93.7732,M,37.55,M,5.0,0000*6C,37.23227447166666,137.02484031500003,679622.9367910548,4122560.6862622225
1348,[2021-02-22 14:54:07.528] $GPGGA,55407.1,3713.9364685,N,13701.490419400001,E,4,13,1.1,93.7743,M,37.55,M,5.0,0000*61,37.232274475000004,137.02484032333334,679622.9375224712,4122560.686647895
1349,[2021-02-22 14:54:07.622] $GPGGA,55407.2,3713.9364691,N,13701.490419799999,E,4,13,1.1,93.7744,M,37.55,M,5.0,0000*6C,37.232274485,137.02484032999996,679622.9380901965,4122560.6877701087
1350,[2021-02-22 14:54:07.747] $GPGGA,55407.3,3713.9364689000004,N,13701.4904208,E,4,13,1.1,93.7744,M,37.55,M,5.0,0000*6E,37.23227448166667,137.0248403466667,679622.9395767759,4122560.687431886
1351,[2021-02-22 14:54:07.825] $GPGGA,55407.4,3713.9364693,N,13701.490420299999,E,4,13,1.1,93.7751,M,37.55,M,5.0,0000*6D,37.23227448833334,137.02484033833332,679622.9388216175,4122560.688155779
1352,[2021-02-22 14:54:07.950] $GPGGA,55407.5,3713.9364699000002,N,13701.490420299999,E,4,13,1.1,93.7758,M,37.55,M,5.0,0000*6F,37.23227449833334,137.02484033833332,679622.9387978823,4122560.6892653424
1353,[2021-02-22 14:54:08.028] $GPGGA,55407.6,3713.9364708000003,N,13701.4904206,E,4,13,1.1,93.7758,M,37.55,M,5.0,0000*60,37.23227451333334,137.0248403433333,679622.9392058766,4122560.6909391764
1354,[2021-02-22 14:54:08.153] $GPGGA,55407.7,3713.9364698,N,13701.4904204,E,4,13,1.1,93.7757,M,37.55,M,5.0,0000*64,37.23227449666667,137.02484034,679622.938949706,4122560.6890835785
1355,[2021-02-22 14:54:08.247] $GPGGA,55407.8,3713.9364695,N,13701.490419999998,E,4,13,1.1,93.7768,M,37.55,M,5.0,0000*6E,37.232274491666665,137.02484033333332,679622.9383701088,4122560.688516145
1356,[2021-02-22 14:54:08.325] $GPGGA,55407.9,3713.9364692000004,N,13701.4904199,E,4,13,1.1,93.7766,M,37.55,M,5.0,0000*65,37.23227448666667,137.02484033166667,679622.9382341108,4122560.6879581995
1357,[2021-02-22 14:54:08.450] $GPGGA,55408.0,3713.9364696999996,N,13701.490419400001,E,4,13,1.1,93.7745,M,37.55,M,6.0,0000*69,37.232274495,137.02484032333334,679622.9374750009,4122560.6888670204
1358,[2021-02-22 14:54:08.543] $GPGGA,55408.1,3713.9364704000004,N,13701.4904196,E,4,13,1.1,93.7753,M,37.55,M,6.0,0000*66,37.23227450666667,137.02484032666666,679622.9377430412,4122560.690167838
1359,[2021-02-22 14:54:08.653] $GPGGA,55408.2,3713.9364698,N,13701.4904192,E,4,13,1.1,93.7747,M,37.55,M,1.0,0000*67,37.23227449666667,137.02484031999998,679622.9371753115,4122560.689045622
1360,[2021-02-22 14:54:08.731] $GPGGA,55408.3,3713.9364688,N,13701.4904199,E,4,13,1.1,93.7746,M,37.55,M,1.0,0000*6D,37.23227448,137.02484033166667,679622.9382499342,4122560.687218491
1361,[2021-02-22 14:54:08.856] $GPGGA,55408.4,3713.9364681,N,13701.490420500002,E,4,13,1.1,93.775,M,37.55,M,1.0,0000*62,37.23227446833334,137.0248403416667,679622.9391648258,4122560.6859429795
1362,[2021-02-22 14:54:08.934] $GPGGA,55408.5,3713.9364677000003,N,13701.490420299999,E,4,13,1.1,93.7754,M,37.55,M,1.0,0000*68,37.23227446166667,137.02484033833332,679622.9388849112,4122560.685196943
1363,[2021-02-22 14:54:09.043] $GPGGA,55408.6,3713.9364678999996,N,13701.4904204,E,4,13,1.1,93.7748,M,37.55,M,1.0,0000*6F,37.232274464999996,137.02484034,679622.9390248675,4122560.6855699606
1364,[2021-02-22 14:54:09.121] $GPGGA,55408.7,3713.936468,N,13701.490419400001,E,4,13,1.1,93.7755,M,37.55,M,1.0,0000*6E,37.23227446666667,137.02484032333334,679622.9375422506,4122560.6857232577
1365,[2021-02-22 14:54:09.246] $GPGGA,55408.8,3713.9364684,N,13701.4904189,E,4,13,1.1,93.7751,M,37.55,M,1.0,0000*6D,37.232274473333334,137.02484031500003,679622.9367870989,4122560.6864471515
1366,[2021-02-22 14:54:09.340] $GPGGA,55408.9,3713.9364686,N,13701.4904189,E,4,13,1.1,93.7757,M,37.55,M,1.0,0000*68,37.23227447666667,137.02484031500003,679622.9367791872,4122560.686817005
1367,[2021-02-22 14:54:09.450] $GPGGA,55409.0,3713.9364685,N,13701.490419,E,4,13,1.1,93.7732,M,37.55,M,2.0,0000*6B,37.232274475000004,137.02484031666668,679622.9369310087,4122560.6866352423
1368,[2021-02-22 14:54:09.543] $GPGGA,55409.1,3713.9364681999996,N,13701.4904206,E,4,13,1.1,93.7712,M,37.55,M,2.0,0000*63,37.232274469999986,137.0248403433333,679622.939308729,4122560.686131066
1369,[2021-02-22 14:54:09.653] $GPGGA,55409.2,3713.9364677000003,N,13701.4904206,E,4,13,1.1,93.7711,M,37.55,M,2.0,0000*69,37.23227446166667,137.0248403433333,679622.9393285082,4122560.6852064324
1370,[2021-02-22 14:54:09.731] $GPGGA,55409.3,3713.9364684,N,13701.4904215,E,4,13,1.1,93.7715,M,37.55,M,2.0,0000*62,37.232274473333334,137.02484035833334,679622.9406316148,4122560.686529392
1371,[2021-02-22 14:54:09.840] $GPGGA,55409.4,3713.9364692000004,N,13701.4904211,E,4,13,1.1,93.7704,M,37.55,M,2.0,0000*66,37.23227448666667,137.02484035166665,679622.9400085029,4122560.6879961565
1372,[2021-02-22 14:54:09.934] $GPGGA,55409.5,3713.9364701,N,13701.4904204,E,4,13,1.1,93.7701,M,37.55,M,2.0,0000*6D,37.232274501666666,137.02484034,679622.9389378385,4122560.68963836
1373,[2021-02-22 14:54:10.043] $GPGGA,55409.6,3713.9364703,N,13701.4904196,E,4,13,1.1,93.7718,M,37.55,M,2.0,0000*6C,37.232274505,137.02484032666666,679622.937746997,4122560.6899829097
1374,[2021-02-22 14:54:10.153] $GPGGA,55409.7,3713.9364696999996,N,13701.490419299998,E,4,13,1.1,93.7733,M,37.55,M,2.0,0000*6D,37.232274495,137.02484032166663,679622.9373271307,4122560.688863858
1375,[2021-02-22 14:54:10.231] $GPGGA,55409.8,3713.9364695,N,13701.490419999998,E,4,13,1.1,93.7734,M,37.55,M,2.0,0000*6E,37.232274491666665,137.02484033333332,679622.9383701088,4122560.688516145
1376,[2021-02-22 14:54:10.356] $GPGGA,55409.9,3713.9364689999998,N,13701.490420200002,E,4,13,1.1,93.7728,M,37.55,M,2.0,0000*65,37.232274483333335,137.0248403366667,679622.9386856239,4122560.6875978345
1377,[2021-02-22 14:54:10.434] $GPGGA,55410.0,3713.9364693,N,13701.490420500002,E,4,13,1.1,93.771,M,37.55,M,3.0,0000*6A,37.23227448833334,137.0248403416667,679622.9391173555,4122560.688162105
1378,[2021-02-22 14:54:10.543] $GPGGA,55410.1,3713.9364693999996,N,13701.490420299999,E,4,13,1.1,93.7714,M,37.55,M,3.0,0000*6E,37.23227448999999,137.02484033833332,679622.9388176616,4122560.6883407054
1379,[2021-02-22 14:54:10.621] $GPGGA,55410.2,3713.9364695,N,13701.4904189,E,4,13,1.1,93.771,M,37.55,M,3.0,0000*69,37.232274491666665,137.02484031500003,679622.9367435845,4122560.688481351
1380,[2021-02-22 14:54:10.746] $GPGGA,55410.3,3713.9364703,N,13701.490418700001,E,4,13,1.1,93.7705,M,37.55,M,3.0,0000*6C,37.232274505,137.02484031166668,679622.936416204,4122560.6899544415
1381,[2021-02-22 14:54:10.824] $GPGGA,55410.4,3713.9364699000002,N,13701.4904192,E,4,13,1.1,93.7704,M,37.55,M,3.0,0000*6C,37.23227449833334,137.02484031999998,679622.9371713557,4122560.689230549
1382,[2021-02-22 14:54:10.949] $GPGGA,55410.5,3713.9364693,N,13701.4904201,E,4,13,1.1,93.7692,M,37.55,M,3.0,0000*60,37.23227448833334,137.02484033500002,679622.9385258884,4122560.688149453
1383,[2021-02-22 14:54:11.028] $GPGGA,55410.6,3713.9364678999996,N,13701.490420500002,E,4,13,1.1,93.77,M,37.55,M,3.0,0000*69,37.232274464999996,137.0248403416667,679622.9391727375,4122560.685573124
1384,[2021-02-22 14:54:11.153] $GPGGA,55410.7,3713.9364676,N,13701.4904208,E,4,13,1.1,93.7705,M,37.55,M,3.0,0000*6F,37.23227446,137.0248403466667,679622.9396282022,4122560.6850278317
1385,[2021-02-22 14:54:11.231] $GPGGA,55410.8,3713.9364678999996,N,13701.490420500002,E,4,13,1.1,93.7712,M,37.55,M,3.0,0000*64,37.232274464999996,137.0248403416667,679622.9391727375,4122560.685573124
1386,[2021-02-22 14:54:11.340] $GPGGA,55410.9,3713.9364684,N,13701.490419100002,E,4,13,1.1,93.7713,M,37.55,M,3.0,0000*68,37.232274473333334,137.0248403183334,679622.9370828348,4122560.6864534775
1387,[2021-02-22 14:54:11.418] $GPGGA,55411.0,3713.9364688,N,13701.4904174,E,4,13,1.1,93.7705,M,37.55,M,4.0,0000*67,37.23227448,137.02484029000001,679622.934553284,4122560.6871394133
1388,[2021-02-22 14:54:11.543] $GPGGA,55411.1,3713.9364691,N,13701.4904178,E,4,13,1.1,93.772,M,37.55,M,4.0,0000*65,37.232274485,137.02484029666667,679622.935132879,4122560.6877068477
1389,[2021-02-22 14:54:11.637] $GPGGA,55411.2,3713.9364685,N,13701.4904178,E,4,13,1.1,93.7723,M,37.55,M,4.0,0000*60,37.232274475000004,137.02484029666667,679622.935156614,4122560.6865972853
1390,[2021-02-22 14:54:11.746] $GPGGA,55411.3,3713.9364685,N,13701.490419,E,4,13,1.1,93.7726,M,37.55,M,4.0,0000*62,37.232274475000004,137.02484031666668,679622.9369310087,4122560.6866352423
1391,[2021-02-22 14:54:11.856] $GPGGA,55411.4,3713.9364685,N,13701.490419999998,E,4,13,1.1,93.7722,M,37.55,M,4.0,0000*6B,37.232274475000004,137.02484033333332,679622.9384096673,4122560.6866668733
1392,[2021-02-22 14:54:11.934] $GPGGA,55411.5,3713.9364691,N,13701.490420200002,E,4,13,1.1,93.7715,M,37.55,M,4.0,0000*69,37.232274485,137.0248403366667,679622.938681668,4122560.687782761
1393,[2021-02-22 14:54:12.043] $GPGGA,55411.6,3713.9364695,N,13701.490419,E,4,13,1.1,93.7711,M,37.55,M,4.0,0000*62,37.232274491666665,137.02484031666668,679622.9368914501,4122560.688484514
1394,[2021-02-22 14:54:12.121] $GPGGA,55411.7,3713.9364693999996,N,13701.4904183,E,4,13,1.1,93.7706,M,37.55,M,4.0,0000*66,37.23227448999999,137.024840305,679622.9358603419,4122560.6882774434
1395,[2021-02-22 14:54:12.246] $GPGGA,55411.8,3713.9364688,N,13701.4904189,E,4,13,1.1,93.7719,M,37.55,M,4.0,0000*60,37.23227448,137.02484031500003,679622.9367712755,4122560.68718686
1396,[2021-02-22 14:54:12.324] $GPGGA,55411.9,3713.9364686999998,N,13701.4904201,E,4,13,1.1,93.7728,M,37.55,M,4.0,0000*6F,37.23227447833333,137.02484033500002,679622.9385496236,4122560.6870398894
1397,[2021-02-22 14:54:12.449] $GPGGA,55412.0,3713.9364678,N,13701.4904196,E,4,13,1.1,93.7721,M,37.55,M,5.0,0000*60,37.23227446333333,137.02484032666666,679622.9378458936,4122560.6853597295
1398,[2021-02-22 14:54:12.543] $GPGGA,55412.1,3713.9364678,N,13701.4904192,E,4,13,1.1,93.7725,M,37.55,M,5.0,0000*61,37.23227446333333,137.02484031999998,679622.9372544287,4122560.6853470774
1399,[2021-02-22 14:54:12.652] $GPGGA,55412.2,3713.9364683,N,13701.490419299998,E,4,13,1.1,93.7725,M,37.55,M,5.0,0000*67,37.23227447166666,137.02484032166663,679622.9373825128,4122560.6862748754
1400,[2021-02-22 14:54:12.731] $GPGGA,55412.3,3713.9364683,N,13701.490419299998,E,4,13,1.1,93.7717,M,37.55,M,5.0,0000*67,37.23227447166666,137.02484032166663,679622.9373825128,4122560.6862748754
1401,[2021-02-22 14:54:12.856] $GPGGA,55412.4,3713.9364681999996,N,13701.490419100002,E,4,13,1.1,93.7726,M,37.55,M,5.0,0000*61,37.232274469999986,137.0248403183334,679622.9370907465,4122560.686083622
1402,[2021-02-22 14:54:12.934] $GPGGA,55412.5,3713.9364684,N,13701.4904188,E,4,13,1.1,93.7734,M,37.55,M,5.0,0000*6D,37.232274473333334,137.02484031333333,679622.9366392309,4122560.6864439882
1403,[2021-02-22 14:54:13.043] $GPGGA,55412.6,3713.936468,N,13701.490418599999,E,4,13,1.1,93.7744,M,37.55,M,5.0,0000*63,37.23227446666667,137.02484031,679622.9363593209,4122560.6856979523
1404,[2021-02-22 14:54:13.121] $GPGGA,55412.7,3713.936468,N,13701.490418200001,E,4,13,1.1,93.7746,M,37.55,M,5.0,0000*64,37.23227446666667,137.02484030333335,679622.9357678583,4122560.6856853
1405,[2021-02-22 14:54:13.246] $GPGGA,55412.8,3713.9364676,N,13701.4904183,E,4,13,1.1,93.7741,M,37.55,M,5.0,0000*64,37.23227446,137.024840305,679622.9359315474,4122560.684948754
1406,[2021-02-22 14:54:13.324] $GPGGA,55412.9,3713.9364671999997,N,13701.490418399999,E,4,13,1.1,93.7742,M,37.55,M,5.0,0000*65,37.23227445333333,137.02484030666665,679622.9360952342,4122560.6842122087
1407,[2021-02-22 14:54:13.449] $GPGGA,55413.0,3713.936467,N,13701.4904185,E,4,13,1.1,93.7721,M,37.55,M,6.0,0000*68,37.23227445,137.02484030833335,679622.9362510161,4122560.683845517
1408,[2021-02-22 14:54:13.527] $GPGGA,55413.1,3713.9364669,N,13701.4904188,E,4,13,1.1,93.773,M,37.55,M,6.0,0000*6C,37.232274448333335,137.02484031333333,679622.9366985689,4122560.68367008
1409,[2021-02-22 14:54:13.652] $GPGGA,55413.2,3713.936467,N,13701.490421399998,E,4,13,1.1,93.7585,M,37.55,M,1.0,0000*6A,37.23227445,137.02484035666663,679622.9405391288,4122560.683937246
1410,[2021-02-22 14:54:13.746] $GPGGA,55413.3,3713.9364673,N,13701.4904236,E,4,13,1.1,93.748,M,37.55,M,1.0,0000*6C,37.232274455,137.02484039333333,679622.9437803191,4122560.6845616153
1411,[2021-02-22 14:54:13.824] $GPGGA,55413.4,3713.9364674999997,N,13701.490424399999,E,4,13,1.1,93.7398,M,37.55,M,1.0,0000*66,37.23227445833333,137.02484040666664,679622.9449553326,4122560.684956775
1412,[2021-02-22 14:54:13.949] $GPGGA,55413.5,3713.9364678999996,N,13701.490425999998,E,4,13,1.1,93.7345,M,37.55,M,1.0,0000*6D,37.232274464999996,137.0248404333333,679622.9473053663,4122560.6857470926
1413,[2021-02-22 14:54:14.027] $GPGGA,55413.6,3713.9364681999996,N,13701.4904273,E,4,13,1.1,93.7308,M,37.55,M,1.0,0000*61,37.232274469999986,137.02484045499997,679622.9492157589,4122560.6863429933
1414,[2021-02-22 14:54:14.152] $GPGGA,55413.7,3713.9364681999996,N,13701.490427,E,4,13,1.1,93.7284,M,37.55,M,1.0,0000*66,37.232274469999986,137.02484045000003,679622.9487721643,4122560.6863335036
1415,[2021-02-22 14:54:14.231] $GPGGA,55413.8,3713.9364681,N,13701.4904276,E,4,13,1.1,93.7264,M,37.55,M,1.0,0000*62,37.23227446833334,137.02484046,679622.9496633161,4122560.686167557
1416,[2021-02-22 14:54:14.355] $GPGGA,55413.9,3713.9364691,N,13701.490428100002,E,4,13,1.1,93.7253,M,37.55,M,1.0,0000*6E,37.232274485,137.02484046833337,679622.9503630904,4122560.688032644
1417,[2021-02-22 14:54:14.434] $GPGGA,55414.0,3713.9364688,N,13701.490426700002,E,4,13,1.1,93.7238,M,37.55,M,2.0,0000*6E,37.23227448,137.02484044500002,679622.9483048321,4122560.6874335795
1418,[2021-02-22 14:54:14.527] $GPGGA,55414.1,3713.9364692000004,N,13701.4904266,E,4,13,1.1,93.7232,M,37.55,M,2.0,0000*6F,37.23227448666667,137.02484044333335,679622.9481411407,4122560.6881701252
1419,[2021-02-22 14:54:14.621] $GPGGA,55414.2,3713.9364686,N,13701.4904262,E,4,13,1.1,93.7255,M,37.55,M,2.0,0000*6C,37.23227447666667,137.02484043666664,679622.9475734087,4122560.6870479095
1420,[2021-02-22 14:54:14.746] $GPGGA,55414.3,3713.9364683,N,13701.490426299999,E,4,13,1.1,93.7259,M,37.55,M,2.0,0000*65,37.23227447166666,137.02484043833329,679622.9477331397,4122560.6864962894
1421,[2021-02-22 14:54:14.824] $GPGGA,55414.4,3713.9364683,N,13701.4904266,E,4,13,1.1,93.7283,M,37.55,M,2.0,0000*60,37.23227447166666,137.02484044333335,679622.9481767435,4122560.6865057796
1422,[2021-02-22 14:54:14.949] $GPGGA,55414.5,3713.9364681999996,N,13701.4904266,E,4,13,1.1,93.7299,M,37.55,M,2.0,0000*6B,37.232274469999986,137.02484044333335,679622.9481806994,4122560.686320851
1423,[2021-02-22 14:54:15.027] $GPGGA,55414.6,3713.9364688,N,13701.4904262,E,4,13,1.1,93.7322,M,37.55,M,2.0,0000*67,37.23227448,137.02484043666664,679622.9475654971,4122560.6874177638
1424,[2021-02-22 14:54:15.152] $GPGGA,55414.7,3713.9364686,N,13701.4904262,E,4,13,1.1,93.734,M,37.55,M,2.0,0000*6C,37.23227447666667,137.02484043666664,679622.9475734087,4122560.6870479095
1425,[2021-02-22 14:54:15.230] $GPGGA,55414.8,3713.9364693999996,N,13701.4904262,E,4,13,1.1,93.7359,M,37.55,M,2.0,0000*68,37.23227448999999,137.02484043666664,679622.9475417619,4122560.688527326
1426,[2021-02-22 14:54:15.340] $GPGGA,55414.9,3713.9364693,N,13701.4904257,E,4,13,1.1,93.7368,M,37.55,M,2.0,0000*6A,37.23227448833334,137.02484042833336,679622.9468063917,4122560.6883265846
1427,[2021-02-22 14:54:15.449] $GPGGA,55415.0,3713.9364686,N,13701.4904256,E,4,13,1.1,93.7341,M,37.55,M,3.0,0000*6D,37.23227447666667,137.0248404266667,679622.9466862171,4122560.687028931
