,Format,Time,Latitude,LatType,Longitude,LonType,Status,Satellite,LevelAccuracy,Altitude(sea),M(sea),Altitude(geoid),M(geoid),DGPS use,checksum,Lat,Lon,UTM_X,UTM_Y
548,[2021-02-22 14:52:37.534] $GNGGA,55237.1,3713.93654034,N,13701.49006371,E,4,10.0,1.2,94.565,M,36.771,M,1.1,0979*62,37.23227567233333,137.02483439516666,679622.4087356509,4122560.808248907
549,[2021-02-22 14:52:37.628] $GNGGA,55237.2,3713.93653877,N,13701.49006181,E,4,10.0,1.2,94.56700000000001,M,36.771,M,1.2,0979*65,37.23227564616666,137.0248343635,679622.4059883014,4122560.80528545
550,[2021-02-22 14:52:37.722] $GNGGA,55237.3,3713.93654113,N,13701.49006177,E,4,10.0,1.2,94.56700000000001,M,36.771,M,1.3,0979*60,37.2322756855,137.02483436283333,679622.4058357967,4122560.8096484686
551,[2021-02-22 14:52:37.831] $GNGGA,55237.4,3713.93654019,N,13701.49006362,E,4,10.0,1.2,94.572,M,36.771,M,1.4,0979*69,37.232275669833335,137.02483439366665,679622.4086085028,4122560.8079686686
552,[2021-02-22 14:52:37.925] $GNGGA,55237.5,3713.93653925,N,13701.49006363,E,4,10.0,1.2,94.569,M,36.771,M,1.5,0979*63,37.23227565416666,137.02483439383334,679622.4086604785,4122560.8062306703
553,[2021-02-22 14:52:38.034] $GNGGA,55237.6,3713.93654082,N,13701.49006176,E,4,10.0,1.2,94.568,M,36.771,M,1.6,0979*67,37.23227568033333,137.02483436266667,679622.4058332737,4122560.809074878
554,[2021-02-22 14:52:38.128] $GNGGA,55237.7,3713.93654118,N,13701.49006446,E,4,10.0,1.2,94.561,M,36.771,M,1.7,0979*6A,37.23227568633333,137.02483440766667,679622.4098114186,4122560.8098260188
555,[2021-02-22 14:52:38.237] $GNGGA,55237.8,3713.93653977,N,13701.49006328,E,4,10.0,1.2,94.571,M,36.771,M,1.8,0979*62,37.23227566283333,137.024834388,679622.4081223739,4122560.807181221
556,[2021-02-22 14:52:38.331] $GNGGA,55237.9,3713.9365398,N,13701.49006154,E,4,10.0,1.2,94.572,M,36.771,M,1.9,0979*60,37.23227566333334,137.02483435899998,679622.4055483153,4122560.807181663
557,[2021-02-22 14:52:38.440] $GNGGA,55238.0,3713.93653968,N,13701.49006209,E,4,10.0,1.2,94.56700000000001,M,36.771,M,2.0,0979*65,37.23227566133334,137.02483436816667,679622.4063663279,4122560.8069771463
558,[2021-02-22 14:52:38.518] $GNGGA,55238.1,3713.93653919,N,13701.49006407,E,4,10.0,1.2,94.564,M,36.771,M,2.1,0979*68,37.23227565316667,137.0248344011667,679622.4093134613,4122560.806133631
559,[2021-02-22 14:52:38.628] $GNGGA,55238.2,3713.93654271,N,13701.49006606,E,4,10.0,1.2,94.571,M,36.771,M,2.2,0979*6D,37.23227571183334,137.02483443433334,679622.4121167513,4122560.812706014
560,[2021-02-22 14:52:38.737] $GNGGA,55238.3,3713.93654127,N,13701.49006667,E,4,10.0,1.2,94.56299999999999,M,36.771,M,1.3,0979*6A,37.23227568783334,137.0248344445,679622.4130756954,4122560.810062357
561,[2021-02-22 14:52:38.831] $GNGGA,55238.4,3713.9365403,N,13701.49006419,E,4,10.0,1.2,94.56200000000001,M,36.771,M,1.4,0979*67,37.23227567166666,137.02483440316666,679622.4094469893,4122560.8081901185
562,[2021-02-22 14:52:38.925] $GNGGA,55238.5,3713.93654214,N,13701.49006584,E,4,10.0,1.2,94.565,M,36.771,M,1.5,0979*61,37.23227570233333,137.02483443066666,679622.4118139916,4122560.8116449704
563,[2021-02-22 14:52:39.034] $GNGGA,55238.6,3713.93653993,N,13701.49006432,E,4,10.0,1.2,94.571,M,36.771,M,1.6,0979*6B,37.2322756655,137.02483440533334,679622.4096538521,4122560.8075099997
564,[2021-02-22 14:52:39.128] $GNGGA,55238.7,3713.93654145,N,13701.49006298,E,4,10.0,1.2,94.56700000000001,M,36.771,M,1.7,0979*6E,37.23227569083333,137.02483438299998,679622.4076123163,4122560.8102785093
565,[2021-02-22 14:52:39.237] $GNGGA,55238.8,3713.9365421,N,13701.49006428,E,4,10.0,1.2,94.565,M,36.771,M,1.8,0979*62,37.232275701666666,137.02483440466668,679622.4095088657,4122560.811521656
566,[2021-02-22 14:52:39.331] $GNGGA,55238.9,3713.93654011,N,13701.4900647,E,4,10.0,1.2,94.559,M,36.771,M,1.9,0979*63,37.2322756685,137.02483441166666,679622.410208622,4122560.807854888
567,[2021-02-22 14:52:39.440] $GNGGA,55239.0,3713.93654192,N,13701.49006192,E,4,10.0,1.2,94.561,M,36.771,M,2.0,0979*69,37.23227569866666,137.02483436533333,679622.406026344,4122560.811114138
568,[2021-02-22 14:52:39.534] $GNGGA,55239.1,3713.9365386,N,13701.49006336,E,4,10.0,1.2,94.569,M,36.771,M,1.1,0979*6D,37.23227564333334,137.0248343893333,679622.4082869483,4122560.8050201037
569,[2021-02-22 14:52:39.628] $GNGGA,55239.2,3713.93654044,N,13701.49006184,E,4,10.0,1.2,94.565,M,36.771,M,1.2,0979*63,37.23227567400001,137.02483436400004,679622.4059666016,4122560.8083746857
570,[2021-02-22 14:52:39.737] $GNGGA,55239.3,3713.93654185,N,13701.4900629,E,4,10.0,1.2,94.57,M,36.771,M,1.3,0979*6D,37.2322756975,137.0248343816667,679622.407478204,4122560.8110156865
571,[2021-02-22 14:52:39.831] $GNGGA,55239.4,3713.93653934,N,13701.49006332,E,4,10.0,1.2,94.566,M,36.771,M,1.4,0979*66,37.23227565566666,137.02483438866668,679622.4081985329,4122560.8063872983
572,[2021-02-22 14:52:39.925] $GNGGA,55239.5,3713.93653873,N,13701.49006348,E,4,10.0,1.2,94.555,M,36.771,M,1.5,0979*69,37.232275645499996,137.02483439133334,679622.4084592483,4122560.8052643044
573,[2021-02-22 14:52:40.034] $GNGGA,55239.6,3713.93653866,N,13701.49006541,E,4,10.0,1.2,94.568,M,36.771,M,1.6,0979*6C,37.23227564433334,137.02483442349998,679622.4113158319,4122560.8051959025
574,[2021-02-22 14:52:40.128] $GNGGA,55239.7,3713.93654041,N,13701.49006521,E,4,10.0,1.2,94.568,M,36.771,M,1.7,0979*60,37.2322756735,137.02483442016668,679622.4109508755,4122560.808425802
575,[2021-02-22 14:52:40.237] $GNGGA,55239.8,3713.93653824,N,13701.49006413,E,4,10.0,1.2,94.56700000000001,M,36.771,M,1.8,0979*63,37.23227563733334,137.02483440216665,679622.4094397586,4122560.804378721
576,[2021-02-22 14:52:40.315] $GNGGA,55239.9,3713.93653818,N,13701.49006423,E,4,10.0,1.2,94.561,M,36.771,M,1.9,0979*69,37.23227563633333,137.02483440383335,679622.4095900021,4122560.8042709264
577,[2021-02-22 14:52:40.424] $GNGGA,55240.0,3713.93653842,N,13701.49006338,E,4,10.0,1.2,94.573,M,36.771,M,2.0,0979*65,37.23227564033333,137.0248343896667,679622.4083236479,4122560.804687865
578,[2021-02-22 14:52:40.518] $GNGGA,55240.1,3713.93653875,N,13701.49006582,E,4,10.0,1.2,94.565,M,36.771,M,2.1,0979*61,37.23227564583333,137.02483443033333,679622.4119185226,4122560.805375305
579,[2021-02-22 14:52:40.628] $GNGGA,55240.2,3713.9365393,N,13701.49006627,E,4,10.0,1.2,94.56299999999999,M,36.771,M,1.2,0979*68,37.232275654999995,137.02483443783333,679622.4125621631,4122560.806406638
580,[2021-02-22 14:52:40.721] $GNGGA,55240.3,3713.93653978,N,13701.49006606,E,4,10.0,1.2,94.573,M,36.771,M,1.3,0979*66,37.232275662999996,137.02483443433334,679622.4122326577,4122560.8072876465
581,[2021-02-22 14:52:40.831] $GNGGA,55240.4,3713.93653973,N,13701.49006566,E,4,10.0,1.2,94.561,M,36.771,M,1.4,0979*6B,37.232275662166664,137.02483442766666,679622.4116431708,4122560.807182531
582,[2021-02-22 14:52:40.924] $GNGGA,55240.5,3713.93654049,N,13701.49006812,E,4,10.0,1.2,94.556,M,36.771,M,1.5,0979*66,37.23227567483333,137.02483446866668,679622.4152506142,4122560.8086657887
583,[2021-02-22 14:52:41.034] $GNGGA,55240.6,3713.93654238,N,13701.49006519,E,4,10.0,1.2,94.559,M,36.771,M,1.6,0979*6B,37.23227570633333,137.02483441983335,679622.4108433708,4122560.8120682356
584,[2021-02-22 14:52:41.128] $GNGGA,55240.7,3713.93653871,N,13701.49006655,E,4,10.0,1.2,94.55799999999999,M,36.771,M,1.7,0979*61,37.232275645166666,137.02483444250004,679622.4129995318,4122560.805324424
585,[2021-02-22 14:52:41.237] $GNGGA,55240.8,3713.93654184,N,13701.49006571,E,4,10.0,1.2,94.564,M,36.771,M,1.8,0979*6F,37.23227569733333,137.02483442850001,679622.411633635,4122560.8110860754
586,[2021-02-22 14:52:41.315] $GNGGA,55240.9,3713.93653843,N,13701.49006451,E,4,10.0,1.2,94.568,M,36.771,M,1.9,0979*65,37.2322756405,137.0248344085,679622.409994135,4122560.8047421016
587,[2021-02-22 14:52:41.440] $GNGGA,55241.0,3713.93653922,N,13701.49006335,E,4,10.0,1.2,94.555,M,36.771,M,1.0,0979*69,37.232275653666676,137.02483438916664,679622.408247636,4122560.8061663355
588,[2021-02-22 14:52:41.518] $GNGGA,55241.1,3713.93654063,N,13701.49006588,E,4,10.0,1.2,94.554,M,36.771,M,1.1,0979*63,37.23227567716667,137.02483443133335,679622.4119328738,4122560.808853835
589,[2021-02-22 14:52:41.628] $GNGGA,55241.2,3713.93653835,N,13701.49006373,E,4,10.0,1.2,94.559,M,36.771,M,1.2,0979*60,37.232275639166666,137.0248343955,679622.4088439445,4122560.804569488
590,[2021-02-22 14:52:41.721] $GNGGA,55241.3,3713.93654184,N,13701.49006737,E,4,10.0,1.2,94.544,M,36.771,M,1.3,0979*6C,37.23227569733333,137.02483445616667,679622.4140882134,4122560.811138584
591,[2021-02-22 14:52:41.831] $GNGGA,55241.4,3713.93653947,N,13701.49006535,E,4,10.0,1.2,94.552,M,36.771,M,1.4,0979*6B,37.232275657833334,137.02483442250002,679622.4111950728,4122560.8066919143
592,[2021-02-22 14:52:41.924] $GNGGA,55241.5,3713.93653759,N,13701.49006341,E,4,10.0,1.2,94.557,M,36.771,M,1.5,0979*6A,37.2322756265,137.02483439016666,679622.4084008376,4122560.80315392
593,[2021-02-22 14:52:42.034] $GNGGA,55241.6,3713.93654012,N,13701.49006295,E,4,10.0,1.2,94.56,M,36.771,M,1.6,0979*69,37.23227566866666,137.02483438250002,679622.4076205731,4122560.8078180277
594,[2021-02-22 14:52:42.127] $GNGGA,55241.7,3713.93653919,N,13701.49006586,E,4,10.0,1.2,94.557,M,36.771,M,1.7,0979*6D,37.23227565316667,137.024834431,679622.4119602635,4122560.80619025
595,[2021-02-22 14:52:42.221] $GNGGA,55241.8,3713.93654029,N,13701.49006206,E,4,10.0,1.2,94.55799999999999,M,36.771,M,1.8,0979*60,37.2322756715,137.02483436766667,679622.4062978389,4122560.808104253
596,[2021-02-22 14:52:42.315] $GNGGA,55241.9,3713.93653571,N,13701.49006457,E,4,10.0,1.2,94.566,M,36.771,M,1.9,0979*60,37.23227559516666,137.02483440950002,679622.4101904553,4122560.7997139785
597,[2021-02-22 14:52:42.424] $GNGGA,55242.0,3713.93654018,N,13701.49006307,E,4,10.0,1.2,94.552,M,36.771,M,2.0,0979*68,37.23227566966666,137.0248343845,679622.4077956374,4122560.80793278
598,[2021-02-22 14:52:42.502] $GNGGA,55242.1,3713.93654106,N,13701.49006545,E,4,10.0,1.2,94.575,M,36.771,M,1.1,0979*60,37.23227568433333,137.02483442416667,679622.4112800383,4122560.8096354203
599,[2021-02-22 14:52:42.627] $GNGGA,55242.2,3713.93654027,N,13701.49006651,E,4,10.0,1.2,94.56700000000001,M,36.771,M,1.2,0979*67,37.23227567116667,137.02483444183332,679622.4128786693,4122560.808208023
600,[2021-02-22 14:52:42.721] $GNGGA,55242.3,3713.93654083,N,13701.49006617,E,4,10.0,1.2,94.571,M,36.771,M,1.3,0979*6C,37.2322756805,137.02483443616663,679622.4123537685,4122560.809232862
601,[2021-02-22 14:52:42.831] $GNGGA,55242.4,3713.93653921,N,13701.49006712,E,4,10.0,1.2,94.565,M,36.771,M,1.4,0979*6B,37.2322756535,137.024834452,679622.4138225858,4122560.8062670897
602,[2021-02-22 14:52:42.924] $GNGGA,55242.5,3713.93654166,N,13701.49006774,E,4,10.0,1.2,94.56,M,36.771,M,1.5,0979*62,37.23227569433333,137.02483446233333,679622.4146424358,4122560.8108174177
603,[2021-02-22 14:52:43.034] $GNGGA,55242.6,3713.93653882,N,13701.49006464,E,4,10.0,1.2,94.568,M,36.771,M,1.6,0979*6C,37.232275646999994,137.02483441066667,679622.4101709335,4122560.80546743
604,[2021-02-22 14:52:43.127] $GNGGA,55242.7,3713.93653985,N,13701.49006615,E,4,10.0,1.2,94.566,M,36.771,M,1.7,0979*60,37.232275664166664,137.02483443583336,679622.4123629681,4122560.8074199427
605,[2021-02-22 14:52:43.221] $GNGGA,55242.8,3713.93654205,N,13701.49006488,E,4,10.0,1.2,94.57799999999999,M,36.771,M,1.8,0979*6D,37.232275700833334,137.02483441466666,679622.4103980375,4122560.8114481703
606,[2021-02-22 14:52:43.315] $GNGGA,55242.9,3713.93654046,N,13701.49006812,E,4,10.0,1.2,94.564,M,36.771,M,1.9,0979*6A,37.23227567433333,137.02483446866668,679622.415251801,4122560.80861031
607,[2021-02-22 14:52:43.440] $GNGGA,55243.0,3713.93654006,N,13701.49006699,E,4,10.0,1.2,94.56299999999999,M,36.771,M,2.0,0979*66,37.23227566766666,137.02483444983332,679622.4135967349,4122560.807834858
608,[2021-02-22 14:52:43.565] $GNGGA,55243.1,3713.936538,N,13701.49006438,E,4,10.0,1.2,94.564,M,36.771,M,1.1,0979*62,37.23227563333334,137.02483440633333,679622.4098189189,4122560.8039428038
609,[2021-02-22 14:52:43.627] $GNGGA,55243.2,3713.93653952,N,13701.49006219,E,4,10.0,1.2,94.56,M,36.771,M,1.2,0979*65,37.23227565866667,137.02483436983331,679622.4065205229,4122560.8066844256
610,[2021-02-22 14:52:43.721] $GNGGA,55243.3,3713.93654235,N,13701.49006465,E,4,10.0,1.2,94.554,M,36.771,M,1.3,0979*62,37.232275705833324,137.02483441083334,679622.4100460804,4122560.8119956767
611,[2021-02-22 14:52:43.830] $GNGGA,55243.4,3713.9365421,N,13701.49006642,E,4,10.0,1.2,94.555,M,36.771,M,1.4,0979*63,37.232275701666666,137.0248344403333,679622.4126731955,4122560.8115893453
612,[2021-02-22 14:52:43.924] $GNGGA,55243.5,3713.93654239,N,13701.49006636,E,4,10.0,1.2,94.56,M,36.771,M,1.5,0979*6D,37.23227570649999,137.02483443933335,679622.4125730091,4122560.812123735
613,[2021-02-22 14:52:44.034] $GNGGA,55243.6,3713.93654324,N,13701.49006494,E,4,10.0,1.2,94.55799999999999,M,36.771,M,1.6,0979*61,37.232275720666664,137.02483441566667,679622.410439684,4122560.813650701
614,[2021-02-22 14:52:44.127] $GNGGA,55243.7,3713.93654266,N,13701.49006509,E,4,10.0,1.2,94.56,M,36.771,M,1.7,0979*68,37.232275711,137.02483441816665,679622.4106844242,4122560.8125828686
615,[2021-02-22 14:52:44.237] $GNGGA,55243.8,3713.93654005,N,13701.49006311,E,4,10.0,1.2,94.56200000000001,M,36.771,M,1.8,0979*62,37.2322756675,137.02483438516668,679622.4078599267,4122560.807693639
616,[2021-02-22 14:52:44.330] $GNGGA,55243.9,3713.93654113,N,13701.49006166,E,4,10.0,1.2,94.559,M,36.771,M,1.9,0979*6E,37.2322756855,137.02483436100002,679622.405673145,4122560.8096449897
617,[2021-02-22 14:52:44.424] $GNGGA,55244.0,3713.93654307,N,13701.49006112,E,4,10.0,1.2,94.574,M,36.771,M,2.0,0979*61,37.232275717833325,137.024834352,679622.4047979243,4122560.8132154956
618,[2021-02-22 14:52:44.502] $GNGGA,55244.1,3713.93654194,N,13701.49006208,E,4,10.0,1.2,94.564,M,36.771,M,1.1,0979*63,37.232275699,137.024834368,679622.4062621396,4122560.811156184
619,[2021-02-22 14:52:44.627] $GNGGA,55244.2,3713.93654439,N,13701.49005862,E,4,10.0,1.2,94.575,M,36.771,M,1.2,0979*64,37.23227573983334,137.02483431033335,679622.4010490547,4122560.81557746
620,[2021-02-22 14:52:44.737] $GNGGA,55244.3,3713.93654209,N,13701.49006115,E,4,10.0,1.2,94.57,M,36.771,M,1.3,0979*6E,37.2322757015,137.0248343525,679622.40488105,4122560.811404159
621,[2021-02-22 14:52:44.830] $GNGGA,55244.4,3713.9365437,N,13701.4900595,E,4,10.0,1.2,94.572,M,36.771,M,1.4,0979*69,37.232275728333335,137.024834325,679622.4023775707,4122560.814329297
622,[2021-02-22 14:52:44.940] $GNGGA,55244.5,3713.93654379,N,13701.49006142,E,4,10.0,1.2,94.572,M,36.771,M,1.5,0979*68,37.23227572983334,137.024834357,679622.4052130413,4122560.8145564636
623,[2021-02-22 14:52:45.034] $GNGGA,55244.6,3713.93654334,N,13701.49006054,E,4,10.0,1.2,94.56299999999999,M,36.771,M,1.6,0979*67,37.232275722333334,137.02483434233332,679622.4039296196,4122560.813696455
624,[2021-02-22 14:52:45.127] $GNGGA,55244.7,3713.93654316,N,13701.49005824,E,4,10.0,1.2,94.56700000000001,M,36.771,M,1.7,0979*6F,37.23227571933333,137.024834304,679622.400535819,4122560.813290835
625,[2021-02-22 14:52:45.237] $GNGGA,55244.8,3713.93654381,N,13701.49006373,E,4,10.0,1.2,94.561,M,36.771,M,1.8,0979*6D,37.23227573016667,137.0248343955,679622.4086279551,4122560.8146665148
626,[2021-02-22 14:52:45.330] $GNGGA,55244.9,3713.93654243,N,13701.49005821,E,4,10.0,1.2,94.573,M,36.771,M,1.9,0979*6E,37.23227570716666,137.02483430350003,679622.4005203407,4122560.811939916
627,[2021-02-22 14:52:45.440] $GNGGA,55245.0,3713.93654395,N,13701.49005943,E,4,10.0,1.2,94.566,M,36.771,M,2.0,0979*67,37.23227573250001,137.02483432383335,679622.4022641762,4122560.814789402
628,[2021-02-22 14:52:45.518] $GNGGA,55245.1,3713.93653831,N,13701.49006147,E,4,10.0,1.2,94.568,M,36.771,M,1.1,0979*67,37.2322756385,137.02483435783333,679622.4055037524,4122560.804424031
629,[2021-02-22 14:52:45.627] $GNGGA,55245.2,3713.93654037,N,13701.49006545,E,4,10.0,1.2,94.55799999999999,M,36.771,M,1.2,0979*6B,37.23227567283333,137.02483442416667,679622.4113073336,4122560.8083594223
630,[2021-02-22 14:52:45.737] $GNGGA,55245.3,3713.93653824,N,13701.49006411,E,4,10.0,1.2,94.559,M,36.771,M,1.3,0979*67,37.23227563733334,137.02483440183332,679622.4094101863,4122560.8043780886
631,[2021-02-22 14:52:45.830] $GNGGA,55245.4,3713.93653897,N,13701.49006367,E,4,10.0,1.2,94.56700000000001,M,36.771,M,1.4,0979*64,37.232275649500004,137.02483439449998,679622.408730697,4122560.80571414
632,[2021-02-22 14:52:45.940] $GNGGA,55245.5,3713.93653778,N,13701.49006551,E,4,10.0,1.2,94.56,M,36.771,M,1.5,0979*6E,37.23227562966666,137.02483442516663,679622.4114985068,4122560.8035717052
633,[2021-02-22 14:52:46.034] $GNGGA,55245.6,3713.93653906,N,13701.49006166,E,4,10.0,1.2,94.56700000000001,M,36.771,M,1.6,0979*6E,37.232275650999995,137.02483436100002,679622.405755031,4122560.805816996
634,[2021-02-22 14:52:46.127] $GNGGA,55245.7,3713.93653918,N,13701.49006644,E,4,10.0,1.2,94.553,M,36.771,M,1.7,0979*61,37.232275652999995,137.02483444066664,679622.4128182807,4122560.8061901024
635,[2021-02-22 14:52:46.237] $GNGGA,55245.8,3713.93653954,N,13701.49006662,E,4,10.0,1.2,94.56200000000001,M,36.771,M,1.8,0979*6F,37.232275658999995,137.02483444366666,679622.4130702011,4122560.806861534
636,[2021-02-22 14:52:46.330] $GNGGA,55245.9,3713.93653982,N,13701.49006296,E,4,10.0,1.2,94.56,M,36.771,M,1.9,0979*69,37.23227566366666,137.02483438266665,679622.4076472244,4122560.807263563
637,[2021-02-22 14:52:46.440] $GNGGA,55246.0,3713.93653999,N,13701.49006511,E,4,10.0,1.2,94.566,M,36.771,M,2.0,0979*6D,37.2322756665,137.02483441849998,679622.4108196199,4122560.807645945
638,[2021-02-22 14:52:46.533] $GNGGA,55246.1,3713.93653807,N,13701.49006496,E,4,10.0,1.2,94.55799999999999,M,36.771,M,2.1,0979*68,37.2322756345,137.024834416,679622.4106737761,4122560.8040905963
639,[2021-02-22 14:52:46.627] $GNGGA,55246.2,3713.93653881,N,13701.49006607,E,4,10.0,1.2,94.559,M,36.771,M,2.2,0979*6D,37.23227564683334,137.02483443449998,679622.4122858131,4122560.8054941692
640,[2021-02-22 14:52:46.721] $GNGGA,55246.3,3713.93654146,N,13701.490067,E,4,10.0,1.2,94.581,M,36.771,M,1.3,0979*68,37.232275691,137.02483445000001,679622.4135561413,4122560.8104241574
641,[2021-02-22 14:52:46.830] $GNGGA,55246.4,3713.93654117,N,13701.49006788,E,4,10.0,1.2,94.571,M,36.771,M,1.4,0979*63,37.232275686166666,137.0248344646667,679622.4148688365,4122560.8099157023
642,[2021-02-22 14:52:46.924] $GNGGA,55246.5,3713.93653941,N,13701.49006625,E,4,10.0,1.2,94.58,M,36.771,M,1.5,0979*67,37.23227565683333,137.0248344375,679622.4125282394,4122560.8066094257
643,[2021-02-22 14:52:47.033] $GNGGA,55246.6,3713.93653979,N,13701.49006643,E,4,10.0,1.2,94.58,M,36.771,M,1.6,0979*6C,37.23227566316667,137.0248344405,679622.4127793662,4122560.8073178427
644,[2021-02-22 14:52:47.127] $GNGGA,55246.7,3713.93653845,N,13701.49006688,E,4,10.0,1.2,94.587,M,36.771,M,1.7,0979*62,37.232275640833336,137.024834448,679622.4134977723,4122560.804854051
645,[2021-02-22 14:52:47.237] $GNGGA,55246.8,3713.93653756,N,13701.49006667,E,4,10.0,1.2,94.58,M,36.771,M,1.8,0979*69,37.232275626,137.0248344445,679622.4132224574,4122560.8032015576
646,[2021-02-22 14:52:47.330] $GNGGA,55246.9,3713.93653994,N,13701.49006603,E,4,10.0,1.2,94.583,M,36.771,M,1.9,0979*68,37.23227566566666,137.02483443383335,679622.4121819676,4122560.80758258
647,[2021-02-22 14:52:47.440] $GNGGA,55247.0,3713.93654073,N,13701.4900674,E,4,10.0,1.2,94.581,M,36.771,M,2.0,0979*69,37.23227567883334,137.02483445666664,679622.4141764793,4122560.809086841
648,[2021-02-22 14:52:47.533] $GNGGA,55247.1,3713.93653788,N,13701.49006666,E,4,10.0,1.2,94.57,M,36.771,M,1.1,0979*65,37.23227563133334,137.02483444433332,679622.4131950126,4122560.8037930075
649,[2021-02-22 14:52:47.627] $GNGGA,55247.2,3713.93654054,N,13701.49006412,E,4,10.0,1.2,94.574,M,36.771,M,1.2,0979*61,37.23227567566666,137.024834402,679622.4093339902,4122560.808631729
650,[2021-02-22 14:52:47.721] $GNGGA,55247.3,3713.93653989,N,13701.49006687,E,4,10.0,1.2,94.572,M,36.771,M,1.3,0979*67,37.23227566483333,137.0248344478333,679622.4134260197,4122560.807516687
651,[2021-02-22 14:52:47.830] $GNGGA,55247.4,3713.93654141,N,13701.49006448,E,4,10.0,1.2,94.569,M,36.771,M,1.4,0979*67,37.23227569016667,137.024834408,679622.4098318925,4122560.8102519833
652,[2021-02-22 14:52:47.924] $GNGGA,55247.5,3713.93653917,N,13701.49006714,E,4,10.0,1.2,94.56700000000001,M,36.771,M,1.5,0979*6F,37.23227565283333,137.02483445233332,679622.4138537403,4122560.8061937517
653,[2021-02-22 14:52:48.033] $GNGGA,55247.6,3713.93654103,N,13701.49006605,E,4,10.0,1.2,94.569,M,36.771,M,1.6,0979*6A,37.232275683833336,137.0248344341667,679622.4121684256,4122560.8095989204
654,[2021-02-22 14:52:48.127] $GNGGA,55247.7,3713.93654172,N,13701.49006724,E,4,10.0,1.2,94.568,M,36.771,M,1.7,0979*6F,37.23227569533334,137.02483445399997,679622.4139007296,4122560.81091256
655,[2021-02-22 14:52:48.236] $GNGGA,55247.8,3713.93653875,N,13701.49006803,E,4,10.0,1.2,94.57600000000001,M,36.771,M,1.8,0979*63,37.23227564583333,137.02483446716667,679622.4151863642,4122560.8054452077
656,[2021-02-22 14:52:48.330] $GNGGA,55247.9,3713.9365404,N,13701.49006405,E,4,10.0,1.2,94.57700000000001,M,36.771,M,1.9,0979*61,37.23227567333334,137.02483440083333,679622.4092360211,4122560.80837062
657,[2021-02-22 14:52:48.440] $GNGGA,55248.0,3713.93654213,N,13701.49006608,E,4,10.0,1.2,94.56700000000001,M,36.771,M,2.0,0979*67,37.23227570216667,137.02483443466664,679622.4121692651,4122560.811634069
658,[2021-02-22 14:52:48.518] $GNGGA,55248.1,3713.93653911,N,13701.49006598,E,4,10.0,1.2,94.57799999999999,M,36.771,M,2.1,0979*6D,37.23227565183333,137.024834433,679622.4121408684,4122560.806046104
659,[2021-02-22 14:52:48.643] $GNGGA,55248.2,3713.93654171,N,13701.49006543,E,4,10.0,1.2,94.57600000000001,M,36.771,M,1.2,0979*6F,37.232275695166656,137.0248344238333,679622.4112247508,4122560.810836813
660,[2021-02-22 14:52:48.721] $GNGGA,55248.3,3713.93654102,N,13701.4900658,E,4,10.0,1.2,94.573,M,36.771,M,1.3,0979*61,37.232275683666664,137.02483443000003,679622.4117991548,4122560.80957252
661,[2021-02-22 14:52:48.830] $GNGGA,55248.4,3713.93653976,N,13701.49006564,E,4,10.0,1.2,94.574,M,36.771,M,1.4,0979*60,37.23227566266667,137.02483442733336,679622.4116124117,4122560.8072373765
662,[2021-02-22 14:52:48.924] $GNGGA,55248.5,3713.93654139,N,13701.49006659,E,4,10.0,1.2,94.57600000000001,M,36.771,M,1.5,0979*6B,37.23227568983334,137.02483444316667,679622.4129526573,4122560.8102817386
663,[2021-02-22 14:52:49.033] $GNGGA,55248.6,3713.93654007,N,13701.49006407,E,4,10.0,1.2,94.579,M,36.771,M,1.6,0979*61,37.232275667833335,137.0248344011667,679622.4092786498,4122560.807760991
664,[2021-02-22 14:52:49.127] $GNGGA,55248.7,3713.93654058,N,13701.49006577,E,4,10.0,1.2,94.57799999999999,M,36.771,M,1.7,0979*6C,37.23227567633333,137.0248344295,679622.4117721977,4122560.808757891
665,[2021-02-22 14:52:49.236] $GNGGA,55248.8,3713.93654251,N,13701.49006576,E,4,10.0,1.2,94.57,M,36.771,M,1.8,0979*6E,37.232275708500005,137.0248344293333,679622.4116810615,4122560.812326671
666,[2021-02-22 14:52:49.330] $GNGGA,55248.9,3713.9365428,N,13701.49006731,E,4,10.0,1.2,94.575,M,36.771,M,1.9,0979*66,37.23227571333333,137.02483445516665,679622.4139615161,4122560.812911986
667,[2021-02-22 14:52:49.439] $GNGGA,55249.0,3713.93654038,N,13701.49006447,E,4,10.0,1.2,94.57600000000001,M,36.771,M,2.0,0979*64,37.232275673,137.0248344078333,679622.4098578494,4122560.808346917
668,[2021-02-22 14:52:49.518] $GNGGA,55249.1,3713.93654004,N,13701.49006545,E,4,10.0,1.2,94.573,M,36.771,M,2.1,0979*6D,37.23227566733334,137.02483442416667,679622.4113203879,4122560.8077491634
669,[2021-02-22 14:52:49.627] $GNGGA,55249.2,3713.93654149,N,13701.49006753,E,4,10.0,1.2,94.573,M,36.771,M,1.2,0979*63,37.2322756915,137.02483445883334,679622.4143386434,4122560.810496398
670,[2021-02-22 14:52:49.721] $GNGGA,55249.3,3713.93654215,N,13701.49006472,E,4,10.0,1.2,94.571,M,36.771,M,1.3,0979*6B,37.232275702500004,137.024834412,679622.410157497,4122560.811628037
671,[2021-02-22 14:52:49.830] $GNGGA,55249.4,3713.93654092,N,13701.49006378,E,4,10.0,1.2,94.57600000000001,M,36.771,M,1.4,0979*6C,37.232275681999994,137.02483439633332,679622.4088162121,4122560.809323698
672,[2021-02-22 14:52:49.924] $GNGGA,55249.5,3713.93654123,N,13701.4900644,E,4,10.0,1.2,94.58,M,36.771,M,1.5,0979*62,37.23227568716667,137.0248344066667,679622.409720724,4122560.8099165848
673,[2021-02-22 14:52:50.033] $GNGGA,55249.6,3713.93654064,N,13701.49006473,E,4,10.0,1.2,94.58,M,36.771,M,1.6,0979*60,37.23227567733334,137.02483441216668,679622.4102320188,4122560.808835952
674,[2021-02-22 14:52:50.127] $GNGGA,55249.7,3713.9365409,N,13701.4900642,E,4,10.0,1.2,94.575,M,36.771,M,1.7,0979*67,37.232275681666664,137.0248344033333,679622.409438038,4122560.8092999985
675,[2021-02-22 14:52:50.236] $GNGGA,55249.8,3713.93654176,N,13701.49006666,E,4,10.0,1.2,94.573,M,36.771,M,1.8,0979*68,37.23227569600001,137.02483444433332,679622.4130415256,4122560.810968185
676,[2021-02-22 14:52:50.330] $GNGGA,55249.9,3713.93654151,N,13701.49006606,E,4,10.0,1.2,94.57799999999999,M,36.771,M,1.9,0979*60,37.23227569183334,137.02483443433334,679622.4121642213,4122560.8104868885
677,[2021-02-22 14:52:50.439] $GNGGA,55250.0,3713.936543,N,13701.49006508,E,4,10.0,1.2,94.57600000000001,M,36.771,M,2.0,0979*6E,37.23227571666666,137.024834418,679622.4106561906,4122560.8132113055
678,[2021-02-22 14:52:50.533] $GNGGA,55250.1,3713.93654312,N,13701.49006347,E,4,10.0,1.2,94.568,M,36.771,M,1.1,0979*6C,37.23227571866666,137.02483439116668,679622.4082708003,4122560.8133822926
679,[2021-02-22 14:52:50.627] $GNGGA,55250.2,3713.93654476,N,13701.49006663,E,4,10.0,1.2,94.565,M,36.771,M,1.2,0979*67,37.232275746,137.02483444383336,679622.4128784941,4122560.816515051
680,[2021-02-22 14:52:50.721] $GNGGA,55250.3,3713.93654384,N,13701.49006409,E,4,10.0,1.2,94.566,M,36.771,M,1.3,0979*60,37.232275730666665,137.02483440150002,679622.4091590889,4122560.81473338
681,[2021-02-22 14:52:50.830] $GNGGA,55250.4,3713.93654147,N,13701.4900655,E,4,10.0,1.2,94.575,M,36.771,M,1.4,0979*62,37.23227569116667,137.024834425,679622.4113377521,4122560.810395204
682,[2021-02-22 14:52:50.924] $GNGGA,55250.5,3713.93654097,N,13701.49006442,E,4,10.0,1.2,94.574,M,36.771,M,1.5,0979*6D,37.23227568283333,137.024834407,679622.4097605769,4122560.8094364065
683,[2021-02-22 14:52:51.033] $GNGGA,55250.6,3713.93654229,N,13701.49006452,E,4,10.0,1.2,94.572,M,36.771,M,1.6,0979*6D,37.232275704833334,137.02483440866663,679622.409856223,4122560.8118806086
684,[2021-02-22 14:52:51.127] $GNGGA,55250.7,3713.93654151,N,13701.49006561,E,4,10.0,1.2,94.57,M,36.771,M,1.7,0979*62,37.23227569183334,137.02483442683334,679622.4114988237,4122560.810472654
685,[2021-02-22 14:52:51.236] $GNGGA,55250.8,3713.93654192,N,13701.49006596,E,4,10.0,1.2,94.56700000000001,M,36.771,M,1.8,0979*63,37.23227569866666,137.0248344326667,679622.4120001367,4122560.811241926
686,[2021-02-22 14:52:51.330] $GNGGA,55250.9,3713.93654075,N,13701.49006838,E,4,10.0,1.2,94.568,M,36.771,M,1.9,0979*6D,37.23227567916667,137.024834473,679622.4156247792,4122560.809154824
687,[2021-02-22 14:52:51.439] $GNGGA,55251.0,3713.93654362,N,13701.49006745,E,4,10.0,1.2,94.565,M,36.771,M,2.0,0979*62,37.232275727,137.02483445750002,679622.4141360928,4122560.814432819
688,[2021-02-22 14:52:51.518] $GNGGA,55251.1,3713.93654171,N,13701.49006523,E,4,10.0,1.2,94.57,M,36.771,M,1.1,0979*67,37.232275695166656,137.0248344205,679622.4109290217,4122560.8108304874
689,[2021-02-22 14:52:51.627] $GNGGA,55251.2,3713.93654182,N,13701.49006606,E,4,10.0,1.2,94.56700000000001,M,36.771,M,1.2,0979*69,37.232275697,137.02483443433334,679622.4121519583,4122560.8110601613
690,[2021-02-22 14:52:51.721] $GNGGA,55251.3,3713.93654209,N,13701.4900653,E,4,10.0,1.2,94.566,M,36.771,M,1.3,0979*6E,37.2322757015,137.0248344216667,679622.4110174968,4122560.8115354264
691,[2021-02-22 14:52:51.830] $GNGGA,55251.4,3713.93654259,N,13701.49006812,E,4,10.0,1.2,94.564,M,36.771,M,1.4,0979*64,37.23227570983334,137.02483446866668,679622.4151675414,4122560.8125492614
692,[2021-02-22 14:52:51.924] $GNGGA,55251.5,3713.93654243,N,13701.49006624,E,4,10.0,1.2,94.56700000000001,M,36.771,M,1.5,0979*67,37.23227570716666,137.02483443733334,679622.4123939867,4122560.81219391
693,[2021-02-22 14:52:52.033] $GNGGA,55251.6,3713.93654233,N,13701.49006819,E,4,10.0,1.2,94.56,M,36.771,M,1.6,0979*67,37.2322757055,137.02483446983334,679622.4152813316,4122560.8120706645
694,[2021-02-22 14:52:52.127] $GNGGA,55251.7,3713.9365425,N,13701.49006676,E,4,10.0,1.2,94.571,M,36.771,M,1.7,0979*65,37.23227570833333,137.02483444599997,679622.413160118,4122560.812339809
695,[2021-02-22 14:52:52.236] $GNGGA,55251.8,3713.93654206,N,13701.49006811,E,4,10.0,1.2,94.557,M,36.771,M,1.8,0979*6D,37.232275701,137.02483446850002,679622.4151737189,4122560.811568831
696,[2021-02-22 14:52:52.330] $GNGGA,55251.9,3713.93654264,N,13701.49006407,E,4,10.0,1.2,94.569,M,36.771,M,1.9,0979*6F,37.23227571066666,137.0248344011667,679622.4091769846,4122560.812513619
697,[2021-02-22 14:52:52.424] $GNGGA,55252.0,3713.93654328,N,13701.49006566,E,4,10.0,1.2,94.572,M,36.771,M,2.0,0979*6A,37.23227572133333,137.02483442766666,679622.4115027381,4122560.8137474465
698,[2021-02-22 14:52:52.502] $GNGGA,55252.1,3713.93653953,N,13701.49006173,E,4,10.0,1.2,94.566,M,36.771,M,1.1,0979*6D,37.23227565883334,137.0248343621667,679622.4058399481,4122560.806688369
699,[2021-02-22 14:52:52.627] $GNGGA,55252.2,3713.93654194,N,13701.49006387,E,4,10.0,1.2,94.566,M,36.771,M,1.2,0979*60,37.232275699,137.02483439783333,679622.4089089419,4122560.8112128032
700,[2021-02-22 14:52:52.721] $GNGGA,55252.3,3713.93654064,N,13701.49006095,E,4,10.0,1.2,94.57799999999999,M,36.771,M,1.3,0979*61,37.23227567733334,137.02483434916664,679622.4046426762,4122560.808716389
701,[2021-02-22 14:52:52.830] $GNGGA,55252.4,3713.93654156,N,13701.49006418,E,4,10.0,1.2,94.566,M,36.771,M,1.4,0979*6F,37.23227569266666,137.02483440299997,679622.4093823571,4122560.810519885
702,[2021-02-22 14:52:52.924] $GNGGA,55252.5,3713.93653996,N,13701.49006311,E,4,10.0,1.2,94.574,M,36.771,M,1.5,0979*61,37.23227566600001,137.02483438516668,679622.4078634869,4122560.8075272054
703,[2021-02-22 14:52:53.033] $GNGGA,55252.6,3713.93654106,N,13701.49006271,E,4,10.0,1.2,94.575,M,36.771,M,1.6,0979*61,37.23227568433333,137.02483437849997,679622.4072285056,4122560.809548752
704,[2021-02-22 14:52:53.127] $GNGGA,55252.7,3713.93654166,N,13701.490067,E,4,10.0,1.2,94.56299999999999,M,36.771,M,1.7,0979*63,37.23227569433333,137.02483445000001,679622.4135482296,4122560.810794011
705,[2021-02-22 14:52:53.236] $GNGGA,55252.8,3713.93654199,N,13701.49006494,E,4,10.0,1.2,94.569,M,36.771,M,1.8,0979*67,37.23227569983334,137.02483441566667,679622.4104891322,4122560.811339113
706,[2021-02-22 14:52:53.330] $GNGGA,55252.9,3713.93654117,N,13701.49006457,E,4,10.0,1.2,94.568,M,36.771,M,1.9,0979*6F,37.232275686166666,137.02483440950002,679622.409974466,4122560.8098110054
707,[2021-02-22 14:52:53.424] $GNGGA,55253.0,3713.93654064,N,13701.49006322,E,4,10.0,1.2,94.565,M,36.771,M,2.0,0979*60,37.23227567733334,137.02483438700003,679622.4079992413,4122560.8087881906
708,[2021-02-22 14:52:53.517] $GNGGA,55253.1,3713.93654416,N,13701.49006557,E,4,10.0,1.2,94.56,M,36.771,M,1.1,0979*63,37.232275736,137.02483442616665,679622.4113348448,4122560.81537196
709,[2021-02-22 14:52:53.627] $GNGGA,55253.2,3713.93654152,N,13701.49006378,E,4,10.0,1.2,94.56700000000001,M,36.771,M,1.2,0979*6A,37.232275691999995,137.02483439633332,679622.4087924769,4122560.8104332616
710,[2021-02-22 14:52:53.720] $GNGGA,55253.3,3713.93654536,N,13701.49006584,E,4,10.0,1.2,94.564,M,36.771,M,1.3,0979*6A,37.232275756,137.02483443066666,679622.4116866132,4122560.8175996267
711,[2021-02-22 14:52:53.830] $GNGGA,55253.4,3713.93654293,N,13701.49006335,E,4,10.0,1.2,94.569,M,36.771,M,1.4,0979*63,37.2322757155,137.02483438916664,679622.408100874,4122560.813027136
712,[2021-02-22 14:52:53.924] $GNGGA,55253.5,3713.93654294,N,13701.4900647,E,4,10.0,1.2,94.565,M,36.771,M,1.5,0979*6E,37.23227571566667,137.02483441166666,679622.4100966714,4122560.813088329
713,[2021-02-22 14:52:54.033] $GNGGA,55253.6,3713.9365429,N,13701.49006068,E,4,10.0,1.2,94.566,M,36.771,M,1.6,0979*64,37.232275715,137.0248343446667,679622.4041540399,4122560.8128872034
714,[2021-02-22 14:52:54.127] $GNGGA,55253.7,3713.93654604,N,13701.49006551,E,4,10.0,1.2,94.546,M,36.771,M,1.7,0979*60,37.232275767333334,137.02483442516663,679622.4111717537,4122560.818846694
715,[2021-02-22 14:52:54.236] $GNGGA,55253.8,3713.93654438,N,13701.49006409,E,4,10.0,1.2,94.56299999999999,M,36.771,M,1.8,0979*66,37.23227573966667,137.02483440150002,679622.4091377272,4122560.815731987
716,[2021-02-22 14:52:54.330] $GNGGA,55253.9,3713.93654369,N,13701.49006339,E,4,10.0,1.2,94.56299999999999,M,36.771,M,1.9,0979*61,37.23227572816667,137.02483438983333,679622.4081299586,4122560.8144338485
717,[2021-02-22 14:52:54.439] $GNGGA,55254.0,3713.93654384,N,13701.4900631,E,4,10.0,1.2,94.57,M,36.771,M,2.0,0979*6F,37.232275730666665,137.024834385,679622.4076952117,4122560.8147020657
718,[2021-02-22 14:52:54.517] $GNGGA,55254.1,3713.93654534,N,13701.4900665,E,4,10.0,1.2,94.56,M,36.771,M,2.1,0979*62,37.23227575566667,137.02483444166666,679622.4126633217,4122560.8175835176
719,[2021-02-22 14:52:54.627] $GNGGA,55254.2,3713.93654502,N,13701.49006697,E,4,10.0,1.2,94.552,M,36.771,M,2.2,0979*6D,37.23227575033333,137.02483444950002,679622.4133709526,4122560.817006617
720,[2021-02-22 14:52:54.720] $GNGGA,55254.3,3713.93654428,N,13701.49006605,E,4,10.0,1.2,94.564,M,36.771,M,1.3,0979*69,37.232275738,137.0248344341667,679622.4120398606,4122560.815609055
721,[2021-02-22 14:52:54.830] $GNGGA,55254.4,3713.93654437,N,13701.49006729,E,4,10.0,1.2,94.566,M,36.771,M,1.4,0979*6A,37.232275739500004,137.02483445483335,679622.413869837,4122560.815814713
722,[2021-02-22 14:52:54.924] $GNGGA,55254.5,3713.93654334,N,13701.49006461,E,4,10.0,1.2,94.575,M,36.771,M,1.5,0979*63,37.232275722333334,137.02483441016665,679622.4099477684,4122560.8138251915
723,[2021-02-22 14:52:55.033] $GNGGA,55254.6,3713.9365416,N,13701.49006577,E,4,10.0,1.2,94.56700000000001,M,36.771,M,1.6,0979*65,37.23227569333334,137.0248344295,679622.411731848,4122560.8106441507
724,[2021-02-22 14:52:55.127] $GNGGA,55254.7,3713.93654454,N,13701.49006363,E,4,10.0,1.2,94.56200000000001,M,36.771,M,1.7,0979*61,37.23227574233333,137.02483439383334,679622.4084512141,4122560.81601332
725,[2021-02-22 14:52:55.236] $GNGGA,55254.8,3713.93654348,N,13701.49006663,E,4,10.0,1.2,94.565,M,36.771,M,1.8,0979*69,37.232275724666664,137.02483444383336,679622.412929129,4122560.8141479837
726,[2021-02-22 14:52:55.330] $GNGGA,55254.9,3713.93654319,N,13701.4900657,E,4,10.0,1.2,94.56700000000001,M,36.771,M,1.9,0979*6E,37.23227571983334,137.02483442833332,679622.4115654428,4122560.813582278
727,[2021-02-22 14:52:55.439] $GNGGA,55255.0,3713.93654154,N,13701.49006666,E,4,10.0,1.2,94.572,M,36.771,M,1.0,0979*64,37.23227569233333,137.02483444433332,679622.4130502286,4122560.8105613436
728,[2021-02-22 14:52:55.533] $GNGGA,55255.1,3713.93654369,N,13701.49006711,E,4,10.0,1.2,94.57,M,36.771,M,1.1,0979*6B,37.23227572816667,137.02483445183336,679622.41363058,4122560.8145515146
729,[2021-02-22 14:52:55.627] $GNGGA,55255.2,3713.93654222,N,13701.49006406,E,4,10.0,1.2,94.57700000000001,M,36.771,M,1.2,0979*67,37.232275703666666,137.02483440100002,679622.409178813,4122560.81173661
730,[2021-02-22 14:52:55.720] $GNGGA,55255.3,3713.93654402,N,13701.49006834,E,4,10.0,1.2,94.56700000000001,M,36.771,M,1.3,0979*6F,37.23227573366667,137.0248344723333,679622.415436274,4122560.8152006785
731,[2021-02-22 14:52:55.830] $GNGGA,55255.4,3713.93654296,N,13701.49006658,E,4,10.0,1.2,94.572,M,36.771,M,1.4,0979*64,37.23227571600001,137.02483444299997,679622.4128757621,4122560.813184781
732,[2021-02-22 14:52:55.923] $GNGGA,55255.5,3713.93654284,N,13701.4900664,E,4,10.0,1.2,94.573,M,36.771,M,1.5,0979*6F,37.232275714,137.02483444,679622.4126143523,4122560.812957174
733,[2021-02-22 14:52:56.033] $GNGGA,55255.6,3713.93654026,N,13701.49006487,E,4,10.0,1.2,94.569,M,36.771,M,1.6,0979*67,37.232275671,137.02483441450002,679622.4104540634,4122560.808137656
734,[2021-02-22 14:52:56.127] $GNGGA,55255.7,3713.93654369,N,13701.49006737,E,4,10.0,1.2,94.57,M,36.771,M,1.7,0979*6F,37.23227572816667,137.02483445616667,679622.4140150301,4122560.814559738
735,[2021-02-22 14:52:56.236] $GNGGA,55255.8,3713.93654206,N,13701.49006433,E,4,10.0,1.2,94.575,M,36.771,M,1.8,0979*65,37.232275701,137.0248344055,679622.4095843808,4122560.811449267
736,[2021-02-22 14:52:56.330] $GNGGA,55255.9,3713.9365421,N,13701.49006535,E,4,10.0,1.2,94.565,M,36.771,M,1.9,0979*64,37.232275701666666,137.02483442250002,679622.4110910341,4122560.8115555006
737,[2021-02-22 14:52:56.439] $GNGGA,55256.0,3713.93654091,N,13701.49006495,E,4,10.0,1.2,94.574,M,36.771,M,2.0,0979*64,37.232275681833336,137.0248344158333,679622.4105466392,4122560.8093422153
738,[2021-02-22 14:52:56.533] $GNGGA,55256.1,3713.93654409,N,13701.49006809,E,4,10.0,1.2,94.56200000000001,M,36.771,M,2.1,0979*6F,37.23227573483334,137.02483446816663,679622.4150638385,4122560.8153222203
739,[2021-02-22 14:52:56.627] $GNGGA,55256.2,3713.93654172,N,13701.49006592,E,4,10.0,1.2,94.56700000000001,M,36.771,M,1.2,0979*6F,37.23227569533334,137.02483443199998,679622.4119488995,4122560.810870807
740,[2021-02-22 14:52:56.720] $GNGGA,55256.3,3713.93654136,N,13701.49006765,E,4,10.0,1.2,94.56700000000001,M,36.771,M,1.3,0979*65,37.23227568933333,137.02483446083332,679622.4145212239,4122560.8102597888
741,[2021-02-22 14:52:56.830] $GNGGA,55256.4,3713.93654266,N,13701.49006531,E,4,10.0,1.2,94.565,M,36.771,M,1.4,0979*62,37.232275711,137.02483442183333,679622.4110097324,4122560.8125898275
742,[2021-02-22 14:52:56.923] $GNGGA,55256.5,3713.93654145,N,13701.49006707,E,4,10.0,1.2,94.566,M,36.771,M,1.5,0979*64,37.23227569083333,137.02483445116667,679622.413660042,4122560.8104078784
743,[2021-02-22 14:52:57.033] $GNGGA,55256.6,3713.93654381,N,13701.49006758,E,4,10.0,1.2,94.557,M,36.771,M,1.6,0979*66,37.23227573016667,137.02483445966666,679622.4143208006,4122560.814788292
744,[2021-02-22 14:52:57.126] $GNGGA,55256.7,3713.93654224,N,13701.49006687,E,4,10.0,1.2,94.568,M,36.771,M,1.7,0979*67,37.23227570400001,137.0248344478333,679622.4133330572,4122560.811862478
745,[2021-02-22 14:52:57.236] $GNGGA,55256.8,3713.93654265,N,13701.49006611,E,4,10.0,1.2,94.56,M,36.771,M,1.8,0979*65,37.232275710833335,137.02483443516667,679622.4121930575,4122560.812596639
746,[2021-02-22 14:52:57.330] $GNGGA,55256.9,3713.93654295,N,13701.49006799,E,4,10.0,1.2,94.56200000000001,M,36.771,M,1.9,0979*69,37.232275715833325,137.02483446649998,679622.4149610696,4122560.8132108864
747,[2021-02-22 14:52:57.439] $GNGGA,55257.0,3713.93654054,N,13701.49006671,E,4,10.0,1.2,94.565,M,36.771,M,2.0,0979*64,37.23227567566666,137.02483444516665,679622.4131637199,4122560.808713652
748,[2021-02-22 14:52:57.517] $GNGGA,55257.1,3713.93654204,N,13701.49006571,E,4,10.0,1.2,94.569,M,36.771,M,2.1,0979*6C,37.23227570066666,137.02483442850001,679622.4116257235,4122560.8114559306
749,[2021-02-22 14:52:57.626] $GNGGA,55257.2,3713.93654564,N,13701.4900668,E,4,10.0,1.2,94.565,M,36.771,M,1.2,0979*6F,37.23227576066667,137.02483444666666,679622.4130950533,4122560.8181477888
750,[2021-02-22 14:52:57.720] $GNGGA,55257.3,3713.93654206,N,13701.49006532,E,4,10.0,1.2,94.564,M,36.771,M,1.3,0979*67,37.232275701,137.02483442200003,679622.4110482557,4122560.8114805813
751,[2021-02-22 14:52:57.830] $GNGGA,55257.4,3713.93654262,N,13701.49006626,E,4,10.0,1.2,94.56,M,36.771,M,1.4,0979*67,37.23227571033333,137.02483443766664,679622.4124160405,4122560.812545905
752,[2021-02-22 14:52:57.923] $GNGGA,55257.5,3713.9365436,N,13701.49006571,E,4,10.0,1.2,94.556,M,36.771,M,1.5,0979*60,37.232275726666664,137.02483442850001,679622.4115640122,4122560.814340795
753,[2021-02-22 14:52:58.033] $GNGGA,55257.6,3713.93654336,N,13701.49006655,E,4,10.0,1.2,94.559,M,36.771,M,1.6,0979*69,37.232275722666664,137.02483444250004,679622.4128155848,4122560.81392354
754,[2021-02-22 14:52:58.126] $GNGGA,55257.7,3713.93654291,N,13701.49006274,E,4,10.0,1.2,94.565,M,36.771,M,1.7,0979*6D,37.23227571516666,137.02483437900003,679622.4071996852,4122560.8129708543
755,[2021-02-22 14:52:58.236] $GNGGA,55257.8,3713.93654364,N,13701.49006606,E,4,10.0,1.2,94.555,M,36.771,M,1.8,0979*64,37.23227572733333,137.02483443433334,679622.4120799619,4122560.814425837
756,[2021-02-22 14:52:58.329] $GNGGA,55257.9,3713.93654532,N,13701.49006654,E,4,10.0,1.2,94.555,M,36.771,M,1.9,0979*66,37.23227575533333,137.02483444233334,679622.4127232619,4122560.8175477977
757,[2021-02-22 14:52:58.439] $GNGGA,55258.0,3713.9365441,N,13701.49006734,E,4,10.0,1.2,94.557,M,36.771,M,2.0,0979*6E,37.232275735,137.02483445566668,679622.4139544506,4122560.81531699
758,[2021-02-22 14:52:58.517] $GNGGA,55258.1,3713.936543,N,13701.49006518,E,4,10.0,1.2,94.557,M,36.771,M,1.1,0979*67,37.23227571666666,137.02483441966666,679622.4108040562,4122560.813214468
759,[2021-02-22 14:52:58.626] $GNGGA,55258.2,3713.9365436,N,13701.49006754,E,4,10.0,1.2,94.55,M,36.771,M,1.2,0979*6C,37.232275726666664,137.02483445900003,679622.4142699634,4122560.8143986794
760,[2021-02-22 14:52:58.720] $GNGGA,55258.3,3713.93654446,N,13701.49006393,E,4,10.0,1.2,94.556,M,36.771,M,1.3,0979*66,37.232275740999995,137.0248343988333,679622.4088979713,4122560.815874867
761,[2021-02-22 14:52:58.830] $GNGGA,55258.4,3713.93654408,N,13701.49006609,E,4,10.0,1.2,94.565,M,36.771,M,1.4,0979*6A,37.232275734666665,137.02483443483334,679622.4121069144,4122560.8152404656
762,[2021-02-22 14:52:58.923] $GNGGA,55258.5,3713.93654339,N,13701.49006478,E,4,10.0,1.2,94.55799999999999,M,36.771,M,1.5,0979*65,37.23227572316667,137.024834413,679622.4101971658,4122560.813923033
763,[2021-02-22 14:52:59.033] $GNGGA,55258.6,3713.93654236,N,13701.49006766,E,4,10.0,1.2,94.56200000000001,M,36.771,M,1.6,0979*6E,37.23227570600001,137.02483446099995,679622.4144964493,4122560.8121093796
764,[2021-02-22 14:52:59.126] $GNGGA,55258.7,3713.93654422,N,13701.49006658,E,4,10.0,1.2,94.559,M,36.771,M,1.7,0979*69,37.232275737,137.02483444299997,679622.4128259184,4122560.8155148625
765,[2021-02-22 14:52:59.236] $GNGGA,55258.8,3713.93654413,N,13701.49006827,E,4,10.0,1.2,94.565,M,36.771,M,1.8,0979*62,37.232275735500004,137.02483447116668,679622.4153284198,4122560.8154018847
766,[2021-02-22 14:52:59.329] $GNGGA,55258.9,3713.93654589,N,13701.49006958,E,4,10.0,1.2,94.554,M,36.771,M,1.9,0979*6B,37.23227576483334,137.02483449300001,679622.4171958431,4122560.818698041
767,[2021-02-22 14:52:59.439] $GNGGA,55259.0,3713.93654329,N,13701.49006571,E,4,10.0,1.2,94.561,M,36.771,M,2.0,0979*64,37.2322757215,137.02483442850001,679622.4115762752,4122560.8137675216
768,[2021-02-22 14:52:59.517] $GNGGA,55259.1,3713.936542,N,13701.49006591,E,4,10.0,1.2,94.57,M,36.771,M,1.1,0979*63,37.232275699999995,137.0248344318333,679622.4119230348,4122560.8113882863
769,[2021-02-22 14:52:59.626] $GNGGA,55259.2,3713.93654158,N,13701.49006548,E,4,10.0,1.2,94.57600000000001,M,36.771,M,1.2,0979*6F,37.232275693,137.0248344246667,679622.4113038307,4122560.8105979906
770,[2021-02-22 14:52:59.720] $GNGGA,55259.3,3713.93654213,N,13701.49006668,E,4,10.0,1.2,94.56200000000001,M,36.771,M,1.3,0979*67,37.23227570216667,137.02483444466668,679622.4130564658,4122560.811653048
771,[2021-02-22 14:52:59.829] $GNGGA,55259.4,3713.93654262,N,13701.49006613,E,4,10.0,1.2,94.56299999999999,M,36.771,M,1.4,0979*6C,37.23227571033333,137.0248344355,679622.4122238166,4122560.8125417936
772,[2021-02-22 14:52:59.923] $GNGGA,55259.5,3713.93654111,N,13701.49006308,E,4,10.0,1.2,94.575,M,36.771,M,1.5,0979*63,37.232275685166655,137.0248343846667,679622.4077736365,4122560.8096529185
773,[2021-02-22 14:53:00.033] $GNGGA,55259.6,3713.93654279,N,13701.49006568,E,4,10.0,1.2,94.569,M,36.771,M,1.6,0979*63,37.23227571316667,137.024834428,679622.4115516939,4122560.812841936
774,[2021-02-22 14:53:00.126] $GNGGA,55259.7,3713.93654184,N,13701.49006545,E,4,10.0,1.2,94.568,M,36.771,M,1.7,0979*6C,37.23227569733333,137.02483442416667,679622.4112491827,4122560.8110778527
775,[2021-02-22 14:53:00.236] $GNGGA,55259.8,3713.93654074,N,13701.49006641,E,4,10.0,1.2,94.568,M,36.771,M,1.8,0979*65,37.232275679,137.02483444016667,679622.4127122111,4122560.8090740177
776,[2021-02-22 14:53:00.329] $GNGGA,55259.9,3713.93654318,N,13701.49006753,E,4,10.0,1.2,94.561,M,36.771,M,1.9,0979*67,37.23227571966667,137.02483445883334,679622.4142717896,4122560.813621669
777,[2021-02-22 14:53:00.439] $GNGGA,55300.0,3713.93654122,N,13701.49006726,E,4,10.0,1.2,94.564,M,36.771,M,2.0,0979*65,37.232275687,137.02483445433333,679622.4139500856,4122560.8099885536
778,[2021-02-22 14:53:00.517] $GNGGA,55300.1,3713.93654169,N,13701.49006367,E,4,10.0,1.2,94.57700000000001,M,36.771,M,1.1,0979*6A,37.23227569483333,137.02483439449998,679622.4086230979,4122560.81074416
779,[2021-02-22 14:53:00.626] $GNGGA,55300.2,3713.93654299,N,13701.49006451,E,4,10.0,1.2,94.58,M,36.771,M,1.2,0979*6C,37.23227571649999,137.0248344085,679622.4098137483,4122560.813174782
780,[2021-02-22 14:53:00.720] $GNGGA,55300.3,3713.93654365,N,13701.4900645,E,4,10.0,1.2,94.573,M,36.771,M,1.3,0979*63,37.2322757275,137.02483440833336,679622.4097728559,4122560.814394987
781,[2021-02-22 14:53:00.829] $GNGGA,55300.4,3713.9365427,N,13701.49006618,E,4,10.0,1.2,94.579,M,36.771,M,1.4,0979*62,37.23227571166667,137.02483443633332,679622.4122945847,4122560.8126913165
782,[2021-02-22 14:53:00.923] $GNGGA,55300.5,3713.93654183,N,13701.49006589,E,4,10.0,1.2,94.574,M,36.771,M,1.5,0979*6B,37.23227569716667,137.02483443150004,679622.411900192,4122560.8110732776
783,[2021-02-22 14:53:01.032] $GNGGA,55300.6,3713.93654193,N,13701.49006452,E,4,10.0,1.2,94.57799999999999,M,36.771,M,1.6,0979*61,37.232275698833334,137.02483440866663,679622.4098704641,4122560.8112148712
784,[2021-02-22 14:53:01.126] $GNGGA,55300.7,3713.936544,N,13701.49006551,E,4,10.0,1.2,94.57600000000001,M,36.771,M,1.7,0979*62,37.23227573333333,137.02483442516663,679622.411252453,4122560.8150741775
785,[2021-02-22 14:53:01.236] $GNGGA,55300.8,3713.93654328,N,13701.49006197,E,4,10.0,1.2,94.572,M,36.771,M,1.8,0979*65,37.23227572133333,137.02483436616666,679622.4060464773,4122560.81363073
786,[2021-02-22 14:53:01.329] $GNGGA,55300.9,3713.93654377,N,13701.49006755,E,4,10.0,1.2,94.57600000000001,M,36.771,M,1.9,0979*63,37.2322757295,137.02483445916667,679622.4142780222,4122560.8147133733
787,[2021-02-22 14:53:01.439] $GNGGA,55301.0,3713.93654257,N,13701.49006557,E,4,10.0,1.2,94.574,M,36.771,M,2.0,0979*60,37.2322757095,137.02483442616665,679622.4113977428,4122560.812431618
788,[2021-02-22 14:53:01.517] $GNGGA,55301.1,3713.93654224,N,13701.49006384,E,4,10.0,1.2,94.569,M,36.771,M,1.1,0979*63,37.23227570400001,137.02483439733334,679622.408852716,4122560.8117666375
789,[2021-02-22 14:53:01.626] $GNGGA,55301.2,3713.93654175,N,13701.49006337,E,4,10.0,1.2,94.572,M,36.771,M,1.2,0979*66,37.23227569583332,137.0248343895,679622.4081771276,4122560.8108456256
790,[2021-02-22 14:53:01.720] $GNGGA,55301.3,3713.93654155,N,13701.4900653,E,4,10.0,1.2,94.566,M,36.771,M,1.3,0979*60,37.232275692500004,137.0248344216667,679622.4110388584,4122560.8105368186
791,[2021-02-22 14:53:01.829] $GNGGA,55301.4,3713.93654107,N,13701.49006195,E,4,10.0,1.2,94.572,M,36.771,M,1.4,0979*69,37.2322756845,137.02483436583333,679622.4061043293,4122560.8095432064
792,[2021-02-22 14:53:01.923] $GNGGA,55301.5,3713.93654245,N,13701.49006327,E,4,10.0,1.2,94.571,M,36.771,M,1.5,0979*64,37.2322757075,137.02483438783335,679622.4080015732,4122560.812136954
793,[2021-02-22 14:53:02.032] $GNGGA,55301.6,3713.93654147,N,13701.49006343,E,4,10.0,1.2,94.572,M,36.771,M,1.6,0979*64,37.23227569116667,137.02483439050002,679622.4082769251,4122560.8103297288
794,[2021-02-22 14:53:02.126] $GNGGA,55301.7,3713.93654094,N,13701.49006347,E,4,10.0,1.2,94.569,M,36.771,M,1.7,0979*65,37.23227568233333,137.02483439116668,679622.4083570378,4122560.809350878
795,[2021-02-22 14:53:02.235] $GNGGA,55301.8,3713.93654224,N,13701.49006359,E,4,10.0,1.2,94.568,M,36.771,M,1.8,0979*62,37.23227570400001,137.02483439316669,679622.4084830519,4122560.81175873
796,[2021-02-22 14:53:02.329] $GNGGA,55301.9,3713.936542,N,13701.49006036,E,4,10.0,1.2,94.571,M,36.771,M,1.9,0979*66,37.232275699999995,137.02483433933335,679622.4037164712,4122560.8112127366
797,[2021-02-22 14:53:02.423] $GNGGA,55302.0,3713.93654354,N,13701.49006313,E,4,10.0,1.2,94.568,M,36.771,M,2.0,0979*6A,37.23227572566667,137.02483438550001,679622.4077514422,4122560.814148233
798,[2021-02-22 14:53:02.501] $GNGGA,55302.1,3713.93654391,N,13701.49006414,E,4,10.0,1.2,94.57700000000001,M,36.771,M,2.1,0979*6D,37.23227573183334,137.02483440233334,679622.4092302525,4122560.814864411
799,[2021-02-22 14:53:02.626] $GNGGA,55302.2,3713.93654355,N,13701.49006153,E,4,10.0,1.2,94.586,M,36.771,M,1.2,0979*6E,37.232275725833325,137.02483435883335,679622.4053851872,4122560.8141161157
800,[2021-02-22 14:53:02.720] $GNGGA,55302.3,3713.93654391,N,13701.49006043,E,4,10.0,1.2,94.587,M,36.771,M,1.3,0979*67,37.23227573183334,137.0248343405,679622.4037444195,4122560.814747062
801,[2021-02-22 14:53:02.829] $GNGGA,55302.4,3713.93654342,N,13701.49006059,E,4,10.0,1.2,94.586,M,36.771,M,1.4,0979*63,37.23227572366667,137.02483434316667,679622.4040003878,4122560.8138459795
802,[2021-02-22 14:53:02.923] $GNGGA,55302.5,3713.93654433,N,13701.49006163,E,4,10.0,1.2,94.585,M,36.771,M,1.5,0979*69,37.23227573883334,137.0248343605,679622.4055021972,4122560.8155617123
803,[2021-02-22 14:53:03.032] $GNGGA,55302.6,3713.93654432,N,13701.49006104,E,4,10.0,1.2,94.579,M,36.771,M,1.6,0979*6A,37.232275738666665,137.02483435066665,679622.4046301806,4122560.8155245557
804,[2021-02-22 14:53:03.126] $GNGGA,55302.7,3713.93654281,N,13701.49006221,E,4,10.0,1.2,94.589,M,36.771,M,1.7,0979*6F,37.2322757135,137.02483437016664,679622.4064199477,4122560.812769164
805,[2021-02-22 14:53:03.235] $GNGGA,55302.8,3713.93654262,N,13701.49006162,E,4,10.0,1.2,94.58200000000001,M,36.771,M,1.8,0979*6D,37.23227571033333,137.0248343603333,679622.4055550538,4122560.8123991396
806,[2021-02-22 14:53:03.329] $GNGGA,55302.9,3713.93654506,N,13701.49006144,E,4,10.0,1.2,94.581,M,36.771,M,1.9,0979*6F,37.232275750999996,137.02483435733333,679622.4051923744,4122560.81690567
807,[2021-02-22 14:53:03.439] $GNGGA,55303.0,3713.93654405,N,13701.49006365,E,4,10.0,1.2,94.583,M,36.771,M,2.0,0979*6C,37.23227573416667,137.0248343941667,679622.4085001723,4122560.8151078094
808,[2021-02-22 14:53:03.517] $GNGGA,55303.1,3713.936545,N,13701.49006571,E,4,10.0,1.2,94.57600000000001,M,36.771,M,2.1,0979*61,37.23227575,137.02483442850001,679622.4115086303,4122560.816929776
809,[2021-02-22 14:53:03.626] $GNGGA,55303.2,3713.93654182,N,13701.49006136,E,4,10.0,1.2,94.58200000000001,M,36.771,M,2.2,0979*63,37.232275697,137.02483435599999,679622.4052022505,4122560.810911498
810,[2021-02-22 14:53:03.704] $GNGGA,55303.3,3713.93653818,N,13701.49005621,E,4,10.0,1.2,94.59299999999999,M,36.771,M,1.3,0979*6F,37.23227563633333,137.02483427016665,679622.3977311377,4122560.8040172486
811,[2021-02-22 14:53:03.829] $GNGGA,55303.4,3713.93653805,N,13701.49005883,E,4,10.0,1.2,94.585,M,36.771,M,1.4,0979*62,37.23227563416666,137.02483431383334,679622.4016103751,4122560.8038597153
812,[2021-02-22 14:53:03.923] $GNGGA,55303.5,3713.93653837,N,13701.49005898,E,4,10.0,1.2,94.59,M,36.771,M,1.5,0979*6D,37.2322756395,137.0248343163333,679622.4018195126,4122560.8044562275
813,[2021-02-22 14:53:04.032] $GNGGA,55303.6,3713.9365362,N,13701.49005768,E,4,10.0,1.2,94.589,M,36.771,M,1.6,0979*6D,37.232275603333335,137.02483429466665,679622.3999830944,4122560.800402188
814,[2021-02-22 14:53:04.126] $GNGGA,55303.7,3713.93653816,N,13701.49005829,E,4,10.0,1.2,94.58200000000001,M,36.771,M,1.7,0979*67,37.232275636000004,137.02483430483332,679622.4008075442,4122560.8040460567
815,[2021-02-22 14:53:04.235] $GNGGA,55303.8,3713.93653976,N,13701.49006034,E,4,10.0,1.2,94.58200000000001,M,36.771,M,1.8,0979*67,37.23227566266667,137.02483433900002,679622.4037755099,4122560.8070697347
816,[2021-02-22 14:53:04.329] $GNGGA,55303.9,3713.93653858,N,13701.49005669,E,4,10.0,1.2,94.59200000000001,M,36.771,M,1.9,0979*66,37.23227564300001,137.02483427816665,679622.3984250725,4122560.804772142
817,[2021-02-22 14:53:04.438] $GNGGA,55304.0,3713.93653894,N,13701.49005697,E,4,10.0,1.2,94.59200000000001,M,36.771,M,2.0,0979*63,37.232275648999995,137.02483428283333,679622.3988248562,4122560.805446735
818,[2021-02-22 14:53:04.532] $GNGGA,55304.1,3713.93653971,N,13701.49005649,E,4,10.0,1.2,94.594,M,36.771,M,2.1,0979*6C,37.232275661833334,137.02483427483332,679622.3980846402,4122560.8068554928
819,[2021-02-22 14:53:04.626] $GNGGA,55304.2,3713.93654101,N,13701.49005742,E,4,10.0,1.2,94.573,M,36.771,M,1.2,0979*64,37.2322756835,137.02483429033333,679622.3994083678,4122560.8092889627
820,[2021-02-22 14:53:04.720] $GNGGA,55304.3,3713.93654088,N,13701.49005618,E,4,10.0,1.2,94.583,M,36.771,M,1.3,0979*65,37.23227568133333,137.02483426966668,679622.3975799738,4122560.809009334
821,[2021-02-22 14:53:04.829] $GNGGA,55304.4,3713.9365408,N,13701.49006116,E,4,10.0,1.2,94.575,M,36.771,M,1.4,0979*6E,37.232275679999994,137.0248343526667,679622.4049468688,4122560.8090189137
822,[2021-02-22 14:53:04.923] $GNGGA,55304.5,3713.93654214,N,13701.49005888,E,4,10.0,1.2,94.581,M,36.771,M,1.5,0979*67,37.23227570233333,137.02483431466666,679622.4015225115,4122560.8114248216
823,[2021-02-22 14:53:05.032] $GNGGA,55304.6,3713.93653893,N,13701.49005881,E,4,10.0,1.2,94.57799999999999,M,36.771,M,1.6,0979*6A,37.23227564883334,137.0248343135,679622.4015459891,4122560.8054864444
824,[2021-02-22 14:53:05.126] $GNGGA,55304.7,3713.93654131,N,13701.49005933,E,4,10.0,1.2,94.57700000000001,M,36.771,M,1.7,0979*6B,37.2322756885,137.0248343221667,679622.4022207472,4122560.80990416
825,[2021-02-22 14:53:05.235] $GNGGA,55304.8,3713.93654164,N,13701.49005927,E,4,10.0,1.2,94.574,M,36.771,M,1.8,0979*6D,37.23227569400001,137.02483432116668,679622.4021189717,4122560.810512521
826,[2021-02-22 14:53:05.329] $GNGGA,55304.9,3713.93653998,N,13701.49005803,E,4,10.0,1.2,94.583,M,36.771,M,1.9,0979*6E,37.23227566633333,137.0248343005,679622.4003510976,4122560.8074035062
827,[2021-02-22 14:53:05.438] $GNGGA,55305.0,3713.93654087,N,13701.49006127,E,4,10.0,1.2,94.575,M,36.771,M,2.0,0979*69,37.23227568116667,137.02483435449997,679622.4051067492,4122560.809151843
828,[2021-02-22 14:53:05.517] $GNGGA,55305.1,3713.9365417,N,13701.49006144,E,4,10.0,1.2,94.57799999999999,M,36.771,M,2.1,0979*68,37.232275695,137.02483435733333,679622.4053252909,4122560.810692116
829,[2021-02-22 14:53:05.626] $GNGGA,55305.2,3713.93654079,N,13701.49006179,E,4,10.0,1.2,94.57600000000001,M,36.771,M,1.2,0979*63,37.232275679833336,137.02483436316666,679622.4058788188,4122560.8090203484
830,[2021-02-22 14:53:05.720] $GNGGA,55305.3,3713.93654053,N,13701.49006089,E,4,10.0,1.2,94.585,M,36.771,M,1.3,0979*69,37.2322756755,137.02483434816668,679622.404558311,4122560.808511072
831,[2021-02-22 14:53:05.829] $GNGGA,55305.4,3713.93653963,N,13701.49006323,E,4,10.0,1.2,94.56700000000001,M,36.771,M,1.4,0979*6B,37.2322756605,137.02483438716666,679622.4080539792,4122560.806920741
832,[2021-02-22 14:53:05.923] $GNGGA,55305.5,3713.93653897,N,13701.49006099,E,4,10.0,1.2,94.581,M,36.771,M,1.5,0979*6B,37.232275649500004,137.02483434983333,679622.4047678878,4122560.80562937
833,[2021-02-22 14:53:06.032] $GNGGA,55305.6,3713.93654152,N,13701.49006054,E,4,10.0,1.2,94.574,M,36.771,M,1.6,0979*67,37.232275691999995,137.02483434233332,679622.404001616,4122560.810330779
834,[2021-02-22 14:53:06.126] $GNGGA,55305.7,3713.93653878,N,13701.49006353,E,4,10.0,1.2,94.575,M,36.771,M,1.7,0979*64,37.23227564633333,137.02483439216667,679622.4085312032,4122560.8053583475
835,[2021-02-22 14:53:06.235] $GNGGA,55305.8,3713.93653945,N,13701.49006183,E,4,10.0,1.2,94.57799999999999,M,36.771,M,1.8,0979*69,37.232275657500004,137.02483436383335,679622.4059909761,4122560.80654359
836,[2021-02-22 14:53:06.329] $GNGGA,55305.9,3713.93654088,N,13701.49006333,E,4,10.0,1.2,94.57,M,36.771,M,1.9,0979*67,37.23227568133333,137.02483438883337,679622.4081524012,4122560.8092354937
837,[2021-02-22 14:53:06.438] $GNGGA,55306.0,3713.93653992,N,13701.4900627,E,4,10.0,1.2,94.57700000000001,M,36.771,M,2.0,0979*63,37.23227566533334,137.02483437833334,679622.4072588184,4122560.8074402665
838,[2021-02-22 14:53:06.532] $GNGGA,55306.1,3713.93654116,N,13701.49006267,E,4,10.0,1.2,94.58,M,36.771,M,2.1,0979*6E,37.23227568600001,137.02483437783334,679622.4071654052,4122560.8097324157
839,[2021-02-22 14:53:06.626] $GNGGA,55306.2,3713.93653962,N,13701.49005917,E,4,10.0,1.2,94.579,M,36.771,M,1.2,0979*68,37.23227566033333,137.02483431950003,679622.4020510142,4122560.8067738274
840,[2021-02-22 14:53:06.720] $GNGGA,55306.3,3713.93653767,N,13701.49005857,E,4,10.0,1.2,94.573,M,36.771,M,1.3,0979*6C,37.23227562783333,137.0248343095,679622.4012409525,4122560.803148769
841,[2021-02-22 14:53:06.829] $GNGGA,55306.4,3713.93654092,N,13701.49006264,E,4,10.0,1.2,94.57600000000001,M,36.771,M,1.4,0979*6A,37.232275681999994,137.02483437733332,679622.4071305387,4122560.8092876384
842,[2021-02-22 14:53:06.923] $GNGGA,55306.5,3713.93654007,N,13701.49005795,E,4,10.0,1.2,94.58200000000001,M,36.771,M,1.5,0979*65,37.232275667833335,137.0248342991667,679622.4002292485,4122560.807567412
843,[2021-02-22 14:53:07.032] $GNGGA,55306.6,3713.93653803,N,13701.49005913,E,4,10.0,1.2,94.57600000000001,M,36.771,M,1.6,0979*65,37.23227563383333,137.02483431883334,679622.4020547633,4122560.80383222
844,[2021-02-22 14:53:07.126] $GNGGA,55306.7,3713.93654055,N,13701.49005747,E,4,10.0,1.2,94.584,M,36.771,M,1.7,0979*6B,37.232275675833336,137.02483429116666,679622.3995004975,4122560.8084398797
845,[2021-02-22 14:53:07.235] $GNGGA,55306.8,3713.93653861,N,13701.49006112,E,4,10.0,1.2,94.56700000000001,M,36.771,M,1.8,0979*6B,37.232275643499996,137.024834352,679622.4049743551,4122560.804967742
846,[2021-02-22 14:53:07.329] $GNGGA,55306.9,3713.93653847,N,13701.49006091,E,4,10.0,1.2,94.573,M,36.771,M,1.9,0979*60,37.232275641166666,137.0248343485,679622.4046693738,4122560.8047022014
847,[2021-02-22 14:53:07.438] $GNGGA,55307.0,3713.93653894,N,13701.49006195,E,4,10.0,1.2,94.57,M,36.771,M,2.0,0979*6A,37.232275648999995,137.02483436583333,679622.4061885888,4122560.805604255
848,[2021-02-22 14:53:07.532] $GNGGA,55307.1,3713.93653894,N,13701.49006094,E,4,10.0,1.2,94.56700000000001,M,36.771,M,1.1,0979*6F,37.232275648999995,137.024834349,679622.4046951418,4122560.805572308
849,[2021-02-22 14:53:07.626] $GNGGA,55307.2,3713.93653862,N,13701.49006229,E,4,10.0,1.2,94.573,M,36.771,M,1.2,0979*67,37.232275643666675,137.0248343715,679622.4067039911,4122560.805023244
850,[2021-02-22 14:53:07.719] $GNGGA,55307.3,3713.93653709,N,13701.49006023,E,4,10.0,1.2,94.56700000000001,M,36.771,M,1.3,0979*68,37.23227561816667,137.02483433716668,679622.4037184771,4122560.802128698
851,[2021-02-22 14:53:07.829] $GNGGA,55307.4,3713.93653862,N,13701.49006186,E,4,10.0,1.2,94.56700000000001,M,36.771,M,1.4,0979*64,37.232275643666675,137.02483436433332,679622.4060681658,4122560.8050096426
852,[2021-02-22 14:53:07.923] $GNGGA,55307.5,3713.9365393,N,13701.49006075,E,4,10.0,1.2,94.57,M,36.771,M,1.5,0979*69,37.232275654999995,137.02483434583334,679622.4043999555,4122560.8062320366
853,[2021-02-22 14:53:08.032] $GNGGA,55307.6,3713.93653615,N,13701.49006067,E,4,10.0,1.2,94.57,M,36.771,M,1.6,0979*62,37.232275602499996,137.0248343445,679622.4044062713,4122560.800404299
854,[2021-02-22 14:53:08.126] $GNGGA,55307.7,3713.9365386,N,13701.49006118,E,4,10.0,1.2,94.56,M,36.771,M,1.7,0979*66,37.23227564333334,137.02483435300002,679622.405063472,4122560.8049511486
855,[2021-02-22 14:53:08.235] $GNGGA,55307.8,3713.93653787,N,13701.49006005,E,4,10.0,1.2,94.57600000000001,M,36.771,M,1.8,0979*6A,37.232275631166665,137.02483433416666,679622.4034214602,4122560.803565436
856,[2021-02-22 14:53:08.329] $GNGGA,55307.9,3713.93653687,N,13701.49006018,E,4,10.0,1.2,94.57,M,36.771,M,1.9,0979*61,37.2322756145,137.02483433633336,679622.403653247,4122560.8017202765
