,Format,Time,Latitude,LatType,Longitude,LonType,Status,Satellite,LevelAccuracy,Altitude(sea),M(sea),Altitude(geoid),M(geoid),DGPS use,checksum,Lat,Lon,UTM_X,UTM_Y
473,[2021-02-22 15:01:45.495] $GNGGA,60144.9,3713.906447807,N,13701.460117188999,E,4,11,0.93,90.75299999999999,M,37.565,M,67.9,2006*6B,37.23177413011666,137.0243352864833,679579.3180992824,4122504.211859789
474,[2021-02-22 15:01:45.589] $GNGGA,60145.0,3713.9064491790004,N,13701.460118691,E,4,9,1.05,90.76,M,37.565,M,68.0,2006*6D,37.231774152983334,137.02433531151667,679579.3202659877,4122504.214444488
475,[2021-02-22 15:01:45.714] $GNGGA,60145.1,3713.9064489879997,N,13701.460118401,E,4,9,1.05,90.758,M,37.565,M,68.1,2006*6A,37.231774149799996,137.02433530668335,679579.3198447278,4122504.214082106
476,[2021-02-22 15:01:45.792] $GNGGA,60145.2,3713.9064499829997,N,13701.460117736999,E,4,9,1.05,90.759,M,37.565,M,68.2,2006*68,37.23177416638333,137.02433529561665,679579.3188235369,4122504.2159011327
477,[2021-02-22 15:01:45.886] $GNGGA,60145.3,3713.906451015,N,13701.460117478,E,4,9,1.05,90.758,M,37.565,M,68.3,2006*6E,37.23177418358333,137.02433529130002,679579.3183997511,4122504.2178013916
478,[2021-02-22 15:01:45.995] $GNGGA,60145.4,3713.906450006,N,13701.460117079,E,4,9,1.05,90.759,M,37.565,M,68.4,2006*69,37.23177416676667,137.02433528465,679579.317849663,4122504.2159228604
479,[2021-02-22 15:01:46.120] $GNGGA,60145.5,3713.906448983,N,13701.460117105,E,4,15,0.77,90.76,M,37.565,M,68.5,2006*6D,37.231774149716664,137.02433528508334,679579.3179285673,4122504.214031875
480,[2021-02-22 15:01:46.198] $GNGGA,60145.6,3713.906448517,N,13701.460117387,E,4,15,0.77,90.76,M,37.565,M,68.6,2006*64,37.231774141950005,137.02433528978335,679579.3183639836,4122504.2131790337
481,[2021-02-22 15:01:46.292] $GNGGA,60145.7,3713.9064486559996,N,13701.460117624,E,4,15,0.77,90.759,M,37.565,M,68.7,2006*64,37.23177414426666,137.02433529373334,679579.318708931,4122504.213443575
482,[2021-02-22 15:01:46.401] $GNGGA,60145.8,3713.906448836,N,13701.460116528,E,4,15,0.77,90.76299999999999,M,37.565,M,68.8,2006*6B,37.23177414726666,137.02433527546665,679579.3170811872,4122504.2137417872
483,[2021-02-22 15:01:46.510] $GNGGA,60145.9,3713.906448803,N,13701.460116336999,E,4,15,0.77,90.76100000000001,M,37.565,M,68.9,2006*67,37.23177414671667,137.02433527228334,679579.3168000666,4122504.2136747213
484,[2021-02-22 15:01:46.589] $GNGGA,60146.0,3713.906449043,N,13701.460115967,E,4,15,0.77,90.76100000000001,M,37.565,M,69.0,2006*64,37.23177415071667,137.02433526611668,679579.3162434672,4122504.214106846
485,[2021-02-22 15:01:46.698] $GNGGA,60146.1,3713.906448726,N,13701.460115618998,E,4,15,0.77,90.76299999999999,M,37.565,M,69.1,2006*65,37.231774145433334,137.02433526031666,679579.3157414258,4122504.213509623
486,[2021-02-22 15:01:46.792] $GNGGA,60146.2,3713.906448344,N,13701.46011622,E,4,15,0.77,90.76100000000001,M,37.565,M,69.2,2006*6A,37.23177413906667,137.02433527033332,679579.3166452139,4122504.2128222063
487,[2021-02-22 15:01:46.917] $GNGGA,60146.3,3713.9064482340004,N,13701.460115917,E,4,15,0.77,90.762,M,37.565,M,69.3,2006*63,37.23177413723334,137.0243352652833,679579.3162015239,4122504.2126092045
488,[2021-02-22 15:01:46.995] $GNGGA,60146.4,3713.906448958,N,13701.460115488,E,4,15,0.77,90.762,M,37.565,M,69.4,2006*69,37.2317741493,137.02433525813336,679579.3155385491,4122504.2139345105
489,[2021-02-22 15:01:47.089] $GNGGA,60146.5,3713.9064492109997,N,13701.460114787,E,4,15,0.77,90.76299999999999,M,37.565,M,69.5,2006*62,37.23177415351666,137.02433524645,679579.3144919917,4122504.2143802093
490,[2021-02-22 15:01:47.198] $GNGGA,60146.6,3713.906449178,N,13701.460115191001,E,4,15,0.77,90.762,M,37.565,M,69.6,2006*6F,37.231774152966665,137.02433525318332,679579.3150906777,4122504.2143319575
491,[2021-02-22 15:01:47.307] $GNGGA,60146.7,3713.90644819,N,13701.460115762,E,4,15,0.77,90.762,M,37.565,M,69.7,2006*62,37.2317741365,137.02433526270002,679579.3159740756,4122504.2125229347
492,[2021-02-22 15:01:47.385] $GNGGA,60146.8,3713.9064477,N,13701.460115105,E,4,15,0.77,90.76,M,37.565,M,69.8,2006*67,37.23177412833334,137.02433525175,679579.3150219641,4122504.211596017
493,[2021-02-22 15:01:47.495] $GNGGA,60146.9,3713.90644829,N,13701.460115312,E,4,15,0.77,90.76100000000001,M,37.565,M,69.9,2006*61,37.231774138166664,137.0243352552,679579.3153047165,4122504.2126936316
494,[2021-02-22 15:01:47.589] $GNGGA,60147.0,3713.9064492770003,N,13701.460115185,E,4,15,0.77,90.76100000000001,M,37.565,M,70.0,2006*6C,37.23177415461667,137.02433525308334,679579.315077893,4122504.2145148474
495,[2021-02-22 15:01:47.714] $GNGGA,60147.1,3713.9064494470003,N,13701.460115066999,E,4,15,0.77,90.762,M,37.565,M,70.1,2006*67,37.23177415745001,137.02433525111664,679579.3148966834,4122504.2148254933
496,[2021-02-22 15:01:47.792] $GNGGA,60147.2,3713.906449437,N,13701.460115655,E,4,15,0.77,90.76299999999999,M,37.565,M,70.2,2006*66,37.231774157283326,137.02433526091664,679579.3157665373,4122504.214825592
497,[2021-02-22 15:01:47.885] $GNGGA,60147.3,3713.9064492529997,N,13701.460115781001,E,4,15,0.77,90.762,M,37.565,M,70.3,2006*6B,37.23177415421666,137.02433526301667,679579.3159601296,4122504.2144893105
498,[2021-02-22 15:01:47.995] $GNGGA,60147.4,3713.9064496829997,N,13701.460115163001,E,4,15,0.77,90.764,M,37.565,M,70.4,2006*6E,37.23177416138333,137.0243352527167,679579.3150293067,4122504.2152649555
499,[2021-02-22 15:01:48.089] $GNGGA,60147.5,3713.906449334,N,13701.460115188998,E,4,15,0.77,90.76100000000001,M,37.565,M,70.5,2006*66,37.23177415556667,137.02433525314999,679579.3150815509,4122504.214620383
500,[2021-02-22 15:01:48.214] $GNGGA,60147.6,3713.906449474,N,13701.460115131002,E,4,15,0.77,90.764,M,37.565,M,70.6,2006*63,37.2317741579,137.02433525218336,679579.3149902564,4122504.214877445
501,[2021-02-22 15:01:48.292] $GNGGA,60147.7,3713.9064493729998,N,13701.460115633,E,4,15,0.77,90.762,M,37.565,M,70.7,2006*60,37.23177415621666,137.02433526055,679579.3157365411,4122504.2147065434
502,[2021-02-22 15:01:48.385] $GNGGA,60147.8,3713.9064487220003,N,13701.460115918,E,4,15,0.77,90.762,M,37.565,M,70.8,2006*67,37.23177414536667,137.02433526529998,679579.3161837052,4122504.2135116807
503,[2021-02-22 15:01:48.495] $GNGGA,60147.9,3713.9064486790003,N,13701.460115206,E,4,15,0.77,90.762,M,37.565,M,70.9,2006*6C,37.23177414465001,137.02433525343335,679579.3151325961,4122504.213409648
504,[2021-02-22 15:01:48.589] $GNGGA,60148.0,3713.906448885,N,13701.460114938,E,4,15,0.77,90.76299999999999,M,37.565,M,71.0,2006*69,37.231774148083325,137.02433524896665,679579.314728163,4122504.2137821205
505,[2021-02-22 15:01:48.713] $GNGGA,60148.1,3713.9064495820003,N,13701.460115666001,E,4,15,0.77,90.76299999999999,M,37.565,M,71.1,2006*67,37.2317741597,137.02433526110002,679579.3157770722,4122504.215094086
506,[2021-02-22 15:01:48.792] $GNGGA,60148.2,3713.906449873,N,13701.460115106001,E,4,15,0.77,90.764,M,37.565,M,71.2,2006*62,37.23177416455,137.0243352517667,679579.3149375089,4122504.2156145154
507,[2021-02-22 15:01:48.885] $GNGGA,60148.3,3713.906449487,N,13701.460114922,E,4,15,0.77,90.762,M,37.565,M,71.3,2006*6C,37.231774158116664,137.0243352487,679579.3146806969,4122504.214894876
508,[2021-02-22 15:01:48.995] $GNGGA,60148.4,3713.906448907,N,13701.460115648999,E,4,15,0.77,90.76100000000001,M,37.565,M,71.4,2006*68,37.23177414845,137.02433526081666,679579.3157786264,4122504.213845289
509,[2021-02-22 15:01:49.088] $GNGGA,60148.5,3713.906448399,N,13701.46011594,E,4,15,0.77,90.765,M,37.565,M,71.5,2006*67,37.23177413998333,137.02433526566668,679579.3162290135,4122504.212915061
510,[2021-02-22 15:01:49.213] $GNGGA,60148.6,3713.906448918,N,13701.460115938999,E,4,15,0.77,90.762,M,37.565,M,71.6,2006*6D,37.231774148633335,137.02433526565,679579.3162070072,4122504.2138748025
511,[2021-02-22 15:01:49.292] $GNGGA,60148.7,3713.906448725,N,13701.460115461,E,4,15,0.77,90.762,M,37.565,M,71.7,2006*6D,37.23177414541666,137.02433525768333,679579.3155078366,4122504.2135027754
512,[2021-02-22 15:01:49.385] $GNGGA,60148.8,3713.906448763,N,13701.460115127,E,4,15,0.77,90.764,M,37.565,M,71.8,2006*6E,37.23177414605,137.02433525211666,679579.3150124562,4122504.213562488
513,[2021-02-22 15:01:49.495] $GNGGA,60148.9,3713.906448394,N,13701.460115181,E,4,15,0.77,90.76299999999999,M,37.565,M,71.9,2006*69,37.231774139900004,137.0243352530167,679579.3151068996,4122504.2128818133
514,[2021-02-22 15:01:49.588] $GNGGA,60149.0,3713.906448357,N,13701.460115617,E,4,15,0.77,90.76299999999999,M,37.565,M,72.0,2006*6C,37.23177413928334,137.02433526028332,679579.3157530618,4122504.212827178
515,[2021-02-22 15:01:49.713] $GNGGA,60149.1,3713.906449047,N,13701.460115168,E,4,15,0.77,90.764,M,37.565,M,72.1,2006*67,37.23177415078333,137.02433525280003,679579.3150618525,4122504.214088977
516,[2021-02-22 15:01:49.792] $GNGGA,60149.2,3713.9064492390003,N,13701.460114403,E,4,15,0.77,90.765,M,37.565,M,72.2,2006*64,37.231774153983345,137.02433524005,679579.3139230735,4122504.2144198474
517,[2021-02-22 15:01:49.885] $GNGGA,60149.3,3713.9064496009996,N,13701.460114005,E,4,15,0.77,90.765,M,37.565,M,72.3,2006*69,37.231774160016656,137.02433523341665,679579.3133202456,4122504.2150766943
518,[2021-02-22 15:01:49.995] $GNGGA,60149.4,3713.906448801,N,13701.4601135,E,4,15,0.77,90.766,M,37.565,M,72.4,2006*62,37.231774146683335,137.024335225,679579.3126051559,4122504.2135813097
519,[2021-02-22 15:01:50.120] $GNGGA,60149.5,3713.906448687,N,13701.460113883,E,4,15,0.77,90.766,M,37.565,M,72.5,2006*64,37.231774144783344,137.02433523138336,679579.3131759986,4122504.2133826045
520,[2021-02-22 15:01:50.198] $GNGGA,60149.6,3713.906449042,N,13701.460113913,E,4,15,0.77,90.765,M,37.565,M,72.6,2006*61,37.2317741507,137.02433523188336,679579.3132063199,4122504.2140400433
521,[2021-02-22 15:01:50.292] $GNGGA,60149.7,3713.906449729,N,13701.460113263,E,4,15,0.77,90.76700000000001,M,37.565,M,72.7,2006*65,37.23177416215,137.02433522105,679579.3122180105,4122504.215289939
522,[2021-02-22 15:01:50.401] $GNGGA,60149.8,3713.906449482,N,13701.460112715,E,4,15,0.77,90.766,M,37.565,M,72.8,2006*63,37.23177415803333,137.02433521191668,679579.3114174698,4122504.2148158397
523,[2021-02-22 15:01:50.510] $GNGGA,60149.9,3713.9064496379997,N,13701.460112169,E,4,15,0.77,90.765,M,37.565,M,72.9,2006*6E,37.23177416063332,137.02433520281664,679579.3106039416,4122504.215087059
524,[2021-02-22 15:01:50.588] $GNGGA,60150.0,3713.9064491229997,N,13701.460112062,E,4,15,0.77,90.76700000000001,M,37.565,M,73.0,2006*62,37.231774152049994,137.02433520103332,679579.3104660942,4122504.214131301
525,[2021-02-22 15:01:50.698] $GNGGA,60150.1,3713.90644858,N,13701.460113076,E,4,15,0.77,90.76899999999999,M,37.565,M,73.1,2006*64,37.231774142999996,137.02433521793336,679579.3119869425,4122504.213159213
526,[2021-02-22 15:01:50.791] $GNGGA,60150.2,3713.906449498,N,13701.4601142,E,4,15,0.77,90.76700000000001,M,37.565,M,73.2,2006*67,37.2317741583,137.02433523666667,679579.3136126614,4122504.2148923883
527,[2021-02-22 15:01:50.916] $GNGGA,60150.3,3713.9064496379997,N,13701.460113698,E,4,15,0.77,90.76899999999999,M,37.565,M,73.3,2006*63,37.23177416063332,137.02433522829998,679579.3128648299,4122504.21513541
528,[2021-02-22 15:01:50.995] $GNGGA,60150.4,3713.906449428,N,13701.460113453999,E,4,15,0.77,90.76700000000001,M,37.565,M,73.4,2006*6C,37.23177415713333,137.0243352242333,679579.3125123403,4122504.214739348
529,[2021-02-22 15:01:51.088] $GNGGA,60150.5,3713.9064503170002,N,13701.460113042,E,4,15,0.77,90.76899999999999,M,37.565,M,73.5,2006*62,37.23177417195001,137.02433521736668,679579.3118679719,4122504.2163703237
530,[2021-02-22 15:01:51.198] $GNGGA,60150.6,3713.9064496990004,N,13701.460113691,E,4,15,0.77,90.76700000000001,M,37.565,M,73.6,2006*6F,37.23177416165,137.02433522818336,679579.3128520716,4122504.215247995
531,[2021-02-22 15:01:51.323] $GNGGA,60150.7,3713.9064496909996,N,13701.460114116999,E,4,15,0.77,90.766,M,37.565,M,73.7,2006*68,37.23177416151666,137.0243352352833,679579.3134822963,4122504.215246672
532,[2021-02-22 15:01:51.385] $GNGGA,60150.8,3713.9064500809995,N,13701.460113595,E,4,15,0.77,90.76700000000001,M,37.565,M,73.8,2006*6F,37.231774168016656,137.0243352265833,679579.3126950075,4122504.215951381
533,[2021-02-22 15:01:51.495] $GNGGA,60150.9,3713.906450133,N,13701.460113601,E,4,15,0.77,90.76799999999999,M,37.565,M,73.9,2006*66,37.23177416888333,137.02433522668335,679579.312701825,4122504.216047734
534,[2021-02-22 15:01:51.588] $GNGGA,60151.0,3713.9064497229997,N,13701.460113838999,E,4,15,0.77,90.766,M,37.565,M,74.0,2006*64,37.231774162049994,137.02433523065,679579.3130699629,4122504.2152970578
535,[2021-02-22 15:01:51.713] $GNGGA,60151.1,3713.906449355,N,13701.460113497,E,4,15,0.77,90.76700000000001,M,37.565,M,74.1,2006*68,37.23177415591667,137.02433522495002,679579.3125788125,4122504.2146057114
536,[2021-02-22 15:01:51.791] $GNGGA,60151.2,3713.9064494609997,N,13701.460113804,E,4,15,0.77,90.76299999999999,M,37.565,M,74.2,2006*6A,37.231774157683326,137.02433523006667,679579.3130285705,4122504.214811441
537,[2021-02-22 15:01:51.885] $GNGGA,60151.3,3713.906449684,N,13701.460113367,E,4,15,0.77,90.765,M,37.565,M,74.3,2006*6B,37.2317741614,137.02433522278332,679579.3123735713,4122504.21521001
538,[2021-02-22 15:01:51.995] $GNGGA,60151.4,3713.906449702,N,13701.460112948,E,4,15,0.77,90.76299999999999,M,37.565,M,74.4,2006*64,37.2317741617,137.02433521579997,679579.3117532947,4122504.2152300477
539,[2021-02-22 15:01:52.119] $GNGGA,60151.5,3713.9064504420003,N,13701.460112823,E,4,15,0.77,90.76299999999999,M,37.565,M,74.5,2006*67,37.23177417403334,137.02433521371665,679579.3115391968,4122504.2165945563
540,[2021-02-22 15:01:52.198] $GNGGA,60151.6,3713.906451091,N,13701.46011284,E,4,15,0.77,90.76,M,37.565,M,74.6,2006*6A,37.231774184849996,137.02433521400002,679579.311538671,4122504.217795271
541,[2021-02-22 15:01:52.291] $GNGGA,60151.7,3713.906449644,N,13701.460114201001,E,4,15,0.77,90.759,M,37.565,M,74.7,2006*6E,37.23177416073333,137.02433523668336,679579.3136083683,4122504.2151624127
542,[2021-02-22 15:01:52.401] $GNGGA,60151.8,3713.906449273,N,13701.460114403,E,4,15,0.77,90.76,M,37.565,M,74.8,2006*60,37.23177415455,137.02433524005,679579.3139217289,4122504.21448272
543,[2021-02-22 15:01:52.494] $GNGGA,60151.9,3713.9064498,N,13701.460114345,E,4,15,0.77,90.76,M,37.565,M,74.9,2006*6B,37.23177416333333,137.0243352390833,679579.3138151225,4122504.215455452
544,[2021-02-22 15:01:52.619] $GNGGA,60152.0,3713.9064504870003,N,13701.460113948999,E,4,15,0.77,90.76100000000001,M,37.565,M,75.0,2006*62,37.23177417478333,137.02433523248334,679579.313202403,4122504.21671338
545,[2021-02-22 15:01:52.698] $GNGGA,60152.1,3713.906450802,N,13701.460113893001,E,4,15,0.77,90.76100000000001,M,37.565,M,75.1,2006*65,37.231774180033334,137.02433523155,679579.313107138,4122504.217294131
546,[2021-02-22 15:01:52.791] $GNGGA,60152.2,3713.90645052,N,13701.460113911002,E,4,15,0.77,90.76299999999999,M,37.565,M,75.2,2006*61,37.23177417533333,137.02433523185005,679579.3131449104,4122504.2167732054
547,[2021-02-22 15:01:52.901] $GNGGA,60152.3,3713.906449488,N,13701.460113932,E,4,15,0.77,90.765,M,37.565,M,75.3,2006*6D,37.23177415813333,137.0243352322,679579.313216773,4122504.2148654195
548,[2021-02-22 15:01:52.994] $GNGGA,60152.4,3713.9064488890003,N,13701.460113613,E,4,15,0.77,90.76700000000001,M,37.565,M,75.4,2006*6F,37.23177414815,137.02433522688335,679579.3127687688,4122504.213747619
549,[2021-02-22 15:01:53.119] $GNGGA,60152.5,3713.9064494259997,N,13701.460114112,E,4,15,0.77,90.766,M,37.565,M,75.5,2006*67,37.2317741571,137.02433523520003,679579.3134853881,4122504.214756457
550,[2021-02-22 15:01:53.198] $GNGGA,60152.6,3713.906449496,N,13701.4601139,E,4,15,0.77,90.76700000000001,M,37.565,M,75.6,2006*61,37.23177415826666,137.02433523166667,679579.3131691384,4122504.2148792017
551,[2021-02-22 15:01:53.291] $GNGGA,60152.7,3713.9064495029997,N,13701.460113468,E,4,15,0.77,90.77,M,37.565,M,75.7,2006*69,37.23177415838333,137.02433522446665,679579.3125300747,4122504.214878485
552,[2021-02-22 15:01:53.401] $GNGGA,60152.8,3713.906448851,N,13701.460113646,E,4,15,0.77,90.766,M,37.565,M,75.8,2006*6B,37.23177414751667,137.02433522743337,679579.3128190683,4122504.2136783903
553,[2021-02-22 15:01:53.494] $GNGGA,60152.9,3713.9064482920003,N,13701.460114836002,E,4,15,0.77,90.766,M,37.565,M,75.9,2006*60,37.23177413820001,137.0243352472667,679579.3146007934,4122504.212682278
554,[2021-02-22 15:01:53.619] $GNGGA,60153.0,3713.9064482920003,N,13701.460114273,E,4,14,0.79,90.76799999999999,M,37.565,M,76.0,2006*68,37.23177413820001,137.02433523788335,679579.3137683005,4122504.2126644757
555,[2021-02-22 15:01:53.697] $GNGGA,60153.1,3713.906447148,N,13701.460116048998,E,4,14,0.79,90.773,M,37.565,M,76.1,2006*60,37.23177411913333,137.02433526748328,679579.3164396582,4122504.2106050677
556,[2021-02-22 15:01:53.791] $GNGGA,60153.2,3713.9064473470003,N,13701.460116134,E,4,14,0.79,90.77600000000001,M,37.565,M,76.2,2006*63,37.23177412245,137.02433526890002,679579.3165574799,4122504.2109757615
557,[2021-02-22 15:01:53.901] $GNGGA,60153.3,3713.906447784,N,13701.460115463999,E,4,14,0.79,90.777,M,37.565,M,76.3,2006*6A,37.23177412973334,137.02433525773333,679579.3155494872,4122504.211762707
558,[2021-02-22 15:01:53.994] $GNGGA,60153.4,3713.906448452,N,13701.460116388998,E,4,14,0.79,90.774,M,37.565,M,76.4,2006*69,37.23177414086666,137.02433527314997,679579.3168908365,4122504.2130272696
559,[2021-02-22 15:01:54.119] $GNGGA,60153.5,3713.906448219,N,13701.460116488,E,4,14,0.79,90.76899999999999,M,37.565,M,76.5,2006*6A,37.23177413698333,137.0243352748,679579.3170464414,4122504.212599522
560,[2021-02-22 15:01:54.197] $GNGGA,60153.6,3713.906448678,N,13701.460116505,E,4,14,0.79,90.771,M,37.565,M,76.6,2006*64,37.231774144633334,137.02433527508336,679579.3170534298,4122504.213448875
561,[2021-02-22 15:01:54.291] $GNGGA,60153.7,3713.906448671,N,13701.460115967,E,4,14,0.79,90.77,M,37.565,M,76.7,2006*67,37.23177414451666,137.02433526611668,679579.3162581793,4122504.2134189163
562,[2021-02-22 15:01:54.401] $GNGGA,60153.8,3713.9064492420002,N,13701.460116293001,E,4,14,0.79,90.76899999999999,M,37.565,M,76.8,2006*69,37.23177415403334,137.02433527155,679579.3167176434,4122504.2144851605
563,[2021-02-22 15:01:54.510] $GNGGA,60153.9,3713.906448855,N,13701.460116642,E,4,14,0.79,90.76799999999999,M,37.565,M,76.9,2006*6D,37.23177414758333,137.02433527736665,679579.3172490031,4122504.213780528
564,[2021-02-22 15:01:54.588] $GNGGA,60154.0,3713.9064484670002,N,13701.460117026001,E,4,14,0.79,90.76799999999999,M,37.565,M,77.0,2006*63,37.23177414111667,137.0243352837667,679579.3178321631,4122504.2130751535
565,[2021-02-22 15:01:54.697] $GNGGA,60154.1,3713.906449114,N,13701.460116778,E,4,14,0.79,90.76799999999999,M,37.565,M,77.1,2006*6E,37.231774151900005,137.02433527963333,679579.3174398615,4122504.2142637908
566,[2021-02-22 15:01:54.791] $GNGGA,60154.2,3713.9064491229997,N,13701.460116086999,E,4,14,0.79,90.76899999999999,M,37.565,M,77.2,2006*6C,37.231774152049994,137.02433526811666,679579.3164177424,4122504.214258582
567,[2021-02-22 15:01:54.916] $GNGGA,60154.3,3713.906449005,N,13701.460116257,E,4,14,0.79,90.771,M,37.565,M,77.3,2006*6F,37.23177415008334,137.02433527095,679579.3166737836,4122504.214045746
568,[2021-02-22 15:01:54.994] $GNGGA,60154.4,3713.9064497229997,N,13701.460116516,E,4,14,0.79,90.76799999999999,M,37.565,M,77.4,2006*66,37.231774162049994,137.02433527526668,679579.3170283644,4122504.2153817117
569,[2021-02-22 15:01:55.088] $GNGGA,60154.5,3713.90644972,N,13701.460117341001,E,4,14,0.79,90.76899999999999,M,37.565,M,77.5,2006*61,37.23177416200001,137.02433528901668,679579.3182483882,4122504.215402254
570,[2021-02-22 15:01:55.197] $GNGGA,60154.6,3713.9064497570002,N,13701.460117952,E,4,14,0.79,90.77,M,37.565,M,77.6,2006*61,37.231774162616674,137.02433529919998,679579.3191503895,4122504.215489999
571,[2021-02-22 15:01:55.307] $GNGGA,60154.7,3713.906449796,N,13701.460117247,E,4,14,0.79,90.77,M,37.565,M,77.7,2006*63,37.231774163266664,137.02433528744996,679579.318106381,4122504.2155398247
572,[2021-02-22 15:01:55.385] $GNGGA,60154.8,3713.906450502,N,13701.460116251,E,4,15,0.77,90.77,M,37.565,M,77.8,2006*6D,37.23177417503334,137.02433527085003,679579.3166057104,4122504.2168139154
573,[2021-02-22 15:01:55.494] $GNGGA,60154.9,3713.906449805,N,13701.460115397,E,4,15,0.77,90.76700000000001,M,37.565,M,77.9,2006*61,37.231774163416674,137.02433525661667,679579.3153704881,4122504.2154979673
574,[2021-02-22 15:01:55.588] $GNGGA,60155.0,3713.9064503279997,N,13701.460116041,E,4,15,0.77,90.766,M,37.565,M,78.0,2006*69,37.23177417213333,137.02433526734998,679579.316302068,4122504.2164855003
575,[2021-02-22 15:01:55.713] $GNGGA,60155.1,3713.9064497609997,N,13701.460116899,E,4,15,0.77,90.765,M,37.565,M,78.1,2006*66,37.23177416268334,137.02433528165,679579.3175931915,4122504.2154640965
576,[2021-02-22 15:01:55.791] $GNGGA,60155.2,3713.90644983,N,13701.460116435,E,4,15,0.77,90.764,M,37.565,M,78.2,2006*66,37.231774163833336,137.02433527391668,679579.3169043622,4122504.2155770226
577,[2021-02-22 15:01:55.885] $GNGGA,60155.3,3713.906449791,N,13701.460114853,E,4,15,0.77,90.766,M,37.565,M,78.3,2006*6E,37.23177416318333,137.02433524755,679579.3145666448,4122504.215454874
578,[2021-02-22 15:01:55.994] $GNGGA,60155.4,3713.906450362,N,13701.460114116,E,4,15,0.77,90.76700000000001,M,37.565,M,78.4,2006*67,37.23177417270001,137.02433523526668,679579.3134542853,4122504.216487503
579,[2021-02-22 15:01:56.119] $GNGGA,60155.5,3713.906451292,N,13701.460114846,E,4,15,0.77,90.76799999999999,M,37.565,M,78.5,2006*6B,37.2317741882,137.02433524743333,679579.3144969327,4122504.2182304105
580,[2021-02-22 15:01:56.197] $GNGGA,60155.6,3713.906451749,N,13701.460115012,E,4,15,0.77,90.76799999999999,M,37.565,M,78.6,2006*60,37.23177419581666,137.0243352502,679579.3147243191,4122504.2190807764
581,[2021-02-22 15:01:56.291] $GNGGA,60155.7,3713.906451155,N,13701.460115712,E,4,15,0.77,90.76700000000001,M,37.565,M,78.7,2006*63,37.23177418591667,137.02433526186664,679579.3157828772,4122504.2180044437
582,[2021-02-22 15:01:56.400] $GNGGA,60155.8,3713.90645108,N,13701.460115535,E,4,15,0.77,90.76700000000001,M,37.565,M,78.8,2006*6D,37.23177418466666,137.02433525891666,679579.3155241206,4122504.217860152
583,[2021-02-22 15:01:56.494] $GNGGA,60155.9,3713.906451025,N,13701.460115158001,E,4,15,0.77,90.76899999999999,M,37.565,M,78.9,2006*63,37.231774183750005,137.02433525263334,679579.3149688375,4122504.217746522
584,[2021-02-22 15:01:56.619] $GNGGA,60156.0,3713.906450467,N,13701.460115053998,E,4,15,0.77,90.76700000000001,M,37.565,M,79.0,2006*61,37.23177417445,137.02433525089998,679579.3148371221,4122504.216711338
585,[2021-02-22 15:01:56.697] $GNGGA,60156.1,3713.906451269,N,13701.460115496999,E,4,15,0.77,90.76899999999999,M,37.565,M,79.1,2006*6D,37.23177418781666,137.02433525828332,679579.3154604561,4122504.218208462
586,[2021-02-22 15:01:56.791] $GNGGA,60156.2,3713.906451194,N,13701.460117045,E,4,15,0.77,90.76899999999999,M,37.565,M,79.2,2006*65,37.23177418656667,137.02433528408332,679579.3177524043,4122504.21811872
587,[2021-02-22 15:01:56.900] $GNGGA,60156.3,3713.906451413,N,13701.460117238,E,4,15,0.77,90.76799999999999,M,37.565,M,79.3,2006*66,37.23177419021666,137.0243352873,679579.3180291282,4122504.218529813
588,[2021-02-22 15:01:56.994] $GNGGA,60156.4,3713.906452715,N,13701.460116875,E,4,15,0.77,90.766,M,37.565,M,79.4,2006*6C,37.231774211916665,137.02433528125002,679579.3174408813,4122504.2209260864
589,[2021-02-22 15:01:57.119] $GNGGA,60156.5,3713.906452412,N,13701.460116218,E,4,15,0.77,90.766,M,37.565,M,79.5,2006*69,37.23177420686667,137.0243352703,679579.3164813765,4122504.2203449807
590,[2021-02-22 15:01:57.197] $GNGGA,60156.6,3713.906452519,N,13701.460116363001,E,4,15,0.77,90.766,M,37.565,M,79.6,2006*6E,37.23177420865,137.02433527271668,679579.3166915517,4122504.2205474386
591,[2021-02-22 15:01:57.291] $GNGGA,60156.7,3713.9064520640004,N,13701.460116737,E,4,15,0.77,90.76700000000001,M,37.565,M,79.7,2006*65,37.23177420106668,137.02433527895,679579.3172625662,4122504.2197178467
592,[2021-02-22 15:01:57.400] $GNGGA,60156.8,3713.906452026,N,13701.460115831002,E,4,15,0.77,90.765,M,37.565,M,79.8,2006*6B,37.231774200433335,137.02433526385005,679579.3159244,4122504.2196189244
593,[2021-02-22 15:01:57.494] $GNGGA,60156.9,3713.906452089,N,13701.460115687,E,4,15,0.77,90.765,M,37.565,M,79.9,2006*6D,37.23177420148334,137.02433526144998,679579.3157089736,4122504.2197308745
594,[2021-02-22 15:01:57.619] $GNGGA,60157.0,3713.906453015,N,13701.460115643999,E,4,15,0.77,90.766,M,37.565,M,80.0,2006*62,37.23177421691667,137.02433526073332,679579.315608769,4122504.22144194
595,[2021-02-22 15:01:57.697] $GNGGA,60157.1,3713.906453026,N,13701.460115778,E,4,15,0.77,90.76700000000001,M,37.565,M,80.1,2006*6D,37.2317742171,137.02433526296664,679579.3158064757,4122504.2214665203
596,[2021-02-22 15:01:57.791] $GNGGA,60157.2,3713.90645182,N,13701.460115573998,E,4,15,0.77,90.77,M,37.565,M,80.2,2006*69,37.231774197,137.02433525956667,679579.3155525234,4122504.2192298463
597,[2021-02-22 15:01:57.900] $GNGGA,60157.3,3713.906450924,N,13701.460116249,E,4,15,0.77,90.76700000000001,M,37.565,M,80.3,2006*61,37.231774182066665,137.0243352708167,679579.316586064,4122504.217594244
598,[2021-02-22 15:01:57.994] $GNGGA,60157.4,3713.906451099,N,13701.460116181,E,4,15,0.77,90.76899999999999,M,37.565,M,80.4,2006*66,37.23177418498334,137.02433526968332,679579.3164785899,4122504.217915717
599,[2021-02-22 15:01:58.119] $GNGGA,60157.5,3713.9064512440004,N,13701.460116341,E,4,15,0.77,90.76700000000001,M,37.565,M,80.5,2006*64,37.2317741874,137.02433527235004,679579.3167094484,4122504.2181889205
600,[2021-02-22 15:01:58.197] $GNGGA,60157.6,3713.90645194,N,13701.460116212,E,4,15,0.77,90.76799999999999,M,37.565,M,80.6,2006*63,37.231774199,137.02433527019997,679579.3164911671,4122504.2194719347
601,[2021-02-22 15:01:58.291] $GNGGA,60157.7,3713.9064519979997,N,13701.460117,E,4,15,0.77,90.766,M,37.565,M,80.7,2006*68,37.23177419996666,137.02433528333333,679579.3176540672,4122504.21960411
602,[2021-02-22 15:01:58.400] $GNGGA,60157.8,3713.906451062,N,13701.460117113,E,4,15,0.77,90.76299999999999,M,37.565,M,80.8,2006*62,37.23177418436667,137.0243352852167,679579.3178581776,4122504.217876766
603,[2021-02-22 15:01:58.494] $GNGGA,60157.9,3713.9064501690004,N,13701.460117153001,E,4,15,0.77,90.765,M,37.565,M,80.9,2006*6B,37.23177416948334,137.02433528588335,679579.3179526413,4122504.2162266322
604,[2021-02-22 15:01:58.619] $GNGGA,60158.0,3713.906450693,N,13701.460116932,E,4,15,0.77,90.765,M,37.565,M,81.0,2006*69,37.23177417821666,137.0243352822,679579.3176051315,4122504.21718866
605,[2021-02-22 15:01:58.697] $GNGGA,60158.1,3713.9064506890004,N,13701.46011648,E,4,15,0.77,90.766,M,37.565,M,81.1,2006*65,37.231774178150005,137.0243352746667,679579.3169369304,4122504.21716697
606,[2021-02-22 15:01:58.791] $GNGGA,60158.2,3713.9064501340004,N,13701.460116221,E,4,15,0.77,90.766,M,37.565,M,81.2,2006*69,37.2317741689,137.02433527035,679579.3165759033,4122504.2161324346
607,[2021-02-22 15:01:58.900] $GNGGA,60158.3,3713.906450079,N,13701.46011578,E,4,15,0.77,90.764,M,37.565,M,81.3,2006*6E,37.23177416798333,137.024335263,679579.3159259841,4122504.216016779
608,[2021-02-22 15:01:59.010] $GNGGA,60158.4,3713.906450008,N,13701.46011557,E,4,15,0.77,90.762,M,37.565,M,81.4,2006*63,37.231774166799994,137.02433525950002,679579.3156182726,4122504.215878839
609,[2021-02-22 15:01:59.088] $GNGGA,60158.5,3713.9064497540003,N,13701.460115578999,E,4,15,0.77,90.764,M,37.565,M,81.5,2006*6A,37.23177416256667,137.02433525964997,679579.3156416209,4122504.215409409
610,[2021-02-22 15:01:59.197] $GNGGA,60158.6,3713.906450149,N,13701.460116188999,E,4,15,0.77,90.762,M,37.565,M,81.6,2006*66,37.23177416915001,137.02433526981667,679579.316527992,4122504.2161591616
611,[2021-02-22 15:01:59.291] $GNGGA,60158.7,3713.906451227,N,13701.460116041999,E,4,15,0.77,90.765,M,37.565,M,81.7,2006*6D,37.23177418711667,137.02433526736667,679579.3162679949,4122504.218148029
612,[2021-02-22 15:01:59.416] $GNGGA,60158.8,3713.906450594,N,13701.460116384,E,4,15,0.77,90.76700000000001,M,37.565,M,81.8,2006*68,37.23177417656667,137.02433527306664,679579.3167987309,4122504.216988253
613,[2021-02-22 15:01:59.494] $GNGGA,60158.9,3713.9064513079998,N,13701.460115918,E,4,15,0.77,90.766,M,37.565,M,81.9,2006*67,37.231774188466666,137.02433526529998,679579.3160814334,4122504.2182938973
614,[2021-02-22 15:01:59.588] $GNGGA,60159.0,3713.90645207,N,13701.460115572,E,4,15,0.77,90.76799999999999,M,37.565,M,82.0,2006*64,37.23177420116666,137.0243352595333,679579.3155396768,4122504.2196921003
615,[2021-02-22 15:01:59.697] $GNGGA,60159.1,3713.906452928,N,13701.46011636,E,4,15,0.77,90.76899999999999,M,37.565,M,82.1,2006*67,37.231774215466665,137.02433527266666,679579.3166709384,4122504.221303695
616,[2021-02-22 15:01:59.822] $GNGGA,60159.2,3713.906451713,N,13701.460115364,E,4,15,0.77,90.76700000000001,M,37.565,M,82.2,2006*6B,37.23177419521667,137.02433525606668,679579.3152462355,4122504.219025335
617,[2021-02-22 15:01:59.885] $GNGGA,60159.3,3713.9064519890003,N,13701.460115318001,E,4,15,0.77,90.766,M,37.565,M,82.3,2006*6C,37.23177419981668,137.02433525530003,679579.3151673037,4122504.2195342807
618,[2021-02-22 15:01:59.994] $GNGGA,60159.4,3713.906452,N,13701.460115639,E,4,15,0.77,90.76700000000001,M,37.565,M,82.4,2006*60,37.23177420000001,137.02433526065,679579.3156415173,4122504.219564772
619,[2021-02-22 15:02:00.088] $GNGGA,60159.5,3713.906453774,N,13701.460116771,E,4,15,0.77,90.766,M,37.565,M,82.5,2006*6A,37.23177422956666,137.02433527951666,679579.317245214,4122504.2228811756
620,[2021-02-22 15:02:00.213] $GNGGA,60159.6,3713.9064559,N,13701.460117703,E,4,15,0.77,90.766,M,37.565,M,82.6,2006*65,37.231774265,137.02433529504998,679579.3185392543,4122504.2268422
621,[2021-02-22 15:02:00.291] $GNGGA,60159.7,3713.906456087,N,13701.460118099,E,4,15,0.77,90.765,M,37.565,M,82.7,2006*68,37.23177426811667,137.02433530164998,679579.319117413,4122504.2272005375
622,[2021-02-22 15:02:00.385] $GNGGA,60159.8,3713.906454972,N,13701.460117853001,E,4,15,0.77,90.76700000000001,M,37.565,M,82.8,2006*6A,37.23177424953334,137.02433529755,679579.3187977596,4122504.2251308206
623,[2021-02-22 15:02:00.494] $GNGGA,60159.9,3713.9064529190005,N,13701.460118606,E,4,15,0.77,90.766,M,37.565,M,82.9,2006*61,37.23177421531667,137.02433531010004,679579.3199923944,4122504.2213580757
624,[2021-02-22 15:02:00.619] $GNGGA,60200.0,3713.906452542,N,13701.460117493001,E,4,15,0.77,90.76299999999999,M,37.565,M,83.0,2006*69,37.231774209033325,137.02433529155005,679579.3183615424,4122504.2206257046
625,[2021-02-22 15:02:00.697] $GNGGA,60200.1,3713.906453774,N,13701.460116403001,E,4,15,0.77,90.764,M,37.565,M,83.1,2006*60,37.23177422956666,137.02433527338334,679579.3167010657,4122504.222869538
626,[2021-02-22 15:02:00.791] $GNGGA,60200.2,3713.90645366,N,13701.460117748,E,4,15,0.77,90.765,M,37.565,M,83.2,2006*68,37.23177422766666,137.02433529579997,679579.3186943827,4122504.222701254
627,[2021-02-22 15:02:00.900] $GNGGA,60200.3,3713.906453478,N,13701.460117773,E,4,15,0.77,90.76700000000001,M,37.565,M,83.3,2006*69,37.23177422463333,137.0243352962167,679579.3187385527,4122504.222365476
628,[2021-02-22 15:02:00.994] $GNGGA,60200.4,3713.906452095,N,13701.460117396002,E,4,15,0.77,90.76299999999999,M,37.565,M,83.4,2006*64,37.231774201583335,137.02433528993336,679579.3182357876,4122504.2197960126
629,[2021-02-22 15:02:01.119] $GNGGA,60200.5,3713.906453305,N,13701.460116478998,E,4,15,0.77,90.764,M,37.565,M,83.5,2006*6F,37.23177422175001,137.02433527464996,679579.3168319868,4122504.2220046357
630,[2021-02-22 15:02:01.197] $GNGGA,60200.6,3713.9064543070003,N,13701.460115442,E,4,15,0.77,90.76700000000001,M,37.565,M,83.6,2006*62,37.23177423845001,137.0243352573667,679579.3152589842,4122504.2238248135
631,[2021-02-22 15:02:01.291] $GNGGA,60200.7,3713.906454727,N,13701.460116881,E,4,15,0.77,90.76700000000001,M,37.565,M,83.7,2006*64,37.231774245450005,137.02433528135,679579.3173701796,4122504.2246470116
632,[2021-02-22 15:02:01.400] $GNGGA,60200.8,3713.906455097,N,13701.460117523,E,4,15,0.77,90.766,M,37.565,M,83.8,2006*6C,37.23177425161668,137.02433529205,679579.3183048551,4122504.225351546
633,[2021-02-22 15:02:01.494] $GNGGA,60200.9,3713.9064541770003,N,13701.460117483,E,4,15,0.77,90.76700000000001,M,37.565,M,83.9,2006*68,37.23177423628334,137.02433529138335,679579.3182820926,4122504.223648949
634,[2021-02-22 15:02:01.619] $GNGGA,60201.0,3713.906453285,N,13701.460116401002,E,4,15,0.77,90.764,M,37.565,M,84.0,2006*6F,37.231774221416664,137.02433527335006,679579.3167174521,4122504.221965182
635,[2021-02-22 15:02:01.697] $GNGGA,60201.1,3713.9064534159997,N,13701.460114845,E,4,15,0.77,90.764,M,37.565,M,84.1,2006*6D,37.2317742236,137.02433524741667,679579.3144114534,4122504.2221582322
636,[2021-02-22 15:02:01.791] $GNGGA,60201.2,3713.9064534359995,N,13701.460115638001,E,4,14,0.79,90.765,M,37.565,M,84.2,2006*64,37.23177422393333,137.02433526063336,679579.3155832519,4122504.2222202937
637,[2021-02-22 15:02:01.900] $GNGGA,60201.3,3713.906455498,N,13701.460117113998,E,4,15,0.77,90.766,M,37.565,M,84.3,2006*61,37.23177425830001,137.02433528523332,679579.3176842178,4122504.2260801685
638,[2021-02-22 15:02:01.994] $GNGGA,60201.4,3713.9064559020003,N,13701.460118741,E,4,15,0.77,90.764,M,37.565,M,84.4,2006*64,37.23177426503333,137.02433531235,679579.320074038,4122504.226878722
639,[2021-02-22 15:02:02.119] $GNGGA,60201.5,3713.906455261,N,13701.460118985,E,4,15,0.77,90.765,M,37.565,M,84.5,2006*6D,37.23177425434999,137.02433531641665,679579.3204601833,4122504.225701055
640,[2021-02-22 15:02:02.197] $GNGGA,60201.6,3713.906453774,N,13701.460117913,E,4,15,0.77,90.762,M,37.565,M,84.6,2006*6D,37.23177422956666,137.02433529855003,679579.3189338602,4122504.2229172885
641,[2021-02-22 15:02:02.291] $GNGGA,60201.7,3713.90645338,N,13701.460116146001,E,4,15,0.77,90.765,M,37.565,M,84.7,2006*6C,37.231774223,137.02433526910002,679579.3163366308,4122504.2221327997
642,[2021-02-22 15:02:02.400] $GNGGA,60201.8,3713.906454256,N,13701.460116698001,E,4,15,0.77,90.764,M,37.565,M,84.8,2006*64,37.2317742376,137.02433527830001,679579.3171182126,4122504.2237702166
643,[2021-02-22 15:02:02.494] $GNGGA,60201.9,3713.906455413,N,13701.46011707,E,4,15,0.77,90.765,M,37.565,M,84.9,2006*62,37.231774256883334,137.02433528450004,679579.3176225224,4122504.225921589
644,[2021-02-22 15:02:02.619] $GNGGA,60202.0,3713.9064558729997,N,13701.460118651,E,4,15,0.77,90.76100000000001,M,37.565,M,85.0,2006*64,37.23177426455,137.02433531085003,679579.3199421067,4122504.2268222487
645,[2021-02-22 15:02:02.697] $GNGGA,60202.1,3713.906456272,N,13701.46011871,E,4,15,0.77,90.76299999999999,M,37.565,M,85.1,2006*6A,37.2317742712,137.02433531183334,679579.3200135678,4122504.2275619744
646,[2021-02-22 15:02:02.791] $GNGGA,60202.2,3713.906456275,N,13701.460118563,E,4,15,0.77,90.765,M,37.565,M,85.2,2006*6D,37.23177427125,137.02433530938333,679579.3197960829,4122504.227562873
647,[2021-02-22 15:02:02.900] $GNGGA,60202.3,3713.9064573670003,N,13701.460117858,E,4,15,0.77,90.764,M,37.565,M,85.3,2006*65,37.23177428945001,137.02433529763331,679579.3187104323,4122504.229559986
648,[2021-02-22 15:02:02.994] $GNGGA,60202.4,3713.906456702,N,13701.460118383,E,4,15,0.77,90.76299999999999,M,37.565,M,85.4,2006*66,37.231774278366665,137.02433530638334,679579.319513035,4122504.2283468205
649,[2021-02-22 15:02:03.119] $GNGGA,60202.5,3713.906457568,N,13701.460117501001,E,4,15,0.77,90.764,M,37.565,M,85.5,2006*6D,37.231774292800004,137.02433529168334,679579.3181745997,4122504.229920399
650,[2021-02-22 15:02:03.197] $GNGGA,60202.6,3713.906457424,N,13701.460117813998,E,4,15,0.77,90.762,M,37.565,M,85.6,2006*6B,37.231774290400004,137.02433529689995,679579.3186431142,4122504.229664001
651,[2021-02-22 15:02:03.291] $GNGGA,60202.7,3713.906456314,N,13701.460118166002,E,4,15,0.77,90.765,M,37.565,M,85.7,2006*6A,37.23177427190001,137.0243353027667,679579.3192075122,4122504.227622441
652,[2021-02-22 15:02:03.400] $GNGGA,60202.8,3713.9064564759997,N,13701.460118527,E,4,15,0.77,90.764,M,37.565,M,85.8,2006*69,37.2317742746,137.02433530878335,679579.3197349034,4122504.2279334385
653,[2021-02-22 15:02:03.509] $GNGGA,60202.9,3713.906456336,N,13701.460117367,E,4,15,0.77,90.766,M,37.565,M,85.9,2006*65,37.231774272266655,137.02433528945,679579.3180251789,4122504.2276378567
654,[2021-02-22 15:02:03.587] $GNGGA,60203.0,3713.9064564490004,N,13701.460117059,E,4,15,0.77,90.76299999999999,M,37.565,M,86.0,2006*63,37.23177427415001,137.02433528431666,679579.3175652811,4122504.227837088
655,[2021-02-22 15:02:03.697] $GNGGA,60203.1,3713.9064567459995,N,13701.460116835,E,4,15,0.77,90.764,M,37.565,M,86.1,2006*6B,37.231774279099994,137.02433528058333,679579.3172223128,4122504.228379236
656,[2021-02-22 15:02:03.791] $GNGGA,60203.2,3713.9064573379997,N,13701.460117483,E,4,15,0.77,90.765,M,37.565,M,86.2,2006*66,37.23177428896666,137.02433529138335,679579.3181570806,4122504.229494496
657,[2021-02-22 15:02:03.916] $GNGGA,60203.3,3713.906456172,N,13701.460117856,E,4,15,0.77,90.766,M,37.565,M,86.3,2006*6C,37.23177426953334,137.02433529760003,679579.3187547398,4122504.2273500413
658,[2021-02-22 15:02:03.994] $GNGGA,60203.4,3713.9064554779998,N,13701.460117567,E,4,15,0.77,90.76299999999999,M,37.565,M,86.4,2006*6A,37.23177425796666,137.02433529278335,679579.318354849,4122504.2260575076
659,[2021-02-22 15:02:04.087] $GNGGA,60203.5,3713.906455005,N,13701.46011711,E,4,15,0.77,90.76299999999999,M,37.565,M,86.5,2006*60,37.23177425008333,137.02433528516667,679579.3176978007,4122504.22516835
660,[2021-02-22 15:02:04.197] $GNGGA,60203.6,3713.906456246,N,13701.460116525,E,4,15,0.77,90.764,M,37.565,M,86.6,2006*62,37.231774270766664,137.0243352754167,679579.316783701,4122504.227444797
661,[2021-02-22 15:02:04.322] $GNGGA,60203.7,3713.906456855,N,13701.460116823999,E,4,15,0.77,90.76299999999999,M,37.565,M,86.7,2006*61,37.231774280916675,137.02433528039995,679579.3172017328,4122504.22858046
662,[2021-02-22 15:02:04.384] $GNGGA,60203.8,3713.906456814,N,13701.460117163,E,4,15,0.77,90.762,M,37.565,M,86.8,2006*6E,37.23177428023333,137.02433528605002,679579.3177046293,4122504.228515359
663,[2021-02-22 15:02:04.494] $GNGGA,60203.9,3713.90645605,N,13701.460117652,E,4,15,0.77,90.765,M,37.565,M,86.9,2006*64,37.23177426750001,137.02433529419997,679579.3184579102,4122504.2271179804
664,[2021-02-22 15:02:04.587] $GNGGA,60204.0,3713.9064570779997,N,13701.46011734,E,4,15,0.77,90.765,M,37.565,M,87.0,2006*6F,37.231774284633325,137.024335289,679579.3179559113,4122504.2290091626
665,[2021-02-22 15:02:04.712] $GNGGA,60204.1,3713.9064575609996,N,13701.460117658999,E,4,15,0.77,90.765,M,37.565,M,87.1,2006*6F,37.23177429268332,137.02433529431664,679579.3184085031,4122504.229912449
666,[2021-02-22 15:02:04.791] $GNGGA,60204.2,3713.906457737,N,13701.460117335,E,4,15,0.77,90.76799999999999,M,37.565,M,87.2,2006*6C,37.23177429561667,137.02433528891666,679579.3179224558,4122504.2302276758
667,[2021-02-22 15:02:04.900] $GNGGA,60204.3,3713.906458325,N,13701.460117059,E,4,15,0.77,90.76799999999999,M,37.565,M,87.3,2006*6D,37.23177430541667,137.02433528431666,679579.3174910885,4122504.231306321
668,[2021-02-22 15:02:04.994] $GNGGA,60204.4,3713.906458075,N,13701.460117876999,E,4,15,0.77,90.766,M,37.565,M,87.4,2006*61,37.231774301250006,137.02433529795,679579.3187105282,4122504.2308698692
669,[2021-02-22 15:02:05.119] $GNGGA,60204.5,3713.906457728,N,13701.460117567,E,4,15,0.77,90.765,M,37.565,M,87.5,2006*6E,37.23177429546667,137.02433529278335,679579.3182658653,4122504.23021837
670,[2021-02-22 15:02:05.197] $GNGGA,60204.6,3713.906458172,N,13701.460117356,E,4,15,0.77,90.764,M,37.565,M,87.6,2006*6D,37.23177430286667,137.02433528926667,679579.3179363057,4122504.2310327734
671,[2021-02-22 15:02:05.290] $GNGGA,60204.7,3713.906457769,N,13701.460117575,E,4,15,0.77,90.764,M,37.565,M,87.7,2006*69,37.23177429615,137.02433529291665,679579.3182760706,4122504.2302944427
672,[2021-02-22 15:02:05.400] $GNGGA,60204.8,3713.906456278,N,13701.460117776001,E,4,15,0.77,90.766,M,37.565,M,87.8,2006*6E,37.2317742713,137.0243352962667,679579.3186322558,4122504.227543534
673,[2021-02-22 15:02:05.494] $GNGGA,60204.9,3713.906456573,N,13701.460117901,E,4,15,0.77,90.762,M,37.565,M,87.9,2006*68,37.23177427621667,137.02433529835002,679579.3188054189,4122504.228093023
674,[2021-02-22 15:02:05.619] $GNGGA,60205.0,3713.9064567859996,N,13701.460117213,E,4,15,0.77,90.765,M,37.565,M,88.0,2006*61,37.23177427976666,137.02433528688334,679579.31777967,4122504.2284651604
675,[2021-02-22 15:02:05.697] $GNGGA,60205.1,3713.9064556659996,N,13701.460116408998,E,4,15,0.77,90.765,M,37.565,M,88.1,2006*61,37.23177426109999,137.0243352734833,679579.3166351076,4122504.2263685507
676,[2021-02-22 15:02:05.790] $GNGGA,60205.2,3713.906455596,N,13701.460117147,E,4,15,0.77,90.764,M,37.565,M,88.2,2006*62,37.23177425993333,137.0243352857833,679579.3177291367,4122504.2262624395
677,[2021-02-22 15:02:05.900] $GNGGA,60205.3,3713.90645589,N,13701.460115963999,E,4,15,0.77,90.765,M,37.565,M,88.3,2006*63,37.23177426483334,137.02433526606666,679579.3159682421,4122504.226768717
678,[2021-02-22 15:02:05.994] $GNGGA,60205.4,3713.906455965,N,13701.460116294,E,4,15,0.77,90.76100000000001,M,37.565,M,88.4,2006*6B,37.231774266083335,137.02433527156668,679579.3164532413,4122504.2269178466
679,[2021-02-22 15:02:06.118] $GNGGA,60205.5,3713.906456475,N,13701.460115786002,E,4,15,0.77,90.762,M,37.565,M,88.5,2006*62,37.23177427458334,137.02433526310006,679579.3156819096,4122504.227844912
680,[2021-02-22 15:02:06.197] $GNGGA,60205.6,3713.906456712,N,13701.460115445,E,4,15,0.77,90.764,M,37.565,M,88.6,2006*6A,37.23177427853334,137.02433525741665,679579.3151683044,4122504.228272407
681,[2021-02-22 15:02:06.290] $GNGGA,60205.7,3713.906456177,N,13701.460116081002,E,4,15,0.77,90.764,M,37.565,M,88.7,2006*60,37.231774269616665,137.02433526801667,679579.3161298995,4122504.2273031566
682,[2021-02-22 15:02:06.400] $GNGGA,60205.8,3713.9064566859997,N,13701.460116231001,E,4,15,0.77,90.765,M,37.565,M,88.8,2006*61,37.2317742781,137.0243352705167,679579.3163315714,4122504.228249179
683,[2021-02-22 15:02:06.494] $GNGGA,60205.9,3713.906456692,N,13701.460116724,E,4,15,0.77,90.764,M,37.565,M,88.9,2006*64,37.2317742782,137.0243352787333,679579.3170603125,4122504.2282758662
684,[2021-02-22 15:02:06.618] $GNGGA,60206.0,3713.906455967,N,13701.460116531001,E,4,15,0.77,90.764,M,37.565,M,89.0,2006*66,37.23177426611667,137.02433527551668,679579.3168036067,4122504.22692904
685,[2021-02-22 15:02:06.697] $GNGGA,60206.1,3713.906454942,N,13701.460116487,E,4,15,0.77,90.76299999999999,M,37.565,M,89.1,2006*6B,37.23177424903333,137.0243352747833,679579.3167790775,4122504.225032144
686,[2021-02-22 15:02:06.790] $GNGGA,60206.2,3713.9064560690003,N,13701.460116971,E,4,15,0.77,90.759,M,37.565,M,89.2,2006*64,37.23177426781667,137.02433528285002,679579.3174501884,4122504.2271315805
687,[2021-02-22 15:02:06.900] $GNGGA,60206.3,3713.906455435,N,13701.460117941,E,4,15,0.77,90.76,M,37.565,M,89.3,2006*62,37.23177425725,137.02433529901666,679579.3189095696,4122504.225989816
688,[2021-02-22 15:02:06.993] $GNGGA,60206.4,3713.906454998,N,13701.460118003,E,4,15,0.77,90.762,M,37.565,M,89.4,2006*6B,37.23177424996666,137.02433530005,679579.3190185312,4122504.2251836434
689,[2021-02-22 15:02:07.118] $GNGGA,60206.5,3713.906455109,N,13701.460117455,E,4,15,0.77,90.762,M,37.565,M,89.5,2006*62,37.23177425181667,137.02433529091667,679579.3182038299,4122504.225371585
690,[2021-02-22 15:02:07.197] $GNGGA,60206.6,3713.9064550159997,N,13701.46011687,E,4,15,0.77,90.764,M,37.565,M,89.6,2006*61,37.23177425026665,137.02433528116663,679579.3173424809,4122504.225181102
691,[2021-02-22 15:02:07.290] $GNGGA,60206.7,3713.906455318,N,13701.46011599,E,4,15,0.77,90.76700000000001,M,37.565,M,89.7,2006*63,37.231774255299996,137.0243352665,679579.3160293124,4122504.225711755
692,[2021-02-22 15:02:07.400] $GNGGA,60206.8,3713.906455699,N,13701.460116532,E,4,15,0.77,90.766,M,37.565,M,89.8,2006*69,37.23177426165,137.0243352755333,679579.3168156797,4122504.2264334667
693,[2021-02-22 15:02:07.509] $GNGGA,60206.9,3713.906455247,N,13701.460116528,E,4,15,0.77,90.762,M,37.565,M,89.9,2006*61,37.23177425411666,137.02433527546665,679579.3168276432,4122504.2255974696
694,[2021-02-22 15:02:07.587] $GNGGA,60207.0,3713.9064546440004,N,13701.460116399,E,4,15,0.77,90.762,M,37.565,M,90.0,2006*62,37.23177424406667,137.02433527331667,679579.316660742,4122504.2244782797
695,[2021-02-22 15:02:07.697] $GNGGA,60207.1,3713.90645512,N,13701.460116518001,E,4,14,0.79,90.76299999999999,M,37.565,M,90.1,2006*67,37.231774252,137.02433527530002,679579.316817882,4122504.2253622953
696,[2021-02-22 15:02:07.790] $GNGGA,60207.2,3713.906455497,N,13701.460116471,E,4,14,0.79,90.766,M,37.565,M,90.2,2006*65,37.23177425828333,137.02433527451666,679579.3167334725,4122504.226057985
697,[2021-02-22 15:02:07.915] $GNGGA,60207.3,3713.9064560409997,N,13701.460116768001,E,4,14,0.79,90.766,M,37.565,M,90.3,2006*62,37.23177426735,137.0243352794667,679579.3171511267,4122504.227073382
698,[2021-02-22 15:02:07.993] $GNGGA,60207.4,3713.906456297,N,13701.460117053999,E,4,14,0.79,90.766,M,37.565,M,90.4,2006*62,37.231774271616665,137.02433528423333,679579.3175638993,4122504.227555839
699,[2021-02-22 15:02:08.087] $GNGGA,60207.5,3713.906455937,N,13701.460117322,E,4,14,0.79,90.765,M,37.565,M,90.5,2006*61,37.231774265616664,137.0243352887,679579.3179744207,4122504.226898575
700,[2021-02-22 15:02:08.197] $GNGGA,60207.6,3713.9064555209998,N,13701.460118088,E,4,14,0.79,90.766,M,37.565,M,90.6,2006*65,37.23177425868333,137.02433530146666,679579.3191235326,4122504.226153501
701,[2021-02-22 15:02:08.321] $GNGGA,60207.7,3713.906454898,N,13701.460117361,E,4,14,0.79,90.76700000000001,M,37.565,M,90.7,2006*61,37.231774248300006,137.02433528935,679579.3180731798,4122504.2249784158
702,[2021-02-22 15:02:08.384] $GNGGA,60207.8,3713.906454347,N,13701.460118145,E,4,14,0.79,90.76700000000001,M,37.565,M,90.8,2006*63,37.23177423911667,137.02433530241666,679579.319254248,4122504.22398426
703,[2021-02-22 15:02:08.493] $GNGGA,60207.9,3713.9064550370003,N,13701.460117795,E,4,14,0.79,90.76799999999999,M,37.565,M,90.9,2006*6D,37.23177425061667,137.02433529658333,679579.3187094243,4122504.2252491885
704,[2021-02-22 15:02:08.587] $GNGGA,60208.0,3713.906454173,N,13701.460117225,E,4,15,0.77,90.76799999999999,M,37.565,M,91.0,2006*62,37.231774236216665,137.02433528708332,679579.3179007508,4122504.2236333922
705,[2021-02-22 15:02:08.712] $GNGGA,60208.1,3713.906452488,N,13701.460120462,E,4,15,0.77,90.764,M,37.565,M,91.1,2006*68,37.23177420813333,137.02433534103332,679579.322753846,4122504.2206197316
706,[2021-02-22 15:02:08.790] $GNGGA,60208.2,3713.906452947,N,13701.460124081,E,4,15,0.77,90.765,M,37.565,M,91.2,2006*6A,37.23177421578334,137.02433540135002,679579.3280870055,4122504.221582991
707,[2021-02-22 15:02:08.900] $GNGGA,60208.3,3713.906451578,N,13701.460126596001,E,4,15,0.77,90.764,M,37.565,M,91.3,2006*69,37.23177419296667,137.0243354432667,679579.3318600054,4122504.219130867
708,[2021-02-22 15:02:08.993] $GNGGA,60208.4,3713.9064474640004,N,13701.460127961001,E,4,15,0.77,90.76299999999999,M,37.565,M,91.4,2006*60,37.231774124400005,137.0243354660167,679579.3340410946,4122504.211566128
709,[2021-02-22 15:02:09.118] $GNGGA,60208.5,3713.906444335,N,13701.460128445,E,4,15,0.77,90.764,M,37.565,M,91.5,2006*63,37.231774072250005,137.02433547408336,679579.3348805163,4122504.2057950604
710,[2021-02-22 15:02:09.196] $GNGGA,60208.6,3713.906440612,N,13701.460128318,E,4,15,0.77,90.765,M,37.565,M,91.6,2006*69,37.2317740102,137.02433547196668,679579.3348399606,4122504.1989062056
711,[2021-02-22 15:02:09.290] $GNGGA,60208.7,3713.906437058,N,13701.460125958001,E,4,15,0.77,90.76799999999999,M,37.565,M,91.7,2006*6F,37.23177395096667,137.02433543263336,679579.3314908544,4122504.192259264
712,[2021-02-22 15:02:09.400] $GNGGA,60208.8,3713.906433175,N,13701.460122206001,E,4,15,0.77,90.764,M,37.565,M,91.8,2006*6E,37.23177388625,137.0243353701,679579.3260964447,4122504.1849598926
713,[2021-02-22 15:02:09.509] $GNGGA,60208.9,3713.9064305640004,N,13701.460118097,E,4,15,0.77,90.76299999999999,M,37.565,M,91.9,2006*6D,37.23177384273334,137.02433530161667,679579.3201238485,4122504.180001507
714,[2021-02-22 15:02:09.587] $GNGGA,60209.0,3713.90643039,N,13701.460112973999,E,4,15,0.77,90.762,M,37.565,M,92.0,2006*6D,37.23177383983333,137.0243352162333,679579.3125554972,4122504.1795177287
715,[2021-02-22 15:02:09.696] $GNGGA,60209.1,3713.906432777,N,13701.460109606001,E,4,15,0.77,90.764,M,37.565,M,92.1,2006*64,37.23177387961667,137.0243351601,679579.307480935,4122504.183825438
716,[2021-02-22 15:02:09.790] $GNGGA,60209.2,3713.9064356629997,N,13701.460109127,E,4,15,0.77,90.76299999999999,M,37.565,M,92.2,2006*64,37.23177392771666,137.0243351521167,679579.3066585168,4122504.1891472875
717,[2021-02-22 15:02:09.899] $GNGGA,60209.3,3713.906437044,N,13701.460110278998,E,4,15,0.77,90.764,M,37.565,M,92.3,2006*62,37.23177395073334,137.02433517131664,679579.308307324,4122504.1917375633
718,[2021-02-22 15:02:10.009] $GNGGA,60209.4,3713.9064387890003,N,13701.460110778,E,4,15,0.77,90.765,M,37.565,M,92.4,2006*6E,37.23177397981667,137.02433517963334,679579.3089761735,4122504.194980323
719,[2021-02-22 15:02:10.087] $GNGGA,60209.5,3713.906439673,N,13701.460112068999,E,4,15,0.77,90.764,M,37.565,M,92.5,2006*6F,37.23177399455,137.02433520114997,679579.3108501735,4122504.196655902
720,[2021-02-22 15:02:10.196] $GNGGA,60209.6,3713.906439662,N,13701.460113207,E,4,15,0.77,90.76299999999999,M,37.565,M,92.6,2006*63,37.23177399436667,137.02433522011665,679579.3125333379,4122504.1966715474
721,[2021-02-22 15:02:10.290] $GNGGA,60209.7,3713.9064398190003,N,13701.460113641,E,4,15,0.77,90.762,M,37.565,M,92.7,2006*66,37.231773996983335,137.02433522734998,679579.3131688705,4122504.196975607
722,[2021-02-22 15:02:10.399] $GNGGA,60209.8,3713.906440067,N,13701.460113883999,E,4,15,0.77,90.76299999999999,M,37.565,M,92.8,2006*6F,37.23177400111667,137.0243352314,679579.3135183811,4122504.1974419113
723,[2021-02-22 15:02:10.509] $GNGGA,60209.9,3713.906440175,N,13701.460113997,E,4,15,0.77,90.762,M,37.565,M,92.9,2006*6F,37.23177400291667,137.02433523328335,679579.3136812008,4122504.197645207
724,[2021-02-22 15:02:10.587] $GNGGA,60210.0,3713.906441415,N,13701.460113554,E,4,15,0.77,90.76100000000001,M,37.565,M,93.0,2006*64,37.231774023583334,137.02433522590002,679579.3129771093,4122504.199924295
725,[2021-02-22 15:02:10.696] $GNGGA,60210.1,3713.906443245,N,13701.460112963001,E,4,15,0.77,90.76299999999999,M,37.565,M,93.1,2006*6E,37.23177405408333,137.02433521605005,679579.3120308463,4122504.203289773
726,[2021-02-22 15:02:10.790] $GNGGA,60210.2,3713.9064445920003,N,13701.460113585,E,4,15,0.77,90.758,M,37.565,M,93.2,2006*69,37.23177407653334,137.02433522641667,679579.3128973017,4122504.205800413
727,[2021-02-22 15:02:10.899] $GNGGA,60210.3,3713.906444389,N,13701.460113996001,E,4,15,0.77,90.76,M,37.565,M,93.3,2006*60,37.23177407315,137.02433523326667,679579.3135130658,4122504.2054380067
728,[2021-02-22 15:02:11.009] $GNGGA,60210.4,3713.9064451120003,N,13701.460114136002,E,4,15,0.77,90.762,M,37.565,M,93.4,2006*66,37.2317740852,137.0243352356,679579.3136914861,4122504.206779458
729,[2021-02-22 15:02:11.087] $GNGGA,60210.5,3713.906444615,N,13701.460113905,E,4,15,0.77,90.76,M,37.565,M,93.5,2006*6A,37.23177407691667,137.02433523175,679579.3133695689,4122504.2058530645
730,[2021-02-22 15:02:11.196] $GNGGA,60210.6,3713.906444021,N,13701.460113391999,E,4,15,0.77,90.762,M,37.565,M,93.6,2006*6D,37.231774067016666,137.02433522319998,679579.3126345009,4122504.204738373
731,[2021-02-22 15:02:11.290] $GNGGA,60210.7,3713.9064446959997,N,13701.460112445,E,4,15,0.77,90.76100000000001,M,37.565,M,93.7,2006*68,37.23177407826667,137.02433520741667,679579.3112075044,4122504.205956686
732,[2021-02-22 15:02:11.399] $GNGGA,60210.8,3713.9064453640003,N,13701.460112613999,E,4,15,0.77,90.762,M,37.565,M,93.8,2006*64,37.231774089400005,137.0243352102333,679579.3114309775,4122504.207197346
733,[2021-02-22 15:02:11.524] $GNGGA,60210.9,3713.906445948,N,13701.460112392,E,4,15,0.77,90.76100000000001,M,37.565,M,93.9,2006*68,37.23177409913334,137.02433520653332,679579.3110796207,4122504.2082702992
734,[2021-02-22 15:02:11.587] $GNGGA,60211.0,3713.906445644,N,13701.460112551002,E,4,15,0.77,90.764,M,37.565,M,94.0,2006*61,37.23177409406667,137.02433520918336,679579.3113267554,4122504.2077131476
735,[2021-02-22 15:02:11.696] $GNGGA,60211.1,3713.906444492,N,13701.460112617,E,4,15,0.77,90.758,M,37.565,M,94.1,2006*67,37.23177407486667,137.0243352102833,679579.3114699018,4122504.2055848744
736,[2021-02-22 15:02:11.790] $GNGGA,60211.2,3713.906444525,N,13701.460112015,E,4,15,0.77,90.76100000000001,M,37.565,M,94.2,2006*64,37.231774075416666,137.02433520025,679579.3105784399,4122504.2056268626
737,[2021-02-22 15:02:11.915] $GNGGA,60211.3,3713.9064452959997,N,13701.460111843999,E,4,15,0.77,90.76100000000001,M,37.565,M,94.3,2006*65,37.23177408826667,137.0243351974,679579.3102950949,4122504.207047243
738,[2021-02-22 15:02:11.993] $GNGGA,60211.4,3713.906445128,N,13701.460112376,E,4,15,0.77,90.76,M,37.565,M,94.4,2006*6B,37.23177408546667,137.02433520626667,679579.3110883924,4122504.2067533894
739,[2021-02-22 15:02:12.087] $GNGGA,60211.5,3713.906445289,N,13701.460112311,E,4,15,0.77,90.76,M,37.565,M,94.5,2006*62,37.231774088150004,137.02433520518332,679579.3109859102,4122504.207049067
740,[2021-02-22 15:02:12.196] $GNGGA,60211.6,3713.9064455440002,N,13701.460112802,E,4,15,0.77,90.76,M,37.565,M,94.6,2006*6D,37.2317740924,137.02433521336664,679579.3117018508,4122504.2075361577
741,[2021-02-22 15:02:12.321] $GNGGA,60211.7,3713.906445807,N,13701.460118009,E,4,15,0.77,90.758,M,37.565,M,94.7,2006*65,37.23177409678334,137.02433530014997,679579.3193908888,4122504.2081871764
742,[2021-02-22 15:02:12.384] $GNGGA,60211.8,3713.906446015,N,13701.460124558998,E,4,15,0.77,90.76,M,37.565,M,94.8,2006*69,37.23177410024999,137.02433540931662,679579.329067953,4122504.2087789522
743,[2021-02-22 15:02:12.493] $GNGGA,60211.9,3713.90644688,N,13701.460131493,E,4,15,0.77,90.76,M,37.565,M,94.9,2006*6E,37.23177411466667,137.02433552488336,679579.3392868539,4122504.210597844
744,[2021-02-22 15:02:12.587] $GNGGA,60212.0,3713.90644781,N,13701.460134798,E,4,15,0.77,90.76100000000001,M,37.565,M,95.0,2006*68,37.23177413016666,137.02433557996667,679579.3441370788,4122504.21242218
745,[2021-02-22 15:02:12.712] $GNGGA,60212.1,3713.9064478679998,N,13701.460132797,E,4,15,0.77,90.759,M,37.565,M,95.1,2006*65,37.23177413113333,137.02433554661664,679579.3411759607,4122504.2124661603
746,[2021-02-22 15:02:12.790] $GNGGA,60212.2,3713.906446424,N,13701.460129988998,E,4,15,0.77,90.76,M,37.565,M,95.2,2006*61,37.23177410706667,137.02433549981666,679579.337080963,4122504.209707016
747,[2021-02-22 15:02:12.899] $GNGGA,60212.3,3713.906445649,N,13701.460127145,E,4,15,0.77,90.76,M,37.565,M,95.3,2006*6D,37.23177409415,137.02433545241666,679579.3329062747,4122504.2081838953
748,[2021-02-22 15:02:12.993] $GNGGA,60212.4,3713.906446266,N,13701.460123576999,E,4,15,0.77,90.758,M,37.565,M,95.4,2006*6D,37.231774104433335,137.02433539294998,679579.3276059756,4122504.2092120675
749,[2021-02-22 15:02:13.118] $GNGGA,60212.5,3713.906447775,N,13701.460119377,E,4,15,0.77,90.758,M,37.565,M,95.5,2006*64,37.23177412958333,137.02433532295,679579.3213358814,4122504.211869802
750,[2021-02-22 15:02:13.196] $GNGGA,60212.6,3713.906449196,N,13701.460116708,E,4,15,0.77,90.759,M,37.565,M,95.6,2006*63,37.23177415326666,137.02433527846668,679579.3173331129,4122504.2144132177
751,[2021-02-22 15:02:13.290] $GNGGA,60212.7,3713.906449862,N,13701.460114855,E,4,15,0.77,90.76,M,37.565,M,95.7,2006*6E,37.23177416436667,137.0243352475833,679579.314566792,4122504.2155862357
752,[2021-02-22 15:02:13.399] $GNGGA,60212.8,3713.906450172,N,13701.460114808999,E,4,15,0.77,90.76100000000001,M,37.565,M,95.8,2006*66,37.23177416953333,137.02433524681663,679579.3144865131,4122504.2161580557
753,[2021-02-22 15:02:13.509] $GNGGA,60212.9,3713.906451463,N,13701.460116391001,E,4,15,0.77,90.758,M,37.565,M,95.9,2006*60,37.23177419105,137.02433527318337,679579.3167747206,4122504.2185954936
754,[2021-02-22 15:02:13.587] $GNGGA,60213.0,3713.906452285,N,13701.460117396002,E,4,15,0.77,90.759,M,37.565,M,96.0,2006*68,37.231774204749996,137.02433528993336,679579.3182282734,4122504.2201473746
755,[2021-02-22 15:02:13.696] $GNGGA,60213.1,3713.9064523590005,N,13701.460118038998,E,4,15,0.77,90.76,M,37.565,M,96.1,2006*6B,37.23177420598335,137.02433530064997,679579.3191761272,4122504.2203045557
756,[2021-02-22 15:02:13.790] $GNGGA,60213.2,3713.9064513259996,N,13701.460117278,E,4,15,0.77,90.758,M,37.565,M,96.2,2006*63,37.23177418876666,137.02433528796666,679579.3180917162,4122504.2183701904
757,[2021-02-22 15:02:13.899] $GNGGA,60213.3,3713.906450306,N,13701.46011572,E,4,15,0.77,90.759,M,37.565,M,96.3,2006*6B,37.231774171766666,137.024335262,679579.3158282848,4122504.2164346664
758,[2021-02-22 15:02:14.024] $GNGGA,60213.4,3713.906448737,N,13701.460114881002,E,4,15,0.77,90.756,M,37.565,M,96.4,2006*6E,37.23177414561667,137.02433524801668,679579.3146497348,4122504.213506627
759,[2021-02-22 15:02:14.087] $GNGGA,60213.5,3713.906448832,N,13701.460114975,E,4,15,0.77,90.757,M,37.565,M,96.5,2006*6F,37.23177414720001,137.02433524958334,679579.3147849725,4122504.213685281
760,[2021-02-22 15:02:14.196] $GNGGA,60213.6,3713.906449311,N,13701.460115539,E,4,15,0.77,90.76100000000001,M,37.565,M,96.6,2006*64,37.23177415518333,137.0243352589833,679579.3155999959,4122504.2145889164
761,[2021-02-22 15:02:14.290] $GNGGA,60213.7,3713.906450178,N,13701.460115568001,E,4,15,0.77,90.759,M,37.565,M,96.7,2006*6E,37.23177416963333,137.02433525946665,679579.3156085898,4122504.2161931526
762,[2021-02-22 15:02:14.399] $GNGGA,60213.8,3713.9064512709997,N,13701.460115688998,E,4,15,0.77,90.757,M,37.565,M,96.8,2006*67,37.23177418785,137.02433526148332,679579.3157442813,4122504.218218233
763,[2021-02-22 15:02:14.509] $GNGGA,60213.9,3713.90645064,N,13701.460115242,E,4,15,0.77,90.756,M,37.565,M,96.9,2006*62,37.23177417733333,137.02433525403333,679579.3151082722,4122504.2170372065
764,[2021-02-22 15:02:14.587] $GNGGA,60214.0,3713.9064505329998,N,13701.460115359,E,4,15,0.77,90.756,M,37.565,M,97.0,2006*68,37.231774175549994,137.0243352559833,679579.3152855048,4122504.2168430355
765,[2021-02-22 15:02:14.696] $GNGGA,60214.1,3713.906450555,N,13701.460116283,E,4,15,0.77,90.757,M,37.565,M,97.1,2006*6C,37.23177417591667,137.0243352713833,679579.3166509281,4122504.2169129383
766,[2021-02-22 15:02:14.790] $GNGGA,60214.2,3713.90645073,N,13701.460116746,E,4,15,0.77,90.755,M,37.565,M,97.2,2006*63,37.231774178833334,137.0243352791,679579.3173286335,4122504.2172512016
767,[2021-02-22 15:02:14.899] $GNGGA,60214.3,3713.9064508379997,N,13701.460116203001,E,4,15,0.77,90.755,M,37.565,M,97.3,2006*60,37.23177418063332,137.02433527005002,679579.3165214462,4122504.217433751
768,[2021-02-22 15:02:15.009] $GNGGA,60214.4,3713.9064511690003,N,13701.46011616,E,4,15,0.77,90.75399999999999,M,37.565,M,97.4,2006*6B,37.231774186150005,137.02433526933336,679579.3164447728,4122504.2180445017
769,[2021-02-22 15:02:15.087] $GNGGA,60214.5,3713.9064513179997,N,13701.460116615,E,4,15,0.77,90.75399999999999,M,37.565,M,97.5,2006*6A,37.231774188633324,137.0243352769167,679579.3171116775,4122504.218334431
770,[2021-02-22 15:02:15.196] $GNGGA,60214.6,3713.906451322,N,13701.460116678001,E,4,15,0.77,90.757,M,37.565,M,97.6,2006*6B,37.2317741887,137.02433527796668,679579.3172046724,4122504.218343822
771,[2021-02-22 15:02:15.290] $GNGGA,60214.7,3713.906451038,N,13701.460116766,E,4,15,0.77,90.759,M,37.565,M,97.7,2006*63,37.23177418396666,137.02433527943333,679579.317346025,4122504.2178214095
772,[2021-02-22 15:02:15.399] $GNGGA,60214.8,3713.90645112,N,13701.460116412,E,4,15,0.77,90.758,M,37.565,M,97.8,2006*6A,37.23177418533333,137.02433527353332,679579.3168193321,4122504.2179618548
