,Format,Time,Latitude,LatType,Longitude,LonType,Status,Satellite,LevelAccuracy,Altitude(sea),M(sea),Altitude(geoid),M(geoid),DGPS use,checksum,Lat,Lon,UTM_X,UTM_Y
1212,[2021-02-22 15:03:15.051] $GPGGA,60314.6,3713.9064372000003,N,13701.4601134,E,4,15,0.8,90.7761,M,37.55,M,2.0,0000*61,37.23177395333333,137.02433522333334,679579.3129160908,4122504.192124743
1213,[2021-02-22 15:03:15.161] $GPGGA,60314.7,3713.9064376999995,N,13701.460113799998,E,4,15,0.8,90.7779,M,37.55,M,2.0,0000*60,37.23177396166666,137.02433523,679579.3134877833,4122504.1930620265
1214,[2021-02-22 15:03:15.239] $GPGGA,60314.8,3713.9064375,N,13701.460113299998,E,4,15,0.8,90.7788,M,37.55,M,2.0,0000*68,37.23177395833333,137.02433522166663,679579.3127563553,4122504.192676362
1215,[2021-02-22 15:03:15.348] $GPGGA,60314.9,3713.9064366,N,13701.4601129,E,4,15,0.8,90.779,M,37.55,M,2.0,0000*69,37.23177394333333,137.024335215,679579.3122004844,4122504.190999369
1216,[2021-02-22 15:03:15.457] $GPGGA,60315.0,3713.9064371,N,13701.460111200002,E,4,15,0.8,90.7779,M,37.55,M,3.0,0000*69,37.23177395166666,137.0243351866667,679579.3096669712,4122504.1918702447
1217,[2021-02-22 15:03:15.536] $GPGGA,60315.1,3713.9064371,N,13701.4601115,E,4,15,0.8,90.7802,M,37.55,M,3.0,0000*6C,37.23177395166666,137.02433519166667,679579.310110571,4122504.1918797316
1218,[2021-02-22 15:03:15.661] $GPGGA,60315.2,3713.9064373000006,N,13701.4601116,E,4,15,0.8,90.782,M,37.55,M,3.0,0000*6E,37.23177395500001,137.02433519333331,679579.3102505256,4122504.1922527505
1219,[2021-02-22 15:03:15.739] $GPGGA,60315.3,3713.9064361999995,N,13701.4601115,E,4,15,0.8,90.783,M,37.55,M,3.0,0000*6D,37.231773936666656,137.02433519166667,679579.3101461644,4122504.190215386
1220,[2021-02-22 15:03:15.864] $GPGGA,60315.4,3713.9064346999994,N,13701.460112,E,4,15,0.8,90.7836,M,37.55,M,3.0,0000*6D,37.23177391166666,137.02433520000002,679579.3109448245,4122504.187457289
1221,[2021-02-22 15:03:15.942] $GPGGA,60315.5,3713.9064349,N,13701.4601115,E,4,15,0.8,90.7841,M,37.55,M,3.0,0000*64,37.231773915000005,137.02433519166667,679579.3101975772,4122504.1878113355
1222,[2021-02-22 15:03:16.051] $GPGGA,60315.6,3713.9064354,N,13701.4601125,E,4,15,0.8,90.7834,M,37.55,M,3.0,0000*6A,37.23177392333333,137.02433520833335,679579.3116564737,4122504.188767593
1223,[2021-02-22 15:03:16.129] $GPGGA,60315.7,3713.9064361,N,13701.460113699999,E,4,15,0.8,90.7825,M,37.55,M,3.0,0000*6E,37.23177393500001,137.02433522833334,679579.3134031937,4122504.1901000314
1224,[2021-02-22 15:03:16.254] $GPGGA,60315.8,3713.9064364,N,13701.460113999998,E,4,15,0.8,90.7819,M,37.55,M,3.0,0000*6B,37.23177394,137.0243352333333,679579.3138349269,4122504.190664299
1225,[2021-02-22 15:03:16.332] $GPGGA,60315.9,3713.9064366,N,13701.460113799998,E,4,15,0.8,90.7812,M,37.55,M,3.0,0000*6C,37.23177394333333,137.02433523,679579.3135312863,4122504.191027829
1226,[2021-02-22 15:03:16.457] $GPGGA,60316.0,3713.9064361,N,13701.4601127,E,4,15,0.8,90.7788,M,37.55,M,4.0,0000*64,37.23177393500001,137.02433521166665,679579.3119245208,4122504.190068409
1227,[2021-02-22 15:03:16.551] $GPGGA,60316.1,3713.9064350000003,N,13701.460112600002,E,4,15,0.8,90.7783,M,37.55,M,4.0,0000*6D,37.231773916666675,137.02433521,679579.3118201595,4122504.188031049
1228,[2021-02-22 15:03:16.660] $GPGGA,60316.2,3713.9064354,N,13701.4601125,E,4,15,0.8,90.7772,M,37.55,M,4.0,0000*67,37.23177392333333,137.02433520833335,679579.3116564737,4122504.188767593
1229,[2021-02-22 15:03:16.739] $GPGGA,60316.3,3713.9064359,N,13701.4601135,E,4,15,0.8,90.7787,M,37.55,M,4.0,0000*60,37.23177393166667,137.024335225,679579.3131153679,4122504.189723852
1230,[2021-02-22 15:03:16.848] $GPGGA,60316.4,3713.9064365000004,N,13701.4601132,E,4,15,0.8,90.7796,M,37.55,M,4.0,0000*6F,37.231773941666674,137.02433521999998,679579.3126480368,4122504.190823928
1231,[2021-02-22 15:03:16.942] $GPGGA,60316.5,3713.9064354,N,13701.4601134,E,4,15,0.8,90.781,M,37.55,M,4.0,0000*6B,37.23177392333333,137.02433522333334,679579.3129872777,4122504.1887960536
1232,[2021-02-22 15:03:17.051] $GPGGA,60316.6,3713.9064348000006,N,13701.4601136,E,4,15,0.8,90.7814,M,37.55,M,4.0,0000*63,37.23177391333334,137.0243352266667,679579.3133067421,4122504.187692817
1233,[2021-02-22 15:03:17.129] $GPGGA,60316.7,3713.9064342,N,13701.4601132,E,4,15,0.8,90.7812,M,37.55,M,4.0,0000*6A,37.23177390333334,137.02433521999998,679579.3127389979,4122504.1865706034
1234,[2021-02-22 15:03:17.254] $GPGGA,60316.8,3713.9064339,N,13701.4601132,E,4,15,0.8,90.7817,M,37.55,M,4.0,0000*6C,37.23177389833334,137.02433521999998,679579.3127508624,4122504.1860158215
1235,[2021-02-22 15:03:17.332] $GPGGA,60316.9,3713.9064348000006,N,13701.4601136,E,4,15,0.8,90.7817,M,37.55,M,4.0,0000*6F,37.23177391333334,137.0243352266667,679579.3133067421,4122504.187692817
1236,[2021-02-22 15:03:17.457] $GPGGA,60317.0,3713.9064354999996,N,13701.4601135,E,4,15,0.8,90.779,M,37.55,M,5.0,0000*69,37.23177392499999,137.024335225,679579.3131311872,4122504.1889841426
1237,[2021-02-22 15:03:17.535] $GPGGA,60317.1,3713.9064350000003,N,13701.4601136,E,4,15,0.8,90.7792,M,37.55,M,5.0,0000*6C,37.231773916666675,137.0243352266667,679579.3132988324,4122504.1880626706
1238,[2021-02-22 15:03:17.660] $GPGGA,60317.2,3713.9064346999994,N,13701.460113299998,E,4,15,0.8,90.7796,M,37.55,M,5.0,0000*68,37.23177391166666,137.02433522166663,679579.3128670903,4122504.1874983995
1239,[2021-02-22 15:03:17.754] $GPGGA,60317.3,3713.9064348000006,N,13701.4601123,E,4,15,0.8,90.7799,M,37.55,M,5.0,0000*68,37.23177391333334,137.024335205,679579.3113844672,4122504.1876517064
1240,[2021-02-22 15:03:17.832] $GPGGA,60317.4,3713.9064352,N,13701.460112600002,E,4,15,0.8,90.781,M,37.55,M,5.0,0000*6F,37.231773919999995,137.02433521,679579.31181225,4122504.1884008995
1241,[2021-02-22 15:03:17.957] $GPGGA,60317.5,3713.9064348000006,N,13701.4601135,E,4,15,0.8,90.7803,M,37.55,M,5.0,0000*65,37.23177391333334,137.024335225,679579.313158871,4122504.1876896545
1242,[2021-02-22 15:03:18.035] $GPGGA,60317.6,3713.9064344999997,N,13701.460113,E,4,15,0.8,90.7808,M,37.55,M,5.0,0000*65,37.231773908333324,137.02433521666666,679579.3124314002,4122504.1871190597
1243,[2021-02-22 15:03:18.160] $GPGGA,60317.7,3713.9064344999997,N,13701.4601123,E,4,15,0.8,90.7808,M,37.55,M,5.0,0000*66,37.231773908333324,137.024335205,679579.3113963316,4122504.187096924
1244,[2021-02-22 15:03:18.239] $GPGGA,60317.8,3713.9064334,N,13701.460111700002,E,4,15,0.8,90.7814,M,37.55,M,5.0,0000*65,37.23177388999999,137.02433519500002,679579.310552635,4122504.18504375
1245,[2021-02-22 15:03:18.363] $GPGGA,60317.9,3713.9064339,N,13701.4601123,E,4,15,0.8,90.7809,M,37.55,M,5.0,0000*62,37.23177389833334,137.024335205,679579.3114200606,4122504.1859873612
1246,[2021-02-22 15:03:18.442] $GPGGA,60318.0,3713.9064346,N,13701.460112600002,E,4,15,0.8,90.7782,M,37.55,M,6.0,0000*66,37.231773909999994,137.02433521,679579.311835979,4122504.187291337
1247,[2021-02-22 15:03:18.535] $GPGGA,60318.1,3713.9064343,N,13701.4601129,E,4,15,0.8,90.7785,M,37.55,M,6.0,0000*6A,37.231773905000004,137.024335215,679579.3122914454,4122504.1867460436
1248,[2021-02-22 15:03:18.629] $GPGGA,60318.2,3713.9064340000004,N,13701.4601127,E,4,15,0.8,90.7784,M,37.55,M,1.0,0000*62,37.23177390000001,137.02433521166665,679579.3120075722,4122504.1861849376
1249,[2021-02-22 15:03:18.754] $GPGGA,60318.3,3713.9064328,N,13701.4601127,E,4,15,0.8,90.7783,M,37.55,M,1.0,0000*6A,37.23177387999999,137.02433521166665,679579.3120550301,4122504.1839658096
1250,[2021-02-22 15:03:18.832] $GPGGA,60318.4,3713.9064335000003,N,13701.460112600002,E,4,15,0.8,90.7793,M,37.55,M,1.0,0000*61,37.23177389166667,137.02433521,679579.311879482,4122504.1852571396
1251,[2021-02-22 15:03:18.957] $GPGGA,60318.5,3713.9064327,N,13701.4601129,E,4,15,0.8,90.7797,M,37.55,M,1.0,0000*68,37.231773878333335,137.024335215,679579.3123547226,4122504.183787208
1252,[2021-02-22 15:03:19.035] $GPGGA,60318.6,3713.9064335999997,N,13701.4601129,E,4,15,0.8,90.779,M,37.55,M,1.0,0000*6C,37.231773893333326,137.024335215,679579.3123191292,4122504.1854515523
1253,[2021-02-22 15:03:19.160] $GPGGA,60318.7,3713.9064340000004,N,13701.4601125,E,4,15,0.8,90.7791,M,37.55,M,1.0,0000*61,37.23177390000001,137.02433520833335,679579.3117118413,4122504.1861786135
1254,[2021-02-22 15:03:19.254] $GPGGA,60318.8,3713.9064335999997,N,13701.460111899998,E,4,15,0.8,90.7794,M,37.55,M,1.0,0000*65,37.231773893333326,137.02433519833332,679579.3108404564,4122504.1854199297
1255,[2021-02-22 15:03:19.332] $GPGGA,60318.9,3713.9064333000006,N,13701.4601122,E,4,15,0.8,90.7799,M,37.55,M,1.0,0000*64,37.23177388833334,137.02433520333335,679579.3112959252,4122504.1848746357
1256,[2021-02-22 15:03:19.457] $GPGGA,60319.0,3713.9064333000006,N,13701.4601127,E,4,15,0.8,90.7765,M,37.55,M,2.0,0000*69,37.23177388833334,137.02433521166665,679579.312035256,4122504.1848904477
1257,[2021-02-22 15:03:19.551] $GPGGA,60319.1,3713.9064327,N,13701.4601134,E,4,15,0.8,90.7768,M,37.55,M,2.0,0000*62,37.231773878333335,137.02433522333334,679579.3130940581,4122504.1838030196
1258,[2021-02-22 15:03:19.660] $GPGGA,60319.2,3713.9064335000003,N,13701.4601125,E,4,15,0.8,90.7772,M,37.55,M,2.0,0000*69,37.23177389166667,137.02433520833335,679579.3117316153,4122504.1852539764
1259,[2021-02-22 15:03:19.738] $GPGGA,60319.3,3713.9064325000004,N,13701.460111700002,E,4,15,0.8,90.7767,M,37.55,M,2.0,0000*6C,37.23177387500001,137.02433519500002,679579.3105882285,4122504.1833794066
1260,[2021-02-22 15:03:19.863] $GPGGA,60319.4,3713.9064323,N,13701.460111899998,E,4,15,0.8,90.7763,M,37.55,M,2.0,0000*67,37.23177387166667,137.02433519833332,679579.3108918691,4122504.1830158774
1261,[2021-02-22 15:03:19.941] $GPGGA,60319.5,3713.9064319,N,13701.4601125,E,4,15,0.8,90.7765,M,37.55,M,2.0,0000*66,37.231773865,137.02433520833335,679579.3117948927,4122504.1822951417
1262,[2021-02-22 15:03:20.051] $GPGGA,60319.6,3713.9064321999995,N,13701.4601135,E,4,15,0.8,90.7761,M,37.55,M,2.0,0000*68,37.23177386999999,137.024335225,679579.3132616966,4122504.1828815443
1263,[2021-02-22 15:03:20.129] $GPGGA,60319.7,3713.9064334,N,13701.4601134,E,4,15,0.8,90.7766,M,37.55,M,2.0,0000*68,37.23177388999999,137.02433522333334,679579.3130663743,4122504.1850975077
1264,[2021-02-22 15:03:20.254] $GPGGA,60319.8,3713.9064335000003,N,13701.4601127,E,4,15,0.8,90.776,M,37.55,M,2.0,0000*62,37.23177389166667,137.02433521166665,679579.3120273463,4122504.1852603024
1265,[2021-02-22 15:03:20.332] $GPGGA,60319.9,3713.9064331999994,N,13701.4601122,E,4,15,0.8,90.776,M,37.55,M,2.0,0000*61,37.23177388666666,137.02433520333335,679579.31129988,4122504.184689707
1266,[2021-02-22 15:03:20.457] $GPGGA,60320.0,3713.9064331,N,13701.4601114,E,4,15,0.8,90.7734,M,37.55,M,3.0,0000*64,37.231773885,137.02433519,679579.3101208952,4122504.184479483
1267,[2021-02-22 15:03:20.551] $GPGGA,60320.1,3713.9064340000004,N,13701.460112399998,E,4,15,0.8,90.7736,M,37.55,M,3.0,0000*62,37.23177390000001,137.02433520666665,679579.3115639724,4122504.1861754507
1268,[2021-02-22 15:03:20.660] $GPGGA,60320.2,3713.9064346999994,N,13701.4601127,E,4,15,0.8,90.7728,M,37.55,M,3.0,0000*6A,37.23177391166666,137.02433521166665,679579.3119798885,4122504.1874794257
1269,[2021-02-22 15:03:20.738] $GPGGA,60320.3,3713.9064343,N,13701.4601128,E,4,15,0.8,90.7746,M,37.55,M,3.0,0000*68,37.231773905000004,137.0243352133333,679579.3121435744,4122504.186742881
1270,[2021-02-22 15:03:20.848] $GPGGA,60320.4,3713.9064340000004,N,13701.460112600002,E,4,15,0.8,90.7747,M,37.55,M,3.0,0000*63,37.23177390000001,137.02433521,679579.3118597079,4122504.1861817758
1271,[2021-02-22 15:03:20.957] $GPGGA,60320.5,3713.9064326,N,13701.4601113,E,4,15,0.8,90.7746,M,37.55,M,3.0,0000*65,37.23177387666666,137.02433518833334,679579.3099928027,4122504.183551684
1272,[2021-02-22 15:03:21.035] $GPGGA,60320.6,3713.9064323,N,13701.4601116,E,4,15,0.8,90.7744,M,37.55,M,3.0,0000*64,37.23177387166667,137.02433519333331,679579.310448267,4122504.18300639
1273,[2021-02-22 15:03:21.160] $GPGGA,60320.7,3713.9064331,N,13701.4601115,E,4,15,0.8,90.7748,M,37.55,M,3.0,0000*69,37.231773885,137.02433519166667,679579.3102687642,4122504.1844826443
1274,[2021-02-22 15:03:21.238] $GPGGA,60320.8,3713.9064329999997,N,13701.4601129,E,4,15,0.8,90.7728,M,37.55,M,3.0,0000*6E,37.231773883333325,137.024335215,679579.3123428582,4122504.184341989
1275,[2021-02-22 15:03:21.363] $GPGGA,60320.9,3713.9064325000004,N,13701.4601136,E,4,15,0.8,90.7725,M,37.55,M,3.0,0000*68,37.23177387500001,137.0243352266667,679579.3133977032,4122504.1834394895
1276,[2021-02-22 15:03:21.457] $GPGGA,60321.0,3713.9064321999995,N,13701.460112600002,E,4,15,0.8,90.7707,M,37.55,M,4.0,0000*61,37.23177386999999,137.02433521,679579.3119308949,4122504.1828530836
1277,[2021-02-22 15:03:21.535] $GPGGA,60321.1,3713.9064321,N,13701.4601122,E,4,15,0.8,90.771,M,37.55,M,4.0,0000*61,37.231773868333335,137.02433520333335,679579.311343383,4122504.1826555096
1278,[2021-02-22 15:03:21.660] $GPGGA,60321.2,3713.9064314999996,N,13701.460111700002,E,4,15,0.8,90.7713,M,37.55,M,4.0,0000*60,37.231773858333334,137.02433519500002,679579.3106277768,4122504.1815301343
1279,[2021-02-22 15:03:21.754] $GPGGA,60321.3,3713.9064317,N,13701.4601128,E,4,15,0.8,90.7722,M,37.55,M,4.0,0000*6D,37.23177386166667,137.0243352133333,679579.3122463998,4122504.181934774
1280,[2021-02-22 15:03:21.832] $GPGGA,60321.4,3713.9064321,N,13701.460113100002,E,4,15,0.8,90.7737,M,37.55,M,4.0,0000*63,37.231773868333335,137.02433521833333,679579.3126741848,4122504.18268397
1281,[2021-02-22 15:03:21.957] $GPGGA,60321.5,3713.9064339,N,13701.460113799998,E,4,15,0.8,90.7728,M,37.55,M,4.0,0000*6C,37.23177389833334,137.02433523,679579.3136380666,4122504.1860347944
1282,[2021-02-22 15:03:22.035] $GPGGA,60321.6,3713.9064335000003,N,13701.4601128,E,4,15,0.8,90.7734,M,37.55,M,4.0,0000*6F,37.23177389166667,137.0243352133333,679579.3121752129,4122504.1852634638
1283,[2021-02-22 15:03:22.160] $GPGGA,60321.7,3713.9064335999997,N,13701.4601129,E,4,15,0.8,90.7738,M,37.55,M,4.0,0000*60,37.231773893333326,137.024335215,679579.3123191292,4122504.1854515523
1284,[2021-02-22 15:03:22.238] $GPGGA,60321.8,3713.9064321999995,N,13701.460113299998,E,4,15,0.8,90.7755,M,37.55,M,4.0,0000*6A,37.23177386999999,137.02433522166663,679579.3129659609,4122504.1828752193
1285,[2021-02-22 15:03:22.348] $GPGGA,60321.9,3713.9064327,N,13701.460113100002,E,4,15,0.8,90.7744,M,37.55,M,4.0,0000*6C,37.231773878333335,137.02433521833333,679579.3126504559,4122504.183793533
1286,[2021-02-22 15:03:22.441] $GPGGA,60322.0,3713.9064328,N,13701.4601123,E,4,15,0.8,90.7715,M,37.55,M,5.0,0000*6F,37.23177387999999,137.024335205,679579.3114635637,4122504.18395316
1287,[2021-02-22 15:03:22.535] $GPGGA,60322.1,3713.9064329000003,N,13701.4601125,E,4,15,0.8,90.7718,M,37.55,M,5.0,0000*64,37.23177388166667,137.02433520833335,679579.3117553443,4122504.1841444126
1288,[2021-02-22 15:03:22.629] $GPGGA,60322.2,3713.9064325000004,N,13701.4601127,E,4,15,0.8,90.7718,M,37.55,M,5.0,0000*69,37.23177387500001,137.02433521166665,679579.3120668947,4122504.183411029
1289,[2021-02-22 15:03:22.754] $GPGGA,60322.3,3713.9064323,N,13701.4601134,E,4,15,0.8,90.7722,M,37.55,M,5.0,0000*65,37.23177387166667,137.02433522333334,679579.3131098773,4122504.183063311
1290,[2021-02-22 15:03:22.863] $GPGGA,60322.4,3713.9064324,N,13701.4601136,E,4,15,0.8,90.7732,M,37.55,M,5.0,0000*66,37.23177387333334,137.0243352266667,679579.313401658,4122504.1832545632
1291,[2021-02-22 15:03:22.941] $GPGGA,60322.5,3713.9064328,N,13701.460113100002,E,4,15,0.8,90.7742,M,37.55,M,5.0,0000*6B,37.23177387999999,137.02433521833333,679579.3126465011,4122504.183978459
1292,[2021-02-22 15:03:23.051] $GPGGA,60322.6,3713.9064324,N,13701.4601134,E,4,15,0.8,90.7744,M,37.55,M,5.0,0000*67,37.23177387333334,137.02433522333334,679579.3131059225,4122504.183248239
1293,[2021-02-22 15:03:23.144] $GPGGA,60322.7,3713.9064331999994,N,13701.460112399998,E,4,15,0.8,90.7756,M,37.55,M,5.0,0000*63,37.23177388666666,137.02433520666665,679579.311595611,4122504.1846960317
1294,[2021-02-22 15:03:23.254] $GPGGA,60322.8,3713.9064331999994,N,13701.4601123,E,4,15,0.8,90.7745,M,37.55,M,5.0,0000*69,37.23177388666666,137.024335205,679579.3114477444,4122504.1846928694
1295,[2021-02-22 15:03:23.332] $GPGGA,60322.9,3713.9064324,N,13701.460113,E,4,15,0.8,90.7731,M,37.55,M,5.0,0000*6E,37.23177387333334,137.02433521666666,679579.3125144516,4122504.183235589
1296,[2021-02-22 15:03:23.457] $GPGGA,60323.0,3713.9064331,N,13701.4601128,E,4,15,0.8,90.7693,M,37.55,M,6.0,0000*61,37.231773885,137.0243352133333,679579.3121910323,4122504.184523754
1297,[2021-02-22 15:03:23.551] $GPGGA,60323.1,3713.9064331999994,N,13701.4601128,E,4,15,0.8,90.7687,M,37.55,M,6.0,0000*66,37.23177388666666,137.0243352133333,679579.3121870775,4122504.1847086805
1298,[2021-02-22 15:03:23.660] $GPGGA,60323.2,3713.9064326,N,13701.4601135,E,4,15,0.8,90.7694,M,37.55,M,1.0,0000*69,37.23177387666666,137.024335225,679579.3132458773,4122504.1836212534
1299,[2021-02-22 15:03:23.738] $GPGGA,60323.3,3713.9064316,N,13701.460113699999,E,4,15,0.8,90.7699,M,37.55,M,1.0,0000*64,37.231773860000004,137.02433522833334,679579.313581161,4122504.1817783066
1300,[2021-02-22 15:03:23.863] $GPGGA,60323.4,3713.9064310000003,N,13701.460113799998,E,4,15,0.8,90.7701,M,37.55,M,1.0,0000*6A,37.23177385,137.02433523,679579.3137527565,4122504.180671905
1301,[2021-02-22 15:03:23.957] $GPGGA,60323.5,3713.9064306,N,13701.460113699999,E,4,15,0.8,90.7696,M,37.55,M,1.0,0000*6C,37.231773843333336,137.02433522833334,679579.3136207092,4122504.1799290357
1302,[2021-02-22 15:03:24.051] $GPGGA,60323.6,3713.9064319,N,13701.460112600002,E,4,15,0.8,90.7707,M,37.55,M,1.0,0000*68,37.231773865,137.02433521,679579.3119427592,4122504.1822983036
1303,[2021-02-22 15:03:24.129] $GPGGA,60323.7,3713.9064329999997,N,13701.4601127,E,4,15,0.8,90.7703,M,37.55,M,1.0,0000*67,37.231773883333325,137.02433521166665,679579.3120471205,4122504.1843356644
1304,[2021-02-22 15:03:24.254] $GPGGA,60323.8,3713.9064325000004,N,13701.460113299998,E,4,15,0.8,90.7705,M,37.55,M,1.0,0000*6F,37.23177387500001,137.02433522166663,679579.3129540966,4122504.183430003
1305,[2021-02-22 15:03:24.332] $GPGGA,60323.9,3713.9064321999995,N,13701.4601128,E,4,15,0.8,90.7711,M,37.55,M,1.0,0000*66,37.23177386999999,137.0243352133333,679579.3122266256,4122504.182859408
1306,[2021-02-22 15:03:24.457] $GPGGA,60324.0,3713.9064326,N,13701.460112399998,E,4,15,0.8,90.7691,M,37.55,M,2.0,0000*6A,37.23177387666666,137.02433520666665,679579.31161934,4122504.183586469
1307,[2021-02-22 15:03:24.535] $GPGGA,60324.1,3713.9064329000003,N,13701.4601136,E,4,15,0.8,90.7702,M,37.55,M,2.0,0000*6C,37.23177388166667,137.0243352266667,679579.3133818839,4122504.1841791975
1308,[2021-02-22 15:03:24.644] $GPGGA,60324.2,3713.9064329999997,N,13701.460113100002,E,4,15,0.8,90.7708,M,37.55,M,2.0,0000*6A,37.231773883333325,137.02433521833333,679579.3126385915,4122504.184348314
1309,[2021-02-22 15:03:24.754] $GPGGA,60324.3,3713.9064326,N,13701.460113,E,4,15,0.8,90.7711,M,37.55,M,2.0,0000*65,37.23177387666666,137.02433521666666,679579.312506542,4122504.1836054414
1310,[2021-02-22 15:03:24.832] $GPGGA,60324.4,3713.9064331999994,N,13701.4601127,E,4,15,0.8,90.7705,M,37.55,M,2.0,0000*64,37.23177388666666,137.02433521166665,679579.3120392109,4122504.1847055187
1311,[2021-02-22 15:03:24.957] $GPGGA,60324.5,3713.9064339,N,13701.4601125,E,4,15,0.8,90.771,M,37.55,M,2.0,0000*68,37.23177389833334,137.02433520833335,679579.311715796,4122504.1859936854
1312,[2021-02-22 15:03:25.035] $GPGGA,60324.6,3713.9064335999997,N,13701.460113100002,E,4,15,0.8,90.7716,M,37.55,M,2.0,0000*67,37.231773893333326,137.02433521833333,679579.3126148625,4122504.185457877
1313,[2021-02-22 15:03:25.160] $GPGGA,60324.7,3713.9064325000004,N,13701.4601136,E,4,15,0.8,90.7728,M,37.55,M,2.0,0000*6E,37.23177387500001,137.0243352266667,679579.3133977032,4122504.1834394895
1314,[2021-02-22 15:03:25.238] $GPGGA,60324.8,3713.9064314999996,N,13701.460112600002,E,4,15,0.8,90.772,M,37.55,M,2.0,0000*6B,37.231773858333334,137.02433521,679579.3119585785,4122504.1815585955
1315,[2021-02-22 15:03:25.363] $GPGGA,60324.9,3713.9064314,N,13701.460110299999,E,4,15,0.8,90.7723,M,37.55,M,2.0,0000*6F,37.23177385666667,137.02433517166665,679579.3085615877,4122504.1813009363
1316,[2021-02-22 15:03:25.457] $GPGGA,60325.0,3713.9064306,N,13701.4601102,E,4,15,0.8,90.771,M,37.55,M,3.0,0000*64,37.231773843333336,137.02433517,679579.3084453619,4122504.1798183555
1317,[2021-02-22 15:03:25.535] $GPGGA,60325.1,3713.9064304,N,13701.4601111,E,4,15,0.8,90.7713,M,37.55,M,3.0,0000*66,37.23177384,137.02433518499998,679579.3097840734,4122504.179476961
1318,[2021-02-22 15:03:25.644] $GPGGA,60325.2,3713.906432,N,13701.460111899998,E,4,15,0.8,90.7723,M,37.55,M,3.0,0000*68,37.23177386666667,137.02433519833332,679579.3109037336,4122504.1824610955
1319,[2021-02-22 15:03:25.754] $GPGGA,60325.3,3713.9064314,N,13701.4601134,E,4,15,0.8,90.7725,M,37.55,M,3.0,0000*67,37.23177385666667,137.02433522333334,679579.3131454708,4122504.1813989663
1320,[2021-02-22 15:03:25.832] $GPGGA,60325.4,3713.9064316,N,13701.4601135,E,4,15,0.8,90.7728,M,37.55,M,3.0,0000*6E,37.231773860000004,137.024335225,679579.3132854255,4122504.1817719825
1321,[2021-02-22 15:03:25.957] $GPGGA,60325.5,3713.9064317,N,13701.460112,E,4,15,0.8,90.7733,M,37.55,M,3.0,0000*60,37.23177386166667,137.02433520000002,679579.3110634692,4122504.181909475
1322,[2021-02-22 15:03:26.035] $GPGGA,60325.6,3713.9064318000005,N,13701.4601107,E,4,15,0.8,90.7733,M,37.55,M,3.0,0000*69,37.23177386333334,137.02433517833333,679579.3091372394,4122504.182053294
1323,[2021-02-22 15:03:26.160] $GPGGA,60325.7,3713.9064323,N,13701.4601114,E,4,15,0.8,90.7732,M,37.55,M,3.0,0000*63,37.23177387166667,137.02433519,679579.3101525338,4122504.1830000663
1324,[2021-02-22 15:03:26.238] $GPGGA,60325.8,3713.9064321,N,13701.4601115,E,4,15,0.8,90.7726,M,37.55,M,3.0,0000*6A,37.231773868333335,137.02433519166667,679579.3103083123,4122504.182633374
1325,[2021-02-22 15:03:26.347] $GPGGA,60325.9,3713.9064326,N,13701.460112,E,4,15,0.8,90.7725,M,37.55,M,3.0,0000*69,37.23177387666666,137.02433520000002,679579.3110278758,4122504.183573819
1326,[2021-02-22 15:03:26.457] $GPGGA,60326.0,3713.9064329999997,N,13701.4601115,E,4,15,0.8,90.77,M,37.55,M,4.0,0000*62,37.231773883333325,137.02433519166667,679579.3102727188,4122504.184297717
1327,[2021-02-22 15:03:26.550] $GPGGA,60326.1,3713.9064329000003,N,13701.4601123,E,4,15,0.8,90.7717,M,37.55,M,4.0,0000*68,37.23177388166667,137.024335205,679579.3114596088,4122504.1841380885
1328,[2021-02-22 15:03:26.660] $GPGGA,60326.2,3713.9064309,N,13701.460112399998,E,4,15,0.8,90.7726,M,37.55,M,4.0,0000*6C,37.23177384833333,137.02433520666665,679579.3116865719,4122504.1804427076
1329,[2021-02-22 15:03:26.738] $GPGGA,60326.3,3713.9064299999995,N,13701.4601132,E,4,15,0.8,90.7729,M,37.55,M,4.0,0000*6C,37.23177383333332,137.02433521999998,679579.3129051006,4122504.1788036586
1330,[2021-02-22 15:03:26.863] $GPGGA,60326.4,3713.9064295999997,N,13701.460112399998,E,4,15,0.8,90.7727,M,37.55,M,4.0,0000*6C,37.231773826666654,137.02433520666665,679579.3117379848,4122504.1780386535
1331,[2021-02-22 15:03:26.941] $GPGGA,60326.5,3713.9064289000003,N,13701.4601129,E,4,15,0.8,90.7738,M,37.55,M,4.0,0000*60,37.231773815000004,137.024335215,679579.3125050061,4122504.176759975
1332,[2021-02-22 15:03:27.050] $GPGGA,60326.6,3713.9064302,N,13701.460112600002,E,4,15,0.8,90.7731,M,37.55,M,4.0,0000*67,37.23177383666667,137.02433521,679579.3120099913,4122504.179154542
1333,[2021-02-22 15:03:27.144] $GPGGA,60326.7,3713.9064307999997,N,13701.4601127,E,4,15,0.8,90.7734,M,37.55,M,4.0,0000*68,37.231773846666655,137.02433521166665,679579.3121341267,4122504.1802672655
1334,[2021-02-22 15:03:27.254] $GPGGA,60326.8,3713.9064305,N,13701.460112600002,E,4,15,0.8,90.7723,M,37.55,M,4.0,0000*6D,37.23177384166667,137.02433521,679579.3119981268,4122504.1797093237
1335,[2021-02-22 15:03:27.332] $GPGGA,60326.9,3713.9064314,N,13701.4601125,E,4,15,0.8,90.7721,M,37.55,M,4.0,0000*6D,37.23177385666667,137.02433520833335,679579.3118146667,4122504.1813705056
1336,[2021-02-22 15:03:27.457] $GPGGA,60327.0,3713.9064314999996,N,13701.460112600002,E,4,15,0.8,90.7696,M,37.55,M,5.0,0000*6B,37.231773858333334,137.02433521,679579.3119585785,4122504.1815585955
1337,[2021-02-22 15:03:27.550] $GPGGA,60327.1,3713.9064314,N,13701.460112,E,4,15,0.8,90.7705,M,37.55,M,5.0,0000*66,37.23177385666667,137.02433520000002,679579.3110753337,4122504.181354694
1338,[2021-02-22 15:03:27.660] $GPGGA,60327.2,3713.9064401,N,13701.460112600002,E,4,15,0.8,90.7827,M,37.55,M,5.0,0000*6F,37.231774001666665,137.02433521,679579.3116184635,4122504.1974623334
1339,[2021-02-22 15:03:27.738] $GPGGA,60327.3,3713.9064431999996,N,13701.4601128,E,4,15,0.8,90.7912,M,37.55,M,5.0,0000*67,37.23177405333333,137.0243352133333,679579.3117915948,4122504.2032014015
1340,[2021-02-22 15:03:27.847] $GPGGA,60327.4,3713.9064449,N,13701.460112399998,E,4,15,0.8,90.7972,M,37.55,M,5.0,0000*66,37.23177408166667,137.02433520666665,679579.3111328962,4122504.206332516
1341,[2021-02-22 15:03:27.941] $GPGGA,60327.5,3713.9064451,N,13701.4601116,E,4,15,0.8,90.801,M,37.55,M,5.0,0000*6D,37.23177408499999,137.02433519333331,679579.3099420492,4122504.2066770694
1342,[2021-02-22 15:03:28.050] $GPGGA,60327.6,3713.9064465000006,N,13701.4601115,E,4,15,0.8,90.8012,M,37.55,M,5.0,0000*68,37.23177410833334,137.02433519166667,679579.3097388173,4122504.2092628903
1343,[2021-02-22 15:03:28.160] $GPGGA,60327.7,3713.906446,N,13701.4601115,E,4,15,0.8,90.802,M,37.55,M,5.0,0000*6D,37.2317741,137.02433519166667,679579.3097585915,4122504.2083382537
1344,[2021-02-22 15:03:28.238] $GPGGA,60327.8,3713.9064449,N,13701.4601115,E,4,15,0.8,90.8016,M,37.55,M,5.0,0000*6C,37.23177408166667,137.02433519166667,679579.3098020945,4122504.206304055
1345,[2021-02-22 15:03:28.363] $GPGGA,60327.9,3713.9064443999996,N,13701.460111700002,E,4,15,0.8,90.8026,M,37.55,M,5.0,0000*61,37.231774073333334,137.02433519500002,679579.3101176041,4122504.2053857422
1346,[2021-02-22 15:03:28.441] $GPGGA,60328.0,3713.9064443,N,13701.4601122,E,4,15,0.8,90.8,M,37.55,M,6.0,0000*61,37.23177407166667,137.02433520333335,679579.3108608943,4122504.205216627
1347,[2021-02-22 15:03:28.535] $GPGGA,60328.1,3713.9064454000004,N,13701.460112600002,E,4,15,0.8,90.8,M,37.55,M,6.0,0000*62,37.23177409000001,137.02433521,679579.3114088576,4122504.2072634753
1348,[2021-02-22 15:03:28.628] $GPGGA,60328.2,3713.9064451,N,13701.460111700002,E,4,15,0.8,90.799,M,37.55,M,1.0,0000*6E,37.23177408499999,137.02433519500002,679579.3100899203,4122504.2066802313
1349,[2021-02-22 15:03:28.753] $GPGGA,60328.3,3713.9064442000004,N,13701.460111700002,E,4,15,0.8,90.801,M,37.55,M,1.0,0000*63,37.23177407000001,137.02433519500002,679579.3101255137,4122504.205015888
1350,[2021-02-22 15:03:28.831] $GPGGA,60328.4,3713.9064443999996,N,13701.460111700002,E,4,15,0.8,90.8015,M,37.55,M,1.0,0000*67,37.231774073333334,137.02433519500002,679579.3101176041,4122504.2053857422
1351,[2021-02-22 15:03:28.957] $GPGGA,60328.5,3713.9064442000004,N,13701.460112399998,E,4,15,0.8,90.8008,M,37.55,M,1.0,0000*6C,37.23177407000001,137.02433520666665,679579.31116058,4122504.205038024
1352,[2021-02-22 15:03:29.035] $GPGGA,60328.6,3713.9064443,N,13701.460112600002,E,4,15,0.8,90.8,M,37.55,M,1.0,0000*64,37.23177407166667,137.02433521,679579.3114523607,4122504.2052292763
1353,[2021-02-22 15:03:29.160] $GPGGA,60328.7,3713.9064445,N,13701.460113299998,E,4,15,0.8,90.8004,M,37.55,M,1.0,0000*63,37.231774075000004,137.02433522166663,679579.3124795174,4122504.2056212663
1354,[2021-02-22 15:03:29.238] $GPGGA,60328.8,3713.9064443,N,13701.4601128,E,4,15,0.8,90.8005,M,37.55,M,1.0,0000*61,37.23177407166667,137.0243352133333,679579.3117480917,4122504.2052356005
1355,[2021-02-22 15:03:29.363] $GPGGA,60328.9,3713.9064449,N,13701.4601121,E,4,15,0.8,90.8004,M,37.55,M,1.0,0000*62,37.23177408166667,137.02433520166667,679579.3106892963,4122504.2063230295
1356,[2021-02-22 15:03:29.457] $GPGGA,60329.0,3713.9064454000004,N,13701.460112399998,E,4,15,0.8,90.7983,M,37.55,M,2.0,0000*69,37.23177409000001,137.02433520666665,679579.3111131222,4122504.207257151
1357,[2021-02-22 15:03:29.535] $GPGGA,60329.1,3713.9064456,N,13701.4601132,E,4,15,0.8,90.7987,M,37.55,M,2.0,0000*69,37.231774093333335,137.02433521999998,679579.3122881476,4122504.207652304
1358,[2021-02-22 15:03:29.644] $GPGGA,60329.2,3713.9064454000004,N,13701.4601136,E,4,15,0.8,90.7985,M,37.55,M,2.0,0000*6E,37.23177409000001,137.0243352266667,679579.3128875305,4122504.2072950983
1359,[2021-02-22 15:03:29.753] $GPGGA,60329.3,3713.9064449,N,13701.460113299998,E,4,15,0.8,90.7997,M,37.55,M,2.0,0000*65,37.23177408166667,137.02433522166663,679579.3124636981,4122504.2063609767
1360,[2021-02-22 15:03:29.831] $GPGGA,60329.4,3713.9064439000003,N,13701.460113699999,E,4,15,0.8,90.7988,M,37.55,M,2.0,0000*6F,37.231774065,137.02433522833334,679579.3130947172,4122504.2045243517
1361,[2021-02-22 15:03:29.956] $GPGGA,60329.5,3713.9064442000004,N,13701.460113,E,4,15,0.8,90.799,M,37.55,M,2.0,0000*6C,37.23177407000001,137.02433521666666,679579.312047782,4122504.205056998
1362,[2021-02-22 15:03:30.050] $GPGGA,60329.6,3713.9064445,N,13701.4601128,E,4,15,0.8,90.798,M,37.55,M,2.0,0000*60,37.231774075000004,137.0243352133333,679579.3117401821,4122504.2056054547
1363,[2021-02-22 15:03:30.144] $GPGGA,60329.7,3713.9064438,N,13701.4601135,E,4,15,0.8,90.7971,M,37.55,M,2.0,0000*69,37.23177406333333,137.024335225,679579.3128029366,4122504.2043330995
1364,[2021-02-22 15:03:30.253] $GPGGA,60329.8,3713.9064436999997,N,13701.460113,E,4,15,0.8,90.7981,M,37.55,M,2.0,0000*63,37.231774061666655,137.02433521666666,679579.3120675562,4122504.204132361
1365,[2021-02-22 15:03:30.331] $GPGGA,60329.9,3713.9064442000004,N,13701.460113799998,E,4,15,0.8,90.7973,M,37.55,M,2.0,0000*65,37.23177407000001,137.02433523,679579.3132307194,4122504.2050822955
1366,[2021-02-22 15:03:30.456] $GPGGA,60330.0,3713.9064439000003,N,13701.460113,E,4,15,0.8,90.7956,M,37.55,M,3.0,0000*66,37.231774065,137.02433521666666,679579.3120596465,4122504.2045022165
1367,[2021-02-22 15:03:30.550] $GPGGA,60330.1,3713.9064439999997,N,13701.4601129,E,4,15,0.8,90.7969,M,37.55,M,3.0,0000*6D,37.23177406666667,137.024335215,679579.3119078273,4122504.2046839823
1368,[2021-02-22 15:03:30.660] $GPGGA,60330.2,3713.9064446,N,13701.460113999998,E,4,15,0.8,90.7969,M,37.55,M,3.0,0000*67,37.23177407666667,137.0243352333333,679579.3135106311,4122504.20582833
1369,[2021-02-22 15:03:30.738] $GPGGA,60330.3,3713.9064453,N,13701.4601132,E,4,15,0.8,90.7977,M,37.55,M,3.0,0000*68,37.23177408833334,137.02433521999998,679579.3123000122,4122504.207097522
1370,[2021-02-22 15:03:30.863] $GPGGA,60330.4,3713.9064451,N,13701.4601143,E,4,15,0.8,90.7968,M,37.55,M,3.0,0000*65,37.23177408499999,137.02433523833332,679579.3139344613,4122504.2067624503
1371,[2021-02-22 15:03:30.941] $GPGGA,60330.5,3713.9064453,N,13701.460113999998,E,4,15,0.8,90.7977,M,37.55,M,3.0,0000*6B,37.23177408833334,137.0243352333333,679579.3134829473,4122504.2071228195
1372,[2021-02-22 15:03:31.050] $GPGGA,60330.6,3713.9064454000004,N,13701.4601135,E,4,15,0.8,90.7975,M,37.55,M,3.0,0000*6F,37.23177409000001,137.024335225,679579.3127396595,4122504.207291936
1373,[2021-02-22 15:03:31.128] $GPGGA,60330.7,3713.9064438,N,13701.4601129,E,4,15,0.8,90.7996,M,37.55,M,3.0,0000*64,37.23177406333333,137.024335215,679579.311915737,4122504.204314126
1374,[2021-02-22 15:03:31.253] $GPGGA,60330.8,3713.9064443,N,13701.460112600002,E,4,15,0.8,90.7992,M,37.55,M,3.0,0000*6C,37.23177407166667,137.02433521,679579.3114523607,4122504.2052292763
1375,[2021-02-22 15:03:31.331] $GPGGA,60330.9,3713.9064455,N,13701.4601129,E,4,15,0.8,90.7987,M,37.55,M,3.0,0000*61,37.23177409166666,137.024335215,679579.3118485049,4122504.2074578875
1376,[2021-02-22 15:03:31.456] $GPGGA,60331.0,3713.9064458000003,N,13701.4601129,E,4,15,0.8,90.7977,M,37.55,M,4.0,0000*6C,37.23177409666667,137.024335215,679579.3118366404,4122504.208012671
1377,[2021-02-22 15:03:31.550] $GPGGA,60331.1,3713.9064449,N,13701.460111800001,E,4,15,0.8,90.7981,M,37.55,M,4.0,0000*66,37.23177408166667,137.02433519666667,679579.3102456944,4122504.206313542
1378,[2021-02-22 15:03:31.659] $GPGGA,60331.2,3713.9064453,N,13701.460112600002,E,4,15,0.8,90.8002,M,37.55,M,4.0,0000*6E,37.23177408833334,137.02433521,679579.3114128124,4122504.207078547
1379,[2021-02-22 15:03:31.753] $GPGGA,60331.3,3713.9064459,N,13701.460111800001,E,4,15,0.8,90.799,M,37.55,M,4.0,0000*65,37.23177409833334,137.02433519666667,679579.3102061461,4122504.208162814
1380,[2021-02-22 15:03:31.831] $GPGGA,60331.4,3713.9064453,N,13701.460111700002,E,4,15,0.8,90.7994,M,37.55,M,4.0,0000*63,37.23177408833334,137.02433519500002,679579.3100820107,4122504.2070500874
1381,[2021-02-22 15:03:31.956] $GPGGA,60331.5,3713.9064456999995,N,13701.460111200002,E,4,15,0.8,90.7976,M,37.55,M,4.0,0000*6F,37.23177409499999,137.0243351866667,679579.309326856,4122504.207773984
1382,[2021-02-22 15:03:32.034] $GPGGA,60331.6,3713.9064461999997,N,13701.4601127,E,4,15,0.8,90.7965,M,37.55,M,4.0,0000*6E,37.23177410333332,137.02433521166665,679579.3115250834,4122504.2087460533
1383,[2021-02-22 15:03:32.159] $GPGGA,60331.7,3713.9064461999997,N,13701.460113,E,4,15,0.8,90.7965,M,37.55,M,4.0,0000*69,37.23177410333332,137.02433521666666,679579.3119686856,4122504.2087555407
1384,[2021-02-22 15:03:32.238] $GPGGA,60331.8,3713.9064452,N,13701.4601121,E,4,15,0.8,90.7956,M,37.55,M,4.0,0000*65,37.23177408666667,137.02433520166667,679579.310677432,4122504.2068778095
1385,[2021-02-22 15:03:32.362] $GPGGA,60331.9,3713.9064454000004,N,13701.4601128,E,4,15,0.8,90.7949,M,37.55,M,4.0,0000*65,37.23177409000001,137.0243352133333,679579.3117045886,4122504.2072698004
1386,[2021-02-22 15:03:32.441] $GPGGA,60332.0,3713.9064469000004,N,13701.4601116,E,4,15,0.8,90.7934,M,37.55,M,5.0,0000*67,37.23177411500001,137.02433519333331,679579.3098708623,4122504.2100057607
1387,[2021-02-22 15:03:32.534] $GPGGA,60332.1,3713.9064466,N,13701.4601116,E,4,15,0.8,90.7939,M,37.55,M,5.0,0000*64,37.23177411,137.02433519333331,679579.3098827268,4122504.2094509793
1388,[2021-02-22 15:03:32.628] $GPGGA,60332.2,3713.9064456999995,N,13701.4601123,E,4,15,0.8,90.7954,M,37.55,M,5.0,0000*68,37.23177409499999,137.024335205,679579.3109533911,4122504.207808768
1389,[2021-02-22 15:03:32.753] $GPGGA,60332.3,3713.9064451,N,13701.4601125,E,4,15,0.8,90.7966,M,37.55,M,5.0,0000*68,37.23177408499999,137.02433520833335,679579.3112728555,4122504.2067055306
1390,[2021-02-22 15:03:32.831] $GPGGA,60332.4,3713.9064448,N,13701.4601129,E,4,15,0.8,90.7966,M,37.55,M,5.0,0000*6B,37.23177408,137.024335215,679579.3118761887,4122504.206163399
1391,[2021-02-22 15:03:32.956] $GPGGA,60332.5,3713.9064445,N,13701.460112399998,E,4,15,0.8,90.7979,M,37.55,M,5.0,0000*64,37.231774075000004,137.02433520666665,679579.3111487156,4122504.205592806
1392,[2021-02-22 15:03:33.034] $GPGGA,60332.6,3713.9064435,N,13701.4601122,E,4,15,0.8,90.7981,M,37.55,M,5.0,0000*61,37.231774058333336,137.02433520333335,679579.3108925329,4122504.203737209
1393,[2021-02-22 15:03:33.159] $GPGGA,60332.7,3713.9064439000003,N,13701.460112399998,E,4,15,0.8,90.7981,M,37.55,M,5.0,0000*6A,37.231774065,137.02433520666665,679579.3111724445,4122504.204483242
1394,[2021-02-22 15:03:33.237] $GPGGA,60332.8,3713.9064443,N,13701.460112,E,4,15,0.8,90.7972,M,37.55,M,5.0,0000*60,37.23177407166667,137.02433520000002,679579.310565161,4122504.2052103025
1395,[2021-02-22 15:03:33.347] $GPGGA,60332.9,3713.906445,N,13701.460112600002,E,4,15,0.8,90.7957,M,37.55,M,5.0,0000*62,37.231774083333335,137.02433521,679579.311424677,4122504.2065237667
1396,[2021-02-22 15:03:33.456] $GPGGA,60333.0,3713.9064454000004,N,13701.460111899998,E,4,15,0.8,90.7925,M,37.55,M,6.0,0000*64,37.23177409000001,137.02433519833332,679579.3103737868,4122504.2072413396
1397,[2021-02-22 15:03:33.534] $GPGGA,60333.1,3713.9064441,N,13701.460111700002,E,4,15,0.8,90.7941,M,37.55,M,6.0,0000*6D,37.23177406833334,137.02433519500002,679579.3101294686,4122504.204830961
1398,[2021-02-22 15:03:33.659] $GPGGA,60333.2,3713.9064439000003,N,13701.460111800001,E,4,15,0.8,90.7952,M,37.55,M,1.0,0000*6B,37.231774065,137.02433519666667,679579.3102852426,4122504.2044642693
1399,[2021-02-22 15:03:33.737] $GPGGA,60333.3,3713.9064443,N,13701.460111899998,E,4,15,0.8,90.7963,M,37.55,M,1.0,0000*64,37.23177407166667,137.02433519833332,679579.31041729,4122504.2052071407
1400,[2021-02-22 15:03:33.862] $GPGGA,60333.4,3713.9064448,N,13701.4601125,E,4,15,0.8,90.7979,M,37.55,M,1.0,0000*6C,37.23177408,137.02433520833335,679579.31128472,4122504.2061507497
1401,[2021-02-22 15:03:33.941] $GPGGA,60333.5,3713.9064451,N,13701.4601125,E,4,15,0.8,90.7978,M,37.55,M,1.0,0000*64,37.23177408499999,137.02433520833335,679579.3112728555,4122504.2067055306
1402,[2021-02-22 15:03:34.050] $GPGGA,60333.6,3713.9064441,N,13701.460112600002,E,4,15,0.8,90.7982,M,37.55,M,1.0,0000*60,37.23177406833334,137.02433521,679579.3114602703,4122504.204859421
1403,[2021-02-22 15:03:34.144] $GPGGA,60333.7,3713.9064446999996,N,13701.4601121,E,4,15,0.8,90.7985,M,37.55,M,1.0,0000*67,37.23177407833332,137.02433520166667,679579.3106972061,4122504.205953172
1404,[2021-02-22 15:03:34.253] $GPGGA,60333.8,3713.9064449,N,13701.4601135,E,4,15,0.8,90.799,M,37.55,M,1.0,0000*67,37.23177408166667,137.024335225,679579.3127594336,4122504.206367301
1405,[2021-02-22 15:03:34.331] $GPGGA,60333.9,3713.9064452,N,13701.4601136,E,4,15,0.8,90.7983,M,37.55,M,1.0,0000*6D,37.23177408666667,137.0243352266667,679579.3128954401,4122504.206925244
1406,[2021-02-22 15:03:34.456] $GPGGA,60334.0,3713.9064459,N,13701.4601125,E,4,15,0.8,90.7954,M,37.55,M,2.0,0000*63,37.23177409833334,137.02433520833335,679579.3112412168,4122504.2081849496
1407,[2021-02-22 15:03:34.550] $GPGGA,60334.1,3713.9064456,N,13701.4601139,E,4,15,0.8,90.7949,M,37.55,M,2.0,0000*6C,37.231774093333335,137.02433523166667,679579.3133232184,4122504.2076744386
1408,[2021-02-22 15:03:34.659] $GPGGA,60334.2,3713.906446,N,13701.460115,E,4,15,0.8,90.795,M,37.55,M,2.0,0000*6D,37.2317741,137.02433525,679579.3149339387,4122504.208448933
1409,[2021-02-22 15:03:34.737] $GPGGA,60334.3,3713.9064458000003,N,13701.460114700001,E,4,15,0.8,90.7947,M,37.55,M,2.0,0000*67,37.23177409666667,137.024335245,679579.3144982462,4122504.2080695927
1410,[2021-02-22 15:03:34.847] $GPGGA,60334.4,3713.9064454000004,N,13701.460114700001,E,4,15,0.8,90.7941,M,37.55,M,2.0,0000*6A,37.23177409000001,137.024335245,679579.3145140656,4122504.2073298823
1411,[2021-02-22 15:03:34.940] $GPGGA,60334.5,3713.9064453,N,13701.4601143,E,4,15,0.8,90.7937,M,37.55,M,2.0,0000*69,37.23177408833334,137.02433523833332,679579.3139265516,4122504.207132307
1412,[2021-02-22 15:03:35.050] $GPGGA,60334.6,3713.9064449,N,13701.4601139,E,4,15,0.8,90.7934,M,37.55,M,2.0,0000*6F,37.23177408166667,137.02433523166667,679579.3133509022,4122504.2063799496
1413,[2021-02-22 15:03:35.128] $GPGGA,60334.7,3713.9064443,N,13701.4601136,E,4,15,0.8,90.7943,M,37.55,M,2.0,0000*6B,37.23177407166667,137.0243352266667,679579.3129310335,4122504.2052608994
1414,[2021-02-22 15:03:35.253] $GPGGA,60334.8,3713.9064443999996,N,13701.460114399999,E,4,15,0.8,90.7947,M,37.55,M,2.0,0000*62,37.231774073333334,137.02433523999997,679579.3141100095,4122504.205471123
1415,[2021-02-22 15:03:35.362] $GPGGA,60334.9,3713.9064445,N,13701.460114700001,E,4,15,0.8,90.7948,M,37.55,M,2.0,0000*6E,37.231774075000004,137.024335245,679579.3145496589,4122504.2056655386
1416,[2021-02-22 15:03:35.440] $GPGGA,60335.0,3713.9064448,N,13701.4601141,E,4,15,0.8,90.7922,M,37.55,M,3.0,0000*60,37.23177408,137.02433523500002,679579.3136505948,4122504.206201346
1417,[2021-02-22 15:03:35.534] $GPGGA,60335.1,3713.9064439999997,N,13701.4601136,E,4,15,0.8,90.7934,M,37.55,M,3.0,0000*6E,37.23177406666667,137.0243352266667,679579.3129428981,4122504.204706117
1418,[2021-02-22 15:03:35.659] $GPGGA,60335.2,3713.9064451,N,13701.460113,E,4,15,0.8,90.7918,M,37.55,M,3.0,0000*65,37.23177408499999,137.02433521666666,679579.3120121886,4122504.206721341
1419,[2021-02-22 15:03:35.753] $GPGGA,60335.3,3713.9064443,N,13701.4601127,E,4,15,0.8,90.7935,M,37.55,M,3.0,0000*6E,37.23177407166667,137.02433521166665,679579.311600225,4122504.205232438
1420,[2021-02-22 15:03:35.831] $GPGGA,60335.4,3713.9064443,N,13701.4601134,E,4,15,0.8,90.7946,M,37.55,M,3.0,0000*6F,37.23177407166667,137.02433522333334,679579.3126352981,4122504.2052545752
1421,[2021-02-22 15:03:35.956] $GPGGA,60335.5,3713.9064446999996,N,13701.460113,E,4,15,0.8,90.7926,M,37.55,M,3.0,0000*68,37.23177407833332,137.02433521666666,679579.3120280078,4122504.2059816327
1422,[2021-02-22 15:03:36.034] $GPGGA,60335.6,3713.9064448,N,13701.4601135,E,4,15,0.8,90.7919,M,37.55,M,3.0,0000*6D,37.23177408,137.024335225,679579.3127633885,4122504.2061823723
1423,[2021-02-22 15:03:36.159] $GPGGA,60335.7,3713.906445,N,13701.460113699999,E,4,15,0.8,90.7927,M,37.55,M,3.0,0000*6A,37.231774083333335,137.02433522833334,679579.3130512142,4122504.2065585507
1424,[2021-02-22 15:03:36.237] $GPGGA,60335.8,3713.9064446999996,N,13701.460113100002,E,4,15,0.8,90.7933,M,37.55,M,3.0,0000*60,37.23177407833332,137.02433521833333,679579.3121758767,4122504.2059847945
1425,[2021-02-22 15:03:36.362] $GPGGA,60335.9,3713.9064445,N,13701.460112600002,E,4,15,0.8,90.7938,M,37.55,M,3.0,0000*6E,37.231774075000004,137.02433521,679579.3114444511,4122504.2055991306
1426,[2021-02-22 15:03:36.440] $GPGGA,60336.0,3713.906445,N,13701.460112399998,E,4,15,0.8,90.7912,M,37.55,M,4.0,0000*6D,37.231774083333335,137.02433520666665,679579.3111289415,4122504.2065174417
1427,[2021-02-22 15:03:36.534] $GPGGA,60336.1,3713.9064455,N,13701.460113100002,E,4,15,0.8,90.7916,M,37.55,M,4.0,0000*69,37.23177409166666,137.02433521833333,679579.3121442382,4122504.2074642126
1428,[2021-02-22 15:03:36.628] $GPGGA,60336.2,3713.906445,N,13701.4601136,E,4,15,0.8,90.7932,M,37.55,M,4.0,0000*6E,37.231774083333335,137.0243352266667,679579.3129033499,4122504.20655539
1429,[2021-02-22 15:03:36.753] $GPGGA,60336.3,3713.9064443999996,N,13701.4601128,E,4,15,0.8,90.794,M,37.55,M,4.0,0000*60,37.231774073333334,137.0243352133333,679579.3117441369,4122504.2054205276
1430,[2021-02-22 15:03:36.831] $GPGGA,60336.4,3713.9064446999996,N,13701.4601121,E,4,15,0.8,90.795,M,37.55,M,4.0,0000*6C,37.23177407833332,137.02433520166667,679579.3106972061,4122504.205953172
1431,[2021-02-22 15:03:36.956] $GPGGA,60336.5,3713.9064442000004,N,13701.4601125,E,4,15,0.8,90.7957,M,37.55,M,4.0,0000*6B,37.23177407000001,137.02433520833335,679579.3113084489,4122504.205041187
1432,[2021-02-22 15:03:37.065] $GPGGA,60336.6,3713.9064443,N,13701.4601132,E,4,15,0.8,90.7962,M,37.55,M,4.0,0000*69,37.23177407166667,137.02433521999998,679579.3123395604,4122504.2052482497
1433,[2021-02-22 15:03:37.143] $GPGGA,60336.7,3713.9064446999996,N,13701.4601129,E,4,15,0.8,90.7951,M,37.55,M,4.0,0000*66,37.23177407833332,137.024335215,679579.3118801436,4122504.2059784704
1434,[2021-02-22 15:03:37.253] $GPGGA,60336.8,3713.9064446999996,N,13701.460112600002,E,4,15,0.8,90.7937,M,37.55,M,4.0,0000*66,37.23177407833332,137.02433521,679579.3114365414,4122504.2059689835
1435,[2021-02-22 15:03:37.331] $GPGGA,60336.9,3713.9064446999996,N,13701.4601123,E,4,15,0.8,90.7943,M,37.55,M,4.0,0000*61,37.23177407833332,137.024335205,679579.3109929394,4122504.205959497
1436,[2021-02-22 15:03:37.456] $GPGGA,60337.0,3713.9064452,N,13701.460110799999,E,4,15,0.8,90.7917,M,37.55,M,5.0,0000*64,37.23177408666667,137.02433517999998,679579.3087551569,4122504.2068367004
1437,[2021-02-22 15:03:37.550] $GPGGA,60337.1,3713.9064443999996,N,13701.4601113,E,4,15,0.8,90.7916,M,37.55,M,5.0,0000*69,37.231774073333334,137.02433518833334,679579.3095261331,4122504.205373093
1438,[2021-02-22 15:03:37.659] $GPGGA,60337.2,3713.9064445,N,13701.460111700002,E,4,15,0.8,90.7909,M,37.55,M,5.0,0000*61,37.231774075000004,137.02433519500002,679579.3101136492,4122504.2055706694
1439,[2021-02-22 15:03:37.737] $GPGGA,60337.3,3713.9064441,N,13701.460113100002,E,4,15,0.8,90.7914,M,37.55,M,5.0,0000*6C,37.23177406833334,137.02433521833333,679579.3121996056,4122504.2048752327
1440,[2021-02-22 15:03:37.862] $GPGGA,60337.4,3713.9064446999996,N,13701.4601134,E,4,15,0.8,90.7911,M,37.55,M,5.0,0000*6D,37.23177407833332,137.02433522333334,679579.3126194789,4122504.205994281
1441,[2021-02-22 15:03:37.940] $GPGGA,60337.5,3713.9064449,N,13701.4601127,E,4,15,0.8,90.7909,M,37.55,M,5.0,0000*69,37.23177408166667,137.02433521166665,679579.3115764961,4122504.206342002
1442,[2021-02-22 15:03:38.050] $GPGGA,60337.6,3713.9064443,N,13701.4601116,E,4,15,0.8,90.7917,M,37.55,M,5.0,0000*6D,37.23177407166667,137.02433519333331,679579.3099736877,4122504.205197654
1443,[2021-02-22 15:03:38.143] $GPGGA,60337.7,3713.9064443999996,N,13701.4601114,E,4,15,0.8,90.791,M,37.55,M,5.0,0000*6E,37.231774073333334,137.02433519,679579.3096739998,4122504.205376256
1444,[2021-02-22 15:03:38.253] $GPGGA,60337.8,3713.9064446,N,13701.4601122,E,4,15,0.8,90.7926,M,37.55,M,5.0,0000*63,37.23177407666667,137.02433520333335,679579.3108490298,4122504.205771409
1445,[2021-02-22 15:03:38.331] $GPGGA,60337.9,3713.9064453,N,13701.460112,E,4,15,0.8,90.7922,M,37.55,M,5.0,0000*60,37.23177408833334,137.02433520000002,679579.3105256128,4122504.2070595743
1446,[2021-02-22 15:03:38.456] $GPGGA,60338.0,3713.906445,N,13701.4601114,E,4,15,0.8,90.7898,M,37.55,M,6.0,0000*61,37.231774083333335,137.02433519,679579.3096502707,4122504.2064858195
1447,[2021-02-22 15:03:38.550] $GPGGA,60338.1,3713.9064445,N,13701.460111200002,E,4,15,0.8,90.7905,M,37.55,M,6.0,0000*67,37.231774075000004,137.0243351866667,679579.3093743139,4122504.205554859
1448,[2021-02-22 15:03:38.659] $GPGGA,60338.2,3713.9064436,N,13701.460110799999,E,4,15,0.8,90.7901,M,37.55,M,1.0,0000*68,37.23177406,137.02433517999998,679579.3088184341,4122504.203877864
1449,[2021-02-22 15:03:38.737] $GPGGA,60338.3,3713.906443,N,13701.460111000002,E,4,15,0.8,90.7904,M,37.55,M,1.0,0000*63,37.23177405,137.0243351833334,679579.3091379054,4122504.2027746257
1450,[2021-02-22 15:03:38.862] $GPGGA,60338.4,3713.9064443,N,13701.460110499998,E,4,15,0.8,90.7907,M,37.55,M,1.0,0000*67,37.23177407166667,137.024335175,679579.3083471528,4122504.2051628693
1451,[2021-02-22 15:03:38.956] $GPGGA,60338.5,3713.9064443999996,N,13701.460110600001,E,4,15,0.8,90.79,M,37.55,M,1.0,0000*65,37.231774073333334,137.02433517666668,679579.3084910646,4122504.2053509573
1452,[2021-02-22 15:03:39.034] $GPGGA,60338.6,3713.9064443,N,13701.4601109,E,4,15,0.8,90.7898,M,37.55,M,1.0,0000*6E,37.23177407166667,137.02433518166663,679579.308938617,4122504.2051755185
1453,[2021-02-22 15:03:39.159] $GPGGA,60338.7,3713.9064445,N,13701.4601109,E,4,15,0.8,90.7899,M,37.55,M,1.0,0000*68,37.231774075000004,137.02433518166663,679579.3089307074,4122504.205545372
1454,[2021-02-22 15:03:39.237] $GPGGA,60338.8,3713.9064443,N,13701.460111000002,E,4,15,0.8,90.7899,M,37.55,M,1.0,0000*69,37.23177407166667,137.0243351833334,679579.3090864926,4122504.2051786794
1455,[2021-02-22 15:03:39.362] $GPGGA,60338.9,3713.9064446,N,13701.4601115,E,4,15,0.8,90.7894,M,37.55,M,1.0,0000*65,37.23177407666667,137.02433519166667,679579.309813959,4122504.2057492724
1456,[2021-02-22 15:03:39.440] $GPGGA,60339.0,3713.9064446,N,13701.4601109,E,4,15,0.8,90.7867,M,37.55,M,2.0,0000*6F,37.23177407666667,137.02433518166663,679579.3089267525,4122504.2057303
1457,[2021-02-22 15:03:39.534] $GPGGA,60339.1,3713.9064439999997,N,13701.4601115,E,4,15,0.8,90.7884,M,37.55,M,2.0,0000*68,37.23177406666667,137.02433519166667,679579.3098376879,4122504.204639709
1458,[2021-02-22 15:03:39.659] $GPGGA,60339.2,3713.9064446,N,13701.460111899998,E,4,15,0.8,90.7881,M,37.55,M,2.0,0000*64,37.23177407666667,137.02433519833332,679579.3104054254,4122504.205761923
1459,[2021-02-22 15:03:39.753] $GPGGA,60339.3,3713.9064439999997,N,13701.460112,E,4,15,0.8,90.788,M,37.55,M,2.0,0000*68,37.23177406666667,137.02433520000002,679579.3105770255,4122504.2046555215
1460,[2021-02-22 15:03:39.831] $GPGGA,60339.4,3713.9064428999995,N,13701.4601116,E,4,15,0.8,90.7898,M,37.55,M,2.0,0000*6C,37.23177404833332,137.02433519333331,679579.3100290555,4122504.2026086715
1461,[2021-02-22 15:03:39.956] $GPGGA,60339.5,3713.9064431999996,N,13701.4601113,E,4,15,0.8,90.7897,M,37.55,M,2.0,0000*6D,37.23177405333333,137.02433518833334,679579.3095735911,4122504.203153967
1462,[2021-02-22 15:03:40.034] $GPGGA,60339.6,3713.9064438,N,13701.4601122,E,4,15,0.8,90.7902,M,37.55,M,2.0,0000*6B,37.23177406333333,137.02433520333335,679579.3108806685,4122504.2042919905
1463,[2021-02-22 15:03:40.159] $GPGGA,60339.7,3713.9064434,N,13701.460111800001,E,4,15,0.8,90.7906,M,37.55,M,2.0,0000*6B,37.23177405666667,137.02433519666667,679579.3103050167,4122504.2035396337
1464,[2021-02-22 15:03:40.237] $GPGGA,60339.8,3713.9064431,N,13701.460111800001,E,4,15,0.8,90.7907,M,37.55,M,2.0,0000*60,37.23177405166667,137.02433519666667,679579.3103168812,4122504.2029848527
1465,[2021-02-22 15:03:40.362] $GPGGA,60339.9,3713.9064439000003,N,13701.4601121,E,4,15,0.8,90.7912,M,37.55,M,2.0,0000*67,37.231774065,137.02433520166667,679579.3107288447,4122504.2044737553
1466,[2021-02-22 15:03:40.440] $GPGGA,60340.0,3713.9064434,N,13701.460111800001,E,4,15,0.8,90.7874,M,37.55,M,3.0,0000*67,37.23177405666667,137.02433519666667,679579.3103050167,4122504.2035396337
1467,[2021-02-22 15:03:40.534] $GPGGA,60340.1,3713.9064435,N,13701.4601116,E,4,15,0.8,90.7873,M,37.55,M,3.0,0000*6E,37.231774058333336,137.02433519333331,679579.3100053265,4122504.2037182357
1468,[2021-02-22 15:03:40.659] $GPGGA,60340.2,3713.9064435,N,13701.460112,E,4,15,0.8,90.7892,M,37.55,M,3.0,0000*67,37.231774058333336,137.02433520000002,679579.3105967996,4122504.203730885
1469,[2021-02-22 15:03:40.737] $GPGGA,60340.3,3713.9064433,N,13701.4601121,E,4,15,0.8,90.7888,M,37.55,M,3.0,0000*6A,37.231774055,137.02433520166667,679579.3107525737,4122504.203364193
1470,[2021-02-22 15:03:40.862] $GPGGA,60340.4,3713.9064435,N,13701.4601122,E,4,15,0.8,90.7875,M,37.55,M,3.0,0000*6A,37.231774058333336,137.02433520333335,679579.3108925329,4122504.203737209
1471,[2021-02-22 15:03:40.940] $GPGGA,60340.5,3713.9064443,N,13701.4601121,E,4,15,0.8,90.7877,M,37.55,M,3.0,0000*6B,37.23177407166667,137.02433520166667,679579.3107130254,4122504.205213465
1472,[2021-02-22 15:03:41.049] $GPGGA,60340.6,3713.9064433,N,13701.460112399998,E,4,15,0.8,90.7862,M,37.55,M,3.0,0000*6E,37.231774055,137.02433520666665,679579.3111961735,4122504.2033736794
1473,[2021-02-22 15:03:41.143] $GPGGA,60340.7,3713.9064433,N,13701.460111800001,E,4,15,0.8,90.7851,M,37.55,M,3.0,0000*60,37.231774055,137.02433519666667,679579.3103089716,4122504.203354705
1474,[2021-02-22 15:03:41.253] $GPGGA,60340.8,3713.9064438,N,13701.4601115,E,4,15,0.8,90.7845,M,37.55,M,3.0,0000*6C,37.23177406333333,137.02433519166667,679579.3098455976,4122504.204269855
1475,[2021-02-22 15:03:41.331] $GPGGA,60340.9,3713.9064441,N,13701.46011,E,4,15,0.8,90.7849,M,37.55,M,3.0,0000*6B,37.23177406833334,137.02433516666665,679579.3076157249,4122504.2047772026
1476,[2021-02-22 15:03:41.456] $GPGGA,60341.0,3713.9064443,N,13701.460110299999,E,4,15,0.8,90.7832,M,37.55,M,4.0,0000*69,37.23177407166667,137.02433517166665,679579.308051415,4122504.205156544
1477,[2021-02-22 15:03:41.549] $GPGGA,60341.1,3713.9064439999997,N,13701.460111200002,E,4,15,0.8,90.7835,M,37.55,M,4.0,0000*6C,37.23177406666667,137.0243351866667,679579.3093940881,4122504.2046302236
1478,[2021-02-22 15:03:41.659] $GPGGA,60341.2,3713.9064436999997,N,13701.460111800001,E,4,15,0.8,90.7855,M,37.55,M,4.0,0000*63,37.231774061666655,137.02433519666667,679579.3102931523,4122504.204094414
1479,[2021-02-22 15:03:41.737] $GPGGA,60341.3,3713.9064433,N,13701.4601123,E,4,15,0.8,90.7871,M,37.55,M,4.0,0000*68,37.231774055,137.024335205,679579.3110483069,4122504.203370516
1480,[2021-02-22 15:03:41.862] $GPGGA,60341.4,3713.9064439999997,N,13701.460112399998,E,4,15,0.8,90.7877,M,37.55,M,4.0,0000*6A,37.23177406666667,137.02433520666665,679579.3111684897,4122504.20466817
1481,[2021-02-22 15:03:41.940] $GPGGA,60341.5,3713.9064445,N,13701.4601116,E,4,15,0.8,90.7889,M,37.55,M,4.0,0000*6E,37.231774075000004,137.02433519333331,679579.3099657781,4122504.2055675085
1482,[2021-02-22 15:03:42.049] $GPGGA,60341.6,3713.9064452,N,13701.4601115,E,4,15,0.8,90.7896,M,37.55,M,4.0,0000*66,37.23177408666667,137.02433519166667,679579.30979023,4122504.206858837
1483,[2021-02-22 15:03:42.127] $GPGGA,60341.7,3713.9064446,N,13701.4601113,E,4,15,0.8,90.7882,M,37.55,M,4.0,0000*61,37.23177407666667,137.02433518833334,679579.3095182234,4122504.205742948
1484,[2021-02-22 15:03:42.252] $GPGGA,60341.8,3713.9064439000003,N,13701.4601111,E,4,15,0.8,90.7877,M,37.55,M,4.0,0000*6E,37.231774065,137.02433518499998,679579.3092501718,4122504.204442133
1485,[2021-02-22 15:03:42.331] $GPGGA,60341.9,3713.9064456999995,N,13701.4601113,E,4,15,0.8,90.7873,M,37.55,M,4.0,0000*61,37.23177409499999,137.02433518833334,679579.3094747204,4122504.2077771467
1486,[2021-02-22 15:03:42.456] $GPGGA,60342.0,3713.9064468,N,13701.4601109,E,4,15,0.8,90.7849,M,37.55,M,5.0,0000*64,37.23177411333334,137.02433518166663,679579.3088397463,4122504.209798699
1487,[2021-02-22 15:03:42.534] $GPGGA,60342.1,3713.9064464000003,N,13701.4601113,E,4,15,0.8,90.7851,M,37.55,M,5.0,0000*6B,37.23177410666667,137.02433518833334,679579.3094470366,4122504.209071639
1488,[2021-02-22 15:03:42.643] $GPGGA,60342.2,3713.9064451,N,13701.460111800001,E,4,15,0.8,90.7851,M,37.55,M,5.0,0000*65,37.23177408499999,137.02433519666667,679579.3102377846,4122504.206683394
1489,[2021-02-22 15:03:42.752] $GPGGA,60342.3,3713.9064448,N,13701.4601116,E,4,15,0.8,90.7849,M,37.55,M,5.0,0000*6B,37.23177408,137.02433519333331,679579.3099539137,4122504.2061222885
1490,[2021-02-22 15:03:42.831] $GPGGA,60342.4,3713.9064443,N,13701.460110600001,E,4,15,0.8,90.7852,M,37.55,M,5.0,0000*6C,37.23177407166667,137.02433517666668,679579.3084950194,4122504.20516603
1491,[2021-02-22 15:03:42.956] $GPGGA,60342.5,3713.9064441,N,13701.460111800001,E,4,15,0.8,90.7855,M,37.55,M,5.0,0000*67,37.23177406833334,137.02433519666667,679579.310277333,4122504.204834123
1492,[2021-02-22 15:03:43.034] $GPGGA,60342.6,3713.9064439999997,N,13701.4601123,E,4,15,0.8,90.7849,M,37.55,M,5.0,0000*60,37.23177406666667,137.024335205,679579.3110206231,4122504.204665008
1493,[2021-02-22 15:03:43.159] $GPGGA,60342.7,3713.9064434,N,13701.4601114,E,4,15,0.8,90.7861,M,37.55,M,5.0,0000*6C,37.23177405666667,137.02433519,679579.309713548,4122504.2035269844
1494,[2021-02-22 15:03:43.237] $GPGGA,60342.8,3713.9064431999996,N,13701.4601116,E,4,15,0.8,90.7859,M,37.55,M,5.0,0000*6C,37.23177405333333,137.02433519333331,679579.3100171909,4122504.2031634534
1495,[2021-02-22 15:03:43.362] $GPGGA,60342.9,3713.9064439999997,N,13701.460111700002,E,4,15,0.8,90.7862,M,37.55,M,5.0,0000*61,37.23177406666667,137.02433519500002,679579.3101334234,4122504.2046460332
1496,[2021-02-22 15:03:43.440] $GPGGA,60343.0,3713.9064436999997,N,13701.4601115,E,4,15,0.8,90.7825,M,37.55,M,6.0,0000*6B,37.231774061666655,137.02433519166667,679579.3098495525,4122504.204084927
1497,[2021-02-22 15:03:43.534] $GPGGA,60343.1,3713.9064436999997,N,13701.460111700002,E,4,15,0.8,90.7825,M,37.55,M,6.0,0000*68,37.231774061666655,137.02433519500002,679579.3101452879,4122504.204091252
1498,[2021-02-22 15:03:43.627] $GPGGA,60343.2,3713.9064459,N,13701.460113799998,E,4,15,0.8,90.7808,M,37.55,M,1.0,0000*66,37.23177409833334,137.02433523,679579.3131634875,4122504.208226059
1499,[2021-02-22 15:03:43.752] $GPGGA,60343.3,3713.9064454000004,N,13701.460114200003,E,4,15,0.8,90.7789,M,37.55,M,1.0,0000*61,37.23177409000001,137.02433523666673,679579.3137747347,4122504.2073140717
1500,[2021-02-22 15:03:43.830] $GPGGA,60343.4,3713.9064460999994,N,13701.460115900001,E,4,15,0.8,90.7787,M,37.55,M,1.0,0000*64,37.23177410166666,137.02433526500005,679579.3162607902,4122504.208662319
1501,[2021-02-22 15:03:43.955] $GPGGA,60343.5,3713.9064459,N,13701.4601155,E,4,15,0.8,90.778,M,37.55,M,1.0,0000*65,37.23177409833334,137.02433525833334,679579.3156772288,4122504.2082798174
1502,[2021-02-22 15:03:44.034] $GPGGA,60343.6,3713.9064460999994,N,13701.4601157,E,4,15,0.8,90.7759,M,37.55,M,1.0,0000*6B,37.23177410166666,137.02433526166664,679579.3159650501,4122504.2086559944
1503,[2021-02-22 15:03:44.159] $GPGGA,60343.7,3713.9064460999994,N,13701.4601155,E,4,15,0.8,90.7757,M,37.55,M,1.0,0000*66,37.23177410166666,137.02433525833334,679579.3156693192,4122504.2086496702
1504,[2021-02-22 15:03:44.252] $GPGGA,60343.8,3713.9064459,N,13701.4601157,E,4,15,0.8,90.7764,M,37.55,M,1.0,0000*60,37.23177409833334,137.02433526166664,679579.3159729599,4122504.208286142
1505,[2021-02-22 15:03:44.330] $GPGGA,60343.9,3713.9064467,N,13701.4601155,E,4,15,0.8,90.7755,M,37.55,M,1.0,0000*6C,37.23177411166666,137.02433525833334,679579.3156455903,4122504.209759234
1506,[2021-02-22 15:03:44.455] $GPGGA,60344.0,3713.9064467,N,13701.4601149,E,4,15,0.8,90.7722,M,37.55,M,2.0,0000*6C,37.23177411166666,137.0243352483333,679579.3147583838,4122504.20974026
1507,[2021-02-22 15:03:44.549] $GPGGA,60344.1,3713.9064463,N,13701.4601149,E,4,15,0.8,90.7733,M,37.55,M,2.0,0000*69,37.23177410499999,137.0243352483333,679579.3147742031,4122504.209000551
1508,[2021-02-22 15:03:44.659] $GPGGA,60344.2,3713.9064459,N,13701.4601157,E,4,15,0.8,90.7744,M,37.55,M,2.0,0000*6C,37.23177409833334,137.02433526166664,679579.3159729599,4122504.208286142
1509,[2021-02-22 15:03:44.737] $GPGGA,60344.3,3713.9064455,N,13701.4601157,E,4,15,0.8,90.7758,M,37.55,M,2.0,0000*6C,37.23177409166666,137.02433526166664,679579.3159887792,4122504.207546431
1510,[2021-02-22 15:03:44.862] $GPGGA,60344.4,3713.9064455,N,13701.460115799999,E,4,15,0.8,90.7766,M,37.55,M,2.0,0000*69,37.23177409166666,137.02433526333328,679579.3161366435,4122504.207549593
1511,[2021-02-22 15:03:44.940] $GPGGA,60344.5,3713.9064464000003,N,13701.4601157,E,4,15,0.8,90.7771,M,37.55,M,2.0,0000*63,37.23177410666667,137.02433526166664,679579.3159531857,4122504.209210778
1512,[2021-02-22 15:03:45.049] $GPGGA,60344.6,3713.9064463,N,13701.4601153,E,4,15,0.8,90.7771,M,37.55,M,2.0,0000*63,37.23177410499999,137.024335255,679579.3153656763,4122504.2090132004
1513,[2021-02-22 15:03:45.143] $GPGGA,60344.7,3713.9064467,N,13701.4601157,E,4,15,0.8,90.7772,M,37.55,M,2.0,0000*61,37.23177411166666,137.02433526166664,679579.3159413212,4122504.209765558
1514,[2021-02-22 15:03:45.252] $GPGGA,60344.8,3713.906446,N,13701.460115600003,E,4,15,0.8,90.7764,M,37.55,M,2.0,0000*6F,37.2317741,137.02433526000004,679579.3158211452,4122504.208467906
1515,[2021-02-22 15:03:45.330] $GPGGA,60344.9,3713.906446,N,13701.460115799999,E,4,15,0.8,90.7764,M,37.55,M,2.0,0000*60,37.2317741,137.02433526333328,679579.3161168693,4122504.20847423
1516,[2021-02-22 15:03:45.455] $GPGGA,60345.0,3713.9064459,N,13701.4601153,E,4,15,0.8,90.7755,M,37.55,M,3.0,0000*6A,37.23177409833334,137.024335255,679579.3153814955,4122504.2082734923
1517,[2021-02-22 15:03:45.549] $GPGGA,60345.1,3713.9064464000003,N,13701.460115200001,E,4,15,0.8,90.7748,M,37.55,M,3.0,0000*68,37.23177410666667,137.02433525333336,679579.3152138549,4122504.2091949666
1518,[2021-02-22 15:03:45.659] $GPGGA,60345.2,3713.9064466,N,13701.4601153,E,4,15,0.8,90.776,M,37.55,M,3.0,0000*62,37.23177411,137.024335255,679579.3153538118,4122504.209567982
1519,[2021-02-22 15:03:45.737] $GPGGA,60345.3,3713.9064461999997,N,13701.4601143,E,4,15,0.8,90.7765,M,37.55,M,3.0,0000*63,37.23177410333332,137.02433523833332,679579.3138909582,4122504.2087966492
1520,[2021-02-22 15:03:45.862] $GPGGA,60345.4,3713.9064459,N,13701.460115,E,4,15,0.8,90.7771,M,37.55,M,3.0,0000*6B,37.23177409833334,137.02433525,679579.3149378935,4122504.208264006
1521,[2021-02-22 15:03:45.940] $GPGGA,60345.5,3713.9064460999994,N,13701.460115600003,E,4,15,0.8,90.7773,M,37.55,M,3.0,0000*65,37.23177410166666,137.02433526000004,679579.3158171903,4122504.2086528325
1522,[2021-02-22 15:03:46.049] $GPGGA,60345.6,3713.9064458000003,N,13701.460115600003,E,4,15,0.8,90.7779,M,37.55,M,3.0,0000*66,37.23177409666667,137.02433526000004,679579.3158290548,4122504.208098053
1523,[2021-02-22 15:03:46.158] $GPGGA,60345.7,3713.9064463,N,13701.4601154,E,4,15,0.8,90.7785,M,37.55,M,3.0,0000*6E,37.23177410499999,137.02433525666666,679579.3155135406,4122504.2090163627
