,Format,Time,Latitude,LatType,Longitude,LonType,Status,Satellite,LevelAccuracy,Altitude(sea),M(sea),Altitude(geoid),M(geoid),DGPS use,checksum,Lat,Lon,UTM_X,UTM_Y
0,[2021-02-22 15:06:46.240] $GNGGA,60630.9,3713.90647385,N,13701.45974676,E,4,9,1.2,91.65700000000001,M,36.77,M,1.9,0979*63,37.23177456416667,137.02432911266666,679578.7693268285,4122504.2483064546
1,[2021-02-22 15:06:46.271] $GNGGA,60631.0,3713.90647105,N,13701.45974407,E,4,9,1.2,91.65899999999999,M,36.77,M,1.0,0979*62,37.2317745175,137.02432906783332,679578.7654599375,4122504.243043427
2,[2021-02-22 15:06:46.271] $GNGGA,60631.1,3713.9064743,N,13701.45974575,E,4,9,1.2,91.662,M,36.77,M,1.1,0979*6D,37.23177457166666,137.02432909583334,679578.767815575,4122504.2491066866
3,[2021-02-22 15:06:46.271] $GNGGA,60631.2,3713.90647503,N,13701.45974793,E,4,9,1.2,91.663,M,36.77,M,1.2,0979*67,37.231774583833335,137.02432913216666,679578.7710102047,4122504.2505255924
4,[2021-02-22 15:06:46.271] $GNGGA,60631.3,3713.90647521,N,13701.45974609,E,4,9,1.2,91.666,M,36.77,M,1.3,0979*60,37.23177458683333,137.0243291015,679578.7682823332,4122504.2508002757
5,[2021-02-22 15:06:46.271] $GNGGA,60631.4,3713.90647376,N,13701.45974732,E,4,9,1.2,91.663,M,36.77,M,1.4,0979*68,37.23177456266667,137.02432912199998,679578.7701584427,4122504.2481577275
6,[2021-02-22 15:06:46.271] $GNGGA,60631.5,3713.90647214,N,13701.45974714,E,4,9,1.2,91.661,M,36.77,M,1.5,0979*6B,37.23177453566666,137.02432911899996,679578.7699563476,4122504.245156213
7,[2021-02-22 15:06:46.271] $GNGGA,60631.6,3713.90647162,N,13701.45974435,E,4,9,1.2,91.671,M,36.77,M,1.6,0979*68,37.231774527000006,137.02432907250002,679578.7658514269,4122504.2441063668
8,[2021-02-22 15:06:46.271] $GNGGA,60631.7,3713.90647137,N,13701.45974558,E,4,9,1.2,91.66,M,36.77,M,1.7,0979*62,37.231774522833334,137.02432909299998,679578.7676800743,4122504.2436829438
9,[2021-02-22 15:06:46.271] $GNGGA,60631.8,3713.90647017,N,13701.45974145,E,4,9,1.2,91.667,M,36.77,M,1.8,0979*6E,37.23177450283333,137.02432902416666,679578.7616206242,4122504.241333218
10,[2021-02-22 15:06:46.271] $GNGGA,60631.9,3713.90647114,N,13701.45974313,E,4,9,1.2,91.666,M,36.77,M,1.9,0979*6C,37.231774519000005,137.0243290521667,679578.7640664338,4122504.243180136
11,[2021-02-22 15:06:46.271] $GNGGA,60632.0,3713.90646855,N,13701.45974451,E,4,9,1.2,91.66799999999999,M,36.77,M,2.0,0979*6E,37.23177447583334,137.0243290751667,679578.7662094281,4122504.2384341625
12,[2021-02-22 15:06:46.271] $GNGGA,60632.1,3713.90647341,N,13701.45974724,E,4,9,1.2,91.649,M,36.77,M,1.1,0979*60,37.23177455683334,137.02432912066666,679578.7700539926,4122504.247507953
13,[2021-02-22 15:06:46.287] $GNGGA,60632.2,3713.9064705,N,13701.45974584,E,4,9,1.2,91.65299999999999,M,36.77,M,1.2,0979*60,37.23177450833334,137.02432909733335,679578.7680989406,4122504.2420823006
14,[2021-02-22 15:06:46.287] $GNGGA,60632.3,3713.90647142,N,13701.45974621,E,4,9,1.2,91.649,M,36.77,M,1.3,0979*65,37.23177452366666,137.0243291035,679578.768609662,4122504.2437953292
15,[2021-02-22 15:06:46.287] $GNGGA,60632.4,3713.90647051,N,13701.45974479,E,4,9,1.2,91.648,M,36.77,M,1.4,0979*68,37.231774508499996,137.02432907983334,679578.766545939,4122504.242067588
16,[2021-02-22 15:06:46.287] $GNGGA,60632.5,3713.90646847,N,13701.45974545,E,4,9,1.2,91.65899999999999,M,36.77,M,1.5,0979*68,37.23177447450001,137.02432909083333,679578.7676025386,4122504.2383159446
17,[2021-02-22 15:06:46.287] $GNGGA,60632.6,3713.90646972,N,13701.45974648,E,4,9,1.2,91.65100000000001,M,36.77,M,1.6,0979*69,37.23177449533333,137.02432910800002,679578.7690761372,4122504.240660106
18,[2021-02-22 15:06:46.287] $GNGGA,60632.7,3713.906472,N,13701.45974505,E,4,9,1.2,91.648,M,36.77,M,1.7,0979*64,37.231774533333336,137.02432908416665,679578.7668714649,4122504.244831226
19,[2021-02-22 15:06:46.287] $GNGGA,60632.8,3713.90647332,N,13701.45974513,E,4,9,1.2,91.648,M,36.77,M,1.8,0979*63,37.23177455533334,137.0243290855,679578.7669375555,4122504.247274795
20,[2021-02-22 15:06:46.287] $GNGGA,60632.9,3713.90646957,N,13701.45974705,E,4,9,1.2,91.656,M,36.77,M,1.9,0979*61,37.23177449283333,137.0243291175,679578.7699249105,4122504.240400741
21,[2021-02-22 15:06:46.287] $GNGGA,60633.0,3713.90647433,N,13701.45974474,E,4,9,1.2,91.645,M,36.77,M,2.0,0979*6A,37.231774572166664,137.02432907899995,679578.7663209272,4122504.2491302253
22,[2021-02-22 15:06:46.287] $GNGGA,60633.1,3713.90647303,N,13701.4597467,E,4,9,1.2,91.648,M,36.77,M,2.1,0979*65,37.2317745505,137.0243291116667,679578.7692705407,4122504.2467881525
23,[2021-02-22 15:06:46.287] $GNGGA,60633.2,3713.90647488,N,13701.45974437,E,4,9,1.2,91.66,M,36.77,M,1.2,0979*69,37.23177458133334,137.02432907283335,679578.7657520723,4122504.2501356266
24,[2021-02-22 15:06:46.303] $GNGGA,60633.3,3713.90647667,N,13701.45974447,E,4,9,1.2,91.661,M,36.77,M,1.3,0979*6C,37.23177461116666,137.0243290745,679578.7658291479,4122504.253448983
25,[2021-02-22 15:06:46.303] $GNGGA,60633.4,3713.90647579,N,13701.45974556,E,4,9,1.2,91.666,M,36.77,M,1.4,0979*66,37.2317745965,137.02432909266665,679578.7674756991,4122504.251856093
26,[2021-02-22 15:06:46.303] $GNGGA,60633.5,3713.90647654,N,13701.45974504,E,4,9,1.2,91.665,M,36.77,M,1.5,0979*6E,37.231774609,137.02432908400002,679578.7666771323,4122504.253226604
27,[2021-02-22 15:06:46.303] $GNGGA,60633.6,3713.90647929,N,13701.45974611,E,4,9,1.2,91.66,M,36.77,M,1.6,0979*69,37.23177465483334,137.02432910183336,679578.7681505536,4122504.2583459388
28,[2021-02-22 15:06:46.303] $GNGGA,60633.7,3713.90648091,N,13701.45974557,E,4,9,1.2,91.665,M,36.77,M,1.7,0979*68,37.23177468183333,137.02432909283334,679578.7672880009,4122504.2613246823
29,[2021-02-22 15:06:46.303] $GNGGA,60633.8,3713.90648017,N,13701.45974531,E,4,9,1.2,91.65899999999999,M,36.77,M,1.8,0979*69,37.231774669500005,137.02432908850002,679578.7669328138,4122504.2599480003
30,[2021-02-22 15:06:46.303] $GNGGA,60633.9,3713.90647933,N,13701.4597492,E,4,9,1.2,91.654,M,36.77,M,0.9,0979*69,37.231774655500004,137.02432915333335,679578.772718064,4122504.258517622
31,[2021-02-22 15:06:46.303] $GNGGA,60634.0,3713.90647935,N,13701.45974938,E,4,9,1.2,91.65799999999999,M,36.77,M,1.0,0979*6C,37.23177465583334,137.0243291563333,679578.7729834272,4122504.2585603013
32,[2021-02-22 15:06:46.303] $GNGGA,60634.1,3713.90647941,N,13701.4597497,E,4,9,1.2,91.65799999999999,M,36.77,M,1.1,0979*63,37.23177465683334,137.02432916166663,679578.7734542288,4122504.258681375
33,[2021-02-22 15:06:46.303] $GNGGA,60634.2,3713.90647865,N,13701.45974906,E,4,9,1.2,91.65700000000001,M,36.77,M,1.2,0979*6A,37.23177464416667,137.02432915100002,679578.7725379409,4122504.2572556906
34,[2021-02-22 15:06:46.303] $GNGGA,60634.3,3713.90647996,N,13701.45974896,E,4,9,1.2,91.65299999999999,M,36.77,M,1.3,0979*6B,37.231774666,137.0243291493333,679578.7723382639,4122504.259675074
35,[2021-02-22 15:06:46.318] $GNGGA,60634.4,3713.90647932,N,13701.45974815,E,4,9,1.2,91.656,M,36.77,M,1.4,0979*6B,37.23177465533333,137.02432913583334,679578.7711658534,4122504.2584659266
36,[2021-02-22 15:06:46.318] $GNGGA,60634.5,3713.90647861,N,13701.45974836,E,4,9,1.2,91.65899999999999,M,36.77,M,1.5,0979*62,37.2317746435,137.02432913933333,679578.771504452,4122504.2571595847
37,[2021-02-22 15:06:46.318] $GNGGA,60634.6,3713.90647901,N,13701.45974714,E,4,9,1.2,91.65899999999999,M,36.77,M,1.6,0979*6A,37.23177465016667,137.02432911899996,679578.7696846519,4122504.257860713
38,[2021-02-22 15:06:46.318] $GNGGA,60634.7,3713.90647745,N,13701.45974566,E,4,9,1.2,91.65700000000001,M,36.77,M,1.7,0979*6D,37.23177462416667,137.02432909433332,679578.767557918,4122504.254929047
39,[2021-02-22 15:06:46.318] $GNGGA,60634.8,3713.90647846,N,13701.45974764,E,4,9,1.2,91.65899999999999,M,36.77,M,1.8,0979*6F,37.231774641,137.02432912733332,679578.7704457409,4122504.2568594236
40,[2021-02-22 15:06:46.318] $GNGGA,60634.9,3713.90647922,N,13701.45974795,E,4,9,1.2,91.65700000000001,M,36.77,M,1.9,0979*6C,37.23177465366667,137.0243291325,679578.7708740727,4122504.2582746744
41,[2021-02-22 15:06:46.318] $GNGGA,60635.0,3713.9064802,N,13701.45974781,E,4,9,1.2,91.65700000000001,M,36.77,M,2.0,0979*6F,37.23177467,137.02432913016668,679578.770628304,4122504.2600825336
42,[2021-02-22 15:06:46.318] $GNGGA,60635.1,3713.90648041,N,13701.45975,E,4,9,1.2,91.654,M,36.77,M,1.1,0979*67,37.231774673500006,137.0243291666667,679578.7738582871,4122504.2605401357
43,[2021-02-22 15:06:46.318] $GNGGA,60635.2,3713.90648108,N,13701.45974921,E,4,9,1.2,91.667,M,36.77,M,1.2,0979*60,37.23177468466667,137.0243291535,679578.7726636387,4122504.261754165
44,[2021-02-22 15:06:46.318] $GNGGA,60635.3,3713.90648047,N,13701.45974908,E,4,9,1.2,91.656,M,36.77,M,1.3,0979*63,37.231774674499995,137.02432915133335,679578.7724955379,4122504.260621997
45,[2021-02-22 15:06:46.318] $GNGGA,60635.4,3713.90647965,N,13701.4597512,E,4,9,1.2,91.661,M,36.77,M,1.4,0979*62,37.23177466083334,137.02432918666665,679578.7756627453,4122504.2591726365
46,[2021-02-22 15:06:46.318] $GNGGA,60635.5,3713.9064786,N,13701.45975297,E,4,9,1.2,91.65100000000001,M,36.77,M,1.5,0979*6A,37.23177464333333,137.02432921616668,679578.7783215204,4122504.2572868713
47,[2021-02-22 15:06:46.334] $GNGGA,60635.6,3713.90647872,N,13701.45975141,E,4,9,1.2,91.656,M,36.77,M,1.6,0979*66,37.23177464533333,137.0243291901667,679578.7760100515,4122504.2574594514
48,[2021-02-22 15:06:46.334] $GNGGA,60635.7,3713.90647711,N,13701.45974883,E,4,9,1.2,91.656,M,36.77,M,1.7,0979*6A,37.231774618500005,137.0243291471667,679578.7722587531,4122504.2544005397
49,[2021-02-22 15:06:46.334] $GNGGA,60635.8,3713.90647737,N,13701.45974898,E,4,9,1.2,91.65799999999999,M,36.77,M,1.8,0979*6A,37.231774622833335,137.02432914966667,679578.7724702683,4122504.254886092
50,[2021-02-22 15:06:46.334] $GNGGA,60635.9,3713.90647727,N,13701.45974898,E,4,9,1.2,91.655,M,36.77,M,1.9,0979*66,37.23177462116666,137.02432914966667,679578.7724742232,4122504.254701164
51,[2021-02-22 15:06:46.334] $GNGGA,60636.0,3713.90647685,N,13701.45974909,E,4,9,1.2,91.663,M,36.77,M,2.0,0979*63,37.23177461416667,137.0243291515,679578.7726534884,4122504.2539279494
52,[2021-02-22 15:06:46.334] $GNGGA,60636.1,3713.90647506,N,13701.45974935,E,4,9,1.2,91.65100000000001,M,36.77,M,1.1,0979*66,37.23177458433333,137.02432915583333,679578.7731087323,4122504.2506259745
53,[2021-02-22 15:06:46.334] $GNGGA,60636.2,3713.90647549,N,13701.45974908,E,4,9,1.2,91.649,M,36.77,M,1.2,0979*6A,37.2317745915,137.02432915133335,679578.7726924876,4122504.251412623
54,[2021-02-22 15:06:46.334] $GNGGA,60636.3,3713.90647487,N,13701.45974939,E,4,9,1.2,91.65299999999999,M,36.77,M,1.3,0979*60,37.23177458116667,137.0243291565,679578.7731753936,4122504.2502758782
55,[2021-02-22 15:06:46.334] $GNGGA,60636.4,3713.90647332,N,13701.45975114,E,4,9,1.2,91.654,M,36.77,M,1.4,0979*68,37.23177455533334,137.0243291856667,679578.775824368,4122504.247464847
56,[2021-02-22 15:06:46.334] $GNGGA,60636.5,3713.90646967,N,13701.4597487,E,4,9,1.2,91.655,M,36.77,M,1.5,0979*68,37.23177449450001,137.024329145,679578.7723607615,4122504.240637845
57,[2021-02-22 15:06:46.334] $GNGGA,60636.6,3713.90647174,N,13701.45975102,E,4,9,1.2,91.65299999999999,M,36.77,M,1.6,0979*68,37.231774529000006,137.02432918366665,679578.7757094104,4122504.2445392013
58,[2021-02-22 15:06:46.349] $GNGGA,60636.7,3713.90647208,N,13701.45975047,E,4,9,1.2,91.65100000000001,M,36.77,M,1.7,0979*62,37.23177453466667,137.0243291745,679578.7748826977,4122504.2451505624
59,[2021-02-22 15:06:46.349] $GNGGA,60636.8,3713.9064745,N,13701.45975023,E,4,9,1.2,91.65700000000001,M,36.77,M,1.8,0979*6D,37.231774574999996,137.0243291705,679578.7744321108,4122504.2496182094
60,[2021-02-22 15:06:46.349] $GNGGA,60636.9,3713.90647674,N,13701.45974886,E,4,9,1.2,91.65299999999999,M,36.77,M,1.9,0979*6B,37.23177461233333,137.02432914766666,679578.7723177422,4122504.2537172562
61,[2021-02-22 15:06:46.349] $GNGGA,60637.0,3713.90647719,N,13701.45975125,E,4,9,1.2,91.65100000000001,M,36.77,M,1.0,0979*63,37.231774619833324,137.02432918750003,679578.7758339718,4122504.2546250056
62,[2021-02-22 15:06:46.349] $GNGGA,60637.1,3713.90647873,N,13701.45975075,E,4,9,1.2,91.648,M,36.77,M,1.1,0979*6C,37.2317746455,137.0243291791667,679578.7750337322,4122504.2574570747
63,[2021-02-22 15:06:46.349] $GNGGA,60637.2,3713.90647569,N,13701.45975148,E,4,9,1.2,91.65,M,36.77,M,1.2,0979*6C,37.23177459483334,137.02432919133335,679578.776233388,4122504.251858373
64,[2021-02-22 15:06:46.349] $GNGGA,60637.3,3713.90647711,N,13701.45975288,E,4,9,1.2,91.65100000000001,M,36.77,M,1.3,0979*6F,37.231774618500005,137.0243292146667,679578.778247369,4122504.2545286105
65,[2021-02-22 15:06:46.349] $GNGGA,60637.4,3713.9064792,N,13701.45975475,E,4,9,1.2,91.647,M,36.77,M,1.4,0979*60,37.23177465333333,137.02432924583331,679578.7809298226,4122504.2584527223
66,[2021-02-22 15:06:46.349] $GNGGA,60637.5,3713.90647747,N,13701.45975127,E,4,9,1.2,91.655,M,36.77,M,1.5,0979*6E,37.231774624500005,137.02432918783333,679578.7758524683,4122504.255143436
67,[2021-02-22 15:06:46.349] $GNGGA,60637.6,3713.90647938,N,13701.45975163,E,4,9,1.2,91.65,M,36.77,M,1.6,0979*6D,37.23177465633333,137.02432919383332,679578.776309253,4122504.258686928
68,[2021-02-22 15:06:46.349] $GNGGA,60637.7,3713.90648431,N,13701.45975212,E,4,9,1.2,91.648,M,36.77,M,1.7,0979*6A,37.2317747385,137.024329202,679578.7768388297,4122504.267819335
69,[2021-02-22 15:06:46.365] $GNGGA,60637.8,3713.90648484,N,13701.45975087,E,4,9,1.2,91.647,M,36.77,M,1.8,0979*65,37.231774747333326,137.02432918116668,679578.774969532,4122504.26875992
70,[2021-02-22 15:06:46.365] $GNGGA,60637.9,3713.90648202,N,13701.45975426,E,4,9,1.2,91.646,M,36.77,M,1.9,0979*63,37.23177470033333,137.02432923766668,679578.7800937522,4122504.2636521733
71,[2021-02-22 15:06:46.365] $GNGGA,60638.0,3713.90648281,N,13701.45975397,E,4,9,1.2,91.646,M,36.77,M,1.0,0979*6A,37.231774713499995,137.02432923283337,679578.7796336955,4122504.265103928
72,[2021-02-22 15:06:46.365] $GNGGA,60638.1,3713.90648123,N,13701.4597531,E,4,9,1.2,91.654,M,36.77,M,1.1,0979*6D,37.23177468716666,137.02432921833332,679578.778409734,4122504.2621545657
73,[2021-02-22 15:06:46.365] $GNGGA,60638.2,3713.90648294,N,13701.45975582,E,4,9,1.2,91.65,M,36.77,M,1.2,0979*6B,37.23177471566667,137.02432926366666,679578.7823640911,4122504.265402836
74,[2021-02-22 15:06:46.365] $GNGGA,60638.3,3713.90648452,N,13701.45975586,E,4,9,1.2,91.647,M,36.77,M,1.3,0979*65,37.231774742000006,137.02432926433335,679578.7823607544,4122504.2683259514
75,[2021-02-22 15:06:46.365] $GNGGA,60638.4,3713.90648352,N,13701.4597563,E,4,9,1.2,91.645,M,36.77,M,1.4,0979*6E,37.23177472533334,137.02432927166666,679578.7830509162,4122504.2664905926
76,[2021-02-22 15:06:46.365] $GNGGA,60638.5,3713.90648602,N,13701.45975601,E,4,9,1.2,91.646,M,36.77,M,1.5,0979*6F,37.231774767000005,137.02432926683332,679578.78252323,4122504.271104602
77,[2021-02-22 15:06:46.365] $GNGGA,60638.6,3713.90648496,N,13701.45975626,E,4,9,1.2,91.645,M,36.77,M,1.6,0979*66,37.231774749333326,137.02432927099997,679578.7829348174,4122504.2691522776
78,[2021-02-22 15:06:46.365] $GNGGA,60638.7,3713.90648505,N,13701.45975735,E,4,9,1.2,91.641,M,36.77,M,1.7,0979*6A,37.23177475083333,137.02432928916667,679578.7845430137,4122504.269353181
79,[2021-02-22 15:06:46.365] $GNGGA,60638.8,3713.90648262,N,13701.45975689,E,4,9,1.2,91.645,M,36.77,M,1.8,0979*6E,37.23177471033333,137.0243292815,679578.7839589252,4122504.2648449037
80,[2021-02-22 15:06:46.381] $GNGGA,60638.9,3713.90648309,N,13701.4597563,E,4,9,1.2,91.647,M,36.77,M,1.9,0979*62,37.231774718166676,137.02432927166666,679578.7830679219,4122504.265695405
81,[2021-02-22 15:06:46.381] $GNGGA,60639.0,3713.90648217,N,13701.45975572,E,4,9,1.2,91.635,M,36.77,M,1.0,0979*6D,37.23177470283333,137.024329262,679578.782246679,4122504.2639757334
82,[2021-02-22 15:06:46.381] $GNGGA,60639.1,3713.90648159,N,13701.45975505,E,4,9,1.2,91.641,M,36.77,M,1.1,0979*67,37.23177469316666,137.02432925083335,679578.781278907,4122504.262881969
83,[2021-02-22 15:06:46.381] $GNGGA,60639.2,3713.9064813,N,13701.4597558,E,4,9,1.2,91.64399999999999,M,36.77,M,1.2,0979*60,37.23177468833333,137.02432926333333,679578.7823993777,4122504.2623693976
84,[2021-02-22 15:06:46.381] $GNGGA,60639.3,3713.90648323,N,13701.45975414,E,4,9,1.2,91.635,M,36.77,M,1.3,0979*6A,37.2317747205,137.02432923566667,679578.7798684577,4122504.265885998
85,[2021-02-22 15:06:46.381] $GNGGA,60639.4,3713.90648327,N,13701.45975454,E,4,9,1.2,91.634,M,36.77,M,1.4,0979*6B,37.231774721166666,137.02432924233332,679578.7804583423,4122504.265972618
86,[2021-02-22 15:06:46.381] $GNGGA,60639.5,3713.90648396,N,13701.45975428,E,4,9,1.2,91.64200000000001,M,36.77,M,1.5,0979*6B,37.23177473266667,137.024329238,679578.7800466013,4122504.267240394
87,[2021-02-22 15:06:46.381] $GNGGA,60639.6,3713.90648583,N,13701.45975581,E,4,9,1.2,91.641,M,36.77,M,1.6,0979*68,37.23177476383333,137.02432926350002,679578.7822350131,4122504.2707469137
88,[2021-02-22 15:06:46.381] $GNGGA,60639.7,3713.90648342,N,13701.45975498,E,4,9,1.2,91.641,M,36.77,M,1.7,0979*6A,37.23177472366667,137.02432924966664,679578.7811030236,4122504.266263924
89,[2021-02-22 15:06:46.381] $GNGGA,60639.8,3713.90648674,N,13701.45975866,E,4,9,1.2,91.635,M,36.77,M,1.8,0979*64,37.231774779000006,137.02432931099997,679578.7864132316,4122504.272519877
90,[2021-02-22 15:06:46.381] $GNGGA,60639.9,3713.90648811,N,13701.45975996,E,4,9,1.2,91.634,M,36.77,M,1.9,0979*66,37.23177480183333,137.02432933266667,679578.7882813257,4122504.275094489
91,[2021-02-22 15:06:46.381] $GNGGA,60640.0,3713.90648563,N,13701.4597581,E,4,9,1.2,91.635,M,36.77,M,2.0,0979*6D,37.2317747605,137.02432930166668,679578.7856290776,4122504.2704494772
92,[2021-02-22 15:06:46.381] $GNGGA,60640.1,3713.90648651,N,13701.45975992,E,4,9,1.2,91.63799999999999,M,36.77,M,2.1,0979*69,37.23177477516666,137.02432933200004,679578.788285458,4122504.2721343883
93,[2021-02-22 15:06:46.381] $GNGGA,60640.2,3713.90648677,N,13701.45975509,E,4,9,1.2,91.641,M,36.77,M,1.2,0979*6E,37.2317747795,137.02432925149998,679578.7811331924,4122504.2724624625
94,[2021-02-22 15:06:46.381] $GNGGA,60640.3,3713.90648569,N,13701.45975436,E,4,9,1.2,91.65100000000001,M,36.77,M,1.3,0979*6E,37.2317747615,137.02432923933333,679578.7800964749,4122504.2704421645
95,[2021-02-22 15:06:46.381] $GNGGA,60640.4,3713.90648801,N,13701.45975454,E,4,9,1.2,91.646,M,36.77,M,,,37.23177480016667,137.02432924233332,679578.780270884,4122504.274738167
96,[2021-02-22 15:06:46.381] $GNGGA,60645.9,3713.9064938,N,13701.45976278,E,4,9,1.2,91.647,M,36.77,M,1.9,0979*63,37.23177489666667,137.02432937966665,679578.7922261456,4122504.2857060223
97,[2021-02-22 15:06:46.428] $GNGGA,60646.0,3713.90649193,N,13701.45975876,E,4,9,1.2,91.65299999999999,M,36.77,M,1.0,0979*62,37.23177486549999,137.02432931266668,679578.786355848,4122504.2821207605
98,[2021-02-22 15:06:46.521] $GNGGA,60646.1,3713.90649229,N,13701.45975731,E,4,9,1.2,91.65,M,36.77,M,1.1,0979*6F,37.23177487150001,137.02432928849998,679578.7841975357,4122504.2827406465
99,[2021-02-22 15:06:46.631] $GNGGA,60646.2,3713.90649157,N,13701.45975795,E,4,9,1.2,91.65100000000001,M,36.77,M,1.2,0979*6A,37.23177485950001,137.02432929916665,679578.7851723593,4122504.28142941
100,[2021-02-22 15:06:46.724] $GNGGA,60646.3,3713.90649255,N,13701.45975852,E,4,9,1.2,91.65700000000001,M,36.77,M,1.3,0979*69,37.23177487583334,137.0243293086667,679578.7859764477,4122504.283259722
101,[2021-02-22 15:06:46.834] $GNGGA,60646.4,3713.90649029,N,13701.45975647,E,4,9,1.2,91.652,M,36.77,M,1.4,0979*6F,37.23177483816667,137.02432927450002,679578.783034552,4122504.279015539
102,[2021-02-22 15:06:46.928] $GNGGA,60646.5,3713.90649152,N,13701.45975738,E,4,9,1.2,91.65700000000001,M,36.77,M,1.5,0979*6E,37.23177485866667,137.02432928966664,679578.7843314935,4122504.2813189197
103,[2021-02-22 15:06:47.021] $GNGGA,60646.6,3713.90649161,N,13701.45975853,E,4,9,1.2,91.647,M,36.77,M,1.6,0979*6D,37.231774860166674,137.02432930883336,679578.7860284091,4122504.2815217217
104,[2021-02-22 15:06:47.115] $GNGGA,60646.7,3713.90649088,N,13701.45975759,E,4,9,1.2,91.65100000000001,M,36.77,M,1.7,0979*69,37.231774848,137.0243292931667,679578.7846673282,4122504.280142027
105,[2021-02-22 15:06:47.224] $GNGGA,60646.8,3713.90649097,N,13701.45975576,E,4,9,1.2,91.652,M,36.77,M,1.8,0979*6B,37.231774849500006,137.02432926266664,679578.7819577977,4122504.2802505936
106,[2021-02-22 15:06:47.318] $GNGGA,60646.9,3713.90648991,N,13701.45975625,E,4,9,1.2,91.649,M,36.77,M,0.9,0979*6B,37.231774831833334,137.02432927083333,679578.7827242701,4122504.2783058593
107,[2021-02-22 15:06:47.428] $GNGGA,60647.0,3713.90649091,N,13701.45975646,E,4,9,1.2,91.648,M,36.77,M,1.0,0979*67,37.2317748485,137.02432927433333,679578.7829952415,4122504.280161772
108,[2021-02-22 15:06:47.521] $GNGGA,60647.1,3713.90649119,N,13701.45975696,E,4,9,1.2,91.65100000000001,M,36.77,M,1.1,0979*63,37.23177485316667,137.02432928266666,679578.7837235034,4122504.280695378
109,[2021-02-22 15:06:47.631] $GNGGA,60647.2,3713.90649063,N,13701.4597571,E,4,9,1.2,91.655,M,36.77,M,1.2,0979*64,37.231774843833335,137.024329285,679578.7839526662,4122504.279664214
110,[2021-02-22 15:06:47.724] $GNGGA,60647.3,3713.90649193,N,13701.45975713,E,4,9,1.2,91.652,M,36.77,M,1.3,0979*6E,37.23177486549999,137.0243292855,679578.7839456123,4122504.2820692156
111,[2021-02-22 15:06:47.834] $GNGGA,60647.4,3713.90649118,N,13701.45975864,E,4,9,1.2,91.654,M,36.77,M,1.4,0979*64,37.231774853,137.02432931066664,679578.7862080656,4122504.280730012
112,[2021-02-22 15:06:47.927] $GNGGA,60647.5,3713.90649051,N,13701.45976131,E,4,9,1.2,91.65100000000001,M,36.77,M,1.5,0979*67,37.231774841833335,137.02432935516666,679578.790182614,4122504.2795754327
113,[2021-02-22 15:06:48.021] $GNGGA,60647.6,3713.90648868,N,13701.45976121,E,4,9,1.2,91.652,M,36.77,M,1.6,0979*66,37.23177481133333,137.0243293535,679578.7901071227,4122504.2761881026
114,[2021-02-22 15:06:48.115] $GNGGA,60647.7,3713.90649044,N,13701.45976012,E,4,9,1.2,91.65899999999999,M,36.77,M,1.7,0979*6B,37.23177484066667,137.02432933533333,679578.7884257647,4122504.2794083524
115,[2021-02-22 15:06:48.224] $GNGGA,60647.8,3713.90649085,N,13701.45976005,E,4,9,1.2,91.652,M,36.77,M,1.8,0979*6B,37.23177484749999,137.02432933416665,679578.788306042,4122504.2801643396
116,[2021-02-22 15:06:48.318] $GNGGA,60647.9,3713.90648814,N,13701.45975978,E,4,9,1.2,91.656,M,36.77,M,1.9,0979*6E,37.23177480233334,137.02432932966664,679578.7880139763,4122504.275144276
117,[2021-02-22 15:06:48.427] $GNGGA,60648.0,3713.90648883,N,13701.45975856,E,4,9,1.2,91.65299999999999,M,36.77,M,2.0,0979*64,37.23177481383333,137.02432930933332,679578.7861827117,4122504.276381693
118,[2021-02-22 15:06:48.521] $GNGGA,60648.1,3713.90649048,N,13701.4597597,E,4,9,1.2,91.65,M,36.77,M,2.1,0979*6C,37.231774841333326,137.02432932833335,679578.7878031438,4122504.27946904
119,[2021-02-22 15:06:48.631] $GNGGA,60648.2,3713.90649326,N,13701.45976065,E,4,9,1.2,91.646,M,36.77,M,1.2,0979*6D,37.23177488766667,137.02432934416666,679578.7890979351,4122504.284640059
120,[2021-02-22 15:06:48.724] $GNGGA,60648.3,3713.90649378,N,13701.45976365,E,4,9,1.2,91.639,M,36.77,M,1.3,0979*6D,37.231774896333334,137.0243293941667,679578.7935133843,4122504.2856965484
121,[2021-02-22 15:06:48.834] $GNGGA,60648.4,3713.90649564,N,13701.45976456,E,4,9,1.2,91.64299999999999,M,36.77,M,1.4,0979*6C,37.23177492733333,137.02432940933338,679578.7947854172,4122504.2891649706
122,[2021-02-22 15:06:48.927] $GNGGA,60648.5,3713.90649436,N,13701.45976554,E,4,9,1.2,91.64299999999999,M,36.77,M,1.5,0979*69,37.231774906000005,137.02432942566665,679578.7962851302,4122504.286828893
123,[2021-02-22 15:06:49.037] $GNGGA,60648.6,3713.90649105,N,13701.45976852,E,4,9,1.2,91.648,M,36.77,M,1.6,0979*6C,37.23177485083334,137.02432947533336,679578.8008224764,4122504.280802038
124,[2021-02-22 15:06:49.115] $GNGGA,60648.7,3713.90649265,N,13701.45976827,E,4,9,1.2,91.635,M,36.77,M,1.7,0979*61,37.231774877499994,137.02432947116668,679578.8003895306,4122504.283752966
125,[2021-02-22 15:06:49.224] $GNGGA,60648.8,3713.90649315,N,13701.45977019,E,4,9,1.2,91.637,M,36.77,M,1.8,0979*61,37.23177488583334,137.02432950316668,679578.8032088059,4122504.2847383195
126,[2021-02-22 15:06:49.318] $GNGGA,60648.9,3713.90649445,N,13701.45976921,E,4,9,1.2,91.639,M,36.77,M,1.9,0979*6E,37.2317749075,137.0243294868333,679578.8017082905,4122504.287111382
127,[2021-02-22 15:06:49.427] $GNGGA,60649.0,3713.90649734,N,13701.45977084,E,4,9,1.2,91.62799999999999,M,36.77,M,1.0,0979*6D,37.23177495566666,137.02432951400002,679578.8040042343,4122504.292507321
128,[2021-02-22 15:06:49.521] $GNGGA,60649.1,3713.90649546,N,13701.4597709,E,4,9,1.2,91.62700000000001,M,36.77,M,1.1,0979*60,37.23177492433334,137.02432951500003,679578.8041673065,4122504.2890325882
129,[2021-02-22 15:06:49.630] $GNGGA,60649.2,3713.9064965,N,13701.45977329,E,4,9,1.2,91.62899999999999,M,36.77,M,1.2,0979*6B,37.23177494166666,137.02432955483334,679578.8076601981,4122504.291031408
130,[2021-02-22 15:06:49.724] $GNGGA,60649.3,3713.90649618,N,13701.45977047,E,4,9,1.2,91.626,M,36.77,M,1.3,0979*63,37.23177493633334,137.02432950783336,679578.8035030023,4122504.290350467
131,[2021-02-22 15:06:49.834] $GNGGA,60649.4,3713.90649219,N,13701.45977214,E,4,9,1.2,91.624,M,36.77,M,1.4,0979*60,37.23177486983334,137.02432953566668,679578.8061301778,4122504.283024682
132,[2021-02-22 15:06:49.927] $GNGGA,60649.5,3713.90649473,N,13701.4597712,E,4,9,1.2,91.633,M,36.77,M,1.5,0979*68,37.231774912166664,137.02432951999998,679578.804639772,4122504.287692107
133,[2021-02-22 15:06:50.037] $GNGGA,60649.6,3713.90649507,N,13701.45977221,E,4,9,1.2,91.625,M,36.77,M,1.6,0979*6F,37.23177491783333,137.02432953683333,679578.8061197848,4122504.288352797
134,[2021-02-22 15:06:50.115] $GNGGA,60649.7,3713.9064935,N,13701.45977199,E,4,9,1.2,91.62700000000001,M,36.77,M,1.7,0979*69,37.23177489166667,137.02432953316665,679578.8058565673,4122504.285442484
135,[2021-02-22 15:06:50.224] $GNGGA,60649.8,3713.9064937,N,13701.45976929,E,4,9,1.2,91.63,M,36.77,M,1.8,0979*6F,37.231774895,137.02432948816667,679578.801856248,4122504.285726956
136,[2021-02-22 15:06:50.318] $GNGGA,60649.9,3713.90649335,N,13701.45976978,E,4,9,1.2,91.62700000000001,M,36.77,M,1.9,0979*6C,37.23177488916667,137.02432949633337,679578.8025946412,4122504.285095208
137,[2021-02-22 15:06:50.427] $GNGGA,60650.0,3713.90649055,N,13701.45976858,E,4,9,1.2,91.632,M,36.77,M,1.0,0979*66,37.2317748425,137.02432947633332,679578.8009309677,4122504.279879299
138,[2021-02-22 15:06:50.521] $GNGGA,60650.1,3713.90648968,N,13701.45976945,E,4,9,1.2,91.63,M,36.77,M,1.1,0979*6F,37.231774828,137.02432949083334,679578.8022518201,4122504.2782979435
139,[2021-02-22 15:06:50.630] $GNGGA,60650.2,3713.90649008,N,13701.45976977,E,4,9,1.2,91.63,M,36.77,M,1.2,0979*60,37.231774834666666,137.02432949616667,679578.8027091753,4122504.279047771
140,[2021-02-22 15:06:50.724] $GNGGA,60650.3,3713.9064902,N,13701.4597707,E,4,9,1.2,91.62299999999999,M,36.77,M,1.3,0979*67,37.231774836666666,137.02432951166668,679578.8040795944,4122504.279299094
141,[2021-02-22 15:06:50.833] $GNGGA,60650.4,3713.90649029,N,13701.45976741,E,4,9,1.2,91.62100000000001,M,36.77,M,1.4,0979*68,37.23177483816667,137.02432945683333,679578.7992112073,4122504.27936149
142,[2021-02-22 15:06:50.927] $GNGGA,60650.5,3713.90649322,N,13701.45976974,E,4,9,1.2,91.631,M,36.77,M,1.5,0979*69,37.231774887,137.02432949566668,679578.8025406332,4122504.2848535366
143,[2021-02-22 15:06:51.021] $GNGGA,60650.6,3713.90649084,N,13701.45976827,E,4,9,1.2,91.62899999999999,M,36.77,M,1.6,0979*68,37.231774847333334,137.02432947116668,679578.8004611128,4122504.280405786
144,[2021-02-22 15:06:51.115] $GNGGA,60650.7,3713.90649278,N,13701.45976932,E,4,9,1.2,91.62899999999999,M,36.77,M,1.7,0979*6C,37.231774879666666,137.02432948866664,679578.801936991,4122504.2840265753
145,[2021-02-22 15:06:51.224] $GNGGA,60650.8,3713.90649147,N,13701.45977065,E,4,9,1.2,91.625,M,36.77,M,1.8,0979*65,37.23177485783334,137.02432951083335,679578.803955435,4122504.281646088
146,[2021-02-22 15:06:51.318] $GNGGA,60650.9,3713.90649261,N,13701.45976844,E,4,9,1.2,91.626,M,36.77,M,1.9,0979*6B,37.23177487683333,137.024329474,679578.8006424871,4122504.283684371
147,[2021-02-22 15:06:51.427] $GNGGA,60651.0,3713.90649187,N,13701.45977038,E,4,9,1.2,91.63,M,36.77,M,2.0,0979*67,37.231774864500004,137.0243295063333,679578.8035403676,4122504.2823772593
148,[2021-02-22 15:06:51.521] $GNGGA,60651.1,3713.90649329,N,13701.45976775,E,4,9,1.2,91.62700000000001,M,36.77,M,1.1,0979*6B,37.23177488816666,137.02432946250002,679578.799595312,4122504.2849200573
149,[2021-02-22 15:06:51.630] $GNGGA,60651.2,3713.90649678,N,13701.4597669,E,4,9,1.2,91.62700000000001,M,36.77,M,1.2,0979*60,37.23177494633334,137.0243294483333,679578.7982004137,4122504.2913471377
150,[2021-02-22 15:06:51.724] $GNGGA,60651.3,3713.90649542,N,13701.4597687,E,4,9,1.2,91.62899999999999,M,36.77,M,1.3,0979*64,37.231774923666656,137.02432947833333,679578.8009158096,4122504.288889047
151,[2021-02-22 15:06:51.833] $GNGGA,60651.4,3713.90649593,N,13701.45976777,E,4,9,1.2,91.626,M,36.77,M,1.4,0979*6F,37.231774932166665,137.02432946283335,679578.7995204773,4122504.2898027673
152,[2021-02-22 15:06:51.927] $GNGGA,60651.5,3713.90649501,N,13701.45976903,E,4,9,1.2,91.62,M,36.77,M,1.5,0979*6F,37.23177491683333,137.02432948383336,679578.8014199873,4122504.2881412813
153,[2021-02-22 15:06:52.021] $GNGGA,60651.6,3713.90649644,N,13701.4597694,E,4,9,1.2,91.625,M,36.77,M,1.6,0979*6F,37.23177494066667,137.02432949,679578.8019105411,4122504.2907974417
154,[2021-02-22 15:06:52.115] $GNGGA,60651.7,3713.90649375,N,13701.45976936,E,4,9,1.2,91.62299999999999,M,36.77,M,1.7,0979*6F,37.23177489583334,137.02432948933333,679578.8019577763,4122504.2858216353
155,[2021-02-22 15:06:52.224] $GNGGA,60651.8,3713.90649618,N,13701.45977041,E,4,9,1.2,91.626,M,36.77,M,1.8,0979*6C,37.23177493633334,137.02432950683334,679578.8034142805,4122504.2903485694
156,[2021-02-22 15:06:52.318] $GNGGA,60651.9,3713.90649622,N,13701.45977078,E,4,9,1.2,91.62899999999999,M,36.77,M,1.9,0979*60,37.231774937000004,137.024329513,679578.8039598064,4122504.2904342413
157,[2021-02-22 15:06:52.443] $GNGGA,60652.0,3713.90649596,N,13701.45977102,E,4,9,1.2,91.626,M,36.77,M,2.0,0979*6F,37.23177493266667,137.024329517,679578.8043249715,4122504.28996102
158,[2021-02-22 15:06:52.505] $GNGGA,60652.1,3713.90649768,N,13701.45977136,E,4,9,1.2,91.633,M,36.77,M,1.1,0979*6C,37.231774961333336,137.02432952266665,679578.8047596933,4122504.2931525195
159,[2021-02-22 15:06:52.630] $GNGGA,60652.2,3713.90649661,N,13701.4597712,E,4,9,1.2,91.62899999999999,M,36.77,M,1.2,0979*68,37.2317749435,137.02432951999998,679578.8045654215,4122504.2911687377
160,[2021-02-22 15:06:52.724] $GNGGA,60652.3,3713.90649957,N,13701.45977298,E,4,9,1.2,91.62899999999999,M,36.77,M,1.3,0979*62,37.23177499283334,137.0243295496667,679578.8070803991,4122504.2966988725
161,[2021-02-22 15:06:52.833] $GNGGA,60652.4,3713.90649742,N,13701.45977253,E,4,9,1.2,91.631,M,36.77,M,1.4,0979*66,37.231774957000006,137.02432954216664,679578.8065000189,4122504.2927087075
162,[2021-02-22 15:06:52.927] $GNGGA,60652.5,3713.90649622,N,13701.45977334,E,4,9,1.2,91.632,M,36.77,M,1.5,0979*62,37.231774937000004,137.02432955566667,679578.8077452026,4122504.2905151946
163,[2021-02-22 15:06:53.021] $GNGGA,60652.6,3713.90649739,N,13701.45977405,E,4,9,1.2,91.631,M,36.77,M,1.6,0979*6F,37.2317749565,137.0243295675,679578.8087487882,4122504.292701294
164,[2021-02-22 15:06:53.115] $GNGGA,60652.7,3713.90649514,N,13701.45977265,E,4,9,1.2,91.62700000000001,M,36.77,M,1.7,0979*65,37.231774919,137.02432954416668,679578.8067676323,4122504.2884961627
165,[2021-02-22 15:06:53.224] $GNGGA,60652.8,3713.9064978,N,13701.45977412,E,4,9,1.2,91.624,M,36.77,M,1.8,0979*6F,37.231774963333336,137.02432956866664,679578.8088360792,4122504.29346171
166,[2021-02-22 15:06:53.302] $GNGGA,60652.9,3713.90649944,N,13701.45977423,E,4,9,1.2,91.62100000000001,M,36.77,M,1.9,0979*6E,37.23177499066667,137.0243295705,679578.8089338731,4122504.296497994
167,[2021-02-22 15:06:53.427] $GNGGA,60653.0,3713.90650161,N,13701.45977035,E,4,9,1.2,91.62799999999999,M,36.77,M,1.0,0979*62,37.23177502683333,137.02432950583335,679578.8031108147,4122504.3003882184
168,[2021-02-22 15:06:53.521] $GNGGA,60653.1,3713.9065018,N,13701.45977024,E,4,9,1.2,91.633,M,36.77,M,1.1,0979*67,37.23177503000001,137.024329504,679578.8029406453,4122504.300736103
169,[2021-02-22 15:06:53.630] $GNGGA,60653.2,3713.90649894,N,13701.45977023,E,4,9,1.2,91.633,M,36.77,M,1.2,0979*64,37.23177498233333,137.02432950383331,679578.8030389645,4122504.2954468667
170,[2021-02-22 15:06:53.724] $GNGGA,60653.3,3713.90649998,N,13701.45977275,E,4,9,1.2,91.63,M,36.77,M,1.3,0979*6B,37.23177499966666,137.02432954583335,679578.806724088,4122504.297449799
171,[2021-02-22 15:06:53.833] $GNGGA,60653.4,3713.90649925,N,13701.45977075,E,4,9,1.2,91.625,M,36.77,M,1.4,0979*6B,37.231774987499996,137.0243295125,679578.8037956146,4122504.296036586
172,[2021-02-22 15:06:53.927] $GNGGA,60653.5,3713.9064992,N,13701.45977262,E,4,9,1.2,91.63,M,36.77,M,1.5,0979*6E,37.23177498666667,137.02432954366668,679578.8065627081,4122504.2960032555
173,[2021-02-22 15:06:54.021] $GNGGA,60653.6,3713.90649591,N,13701.45977082,E,4,9,1.2,91.635,M,36.77,M,1.6,0979*61,37.23177493183334,137.02432951366666,679578.8040312112,4122504.2898622323
174,[2021-02-22 15:06:54.115] $GNGGA,60653.7,3713.9064985,N,13701.45977088,E,4,9,1.2,91.62700000000001,M,36.77,M,1.7,0979*68,37.23177497499999,137.02432951466665,679578.8040175011,4122504.2946537426
175,[2021-02-22 15:06:54.224] $GNGGA,60653.8,3713.90649662,N,13701.45976949,E,4,9,1.2,91.62799999999999,M,36.77,M,1.8,0979*6D,37.23177494366666,137.0243294915,679578.8020365007,4122504.2911331546
176,[2021-02-22 15:06:54.318] $GNGGA,60653.9,3713.90649684,N,13701.45976849,E,4,9,1.2,91.62899999999999,M,36.77,M,1.9,0979*65,37.231774947333335,137.02432947483334,679578.8005491317,4122504.2915083733
177,[2021-02-22 15:06:54.427] $GNGGA,60654.0,3713.90649712,N,13701.45977082,E,4,9,1.2,91.626,M,36.77,M,1.0,0979*6D,37.231774952,137.02432951366666,679578.803983358,4122504.2920998507
178,[2021-02-22 15:06:54.521] $GNGGA,60654.1,3713.90649597,N,13701.45977008,E,4,9,1.2,91.63,M,36.77,M,1.1,0979*67,37.23177493283333,137.02432950133334,679578.802934625,4122504.2899497864
179,[2021-02-22 15:06:54.630] $GNGGA,60654.2,3713.90649696,N,13701.45976957,E,4,9,1.2,91.62899999999999,M,36.77,M,1.2,0979*6F,37.231774949333335,137.02432949283332,679578.8021413485,4122504.291764439
180,[2021-02-22 15:06:54.724] $GNGGA,60654.3,3713.9064955,N,13701.45977077,E,4,9,1.2,91.63,M,36.77,M,1.3,0979*64,37.231774925,137.02432951283333,679578.8039734949,4122504.289102448
181,[2021-02-22 15:06:54.833] $GNGGA,60654.4,3713.9064959,N,13701.45977329,E,4,9,1.2,91.62799999999999,M,36.77,M,1.4,0979*69,37.23177493166667,137.02432955483334,679578.8076839269,4122504.2899218462
182,[2021-02-22 15:06:54.927] $GNGGA,60654.5,3713.9064955,N,13701.45977043,E,4,9,1.2,91.63,M,36.77,M,1.5,0979*63,37.231774925,137.02432950716667,679578.8034707457,4122504.289091697
183,[2021-02-22 15:06:55.021] $GNGGA,60654.6,3713.90649366,N,13701.45977315,E,4,9,1.2,91.63600000000001,M,36.77,M,1.6,0979*66,37.231774894333334,137.0243295525,679578.8075654987,4122504.285775049
184,[2021-02-22 15:06:55.114] $GNGGA,60654.7,3713.90649772,N,13701.45977325,E,4,9,1.2,91.631,M,36.77,M,1.7,0979*63,37.231774962,137.02432955416666,679578.8075527999,4122504.293286257
185,[2021-02-22 15:06:55.224] $GNGGA,60654.8,3713.90649789,N,13701.45977265,E,4,9,1.2,91.625,M,36.77,M,1.8,0979*67,37.231774964833335,137.02432954416668,679578.8066588747,4122504.293581659
186,[2021-02-22 15:06:55.318] $GNGGA,60654.9,3713.90649924,N,13701.45977255,E,4,9,1.2,91.63,M,36.77,M,0.9,0979*68,37.23177498733334,137.02432954250003,679578.8064576203,4122504.296075015
187,[2021-02-22 15:06:55.427] $GNGGA,60655.0,3713.90649865,N,13701.4597734,E,4,9,1.2,91.635,M,36.77,M,1.0,0979*6C,37.231774977499995,137.0243295566667,679578.8077378223,4122504.295010822
188,[2021-02-22 15:06:55.521] $GNGGA,60655.1,3713.90649799,N,13701.45977517,E,4,9,1.2,91.62700000000001,M,36.77,M,1.1,0979*67,37.2317749665,137.02432958616666,679578.810381169,4122504.2938462743
189,[2021-02-22 15:06:55.630] $GNGGA,60655.2,3713.90649857,N,13701.45977521,E,4,9,1.2,91.634,M,36.77,M,1.2,0979*6D,37.23177497616667,137.02432958683335,679578.8104173804,4122504.2949201176
190,[2021-02-22 15:06:55.724] $GNGGA,60655.3,3713.90650022,N,13701.45977556,E,4,9,1.2,91.637,M,36.77,M,1.3,0979*6C,37.23177500366666,137.02432959266665,679578.8108696569,4122504.2979824846
191,[2021-02-22 15:06:55.833] $GNGGA,60655.4,3713.90649837,N,13701.45977547,E,4,9,1.2,91.632,M,36.77,M,1.4,0979*6D,37.231774972833335,137.0243295911667,679578.810809745,4122504.294558485
192,[2021-02-22 15:06:55.927] $GNGGA,60655.5,3713.90649889,N,13701.45977458,E,4,9,1.2,91.63,M,36.77,M,1.5,0979*65,37.2317749815,137.02432957633332,679578.8094731598,4122504.295491963
193,[2021-02-22 15:06:56.021] $GNGGA,60655.6,3713.90649985,N,13701.4597735,E,4,9,1.2,91.63600000000001,M,36.77,M,1.6,0979*61,37.2317749975,137.02432955833333,679578.8078382311,4122504.297233111
194,[2021-02-22 15:06:56.114] $GNGGA,60655.7,3713.90649951,N,13701.45977532,E,4,9,1.2,91.631,M,36.77,M,1.7,0979*6D,37.23177499183333,137.0243295886667,679578.8105428603,4122504.2966619115
195,[2021-02-22 15:06:56.224] $GNGGA,60655.8,3713.90649833,N,13701.45977506,E,4,9,1.2,91.624,M,36.77,M,1.8,0979*6B,37.23177497216667,137.02432958433337,679578.8102050743,4122504.294471549
196,[2021-02-22 15:06:56.318] $GNGGA,60655.9,3713.90649887,N,13701.45977495,E,4,9,1.2,91.641,M,36.77,M,0.9,0979*6D,37.231774981166666,137.02432958250003,679578.8100210632,4122504.2954666764
197,[2021-02-22 15:06:56.427] $GNGGA,60656.0,3713.90649737,N,13701.45977277,E,4,9,1.2,91.635,M,36.77,M,1.0,0979*62,37.23177495616667,137.02432954616665,679578.8068568789,4122504.292623833
198,[2021-02-22 15:06:56.521] $GNGGA,60656.1,3713.90650116,N,13701.45977157,E,4,9,1.2,91.64,M,36.77,M,1.1,0979*6C,37.23177501933334,137.02432952616667,679578.8049325875,4122504.2995946268
199,[2021-02-22 15:06:56.630] $GNGGA,60656.2,3713.90649827,N,13701.45977294,E,4,9,1.2,91.639,M,36.77,M,1.2,0979*6D,37.231774971166665,137.02432954899996,679578.8070726579,4122504.294293552
200,[2021-02-22 15:06:56.724] $GNGGA,60656.3,3713.90649844,N,13701.45977431,E,4,9,1.2,91.649,M,36.77,M,1.3,0979*66,37.231774974000004,137.02432957183336,679578.8090917199,4122504.294651252
201,[2021-02-22 15:06:56.833] $GNGGA,60656.4,3713.90649939,N,13701.45977518,E,4,9,1.2,91.63799999999999,M,36.77,M,1.4,0979*61,37.23177498983333,137.0243295863333,679578.8103405855,4122504.296435571
202,[2021-02-22 15:06:56.927] $GNGGA,60656.5,3713.90649951,N,13701.45977152,E,4,9,1.2,91.632,M,36.77,M,1.5,0979*6F,37.23177499183333,137.02432952533334,679578.8049239109,4122504.2965417462
203,[2021-02-22 15:06:57.021] $GNGGA,60656.6,3713.9064966,N,13701.45977339,E,4,9,1.2,91.647,M,36.77,M,1.6,0979*6F,37.231774943333335,137.0243295565,679578.8078041075,4122504.291219499
204,[2021-02-22 15:06:57.130] $GNGGA,60656.7,3713.90649899,N,13701.45977431,E,4,9,1.2,91.641,M,36.77,M,1.7,0979*6E,37.231774983166666,137.02432957183336,679578.8090699685,4122504.295668352
205,[2021-02-22 15:06:57.224] $GNGGA,60656.8,3713.90649889,N,13701.45977446,E,4,9,1.2,91.64299999999999,M,36.77,M,1.8,0979*6D,37.2317749815,137.02432957433334,679578.8092957209,4122504.295488169
206,[2021-02-22 15:06:57.317] $GNGGA,60656.9,3713.90649725,N,13701.45977225,E,4,9,1.2,91.63,M,36.77,M,1.9,0979*63,37.23177495416667,137.02432953750002,679578.8060927191,4122504.2923854752
207,[2021-02-22 15:06:57.427] $GNGGA,60657.0,3713.90649782,N,13701.45977298,E,4,9,1.2,91.64200000000001,M,36.77,M,2.0,0979*6F,37.23177496366666,137.0243295496667,679578.8071496084,4122504.2934626453
208,[2021-02-22 15:06:57.521] $GNGGA,60657.1,3713.90649774,N,13701.45977319,E,4,9,1.2,91.64,M,36.77,M,2.1,0979*6C,37.231774962333326,137.02432955316664,679578.8074632871,4122504.2933213436
209,[2021-02-22 15:06:57.630] $GNGGA,60657.2,3713.90649599,N,13701.45977318,E,4,9,1.2,91.63799999999999,M,36.77,M,1.2,0979*60,37.231774933166676,137.024329553,679578.8075177125,4122504.2900848025
210,[2021-02-22 15:06:57.724] $GNGGA,60657.3,3713.9064953,N,13701.4597737,E,4,9,1.2,91.634,M,36.77,M,1.3,0979*61,37.23177492166667,137.02432956166666,679578.8083139085,4122504.2888252474
211,[2021-02-22 15:06:57.833] $GNGGA,60657.4,3713.90649689,N,13701.45976917,E,4,9,1.2,91.637,M,36.77,M,1.4,0979*69,37.23177494816667,137.02432948616666,679578.8015526482,4122504.29162234
212,[2021-02-22 15:06:57.927] $GNGGA,60657.5,3713.90649635,N,13701.45977261,E,4,9,1.2,91.63799999999999,M,36.77,M,1.5,0979*6A,37.23177493916666,137.0243295435,679578.8066606319,4122504.290732515
213,[2021-02-22 15:06:58.020] $GNGGA,60657.6,3713.90649768,N,13701.45977236,E,4,9,1.2,91.637,M,36.77,M,1.6,0979*6E,37.231774961333336,137.0243295393333,679578.806238364,4122504.293184142
214,[2021-02-22 15:06:58.114] $GNGGA,60657.7,3713.90649825,N,13701.45977165,E,4,9,1.2,91.64200000000001,M,36.77,M,1.7,0979*6F,37.231774970833335,137.0243295275,679578.8051659667,4122504.294215773
215,[2021-02-22 15:06:58.224] $GNGGA,60657.8,3713.90650078,N,13701.45977355,E,4,9,1.2,91.63,M,36.77,M,1.8,0979*63,37.231775013,137.02432955916666,679578.8078753846,4122504.298954514
216,[2021-02-22 15:06:58.317] $GNGGA,60657.9,3713.90650333,N,13701.45977086,E,4,9,1.2,91.635,M,36.77,M,1.9,0979*67,37.2317750555,137.02432951433335,679578.8037969132,4122504.3035850935
217,[2021-02-22 15:06:58.427] $GNGGA,60658.0,3713.9065029,N,13701.45977319,E,4,9,1.2,91.641,M,36.77,M,2.0,0979*65,37.23177504833333,137.02432955316664,679578.8072592188,4122504.3028635867
218,[2021-02-22 15:06:58.520] $GNGGA,60658.1,3713.90650072,N,13701.45977467,E,4,9,1.2,91.639,M,36.77,M,1.1,0979*69,37.23177501200001,137.02432957783333,679578.8095338672,4122504.298878976
219,[2021-02-22 15:06:58.630] $GNGGA,60658.2,3713.90649884,N,13701.45977369,E,4,9,1.2,91.646,M,36.77,M,1.2,0979*61,37.23177498066667,137.02432956149997,679578.8081591194,4122504.2953713546
220,[2021-02-22 15:06:58.724] $GNGGA,60658.3,3713.90649959,N,13701.45977497,E,4,9,1.2,91.646,M,36.77,M,1.3,0979*66,37.23177499316667,137.02432958283336,679578.8100221609,4122504.296798785
221,[2021-02-22 15:06:58.833] $GNGGA,60658.4,3713.90649977,N,13701.4597753,E,4,9,1.2,91.639,M,36.77,M,1.4,0979*6E,37.23177499616667,137.02432958833333,679578.8105030007,4122504.2971420903
222,[2021-02-22 15:06:58.927] $GNGGA,60658.5,3713.90649994,N,13701.45977418,E,4,9,1.2,91.645,M,36.77,M,1.5,0979*63,37.231774998999995,137.02432956966666,679578.8088401679,4122504.297421048
223,[2021-02-22 15:06:59.036] $GNGGA,60658.6,3713.90650141,N,13701.45977564,E,4,9,1.2,91.635,M,36.77,M,1.6,0979*66,37.2317750235,137.02432959400002,679578.8109408933,4122504.300185648
224,[2021-02-22 15:06:59.114] $GNGGA,60658.7,3713.9065018,N,13701.45977036,E,4,9,1.2,91.645,M,36.77,M,1.7,0979*6E,37.23177503000001,137.02432950600002,679578.8031180867,4122504.300739898
225,[2021-02-22 15:06:59.224] $GNGGA,60658.8,3713.90650311,N,13701.45977379,E,4,9,1.2,91.64399999999999,M,36.77,M,1.8,0979*6D,37.231775051833324,137.02432956316667,679578.8081381178,4122504.3032709067
226,[2021-02-22 15:06:59.317] $GNGGA,60658.9,3713.90650287,N,13701.45977265,E,4,9,1.2,91.64299999999999,M,36.77,M,1.9,0979*68,37.23177504783334,137.02432954416668,679578.8064619249,4122504.3027910343
227,[2021-02-22 15:06:59.427] $GNGGA,60659.0,3713.90650141,N,13701.4597702,E,4,9,1.2,91.637,M,36.77,M,1.0,0979*60,37.2317750235,137.02432950333335,679578.8028969242,4122504.300013622
228,[2021-02-22 15:06:59.520] $GNGGA,60659.1,3713.90650187,N,13701.45977017,E,4,9,1.2,91.64399999999999,M,36.77,M,1.1,0979*6A,37.231775031166656,137.02432950283335,679578.8028343712,4122504.300863336
229,[2021-02-22 15:06:59.630] $GNGGA,60659.2,3713.90650243,N,13701.45977122,E,4,9,1.2,91.64200000000001,M,36.77,M,1.2,0979*60,37.23177504049999,137.0243295203333,679578.804364826,4122504.3019321314
230,[2021-02-22 15:06:59.724] $GNGGA,60659.3,3713.90650223,N,13701.45977052,E,4,9,1.2,91.641,M,36.77,M,1.3,0979*63,37.23177503716667,137.02432950866668,679578.8033376692,4122504.3015401443
231,[2021-02-22 15:06:59.833] $GNGGA,60659.4,3713.90650208,N,13701.45977146,E,4,9,1.2,91.64299999999999,M,36.77,M,1.4,0979*6C,37.23177503466666,137.02432952433333,679578.8047335504,4122504.3012924767
232,[2021-02-22 15:06:59.927] $GNGGA,60659.5,3713.90650312,N,13701.45977017,E,4,9,1.2,91.64200000000001,M,36.77,M,1.5,0979*62,37.231775051999996,137.02432950283335,679578.802784936,4122504.3031749264
233,[2021-02-22 15:07:00.036] $GNGGA,60659.6,3713.90650149,N,13701.4597709,E,4,9,1.2,91.635,M,36.77,M,1.6,0979*61,37.23177502483334,137.02432951500003,679578.8039288311,4122504.300183698
234,[2021-02-22 15:07:00.114] $GNGGA,60659.7,3713.90650123,N,13701.45977081,E,4,9,1.2,91.637,M,36.77,M,1.7,0979*6F,37.23177502049999,137.02432951349996,679578.8038060265,4122504.299700039
235,[2021-02-22 15:07:00.224] $GNGGA,60659.8,3713.90650371,N,13701.45977045,E,4,9,1.2,91.637,M,36.77,M,1.8,0979*62,37.231775061833325,137.0243295075,679578.80317563,4122504.304274851
236,[2021-02-22 15:07:00.317] $GNGGA,60659.9,3713.90650268,N,13701.45977034,E,4,9,1.2,91.63799999999999,M,36.77,M,1.9,0979*62,37.23177504466666,137.02432950566666,679578.8030537097,4122504.302366623
237,[2021-02-22 15:07:00.427] $GNGGA,60700.0,3713.90650374,N,13701.4597713,E,4,9,1.2,91.63799999999999,M,36.77,M,2.0,0979*65,37.231775062333334,137.02432952166666,679578.804431312,4122504.3043572097
238,[2021-02-22 15:07:00.520] $GNGGA,60700.1,3713.90650126,N,13701.45976908,E,4,9,1.2,91.63799999999999,M,36.77,M,1.1,0979*61,37.231775021,137.02432948466668,679578.8012467446,4122504.2997008115
239,[2021-02-22 15:07:00.630] $GNGGA,60700.2,3713.90649966,N,13701.45976963,E,4,9,1.2,91.639,M,36.77,M,1.2,0979*69,37.23177499433333,137.02432949383333,679578.8021232903,4122504.2967593693
240,[2021-02-22 15:07:00.723] $GNGGA,60700.3,3713.90650132,N,13701.45976888,E,4,9,1.2,91.639,M,36.77,M,1.3,0979*6C,37.23177502200001,137.02432948133333,679578.8009486361,4122504.2998054456
241,[2021-02-22 15:07:00.833] $GNGGA,60700.4,3713.90650017,N,13701.45977066,E,4,9,1.2,91.639,M,36.77,M,1.4,0979*63,37.23177500283334,137.024329511,679578.8036261499,4122504.2977350713
242,[2021-02-22 15:07:00.927] $GNGGA,60700.5,3713.90649969,N,13701.45977044,E,4,9,1.2,91.63799999999999,M,36.77,M,1.5,0979*6A,37.23177499483334,137.0243295073333,679578.803319823,4122504.296840463
243,[2021-02-22 15:07:01.020] $GNGGA,60700.6,3713.9065002,N,13701.45976941,E,4,9,1.2,91.639,M,36.77,M,1.6,0979*6A,37.23177500333334,137.02432949016665,679578.8017766242,4122504.2977510197
244,[2021-02-22 15:07:01.114] $GNGGA,60700.7,3713.90649767,N,13701.45976872,E,4,9,1.2,91.64,M,36.77,M,1.7,0979*69,37.231774961166664,137.02432947866666,679578.8008563987,4122504.2930505425
245,[2021-02-22 15:07:01.223] $GNGGA,60700.8,3713.90649678,N,13701.45977069,E,4,9,1.2,91.63799999999999,M,36.77,M,1.8,0979*6A,37.23177494633334,137.02432951149999,679578.8038045769,4122504.291466987
246,[2021-02-22 15:07:01.317] $GNGGA,60700.9,3713.90649571,N,13701.45977023,E,4,9,1.2,91.641,M,36.77,M,1.9,0979*60,37.231774928499995,137.02432950383331,679578.8031667052,4122504.289473718
247,[2021-02-22 15:07:01.427] $GNGGA,60701.0,3713.90649717,N,13701.45976395,E,4,9,1.2,91.647,M,36.77,M,1.0,0979*6A,37.231774952833334,137.02432939916667,679578.7938229159,4122504.2919750665
248,[2021-02-22 15:07:01.520] $GNGGA,60701.1,3713.90649608,N,13701.45976307,E,4,9,1.2,91.64399999999999,M,36.77,M,1.1,0979*6D,37.23177493466667,137.0243293845,679578.7925647917,4122504.289931532
249,[2021-02-22 15:07:01.630] $GNGGA,60701.2,3713.90649767,N,13701.45976293,E,4,9,1.2,91.647,M,36.77,M,1.2,0979*6A,37.231774961166664,137.02432938216666,679578.7922948964,4122504.2928674477
250,[2021-02-22 15:07:01.723] $GNGGA,60701.3,3713.90649714,N,13701.45976572,E,4,9,1.2,91.64399999999999,M,36.77,M,1.3,0979*65,37.231774952333325,137.02432942866668,679578.7964413496,4122504.29197556
251,[2021-02-22 15:07:01.833] $GNGGA,60701.4,3713.90649708,N,13701.45976691,E,4,9,1.2,91.648,M,36.77,M,1.4,0979*6A,37.231774951333335,137.0243294485,679578.79820334,4122504.291902235
252,[2021-02-22 15:07:01.926] $GNGGA,60701.5,3713.90649626,N,13701.4597656,E,4,9,1.2,91.646,M,36.77,M,1.5,0979*64,37.23177493766667,137.02432942666667,679578.7962987105,4122504.290344407
253,[2021-02-22 15:07:02.020] $GNGGA,60701.6,3713.90649858,N,13701.45976801,E,4,9,1.2,91.645,M,36.77,M,1.6,0979*6A,37.23177497633333,137.02432946683334,679578.799770555,4122504.2947109267
254,[2021-02-22 15:07:02.114] $GNGGA,60701.7,3713.90649939,N,13701.45976596,E,4,9,1.2,91.64299999999999,M,36.77,M,1.7,0979*69,37.23177498983333,137.0243294326667,679578.7967072487,4122504.2961440105
255,[2021-02-22 15:07:02.223] $GNGGA,60701.8,3713.9065002,N,13701.45976499,E,4,9,1.2,91.641,M,36.77,M,1.8,0979*6C,37.23177500333334,137.0243294165,679578.7952409005,4122504.297611249
256,[2021-02-22 15:07:02.317] $GNGGA,60701.9,3713.906498,N,13701.4597638,E,4,9,1.2,91.646,M,36.77,M,1.9,0979*66,37.23177496666667,137.02432939666667,679578.793568291,4122504.2935052197
257,[2021-02-22 15:07:02.411] $GNGGA,60702.0,3713.90649629,N,13701.45976576,E,4,9,1.2,91.645,M,36.77,M,1.0,0979*6C,37.231774938166666,137.02432942933333,679578.7965341102,4122504.2904049437
258,[2021-02-22 15:07:02.505] $GNGGA,60702.1,3713.90649727,N,13701.45976671,E,4,9,1.2,91.63799999999999,M,36.77,M,1.1,0979*6D,37.2317749545,137.0243294451667,679578.7979000949,4122504.2922472726
259,[2021-02-22 15:07:02.630] $GNGGA,60702.2,3713.90649526,N,13701.45976755,E,4,9,1.2,91.64299999999999,M,36.77,M,1.2,0979*65,37.231774921,137.02432945916667,679578.7992216666,4122504.2885567993
260,[2021-02-22 15:07:02.723] $GNGGA,60702.3,3713.90649611,N,13701.45976661,E,4,9,1.2,91.64200000000001,M,36.77,M,1.3,0979*65,37.23177493516666,137.0243294435,679578.7977980997,4122504.2900989545
261,[2021-02-22 15:07:02.833] $GNGGA,60702.4,3713.90649709,N,13701.4597668,E,4,9,1.2,91.645,M,36.77,M,1.4,0979*65,37.2317749515,137.02432944666666,679578.7980402894,4122504.2919172496
262,[2021-02-22 15:07:02.926] $GNGGA,60702.5,3713.90649595,N,13701.45976667,E,4,9,1.2,91.639,M,36.77,M,1.5,0979*60,37.23177493250001,137.02432944449998,679578.7978931468,4122504.289804969
263,[2021-02-22 15:07:03.036] $GNGGA,60702.6,3713.90649809,N,13701.45976687,E,4,9,1.2,91.639,M,36.77,M,1.6,0979*66,37.23177496816666,137.02432944783337,679578.7981042515,4122504.293768734
264,[2021-02-22 15:07:03.114] $GNGGA,60702.7,3713.9064967,N,13701.45976798,E,4,9,1.2,91.641,M,36.77,M,1.7,0979*66,37.23177494499999,137.02432946633334,679578.799800547,4122504.291233347
265,[2021-02-22 15:07:03.223] $GNGGA,60702.8,3713.90649507,N,13701.45976886,E,4,9,1.2,91.646,M,36.77,M,0.8,0979*63,37.23177491783333,137.02432948100002,679578.801166242,4122504.288246861
266,[2021-02-22 15:07:03.317] $GNGGA,60702.9,3713.90649685,N,13701.45976872,E,4,9,1.2,91.65100000000001,M,36.77,M,0.9,0979*67,37.2317749475,137.02432947866666,679578.8008888281,4122504.291534139
267,[2021-02-22 15:07:03.426] $GNGGA,60703.0,3713.90649561,N,13701.45976767,E,4,9,1.2,91.64,M,36.77,M,1.0,0979*65,37.23177492683333,137.02432946116664,679578.7993852638,4122504.2892078385
268,[2021-02-22 15:07:03.520] $GNGGA,60703.1,3713.90649629,N,13701.45976867,E,4,9,1.2,91.637,M,36.77,M,1.1,0979*65,37.231774938166666,137.02432947783333,679578.8008370417,4122504.290496965
269,[2021-02-22 15:07:03.630] $GNGGA,60703.2,3713.90649402,N,13701.45976697,E,4,9,1.2,91.64200000000001,M,36.77,M,1.2,0979*6D,37.231774900333335,137.02432944950002,679578.798413079,4122504.2862453596
270,[2021-02-22 15:07:03.723] $GNGGA,60703.3,3713.9064946,N,13701.45976645,E,4,9,1.2,91.641,M,36.77,M,1.3,0979*65,37.23177491,137.02432944083333,679578.797621229,4122504.287301494
271,[2021-02-22 15:07:03.833] $GNGGA,60703.4,3713.90649434,N,13701.45977008,E,4,9,1.2,91.64299999999999,M,36.77,M,1.4,0979*68,37.23177490566667,137.02432950133334,679578.8029990884,4122504.2869354743
272,[2021-02-22 15:07:03.926] $GNGGA,60703.5,3713.90649605,N,13701.45977005,E,4,9,1.2,91.641,M,36.77,M,1.5,0979*67,37.231774934166666,137.02432950083332,679578.8028870979,4122504.29009678
273,[2021-02-22 15:07:04.020] $GNGGA,60703.6,3713.90649605,N,13701.45976788,E,4,9,1.2,91.637,M,36.77,M,1.6,0979*65,37.231774934166666,137.02432946466664,679578.7996783821,4122504.2900281586
274,[2021-02-22 15:07:04.114] $GNGGA,60703.7,3713.90649732,N,13701.45977005,E,4,9,1.2,91.639,M,36.77,M,1.7,0979*6D,37.231774955333336,137.02432950083332,679578.8028368717,4122504.292445355
275,[2021-02-22 15:07:04.223] $GNGGA,60703.8,3713.90649854,N,13701.45976965,E,4,9,1.2,91.64,M,36.77,M,1.8,0979*62,37.23177497566666,137.02432949416666,679578.8021971566,4122504.2946888166
276,[2021-02-22 15:07:04.317] $GNGGA,60703.9,3713.90649865,N,13701.45977142,E,4,9,1.2,91.645,M,36.77,M,1.9,0979*69,37.231774977499995,137.0243295236667,679578.8048100558,4122504.2949482095
277,[2021-02-22 15:07:04.426] $GNGGA,60704.0,3713.90649706,N,13701.4597709,E,4,9,1.2,91.646,M,36.77,M,2.0,0979*6A,37.231774951000006,137.02432951500003,679578.8041040294,4122504.2919914243
278,[2021-02-22 15:07:04.520] $GNGGA,60704.1,3713.90649682,N,13701.45977055,E,4,9,1.2,91.64299999999999,M,36.77,M,2.1,0979*6B,37.231774947000005,137.02432950916665,679578.8035959812,4122504.2915365314
279,[2021-02-22 15:07:04.629] $GNGGA,60704.2,3713.9064961,N,13701.45977047,E,4,9,1.2,91.64200000000001,M,36.77,M,1.2,0979*61,37.231774935000004,137.02432950783336,679578.8035061662,4122504.290202524
280,[2021-02-22 15:07:04.723] $GNGGA,60704.3,3713.90649546,N,13701.45977083,E,4,9,1.2,91.641,M,36.77,M,1.3,0979*6A,37.23177492433334,137.02432951383335,679578.8040637985,4122504.289030375
281,[2021-02-22 15:07:04.833] $GNGGA,60704.4,3713.90649491,N,13701.45976831,E,4,9,1.2,91.639,M,36.77,M,1.4,0979*6E,37.231774915166675,137.0243294718333,679578.8003592966,4122504.2879335876
282,[2021-02-22 15:07:04.926] $GNGGA,60704.5,3713.90649277,N,13701.45976672,E,4,9,1.2,91.64,M,36.77,M,1.5,0979*67,37.231774879499994,137.02432944533334,679578.7980928455,4122504.283925864
283,[2021-02-22 15:07:05.020] $GNGGA,60704.6,3713.9064936,N,13701.45976632,E,4,9,1.2,91.64,M,36.77,M,1.6,0979*64,37.23177489333333,137.02432943866665,679578.7974685496,4122504.2854481116
284,[2021-02-22 15:07:05.129] $GNGGA,60704.7,3713.90649541,N,13701.45976788,E,4,9,1.2,91.645,M,36.77,M,1.7,0979*64,37.2317749235,137.02432946466664,679578.799703693,4122504.288844624
285,[2021-02-22 15:07:05.223] $GNGGA,60704.8,3713.90649842,N,13701.4597673,E,4,9,1.2,91.635,M,36.77,M,1.8,0979*6E,37.23177497366666,137.024329455,679578.7987270257,4122504.294392592
286,[2021-02-22 15:07:05.317] $GNGGA,60704.9,3713.90649873,N,13701.45976661,E,4,9,1.2,91.64200000000001,M,36.77,M,1.9,0979*69,37.23177497883333,137.0243294435,679578.7976944834,4122504.294944046
287,[2021-02-22 15:07:05.426] $GNGGA,60705.0,3713.90649902,N,13701.45976311,E,4,9,1.2,91.652,M,36.77,M,1.0,0979*6C,37.23177498366666,137.02432938516668,679578.7925076695,4122504.2953696568
288,[2021-02-22 15:07:05.520] $GNGGA,60705.1,3713.90650296,N,13701.45976115,E,4,9,1.2,91.65299999999999,M,36.77,M,1.1,0979*65,37.23177504933334,137.0243293525,679578.7894536534,4122504.3025938086
289,[2021-02-22 15:07:05.629] $GNGGA,60705.2,3713.90650304,N,13701.45976117,E,4,9,1.2,91.648,M,36.77,M,1.2,0979*67,37.23177505066668,137.02432935283332,679578.7894800619,4122504.3027423844
290,[2021-02-22 15:07:05.723] $GNGGA,60705.3,3713.90650163,N,13701.45976331,E,4,9,1.2,91.65100000000001,M,36.77,M,1.3,0979*6A,37.23177502716667,137.0243293885,679578.7927001821,4122504.3002025816
291,[2021-02-22 15:07:05.832] $GNGGA,60705.4,3713.90650008,N,13701.45976441,E,4,9,1.2,91.652,M,36.77,M,1.4,0979*65,37.23177500133334,137.02432940683335,679578.794388019,4122504.297370995
292,[2021-02-22 15:07:05.926] $GNGGA,60705.5,3713.90649952,N,13701.45976393,E,4,9,1.2,91.65,M,36.77,M,1.5,0979*61,37.231774992000005,137.0243293988333,679578.7937003984,4122504.2963202237
293,[2021-02-22 15:07:06.020] $GNGGA,60705.6,3713.90650124,N,13701.45976214,E,4,9,1.2,91.649,M,36.77,M,1.6,0979*66,37.231775020666674,137.02432936900001,679578.7909855606,4122504.2994443676
294,[2021-02-22 15:07:06.129] $GNGGA,60705.7,3713.9065006,N,13701.45976089,E,4,9,1.2,91.655,M,36.77,M,1.7,0979*6C,37.23177501000001,137.02432934816667,679578.7891625343,4122504.298221305
295,[2021-02-22 15:07:06.223] $GNGGA,60705.8,3713.9064993,N,13701.45976644,E,4,9,1.2,91.652,M,36.77,M,1.8,0979*68,37.23177498833334,137.0243294406667,679578.7974205686,4122504.295992757
296,[2021-02-22 15:07:06.317] $GNGGA,60705.9,3713.90649861,N,13701.4597695,E,4,9,1.2,91.648,M,36.77,M,1.9,0979*6C,37.231774976833336,137.02432949166666,679578.8019725883,4122504.294813524
297,[2021-02-22 15:07:06.426] $GNGGA,60706.0,3713.90649748,N,13701.45976731,E,4,9,1.2,91.649,M,36.77,M,2.0,0979*60,37.231774958,137.02432945516665,679578.7987789871,4122504.2926545935
298,[2021-02-22 15:07:06.520] $GNGGA,60706.1,3713.9064991,N,13701.45976226,E,4,9,1.2,91.65100000000001,M,36.77,M,1.1,0979*6A,37.231774984999994,137.02432937100002,679578.7912476349,4122504.295490719
299,[2021-02-22 15:07:06.629] $GNGGA,60706.2,3713.90649951,N,13701.45975837,E,4,9,1.2,91.65,M,36.77,M,1.2,0979*67,37.23177499183333,137.0243293061667,679578.7854793926,4122504.29612591
300,[2021-02-22 15:07:06.723] $GNGGA,60706.3,3713.90649915,N,13701.4597592,E,4,9,1.2,91.647,M,36.77,M,1.3,0979*66,37.23177498583333,137.02432932,679578.7867209238,4122504.295486417
301,[2021-02-22 15:07:06.832] $GNGGA,60706.4,3713.90650099,N,13701.45975908,E,4,9,1.2,91.647,M,36.77,M,1.4,0979*69,37.2317750165,137.024329318,679578.7864707161,4122504.2988852845
302,[2021-02-22 15:07:06.926] $GNGGA,60706.5,3713.90649921,N,13701.45975859,E,4,9,1.2,91.654,M,36.77,M,1.5,0979*6C,37.23177498683334,137.02432930983332,679578.7858165605,4122504.2955780854
303,[2021-02-22 15:07:07.020] $GNGGA,60706.6,3713.90649656,N,13701.45976258,E,4,9,1.2,91.648,M,36.77,M,1.6,0979*66,37.23177494266667,137.02432937633336,679578.7918212618,4122504.2908036895
304,[2021-02-22 15:07:07.129] $GNGGA,60706.7,3713.90649703,N,13701.4597629,E,4,9,1.2,91.66,M,36.77,M,1.7,0979*69,37.2317749505,137.0243293816667,679578.7922758486,4122504.2916829656
305,[2021-02-22 15:07:07.223] $GNGGA,60706.8,3713.90649276,N,13701.45976541,E,4,9,1.2,91.654,M,36.77,M,1.8,0979*62,37.23177487933334,137.02432942349998,679578.7961561797,4122504.2838659463
306,[2021-02-22 15:07:07.317] $GNGGA,60706.9,3713.90649437,N,13701.45976248,E,4,9,1.2,91.65,M,36.77,M,1.9,0979*6B,37.23177490616666,137.0243293746667,679578.7917600079,4122504.2867506198
307,[2021-02-22 15:07:07.426] $GNGGA,60707.0,3713.906493,N,13701.45976102,E,4,9,1.2,91.647,M,36.77,M,2.0,0979*61,37.23177488333333,137.02432935033332,679578.7896553233,4122504.284170948
308,[2021-02-22 15:07:07.520] $GNGGA,60707.1,3713.90648601,N,13701.45975714,E,4,9,1.2,91.655,M,36.77,M,1.1,0979*66,37.23177476683333,137.02432928566668,679578.7841945258,4122504.271121843
309,[2021-02-22 15:07:07.629] $GNGGA,60707.2,3713.90649079,N,13701.45975648,E,4,9,1.2,91.64299999999999,M,36.77,M,1.2,0979*61,37.2317748465,137.02432927466666,679578.7830295619,4122504.2799404915
310,[2021-02-22 15:07:07.723] $GNGGA,60707.3,3713.90648991,N,13701.45975824,E,4,9,1.2,91.65299999999999,M,36.77,M,1.3,0979*6A,37.231774831833334,137.024329304,679578.7856668252,4122504.2783687883
311,[2021-02-22 15:07:07.832] $GNGGA,60707.4,3713.90648821,N,13701.45975844,E,4,9,1.2,91.65299999999999,M,36.77,M,1.4,0979*66,37.2317748035,137.02432930733335,679578.7860297926,4122504.27523135
312,[2021-02-22 15:07:07.926] $GNGGA,60707.5,3713.90648924,N,13701.45975738,E,4,9,1.2,91.65899999999999,M,36.77,M,1.5,0979*6C,37.231774820666665,137.02432928966664,679578.7844216633,4122504.2771025794
313,[2021-02-22 15:07:08.035] $GNGGA,60707.6,3713.90648983,N,13701.45975581,E,4,9,1.2,91.645,M,36.77,M,1.6,0979*6C,37.2317748305,137.02432926350002,679578.7820768204,4122504.278144001
