,Format,Time,Latitude,LatType,Longitude,LonType,Status,Satellite,LevelAccuracy,Altitude(sea),M(sea),Altitude(geoid),M(geoid),DGPS use,checksum,Lat,Lon,UTM_X,UTM_Y
383,[2021-02-22 15:01:51.698] $GPGGA,60151.3,3713.906666,N,13701.45946,E,4,7.0,1.4,91.561,M,36.77,M,2.3,0000*7F,37.23177776666666,137.02432433333334,679578.3377040689,4122504.5945759877
384,[2021-02-22 15:01:51.807] $GPGGA,60151.4,3713.906666,N,13701.45946,E,4,7.0,1.4,91.56200000000001,M,36.77,M,2.4,0000*71,37.23177776666666,137.02432433333334,679578.3377040689,4122504.5945759877
385,[2021-02-22 15:01:51.901] $GPGGA,60151.5,3713.906667,N,13701.45946,E,4,7.0,1.4,91.561,M,36.77,M,2.5,0000*76,37.23177778333334,137.02432433333334,679578.3376645208,4122504.5964252627
386,[2021-02-22 15:01:52.010] $GPGGA,60151.6,3713.906669,N,13701.45946,E,4,7.0,1.4,91.566,M,36.77,M,2.6,0000*72,37.231777816666664,137.02432433333334,679578.3375854247,4122504.6001238055
387,[2021-02-22 15:01:52.104] $GPGGA,60151.7,3713.906669,N,13701.45946,E,4,7.0,1.4,91.557,M,36.77,M,2.7,0000*77,37.231777816666664,137.02432433333334,679578.3375854247,4122504.6001238055
388,[2021-02-22 15:01:52.213] $GPGGA,60151.8,3713.906665,N,13701.45946,E,4,7.0,1.4,91.565,M,36.77,M,2.8,0000*74,37.23177774999999,137.02432433333334,679578.337743617,4122504.5927267172
389,[2021-02-22 15:01:52.307] $GPGGA,60151.9,3713.906667,N,13701.45946,E,4,7.0,1.4,91.55799999999999,M,36.77,M,2.9,0000*7A,37.23177778333334,137.02432433333334,679578.3376645208,4122504.5964252627
390,[2021-02-22 15:01:52.416] $GPGGA,60152.0,3713.906667,N,13701.45946,E,4,7.0,1.4,91.56299999999999,M,36.77,M,3.0,0000*77,37.23177778333334,137.02432433333334,679578.3376645208,4122504.5964252627
391,[2021-02-22 15:01:52.494] $GPGGA,60152.1,3713.906669,N,13701.45946,E,4,7.0,1.4,91.56200000000001,M,36.77,M,3.1,0000*75,37.231777816666664,137.02432433333334,679578.3375854247,4122504.6001238055
392,[2021-02-22 15:01:52.619] $GPGGA,60152.2,3713.906668,N,13701.45946,E,4,7.0,1.4,91.564,M,36.77,M,3.2,0000*7F,37.231777799999996,137.02432433333334,679578.3376249728,4122504.598274533
393,[2021-02-22 15:01:52.698] $GPGGA,60152.3,3713.906665,N,13701.459469999998,E,4,7.0,1.4,91.56700000000001,M,36.77,M,2.3,0000*76,37.23177774999999,137.02432449999995,679578.3525303182,4122504.5930429418
394,[2021-02-22 15:01:52.807] $GPGGA,60152.4,3713.906664,N,13701.459469999998,E,4,7.0,1.4,91.57799999999999,M,36.77,M,2.4,0000*78,37.23177773333334,137.02432449999995,679578.3525698662,4122504.591193671
395,[2021-02-22 15:01:52.901] $GPGGA,60152.5,3713.906666,N,13701.459469999998,E,4,7.0,1.4,91.568,M,36.77,M,2.5,0000*71,37.23177776666666,137.02432449999995,679578.3524907702,4122504.594892213
396,[2021-02-22 15:01:53.010] $GPGGA,60152.6,3713.906667,N,13701.45946,E,4,7.0,1.4,91.566,M,36.77,M,2.6,0000*7A,37.23177778333334,137.02432433333334,679578.3376645208,4122504.5964252627
397,[2021-02-22 15:01:53.104] $GPGGA,60152.7,3713.906666,N,13701.459469999998,E,4,7.0,1.4,91.579,M,36.77,M,2.7,0000*77,37.23177776666666,137.02432449999995,679578.3524907702,4122504.594892213
398,[2021-02-22 15:01:53.213] $GPGGA,60152.8,3713.906665,N,13701.45946,E,4,7.0,1.4,91.57,M,36.77,M,2.8,0000*7A,37.23177774999999,137.02432433333334,679578.337743617,4122504.5927267172
399,[2021-02-22 15:01:53.307] $GPGGA,60152.9,3713.906665,N,13701.459469999998,E,4,7.0,1.4,91.574,M,36.77,M,2.9,0000*7F,37.23177774999999,137.02432449999995,679578.3525303182,4122504.5930429418
400,[2021-02-22 15:01:53.416] $GPGGA,60153.0,3713.906664,N,13701.459469999998,E,4,7.0,1.4,91.574,M,36.77,M,3.0,0000*72,37.23177773333334,137.02432449999995,679578.3525698662,4122504.591193671
401,[2021-02-22 15:01:53.494] $GPGGA,60153.1,3713.906667,N,13701.459469999998,E,4,7.0,1.4,91.569,M,36.77,M,3.1,0000*71,37.23177778333334,137.02432449999995,679578.3524512221,4122504.5967414877
402,[2021-02-22 15:01:53.604] $GPGGA,60153.2,3713.906666,N,13701.459469999998,E,4,7.0,1.4,91.565,M,36.77,M,3.2,0000*7E,37.23177776666666,137.02432449999995,679578.3524907702,4122504.594892213
403,[2021-02-22 15:01:53.697] $GPGGA,60153.3,3713.906664,N,13701.459469999998,E,4,7.0,1.4,91.59,M,36.77,M,2.3,0000*77,37.23177773333334,137.02432449999995,679578.3525698662,4122504.591193671
404,[2021-02-22 15:01:53.807] $GPGGA,60153.4,3713.906664,N,13701.459469999998,E,4,7.0,1.4,91.584,M,36.77,M,2.4,0000*70,37.23177773333334,137.02432449999995,679578.3525698662,4122504.591193671
405,[2021-02-22 15:01:53.901] $GPGGA,60153.5,3713.906663,N,13701.459469999998,E,4,7.0,1.4,91.584,M,36.77,M,2.5,0000*7A,37.23177771666667,137.02432449999995,679578.3526094144,4122504.589344398
406,[2021-02-22 15:01:54.010] $GPGGA,60153.6,3713.906665,N,13701.459469999998,E,4,7.0,1.4,91.58200000000001,M,36.77,M,2.6,0000*77,37.23177774999999,137.02432449999995,679578.3525303182,4122504.5930429418
407,[2021-02-22 15:01:54.104] $GPGGA,60153.7,3713.906661,N,13701.459469999998,E,4,7.0,1.4,91.589,M,36.77,M,2.7,0000*7D,37.231777683333334,137.02432449999995,679578.3526885104,4122504.585645854
408,[2021-02-22 15:01:54.213] $GPGGA,60153.8,3713.906664,N,13701.459469999998,E,4,7.0,1.4,91.587,M,36.77,M,2.8,0000*76,37.23177773333334,137.02432449999995,679578.3525698662,4122504.591193671
409,[2021-02-22 15:01:54.307] $GPGGA,60153.9,3713.906664,N,13701.459469999998,E,4,7.0,1.4,91.584,M,36.77,M,2.9,0000*7E,37.23177773333334,137.02432449999995,679578.3525698662,4122504.591193671
410,[2021-02-22 15:01:54.416] $GPGGA,60154.0,3713.90666,N,13701.459469999998,E,4,7.0,1.4,91.587,M,36.77,M,3.0,0000*76,37.231777666666666,137.02432449999995,679578.3527280586,4122504.583796582
411,[2021-02-22 15:01:54.494] $GPGGA,60154.1,3713.906662,N,13701.459469999998,E,4,7.0,1.4,91.589,M,36.77,M,3.1,0000*70,37.2317777,137.02432449999995,679578.3526489624,4122504.5874951263
412,[2021-02-22 15:01:54.604] $GPGGA,60154.2,3713.906665,N,13701.459469999998,E,4,7.0,1.4,91.586,M,36.77,M,3.2,0000*7A,37.23177774999999,137.02432449999995,679578.3525303182,4122504.5930429418
413,[2021-02-22 15:01:54.697] $GPGGA,60154.3,3713.906665,N,13701.459469999998,E,4,11.0,0.9,91.61399999999999,M,36.77,M,2.3,0000*7F,37.23177774999999,137.02432449999995,679578.3525303182,4122504.5930429418
414,[2021-02-22 15:01:54.807] $GPGGA,60154.4,3713.906664,N,13701.459469999998,E,4,11.0,0.9,91.60799999999999,M,36.77,M,2.4,0000*70,37.23177773333334,137.02432449999995,679578.3525698662,4122504.591193671
415,[2021-02-22 15:01:54.901] $GPGGA,60154.5,3713.906666,N,13701.459469999998,E,4,11.0,0.9,91.611,M,36.77,M,2.5,0000*7F,37.23177776666666,137.02432449999995,679578.3524907702,4122504.594892213
416,[2021-02-22 15:01:55.010] $GPGGA,60154.6,3713.906664,N,13701.459469999998,E,4,11.0,0.9,91.615,M,36.77,M,2.6,0000*78,37.23177773333334,137.02432449999995,679578.3525698662,4122504.591193671
417,[2021-02-22 15:01:55.104] $GPGGA,60154.7,3713.906666,N,13701.459469999998,E,4,11.0,0.9,91.61,M,36.77,M,2.7,0000*7B,37.23177776666666,137.02432449999995,679578.3524907702,4122504.594892213
418,[2021-02-22 15:01:55.213] $GPGGA,60154.8,3713.906665,N,13701.459469999998,E,4,11.0,0.9,91.619,M,36.77,M,2.8,0000*7C,37.23177774999999,137.02432449999995,679578.3525303182,4122504.5930429418
419,[2021-02-22 15:01:55.307] $GPGGA,60154.9,3713.906666,N,13701.459469999998,E,4,11.0,0.9,91.61,M,36.77,M,2.9,0000*79,37.23177776666666,137.02432449999995,679578.3524907702,4122504.594892213
420,[2021-02-22 15:01:55.416] $GPGGA,60155.0,3713.906666,N,13701.459469999998,E,4,11.0,0.9,91.61,M,36.77,M,3.0,0000*7C,37.23177776666666,137.02432449999995,679578.3524907702,4122504.594892213
421,[2021-02-22 15:01:55.494] $GPGGA,60155.1,3713.906663,N,13701.459469999998,E,4,11.0,0.9,91.60799999999999,M,36.77,M,3.1,0000*7B,37.23177771666667,137.02432449999995,679578.3526094144,4122504.589344398
422,[2021-02-22 15:01:55.604] $GPGGA,60155.2,3713.906663,N,13701.459469999998,E,4,11.0,0.9,91.611,M,36.77,M,3.2,0000*74,37.23177771666667,137.02432449999995,679578.3526094144,4122504.589344398
423,[2021-02-22 15:01:55.697] $GPGGA,60155.3,3713.906663,N,13701.459469999998,E,4,10.0,1.1,91.603,M,36.77,M,2.3,0000*78,37.23177771666667,137.02432449999995,679578.3526094144,4122504.589344398
424,[2021-02-22 15:01:55.807] $GPGGA,60155.4,3713.906664,N,13701.459469999998,E,4,10.0,1.1,91.595,M,36.77,M,2.4,0000*74,37.23177773333334,137.02432449999995,679578.3525698662,4122504.591193671
425,[2021-02-22 15:01:55.900] $GPGGA,60155.5,3713.906665,N,13701.459469999998,E,4,10.0,1.1,91.59899999999999,M,36.77,M,2.5,0000*77,37.23177774999999,137.02432449999995,679578.3525303182,4122504.5930429418
426,[2021-02-22 15:01:56.010] $GPGGA,60155.6,3713.906665,N,13701.459469999998,E,4,10.0,1.1,91.603,M,36.77,M,2.6,0000*76,37.23177774999999,137.02432449999995,679578.3525303182,4122504.5930429418
427,[2021-02-22 15:01:56.104] $GPGGA,60155.7,3713.906664,N,13701.459469999998,E,4,10.0,1.1,91.602,M,36.77,M,2.7,0000*7D,37.23177773333334,137.02432449999995,679578.3525698662,4122504.591193671
428,[2021-02-22 15:01:56.213] $GPGGA,60155.8,3713.906663,N,13701.459469999998,E,4,10.0,1.1,91.596,M,36.77,M,2.8,0000*7D,37.23177771666667,137.02432449999995,679578.3526094144,4122504.589344398
429,[2021-02-22 15:01:56.307] $GPGGA,60155.9,3713.906661,N,13701.459469999998,E,4,10.0,1.1,91.6,M,36.77,M,2.9,0000*70,37.231777683333334,137.02432449999995,679578.3526885104,4122504.585645854
430,[2021-02-22 15:01:56.416] $GPGGA,60156.0,3713.906661,N,13701.459469999998,E,4,10.0,1.1,91.59899999999999,M,36.77,M,3.0,0000*73,37.231777683333334,137.02432449999995,679578.3526885104,4122504.585645854
431,[2021-02-22 15:01:56.494] $GPGGA,60156.1,3713.906663,N,13701.459469999998,E,4,10.0,1.1,91.604,M,36.77,M,3.1,0000*78,37.23177771666667,137.02432449999995,679578.3526094144,4122504.589344398
432,[2021-02-22 15:01:56.604] $GPGGA,60156.2,3713.906663,N,13701.459469999998,E,4,10.0,1.1,91.59899999999999,M,36.77,M,3.2,0000*78,37.23177771666667,137.02432449999995,679578.3526094144,4122504.589344398
433,[2021-02-22 15:01:56.697] $GPGGA,60156.3,3713.906664,N,13701.459469999998,E,4,10.0,1.1,91.601,M,36.77,M,3.3,0000*73,37.23177773333334,137.02432449999995,679578.3525698662,4122504.591193671
434,[2021-02-22 15:01:56.807] $GPGGA,60156.4,3713.906662,N,13701.459469999998,E,4,10.0,1.1,91.6,M,36.77,M,3.4,0000*7A,37.2317777,137.02432449999995,679578.3526489624,4122504.5874951263
435,[2021-02-22 15:01:56.900] $GPGGA,60156.5,3713.906664,N,13701.459469999998,E,4,10.0,1.1,91.6,M,36.77,M,3.5,0000*76,37.23177773333334,137.02432449999995,679578.3525698662,4122504.591193671
436,[2021-02-22 15:01:57.010] $GPGGA,60156.6,3713.906664,N,13701.459469999998,E,4,10.0,1.1,91.595,M,36.77,M,3.6,0000*71,37.23177773333334,137.02432449999995,679578.3525698662,4122504.591193671
437,[2021-02-22 15:01:57.103] $GPGGA,60156.7,3713.906664,N,13701.459469999998,E,4,10.0,1.1,91.59700000000001,M,36.77,M,3.7,0000*77,37.23177773333334,137.02432449999995,679578.3525698662,4122504.591193671
438,[2021-02-22 15:01:57.213] $GPGGA,60156.8,3713.906664,N,13701.459469999998,E,4,10.0,1.1,91.596,M,36.77,M,3.8,0000*70,37.23177773333334,137.02432449999995,679578.3525698662,4122504.591193671
439,[2021-02-22 15:01:57.307] $GPGGA,60156.9,3713.906665,N,13701.459469999998,E,4,10.0,1.1,91.59700000000001,M,36.77,M,3.9,0000*7E,37.23177774999999,137.02432449999995,679578.3525303182,4122504.5930429418
440,[2021-02-22 15:01:57.416] $GPGGA,60157.0,3713.906665,N,13701.459469999998,E,4,10.0,1.1,91.59899999999999,M,36.77,M,4.0,0000*77,37.23177774999999,137.02432449999995,679578.3525303182,4122504.5930429418
441,[2021-02-22 15:01:57.494] $GPGGA,60157.1,3713.906664,N,13701.459469999998,E,4,10.0,1.1,91.596,M,36.77,M,4.1,0000*77,37.23177773333334,137.02432449999995,679578.3525698662,4122504.591193671
442,[2021-02-22 15:01:57.604] $GPGGA,60157.2,3713.906665,N,13701.459469999998,E,4,10.0,1.1,91.59100000000001,M,36.77,M,4.2,0000*79,37.23177774999999,137.02432449999995,679578.3525303182,4122504.5930429418
443,[2021-02-22 15:01:57.697] $GPGGA,60157.3,3713.906664,N,13701.459469999998,E,4,10.0,1.1,91.61,M,36.77,M,2.3,0000*7D,37.23177773333334,137.02432449999995,679578.3525698662,4122504.591193671
444,[2021-02-22 15:01:57.807] $GPGGA,60157.4,3713.906663,N,13701.459469999998,E,4,10.0,1.1,91.611,M,36.77,M,2.4,0000*7C,37.23177771666667,137.02432449999995,679578.3526094144,4122504.589344398
445,[2021-02-22 15:01:57.900] $GPGGA,60157.5,3713.906664,N,13701.459469999998,E,4,10.0,1.1,91.609,M,36.77,M,2.5,0000*71,37.23177773333334,137.02432449999995,679578.3525698662,4122504.591193671
446,[2021-02-22 15:01:58.010] $GPGGA,60157.6,3713.906663,N,13701.459469999998,E,4,10.0,1.1,91.613,M,36.77,M,2.6,0000*7D,37.23177771666667,137.02432449999995,679578.3526094144,4122504.589344398
447,[2021-02-22 15:01:58.103] $GPGGA,60157.7,3713.906665,N,13701.459469999998,E,4,10.0,1.1,91.61200000000001,M,36.77,M,2.7,0000*7E,37.23177774999999,137.02432449999995,679578.3525303182,4122504.5930429418
448,[2021-02-22 15:01:58.213] $GPGGA,60157.8,3713.906664,N,13701.459469999998,E,4,10.0,1.1,91.60799999999999,M,36.77,M,2.8,0000*7D,37.23177773333334,137.02432449999995,679578.3525698662,4122504.591193671
449,[2021-02-22 15:01:58.307] $GPGGA,60157.9,3713.906663,N,13701.459469999998,E,4,10.0,1.1,91.60600000000001,M,36.77,M,2.9,0000*7A,37.23177771666667,137.02432449999995,679578.3526094144,4122504.589344398
450,[2021-02-22 15:01:58.416] $GPGGA,60158.0,3713.906663,N,13701.459469999998,E,4,10.0,1.1,91.60799999999999,M,36.77,M,3.0,0000*79,37.23177771666667,137.02432449999995,679578.3526094144,4122504.589344398
451,[2021-02-22 15:01:58.494] $GPGGA,60158.1,3713.906663,N,13701.459469999998,E,4,10.0,1.1,91.60799999999999,M,36.77,M,3.1,0000*71,37.23177771666667,137.02432449999995,679578.3526094144,4122504.589344398
452,[2021-02-22 15:01:58.619] $GPGGA,60158.2,3713.906665,N,13701.459469999998,E,4,10.0,1.1,91.60700000000001,M,36.77,M,3.2,0000*72,37.23177774999999,137.02432449999995,679578.3525303182,4122504.5930429418
453,[2021-02-22 15:01:58.697] $GPGGA,60158.3,3713.906663,N,13701.459469999998,E,4,10.0,1.1,91.59700000000001,M,36.77,M,2.3,0000*72,37.23177771666667,137.02432449999995,679578.3526094144,4122504.589344398
454,[2021-02-22 15:01:58.807] $GPGGA,60158.4,3713.906664,N,13701.459469999998,E,4,10.0,1.1,91.59700000000001,M,36.77,M,2.4,0000*71,37.23177773333334,137.02432449999995,679578.3525698662,4122504.591193671
455,[2021-02-22 15:01:58.900] $GPGGA,60158.5,3713.906663,N,13701.459469999998,E,4,10.0,1.1,91.595,M,36.77,M,2.5,0000*7A,37.23177771666667,137.02432449999995,679578.3526094144,4122504.589344398
456,[2021-02-22 15:01:59.010] $GPGGA,60158.6,3713.906664,N,13701.459469999998,E,4,10.0,1.1,91.59200000000001,M,36.77,M,2.6,0000*71,37.23177773333334,137.02432449999995,679578.3525698662,4122504.591193671
457,[2021-02-22 15:01:59.103] $GPGGA,60158.7,3713.906663,N,13701.459469999998,E,4,10.0,1.1,91.59700000000001,M,36.77,M,2.7,0000*7B,37.23177771666667,137.02432449999995,679578.3526094144,4122504.589344398
458,[2021-02-22 15:01:59.213] $GPGGA,60158.8,3713.906664,N,13701.459469999998,E,4,10.0,1.1,91.588,M,36.77,M,2.8,0000*70,37.23177773333334,137.02432449999995,679578.3525698662,4122504.591193671
459,[2021-02-22 15:01:59.306] $GPGGA,60158.9,3713.906663,N,13701.459469999998,E,4,10.0,1.1,91.596,M,36.77,M,2.9,0000*75,37.23177771666667,137.02432449999995,679578.3526094144,4122504.589344398
460,[2021-02-22 15:01:59.416] $GPGGA,60159.0,3713.906664,N,13701.459469999998,E,4,10.0,1.1,91.59200000000001,M,36.77,M,3.0,0000*7D,37.23177773333334,137.02432449999995,679578.3525698662,4122504.591193671
461,[2021-02-22 15:01:59.494] $GPGGA,60159.1,3713.906664,N,13701.459469999998,E,4,10.0,1.1,91.594,M,36.77,M,3.1,0000*7C,37.23177773333334,137.02432449999995,679578.3525698662,4122504.591193671
462,[2021-02-22 15:01:59.603] $GPGGA,60159.2,3713.906664,N,13701.459469999998,E,4,10.0,1.1,91.585,M,36.77,M,3.2,0000*75,37.23177773333334,137.02432449999995,679578.3525698662,4122504.591193671
463,[2021-02-22 15:01:59.697] $GPGGA,60159.3,3713.906663,N,13701.459469999998,E,4,10.0,1.1,91.587,M,36.77,M,3.3,0000*78,37.23177771666667,137.02432449999995,679578.3526094144,4122504.589344398
464,[2021-02-22 15:01:59.806] $GPGGA,60159.4,3713.906663,N,13701.459469999998,E,4,10.0,1.1,91.59,M,36.77,M,3.4,0000*78,37.23177771666667,137.02432449999995,679578.3526094144,4122504.589344398
465,[2021-02-22 15:01:59.900] $GPGGA,60159.5,3713.906665,N,13701.459469999998,E,4,10.0,1.1,91.59299999999999,M,36.77,M,3.5,0000*70,37.23177774999999,137.02432449999995,679578.3525303182,4122504.5930429418
466,[2021-02-22 15:02:00.010] $GPGGA,60159.6,3713.906669,N,13701.459469999998,E,4,10.0,1.1,91.588,M,36.77,M,3.6,0000*79,37.231777816666664,137.02432449999995,679578.352372126,4122504.60044003
467,[2021-02-22 15:02:00.103] $GPGGA,60159.7,3713.906668,N,13701.459469999998,E,4,10.0,1.1,91.588,M,36.77,M,3.7,0000*7E,37.231777799999996,137.02432449999995,679578.3524116741,4122504.598590758
468,[2021-02-22 15:02:00.213] $GPGGA,60159.8,3713.906667,N,13701.459469999998,E,4,10.0,1.1,91.59200000000001,M,36.77,M,3.8,0000*7D,37.23177778333334,137.02432449999995,679578.3524512221,4122504.5967414877
469,[2021-02-22 15:02:00.306] $GPGGA,60159.9,3713.906665,N,13701.459469999998,E,4,10.0,1.1,91.589,M,36.77,M,3.9,0000*74,37.23177774999999,137.02432449999995,679578.3525303182,4122504.5930429418
470,[2021-02-22 15:02:00.416] $GPGGA,60200.0,3713.906665,N,13701.459469999998,E,4,10.0,1.1,91.589,M,36.77,M,4.0,0000*7A,37.23177774999999,137.02432449999995,679578.3525303182,4122504.5930429418
471,[2021-02-22 15:02:00.494] $GPGGA,60200.1,3713.906663,N,13701.459469999998,E,4,10.0,1.1,91.587,M,36.77,M,4.1,0000*7E,37.23177771666667,137.02432449999995,679578.3526094144,4122504.589344398
472,[2021-02-22 15:02:00.603] $GPGGA,60200.2,3713.906664,N,13701.459469999998,E,4,10.0,1.1,91.58200000000001,M,36.77,M,4.2,0000*7E,37.23177773333334,137.02432449999995,679578.3525698662,4122504.591193671
473,[2021-02-22 15:02:00.697] $GPGGA,60200.3,3713.906664,N,13701.459469999998,E,4,10.0,1.1,91.586,M,36.77,M,4.3,0000*7D,37.23177773333334,137.02432449999995,679578.3525698662,4122504.591193671
474,[2021-02-22 15:02:00.806] $GPGGA,60200.4,3713.906664,N,13701.459469999998,E,4,10.0,1.1,91.584,M,36.77,M,4.4,0000*73,37.23177773333334,137.02432449999995,679578.3525698662,4122504.591193671
475,[2021-02-22 15:02:00.900] $GPGGA,60200.5,3713.906662,N,13701.459469999998,E,4,10.0,1.1,91.586,M,36.77,M,4.5,0000*78,37.2317777,137.02432449999995,679578.3526489624,4122504.5874951263
476,[2021-02-22 15:02:01.010] $GPGGA,60200.6,3713.906665,N,13701.459469999998,E,4,10.0,1.1,91.583,M,36.77,M,4.6,0000*72,37.23177774999999,137.02432449999995,679578.3525303182,4122504.5930429418
477,[2021-02-22 15:02:01.103] $GPGGA,60200.7,3713.906665,N,13701.459469999998,E,4,10.0,1.1,91.59,M,36.77,M,4.7,0000*7F,37.23177774999999,137.02432449999995,679578.3525303182,4122504.5930429418
478,[2021-02-22 15:02:01.213] $GPGGA,60200.8,3713.906664,N,13701.459469999998,E,4,10.0,1.1,91.58200000000001,M,36.77,M,4.8,0000*72,37.23177773333334,137.02432449999995,679578.3525698662,4122504.591193671
479,[2021-02-22 15:02:01.306] $GPGGA,60200.9,3713.906663,N,13701.459469999998,E,4,10.0,1.1,91.57799999999999,M,36.77,M,4.9,0000*75,37.23177771666667,137.02432449999995,679578.3526094144,4122504.589344398
480,[2021-02-22 15:02:01.416] $GPGGA,60201.0,3713.906663,N,13701.459469999998,E,4,10.0,1.1,91.584,M,36.77,M,5.0,0000*77,37.23177771666667,137.02432449999995,679578.3526094144,4122504.589344398
481,[2021-02-22 15:02:01.509] $GPGGA,60201.1,3713.906662,N,13701.459469999998,E,4,10.0,1.1,91.589,M,36.77,M,5.1,0000*7C,37.2317777,137.02432449999995,679578.3526489624,4122504.5874951263
482,[2021-02-22 15:02:01.603] $GPGGA,60201.2,3713.906663,N,13701.459469999998,E,4,10.0,1.1,91.581,M,36.77,M,5.2,0000*74,37.23177771666667,137.02432449999995,679578.3526094144,4122504.589344398
483,[2021-02-22 15:02:01.697] $GPGGA,60201.3,3713.906666,N,13701.459469999998,E,4,10.0,1.1,91.583,M,36.77,M,5.3,0000*79,37.23177776666666,137.02432449999995,679578.3524907702,4122504.594892213
484,[2021-02-22 15:02:01.806] $GPGGA,60201.4,3713.906666,N,13701.459469999998,E,4,10.0,1.1,91.57600000000001,M,36.77,M,5.4,0000*7B,37.23177776666666,137.02432449999995,679578.3524907702,4122504.594892213
485,[2021-02-22 15:02:01.900] $GPGGA,60201.5,3713.906666,N,13701.459469999998,E,4,10.0,1.1,91.584,M,36.77,M,5.5,0000*73,37.23177776666666,137.02432449999995,679578.3524907702,4122504.594892213
486,[2021-02-22 15:02:02.009] $GPGGA,60201.6,3713.906662,N,13701.459469999998,E,4,10.0,1.1,91.57700000000001,M,36.77,M,5.6,0000*7D,37.2317777,137.02432449999995,679578.3526489624,4122504.5874951263
487,[2021-02-22 15:02:02.103] $GPGGA,60201.7,3713.906664,N,13701.459469999998,E,4,10.0,1.1,91.587,M,36.77,M,5.7,0000*70,37.23177773333334,137.02432449999995,679578.3525698662,4122504.591193671
488,[2021-02-22 15:02:02.213] $GPGGA,60201.8,3713.906663,N,13701.459469999998,E,4,10.0,1.1,91.58200000000001,M,36.77,M,5.8,0000*76,37.23177771666667,137.02432449999995,679578.3526094144,4122504.589344398
489,[2021-02-22 15:02:02.306] $GPGGA,60201.9,3713.906666,N,13701.459469999998,E,4,10.0,1.1,91.585,M,36.77,M,5.9,0000*7D,37.23177776666666,137.02432449999995,679578.3524907702,4122504.594892213
490,[2021-02-22 15:02:02.416] $GPGGA,60202.0,3713.906666,N,13701.459469999998,E,4,10.0,1.1,91.584,M,36.77,M,6.0,0000*79,37.23177776666666,137.02432449999995,679578.3524907702,4122504.594892213
491,[2021-02-22 15:02:02.494] $GPGGA,60202.1,3713.906665,N,13701.459469999998,E,4,10.0,1.1,91.579,M,36.77,M,6.1,0000*77,37.23177774999999,137.02432449999995,679578.3525303182,4122504.5930429418
492,[2021-02-22 15:02:02.603] $GPGGA,60202.2,3713.906665,N,13701.459469999998,E,4,10.0,1.1,91.579,M,36.77,M,6.2,0000*71,37.23177774999999,137.02432449999995,679578.3525303182,4122504.5930429418
493,[2021-02-22 15:02:02.697] $GPGGA,60202.3,3713.906666,N,13701.459469999998,E,4,10.0,1.1,91.583,M,36.77,M,6.3,0000*79,37.23177776666666,137.02432449999995,679578.3524907702,4122504.594892213
494,[2021-02-22 15:02:02.806] $GPGGA,60202.4,3713.906667,N,13701.459469999998,E,4,10.0,1.1,91.579,M,36.77,M,6.4,0000*76,37.23177778333334,137.02432449999995,679578.3524512221,4122504.5967414877
495,[2021-02-22 15:02:02.900] $GPGGA,60202.5,3713.906665,N,13701.459469999998,E,4,10.0,1.1,91.579,M,36.77,M,6.5,0000*79,37.23177774999999,137.02432449999995,679578.3525303182,4122504.5930429418
496,[2021-02-22 15:02:03.009] $GPGGA,60202.6,3713.906666,N,13701.459469999998,E,4,10.0,1.1,91.583,M,36.77,M,6.6,0000*7C,37.23177776666666,137.02432449999995,679578.3524907702,4122504.594892213
497,[2021-02-22 15:02:03.103] $GPGGA,60202.7,3713.906667,N,13701.459469999998,E,4,10.0,1.1,91.581,M,36.77,M,6.7,0000*74,37.23177778333334,137.02432449999995,679578.3524512221,4122504.5967414877
498,[2021-02-22 15:02:03.212] $GPGGA,60202.8,3713.906664,N,13701.459469999998,E,4,10.0,1.1,91.575,M,36.77,M,6.8,0000*73,37.23177773333334,137.02432449999995,679578.3525698662,4122504.591193671
499,[2021-02-22 15:02:03.306] $GPGGA,60202.9,3713.906664,N,13701.459469999998,E,4,10.0,1.1,91.584,M,36.77,M,6.9,0000*70,37.23177773333334,137.02432449999995,679578.3525698662,4122504.591193671
500,[2021-02-22 15:02:03.416] $GPGGA,60203.0,3713.906665,N,13701.459469999998,E,4,10.0,1.1,91.574,M,36.77,M,7.0,0000*7E,37.23177774999999,137.02432449999995,679578.3525303182,4122504.5930429418
501,[2021-02-22 15:02:03.494] $GPGGA,60203.1,3713.906666,N,13701.459469999998,E,4,10.0,1.1,91.58,M,36.77,M,7.1,0000*7A,37.23177776666666,137.02432449999995,679578.3524907702,4122504.594892213
502,[2021-02-22 15:02:03.619] $GPGGA,60203.2,3713.906665,N,13701.459469999998,E,4,10.0,1.1,91.573,M,36.77,M,7.2,0000*7C,37.23177774999999,137.02432449999995,679578.3525303182,4122504.5930429418
503,[2021-02-22 15:02:03.697] $GPGGA,60203.3,3713.906664,N,13701.459469999998,E,4,10.0,1.1,91.57799999999999,M,36.77,M,7.3,0000*71,37.23177773333334,137.02432449999995,679578.3525698662,4122504.591193671
504,[2021-02-22 15:02:03.806] $GPGGA,60203.4,3713.906664,N,13701.459469999998,E,4,10.0,1.1,91.585,M,36.77,M,7.4,0000*71,37.23177773333334,137.02432449999995,679578.3525698662,4122504.591193671
505,[2021-02-22 15:02:03.900] $GPGGA,60203.5,3713.906664,N,13701.459469999998,E,4,10.0,1.1,91.575,M,36.77,M,7.5,0000*75,37.23177773333334,137.02432449999995,679578.3525698662,4122504.591193671
506,[2021-02-22 15:02:04.009] $GPGGA,60203.6,3713.906664,N,13701.459469999998,E,4,10.0,1.1,91.57799999999999,M,36.77,M,7.6,0000*72,37.23177773333334,137.02432449999995,679578.3525698662,4122504.591193671
507,[2021-02-22 15:02:04.103] $GPGGA,60203.7,3713.906666,N,13701.459469999998,E,4,10.0,1.1,91.58200000000001,M,36.77,M,7.7,0000*76,37.23177776666666,137.02432449999995,679578.3524907702,4122504.594892213
508,[2021-02-22 15:02:04.212] $GPGGA,60203.8,3713.906666,N,13701.459469999998,E,4,10.0,1.1,91.579,M,36.77,M,7.8,0000*7F,37.23177776666666,137.02432449999995,679578.3524907702,4122504.594892213
509,[2021-02-22 15:02:04.306] $GPGGA,60203.9,3713.906662,N,13701.459469999998,E,4,10.0,1.1,91.579,M,36.77,M,7.9,0000*71,37.2317777,137.02432449999995,679578.3526489624,4122504.5874951263
510,[2021-02-22 15:02:04.416] $GPGGA,60204.0,3713.906665,N,13701.459469999998,E,4,10.0,1.1,91.57799999999999,M,36.77,M,8.0,0000*70,37.23177774999999,137.02432449999995,679578.3525303182,4122504.5930429418
511,[2021-02-22 15:02:04.494] $GPGGA,60204.1,3713.906663,N,13701.459469999998,E,4,10.0,1.1,91.573,M,36.77,M,8.1,0000*73,37.23177771666667,137.02432449999995,679578.3526094144,4122504.589344398
512,[2021-02-22 15:02:04.619] $GPGGA,60204.2,3713.906666,N,13701.459469999998,E,4,10.0,1.1,91.579,M,36.77,M,8.2,0000*71,37.23177776666666,137.02432449999995,679578.3524907702,4122504.594892213
513,[2021-02-22 15:02:04.697] $GPGGA,60204.3,3713.906665,N,13701.459469999998,E,4,10.0,1.1,91.59899999999999,M,36.77,M,2.3,0000*7B,37.23177774999999,137.02432449999995,679578.3525303182,4122504.5930429418
514,[2021-02-22 15:02:04.806] $GPGGA,60204.4,3713.906664,N,13701.459469999998,E,4,10.0,1.1,91.602,M,36.77,M,2.4,0000*7C,37.23177773333334,137.02432449999995,679578.3525698662,4122504.591193671
515,[2021-02-22 15:02:04.900] $GPGGA,60204.5,3713.906664,N,13701.459469999998,E,4,10.0,1.1,91.602,M,36.77,M,2.5,0000*76,37.23177773333334,137.02432449999995,679578.3525698662,4122504.591193671
516,[2021-02-22 15:02:05.009] $GPGGA,60204.6,3713.906665,N,13701.459469999998,E,4,10.0,1.1,91.605,M,36.77,M,2.6,0000*78,37.23177774999999,137.02432449999995,679578.3525303182,4122504.5930429418
517,[2021-02-22 15:02:05.103] $GPGGA,60204.7,3713.906665,N,13701.459469999998,E,4,10.0,1.1,91.605,M,36.77,M,2.7,0000*79,37.23177774999999,137.02432449999995,679578.3525303182,4122504.5930429418
518,[2021-02-22 15:02:05.212] $GPGGA,60204.8,3713.906665,N,13701.459469999998,E,4,10.0,1.1,91.604,M,36.77,M,2.8,0000*70,37.23177774999999,137.02432449999995,679578.3525303182,4122504.5930429418
519,[2021-02-22 15:02:05.306] $GPGGA,60204.9,3713.906665,N,13701.459469999998,E,4,10.0,1.1,91.601,M,36.77,M,2.9,0000*75,37.23177774999999,137.02432449999995,679578.3525303182,4122504.5930429418
520,[2021-02-22 15:02:05.415] $GPGGA,60205.0,3713.906664,N,13701.459469999998,E,4,10.0,1.1,91.61,M,36.77,M,3.0,0000*79,37.23177773333334,137.02432449999995,679578.3525698662,4122504.591193671
521,[2021-02-22 15:02:05.509] $GPGGA,60205.1,3713.906665,N,13701.459469999998,E,4,10.0,1.1,91.601,M,36.77,M,3.1,0000*71,37.23177774999999,137.02432449999995,679578.3525303182,4122504.5930429418
522,[2021-02-22 15:02:05.603] $GPGGA,60205.2,3713.906663,N,13701.459469999998,E,4,10.0,1.1,91.61,M,36.77,M,3.2,0000*7A,37.23177771666667,137.02432449999995,679578.3526094144,4122504.589344398
523,[2021-02-22 15:02:05.697] $GPGGA,60205.3,3713.906663,N,13701.459469999998,E,4,10.0,1.1,91.604,M,36.77,M,2.3,0000*72,37.23177771666667,137.02432449999995,679578.3526094144,4122504.589344398
524,[2021-02-22 15:02:05.806] $GPGGA,60205.4,3713.906665,N,13701.459469999998,E,4,10.0,1.1,91.603,M,36.77,M,2.4,0000*73,37.23177774999999,137.02432449999995,679578.3525303182,4122504.5930429418
525,[2021-02-22 15:02:05.900] $GPGGA,60205.5,3713.906663,N,13701.459469999998,E,4,10.0,1.1,91.60799999999999,M,36.77,M,2.5,0000*7E,37.23177771666667,137.02432449999995,679578.3526094144,4122504.589344398
526,[2021-02-22 15:02:06.009] $GPGGA,60205.6,3713.906665,N,13701.459469999998,E,4,10.0,1.1,91.602,M,36.77,M,2.6,0000*78,37.23177774999999,137.02432449999995,679578.3525303182,4122504.5930429418
527,[2021-02-22 15:02:06.103] $GPGGA,60205.7,3713.906663,N,13701.459469999998,E,4,10.0,1.1,91.60600000000001,M,36.77,M,2.7,0000*7E,37.23177771666667,137.02432449999995,679578.3526094144,4122504.589344398
528,[2021-02-22 15:02:06.212] $GPGGA,60205.8,3713.906665,N,13701.459469999998,E,4,10.0,1.1,91.605,M,36.77,M,2.8,0000*70,37.23177774999999,137.02432449999995,679578.3525303182,4122504.5930429418
529,[2021-02-22 15:02:06.306] $GPGGA,60205.9,3713.906664,N,13701.459469999998,E,4,10.0,1.1,91.6,M,36.77,M,2.9,0000*79,37.23177773333334,137.02432449999995,679578.3525698662,4122504.591193671
530,[2021-02-22 15:02:06.415] $GPGGA,60206.0,3713.906664,N,13701.459469999998,E,4,10.0,1.1,91.605,M,36.77,M,3.0,0000*7E,37.23177773333334,137.02432449999995,679578.3525698662,4122504.591193671
531,[2021-02-22 15:02:06.494] $GPGGA,60206.1,3713.906664,N,13701.459469999998,E,4,10.0,1.1,91.60600000000001,M,36.77,M,3.1,0000*71,37.23177773333334,137.02432449999995,679578.3525698662,4122504.591193671
532,[2021-02-22 15:02:06.618] $GPGGA,60206.2,3713.906663,N,13701.459469999998,E,4,10.0,1.1,91.601,M,36.77,M,3.2,0000*7A,37.23177771666667,137.02432449999995,679578.3526094144,4122504.589344398
533,[2021-02-22 15:02:06.697] $GPGGA,60206.3,3713.906664,N,13701.459469999998,E,4,10.0,1.1,91.609,M,36.77,M,2.3,0000*79,37.23177773333334,137.02432449999995,679578.3525698662,4122504.591193671
534,[2021-02-22 15:02:06.806] $GPGGA,60206.4,3713.906661,N,13701.459469999998,E,4,10.0,1.1,91.60600000000001,M,36.77,M,2.4,0000*7F,37.231777683333334,137.02432449999995,679578.3526885104,4122504.585645854
535,[2021-02-22 15:02:06.900] $GPGGA,60206.5,3713.906662,N,13701.459469999998,E,4,10.0,1.1,91.60600000000001,M,36.77,M,2.5,0000*7F,37.2317777,137.02432449999995,679578.3526489624,4122504.5874951263
536,[2021-02-22 15:02:07.009] $GPGGA,60206.6,3713.906662,N,13701.459469999998,E,4,10.0,1.1,91.604,M,36.77,M,2.6,0000*70,37.2317777,137.02432449999995,679578.3526489624,4122504.5874951263
537,[2021-02-22 15:02:07.103] $GPGGA,60206.7,3713.906665,N,13701.459469999998,E,4,10.0,1.1,91.60799999999999,M,36.77,M,2.7,0000*7D,37.23177774999999,137.02432449999995,679578.3525303182,4122504.5930429418
538,[2021-02-22 15:02:07.212] $GPGGA,60206.8,3713.906665,N,13701.459469999998,E,4,10.0,1.1,91.60700000000001,M,36.77,M,2.8,0000*7D,37.23177774999999,137.02432449999995,679578.3525303182,4122504.5930429418
539,[2021-02-22 15:02:07.306] $GPGGA,60206.9,3713.906663,N,13701.459469999998,E,4,10.0,1.1,91.60600000000001,M,36.77,M,2.9,0000*79,37.23177771666667,137.02432449999995,679578.3526094144,4122504.589344398
540,[2021-02-22 15:02:07.415] $GPGGA,60207.0,3713.906663,N,13701.459469999998,E,4,10.0,1.1,91.603,M,36.77,M,3.0,0000*77,37.23177771666667,137.02432449999995,679578.3526094144,4122504.589344398
541,[2021-02-22 15:02:07.493] $GPGGA,60207.1,3713.906664,N,13701.459469999998,E,4,10.0,1.1,91.609,M,36.77,M,3.1,0000*7E,37.23177773333334,137.02432449999995,679578.3525698662,4122504.591193671
542,[2021-02-22 15:02:07.603] $GPGGA,60207.2,3713.906665,N,13701.459469999998,E,4,10.0,1.1,91.604,M,36.77,M,3.2,0000*71,37.23177774999999,137.02432449999995,679578.3525303182,4122504.5930429418
543,[2021-02-22 15:02:07.697] $GPGGA,60207.3,3713.906666,N,13701.459469999998,E,4,10.0,1.1,91.611,M,36.77,M,2.3,0000*7B,37.23177776666666,137.02432449999995,679578.3524907702,4122504.594892213
544,[2021-02-22 15:02:07.806] $GPGGA,60207.4,3713.906665,N,13701.459469999998,E,4,10.0,1.1,91.611,M,36.77,M,2.4,0000*71,37.23177774999999,137.02432449999995,679578.3525303182,4122504.5930429418
545,[2021-02-22 15:02:07.900] $GPGGA,60207.5,3713.906666,N,13701.459469999998,E,4,10.0,1.1,91.60600000000001,M,36.77,M,2.5,0000*75,37.23177776666666,137.02432449999995,679578.3524907702,4122504.594892213
546,[2021-02-22 15:02:08.009] $GPGGA,60207.6,3713.906664,N,13701.459469999998,E,4,10.0,1.1,91.611,M,36.77,M,2.6,0000*7E,37.23177773333334,137.02432449999995,679578.3525698662,4122504.591193671
547,[2021-02-22 15:02:08.103] $GPGGA,60207.7,3713.906666,N,13701.459469999998,E,4,10.0,1.1,91.60799999999999,M,36.77,M,2.7,0000*75,37.23177776666666,137.02432449999995,679578.3524907702,4122504.594892213
548,[2021-02-22 15:02:08.212] $GPGGA,60207.8,3713.906664,N,13701.459469999998,E,4,10.0,1.1,91.60600000000001,M,36.77,M,2.8,0000*7F,37.23177773333334,137.02432449999995,679578.3525698662,4122504.591193671
549,[2021-02-22 15:02:08.306] $GPGGA,60207.9,3713.906665,N,13701.459469999998,E,4,10.0,1.1,91.61399999999999,M,36.77,M,2.9,0000*75,37.23177774999999,137.02432449999995,679578.3525303182,4122504.5930429418
550,[2021-02-22 15:02:08.415] $GPGGA,60208.0,3713.906664,N,13701.459469999998,E,4,10.0,1.1,91.6,M,36.77,M,3.0,0000*75,37.23177773333334,137.02432449999995,679578.3525698662,4122504.591193671
551,[2021-02-22 15:02:08.509] $GPGGA,60208.1,3713.906664,N,13701.459469999998,E,4,10.0,1.1,91.61200000000001,M,36.77,M,3.1,0000*7E,37.23177773333334,137.02432449999995,679578.3525698662,4122504.591193671
552,[2021-02-22 15:02:08.618] $GPGGA,60208.2,3713.906662,N,13701.459480000001,E,4,10.0,1.1,91.60600000000001,M,36.77,M,3.2,0000*73,37.2317777,137.0243246666667,679578.367435675,4122504.587811351
553,[2021-02-22 15:02:08.696] $GPGGA,60208.3,3713.906663,N,13701.459480000001,E,4,10.0,1.1,91.613,M,36.77,M,3.3,0000*7D,37.23177771666667,137.0243246666667,679578.367396127,4122504.589660624
554,[2021-02-22 15:02:08.806] $GPGGA,60208.4,3713.906659,N,13701.459480000001,E,4,10.0,1.1,91.60700000000001,M,36.77,M,3.4,0000*71,37.23177765,137.0243246666667,679578.3675543192,4122504.582263535
555,[2021-02-22 15:02:08.900] $GPGGA,60208.5,3713.906654,N,13701.459480000001,E,4,10.0,1.1,91.60799999999999,M,36.77,M,3.5,0000*7B,37.23177756666667,137.0243246666667,679578.3677520595,4122504.5730171762
556,[2021-02-22 15:02:09.009] $GPGGA,60208.6,3713.906652,N,13701.459480000001,E,4,10.0,1.1,91.611,M,36.77,M,3.6,0000*73,37.231777533333336,137.0243246666667,679578.3678311557,4122504.569318632
557,[2021-02-22 15:02:09.103] $GPGGA,60208.7,3713.9066479999997,N,13701.459480000001,E,4,10.0,1.1,91.609,M,36.77,M,3.7,0000*7C,37.231777466666664,137.0243246666667,679578.3679893479,4122504.561921544
558,[2021-02-22 15:02:09.212] $GPGGA,60208.8,3713.9066439999997,N,13701.459469999998,E,4,10.0,1.1,91.611,M,36.77,M,3.8,0000*76,37.23177739999999,137.02432449999995,679578.3533608274,4122504.5542082298
559,[2021-02-22 15:02:09.306] $GPGGA,60208.9,3713.9066399999997,N,13701.459469999998,E,4,10.0,1.1,91.61,M,36.77,M,3.9,0000*7C,37.231777333333326,137.02432449999995,679578.3535190197,4122504.5468111434
560,[2021-02-22 15:02:09.415] $GPGGA,60209.0,3713.9066409999996,N,13701.45946,E,4,10.0,1.1,91.60700000000001,M,36.77,M,4.0,0000*7A,37.231777349999994,137.02432433333334,679578.3386927703,4122504.5483441907
561,[2021-02-22 15:02:09.493] $GPGGA,60209.1,3713.9066409999996,N,13701.45946,E,4,10.0,1.1,91.60600000000001,M,36.77,M,4.1,0000*71,37.231777349999994,137.02432433333334,679578.3386927703,4122504.5483441907
562,[2021-02-22 15:02:09.603] $GPGGA,60209.2,3713.906647,N,13701.45946,E,4,10.0,1.1,91.60600000000001,M,36.77,M,4.2,0000*70,37.231777449999996,137.02432433333334,679578.338455482,4122504.5594398216
563,[2021-02-22 15:02:09.696] $GPGGA,60209.3,3713.906647,N,13701.45946,E,4,10.0,1.1,91.60799999999999,M,36.77,M,4.3,0000*75,37.231777449999996,137.02432433333334,679578.338455482,4122504.5594398216
564,[2021-02-22 15:02:09.806] $GPGGA,60209.4,3713.90665,N,13701.45946,E,4,10.0,1.1,91.602,M,36.77,M,4.4,0000*71,37.2317775,137.02432433333334,679578.3383368377,4122504.5649876385
565,[2021-02-22 15:02:09.899] $GPGGA,60209.5,3713.906649,N,13701.45946,E,4,10.0,1.1,91.60700000000001,M,36.77,M,4.5,0000*72,37.23177748333333,137.02432433333334,679578.3383763859,4122504.5631383653
566,[2021-02-22 15:02:10.009] $GPGGA,60209.6,3713.90665,N,13701.459469999998,E,4,10.0,1.1,91.60799999999999,M,36.77,M,4.6,0000*79,37.2317775,137.02432449999995,679578.3531235391,4122504.565303863
567,[2021-02-22 15:02:10.103] $GPGGA,60209.7,3713.90665,N,13701.459469999998,E,4,10.0,1.1,91.6,M,36.77,M,4.7,0000*7F,37.2317775,137.02432449999995,679578.3531235391,4122504.565303863
568,[2021-02-22 15:02:10.212] $GPGGA,60209.8,3713.90665,N,13701.459469999998,E,4,10.0,1.1,91.61,M,36.77,M,4.8,0000*79,37.2317775,137.02432449999995,679578.3531235391,4122504.565303863
569,[2021-02-22 15:02:10.306] $GPGGA,60209.9,3713.90665,N,13701.45946,E,4,10.0,1.1,91.6,M,36.77,M,2.9,0000*7F,37.2317775,137.02432433333334,679578.3383368377,4122504.5649876385
570,[2021-02-22 15:02:10.415] $GPGGA,60210.0,3713.906652,N,13701.45946,E,4,10.0,1.1,91.609,M,36.77,M,3.0,0000*75,37.231777533333336,137.02432433333334,679578.3382577416,4122504.568686182
571,[2021-02-22 15:02:10.509] $GPGGA,60210.1,3713.906651,N,13701.45946,E,4,10.0,1.1,91.60700000000001,M,36.77,M,3.1,0000*73,37.23177751666667,137.02432433333334,679578.3382972897,4122504.5668369103
572,[2021-02-22 15:02:10.603] $GPGGA,60210.2,3713.906653,N,13701.459469999998,E,4,10.0,1.1,91.603,M,36.77,M,3.2,0000*7C,37.231777550000004,137.02432449999995,679578.3530048949,4122504.5708516794
573,[2021-02-22 15:02:10.696] $GPGGA,60210.3,3713.906654,N,13701.45946,E,4,10.0,1.1,91.60600000000001,M,36.77,M,3.3,0000*7F,37.23177756666667,137.02432433333334,679578.3381786456,4122504.572384726
574,[2021-02-22 15:02:10.806] $GPGGA,60210.4,3713.906656,N,13701.459469999998,E,4,10.0,1.1,91.605,M,36.77,M,3.4,0000*7E,37.23177760000001,137.02432449999995,679578.3528862507,4122504.5763994963
575,[2021-02-22 15:02:10.899] $GPGGA,60210.5,3713.906654,N,13701.45946,E,4,10.0,1.1,91.602,M,36.77,M,3.5,0000*7C,37.23177756666667,137.02432433333334,679578.3381786456,4122504.572384726
576,[2021-02-22 15:02:11.009] $GPGGA,60210.6,3713.906652,N,13701.459469999998,E,4,10.0,1.1,91.6,M,36.77,M,2.6,0000*7E,37.231777533333336,137.02432449999995,679578.353044443,4122504.5690024067
577,[2021-02-22 15:02:11.103] $GPGGA,60210.7,3713.906653,N,13701.45946,E,4,10.0,1.1,91.6,M,36.77,M,2.7,0000*7E,37.231777550000004,137.02432433333334,679578.3382181936,4122504.570535455
578,[2021-02-22 15:02:11.212] $GPGGA,60210.8,3713.906655,N,13701.45946,E,4,10.0,1.1,91.602,M,36.77,M,2.8,0000*73,37.231777583333326,137.02432433333334,679578.3381390976,4122504.574233997
579,[2021-02-22 15:02:11.306] $GPGGA,60210.9,3713.906655,N,13701.45946,E,4,10.0,1.1,91.6,M,36.77,M,2.9,0000*76,37.231777583333326,137.02432433333334,679578.3381390976,4122504.574233997
580,[2021-02-22 15:02:11.415] $GPGGA,60211.0,3713.906655,N,13701.459469999998,E,4,10.0,1.1,91.59899999999999,M,36.77,M,3.0,0000*77,37.231777583333326,137.02432449999995,679578.3529257989,4122504.5745502207
581,[2021-02-22 15:02:11.509] $GPGGA,60211.1,3713.906654,N,13701.45946,E,4,10.0,1.1,91.59700000000001,M,36.77,M,3.1,0000*71,37.23177756666667,137.02432433333334,679578.3381786456,4122504.572384726
582,[2021-02-22 15:02:11.618] $GPGGA,60211.2,3713.906655,N,13701.45946,E,4,10.0,1.1,91.59700000000001,M,36.77,M,3.2,0000*7B,37.231777583333326,137.02432433333334,679578.3381390976,4122504.574233997
583,[2021-02-22 15:02:11.712] $GPGGA,60211.3,3713.906653,N,13701.45946,E,4,10.0,1.1,91.601,M,36.77,M,3.3,0000*72,37.231777550000004,137.02432433333334,679578.3382181936,4122504.570535455
584,[2021-02-22 15:02:11.806] $GPGGA,60211.4,3713.906656,N,13701.45946,E,4,10.0,1.1,91.61200000000001,M,36.77,M,2.4,0000*75,37.23177760000001,137.02432433333334,679578.3380995494,4122504.5760832718
585,[2021-02-22 15:02:11.899] $GPGGA,60211.5,3713.906657,N,13701.45946,E,4,10.0,1.1,91.61399999999999,M,36.77,M,2.5,0000*70,37.23177761666666,137.02432433333334,679578.3380600014,4122504.5779325413
586,[2021-02-22 15:02:12.009] $GPGGA,60211.6,3713.906655,N,13701.45946,E,4,10.0,1.1,91.61,M,36.77,M,2.6,0000*7B,37.231777583333326,137.02432433333334,679578.3381390976,4122504.574233997
587,[2021-02-22 15:02:12.102] $GPGGA,60211.7,3713.906654,N,13701.459469999998,E,4,10.0,1.1,91.61,M,36.77,M,2.7,0000*75,37.23177756666667,137.02432449999995,679578.3529653468,4122504.5727009512
588,[2021-02-22 15:02:12.212] $GPGGA,60211.8,3713.906656,N,13701.459480000001,E,4,10.0,1.1,91.602,M,36.77,M,2.8,0000*74,37.23177760000001,137.0243246666667,679578.3676729633,4122504.576715721
589,[2021-02-22 15:02:12.306] $GPGGA,60211.9,3713.906657,N,13701.459480000001,E,4,10.0,1.1,91.609,M,36.77,M,2.9,0000*79,37.23177761666666,137.0243246666667,679578.3676334153,4122504.5785649917
590,[2021-02-22 15:02:12.415] $GPGGA,60212.0,3713.906658,N,13701.459490000001,E,4,10.0,1.1,91.61,M,36.77,M,3.0,0000*7C,37.23177763333333,137.02432483333337,679578.3823805731,4122504.5807304876
591,[2021-02-22 15:02:12.509] $GPGGA,60212.1,3713.906659,N,13701.459480000001,E,4,10.0,1.1,91.617,M,36.77,M,3.1,0000*7C,37.23177765,137.0243246666667,679578.3675543192,4122504.582263535
592,[2021-02-22 15:02:12.602] $GPGGA,60212.2,3713.906658,N,13701.459480000001,E,4,10.0,1.1,91.60700000000001,M,36.77,M,3.2,0000*7C,37.23177763333333,137.0243246666667,679578.3675938672,4122504.580414262
593,[2021-02-22 15:02:12.696] $GPGGA,60212.3,3713.906655,N,13701.459480000001,E,4,10.0,1.1,91.61,M,36.77,M,3.3,0000*71,37.231777583333326,137.0243246666667,679578.3677125114,4122504.574866446
594,[2021-02-22 15:02:12.806] $GPGGA,60212.4,3713.906657,N,13701.459469999998,E,4,10.0,1.1,91.615,M,36.77,M,3.4,0000*7D,37.23177761666666,137.02432449999995,679578.3528467027,4122504.578248767
595,[2021-02-22 15:02:12.899] $GPGGA,60212.5,3713.906658,N,13701.459469999998,E,4,10.0,1.1,91.611,M,36.77,M,3.5,0000*7A,37.23177763333333,137.02432449999995,679578.3528071546,4122504.5800980376
596,[2021-02-22 15:02:13.009] $GPGGA,60212.6,3713.906661,N,13701.459469999998,E,4,10.0,1.1,91.613,M,36.77,M,3.6,0000*71,37.231777683333334,137.02432449999995,679578.3526885104,4122504.585645854
597,[2021-02-22 15:02:13.102] $GPGGA,60212.7,3713.90666,N,13701.459469999998,E,4,10.0,1.1,91.615,M,36.77,M,3.7,0000*7F,37.231777666666666,137.02432449999995,679578.3527280586,4122504.583796582
598,[2021-02-22 15:02:13.212] $GPGGA,60212.8,3713.906661,N,13701.459469999998,E,4,10.0,1.1,91.609,M,36.77,M,3.8,0000*79,37.231777683333334,137.02432449999995,679578.3526885104,4122504.585645854
599,[2021-02-22 15:02:13.306] $GPGGA,60212.9,3713.90666,N,13701.459469999998,E,4,10.0,1.1,91.61200000000001,M,36.77,M,3.9,0000*70,37.231777666666666,137.02432449999995,679578.3527280586,4122504.583796582
600,[2021-02-22 15:02:13.415] $GPGGA,60213.0,3713.906662,N,13701.459469999998,E,4,10.0,1.1,91.61399999999999,M,36.77,M,4.0,0000*7B,37.2317777,137.02432449999995,679578.3526489624,4122504.5874951263
601,[2021-02-22 15:02:13.509] $GPGGA,60213.1,3713.906662,N,13701.459469999998,E,4,10.0,1.1,91.611,M,36.77,M,4.1,0000*7F,37.2317777,137.02432449999995,679578.3526489624,4122504.5874951263
602,[2021-02-22 15:02:13.618] $GPGGA,60213.2,3713.906663,N,13701.459469999998,E,4,10.0,1.1,91.61399999999999,M,36.77,M,4.2,0000*7E,37.23177771666667,137.02432449999995,679578.3526094144,4122504.589344398
603,[2021-02-22 15:02:13.696] $GPGGA,60213.3,3713.906659,N,13701.459469999998,E,4,10.0,1.1,91.613,M,36.77,M,2.3,0000*7B,37.23177765,137.02432449999995,679578.3527676066,4122504.5819473104
604,[2021-02-22 15:02:13.805] $GPGGA,60213.4,3713.906658,N,13701.459469999998,E,4,10.0,1.1,91.61399999999999,M,36.77,M,2.4,0000*7F,37.23177763333333,137.02432449999995,679578.3528071546,4122504.5800980376
605,[2021-02-22 15:02:13.899] $GPGGA,60213.5,3713.906659,N,13701.459469999998,E,4,10.0,1.1,91.61,M,36.77,M,2.5,0000*77,37.23177765,137.02432449999995,679578.3527676066,4122504.5819473104
606,[2021-02-22 15:02:14.009] $GPGGA,60213.6,3713.90666,N,13701.459469999998,E,4,10.0,1.1,91.60700000000001,M,36.77,M,2.6,0000*72,37.231777666666666,137.02432449999995,679578.3527280586,4122504.583796582
607,[2021-02-22 15:02:14.102] $GPGGA,60213.7,3713.90666,N,13701.459469999998,E,4,10.0,1.1,91.61,M,36.77,M,2.7,0000*77,37.231777666666666,137.02432449999995,679578.3527280586,4122504.583796582
608,[2021-02-22 15:02:14.212] $GPGGA,60213.8,3713.90666,N,13701.459469999998,E,4,10.0,1.1,91.60700000000001,M,36.77,M,2.8,0000*73,37.231777666666666,137.02432449999995,679578.3527280586,4122504.583796582
609,[2021-02-22 15:02:14.305] $GPGGA,60213.9,3713.906659,N,13701.459469999998,E,4,10.0,1.1,91.613,M,36.77,M,2.9,0000*7B,37.23177765,137.02432449999995,679578.3527676066,4122504.5819473104
610,[2021-02-22 15:02:14.415] $GPGGA,60214.0,3713.906658,N,13701.459469999998,E,4,10.0,1.1,91.61200000000001,M,36.77,M,3.0,0000*74,37.23177763333333,137.02432449999995,679578.3528071546,4122504.5800980376
611,[2021-02-22 15:02:14.509] $GPGGA,60214.1,3713.906659,N,13701.459469999998,E,4,10.0,1.1,91.61,M,36.77,M,3.1,0000*75,37.23177765,137.02432449999995,679578.3527676066,4122504.5819473104
612,[2021-02-22 15:02:14.618] $GPGGA,60214.2,3713.906659,N,13701.459469999998,E,4,10.0,1.1,91.60700000000001,M,36.77,M,3.2,0000*7E,37.23177765,137.02432449999995,679578.3527676066,4122504.5819473104
613,[2021-02-22 15:02:14.696] $GPGGA,60214.3,3713.906657,N,13701.459469999998,E,4,10.0,1.1,91.617,M,36.77,M,2.3,0000*7B,37.23177761666666,137.02432449999995,679578.3528467027,4122504.578248767
614,[2021-02-22 15:02:14.805] $GPGGA,60214.4,3713.906657,N,13701.459469999998,E,4,10.0,1.1,91.615,M,36.77,M,2.4,0000*76,37.23177761666666,137.02432449999995,679578.3528467027,4122504.578248767
615,[2021-02-22 15:02:14.899] $GPGGA,60214.5,3713.906659,N,13701.459469999998,E,4,10.0,1.1,91.618,M,36.77,M,2.5,0000*78,37.23177765,137.02432449999995,679578.3527676066,4122504.5819473104
616,[2021-02-22 15:02:15.009] $GPGGA,60214.6,3713.906656,N,13701.459469999998,E,4,10.0,1.1,91.615,M,36.77,M,2.6,0000*71,37.23177760000001,137.02432449999995,679578.3528862507,4122504.5763994963
617,[2021-02-22 15:02:15.102] $GPGGA,60214.7,3713.906657,N,13701.459469999998,E,4,10.0,1.1,91.618,M,36.77,M,2.7,0000*75,37.23177761666666,137.02432449999995,679578.3528467027,4122504.578248767
618,[2021-02-22 15:02:15.212] $GPGGA,60214.8,3713.906657,N,13701.459469999998,E,4,10.0,1.1,91.615,M,36.77,M,2.8,0000*7B,37.23177761666666,137.02432449999995,679578.3528467027,4122504.578248767
619,[2021-02-22 15:02:15.305] $GPGGA,60214.9,3713.906657,N,13701.459469999998,E,4,10.0,1.1,91.616,M,36.77,M,2.9,0000*73,37.23177761666666,137.02432449999995,679578.3528467027,4122504.578248767
620,[2021-02-22 15:02:15.415] $GPGGA,60215.0,3713.906657,N,13701.459469999998,E,4,10.0,1.1,91.618,M,36.77,M,3.0,0000*73,37.23177761666666,137.02432449999995,679578.3528467027,4122504.578248767
621,[2021-02-22 15:02:15.508] $GPGGA,60215.1,3713.906656,N,13701.459469999998,E,4,10.0,1.1,91.618,M,36.77,M,3.1,0000*77,37.23177760000001,137.02432449999995,679578.3528862507,4122504.5763994963
622,[2021-02-22 15:02:15.618] $GPGGA,60215.2,3713.906657,N,13701.459469999998,E,4,10.0,1.1,91.62,M,36.77,M,3.2,0000*7D,37.23177761666666,137.02432449999995,679578.3528467027,4122504.578248767
623,[2021-02-22 15:02:15.696] $GPGGA,60215.3,3713.906657,N,13701.459469999998,E,4,10.0,1.1,91.61,M,36.77,M,2.3,0000*72,37.23177761666666,137.02432449999995,679578.3528467027,4122504.578248767
624,[2021-02-22 15:02:15.805] $GPGGA,60215.4,3713.906656,N,13701.459480000001,E,4,10.0,1.1,91.615,M,36.77,M,2.4,0000*70,37.23177760000001,137.0243246666667,679578.3676729633,4122504.576715721
625,[2021-02-22 15:02:15.899] $GPGGA,60215.5,3713.906657,N,13701.459469999998,E,4,10.0,1.1,91.60700000000001,M,36.77,M,2.5,0000*7E,37.23177761666666,137.02432449999995,679578.3528467027,4122504.578248767
626,[2021-02-22 15:02:16.008] $GPGGA,60215.6,3713.906655,N,13701.459480000001,E,4,10.0,1.1,91.615,M,36.77,M,2.6,0000*75,37.231777583333326,137.0243246666667,679578.3677125114,4122504.574866446
627,[2021-02-22 15:02:16.102] $GPGGA,60215.7,3713.906656,N,13701.459480000001,E,4,10.0,1.1,91.615,M,36.77,M,2.7,0000*7E,37.23177760000001,137.0243246666667,679578.3676729633,4122504.576715721
628,[2021-02-22 15:02:16.212] $GPGGA,60215.8,3713.906659,N,13701.459480000001,E,4,10.0,1.1,91.613,M,36.77,M,2.8,0000*7B,37.23177765,137.0243246666667,679578.3675543192,4122504.582263535
629,[2021-02-22 15:02:16.305] $GPGGA,60215.9,3713.906658,N,13701.459490000001,E,4,10.0,1.1,91.61399999999999,M,36.77,M,2.9,0000*7F,37.23177763333333,137.02432483333337,679578.3823805731,4122504.5807304876
630,[2021-02-22 15:02:16.415] $GPGGA,60216.0,3713.906659,N,13701.459480000001,E,4,10.0,1.1,91.61399999999999,M,36.77,M,3.0,0000*7E,37.23177765,137.0243246666667,679578.3675543192,4122504.582263535
631,[2021-02-22 15:02:16.508] $GPGGA,60216.1,3713.906655,N,13701.459480000001,E,4,10.0,1.1,91.618,M,36.77,M,3.1,0000*7D,37.231777583333326,137.0243246666667,679578.3677125114,4122504.574866446
632,[2021-02-22 15:02:16.602] $GPGGA,60216.2,3713.90665,N,13701.459490000001,E,4,10.0,1.1,91.613,M,36.77,M,3.2,0000*7E,37.2317775,137.02432483333337,679578.3826969576,4122504.565936312
633,[2021-02-22 15:02:16.696] $GPGGA,60216.3,3713.906655,N,13701.459490000001,E,4,10.0,1.1,91.619,M,36.77,M,2.3,0000*7A,37.231777583333326,137.02432483333337,679578.3824992173,4122504.575182671
634,[2021-02-22 15:02:16.805] $GPGGA,60216.4,3713.906653,N,13701.459480000001,E,4,10.0,1.1,91.61200000000001,M,36.77,M,2.4,0000*75,37.231777550000004,137.0243246666667,679578.3677916075,4122504.571167904
635,[2021-02-22 15:02:16.899] $GPGGA,60216.5,3713.906656,N,13701.459480000001,E,4,10.0,1.1,91.619,M,36.77,M,2.5,0000*7C,37.23177760000001,137.0243246666667,679578.3676729633,4122504.576715721
636,[2021-02-22 15:02:17.008] $GPGGA,60216.6,3713.906656,N,13701.459480000001,E,4,10.0,1.1,91.616,M,36.77,M,2.6,0000*7C,37.23177760000001,137.0243246666667,679578.3676729633,4122504.576715721
637,[2021-02-22 15:02:17.102] $GPGGA,60216.7,3713.906655,N,13701.459480000001,E,4,10.0,1.1,91.611,M,36.77,M,2.7,0000*7B,37.231777583333326,137.0243246666667,679578.3677125114,4122504.574866446
638,[2021-02-22 15:02:17.212] $GPGGA,60216.8,3713.906657,N,13701.459480000001,E,4,10.0,1.1,91.618,M,36.77,M,2.8,0000*73,37.23177761666666,137.0243246666667,679578.3676334153,4122504.5785649917
639,[2021-02-22 15:02:17.305] $GPGGA,60216.9,3713.906657,N,13701.459480000001,E,4,10.0,1.1,91.618,M,36.77,M,2.9,0000*73,37.23177761666666,137.0243246666667,679578.3676334153,4122504.5785649917
640,[2021-02-22 15:02:17.415] $GPGGA,60217.0,3713.906662,N,13701.459469999998,E,4,10.0,1.1,91.61200000000001,M,36.77,M,3.0,0000*7F,37.2317777,137.02432449999995,679578.3526489624,4122504.5874951263
641,[2021-02-22 15:02:17.508] $GPGGA,60217.1,3713.906663,N,13701.459469999998,E,4,10.0,1.1,91.61399999999999,M,36.77,M,3.1,0000*79,37.23177771666667,137.02432449999995,679578.3526094144,4122504.589344398
642,[2021-02-22 15:02:17.618] $GPGGA,60217.2,3713.906664,N,13701.459469999998,E,4,10.0,1.1,91.619,M,36.77,M,3.2,0000*75,37.23177773333334,137.02432449999995,679578.3525698662,4122504.591193671
643,[2021-02-22 15:02:17.696] $GPGGA,60217.3,3713.906657,N,13701.459469999998,E,4,10.0,1.1,91.616,M,36.77,M,2.3,0000*72,37.23177761666666,137.02432449999995,679578.3528467027,4122504.578248767
644,[2021-02-22 15:02:17.805] $GPGGA,60217.4,3713.906657,N,13701.459469999998,E,4,10.0,1.1,91.613,M,36.77,M,2.4,0000*7E,37.23177761666666,137.02432449999995,679578.3528467027,4122504.578248767
645,[2021-02-22 15:02:17.899] $GPGGA,60217.5,3713.906659,N,13701.459469999998,E,4,10.0,1.1,91.616,M,36.77,M,2.5,0000*7D,37.23177765,137.02432449999995,679578.3527676066,4122504.5819473104
646,[2021-02-22 15:02:18.008] $GPGGA,60217.6,3713.906659,N,13701.459469999998,E,4,10.0,1.1,91.62,M,36.77,M,2.6,0000*79,37.23177765,137.02432449999995,679578.3527676066,4122504.5819473104
647,[2021-02-22 15:02:18.102] $GPGGA,60217.7,3713.90666,N,13701.459469999998,E,4,10.0,1.1,91.616,M,36.77,M,2.7,0000*70,37.231777666666666,137.02432449999995,679578.3527280586,4122504.583796582
648,[2021-02-22 15:02:18.211] $GPGGA,60217.8,3713.906659,N,13701.459469999998,E,4,10.0,1.1,91.616,M,36.77,M,2.8,0000*7C,37.23177765,137.02432449999995,679578.3527676066,4122504.5819473104
649,[2021-02-22 15:02:18.305] $GPGGA,60217.9,3713.906663,N,13701.459469999998,E,4,10.0,1.1,91.619,M,36.77,M,2.9,0000*7C,37.23177771666667,137.02432449999995,679578.3526094144,4122504.589344398
650,[2021-02-22 15:02:18.415] $GPGGA,60218.0,3713.906658,N,13701.459469999998,E,4,10.0,1.1,91.61,M,36.77,M,3.0,0000*7A,37.23177763333333,137.02432449999995,679578.3528071546,4122504.5800980376
651,[2021-02-22 15:02:18.508] $GPGGA,60218.1,3713.906657,N,13701.459469999998,E,4,10.0,1.1,91.617,M,36.77,M,3.1,0000*74,37.23177761666666,137.02432449999995,679578.3528467027,4122504.578248767
652,[2021-02-22 15:02:18.618] $GPGGA,60218.2,3713.906657,N,13701.459469999998,E,4,10.0,1.1,91.616,M,36.77,M,3.2,0000*7E,37.23177761666666,137.02432449999995,679578.3528467027,4122504.578248767
653,[2021-02-22 15:02:18.696] $GPGGA,60218.3,3713.906661,N,13701.459469999998,E,4,10.0,1.1,91.61200000000001,M,36.77,M,2.3,0000*73,37.231777683333334,137.02432449999995,679578.3526885104,4122504.585645854
654,[2021-02-22 15:02:18.805] $GPGGA,60218.4,3713.906663,N,13701.459469999998,E,4,10.0,1.1,91.619,M,36.77,M,2.4,0000*7D,37.23177771666667,137.02432449999995,679578.3526094144,4122504.589344398
655,[2021-02-22 15:02:18.899] $GPGGA,60218.5,3713.90666,N,13701.459469999998,E,4,10.0,1.1,91.61200000000001,M,36.77,M,2.5,0000*7C,37.231777666666666,137.02432449999995,679578.3527280586,4122504.583796582
656,[2021-02-22 15:02:19.008] $GPGGA,60218.6,3713.906662,N,13701.459469999998,E,4,10.0,1.1,91.61200000000001,M,36.77,M,2.6,0000*76,37.2317777,137.02432449999995,679578.3526489624,4122504.5874951263
657,[2021-02-22 15:02:19.102] $GPGGA,60218.7,3713.906661,N,13701.459469999998,E,4,10.0,1.1,91.615,M,36.77,M,2.7,0000*76,37.231777683333334,137.02432449999995,679578.3526885104,4122504.585645854
658,[2021-02-22 15:02:19.211] $GPGGA,60218.8,3713.90666,N,13701.459469999998,E,4,10.0,1.1,91.60799999999999,M,36.77,M,2.8,0000*7C,37.231777666666666,137.02432449999995,679578.3527280586,4122504.583796582
659,[2021-02-22 15:02:19.305] $GPGGA,60218.9,3713.90666,N,13701.459469999998,E,4,10.0,1.1,91.61399999999999,M,36.77,M,2.9,0000*71,37.231777666666666,137.02432449999995,679578.3527280586,4122504.583796582
660,[2021-02-22 15:02:19.414] $GPGGA,60219.0,3713.906662,N,13701.459469999998,E,4,10.0,1.1,91.61399999999999,M,36.77,M,3.0,0000*71,37.2317777,137.02432449999995,679578.3526489624,4122504.5874951263
661,[2021-02-22 15:02:19.508] $GPGGA,60219.1,3713.906664,N,13701.459469999998,E,4,10.0,1.1,91.616,M,36.77,M,3.1,0000*70,37.23177773333334,137.02432449999995,679578.3525698662,4122504.591193671
662,[2021-02-22 15:02:19.618] $GPGGA,60219.2,3713.906662,N,13701.459469999998,E,4,10.0,1.1,91.619,M,36.77,M,3.2,0000*71,37.2317777,137.02432449999995,679578.3526489624,4122504.5874951263
663,[2021-02-22 15:02:19.696] $GPGGA,60219.3,3713.906661,N,13701.459469999998,E,4,10.0,1.1,91.605,M,36.77,M,2.3,0000*71,37.231777683333334,137.02432449999995,679578.3526885104,4122504.585645854
664,[2021-02-22 15:02:19.805] $GPGGA,60219.4,3713.906661,N,13701.459469999998,E,4,10.0,1.1,91.61,M,36.77,M,2.4,0000*74,37.231777683333334,137.02432449999995,679578.3526885104,4122504.585645854
665,[2021-02-22 15:02:19.899] $GPGGA,60219.5,3713.906664,N,13701.459469999998,E,4,10.0,1.1,91.61399999999999,M,36.77,M,2.5,0000*7F,37.23177773333334,137.02432449999995,679578.3525698662,4122504.591193671
666,[2021-02-22 15:02:20.008] $GPGGA,60219.6,3713.906664,N,13701.459469999998,E,4,10.0,1.1,91.611,M,36.77,M,2.6,0000*78,37.23177773333334,137.02432449999995,679578.3525698662,4122504.591193671
667,[2021-02-22 15:02:20.102] $GPGGA,60219.7,3713.906666,N,13701.459480000001,E,4,10.0,1.1,91.613,M,36.77,M,2.7,0000*7C,37.23177776666666,137.0243246666667,679578.3672774828,4122504.5952084376
668,[2021-02-22 15:02:20.211] $GPGGA,60219.8,3713.906662,N,13701.459469999998,E,4,10.0,1.1,91.60799999999999,M,36.77,M,2.8,0000*7D,37.2317777,137.02432449999995,679578.3526489624,4122504.5874951263
669,[2021-02-22 15:02:20.305] $GPGGA,60219.9,3713.906661,N,13701.459469999998,E,4,10.0,1.1,91.609,M,36.77,M,2.9,0000*78,37.231777683333334,137.02432449999995,679578.3526885104,4122504.585645854
670,[2021-02-22 15:02:20.414] $GPGGA,60220.0,3713.906663,N,13701.459469999998,E,4,10.0,1.1,91.61399999999999,M,36.77,M,3.0,0000*7D,37.23177771666667,137.02432449999995,679578.3526094144,4122504.589344398
671,[2021-02-22 15:02:20.508] $GPGGA,60220.1,3713.906664,N,13701.459469999998,E,4,10.0,1.1,91.61,M,36.77,M,3.1,0000*7D,37.23177773333334,137.02432449999995,679578.3525698662,4122504.591193671
672,[2021-02-22 15:02:20.617] $GPGGA,60220.2,3713.906662,N,13701.459469999998,E,4,10.0,1.1,91.613,M,36.77,M,3.2,0000*7F,37.2317777,137.02432449999995,679578.3526489624,4122504.5874951263
673,[2021-02-22 15:02:20.696] $GPGGA,60220.3,3713.906666,N,13701.459469999998,E,4,10.0,1.1,91.615,M,36.77,M,2.3,0000*72,37.23177776666666,137.02432449999995,679578.3524907702,4122504.594892213
674,[2021-02-22 15:02:20.805] $GPGGA,60220.4,3713.906667,N,13701.459469999998,E,4,10.0,1.1,91.611,M,36.77,M,2.4,0000*73,37.23177778333334,137.02432449999995,679578.3524512221,4122504.5967414877
675,[2021-02-22 15:02:20.899] $GPGGA,60220.5,3713.906666,N,13701.459469999998,E,4,10.0,1.1,91.61,M,36.77,M,2.5,0000*79,37.23177776666666,137.02432449999995,679578.3524907702,4122504.594892213
676,[2021-02-22 15:02:21.008] $GPGGA,60220.6,3713.906664,N,13701.459469999998,E,4,10.0,1.1,91.60700000000001,M,36.77,M,2.6,0000*78,37.23177773333334,137.02432449999995,679578.3525698662,4122504.591193671
677,[2021-02-22 15:02:21.102] $GPGGA,60220.7,3713.906665,N,13701.459469999998,E,4,10.0,1.1,91.61399999999999,M,36.77,M,2.7,0000*77,37.23177774999999,137.02432449999995,679578.3525303182,4122504.5930429418
678,[2021-02-22 15:02:21.211] $GPGGA,60220.8,3713.906665,N,13701.459469999998,E,4,10.0,1.1,91.615,M,36.77,M,2.8,0000*7F,37.23177774999999,137.02432449999995,679578.3525303182,4122504.5930429418
679,[2021-02-22 15:02:21.305] $GPGGA,60220.9,3713.906665,N,13701.459469999998,E,4,10.0,1.1,91.61399999999999,M,36.77,M,2.9,0000*7F,37.23177774999999,137.02432449999995,679578.3525303182,4122504.5930429418
680,[2021-02-22 15:02:21.414] $GPGGA,60221.0,3713.906666,N,13701.459469999998,E,4,10.0,1.1,91.613,M,36.77,M,3.0,0000*73,37.23177776666666,137.02432449999995,679578.3524907702,4122504.594892213
681,[2021-02-22 15:02:21.508] $GPGGA,60221.1,3713.906666,N,13701.459469999998,E,4,10.0,1.1,91.613,M,36.77,M,3.1,0000*7E,37.23177776666666,137.02432449999995,679578.3524907702,4122504.594892213
682,[2021-02-22 15:02:21.617] $GPGGA,60221.2,3713.906665,N,13701.459469999998,E,4,10.0,1.1,91.61200000000001,M,36.77,M,3.2,0000*7A,37.23177774999999,137.02432449999995,679578.3525303182,4122504.5930429418
683,[2021-02-22 15:02:21.696] $GPGGA,60221.3,3713.906663,N,13701.459469999998,E,4,10.0,1.1,91.61399999999999,M,36.77,M,2.3,0000*7B,37.23177771666667,137.02432449999995,679578.3526094144,4122504.589344398
684,[2021-02-22 15:02:21.805] $GPGGA,60221.4,3713.906661,N,13701.459480000001,E,4,10.0,1.1,91.609,M,36.77,M,2.4,0000*74,37.231777683333334,137.0243246666667,679578.367475223,4122504.585962079
685,[2021-02-22 15:02:21.899] $GPGGA,60221.5,3713.906661,N,13701.459469999998,E,4,10.0,1.1,91.61,M,36.77,M,2.5,0000*78,37.231777683333334,137.02432449999995,679578.3526885104,4122504.585645854
686,[2021-02-22 15:02:22.008] $GPGGA,60221.6,3713.906661,N,13701.459469999998,E,4,10.0,1.1,91.617,M,36.77,M,2.6,0000*73,37.231777683333334,137.02432449999995,679578.3526885104,4122504.585645854
687,[2021-02-22 15:02:22.102] $GPGGA,60221.7,3713.906662,N,13701.459469999998,E,4,10.0,1.1,91.611,M,36.77,M,2.7,0000*7A,37.2317777,137.02432449999995,679578.3526489624,4122504.5874951263
688,[2021-02-22 15:02:22.211] $GPGGA,60221.8,3713.90666,N,13701.459469999998,E,4,10.0,1.1,91.618,M,36.77,M,2.8,0000*7C,37.231777666666666,137.02432449999995,679578.3527280586,4122504.583796582
