,Format,Time,Latitude,LatType,Longitude,LonType,Status,Satellite,LevelAccuracy,Altitude(sea),M(sea),Altitude(geoid),M(geoid),DGPS use,checksum,Lat,Lon,UTM_X,UTM_Y
492,[2021-02-22 15:11:23.908] $GNGGA,61123.3,3713.896821845,N,13701.43802419,E,4,10,1.87,92.71600000000001,M,37.565,M,76.3,2006*6B,37.23161369741667,137.02396706983333,679547.0304503983,4122485.712264124
493,[2021-02-22 15:11:23.986] $GNGGA,61123.4,3713.8968532659997,N,13701.437963488,E,4,10,1.87,92.691,M,37.565,M,76.4,2006*62,37.23161422109999,137.02396605813337,679546.9394495338,4122485.7684508874
494,[2021-02-22 15:11:24.096] $GNGGA,61123.5,3713.896852858,N,13701.437964801002,E,4,10,1.87,92.67299999999999,M,37.565,M,76.5,2006*62,37.2316142143,137.0239660800167,679546.9414071629,4122485.767737898
495,[2021-02-22 15:11:24.190] $GNGGA,61123.6,3713.896853309,N,13701.437964393,E,4,10,1.87,92.677,M,37.565,M,76.6,2006*68,37.23161422181667,137.02396607321666,679546.9407860289,4122485.768559021
496,[2021-02-22 15:11:24.315] $GNGGA,61123.7,3713.896854487,N,13701.437963686001,E,4,10,1.87,92.67200000000001,M,37.565,M,76.7,2006*6D,37.231614241449996,137.02396606143336,679546.9396940309,4122485.7707151086
497,[2021-02-22 15:11:24.393] $GNGGA,61123.8,3713.89685454,N,13701.437963592,E,4,10,1.87,92.67200000000001,M,37.565,M,76.8,2006*61,37.23161424233333,137.02396605986667,679546.9395529379,4122485.770810148
498,[2021-02-22 15:11:24.486] $GNGGA,61123.9,3713.896854637,N,13701.43796286,E,4,10,1.87,92.666,M,37.565,M,76.9,2006*66,37.231614243950006,137.02396604766668,679546.9384667134,4122485.770966386
499,[2021-02-22 15:11:24.596] $GNGGA,61124.0,3713.8968550890004,N,13701.437962253001,E,4,10,1.87,92.666,M,37.565,M,77.0,2006*68,37.23161425148334,137.02396603755003,679546.9375512868,4122485.771783065
500,[2021-02-22 15:11:24.705] $GNGGA,61124.1,3713.8968539479997,N,13701.437962461001,E,4,10,1.87,92.665,M,37.565,M,77.1,2006*6E,37.23161423246666,137.02396604101668,679546.9379039658,4122485.76967962
501,[2021-02-22 15:11:24.783] $GNGGA,61124.2,3713.896864702,N,13701.437938018,E,4,10,1.87,92.656,M,37.565,M,77.2,2006*6F,37.2316144117,137.02396563363334,679546.9013355215,4122485.7887938805
502,[2021-02-22 15:11:24.893] $GNGGA,61124.3,3713.896864855,N,13701.437935991002,E,4,10,1.87,92.654,M,37.565,M,77.3,2006*65,37.23161441425,137.02396559985002,679546.8983322015,4122485.7890127306
503,[2021-02-22 15:11:24.986] $GNGGA,61124.4,3713.896864102,N,13701.437934076,E,4,10,1.87,92.656,M,37.565,M,77.4,2006*6D,37.2316144017,137.02396556793335,679546.895530316,4122485.787559684
504,[2021-02-22 15:11:25.111] $GNGGA,61124.5,3713.8968640929997,N,13701.437935476,E,4,10,1.87,92.656,M,37.565,M,77.5,2006*61,37.23161440154999,137.02396559126666,679546.8976008133,4122485.787587303
505,[2021-02-22 15:11:25.189] $GNGGA,61124.6,3713.8968639229997,N,13701.437935665,E,4,10,1.87,92.654,M,37.565,M,77.6,2006*66,37.231614398716665,137.0239655944167,679546.8978870064,4122485.787278903
506,[2021-02-22 15:11:25.299] $GNGGA,61124.7,3713.89686075,N,13701.437939828998,E,4,10,1.87,92.65899999999999,M,37.565,M,77.7,2006*68,37.23161434583334,137.02396566381663,679546.904169661,4122485.781542817
507,[2021-02-22 15:11:25.393] $GNGGA,61124.8,3713.8968591079997,N,13701.437940758,E,4,10,1.87,92.65799999999999,M,37.565,M,77.8,2006*6F,37.231614318466654,137.0239656793,679546.9056082785,4122485.7785356827
508,[2021-02-22 15:11:25.518] $GNGGA,61124.9,3713.8968597420003,N,13701.437940881002,E,4,10,1.87,92.661,M,37.565,M,77.9,2006*66,37.23161432903334,137.02396568135003,679546.9057650893,4122485.779712013
509,[2021-02-22 15:11:25.596] $GNGGA,61125.0,3713.896857675,N,13701.437941728998,E,4,10,1.87,92.65799999999999,M,37.565,M,78.0,2006*65,37.23161429458332,137.0239656954833,679546.9071007298,4122485.7759163757
510,[2021-02-22 15:11:25.689] $GNGGA,61125.1,3713.896857873,N,13701.437942359,E,4,10,1.87,92.65700000000001,M,37.565,M,78.1,2006*62,37.23161429788333,137.0239657059833,679546.9080244654,4122485.7763024517
511,[2021-02-22 15:11:25.799] $GNGGA,61125.2,3713.896857465,N,13701.437943163999,E,4,10,1.87,92.65899999999999,M,37.565,M,78.2,2006*6A,37.23161429108333,137.02396571939997,679546.909230931,4122485.7755734003
512,[2021-02-22 15:11:25.908] $GNGGA,61125.3,3713.8968571590003,N,13701.437944038998,E,4,10,1.87,92.66,M,37.565,M,78.3,2006*64,37.23161428598334,137.0239657339833,679546.9105368694,4122485.775035189
513,[2021-02-22 15:11:25.986] $GNGGA,61125.4,3713.896856821,N,13701.437942073999,E,4,10,1.87,92.66,M,37.565,M,78.4,2006*6C,37.231614280349994,137.02396570123332,679546.9076446432,4122485.7743480066
514,[2021-02-22 15:11:26.096] $GNGGA,61125.5,3713.896856263,N,13701.437939791002,E,4,10,1.87,92.663,M,37.565,M,78.5,2006*63,37.23161427105,137.02396566318333,679546.9042908956,4122485.773243932
515,[2021-02-22 15:11:26.189] $GNGGA,61125.6,3713.89685729,N,13701.437936961001,E,4,10,1.87,92.66,M,37.565,M,78.6,2006*63,37.23161428816666,137.0239656160167,679546.9000656434,4122485.7750536585
516,[2021-02-22 15:11:26.299] $GNGGA,61125.7,3713.8968577859996,N,13701.437932363999,E,4,10,1.87,92.65700000000001,M,37.565,M,78.7,2006*6E,37.23161429643333,137.02396553939997,679546.8932485617,4122485.7758255545
517,[2021-02-22 15:11:26.408] $GNGGA,61125.8,3713.896859978,N,13701.437928851,E,4,10,1.87,92.66,M,37.565,M,78.8,2006*6D,37.231614332966664,137.02396548085002,679546.8879673126,4122485.7797680893
518,[2021-02-22 15:11:26.486] $GNGGA,61125.9,3713.89686213,N,13701.437926086,E,4,10,1.87,92.656,M,37.565,M,78.9,2006*68,37.231614368833334,137.0239654347667,679546.8837936873,4122485.7836603024
519,[2021-02-22 15:11:26.596] $GNGGA,61126.0,3713.8968642540003,N,13701.437926025,E,4,10,1.87,92.656,M,37.565,M,79.0,2006*64,37.23161440423333,137.02396543375,679546.883619502,4122485.787586226
520,[2021-02-22 15:11:26.689] $GNGGA,61126.1,3713.896864981,N,13701.43792582,E,4,11,0.93,92.65700000000001,M,37.565,M,79.1,2006*6D,37.23161441634999,137.02396543033333,679546.8832876266,4122485.7889241637
521,[2021-02-22 15:11:26.799] $GNGGA,61126.2,3713.8968679390005,N,13701.437919727,E,4,11,0.93,92.65,M,37.565,M,79.2,2006*6D,37.231614465650004,137.0239653287833,679546.8741611036,4122485.79420167
522,[2021-02-22 15:11:26.908] $GNGGA,61126.3,3713.8968672859996,N,13701.437922864,E,4,11,0.93,92.654,M,37.565,M,79.3,2006*66,37.23161445476666,137.02396538106666,679546.8788255255,4122485.793093277
523,[2021-02-22 15:11:26.986] $GNGGA,61126.4,3713.896867158,N,13701.437920978999,E,4,10,1.87,92.652,M,37.565,M,79.4,2006*6A,37.23161445263334,137.02396534964996,679546.8760432833,4122485.792796973
524,[2021-02-22 15:11:27.096] $GNGGA,61126.5,3713.8968678009996,N,13701.437921716999,E,4,10,1.87,92.654,M,37.565,M,79.5,2006*6E,37.23161446334999,137.02396536195,679546.8771091236,4122485.794009387
525,[2021-02-22 15:11:27.189] $GNGGA,61126.6,3713.896867356,N,13701.437922805,E,4,10,1.87,92.65,M,37.565,M,79.6,2006*6C,37.23161445593333,137.02396538008333,679546.8787355165,4122485.793220862
526,[2021-02-22 15:11:27.299] $GNGGA,61126.7,3713.896867203,N,13701.437923847,E,4,10,1.87,92.65299999999999,M,37.565,M,79.7,2006*69,37.23161445338334,137.02396539744998,679546.8802823421,4122485.792970868
527,[2021-02-22 15:11:27.408] $GNGGA,61126.8,3713.89686789,N,13701.43792501,E,4,9,2.02,92.654,M,37.565,M,79.8,2006*64,37.231614464833335,137.0239654168333,679546.8819748737,4122485.794278087
528,[2021-02-22 15:11:27.486] $GNGGA,61126.9,3713.896864493,N,13701.437927234,E,4,9,2.02,92.656,M,37.565,M,79.9,2006*6C,37.23161440821667,137.0239654539,679546.8853977668,4122485.7880664263
529,[2021-02-22 15:11:27.596] $GNGGA,61127.0,3713.896864465,N,13701.437927721001,E,4,9,2.02,92.65299999999999,M,37.565,M,80.0,2006*66,37.23161440775,137.02396546201666,679546.8861189887,4122485.7880300446
530,[2021-02-22 15:11:27.689] $GNGGA,61127.1,3713.896864657,N,13701.437926196999,E,4,9,2.02,92.652,M,37.565,M,80.1,2006*6E,37.23161441095,137.02396543661666,679546.8838578971,4122485.7883369206
531,[2021-02-22 15:11:27.799] $GNGGA,61127.2,3713.896863943,N,13701.437927151,E,4,9,2.02,92.652,M,37.565,M,80.2,2006*68,37.231614399049995,137.02396545251665,679546.8852967841,4122485.7870467026
532,[2021-02-22 15:11:27.908] $GNGGA,61127.3,3713.8968632940005,N,13701.437926834,E,4,9,2.02,92.648,M,37.565,M,80.3,2006*69,37.231614388233346,137.02396544723334,679546.8848537086,4122485.7858365043
533,[2021-02-22 15:11:27.986] $GNGGA,61127.4,3713.8968628029997,N,13701.437927727,E,4,9,2.02,92.648,M,37.565,M,80.4,2006*60,37.23161438005,137.02396546211665,679546.8861935774,4122485.7849567444
534,[2021-02-22 15:11:28.096] $GNGGA,61127.5,3713.8968618970002,N,13701.437928013998,E,4,9,2.02,92.648,M,37.565,M,80.5,2006*66,37.231614364950005,137.0239654669,679546.88665378,4122485.783290379
535,[2021-02-22 15:11:28.189] $GNGGA,61127.6,3713.8968616859997,N,13701.437929098,E,4,9,2.02,92.65100000000001,M,37.565,M,80.6,2006*65,37.23161436143333,137.02396548496668,679546.8882650081,4122485.782934455
536,[2021-02-22 15:11:28.314] $GNGGA,61127.7,3713.896859977,N,13701.437929761001,E,4,9,2.02,92.652,M,37.565,M,80.7,2006*6D,37.23161433295,137.0239654960167,679546.8893129451,4122485.779795011
537,[2021-02-22 15:11:28.392] $GNGGA,61127.8,3713.896860725,N,13701.437930306001,E,4,9,2.02,92.646,M,37.565,M,80.8,2006*66,37.231614345416666,137.02396550510005,679546.8900892478,4122485.7811954976
538,[2021-02-22 15:11:28.486] $GNGGA,61127.9,3713.896859613,N,13701.437929474,E,4,9,2.02,92.646,M,37.565,M,80.9,2006*62,37.23161432688333,137.02396549123333,679546.8889029548,4122485.779112802
539,[2021-02-22 15:11:28.596] $GNGGA,61128.0,3713.896858751,N,13701.437928096,E,4,9,2.02,92.645,M,37.565,M,81.0,2006*60,37.23161431251667,137.02396546826668,679546.8868994296,4122485.7774751624
540,[2021-02-22 15:11:28.705] $GNGGA,61128.1,3713.8968573059997,N,13701.437928535,E,4,9,2.02,92.64399999999999,M,37.565,M,81.1,2006*64,37.23161428843333,137.02396547558334,679546.8876057025,4122485.774816843
541,[2021-02-22 15:11:28.783] $GNGGA,61128.2,3713.8968575840004,N,13701.437929151001,E,4,9,2.02,92.64200000000001,M,37.565,M,81.2,2006*69,37.23161429306667,137.02396548585003,679546.8885055764,4122485.775350418
542,[2021-02-22 15:11:28.892] $GNGGA,61128.3,3713.896857363,N,13701.43792853,E,4,9,2.02,92.64200000000001,M,37.565,M,81.3,2006*64,37.23161428938334,137.0239654755,679546.8875960556,4122485.774922095
543,[2021-02-22 15:11:28.986] $GNGGA,61128.4,3713.8968564740003,N,13701.437931088001,E,4,9,2.02,92.641,M,37.565,M,81.4,2006*69,37.231614274566674,137.02396551813334,679546.891413654,4122485.773358968
544,[2021-02-22 15:11:29.111] $GNGGA,61128.5,3713.896855046,N,13701.437929302,E,4,9,2.02,92.63799999999999,M,37.565,M,81.5,2006*69,37.23161425076667,137.02396548836666,679546.888829208,4122485.77066174
545,[2021-02-22 15:11:29.189] $GNGGA,61128.6,3713.896860437,N,13701.437920648,E,4,9,2.02,92.62899999999999,M,37.565,M,81.6,2006*6F,37.231614340616666,137.02396534413336,679546.8758196018,4122485.780357552
546,[2021-02-22 15:11:29.299] $GNGGA,61128.7,3713.8968612870003,N,13701.437920404,E,4,9,2.02,92.631,M,37.565,M,81.7,2006*60,37.23161435478334,137.02396534006664,679546.875425192,4122485.7819217187
547,[2021-02-22 15:11:29.392] $GNGGA,61128.8,3713.896860758,N,13701.437920278999,E,4,9,2.02,92.633,M,37.565,M,81.8,2006*68,37.23161434596666,137.02396533798333,679546.8752612765,4122485.7809395012
548,[2021-02-22 15:11:29.517] $GNGGA,61128.9,3713.8968604290003,N,13701.437921436001,E,4,9,2.02,92.63600000000001,M,37.565,M,81.9,2006*64,37.23161434048333,137.0239653572667,679546.8769851145,4122485.7803676724
549,[2021-02-22 15:11:29.595] $GNGGA,61129.0,3713.896860749,N,13701.437921095,E,4,9,2.02,92.63799999999999,M,37.565,M,82.0,2006*60,37.231614345816666,137.0239653515833,679546.8764682303,4122485.780948657
550,[2021-02-22 15:11:29.689] $GNGGA,61129.1,3713.8968610859997,N,13701.437922664,E,4,9,2.02,92.63799999999999,M,37.565,M,82.1,2006*6E,37.23161435143333,137.0239653777333,679546.8787749428,4122485.7816214687
551,[2021-02-22 15:11:29.799] $GNGGA,61129.2,3713.896861111,N,13701.437924383,E,4,10,1.17,92.641,M,37.565,M,82.2,2006*6A,37.231614351850006,137.02396540638335,679546.881315797,4122485.781722051
552,[2021-02-22 15:11:29.908] $GNGGA,61129.3,3713.8968611309997,N,13701.43792456,E,4,10,1.17,92.635,M,37.565,M,82.3,2006*60,37.23161435218333,137.02396540933333,679546.8815767295,4122485.781764631
553,[2021-02-22 15:11:29.986] $GNGGA,61129.4,3713.8968621090003,N,13701.4379256,E,4,10,1.17,92.63600000000001,M,37.565,M,82.4,2006*6F,37.231614368483335,137.02396542666665,679546.8830758793,4122485.7836061013
554,[2021-02-22 15:11:30.095] $GNGGA,61129.5,3713.8968629809997,N,13701.437926573,E,4,10,1.17,92.631,M,37.565,M,82.5,2006*64,37.231614383016655,137.02396544288337,679546.8844801529,4122485.7852494284
555,[2021-02-22 15:11:30.189] $GNGGA,61129.6,3713.8968625290004,N,13701.437927347,E,4,10,1.17,92.62700000000001,M,37.565,M,82.6,2006*6D,37.23161437548334,137.02396545578335,679546.8856425188,4122485.7844380313
556,[2021-02-22 15:11:30.314] $GNGGA,61129.7,3713.896862039,N,13701.437926753999,E,4,10,1.17,92.62899999999999,M,37.565,M,82.7,2006*60,37.23161436731667,137.0239654459,679546.8847850357,4122485.7835131385
557,[2021-02-22 15:11:30.392] $GNGGA,61129.8,3713.896862912,N,13701.437925713999,E,4,10,1.17,92.62799999999999,M,37.565,M,82.8,2006*66,37.23161438186667,137.02396542856664,679546.8832126957,4122485.785094672
558,[2021-02-22 15:11:30.486] $GNGGA,61129.9,3713.8968637159996,N,13701.437923701002,E,4,10,1.17,92.62799999999999,M,37.565,M,82.9,2006*6F,37.23161439526666,137.0239653950167,679546.88020434,4122485.78651784
559,[2021-02-22 15:11:30.595] $GNGGA,61130.0,3713.8968624609997,N,13701.437923485,E,4,10,1.17,92.62700000000001,M,37.565,M,83.0,2006*64,37.23161437434999,137.02396539141665,679546.879934565,4122485.7841901737
560,[2021-02-22 15:11:30.689] $GNGGA,61130.1,3713.896861307,N,13701.437922905,E,4,10,1.17,92.625,M,37.565,M,83.1,2006*66,37.23161435511666,137.02396538174997,679546.879122564,4122485.7820377764
561,[2021-02-22 15:11:30.814] $GNGGA,61130.2,3713.896861177,N,13701.437920803999,E,4,10,1.17,92.63,M,37.565,M,83.2,2006*65,37.231614352950004,137.02396534673332,679546.8760210113,4122485.7817309457
562,[2021-02-22 15:11:30.892] $GNGGA,61130.3,3713.896861796,N,13701.437921178,E,4,10,1.17,92.62700000000001,M,37.565,M,83.3,2006*69,37.23161436326666,137.02396535296668,679546.8765495636,4122485.7828874686
563,[2021-02-22 15:11:30.986] $GNGGA,61130.4,3713.896861333,N,13701.437919892,E,4,10,1.17,92.62700000000001,M,37.565,M,83.4,2006*64,37.23161435555,137.0239653315333,679546.8746662927,4122485.7819905975
564,[2021-02-22 15:11:31.095] $GNGGA,61130.5,3713.8968597420003,N,13701.437920532,E,4,10,1.17,92.62799999999999,M,37.565,M,83.5,2006*6F,37.23161432903334,137.02396534220003,679546.8756755578,4122485.7790686423
565,[2021-02-22 15:11:31.189] $GNGGA,61130.6,3713.896859588,N,13701.437919988999,E,4,10,1.17,92.626,M,37.565,M,83.6,2006*63,37.23161432646667,137.02396533315,679546.8748787226,4122485.7787666842
566,[2021-02-22 15:11:31.314] $GNGGA,61130.7,3713.8968594959997,N,13701.437920633001,E,4,10,1.17,92.62100000000001,M,37.565,M,83.7,2006*6E,37.23161432493333,137.02396534388333,679546.8758346281,4122485.7786169136
567,[2021-02-22 15:11:31.392] $GNGGA,61130.8,3713.896859682,N,13701.437921915,E,4,10,1.17,92.62,M,37.565,M,83.8,2006*62,37.23161432803333,137.02396536524998,679546.8777229305,4122485.7790014097
568,[2021-02-22 15:11:31.486] $GNGGA,61130.9,3713.896858904,N,13701.437920113998,E,4,10,1.17,92.619,M,37.565,M,83.9,2006*60,37.231614315066665,137.0239653352333,679546.8750906012,4122485.7775057345
569,[2021-02-22 15:11:31.595] $GNGGA,61131.0,3713.8968587790005,N,13701.437920335,E,4,10,1.17,92.62100000000001,M,37.565,M,84.0,2006*68,37.23161431298334,137.02396533891664,679546.8754223309,4122485.777281564
570,[2021-02-22 15:11:31.689] $GNGGA,61131.1,3713.896860317,N,13701.437920078,E,4,10,1.17,92.62100000000001,M,37.565,M,84.1,2006*65,37.231614338616666,137.02396533463335,679546.8749815017,4122485.780117617
571,[2021-02-22 15:11:31.814] $GNGGA,61131.2,3713.8968621559998,N,13701.437920483999,E,4,10,1.17,92.616,M,37.565,M,84.2,2006*63,37.23161436926666,137.0239653414,679546.8755091254,4122485.783531265
572,[2021-02-22 15:11:31.892] $GNGGA,61131.3,3713.896860813,N,13701.437920622,E,4,10,1.17,92.619,M,37.565,M,84.3,2006*68,37.23161434688333,137.0239653437,679546.8757662879,4122485.7810520567
573,[2021-02-22 15:11:31.986] $GNGGA,61131.4,3713.896861543,N,13701.437920077,E,4,9,2.02,92.626,M,37.565,M,84.4,2006*64,37.231614359050006,137.0239653346167,679546.8749315481,4122485.7823847947
574,[2021-02-22 15:11:32.095] $GNGGA,61131.5,3713.89686221,N,13701.43791938,E,4,9,2.02,92.626,M,37.565,M,84.5,2006*67,37.23161437016667,137.02396532299997,679546.8738745328,4122485.783596221
575,[2021-02-22 15:11:32.189] $GNGGA,61131.6,3713.896861572,N,13701.437920167,E,4,9,2.02,92.62299999999999,M,37.565,M,84.6,2006*63,37.23161435953334,137.02396533611667,679546.8750634799,4122485.782441268
576,[2021-02-22 15:11:32.314] $GNGGA,61131.7,3713.89686096,N,13701.437919373999,E,4,9,2.02,92.62899999999999,M,37.565,M,84.7,2006*6D,37.231614349333334,137.02396532289998,679546.8739150894,4122485.7812844412
577,[2021-02-22 15:11:32.392] $GNGGA,61131.8,3713.896860737,N,13701.437918383,E,4,9,2.02,92.632,M,37.565,M,84.8,2006*62,37.23161434561667,137.02396530638336,679546.8724585455,4122485.780840722
578,[2021-02-22 15:11:32.486] $GNGGA,61131.9,3713.8968610790002,N,13701.437917293999,E,4,9,2.02,92.632,M,37.565,M,84.9,2006*66,37.23161435131667,137.0239652882333,679546.8708347422,4122485.7814387423
579,[2021-02-22 15:11:32.595] $GNGGA,61132.0,3713.896861614,N,13701.437917672,E,4,9,2.02,92.63,M,37.565,M,85.0,2006*67,37.23161436023333,137.0239652945333,679546.8713725258,4122485.7824400538
580,[2021-02-22 15:11:32.705] $GNGGA,61132.1,3713.8968616829998,N,13701.43791819,E,4,10,1.17,92.634,M,37.565,M,85.1,2006*66,37.23161436138333,137.02396530316668,679546.8721357541,4122485.7825840306
581,[2021-02-22 15:11:32.783] $GNGGA,61132.2,3713.896861896,N,13701.437917254,E,4,10,1.17,92.62899999999999,M,37.565,M,85.2,2006*64,37.231614364933336,137.02396528756668,679546.8707432924,4122485.7829483314
582,[2021-02-22 15:11:32.892] $GNGGA,61132.3,3713.896861873,N,13701.43791649,E,4,10,1.17,92.62700000000001,M,37.565,M,85.3,2006*6E,37.23161436455,137.02396527483333,679546.8696144947,4122485.782881643
583,[2021-02-22 15:11:32.986] $GNGGA,61132.4,3713.896862143,N,13701.437916735,E,4,10,1.17,92.626,M,37.565,M,85.4,2006*6A,37.23161436904999,137.02396527891668,679546.8699660951,4122485.783388693
584,[2021-02-22 15:11:33.111] $GNGGA,61132.5,3713.8968621970002,N,13701.43791753,E,4,10,1.17,92.62700000000001,M,37.565,M,85.5,2006*64,37.23161436995,137.02396529216668,679546.8711395042,4122485.783513691
585,[2021-02-22 15:11:33.189] $GNGGA,61132.6,3713.8968606579997,N,13701.437918413001,E,4,10,1.17,92.625,M,37.565,M,85.6,2006*6F,37.23161434429999,137.02396530688335,679546.872506028,4122485.7806955767
586,[2021-02-22 15:11:33.298] $GNGGA,61132.7,3713.8968606109997,N,13701.437919434,E,4,10,1.17,92.62,M,37.565,M,85.7,2006*63,37.23161434351666,137.0239653239,679546.8740176111,4122485.780640942
587,[2021-02-22 15:11:33.392] $GNGGA,61132.8,3713.8968610240004,N,13701.437921952,E,4,10,1.17,92.619,M,37.565,M,85.8,2006*6E,37.23161435040001,137.02396536586667,679546.8777245802,4122485.781484303
588,[2021-02-22 15:11:33.517] $GNGGA,61132.9,3713.896860461,N,13701.437922602,E,4,10,1.17,92.619,M,37.565,M,85.9,2006*63,37.231614341016666,137.0239653767,679546.8787079812,4122485.780463714
589,[2021-02-22 15:11:33.595] $GNGGA,61133.0,3713.896859152,N,13701.437923726002,E,4,10,1.17,92.619,M,37.565,M,86.0,2006*68,37.231614319200006,137.02396539543335,679546.88042177,4122485.7780785556
590,[2021-02-22 15:11:33.689] $GNGGA,61133.1,3713.89685789,N,13701.437922747,E,4,10,1.17,92.62100000000001,M,37.565,M,86.1,2006*6C,37.23161429816666,137.02396537911665,679546.8790240459,4122485.7757138186
591,[2021-02-22 15:11:33.798] $GNGGA,61133.2,3713.8968579340003,N,13701.437922737,E,4,10,1.17,92.62100000000001,M,37.565,M,86.2,2006*64,37.231614298900006,137.02396537895,679546.879007522,4122485.775794873
592,[2021-02-22 15:11:33.908] $GNGGA,61133.3,3713.89685815,N,13701.43792455,E,4,10,1.17,92.618,M,37.565,M,86.3,2006*6E,37.23161430249999,137.0239654091667,679546.8816798169,4122485.776251636
593,[2021-02-22 15:11:33.986] $GNGGA,61133.4,3713.896858077,N,13701.437924967,E,4,10,1.17,92.616,M,37.565,M,86.4,2006*6C,37.231614301283344,137.02396541611668,679546.8822993098,4122485.7761298246
594,[2021-02-22 15:11:34.095] $GNGGA,61133.5,3713.8968572440003,N,13701.437925273001,E,4,10,1.17,92.62100000000001,M,37.565,M,86.5,2006*6A,37.23161428740001,137.02396542121667,679546.8827847221,4122485.7745990558
595,[2021-02-22 15:11:34.189] $GNGGA,61133.6,3713.8968569959998,N,13701.437924982,E,4,10,1.17,92.624,M,37.565,M,86.6,2006*6E,37.231614283266666,137.02396541636665,679546.8823642307,4122485.7741312347
596,[2021-02-22 15:11:34.314] $GNGGA,61133.7,3713.896857751,N,13701.437925468,E,4,10,1.17,92.62,M,37.565,M,86.7,2006*66,37.23161429585,137.02396542446667,679546.8830530157,4122485.7755428012
597,[2021-02-22 15:11:34.392] $GNGGA,61133.8,3713.896858347,N,13701.437925798999,E,4,9,2.02,92.625,M,37.565,M,86.8,2006*6D,37.23161430578334,137.02396542998332,679546.8835188875,4122485.7766554323
598,[2021-02-22 15:11:34.486] $GNGGA,61133.9,3713.89685815,N,13701.437924841,E,4,9,2.02,92.62700000000001,M,37.565,M,86.9,2006*60,37.23161430249999,137.02396541401666,679546.8821101078,4122485.7762608365
599,[2021-02-22 15:11:34.595] $GNGGA,61134.0,3713.896857992,N,13701.437925676999,E,4,9,2.02,92.626,M,37.565,M,87.0,2006*64,37.23161429986667,137.02396542794997,679546.8833525255,4122485.7759950846
600,[2021-02-22 15:11:34.689] $GNGGA,61134.1,3713.89685848,N,13701.437926923001,E,4,9,2.02,92.625,M,37.565,M,87.1,2006*6B,37.231614308,137.02396544871667,679546.8851756606,4122485.7769369227
601,[2021-02-22 15:11:34.814] $GNGGA,61134.2,3713.8968594790003,N,13701.437925262,E,4,10,1.74,92.62200000000001,M,37.565,M,87.2,2006*6C,37.23161432465,137.02396542103332,679546.8826800812,4122485.7787318304
602,[2021-02-22 15:11:34.892] $GNGGA,61134.3,3713.896779707,N,13701.43796502,E,4,10,1.74,92.544,M,37.565,M,87.3,2006*68,37.23161299511667,137.02396608366666,679546.944623447,4122485.632468741
603,[2021-02-22 15:11:34.986] $GNGGA,61134.4,3713.896774065,N,13701.437968958999,E,4,10,1.74,92.54,M,37.565,M,87.4,2006*68,37.23161290108334,137.02396614931664,679546.950671031,4122485.622159689
604,[2021-02-22 15:11:35.095] $GNGGA,61134.5,3713.89677217,N,13701.437969443,E,4,10,1.74,92.541,M,37.565,M,87.5,2006*6D,37.2316128695,137.02396615738334,679546.9514616422,4122485.618670621
605,[2021-02-22 15:11:35.189] $GNGGA,61134.6,3713.896773598,N,13701.437971243,E,4,10,1.74,92.54,M,37.565,M,87.6,2006*60,37.2316128933,137.02396618738337,679546.9540667937,4122485.6213682913
606,[2021-02-22 15:11:35.314] $GNGGA,61134.7,3713.896774617,N,13701.437970946,E,4,10,1.74,92.538,M,37.565,M,87.7,2006*63,37.23161291028334,137.02396618243333,679546.9535873298,4122485.623243308
607,[2021-02-22 15:11:35.392] $GNGGA,61134.8,3713.896773826,N,13701.43797076,E,4,9,1.99,92.541,M,37.565,M,87.8,2006*67,37.2316128971,137.02396617933334,679546.9533435757,4122485.621774654
608,[2021-02-22 15:11:35.486] $GNGGA,61134.9,3713.896772402,N,13701.437970317,E,4,10,1.74,92.54299999999999,M,37.565,M,87.9,2006*61,37.231612873366664,137.02396617194998,679546.9527448267,4122485.6191272843
609,[2021-02-22 15:11:35.595] $GNGGA,61135.0,3713.896772351,N,13701.437968482,E,4,10,1.74,92.539,M,37.565,M,88.0,2006*61,37.23161287251666,137.02396614136666,679546.950033478,4122485.618974954
610,[2021-02-22 15:11:35.689] $GNGGA,61135.1,3713.896772871,N,13701.437967449,E,4,10,1.74,92.539,M,37.565,M,88.1,2006*60,37.23161288118333,137.02396612414998,679546.9484854462,4122485.6199039156
611,[2021-02-22 15:11:35.814] $GNGGA,61135.2,3713.896772231,N,13701.43796804,E,4,10,1.74,92.541,M,37.565,M,88.2,2006*63,37.23161287051666,137.023966134,679546.9493846507,4122485.618739068
612,[2021-02-22 15:11:35.892] $GNGGA,61135.3,3713.896769393,N,13701.437973205,E,4,10,1.74,92.55,M,37.565,M,88.3,2006*69,37.231612823216665,137.02396622008334,679546.9571342183,4122485.613654135
613,[2021-02-22 15:11:35.986] $GNGGA,61135.4,3713.8967696890004,N,13701.437974983999,E,4,10,1.74,92.55,M,37.565,M,88.4,2006*62,37.23161282815001,137.02396624973335,679546.9597530745,4122485.614257768
614,[2021-02-22 15:11:36.095] $GNGGA,61135.5,3713.8967693540003,N,13701.437976322,E,4,10,1.74,92.551,M,37.565,M,88.5,2006*62,37.231612822566674,137.02396627203333,679546.9617447851,4122485.613680564
615,[2021-02-22 15:11:36.189] $GNGGA,61135.6,3713.8967691059997,N,13701.437975616001,E,4,10,1.74,92.554,M,37.565,M,88.6,2006*63,37.23161281843333,137.02396626026672,679546.9607106533,4122485.6131996214
616,[2021-02-22 15:11:36.314] $GNGGA,61135.7,3713.896768719,N,13701.437977484,E,4,10,1.74,92.556,M,37.565,M,88.7,2006*63,37.23161281198334,137.0239662914,679546.9634881134,4122485.6125430153
617,[2021-02-22 15:11:36.392] $GNGGA,61135.8,3713.896768751,N,13701.437979346001,E,4,10,1.74,92.552,M,37.565,M,88.8,2006*6C,37.23161281251666,137.02396632243338,679546.9662401432,4122485.61266106
618,[2021-02-22 15:11:36.486] $GNGGA,61135.9,3713.8967706709996,N,13701.437980051001,E,4,10,1.74,92.557,M,37.565,M,88.9,2006*60,37.23161284451666,137.02396633418337,679546.9672066884,4122485.616233953
619,[2021-02-22 15:11:36.595] $GNGGA,61136.0,3713.896771548,N,13701.437982206002,E,4,10,1.74,92.56,M,37.565,M,89.0,2006*6C,37.231612859133335,137.02396637010003,679546.970358552,4122485.6179238986
620,[2021-02-22 15:11:36.689] $GNGGA,61136.1,3713.8967718629997,N,13701.437982895,E,4,10,1.74,92.56,M,37.565,M,89.1,2006*68,37.23161286438333,137.02396638158336,679546.9713649024,4122485.618528203
621,[2021-02-22 15:11:36.814] $GNGGA,61136.2,3713.896773879,N,13701.437980108001,E,4,10,1.74,92.541,M,37.565,M,89.2,2006*6D,37.23161289798333,137.02396633513337,679546.9671641251,4122485.622168219
622,[2021-02-22 15:11:36.892] $GNGGA,61136.3,3713.8967735859997,N,13701.43797959,E,4,10,1.74,92.541,M,37.565,M,89.3,2006*63,37.2316128931,137.0239663265,679546.966409754,4122485.6216100054
623,[2021-02-22 15:11:36.986] $GNGGA,61136.4,3713.896772355,N,13701.437978277,E,4,10,1.74,92.54299999999999,M,37.565,M,89.4,2006*67,37.23161287258333,137.02396630461666,679546.96451693,4122485.619292038
624,[2021-02-22 15:11:37.095] $GNGGA,61136.5,3713.896772823,N,13701.437976596,E,4,10,1.74,92.541,M,37.565,M,89.5,2006*69,37.23161288038333,137.0239662766,679546.9620127743,4122485.6201043497
625,[2021-02-22 15:11:37.204] $GNGGA,61136.6,3713.896772238,N,13701.437976555,E,4,10,1.74,92.54299999999999,M,37.565,M,89.6,2006*64,37.23161287063333,137.02396627591665,679546.9619752798,4122485.6190212285
626,[2021-02-22 15:11:37.298] $GNGGA,61136.7,3713.8967728529997,N,13701.437978098,E,4,10,1.74,92.541,M,37.565,M,89.7,2006*6B,37.23161288088333,137.02396630163332,679546.9642325558,4122485.6202073162
627,[2021-02-22 15:11:37.392] $GNGGA,61136.8,3713.8967734870002,N,13701.437978401002,E,4,10,1.74,92.538,M,37.565,M,89.8,2006*65,37.23161289145,137.02396630668335,679546.9646555257,4122485.6213893346
628,[2021-02-22 15:11:37.486] $GNGGA,61136.9,3713.896771995,N,13701.437979643,E,4,10,1.74,92.539,M,37.565,M,89.9,2006*6D,37.23161286658334,137.02396632738333,679546.9665510328,4122485.6186694913
629,[2021-02-22 15:11:37.611] $GNGGA,61137.0,3713.896773918,N,13701.437978701999,E,4,9,1.99,92.539,M,37.565,M,90.0,2006*6D,37.23161289863333,137.02396631169995,679546.9650835608,4122485.6221958874
630,[2021-02-22 15:11:37.689] $GNGGA,61137.1,3713.896773481,N,13701.437979874,E,4,10,1.74,92.535,M,37.565,M,90.1,2006*68,37.23161289134999,137.0239663312333,679546.9668338462,4122485.6214248096
631,[2021-02-22 15:11:37.798] $GNGGA,61137.2,3713.896774761,N,13701.437980653,E,4,9,1.99,92.53399999999999,M,37.565,M,90.2,2006*65,37.231612912683325,137.02396634421666,679546.9679351227,4122485.623816508
632,[2021-02-22 15:11:37.892] $GNGGA,61137.3,3713.89677507,N,13701.437986636001,E,4,10,1.74,92.554,M,37.565,M,90.3,2006*6B,37.23161291783333,137.02396644393335,679546.9767698125,4122485.6245770976
633,[2021-02-22 15:11:38.017] $GNGGA,61137.4,3713.8967742659997,N,13701.437986348,E,4,10,1.74,92.553,M,37.565,M,90.4,2006*64,37.231612904433334,137.02396643913335,679546.9763757437,4122485.6230811765
634,[2021-02-22 15:11:38.095] $GNGGA,61137.5,3713.8967751540004,N,13701.437987618001,E,4,10,1.74,92.554,M,37.565,M,90.5,2006*61,37.231612919233335,137.02396646030002,679546.9782185473,4122485.624763483
635,[2021-02-22 15:11:38.189] $GNGGA,61137.6,3713.8967766909996,N,13701.437983576001,E,4,10,1.74,92.535,M,37.565,M,90.6,2006*64,37.231612944849985,137.02396639293332,679546.9721809713,4122485.627478017
636,[2021-02-22 15:11:38.298] $GNGGA,61137.7,3713.8967764540002,N,13701.437983383,E,4,10,1.74,92.536,M,37.565,M,90.7,2006*60,37.23161294090001,137.0239663897167,679546.9719049613,4122485.6270336397
637,[2021-02-22 15:11:38.407] $GNGGA,61137.8,3713.8967770890004,N,13701.437982524,E,4,10,1.74,92.535,M,37.565,M,90.8,2006*6C,37.23161295148334,137.02396637539997,679546.9706096674,4122485.6281807693
638,[2021-02-22 15:11:38.485] $GNGGA,61137.9,3713.896776836,N,13701.43798139,E,4,10,1.74,92.53,M,37.565,M,90.9,2006*6E,37.23161294726666,137.0239663565,679546.9689428597,4122485.6276770486
639,[2021-02-22 15:11:38.595] $GNGGA,61138.0,3713.896775765,N,13701.437980813,E,4,10,1.74,92.539,M,37.565,M,91.0,2006*62,37.23161292941667,137.02396634688333,679546.9681320125,4122485.625678236
640,[2021-02-22 15:11:38.689] $GNGGA,61138.1,3713.896774216,N,13701.43798011,E,4,10,1.74,92.539,M,37.565,M,91.1,2006*68,37.231612903599995,137.02396633516668,679546.9671537548,4122485.622791487
641,[2021-02-22 15:11:38.814] $GNGGA,61138.2,3713.896775418,N,13701.437979391001,E,4,10,1.74,92.53399999999999,M,37.565,M,91.2,2006*61,37.231612923633335,137.02396632318337,679546.966043062,4122485.6249915785
642,[2021-02-22 15:11:38.892] $GNGGA,61138.3,3713.8967763090004,N,13701.437979603,E,4,10,1.74,92.53399999999999,M,37.565,M,91.3,2006*6B,37.23161293848334,137.02396632671667,679546.9663213084,4122485.6266459837
643,[2021-02-22 15:11:38.985] $GNGGA,61138.4,3713.896776311,N,13701.437979953,E,4,10,1.74,92.537,M,37.565,M,91.4,2006*6B,37.23161293851667,137.02396633254997,679546.9668387612,4122485.626660748
644,[2021-02-22 15:11:39.095] $GNGGA,61138.5,3713.8967775220003,N,13701.437979764,E,4,10,1.74,92.53399999999999,M,37.565,M,91.5,2006*65,37.231612958700005,137.0239663294,679546.9665114105,4122485.628894241
645,[2021-02-22 15:11:39.189] $GNGGA,61138.6,3713.8967781190004,N,13701.437979597,E,4,10,1.74,92.531,M,37.565,M,91.6,2006*6D,37.231612968650005,137.02396632661666,679546.9662408654,4122485.6299929754
646,[2021-02-22 15:11:39.314] $GNGGA,61138.7,3713.896777704,N,13701.437980825,E,4,10,1.74,92.53200000000001,M,37.565,M,91.7,2006*69,37.23161296173333,137.02396634708333,679546.9680730862,4122485.629264354
647,[2021-02-22 15:11:39.392] $GNGGA,61138.8,3713.8967777929997,N,13701.437981374,E,4,10,1.74,92.53200000000001,M,37.565,M,91.8,2006*69,37.23161296321666,137.02396635623333,679546.9688813587,4122485.6294462956
648,[2021-02-22 15:11:39.485] $GNGGA,61138.9,3713.8967783890002,N,13701.437980376,E,4,8,2.34,92.531,M,37.565,M,91.9,2006*67,37.23161297315001,137.02396633959998,679546.9673820757,4122485.63051691
649,[2021-02-22 15:11:39.595] $GNGGA,61139.0,3713.896778235,N,13701.43798061,E,4,9,2.02,92.529,M,37.565,M,92.0,2006*6B,37.231612970583335,137.0239663435,679546.9677341768,4122485.630239519
650,[2021-02-22 15:11:39.688] $GNGGA,61139.1,3713.8967766709998,N,13701.437981645,E,4,9,2.02,92.531,M,37.565,M,92.1,2006*69,37.23161294451666,137.02396636075,679546.9693264442,4122485.6273799813
651,[2021-02-22 15:11:39.813] $GNGGA,61139.2,3713.8967755159997,N,13701.437982038,E,4,9,2.02,92.531,M,37.565,M,92.2,2006*67,37.23161292526666,137.02396636729998,679546.9699532313,4122485.6252564965
652,[2021-02-22 15:11:39.892] $GNGGA,61139.3,3713.896775425,N,13701.437982119,E,4,8,2.34,92.53,M,37.565,M,92.3,2006*61,37.231612923750006,137.02396636865,679546.9700766049,4122485.6250907765
653,[2021-02-22 15:11:39.985] $GNGGA,61139.4,3713.8967763909995,N,13701.437981566001,E,4,9,2.02,92.52799999999999,M,37.565,M,92.4,2006*68,37.231612939849995,137.02396635943336,679546.9692207044,4122485.6268596873
654,[2021-02-22 15:11:40.095] $GNGGA,61139.5,3713.896775737,N,13701.437982733001,E,4,8,2.34,92.529,M,37.565,M,92.5,2006*67,37.23161292895001,137.02396637888333,679546.9709721727,4122485.6256871605
655,[2021-02-22 15:11:40.188] $GNGGA,61139.6,3713.896776111,N,13701.437982324,E,4,8,2.34,92.52799999999999,M,37.565,M,92.6,2006*65,37.23161293518333,137.02396637206667,679546.9703526067,4122485.6263658567
656,[2021-02-22 15:11:40.313] $GNGGA,61139.7,3713.89677776,N,13701.437981971001,E,4,8,2.34,92.52600000000001,M,37.565,M,92.7,2006*63,37.23161296266667,137.02396636618334,679546.9697654337,4122485.6294041444
657,[2021-02-22 15:11:40.392] $GNGGA,61139.8,3713.8967789440003,N,13701.437980723998,E,4,8,2.34,92.525,M,37.565,M,92.8,2006*68,37.2316129824,137.02396634539997,679546.9678747077,4122485.6315542567
658,[2021-02-22 15:11:40.485] $GNGGA,61139.9,3713.896779577,N,13701.437982738,E,4,8,2.34,92.523,M,37.565,M,92.9,2006*6C,37.23161299295,137.02396637896666,679546.9708277286,4122485.6327885226
659,[2021-02-22 15:11:40.595] $GNGGA,61140.0,3713.8967777740004,N,13701.43798971,E,4,9,2.02,92.55,M,37.565,M,93.0,2006*6D,37.23161296290001,137.0239664951667,679546.9812083377,4122485.629674719
660,[2021-02-22 15:11:40.688] $GNGGA,61140.1,3713.896778014,N,13701.437989708998,E,4,9,2.02,92.54899999999999,M,37.565,M,93.1,2006*63,37.2316129669,137.02396649514998,679546.9811973647,4122485.6301185116
661,[2021-02-22 15:11:40.813] $GNGGA,61140.2,3713.8967785659997,N,13701.437990606,E,4,8,2.09,92.54,M,37.565,M,93.2,2006*66,37.2316129761,137.02396651010002,679546.9825019112,4122485.6311676702
662,[2021-02-22 15:11:40.892] $GNGGA,61140.3,3713.8967783929997,N,13701.437990628001,E,4,8,2.09,92.536,M,37.565,M,93.3,2006*67,37.23161297321666,137.02396651046666,679546.9825412817,4122485.6308484403
663,[2021-02-22 15:11:40.985] $GNGGA,61140.4,3713.896778595,N,13701.437990662,E,4,8,2.09,92.537,M,37.565,M,93.4,2006*68,37.231612976583335,137.02396651103334,679546.9825835698,4122485.631223069
664,[2021-02-22 15:11:41.095] $GNGGA,61140.5,3713.896778193,N,13701.437991772,E,4,8,2.09,92.54,M,37.565,M,93.5,2006*6B,37.23161296988333,137.0239665295333,679546.9842407899,4122485.630514756
665,[2021-02-22 15:11:41.188] $GNGGA,61140.6,3713.896776985,N,13701.437992783998,E,4,9,1.77,92.54,M,37.565,M,93.6,2006*6B,37.231612949749994,137.02396654639995,679546.9857849703,4122485.6283128313
666,[2021-02-22 15:11:41.313] $GNGGA,61140.7,3713.896777297,N,13701.437992439,E,4,9,1.77,92.539,M,37.565,M,93.7,2006*69,37.231612954949995,137.02396654065,679546.985262497,4122485.6288788966
667,[2021-02-22 15:11:41.391] $GNGGA,61140.8,3713.896777212,N,13701.437990469,E,4,9,1.77,92.539,M,37.565,M,93.8,2006*63,37.23161295353333,137.02396650781668,679546.9823528716,4122485.6286594234
668,[2021-02-22 15:11:41.485] $GNGGA,61140.9,3713.896777722,N,13701.437989436,E,4,9,1.77,92.539,M,37.565,M,93.9,2006*67,37.23161296203334,137.02396649060003,679546.9808052373,4122485.629569893
669,[2021-02-22 15:11:41.595] $GNGGA,61141.0,3713.8967789979997,N,13701.437989153,E,4,9,1.77,92.54,M,37.565,M,94.0,2006*69,37.2316129833,137.02396648588336,679546.9803363188,4122485.6319206166
670,[2021-02-22 15:11:41.704] $GNGGA,61141.1,3713.896779608,N,13701.437988365,E,4,9,1.77,92.539,M,37.565,M,94.1,2006*66,37.23161299346667,137.02396647275,679546.9791470004,4122485.633023757
671,[2021-02-22 15:11:41.798] $GNGGA,61141.2,3713.896779022,N,13701.437989598999,E,4,9,1.77,92.54,M,37.565,M,94.2,2006*62,37.2316129837,137.02396649331664,679546.980994852,4122485.6319791
672,[2021-02-22 15:11:41.891] $GNGGA,61141.3,3713.8967776040004,N,13701.43798967,E,4,9,1.77,92.535,M,37.565,M,94.3,2006*68,37.23161296006668,137.0239664945,679546.9811559101,4122485.6293590767
673,[2021-02-22 15:11:42.001] $GNGGA,61141.4,3713.896777543,N,13701.437990588998,E,4,9,1.77,92.535,M,37.565,M,94.4,2006*65,37.231612959050004,137.02396650981666,679546.9825172229,4122485.629275328
674,[2021-02-22 15:11:42.110] $GNGGA,61141.5,3713.896776096,N,13701.437990871002,E,4,9,1.77,92.535,M,37.565,M,94.5,2006*63,37.23161293493333,137.0239665145167,679546.9829914286,4122485.6266083466
675,[2021-02-22 15:11:42.188] $GNGGA,61141.6,3713.896776844,N,13701.437989203001,E,4,9,1.77,92.53399999999999,M,37.565,M,94.6,2006*62,37.23161294740001,137.0239664867167,679546.9804954212,4122485.627938866
676,[2021-02-22 15:11:42.298] $GNGGA,61141.7,3713.8967773629997,N,13701.437987984,E,4,9,1.77,92.52799999999999,M,37.565,M,94.7,2006*6A,37.23161295605,137.0239664664,679546.9786723958,4122485.6288600964
677,[2021-02-22 15:11:42.391] $GNGGA,61141.8,3713.89677674,N,13701.437988409,E,4,10,1.74,92.54,M,37.565,M,94.8,2006*6C,37.23161294566666,137.02396647348334,679546.9793254654,4122485.627721436
678,[2021-02-22 15:11:42.516] $GNGGA,61141.9,3713.896772653,N,13701.437988532,E,4,10,1.74,92.53299999999999,M,37.565,M,94.9,2006*66,37.23161287755,137.0239664755333,679546.9796689444,4122485.620167352
679,[2021-02-22 15:11:42.595] $GNGGA,61142.0,3713.896772679,N,13701.4379886,E,4,10,1.74,92.535,M,37.565,M,95.0,2006*68,37.23161287798333,137.02396647666666,679546.9797684673,4122485.6202175827
680,[2021-02-22 15:11:42.688] $GNGGA,61142.1,3713.896772185,N,13701.437988586002,E,4,10,1.74,92.54,M,37.565,M,95.1,2006*63,37.23161286975,137.02396647643337,679546.9797673043,4122485.6193036004
681,[2021-02-22 15:11:42.798] $GNGGA,61142.2,3713.8967725479997,N,13701.437988783,E,4,10,1.74,92.535,M,37.565,M,95.2,2006*63,37.2316128758,137.02396647971665,679546.9800442442,4122485.6199811143
682,[2021-02-22 15:11:42.907] $GNGGA,61142.3,3713.896772051,N,13701.437988254,E,4,10,1.74,92.53399999999999,M,37.565,M,95.3,2006*60,37.231612867516674,137.0239664709,679546.9792816791,4122485.619045302
683,[2021-02-22 15:11:42.985] $GNGGA,61142.4,3713.8967717859996,N,13701.437989091999,E,4,10,1.74,92.529,M,37.565,M,95.4,2006*6B,37.2316128631,137.02396648486666,679546.9805312852,4122485.618581739
684,[2021-02-22 15:11:43.094] $GNGGA,61142.5,3713.8967728740004,N,13701.437989131999,E,4,10,1.74,92.52799999999999,M,37.565,M,95.5,2006*60,37.231612881233346,137.0239664855333,679546.9805474073,4122485.620595013
685,[2021-02-22 15:11:43.188] $GNGGA,61142.6,3713.896773468,N,13701.437989118998,E,4,10,1.74,92.52600000000001,M,37.565,M,95.6,2006*67,37.23161289113334,137.02396648531663,679546.9805047001,4122485.6216930686
686,[2021-02-22 15:11:43.313] $GNGGA,61142.7,3713.896781355,N,13701.437984879,E,4,11,1.15,92.508,M,37.565,M,95.7,2006*6B,37.231613022583325,137.02396641464998,679546.9739232651,4122485.6361442185
687,[2021-02-22 15:11:43.391] $GNGGA,61142.8,3713.8967745140003,N,13701.437988639,E,4,11,1.15,92.52799999999999,M,37.565,M,95.8,2006*66,37.23161290856667,137.02396647731666,679546.9797535782,4122485.6236122306
688,[2021-02-22 15:11:43.485] $GNGGA,61142.9,3713.896774737,N,13701.437989797,E,4,11,1.15,92.529,M,37.565,M,95.9,2006*60,37.23161291228334,137.02396649661668,679546.9814570659,4122485.6240612306
689,[2021-02-22 15:11:43.594] $GNGGA,61143.0,3713.896775078,N,13701.437989581002,E,4,11,1.15,92.529,M,37.565,M,96.0,2006*6A,37.231612917966665,137.02396649301667,679546.9811241885,4122485.624685003
690,[2021-02-22 15:11:43.688] $GNGGA,61143.1,3713.896773865,N,13701.437990498,E,4,11,1.15,92.531,M,37.565,M,96.1,2006*60,37.23161289774999,137.0239665083,679546.982528095,4122485.622470828
691,[2021-02-22 15:11:43.813] $GNGGA,61143.2,3713.896773306,N,13701.437990398,E,4,11,1.15,92.531,M,37.565,M,96.2,2006*69,37.23161288843333,137.02396650663334,679546.9824023314,4122485.621433924
692,[2021-02-22 15:11:43.891] $GNGGA,61143.3,3713.896778762,N,13701.437987873,E,4,10,1.24,92.52600000000001,M,37.565,M,96.3,2006*69,37.23161297936666,137.02396646454997,679546.9784529419,4122485.631443717
693,[2021-02-22 15:11:43.985] $GNGGA,61143.4,3713.896778775,N,13701.437985728,E,4,10,1.24,92.52,M,37.565,M,96.4,2006*6A,37.23161297958333,137.0239664288,679546.9752806753,4122485.6313999407
694,[2021-02-22 15:11:44.094] $GNGGA,61143.5,3713.896780396,N,13701.437984808,E,4,10,1.24,92.515,M,37.565,M,96.5,2006*6E,37.2316130066,137.0239664134667,679546.9738562026,4122485.634368523
695,[2021-02-22 15:11:44.188] $GNGGA,61143.6,3713.8967790459997,N,13701.437984172,E,4,10,1.24,92.516,M,37.565,M,96.6,2006*61,37.23161298409999,137.02396640286668,679546.972969144,4122485.6318518966
696,[2021-02-22 15:11:44.313] $GNGGA,61143.7,3713.8967786929998,N,13701.437984173,E,4,10,1.24,92.514,M,37.565,M,96.7,2006*6D,37.23161297821666,137.02396640288333,679546.9729845806,4122485.6311991354
697,[2021-02-22 15:11:44.391] $GNGGA,61143.8,3713.8967792159997,N,13701.437984741999,E,4,10,1.24,92.512,M,37.565,M,96.8,2006*67,37.23161298693333,137.02396641236663,679546.9738052626,4122485.6321842945
698,[2021-02-22 15:11:44.485] $GNGGA,61143.9,3713.896778983,N,13701.437985036999,E,4,10,1.24,92.515,M,37.565,M,96.9,2006*62,37.23161298305,137.0239664172833,679546.9742506855,4122485.631762742
699,[2021-02-22 15:11:44.594] $GNGGA,61144.0,3713.8967795070002,N,13701.437984801001,E,4,10,1.24,92.515,M,37.565,M,97.0,2006*69,37.23161299178334,137.02396641335002,679546.9738810039,4122485.6327243
700,[2021-02-22 15:11:44.688] $GNGGA,61144.1,3713.896778592,N,13701.437985043001,E,4,10,1.24,92.51799999999999,M,37.565,M,97.1,2006*66,37.231612976533334,137.02396641738335,679546.9742750223,4122485.6310398676
701,[2021-02-22 15:11:44.813] $GNGGA,61144.2,3713.896779185,N,13701.437985878001,E,4,10,1.24,92.515,M,37.565,M,97.2,2006*68,37.231612986416664,137.02396643130004,679546.9754862685,4122485.632162884
702,[2021-02-22 15:11:44.891] $GNGGA,61144.3,3713.896779899,N,13701.437986273,E,4,10,1.24,92.516,M,37.565,M,97.3,2006*6D,37.23161299831667,137.02396643788336,679546.9760421108,4122485.6334957536
703,[2021-02-22 15:11:44.985] $GNGGA,61144.4,3713.89678091,N,13701.437986923,E,4,10,1.24,92.515,M,37.565,M,97.4,2006*66,37.23161301516667,137.02396644871666,679546.97696327,4122485.6353859184
704,[2021-02-22 15:11:45.094] $GNGGA,61144.5,3713.8967828140003,N,13701.4379861,E,4,10,1.24,92.516,M,37.565,M,97.5,2006*6B,37.23161304690001,137.023966435,679546.975671038,4122485.638880912
705,[2021-02-22 15:11:45.188] $GNGGA,61144.6,3713.896783559,N,13701.43798529,E,4,10,1.24,92.512,M,37.565,M,97.6,2006*63,37.23161305931667,137.02396642149998,679546.9744438517,4122485.6402330105
706,[2021-02-22 15:11:45.313] $GNGGA,61144.7,3713.896783302,N,13701.43798653,E,4,10,1.24,92.509,M,37.565,M,97.7,2006*6F,37.23161305503334,137.02396644216665,679546.9762875685,4122485.6397969513
707,[2021-02-22 15:11:45.391] $GNGGA,61144.8,3713.89678585,N,13701.437984241002,E,4,10,1.24,92.49600000000001,M,37.565,M,97.8,2006*61,37.2316130975,137.0239664040167,679546.9728021395,4122485.6444365247
708,[2021-02-22 15:11:45.485] $GNGGA,61144.9,3713.896785642,N,13701.437984233,E,4,10,1.24,92.494,M,37.565,M,97.9,2006*6B,37.231613094033335,137.02396640388332,679546.9727985305,4122485.644051623
709,[2021-02-22 15:11:45.594] $GNGGA,61145.0,3713.8967851790003,N,13701.43798178,E,4,11,1.15,92.49700000000001,M,37.565,M,98.0,2006*62,37.23161308631666,137.023966363,679546.9691896513,4122485.6431178544
710,[2021-02-22 15:11:45.704] $GNGGA,61145.1,3713.89678556,N,13701.437982275,E,4,11,1.15,92.493,M,37.565,M,98.1,2006*66,37.23161309266667,137.02396637124997,679546.9699065277,4122485.643838078
711,[2021-02-22 15:11:45.797] $GNGGA,61145.2,3713.8967849279998,N,13701.437981895,E,4,11,1.15,92.495,M,37.565,M,98.2,2006*66,37.231613082133336,137.02396636491667,679546.9693696245,4122485.642657323
712,[2021-02-22 15:11:45.891] $GNGGA,61145.3,3713.8967835840003,N,13701.4379816,E,4,11,1.15,92.5,M,37.565,M,98.3,2006*64,37.23161305973334,137.02396636,679546.9689865576,4122485.6401625755
713,[2021-02-22 15:11:45.985] $GNGGA,61145.4,3713.8967828620002,N,13701.437982028001,E,4,12,1.02,92.5,M,37.565,M,98.4,2006*6A,37.23161304770001,137.02396636713334,679546.9696479798,4122485.6388409333
714,[2021-02-22 15:11:46.110] $GNGGA,61145.5,3713.896779824,N,13701.437985873,E,4,11,1.09,92.51899999999999,M,37.565,M,98.5,2006*6D,37.23161299706667,137.02396643121665,679546.9754536042,4122485.6333444114
715,[2021-02-22 15:11:46.188] $GNGGA,61145.6,3713.896779711,N,13701.437987488998,E,4,11,1.09,92.516,M,37.565,M,98.6,2006*60,37.23161299518333,137.02396645814997,679546.9778476078,4122485.6331865364
716,[2021-02-22 15:11:46.297] $GNGGA,61145.7,3713.896780443,N,13701.437987935,E,4,11,1.09,92.51700000000001,M,37.565,M,98.7,2006*69,37.231613007383324,137.02396646558333,679546.9784781551,4122485.6345543033
717,[2021-02-22 15:11:46.391] $GNGGA,61145.8,3713.896782102,N,13701.43798827,E,4,11,1.09,92.52,M,37.565,M,98.8,2006*6A,37.23161303503334,137.02396647116663,679546.9789079092,4122485.637632839
718,[2021-02-22 15:11:46.516] $GNGGA,61145.9,3713.896782867,N,13701.437985856,E,4,11,1.09,92.523,M,37.565,M,98.9,2006*60,37.23161304778334,137.02396643093334,679546.9753081446,4122485.638971208
719,[2021-02-22 15:11:46.594] $GNGGA,61146.0,3713.896783888,N,13701.437983978001,E,4,11,1.09,92.51700000000001,M,37.565,M,99.0,2006*6E,37.2316130648,137.02396639963337,679546.9724908271,4122485.640799939
720,[2021-02-22 15:11:46.688] $GNGGA,61146.1,3713.8967847790004,N,13701.437982413001,E,4,11,1.09,92.51100000000001,M,37.565,M,99.1,2006*6F,37.23161307965001,137.02396637355,679546.9701414682,4122485.6423981604
721,[2021-02-22 15:11:46.797] $GNGGA,61146.2,3713.896779527,N,13701.437977925,E,4,11,1.09,92.509,M,37.565,M,99.2,2006*6F,37.231612992116666,137.02396629875,679546.9637128488,4122485.6325438865
722,[2021-02-22 15:11:46.907] $GNGGA,61146.3,3713.896776436,N,13701.437974986002,E,4,11,1.09,92.51100000000001,M,37.565,M,99.3,2006*62,37.231612940599994,137.0239662497667,679546.9594892492,4122485.6267348654
723,[2021-02-22 15:11:46.985] $GNGGA,61146.4,3713.896775652,N,13701.437972533,E,4,12,1.02,92.51,M,37.565,M,99.4,2006*6C,37.23161292753334,137.02396620888334,679546.9558930625,4122485.6252074814
724,[2021-02-22 15:11:47.094] $GNGGA,61146.5,3713.896779105,N,13701.43797425,E,4,11,1.08,92.507,M,37.565,M,99.5,2006*6E,37.23161298508333,137.02396623750002,679546.9582954112,4122485.6316473023
725,[2021-02-22 15:11:47.188] $GNGGA,61146.6,3713.896778619,N,13701.437974337,E,4,11,1.08,92.51,M,37.565,M,99.6,2006*63,37.231612976983335,137.02396623895,679546.9584432729,4122485.630751306
726,[2021-02-22 15:11:47.313] $GNGGA,61146.7,3713.8967812309997,N,13701.437968154,E,4,11,1.08,92.506,M,37.565,M,99.7,2006*66,37.23161302051667,137.0239661359,679546.9491973502,4122485.635386118
733,[2021-02-22 15:11:47.985] $GNGGA,61147.4,3713.8967741559995,N,13701.437960193998,E,4,11,1.15,92.51700000000001,M,37.565,M,100.4,2006*56,37.23161290259999,137.0239660032333,679546.9377068573,4122485.62205085
734,[2021-02-22 15:11:48.094] $GNGGA,61147.5,3713.896773428,N,13701.437957041999,E,4,11,1.15,92.51700000000001,M,37.565,M,100.5,2006*53,37.23161289046667,137.02396595069996,679546.933074862,4122485.6206049253
735,[2021-02-22 15:11:48.188] $GNGGA,61147.6,3713.896773064,N,13701.437955366,E,4,11,1.15,92.51799999999999,M,37.565,M,100.6,2006*57,37.23161288440001,137.02396592276668,679546.930611002,4122485.6198788
736,[2021-02-22 15:11:48.313] $GNGGA,61147.7,3713.8967736179998,N,13701.437958725,E,4,11,1.15,92.51700000000001,M,37.565,M,100.7,2006*5B,37.23161289363333,137.02396597875,679546.9355559617,4122485.6210094965
737,[2021-02-22 15:11:48.391] $GNGGA,61147.8,3713.896775585,N,13701.437959195,E,4,11,1.15,92.51799999999999,M,37.565,M,100.8,2006*59,37.23161292641666,137.0239659865833,679546.9361731582,4122485.6246618745
738,[2021-02-22 15:11:48.485] $GNGGA,61147.9,3713.896776138,N,13701.43796028,E,4,11,1.15,92.51700000000001,M,37.565,M,100.9,2006*5A,37.231612935633336,137.02396600466668,679546.9377556557,4122485.625718826
739,[2021-02-22 15:11:48.594] $GNGGA,61148.0,3713.896776405,N,13701.437960438001,E,4,11,1.15,92.516,M,37.565,M,101.0,2006*5B,37.23161294008334,137.0239660073,679546.9379787298,4122485.626217578
740,[2021-02-22 15:11:48.688] $GNGGA,61148.1,3713.8967776890004,N,13701.437962176002,E,4,11,1.15,92.51299999999999,M,37.565,M,101.1,2006*54,37.23161296148334,137.0239660362667,679546.940497896,4122485.6286469926
741,[2021-02-22 15:11:48.813] $GNGGA,61148.2,3713.89677785,N,13701.437965935,E,4,11,1.15,92.51700000000001,M,37.565,M,101.2,2006*52,37.23161296416667,137.02396609891667,679546.9460498629,4122485.629063574
742,[2021-02-22 15:11:48.891] $GNGGA,61148.3,3713.8967823479998,N,13701.437968748001,E,4,11,1.15,92.516,M,37.565,M,101.3,2006*52,37.23161303913332,137.02396614580002,679546.9500315174,4122485.6374705336
743,[2021-02-22 15:11:48.985] $GNGGA,61148.4,3713.896781892,N,13701.437971246001,E,4,11,1.15,92.512,M,37.565,M,101.4,2006*5A,37.231613031533335,137.0239661874334,679546.9537432772,4122485.6367062465
744,[2021-02-22 15:11:49.094] $GNGGA,61148.5,3713.896779605,N,13701.437972098998,E,4,11,1.15,92.51,M,37.565,M,101.5,2006*5C,37.231612993416675,137.02396620164996,679546.9550950074,4122485.6325039314
745,[2021-02-22 15:11:49.188] $GNGGA,61148.6,3713.896776068,N,13701.437972136999,E,4,12,0.89,92.51899999999999,M,37.565,M,101.6,2006*55,37.23161293446666,137.0239662022833,679546.9552910558,4122485.625964256
746,[2021-02-22 15:11:49.313] $GNGGA,61148.7,3713.896771118,N,13701.437968785,E,4,12,0.89,92.515,M,37.565,M,101.7,2006*5C,37.231612851966666,137.02396614641668,679546.950530273,4122485.6167043815
747,[2021-02-22 15:11:49.391] $GNGGA,61148.8,3713.896769767,N,13701.437966168998,E,4,12,0.89,92.516,M,37.565,M,101.8,2006*52,37.23161282944999,137.02396610281664,679546.946715479,4122485.6141233067
748,[2021-02-22 15:11:49.485] $GNGGA,61148.9,3713.896768413,N,13701.437963384,E,4,12,0.89,92.514,M,37.565,M,101.9,2006*55,37.23161280688333,137.0239660564,679546.942650914,4122485.611531339
749,[2021-02-22 15:11:49.594] $GNGGA,61149.0,3713.8967677459996,N,13701.437963072,E,4,12,0.89,92.51700000000001,M,37.565,M,102.0,2006*52,37.23161279576666,137.02396605119998,679546.9422159367,4122485.610288011
750,[2021-02-22 15:11:49.688] $GNGGA,61149.1,3713.8967630190004,N,13701.437959378001,E,4,10,1.88,92.55,M,37.565,M,102.1,2006*5A,37.231612716983335,137.02396598963335,679546.9369406309,4122485.6014297125
751,[2021-02-22 15:11:49.813] $GNGGA,61149.2,3713.896768698,N,13701.437958858998,E,4,9,2.02,92.553,M,37.565,M,102.2,2006*5D,37.23161281163334,137.0239659809833,679546.9359486407,4122485.611915317
752,[2021-02-22 15:11:49.891] $GNGGA,61149.3,3713.8967696679997,N,13701.437958001,E,4,9,2.02,92.556,M,37.565,M,102.3,2006*53,37.2316128278,137.02396596668333,679546.9346415881,4122485.6136819827
753,[2021-02-22 15:11:49.985] $GNGGA,61149.4,3713.896769,N,13701.437955653999,E,4,9,2.02,92.557,M,37.565,M,102.4,2006*51,37.23161281666667,137.02396592756662,679546.931197549,4122485.612372465
754,[2021-02-22 15:11:50.094] $GNGGA,61149.5,3713.896768125,N,13701.437955659,E,4,9,2.02,92.557,M,37.565,M,102.5,2006*5B,37.23161280208333,137.02396592765,679546.9312395472,4122485.6107545104
755,[2021-02-22 15:11:50.203] $GNGGA,61149.6,3713.896766588,N,13701.437957506001,E,4,9,2.02,92.559,M,37.565,M,102.6,2006*53,37.23161277646667,137.02396595843337,679546.9340314327,4122485.607970576
756,[2021-02-22 15:11:50.297] $GNGGA,61149.7,3713.89676434,N,13701.437959669,E,4,9,2.02,92.55799999999999,M,37.565,M,102.7,2006*56,37.231612739,137.02396599448332,679546.9373186883,4122485.6038817987
757,[2021-02-22 15:11:50.391] $GNGGA,61149.8,3713.896763018,N,13701.437961916,E,4,9,2.02,92.56,M,37.565,M,102.8,2006*58,37.231612716966666,137.02396603193333,679546.9406935425,4122485.601508105
758,[2021-02-22 15:11:50.485] $GNGGA,61149.9,3713.8967639390003,N,13701.437962287,E,4,9,2.02,92.559,M,37.565,M,102.9,2006*58,37.23161273231667,137.02396603811667,679546.9412057129,4122485.6032230156
759,[2021-02-22 15:11:50.610] $GNGGA,61150.0,3713.8967645,N,13701.43796281,E,4,9,2.02,92.555,M,37.565,M,103.0,2006*58,37.231612741666666,137.02396604683332,679546.9419568757,4122485.6042769924
760,[2021-02-22 15:11:50.688] $GNGGA,61150.1,3713.896764904,N,13701.43796348,E,4,9,2.02,92.553,M,37.565,M,103.1,2006*52,37.231612748399996,137.023966058,679546.9429316154,4122485.60504528
761,[2021-02-22 15:11:50.797] $GNGGA,61150.2,3713.896766754,N,13701.437962498001,E,4,9,2.02,92.54899999999999,M,37.565,M,103.2,2006*58,37.23161277923334,137.02396604163337,679546.9414064086,4122485.608435387
762,[2021-02-22 15:11:50.891] $GNGGA,61150.3,3713.896769504,N,13701.437963405,E,4,9,2.02,92.545,M,37.565,M,103.3,2006*59,37.23161282506667,137.02396605674997,679546.9426388236,4122485.613549559
763,[2021-02-22 15:11:51.016] $GNGGA,61150.4,3713.8967710459997,N,13701.437961063,E,4,9,2.02,92.53299999999999,M,37.565,M,103.4,2006*54,37.23161285076666,137.0239660177167,679546.9391148034,4122485.616327089
764,[2021-02-22 15:11:51.094] $GNGGA,61150.5,3713.896770179,N,13701.437960742,E,4,9,2.02,92.53399999999999,M,37.565,M,103.5,2006*5A,37.23161283631667,137.02396601236663,679546.9386744245,4122485.614713622
765,[2021-02-22 15:11:51.188] $GNGGA,61150.6,3713.89676777,N,13701.437960245,E,4,10,1.88,92.54,M,37.565,M,103.6,2006*5B,37.23161279616667,137.02396600408338,679546.9380347843,4122485.6102430145
766,[2021-02-22 15:11:51.297] $GNGGA,61150.7,3713.8967668140003,N,13701.437963084,E,4,10,1.88,92.54299999999999,M,37.565,M,103.7,2006*58,37.23161278023334,137.02396605139998,679546.9422705346,4122485.608564871
767,[2021-02-22 15:11:51.406] $GNGGA,61150.8,3713.8967628779997,N,13701.437959248999,E,4,11,1.15,92.53399999999999,M,37.565,M,103.8,2006*59,37.23161271463332,137.02396598748328,679546.9367554502,4122485.6011648835
768,[2021-02-22 15:11:51.485] $GNGGA,61150.9,3713.8967610970003,N,13701.437957224,E,4,11,1.15,92.53,M,37.565,M,103.9,2006*52,37.23161268495001,137.02396595373332,679546.9338315616,4122485.5978073087
769,[2021-02-22 15:11:51.594] $GNGGA,61151.0,3713.896759342,N,13701.43795668,E,4,11,1.15,92.535,M,37.565,M,104.0,2006*5A,37.23161265570001,137.02396594466666,679546.9330965574,4122485.594544637
770,[2021-02-22 15:11:51.688] $GNGGA,61151.1,3713.896758397,N,13701.437958577,E,4,11,1.15,92.53399999999999,M,37.565,M,104.1,2006*57,37.23161263995,137.02396597628334,679546.9359389704,4122485.5928570516
771,[2021-02-22 15:11:51.797] $GNGGA,61151.2,3713.8967567090003,N,13701.437958154,E,4,11,1.15,92.539,M,37.565,M,104.2,2006*52,37.23161261181668,137.02396596923333,679546.9353802348,4122485.589722108
772,[2021-02-22 15:11:51.906] $GNGGA,61151.3,3713.896760389,N,13701.437958609,E,4,11,1.15,92.53399999999999,M,37.565,M,104.3,2006*59,37.23161267315,137.02396597681667,679546.9359075209,4122485.596541813
773,[2021-02-22 15:11:51.985] $GNGGA,61151.4,3713.896761361,N,13701.437959728,E,4,11,1.15,92.53200000000001,M,37.565,M,104.4,2006*5B,37.23161268935,137.02396599546665,679546.9375237217,4122485.598374685
774,[2021-02-22 15:11:52.094] $GNGGA,61151.5,3713.8967595070003,N,13701.437962195,E,4,11,1.15,92.535,M,37.565,M,104.5,2006*59,37.23161265845,137.02396603658332,679546.941244918,4122485.5950241326
775,[2021-02-22 15:11:52.188] $GNGGA,61151.6,3713.896758017,N,13701.43796398,E,4,11,1.15,92.537,M,37.565,M,104.6,2006*53,37.23161263361667,137.02396606633334,679546.9439432704,4122485.592325154
776,[2021-02-22 15:11:52.297] $GNGGA,61151.7,3713.896756617,N,13701.437965505,E,4,11,1.15,92.54299999999999,M,37.565,M,104.7,2006*5F,37.231612610283335,137.02396609175,679546.9462536038,4122485.58978439
777,[2021-02-22 15:11:52.406] $GNGGA,61151.8,3713.896753884,N,13701.437965031,E,4,12,0.97,92.54700000000001,M,37.565,M,104.8,2006*50,37.23161256473333,137.02396608384998,679546.9456607765,4122485.584715343
778,[2021-02-22 15:11:52.484] $GNGGA,61151.9,3713.896754593,N,13701.437966828998,E,4,12,0.97,92.54700000000001,M,37.565,M,104.9,2006*5E,37.23161257655,137.02396611381664,679546.9482913961,4122485.5860833237
779,[2021-02-22 15:11:52.594] $GNGGA,61152.0,3713.896752783,N,13701.437967292,E,4,12,0.97,92.556,M,37.565,M,105.0,2006*52,37.23161254638333,137.02396612153333,679546.9490475929,4122485.58275078
780,[2021-02-22 15:11:52.688] $GNGGA,61152.1,3713.8967563459996,N,13701.437963221,E,4,12,0.97,92.537,M,37.565,M,105.1,2006*50,37.231612605766664,137.02396605368332,679546.9428870269,4122485.589211023
781,[2021-02-22 15:11:52.797] $GNGGA,61152.2,3713.896756735,N,13701.43796404,E,4,12,0.97,92.538,M,37.565,M,105.2,2006*5D,37.231612612250004,137.02396606733333,679546.9440826816,4122485.589956284
782,[2021-02-22 15:11:52.906] $GNGGA,61152.3,3713.896752581,N,13701.437968277,E,4,12,0.97,92.55,M,37.565,M,105.3,2006*50,37.23161254301666,137.02396613795,679546.9505120746,4122485.582408369
783,[2021-02-22 15:11:52.984] $GNGGA,61152.4,3713.896751187,N,13701.437968068001,E,4,12,0.97,92.54799999999999,M,37.565,M,105.4,2006*54,37.23161251978333,137.0239661344667,679546.950258153,4122485.579823877
784,[2021-02-22 15:11:53.094] $GNGGA,61152.5,3713.896748676,N,13701.43796747,E,4,12,0.97,92.552,M,37.565,M,105.5,2006*5C,37.231612477933325,137.0239661245,679546.9494731915,4122485.575161448
785,[2021-02-22 15:11:53.188] $GNGGA,61152.6,3713.896749623,N,13701.43796498,E,4,12,0.97,92.553,M,37.565,M,105.6,2006*5D,37.23161249371666,137.02396608299998,679546.9457538459,4122485.5768339834
786,[2021-02-22 15:11:53.297] $GNGGA,61152.7,3713.8967528740004,N,13701.437963188999,E,4,12,1.04,92.55799999999999,M,37.565,M,105.7,2006*5D,37.231612547900006,137.02396605315,679546.942976997,4122485.5827893405
787,[2021-02-22 15:11:53.406] $GNGGA,61152.8,3713.896754067,N,13701.437962701999,E,4,12,1.04,92.553,M,37.565,M,105.8,2006*5E,37.23161256778334,137.02396604503332,679546.9422097099,4122485.584980125
788,[2021-02-22 15:11:53.484] $GNGGA,61152.9,3713.8967545309997,N,13701.437963768001,E,4,12,1.04,92.54,M,37.565,M,105.9,2006*57,37.23161257551666,137.0239660628,679546.9437676304,4122485.5858718883
789,[2021-02-22 15:11:53.594] $GNGGA,61153.0,3713.8967561809995,N,13701.437965695,E,4,12,1.04,92.535,M,37.565,M,106.0,2006*5F,37.231612603016664,137.0239660949167,679546.9465517935,4122485.5889841146
790,[2021-02-22 15:11:53.688] $GNGGA,61153.1,3713.8967580020003,N,13701.437967141,E,4,12,1.04,92.531,M,37.565,M,106.1,2006*53,37.231612633366666,137.02396611901668,679546.94861795,4122485.592397355
791,[2021-02-22 15:11:53.797] $GNGGA,61153.2,3713.8967614209996,N,13701.43796603,E,4,12,1.04,92.529,M,37.565,M,106.2,2006*53,37.23161269034999,137.0239661005,679546.9468399519,4122485.5986848893
792,[2021-02-22 15:11:53.906] $GNGGA,61153.3,3713.896765512,N,13701.437964599,E,4,12,1.04,92.53,M,37.565,M,106.3,2006*5A,37.23161275853333,137.02396607665,679546.9445622091,4122485.6062050164
793,[2021-02-22 15:11:53.984] $GNGGA,61153.4,3713.8967691459998,N,13701.437960967,E,4,12,1.04,92.539,M,37.565,M,106.4,2006*53,37.23161281909999,137.02396601611665,679546.939047972,4122485.6128104385
794,[2021-02-22 15:11:54.094] $GNGGA,61153.5,3713.896771363,N,13701.437958651,E,4,12,1.04,92.541,M,37.565,M,106.5,2006*51,37.231612856050006,137.0239659775167,679546.9355357059,4122485.6168370508
795,[2021-02-22 15:11:54.187] $GNGGA,61153.6,3713.896774251,N,13701.437957065,E,4,12,1.04,92.544,M,37.565,M,106.6,2006*5F,37.23161290418333,137.0239659510833,679546.9330763306,4122485.622127601
796,[2021-02-22 15:11:54.297] $GNGGA,61153.7,3713.8967760190003,N,13701.437958797,E,4,12,1.04,92.544,M,37.565,M,106.7,2006*56,37.23161293365001,137.02396597994996,679546.9355674848,4122485.6254518763
797,[2021-02-22 15:11:54.406] $GNGGA,61153.8,3713.8967775220003,N,13701.437959181001,E,4,12,1.04,92.54700000000001,M,37.565,M,106.8,2006*59,37.231612958700005,137.02396598635002,679546.9360758713,4122485.6282434715
