,Format,Time,Latitude,LatType,Longitude,LonType,Status,Satellite,LevelAccuracy,Altitude(sea),M(sea),Altitude(geoid),M(geoid),DGPS use,checksum,Lat,Lon,UTM_X,UTM_Y
1167,[2021-02-22 15:18:20.990] $GNGGA,61820.4,3713.896371195,N,13701.437228926,E,4,10.0,1.2,88.104,M,37.565,M,3.4,2006*5E,37.23160618658333,137.02395381543332,679545.8723334066,4122484.8537461422
1168,[2021-02-22 15:18:21.115] $GNGGA,61820.5,3713.896380806,N,13701.437229321002,E,4,10.0,1.2,88.195,M,37.565,M,3.5,2006*57,37.23160634676666,137.0239538220167,679545.8725374627,4122484.8715319806
1169,[2021-02-22 15:18:21.193] $GNGGA,61820.6,3713.8963730090004,N,13701.437224513,E,4,10.0,1.2,88.109,M,37.565,M,3.6,2006*53,37.23160621681667,137.02395374188333,679545.8657362947,4122484.856961197
1170,[2021-02-22 15:18:21.287] $GNGGA,61820.7,3713.896375287,N,13701.437222668,E,4,10.0,1.2,88.109,M,37.565,M,3.7,2006*58,37.23160625478333,137.02395371113332,679545.8629180646,4122484.8611155045
1171,[2021-02-22 15:18:21.396] $GNGGA,61820.8,3713.896371676,N,13701.437223889,E,4,10.0,1.2,88.088,M,37.565,M,3.8,2006*5E,37.231606194600005,137.02395373148332,679545.864866307,4122484.8544763885
1172,[2021-02-22 15:18:21.506] $GNGGA,61820.9,3713.896370013,N,13701.437225132,E,4,10.0,1.2,88.079,M,37.565,M,3.9,2006*5B,37.23160616688333,137.0239537522,679545.8667700562,4122484.851440348
1173,[2021-02-22 15:18:21.584] $GNGGA,61821.0,3713.896368822,N,13701.437228081999,E,4,10.0,1.2,88.072,M,37.565,M,4.0,2006*52,37.23160614703334,137.02395380136667,679545.8711792394,4122484.849331136
1174,[2021-02-22 15:18:21.693] $GNGGA,61821.1,3713.896367605,N,13701.437233117,E,4,10.0,1.2,88.061,M,37.565,M,4.1,2006*53,37.231606126749995,137.02395388528333,679545.8786724815,4122484.8472397607
1175,[2021-02-22 15:18:21.787] $GNGGA,61821.2,3713.896369687,N,13701.437254941999,E,4,10.0,1.2,88.149,M,37.565,M,4.2,2006*55,37.23160616145,137.02395424903332,679545.9108622142,4122484.8517799773
1176,[2021-02-22 15:18:21.912] $GNGGA,61821.3,3713.8963699309998,N,13701.437257423999,E,4,10.0,1.2,88.15,M,37.565,M,4.3,2006*51,37.23160616551666,137.02395429039998,679545.9145226355,4122484.852309672
1177,[2021-02-22 15:18:21.990] $GNGGA,61821.4,3713.896369796,N,13701.437261335,E,4,9.0,1.8,88.149,M,37.565,M,4.4,2006*5A,37.23160616326667,137.02395435558336,679545.9203110691,4122484.852183674
1178,[2021-02-22 15:18:22.084] $GNGGA,61821.5,3713.896369958,N,13701.437262606001,E,4,9.0,1.8,88.152,M,37.565,M,4.5,2006*5A,37.23160616596666,137.02395437676668,679545.922184058,4122484.852523439
1179,[2021-02-22 15:18:22.193] $GNGGA,61821.6,3713.8963713470002,N,13701.437264252,E,4,9.0,1.8,88.15299999999999,M,37.565,M,4.6,2006*55,37.231606189116675,137.02395440419997,679545.9245630283,4122484.8551441208
1180,[2021-02-22 15:18:22.318] $GNGGA,61821.7,3713.896371435,N,13701.437267198999,E,4,9.0,1.8,88.15100000000001,M,37.565,M,4.7,2006*52,37.23160619058334,137.02395445331663,679545.9289172009,4122484.855400031
1181,[2021-02-22 15:18:22.396] $GNGGA,61821.8,3713.8963719840003,N,13701.437267586001,E,4,9.0,1.8,88.156,M,37.565,M,4.8,2006*58,37.23160619973334,137.02395445976668,679545.9294677454,4122484.856427517
1182,[2021-02-22 15:18:22.490] $GNGGA,61821.9,3713.896371524,N,13701.437267236,E,4,9.0,1.8,88.15799999999999,M,37.565,M,4.9,2006*5C,37.23160619206667,137.02395445393333,679545.9289683953,4122484.855565786
1183,[2021-02-22 15:18:22.584] $GNGGA,61822.0,3713.896370991,N,13701.437265326002,E,4,9.0,1.8,88.161,M,37.565,M,5.0,2006*55,37.23160618318334,137.02395442210002,679545.9261652058,4122484.8545197356
1184,[2021-02-22 15:18:22.709] $GNGGA,61822.1,3713.8963692820003,N,13701.437265154,E,4,9.0,1.8,88.165,M,37.565,M,5.1,2006*57,37.231606154699996,137.02395441923332,679545.9259784461,4122484.8513538926
1185,[2021-02-22 15:18:22.787] $GNGGA,61822.2,3713.896368967,N,13701.437263142,E,4,9.0,1.8,88.164,M,37.565,M,5.2,2006*56,37.23160614945,137.0239543857,679545.9230158103,4122484.8507077596
1186,[2021-02-22 15:18:22.896] $GNGGA,61822.3,3713.89636694,N,13701.437261932,E,4,9.0,1.8,88.162,M,37.565,M,5.3,2006*56,37.231606115666665,137.02395436553334,679545.9213067652,4122484.846921028
1187,[2021-02-22 15:18:22.990] $GNGGA,61822.4,3713.89636484,N,13701.437260078,E,4,10.0,1.2,88.15799999999999,M,37.565,M,5.4,2006*58,37.231606080666666,137.02395433463334,679545.9186483389,4122484.842978941
1188,[2021-02-22 15:18:23.115] $GNGGA,61822.5,3713.896364519,N,13701.437258233,E,4,10.0,1.2,88.15799999999999,M,37.565,M,5.5,2006*5F,37.23160607531667,137.02395430388333,679545.9159328772,4122484.8423269917
1189,[2021-02-22 15:18:23.193] $GNGGA,61822.6,3713.896365127,N,13701.437258078999,E,4,10.0,1.2,88.152,M,37.565,M,5.6,2006*51,37.231606085450004,137.02395430131665,679545.9156811193,4122484.8434464806
1190,[2021-02-22 15:18:23.287] $GNGGA,61822.7,3713.8963658690004,N,13701.437258868998,E,4,10.0,1.2,88.152,M,37.565,M,5.7,2006*5B,37.23160609781667,137.0239543144833,679545.9168199294,4122484.8448436176
1191,[2021-02-22 15:18:23.396] $GNGGA,61822.8,3713.896364788,N,13701.43725971,E,4,10.0,1.2,88.152,M,37.565,M,5.8,2006*5A,37.231606079799995,137.0239543285,679545.9181062409,4122484.842871143
1192,[2021-02-22 15:18:23.505] $GNGGA,61822.9,3713.89636609,N,13701.437259963,E,4,10.0,1.2,88.147,M,37.565,M,5.9,2006*58,37.23160610149999,137.02395433271667,679545.9184288644,4122484.8452868946
1193,[2021-02-22 15:18:23.584] $GNGGA,61823.0,3713.8963658690004,N,13701.437259538001,E,4,10.0,1.2,88.15,M,37.565,M,6.0,2006*53,37.23160609781667,137.02395432563333,679545.9178091651,4122484.844864769
1194,[2021-02-22 15:18:23.693] $GNGGA,61823.1,3713.8963667059998,N,13701.437259744,E,4,10.0,1.2,88.147,M,37.565,M,1.1,2006*5E,37.23160611176666,137.02395432906667,679545.9180806774,4122484.8464191207
1195,[2021-02-22 15:18:23.787] $GNGGA,61823.2,3713.8963682979997,N,13701.437260258,E,4,10.0,1.2,88.14200000000001,M,37.565,M,1.2,2006*55,37.231606138299995,137.02395433763334,679545.9187777687,4122484.849379413
1196,[2021-02-22 15:18:23.896] $GNGGA,61823.3,3713.896369921,N,13701.437260018001,E,4,10.0,1.2,88.137,M,37.565,M,1.3,2006*59,37.231606165349994,137.02395433363338,679545.9183587153,4122484.8523731926
1197,[2021-02-22 15:18:24.005] $GNGGA,61823.4,3713.89637181,N,13701.437260805,E,4,10.0,1.2,88.139,M,37.565,M,1.4,2006*59,37.23160619683333,137.02395434675,679545.9194477363,4122484.8558913497
1198,[2021-02-22 15:18:24.084] $GNGGA,61823.5,3713.8963729829998,N,13701.437259602,E,4,10.0,1.2,88.139,M,37.565,M,1.5,2006*52,37.23160621638333,137.0239543267,679545.9176225094,4122484.85802251
1199,[2021-02-22 15:18:24.193] $GNGGA,61823.6,3713.896374998,N,13701.437258496,E,4,9.0,1.8,88.137,M,37.565,M,1.6,2006*5C,37.23160624996667,137.02395430826667,679545.9159074223,4122484.861713826
1200,[2021-02-22 15:18:24.287] $GNGGA,61823.7,3713.896375695,N,13701.437258428,E,4,9.0,1.8,88.14299999999999,M,37.565,M,1.7,2006*59,37.231606261583345,137.02395430713335,679545.9157793138,4122484.863000619
1201,[2021-02-22 15:18:24.396] $GNGGA,61823.8,3713.89637466,N,13701.437259478998,E,4,10.0,1.2,88.146,M,37.565,M,1.8,2006*50,37.23160624433334,137.02395432465,679545.9173743221,4122484.861119852
1202,[2021-02-22 15:18:24.505] $GNGGA,61823.9,3713.896373696,N,13701.437258765,E,4,11.0,0.96,88.14299999999999,M,37.565,M,1.9,2006*59,37.23160622826667,137.02395431275,679545.9163566654,4122484.8593145795
1203,[2021-02-22 15:18:24.584] $GNGGA,61824.0,3713.89637359,N,13701.437258021999,E,4,11.0,0.96,88.146,M,37.565,M,2.0,2006*59,37.2316062265,137.02395430036665,679545.915262203,4122484.8590950645
1204,[2021-02-22 15:18:24.693] $GNGGA,61824.1,3713.896374595,N,13701.437258143,E,4,12.0,0.92,88.145,M,37.565,M,2.1,2006*59,37.23160624325,137.02395430238332,679545.9154013826,4122484.860957409
1205,[2021-02-22 15:18:24.787] $GNGGA,61824.2,3713.896375983,N,13701.437261322,E,4,12.0,0.92,88.15100000000001,M,37.565,M,2.2,2006*59,37.23160626638333,137.02395435536664,679545.9200472045,4122484.863624708
1206,[2021-02-22 15:18:24.896] $GNGGA,61824.3,3713.8963764729997,N,13701.437261943,E,4,12.0,0.92,88.155,M,37.565,M,2.3,2006*51,37.23160627454999,137.02395436571666,679545.9209460868,4122484.8645504834
1207,[2021-02-22 15:18:25.005] $GNGGA,61824.4,3713.896376467,N,13701.437262888001,E,4,12.0,0.92,88.15899999999999,M,37.565,M,2.4,2006*5D,37.23160627445,137.0239543814667,679545.9223436757,4122484.8645692663
1208,[2021-02-22 15:18:25.084] $GNGGA,61824.5,3713.89637723,N,13701.437259746,E,4,12.0,0.92,88.15100000000001,M,37.565,M,2.5,2006*55,37.23160628716667,137.0239543291,679545.917667511,4122484.865880922
1209,[2021-02-22 15:18:25.193] $GNGGA,61824.6,3713.896377576,N,13701.437258495,E,4,11.0,1.06,88.152,M,37.565,M,2.6,2006*50,37.23160629293333,137.02395430824998,679545.9158040057,4122484.866481217
1210,[2021-02-22 15:18:25.287] $GNGGA,61824.7,3713.896375417,N,13701.437259015,E,4,10.0,1.2,88.155,M,37.565,M,2.7,2006*5B,37.23160625695,137.02395431691667,679545.9166582855,4122484.86250508
1211,[2021-02-22 15:18:25.396] $GNGGA,61824.8,3713.89637535,N,13701.437259508999,E,4,11.0,1.13,88.15299999999999,M,37.565,M,2.8,2006*50,37.231606255833334,137.02395432514996,679545.9173913954,4122484.862396797
1212,[2021-02-22 15:18:25.505] $GNGGA,61824.9,3713.896372456,N,13701.437259342,E,4,11.0,1.13,88.15799999999999,M,37.565,M,2.9,2006*54,37.2316062076,137.02395432236668,679545.9172588936,4122484.857039726
1213,[2021-02-22 15:18:25.583] $GNGGA,61825.0,3713.8963704290004,N,13701.437260798,E,4,11.0,1.13,88.161,M,37.565,M,3.0,2006*5D,37.23160617381668,137.02395434663333,679545.9194919893,4122484.853337286
1214,[2021-02-22 15:18:25.693] $GNGGA,61825.1,3713.8963690309997,N,13701.43725957,E,4,11.0,1.13,88.15799999999999,M,37.565,M,3.1,2006*5C,37.23160615051667,137.02395432616666,679545.9177314558,4122484.8507131776
1215,[2021-02-22 15:18:25.787] $GNGGA,61825.2,3713.896368115,N,13701.437259033999,E,4,11.0,1.13,88.161,M,37.565,M,3.2,2006*55,37.23160613524999,137.02395431723335,679545.9169751076,4122484.8490022975
1216,[2021-02-22 15:18:25.912] $GNGGA,61825.3,3713.896367767,N,13701.437258705,E,4,11.0,1.13,88.16,M,37.565,M,3.3,2006*5C,37.23160612945,137.02395431174997,679545.91650238,4122484.8483483493
1217,[2021-02-22 15:18:25.990] $GNGGA,61825.4,3713.8963669709997,N,13701.437259215,E,4,12.0,0.89,88.156,M,37.565,M,3.4,2006*55,37.23160611618332,137.02395432024997,679545.9172879776,4122484.846892453
1218,[2021-02-22 15:18:26.083] $GNGGA,61825.5,3713.896366594,N,13701.43725943,E,4,12.0,0.89,88.15299999999999,M,37.565,M,3.5,2006*56,37.23160610989999,137.02395432383332,679545.9176208022,4122484.846202075
1219,[2021-02-22 15:18:26.193] $GNGGA,61825.6,3713.896366257,N,13701.437260898001,E,4,12.0,0.89,88.147,M,37.565,M,3.6,2006*5F,37.23160610428333,137.0239543483,679545.9198048222,4122484.8456252837
1220,[2021-02-22 15:18:26.318] $GNGGA,61825.7,3713.896366265,N,13701.437261128,E,4,12.0,0.89,88.14399999999999,M,37.565,M,3.7,2006*5E,37.23160610441666,137.02395435213336,679545.9201446029,4122484.84564735
1221,[2021-02-22 15:18:26.396] $GNGGA,61825.8,3713.896365827,N,13701.437260441002,E,4,12.0,0.89,88.148,M,37.565,M,3.8,2006*56,37.23160609711667,137.0239543406834,679545.9191460754,4122484.844815649
1222,[2021-02-22 15:18:26.490] $GNGGA,61825.9,3713.896365772,N,13701.437259628,E,4,12.0,0.89,88.15,M,37.565,M,3.9,2006*57,37.2316060962,137.02395432713334,679545.9179460835,4122484.8446882353
1223,[2021-02-22 15:18:26.599] $GNGGA,61826.0,3713.89636583,N,13701.437259199,E,4,12.0,0.89,88.152,M,37.565,M,4.0,2006*55,37.23160609716667,137.02395431998332,679545.9173094378,4122484.8447819287
1224,[2021-02-22 15:18:26.708] $GNGGA,61826.1,3713.896366136,N,13701.437259298,E,4,12.0,0.89,88.15100000000001,M,37.565,M,4.1,2006*58,37.23160610226667,137.02395432163334,679545.917443729,4122484.8453509356
1225,[2021-02-22 15:18:26.787] $GNGGA,61826.2,3713.896366105,N,13701.437257513,E,4,12.0,0.89,88.15299999999999,M,37.565,M,4.2,2006*50,37.231606101749996,137.02395429188334,679545.9148055201,4122484.8452371727
1226,[2021-02-22 15:18:26.896] $GNGGA,61826.3,3713.8963652529997,N,13701.437256995,E,4,12.0,0.89,88.152,M,37.565,M,4.3,2006*51,37.23160608754999,137.02395428324996,679545.9140732521,4122484.8436452136
1227,[2021-02-22 15:18:26.990] $GNGGA,61826.4,3713.8963650690002,N,13701.437258089,E,4,12.0,0.89,88.154,M,37.565,M,4.4,2006*56,37.23160608448334,137.02395430148331,679545.915698199,4122484.8433395396
1228,[2021-02-22 15:18:27.115] $GNGGA,61826.5,3713.896365387,N,13701.437259288,E,4,12.0,0.89,88.152,M,37.565,M,4.5,2006*51,37.231606089783334,137.0239543214667,679545.9174585609,4122484.8439655155
1229,[2021-02-22 15:18:27.193] $GNGGA,61826.6,3713.896364197,N,13701.437259568,E,4,12.0,0.89,88.15299999999999,M,37.565,M,4.6,2006*5B,37.231606069950004,137.02395432613332,679545.9179196381,4122484.841773735
1230,[2021-02-22 15:18:27.286] $GNGGA,61826.7,3713.8963649770003,N,13701.437260021,E,4,12.0,0.89,88.15100000000001,M,37.565,M,4.7,2006*5D,37.23160608295001,137.02395433368335,679545.918558638,4122484.84323049
1231,[2021-02-22 15:18:27.396] $GNGGA,61826.8,3713.896365657,N,13701.437262135,E,4,12.0,0.89,88.15,M,37.565,M,4.8,2006*56,37.23160609428333,137.02395436891666,679545.9216576656,4122484.8445548303
1232,[2021-02-22 15:18:27.505] $GNGGA,61826.9,3713.896365268,N,13701.437262243,E,4,12.0,0.89,88.148,M,37.565,M,4.9,2006*55,37.231606087799996,137.02395437071664,679545.9218327408,4122484.8438388784
1233,[2021-02-22 15:18:27.583] $GNGGA,61827.0,3713.8963665640003,N,13701.437261908,E,4,11.0,0.96,88.149,M,37.565,M,5.0,2006*56,37.23160610940001,137.02395436513333,679545.9212861432,4122484.846224945
1234,[2021-02-22 15:18:27.693] $GNGGA,61827.1,3713.896366082,N,13701.437262238,E,4,11.0,0.96,88.161,M,37.565,M,5.1,2006*5A,37.23160610136666,137.02395437063333,679545.9217931638,4122484.8453440275
1235,[2021-02-22 15:18:27.786] $GNGGA,61827.2,3713.8963650620003,N,13701.437262681999,E,4,11.0,0.96,88.167,M,37.565,M,5.2,2006*54,37.231606084366675,137.0239543780333,679545.9224900224,4122484.8434718098
1236,[2021-02-22 15:18:27.911] $GNGGA,61827.3,3713.896365127,N,13701.437263163001,E,4,11.0,0.96,88.167,M,37.565,M,5.3,2006*5D,37.231606085450004,137.02395438605,679545.9231986997,4122484.84360722
1237,[2021-02-22 15:18:27.990] $GNGGA,61827.4,3713.8963668720003,N,13701.437261292,E,4,11.0,0.96,88.167,M,37.565,M,5.4,2006*58,37.231606114533335,137.02395435486667,679545.920363103,4122484.846775044
1238,[2021-02-22 15:18:28.083] $GNGGA,61827.5,3713.896367247,N,13701.437262067,E,4,11.0,0.96,88.167,M,37.565,M,5.5,2006*5E,37.23160612078333,137.02395436778335,679545.9214942473,4122484.847493024
1239,[2021-02-22 15:18:28.193] $GNGGA,61827.6,3713.8963688920003,N,13701.437261476001,E,4,11.0,0.96,88.16799999999999,M,37.565,M,5.6,2006*5B,37.2316061482,137.02395435793338,679545.9205553089,4122484.85051639
1240,[2021-02-22 15:18:28.286] $GNGGA,61827.7,3713.896369798,N,13701.437261636001,E,4,11.0,0.96,88.171,M,37.565,M,5.7,2006*51,37.23160616329999,137.02395436060004,679545.920756074,4122484.852196889
1241,[2021-02-22 15:18:28.411] $GNGGA,61827.8,3713.89636758,N,13701.437261421,E,4,11.0,0.96,88.17200000000001,M,37.565,M,5.8,2006*53,37.23160612633333,137.02395435701666,679545.9205258552,4122484.848088406
1242,[2021-02-22 15:18:28.490] $GNGGA,61827.9,3713.896368668,N,13701.437261263001,E,4,12.0,0.92,88.175,M,37.565,M,5.9,2006*59,37.23160614446667,137.02395435438336,679545.9202492078,4122484.8500954183
1243,[2021-02-22 15:18:28.583] $GNGGA,61828.0,3713.896368188,N,13701.437261756999,E,4,12.0,0.92,88.178,M,37.565,M,6.0,2006*53,37.23160613646667,137.02395436261665,679545.920998648,4122484.849223387
1244,[2021-02-22 15:18:28.693] $GNGGA,61828.1,3713.896367023,N,13701.437262443,E,4,12.0,0.92,88.177,M,37.565,M,1.1,2006*51,37.23160611705,137.02395437405,679545.9220590829,4122484.847090675
1245,[2021-02-22 15:18:28.786] $GNGGA,61828.2,3713.896366452,N,13701.437262035,E,4,12.0,0.92,88.18,M,37.565,M,1.2,2006*5F,37.23160610753333,137.02395436725,679545.9214783639,4122484.8460218413
1246,[2021-02-22 15:18:28.911] $GNGGA,61828.3,3713.896366287,N,13701.437259836,E,4,12.0,0.92,88.179,M,37.565,M,1.3,2006*54,37.23160610478333,137.02395433060002,679545.9182332852,4122484.8456471865
1247,[2021-02-22 15:18:28.989] $GNGGA,61828.4,3713.896365729,N,13701.437258593001,E,4,12.0,0.92,88.175,M,37.565,M,1.4,2006*59,37.23160609548333,137.02395430988335,679545.9164173581,4122484.8445759923
1248,[2021-02-22 15:18:29.083] $GNGGA,61828.5,3713.8963631140005,N,13701.437259624,E,4,12.0,0.92,88.177,M,37.565,M,1.5,2006*5B,37.2316060519,137.02395432706663,679545.9180452635,4122484.839772744
1249,[2021-02-22 15:18:29.193] $GNGGA,61828.6,3713.8963626890004,N,13701.437261003999,E,4,12.0,0.92,88.177,M,37.565,M,1.6,2006*56,37.23160604481667,137.02395435006667,679545.9201026419,4122484.8390304353
1250,[2021-02-22 15:18:29.286] $GNGGA,61828.7,3713.8963639609997,N,13701.4372636,E,4,12.0,0.92,88.18,M,37.565,M,1.7,2006*56,37.23160606601666,137.02395439333336,679545.9238909855,4122484.841464784
1251,[2021-02-22 15:18:29.411] $GNGGA,61828.8,3713.89636322,N,13701.437263823998,E,4,12.0,0.92,88.18,M,37.565,M,1.8,2006*50,37.23160605366666,137.02395439706666,679545.924251506,4122484.8401015545
1252,[2021-02-22 15:18:29.489] $GNGGA,61828.9,3713.896361122,N,13701.437260809,E,4,12.0,0.92,88.182,M,37.565,M,1.9,2006*5D,37.2316060187,137.02395434681665,679545.9198762592,4122484.8361264607
1253,[2021-02-22 15:18:29.583] $GNGGA,61829.0,3713.896363144,N,13701.437260933999,E,4,12.0,0.92,88.186,M,37.565,M,2.0,2006*56,37.2316060524,137.0239543489,679545.9199811427,4122484.839869639
1254,[2021-02-22 15:18:29.693] $GNGGA,61829.1,3713.896363059,N,13701.437260945,E,4,12.0,0.92,88.186,M,37.565,M,2.1,2006*5D,37.23160605098333,137.0239543490833,679545.9200007686,4122484.8397127995
1255,[2021-02-22 15:18:29.786] $GNGGA,61829.2,3713.896360242,N,13701.437258123999,E,4,11.0,0.96,88.18799999999999,M,37.565,M,2.2,2006*5B,37.23160600403333,137.02395430206667,679545.9159408181,4122484.8344142106
1256,[2021-02-22 15:18:29.911] $GNGGA,61829.3,3713.896361613,N,13701.437260125,E,4,10.0,1.2,88.185,M,37.565,M,2.3,2006*50,37.231606026883334,137.02395433541665,679545.9188454319,4122484.837012826
1257,[2021-02-22 15:18:29.989] $GNGGA,61829.4,3713.896360675,N,13701.437259926,E,4,10.0,1.2,88.185,M,37.565,M,2.4,2006*50,37.231606011249994,137.02395433210003,679545.9185882703,4122484.8352719164
1258,[2021-02-22 15:18:30.083] $GNGGA,61829.5,3713.896361456,N,13701.437259105,E,4,10.0,1.2,88.182,M,37.565,M,2.5,2006*5C,37.23160602426666,137.02395431841668,679545.9173433958,4122484.836690242
1259,[2021-02-22 15:18:30.193] $GNGGA,61829.6,3713.8963614,N,13701.437259293001,E,4,10.0,1.2,88.178,M,37.565,M,2.6,2006*56,37.23160602333333,137.02395432155004,679545.9176236026,4122484.8365926268
1260,[2021-02-22 15:18:30.317] $GNGGA,61829.7,3713.8963601190003,N,13701.437259547,E,4,10.0,1.2,88.177,M,37.565,M,2.7,2006*5B,37.23160600198333,137.02395432578334,679545.9180498337,4122484.83423174
1261,[2021-02-22 15:18:30.396] $GNGGA,61829.8,3713.8963586120003,N,13701.437262286001,E,4,10.0,1.2,88.181,M,37.565,M,2.8,2006*57,37.231605976866675,137.02395437143335,679545.9221595109,4122484.831531487
1262,[2021-02-22 15:18:30.489] $GNGGA,61829.9,3713.8963599759995,N,13701.437261808998,E,4,10.0,1.2,88.182,M,37.565,M,2.9,2006*56,37.23160599959999,137.0239543634833,679545.9214002466,4122484.8340388113
1263,[2021-02-22 15:18:30.599] $GNGGA,61830.0,3713.896359821,N,13701.437262531,E,4,10.0,1.2,88.184,M,37.565,M,3.0,2006*5F,37.231605997016665,137.0239543755167,679545.9224739827,4122484.833775001
1264,[2021-02-22 15:18:30.708] $GNGGA,61830.1,3713.896360779,N,13701.437262455,E,4,10.0,1.2,88.18299999999999,M,37.565,M,3.1,2006*53,37.23160601298334,137.02395437425,679545.9223237205,4122484.8355442025
1265,[2021-02-22 15:18:30.786] $GNGGA,61830.2,3713.896361089,N,13701.437261481002,E,4,11.0,1.06,88.175,M,37.565,M,3.2,2006*5C,37.23160601815,137.02395435801668,679545.9208712357,4122484.83608668
1266,[2021-02-22 15:18:30.896] $GNGGA,61830.3,3713.896359301,N,13701.437261534,E,4,12.0,0.92,88.18,M,37.565,M,3.3,2006*5E,37.23160598835,137.0239543589,679545.9210203036,4122484.832781858
1267,[2021-02-22 15:18:30.989] $GNGGA,61830.4,3713.896358083,N,13701.437262493,E,4,12.0,0.92,88.179,M,37.565,M,3.4,2006*5F,37.231605968050005,137.02395437488332,679545.9224865099,4122484.830559767
1268,[2021-02-22 15:18:31.114] $GNGGA,61830.5,3713.8963541609996,N,13701.437260702,E,4,11.0,1.06,88.18,M,37.565,M,3.5,2006*5E,37.23160590268333,137.02395434503333,679545.9199932844,4122484.823250296
1269,[2021-02-22 15:18:31.192] $GNGGA,61830.6,3713.896351601,N,13701.437259271,E,4,11.0,1.06,88.18700000000001,M,37.565,M,3.6,2006*56,37.23160586001667,137.02395432118334,679545.9179785273,4122484.8184709167
1270,[2021-02-22 15:18:31.286] $GNGGA,61830.7,3713.8963527690003,N,13701.437257607,E,4,11.0,1.06,88.18799999999999,M,37.565,M,3.7,2006*5E,37.23160587948334,137.02395429345,679545.9154718297,4122484.8205782566
1271,[2021-02-22 15:18:31.396] $GNGGA,61830.8,3713.8963541109997,N,13701.437256921,E,4,11.0,1.06,88.189,M,37.565,M,3.8,2006*5A,37.23160590184999,137.02395428201666,679545.914404396,4122484.8230382893
1272,[2021-02-22 15:18:31.505] $GNGGA,61830.9,3713.896352363,N,13701.437257681999,E,4,10.0,1.2,88.189,M,37.565,M,3.9,2006*59,37.23160587271666,137.0239542947,679545.9155987822,4122484.819829823
1273,[2021-02-22 15:18:31.583] $GNGGA,61831.0,3713.8963504920002,N,13701.43725546,E,4,11.0,1.06,88.18799999999999,M,37.565,M,4.0,2006*5C,37.23160584153333,137.02395425766665,679545.9123871493,4122484.8162995824
1274,[2021-02-22 15:18:31.692] $GNGGA,61831.1,3713.896352187,N,13701.437252033,E,4,11.0,1.06,88.184,M,37.565,M,4.1,2006*56,37.23160586978334,137.02395420055,679545.9072527157,4122484.819325749
1275,[2021-02-22 15:18:31.786] $GNGGA,61831.2,3713.896352672,N,13701.437249651,E,4,11.0,1.06,88.184,M,37.565,M,4.2,2006*53,37.23160587786666,137.02395416085,679545.9037113361,4122484.820147335
1276,[2021-02-22 15:18:31.911] $GNGGA,61831.3,3713.89635334,N,13701.437240487,E,4,10.0,1.2,88.175,M,37.565,M,4.3,2006*5D,37.231605889,137.02395400811665,679545.8901343548,4122484.821092914
1277,[2021-02-22 15:18:31.989] $GNGGA,61831.4,3713.896352567,N,13701.437239576,E,4,10.0,1.2,88.176,M,37.565,M,4.4,2006*5D,37.23160587611667,137.02395399293334,679545.8888178502,4122484.8196346234
1278,[2021-02-22 15:18:32.083] $GNGGA,61831.5,3713.896352482,N,13701.437238851999,E,4,11.0,1.13,88.179,M,37.565,M,4.5,2006*53,37.2316058747,137.02395398086662,679545.8877506466,4122484.8194545447
1279,[2021-02-22 15:18:32.192] $GNGGA,61831.6,3713.896350932,N,13701.437240176001,E,4,11.0,1.13,88.182,M,37.565,M,4.6,2006*53,37.231605848866664,137.02395400293332,679545.8897697008,4122484.8166300342
1280,[2021-02-22 15:18:32.317] $GNGGA,61831.7,3713.8963485679997,N,13701.437240191999,E,4,11.0,1.13,88.184,M,37.565,M,4.7,2006*55,37.23160580946666,137.02395400319998,679545.8898868329,4122484.8122588615
1281,[2021-02-22 15:18:32.395] $GNGGA,61831.8,3713.8963480429998,N,13701.437242765,E,4,11.0,1.13,88.185,M,37.565,M,4.8,2006*54,37.231605800716665,137.0239540460833,679545.8937122182,4122484.811369343
1282,[2021-02-22 15:18:32.489] $GNGGA,61831.9,3713.896348964,N,13701.437243173,E,4,11.0,1.13,88.184,M,37.565,M,4.9,2006*59,37.23160581606666,137.02395405288334,679545.8942791048,4122484.813085423
1283,[2021-02-22 15:18:32.599] $GNGGA,61832.0,3713.8963465720003,N,13701.437245111001,E,4,11.0,1.13,88.185,M,37.565,M,5.0,2006*5D,37.231605776200006,137.02395408518333,679545.8972393544,4122484.8087232374
1284,[2021-02-22 15:18:32.692] $GNGGA,61832.1,3713.8963461929998,N,13701.437244741,E,4,11.0,1.13,88.18700000000001,M,37.565,M,5.1,2006*56,37.23160576988333,137.02395407901668,679545.8967072314,4122484.8080106652
1285,[2021-02-22 15:18:32.817] $GNGGA,61832.2,3713.896344237,N,13701.437244563998,E,4,11.0,1.13,88.18799999999999,M,37.565,M,5.2,2006*53,37.23160573728333,137.02395407606664,679545.8965228451,4122484.804387894
1286,[2021-02-22 15:18:32.895] $GNGGA,61832.3,3713.8963446420003,N,13701.437245737,E,4,11.0,1.13,88.18299999999999,M,37.565,M,5.3,2006*5B,37.23160574403333,137.02395409561666,679545.8982413183,4122484.805173934
1287,[2021-02-22 15:18:32.989] $GNGGA,61832.4,3713.8963439920003,N,13701.437247791999,E,4,11.0,1.13,88.179,M,37.565,M,5.4,2006*56,37.231605733200006,137.02395412986664,679545.9013056918,4122484.80403688
1288,[2021-02-22 15:18:33.099] $GNGGA,61832.5,3713.896344474,N,13701.437248199,E,4,11.0,1.13,88.177,M,37.565,M,5.5,2006*58,37.23160574123333,137.02395413665,679545.9018884557,4122484.8049410963
1289,[2021-02-22 15:18:33.192] $GNGGA,61832.6,3713.896345003,N,13701.437249446999,E,4,11.0,1.13,88.176,M,37.565,M,5.6,2006*5B,37.231605750049994,137.02395415745,679545.9037129228,4122484.805958819
1290,[2021-02-22 15:18:33.317] $GNGGA,61832.7,3713.8963439609997,N,13701.437250176,E,4,11.0,1.13,88.176,M,37.565,M,5.7,2006*5F,37.23160573268333,137.02395416960005,679545.9048320816,4122484.804054927
1291,[2021-02-22 15:18:33.395] $GNGGA,61832.8,3713.8963427129997,N,13701.437250475,E,4,11.0,1.13,88.176,M,37.565,M,5.8,2006*53,37.231605711883326,137.02395417458337,679545.9053235529,4122484.801756489
1292,[2021-02-22 15:18:33.489] $GNGGA,61832.9,3713.896344125,N,13701.437251493,E,4,11.0,1.13,88.18,M,37.565,M,5.9,2006*56,37.231605735416665,137.02395419155,679545.9067730061,4122484.8043998466
1293,[2021-02-22 15:18:33.583] $GNGGA,61833.0,3713.8963475220003,N,13701.437255023999,E,4,11.0,1.13,88.178,M,37.565,M,6.0,2006*5F,37.231605792033335,137.02395425039998,679545.9118598845,4122484.8107934613
1294,[2021-02-22 15:18:33.692] $GNGGA,61833.1,3713.8963518690002,N,13701.43725794,E,4,10.0,1.2,88.184,M,37.565,M,1.1,2006*56,37.23160586448334,137.023954299,679545.9159998138,4122484.81892444
1295,[2021-02-22 15:18:33.817] $GNGGA,61833.2,3713.896355314,N,13701.437261984,E,4,10.0,1.2,88.18799999999999,M,37.565,M,1.2,2006*52,37.231605921900005,137.0239543664,679545.9218433558,4122484.82542304
1296,[2021-02-22 15:18:33.895] $GNGGA,61833.3,3713.896359409,N,13701.437263671001,E,4,10.0,1.2,88.18700000000001,M,37.565,M,1.3,2006*5D,37.23160599015,137.0239543945167,679545.9241759614,4122484.833049144
1297,[2021-02-22 15:18:33.989] $GNGGA,61833.4,3713.89636262,N,13701.43726438,E,4,10.0,1.2,88.189,M,37.565,M,1.4,2006*5E,37.23160604366667,137.0239544063333,679545.9250973703,4122484.839009574
1298,[2021-02-22 15:18:34.083] $GNGGA,61833.5,3713.896365302,N,13701.437265605,E,4,10.0,1.2,88.18799999999999,M,37.565,M,1.5,2006*54,37.23160608836667,137.02395442675,679545.9268027022,4122484.84400805
1299,[2021-02-22 15:18:34.192] $GNGGA,61833.6,3713.896368123,N,13701.437265372,E,4,10.0,1.2,88.18799999999999,M,37.565,M,1.6,2006*5D,37.23160613538332,137.02395442286664,679545.9263466229,4122484.849217478
1300,[2021-02-22 15:18:34.317] $GNGGA,61833.7,3713.896367192,N,13701.437265573999,E,4,10.0,1.2,88.185,M,37.565,M,1.7,2006*55,37.23160611986667,137.0239544262333,679545.9266821264,4122484.847502194
1301,[2021-02-22 15:18:34.395] $GNGGA,61833.8,3713.89636767,N,13701.437264803999,E,4,10.0,1.2,88.184,M,37.565,M,1.8,2006*54,37.23160612783334,137.0239544134,679545.9255246491,4122484.848361801
1302,[2021-02-22 15:18:34.489] $GNGGA,61833.9,3713.89636907,N,13701.437263535,E,4,10.0,1.2,88.185,M,37.565,M,1.9,2006*55,37.23160615116667,137.02395439224998,679545.9235928549,4122484.8509106603
1303,[2021-02-22 15:18:34.598] $GNGGA,61834.0,3713.8963671959996,N,13701.437263229,E,4,10.0,1.2,88.18299999999999,M,37.565,M,2.0,2006*5A,37.23160611993333,137.02395438714998,679545.9232144793,4122484.8474354483
1304,[2021-02-22 15:18:34.708] $GNGGA,61834.1,3713.8963659940005,N,13701.437261636001,E,4,10.0,1.2,88.185,M,37.565,M,2.1,2006*5C,37.231606099900006,137.02395436060004,679545.9209064866,4122484.8451622603
1305,[2021-02-22 15:18:34.786] $GNGGA,61834.2,3713.8963648,N,13701.437260178998,E,4,10.0,1.2,88.185,M,37.565,M,2.2,2006*5C,37.23160608,137.02395433631662,679545.9187992616,4122484.8429081626
1306,[2021-02-22 15:18:34.895] $GNGGA,61834.3,3713.8963622220003,N,13701.437259441002,E,4,10.0,1.2,88.18299999999999,M,37.565,M,2.3,2006*52,37.23160603703334,137.0239543240167,679545.9178099433,4122484.8381174076
1307,[2021-02-22 15:18:34.989] $GNGGA,61834.4,3713.896360702,N,13701.43725788,E,4,10.0,1.2,88.186,M,37.565,M,2.4,2006*5D,37.2316060117,137.02395429799998,679545.9155618292,4122484.8352571614
1308,[2021-02-22 15:18:35.114] $GNGGA,61834.5,3713.8963600509996,N,13701.437258266002,E,4,10.0,1.2,88.19,M,37.565,M,2.5,2006*56,37.23160600084999,137.02395430443337,679545.916158344,4122484.834065488
1309,[2021-02-22 15:18:35.192] $GNGGA,61834.6,3713.8963595809996,N,13701.43725943,E,4,10.0,1.2,88.18799999999999,M,37.565,M,2.6,2006*59,37.231605993016665,137.02395432383332,679545.9178981008,4122484.833233132
1310,[2021-02-22 15:18:35.286] $GNGGA,61834.7,3713.8963614970003,N,13701.437260813998,E,4,10.0,1.2,88.189,M,37.565,M,2.7,2006*55,37.231606024950004,137.02395434689996,679545.9198688223,4122484.8368200953
1311,[2021-02-22 15:18:35.395] $GNGGA,61834.8,3713.89636274,N,13701.437261858999,E,4,10.0,1.2,88.191,M,37.565,M,2.8,2006*5E,37.23160604566666,137.02395436431664,679545.9213648897,4122484.8391517787
1312,[2021-02-22 15:18:35.505] $GNGGA,61834.9,3713.8963641890005,N,13701.437262276999,E,4,10.0,1.2,88.19,M,37.565,M,2.9,2006*5F,37.23160606981667,137.02395437128334,679545.9219256827,4122484.84184459
1313,[2021-02-22 15:18:35.583] $GNGGA,61835.0,3713.896365968,N,13701.437261566001,E,4,10.0,1.2,88.18799999999999,M,37.565,M,3.0,2006*54,37.23160609946667,137.02395435943336,679545.9208040043,4122484.8451119643
1314,[2021-02-22 15:18:35.692] $GNGGA,61835.1,3713.896365356,N,13701.437263492,E,4,10.0,1.2,88.191,M,37.565,M,3.1,2006*53,37.23160608926666,137.02395439153332,679545.9236761258,4122484.8440411035
1315,[2021-02-22 15:18:35.786] $GNGGA,61835.2,3713.8963644759997,N,13701.437263979,E,4,10.0,1.2,88.19200000000001,M,37.565,M,3.2,2006*5C,37.231606074599995,137.02395439965,679545.9244310365,4122484.842429141
1316,[2021-02-22 15:18:35.911] $GNGGA,61835.3,3713.896363518,N,13701.437264602,E,4,10.0,1.2,88.196,M,37.565,M,3.3,2006*52,37.23160605863333,137.02395441003335,679545.9253901332,4122484.840677237
1317,[2021-02-22 15:18:35.989] $GNGGA,61835.4,3713.8963639179997,N,13701.437263987,E,4,11.0,1.1,88.198,M,37.565,M,3.4,2006*57,37.2316060653,137.02395439978335,679545.9244649315,4122484.8413975025
1318,[2021-02-22 15:18:36.083] $GNGGA,61835.5,3713.896362098,N,13701.437262786001,E,4,11.0,1.1,88.198,M,37.565,M,3.5,2006*59,37.23160603496667,137.02395437976668,679545.9227610091,4122484.8379938556
1319,[2021-02-22 15:18:36.192] $GNGGA,61835.6,3713.896361703,N,13701.437263278998,E,4,11.0,1.1,88.199,M,37.565,M,3.6,2006*5A,37.23160602838333,137.0239543879833,679545.9235056096,4122484.837278979
1320,[2021-02-22 15:18:36.317] $GNGGA,61835.7,3713.896362714,N,13701.437262681999,E,4,11.0,1.1,88.20100000000001,M,37.565,M,3.7,2006*5C,37.231606045233335,137.0239543780333,679545.9225828638,4122484.8391297185
1321,[2021-02-22 15:18:36.395] $GNGGA,61835.8,3713.8963631859997,N,13701.437262383999,E,4,11.0,1.1,88.20100000000001,M,37.565,M,3.8,2006*53,37.23160605309999,137.02395437306666,679545.9221235593,4122484.83999315
1322,[2021-02-22 15:18:36.489] $GNGGA,61835.9,3713.896363363,N,13701.437263527,E,4,11.0,1.1,88.199,M,37.565,M,3.9,2006*56,37.23160605605,137.02395439211662,679545.9238066822,4122484.8403566116
1323,[2021-02-22 15:18:36.598] $GNGGA,61836.0,3713.896363237,N,13701.437265441002,E,4,10.0,1.15,88.20100000000001,M,37.565,M,4.0,2006*53,37.23160605395,137.0239544240167,679545.9266418526,4122484.840184119
1324,[2021-02-22 15:18:36.708] $GNGGA,61836.1,3713.896362948,N,13701.437266419,E,4,10.0,1.15,88.20299999999999,M,37.565,M,4.1,2006*5D,37.23160604913334,137.0239544403167,679545.9280994218,4122484.8396806004
1325,[2021-02-22 15:18:36.786] $GNGGA,61836.2,3713.896362633,N,13701.437265727,E,4,10.0,1.15,88.206,M,37.565,M,4.2,2006*56,37.23160604388334,137.02395442878333,679545.9270886331,4122484.8390762014
1326,[2021-02-22 15:18:36.895] $GNGGA,61836.3,3713.896363287,N,13701.437265854,E,4,10.0,1.15,88.2,M,37.565,M,4.3,2006*51,37.231606054783335,137.0239544309,679545.9272505655,4122484.8402896402
1327,[2021-02-22 15:18:36.989] $GNGGA,61836.4,3713.896364962,N,13701.437267551,E,4,10.0,1.15,88.195,M,37.565,M,4.4,2006*53,37.231606082700004,137.02395445918333,679545.9296936436,4122484.843440824
1328,[2021-02-22 15:18:37.098] $GNGGA,61836.5,3713.8963665270003,N,13701.437267763,E,4,9.0,1.8,88.197,M,37.565,M,4.5,2006*59,37.23160610878334,137.0239544627167,679545.9299452443,4122484.8463416365
1329,[2021-02-22 15:18:37.208] $GNGGA,61836.6,3713.896365912,N,13701.437267959,E,4,10.0,1.2,88.197,M,37.565,M,4.6,2006*55,37.231606098533334,137.02395446598334,679545.930259379,4122484.8452105313
1330,[2021-02-22 15:18:37.286] $GNGGA,61836.7,3713.896366978,N,13701.437266216,E,4,11.0,1.1,88.194,M,37.565,M,4.7,2006*5A,37.23160611629999,137.02395443693337,679545.9276399033,4122484.847126746
1331,[2021-02-22 15:18:37.395] $GNGGA,61836.8,3713.8963667440003,N,13701.437266415,E,4,11.0,1.1,88.18799999999999,M,37.565,M,4.8,2006*53,37.2316061124,137.02395444024998,679545.9279434064,4122484.8467003093
1332,[2021-02-22 15:18:37.489] $GNGGA,61836.9,3713.896366508,N,13701.437265827,E,4,11.0,1.1,88.191,M,37.565,M,4.9,2006*5F,37.231606108466664,137.02395443044998,679545.9270832776,4122484.8462452902
1333,[2021-02-22 15:18:37.598] $GNGGA,61837.0,3713.896366422,N,13701.437265646999,E,4,11.0,1.1,88.19200000000001,M,37.565,M,5.0,2006*5D,37.231606107033336,137.02395442744998,679545.9268205167,4122484.8460805616
1334,[2021-02-22 15:18:37.708] $GNGGA,61837.1,3713.896365993,N,13701.437265456001,E,4,11.0,1.1,88.19,M,37.565,M,5.1,2006*59,37.23160609988333,137.0239544242667,679545.926555058,4122484.8452811856
1335,[2021-02-22 15:18:37.786] $GNGGA,61837.2,3713.8963665759998,N,13701.437264578,E,4,11.0,1.1,88.189,M,37.565,M,5.2,2006*59,37.231606109599994,137.02395440963335,679545.9252337286,4122484.8463315503
1336,[2021-02-22 15:18:37.895] $GNGGA,61837.3,3713.8963661909997,N,13701.437262758998,E,4,11.0,1.1,88.189,M,37.565,M,5.3,2006*53,37.23160610318333,137.02395437931662,679545.9225592394,4122484.84556207
1337,[2021-02-22 15:18:37.989] $GNGGA,61837.4,3713.896365345,N,13701.437260436001,E,4,11.0,1.1,88.19,M,37.565,M,5.4,2006*5B,37.23160608908333,137.0239543406,679545.9191577341,4122484.843924141
1338,[2021-02-22 15:18:38.098] $GNGGA,61837.5,3713.8963650909996,N,13701.43726107,E,4,10.0,1.2,88.186,M,37.565,M,5.5,2006*53,37.231606084849986,137.02395435116662,679545.9201052545,4122484.84347447
1339,[2021-02-22 15:18:38.208] $GNGGA,61837.6,3713.896364638,N,13701.437261381001,E,4,10.0,1.2,88.189,M,37.565,M,5.6,2006*55,37.2316060773,137.02395435635,679545.9205830366,4122484.842646584
1340,[2021-02-22 15:18:38.286] $GNGGA,61837.7,3713.896364243,N,13701.437260376,E,4,10.0,1.2,88.19200000000001,M,37.565,M,5.7,2006*5E,37.231606070716666,137.02395433959998,679545.919112586,4122484.8418843467
1341,[2021-02-22 15:18:38.395] $GNGGA,61837.8,3713.896363462,N,13701.437260992,E,4,10.0,1.2,88.191,M,37.565,M,5.8,2006*5F,37.2316060577,137.02395434986667,679545.9200543335,4122484.840459542
1342,[2021-02-22 15:18:38.489] $GNGGA,61837.9,3713.8963629170003,N,13701.437261495,E,4,10.0,1.2,88.194,M,37.565,M,5.9,2006*5F,37.23160604861667,137.02395435825002,679545.9208196582,4122484.8394675925
1343,[2021-02-22 15:18:38.598] $GNGGA,61838.0,3713.896362797,N,13701.437261946001,E,4,10.0,1.2,88.189,M,37.565,M,6.0,2006*5A,37.23160604661667,137.02395436576668,679545.921491283,4122484.8392599383
1344,[2021-02-22 15:18:38.707] $GNGGA,61838.1,3713.8963610670003,N,13701.437264648,E,4,10.0,1.2,88.18799999999999,M,37.565,M,1.1,2006*53,37.23160601778334,137.02395441080003,679545.9255550662,4122484.8361461274
1345,[2021-02-22 15:18:38.786] $GNGGA,61838.2,3713.89636098,N,13701.437264597,E,4,10.0,1.2,88.191,M,37.565,M,1.2,2006*5B,37.23160601633334,137.02395440994997,679545.9254830896,4122484.8359836275
1346,[2021-02-22 15:18:38.895] $GNGGA,61838.3,3713.8963599040003,N,13701.437266153,E,4,10.0,1.2,88.19200000000001,M,37.565,M,1.3,2006*50,37.231605998400006,137.02395443588333,679545.9278264537,4122484.834043007
1347,[2021-02-22 15:18:38.989] $GNGGA,61838.4,3713.8963584979997,N,13701.437268371,E,4,10.0,1.2,88.193,M,37.565,M,1.4,2006*54,37.23160597496666,137.02395447285002,679545.9311617493,4122484.8315130547
1348,[2021-02-22 15:18:39.114] $GNGGA,61838.5,3713.8963593390004,N,13701.437268922,E,4,10.0,1.2,88.195,M,37.565,M,1.5,2006*53,37.23160598898334,137.02395448203336,679545.9319432445,4122484.833085715
1349,[2021-02-22 15:18:39.192] $GNGGA,61838.6,3713.896360644,N,13701.437269127,E,4,10.0,1.2,88.193,M,37.565,M,1.6,2006*5C,37.23160601073334,137.02395448545002,679545.9321947731,4122484.8355054953
1350,[2021-02-22 15:18:39.286] $GNGGA,61838.7,3713.896359142,N,13701.437268677,E,4,10.0,1.2,88.19,M,37.565,M,1.7,2006*57,37.2316059857,137.02395447795,679545.9315887576,4122484.8327136617
1351,[2021-02-22 15:18:39.395] $GNGGA,61838.8,3713.8963594559996,N,13701.437269012,E,4,10.0,1.2,88.19200000000001,M,37.565,M,1.8,2006*51,37.231605990933325,137.02395448353334,679545.932071699,4122484.8333049226
1352,[2021-02-22 15:18:39.504] $GNGGA,61838.9,3713.8963589570003,N,13701.437269257,E,4,10.0,1.2,88.19200000000001,M,37.565,M,1.9,2006*5F,37.23160598261667,137.02395448761666,679545.932453704,4122484.832389884
1353,[2021-02-22 15:18:39.582] $GNGGA,61839.0,3713.896358287,N,13701.437267916,E,4,10.0,1.2,88.19200000000001,M,37.565,M,2.0,2006*5B,37.231605971449994,137.02395446526668,679545.9304972957,4122484.831108473
1354,[2021-02-22 15:18:39.692] $GNGGA,61839.1,3713.8963569509997,N,13701.437266298,E,4,10.0,1.2,88.199,M,37.565,M,2.1,2006*52,37.231605949183326,137.02395443830002,679545.9281576269,4122484.8285866897
1355,[2021-02-22 15:18:39.786] $GNGGA,61839.2,3713.896357819,N,13701.437265173001,E,4,10.0,1.2,88.20100000000001,M,37.565,M,2.2,2006*59,37.231605963650004,137.02395441955002,679545.926459799,4122484.8301562914
1356,[2021-02-22 15:18:39.911] $GNGGA,61839.3,3713.8963575479997,N,13701.43726396,E,4,10.0,1.2,88.206,M,37.565,M,2.3,2006*5B,37.23160595913333,137.02395439933332,679545.9246768802,4122484.8296167864
1357,[2021-02-22 15:18:39.989] $GNGGA,61839.4,3713.896358226,N,13701.437262698,E,4,10.0,1.2,88.20700000000001,M,37.565,M,2.4,2006*53,37.23160597043333,137.02395437829998,679545.9227839826,4122484.830830693
1358,[2021-02-22 15:18:40.082] $GNGGA,61839.5,3713.896358125,N,13701.437262537,E,4,10.0,1.2,88.20700000000001,M,37.565,M,2.5,2006*55,37.23160596875,137.02395437561665,679545.922549911,4122484.830638827
1359,[2021-02-22 15:18:40.192] $GNGGA,61839.6,3713.896360697,N,13701.437262878,E,4,10.0,1.2,88.205,M,37.565,M,2.6,2006*54,37.23160601161667,137.0239543813,679545.9229524413,4122484.835405935
1360,[2021-02-22 15:18:40.317] $GNGGA,61839.7,3713.8963617490003,N,13701.437263077,E,4,10.0,1.2,88.208,M,37.565,M,2.7,2006*5C,37.23160602915001,137.02395438461667,679545.9232051019,4122484.8373576603
1361,[2021-02-22 15:18:40.395] $GNGGA,61839.8,3713.89636322,N,13701.43726346,E,4,10.0,1.2,88.205,M,37.565,M,2.8,2006*5B,37.23160605366666,137.023954391,679545.9237132688,4122484.840090047
1362,[2021-02-22 15:18:40.489] $GNGGA,61839.9,3713.8963661290004,N,13701.437265231001,E,4,10.0,1.2,88.20299999999999,M,37.565,M,2.9,2006*56,37.23160610215001,137.0239544205167,679545.9262169786,4122484.845525574
1363,[2021-02-22 15:18:40.598] $GNGGA,61840.0,3713.8963674429997,N,13701.437265183999,E,4,10.0,1.2,88.20700000000001,M,37.565,M,3.0,2006*58,37.23160612404999,137.0239544197333,679545.9260955179,4122484.847954029
1364,[2021-02-22 15:18:40.707] $GNGGA,61840.1,3713.8963692859998,N,13701.437266238001,E,4,10.0,1.2,88.20100000000001,M,37.565,M,3.1,2006*58,37.23160615476666,137.0239544373,679545.9275811708,4122484.851395561
1365,[2021-02-22 15:18:40.786] $GNGGA,61840.2,3713.8963712279997,N,13701.437266052,E,4,10.0,1.2,88.199,M,37.565,M,3.2,2006*59,37.23160618713332,137.0239544342,679545.9272293497,4122484.854980965
1366,[2021-02-22 15:18:40.895] $GNGGA,61840.3,3713.8963723190004,N,13701.437268511001,E,4,10.0,1.2,88.197,M,37.565,M,3.3,2006*5B,37.23160620531667,137.02395447518333,679545.9308222695,4122484.857076269
1367,[2021-02-22 15:18:40.989] $GNGGA,61840.4,3713.896371364,N,13701.437270657,E,4,10.0,1.2,88.199,M,37.565,M,3.4,2006*54,37.231606189400004,137.02395451094998,679545.9340332645,4122484.8553780615
1368,[2021-02-22 15:18:41.098] $GNGGA,61840.5,3713.8963728579997,N,13701.437270708999,E,4,10.0,1.2,88.197,M,37.565,M,3.5,2006*57,37.231606214299994,137.02395451181664,679545.9340510815,4122484.858142518
1369,[2021-02-22 15:18:41.207] $GNGGA,61840.6,3713.896374475,N,13701.437271263001,E,4,10.0,1.2,88.2,M,37.565,M,3.6,2006*57,37.23160624125,137.02395452105,679545.9348063314,4122484.8611503066
1370,[2021-02-22 15:18:41.286] $GNGGA,61840.7,3713.896373244,N,13701.437271725,E,4,10.0,1.2,88.20100000000001,M,37.565,M,3.7,2006*52,37.23160622073334,137.02395452875,679545.9355381528,4122484.8588884603
1371,[2021-02-22 15:18:41.395] $GNGGA,61840.8,3713.896373645,N,13701.43727098,E,4,10.0,1.2,88.199,M,37.565,M,3.8,2006*55,37.23160622741667,137.02395451633333,679545.9344206859,4122484.859606464
1372,[2021-02-22 15:18:41.489] $GNGGA,61840.9,3713.8963727009996,N,13701.437269996999,E,4,10.0,1.2,88.198,M,37.565,M,3.9,2006*5A,37.23160621168332,137.02395449994998,679545.9330044729,4122484.85782967
1373,[2021-02-22 15:18:41.598] $GNGGA,61841.0,3713.896370415,N,13701.437268763,E,4,10.0,1.2,88.20299999999999,M,37.565,M,4.0,2006*5D,37.23160617358334,137.02395447938335,679545.9312701818,4122484.8535632226
1374,[2021-02-22 15:18:41.707] $GNGGA,61841.1,3713.896371192,N,13701.437267907,E,4,10.0,1.2,88.2,M,37.565,M,4.1,2006*56,37.231606186533334,137.02395446511665,679545.9299737114,4122484.8549730424
1375,[2021-02-22 15:18:41.785] $GNGGA,61841.2,3713.89637212,N,13701.437266731002,E,4,10.0,1.2,88.19200000000001,M,37.565,M,4.2,2006*5E,37.231606202,137.02395444551672,679545.9281981036,4122484.8566519856
1376,[2021-02-22 15:18:41.895] $GNGGA,61841.3,3713.896372432,N,13701.437266419,E,4,10.0,1.2,88.193,M,37.565,M,4.3,2006*50,37.2316062072,137.0239544403167,679545.9277244181,4122484.857219094
1377,[2021-02-22 15:18:41.989] $GNGGA,61841.4,3713.896371409,N,13701.437266472,E,4,10.0,1.2,88.19200000000001,M,37.565,M,4.4,2006*57,37.23160619015,137.02395444119998,679545.927843233,4122484.8553289645
1378,[2021-02-22 15:18:42.098] $GNGGA,61841.5,3713.896369159,N,13701.43726696,E,4,11.0,1.1,88.19200000000001,M,37.565,M,4.5,2006*52,37.23160615265,137.02395444933333,679545.9286537953,4122484.8511835313
1379,[2021-02-22 15:18:42.207] $GNGGA,61841.6,3713.896368608,N,13701.437266261,E,4,10.0,1.2,88.189,M,37.565,M,4.6,2006*52,37.23160614346667,137.02395443768336,679545.9276419922,4122484.8501424827
1380,[2021-02-22 15:18:42.285] $GNGGA,61841.7,3713.8963678090004,N,13701.437267051999,E,4,10.0,1.2,88.18799999999999,M,37.565,M,4.7,2006*50,37.23160613015,137.02395445086663,679545.9288432108,4122484.8486899226
1381,[2021-02-22 15:18:42.395] $GNGGA,61841.8,3713.896368264,N,13701.437267602,E,4,10.0,1.2,88.18799999999999,M,37.565,M,4.8,2006*5D,37.23160613773334,137.02395446003334,679545.9296384924,4122484.849548732
1382,[2021-02-22 15:18:42.489] $GNGGA,61841.9,3713.896368238,N,13701.437266063998,E,4,10.0,1.2,88.19,M,37.565,M,4.9,2006*5A,37.231606137300005,137.0239544344,679545.9273653198,4122484.849452024
1383,[2021-02-22 15:18:42.598] $GNGGA,61842.0,3713.896370828,N,13701.437264361,E,4,10.0,1.2,88.191,M,37.565,M,5.0,2006*5F,37.231606180466656,137.02395440601668,679545.9247447312,4122484.854187794
1384,[2021-02-22 15:18:42.707] $GNGGA,61842.1,3713.8963688970002,N,13701.437263296,E,4,10.0,1.2,88.193,M,37.565,M,5.1,2006*5E,37.23160614828333,137.02395438826667,679545.9232462953,4122484.850583178
1385,[2021-02-22 15:18:42.785] $GNGGA,61842.2,3713.896369592,N,13701.437263226999,E,4,10.0,1.2,88.196,M,37.565,M,5.2,2006*58,37.23160615986667,137.02395438711665,679545.9231167827,4122484.8518662415
1386,[2021-02-22 15:18:42.895] $GNGGA,61842.3,3713.896369971,N,13701.437262661,E,4,10.0,1.2,88.195,M,37.565,M,5.3,2006*5D,37.231606166183326,137.02395437768334,679545.9222648707,4122484.8525492195
1387,[2021-02-22 15:18:42.989] $GNGGA,61842.4,3713.8963688870003,N,13701.437263044,E,4,10.0,1.2,88.198,M,37.565,M,5.4,2006*59,37.231606148116676,137.02395438406666,679545.9228740615,4122484.8505567196
1388,[2021-02-22 15:18:43.113] $GNGGA,61842.5,3713.896369011,N,13701.437262481,E,4,10.0,1.2,88.20299999999999,M,37.565,M,5.5,2006*52,37.231606150183325,137.0239543746833,679545.9220366661,4122484.850768227
1389,[2021-02-22 15:18:43.192] $GNGGA,61842.6,3713.896368557,N,13701.437259514,E,4,10.0,1.2,88.204,M,37.565,M,5.6,2006*56,37.23160614261668,137.02395432523335,679545.917667395,4122484.849834853
1390,[2021-02-22 15:18:43.285] $GNGGA,61842.7,3713.896369966,N,13701.437259212,E,4,10.0,1.2,88.2,M,37.565,M,5.7,2006*5C,37.23160616609999,137.0239543202,679545.917165122,4122484.8524309266
1391,[2021-02-22 15:18:43.395] $GNGGA,61842.8,3713.896370504,N,13701.437259962,E,4,10.0,1.2,88.2,M,37.565,M,5.8,2006*50,37.231606175066666,137.02395433270001,679545.9182528557,4122484.853449548
1392,[2021-02-22 15:18:43.504] $GNGGA,61842.9,3713.896371024,N,13701.437258647,E,4,10.0,1.2,88.199,M,37.565,M,5.9,2006*5C,37.231606183733334,137.02395431078332,679545.9162878359,4122484.8543695947
1393,[2021-02-22 15:18:43.582] $GNGGA,61843.0,3713.896370695,N,13701.437254943,E,4,10.0,1.2,88.20200000000001,M,37.565,M,6.0,2006*55,37.231606178250004,137.02395424905004,679545.9108238402,4122484.853644076
1394,[2021-02-22 15:18:43.692] $GNGGA,61843.1,3713.896371309,N,13701.437255491,E,4,10.0,1.2,88.199,M,37.565,M,6.1,2006*56,37.23160618848333,137.02395425818335,679545.9116098732,4122484.854796855
1395,[2021-02-22 15:18:43.785] $GNGGA,61843.2,3713.8963721570003,N,13701.437252835,E,4,10.0,1.2,88.2,M,37.565,M,6.2,2006*5A,37.23160620261667,137.02395421391668,679545.9076489859,4122484.8562810645
1396,[2021-02-22 15:18:43.910] $GNGGA,61843.3,3713.896372715,N,13701.437254147,E,4,10.0,1.2,88.195,M,37.565,M,6.3,2006*5F,37.23160621191666,137.02395423578335,679545.9095669427,4122484.8573544375
1397,[2021-02-22 15:18:43.988] $GNGGA,61843.4,3713.896371636,N,13701.43725651,E,4,10.0,1.2,88.194,M,37.565,M,6.4,2006*59,37.231606193933324,137.02395427516666,679545.9131037111,4122484.8554337826
1398,[2021-02-22 15:18:44.098] $GNGGA,61843.5,3713.89637195,N,13701.437256659,E,4,10.0,1.2,88.195,M,37.565,M,6.5,2006*59,37.23160619916666,137.02395427765,679545.9133116193,4122484.8560191668
1399,[2021-02-22 15:18:44.192] $GNGGA,61843.6,3713.89637076,N,13701.437256981,E,4,10.0,1.2,88.193,M,37.565,M,6.6,2006*59,37.23160617933333,137.02395428301668,679545.9138348056,4122484.853828713
1400,[2021-02-22 15:18:44.317] $GNGGA,61843.7,3713.896370542,N,13701.437256761,E,4,10.0,1.2,88.196,M,37.565,M,6.7,2006*5E,37.23160617570001,137.02395427935,679545.9135181145,4122484.853418616
1401,[2021-02-22 15:18:44.395] $GNGGA,61843.8,3713.89637011,N,13701.437255706001,E,4,10.0,1.2,88.198,M,37.565,M,6.8,2006*51,37.23160616850001,137.0239542617667,679545.9119752002,4122484.852586375
1402,[2021-02-22 15:18:44.488] $GNGGA,61843.9,3713.8963693190003,N,13701.437255093999,E,4,10.0,1.2,88.197,M,37.565,M,6.9,2006*51,37.23160615531667,137.02395425156664,679545.9111015227,4122484.851104252
1403,[2021-02-22 15:18:44.598] $GNGGA,61844.0,3713.896368135,N,13701.437256797,E,4,10.0,1.2,88.20299999999999,M,37.565,M,7.0,2006*53,37.231606135583334,137.02395427995003,679545.9136665261,4122484.8489685575
1404,[2021-02-22 15:18:44.707] $GNGGA,61844.1,3713.8963674359998,N,13701.437256038,E,4,10.0,1.2,88.205,M,37.565,M,2.1,2006*5B,37.23160612393333,137.02395426729998,679545.9125718465,4122484.847651918
1405,[2021-02-22 15:18:44.785] $GNGGA,61844.2,3713.8963691609997,N,13701.437256328001,E,4,11.0,1.1,88.20700000000001,M,37.565,M,2.2,2006*50,37.23160615268333,137.02395427213335,679545.9129324579,4122484.850851082
1406,[2021-02-22 15:18:44.895] $GNGGA,61844.3,3713.896370605,N,13701.4372542,E,4,11.0,1.1,88.20299999999999,M,37.565,M,2.3,2006*50,37.23160617675,137.02395423666664,679545.9097287382,4122484.8534541507
1407,[2021-02-22 15:18:44.988] $GNGGA,61844.4,3713.8963710390003,N,13701.437255523,E,4,10.0,1.2,88.20700000000001,M,37.565,M,2.4,2006*59,37.23160618398334,137.02395425871669,679545.9116678674,4122484.8542985637
1408,[2021-02-22 15:18:45.113] $GNGGA,61844.5,3713.896371035,N,13701.437254973,E,4,10.0,1.2,88.20700000000001,M,37.565,M,2.5,2006*5D,37.23160618391666,137.02395424954997,679545.9108547507,4122484.854273776
1409,[2021-02-22 15:18:45.191] $GNGGA,61844.6,3713.896369226,N,13701.437255367,E,4,10.0,1.2,88.211,M,37.565,M,2.6,2006*5D,37.23160615376666,137.02395425611667,679545.9115088802,4122484.8509409004
1410,[2021-02-22 15:18:45.285] $GNGGA,61844.7,3713.8963692909997,N,13701.437254906,E,4,10.0,1.2,88.208,M,37.565,M,2.7,2006*55,37.23160615484999,137.02395424843334,679545.9108246417,4122484.8510465277
1411,[2021-02-22 15:18:45.395] $GNGGA,61844.8,3713.89636761,N,13701.437254786999,E,4,10.0,1.2,88.211,M,37.565,M,2.8,2006*59,37.23160612683334,137.02395424644996,679545.9107151442,4122484.8479341404
1412,[2021-02-22 15:18:45.488] $GNGGA,61844.9,3713.8963684309997,N,13701.437253971,E,4,10.0,1.2,88.21,M,37.565,M,2.9,2006*56,37.23160614051667,137.02395423285,679545.9094760858,4122484.849426593
1413,[2021-02-22 15:18:45.613] $GNGGA,61845.0,3713.8963683270003,N,13701.437252811002,E,4,10.0,1.2,88.211,M,37.565,M,3.0,2006*51,37.23160613878334,137.0239542135167,679545.9077649397,4122484.8491975944
1414,[2021-02-22 15:18:45.691] $GNGGA,61845.1,3713.896369495,N,13701.437252548001,E,4,10.0,1.2,88.20700000000001,M,37.565,M,3.1,2006*58,37.23160615825,137.02395420913336,679545.9073298646,4122484.851349227
1415,[2021-02-22 15:18:45.785] $GNGGA,61845.2,3713.8963686290003,N,13701.437252963,E,4,10.0,1.2,88.20700000000001,M,37.565,M,3.2,2006*59,37.23160614381668,137.02395421605002,679545.9079777561,4122484.8497608807
1416,[2021-02-22 15:18:45.895] $GNGGA,61845.3,3713.8963689159996,N,13701.437252441001,E,4,10.0,1.2,88.209,M,37.565,M,3.3,2006*59,37.23160614859999,137.02395420735004,679545.9071945413,4122484.8502751146
1417,[2021-02-22 15:18:45.988] $GNGGA,61845.4,3713.8963672940004,N,13701.43725422,E,4,10.0,1.2,88.20299999999999,M,37.565,M,3.4,2006*5A,37.23160612156667,137.023954237,679545.9098892343,4122484.8473318443
1418,[2021-02-22 15:18:46.113] $GNGGA,61845.5,3713.8963679559997,N,13701.437253636,E,4,10.0,1.2,88.20100000000001,M,37.565,M,3.5,2006*59,37.2316061326,137.0239542272667,679545.9089995149,4122484.848537598
1419,[2021-02-22 15:18:46.191] $GNGGA,61845.6,3713.896367577,N,13701.437254846001,E,4,10.0,1.2,88.2,M,37.565,M,3.6,2006*59,37.23160612628333,137.02395424743335,679545.9108036947,4122484.847874979
1420,[2021-02-22 15:18:46.285] $GNGGA,61845.7,3713.896368099,N,13701.437255845,E,4,10.0,1.2,88.2,M,37.565,M,3.7,2006*51,37.23160613498334,137.02395426408333,679545.9122602474,4122484.848871884
1421,[2021-02-22 15:18:46.395] $GNGGA,61845.8,3713.896369535,N,13701.43725979,E,4,10.0,1.2,88.2,M,37.565,M,3.8,2006*58,37.23160615891667,137.02395432983334,679545.9180368381,4122484.8516521654
1422,[2021-02-22 15:18:46.488] $GNGGA,61845.9,3713.896371946,N,13701.437262875,E,4,10.0,1.2,88.197,M,37.565,M,3.9,2006*58,37.2316061991,137.02395438125,679545.9225032125,4122484.856208298
1423,[2021-02-22 15:18:46.613] $GNGGA,61846.0,3713.89637531,N,13701.437265588,E,4,11.0,1.1,88.196,M,37.565,M,4.0,2006*5A,37.23160625516667,137.02395442646667,679545.9263818405,4122484.8625150234
1424,[2021-02-22 15:18:46.691] $GNGGA,61846.1,3713.8963782620003,N,13701.437265271,E,4,11.0,1.1,88.195,M,37.565,M,4.1,2006*51,37.23160630436667,137.02395442118333,679545.9257963768,4122484.8679640517
1425,[2021-02-22 15:18:46.785] $GNGGA,61846.2,3713.89638001,N,13701.437266447,E,4,11.0,1.1,88.193,M,37.565,M,4.2,2006*57,37.231606333500004,137.0239544407833,679545.9274661782,4122484.871233761
1426,[2021-02-22 15:18:46.894] $GNGGA,61846.3,3713.896379363,N,13701.437266219,E,4,11.0,1.1,88.191,M,37.565,M,4.3,2006*59,37.231606322716665,137.02395443698333,679545.9271546256,4122484.870030073
1427,[2021-02-22 15:18:46.988] $GNGGA,61846.4,3713.896379676,N,13701.437265325,E,4,11.0,1.1,88.18700000000001,M,37.565,M,4.4,2006*52,37.231606327933335,137.02395442208334,679545.9258203142,4122484.87058063
1428,[2021-02-22 15:18:47.113] $GNGGA,61846.5,3713.89637912,N,13701.43726586,E,4,11.0,1.1,88.18799999999999,M,37.565,M,4.5,2006*53,37.231606318666664,137.023954431,679545.9266333899,4122484.8695693486
1429,[2021-02-22 15:18:47.191] $GNGGA,61846.6,3713.8963793979997,N,13701.437265759,E,4,11.0,1.1,88.18700000000001,M,37.565,M,4.6,2006*58,37.23160632329999,137.02395442931666,679545.9264730497,4122484.8700802526
1430,[2021-02-22 15:18:47.285] $GNGGA,61846.7,3713.896380246,N,13701.437264428001,E,4,11.0,1.1,88.186,M,37.565,M,4.7,2006*59,37.23160633743333,137.02395440713335,679545.9244714073,4122484.871606354
1431,[2021-02-22 15:18:47.394] $GNGGA,61846.8,3713.896380167,N,13701.43726503,E,4,11.0,1.1,88.186,M,37.565,M,4.8,2006*55,37.23160633611667,137.02395441716666,679545.9253646921,4122484.8714792947
1432,[2021-02-22 15:18:47.504] $GNGGA,61846.9,3713.8963806690003,N,13701.437266583998,E,4,11.0,1.1,88.189,M,37.565,M,4.9,2006*5A,37.23160634448333,137.02395444306663,679545.9276426969,4122484.872456761
1433,[2021-02-22 15:18:47.582] $GNGGA,61847.0,3713.8963808440003,N,13701.437267851,E,4,11.0,1.1,88.18700000000001,M,37.565,M,5.0,2006*51,37.2316063474,137.02395446418333,679545.9295092619,4122484.8728204444
1434,[2021-02-22 15:18:47.691] $GNGGA,61847.1,3713.8963815509996,N,13701.437267541001,E,4,11.0,1.06,88.186,M,37.565,M,5.1,2006*53,37.231606359183324,137.0239544590167,679545.9290229195,4122484.8741180757
1435,[2021-02-22 15:18:47.785] $GNGGA,61847.2,3713.89638305,N,13701.437269861999,E,4,11.0,1.06,88.19200000000001,M,37.565,M,5.2,2006*52,37.231606384166675,137.02395449769998,679545.9323956454,4122484.876963518
1436,[2021-02-22 15:18:47.910] $GNGGA,61847.3,3713.896385021,N,13701.437271809,E,4,11.0,1.06,88.191,M,37.565,M,5.3,2006*55,37.231606417016664,137.02395453014998,679545.9351966891,4122484.880669989
1437,[2021-02-22 15:18:47.988] $GNGGA,61847.4,3713.896387238,N,13701.437273382,E,4,11.0,1.06,88.193,M,37.565,M,5.4,2006*55,37.23160645396667,137.02395455636668,679545.9374349846,4122484.8848195584
1438,[2021-02-22 15:18:48.097] $GNGGA,61847.5,3713.89638834,N,13701.437275095,E,4,11.0,1.06,88.193,M,37.565,M,5.5,2006*57,37.23160647233334,137.02395458491668,679545.9399243798,4122484.886911616
1439,[2021-02-22 15:18:48.191] $GNGGA,61847.6,3713.8963887759996,N,13701.437275962,E,4,12.0,1.04,88.193,M,37.565,M,5.6,2006*56,37.231606479599996,137.02395459936665,679545.9411891478,4122484.8877453096
1440,[2021-02-22 15:18:48.316] $GNGGA,61847.7,3713.8963852770003,N,13701.43727525,E,4,12.0,1.04,88.195,M,37.565,M,5.7,2006*53,37.23160642128334,137.02395458750001,679545.9402746863,4122484.881252196
1441,[2021-02-22 15:18:48.394] $GNGGA,61847.8,3713.896382905,N,13701.43727414,E,4,12.0,1.04,88.193,M,37.565,M,5.8,2006*5F,37.23160638175,137.02395456899998,679545.9387271474,4122484.8768306295
1442,[2021-02-22 15:18:48.488] $GNGGA,61847.9,3713.8963793370003,N,13701.437274117,E,4,12.0,1.04,88.196,M,37.565,M,5.9,2006*57,37.23160632228334,137.02395456861663,679545.9388342157,4122484.870231701
1443,[2021-02-22 15:18:48.597] $GNGGA,61848.0,3713.8963755570003,N,13701.437275051001,E,4,12.0,1.04,88.2,M,37.565,M,6.0,2006*59,37.23160625928334,137.02395458418334,679545.9403647663,4122484.8632709826
1444,[2021-02-22 15:18:48.707] $GNGGA,61848.1,3713.896374463,N,13701.437276078,E,4,12.0,1.04,88.20100000000001,M,37.565,M,1.1,2006*50,37.231606241049995,137.02395460130003,679545.9419266229,4122484.861280349
1445,[2021-02-22 15:18:48.785] $GNGGA,61848.2,3713.89637435,N,13701.437275986002,E,4,12.0,1.04,88.204,M,37.565,M,1.2,2006*59,37.231606239166666,137.02395459976668,679545.9417950507,4122484.861068473
1446,[2021-02-22 15:18:48.894] $GNGGA,61848.3,3713.896374438,N,13701.437276032,E,4,12.0,1.04,88.208,M,37.565,M,1.3,2006*59,37.23160624063333,137.02395460053336,679545.9418595923,4122484.861232663
1447,[2021-02-22 15:18:48.988] $GNGGA,61848.4,3713.89637703,N,13701.437276625,E,4,12.0,1.04,88.211,M,37.565,M,1.4,2006*5E,37.23160628383334,137.02395461041667,679545.9426339541,4122484.866044724
1448,[2021-02-22 15:18:49.113] $GNGGA,61848.5,3713.8963784290004,N,13701.437278518999,E,4,12.0,1.04,88.212,M,37.565,M,1.5,2006*5C,37.23160630715001,137.0239546419833,679545.9453792411,4122484.868691738
1449,[2021-02-22 15:18:49.191] $GNGGA,61848.6,3713.896378807,N,13701.437277439,E,4,12.0,1.04,88.21,M,37.565,M,1.6,2006*52,37.23160631345,137.02395462398331,679545.9437673289,4122484.8693566155
1450,[2021-02-22 15:18:49.285] $GNGGA,61848.7,3713.896379121,N,13701.437276296001,E,4,12.0,1.04,88.211,M,37.565,M,1.7,2006*5D,37.231606318683326,137.02395460493338,679545.9420647938,4122484.869901149
1451,[2021-02-22 15:18:49.394] $GNGGA,61848.8,3713.89638169,N,13701.437276056002,E,4,12.0,1.04,88.208,M,37.565,M,1.8,2006*51,37.231606361500006,137.02395460093334,679545.9416083281,4122484.874644343
1452,[2021-02-22 15:18:49.519] $GNGGA,61848.9,3713.896382199,N,13701.437273993,E,4,12.0,1.04,88.212,M,37.565,M,1.9,2006*52,37.23160636998334,137.02395456655,679545.9385376987,4122484.8755203965
1453,[2021-02-22 15:18:49.582] $GNGGA,61849.0,3713.8963823159997,N,13701.437273934,E,4,12.0,1.04,88.212,M,37.565,M,2.0,2006*58,37.23160637193333,137.02395456556664,679545.9384458291,4122484.8757348945
1454,[2021-02-22 15:18:49.691] $GNGGA,61849.1,3713.896382468,N,13701.437272471001,E,4,12.0,1.04,88.214,M,37.565,M,2.1,2006*5D,37.231606374466665,137.02395454118334,679545.9362765218,4122484.875969729
1455,[2021-02-22 15:18:49.785] $GNGGA,61849.2,3713.89638319,N,13701.437271276001,E,4,12.0,1.04,88.212,M,37.565,M,2.2,2006*5A,37.2316063865,137.0239545212667,679545.9344809589,4122484.877267122
1456,[2021-02-22 15:18:49.894] $GNGGA,61849.3,3713.896380621,N,13701.437270291,E,4,12.0,1.04,88.215,M,37.565,M,2.3,2006*5B,37.23160634368333,137.02395450485002,679545.9331260443,4122484.8724851985
1457,[2021-02-22 15:18:50.019] $GNGGA,61849.4,3713.896379182,N,13701.437270789,E,4,12.0,1.04,88.211,M,37.565,M,2.4,2006*5B,37.231606319700006,137.02395451315002,679545.9339193229,4122484.8698398434
1458,[2021-02-22 15:18:50.082] $GNGGA,61849.5,3713.896378431,N,13701.437269095,E,4,12.0,1.04,88.21,M,37.565,M,2.5,2006*54,37.231606307183334,137.0239544849167,679545.9314441452,4122484.8683974817
1459,[2021-02-22 15:18:50.191] $GNGGA,61849.6,3713.89637658,N,13701.437267386002,E,4,12.0,1.04,88.209,M,37.565,M,2.6,2006*56,37.23160627633333,137.02395445643336,679545.9289902805,4122484.8649204457
1460,[2021-02-22 15:18:50.285] $GNGGA,61849.7,3713.896375208,N,13701.437265863999,E,4,11.0,1.07,88.21,M,37.565,M,2.7,2006*5F,37.23160625346667,137.02395443106664,679545.9267939852,4122484.8623351245
1461,[2021-02-22 15:18:50.394] $GNGGA,61849.8,3713.8963756559997,N,13701.437264271,E,4,10.0,1.43,88.211,M,37.565,M,2.8,2006*5F,37.231606260933326,137.0239544045167,679545.9244207481,4122484.8631132315
1462,[2021-02-22 15:18:50.519] $GNGGA,61849.9,3713.8963747109997,N,13701.437262673999,E,4,10.0,1.43,88.209,M,37.565,M,2.9,2006*52,37.23160624518333,137.0239543779,679545.92209667,4122484.861315179
1463,[2021-02-22 15:18:50.582] $GNGGA,61850.0,3713.8963749070003,N,13701.437262818,E,4,10.0,1.43,88.21600000000001,M,37.565,M,3.0,2006*58,37.23160624845,137.0239543803,679545.9223018487,4122484.8616821896
1464,[2021-02-22 15:18:50.691] $GNGGA,61850.1,3713.896374887,N,13701.4372617,E,4,10.0,1.43,88.21600000000001,M,37.565,M,3.1,2006*54,37.23160624811666,137.0239543616667,679545.9206494857,4122484.8616098566
1465,[2021-02-22 15:18:50.785] $GNGGA,61850.2,3713.896374718,N,13701.437263828,E,4,10.0,1.13,88.215,M,37.565,M,3.2,2006*5C,37.2316062453,137.02395439713334,679545.923802782,4122484.86136461
