,Format,Time,Latitude,LatType,Longitude,LonType,Status,Satellite,LevelAccuracy,Altitude(sea),M(sea),Altitude(geoid),M(geoid),DGPS use,checksum,Lat,Lon,UTM_X,UTM_Y
894,[2021-02-22 15:17:18.697] $GPGGA,61718.3,3713.89658015,N,13701.4366306,E,4,8.0,1.3,89.033,M,36.77,M,2.3,0000*7C,37.231609669166666,137.02394384333334,679544.9793422087,4122485.2212437284
896,[2021-02-22 15:17:18.807] $GPGGA,61718.4,3713.89657866,N,13701.43662574,E,4,8.0,1.3,89.030,M,36.77,M,2.4,0000*7D,37.23160964433334,137.02394376233332,679544.972214767,4122485.218334657
898,[2021-02-22 15:17:18.901] $GPGGA,61718.5,3713.89657901,N,13701.43662885,E,4,8.0,1.3,89.030,M,36.77,M,2.5,0000*7E,37.23160965016667,137.0239438141667,679544.9767996068,4122485.21908023
900,[2021-02-22 15:17:19.010] $GPGGA,61718.6,3713.8965773,N,13701.43662243,E,4,8.0,1.3,89.032,M,36.77,M,2.6,0000*70,37.23160962166667,137.02394370716667,679544.9673741314,4122485.215714998
902,[2021-02-22 15:17:19.104] $GPGGA,61718.7,3713.89658053,N,13701.43662623,E,4,8.0,1.3,89.046,M,36.77,M,2.7,0000*7C,37.231609675499996,137.0239437705,679544.9728653771,4122485.221808288
904,[2021-02-22 15:17:19.213] $GPGGA,61718.8,3713.8965783,N,13701.43662167,E,4,8.0,1.3,89.035,M,36.77,M,2.8,0000*7D,37.231609638333325,137.02394369450002,679544.9662108006,4122485.21754024
906,[2021-02-22 15:17:19.291] $GPGGA,61718.9,3713.89657895,N,13701.43662473,E,4,8.0,1.3,89.041,M,36.77,M,2.9,0000*71,37.231609649166664,137.02394374550002,679544.9707098426,4122485.218839013
908,[2021-02-22 15:17:19.416] $GPGGA,61719.0,3713.8965785,N,13701.43662419,E,4,8.0,1.3,89.037,M,36.77,M,3.0,0000*75,37.23160964166667,137.0239437365,679544.9699291494,4122485.2179897693
910,[2021-02-22 15:17:19.494] $GPGGA,61719.1,3713.89657739,N,13701.4366248,E,4,8.0,1.3,89.039,M,36.77,M,3.1,0000*7B,37.23160962316666,137.0239437466667,679544.9708750339,4122485.215956362
912,[2021-02-22 15:17:19.619] $GPGGA,61719.2,3713.89657848,N,13701.43662659,E,4,8.0,1.3,89.042,M,36.77,M,3.2,0000*78,37.231609641333336,137.0239437765,679544.9734787578,4122485.2180286627
914,[2021-02-22 15:17:19.697] $GPGGA,61719.3,3713.89657944,N,13701.43661857,E,4,8.0,1.3,89.037,M,36.77,M,2.3,0000*75,37.23160965733334,137.02394364283333,679544.9615818339,4122485.2195504
916,[2021-02-22 15:17:19.807] $GPGGA,61719.4,3713.8965821,N,13701.43662658,E,4,8.0,1.3,89.030,M,36.77,M,2.4,0000*75,37.23160970166666,137.0239437763333,679544.9733208327,4122485.2247227095
918,[2021-02-22 15:17:19.900] $GPGGA,61719.5,3713.89658445,N,13701.43662772,E,4,8.0,1.3,89.034,M,36.77,M,2.5,0000*7E,37.231609740833335,137.02394379533334,679544.9749136029,4122485.2291045412
920,[2021-02-22 15:17:20.010] $GPGGA,61719.6,3713.89657883,N,13701.43662398,E,4,8.0,1.3,89.036,M,36.77,M,2.6,0000*75,37.231609647166664,137.023943733,679544.9696055809,4122485.218593389
922,[2021-02-22 15:17:20.104] $GPGGA,61719.7,3713.89658191,N,13701.43662818,E,4,8.0,1.3,89.036,M,36.77,M,2.7,0000*73,37.2316096985,137.02394380299998,679544.9756942231,4122485.224421935
924,[2021-02-22 15:17:20.213] $GPGGA,61719.8,3713.89658506,N,13701.43662715,E,4,8.0,1.3,89.042,M,36.77,M,2.8,0000*78,37.23160975099999,137.02394378583332,679544.974046638,4122485.2302145762
926,[2021-02-22 15:17:20.307] $GPGGA,61719.9,3713.89658063,N,13701.43662189,E,4,8.0,1.3,89.033,M,36.77,M,2.9,0000*7B,37.23160967716667,137.02394369816665,679544.9664439777,4122485.221856
928,[2021-02-22 15:17:20.416] $GPGGA,61720.0,3713.89657705,N,13701.43661435,E,4,8.0,1.3,89.039,M,36.77,M,3.0,0000*73,37.2316096175,137.02394357249997,679544.9554363297,4122485.2149972175
930,[2021-02-22 15:17:20.494] $GPGGA,61720.1,3713.89657964,N,13701.4366152,E,4,8.0,1.3,89.026,M,36.77,M,3.1,0000*71,37.23160966066667,137.0239435866667,679544.9565907978,4122485.2198137064
932,[2021-02-22 15:17:20.604] $GPGGA,61720.2,3713.8965786,N,13701.43661882,E,4,8.0,1.3,89.036,M,36.77,M,3.2,0000*70,37.231609643333336,137.023943647,679544.9619847175,4122485.2180049154
934,[2021-02-22 15:17:20.697] $GPGGA,61720.3,3713.89657675,N,13701.4366201,E,4,8.0,1.3,89.039,M,36.77,M,2.3,0000*74,37.231609612499994,137.02394366833335,679544.9639505717,4122485.2146242303
936,[2021-02-22 15:17:20.807] $GPGGA,61720.4,3713.89657557,N,13701.43662102,E,4,8.0,1.3,89.043,M,36.77,M,2.4,0000*78,37.23160959283333,137.02394368366666,679544.9653576065,4122485.212471178
938,[2021-02-22 15:17:20.900] $GPGGA,61720.5,3713.89658045,N,13701.43662089,E,4,8.0,1.3,89.035,M,36.77,M,2.5,0000*72,37.23160967416666,137.0239436815,679544.9649724212,4122485.221491513
940,[2021-02-22 15:17:21.010] $GPGGA,61720.6,3713.89658027,N,13701.43662106,E,4,8.0,1.3,89.032,M,36.77,M,2.6,0000*77,37.231609671166666,137.02394368433335,679544.9652309158,4122485.2211640193
942,[2021-02-22 15:17:21.104] $GPGGA,61720.7,3713.89657713,N,13701.43662326,E,4,8.0,1.3,89.040,M,36.77,M,2.7,0000*7D,37.23160961883333,137.023943721,679544.968608152,4122485.215426862
944,[2021-02-22 15:17:21.213] $GPGGA,61720.8,3713.89657654,N,13701.43662169,E,4,8.0,1.3,89.039,M,36.77,M,2.8,0000*78,37.231609609,137.02394369483332,679544.9663099642,4122485.2142861546
946,[2021-02-22 15:17:21.291] $GPGGA,61720.9,3713.89657423,N,13701.43662305,E,4,8.0,1.3,89.044,M,36.77,M,2.9,0000*78,37.231609570500005,137.0239437175,679544.9684122992,4122485.2100573354
948,[2021-02-22 15:17:21.416] $GPGGA,61721.0,3713.896577,N,13701.43662442,E,4,8.0,1.3,89.040,M,36.77,M,3.0,0000*7A,37.23160961666667,137.02394374033335,679544.9703285572,4122485.215223133
950,[2021-02-22 15:17:21.494] $GPGGA,61721.1,3713.89657889,N,13701.43662485,E,4,8.0,1.3,89.035,M,36.77,M,3.1,0000*7D,37.23160964816667,137.02394374749997,679544.9708896499,4122485.218731852
952,[2021-02-22 15:17:21.619] $GPGGA,61721.2,3713.89657572,N,13701.43662301,E,4,8.0,1.3,89.047,M,36.77,M,3.2,0000*7A,37.23160959533333,137.02394371683332,679544.9682942345,4122485.2128114854
954,[2021-02-22 15:17:21.697] $GPGGA,61721.3,3713.89657625,N,13701.43662275,E,4,8.0,1.3,89.040,M,36.77,M,2.3,0000*7F,37.231609604166664,137.0239437125,679544.9678888245,4122485.213783379
956,[2021-02-22 15:17:21.807] $GPGGA,61721.4,3713.89657683,N,13701.43662489,E,4,8.0,1.3,89.040,M,36.77,M,2.4,0000*76,37.23160961383333,137.0239437481667,679544.971030255,4122485.214923615
958,[2021-02-22 15:17:21.900] $GPGGA,61721.5,3713.89657476,N,13701.43662471,E,4,8.0,1.3,89.043,M,36.77,M,2.5,0000*7A,37.23160957933333,137.0239437451667,679544.9708459424,4122485.2110899305
960,[2021-02-22 15:17:22.010] $GPGGA,61721.6,3713.89657372,N,13701.43662007,E,4,8.0,1.3,89.047,M,36.77,M,2.6,0000*78,37.231609562,137.02394366783335,679544.9640260183,4122485.2090199892
962,[2021-02-22 15:17:22.103] $GPGGA,61721.7,3713.89657333,N,13701.43662306,E,4,8.0,1.3,89.038,M,36.77,M,2.7,0000*77,37.23160955550001,137.0239437176667,679544.9684626741,4122485.2083933074
964,[2021-02-22 15:17:22.213] $GPGGA,61721.8,3713.896572,N,13701.43662369,E,4,8.0,1.3,89.051,M,36.77,M,2.8,0000*70,37.231609533333334,137.02394372816667,679544.9694468254,4122485.205953693
966,[2021-02-22 15:17:22.291] $GPGGA,61721.9,3713.89657343,N,13701.43662072,E,4,8.0,1.3,89.048,M,36.77,M,2.9,0000*77,37.23160955716667,137.02394367866665,679544.96499862,4122485.208504252
968,[2021-02-22 15:17:22.416] $GPGGA,61722.0,3713.89657329,N,13701.4366217,E,4,8.0,1.3,89.043,M,36.77,M,3.0,0000*71,37.23160955483334,137.023943695,679544.9664532592,4122485.2082763384
970,[2021-02-22 15:17:22.494] $GPGGA,61722.1,3713.89657399,N,13701.43662047,E,4,8.0,1.3,89.048,M,36.77,M,3.1,0000*74,37.231609566500005,137.0239436745,679544.96460681,4122485.20953194
972,[2021-02-22 15:17:22.603] $GPGGA,61722.2,3713.89657551,N,13701.43661822,E,4,8.0,1.3,89.045,M,36.77,M,3.2,0000*73,37.231609591833326,137.02394363699997,679544.9612196914,4122485.2122716946
974,[2021-02-22 15:17:22.697] $GPGGA,61722.3,3713.8965753,N,13701.43662549,E,4,8.0,1.3,89.052,M,36.77,M,2.3,0000*70,37.231609588333335,137.02394375816664,679544.9719779534,4122485.2121131998
976,[2021-02-22 15:17:22.807] $GPGGA,61722.4,3713.89657811,N,13701.43662371,E,4,8.0,1.3,89.029,M,36.77,M,2.4,0000*7F,37.23160963516666,137.0239437285,679544.969234808,4122485.2172533753
978,[2021-02-22 15:17:22.900] $GPGGA,61722.5,3713.89657466,N,13701.43662602,E,4,8.0,1.3,89.035,M,36.77,M,2.5,0000*7F,37.23160957766667,137.02394376700002,679544.9727869595,4122485.210946423
980,[2021-02-22 15:17:23.010] $GPGGA,61722.6,3713.8965742,N,13701.43662562,E,4,8.0,1.3,89.039,M,36.77,M,2.6,0000*74,37.23160957,137.0239437603333,679544.9722136757,4122485.2100831117
982,[2021-02-22 15:17:23.103] $GPGGA,61722.7,3713.89657435,N,13701.43662612,E,4,8.0,1.3,89.040,M,36.77,M,2.7,0000*7A,37.23160957249999,137.02394376866667,679544.9729470839,4122485.2103763083
984,[2021-02-22 15:17:23.197] $GPGGA,61722.8,3713.8965725,N,13701.4366269,E,4,8.0,1.3,89.040,M,36.77,M,2.8,0000*75,37.231609541666664,137.02394378166665,679544.9741735967,4122485.2069798172
986,[2021-02-22 15:17:23.291] $GPGGA,61722.9,3713.89657338,N,13701.43662879,E,4,8.0,1.3,89.035,M,36.77,M,2.9,0000*71,37.23160955633333,137.02394381316668,679544.9769334977,4122485.2086669323
988,[2021-02-22 15:17:23.400] $GPGGA,61723.0,3713.89657726,N,13701.43663255,E,4,8.0,1.3,89.043,M,36.77,M,3.0,0000*7E,37.231609621000004,137.0239438758333,679544.9823398902,4122485.215960986
990,[2021-02-22 15:17:23.494] $GPGGA,61723.1,3713.8965758,N,13701.43663258,E,4,8.0,1.3,89.041,M,36.77,M,3.1,0000*7F,37.231609596666665,137.02394387633336,679544.9824419848,4122485.213261997
992,[2021-02-22 15:17:23.619] $GPGGA,61723.2,3713.8965792,N,13701.43663215,E,4,8.0,1.3,89.046,M,36.77,M,3.2,0000*77,37.23160965333334,137.0239438691667,679544.9816717163,4122485.219535926
994,[2021-02-22 15:17:23.697] $GPGGA,61723.3,3713.8965792,N,13701.43663462,E,4,8.0,1.3,89.057,M,36.77,M,2.3,0000*70,37.23160965333334,137.02394391033334,679544.9853240398,4122485.219614019
996,[2021-02-22 15:17:23.806] $GPGGA,61723.4,3713.8965801,N,13701.43663609,E,4,8.0,1.3,89.059,M,36.77,M,2.4,0000*74,37.23160966833333,137.02394393483334,679544.987462103,4122485.221324838
998,[2021-02-22 15:17:23.900] $GPGGA,61723.5,3713.89658298,N,13701.43664001,E,4,8.0,1.3,89.057,M,36.77,M,2.5,0000*71,37.23160971633333,137.0239440001667,679544.9931446294,4122485.226774678
1000,[2021-02-22 15:17:24.010] $GPGGA,61723.6,3713.89658607,N,13701.43663829,E,4,8.0,1.3,89.064,M,36.77,M,2.6,0000*76,37.231609767833326,137.0239439715,679544.9904791279,4122485.2324345484
1002,[2021-02-22 15:17:24.103] $GPGGA,61723.7,3713.89658288,N,13701.43663427,E,4,8.0,1.3,89.060,M,36.77,M,2.7,0000*73,37.231609714666675,137.0239439045,679544.9846609943,4122485.2264082744
1004,[2021-02-22 15:17:24.213] $GPGGA,61723.8,3713.89657998,N,13701.43663755,E,4,8.0,1.3,89.062,M,36.77,M,2.8,0000*72,37.23160966633333,137.02394395916667,679544.9896257113,4122485.2211490865
1006,[2021-02-22 15:17:24.291] $GPGGA,61723.9,3713.89657957,N,13701.43663142,E,4,8.0,1.3,89.059,M,36.77,M,2.9,0000*79,37.2316096595,137.023943857,679544.9805776547,4122485.220197077
1008,[2021-02-22 15:17:24.400] $GPGGA,61724.0,3713.8965811,N,13701.43663308,E,4,8.0,1.3,89.063,M,36.77,M,3.0,0000*7E,37.231609684999995,137.0239438846667,679544.9829717573,4122485.2230789443
1010,[2021-02-22 15:17:24.494] $GPGGA,61724.1,3713.89657414,N,13701.43662686,E,4,8.0,1.3,89.050,M,36.77,M,3.1,0000*72,37.231609569,137.023943781,679544.9740496053,4122485.21001136
1012,[2021-02-22 15:17:24.603] $GPGGA,61724.2,3713.89656797,N,13701.43661837,E,4,8.0,1.3,89.052,M,36.77,M,3.2,0000*7E,37.23160946616667,137.02394363949998,679544.9617396268,4122485.198332929
1014,[2021-02-22 15:17:24.697] $GPGGA,61724.3,3713.89656119,N,13701.43661077,E,4,8.0,1.3,89.066,M,36.77,M,3.3,0000*75,37.23160935316666,137.02394351283334,679544.9507697931,4122485.18555458
1016,[2021-02-22 15:17:24.806] $GPGGA,61724.4,3713.89656374,N,13701.43661239,E,4,8.0,1.3,89.066,M,36.77,M,3.4,0000*74,37.231609395666666,137.02394353983334,679544.9530644172,4122485.190321443
1018,[2021-02-22 15:17:24.900] $GPGGA,61724.5,3713.89656498,N,13701.4366155,E,4,8.0,1.3,89.061,M,36.77,M,3.5,0000*7E,37.231609416333335,137.02394359166667,679544.9576140617,4122485.1927128667
1020,[2021-02-22 15:17:25.009] $GPGGA,61724.6,3713.89656682,N,13701.43661327,E,4,8.0,1.3,89.060,M,36.77,M,3.6,0000*70,37.231609447000004,137.0239435545,679544.9542438625,4122485.196045022
1022,[2021-02-22 15:17:25.103] $GPGGA,61724.7,3713.89656926,N,13701.43661324,E,4,8.0,1.3,89.070,M,36.77,M,3.7,0000*73,37.231609487666674,137.023943554,679544.9541030251,4122485.2005562973
1024,[2021-02-22 15:17:25.213] $GPGGA,61724.8,3713.89656939,N,13701.43661472,E,4,8.0,1.3,89.058,M,36.77,M,3.8,0000*73,37.23160948983333,137.0239435786667,679544.9562863254,4122485.2008434944
1026,[2021-02-22 15:17:25.306] $GPGGA,61724.9,3713.89657847,N,13701.4366192,E,4,8.0,1.3,89.061,M,36.77,M,3.9,0000*7A,37.23160964116666,137.02394365333336,679544.9625517552,4122485.217776523
1028,[2021-02-22 15:17:25.400] $GPGGA,61725.0,3713.89658511,N,13701.43661716,E,4,8.0,1.3,89.065,M,36.77,M,4.0,0000*72,37.23160975183334,137.02394361933332,679544.9592727096,4122485.229991192
1030,[2021-02-22 15:17:25.509] $GPGGA,61725.1,3713.89658884,N,13701.43662132,E,4,8.0,1.3,89.058,M,36.77,M,4.1,0000*7E,37.231609814,137.02394368866666,679544.9652765077,4122485.2370205005
1032,[2021-02-22 15:17:25.619] $GPGGA,61725.2,3713.89658508,N,13701.43662556,E,4,8.0,1.3,89.056,M,36.77,M,4.2,0000*7F,37.23160975133333,137.02394375933335,679544.9716947582,4122485.230201291
1034,[2021-02-22 15:17:25.697] $GPGGA,61725.3,3713.89657839,N,13701.43663007,E,4,8.0,1.3,89.044,M,36.77,M,2.3,0000*7A,37.23160963983333,137.02394383450002,679544.9786281021,4122485.2179722534
1036,[2021-02-22 15:17:25.806] $GPGGA,61725.4,3713.89657376,N,13701.43663545,E,4,8.0,1.3,89.049,M,36.77,M,2.4,0000*74,37.23160956266667,137.02394392416667,679544.9867664386,4122485.209580221
1038,[2021-02-22 15:17:25.900] $GPGGA,61725.5,3713.89658111,N,13701.43663862,E,4,8.0,1.3,89.038,M,36.77,M,2.5,0000*76,37.23160968516667,137.02394397700002,679544.9911632126,4122485.223272593
1040,[2021-02-22 15:17:26.009] $GPGGA,61725.6,3713.89658044,N,13701.43664006,E,4,8.0,1.3,89.039,M,36.77,M,2.6,0000*7B,37.231609674000005,137.02394400099996,679544.993318991,4122485.22207911
1042,[2021-02-22 15:17:26.103] $GPGGA,61725.7,3713.89658374,N,13701.43664083,E,4,8.0,1.3,89.043,M,36.77,M,2.7,0000*7B,37.231609729,137.02394401383333,679544.9943270888,4122485.2282060506
1044,[2021-02-22 15:17:26.213] $GPGGA,61725.8,3713.8965817,N,13701.43663862,E,4,8.0,1.3,89.050,M,36.77,M,2.8,0000*7F,37.231609694999996,137.02394397700002,679544.9911398836,4122485.2243636623
1046,[2021-02-22 15:17:26.306] $GPGGA,61725.9,3713.8965857,N,13701.43663757,E,4,8.0,1.3,89.050,M,36.77,M,2.9,0000*72,37.23160976166666,137.02394395949997,679544.9894291123,4122485.231727553
1048,[2021-02-22 15:17:26.400] $GPGGA,61726.0,3713.89658825,N,13701.43663486,E,4,8.0,1.3,89.048,M,36.77,M,3.0,0000*7B,37.23160980416667,137.02394391433333,679544.9853210796,4122485.236357518
1050,[2021-02-22 15:17:26.494] $GPGGA,61726.1,3713.89658811,N,13701.43663501,E,4,8.0,1.3,89.051,M,36.77,M,3.1,0000*7A,37.23160980183333,137.02394391683333,679544.9855484157,4122485.2361033596
1052,[2021-02-22 15:17:27.353] $GPGGA,61726.2,3713.89658715,N,13701.43664204,E,4,8.0,1.3,89.042,M,36.77,M,3.2,0000*76,37.23160978583333,137.02394403399998,679544.9959814497,4122485.2345503224
1054,[2021-02-22 15:17:27.353] $GPGGA,61726.3,3713.89659269,N,13701.43663729,E,4,8.0,1.3,89.036,M,36.77,M,2.3,0000*76,37.231609878166665,137.02394395483336,679544.9887386985,4122485.244645111
1056,[2021-02-22 15:17:27.353] $GPGGA,61726.4,3713.89658956,N,13701.43663827,E,4,8.0,1.3,89.046,M,36.77,M,2.4,0000*76,37.231609826,137.02394397116666,679544.9903115592,4122485.238887876
1058,[2021-02-22 15:17:27.353] $GPGGA,61726.5,3713.89658744,N,13701.43663417,E,4,8.0,1.3,89.048,M,36.77,M,2.5,0000*7A,37.23160979066667,137.02394390283334,679544.984332823,4122485.2348377896
1060,[2021-02-22 15:17:27.353] $GPGGA,61726.6,3713.89658463,N,13701.43662954,E,4,8.0,1.3,89.041,M,36.77,M,2.6,0000*7E,37.231609743833324,137.0239438256667,679544.977597674,4122485.229494953
1062,[2021-02-22 15:17:27.353] $GPGGA,61726.7,3713.89658267,N,13701.43662498,E,4,8.0,1.3,89.051,M,36.77,M,2.7,0000*70,37.23160971116667,137.02394374966664,679544.9709324171,4122485.225726209
1064,[2021-02-22 15:17:27.353] $GPGGA,61726.8,3713.89658364,N,13701.43662694,E,4,8.0,1.3,89.045,M,36.77,M,2.8,0000*79,37.23160972733333,137.02394378233333,679544.9737922654,4122485.227581971
1066,[2021-02-22 15:17:27.353] $GPGGA,61726.9,3713.89658007,N,13701.43662758,E,4,8.0,1.3,89.044,M,36.77,M,2.9,0000*7F,37.23160966783333,137.023943793,679544.9748797759,4122485.2210003044
1068,[2021-02-22 15:17:27.416] $GPGGA,61727.0,3713.89658093,N,13701.43662798,E,4,8.0,1.3,89.043,M,36.77,M,3.0,0000*79,37.23160968216666,137.02394379966665,679544.9754372388,4122485.2226033257
1070,[2021-02-22 15:17:27.494] $GPGGA,61727.1,3713.89658159,N,13701.43663288,E,4,8.0,1.3,89.044,M,36.77,M,3.1,0000*7C,37.23160969316667,137.02394388133334,679544.9826566463,4122485.2239787662
1072,[2021-02-22 15:17:27.619] $GPGGA,61727.2,3713.89658225,N,13701.43663491,E,4,8.0,1.3,89.048,M,36.77,M,3.2,0000*76,37.231609704166665,137.02394391516665,679544.9856322559,4122485.225263465
1074,[2021-02-22 15:17:27.697] $GPGGA,61727.3,3713.89658141,N,13701.43663578,E,4,8.0,1.3,89.040,M,36.77,M,2.3,0000*78,37.23160969016667,137.0239439296667,679544.9869519202,4122485.223737585
1076,[2021-02-22 15:17:27.806] $GPGGA,61727.4,3713.89657958,N,13701.43663624,E,4,8.0,1.3,89.035,M,36.77,M,2.4,0000*7F,37.23160965966666,137.0239439373333,679544.9877044645,4122485.220367959
1078,[2021-02-22 15:17:27.900] $GPGGA,61727.5,3713.89658279,N,13701.43663594,E,4,8.0,1.3,89.032,M,36.77,M,2.5,0000*77,37.23160971316667,137.0239439323333,679544.9871339365,4122485.226294638
1080,[2021-02-22 15:17:28.009] $GPGGA,61727.6,3713.89658129,N,13701.43663335,E,4,8.0,1.3,89.041,M,36.77,M,2.6,0000*78,37.23160968816667,137.02394388916665,679544.9833634822,4122485.2234388446
1082,[2021-02-22 15:17:28.103] $GPGGA,61727.7,3713.89658324,N,13701.43663658,E,4,8.0,1.3,89.035,M,36.77,M,2.7,0000*7A,37.23160972066666,137.02394394299998,679544.9880624943,4122485.227147044
1084,[2021-02-22 15:17:28.212] $GPGGA,61727.8,3713.89658287,N,13701.43663556,E,4,8.0,1.3,89.038,M,36.77,M,2.8,0000*72,37.2316097145,137.02394392600002,679544.9865688803,4122485.226430565
1086,[2021-02-22 15:17:28.306] $GPGGA,61727.9,3713.89657831,N,13701.43663474,E,4,8.0,1.3,89.037,M,36.77,M,2.9,0000*74,37.23160963850001,137.02394391233332,679544.9855366701,4122485.217971961
1088,[2021-02-22 15:17:28.416] $GPGGA,61728.0,3713.89658067,N,13701.43663096,E,4,8.0,1.3,89.035,M,36.77,M,3.0,0000*74,37.23160967783333,137.0239438493333,679544.9798539659,4122485.2222167314
1090,[2021-02-22 15:17:28.494] $GPGGA,61728.1,3713.89657874,N,13701.4366321,E,4,8.0,1.3,89.038,M,36.77,M,3.1,0000*70,37.23160964566667,137.02394386833336,679544.9816159714,4122485.21868368
1092,[2021-02-22 15:17:28.603] $GPGGA,61728.2,3713.89657997,N,13701.43663437,E,4,8.0,1.3,89.040,M,36.77,M,3.2,0000*70,37.23160966616667,137.02394390616666,679544.984923924,4122485.221030053
1094,[2021-02-22 15:17:28.697] $GPGGA,61728.3,3713.89657893,N,13701.43663433,E,4,8.0,1.3,89.042,M,36.77,M,2.3,0000*72,37.231609648833334,137.0239439055,679544.9849059011,4122485.2191055478
1096,[2021-02-22 15:17:28.806] $GPGGA,61728.4,3713.89657828,N,13701.43663485,E,4,8.0,1.3,89.043,M,36.77,M,2.4,0000*7E,37.231609638,137.02394391416667,679544.9857005118,4122485.217919961
1098,[2021-02-22 15:17:28.900] $GPGGA,61728.5,3713.89657703,N,13701.43663396,E,4,8.0,1.3,89.043,M,36.77,M,2.5,0000*7D,37.231609617166676,137.02394389933335,679544.9844339191,4122485.2155802324
1100,[2021-02-22 15:17:29.009] $GPGGA,61728.6,3713.89657812,N,13701.43663264,E,4,8.0,1.3,89.039,M,36.77,M,2.6,0000*73,37.231609635333335,137.02394387733332,679544.9824389684,4122485.217554204
1102,[2021-02-22 15:17:29.103] $GPGGA,61728.7,3713.8965776,N,13701.43663152,E,4,8.0,1.3,89.041,M,36.77,M,2.7,0000*70,37.23160962666667,137.02394385866666,679544.980803414,4122485.216557173
1104,[2021-02-22 15:17:29.212] $GPGGA,61728.8,3713.89657904,N,13701.43663351,E,4,8.0,1.3,89.039,M,36.77,M,2.8,0000*72,37.23160965066667,137.0239438918333,679544.9836890347,4122485.21928304
1106,[2021-02-22 15:17:29.306] $GPGGA,61728.9,3713.89657962,N,13701.43663537,E,4,8.0,1.3,89.026,M,36.77,M,2.9,0000*7A,37.231609660333326,137.02394392283335,679544.9864164393,4122485.220414424
1108,[2021-02-22 15:17:29.415] $GPGGA,61729.0,3713.89657487,N,13701.43663301,E,4,8.0,1.3,89.054,M,36.77,M,3.0,0000*7A,37.23160958116667,137.02394388349998,679544.9831145839,4122485.211555769
1110,[2021-02-22 15:17:29.494] $GPGGA,61729.1,3713.89657607,N,13701.4366317,E,4,8.0,1.3,89.038,M,36.77,M,3.1,0000*7E,37.23160960116666,137.02394386166665,679544.9811300723,4122485.2137334766
1112,[2021-02-22 15:17:29.619] $GPGGA,61729.2,3713.89657578,N,13701.43663114,E,4,8.0,1.3,89.041,M,36.77,M,3.2,0000*79,37.231609596333335,137.02394385233336,679544.9803134847,4122485.2131794835
1114,[2021-02-22 15:17:29.697] $GPGGA,61729.3,3713.89657724,N,13701.43663061,E,4,8.0,1.3,89.030,M,36.77,M,2.3,0000*76,37.23160962066667,137.02394384349998,679544.9794720554,4122485.2158626625
1116,[2021-02-22 15:17:29.806] $GPGGA,61729.4,3713.89657327,N,13701.43663034,E,4,8.0,1.3,89.035,M,36.77,M,2.4,0000*74,37.231609554500004,137.02394383900003,679544.9792297935,4122485.208512519
1118,[2021-02-22 15:17:29.900] $GPGGA,61729.5,3713.89657571,N,13701.43662822,E,4,8.0,1.3,89.036,M,36.77,M,2.5,0000*7C,37.231609595166674,137.02394380366667,679544.9759985234,4122485.212957716
1120,[2021-02-22 15:17:30.009] $GPGGA,61729.6,3713.89657665,N,13701.43663351,E,4,8.0,1.3,89.034,M,36.77,M,2.6,0000*76,37.23160961083333,137.0239438918333,679544.9837835365,4122485.2148632808
1122,[2021-02-22 15:17:30.103] $GPGGA,61729.7,3713.896574,N,13701.43662616,E,4,8.0,1.3,89.041,M,36.77,M,2.7,0000*72,37.23160956666666,137.02394376933333,679544.973020068,4122485.2097303304
1124,[2021-02-22 15:17:30.197] $GPGGA,61729.8,3713.89657563,N,13701.43662808,E,4,8.0,1.3,89.039,M,36.77,M,2.8,0000*78,37.231609593833326,137.02394380133333,679544.9757946725,4122485.212805345
1126,[2021-02-22 15:17:30.306] $GPGGA,61729.9,3713.89657667,N,13701.43662982,E,4,8.0,1.3,89.041,M,36.77,M,2.9,0000*73,37.23160961116666,137.02394383033334,679544.9783264421,4122485.214783601
1128,[2021-02-22 15:17:30.415] $GPGGA,61730.0,3713.89657701,N,13701.43663078,E,4,8.0,1.3,89.035,M,36.77,M,3.0,0000*75,37.23160961683333,137.02394384633334,679544.979732525,4122485.2154427054
1130,[2021-02-22 15:17:30.494] $GPGGA,61730.1,3713.89657492,N,13701.43663143,E,4,8.0,1.3,89.042,M,36.77,M,3.1,0000*75,37.231609582000004,137.02394385716664,679544.9807763017,4122485.211598279
1132,[2021-02-22 15:17:30.603] $GPGGA,61730.2,3713.89657723,N,13701.43662825,E,4,8.0,1.3,89.043,M,36.77,M,3.2,0000*75,37.231609620499995,137.02394380416666,679544.9759827806,4122485.2157695564
1134,[2021-02-22 15:17:30.697] $GPGGA,61730.3,3713.89657886,N,13701.43662904,E,4,8.0,1.3,89.043,M,36.77,M,2.3,0000*76,37.23160964766666,137.02394381733333,679544.9770864833,4122485.2188088465
1136,[2021-02-22 15:17:30.806] $GPGGA,61730.4,3713.89658124,N,13701.43662764,E,4,8.0,1.3,89.040,M,36.77,M,2.4,0000*73,37.23160968733334,137.02394379399996,679544.9749222309,4122485.223165852
1138,[2021-02-22 15:17:30.900] $GPGGA,61730.5,3713.89658056,N,13701.43662984,E,4,8.0,1.3,89.039,M,36.77,M,2.5,0000*79,37.231609676000005,137.02394383066667,679544.9782022045,4122485.2219779016
1140,[2021-02-22 15:17:31.009] $GPGGA,61730.6,3713.89658337,N,13701.43662716,E,4,8.0,1.3,89.030,M,36.77,M,2.6,0000*71,37.23160972283333,137.02394378599996,679544.9741282454,4122485.227089623
1142,[2021-02-22 15:17:31.103] $GPGGA,61730.7,3713.89658385,N,13701.43663095,E,4,8.0,1.3,89.023,M,36.77,M,2.7,0000*77,37.231609730833334,137.02394384916664,679544.979713441,4122485.2280970984
1144,[2021-02-22 15:17:31.212] $GPGGA,61730.8,3713.89658587,N,13701.43663152,E,4,8.0,1.3,89.030,M,36.77,M,2.8,0000*7B,37.23160976449999,137.02394385866666,679544.9804764144,4122485.231850649
1146,[2021-02-22 15:17:31.306] $GPGGA,61730.9,3713.89658253,N,13701.43663534,E,4,8.0,1.3,89.028,M,36.77,M,2.9,0000*78,37.23160970883334,137.02394392233333,679544.9862570132,4122485.225794859
1148,[2021-02-22 15:17:31.415] $GPGGA,61731.0,3713.89658178,N,13701.43663304,E,4,8.0,1.3,89.026,M,36.77,M,3.0,0000*79,37.23160969633333,137.023943884,679544.9828857202,4122485.224335185
1150,[2021-02-22 15:17:31.493] $GPGGA,61731.1,3713.89658445,N,13701.43663599,E,4,8.0,1.3,89.031,M,36.77,M,3.1,0000*76,37.231609740833335,137.0239439331667,679544.9871422374,4122485.2293660096
1152,[2021-02-22 15:17:31.618] $GPGGA,61731.2,3713.89658205,N,13701.43663324,E,4,8.0,1.3,89.024,M,36.77,M,3.2,0000*70,37.23160970083333,137.02394388733336,679544.9831707804,4122485.224840812
1154,[2021-02-22 15:17:31.697] $GPGGA,61731.3,3713.89658246,N,13701.43663526,E,4,8.0,1.3,89.038,M,36.77,M,2.3,0000*7F,37.231609707666664,137.02394392099995,679544.9861414845,4122485.2256628787
1156,[2021-02-22 15:17:31.806] $GPGGA,61731.4,3713.89657912,N,13701.43663446,E,4,8.0,1.3,89.042,M,36.77,M,2.4,0000*70,37.231609652,137.02394390766668,679544.9850906163,4122485.2194610187
1158,[2021-02-22 15:17:31.900] $GPGGA,61731.5,3713.89658456,N,13701.4366291,E,4,8.0,1.3,89.039,M,36.77,M,2.5,0000*71,37.23160974266666,137.02394381833335,679544.9769498247,4122485.2293515923
1160,[2021-02-22 15:17:32.009] $GPGGA,61731.6,3713.89658563,N,13701.43663363,E,4,8.0,1.3,89.045,M,36.77,M,2.6,0000*72,37.23160976050001,137.02394389383335,679544.9836059093,4122485.2314735367
1162,[2021-02-22 15:17:32.103] $GPGGA,61731.7,3713.89658201,N,13701.43662826,E,4,8.0,1.3,89.045,M,36.77,M,2.7,0000*7A,37.23160970016667,137.02394380433336,679544.9758085678,4122485.2246093927
1164,[2021-02-22 15:17:32.212] $GPGGA,61731.8,3713.89658379,N,13701.43663055,E,4,8.0,1.3,89.052,M,36.77,M,2.8,0000*7F,37.23160972983334,137.02394384250002,679544.9791243479,4122485.2279734975
1166,[2021-02-22 15:17:32.290] $GPGGA,61731.9,3713.89658131,N,13701.43663187,E,4,8.0,1.3,89.047,M,36.77,M,2.9,0000*7B,37.2316096885,137.02394386449998,679544.9811742554,4122485.2234290373
1168,[2021-02-22 15:17:32.415] $GPGGA,61732.0,3713.89658383,N,13701.43662822,E,4,8.0,1.3,89.046,M,36.77,M,3.0,0000*74,37.231609730500004,137.02394380366667,679544.9756774547,4122485.2279738015
1170,[2021-02-22 15:17:32.493] $GPGGA,61732.1,3713.89658329,N,13701.43663349,E,4,8.0,1.3,89.051,M,36.77,M,3.1,0000*75,37.2316097215,137.02394389150004,679544.9834914198,4122485.227141814
1172,[2021-02-22 15:17:32.603] $GPGGA,61732.2,3713.89658501,N,13701.43662452,E,4,8.0,1.3,89.030,M,36.77,M,3.2,0000*72,37.23160975016667,137.023943742,679544.9701597028,4122485.2300389614
1174,[2021-02-22 15:17:32.696] $GPGGA,61732.3,3713.89658239,N,13701.43662776,E,4,8.0,1.3,89.034,M,36.77,M,2.3,0000*7E,37.2316097065,137.023943796,679544.9750542034,4122485.225296307
1176,[2021-02-22 15:17:32.806] $GPGGA,61732.4,3713.89658451,N,13701.43662804,E,4,8.0,1.3,89.030,M,36.77,M,2.4,0000*78,37.23160974183334,137.02394380066667,679544.9753844058,4122485.2292256164
1178,[2021-02-22 15:17:32.900] $GPGGA,61732.5,3713.89658149,N,13701.43662755,E,4,8.0,1.3,89.022,M,36.77,M,2.5,0000*7C,37.2316096915,137.0239437925,679544.9747792674,4122485.2236253223
1180,[2021-02-22 15:17:33.009] $GPGGA,61732.6,3713.8965809,N,13701.43662933,E,4,8.0,1.3,89.044,M,36.77,M,2.6,0000*77,37.23160968166666,137.0239438221667,679544.9774346398,4122485.2225905294
1182,[2021-02-22 15:17:33.103] $GPGGA,61732.7,3713.89658045,N,13701.43662717,E,4,8.0,1.3,89.046,M,36.77,M,2.7,0000*75,37.23160967416666,137.02394378616665,679544.9742584921,4122485.2216900643
1184,[2021-02-22 15:17:33.212] $GPGGA,61732.8,3713.89658041,N,13701.43662837,E,4,8.0,1.3,89.046,M,36.77,M,2.8,0000*7C,37.231609673499996,137.0239438061667,679544.9760344859,4122485.2216540338
1186,[2021-02-22 15:17:33.306] $GPGGA,61732.9,3713.89658116,N,13701.43662906,E,4,8.0,1.3,89.046,M,36.77,M,2.9,0000*7C,37.231609686000006,137.02394381766663,679544.9770251105,4122485.223062804
1188,[2021-02-22 15:17:33.415] $GPGGA,61733.0,3713.89658151,N,13701.43662646,E,4,8.0,1.3,89.050,M,36.77,M,3.0,0000*73,37.231609691833334,137.02394377433333,679544.9731667221,4122485.223627846
1190,[2021-02-22 15:17:33.493] $GPGGA,61733.1,3713.89658413,N,13701.43662997,E,4,8.0,1.3,89.045,M,36.77,M,3.1,0000*77,37.2316097355,137.0239438328333,679544.9782532684,4122485.2285839114
1192,[2021-02-22 15:17:33.618] $GPGGA,61733.2,3713.89658188,N,13701.43662788,E,4,8.0,1.3,89.038,M,36.77,M,3.2,0000*7A,37.23160969800001,137.023943798,679544.9752518107,4122485.2243569726
1194,[2021-02-22 15:17:33.696] $GPGGA,61733.3,3713.89658332,N,13701.43662858,E,4,8.0,1.3,89.051,M,36.77,M,2.3,0000*75,37.231609721999995,137.0239438096667,679544.9762299454,4122485.2270420548
1196,[2021-02-22 15:17:33.806] $GPGGA,61733.4,3713.89657923,N,13701.43662916,E,4,8.0,1.3,89.044,M,36.77,M,2.4,0000*7F,37.23160965383333,137.02394381933334,679544.977249295,4122485.2194968704
1198,[2021-02-22 15:17:33.900] $GPGGA,61733.5,3713.89657984,N,13701.43662856,E,4,8.0,1.3,89.046,M,36.77,M,2.5,0000*75,37.231609664000004,137.02394380933333,679544.9763379692,4122485.2206059564
1200,[2021-02-22 15:17:34.009] $GPGGA,61733.6,3713.89658186,N,13701.43662787,E,4,8.0,1.3,89.038,M,36.77,M,2.6,0000*7A,37.23160969766666,137.02394379783334,679544.9752378131,4122485.22431967
1202,[2021-02-22 15:17:34.103] $GPGGA,61733.7,3713.89658162,N,13701.43663006,E,4,8.0,1.3,89.037,M,36.77,M,2.7,0000*70,37.23160969366666,137.02394383433332,679544.9784855979,4122485.223945085
1204,[2021-02-22 15:17:34.212] $GPGGA,61733.8,3713.89658112,N,13701.43663168,E,4,8.0,1.3,89.042,M,36.77,M,2.8,0000*7C,37.23160968533334,137.02394386133332,679544.9809008203,4122485.2230716683
1206,[2021-02-22 15:17:34.306] $GPGGA,61733.9,3713.89658003,N,13701.43662693,E,4,8.0,1.3,89.023,M,36.77,M,2.9,0000*78,37.231609667166666,137.0239437821667,679544.9739202225,4122485.220905783
1208,[2021-02-22 15:17:34.415] $GPGGA,61734.0,3713.89657946,N,13701.43663213,E,4,8.0,1.3,89.038,M,36.77,M,3.0,0000*7E,37.23160965766666,137.02394386883333,679544.9816318611,4122485.220016104
1210,[2021-02-22 15:17:34.493] $GPGGA,61734.1,3713.89657766,N,13701.43662882,E,4,8.0,1.3,89.044,M,36.77,M,3.1,0000*7A,37.23160962766666,137.02394381366665,679544.9768086211,4122485.216582764
1212,[2021-02-22 15:17:34.603] $GPGGA,61734.2,3713.89658097,N,13701.43663084,E,4,8.0,1.3,89.038,M,36.77,M,3.2,0000*78,37.23160968283333,137.02394384733336,679544.9796646666,4122485.222767719
1214,[2021-02-22 15:17:34.696] $GPGGA,61734.3,3713.89657805,N,13701.43662766,E,4,8.0,1.3,89.042,M,36.77,M,2.3,0000*72,37.23160963416667,137.02394379433332,679544.9750779398,4122485.2172673065
1216,[2021-02-22 15:17:34.806] $GPGGA,61734.4,3713.89657761,N,13701.43662837,E,4,8.0,1.3,89.035,M,36.77,M,2.4,0000*74,37.23160962683333,137.0239438061667,679544.9761451992,4122485.2164760735
1218,[2021-02-22 15:17:34.899] $GPGGA,61734.5,3713.89658136,N,13701.43662705,E,4,8.0,1.3,89.032,M,36.77,M,2.5,0000*76,37.231609689333325,137.02394378416668,679544.9740450709,4122485.2233691085
1220,[2021-02-22 15:17:35.009] $GPGGA,61734.6,3713.89657904,N,13701.43662636,E,4,8.0,1.3,89.031,M,36.77,M,2.6,0000*72,37.23160965066667,137.02394377266668,679544.9731165224,4122485.219056983
1222,[2021-02-22 15:17:35.103] $GPGGA,61734.7,3713.89657872,N,13701.43662576,E,4,8.0,1.3,89.040,M,36.77,M,2.7,0000*73,37.231609645333336,137.02394376266665,679544.9722419671,4122485.218446247
1224,[2021-02-22 15:17:35.212] $GPGGA,61734.8,3713.89657951,N,13701.43662447,E,4,8.0,1.3,89.033,M,36.77,M,2.8,0000*74,37.2316096585,137.02394374116668,679544.9703032441,4122485.2198663857
1226,[2021-02-22 15:17:35.306] $GPGGA,61734.9,3713.89657554,N,13701.43662622,E,4,8.0,1.3,89.043,M,36.77,M,2.9,0000*7B,37.231609592333335,137.02394377033335,679544.9730478977,4122485.2125801058
1228,[2021-02-22 15:17:35.415] $GPGGA,61735.0,3713.89657797,N,13701.4366254,E,4,8.0,1.3,89.037,M,36.77,M,3.0,0000*72,37.23160963283333,137.02394375666668,679544.9717393019,4122485.2170479097
1230,[2021-02-22 15:17:35.493] $GPGGA,61735.1,3713.89658182,N,13701.43662936,E,4,8.0,1.3,89.034,M,36.77,M,3.1,0000*71,37.231609696999996,137.02394382266667,679544.977442619,4122485.224292809
1232,[2021-02-22 15:17:35.618] $GPGGA,61735.2,3713.89658009,N,13701.43662952,E,4,8.0,1.3,89.038,M,36.77,M,3.2,0000*7D,37.23160966816667,137.02394382533333,679544.9777476107,4122485.221098627
1234,[2021-02-22 15:17:35.696] $GPGGA,61735.3,3713.89657898,N,13701.43662535,E,4,8.0,1.3,89.036,M,36.77,M,2.3,0000*70,37.23160964966666,137.0239437558333,679544.9716254282,4122485.218914093
1236,[2021-02-22 15:17:35.806] $GPGGA,61735.4,3713.89657816,N,13701.43662945,E,4,8.0,1.3,89.033,M,36.77,M,2.4,0000*78,37.231609636,137.02394382416668,679544.9777204178,4122485.2175273187
1238,[2021-02-22 15:17:35.899] $GPGGA,61735.5,3713.8965795,N,13701.4366264,E,4,8.0,1.3,89.026,M,36.77,M,2.5,0000*75,37.231609658333326,137.02394377333331,679544.9731574766,4122485.2199089117
1240,[2021-02-22 15:17:36.009] $GPGGA,61735.6,3713.89658287,N,13701.43662548,E,4,8.0,1.3,89.017,M,36.77,M,2.6,0000*72,37.2316097145,137.023943758,679544.9716638481,4122485.226111872
1242,[2021-02-22 15:17:36.103] $GPGGA,61735.7,3713.89658146,N,13701.43662785,E,4,8.0,1.3,89.030,M,36.77,M,2.7,0000*7A,37.231609690999996,137.0239437975,679544.9752240567,4122485.223579329
1244,[2021-02-22 15:17:36.212] $GPGGA,61735.8,3713.89658081,N,13701.4366269,E,4,8.0,1.3,89.030,M,36.77,M,2.8,0000*75,37.23160968016667,137.02394378166665,679544.9738450155,4122485.2223472674
1246,[2021-02-22 15:17:36.306] $GPGGA,61735.9,3713.89658058,N,13701.43663004,E,4,8.0,1.3,89.024,M,36.77,M,2.9,0000*7E,37.23160967633333,137.02394383399997,679544.9784971452,4122485.2220212095
1248,[2021-02-22 15:17:36.399] $GPGGA,61736.0,3713.89658169,N,13701.43662628,E,4,8.0,1.3,89.017,M,36.77,M,3.0,0000*76,37.23160969483333,137.02394377133334,679544.9728934435,4122485.223955024
1250,[2021-02-22 15:17:36.493] $GPGGA,61736.1,3713.89658131,N,13701.43662711,E,4,8.0,1.3,89.031,M,36.77,M,3.1,0000*74,37.2316096885,137.0239437851667,679544.9741357699,4122485.2232785425
1252,[2021-02-22 15:17:36.602] $GPGGA,61736.2,3713.89658304,N,13701.43662796,E,4,8.0,1.3,89.017,M,36.77,M,3.2,0000*7B,37.23160971733334,137.02394379933335,679544.9753242382,4122485.226504658
1254,[2021-02-22 15:17:36.696] $GPGGA,61736.3,3713.89658177,N,13701.43662764,E,4,8.0,1.3,89.023,M,36.77,M,2.3,0000*76,37.231609696166664,137.02394379399996,679544.9749012745,4122485.224145964
1256,[2021-02-22 15:17:36.806] $GPGGA,61736.4,3713.89658288,N,13701.43662542,E,4,8.0,1.3,89.021,M,36.77,M,2.4,0000*71,37.231609714666675,137.02394375699998,679544.9715747308,4122485.2261284683
1258,[2021-02-22 15:17:36.899] $GPGGA,61736.5,3713.89658075,N,13701.43662629,E,4,8.0,1.3,89.036,M,36.77,M,2.5,0000*79,37.23160967916667,137.02394377150003,679544.9729454024,4122485.222217024
1260,[2021-02-22 15:17:37.009] $GPGGA,61736.6,3713.89658068,N,13701.4366271,E,4,8.0,1.3,89.018,M,36.77,M,2.6,0000*72,37.231609678000005,137.023943785,679544.9741458917,4122485.222113186
1262,[2021-02-22 15:17:37.102] $GPGGA,61736.7,3713.89658035,N,13701.43662385,E,4,8.0,1.3,89.030,M,36.77,M,2.7,0000*78,37.2316096725,137.02394373083334,679544.9693532515,4122485.221400171
1264,[2021-02-22 15:17:37.212] $GPGGA,61736.8,3713.89658024,N,13701.43662338,E,4,8.0,1.3,89.025,M,36.77,M,2.8,0000*7A,37.23160967066667,137.02394372299997,679544.9686626205,4122485.221181893
1266,[2021-02-22 15:17:37.290] $GPGGA,61736.9,3713.8965849,N,13701.43662424,E,4,8.0,1.3,89.013,M,36.77,M,2.9,0000*7E,37.231609748333334,137.02394373733333,679544.9697500239,4122485.2298266888
1268,[2021-02-22 15:17:37.415] $GPGGA,61737.0,3713.89658056,N,13701.4366259,E,4,8.0,1.3,89.023,M,36.77,M,3.0,0000*7D,37.231609676000005,137.02394376499998,679544.9723762268,4122485.221853333
1270,[2021-02-22 15:17:37.493] $GPGGA,61737.1,3713.8965841,N,13701.43662736,E,4,8.0,1.3,89.002,M,36.77,M,3.1,0000*76,37.231609735,137.02394378933337,679544.9743951214,4122485.2284459146
1272,[2021-02-22 15:17:37.618] $GPGGA,61737.2,3713.89658258,N,13701.43662122,E,4,8.0,1.3,89.020,M,36.77,M,3.2,0000*7F,37.231609709666664,137.023943687,679544.965376164,4122485.225440895
1274,[2021-02-22 15:17:37.696] $GPGGA,61737.3,3713.89658216,N,13701.43661964,E,4,8.0,1.3,89.027,M,36.77,M,2.3,0000*7A,37.231609702666674,137.02394366066667,679544.9630564658,4122485.2246142495
1276,[2021-02-22 15:17:37.806] $GPGGA,61737.4,3713.89658312,N,13701.4366222,E,4,8.0,1.3,89.025,M,36.77,M,2.4,0000*75,37.23160971866666,137.02394370333334,679544.9668039134,4122485.2264704863
1278,[2021-02-22 15:17:37.899] $GPGGA,61737.5,3713.89658039,N,13701.43662045,E,4,8.0,1.3,89.040,M,36.77,M,2.5,0000*7D,37.231609673166666,137.02394367416665,679544.9643241763,4122485.2213666467
1280,[2021-02-22 15:17:38.009] $GPGGA,61737.6,3713.89658225,N,13701.43662343,E,4,8.0,1.3,89.039,M,36.77,M,2.6,0000*79,37.231609704166665,137.0239437238333,679544.9686570778,4122485.2249005088
1282,[2021-02-22 15:17:38.102] $GPGGA,61737.7,3713.89658448,N,13701.43662265,E,4,8.0,1.3,89.037,M,36.77,M,2.7,0000*7F,37.23160974133333,137.02394371083335,679544.9674155419,4122485.2289997246
1284,[2021-02-22 15:17:38.212] $GPGGA,61737.8,3713.89658153,N,13701.4366245,E,4,8.0,1.3,89.041,M,36.77,M,2.8,0000*71,37.231609692166664,137.02394374166664,679544.9702677289,4122485.223602863
1286,[2021-02-22 15:17:38.290] $GPGGA,61737.9,3713.89658009,N,13701.43662246,E,4,8.0,1.3,89.046,M,36.77,M,2.9,0000*79,37.23160966816667,137.02394370766666,679544.9673081746,4122485.220875415
1288,[2021-02-22 15:17:38.415] $GPGGA,61738.0,3713.89658243,N,13701.4366267,E,4,8.0,1.3,89.036,M,36.77,M,3.0,0000*7D,37.23160970716667,137.02394377833335,679544.9734852283,4122485.2253367645
1290,[2021-02-22 15:17:38.493] $GPGGA,61738.1,3713.89658193,N,13701.43662897,E,4,8.0,1.3,89.036,M,36.77,M,3.1,0000*74,37.23160969883334,137.02394381616662,679544.9768615835,4122485.2244838974
1292,[2021-02-22 15:17:38.602] $GPGGA,61738.2,3713.89658125,N,13701.43662743,E,4,8.0,1.3,89.039,M,36.77,M,3.2,0000*70,37.231609687500004,137.02394379049997,679544.9746113133,4122485.2231777036
1294,[2021-02-22 15:17:38.696] $GPGGA,61738.3,3713.89658134,N,13701.43662683,E,4,8.0,1.3,89.042,M,36.77,M,3.3,0000*71,37.231609688999995,137.0239437805,679544.9737205531,4122485.223325168
1296,[2021-02-22 15:17:38.805] $GPGGA,61738.4,3713.89658243,N,13701.4366278,E,4,8.0,1.3,89.029,M,36.77,M,3.4,0000*7D,37.23160970716667,137.02394379666669,679544.975111769,4122485.225371543
1298,[2021-02-22 15:17:38.899] $GPGGA,61738.5,3713.89657995,N,13701.43662795,E,4,8.0,1.3,89.035,M,36.77,M,3.5,0000*7B,37.23160966583333,137.02394379916666,679544.9754316298,4122485.2207900905
1300,[2021-02-22 15:17:39.009] $GPGGA,61738.6,3713.89658143,N,13701.43662945,E,4,8.0,1.3,89.029,M,36.77,M,3.6,0000*79,37.2316096905,137.02394382416668,679544.9775911205,4122485.223574437
1302,[2021-02-22 15:17:39.102] $GPGGA,61738.7,3713.8965817,N,13701.43662592,E,4,8.0,1.3,89.028,M,36.77,M,3.7,0000*7E,37.231609694999996,137.0239437653333,679544.9723607232,4122485.223962134
1304,[2021-02-22 15:17:39.212] $GPGGA,61738.8,3713.8965798,N,13701.43662785,E,4,8.0,1.3,89.040,M,36.77,M,3.8,0000*7C,37.23160966333334,137.0239437975,679544.9752896939,4122485.220509538
1306,[2021-02-22 15:17:39.305] $GPGGA,61738.9,3713.89657753,N,13701.43662823,E,4,8.0,1.3,89.042,M,36.77,M,3.9,0000*7D,37.2316096255,137.0239438038333,679544.9759413437,4122485.2163237054
1308,[2021-02-22 15:17:39.415] $GPGGA,61739.0,3713.89658023,N,13701.4366279,E,4,8.0,1.3,89.047,M,36.77,M,4.0,0000*76,37.2316096705,137.02394379833333,679544.975346625,4122485.221306306
1310,[2021-02-22 15:17:39.493] $GPGGA,61739.1,3713.89657844,N,13701.43662751,E,4,8.0,1.3,89.050,M,36.77,M,4.1,0000*7B,37.23160964066667,137.02394379183335,679544.9748407209,4122485.2179837795
1312,[2021-02-22 15:17:39.602] $GPGGA,61739.2,3713.89657786,N,13701.43662826,E,4,8.0,1.3,89.042,M,36.77,M,4.2,0000*76,37.231609631000005,137.02394380433336,679544.9759726608,4122485.2169349147
1314,[2021-02-22 15:17:39.696] $GPGGA,61739.3,3713.89657803,N,13701.43662815,E,4,8.0,1.3,89.046,M,36.77,M,4.3,0000*70,37.23160963383333,137.0239438025,679544.9758032835,4122485.2172458107
1316,[2021-02-22 15:17:39.805] $GPGGA,61739.4,3713.89657754,N,13701.43663043,E,4,8.0,1.3,89.050,M,36.77,M,4.4,0000*70,37.23160962566667,137.0239438405,679544.9791940341,4122485.2164117545
1318,[2021-02-22 15:17:39.899] $GPGGA,61739.5,3713.89657365,N,13701.43663145,E,4,8.0,1.3,89.055,M,36.77,M,4.5,0000*74,37.23160956083333,137.0239438575,679544.9808560929,4122485.209250335
1320,[2021-02-22 15:17:40.009] $GPGGA,61739.6,3713.89657826,N,13701.43663036,E,4,8.0,1.3,89.046,M,36.77,M,4.6,0000*7F,37.23160963766666,137.02394383933336,679544.9790620591,4122485.2177410168
1322,[2021-02-22 15:17:40.102] $GPGGA,61739.7,3713.89657844,N,13701.43663258,E,4,8.0,1.3,89.038,M,36.77,M,4.7,0000*78,37.23160964066667,137.02394387633336,679544.982337598,4122485.218144074
1324,[2021-02-22 15:17:40.212] $GPGGA,61739.8,3713.8965785,N,13701.43663411,E,4,8.0,1.3,89.043,M,36.77,M,4.8,0000*7A,37.23160964166667,137.02394390183332,679544.9845975926,4122485.2183034047
1326,[2021-02-22 15:17:40.305] $GPGGA,61739.9,3713.89657774,N,13701.43663063,E,4,8.0,1.3,89.050,M,36.77,M,2.9,0000*76,37.23160962899999,137.0239438438333,679544.9794818577,4122485.216787931
1328,[2021-02-22 15:17:40.415] $GPGGA,61740.0,3713.8965745,N,13701.4366322,E,4,8.0,1.3,89.045,M,36.77,M,3.0,0000*7D,37.231609575,137.02394387,679544.98193149,4122485.2108459296
1330,[2021-02-22 15:17:40.493] $GPGGA,61740.1,3713.89657447,N,13701.43662722,E,4,8.0,1.3,89.073,M,36.77,M,3.1,0000*78,37.231609574500006,137.02394378699998,679544.9745688775,4122485.210633002
1332,[2021-02-22 15:17:40.602] $GPGGA,61740.2,3713.89657858,N,13701.43663099,E,4,8.0,1.3,89.031,M,36.77,M,3.2,0000*7A,37.231609643000006,137.02394384983333,679544.9799809686,4122485.2183527024
1334,[2021-02-22 15:17:40.696] $GPGGA,61740.3,3713.89657672,N,13701.43662772,E,4,8.0,1.3,89.047,M,36.77,M,3.3,0000*7E,37.23160961200001,137.02394379533334,679544.9752192507,4122485.2148096715
1336,[2021-02-22 15:17:40.805] $GPGGA,61740.4,3713.89658001,N,13701.43662913,E,4,10.0,1.4,89.031,M,36.77,M,3.4,0000*75,37.231609666833336,137.02394381883335,679544.9771740924,4122485.220938355
1338,[2021-02-22 15:17:40.899] $GPGGA,61740.5,3713.89657546,N,13701.43662948,E,4,10.0,1.4,89.062,M,36.77,M,3.5,0000*74,37.231609591,137.02394382466667,679544.9778715381,4122485.2125352337
1340,[2021-02-22 15:17:41.008] $GPGGA,61740.6,3713.89657655,N,13701.43663262,E,4,10.0,1.4,89.037,M,36.77,M,2.6,0000*76,37.231609609166675,137.023943877,679544.9824714721,4122485.214650216
1342,[2021-02-22 15:17:41.102] $GPGGA,61740.7,3713.8965771,N,13701.4366308,E,4,10.0,1.4,89.076,M,36.77,M,2.7,0000*7D,37.23160961833332,137.02394384666667,679544.979758541,4122485.215609772
1344,[2021-02-22 15:17:41.211] $GPGGA,61740.8,3713.89657855,N,13701.43663414,E,4,10.0,1.4,89.064,M,36.77,M,2.8,0000*79,37.2316096425,137.02394390233334,679544.9846399789,4122485.218396816
1346,[2021-02-22 15:17:41.305] $GPGGA,61740.9,3713.89657543,N,13701.43663347,E,4,10.0,1.4,89.066,M,36.77,M,2.9,0000*70,37.23160959050001,137.02394389116668,679544.9837726331,4122485.2126059057
1348,[2021-02-22 15:17:41.415] $GPGGA,61741.0,3713.89657812,N,13701.43662811,E,4,10.0,1.4,89.050,M,36.77,M,3.0,0000*75,37.231609635333335,137.02394380183333,679544.9757405755,4122485.2174109826
1350,[2021-02-22 15:17:41.493] $GPGGA,61741.1,3713.89657819,N,13701.43662652,E,4,10.0,1.4,89.040,M,36.77,M,3.1,0000*76,37.231609636499996,137.02394377533335,679544.9733867185,4122485.217490159
1352,[2021-02-22 15:17:41.602] $GPGGA,61741.2,3713.89657816,N,13701.43662534,E,4,10.0,1.4,89.035,M,36.77,M,3.2,0000*78,37.231609636,137.02394375566666,679544.9716430673,4122485.2173973755
1354,[2021-02-22 15:17:41.696] $GPGGA,61741.3,3713.89657548,N,13701.43662323,E,4,10.0,1.4,89.043,M,36.77,M,3.3,0000*7F,37.23160959133334,137.0239437205,679544.9686290349,4122485.2123746164
1356,[2021-02-22 15:17:41.805] $GPGGA,61741.4,3713.89657678,N,13701.43662983,E,4,9.0,1.4,89.029,M,36.77,M,2.4,0000*7A,37.231609613,137.02394383049997,679544.9783368766,4122485.2149873385
1358,[2021-02-22 15:17:41.899] $GPGGA,61741.5,3713.89658062,N,13701.43661982,E,4,9.0,1.4,89.042,M,36.77,M,2.5,0000*77,37.231609676999994,137.02394366366667,679544.9633835196,4122485.2217720603
1360,[2021-02-22 15:17:42.008] $GPGGA,61741.6,3713.89658041,N,13701.4366245,E,4,9.0,1.4,89.034,M,36.77,M,2.6,0000*76,37.231609673499996,137.02394374166664,679544.9703120141,4122485.221531678
1362,[2021-02-22 15:17:42.102] $GPGGA,61741.7,3713.89657738,N,13701.43662119,E,4,9.0,1.4,89.046,M,36.77,M,2.7,0000*7D,37.231609623000004,137.02394368649996,679544.9655374112,4122485.2158237356
1364,[2021-02-22 15:17:42.211] $GPGGA,61741.8,3713.89657948,N,13701.43662221,E,4,9.0,1.4,89.052,M,36.77,M,2.8,0000*79,37.231609658,137.02394370349998,679544.9669626246,4122485.219739455
1366,[2021-02-22 15:17:42.290] $GPGGA,61741.9,3713.89657285,N,13701.43662096,E,4,9.0,1.4,89.037,M,36.77,M,2.9,0000*7E,37.23160954750001,137.02394368266664,679544.9653764346,4122485.2074392624
1368,[2021-02-22 15:17:42.415] $GPGGA,61742.0,3713.89657202,N,13701.43662125,E,4,9.0,1.4,89.045,M,36.77,M,3.0,0000*7F,37.23160953366666,137.02394368750004,679544.9658380745,4122485.2059135344
1370,[2021-02-22 15:17:42.508] $GPGGA,61742.1,3713.89657293,N,13701.43662017,E,4,9.0,1.4,89.025,M,36.77,M,3.1,0000*71,37.231609548833326,137.0239436695,679544.9642051221,4122485.2075622254
1372,[2021-02-22 15:17:42.618] $GPGGA,61742.2,3713.89657182,N,13701.43661579,E,4,9.0,1.4,89.031,M,36.77,M,3.2,0000*79,37.231609530333344,137.02394359650003,679544.9577724218,4122485.205371055
1374,[2021-02-22 15:17:42.696] $GPGGA,61742.3,3713.89657548,N,13701.43661804,E,4,9.0,1.4,89.043,M,36.77,M,2.3,0000*78,37.23160959133334,137.023943634,679544.9609547185,4122485.2122105267
1376,[2021-02-22 15:17:42.805] $GPGGA,61742.4,3713.89657681,N,13701.43661545,E,4,9.0,1.4,89.036,M,36.77,M,2.4,0000*74,37.2316096135,137.02394359083334,679544.9570723646,4122485.214588171
1378,[2021-02-22 15:17:42.899] $GPGGA,61742.5,3713.89657802,N,13701.4366181,E,4,9.0,1.4,89.041,M,36.77,M,2.5,0000*7C,37.23160963366667,137.02394363500002,679544.9609430076,4122485.216909574
1380,[2021-02-22 15:17:43.008] $GPGGA,61742.6,3713.89657664,N,13701.43661688,E,4,9.0,1.4,89.032,M,36.77,M,2.6,0000*79,37.231609610666666,137.02394361466665,679544.9591935889,4122485.2143190065
1382,[2021-02-22 15:17:43.102] $GPGGA,61742.7,3713.89657729,N,13701.43661734,E,4,9.0,1.4,89.033,M,36.77,M,2.7,0000*76,37.2316096215,137.02394362233332,679544.9598480773,4122485.2155355765
1384,[2021-02-22 15:17:43.211] $GPGGA,61742.8,3713.89657805,N,13701.43661736,E,4,9.0,1.4,89.034,M,36.77,M,2.8,0000*72,37.23160963416667,137.02394362266665,679544.959847599,4122485.2169416565
1386,[2021-02-22 15:17:43.305] $GPGGA,61742.9,3713.89658001,N,13701.43661849,E,4,9.0,1.4,89.038,M,36.77,M,2.9,0000*7A,37.231609666833336,137.02394364149998,679544.9614410014,4122485.2206019554
1388,[2021-02-22 15:17:43.414] $GPGGA,61743.0,3713.89657972,N,13701.43662664,E,4,9.0,1.4,89.058,M,36.77,M,3.0,0000*7C,37.231609662000004,137.02394377733333,679544.973503661,4122485.220323341
1390,[2021-02-22 15:17:43.493] $GPGGA,61743.1,3713.89657526,N,13701.43663154,E,4,9.0,1.4,89.059,M,36.77,M,3.1,0000*75,37.23160958766667,137.02394385899998,679544.9809255111,4122485.2122305096
1392,[2021-02-22 15:17:43.602] $GPGGA,61743.2,3713.89657479,N,13701.43663631,E,4,9.0,1.5,89.077,M,36.77,M,2.2,0000*76,37.23160957983334,137.02394393850003,679544.9879973737,4122485.2115121614
1394,[2021-02-22 15:17:43.696] $GPGGA,61743.3,3713.89658317,N,13701.43662677,E,4,9.0,1.5,89.086,M,36.77,M,2.3,0000*7B,37.23160971950001,137.02394377950003,679544.9735594766,4122485.226707439
1396,[2021-02-22 15:17:43.805] $GPGGA,61743.4,3713.89657439,N,13701.43663718,E,4,9.0,1.5,89.070,M,36.77,M,2.4,0000*7F,37.23160957316667,137.023943953,679544.9892996359,4122485.2107999595
1398,[2021-02-22 15:17:43.899] $GPGGA,61743.5,3713.89657507,N,13701.43664253,E,4,9.0,1.5,89.063,M,36.77,M,2.5,0000*7C,37.231609584500006,137.02394404216665,679544.9971836491,4122485.2122266116
1400,[2021-02-22 15:17:44.008] $GPGGA,61743.6,3713.89657462,N,13701.43663853,E,4,9.0,1.5,89.076,M,36.77,M,2.6,0000*77,37.231609577,137.0239439755,679544.9912867495,4122485.211267974
1402,[2021-02-22 15:17:44.102] $GPGGA,61743.7,3713.89657382,N,13701.43663674,E,4,9.0,1.5,89.068,M,36.77,M,2.7,0000*7A,37.231609563666666,137.02394394566664,679544.9886715544,4122485.2097319635
1404,[2021-02-22 15:17:44.211] $GPGGA,61743.8,3713.89657338,N,13701.43664106,E,4,9.0,1.5,89.084,M,36.77,M,2.8,0000*7C,37.23160955633333,137.02394401766665,679544.9950768228,4122485.209054867
1406,[2021-02-22 15:17:44.305] $GPGGA,61743.9,3713.89657571,N,13701.43663617,E,4,9.0,1.5,89.071,M,36.77,M,2.9,0000*7D,37.231609595166674,137.02394393616663,679544.9877539756,4122485.2132090665
1408,[2021-02-22 15:17:44.399] $GPGGA,61744.0,3713.89657598,N,13701.43663494,E,4,9.0,1.5,89.062,M,36.77,M,3.0,0000*77,37.23160959966667,137.02394391566668,679544.9859245355,4122485.213669481
1410,[2021-02-22 15:17:44.493] $GPGGA,61744.1,3713.89657541,N,13701.43663387,E,4,9.0,1.5,89.064,M,36.77,M,3.1,0000*70,37.23160959016666,137.02394389783333,679544.9843648917,4122485.212581565
1412,[2021-02-22 15:17:44.618] $GPGGA,61744.2,3713.89657455,N,13701.4366307,E,4,9.0,1.5,89.059,M,36.77,M,3.2,0000*71,37.23160957583334,137.023943845,679544.9797115,4122485.2108909683
1414,[2021-02-22 15:17:44.696] $GPGGA,61744.3,3713.8965691,N,13701.43662553,E,4,8.0,1.6,89.056,M,36.77,M,2.3,0000*75,37.23160948499999,137.02394375883333,679544.9722822516,4122485.200648978
1416,[2021-02-22 15:17:44.805] $GPGGA,61744.4,3713.89656965,N,13701.43662409,E,4,8.0,1.6,89.054,M,36.77,M,2.4,0000*7B,37.23160949416667,137.02394373483332,679544.9701312154,4122485.2016205504
1418,[2021-02-22 15:17:44.899] $GPGGA,61744.5,3713.89656762,N,13701.43662442,E,4,8.0,1.6,89.048,M,36.77,M,2.5,0000*70,37.23160946033334,137.02394374033335,679544.9706994466,4122485.1978769633
1420,[2021-02-22 15:17:45.008] $GPGGA,61744.6,3713.8965643,N,13701.43662653,E,4,8.0,1.6,89.053,M,36.77,M,2.6,0000*7C,37.231609405,137.0239437755,679544.9739507193,4122485.1918040924
1422,[2021-02-22 15:17:45.102] $GPGGA,61744.7,3713.89656235,N,13701.43662766,E,4,8.0,1.6,89.046,M,36.77,M,2.7,0000*7C,37.231609372499996,137.02394379433332,679544.9756987251,4122485.1882337374
1424,[2021-02-22 15:17:45.211] $GPGGA,61744.8,3713.89656329,N,13701.43662793,E,4,8.0,1.6,89.054,M,36.77,M,2.8,0000*79,37.23160938816666,137.02394379883333,679544.9760607991,4122485.18998059
1426,[2021-02-22 15:17:45.305] $GPGGA,61744.9,3713.89656802,N,13701.43662912,E,4,8.0,1.6,89.045,M,36.77,M,2.9,0000*7C,37.231609467000006,137.02394381866665,679544.9776333941,4122485.1987652695
1428,[2021-02-22 15:17:45.414] $GPGGA,61745.0,3713.89656644,N,13701.43662925,E,4,8.0,1.6,89.053,M,36.77,M,3.0,0000*73,37.23160944066666,137.02394382083332,679544.9778880959,4122485.1958475285
1430,[2021-02-22 15:17:45.492] $GPGGA,61745.1,3713.89656842,N,13701.43662847,E,4,8.0,1.6,89.053,M,36.77,M,3.1,0000*7E,37.23160947366667,137.02394380783335,679544.9766564429,4122485.199484428
1432,[2021-02-22 15:17:45.602] $GPGGA,61745.2,3713.89656974,N,13701.4366232,E,4,9.0,1.3,89.030,M,36.77,M,2.2,0000*70,37.23160949566666,137.02394371999998,679544.968811634,4122485.201758846
1434,[2021-02-22 15:17:45.696] $GPGGA,61745.3,3713.89657009,N,13701.43662719,E,4,9.0,1.3,89.019,M,36.77,M,2.3,0000*77,37.2316095015,137.0239437865,679544.9746977082,4122485.2025322425
1436,[2021-02-22 15:17:45.805] $GPGGA,61745.4,3713.89656545,N,13701.43662789,E,4,9.0,1.3,89.031,M,36.77,M,2.4,0000*78,37.23160942416666,137.02394379816664,679544.9759162444,4122485.1939737513
1438,[2021-02-22 15:17:45.899] $GPGGA,61745.5,3713.89657505,N,13701.43662188,E,4,9.0,1.3,89.039,M,36.77,M,2.5,0000*72,37.23160958416666,137.023943698,679544.9666498294,4122485.2115367465
1440,[2021-02-22 15:17:46.008] $GPGGA,61745.6,3713.89657865,N,13701.43662342,E,4,9.0,1.3,89.043,M,36.77,M,2.6,0000*70,37.23160964416666,137.02394372366666,679544.9687846394,4122485.2182428143
1442,[2021-02-22 15:17:46.102] $GPGGA,61745.7,3713.89658381,N,13701.43661651,E,4,9.0,1.3,89.051,M,36.77,M,2.7,0000*79,37.23160973016667,137.0239436085,679544.9583629749,4122485.227566587
1444,[2021-02-22 15:17:46.211] $GPGGA,61745.8,3713.89658429,N,13701.43661656,E,4,9.0,1.3,89.046,M,36.77,M,2.8,0000*7D,37.23160973816667,137.02394360933332,679544.9584179267,4122485.2284558183
1446,[2021-02-22 15:17:46.305] $GPGGA,61745.9,3713.89658272,N,13701.43661744,E,4,9.0,1.3,89.050,M,36.77,M,2.9,0000*70,37.231609711999994,137.02394362400003,679544.959781244,4122485.225580284
1448,[2021-02-22 15:17:46.414] $GPGGA,61746.0,3713.89658415,N,13701.43661616,E,4,9.0,1.3,89.052,M,36.77,M,3.0,0000*71,37.231609735833324,137.02394360266663,679544.9578319923,4122485.2281842716
1450,[2021-02-22 15:17:46.492] $GPGGA,61746.1,3713.89658465,N,13701.43661897,E,4,9.0,1.3,89.051,M,36.77,M,3.1,0000*72,37.23160974416667,137.02394364949998,679544.9619672981,4122485.229197752
1452,[2021-02-22 15:17:46.617] $GPGGA,61746.2,3713.89658325,N,13701.43662123,E,4,9.0,1.3,89.043,M,36.77,M,3.2,0000*77,37.23160972083333,137.02394368716665,679544.965364456,4122485.226680224
1454,[2021-02-22 15:17:46.696] $GPGGA,61746.3,3713.89658344,N,13701.43661156,E,4,9.0,1.3,89.065,M,36.77,M,2.3,0000*74,37.23160972400001,137.023943526,679544.9510581717,4122485.2267258563
1456,[2021-02-22 15:17:46.805] $GPGGA,61746.4,3713.89658634,N,13701.43661521,E,4,9.0,1.3,89.062,M,36.77,M,2.4,0000*75,37.23160977233333,137.02394358683333,679544.9563406608,4122485.232204142
1458,[2021-02-22 15:17:46.899] $GPGGA,61746.5,3713.89658549,N,13701.43661148,E,4,9.0,1.3,89.061,M,36.77,M,2.5,0000*74,37.23160975816667,137.02394352466666,679544.9508588171,4122485.2305143336
1460,[2021-02-22 15:17:47.008] $GPGGA,61746.6,3713.89658409,N,13701.43661455,E,4,9.0,1.3,89.058,M,36.77,M,2.6,0000*72,37.231609734833334,137.02394357583336,679544.9554537055,4122485.2280224157
1462,[2021-02-22 15:17:47.102] $GPGGA,61746.7,3713.89658665,N,13701.43661864,E,4,9.0,1.3,89.068,M,36.77,M,2.7,0000*77,37.231609777500005,137.02394364399998,679544.9614002531,4122485.2328858622
1464,[2021-02-22 15:17:47.211] $GPGGA,61746.8,3713.89658616,N,13701.43661472,E,4,9.0,1.3,89.062,M,36.77,M,2.8,0000*72,37.23160976933333,137.0239435786667,679544.9556232318,4122485.2318557817
1466,[2021-02-22 15:17:47.305] $GPGGA,61746.9,3713.89658702,N,13701.4366175,E,4,9.0,1.3,89.055,M,36.77,M,2.9,0000*71,37.23160978366666,137.023943625,679544.9596999353,4122485.2335340492
1468,[2021-02-22 15:17:47.399] $GPGGA,61747.0,3713.89658758,N,13701.43661627,E,4,9.0,1.3,89.053,M,36.77,M,3.0,0000*79,37.231609793,137.02394360450003,679544.9578590286,4122485.234530753
1470,[2021-02-22 15:17:47.492] $GPGGA,61747.1,3713.89658896,N,13701.43661634,E,4,9.0,1.3,89.057,M,36.77,M,3.1,0000*72,37.231609816,137.02394360566663,679544.9579079641,4122485.237084963
1472,[2021-02-22 15:17:47.602] $GPGGA,61747.2,3713.8965878,N,13701.43662354,E,4,9.0,1.3,89.057,M,36.77,M,2.2,0000*7B,37.23160979666667,137.02394372566664,679544.9686002836,4122485.2351674456
1474,[2021-02-22 15:17:47.695] $GPGGA,61747.3,3713.89658603,N,13701.43662342,E,4,9.0,1.3,89.050,M,36.77,M,2.3,0000*71,37.23160976716666,137.02394372366666,679544.9684928308,4122485.231890439
1476,[2021-02-22 15:17:47.805] $GPGGA,61747.4,3713.89658459,N,13701.43662344,E,4,9.0,1.3,89.059,M,36.77,M,2.4,0000*73,37.23160974316667,137.023943724,679544.9685793415,4122485.2292281217
1478,[2021-02-22 15:17:47.899] $GPGGA,61747.5,3713.89658576,N,13701.4366227,E,4,9.0,1.3,89.057,M,36.77,M,2.5,0000*77,37.231609762666665,137.02394371166665,679544.9674388613,4122485.231368372
1480,[2021-02-22 15:17:48.008] $GPGGA,61747.6,3713.89658656,N,13701.43662266,E,4,9.0,1.3,89.031,M,36.77,M,2.6,0000*71,37.231609776,137.02394371100002,679544.9673480839,4122485.2328465264
1482,[2021-02-22 15:17:48.102] $GPGGA,61747.7,3713.89658274,N,13701.43662409,E,4,9.0,1.3,89.053,M,36.77,M,2.7,0000*7E,37.23160971233333,137.02394373483332,679544.969613631,4122485.225827519
1484,[2021-02-22 15:17:48.211] $GPGGA,61747.8,3713.89658346,N,13701.4366248,E,4,9.0,1.3,89.056,M,36.77,M,2.8,0000*7A,37.23160972433333,137.0239437466667,679544.9706350232,4122485.227181442
1486,[2021-02-22 15:17:48.305] $GPGGA,61747.9,3713.89658719,N,13701.43662257,E,4,9.0,1.3,89.040,M,36.77,M,2.9,0000*7F,37.231609786499995,137.0239437095,679544.9671900928,4122485.2340087215
1488,[2021-02-22 15:17:48.399] $GPGGA,61748.0,3713.89658186,N,13701.43662319,E,4,9.0,1.3,89.051,M,36.77,M,3.0,0000*7A,37.23160969766666,137.02394371983334,679544.9683176196,4122485.224171704
1490,[2021-02-22 15:17:48.492] $GPGGA,61748.1,3713.89658295,N,13701.43662335,E,4,9.0,1.3,89.048,M,36.77,M,3.1,0000*7D,37.23160971583332,137.0239437225,679544.9685111095,4122485.2261924674
1492,[2021-02-22 15:17:48.602] $GPGGA,61748.2,3713.89658187,N,13701.43662237,E,4,9.0,1.3,89.048,M,36.77,M,3.2,0000*7E,37.231609697833335,137.02394370616665,679544.9671047096,4122485.2241642727
1494,[2021-02-22 15:17:48.695] $GPGGA,61748.3,3713.89658508,N,13701.43662386,E,4,9.0,1.3,89.049,M,36.77,M,3.3,0000*77,37.23160975133333,137.02394373099997,679544.9691810091,4122485.230147543
1496,[2021-02-22 15:17:48.805] $GPGGA,61748.4,3713.89658451,N,13701.43662066,E,4,9.0,1.3,89.055,M,36.77,M,3.4,0000*7A,37.23160974183334,137.0239436776667,679544.9644717942,4122485.2289922866
1498,[2021-02-22 15:17:48.898] $GPGGA,61748.5,3713.89658545,N,13701.43662253,E,4,9.0,1.3,89.057,M,36.77,M,3.5,0000*78,37.2316097575,137.02394370883331,679544.9671997436,4122485.2307897243
1500,[2021-02-22 15:17:49.008] $GPGGA,61748.6,3713.8965824,N,13701.43661403,E,4,9.0,1.3,89.057,M,36.77,M,3.6,0000*7A,37.231609706666674,137.0239435671667,679544.9547516195,4122485.2248807056
1502,[2021-02-22 15:17:49.102] $GPGGA,61748.7,3713.89658098,N,13701.43661959,E,4,9.0,1.3,89.073,M,36.77,M,3.7,0000*79,37.231609682999995,137.02394365983335,679544.9630291923,4122485.2224305263
1504,[2021-02-22 15:17:49.211] $GPGGA,61748.8,3713.89658214,N,13701.43661506,E,4,9.0,1.3,89.069,M,36.77,M,3.8,0000*72,37.23160970233333,137.02394358433335,679544.9562849326,4122485.2244324586
1506,[2021-02-22 15:17:49.305] $GPGGA,61748.9,3713.89657829,N,13701.43661695,E,4,9.0,1.3,89.062,M,36.77,M,3.9,0000*7B,37.23160963816667,137.02394361583336,679544.9592318577,4122485.2173725194
1508,[2021-02-22 15:17:49.414] $GPGGA,61749.0,3713.89658534,N,13701.43661769,E,4,9.0,1.3,89.072,M,36.77,M,4.0,0000*70,37.23160975566667,137.02394362816668,679544.9600473131,4122485.230433281
1510,[2021-02-22 15:17:49.492] $GPGGA,61749.1,3713.89658798,N,13701.43661872,E,4,9.0,1.3,89.068,M,36.77,M,4.1,0000*7A,37.231609799666664,137.0239436453333,679544.9614659587,4122485.235347924
1512,[2021-02-22 15:17:49.602] $GPGGA,61749.2,3713.89657573,N,13701.4366273,E,4,9.0,1.3,89.070,M,36.77,M,2.2,0000*77,37.2316095955,137.02394378833336,679544.9746373532,4122485.2129656128
1514,[2021-02-22 15:17:49.695] $GPGGA,61749.3,3713.89657138,N,13701.43662975,E,4,9.0,1.3,89.073,M,36.77,M,2.3,0000*70,37.231609522999996,137.02394382916668,679544.9784321052,4122485.2049987405
1516,[2021-02-22 15:17:49.805] $GPGGA,61749.4,3713.89657871,N,13701.43662918,E,4,9.0,1.3,89.048,M,36.77,M,2.4,0000*77,37.231609645166664,137.02394381966667,679544.9772994285,4122485.2185358806
1518,[2021-02-22 15:17:49.898] $GPGGA,61749.5,3713.89657439,N,13701.43662475,E,4,9.0,1.3,89.058,M,36.77,M,2.5,0000*70,37.23160957316667,137.02394374583332,679544.9709197173,4122485.2104069674
1520,[2021-02-22 15:17:50.008] $GPGGA,61749.6,3713.89657349,N,13701.43663247,E,4,9.0,1.3,89.068,M,36.77,M,2.6,0000*75,37.23160955816666,137.02394387450002,679544.9823706679,4122485.2089867
1522,[2021-02-22 15:17:50.102] $GPGGA,61749.7,3713.89657526,N,13701.43663217,E,4,9.0,1.3,89.063,M,36.77,M,2.7,0000*74,37.23160958766667,137.02394386950002,679544.9818570781,4122485.212250428
