,Format,Time,Latitude,LatType,Longitude,LonType,Status,Satellite,LevelAccuracy,Altitude(sea),M(sea),Altitude(geoid),M(geoid),DGPS use,checksum,Lat,Lon,UTM_X,UTM_Y
1508,[2021-02-22 15:25:10.180] $GNGGA,62509.6,3713.898012533,N,13701.410129222,E,4,15,0.93,92.274,M,37.565,M,2.6,7006*54,37.23163354221667,137.0235021537,679505.735825463,4122487.0323205763
1509,[2021-02-22 15:25:10.290] $GNGGA,62509.7,3713.898013472,N,13701.410127774,E,4,15,0.93,92.275,M,37.565,M,2.7,7006*58,37.231633557866665,137.02350212956665,679505.7336472211,4122487.0340112722
1510,[2021-02-22 15:25:10.383] $GNGGA,62509.8,3713.898013599,N,13701.410127655,E,4,15,0.93,92.279,M,37.565,M,2.8,7006*52,37.23163355998334,137.02350212758336,679505.7334662422,4122487.034242368
1511,[2021-02-22 15:25:10.508] $GNGGA,62509.9,3713.898013563,N,13701.410126087,E,4,15,0.93,92.279,M,37.565,M,2.9,7006*5F,37.23163355938333,137.02350210145002,679505.7311491069,4122487.0341262296
1512,[2021-02-22 15:25:10.587] $GNGGA,62510.0,3713.898013621,N,13701.410125478998,E,4,15,0.93,92.27799999999999,M,37.565,M,3.0,7006*54,37.23163356034999,137.02350209131663,679505.7302477747,4122487.0342142684
1513,[2021-02-22 15:25:10.696] $GNGGA,62510.1,3713.8980116770003,N,13701.410124192,E,4,15,0.93,92.28,M,37.565,M,3.1,7006*53,37.23163352795,137.02350206986668,679505.7284215775,4122487.0305786044
1514,[2021-02-22 15:25:10.790] $GNGGA,62510.2,3713.89801056,N,13701.41012269,E,4,15,0.93,92.28200000000001,M,37.565,M,3.2,7006*56,37.23163350933333,137.02350204483335,679505.7262447674,4122487.028465488
1515,[2021-02-22 15:25:10.915] $GNGGA,62510.3,3713.898011269,N,13701.410121396,E,4,15,0.93,92.27799999999999,M,37.565,M,3.3,7006*5C,37.23163352115,137.02350202326667,679505.7243033351,4122487.0297357207
1516,[2021-02-22 15:25:10.993] $GNGGA,62510.4,3713.898009885,N,13701.410120966999,E,4,15,0.93,92.277,M,37.565,M,3.4,7006*57,37.23163349808333,137.02350201611668,679505.7237236974,4122487.0271627675
1517,[2021-02-22 15:25:11.087] $GNGGA,62510.5,3713.89800986,N,13701.410120586,E,4,15,0.93,92.274,M,37.565,M,3.5,7006*5C,37.23163349766667,137.0235020097667,679505.723161312,4122487.027104493
1518,[2021-02-22 15:25:11.196] $GNGGA,62510.6,3713.8980098740003,N,13701.410118617,E,4,15,0.93,92.274,M,37.565,M,3.6,7006*59,37.23163349790001,137.02350197695,679505.7202492473,4122487.0270681456
1519,[2021-02-22 15:25:11.305] $GNGGA,62510.7,3713.898010054,N,13701.410117841,E,4,15,0.93,92.274,M,37.565,M,3.7,7006*59,37.2316335009,137.02350196401665,679505.719094679,4122487.0273764846
1520,[2021-02-22 15:25:11.383] $GNGGA,62510.8,3713.898010816,N,13701.410117094,E,4,15,0.93,92.27600000000001,M,37.565,M,3.8,7006*55,37.231633513599995,137.02350195156666,679505.7179599901,4122487.0287620155
1521,[2021-02-22 15:25:11.493] $GNGGA,62510.9,3713.898012597,N,13701.410116895,E,4,15,0.93,92.273,M,37.565,M,3.9,7006*5E,37.23163354328334,137.02350194825,679505.7175953265,4122487.0320492787
1522,[2021-02-22 15:25:11.587] $GNGGA,62511.0,3713.898012464,N,13701.410115605,E,4,15,0.93,92.277,M,37.565,M,4.0,7006*55,37.231633541066664,137.02350192675001,679505.715693099,4122487.0317625487
1523,[2021-02-22 15:25:11.711] $GNGGA,62511.1,3713.898013813,N,13701.410115548999,E,4,15,0.93,92.27799999999999,M,37.565,M,4.1,7006*5C,37.231633563550005,137.02350192581665,679505.7155569608,4122487.0342554464
1524,[2021-02-22 15:25:11.790] $GNGGA,62511.2,3713.898014807,N,13701.410114898,E,4,15,0.93,92.28,M,37.565,M,4.2,7006*59,37.231633580116664,137.0235019149667,679505.7145550529,4122487.036073046
1525,[2021-02-22 15:25:11.883] $GNGGA,62511.3,3713.8980157359997,N,13701.410116461,E,4,15,0.93,92.275,M,37.565,M,4.3,7006*57,37.231633595599995,137.02350194101666,679505.7168294932,4122487.0378404227
1526,[2021-02-22 15:25:11.993] $GNGGA,62511.4,3713.898016559,N,13701.410118218999,E,4,15,0.93,92.272,M,37.565,M,4.4,7006*5F,37.23163360931667,137.02350197031666,679505.7193964644,4122487.039417943
1527,[2021-02-22 15:25:12.102] $GNGGA,62511.5,3713.898016115,N,13701.410118693999,E,4,15,0.93,92.272,M,37.565,M,4.5,7006*52,37.231633601916656,137.02350197823333,679505.7201163876,4122487.038611881
1528,[2021-02-22 15:25:12.180] $GNGGA,62511.6,3713.89801628,N,13701.410117844,E,4,15,0.93,92.273,M,37.565,M,4.6,7006*50,37.23163360466666,137.02350196406667,679505.7188529919,4122487.0388901434
1529,[2021-02-22 15:25:12.290] $GNGGA,62511.7,3713.89801429,N,13701.410118639,E,4,15,0.93,92.275,M,37.565,M,4.7,7006*5E,37.231633571500005,137.02350197731667,679505.7201072066,4122487.0352352234
1530,[2021-02-22 15:25:12.383] $GNGGA,62511.8,3713.898012616,N,13701.410119918,E,4,15,0.93,92.27600000000001,M,37.565,M,4.8,7006*5C,37.2316335436,137.02350199863335,679505.722064608,4122487.0321799694
1531,[2021-02-22 15:25:12.493] $GNGGA,62511.9,3713.898013064,N,13701.410121863,E,4,15,0.93,92.273,M,37.565,M,4.9,7006*5D,37.231633551066665,137.02350203105001,679505.7249229152,4122487.0330699245
1532,[2021-02-22 15:25:12.618] $GNGGA,62512.0,3713.898014187,N,13701.410122031999,E,4,15,0.93,92.272,M,37.565,M,5.0,7006*5A,37.231633569783334,137.02350203386663,679505.725128413,4122487.0351519994
1533,[2021-02-22 15:25:12.680] $GNGGA,62512.1,3713.8980148690002,N,13701.410123076,E,4,15,0.93,92.26899999999999,M,37.565,M,5.1,7006*58,37.23163358115001,137.0235020512667,679505.7266451915,4122487.0364462035
1534,[2021-02-22 15:25:12.790] $GNGGA,62512.2,3713.898013424,N,13701.410123431999,E,4,15,0.93,92.271,M,37.565,M,5.2,7006*57,37.231633557066665,137.02350205719998,679505.7272287186,4122487.033785258
1535,[2021-02-22 15:25:12.883] $GNGGA,62512.3,3713.8980139490004,N,13701.410124475,E,4,15,0.93,92.26799999999999,M,37.565,M,5.3,7006*5D,37.23163356581667,137.02350207458335,679505.7287502252,4122487.0347890942
1536,[2021-02-22 15:25:12.993] $GNGGA,62512.4,3713.898014312,N,13701.410125113998,E,4,15,0.93,92.266,M,37.565,M,5.4,7006*53,37.231633571866666,137.0235020852333,679505.7296807426,4122487.0354805784
1537,[2021-02-22 15:25:13.118] $GNGGA,62512.5,3713.898014471,N,13701.410125796001,E,4,15,0.93,92.27,M,37.565,M,5.5,7006*5A,37.231633574516664,137.02350209660003,679505.7306829167,4122487.0357961706
1538,[2021-02-22 15:25:13.180] $GNGGA,62512.6,3713.898014587,N,13701.410126222,E,4,15,0.93,92.26899999999999,M,37.565,M,5.6,7006*53,37.23163357645,137.02350210369997,679505.7313082427,4122487.036024152
1539,[2021-02-22 15:25:13.290] $GNGGA,62512.7,3713.898014055,N,13701.410125917,E,4,15,0.93,92.26899999999999,M,37.565,M,5.7,7006*57,37.23163356758334,137.02350209861666,679505.7308782799,4122487.035030698
1540,[2021-02-22 15:25:13.383] $GNGGA,62512.8,3713.8980129670003,N,13701.410126081999,E,4,15,0.93,92.26799999999999,M,37.565,M,5.8,7006*5E,37.23163354945,137.02350210136663,679505.731165268,4122487.0330239055
1541,[2021-02-22 15:25:13.493] $GNGGA,62512.9,3713.8980131509998,N,13701.410125278999,E,4,15,0.93,92.27,M,37.565,M,5.9,7006*5E,37.23163355251666,137.02350208798333,679505.7299706233,4122487.03333879
1542,[2021-02-22 15:25:13.618] $GNGGA,62513.0,3713.898012682,N,13701.410125696,E,4,15,0.93,92.272,M,37.565,M,6.0,7006*53,37.2316335447,137.02350209493335,679505.7306057722,4122487.0324846627
1543,[2021-02-22 15:25:13.680] $GNGGA,62513.1,3713.898013157,N,13701.410125804,E,4,15,0.93,92.272,M,37.565,M,6.1,7006*58,37.23163355261667,137.02350209673332,679505.7307466883,4122487.0333664804
1544,[2021-02-22 15:25:13.789] $GNGGA,62513.2,3713.898013191,N,13701.410124883001,E,4,15,0.93,92.273,M,37.565,M,6.2,7006*5D,37.23163355318333,137.02350208138333,679505.7293834868,4122487.033400242
1545,[2021-02-22 15:25:13.883] $GNGGA,62513.3,3713.898013544,N,13701.41012418,E,4,15,0.93,92.272,M,37.565,M,6.3,7006*5A,37.231633559066665,137.02350206966668,679505.7283300258,4122487.0340308137
1546,[2021-02-22 15:25:13.993] $GNGGA,62513.4,3713.898013932,N,13701.410123945,E,4,15,0.93,92.273,M,37.565,M,6.4,7006*50,37.23163356553334,137.02350206574997,679505.7279671951,4122487.0347409043
1547,[2021-02-22 15:25:14.118] $GNGGA,62513.5,3713.8980122159996,N,13701.410123951999,E,4,15,0.93,92.273,M,37.565,M,6.5,7006*5A,37.23163353693333,137.02350206586664,679505.7280453844,4122487.0315677747
1548,[2021-02-22 15:25:14.196] $GNGGA,62513.6,3713.898011565,N,13701.410124854,E,4,15,0.93,92.271,M,37.565,M,6.6,7006*58,37.231633526083336,137.0235020809,679505.7294048832,4122487.0303924107
1549,[2021-02-22 15:25:14.289] $GNGGA,62513.7,3713.8980113529997,N,13701.410125547,E,4,15,0.93,92.271,M,37.565,M,6.7,7006*55,37.23163352254999,137.02350209245,679505.7304379862,4122487.03002227
1550,[2021-02-22 15:25:14.383] $GNGGA,62513.8,3713.898011161,N,13701.410126183,E,4,15,0.93,92.275,M,37.565,M,6.8,7006*5D,37.23163351934999,137.02350210305002,679505.7313860147,4122487.029687314
1551,[2021-02-22 15:25:14.508] $GNGGA,62513.9,3713.8980104290004,N,13701.410127011,E,4,15,0.93,92.275,M,37.565,M,6.9,7006*5E,37.23163350715001,137.02350211685004,679505.7326392952,4122487.02835982
1552,[2021-02-22 15:25:14.586] $GNGGA,62514.0,3713.8980119509997,N,13701.410128321999,E,4,15,0.93,92.272,M,37.565,M,7.0,7006*50,37.23163353251666,137.02350213869997,679505.7345176619,4122487.0312158503
1553,[2021-02-22 15:25:14.696] $GNGGA,62514.1,3713.898011325,N,13701.410128045,E,4,15,0.93,92.27600000000001,M,37.565,M,7.1,7006*5F,37.231633522083335,137.02350213408334,679505.7341328188,4122487.030049451
1554,[2021-02-22 15:25:14.789] $GNGGA,62514.2,3713.898012519,N,13701.41012857,E,4,15,0.93,92.274,M,37.565,M,7.2,7006*54,37.231633541983335,137.02350214283334,679505.7348619222,4122487.0322740762
1555,[2021-02-22 15:25:14.914] $GNGGA,62514.3,3713.89801401,N,13701.410128178999,E,4,15,0.93,92.273,M,37.565,M,7.3,7006*54,37.23163356683334,137.02350213631664,679505.7342248159,4122487.035018982
1556,[2021-02-22 15:25:14.993] $GNGGA,62514.4,3713.8980140979997,N,13701.410127287,E,4,15,0.93,92.275,M,37.565,M,7.4,7006*5F,37.23163356829999,137.02350212144998,679505.7329023598,4122487.035153521
1557,[2021-02-22 15:25:15.086] $GNGGA,62514.5,3713.898015309,N,13701.410127051999,E,4,15,0.93,92.277,M,37.565,M,7.5,7006*5D,37.23163358848334,137.0235021175333,679505.7325069989,4122487.0373855624
1558,[2021-02-22 15:25:15.196] $GNGGA,62514.6,3713.898016146,N,13701.410126676,E,4,15,0.93,92.277,M,37.565,M,7.6,7006*56,37.23163360243333,137.02350211126668,679505.7319179325,4122487.038921516
1559,[2021-02-22 15:25:15.305] $GNGGA,62514.7,3713.8980171290004,N,13701.410127193001,E,4,15,0.93,92.275,M,37.565,M,7.7,7006*51,37.231633618816666,137.02350211988335,679505.7326435482,4122487.040755693
1560,[2021-02-22 15:25:15.383] $GNGGA,62514.8,3713.8980176120003,N,13701.410128195,E,4,15,0.93,92.274,M,37.565,M,7.8,7006*56,37.23163362686667,137.02350213658337,679505.7341060869,4122487.0416805632
1561,[2021-02-22 15:25:15.493] $GNGGA,62514.9,3713.898018277,N,13701.410128071999,E,4,15,0.93,92.27600000000001,M,37.565,M,7.9,7006*54,37.23163363795,137.02350213453332,679505.7338979163,4122487.042906442
1562,[2021-02-22 15:25:15.586] $GNGGA,62515.0,3713.898018197,N,13701.410127124,E,4,15,0.93,92.277,M,37.565,M,8.0,7006*5B,37.231633636616664,137.02350211873335,679505.7324992985,4122487.0427285335
1563,[2021-02-22 15:25:15.711] $GNGGA,62515.1,3713.8980183490003,N,13701.410126696,E,4,15,0.93,92.275,M,37.565,M,3.1,7006*5C,37.23163363915001,137.0235021116,679505.7318604186,4122487.042996096
1564,[2021-02-22 15:25:15.789] $GNGGA,62515.2,3713.898018753,N,13701.410125286002,E,4,15,0.93,92.277,M,37.565,M,3.2,7006*57,37.231633645883335,137.02350208810006,679505.729759523,4122487.0436986308
1565,[2021-02-22 15:25:15.883] $GNGGA,62515.3,3713.898019657,N,13701.410124011001,E,4,15,0.93,92.277,M,37.565,M,3.3,7006*5E,37.23163366095,137.02350206685003,679505.7278384735,4122487.045330072
1566,[2021-02-22 15:25:15.992] $GNGGA,62515.4,3713.898020493,N,13701.410121053,E,4,15,0.93,92.277,M,37.565,M,3.4,7006*5D,37.231633674883334,137.02350201755002,679505.7234315097,4122487.0467825606
1567,[2021-02-22 15:25:16.117] $GNGGA,62515.5,3713.898020413,N,13701.410119876002,E,4,15,0.93,92.27600000000001,M,37.565,M,3.5,7006*50,37.23163367355,137.02350199793335,679505.7216942738,4122487.0465974147
1568,[2021-02-22 15:25:16.180] $GNGGA,62515.6,3713.89802111,N,13701.410118861,E,4,15,0.93,92.272,M,37.565,M,3.6,7006*54,37.23163368516668,137.02350198101666,679505.7201658651,4122487.047854274
1569,[2021-02-22 15:25:16.289] $GNGGA,62515.7,3713.89802071,N,13701.41011832,E,4,15,0.93,92.272,M,37.565,M,3.7,7006*5D,37.231633678499996,137.02350197200002,679505.7193817177,4122487.047097463
1570,[2021-02-22 15:25:16.383] $GNGGA,62515.8,3713.8980197690003,N,13701.410119093998,E,4,15,0.93,92.271,M,37.565,M,3.8,7006*57,37.23163366281667,137.02350198489998,679505.7205634057,4122487.0453817644
1571,[2021-02-22 15:25:16.508] $GNGGA,62515.9,3713.898019063,N,13701.410120542,E,4,15,0.93,92.271,M,37.565,M,3.9,7006*5E,37.231633651050004,137.0235020090333,679505.7227324343,4122487.044121949
1572,[2021-02-22 15:25:16.586] $GNGGA,62516.0,3713.898018853,N,13701.410122082,E,4,15,0.93,92.26700000000001,M,37.565,M,4.0,7006*5C,37.23163364755,137.02350203469996,679505.7250178908,4122487.0437822803
1573,[2021-02-22 15:25:16.696] $GNGGA,62516.1,3713.898017123,N,13701.410121971001,E,4,15,0.93,92.271,M,37.565,M,4.1,7006*5C,37.23163361871667,137.02350203285,679505.7249221513,4122487.0405795327
1574,[2021-02-22 15:25:16.789] $GNGGA,62516.2,3713.8980150509997,N,13701.410123663001,E,4,15,0.93,92.272,M,37.565,M,4.2,7006*57,37.23163358418332,137.02350206105,679505.7275059782,4122487.036801324
1575,[2021-02-22 15:25:16.883] $GNGGA,62516.3,3713.898014223,N,13701.410125702,E,4,15,0.93,92.26899999999999,M,37.565,M,4.3,7006*5B,37.23163357038333,137.02350209503334,679505.7305537255,4122487.035334579
1576,[2021-02-22 15:25:17.008] $GNGGA,62516.4,3713.898013122,N,13701.410128481999,E,4,15,0.93,92.27,M,37.565,M,4.4,7006*50,37.23163355203334,137.02350214136663,679505.7347079566,4122487.033386406
1577,[2021-02-22 15:25:17.086] $GNGGA,62516.5,3713.898012823,N,13701.410130715,E,4,15,0.93,92.274,M,37.565,M,4.5,7006*59,37.23163354705,137.0235021785833,679505.7380216536,4122487.0329040578
1578,[2021-02-22 15:25:17.195] $GNGGA,62516.6,3713.8980152090003,N,13701.410132907,E,4,15,0.93,92.275,M,37.565,M,4.6,7006*52,37.23163358681666,137.02350221511668,679505.7411685863,4122487.0373857087
1579,[2021-02-22 15:25:17.289] $GNGGA,62516.7,3713.898017568,N,13701.410133637,E,4,15,0.93,92.275,M,37.565,M,4.7,7006*5D,37.23163362613333,137.02350222728333,679505.7421547619,4122487.041771215
1580,[2021-02-22 15:25:17.383] $GNGGA,62516.8,3713.8980180559997,N,13701.410134667,E,4,15,0.93,92.274,M,37.565,M,4.8,7006*59,37.231633634266665,137.02350224445001,679505.7436585047,4122487.0427062176
1581,[2021-02-22 15:25:17.508] $GNGGA,62516.9,3713.898019153,N,13701.410136311999,E,4,15,0.93,92.275,M,37.565,M,4.9,7006*58,37.23163365255,137.02350227186662,679505.7460475506,4122487.0447868668
1582,[2021-02-22 15:25:17.586] $GNGGA,62517.0,3713.898019865,N,13701.410137408999,E,4,15,0.93,92.274,M,37.565,M,5.0,7006*59,37.23163366441667,137.02350229015,679505.7476415127,4122487.046138224
1583,[2021-02-22 15:25:17.695] $GNGGA,62517.1,3713.898019617,N,13701.410138603,E,4,15,0.93,92.275,M,37.565,M,5.1,7006*54,37.231633660283336,137.02350231005002,679505.749416854,4122487.045717346
1584,[2021-02-22 15:25:17.789] $GNGGA,62517.2,3713.898018752,N,13701.410137861001,E,4,15,0.93,92.275,M,37.565,M,5.2,7006*50,37.231633645866665,137.02350229768334,679505.748353872,4122487.044094271
1585,[2021-02-22 15:25:17.883] $GNGGA,62517.3,3713.8980168820003,N,13701.410138795,E,4,15,0.93,92.27600000000001,M,37.565,M,5.3,7006*54,37.23163361470001,137.02350231325002,679505.7498088783,4122487.040665658
1586,[2021-02-22 15:25:18.008] $GNGGA,62517.4,3713.8980157359997,N,13701.410138126,E,4,15,0.93,92.273,M,37.565,M,5.4,7006*5C,37.231633595599995,137.02350230210004,679505.7488649534,4122487.0385252438
1587,[2021-02-22 15:25:18.086] $GNGGA,62517.5,3713.898015381,N,13701.410137854,E,4,15,0.93,92.272,M,37.565,M,5.5,7006*56,37.23163358968333,137.02350229756667,679505.7484767835,4122487.037860155
1588,[2021-02-22 15:25:18.195] $GNGGA,62517.6,3713.8980152,N,13701.410139133,E,4,15,0.93,92.26799999999999,M,37.565,M,5.6,7006*53,37.23163358666667,137.02350231888335,679505.7503751637,4122487.037565867
1589,[2021-02-22 15:25:18.289] $GNGGA,62517.7,3713.898015947,N,13701.410138518,E,4,15,0.93,92.26700000000001,M,37.565,M,5.7,7006*58,37.23163359911667,137.02350230863334,679505.7494362483,4122487.0389278335
1590,[2021-02-22 15:25:18.383] $GNGGA,62517.8,3713.8980173859995,N,13701.410137215,E,4,15,0.93,92.26799999999999,M,37.565,M,5.8,7006*57,37.231633623099995,137.02350228691668,679505.7474526501,4122487.0415477455
1591,[2021-02-22 15:25:18.508] $GNGGA,62517.9,3713.8980191359997,N,13701.410137018998,E,4,15,0.93,92.266,M,37.565,M,5.9,7006*50,37.231633652266666,137.02350228364998,679505.7470936478,4122487.0447777766
1592,[2021-02-22 15:25:18.586] $GNGGA,62518.0,3713.898020209,N,13701.410136146002,E,4,15,0.93,92.266,M,37.565,M,6.0,7006*53,37.23163367015,137.02350226910002,679505.7457603512,4122487.04673445
1593,[2021-02-22 15:25:18.695] $GNGGA,62518.1,3713.898022789,N,13701.410135185,E,4,15,0.93,92.266,M,37.565,M,6.1,7006*50,37.23163371315,137.02350225308334,679505.7442373522,4122487.0514751957
1594,[2021-02-22 15:25:18.789] $GNGGA,62518.2,3713.898022999,N,13701.41013572,E,4,15,0.93,92.265,M,37.565,M,6.2,7006*55,37.23163371665001,137.023502262,679505.7450201411,4122487.0518804537
1595,[2021-02-22 15:25:18.914] $GNGGA,62518.3,3713.898024326,N,13701.410136518001,E,4,15,0.93,92.26100000000001,M,37.565,M,6.3,7006*53,37.23163373876667,137.02350227530002,679505.7461476647,4122487.054359661
1596,[2021-02-22 15:25:18.992] $GNGGA,62518.4,3713.898025133,N,13701.410135863998,E,4,15,0.93,92.26299999999999,M,37.565,M,6.4,7006*53,37.23163375221666,137.02350226439995,679505.7451487043,4122487.055831349
1597,[2021-02-22 15:25:19.086] $GNGGA,62518.5,3713.8980243859996,N,13701.410136048,E,4,15,0.93,92.26100000000001,M,37.565,M,6.5,7006*59,37.231633739766664,137.02350226746665,679505.7454503148,4122487.05445576
1598,[2021-02-22 15:25:19.195] $GNGGA,62518.6,3713.8980248659996,N,13701.410137349,E,4,15,0.93,92.26100000000001,M,37.565,M,6.6,7006*5F,37.231633747766665,137.02350228915,679505.7473550942,4122487.055384535
1599,[2021-02-22 15:25:19.305] $GNGGA,62518.7,3713.898023976,N,13701.4101405,E,4,15,0.93,92.259,M,37.565,M,6.7,7006*58,37.23163373293334,137.02350234166664,679505.7520495738,4122487.053838285
1600,[2021-02-22 15:25:19.383] $GNGGA,62518.8,3713.898023716,N,13701.410139968,E,4,15,0.93,92.258,M,37.565,M,6.8,7006*5D,37.231633728599995,137.02350233280004,679505.7512732041,4122487.053340657
1601,[2021-02-22 15:25:19.492] $GNGGA,62518.9,3713.898023487,N,13701.410137163999,E,4,15,0.93,92.257,M,37.565,M,6.9,7006*53,37.23163372478333,137.02350228606664,679505.747136052,4122487.0528285415
1602,[2021-02-22 15:25:19.586] $GNGGA,62519.0,3713.898022123,N,13701.410135578,E,4,15,0.93,92.258,M,37.565,M,7.0,7006*5D,37.23163370205,137.02350225963335,679505.7448447999,4122487.0502560013
1603,[2021-02-22 15:25:19.711] $GNGGA,62519.1,3713.898021698,N,13701.410134231,E,4,15,0.93,92.258,M,37.565,M,2.1,7006*57,37.23163369496667,137.02350223718332,679505.7428698272,4122487.0494274837
1604,[2021-02-22 15:25:19.789] $GNGGA,62519.2,3713.898022375,N,13701.410132261,E,4,15,0.93,92.256,M,37.565,M,2.2,7006*5F,37.231633706249994,137.02350220435,679505.7399300787,4122487.0506171687
1605,[2021-02-22 15:25:19.883] $GNGGA,62519.3,3713.8980232609997,N,13701.410132461999,E,4,15,0.93,92.257,M,37.565,M,2.3,7006*5E,37.23163372101666,137.02350220769998,679505.7401922636,4122487.052261977
1606,[2021-02-22 15:25:19.992] $GNGGA,62519.4,3713.898022498,N,13701.410134125,E,4,15,0.93,92.258,M,37.565,M,2.4,7006*50,37.2316337083,137.0235022354167,679505.7426814653,4122487.0509035503
1607,[2021-02-22 15:25:20.117] $GNGGA,62519.5,3713.8980227590005,N,13701.410132574,E,4,15,0.93,92.259,M,37.565,M,2.5,7006*59,37.23163371265001,137.02350220956666,679505.7403777211,4122487.051337184
1608,[2021-02-22 15:25:20.195] $GNGGA,62519.6,3713.898022538,N,13701.410131993,E,4,15,0.93,92.26,M,37.565,M,2.6,7006*50,37.23163370896667,137.02350219988335,679505.7395273526,4122487.050910129
1609,[2021-02-22 15:25:20.289] $GNGGA,62519.7,3713.898021005,N,13701.41013112,E,4,15,0.93,92.26100000000001,M,37.565,M,2.7,7006*59,37.23163368341667,137.0235021853333,679505.7382970692,4122487.0480476017
1610,[2021-02-22 15:25:20.383] $GNGGA,62519.8,3713.89802116,N,13701.410129733998,E,4,15,0.93,92.262,M,37.565,M,2.8,7006*52,37.231633686,137.02350216223329,679505.7362414973,4122487.0482904273
1611,[2021-02-22 15:25:20.508] $GNGGA,62519.9,3713.8980204629997,N,13701.410130123999,E,4,15,0.93,92.262,M,37.565,M,2.9,7006*5A,37.231633674383325,137.0235021687333,679505.7368457345,4122487.0470138113
1612,[2021-02-22 15:25:20.586] $GNGGA,62520.0,3713.898020119,N,13701.410128918998,E,4,15,0.93,92.264,M,37.565,M,3.0,7006*50,37.231633668650005,137.02350214864998,679505.7350775333,4122487.0463395743
1613,[2021-02-22 15:25:20.695] $GNGGA,62520.1,3713.8980199909997,N,13701.410127925,E,4,15,0.93,92.264,M,37.565,M,3.1,7006*52,37.23163366651666,137.02350213208337,679505.7336127989,4122487.0460714456
1614,[2021-02-22 15:25:20.789] $GNGGA,62520.2,3713.89801967,N,13701.410126735,E,4,15,0.93,92.265,M,37.565,M,3.2,7006*5D,37.23163366116666,137.02350211225,679505.7318658633,4122487.045440214
1615,[2021-02-22 15:25:20.914] $GNGGA,62520.3,3713.898019846,N,13701.410125446999,E,4,15,0.93,92.26899999999999,M,37.565,M,3.3,7006*5F,37.231633664099995,137.0235020907833,679505.7299543709,4122487.045724973
1616,[2021-02-22 15:25:20.992] $GNGGA,62520.4,3713.8980201759996,N,13701.41012477,E,4,15,0.93,92.26700000000001,M,37.565,M,3.4,7006*57,37.2316336696,137.02350207950002,679505.7289402701,4122487.0463138344
1617,[2021-02-22 15:25:21.086] $GNGGA,62520.5,3713.898020864,N,13701.410123455,E,4,15,0.93,92.266,M,37.565,M,3.5,7006*5F,37.23163368106667,137.02350205758333,679505.7269686146,4122487.0475445664
1618,[2021-02-22 15:25:21.195] $GNGGA,62520.6,3713.898021781,N,13701.410123733,E,4,15,0.93,92.26299999999999,M,37.565,M,3.6,7006*5C,37.23163369635,137.0235020622167,679505.727343437,4122487.049249137
1619,[2021-02-22 15:25:21.289] $GNGGA,62520.7,3713.8980225459995,N,13701.41012175,E,4,15,0.93,92.26299999999999,M,37.565,M,3.7,7006*51,37.231633709099995,137.02350202916665,679505.724380983,4122487.0506011466
1620,[2021-02-22 15:25:21.414] $GNGGA,62520.8,3713.898023568,N,13701.410121066001,E,4,15,0.93,92.264,M,37.565,M,3.8,7006*59,37.23163372613334,137.0235020177667,679505.7233291738,4122487.0524694817
1621,[2021-02-22 15:25:21.492] $GNGGA,62520.9,3713.898026176,N,13701.41012291,E,4,15,0.93,92.257,M,37.565,M,3.9,7006*5C,37.231633769599995,137.02350204849998,679505.7259527423,4122487.0573506695
1622,[2021-02-22 15:25:21.586] $GNGGA,62521.0,3713.898027519,N,13701.410122947,E,4,15,0.93,92.26299999999999,M,37.565,M,4.0,7006*53,37.231633791983334,137.02350204911664,679505.7259543623,4122487.059835411
1623,[2021-02-22 15:25:21.695] $GNGGA,62521.1,3713.8980304770002,N,13701.410124941001,E,4,15,0.93,92.259,M,37.565,M,4.1,7006*55,37.23163384128333,137.02350208235,679505.728785904,4122487.0653685867
1624,[2021-02-22 15:25:21.789] $GNGGA,62521.2,3713.89803227,N,13701.410127828001,E,4,15,0.93,92.259,M,37.565,M,4.2,7006*5B,37.231633871166665,137.02350213046668,679505.732983954,4122487.0687755863
1625,[2021-02-22 15:25:21.914] $GNGGA,62521.3,3713.898034839,N,13701.410128513999,E,4,15,0.93,92.257,M,37.565,M,4.3,7006*59,37.23163391398333,137.02350214189997,679505.7338967618,4122487.073548051
1626,[2021-02-22 15:25:21.992] $GNGGA,62521.4,3713.8980354709997,N,13701.410127258001,E,4,15,0.93,92.255,M,37.565,M,4.4,7006*5A,37.231633924516665,137.02350212096667,679505.7320145678,4122487.0746770888
1627,[2021-02-22 15:25:22.086] $GNGGA,62521.5,3713.8980351640002,N,13701.410124128999,E,4,15,0.93,92.256,M,37.565,M,4.5,7006*5E,37.231633919400004,137.02350206881664,679505.727399933,4122487.074010455
1628,[2021-02-22 15:25:22.195] $GNGGA,62521.6,3713.8980332670003,N,13701.410121488001,E,4,15,0.93,92.258,M,37.565,M,4.6,7006*5D,37.23163388778334,137.02350202480002,679505.7235697538,4122487.070418907
1629,[2021-02-22 15:25:22.289] $GNGGA,62521.7,3713.8980307290003,N,13701.410120993998,E,4,15,0.93,92.26100000000001,M,37.565,M,4.7,7006*5A,37.231633845483344,137.02350201656662,679505.722939614,4122487.0657098414
1630,[2021-02-22 15:25:22.414] $GNGGA,62521.8,3713.89802836,N,13701.410123746002,E,4,15,0.93,92.26100000000001,M,37.565,M,4.8,7006*58,37.231633806,137.02350206243335,679505.7271025791,4122487.0614159047
1631,[2021-02-22 15:25:22.492] $GNGGA,62521.9,3713.898029204,N,13701.410128077,E,4,15,0.93,92.259,M,37.565,M,4.9,7006*5F,37.23163382006667,137.02350213461662,679505.7334733426,4122487.0631135907
1632,[2021-02-22 15:25:22.586] $GNGGA,62522.0,3713.898029285,N,13701.410131601999,E,4,15,0.93,92.26100000000001,M,37.565,M,5.0,7006*53,37.231633821416665,137.02350219336662,679505.7386824646,4122487.063374806
1633,[2021-02-22 15:25:22.695] $GNGGA,62522.1,3713.898029149,N,13701.410134925,E,4,15,0.93,92.26,M,37.565,M,5.1,7006*5E,37.23163381915,137.02350224874996,679505.7436014718,4122487.063228343
1634,[2021-02-22 15:25:22.789] $GNGGA,62522.2,3713.898027766,N,13701.410136888,E,4,15,0.93,92.259,M,37.565,M,5.2,7006*55,37.23163379609999,137.02350228146668,679505.7465587838,4122487.0607328494
1635,[2021-02-22 15:25:22.914] $GNGGA,62522.3,3713.8980258879997,N,13701.410136162,E,4,15,0.93,92.26100000000001,M,37.565,M,5.3,7006*5E,37.231633764799994,137.02350226936665,679505.7455595057,4122487.057236969
1636,[2021-02-22 15:25:22.992] $GNGGA,62522.4,3713.898023463,N,13701.410132223,E,4,15,0.93,92.26,M,37.565,M,5.4,7006*52,37.23163372438333,137.02350220371667,679505.7398308781,4122487.052627975
1637,[2021-02-22 15:25:23.086] $GNGGA,62522.5,3713.8980235229997,N,13701.41012714,E,4,15,0.93,92.262,M,37.565,M,5.5,7006*57,37.231633725383325,137.023502119,679505.7323124099,4122487.05257826
1638,[2021-02-22 15:25:23.195] $GNGGA,62522.6,3713.898023389,N,13701.410123606001,E,4,15,0.93,92.26100000000001,M,37.565,M,5.6,7006*53,37.231633723150004,137.02350206010001,679505.7270920778,4122487.05221875
1639,[2021-02-22 15:25:23.304] $GNGGA,62522.7,3713.8980262679997,N,13701.41012284,E,4,15,0.93,92.259,M,37.565,M,5.7,7006*5E,37.23163377113333,137.02350204733332,679505.7258455994,4122487.0575185907
1640,[2021-02-22 15:25:23.383] $GNGGA,62522.8,3713.898028642,N,13701.410124536002,E,4,15,0.93,92.262,M,37.565,M,5.8,7006*5E,37.2316338107,137.02350207560005,679505.7282595866,4122487.061962372
1641,[2021-02-22 15:25:23.492] $GNGGA,62522.9,3713.898032209,N,13701.41012585,E,4,15,0.93,92.26299999999999,M,37.565,M,5.9,7006*53,37.23163387015,137.0235020975,679505.7300615488,4122487.068600258
1642,[2021-02-22 15:25:23.586] $GNGGA,62523.0,3713.8980338829997,N,13701.410126978999,E,4,15,0.93,92.258,M,37.565,M,6.0,7006*59,37.23163389804999,137.02350211631665,679505.7316647926,4122487.0717316256
1643,[2021-02-22 15:25:23.711] $GNGGA,62523.1,3713.898034922,N,13701.410127172,E,4,15,0.93,92.259,M,37.565,M,6.1,7006*57,37.231633915366665,137.02350211953333,679505.7319091046,4122487.0736591197
1644,[2021-02-22 15:25:23.789] $GNGGA,62523.2,3713.898037332,N,13701.410125336,E,4,15,0.93,92.255,M,37.565,M,6.2,7006*53,37.23163395553334,137.02350208893333,679505.7290989875,4122487.07805783
1645,[2021-02-22 15:25:23.883] $GNGGA,62523.3,3713.898035152,N,13701.41012127,E,4,15,0.93,92.255,M,37.565,M,6.3,7006*52,37.23163391919999,137.02350202116668,679505.7231728829,4122487.0738978917
1646,[2021-02-22 15:25:23.992] $GNGGA,62523.4,3713.898033313,N,13701.410120297,E,4,15,0.93,92.256,M,37.565,M,6.4,7006*58,37.23163388855,137.02350200494996,679505.7218068292,4122487.070466326
1647,[2021-02-22 15:25:24.117] $GNGGA,62523.5,3713.898031904,N,13701.410120073,E,4,15,0.93,92.25399999999999,M,37.565,M,6.5,7006*5C,37.23163386506667,137.02350200121668,679505.7215313112,4122487.0678536217
1648,[2021-02-22 15:25:24.195] $GNGGA,62523.6,3713.898029364,N,13701.41012135,E,4,15,0.93,92.25200000000001,M,37.565,M,6.6,7006*5C,37.231633822733336,137.0235020225,679505.7235199852,4122487.0631968374
1649,[2021-02-22 15:25:24.289] $GNGGA,62523.7,3713.8980300690005,N,13701.410120485,E,4,15,0.93,92.25299999999999,M,37.565,M,6.7,7006*55,37.23163383448335,137.0235020080833,679505.722213063,4122487.0644732327
1650,[2021-02-22 15:25:24.382] $GNGGA,62523.8,3713.8980298540005,N,13701.410119906,E,4,15,0.93,92.25200000000001,M,37.565,M,6.8,7006*56,37.23163383090001,137.02350199843335,679505.7213654123,4122487.0640573367
1651,[2021-02-22 15:25:24.507] $GNGGA,62523.9,3713.8980288440002,N,13701.410121765,E,4,15,0.93,92.255,M,37.565,M,6.9,7006*51,37.23163381406667,137.02350202941665,679505.7241541909,4122487.0622483348
1652,[2021-02-22 15:25:24.586] $GNGGA,62524.0,3713.89802935,N,13701.410122434,E,4,15,0.93,92.25299999999999,M,37.565,M,7.0,7006*5A,37.231633822499994,137.02350204056663,679505.7251234185,4122487.063205211
1653,[2021-02-22 15:25:24.695] $GNGGA,62524.1,3713.898030298,N,13701.4101203,E,4,15,0.93,92.25200000000001,M,37.565,M,2.1,7006*51,37.231633838300006,137.02350200499998,679505.7219304559,4122487.064890867
1654,[2021-02-22 15:25:24.789] $GNGGA,62524.2,3713.898031698,N,13701.410119368998,E,4,15,0.93,92.25,M,37.565,M,2.2,7006*53,37.23163386163334,137.0235019894833,679505.7204984631,4122487.067450419
1655,[2021-02-22 15:25:24.914] $GNGGA,62524.3,3713.8980320540004,N,13701.410118994,E,4,15,0.93,92.24799999999999,M,37.565,M,2.3,7006*56,37.23163386756668,137.02350198323333,679505.7199298925,4122487.068096908
1656,[2021-02-22 15:25:24.992] $GNGGA,62524.4,3713.898032235,N,13701.410117958001,E,4,15,0.93,92.24799999999999,M,37.565,M,2.4,7006*5C,37.23163387058334,137.02350196596672,679505.7183908358,4122487.0683988766
1657,[2021-02-22 15:25:25.086] $GNGGA,62524.5,3713.8980319109996,N,13701.410118206,E,4,15,0.93,92.24600000000001,M,37.565,M,2.5,7006*53,37.231633865183326,137.02350197010003,679505.7187703518,4122487.0678075515
1658,[2021-02-22 15:25:25.195] $GNGGA,62524.6,3713.8980313929997,N,13701.41011924,E,4,15,0.93,92.24799999999999,M,37.565,M,2.6,7006*5E,37.23163385655,137.02350198733333,679505.7203197756,4122487.0668823137
1659,[2021-02-22 15:25:25.304] $GNGGA,62524.7,3713.898030187,N,13701.410120404,E,4,15,0.93,92.251,M,37.565,M,2.7,7006*5C,37.23163383645,137.02350200673334,679505.7220886275,4122487.0646888856
1660,[2021-02-22 15:25:25.382] $GNGGA,62524.8,3713.8980288159996,N,13701.410122164,E,4,15,0.93,92.24799999999999,M,37.565,M,2.8,7006*5D,37.2316338136,137.02350203606667,679505.7247452912,4122487.062209165
1661,[2021-02-22 15:25:25.492] $GNGGA,62524.9,3713.8980264409997,N,13701.410124162,E,4,15,0.93,92.25399999999999,M,37.565,M,2.9,7006*50,37.23163377401666,137.02350206936663,679505.7277935639,4122487.057880302
1662,[2021-02-22 15:25:25.586] $GNGGA,62525.0,3713.8980241440004,N,13701.410125647,E,4,15,0.93,92.251,M,37.565,M,3.0,7006*56,37.23163373573334,137.02350209411668,679505.7300802035,4122487.053679466
1663,[2021-02-22 15:25:25.695] $GNGGA,62525.1,3713.898023044,N,13701.410124181999,E,4,15,0.93,92.25399999999999,M,37.565,M,3.1,7006*5A,37.23163371740001,137.0235020697,679505.7279574283,4122487.051598959
1664,[2021-02-22 15:25:25.804] $GNGGA,62525.2,3713.8980223070002,N,13701.410119193,E,4,15,0.93,92.256,M,37.565,M,3.2,7006*53,37.231633705116664,137.02350198655,679505.7206094644,4122487.050078345
1665,[2021-02-22 15:25:25.882] $GNGGA,62525.3,3713.898025237,N,13701.410114038,E,4,15,0.93,92.255,M,37.565,M,3.3,7006*58,37.23163375395001,137.02350190063333,679505.7128710767,4122487.0553337643
1666,[2021-02-22 15:25:25.992] $GNGGA,62525.4,3713.898027666,N,13701.41011057,E,4,15,0.93,92.258,M,37.565,M,3.4,7006*5A,37.231633794433336,137.0235018428333,679505.7076470114,4122487.0597160226
1667,[2021-02-22 15:25:26.085] $GNGGA,62525.5,3713.898030105,N,13701.410110965,E,4,15,0.93,92.259,M,37.565,M,3.5,7006*57,37.23163383508333,137.02350184941668,679505.7081346721,4122487.0642388803
1668,[2021-02-22 15:25:26.195] $GNGGA,62525.6,3713.89803212,N,13701.410112653999,E,4,15,0.93,92.256,M,37.565,M,3.6,7006*52,37.23163386866667,137.02350187756667,679505.710552494,4122487.068018554
1669,[2021-02-22 15:25:26.304] $GNGGA,62525.7,3713.898033616,N,13701.410114547,E,4,15,0.93,92.259,M,37.565,M,3.7,7006*59,37.23163389359999,137.02350190911665,679505.7132924814,4122487.0708448994
1670,[2021-02-22 15:25:26.382] $GNGGA,62525.8,3713.89803586,N,13701.410116506,E,4,16,0.78,92.256,M,37.565,M,3.8,7006*5E,37.231633931000005,137.02350194176665,679505.7161004925,4122487.0750565897
1671,[2021-02-22 15:25:26.492] $GNGGA,62525.9,3713.898035203,N,13701.410115683,E,4,16,0.78,92.257,M,37.565,M,3.9,7006*5D,37.231633920049994,137.02350192805002,679505.7149095216,4122487.073815602
1672,[2021-02-22 15:25:26.585] $GNGGA,62526.0,3713.898033962,N,13701.410117938001,E,4,16,0.78,92.256,M,37.565,M,4.0,7006*5F,37.23163389936668,137.02350196563336,679505.7182929872,4122487.071591938
1673,[2021-02-22 15:25:26.695] $GNGGA,62526.1,3713.898034222,N,13701.41011534,E,4,16,0.78,92.258,M,37.565,M,4.1,7006*5E,37.2316339037,137.02350192233337,679505.7144411186,4122487.071990626
1674,[2021-02-22 15:25:26.804] $GNGGA,62526.2,3713.8980346,N,13701.410112833,E,4,16,0.78,92.259,M,37.565,M,4.2,7006*53,37.23163390999999,137.02350188055,679505.7107191379,4122487.0726104034
1675,[2021-02-22 15:25:26.882] $GNGGA,62526.3,3713.8980342190002,N,13701.410112971002,E,4,16,0.78,92.26299999999999,M,37.565,M,4.3,7006*51,37.23163390365001,137.02350188285,679505.7109382586,4122487.0719101946
1676,[2021-02-22 15:25:26.992] $GNGGA,62526.4,3713.898034789,N,13701.410111925,E,4,16,0.78,92.26100000000001,M,37.565,M,4.4,7006*5D,37.23163391315,137.02350186541668,679505.709369031,4122487.072931215
1677,[2021-02-22 15:25:27.085] $GNGGA,62526.5,3713.8980364520003,N,13701.41011149,E,4,16,0.78,92.26,M,37.565,M,4.5,7006*58,37.23163394086667,137.02350185816667,679505.708660068,4122487.0759928054
1678,[2021-02-22 15:25:27.195] $GNGGA,62526.6,3713.8980385409996,N,13701.410113085,E,4,16,0.78,92.258,M,37.565,M,4.6,7006*5C,37.23163397568332,137.02350188475,679505.7109359695,4122487.0799063486
1679,[2021-02-22 15:25:27.304] $GNGGA,62526.7,3713.898038585,N,13701.41011539,E,4,16,0.78,92.26,M,37.565,M,4.7,7006*5E,37.23163397641666,137.02350192316663,679505.714342568,4122487.0800605775
1680,[2021-02-22 15:25:27.382] $GNGGA,62526.8,3713.89803994,N,13701.410115104,E,4,16,0.78,92.259,M,37.565,M,4.8,7006*5F,37.23163399900001,137.0235019184,679505.7138661047,4122487.0825573024
1681,[2021-02-22 15:25:27.492] $GNGGA,62526.9,3713.89803879,N,13701.410111413,E,4,16,0.78,92.258,M,37.565,M,4.9,7006*5B,37.23163397983333,137.02350185688334,679505.708453784,4122487.080313967
1682,[2021-02-22 15:25:27.585] $GNGGA,62527.0,3713.898037443,N,13701.410106873,E,4,16,0.78,92.257,M,37.565,M,5.0,7006*5A,37.23163395738333,137.02350178121665,679505.7017938546,4122487.077679491
1683,[2021-02-22 15:25:27.710] $GNGGA,62527.1,3713.89803538,N,13701.41010259,E,4,16,0.78,92.256,M,37.565,M,5.1,7006*55,37.231633923000004,137.02350170983334,679505.6955422543,4122487.07372906
1684,[2021-02-22 15:25:27.788] $GNGGA,62527.2,3713.898034333,N,13701.410100162,E,4,16,0.78,92.257,M,37.565,M,5.2,7006*56,37.23163390555,137.02350166936665,679505.6919934243,4122487.071716123
1685,[2021-02-22 15:25:27.882] $GNGGA,62527.3,3713.898033029,N,13701.410100173,E,4,16,0.78,92.259,M,37.565,M,5.3,7006*57,37.23163388381667,137.02350166954997,679505.6920612364,4122487.0693050222
1686,[2021-02-22 15:25:27.992] $GNGGA,62527.4,3713.898034253,N,13701.410101421001,E,4,16,0.78,92.257,M,37.565,M,5.4,7006*52,37.231633904216665,137.02350169035003,679505.6938582393,4122487.0716079795
1687,[2021-02-22 15:25:28.117] $GNGGA,62527.5,3713.8980363909996,N,13701.410101847,E,4,16,0.78,92.26100000000001,M,37.565,M,5.5,7006*56,37.23163393984999,137.02350169745,679505.694403632,4122487.075575186
1688,[2021-02-22 15:25:28.195] $GNGGA,62527.6,3713.8980388490004,N,13701.410101875,E,4,16,0.78,92.262,M,37.565,M,5.6,7006*54,37.231633980816675,137.02350169791669,679505.6943478687,4122487.080121584
1689,[2021-02-22 15:25:28.288] $GNGGA,62527.7,3713.8980403090004,N,13701.41010354,E,4,16,0.78,92.257,M,37.565,M,5.7,7006*5B,37.231634005150006,137.02350172566665,679505.6967521394,4122487.08287415
1690,[2021-02-22 15:25:28.398] $GNGGA,62527.8,3713.8980385140003,N,13701.410109464,E,4,16,0.78,92.262,M,37.565,M,5.8,7006*55,37.231633975233336,137.02350182439997,679505.7055827582,4122487.0797419613
1691,[2021-02-22 15:25:28.507] $GNGGA,62527.9,3713.89803665,N,13701.410116146,E,4,16,0.78,92.264,M,37.565,M,5.9,7006*55,37.23163394416667,137.02350193576666,679505.7155369421,4122487.0765061346
1692,[2021-02-22 15:25:28.585] $GNGGA,62528.0,3713.898033919,N,13701.410120205,E,4,16,0.78,92.266,M,37.565,M,6.0,7006*5D,37.231633898649996,137.02350200341667,679505.7216468374,4122487.0715840757
1693,[2021-02-22 15:25:28.695] $GNGGA,62528.1,3713.898032472,N,13701.410124098,E,4,16,0.78,92.265,M,37.565,M,6.1,7006*5D,37.23163387453334,137.02350206830002,679505.7274605177,4122487.0690312367
1694,[2021-02-22 15:25:28.788] $GNGGA,62528.2,3713.898030865,N,13701.41012808,E,4,16,0.78,92.26299999999999,M,37.565,M,6.2,7006*56,37.23163384775,137.02350213466664,679505.7334121184,4122487.0661853254
1695,[2021-02-22 15:25:28.913] $GNGGA,62528.3,3713.898028103,N,13701.410132297,E,4,16,0.78,92.259,M,37.565,M,6.3,7006*50,37.23163380171667,137.02350220494998,679505.7397568708,4122487.061210935
1696,[2021-02-22 15:25:28.992] $GNGGA,62528.4,3713.89802502,N,13701.410134902,E,4,16,0.78,92.255,M,37.565,M,6.4,7006*50,37.23163375033333,137.02350224836667,679505.7437306927,4122487.0555919744
1697,[2021-02-22 15:25:29.085] $GNGGA,62528.5,3713.898018468,N,13701.410139988,E,4,16,0.78,92.25,M,37.565,M,6.5,7006*5C,37.231633641133335,137.0235023331333,679505.7515102352,4122487.0436363122
1698,[2021-02-22 15:25:29.195] $GNGGA,62528.6,3713.8980115790005,N,13701.410144135,E,4,16,0.78,92.25299999999999,M,37.565,M,6.6,7006*53,37.23163352631668,137.02350240225,679505.7579146295,4122487.031027767
1699,[2021-02-22 15:25:29.304] $GNGGA,62528.7,3713.898008134,N,13701.410147396002,E,4,16,0.78,92.251,M,37.565,M,6.7,7006*5C,37.2316334689,137.02350245660003,679505.7628727729,4122487.024760102
1700,[2021-02-22 15:25:29.382] $GNGGA,62528.8,3713.898004345,N,13701.410149751002,E,4,16,0.78,92.24700000000001,M,37.565,M,6.8,7006*52,37.23163340575001,137.02350249585,679505.7665048327,4122487.017827653
1701,[2021-02-22 15:25:29.492] $GNGGA,62528.9,3713.898000647,N,13701.410151846001,E,4,16,0.78,92.24600000000001,M,37.565,M,6.9,7006*50,37.231633344116666,137.0235025307667,679505.7697488439,4122487.0110552674
1702,[2021-02-22 15:25:29.585] $GNGGA,62529.0,3713.897999622,N,13701.410153311,E,4,15,0.93,92.245,M,37.565,M,7.0,7006*5B,37.231633327033336,137.0235025551833,679505.7719556151,4122487.0092060724
1703,[2021-02-22 15:25:29.710] $GNGGA,62529.1,3713.8980007709997,N,13701.410152346001,E,4,16,0.78,92.24799999999999,M,37.565,M,2.1,7006*57,37.23163334618333,137.0235025391,679505.7704832761,4122487.0113003827
1704,[2021-02-22 15:25:29.788] $GNGGA,62529.2,3713.898004867,N,13701.410151948001,E,4,16,0.78,92.25299999999999,M,37.565,M,2.2,7006*56,37.23163341445,137.0235025324667,679505.7697328435,4122487.0188624193
1705,[2021-02-22 15:25:29.882] $GNGGA,62529.3,3713.8980116529997,N,13701.410148173001,E,4,16,0.78,92.256,M,37.565,M,2.3,7006*56,37.23163352755,137.02350246955004,679505.7638825914,4122487.031292251
1706,[2021-02-22 15:25:29.991] $GNGGA,62529.4,3713.898017892,N,13701.410143038998,E,4,16,0.78,92.26100000000001,M,37.565,M,2.4,7006*53,37.231633631533334,137.0235023839833,679505.7560444372,4122487.042667573
1707,[2021-02-22 15:25:30.085] $GNGGA,62529.5,3713.898022064,N,13701.410138202,E,4,16,0.78,92.26799999999999,M,37.565,M,2.5,7006*5B,37.23163370106667,137.02350230336666,679505.7487271689,4122487.0502298395
1708,[2021-02-22 15:25:30.210] $GNGGA,62529.6,3713.898024043,N,13701.410134761001,E,4,16,0.78,92.26799999999999,M,37.565,M,2.6,7006*54,37.23163373405,137.0235022460167,679505.7435608248,4122487.0537807792
1709,[2021-02-22 15:25:30.288] $GNGGA,62529.7,3713.898022493,N,13701.410132365,E,4,16,0.78,92.26799999999999,M,37.565,M,2.7,7006*5D,37.23163370821667,137.0235022060833,679505.7400791907,4122487.050838671
1710,[2021-02-22 15:25:30.382] $GNGGA,62529.8,3713.898018393,N,13701.410130282,E,4,16,0.78,92.271,M,37.565,M,2.8,7006*51,37.23163363988333,137.02350217136666,679505.7371611992,4122487.043190814
1711,[2021-02-22 15:25:30.491] $GNGGA,62529.9,3713.898016267,N,13701.410129183001,E,4,15,0.93,92.26799999999999,M,37.565,M,2.9,7006*51,37.23163360445,137.02350215305,679505.7356201825,4122487.039224524
1712,[2021-02-22 15:25:30.585] $GNGGA,62530.0,3713.8980152209997,N,13701.410128434,E,4,15,0.93,92.26799999999999,M,37.565,M,3.0,7006*51,37.23163358701666,137.02350214056668,679505.7345540076,4122487.037266509
1713,[2021-02-22 15:25:30.710] $GNGGA,62530.1,3713.8980140740005,N,13701.410126988001,E,4,15,0.93,92.27,M,37.565,M,3.1,7006*5F,37.231633567900005,137.02350211646666,679505.7324611866,4122487.035099689
1714,[2021-02-22 15:25:30.788] $GNGGA,62530.2,3713.8980145329997,N,13701.410126662,E,4,15,0.93,92.272,M,37.565,M,3.2,7006*50,37.23163357554999,137.02350211103334,679505.7319609966,4122487.0359381977
1715,[2021-02-22 15:25:30.882] $GNGGA,62530.3,3713.898015825,N,13701.410127645,E,4,15,0.93,92.271,M,37.565,M,3.3,7006*5C,37.23163359708333,137.02350212741666,679505.7333634559,4122487.03835853
1716,[2021-02-22 15:25:30.991] $GNGGA,62530.4,3713.898017378,N,13701.410129758,E,4,15,0.93,92.26799999999999,M,37.565,M,3.4,7006*56,37.23163362296666,137.02350216263332,679505.7364264982,4122487.0412972406
1717,[2021-02-22 15:25:31.085] $GNGGA,62530.5,3713.898019394,N,13701.41013147,E,4,15,0.93,92.26899999999999,M,37.565,M,3.5,7006*5B,37.231633656566665,137.0235021911667,679505.7388782958,4122487.045079488
1718,[2021-02-22 15:25:31.210] $GNGGA,62530.6,3713.898021051,N,13701.410131298,E,4,15,0.93,92.26799999999999,M,37.565,M,3.6,7006*5B,37.23163368418333,137.02350218829997,679505.7385584525,4122487.048138293
1719,[2021-02-22 15:25:31.288] $GNGGA,62530.7,3713.898021005,N,13701.410131618999,E,4,15,0.93,92.271,M,37.565,M,3.7,7006*5F,37.23163368341667,137.02350219365,679505.7390349271,4122487.048063375
1720,[2021-02-22 15:25:31.382] $GNGGA,62530.8,3713.898022107,N,13701.410131244,E,4,15,0.93,92.271,M,37.565,M,3.8,7006*53,37.23163370178333,137.0235021874,679505.7384368612,4122487.0500894166
1721,[2021-02-22 15:25:31.491] $GNGGA,62530.9,3713.898024488,N,13701.410129586002,E,4,15,0.93,92.26899999999999,M,37.565,M,3.9,7006*5E,37.23163374146667,137.0235021597667,679505.735891099,4122487.0544401268
1722,[2021-02-22 15:25:31.585] $GNGGA,62531.0,3713.898025627,N,13701.410130626002,E,4,15,0.93,92.271,M,37.565,M,4.0,7006*56,37.23163376045,137.02350217710003,679505.7373838928,4122487.05657932
1723,[2021-02-22 15:25:31.710] $GNGGA,62531.1,3713.898027496,N,13701.410131907,E,4,15,0.93,92.271,M,37.565,M,4.1,7006*51,37.2316337916,137.02350219845,679505.7392041853,4122487.0600761003
1724,[2021-02-22 15:25:31.788] $GNGGA,62531.2,3713.8980301140004,N,13701.410132228999,E,4,15,0.93,92.274,M,37.565,M,4.2,7006*59,37.23163383523334,137.02350220381666,679505.7395768235,4122487.064927672
1725,[2021-02-22 15:25:31.882] $GNGGA,62531.3,3713.898032034,N,13701.410132538,E,4,15,0.93,92.272,M,37.565,M,4.3,7006*59,37.23163386723334,137.02350220896668,679505.7399578328,4122487.0684880405
1726,[2021-02-22 15:25:31.991] $GNGGA,62531.4,3713.898033804,N,13701.410132076999,E,4,15,0.93,92.27,M,37.565,M,4.4,7006*5F,37.231633896733335,137.0235022012833,679505.7392061889,4122487.071746679
1727,[2021-02-22 15:25:32.116] $GNGGA,62531.5,3713.898034789,N,13701.410131523,E,4,15,0.93,92.271,M,37.565,M,4.5,7006*54,37.23163391315,137.02350219205,679505.7383480677,4122487.0735506993
1728,[2021-02-22 15:25:32.194] $GNGGA,62531.6,3713.898036504,N,13701.410130953,E,4,15,0.93,92.26899999999999,M,37.565,M,4.6,7006*52,37.23163394173333,137.02350218254998,679505.737437426,4122487.076704182
1729,[2021-02-22 15:25:32.288] $GNGGA,62531.7,3713.8980374909997,N,13701.410132323,E,4,15,0.93,92.27,M,37.565,M,4.7,7006*59,37.23163395818333,137.02350220538332,679505.7394241922,4122487.0785727194
1730,[2021-02-22 15:25:32.398] $GNGGA,62531.8,3713.898037017,N,13701.410131032,E,4,15,0.93,92.27,M,37.565,M,4.8,7006*53,37.23163395028334,137.02350218386667,679505.7375339641,4122487.077655358
1731,[2021-02-22 15:25:32.507] $GNGGA,62531.9,3713.8980374840003,N,13701.410131061,E,4,15,0.93,92.27,M,37.565,M,4.9,7006*5B,37.23163395806667,137.02350218435004,679505.7375583875,4122487.0785198845
1732,[2021-02-22 15:25:32.585] $GNGGA,62532.0,3713.898037358,N,13701.410130428001,E,4,15,0.93,92.26799999999999,M,37.565,M,5.0,7006*5E,37.231633955966664,137.02350217380004,679505.7366273681,4122487.0782668656
1733,[2021-02-22 15:25:32.694] $GNGGA,62532.1,3713.898035857,N,13701.410128093,E,4,15,0.93,92.26899999999999,M,37.565,M,5.1,7006*54,37.231633930950004,137.02350213488336,679505.7332340021,4122487.0754173016
1734,[2021-02-22 15:25:32.788] $GNGGA,62532.2,3713.898036635,N,13701.410127203999,E,4,15,0.93,92.264,M,37.565,M,5.2,7006*53,37.23163394391668,137.02350212006667,679505.7318887026,4122487.0768279354
1735,[2021-02-22 15:25:32.913] $GNGGA,62532.3,3713.898036164,N,13701.410126526001,E,4,15,0.93,92.266,M,37.565,M,5.3,7006*54,37.23163393606667,137.0235021087667,679505.730904786,4122487.0759354956
1736,[2021-02-22 15:25:32.991] $GNGGA,62532.4,3713.898036942,N,13701.410127046001,E,4,15,0.93,92.265,M,37.565,M,5.4,7006*59,37.23163394903334,137.02350211743334,679505.731642937,4122487.077390666
1737,[2021-02-22 15:25:33.085] $GNGGA,62532.5,3713.89803689,N,13701.410128299,E,4,15,0.93,92.264,M,37.565,M,5.5,7006*59,37.23163394816667,137.02350213831667,679505.7334977712,4122487.0773341106
1738,[2021-02-22 15:25:33.194] $GNGGA,62532.6,3713.898035635,N,13701.410128049,E,4,15,0.93,92.266,M,37.565,M,5.6,7006*56,37.231633927249995,137.02350213415,679505.7331777142,4122487.0750053716
1739,[2021-02-22 15:25:33.304] $GNGGA,62532.7,3713.898034686,N,13701.410128885,E,4,15,0.93,92.266,M,37.565,M,5.7,7006*57,37.23163391143333,137.0235021480833,679505.7344513999,4122487.0732768383
1740,[2021-02-22 15:25:33.382] $GNGGA,62532.8,3713.8980326220003,N,13701.410130032,E,4,15,0.93,92.265,M,37.565,M,5.8,7006*51,37.23163387703333,137.02350216719998,679505.7362290311,4122487.0694961986
1741,[2021-02-22 15:25:33.491] $GNGGA,62532.9,3713.898028878,N,13701.410131102,E,4,15,0.93,92.26799999999999,M,37.565,M,5.9,7006*55,37.23163381463333,137.02350218503332,679505.7379592198,4122487.0626063473
1742,[2021-02-22 15:25:33.585] $GNGGA,62533.0,3713.89802657,N,13701.410130083,E,4,15,0.93,92.27,M,37.565,M,6.0,7006*5C,37.23163377616667,137.02350216805004,679505.7365436967,4122487.058306018
1743,[2021-02-22 15:25:33.710] $GNGGA,62533.1,3713.8980247140003,N,13701.410129021999,E,4,15,0.93,92.274,M,37.565,M,6.1,7006*59,37.23163374523334,137.02350215036665,679505.7350481895,4122487.0548402327
1744,[2021-02-22 15:25:33.788] $GNGGA,62533.2,3713.898021473,N,13701.410128996002,E,4,15,0.93,92.273,M,37.565,M,6.2,7006*5E,37.231633691216665,137.02350214993336,679505.7351378703,4122487.048845921
1745,[2021-02-22 15:25:33.882] $GNGGA,62533.3,3713.8980202,N,13701.41012803,E,4,15,0.93,92.27600000000001,M,37.565,M,6.3,7006*5D,37.23163367,137.02350213383332,679505.733759792,4122487.0464612637
1746,[2021-02-22 15:25:33.991] $GNGGA,62533.4,3713.898020957,N,13701.410127501002,E,4,15,0.93,92.27600000000001,M,37.565,M,6.4,7006*5C,37.23163368261667,137.02350212501668,679505.7329476498,4122487.047844441
1747,[2021-02-22 15:25:34.085] $GNGGA,62533.5,3713.8980204179998,N,13701.410128605,E,4,15,0.93,92.27799999999999,M,37.565,M,6.5,7006*5C,37.23163367363333,137.0235021434167,679505.7346014143,4122487.0468825805
1748,[2021-02-22 15:25:34.210] $GNGGA,62533.6,3713.8980190059997,N,13701.410129448,E,4,15,0.93,92.281,M,37.565,M,6.6,7006*51,37.231633650099994,137.02350215746668,679505.7359037535,4122487.0442980547
1749,[2021-02-22 15:25:34.288] $GNGGA,62533.7,3713.8980178290003,N,13701.410131354,E,4,15,0.93,92.28,M,37.565,M,6.7,7006*58,37.231633630483344,137.0235021892333,679505.7387686315,4122487.042181711
1750,[2021-02-22 15:25:34.382] $GNGGA,62533.8,3713.8980198179997,N,13701.410134168998,E,4,15,0.93,92.27600000000001,M,37.565,M,6.8,7006*54,37.23163366363333,137.02350223614997,679505.7428524656,4122487.0459488933
1751,[2021-02-22 15:25:34.491] $GNGGA,62533.9,3713.898021235,N,13701.410135645,E,4,15,0.93,92.27600000000001,M,37.565,M,6.9,7006*52,37.231633687249996,137.02350226075,679505.7449789764,4122487.048615965
1752,[2021-02-22 15:25:34.585] $GNGGA,62534.0,3713.898021468,N,13701.41013679,E,4,15,0.93,92.27799999999999,M,37.565,M,7.0,7006*5E,37.23163369113334,137.02350227983334,679505.7466628457,4122487.0490830406
1753,[2021-02-22 15:25:34.710] $GNGGA,62534.1,3713.898021693,N,13701.410136131,E,4,15,0.93,92.277,M,37.565,M,2.1,7006*5F,37.231633694883335,137.02350226885,679505.7456795044,4122487.0494782953
1754,[2021-02-22 15:25:34.788] $GNGGA,62534.2,3713.898020845,N,13701.41013529,E,4,15,0.93,92.28,M,37.565,M,2.2,7006*58,37.23163368075,137.02350225483332,679505.7444694621,4122487.04788353
1755,[2021-02-22 15:25:34.882] $GNGGA,62534.3,3713.8980208290004,N,13701.410135109,E,4,15,0.93,92.279,M,37.565,M,2.3,7006*57,37.23163368048335,137.02350225181667,679505.7442024547,4122487.0478482214
1756,[2021-02-22 15:25:34.991] $GNGGA,62534.4,3713.8980225329997,N,13701.410134596,E,4,15,0.93,92.27799999999999,M,37.565,M,2.4,7006*51,37.23163370888332,137.02350224326668,679505.7433765361,4122487.0509831617
1757,[2021-02-22 15:25:35.085] $GNGGA,62534.5,3713.8980225459995,N,13701.410134673,E,4,15,0.93,92.279,M,37.565,M,2.5,7006*5A,37.231633709099995,137.02350224455,679505.7434898784,4122487.0510096373
1758,[2021-02-22 15:25:35.210] $GNGGA,62534.6,3713.8980231940004,N,13701.410134226,E,4,15,0.93,92.28,M,37.565,M,2.6,7006*52,37.2316337199,137.02350223710002,679505.7428032968,4122487.052193836
1759,[2021-02-22 15:25:35.288] $GNGGA,62534.7,3713.898022908,N,13701.410133783,E,4,15,0.93,92.27799999999999,M,37.565,M,2.7,7006*54,37.23163371513333,137.02350222971666,679505.7421595477,4122487.05165094
1760,[2021-02-22 15:25:35.382] $GNGGA,62534.8,3713.89802419,N,13701.410134718999,E,4,15,0.93,92.28,M,37.565,M,2.8,7006*58,37.2316337365,137.02350224531662,679505.7434929025,4122487.0540512935
1761,[2021-02-22 15:25:35.491] $GNGGA,62534.9,3713.898024512,N,13701.41013678,E,4,15,0.93,92.281,M,37.565,M,2.9,7006*55,37.23163374186667,137.02350227966664,679505.7465277201,4122487.0547119076
1762,[2021-02-22 15:25:35.585] $GNGGA,62535.0,3713.8980244070003,N,13701.41013604,E,4,15,0.93,92.28200000000001,M,37.565,M,3.0,7006*58,37.23163374011668,137.02350226733333,679505.7454376556,4122487.0544943428
1763,[2021-02-22 15:25:35.710] $GNGGA,62535.1,3713.898024129,N,13701.410135066,E,4,15,0.93,92.28200000000001,M,37.565,M,3.1,7006*56,37.231633735483335,137.0235022511,679505.7440084188,4122487.0539494567
1764,[2021-02-22 15:25:35.788] $GNGGA,62535.2,3713.898023765,N,13701.410134136999,E,4,15,0.93,92.28,M,37.565,M,3.2,7006*59,37.23163372941666,137.02350223561663,679505.7426491175,4122487.053246955
1765,[2021-02-22 15:25:35.882] $GNGGA,62535.3,3713.898022216,N,13701.410132078001,E,4,15,0.93,92.28,M,37.565,M,3.3,7006*55,37.231633703600004,137.02350220130003,679505.7396657694,4122487.0503173512
1766,[2021-02-22 15:25:35.991] $GNGGA,62535.4,3713.8980217340004,N,13701.410130764,E,4,15,0.93,92.281,M,37.565,M,3.4,7006*5A,37.23163369556668,137.0235021794,679505.7377418446,4122487.049384467
1767,[2021-02-22 15:25:36.116] $GNGGA,62535.5,3713.8980212059996,N,13701.410130688,E,4,15,0.93,92.281,M,37.565,M,3.5,7006*5D,37.23163368676666,137.02350217813336,679505.73765034,4122487.048405648
1768,[2021-02-22 15:25:36.194] $GNGGA,62535.6,3713.898021289,N,13701.410131306002,E,4,15,0.93,92.28,M,37.565,M,3.6,7006*59,37.231633688150005,137.02350218843338,679505.7385608819,4122487.048578674
1769,[2021-02-22 15:25:36.288] $GNGGA,62535.7,3713.898021195,N,13701.410132164,E,4,15,0.93,92.279,M,37.565,M,3.7,7006*54,37.23163368658333,137.02350220273334,679505.7398332952,4122487.0484319627
1770,[2021-02-22 15:25:36.397] $GNGGA,62535.8,3713.898020357,N,13701.41013262,E,4,15,0.93,92.281,M,37.565,M,3.8,7006*59,37.23163367261667,137.02350221033333,679505.7405406978,4122487.0468966877
1771,[2021-02-22 15:25:36.507] $GNGGA,62535.9,3713.8980191809997,N,13701.410132945,E,4,15,0.93,92.28299999999999,M,37.565,M,3.9,7006*54,37.231633653016665,137.02350221575,679505.7410677559,4122487.0447322163
1772,[2021-02-22 15:25:36.585] $GNGGA,62536.0,3713.8980189390004,N,13701.410132824,E,4,15,0.93,92.28299999999999,M,37.565,M,4.0,7006*5C,37.23163364898334,137.02350221373334,679505.7408984023,4122487.0442808694
1773,[2021-02-22 15:25:36.694] $GNGGA,62536.1,3713.8980192579997,N,13701.410133299,E,4,15,0.93,92.28200000000001,M,37.565,M,4.1,7006*5D,37.2316336543,137.02350222164998,679505.7415881604,4122487.0448858
1774,[2021-02-22 15:25:36.788] $GNGGA,62536.2,3713.898018439,N,13701.410132717,E,4,15,0.93,92.287,M,37.565,M,4.2,7006*5A,37.23163364065,137.02350221194996,679505.7407599464,4122487.0433528507
1775,[2021-02-22 15:25:36.913] $GNGGA,62536.3,3713.898017364,N,13701.410131612,E,4,15,0.93,92.285,M,37.565,M,4.3,7006*5F,37.231633622733334,137.02350219353332,679505.7391685122,4122487.041329955
1776,[2021-02-22 15:25:36.991] $GNGGA,62536.4,3713.8980178240004,N,13701.41013242,E,4,15,0.93,92.281,M,37.565,M,4.4,7006*54,37.231633630400005,137.023502207,679505.7403450983,4122487.0422061607
1777,[2021-02-22 15:25:37.085] $GNGGA,62536.5,3713.8980175770002,N,13701.41013196,E,4,15,0.93,92.281,M,37.565,M,4.5,7006*55,37.23163362628333,137.02350219933334,679505.7396746711,4122487.0417348486
1778,[2021-02-22 15:25:37.194] $GNGGA,62536.6,3713.8980165559997,N,13701.410132463001,E,4,15,0.93,92.281,M,37.565,M,4.6,7006*5A,37.231633609266666,137.0235022077167,679505.7404588078,4122487.0398626425
1779,[2021-02-22 15:25:37.303] $GNGGA,62536.7,3713.898016108,N,13701.410133728,E,4,15,0.93,92.28,M,37.565,M,4.7,7006*59,37.2316336018,137.02350222880003,679505.74234704,4122487.039074155
1780,[2021-02-22 15:25:37.382] $GNGGA,62536.8,3713.89801485,N,13701.410133999,E,4,15,0.93,92.28,M,37.565,M,4.8,7006*5B,37.231633580833325,137.02350223331666,679505.7427974893,4122487.0367563376
1781,[2021-02-22 15:25:37.491] $GNGGA,62536.9,3713.8980148779997,N,13701.410134388001,E,4,15,0.93,92.279,M,37.565,M,4.9,7006*5A,37.2316335813,137.02350223980002,679505.7433715896,4122487.036820414
1782,[2021-02-22 15:25:37.585] $GNGGA,62537.0,3713.8980146940003,N,13701.410133441,E,4,15,0.93,92.27799999999999,M,37.565,M,5.0,7006*52,37.231633578233335,137.02350222401668,679505.7419785573,4122487.036450213
1783,[2021-02-22 15:25:37.710] $GNGGA,62537.1,3713.898014866,N,13701.410132912,E,4,15,0.93,92.281,M,37.565,M,5.1,7006*5D,37.23163358109999,137.02350221519998,679505.7411895366,4122487.0367515655
1784,[2021-02-22 15:25:37.788] $GNGGA,62537.2,3713.898016493,N,13701.410133561001,E,4,15,0.93,92.28,M,37.565,M,5.2,7006*51,37.23163360821666,137.0235022260167,679505.742084881,4122487.039780846
1785,[2021-02-22 15:25:37.882] $GNGGA,62537.3,3713.898017554,N,13701.410134198999,E,4,15,0.93,92.28299999999999,M,37.565,M,5.3,7006*5D,37.231633625899995,137.02350223665,679505.7429863289,4122487.041763089
1786,[2021-02-22 15:25:37.991] $GNGGA,62537.4,3713.8980194,N,13701.410135105,E,4,15,0.93,92.28,M,37.565,M,5.4,7006*54,37.231633656666666,137.02350225175,679505.7442530312,4122487.045205483
1787,[2021-02-22 15:25:38.116] $GNGGA,62537.5,3713.898019808,N,13701.410135436001,E,4,15,0.93,92.279,M,37.565,M,5.5,7006*53,37.23163366346667,137.02350225726667,679505.7447263447,4122487.0459704483
1788,[2021-02-22 15:25:38.194] $GNGGA,62537.6,3713.898020458,N,13701.410134614,E,4,15,0.93,92.28,M,37.565,M,5.6,7006*55,37.2316336743,137.02350224356667,679505.7434851798,4122487.0471464936
1789,[2021-02-22 15:25:38.288] $GNGGA,62537.7,3713.898020474,N,13701.410133684,E,4,15,0.93,92.28200000000001,M,37.565,M,5.7,7006*57,37.231633674566666,137.02350222806663,679505.7421093776,4122487.047146684
1790,[2021-02-22 15:25:38.397] $GNGGA,62537.8,3713.898020727,N,13701.410132512,E,4,15,0.93,92.28200000000001,M,37.565,M,5.8,7006*5F,37.23163367878334,137.0235022085333,679505.7403663707,4122487.0475775036
1791,[2021-02-22 15:25:38.491] $GNGGA,62537.9,3713.898021372,N,13701.410130978998,E,4,15,0.93,92.28200000000001,M,37.565,M,5.9,7006*59,37.23163368953334,137.02350218298332,679505.7380740683,4122487.0487218276
1792,[2021-02-22 15:25:38.616] $GNGGA,62538.0,3713.898020543,N,13701.410131387,E,4,15,0.93,92.281,M,37.565,M,6.0,7006*59,37.23163367571666,137.0235021897833,679505.7387101366,4122487.0472016763
1793,[2021-02-22 15:25:38.694] $GNGGA,62538.1,3713.89802033,N,13701.410130661001,E,4,15,0.93,92.28299999999999,M,37.565,M,1.1,7006*52,37.231633672166666,137.02350217768333,679505.7376450425,4122487.046784833
1794,[2021-02-22 15:25:38.788] $GNGGA,62538.2,3713.898020289,N,13701.410130156,E,4,15,0.93,92.28200000000001,M,37.565,M,1.2,7006*53,37.23163367148334,137.02350216926666,679505.7368999335,4122487.0466930512
1795,[2021-02-22 15:25:38.897] $GNGGA,62538.3,3713.898018781,N,13701.410130656,E,4,15,0.93,92.281,M,37.565,M,1.3,7006*51,37.23163364635,137.02350217760002,679505.7376988863,4122487.0439201547
1796,[2021-02-22 15:25:38.991] $GNGGA,62538.4,3713.898017018,N,13701.410131325,E,4,15,0.93,92.28,M,37.565,M,1.4,7006*58,37.23163361696666,137.02350218875,679505.7387578117,4122487.0406810343
1797,[2021-02-22 15:25:39.116] $GNGGA,62538.5,3713.8980160290002,N,13701.410131548,E,4,15,0.93,92.28,M,37.565,M,1.5,7006*56,37.23163360048334,137.02350219246665,679505.7391266508,4122487.0388591536
1798,[2021-02-22 15:25:39.194] $GNGGA,62538.6,3713.898015846,N,13701.410132711,E,4,15,0.93,92.281,M,37.565,M,1.6,7006*58,37.23163359743334,137.02350221185003,679505.7408535875,4122487.0385575
1799,[2021-02-22 15:25:39.288] $GNGGA,62538.7,3713.89801564,N,13701.410132901,E,4,15,0.93,92.281,M,37.565,M,1.7,7006*5F,37.231633593999995,137.02350221501666,679505.7411426763,4122487.0381825543
1800,[2021-02-22 15:25:39.397] $GNGGA,62538.8,3713.898014785,N,13701.410133018999,E,4,15,0.93,92.28200000000001,M,37.565,M,1.8,7006*54,37.231633579749996,137.0235022169833,679505.7413509559,4122487.036605158
1801,[2021-02-22 15:25:39.491] $GNGGA,62538.9,3713.8980122370003,N,13701.41013268,E,4,15,0.93,92.28200000000001,M,37.565,M,1.9,7006*59,37.23163353728334,137.02350221133332,679505.7409504161,4122487.0318824984
1802,[2021-02-22 15:25:39.616] $GNGGA,62539.0,3713.8980103579997,N,13701.410132286,E,4,15,0.93,92.28299999999999,M,37.565,M,2.0,7006*52,37.23163350596666,137.02350220476666,679505.7404420985,4122487.0283952616
1803,[2021-02-22 15:25:39.694] $GNGGA,62539.1,3713.8980107929997,N,13701.410133144,E,4,15,0.93,92.281,M,37.565,M,2.1,7006*5F,37.23163351321666,137.02350221906667,679505.741693604,4122487.029226815
1804,[2021-02-22 15:25:39.788] $GNGGA,62539.2,3713.898010284,N,13701.410132457,E,4,15,0.93,92.286,M,37.565,M,2.2,7006*5D,37.23163350473334,137.02350220761664,679505.7406978752,4122487.0282638227
1805,[2021-02-22 15:25:39.881] $GNGGA,62539.3,3713.898010178,N,13701.410131906001,E,4,15,0.93,92.286,M,37.565,M,2.3,7006*57,37.231633502966666,137.02350219843336,679505.7398873214,4122487.0280503817
1806,[2021-02-22 15:25:39.991] $GNGGA,62539.4,3713.898009669,N,13701.410131118999,E,4,15,0.93,92.289,M,37.565,M,2.4,7006*51,37.23163349448334,137.02350218531666,679505.7387437236,4122487.0270842267
1807,[2021-02-22 15:25:40.116] $GNGGA,62539.5,3713.8980098790003,N,13701.410130968,E,4,15,0.93,92.291,M,37.565,M,2.5,7006*58,37.23163349798333,137.0235021828,679505.7385121429,4122487.0274677994
