,Format,Time,Latitude,LatType,Longitude,LonType,Status,Satellite,LevelAccuracy,Altitude(sea),M(sea),Altitude(geoid),M(geoid),DGPS use,checksum,Lat,Lon,UTM_X,UTM_Y
1075,[2021-02-22 15:29:18.881] $GNGGA,62918.3,3713.897999758,N,13701.4100792,E,4,15,0.93,92.564,M,37.565,M,181.3,2006*5F,37.2316333293,137.02350132000004,679505.6623642924,4122487.0071149576
1076,[2021-02-22 15:29:18.990] $GNGGA,62918.4,3713.8980323990004,N,13701.410162156,E,4,15,0.93,92.742,M,37.565,M,181.4,2006*5C,37.231633873316675,137.0235027026,679505.7837387472,4122487.0700992374
1077,[2021-02-22 15:29:19.115] $GNGGA,62918.5,3713.897990655,N,13701.410080171001,E,4,13,1.1,92.527,M,37.565,M,181.5,2006*52,37.23163317758333,137.02350133618336,679505.6641599415,4122486.9903117297
1078,[2021-02-22 15:29:19.193] $GNGGA,62918.6,3713.897990472,N,13701.41007858,E,4,13,1.1,92.527,M,37.565,M,181.6,2006*58,37.231633174533336,137.02350130966667,679505.6618146044,4122486.989923023
1079,[2021-02-22 15:29:19.287] $GNGGA,62918.7,3713.897989858,N,13701.410077075,E,4,13,1.1,92.527,M,37.565,M,181.7,2006*54,37.23163316430001,137.02350128458332,679505.6596134718,4122486.988739998
1080,[2021-02-22 15:29:19.396] $GNGGA,62918.8,3713.89799056,N,13701.41007395,E,4,12,1.14,92.524,M,37.565,M,181.8,2006*56,37.231633175999995,137.02350123250002,679505.6549648708,4122486.989939406
1081,[2021-02-22 15:29:19.490] $GNGGA,62918.9,3713.897991834,N,13701.410073576,E,4,12,1.14,92.52600000000001,M,37.565,M,181.9,2006*51,37.23163319723333,137.02350122626666,679505.6543614815,4122486.9922835557
1082,[2021-02-22 15:29:19.615] $GNGGA,62919.0,3713.897993945,N,13701.410073843,E,4,12,1.14,92.522,M,37.565,M,182.0,2006*59,37.23163323241667,137.0235012307167,679505.6546728383,4122486.9961958085
1083,[2021-02-22 15:29:19.693] $GNGGA,62919.1,3713.897997655,N,13701.410079516001,E,4,14,1.08,92.545,M,37.565,M,182.1,2006*5E,37.231633294249995,137.02350132526666,679505.6629146864,4122487.0032359264
1084,[2021-02-22 15:29:19.787] $GNGGA,62919.2,3713.897988439,N,13701.410121925,E,4,14,1.08,92.52,M,37.565,M,182.2,2006*5B,37.231633140650004,137.02350203208331,679505.7259880614,4122486.98753357
1085,[2021-02-22 15:29:19.896] $GNGGA,62919.3,3713.89798682,N,13701.410120033,E,4,14,1.08,92.524,M,37.565,M,182.3,2006*5A,37.23163311366666,137.02350200055,679505.7232544152,4122486.9844797933
1086,[2021-02-22 15:29:19.990] $GNGGA,62919.4,3713.8979895609996,N,13701.410058671001,E,4,14,1.08,92.63600000000001,M,37.565,M,182.4,2006*53,37.23163315934999,137.02350097785003,679505.6324117155,4122486.987609021
1087,[2021-02-22 15:29:20.115] $GNGGA,62919.5,3713.897984927,N,13701.410116893001,E,4,14,1.08,92.529,M,37.565,M,182.5,2006*54,37.231633082116666,137.02350194821668,679505.7186862176,4122486.980879869
1088,[2021-02-22 15:29:20.193] $GNGGA,62919.6,3713.897988923,N,13701.410077012,E,4,14,1.08,92.54,M,37.565,M,182.6,2006*54,37.23163314871667,137.02350128353334,679505.6595572808,4122486.987008938
1089,[2021-02-22 15:29:20.287] $GNGGA,62919.7,3713.8979863209997,N,13701.410111465,E,4,14,1.08,92.531,M,37.565,M,182.7,2006*51,37.23163310534999,137.02350185775,679505.7106048707,4122486.9832861754
1090,[2021-02-22 15:29:20.396] $GNGGA,62919.8,3713.897986835,N,13701.410110626999,E,4,14,1.08,92.53,M,37.565,M,182.8,2006*5B,37.231633113916665,137.02350184378335,679505.7093454241,4122486.9842102136
1091,[2021-02-22 15:29:20.490] $GNGGA,62919.9,3713.8979875590003,N,13701.410108818998,E,4,14,1.08,92.53200000000001,M,37.565,M,182.9,2006*55,37.231633125983336,137.02350181364997,679505.7066433592,4122486.985491935
1092,[2021-02-22 15:29:20.615] $GNGGA,62920.0,3713.897987695,N,13701.410108585,E,4,14,1.08,92.53200000000001,M,37.565,M,183.0,2006*55,37.23163312825,137.02350180975,679505.7062919759,4122486.9857360413
1093,[2021-02-22 15:29:20.693] $GNGGA,62920.1,3713.8979873959997,N,13701.410111721001,E,4,14,1.08,92.53399999999999,M,37.565,M,183.1,2006*51,37.23163312326666,137.02350186201667,679505.7109409152,4122486.985282235
1094,[2021-02-22 15:29:20.787] $GNGGA,62920.2,3713.897991815,N,13701.410086353,E,4,15,0.93,92.53299999999999,M,37.565,M,183.2,2006*5D,37.23163319691667,137.02350143921666,679505.6732552401,4122486.992652296
1095,[2021-02-22 15:29:20.896] $GNGGA,62920.3,3713.897988132,N,13701.41011723,E,4,15,0.93,92.536,M,37.565,M,183.3,2006*51,37.23163313553334,137.02350195383335,679505.7190578299,4122486.9868174377
1096,[2021-02-22 15:29:20.990] $GNGGA,62920.4,3713.8979911109996,N,13701.410091841,E,4,15,0.93,92.538,M,37.565,M,183.4,2006*55,37.231633185183334,137.02350153068335,679505.6813980318,4122486.9915238824
1097,[2021-02-22 15:29:21.115] $GNGGA,62920.5,3713.897991543,N,13701.410093145,E,4,15,0.93,92.536,M,37.565,M,183.5,2006*57,37.231633192383335,137.02350155241666,679505.6833091401,4122486.992363986
1098,[2021-02-22 15:29:21.193] $GNGGA,62920.6,3713.897987547,N,13701.410119262,E,4,15,0.93,92.54,M,37.565,M,183.6,2006*50,37.23163312578333,137.02350198769997,679505.7220856184,4122486.985799843
1099,[2021-02-22 15:29:21.287] $GNGGA,62920.7,3713.897986875,N,13701.410119075,E,4,15,0.93,92.542,M,37.565,M,183.7,2006*5B,37.23163311458333,137.02350198458336,679505.7218356768,4122486.984551221
1100,[2021-02-22 15:29:21.396] $GNGGA,62920.8,3713.8979853220003,N,13701.410120207,E,4,15,0.93,92.541,M,37.565,M,183.8,2006*5F,37.2316330887,137.02350200345,679505.7235709256,4122486.9817150845
1101,[2021-02-22 15:29:21.490] $GNGGA,62920.9,3713.897983232,N,13701.410121193001,E,4,15,0.93,92.544,M,37.565,M,183.9,2006*53,37.23163305386667,137.02350201988335,679505.7251115197,4122486.9778812756
1102,[2021-02-22 15:29:21.615] $GNGGA,62921.0,3713.89798191,N,13701.410122923,E,4,15,0.93,92.546,M,37.565,M,184.0,2006*5E,37.23163303183333,137.02350204871667,679505.727721883,4122486.9754912215
1103,[2021-02-22 15:29:21.693] $GNGGA,62921.1,3713.897982956,N,13701.410102525,E,4,15,0.93,92.53399999999999,M,37.565,M,184.1,2006*52,37.23163304926667,137.02350170875,679505.6975185561,4122486.976780788
1104,[2021-02-22 15:29:21.787] $GNGGA,62921.2,3713.8979786170003,N,13701.410125007,E,4,15,0.93,92.544,M,37.565,M,184.2,2006*5A,37.23163297695001,137.02350208344998,679505.7309336144,4122486.9694674453
1105,[2021-02-22 15:29:21.896] $GNGGA,62921.3,3713.897979238,N,13701.410126576002,E,4,15,0.93,92.54299999999999,M,37.565,M,184.3,2006*55,37.231632987299996,137.02350210960003,679505.7332291091,4122486.970665437
1111,[2021-02-22 15:29:22.505] $GNGGA,62921.9,3713.897983726,N,13701.410124195,E,4,15,0.93,92.539,M,37.565,M,184.9,2006*5C,37.231633062099995,137.02350206991665,679505.7295309633,4122486.9788897056
1112,[2021-02-22 15:29:22.583] $GNGGA,62922.0,3713.897982988,N,13701.410122126,E,4,15,0.93,92.538,M,37.565,M,185.0,2006*5A,37.2316330498,137.02350203543335,679505.7265007664,4122486.977459544
1113,[2021-02-22 15:29:22.693] $GNGGA,62922.1,3713.8979833209996,N,13701.410120896,E,4,15,0.93,92.541,M,37.565,M,185.1,2006*5C,37.23163305534999,137.02350201493334,679505.7246688344,4122486.9780364702
1114,[2021-02-22 15:29:22.787] $GNGGA,62922.2,3713.8979867340004,N,13701.410101963998,E,4,15,0.93,92.53399999999999,M,37.565,M,185.2,2006*54,37.23163311223334,137.02350169939996,679505.6965396655,4122486.983749604
1115,[2021-02-22 15:29:22.912] $GNGGA,62922.3,3713.8979854,N,13701.410119567,E,4,15,0.93,92.541,M,37.565,M,185.3,2006*57,37.231633089999995,137.0235019927833,679505.722621487,4122486.9818390976
1116,[2021-02-22 15:29:22.990] $GNGGA,62922.4,3713.8979871670003,N,13701.4101188,E,4,15,0.93,92.542,M,37.565,M,185.4,2006*5F,37.23163311945,137.02350198000002,679505.7214174962,4122486.9850825164
1117,[2021-02-22 15:29:23.083] $GNGGA,62922.5,3713.8979885790004,N,13701.41011796,E,4,15,0.93,92.541,M,37.565,M,185.5,2006*50,37.23163314298335,137.023501966,679505.7201195904,4122486.9876671373
1118,[2021-02-22 15:29:23.193] $GNGGA,62922.6,3713.897989644,N,13701.410117015,E,4,15,0.93,92.54299999999999,M,37.565,M,185.6,2006*55,37.23163316073333,137.02350195025002,679505.7186801448,4122486.989606739
1119,[2021-02-22 15:29:23.302] $GNGGA,62922.7,3713.8979894390004,N,13701.410117417,E,4,15,0.93,92.544,M,37.565,M,185.7,2006*5C,37.23163315731667,137.02350195694996,679505.719282669,4122486.989240346
1120,[2021-02-22 15:29:23.380] $GNGGA,62922.8,3713.8979912679997,N,13701.410100156001,E,4,15,0.93,92.535,M,37.565,M,185.8,2006*57,37.2316331878,137.0235016692667,679505.6936869933,4122486.9920770517
1121,[2021-02-22 15:29:23.490] $GNGGA,62922.9,3713.897991848,N,13701.410100217,E,4,15,0.93,92.537,M,37.565,M,185.9,2006*5B,37.231633197466664,137.0235016702833,679505.6937542586,4122486.9931515567
1122,[2021-02-22 15:29:23.583] $GNGGA,62923.0,3713.897988989,N,13701.410116797,E,4,15,0.93,92.54700000000001,M,37.565,M,186.0,2006*50,37.23163314981667,137.02350194661668,679505.7183836868,4122486.9883885765
1123,[2021-02-22 15:29:23.708] $GNGGA,62923.1,3713.897992177,N,13701.410103055,E,4,15,0.93,92.538,M,37.565,M,186.1,2006*57,37.23163320295,137.02350171758331,679505.6979377284,4122486.9938496742
1124,[2021-02-22 15:29:23.786] $GNGGA,62923.2,3713.8979922659996,N,13701.410102947,E,4,15,0.93,92.536,M,37.565,M,186.2,2006*51,37.23163320443333,137.02350171578334,679505.6977745164,4122486.994010845
1125,[2021-02-22 15:29:23.880] $GNGGA,62923.3,3713.897992367,N,13701.410103219,E,4,15,0.93,92.535,M,37.565,M,186.3,2006*53,37.23163320611667,137.02350172031663,679505.6981727184,4122486.99420622
1126,[2021-02-22 15:29:23.990] $GNGGA,62923.4,3713.8979933170003,N,13701.410103789,E,4,15,0.93,92.531,M,37.565,M,186.4,2006*5D,37.23163322195001,137.02350172981664,679505.6989780079,4122486.995981048
1127,[2021-02-22 15:29:24.083] $GNGGA,62923.5,3713.8979900490003,N,13701.410118708001,E,4,15,0.93,92.542,M,37.565,M,186.5,2006*51,37.23163316748333,137.02350197846667,679505.7211675275,4122486.9904092094
1128,[2021-02-22 15:29:24.208] $GNGGA,62923.6,3713.897990606,N,13701.410119224,E,4,15,0.93,92.544,M,37.565,M,186.6,2006*50,37.23163317676667,137.02350198706665,679505.7219085007,4122486.991455566
1129,[2021-02-22 15:29:24.286] $GNGGA,62923.7,3713.8979893090004,N,13701.41011971,E,4,15,0.93,92.542,M,37.565,M,186.7,2006*56,37.23163315515001,137.0235019951667,679505.7226784138,4122486.989072423
1130,[2021-02-22 15:29:24.380] $GNGGA,62923.8,3713.897989507,N,13701.410121062,E,4,15,0.93,92.538,M,37.565,M,186.8,2006*5A,37.23163315845,137.0235020177,679505.7246697487,4122486.9894813136
1131,[2021-02-22 15:29:24.490] $GNGGA,62923.9,3713.8979904020002,N,13701.410107967,E,4,15,0.93,92.529,M,37.565,M,186.9,2006*5E,37.231633173366674,137.02350179945003,679505.7052711445,4122486.990722484
1132,[2021-02-22 15:29:24.583] $GNGGA,62924.0,3713.897988875,N,13701.410119887,E,4,15,0.93,92.541,M,37.565,M,187.0,2006*53,37.23163314791667,137.02350199811664,679505.7229572892,4122486.9882754316
1133,[2021-02-22 15:29:24.708] $GNGGA,62924.1,3713.8979906990003,N,13701.410106976002,E,4,15,0.93,92.535,M,37.565,M,187.1,2006*54,37.23163317831667,137.02350178293335,679505.703794038,4122486.9912403934
1134,[2021-02-22 15:29:24.786] $GNGGA,62924.2,3713.897991898,N,13701.410106148998,E,4,15,0.93,92.535,M,37.565,M,187.2,2006*5E,37.231633198299996,137.02350176914996,679505.7025237703,4122486.9934315262
1135,[2021-02-22 15:29:24.880] $GNGGA,62924.3,3713.8979912140003,N,13701.410119333,E,4,15,0.93,92.54299999999999,M,37.565,M,187.3,2006*50,37.231633186900005,137.02350198888337,679505.7220456465,4122486.9925833666
1136,[2021-02-22 15:29:24.990] $GNGGA,62924.4,3713.897992217,N,13701.410118345,E,4,15,0.93,92.542,M,37.565,M,187.4,2006*51,37.23163320361667,137.02350197241668,679505.7205450641,4122486.994406956
1137,[2021-02-22 15:29:25.083] $GNGGA,62924.5,3713.8979944509997,N,13701.410104503999,E,4,15,0.93,92.53200000000001,M,37.565,M,187.5,2006*5A,37.231633240849995,137.0235017417333,679505.6999904285,4122486.99810072
1138,[2021-02-22 15:29:25.208] $GNGGA,62924.6,3713.8979934940003,N,13701.410114791,E,4,15,0.93,92.541,M,37.565,M,187.6,2006*5F,37.23163322490001,137.02350191318334,679505.7152393756,4122486.996656136
1139,[2021-02-22 15:29:25.286] $GNGGA,62924.7,3713.897996275,N,13701.410101004,E,4,15,0.93,92.53,M,37.565,M,187.7,2006*5A,37.23163327125,137.0235016834,679505.6947429708,4122487.0013631578
1140,[2021-02-22 15:29:25.380] $GNGGA,62924.8,3713.8979948779997,N,13701.410111238001,E,4,15,0.93,92.54299999999999,M,37.565,M,187.8,2006*57,37.23163324796666,137.0235018539667,679505.7099309424,4122486.999103219
1141,[2021-02-22 15:29:25.489] $GNGGA,62924.9,3713.89799603,N,13701.410098905,E,4,15,0.93,92.535,M,37.565,M,187.9,2006*55,37.231633267166664,137.02350164841667,679505.6916489213,4122487.000843739
1142,[2021-02-22 15:29:25.583] $GNGGA,62925.0,3713.8979967709997,N,13701.410100838,E,4,15,0.93,92.53299999999999,M,37.565,M,188.0,2006*50,37.231633279516664,137.02350168063336,679505.6944779047,4122487.0022751503
1143,[2021-02-22 15:29:25.708] $GNGGA,62925.1,3713.897996655,N,13701.410101635,E,4,15,0.93,92.53,M,37.565,M,188.1,2006*56,37.23163327758334,137.02350169391667,679505.6956609917,4122487.0020858296
1144,[2021-02-22 15:29:25.786] $GNGGA,62925.2,3713.897995663,N,13701.410113752,E,4,15,0.93,92.541,M,37.565,M,188.2,2006*55,37.23163326105001,137.02350189586664,679505.7136172869,4122487.0006343634
1145,[2021-02-22 15:29:25.880] $GNGGA,62925.3,3713.897993541,N,13701.410113598,E,4,15,0.93,92.544,M,37.565,M,188.3,2006*51,37.23163322568333,137.02350189330002,679505.7134734632,4122486.9967053407
1146,[2021-02-22 15:29:25.989] $GNGGA,62925.4,3713.897994445,N,13701.410116248,E,4,15,0.93,92.54,M,37.565,M,188.4,2006*58,37.23163324075,137.02350193746665,679505.7173562074,4122486.9984608484
1147,[2021-02-22 15:29:26.083] $GNGGA,62925.5,3713.897994862,N,13701.410117205,E,4,15,0.93,92.539,M,37.565,M,188.5,2006*57,37.231633247699996,137.02350195341668,679505.718754815,4122486.999262244
1148,[2021-02-22 15:29:26.208] $GNGGA,62925.6,3713.8979931759995,N,13701.410116423998,E,4,15,0.93,92.54299999999999,M,37.565,M,188.6,2006*55,37.2316332196,137.02350194039997,679505.717666618,4122486.9961196855
1149,[2021-02-22 15:29:26.286] $GNGGA,62925.7,3713.897994105,N,13701.410117222,E,4,15,0.93,92.539,M,37.565,M,188.7,2006*5A,37.231633235083336,137.0235019537,679505.7188098751,4122486.9978628843
1150,[2021-02-22 15:29:26.396] $GNGGA,62925.8,3713.897994758,N,13701.410117668998,E,4,15,0.93,92.537,M,37.565,M,188.8,2006*51,37.23163324596666,137.02350196114998,679505.719445028,4122486.9990845863
1151,[2021-02-22 15:29:26.489] $GNGGA,62925.9,3713.897995832,N,13701.410106628999,E,4,15,0.93,92.53,M,37.565,M,188.9,2006*50,37.23163326386667,137.02350177714996,679505.7030780162,4122487.0007217354
1152,[2021-02-22 15:29:26.614] $GNGGA,62926.0,3713.897994351,N,13701.410115953999,E,4,15,0.93,92.537,M,37.565,M,189.0,2006*5D,37.23163323918334,137.02350193256666,679505.7169251946,4122486.9982777247
1153,[2021-02-22 15:29:26.693] $GNGGA,62926.1,3713.898001762,N,13701.410110234,E,4,15,0.93,92.48700000000001,M,37.565,M,189.1,2006*51,37.2316333627,137.0235018372333,679505.7081742109,4122487.0118018696
1154,[2021-02-22 15:29:26.786] $GNGGA,62926.2,3713.897998543,N,13701.410101221001,E,4,15,0.93,92.54799999999999,M,37.565,M,189.2,2006*50,37.23163330905,137.02350168701668,679505.6949741852,4122487.0055641653
1155,[2021-02-22 15:29:26.896] $GNGGA,62926.3,3713.898001351,N,13701.410110637,E,4,15,0.93,92.485,M,37.565,M,189.3,2006*50,37.23163335585,137.02350184395,679505.7087863641,4122487.011054557
1156,[2021-02-22 15:29:27.005] $GNGGA,62926.4,3713.897994483,N,13701.410114738,E,4,15,0.93,92.536,M,37.565,M,189.4,2006*51,37.23163324138333,137.02350191230002,679505.7151219115,4122486.9984833896
1157,[2021-02-22 15:29:27.083] $GNGGA,62926.5,3713.897995648,N,13701.410105669,E,4,15,0.93,92.525,M,37.565,M,189.5,2006*52,37.2316332608,137.02350176115002,679505.7016657685,4122487.0003511235
1158,[2021-02-22 15:29:27.192] $GNGGA,62926.6,3713.897994935,N,13701.410114343998,E,4,15,0.93,92.536,M,37.565,M,189.6,2006*5E,37.23163324891667,137.0235019057333,679505.7145214406,4122486.999306807
1159,[2021-02-22 15:29:27.286] $GNGGA,62926.7,3713.898002516,N,13701.41010852,E,4,15,0.93,92.49,M,37.565,M,189.7,2006*5E,37.23163337526667,137.02350180866665,679505.7056099596,4122487.0131420405
1160,[2021-02-22 15:29:27.411] $GNGGA,62926.8,3713.897996883,N,13701.410102708998,E,4,15,0.93,92.52600000000001,M,37.565,M,189.8,2006*5B,37.23163328138333,137.02350171181666,679505.6972400721,4122487.00254141
1161,[2021-02-22 15:29:27.489] $GNGGA,62926.9,3713.897992018,N,13701.410105826,E,4,15,0.93,92.508,M,37.565,M,189.9,2006*5C,37.231633200299996,137.02350176376666,679505.7020414198,4122486.9936432308
1162,[2021-02-22 15:29:27.583] $GNGGA,62927.0,3713.897995515,N,13701.410109862,E,4,15,0.93,92.535,M,37.565,M,190.0,2006*58,37.23163325858333,137.02350183103331,679505.7078711002,4122487.000237709
1163,[2021-02-22 15:29:27.692] $GNGGA,62927.1,3713.8979947340003,N,13701.41010882,E,4,15,0.93,92.538,M,37.565,M,190.1,2006*52,37.23163324556668,137.02350181366666,679505.7063611968,4122486.998760492
1164,[2021-02-22 15:29:27.802] $GNGGA,62927.2,3713.897995288,N,13701.410107661999,E,4,15,0.93,92.54,M,37.565,M,190.2,2006*59,37.2316332548,137.02350179436667,679505.7046269937,4122486.9997483836
1165,[2021-02-22 15:29:27.880] $GNGGA,62927.3,3713.8979978370003,N,13701.410109046,E,4,15,0.93,92.55,M,37.565,M,190.3,2006*5A,37.23163329728334,137.02350181743333,679505.7065727097,4122487.0045059253
1166,[2021-02-22 15:29:27.989] $GNGGA,62927.4,3713.897997165,N,13701.410109187,E,4,15,0.93,92.551,M,37.565,M,190.4,2006*59,37.23163328608334,137.02350181978335,679505.7068077702,4122487.003267672
1167,[2021-02-22 15:29:28.083] $GNGGA,62927.5,3713.8979983390004,N,13701.41010993,E,4,15,0.93,92.54899999999999,M,37.565,M,190.5,2006*50,37.23163330565,137.0235018321667,679505.7078600154,4122487.0054622027
1168,[2021-02-22 15:29:28.192] $GNGGA,62927.6,3713.897994386,N,13701.410104122,E,4,15,0.93,92.514,M,37.565,M,190.6,2006*56,37.231633239766666,137.02350173536664,679505.6994281458,4122486.997968443
1169,[2021-02-22 15:29:28.302] $GNGGA,62927.7,3713.8979992590002,N,13701.410110546001,E,4,15,0.93,92.552,M,37.565,M,190.7,2006*59,37.231633320983335,137.02350184243335,679505.7087345077,4122487.0071830046
1170,[2021-02-22 15:29:28.380] $GNGGA,62927.8,3713.89800389,N,13701.410105646999,E,4,15,0.93,92.491,M,37.565,M,190.8,2006*5B,37.23163339816667,137.02350176078332,679505.7013074129,4122487.015592126
1171,[2021-02-22 15:29:28.489] $GNGGA,62927.9,3713.897998693,N,13701.410101274,E,4,15,0.93,92.535,M,37.565,M,190.9,2006*5D,37.23163331154999,137.02350168789997,679505.6950466201,4122487.0058432315
1172,[2021-02-22 15:29:28.583] $GNGGA,62928.0,3713.89800477,N,13701.410106684,E,4,15,0.93,92.493,M,37.565,M,191.0,2006*5D,37.23163341283334,137.02350177806667,679505.7028060117,4122487.0172522645
1173,[2021-02-22 15:29:28.692] $GNGGA,62928.1,3713.897997023,N,13701.410110642,E,4,15,0.93,92.544,M,37.565,M,191.1,2006*56,37.23163328371666,137.02350184403335,679505.7089648532,4122487.003051066
1174,[2021-02-22 15:29:28.802] $GNGGA,62928.2,3713.898001547,N,13701.410109133001,E,4,15,0.93,92.501,M,37.565,M,191.2,2006*50,37.23163335911667,137.02350181888337,679505.706554696,4122487.011369473
1175,[2021-02-22 15:29:28.880] $GNGGA,62928.3,3713.897994815,N,13701.410112848998,E,4,15,0.93,92.55,M,37.565,M,191.3,2006*5A,37.23163324691667,137.02350188081664,679505.7123155678,4122486.999037639
1176,[2021-02-22 15:29:28.989] $GNGGA,62928.4,3713.8979904609996,N,13701.410108108,E,4,15,0.93,92.52600000000001,M,37.565,M,191.4,2006*57,37.231633174349994,137.02350180180002,679505.7054773048,4122486.9908360466
1177,[2021-02-22 15:29:29.083] $GNGGA,62928.5,3713.8979904370003,N,13701.410108791999,E,4,15,0.93,92.523,M,37.565,M,191.5,2006*54,37.23163317395001,137.02350181319997,679505.7064896615,4122486.9908132865
1178,[2021-02-22 15:29:29.192] $GNGGA,62928.6,3713.897992838,N,13701.410112323001,E,4,15,0.93,92.553,M,37.565,M,191.6,2006*57,37.23163321396666,137.02350187205002,679505.7116159459,4122486.995365001
1179,[2021-02-22 15:29:29.302] $GNGGA,62928.7,3713.8979910129997,N,13701.410108741002,E,4,15,0.93,92.521,M,37.565,M,191.7,2006*5B,37.231633183549995,137.02350181235002,679505.7063914835,4122486.991876853
1180,[2021-02-22 15:29:29.380] $GNGGA,62928.8,3713.897993329,N,13701.410112839,E,4,15,0.93,92.552,M,37.565,M,191.8,2006*5C,37.23163322215,137.02350188065,679505.712359528,4122486.996289303
1181,[2021-02-22 15:29:29.489] $GNGGA,62928.9,3713.89799274,N,13701.410112388001,E,4,15,0.93,92.553,M,37.565,M,191.9,2006*56,37.231633212333335,137.02350187313334,679505.7117159328,4122486.9951858264
1182,[2021-02-22 15:29:29.583] $GNGGA,62929.0,3713.897993871,N,13701.41011321,E,4,15,0.93,92.55,M,37.565,M,192.0,2006*5A,37.23163323118334,137.02350188683332,679505.7128866891,4122486.9973033364
1183,[2021-02-22 15:29:29.692] $GNGGA,62929.1,3713.897989377,N,13701.410117501999,E,4,15,0.93,92.595,M,37.565,M,192.1,2006*55,37.23163315628333,137.02350195836664,679505.7194108098,4122486.9891283773
1184,[2021-02-22 15:29:29.802] $GNGGA,62929.2,3713.8979938459997,N,13701.410115593999,E,4,15,0.93,92.54899999999999,M,37.565,M,192.2,2006*5B,37.23163323076666,137.02350192656664,679505.7164128334,4122486.9973324607
1185,[2021-02-22 15:29:29.880] $GNGGA,62929.3,3713.897995368,N,13701.410114757,E,4,15,0.93,92.55,M,37.565,M,192.3,2006*5E,37.231633256133335,137.02350191261664,679505.7151150152,4122487.000120595
1186,[2021-02-22 15:29:29.989] $GNGGA,62929.4,3713.897993316,N,13701.410109635,E,4,15,0.93,92.521,M,37.565,M,192.4,2006*5E,37.231633221933336,137.02350182725002,679505.7076223742,4122486.9961639857
1187,[2021-02-22 15:29:30.083] $GNGGA,62929.5,3713.89799661,N,13701.410114568998,E,4,15,0.93,92.54700000000001,M,37.565,M,192.5,2006*5E,37.231633276833335,137.0235019094833,679505.7147879241,4122487.0024114484
1188,[2021-02-22 15:29:30.192] $GNGGA,62929.6,3713.897995803,N,13701.410114611,E,4,15,0.93,92.545,M,37.565,M,192.6,2006*5F,37.23163326338333,137.0235019101833,679505.714881933,4122487.0009204135
1189,[2021-02-22 15:29:30.302] $GNGGA,62929.7,3713.89799333,N,13701.410109728,E,4,15,0.93,92.51799999999999,M,37.565,M,192.7,2006*5D,37.231633222166664,137.0235018288,679505.7077593349,4122486.9961928152
1190,[2021-02-22 15:29:30.380] $GNGGA,62929.8,3713.897995345,N,13701.410113006,E,4,15,0.93,92.545,M,37.565,M,192.8,2006*51,37.23163325575,137.02350188343334,679505.712526771,4122487.0000227145
1191,[2021-02-22 15:29:30.489] $GNGGA,62929.9,3713.8979941909997,N,13701.410112778001,E,4,15,0.93,92.54700000000001,M,37.565,M,192.9,2006*56,37.23163323651666,137.02350187963336,679505.7122352556,4122486.997881447
1192,[2021-02-22 15:29:30.583] $GNGGA,62930.0,3713.89799319,N,13701.410107891,E,4,15,0.93,92.51899999999999,M,37.565,M,193.0,2006*5E,37.23163321983333,137.02350179818336,679505.7050485499,4122486.995875851
1193,[2021-02-22 15:29:30.692] $GNGGA,62930.1,3713.897993098,N,13701.410107251,E,4,15,0.93,92.522,M,37.565,M,193.1,2006*59,37.2316332183,137.0235017875167,679505.7041058361,4122486.995685488
1194,[2021-02-22 15:29:30.802] $GNGGA,62930.2,3713.897994118,N,13701.41009956,E,4,15,0.93,92.553,M,37.565,M,193.2,2006*52,37.231633235299995,137.0235016593333,679505.692693034,4122486.9973286353
1195,[2021-02-22 15:29:30.880] $GNGGA,62930.3,3713.897992345,N,13701.410107443999,E,4,15,0.93,92.521,M,37.565,M,193.3,2006*5A,37.23163320575,137.02350179073332,679505.7044209847,4122486.994299087
1196,[2021-02-22 15:29:30.989] $GNGGA,62930.4,3713.897993504,N,13701.410112112,E,4,15,0.93,92.54700000000001,M,37.565,M,193.4,2006*5A,37.231633225066666,137.02350186853334,679505.7112776169,4122486.9965899456
1197,[2021-02-22 15:29:31.083] $GNGGA,62930.5,3713.897993257,N,13701.41011146,E,4,15,0.93,92.54799999999999,M,37.565,M,193.5,2006*57,37.23163322095,137.02350185766667,679505.7103232847,4122486.996112567
1198,[2021-02-22 15:29:31.208] $GNGGA,62930.6,3713.897990494,N,13701.410107288,E,4,15,0.93,92.522,M,37.565,M,193.6,2006*56,37.231633174900004,137.02350178813336,679505.7042634884,4122486.990871155
1199,[2021-02-22 15:29:31.286] $GNGGA,62930.7,3713.8979917690003,N,13701.410100375,E,4,15,0.93,92.54899999999999,M,37.565,M,193.7,2006*5F,37.23163319615,137.02350167291667,679505.6939910154,4122486.993010459
1200,[2021-02-22 15:29:31.395] $GNGGA,62930.8,3713.89799252,N,13701.410113109,E,4,15,0.93,92.546,M,37.565,M,193.8,2006*57,37.23163320866667,137.02350188515,679505.7127907535,4122486.9948017793
1201,[2021-02-22 15:29:31.489] $GNGGA,62930.9,3713.897990065,N,13701.410109632,E,4,15,0.93,92.51899999999999,M,37.565,M,193.9,2006*5F,37.23163316775,137.0235018272,679505.707746454,4122486.9901519087
1202,[2021-02-22 15:29:31.614] $GNGGA,62931.0,3713.897987543,N,13701.410118003001,E,4,15,0.93,92.59899999999999,M,37.565,M,194.0,2006*52,37.23163312571667,137.0235019667167,679505.720224133,4122486.9857526505
1203,[2021-02-22 15:29:31.692] $GNGGA,62931.1,3713.8979918659998,N,13701.410114413,E,4,15,0.93,92.542,M,37.565,M,194.1,2006*50,37.23163319776666,137.02350190688333,679505.7147447956,4122486.993633572
1204,[2021-02-22 15:29:31.786] $GNGGA,62931.2,3713.897990279,N,13701.410109989,E,4,15,0.93,92.51700000000001,M,37.565,M,194.2,2006*57,37.231633171316666,137.02350183314996,679505.7082658785,4122486.9905589377
1205,[2021-02-22 15:29:31.895] $GNGGA,62931.3,3713.897997252,N,13701.410109782,E,4,15,0.93,92.499,M,37.565,M,194.3,2006*5B,37.23163328753333,137.0235018297,679505.7076841412,4122487.0034473646
1206,[2021-02-22 15:29:32.005] $GNGGA,62931.4,3713.897993785,N,13701.410098703998,E,4,15,0.93,92.564,M,37.565,M,194.4,2006*54,37.231633229749995,137.02350164506666,679505.6914404557,4122486.9966857694
1207,[2021-02-22 15:29:32.083] $GNGGA,62931.5,3713.89798956,N,13701.410108061002,E,4,15,0.93,92.51700000000001,M,37.565,M,194.5,2006*5E,37.231633159333335,137.02350180101666,679505.7054434232,4122486.9891683687
1208,[2021-02-22 15:29:32.192] $GNGGA,62931.6,3713.8979900309996,N,13701.410107918999,E,4,15,0.93,92.51799999999999,M,37.565,M,194.6,2006*51,37.23163316718333,137.02350179865,679505.7052148301,4122486.990034886
1209,[2021-02-22 15:29:32.286] $GNGGA,62931.7,3713.8979872259997,N,13701.41011748,E,4,15,0.93,92.59899999999999,M,37.565,M,194.7,2006*56,37.23163312043332,137.023501958,679505.719463313,4122486.985149898
1210,[2021-02-22 15:29:32.411] $GNGGA,62931.8,3713.8979916440003,N,13701.410113935,E,4,15,0.93,92.542,M,37.565,M,194.8,2006*50,37.23163319406667,137.02350189891666,679505.7140467648,4122486.993207926
1211,[2021-02-22 15:29:32.489] $GNGGA,62931.9,3713.8979910340004,N,13701.410114437,E,4,16,0.78,92.542,M,37.565,M,194.9,2006*5F,37.23163318390001,137.0235019072833,679505.7148131707,4122486.992095738
1215,[2021-02-22 15:29:32.911] $GNGGA,62932.3,3713.8979922979997,N,13701.410117626001,E,4,15,0.93,92.544,M,37.565,M,195.3,2006*5B,37.23163320496666,137.02350196043332,679505.7194786933,4122486.994534019
1216,[2021-02-22 15:29:32.989] $GNGGA,62932.4,3713.897991349,N,13701.410112848,E,4,15,0.93,92.515,M,37.565,M,195.4,2006*52,37.23163318915001,137.0235018808,679505.712451111,4122486.992628032
1217,[2021-02-22 15:29:33.083] $GNGGA,62932.5,3713.8979971559997,N,13701.410112738,E,4,15,0.93,92.501,M,37.565,M,195.5,2006*55,37.23163328593333,137.02350187896667,679505.7120588942,4122487.003363273
1218,[2021-02-22 15:29:33.192] $GNGGA,62932.6,3713.897991495,N,13701.410115783001,E,4,15,0.93,92.54299999999999,M,37.565,M,195.6,2006*58,37.231633191583335,137.02350192971667,679505.7167852438,4122486.9929907974
1219,[2021-02-22 15:29:33.286] $GNGGA,62932.7,3713.89798976,N,13701.41011213,E,4,15,0.93,92.516,M,37.565,M,195.7,2006*51,37.23163316266667,137.02350186883334,679505.7114522392,4122486.9896668424
1220,[2021-02-22 15:29:33.411] $GNGGA,62932.8,3713.897989533,N,13701.410111186002,E,4,15,0.93,92.521,M,37.565,M,195.8,2006*5F,37.23163315888333,137.02350185310002,679505.7100653449,4122486.9892172166
1221,[2021-02-22 15:29:33.489] $GNGGA,62932.9,3713.8979917459997,N,13701.410103876999,E,4,14,1.08,92.55,M,37.565,M,195.9,2006*56,37.23163319576666,137.0235017312833,679505.6991702334,4122486.993078621
1222,[2021-02-22 15:29:33.583] $GNGGA,62933.0,3713.8979952990003,N,13701.410107049,E,4,14,1.08,92.523,M,37.565,M,196.0,2006*52,37.23163325498334,137.02350178415,679505.7037201333,4122486.99974935
1223,[2021-02-22 15:29:33.692] $GNGGA,62933.1,3713.89799628,N,13701.410106813999,E,4,15,0.93,92.522,M,37.565,M,196.1,2006*5B,37.23163327133334,137.0235017802333,679505.7033338603,4122487.001556057
1224,[2021-02-22 15:29:33.786] $GNGGA,62933.2,3713.8979928070003,N,13701.410110606,E,4,15,0.93,92.516,M,37.565,M,196.2,2006*57,37.23163321345,137.02350184343334,679505.7090782867,4122486.9952533995
1225,[2021-02-22 15:29:33.911] $GNGGA,62933.3,3713.897998983,N,13701.410110308001,E,4,13,1.11,92.50200000000001,M,37.565,M,196.3,2006*53,37.23163331638333,137.02350183846667,679505.7083934947,4122487.0066650813
1226,[2021-02-22 15:29:33.989] $GNGGA,62933.4,3713.897997313,N,13701.410105304,E,4,12,1.19,92.52,M,37.565,M,196.4,2006*5E,37.23163328855,137.0235017550667,679505.7010602324,4122487.003418624
1229,[2021-02-22 15:29:34.286] $GNGGA,62933.7,3713.897997719,N,13701.410104,E,4,15,0.93,92.523,M,37.565,M,196.7,2006*51,37.231633295316676,137.02350173333335,679505.6991159918,4122487.0041282107
1230,[2021-02-22 15:29:34.411] $GNGGA,62933.8,3713.8979905270003,N,13701.410105796002,E,4,15,0.93,92.525,M,37.565,M,196.8,2006*56,37.23163317545001,137.02350176326667,679505.7020560007,4122486.9908850193
1231,[2021-02-22 15:29:34.489] $GNGGA,62933.9,3713.897990965,N,13701.410105807,E,4,15,0.93,92.524,M,37.565,M,196.9,2006*5A,37.23163318275001,137.02350176344999,679505.7020549506,4122486.9916953477
1232,[2021-02-22 15:29:34.583] $GNGGA,62934.0,3713.8979912709997,N,13701.41010671,E,4,15,0.93,92.522,M,37.565,M,197.0,2006*5F,37.23163318785,137.0235017785,679505.7033780961,4122486.992289768
1233,[2021-02-22 15:29:34.692] $GNGGA,62934.1,3713.897991522,N,13701.410107225,E,4,15,0.93,92.521,M,37.565,M,197.1,2006*5F,37.23163319203334,137.02350178708332,679505.7041296896,4122486.9927702146
1234,[2021-02-22 15:29:34.786] $GNGGA,62934.2,3713.8979908759998,N,13701.410107931,E,4,15,0.93,92.52,M,37.565,M,197.2,2006*5D,37.231633181266666,137.02350179885,679505.7051991714,4122486.991597901
1235,[2021-02-22 15:29:34.911] $GNGGA,62934.3,3713.897990497,N,13701.410108323998,E,4,15,0.93,92.521,M,37.565,M,197.3,2006*5E,37.23163317495,137.02350180539997,679505.7057952711,4122486.9909094484
1236,[2021-02-22 15:29:34.989] $GNGGA,62934.4,3713.8979942220003,N,13701.410107626001,E,4,15,0.93,92.51799999999999,M,37.565,M,197.4,2006*50,37.23163323703334,137.02350179376668,679505.7046159043,4122486.997775925
1237,[2021-02-22 15:29:35.083] $GNGGA,62934.5,3713.897992853,N,13701.410104018001,E,4,15,0.93,92.52799999999999,M,37.565,M,197.5,2006*51,37.231633214216664,137.02350173363334,679505.6993349689,4122486.995130223
1238,[2021-02-22 15:29:35.192] $GNGGA,62934.6,3713.897991437,N,13701.410104876999,E,4,15,0.93,92.527,M,37.565,M,197.6,2006*52,37.23163319061668,137.02350174794998,679505.7006611243,4122486.992538809
1239,[2021-02-22 15:29:35.301] $GNGGA,62934.7,3713.897989608,N,13701.410109216002,E,4,15,0.93,92.516,M,37.565,M,197.7,2006*57,37.231633160133335,137.0235018202667,679505.7071493946,4122486.9892936423
1240,[2021-02-22 15:29:35.395] $GNGGA,62934.8,3713.897990234,N,13701.410109732,E,4,15,0.93,92.51700000000001,M,37.565,M,197.8,2006*56,37.231633170566674,137.02350182886667,679505.7078876423,4122486.9904675973
1241,[2021-02-22 15:29:35.489] $GNGGA,62934.9,3713.897991808,N,13701.410111046001,E,4,15,0.93,92.51899999999999,M,37.565,M,197.9,2006*51,37.2316331968,137.0235018507667,679505.7097683982,4122486.9934198842
1242,[2021-02-22 15:29:35.583] $GNGGA,62935.0,3713.897989944,N,13701.410111536,E,4,15,0.93,92.516,M,37.565,M,198.0,2006*52,37.231633165733335,137.02350185893334,679505.7105666336,4122486.9899883317
1243,[2021-02-22 15:29:35.708] $GNGGA,62935.1,3713.8979920859997,N,13701.410112878999,E,4,15,0.93,92.522,M,37.565,M,198.1,2006*5D,37.231633201433326,137.02350188131666,679505.7124678134,4122486.993991923
1244,[2021-02-22 15:29:35.786] $GNGGA,62935.2,3713.8979897090003,N,13701.41011197,E,4,15,0.93,92.521,M,37.565,M,198.2,2006*5F,37.231633161816674,137.02350186616667,679505.7112176665,4122486.989567472
1245,[2021-02-22 15:29:35.895] $GNGGA,62935.3,3713.897991012,N,13701.410113044,E,4,15,0.93,92.514,M,37.565,M,198.3,2006*51,37.23163318353333,137.02350188406666,679505.7127542524,4122486.9920110204
1246,[2021-02-22 15:29:35.989] $GNGGA,62935.4,3713.89799278,N,13701.410115133,E,4,16,0.78,92.51700000000001,M,37.565,M,198.4,2006*5C,37.231633213,137.02350191888334,679505.7157733086,4122486.9953465667
1248,[2021-02-22 15:29:36.192] $GNGGA,62935.6,3713.89799005,N,13701.410114092,E,4,15,0.93,92.515,M,37.565,M,198.6,2006*5B,37.23163316749999,137.0235019015333,679505.7143419292,4122486.990265148
1249,[2021-02-22 15:29:36.286] $GNGGA,62935.7,3713.897993778,N,13701.410117123998,E,4,16,0.78,92.514,M,37.565,M,198.7,2006*5D,37.23163322963333,137.02350195206665,679505.7186778923,4122486.997255073
1254,[2021-02-22 15:29:36.786] $GNGGA,62936.2,3713.8979953390003,N,13701.410112806001,E,4,16,0.78,92.514,M,37.565,M,199.2,2006*54,37.23163325565001,137.02350188010004,679505.7122312768,4122487.000005298
1255,[2021-02-22 15:29:36.895] $GNGGA,62936.3,3713.89799908,N,13701.410112636,E,4,16,0.78,92.516,M,37.565,M,199.3,2006*56,37.23163331799999,137.02350187726668,679505.7118320109,4122487.006918048
1256,[2021-02-22 15:29:37.004] $GNGGA,62936.4,3713.898000371,N,13701.410114622,E,4,16,0.78,92.5,M,37.565,M,199.4,2006*59,37.23163333951666,137.0235019103667,679505.714717621,4122487.009368234
1257,[2021-02-22 15:29:37.082] $GNGGA,62936.5,3713.8979951109995,N,13701.410114895,E,4,16,0.78,92.51299999999999,M,37.565,M,199.5,2006*57,37.23163325184999,137.02350191491666,679505.7153292339,4122486.9996496933
1258,[2021-02-22 15:29:37.192] $GNGGA,62936.6,3713.8979972829998,N,13701.410115628001,E,4,16,0.78,92.51799999999999,M,37.565,M,199.6,2006*5F,37.23163328805,137.02350192713337,679505.7163272424,4122487.003689483
1259,[2021-02-22 15:29:37.286] $GNGGA,62936.7,3713.8979972159996,N,13701.410117442,E,4,16,0.78,92.516,M,37.565,M,199.7,2006*51,37.231633286933324,137.02350195736668,679505.7190122022,4122487.0036229207
1260,[2021-02-22 15:29:37.395] $GNGGA,62936.8,3713.8979987979997,N,13701.410119879,E,4,16,0.78,92.501,M,37.565,M,199.8,2006*51,37.23163331329999,137.02350199798335,679505.7225531903,4122487.0066254996
1261,[2021-02-22 15:29:37.504] $GNGGA,62936.9,3713.8979986070003,N,13701.410121548,E,4,16,0.78,92.5,M,37.565,M,199.9,2006*53,37.23163331011668,137.02350202579998,679505.7250286426,4122487.0063250475
1262,[2021-02-22 15:29:37.582] $GNGGA,62937.0,3713.897997257,N,13701.410122416,E,4,16,0.78,92.50200000000001,M,37.565,M,200.0,2006*54,37.23163328761667,137.0235020402667,679505.7263655032,4122487.0038559674
1263,[2021-02-22 15:29:37.692] $GNGGA,62937.1,3713.8979971090002,N,13701.410123545,E,4,16,0.78,92.49799999999999,M,37.565,M,200.1,2006*58,37.231633285150004,137.02350205908334,679505.728040774,4122487.0036179633
1264,[2021-02-22 15:29:37.785] $GNGGA,62937.2,3713.8979921709997,N,13701.41012278,E,4,16,0.78,92.515,M,37.565,M,200.2,2006*5C,37.23163320284999,137.02350204633336,679505.7271047992,4122486.994462077
1265,[2021-02-22 15:29:37.895] $GNGGA,62937.3,3713.8979946990003,N,13701.410124246,E,4,16,0.78,92.50399999999999,M,37.565,M,200.3,2006*52,37.23163324498334,137.02350207076668,679505.7291725969,4122486.999183377
1266,[2021-02-22 15:29:38.004] $GNGGA,62937.4,3713.897994913,N,13701.410125327,E,4,16,0.78,92.505,M,37.565,M,200.4,2006*59,37.23163324855,137.02350208878335,679505.7307625834,4122486.9996132907
1267,[2021-02-22 15:29:38.082] $GNGGA,62937.5,3713.897990795,N,13701.410124905,E,4,16,0.78,92.516,M,37.565,M,200.5,2006*54,37.23163317991667,137.02350208174997,679505.7303013717,4122486.99198465
1268,[2021-02-22 15:29:38.192] $GNGGA,62937.6,3713.8979945640003,N,13701.410120708,E,4,16,0.78,92.545,M,37.565,M,200.6,2006*5D,37.23163324273334,137.0235020118,679505.7239463854,4122486.99882189
1269,[2021-02-22 15:29:38.285] $GNGGA,62937.7,3713.897994038,N,13701.410121461002,E,4,16,0.78,92.524,M,37.565,M,200.7,2006*5B,37.23163323396666,137.02350202435002,679505.7250806233,4122486.997872974
1270,[2021-02-22 15:29:38.395] $GNGGA,62937.8,3713.89799148,N,13701.410123055,E,4,16,0.78,92.52,M,37.565,M,200.8,2006*5C,37.23163319133334,137.02350205091668,679505.7275387484,4122486.9931929237
1271,[2021-02-22 15:29:38.504] $GNGGA,62937.9,3713.897994476,N,13701.410122531,E,4,15,0.93,92.512,M,37.565,M,200.9,2006*51,37.23163324126666,137.02350204218337,679505.7266454898,4122486.9987167763
1272,[2021-02-22 15:29:38.582] $GNGGA,62938.0,3713.897990762,N,13701.41012136,E,4,15,0.93,92.51799999999999,M,37.565,M,201.0,2006*56,37.23163317936666,137.0235020226667,679505.7250607841,4122486.991811568
1273,[2021-02-22 15:29:38.692] $GNGGA,62938.1,3713.897990147,N,13701.410120796001,E,4,15,0.93,92.52,M,37.565,M,201.1,2006*50,37.23163316911667,137.0235020132667,679505.7242511231,4122486.9906564387
1274,[2021-02-22 15:29:38.785] $GNGGA,62938.2,3713.897995238,N,13701.410120269,E,4,16,0.78,92.51,M,37.565,M,201.2,2006*5E,37.23163325396666,137.02350200448333,679505.723270605,4122487.000054421
1275,[2021-02-22 15:29:38.895] $GNGGA,62938.3,3713.897990687,N,13701.410121572,E,4,16,0.78,92.585,M,37.565,M,201.3,2006*5B,37.23163317811667,137.0235020262,679505.725377224,4122486.9916795744
1276,[2021-02-22 15:29:39.004] $GNGGA,62938.4,3713.8979852909997,N,13701.410107973,E,4,12,1.14,92.60700000000001,M,37.565,M,201.4,2006*53,37.23163308818333,137.02350179955002,679505.7054820635,4122486.9812710453
1277,[2021-02-22 15:29:39.082] $GNGGA,62938.5,3713.897993332,N,13701.41010906,E,4,12,1.14,92.537,M,37.565,M,201.5,2006*59,37.2316332222,137.02350181766667,679505.7067715037,4122486.9961753995
1278,[2021-02-22 15:29:39.192] $GNGGA,62938.6,3713.897989008,N,13701.41011749,E,4,13,1.11,92.59,M,37.565,M,201.6,2006*55,37.231633150133334,137.0235019581667,679505.719407658,4122486.9884456173
1279,[2021-02-22 15:29:39.285] $GNGGA,62938.7,3713.897991239,N,13701.410115216999,E,4,16,0.78,92.58200000000001,M,37.565,M,201.7,2006*5F,37.23163318731667,137.0235019202833,679505.7159584337,4122486.9924994935
1328,[2021-02-22 15:29:44.191] $GNGGA,62943.6,3713.897992833,N,13701.410094758001,E,4,16,0.78,92.527,M,37.565,M,206.6,2006*5E,37.231633213883335,137.02350157930002,679505.6856432473,4122486.9948005322
1329,[2021-02-22 15:29:44.285] $GNGGA,62943.7,3713.897993387,N,13701.410094998999,E,4,16,0.78,92.524,M,37.565,M,206.7,2006*5B,37.23163322311666,137.02350158331666,679505.6859777041,4122486.9958326467
1330,[2021-02-22 15:29:44.410] $GNGGA,62943.8,3713.897992654,N,13701.410095271001,E,4,16,0.78,92.527,M,37.565,M,206.8,2006*5E,37.23163321090001,137.02350158785,679505.6864088823,4122486.9944857294
1331,[2021-02-22 15:29:44.488] $GNGGA,62943.9,3713.897994144,N,13701.410110978,E,4,16,0.78,92.54,M,37.565,M,206.9,2006*51,37.231633235733334,137.02350184963333,679505.7095754987,4122486.997737635
1332,[2021-02-22 15:29:44.582] $GNGGA,62944.0,3713.89799286,N,13701.410094973,E,4,16,0.78,92.529,M,37.565,M,207.0,2006*57,37.231633214333336,137.0235015828833,679505.685960091,4122486.9948572596
1333,[2021-02-22 15:29:44.691] $GNGGA,62944.1,3713.897995495,N,13701.41011219,E,4,16,0.78,92.537,M,37.565,M,207.1,2006*53,37.23163325825001,137.02350186983335,679505.7113142461,4122487.0002743127
1334,[2021-02-22 15:29:44.801] $GNGGA,62944.2,3713.897995046,N,13701.410114989,E,4,16,0.78,92.538,M,37.565,M,207.2,2006*50,37.23163325076666,137.02350191648333,679505.7154707985,4122486.9995324635
1335,[2021-02-22 15:29:44.894] $GNGGA,62944.3,3713.89799476,N,13701.410117258001,E,4,16,0.78,92.537,M,37.565,M,207.3,2006*59,37.231633246,137.02350195430003,679505.7188372188,4122486.999075295
1336,[2021-02-22 15:29:44.988] $GNGGA,62944.4,3713.897995265,N,13701.410117803998,E,4,16,0.78,92.535,M,37.565,M,207.4,2006*59,37.23163325441667,137.02350196339998,679505.7196246063,4122487.000026435
1337,[2021-02-22 15:29:45.082] $GNGGA,62944.5,3713.8979923159995,N,13701.410103291,E,4,16,0.78,92.529,M,37.565,M,207.5,2006*55,37.231633205266654,137.02350172151665,679505.6982811999,4122486.994114182
1338,[2021-02-22 15:29:45.206] $GNGGA,62944.6,3713.897994351,N,13701.410117697,E,4,16,0.78,92.53200000000001,M,37.565,M,207.6,2006*5D,37.23163323918334,137.02350196161666,679505.7195025212,4122486.9983328194
1339,[2021-02-22 15:29:45.284] $GNGGA,62944.7,3713.897995295,N,13701.410117017,E,4,16,0.78,92.531,M,37.565,M,207.7,2006*58,37.23163325491666,137.02350195028333,679505.7184597054,4122487.0000570356
1340,[2021-02-22 15:29:45.393] $GNGGA,62944.8,3713.89799298,N,13701.410101903,E,4,16,0.78,92.529,M,37.565,M,207.8,2006*52,37.231633216333336,137.0235016983833,679505.6962025536,4122486.9952982254
1341,[2021-02-22 15:29:45.487] $GNGGA,62944.9,3713.8979934120002,N,13701.410100631001,E,4,16,0.78,92.529,M,37.565,M,207.9,2006*5A,37.231633223533336,137.02350167718333,679505.6943046035,4122486.996056904
1342,[2021-02-22 15:29:45.596] $GNGGA,62945.0,3713.897995999,N,13701.410113711001,E,4,16,0.78,92.527,M,37.565,M,208.0,2006*53,37.23163326665001,137.02350189518333,679505.7135433806,4122487.001254424
1343,[2021-02-22 15:29:45.706] $GNGGA,62945.1,3713.8979916159997,N,13701.410096798001,E,4,15,0.8,92.557,M,37.565,M,3.1,2006*58,37.2316331936,137.0235016133,679505.688707849,4122486.9926144523
1344,[2021-02-22 15:29:45.784] $GNGGA,62945.2,3713.8979888659997,N,13701.410094682,E,4,16,0.78,92.575,M,37.565,M,3.2,2006*55,37.23163314776666,137.02350157803335,679505.6856876903,4122486.9874620675
1410,[2021-02-22 15:29:52.393] $GNGGA,62951.8,3713.898006787,N,13701.410142166002,E,4,16,0.78,92.25299999999999,M,37.565,M,4.8,2006*53,37.231633446450004,137.02350236943337,679505.7551925615,4122487.022103817
1411,[2021-02-22 15:29:52.502] $GNGGA,62951.9,3713.8980081709997,N,13701.410143807,E,4,16,0.78,92.25299999999999,M,37.565,M,4.9,2006*5D,37.23163346951666,137.0235023967833,679505.7575643475,4122487.0247150785
1412,[2021-02-22 15:29:52.580] $GNGGA,62952.0,3713.898009618,N,13701.410144816002,E,4,16,0.78,92.249,M,37.565,M,5.0,2006*5A,37.23163349363333,137.0235024136,679505.758999128,4122487.0274228686
1413,[2021-02-22 15:29:52.689] $GNGGA,62952.1,3713.8980104790003,N,13701.410146405,E,4,16,0.78,92.25,M,37.565,M,5.1,2006*53,37.23163350798333,137.02350244008332,679505.7613147029,4122487.0290653193
1414,[2021-02-22 15:29:52.783] $GNGGA,62952.2,3713.8980120409997,N,13701.410146604,E,4,16,0.78,92.25,M,37.565,M,5.2,2006*5D,37.23163353401666,137.0235024434,679505.7615472092,4122487.0319601716
1415,[2021-02-22 15:29:52.908] $GNGGA,62952.3,3713.898012908,N,13701.41014569,E,4,16,0.78,92.25299999999999,M,37.565,M,5.3,2006*54,37.231633548466675,137.02350242816667,679505.760161428,4122487.0335346004
1416,[2021-02-22 15:29:52.986] $GNGGA,62952.4,3713.898012692,N,13701.410145465,E,4,16,0.78,92.25399999999999,M,37.565,M,5.4,2006*57,37.231633544866675,137.0235024244167,679505.7598372698,4122487.0331280455
1417,[2021-02-22 15:29:53.096] $GNGGA,62952.5,3713.898013027,N,13701.410145393,E,4,16,0.78,92.255,M,37.565,M,5.5,2006*51,37.23163355045,137.02350242321668,679505.7597175613,4122487.033745274
1418,[2021-02-22 15:29:53.189] $GNGGA,62952.6,3713.898014996,N,13701.410145413998,E,4,16,0.78,92.255,M,37.565,M,5.6,2006*5D,37.231633583266664,137.02350242356664,679505.7596707697,4122487.0373871536
1419,[2021-02-22 15:29:53.314] $GNGGA,62952.7,3713.8980151990004,N,13701.410145463,E,4,16,0.78,92.25399999999999,M,37.565,M,5.7,2006*5A,37.231633586650005,137.02350242438334,679505.759735204,4122487.0377641064
1420,[2021-02-22 15:29:53.393] $GNGGA,62952.8,3713.898014327,N,13701.410144775,E,4,16,0.78,92.25200000000001,M,37.565,M,5.8,2006*5F,37.23163357211667,137.02350241291666,679505.7587523467,4122487.0361297936
1421,[2021-02-22 15:29:53.486] $GNGGA,62952.9,3713.898012751,N,13701.410144838,E,4,16,0.78,92.255,M,37.565,M,5.9,2006*5D,37.231633545849995,137.0235024139667,679505.7589078089,4122487.0332173323
1422,[2021-02-22 15:29:53.596] $GNGGA,62953.0,3713.89801216,N,13701.410144991001,E,4,16,0.78,92.255,M,37.565,M,6.0,2006*59,37.231633536,137.0235024165167,679505.7591574085,4122487.0321292486
1423,[2021-02-22 15:29:53.705] $GNGGA,62953.1,3713.898013508,N,13701.410146878,E,4,16,0.78,92.25,M,37.565,M,6.1,2006*53,37.231633558466676,137.02350244796668,679505.7618943746,4122487.0346817155
1424,[2021-02-22 15:29:53.783] $GNGGA,62953.2,3713.8980144109996,N,13701.410147084,E,4,16,0.78,92.251,M,37.565,M,6.2,2006*56,37.23163357351665,137.0235024514,679505.7621632828,4122487.0363581167
1425,[2021-02-22 15:29:53.893] $GNGGA,62953.3,3713.898014296,N,13701.410148113999,E,4,16,0.78,92.24600000000001,M,37.565,M,6.3,2006*5E,37.2316335716,137.02350246856665,679505.763690861,4122487.0361780096
1426,[2021-02-22 15:29:53.986] $GNGGA,62953.4,3713.898015104,N,13701.410148208,E,4,16,0.78,92.24700000000001,M,37.565,M,6.4,2006*58,37.23163358506667,137.02350247013334,679505.7637979166,4122487.0376751926
1427,[2021-02-22 15:29:54.111] $GNGGA,62953.5,3713.898015647,N,13701.410148408,E,4,16,0.78,92.244,M,37.565,M,6.5,2006*5D,37.23163359411667,137.0235024734667,679505.7640721868,4122487.03868567
1428,[2021-02-22 15:29:54.189] $GNGGA,62953.6,3713.898016093,N,13701.410146821001,E,4,16,0.78,92.244,M,37.565,M,6.6,2006*58,37.23163360155001,137.02350244701668,679505.761707901,4122487.0394602814
1429,[2021-02-22 15:29:54.283] $GNGGA,62953.7,3713.8980159870002,N,13701.410145681999,E,4,16,0.78,92.24700000000001,M,37.565,M,6.7,2006*50,37.231633599783336,137.0235024280333,679505.7600278782,4122487.039228253
1430,[2021-02-22 15:29:54.392] $GNGGA,62953.8,3713.898014826,N,13701.410144708001,E,4,16,0.78,92.249,M,37.565,M,6.8,2006*57,37.231633580433325,137.02350241180002,679505.7586335525,4122487.037050461
1431,[2021-02-22 15:29:54.502] $GNGGA,62953.9,3713.898014646,N,13701.410144824,E,4,16,0.78,92.251,M,37.565,M,6.9,2006*57,37.231633577433335,137.02350241373335,679505.7588121931,4122487.0367212603
1432,[2021-02-22 15:29:54.580] $GNGGA,62954.0,3713.898013576,N,13701.410144517,E,4,16,0.78,92.25299999999999,M,37.565,M,7.0,2006*59,37.2316335596,137.02350240861668,679505.7584005389,4122487.0347328344
1433,[2021-02-22 15:29:54.689] $GNGGA,62954.1,3713.898014455,N,13701.41014652,E,4,16,0.78,92.25299999999999,M,37.565,M,2.1,2006*5D,37.231633574250004,137.02350244200002,679505.761327575,4122487.0364216594
1434,[2021-02-22 15:29:54.783] $GNGGA,62954.2,3713.898013974,N,13701.410148277,E,4,16,0.78,92.255,M,37.565,M,2.2,2006*59,37.231633566233334,137.02350247128334,679505.7639446149,4122487.0355876973
1435,[2021-02-22 15:29:54.908] $GNGGA,62954.3,3713.898014258,N,13701.410149131001,E,4,16,0.78,92.25299999999999,M,37.565,M,2.3,2006*5D,37.23163357096666,137.0235024855167,679505.7651961797,4122487.0361398826
1436,[2021-02-22 15:29:54.986] $GNGGA,62954.4,3713.898014972,N,13701.410149796999,E,4,16,0.78,92.25200000000001,M,37.565,M,2.4,2006*55,37.231633582866664,137.02350249661666,679505.7661527444,4122487.037481317
1437,[2021-02-22 15:29:55.080] $GNGGA,62954.5,3713.8980143040003,N,13701.410147937,E,4,16,0.78,92.25200000000001,M,37.565,M,2.5,2006*54,37.23163357173333,137.02350246561667,679505.7634288216,4122487.0361872097
1438,[2021-02-22 15:29:55.189] $GNGGA,62954.6,3713.898012384,N,13701.410147088001,E,4,16,0.78,92.251,M,37.565,M,2.6,2006*54,37.23163353973333,137.02350245146667,679505.7622493284,4122487.03260977
1439,[2021-02-22 15:29:55.283] $GNGGA,62954.7,3713.89801263,N,13701.410145243,E,4,16,0.78,92.25200000000001,M,37.565,M,2.7,2006*5A,37.23163354383333,137.02350242071665,679505.7595114507,4122487.0330063733
1440,[2021-02-22 15:29:55.408] $GNGGA,62954.8,3713.898011766,N,13701.410144596,E,4,16,0.78,92.25299999999999,M,37.565,M,2.8,2006*54,37.23163352943333,137.02350240993331,679505.7585889051,4122487.0313881505
1441,[2021-02-22 15:29:55.486] $GNGGA,62954.9,3713.89801203,N,13701.410142888,E,4,16,0.78,92.255,M,37.565,M,2.9,2006*51,37.23163353383333,137.02350238146667,679505.7560528961,4122487.031822369
1442,[2021-02-22 15:29:55.580] $GNGGA,62955.0,3713.8980127359996,N,13701.410140746,E,4,16,0.78,92.259,M,37.565,M,3.0,2006*53,37.23163354559999,137.02350234576667,679505.752857669,4122487.0330602448
1443,[2021-02-22 15:29:55.689] $GNGGA,62955.1,3713.898012945,N,13701.410141655,E,4,16,0.78,92.256,M,37.565,M,3.1,2006*54,37.23163354908334,137.02350236091667,679505.7541935206,4122487.0334754786
1444,[2021-02-22 15:29:55.783] $GNGGA,62955.2,3713.8980146179997,N,13701.41014294,E,4,16,0.78,92.25200000000001,M,37.565,M,3.2,2006*59,37.23163357696666,137.02350238233333,679505.7560274785,4122487.0366099263
1445,[2021-02-22 15:29:55.908] $GNGGA,62955.3,3713.8980158890004,N,13701.410142694,E,4,16,0.78,92.251,M,37.565,M,3.3,2006*5B,37.23163359815001,137.0235023782333,679505.7556134763,4122487.0389525774
1446,[2021-02-22 15:29:55.986] $GNGGA,62955.4,3713.89801542,N,13701.410141127,E,4,16,0.78,92.25399999999999,M,37.565,M,3.4,2006*5D,37.23163359033333,137.02350235211665,679505.7533149369,4122487.038035735
1447,[2021-02-22 15:29:56.080] $GNGGA,62955.5,3713.898015033,N,13701.410139685,E,4,16,0.78,92.24799999999999,M,37.565,M,3.5,2006*56,37.23163358388333,137.02350232808334,679505.7511979906,4122487.0372744864
1448,[2021-02-22 15:29:56.189] $GNGGA,62955.6,3713.8980137890003,N,13701.410136866001,E,4,16,0.78,92.25,M,37.565,M,3.6,2006*53,37.231633563150005,137.02350228110004,679505.7470787929,4122487.0348848854
1449,[2021-02-22 15:29:56.283] $GNGGA,62955.7,3713.89801125,N,13701.410134636999,E,4,16,0.78,92.24700000000001,M,37.565,M,3.7,2006*5E,37.231633520833334,137.02350224394996,679505.7438831951,4122487.0301191267
1450,[2021-02-22 15:29:56.408] $GNGGA,62955.8,3713.898008196,N,13701.410132891999,E,4,16,0.78,92.24600000000001,M,37.565,M,3.8,2006*59,37.231633469933335,137.02350221486665,679505.7414236416,4122487.024416292
1451,[2021-02-22 15:29:56.486] $GNGGA,62955.9,3713.898007541,N,13701.410130936001,E,4,16,0.78,92.24600000000001,M,37.565,M,3.9,2006*55,37.23163345901666,137.02350218226667,679505.7385572523,4122487.023143191
1452,[2021-02-22 15:29:56.580] $GNGGA,62956.0,3713.8980071809997,N,13701.410130252,E,4,16,0.78,92.24700000000001,M,37.565,M,4.0,2006*51,37.23163345301666,137.02350217086666,679505.7375600692,4122487.022455831
1453,[2021-02-22 15:29:56.689] $GNGGA,62956.1,3713.898008787,N,13701.410131716,E,4,15,0.93,92.24600000000001,M,37.565,M,4.1,2006*5D,37.23163347978334,137.02350219526667,679505.7396613604,4122487.02547204
1454,[2021-02-22 15:29:56.783] $GNGGA,62956.2,3713.898015471,N,13701.410137383999,E,4,15,0.93,92.23100000000001,M,37.565,M,4.2,2006*52,37.23163359118333,137.02350228973333,679505.7477782478,4122487.0380117344
1455,[2021-02-22 15:29:56.908] $GNGGA,62956.3,3713.8980165890002,N,13701.410139283998,E,4,16,0.78,92.234,M,37.565,M,4.3,2006*5B,37.231633609816676,137.02350232139997,679505.7505435285,4122487.0401392775
1456,[2021-02-22 15:29:56.986] $GNGGA,62956.4,3713.898014875,N,13701.410139808999,E,4,16,0.78,92.23700000000001,M,37.565,M,4.4,2006*5B,37.23163358125,137.02350233015,679505.7513875926,4122487.03698622
1457,[2021-02-22 15:29:57.095] $GNGGA,62956.5,3713.8980135009997,N,13701.410142081999,E,4,16,0.78,92.238,M,37.565,M,4.5,2006*5A,37.23163355834999,137.02350236803332,679505.7548029313,4122487.034517169
1458,[2021-02-22 15:29:57.189] $GNGGA,62956.6,3713.898012973,N,13701.410143083,E,4,16,0.78,92.23700000000001,M,37.565,M,4.6,2006*5D,37.231633549550004,137.0235023847167,679505.7563039606,4122487.0335723963
1459,[2021-02-22 15:29:57.314] $GNGGA,62956.7,3713.898013352,N,13701.410143301999,E,4,16,0.78,92.23899999999999,M,37.565,M,4.7,2006*51,37.231633555866665,137.02350238836664,679505.7566128033,4122487.034280193
1460,[2021-02-22 15:29:57.392] $GNGGA,62956.8,3713.8980125979997,N,13701.41014176,E,4,16,0.78,92.242,M,37.565,M,4.8,2006*5E,37.2316335433,137.02350236266665,679505.7543624961,4122487.032837099
1461,[2021-02-22 15:29:57.486] $GNGGA,62956.9,3713.898012498,N,13701.410138765,E,4,16,0.78,92.243,M,37.565,M,4.9,2006*55,37.231633541633336,137.02350231275003,679505.7499378272,4122487.0325575024
1462,[2021-02-22 15:29:57.595] $GNGGA,62957.0,3713.898013058,N,13701.410136248,E,4,16,0.78,92.245,M,37.565,M,5.0,2006*5E,37.231633550966656,137.0235022708,679505.7461938676,4122487.0335135306
1463,[2021-02-22 15:29:57.705] $GNGGA,62957.1,3713.8980128790004,N,13701.41013509,E,4,16,0.78,92.245,M,37.565,M,5.1,2006*50,37.231633547983336,137.02350225150002,679505.7444886413,4122487.0331459097
1464,[2021-02-22 15:29:57.783] $GNGGA,62957.2,3713.898011287,N,13701.410138963001,E,4,16,0.78,92.24700000000001,M,37.565,M,5.2,2006*52,37.23163352145,137.02350231605,679505.7502784769,4122487.030324293
1465,[2021-02-22 15:29:57.892] $GNGGA,62957.3,3713.8980103759995,N,13701.410145654,E,4,16,0.78,92.24600000000001,M,37.565,M,5.3,2006*5C,37.23163350626666,137.02350242756668,679505.7602082922,4122487.0288511054
1466,[2021-02-22 15:29:57.986] $GNGGA,62957.4,3713.898008985,N,13701.410150603,E,4,16,0.78,92.24799999999999,M,37.565,M,5.4,2006*5B,37.231633483083336,137.02350251004998,679505.7675812327,4122487.0264352057
1467,[2021-02-22 15:29:58.111] $GNGGA,62957.5,3713.8980086359998,N,13701.410153923,E,4,16,0.78,92.244,M,37.565,M,5.5,2006*5E,37.23163347726667,137.0235025653833,679505.772504222,4122487.0258947536
1468,[2021-02-22 15:29:58.189] $GNGGA,62957.6,3713.898011732,N,13701.41015828,E,4,16,0.78,92.244,M,37.565,M,5.6,2006*5A,37.23163352886667,137.02350263799997,679505.7788244109,4122487.031757821
1469,[2021-02-22 15:29:58.283] $GNGGA,62957.7,3713.898013867,N,13701.410157328,E,4,16,0.78,92.244,M,37.565,M,5.7,2006*5B,37.23163356445,137.02350262213335,679505.7773323178,4122487.0356759233
1470,[2021-02-22 15:29:58.392] $GNGGA,62957.8,3713.898013757,N,13701.410154779,E,4,16,0.78,92.244,M,37.565,M,5.8,2006*54,37.23163356261667,137.02350257965,679505.7735675263,4122487.0353919314
1471,[2021-02-22 15:29:58.502] $GNGGA,62957.9,3713.8980128820003,N,13701.410156548998,E,4,16,0.78,92.23899999999999,M,37.565,M,5.9,2006*5B,37.23163354803334,137.02350260915,679505.7762193683,4122487.0338297673
1472,[2021-02-22 15:29:58.580] $GNGGA,62958.0,3713.898013775,N,13701.410160408,E,4,16,0.78,92.241,M,37.565,M,6.0,2006*5F,37.23163356291666,137.02350267346665,679505.7818902665,4122487.0356031475
1473,[2021-02-22 15:29:58.689] $GNGGA,62958.1,3713.89801414,N,13701.410160091002,E,4,16,0.78,92.25200000000001,M,37.565,M,6.1,2006*5E,37.23163356900001,137.02350266818334,679505.7814071003,4122487.0362681122
1474,[2021-02-22 15:29:58.783] $GNGGA,62958.2,3713.898016863,N,13701.410158948998,E,4,16,0.78,92.256,M,37.565,M,6.2,2006*57,37.231633614383334,137.02350264915,679505.7796108082,4122487.0412675804
1475,[2021-02-22 15:29:58.908] $GNGGA,62958.3,3713.898017109,N,13701.410154371999,E,4,16,0.78,92.26299999999999,M,37.565,M,6.3,2006*5B,37.23163361848334,137.02350257286665,679505.7728331954,4122487.041577825
1476,[2021-02-22 15:29:58.986] $GNGGA,62958.4,3713.898018133,N,13701.410150313,E,4,16,0.78,92.266,M,37.565,M,6.4,2006*5B,37.23163363555,137.02350250521667,679505.766790781,4122487.043343175
1477,[2021-02-22 15:29:59.095] $GNGGA,62958.5,3713.898020427,N,13701.410148523,E,4,16,0.78,92.27,M,37.565,M,6.5,2006*5B,37.23163367378333,137.02350247538337,679505.764053273,4122487.047528822
1478,[2021-02-22 15:29:59.189] $GNGGA,62958.6,3713.898022547,N,13701.410148878998,E,4,16,0.78,92.271,M,37.565,M,6.6,2006*5D,37.231633709116664,137.02350248131663,679505.7644958668,4122487.051460532
1479,[2021-02-22 15:29:59.314] $GNGGA,62958.7,3713.8980222809996,N,13701.410151072,E,4,16,0.78,92.274,M,37.565,M,6.7,2006*5E,37.23163370468333,137.02350251786666,679505.7677491165,4122487.051037945
1480,[2021-02-22 15:29:59.392] $GNGGA,62958.8,3713.8980227009997,N,13701.410151668999,E,4,16,0.78,92.27600000000001,M,37.565,M,6.8,2006*5D,37.23163371168332,137.02350252781662,679505.7686152762,4122487.051833509
1481,[2021-02-22 15:29:59.486] $GNGGA,62958.9,3713.898022675,N,13701.410150847,E,4,16,0.78,92.275,M,37.565,M,6.9,2006*5F,37.23163371125,137.02350251411664,679505.767400837,4122487.051759446
1482,[2021-02-22 15:29:59.595] $GNGGA,62959.0,3713.898023814,N,13701.410148211999,E,4,16,0.78,92.277,M,37.565,M,7.0,2006*56,37.231633730233334,137.0235024702,679505.7634595064,4122487.0537824756
1483,[2021-02-22 15:29:59.689] $GNGGA,62959.1,3713.898026234,N,13701.410146193,E,4,16,0.78,92.272,M,37.565,M,2.1,2006*5F,37.23163377056667,137.02350243655002,679505.7603784013,4122487.0581938927
1484,[2021-02-22 15:29:59.814] $GNGGA,62959.2,3713.898028334,N,13701.410147043,E,4,16,0.78,92.273,M,37.565,M,2.2,2006*5C,37.23163380556667,137.02350245071668,679505.7615522573,4122487.0621042326
1485,[2021-02-22 15:29:59.892] $GNGGA,62959.3,3713.898026655,N,13701.410147154,E,4,16,0.78,92.275,M,37.565,M,2.3,2006*51,37.23163377758333,137.02350245256665,679505.7617827608,4122487.059002812
1486,[2021-02-22 15:29:59.986] $GNGGA,62959.4,3713.898024782,N,13701.410148287,E,4,16,0.78,92.27600000000001,M,37.565,M,2.4,2006*59,37.23163374636667,137.02350247144997,679505.7635321409,4122487.0555749414
1487,[2021-02-22 15:30:00.095] $GNGGA,62959.5,3713.8980236320003,N,13701.410146829,E,4,16,0.78,92.27600000000001,M,37.565,M,2.5,2006*54,37.231633727200006,137.02350244714998,679505.7614216971,4122487.0534021924
1488,[2021-02-22 15:30:00.189] $GNGGA,62959.6,3713.8980230159996,N,13701.410145641,E,4,16,0.78,92.275,M,37.565,M,2.6,2006*54,37.231633716933324,137.02350242735,679505.7596893853,4122487.0522254887
1489,[2021-02-22 15:30:00.314] $GNGGA,62959.7,3713.898022409,N,13701.410143275,E,4,16,0.78,92.27799999999999,M,37.565,M,2.7,2006*57,37.231633706816666,137.02350238791664,679505.7562148382,4122487.051028192
1490,[2021-02-22 15:30:00.392] $GNGGA,62959.8,3713.898022905,N,13701.41013905,E,4,16,0.78,92.274,M,37.565,M,2.8,2006*52,37.23163371508333,137.0235023175,679505.7499478384,4122487.05181188
1491,[2021-02-22 15:30:00.486] $GNGGA,62959.9,3713.8980221,N,13701.410135044,E,4,16,0.78,92.274,M,37.565,M,2.9,2006*56,37.231633701666674,137.02350225073334,679505.744056097,4122487.05019659
1492,[2021-02-22 15:30:00.595] $GNGGA,63000.0,3713.898022296,N,13701.41013054,E,4,16,0.78,92.274,M,37.565,M,3.0,2006*5B,37.23163370493334,137.02350217566666,679505.7373884048,4122487.0504166773
1493,[2021-02-22 15:30:00.689] $GNGGA,63000.1,3713.8980226040003,N,13701.410129343001,E,4,16,0.78,92.273,M,37.565,M,3.1,2006*5E,37.231633710066674,137.02350215571667,679505.735606258,4122487.0509484173
1494,[2021-02-22 15:30:00.814] $GNGGA,63000.2,3713.898022938,N,13701.410127995,E,4,16,0.78,92.275,M,37.565,M,3.2,2006*57,37.23163371563333,137.02350213324996,679505.7335997976,4122487.0515234615
1495,[2021-02-22 15:30:00.892] $GNGGA,63000.3,3713.89802232,N,13701.410126264,E,4,16,0.78,92.277,M,37.565,M,3.3,2006*52,37.23163370533334,137.0235021044,679505.7310646496,4122487.0503258966
1496,[2021-02-22 15:30:00.986] $GNGGA,63000.4,3713.898021209,N,13701.410125471999,E,4,16,0.78,92.277,M,37.565,M,3.4,2006*59,37.231633686816664,137.02350209120002,679505.7299374613,4122487.048246321
1497,[2021-02-22 15:30:01.095] $GNGGA,63000.5,3713.898020397,N,13701.410127486999,E,4,16,0.78,92.27799999999999,M,37.565,M,3.5,2006*59,37.23163367328333,137.02350212478333,679505.7329490869,4122487.0468084062
1498,[2021-02-22 15:30:01.189] $GNGGA,63000.6,3713.8980202459998,N,13701.41012913,E,4,16,0.78,92.277,M,37.565,M,3.6,2006*5C,37.23163367076666,137.02350215216666,679505.7353845137,4122487.046581099
1499,[2021-02-22 15:30:01.314] $GNGGA,63000.7,3713.89802005,N,13701.410128473999,E,4,16,0.78,92.27799999999999,M,37.565,M,3.7,2006*52,37.2316336675,137.0235021412333,679505.7344222511,4122487.046197907
1500,[2021-02-22 15:30:01.392] $GNGGA,63000.8,3713.8980197309997,N,13701.410127787,E,4,16,0.78,92.28200000000001,M,37.565,M,3.8,2006*5D,37.23163366218333,137.02350212978334,679505.7334190158,4122487.0455862726
