,Format,Time,Latitude,LatType,Longitude,LonType,Status,Satellite,LevelAccuracy,Altitude(sea),M(sea),Altitude(geoid),M(geoid),DGPS use,checksum,Lat,Lon,UTM_X,UTM_Y
1127,[2021-02-22 15:29:37.535] $GPGGA,62937.1,3713.8980159000002,N,13701.410162799999,E,4,13,1.1,92.2462,M,37.55,M,5.0,0000*65,37.23163359833333,137.02350271333333,679505.7853432485,4122487.0396084604
1128,[2021-02-22 15:29:37.645] $GPGGA,62937.2,3713.8980159000002,N,13701.410162999999,E,4,13,1.1,92.2473,M,37.55,M,5.0,0000*6F,37.23163359833333,137.02350271666666,679505.7856389822,4122487.0396147817
1129,[2021-02-22 15:29:37.739] $GPGGA,62937.3,3713.8980153000007,N,13701.410163600001,E,4,13,1.1,92.2491,M,37.55,M,5.0,0000*6E,37.231633588333345,137.0235027266667,679505.7865499093,4122487.0385241862
1130,[2021-02-22 15:29:37.817] $GPGGA,62937.4,3713.8980146,N,13701.4101641,E,4,13,1.1,92.2516,M,37.55,M,5.0,0000*63,37.23163357666667,137.023502735,679505.7873169137,4122487.0372455004
1131,[2021-02-22 15:29:37.942] $GPGGA,62937.5,3713.8980148,N,13701.410164500001,E,4,13,1.1,92.2506,M,37.55,M,5.0,0000*69,37.23163358,137.02350274166668,679505.7879004793,4122487.037627998
1132,[2021-02-22 15:29:38.020] $GPGGA,62937.6,3713.8980159000002,N,13701.410163999999,E,4,13,1.1,92.2537,M,37.55,M,5.0,0000*6D,37.23163359833333,137.0235027333333,679505.7871176532,4122487.0396463918
1133,[2021-02-22 15:29:38.145] $GPGGA,62937.7,3713.8980156,N,13701.4101633,E,4,13,1.1,92.2559,M,37.55,M,5.0,0000*6F,37.23163359333333,137.02350272166666,679505.7860944446,4122487.039069483
1134,[2021-02-22 15:29:38.239] $GPGGA,62937.8,3713.8980161,N,13701.410162,E,4,13,1.1,92.2548,M,37.55,M,5.0,0000*66,37.231633601666665,137.0235027,679505.7841524027,4122487.0399530265
1135,[2021-02-22 15:29:38.332] $GPGGA,62937.9,3713.8980158,N,13701.4101601,E,4,13,1.1,92.2522,M,37.55,M,5.0,0000*62,37.23163359666667,137.02350266833332,679505.7813547826,4122487.0393381873
1136,[2021-02-22 15:29:38.442] $GPGGA,62938.0,3713.8980147,N,13701.41016,E,4,13,1.1,92.2502,M,37.55,M,6.0,0000*6A,37.231633578333344,137.02350266666667,679505.781250403,4122487.037300828
1137,[2021-02-22 15:29:38.535] $GPGGA,62938.1,3713.8980148,N,13701.410161500002,E,4,13,1.1,92.2514,M,37.55,M,6.0,0000*67,37.23163358,137.0235026916667,679505.7834644597,4122487.037533169
1138,[2021-02-22 15:29:38.645] $GPGGA,62938.2,3713.8980158,N,13701.4101605,E,4,13,1.1,92.255,M,37.55,M,1.0,0000*63,37.23163359666667,137.023502675,679505.7819462547,4122487.039350831
1139,[2021-02-22 15:29:38.723] $GPGGA,62938.3,3713.8980148,N,13701.4101581,E,4,13,1.1,92.2566,M,37.55,M,1.0,0000*69,37.23163358,137.023502635,679505.7784369704,4122487.0374256973
1140,[2021-02-22 15:29:38.848] $GPGGA,62938.4,3713.8980148,N,13701.410156400001,E,4,13,1.1,92.2546,M,37.55,M,1.0,0000*67,37.23163358,137.02350260666668,679505.7759232268,4122487.0373719605
1141,[2021-02-22 15:29:38.926] $GPGGA,62938.5,3713.8980155,N,13701.4101533,E,4,13,1.1,92.2539,M,37.55,M,1.0,0000*60,37.231633591666665,137.023502555,679505.7713116658,4122487.038568462
1142,[2021-02-22 15:29:39.051] $GPGGA,62938.6,3713.8980165,N,13701.4101518,E,4,13,1.1,92.2531,M,37.55,M,1.0,0000*61,37.23163360833333,137.02350253000003,679505.7690541265,4122487.040370318
1143,[2021-02-22 15:29:39.129] $GPGGA,62938.7,3713.8980178,N,13701.4101511,E,4,13,1.1,92.2503,M,37.55,M,1.0,0000*64,37.231633630000005,137.02350251833334,679505.7679676624,4122487.042752244
1144,[2021-02-22 15:29:39.239] $GPGGA,62938.8,3713.8980185,N,13701.410150299998,E,4,13,1.1,92.2498,M,37.55,M,1.0,0000*69,37.23163364166667,137.02350250499995,679505.7667570461,4122487.044021447
1145,[2021-02-22 15:29:39.317] $GPGGA,62938.9,3713.8980201,N,13701.410151299999,E,4,13,1.1,92.2493,M,37.55,M,1.0,0000*6D,37.23163366833334,137.02350252166664,679505.7681724706,4122487.0470118914
1146,[2021-02-22 15:29:39.442] $GPGGA,62939.0,3713.898021,N,13701.410149700001,E,4,13,1.1,92.2474,M,37.55,M,2.0,0000*62,37.231633683333335,137.02350249500003,679505.7657710199,4122487.0486256597
1147,[2021-02-22 15:29:39.535] $GPGGA,62939.1,3713.8980208999997,N,13701.410149500001,E,4,13,1.1,92.2499,M,37.55,M,2.0,0000*6A,37.23163368166666,137.02350249166668,679505.7654792371,4122487.0484344107
1148,[2021-02-22 15:29:39.645] $GPGGA,62939.2,3713.8980203,N,13701.410150400001,E,4,13,1.1,92.2523,M,37.55,M,2.0,0000*6A,37.23163367166667,137.02350250666666,679505.7668337602,4122487.047353298
1149,[2021-02-22 15:29:39.723] $GPGGA,62939.3,3713.8980206999995,N,13701.410154799998,E,4,13,1.1,92.2525,M,37.55,M,2.0,0000*61,37.231633678333324,137.02350257999998,679505.7733241078,4122487.048232087
1150,[2021-02-22 15:29:39.848] $GPGGA,62939.4,3713.8980203,N,13701.4101566,E,4,13,1.1,92.2533,M,37.55,M,2.0,0000*69,37.23163367166667,137.02350261000004,679505.7760015377,4122487.0475492766
1151,[2021-02-22 15:29:39.942] $GPGGA,62939.5,3713.8980205,N,13701.410156,E,4,13,1.1,92.2523,M,37.55,M,2.0,0000*69,37.23163367499999,137.0235026,679505.7751064233,4122487.0479001636
1152,[2021-02-22 15:29:40.020] $GPGGA,62939.6,3713.89802,N,13701.4101553,E,4,13,1.1,92.2508,M,37.55,M,2.0,0000*66,37.23163366666667,137.02350258833332,679505.7740911166,4122487.046953402
1153,[2021-02-22 15:29:40.145] $GPGGA,62939.7,3713.8980198,N,13701.410155200001,E,4,13,1.1,92.251,M,37.55,M,2.0,0000*6D,37.231633663333334,137.02350258666667,679505.7739511584,4122487.0465803863
1154,[2021-02-22 15:29:40.223] $GPGGA,62939.8,3713.8980208000003,N,13701.410154,E,4,13,1.1,92.2472,M,37.55,M,2.0,0000*6E,37.23163368,137.02350256666665,679505.7721372173,4122487.048391727
1155,[2021-02-22 15:29:40.348] $GPGGA,62939.9,3713.8980193999996,N,13701.410150900001,E,4,13,1.1,92.2466,M,37.55,M,2.0,0000*61,37.231633656666666,137.023502515,679505.7676086755,4122487.0457047564
1156,[2021-02-22 15:29:40.426] $GPGGA,62940.0,3713.8980189000004,N,13701.410146799999,E,4,13,1.1,92.2419,M,37.55,M,3.0,0000*65,37.231633648333336,137.02350244666664,679505.7615658795,4122487.044650522
1157,[2021-02-22 15:29:40.520] $GPGGA,62940.1,3713.8980165,N,13701.410146899998,E,4,13,1.1,92.2442,M,37.55,M,3.0,0000*69,37.23163360833333,137.0235024483333,679505.7618086205,4122487.040215431
1158,[2021-02-22 15:29:40.645] $GPGGA,62940.2,3713.8980145000005,N,13701.410148500001,E,4,13,1.1,92.2444,M,37.55,M,3.0,0000*6C,37.23163357500001,137.023502475,679505.7642535653,4122487.036567465
1159,[2021-02-22 15:29:40.738] $GPGGA,62940.3,3713.8980130000004,N,13701.4101477,E,4,13,1.1,92.2443,M,37.55,M,3.0,0000*65,37.23163355000001,137.02350246166665,679505.7631299237,4122487.033768268
1160,[2021-02-22 15:29:40.832] $GPGGA,62940.4,3713.8980121,N,13701.4101439,E,4,13,1.1,92.245,M,37.55,M,3.0,0000*6A,37.23163353500001,137.02350239833333,679505.7575465456,4122487.031983807
1161,[2021-02-22 15:29:40.942] $GPGGA,62940.5,3713.8980114,N,13701.410139500002,E,4,13,1.1,92.2447,M,37.55,M,3.0,0000*6A,37.23163352333333,137.023502325,679505.7510680576,4122487.030550234
1162,[2021-02-22 15:29:41.020] $GPGGA,62940.6,3713.8980109,N,13701.4101365,E,4,13,1.1,92.2464,M,37.55,M,3.0,0000*6B,37.231633515000006,137.02350227500003,679505.746651804,4122487.0295307715
1163,[2021-02-22 15:29:41.145] $GPGGA,62940.7,3713.8980129,N,13701.4101372,E,4,13,1.1,92.2462,M,37.55,M,3.0,0000*68,37.23163354833334,137.02350228666666,679505.7476078083,4122487.0332514406
1164,[2021-02-22 15:29:41.223] $GPGGA,62940.8,3713.8980146,N,13701.4101407,E,4,13,1.1,92.2468,M,37.55,M,3.0,0000*61,37.23163357666667,137.023502345,679505.7527159604,4122487.036505836
1165,[2021-02-22 15:29:41.348] $GPGGA,62940.9,3713.8980155,N,13701.410144999998,E,4,13,1.1,92.2484,M,37.55,M,3.0,0000*62,37.231633591666665,137.02350241666662,679505.7590386729,4122487.038306101
1166,[2021-02-22 15:29:41.426] $GPGGA,62941.0,3713.8980164000004,N,13701.4101477,E,4,13,1.1,92.2452,M,37.55,M,4.0,0000*61,37.23163360666667,137.02350246166665,679505.7629955155,4122487.0400557914
1167,[2021-02-22 15:29:41.520] $GPGGA,62941.1,3713.8980178,N,13701.410149899999,E,4,13,1.1,92.2467,M,37.55,M,4.0,0000*6B,37.231633630000005,137.02350249833333,679505.7661932532,4122487.042714313
1168,[2021-02-22 15:29:41.645] $GPGGA,62941.2,3713.8980189999997,N,13701.410148299998,E,4,13,1.1,92.2481,M,37.55,M,4.0,0000*6D,37.23163365,137.02350247166666,679505.7637799385,4122487.0448828638
1169,[2021-02-22 15:29:41.738] $GPGGA,62941.3,3713.8980213,N,13701.4101459,E,4,13,1.1,92.246,M,37.55,M,4.0,0000*6C,37.231633688333325,137.02350243166666,679505.760140199,4122487.049060325
1170,[2021-02-22 15:29:41.848] $GPGGA,62941.4,3713.8980225,N,13701.4101456,E,4,13,1.1,92.2452,M,37.55,M,4.0,0000*60,37.23163370833333,137.0235024266667,679505.7596491624,4122487.0512699676
1171,[2021-02-22 15:29:41.926] $GPGGA,62941.5,3713.8980229999997,N,13701.4101451,E,4,13,1.1,92.2445,M,37.55,M,4.0,0000*64,37.23163371666666,137.02350241833335,679505.7588900577,4122487.052178799
1172,[2021-02-22 15:29:42.051] $GPGGA,62941.6,3713.8980226999997,N,13701.4101438,E,4,13,1.1,92.2449,M,37.55,M,4.0,0000*62,37.23163371166666,137.0235023966667,679505.7569796435,4122487.051582925
1173,[2021-02-22 15:29:42.129] $GPGGA,62941.7,3713.8980214000003,N,13701.4101412,E,4,13,1.1,92.2455,M,37.55,M,4.0,0000*66,37.23163369,137.02350235333333,679505.7531864805,4122487.049096688
1174,[2021-02-22 15:29:42.238] $GPGGA,62941.8,3713.8980199000002,N,13701.4101382,E,4,13,1.1,92.2438,M,37.55,M,4.0,0000*6A,37.231633665000004,137.02350230333334,679505.7488097609,4122487.046227951
1175,[2021-02-22 15:29:42.332] $GPGGA,62941.9,3713.8980168000007,N,13701.410138999998,E,4,13,1.1,92.2435,M,37.55,M,4.0,0000*6B,37.23163361333335,137.02350231666662,679505.7501152422,4122487.0405204985
1176,[2021-02-22 15:29:42.441] $GPGGA,62942.0,3713.8980136,N,13701.4101425,E,4,13,1.1,92.2403,M,37.55,M,5.0,0000*67,37.23163356,137.02350237500002,679505.7554171071,4122487.034713461
1177,[2021-02-22 15:29:42.535] $GPGGA,62942.1,3713.8980111,N,13701.410147600001,E,4,13,1.1,92.2419,M,37.55,M,5.0,0000*6E,37.23163351833334,137.02350246,679505.7630571696,4122487.0302514913
1178,[2021-02-22 15:29:42.645] $GPGGA,62942.2,3713.8980109,N,13701.410149700001,E,4,13,1.1,92.244,M,37.55,M,5.0,0000*67,37.231633515000006,137.02350249500003,679505.7661702915,4122487.029948017
1179,[2021-02-22 15:29:42.723] $GPGGA,62942.3,3713.8980119999997,N,13701.4101491,E,4,13,1.1,92.2447,M,37.55,M,5.0,0000*6C,37.23163353333333,137.023502485,679505.7652395986,4122487.0319632483
1180,[2021-02-22 15:29:42.848] $GPGGA,62942.4,3713.8980130000004,N,13701.410147,E,4,13,1.1,92.2437,M,37.55,M,5.0,0000*62,37.23163355000001,137.02350245000002,679505.7620948557,4122487.0337461415
1181,[2021-02-22 15:29:42.926] $GPGGA,62942.5,3713.8980138000006,N,13701.4101447,E,4,13,1.1,92.2434,M,37.55,M,5.0,0000*6C,37.23163356333335,137.02350241166667,679505.7586622809,4122487.0351528577
1182,[2021-02-22 15:29:43.051] $GPGGA,62942.6,3713.8980136,N,13701.410145200001,E,4,13,1.1,92.2443,M,37.55,M,5.0,0000*65,37.23163356,137.02350242,679505.7594095239,4122487.0347988075
1183,[2021-02-22 15:29:43.129] $GPGGA,62942.7,3713.8980130000004,N,13701.4101481,E,4,13,1.1,92.2439,M,37.55,M,5.0,0000*61,37.23163355000001,137.02350246833336,679505.763721398,4122487.033780913
1184,[2021-02-22 15:29:43.238] $GPGGA,62942.8,3713.8980122000003,N,13701.410150100002,E,4,13,1.1,92.2441,M,37.55,M,5.0,0000*6B,37.23163353666666,137.0235025016667,679505.7667103698,4122487.0323647126
1185,[2021-02-22 15:29:43.316] $GPGGA,62942.9,3713.8980113000007,N,13701.4101506,E,4,13,1.1,92.2447,M,37.55,M,5.0,0000*69,37.23163352166668,137.02350251000001,679505.7674852828,4122487.0307161757
1186,[2021-02-22 15:29:43.441] $GPGGA,62943.0,3713.8980109,N,13701.410150999998,E,4,13,1.1,92.2443,M,37.55,M,6.0,0000*6A,37.231633515000006,137.02350251666664,679505.7680925608,4122487.02998911
1187,[2021-02-22 15:29:43.519] $GPGGA,62943.1,3713.8980119000003,N,13701.4101538,E,4,13,1.1,92.2446,M,37.55,M,6.0,0000*65,37.231633531666674,137.02350256333335,679505.7721933194,4122487.031926888
1188,[2021-02-22 15:29:43.644] $GPGGA,62943.2,3713.8980099,N,13701.4101534,E,4,14,1.1,92.2424,M,37.55,M,1.0,0000*67,37.23163349833334,137.02350255666664,679505.7716809087,4122487.028215701
1189,[2021-02-22 15:29:43.754] $GPGGA,62943.3,3713.8980104,N,13701.410150100002,E,4,14,1.1,92.2401,M,37.55,M,1.0,0000*62,37.231633506666675,137.0235025016667,679505.7667815272,4122487.029036025
1190,[2021-02-22 15:29:43.832] $GPGGA,62943.4,3713.8980108,N,13701.410146399998,E,4,14,1.1,92.2393,M,37.55,M,1.0,0000*67,37.23163351333333,137.02350243999993,679505.7612946132,4122487.029658777
1191,[2021-02-22 15:29:43.957] $GPGGA,62943.5,3713.8980124,N,13701.4101437,E,4,14,1.1,92.2378,M,37.55,M,1.0,0000*6B,37.23163354,137.02350239500004,679505.7572389547,4122487.032532267
1192,[2021-02-22 15:29:44.035] $GPGGA,62943.6,3713.8980126999995,N,13701.4101412,E,4,14,1.1,92.2352,M,37.55,M,1.0,0000*64,37.231633544999994,137.02350235333333,679505.7535304076,4122487.033008024
1193,[2021-02-22 15:29:44.144] $GPGGA,62943.7,3713.8980119999997,N,13701.4101403,E,4,14,1.1,92.2371,M,37.55,M,1.0,0000*63,37.23163353333333,137.02350233833334,679505.7522272757,4122487.0316850846
1194,[2021-02-22 15:29:44.223] $GPGGA,62943.8,3713.8980121,N,13701.410141999999,E,4,14,1.1,92.2351,M,37.55,M,1.0,0000*6E,37.23163353500001,137.02350236666663,679505.7547370638,4122487.03192375
1195,[2021-02-22 15:29:44.348] $GPGGA,62943.9,3713.8980116,N,13701.4101432,E,4,14,1.1,92.2351,M,37.55,M,1.0,0000*68,37.23163352666666,137.0235023866667,679505.7565312434,4122487.0310370433
1196,[2021-02-22 15:29:44.426] $GPGGA,62944.0,3713.8980125,N,13701.4101425,E,4,14,1.1,92.231,M,37.55,M,2.0,0000*66,37.23163354166666,137.02350237500002,679505.7554605922,4122487.0326792616
1197,[2021-02-22 15:29:44.535] $GPGGA,62944.1,3713.8980130000004,N,13701.4101444,E,4,14,1.1,92.2317,M,37.55,M,2.0,0000*63,37.23163355000001,137.02350240666667,679505.7582503036,4122487.033663958
1198,[2021-02-22 15:29:44.644] $GPGGA,62944.2,3713.8980128,N,13701.4101478,E,4,14,1.1,92.2331,M,37.55,M,2.0,0000*62,37.231633546666664,137.0235024633333,679505.763285697,4122487.033401575
1199,[2021-02-22 15:29:44.754] $GPGGA,62944.3,3713.8980125,N,13701.4101507,E,4,14,1.1,92.2343,M,37.55,M,2.0,0000*62,37.23163354166666,137.02350251166666,679505.7675857116,4122487.0329384604
1200,[2021-02-22 15:29:44.832] $GPGGA,62944.4,3713.8980122000003,N,13701.410150900001,E,4,14,1.1,92.2354,M,37.55,M,2.0,0000*6A,37.23163353666666,137.023502515,679505.7678933048,4122487.0323900008
1201,[2021-02-22 15:29:44.957] $GPGGA,62944.5,3713.8980125,N,13701.410149599998,E,4,14,1.1,92.2357,M,37.55,M,2.0,0000*68,37.23163354166666,137.02350249333332,679505.7659591692,4122487.0329036894
1202,[2021-02-22 15:29:45.035] $GPGGA,62944.6,3713.8980125,N,13701.410150299998,E,4,14,1.1,92.2358,M,37.55,M,2.0,0000*69,37.23163354166666,137.02350250499995,679505.7669942373,4122487.0329258163
1203,[2021-02-22 15:29:45.143] $GPGGA,62944.7,3713.8980132,N,13701.410149599998,E,4,14,1.1,92.2372,M,37.55,M,2.0,0000*6B,37.23163355333333,137.02350249333332,679505.7659314969,4122487.03419818
1204,[2021-02-22 15:29:45.237] $GPGGA,62944.8,3713.8980138000006,N,13701.4101484,E,4,14,1.1,92.2342,M,37.55,M,2.0,0000*6E,37.23163356333335,137.02350247333334,679505.7641333708,4122487.0352698127
1205,[2021-02-22 15:29:45.346] $GPGGA,62944.9,3713.8980130000004,N,13701.4101473,E,4,14,1.1,92.2369,M,37.55,M,2.0,0000*66,37.23163355000001,137.02350245499997,679505.762538454,4122487.0337556256
1206,[2021-02-22 15:29:45.456] $GPGGA,62945.0,3713.8980131,N,13701.410146399998,E,4,14,1.1,92.232,M,37.55,M,3.0,0000*65,37.23163355166666,137.02350243999993,679505.76120369,4122487.0339121018
1207,[2021-02-22 15:29:45.549] $GPGGA,62945.1,3713.8980134999997,N,13701.410147100001,E,4,14,1.1,92.232,M,37.55,M,3.0,0000*64,37.23163355833333,137.02350245166667,679505.7622229566,4122487.034673936
1208,[2021-02-22 15:29:45.659] $GPGGA,62945.2,3713.8980134999997,N,13701.4101474,E,4,14,1.1,92.2317,M,37.55,M,3.0,0000*66,37.23163355833333,137.02350245666668,679505.7626665572,4122487.034683419
1209,[2021-02-22 15:29:45.737] $GPGGA,62945.3,3713.8980139,N,13701.4101478,E,4,14,1.1,92.2321,M,37.55,M,3.0,0000*62,37.231633564999996,137.0235024633333,679505.7632422119,4122487.035435773
1210,[2021-02-22 15:29:45.846] $GPGGA,62945.4,3713.8980141,N,13701.410148899999,E,4,14,1.1,92.2333,M,37.55,M,3.0,0000*67,37.23163356833334,137.02350248166664,679505.7648608456,4122487.0358403986
1211,[2021-02-22 15:29:45.924] $GPGGA,62945.5,3713.8980148,N,13701.410149700001,E,4,14,1.1,92.2328,M,37.55,M,3.0,0000*6A,37.23163358,137.02350249500003,679505.7660161173,4122487.0371601763
1212,[2021-02-22 15:29:46.049] $GPGGA,62945.6,3713.8980141999996,N,13701.41015,E,4,14,1.1,92.2359,M,37.55,M,3.0,0000*6A,37.23163356999999,137.0235025,679505.766483437,4122487.036060095
1213,[2021-02-22 15:29:46.127] $GPGGA,62945.7,3713.8980148,N,13701.410151700002,E,4,14,1.1,92.2335,M,37.55,M,3.0,0000*6D,37.23163358,137.02350252833338,679505.768973466,4122487.037223395
1214,[2021-02-22 15:29:46.252] $GPGGA,62945.8,3713.8980141999996,N,13701.410153499999,E,4,14,1.1,92.2335,M,37.55,M,3.0,0000*68,37.23163356999999,137.0235025583333,679505.7716587887,4122487.036170728
1215,[2021-02-22 15:29:46.331] $GPGGA,62945.9,3713.8980134000003,N,13701.410154899999,E,4,14,1.1,92.2335,M,37.55,M,3.0,0000*63,37.231633556666665,137.02350258166663,679505.7737605572,4122487.034735565
1216,[2021-02-22 15:29:46.455] $GPGGA,62946.0,3713.8980126999995,N,13701.410154899999,E,4,14,1.1,92.2286,M,37.55,M,4.0,0000*65,37.231633544999994,137.02350258166663,679505.7737882294,4122487.0334410747
1217,[2021-02-22 15:29:46.549] $GPGGA,62946.1,3713.8980124,N,13701.410155700001,E,4,14,1.1,92.2289,M,37.55,M,4.0,0000*67,37.23163354,137.023502595,679505.7749830307,4122487.0329115815
1218,[2021-02-22 15:29:46.643] $GPGGA,62946.2,3713.8980130000004,N,13701.410156200001,E,4,14,1.1,92.2297,M,37.55,M,4.0,0000*68,37.23163355000001,137.02350260333336,679505.7756986504,4122487.03403695
1219,[2021-02-22 15:29:46.737] $GPGGA,62946.3,3713.8980141,N,13701.4101545,E,4,14,1.1,92.2316,M,37.55,M,4.0,0000*62,37.23163356833334,137.02350257499998,679505.7731414174,4122487.036017413
1220,[2021-02-22 15:29:46.846] $GPGGA,62946.4,3713.8980144,N,13701.4101519,E,4,14,1.1,92.2325,M,37.55,M,4.0,0000*69,37.23163357333333,137.02350253166668,679505.7692850102,4122487.0364900073
1221,[2021-02-22 15:29:46.924] $GPGGA,62946.5,3713.8980151,N,13701.410149700001,E,4,14,1.1,92.2318,M,37.55,M,4.0,0000*65,37.231633585,137.02350249500003,679505.7660042578,4122487.037714956
1222,[2021-02-22 15:29:47.049] $GPGGA,62946.6,3713.8980149999998,N,13701.4101466,E,4,14,1.1,92.2308,M,37.55,M,4.0,0000*68,37.23163358333333,137.02350244333334,679505.7614243223,4122487.0374320396
1223,[2021-02-22 15:29:47.159] $GPGGA,62946.7,3713.8980151999995,N,13701.4101449,E,4,14,1.1,92.2314,M,37.55,M,4.0,0000*6B,37.23163358666666,137.02350241500002,679505.7589026723,4122487.037748159
1224,[2021-02-22 15:29:47.237] $GPGGA,62946.8,3713.8980159000002,N,13701.410143500001,E,4,14,1.1,92.2313,M,37.55,M,4.0,0000*63,37.23163359833333,137.02350239166668,679505.7568048572,4122487.038998395
1225,[2021-02-22 15:29:47.346] $GPGGA,62946.9,3713.8980158,N,13701.410142700002,E,4,14,1.1,92.2323,M,37.55,M,4.0,0000*63,37.23163359666667,137.02350237833335,679505.7556258709,4122487.0387881813
1226,[2021-02-22 15:29:47.455] $GPGGA,62947.0,3713.8980161,N,13701.4101425,E,4,14,1.1,92.2302,M,37.55,M,5.0,0000*61,37.231633601666665,137.02350237500002,679505.7553182775,4122487.0393366404
1227,[2021-02-22 15:29:47.534] $GPGGA,62947.1,3713.8980169,N,13701.410142899998,E,4,14,1.1,92.2288,M,37.55,M,5.0,0000*67,37.231633615,137.02350238166665,679505.7558781173,4122487.040828701
1228,[2021-02-22 15:29:47.643] $GPGGA,62947.2,3713.8980156,N,13701.4101447,E,4,14,1.1,92.2268,M,37.55,M,5.0,0000*6E,37.23163359333333,137.02350241166667,679505.7585911236,4122487.0384815447
1229,[2021-02-22 15:29:47.752] $GPGGA,62947.3,3713.8980164000004,N,13701.410145200001,E,4,14,1.1,92.2256,M,37.55,M,5.0,0000*67,37.23163360666667,137.02350242,679505.7592988347,4122487.039976768
1230,[2021-02-22 15:29:47.830] $GPGGA,62947.4,3713.8980169,N,13701.410144799998,E,4,14,1.1,92.2251,M,37.55,M,5.0,0000*61,37.231633615,137.02350241333332,679505.7586875969,4122487.0408887593
1231,[2021-02-22 15:29:47.955] $GPGGA,62947.5,3713.8980168000007,N,13701.4101447,E,4,14,1.1,92.2247,M,37.55,M,5.0,0000*69,37.23163361333335,137.02350241166667,679505.7585436854,4122487.040700673
1232,[2021-02-22 15:29:48.034] $GPGGA,62947.6,3713.8980169,N,13701.4101445,E,4,14,1.1,92.2228,M,37.55,M,5.0,0000*60,37.231633615,137.02350240833331,679505.758243994,4122487.040879276
1233,[2021-02-22 15:29:48.158] $GPGGA,62947.7,3713.8980159999996,N,13701.4101445,E,4,14,1.1,92.2235,M,37.55,M,5.0,0000*64,37.231633599999995,137.02350240833331,679505.7582795726,4122487.0392149305
1234,[2021-02-22 15:29:48.221] $GPGGA,62947.8,3713.8980166,N,13701.410144999998,E,4,14,1.1,92.2226,M,37.55,M,5.0,0000*6B,37.23163361,137.02350241666662,679505.7589951878,4122487.0403402997
1235,[2021-02-22 15:29:48.346] $GPGGA,62947.9,3713.8980165,N,13701.4101451,E,4,14,1.1,92.2252,M,37.55,M,5.0,0000*6B,37.23163360833333,137.02350241833335,679505.7591470147,4122487.040158534
1236,[2021-02-22 15:29:48.424] $GPGGA,62948.0,3713.8980178,N,13701.4101444,E,4,14,1.1,92.2231,M,37.55,M,6.0,0000*63,37.231633630000005,137.02350240666667,679505.7580605507,4122487.04254046
1237,[2021-02-22 15:29:48.534] $GPGGA,62948.1,3713.8980193999996,N,13701.4101444,E,4,14,1.1,92.225,M,37.55,M,6.0,0000*67,37.231633656666666,137.02350240666667,679505.7579972998,4122487.0454992945
1238,[2021-02-22 15:29:48.627] $GPGGA,62948.2,3713.8980208000003,N,13701.410145299998,E,4,14,1.1,92.2244,M,37.55,M,1.0,0000*66,37.23163368,137.02350242166665,679505.7592727592,4122487.0481167235
1239,[2021-02-22 15:29:48.752] $GPGGA,62948.3,3713.8980199000002,N,13701.410145299998,E,4,14,1.1,92.2243,M,37.55,M,1.0,0000*6B,37.231633665000004,137.02350242166665,679505.7593083379,4122487.046452379
1240,[2021-02-22 15:29:48.830] $GPGGA,62948.4,3713.8980191,N,13701.4101449,E,4,14,1.1,92.2231,M,37.55,M,1.0,0000*6A,37.23163365166667,137.02350241500002,679505.758748498,4122487.044960318
1241,[2021-02-22 15:29:48.955] $GPGGA,62948.5,3713.8980186,N,13701.4101438,E,4,14,1.1,92.2247,M,37.55,M,1.0,0000*6A,37.23163364333333,137.0235023966667,679505.757141724,4122487.0440009115
1242,[2021-02-22 15:29:49.049] $GPGGA,62948.6,3713.8980188,N,13701.4101437,E,4,14,1.1,92.2246,M,37.55,M,1.0,0000*69,37.231633646666666,137.02350239500004,679505.7569859507,4122487.044367606
1243,[2021-02-22 15:29:49.127] $GPGGA,62948.7,3713.8980183,N,13701.4101456,E,4,14,1.1,92.2267,M,37.55,M,1.0,0000*67,37.231633638333335,137.0235024266667,679505.7598151963,4122487.043503028
1244,[2021-02-22 15:29:49.252] $GPGGA,62948.8,3713.8980178999996,N,13701.410146799999,E,4,14,1.1,92.2268,M,37.55,M,1.0,0000*6F,37.231633631666654,137.02350244666664,679505.7616054114,4122487.042801249
1245,[2021-02-22 15:29:49.330] $GPGGA,62948.9,3713.8980176,N,13701.410146899998,E,4,14,1.1,92.2298,M,37.55,M,1.0,0000*6F,37.231633626666664,137.0235024483333,679505.7617651355,4122487.0422496297
1246,[2021-02-22 15:29:49.455] $GPGGA,62949.0,3713.8980171999997,N,13701.410146799999,E,4,14,1.1,92.2275,M,37.55,M,2.0,0000*62,37.23163362,137.02350244666664,679505.7616330837,4122487.04150676
1247,[2021-02-22 15:29:49.549] $GPGGA,62949.1,3713.8980178999996,N,13701.410148299998,E,4,14,1.1,92.2285,M,37.55,M,2.0,0000*62,37.231633631666654,137.02350247166666,679505.7638234235,4122487.0428486625
1248,[2021-02-22 15:29:49.643] $GPGGA,62949.2,3713.8980186,N,13701.4101488,E,4,14,1.1,92.2297,M,37.55,M,2.0,0000*69,37.23163364333333,137.02350248,679505.7645350855,4122487.0441589593
1249,[2021-02-22 15:29:49.736] $GPGGA,62949.3,3713.8980181999996,N,13701.4101492,E,4,14,1.1,92.23,M,37.55,M,2.0,0000*68,37.231633636666665,137.02350248666667,679505.7651423702,4122487.043431895
1250,[2021-02-22 15:29:49.846] $GPGGA,62949.4,3713.8980166,N,13701.410150400001,E,4,14,1.1,92.2319,M,37.55,M,2.0,0000*63,37.23163361,137.02350250666666,679505.766980028,4122487.0405109916
1251,[2021-02-22 15:29:49.924] $GPGGA,62949.5,3713.8980141999996,N,13701.4101525,E,4,14,1.1,92.2326,M,37.55,M,2.0,0000*6B,37.23163356999999,137.02350254166666,679505.7701801178,4122487.036139118
1252,[2021-02-22 15:29:50.049] $GPGGA,62949.6,3713.8980111,N,13701.4101526,E,4,14,1.1,92.233,M,37.55,M,2.0,0000*6A,37.23163351833334,137.0235025433333,679505.7704505334,4122487.030409539
1253,[2021-02-22 15:29:50.127] $GPGGA,62949.7,3713.8980090000005,N,13701.4101521,E,4,14,1.1,92.2333,M,37.55,M,2.0,0000*67,37.23163348333334,137.02350253499998,679505.7697942136,4122487.026510264
1254,[2021-02-22 15:29:50.252] $GPGGA,62949.8,3713.8980094000003,N,13701.4101512,E,4,14,1.1,92.2321,M,37.55,M,2.0,0000*6F,37.23163349000001,137.02350252,679505.7684475946,4122487.027221524
1255,[2021-02-22 15:29:50.330] $GPGGA,62949.9,3713.8980090000005,N,13701.410150299998,E,4,14,1.1,92.2339,M,37.55,M,2.0,0000*63,37.23163348333334,137.02350250499995,679505.7671325987,4122487.0264533665
1256,[2021-02-22 15:29:50.455] $GPGGA,62950.0,3713.8980094999997,N,13701.410149599998,E,4,14,1.1,92.2321,M,37.55,M,3.0,0000*62,37.231633491666656,137.02350249333332,679505.7660777648,4122487.027355874
1257,[2021-02-22 15:29:50.549] $GPGGA,62950.1,3713.8980108,N,13701.410150299998,E,4,14,1.1,92.2329,M,37.55,M,3.0,0000*63,37.23163351333333,137.02350250499995,679505.7670614414,4122487.0297820545
1258,[2021-02-22 15:29:50.643] $GPGGA,62950.2,3713.8980116999996,N,13701.410149599998,E,4,14,1.1,92.2327,M,37.55,M,3.0,0000*6D,37.231633528333326,137.02350249333332,679505.7659907946,4122487.0314242714
1259,[2021-02-22 15:29:50.752] $GPGGA,62950.3,3713.8980114,N,13701.4101498,E,4,14,1.1,92.2318,M,37.55,M,3.0,0000*6D,37.23163352333333,137.02350249666668,679505.7662983902,4122487.030875812
1260,[2021-02-22 15:29:50.830] $GPGGA,62950.4,3713.8980113000007,N,13701.410149399999,E,4,14,1.1,92.2326,M,37.55,M,3.0,0000*6C,37.23163352166668,137.02350248999997,679505.7657108714,4122487.0306782434
1261,[2021-02-22 15:29:50.955] $GPGGA,62950.5,3713.8980116,N,13701.410150100002,E,4,14,1.1,92.2312,M,37.55,M,3.0,0000*62,37.23163352666666,137.0235025016667,679505.766734089,4122487.03125515
1262,[2021-02-22 15:29:51.033] $GPGGA,62950.6,3713.8980125,N,13701.4101506,E,4,14,1.1,92.2301,M,37.55,M,3.0,0000*64,37.23163354166666,137.02350251000001,679505.7674378447,4122487.032935299
1263,[2021-02-22 15:29:51.158] $GPGGA,62950.7,3713.8980126,N,13701.4101512,E,4,14,1.1,92.2291,M,37.55,M,3.0,0000*6B,37.23163354333333,137.02350252,679505.7683210927,4122487.0331391925
1264,[2021-02-22 15:29:51.236] $GPGGA,62950.8,3713.8980130000004,N,13701.4101527,E,4,14,1.1,92.2288,M,37.55,M,3.0,0000*6D,37.23163355000001,137.023502545,679505.770523292,4122487.0339263175
1265,[2021-02-22 15:29:51.346] $GPGGA,62950.9,3713.8980126,N,13701.410153499999,E,4,14,1.1,92.2295,M,37.55,M,3.0,0000*64,37.23163354333333,137.0235025583333,679505.7717220397,4122487.033211894
1266,[2021-02-22 15:29:51.424] $GPGGA,62951.0,3713.8980126999995,N,13701.410152899998,E,4,14,1.1,92.2266,M,37.55,M,4.0,0000*6B,37.231633544999994,137.0235025483333,679505.7708308831,4122487.0333778556
1267,[2021-02-22 15:29:51.533] $GPGGA,62951.1,3713.8980138000006,N,13701.4101534,E,4,14,1.1,92.2282,M,37.55,M,4.0,0000*62,37.23163356333335,137.02350255666664,679505.7715267346,4122487.0354278604
1268,[2021-02-22 15:29:51.643] $GPGGA,62951.2,3713.8980146,N,13701.410154700003,E,4,14,1.1,92.2291,M,37.55,M,4.0,0000*6E,37.23163357666667,137.02350257833336,679505.7734173897,4122487.03694837
1269,[2021-02-22 15:29:51.752] $GPGGA,62951.3,3713.8980138000006,N,13701.410154700003,E,4,14,1.1,92.2291,M,37.55,M,4.0,0000*66,37.23163356333335,137.02350257833336,679505.7734490151,4122487.0354689523
1270,[2021-02-22 15:29:51.830] $GPGGA,62951.4,3713.8980134000003,N,13701.410154199999,E,4,14,1.1,92.2306,M,37.55,M,4.0,0000*67,37.231633556666665,137.02350256999998,679505.7727254868,4122487.034713438
1271,[2021-02-22 15:29:51.955] $GPGGA,62951.5,3713.8980125,N,13701.4101538,E,4,14,1.1,92.2312,M,37.55,M,4.0,0000*6E,37.23163354166666,137.02350256333335,679505.7721696002,4122487.033036449
1272,[2021-02-22 15:29:52.033] $GPGGA,62951.6,3713.8980123,N,13701.410153499999,E,4,14,1.1,92.2301,M,37.55,M,4.0,0000*64,37.23163353833334,137.0235025583333,679505.7717338991,4122487.032657114
1273,[2021-02-22 15:29:52.143] $GPGGA,62951.7,3713.8980124,N,13701.4101537,E,4,14,1.1,92.2295,M,37.55,M,4.0,0000*6C,37.23163354,137.0235025616667,679505.7720256865,4122487.0328483623
1274,[2021-02-22 15:29:52.236] $GPGGA,62951.8,3713.8980125,N,13701.4101546,E,4,14,1.1,92.2291,M,37.55,M,4.0,0000*60,37.23163354166666,137.0235025766667,679505.7733525374,4122487.033061737
1275,[2021-02-22 15:29:52.346] $GPGGA,62951.9,3713.8980126,N,13701.410155200001,E,4,14,1.1,92.2291,M,37.55,M,4.0,0000*67,37.23163354333333,137.02350258666667,679505.7742357878,4122487.0332656293
1276,[2021-02-22 15:29:52.424] $GPGGA,62952.0,3713.8980133,N,13701.410155399999,E,4,14,1.1,92.2266,M,37.55,M,5.0,0000*66,37.231633554999995,137.02350258999996,679505.7745038469,4122487.034566443
1277,[2021-02-22 15:29:52.533] $GPGGA,62952.1,3713.8980147,N,13701.410157600001,E,4,14,1.1,92.2252,M,37.55,M,5.0,0000*63,37.231633578333344,137.02350262666667,679505.777701587,4122487.0372249656
1278,[2021-02-22 15:29:52.658] $GPGGA,62952.2,3713.8980156,N,13701.410157700002,E,4,14,1.1,92.2248,M,37.55,M,5.0,0000*6A,37.23163359333333,137.02350262833338,679505.7778138774,4122487.0388924684
1279,[2021-02-22 15:29:52.736] $GPGGA,62952.3,3713.8980171,N,13701.4101574,E,4,14,1.1,92.2252,M,37.55,M,5.0,0000*66,37.23163361833333,137.02350262333331,679505.7773109722,4122487.0416568946
1280,[2021-02-22 15:29:52.846] $GPGGA,62952.4,3713.8980177000003,N,13701.410157299999,E,4,14,1.1,92.2237,M,37.55,M,5.0,0000*63,37.231633628333334,137.02350262166664,679505.7771393863,4122487.042763296
1281,[2021-02-22 15:29:52.924] $GPGGA,62952.5,3713.8980176,N,13701.4101574,E,4,14,1.1,92.2247,M,37.55,M,5.0,0000*63,37.231633626666664,137.02350262333331,679505.7772912063,4122487.0425815303
1282,[2021-02-22 15:29:53.049] $GPGGA,62952.6,3713.8980189999997,N,13701.4101581,E,4,14,1.1,92.2242,M,37.55,M,5.0,0000*67,37.23163365,137.023502635,679505.7782709366,4122487.0451926375
1283,[2021-02-22 15:29:53.127] $GPGGA,62952.7,3713.8980202,N,13701.410157299999,E,4,14,1.1,92.223,M,37.55,M,5.0,0000*66,37.23163367,137.02350262166664,679505.7770405567,4122487.0473864754
1284,[2021-02-22 15:29:53.252] $GPGGA,62952.8,3713.8980189000004,N,13701.410156400001,E,4,14,1.1,92.2239,M,37.55,M,5.0,0000*66,37.231633648333336,137.02350260666668,679505.7757611462,4122487.0449539735
1285,[2021-02-22 15:29:53.330] $GPGGA,62952.9,3713.8980178,N,13701.410156299999,E,4,14,1.1,92.2248,M,37.55,M,5.0,0000*68,37.231633630000005,137.023502605,679505.7756567622,4122487.042916614
1286,[2021-02-22 15:29:53.455] $GPGGA,62953.0,3713.8980162000003,N,13701.410155500002,E,4,14,1.1,92.2216,M,37.55,M,6.0,0000*66,37.231633603333336,137.0235025916667,679505.7745370782,4122487.039932492
1287,[2021-02-22 15:29:53.549] $GPGGA,62953.1,3713.8980168000007,N,13701.4101567,E,4,14,1.1,92.2228,M,37.55,M,6.0,0000*61,37.23163361333335,137.0235026116667,679505.7762877659,4122487.041079988
1288,[2021-02-22 15:29:53.658] $GPGGA,62953.2,3713.8980169,N,13701.410157700002,E,4,14,1.1,92.2215,M,37.55,M,1.0,0000*6B,37.231633615,137.02350262833338,679505.777762486,4122487.041296523
1289,[2021-02-22 15:29:53.736] $GPGGA,62953.3,3713.8980183,N,13701.4101584,E,4,14,1.1,92.2187,M,37.55,M,1.0,0000*6A,37.231633638333335,137.02350264,679505.7787422095,4122487.0439076303
1290,[2021-02-22 15:29:53.846] $GPGGA,62953.4,3713.8980176,N,13701.4101584,E,4,14,1.1,92.2194,M,37.55,M,1.0,0000*65,37.231633626666664,137.02350264,679505.7787698818,4122487.04261314
1291,[2021-02-22 15:29:53.955] $GPGGA,62953.5,3713.8980181999996,N,13701.4101586,E,4,15,0.9,92.2156,M,37.55,M,1.0,0000*6B,37.231633636666665,137.02350264333336,679505.779041901,4122487.043729025
1292,[2021-02-22 15:29:54.049] $GPGGA,62953.6,3713.8980181,N,13701.410157799997,E,4,15,0.9,92.2157,M,37.55,M,1.0,0000*6B,37.231633635,137.02350262999997,679505.7778629102,4122487.0435188096
1293,[2021-02-22 15:29:54.142] $GPGGA,62953.7,3713.8980178999996,N,13701.4101567,E,4,15,0.9,92.2161,M,37.55,M,1.0,0000*66,37.231633631666654,137.0235026116667,679505.7762442811,4122487.0431141835
1294,[2021-02-22 15:29:54.252] $GPGGA,62953.8,3713.8980185,N,13701.4101565,E,4,15,0.9,92.2141,M,37.55,M,1.0,0000*6A,37.23163364166667,137.02350260833333,679505.7759248236,4122487.0442174263
1295,[2021-02-22 15:29:54.361] $GPGGA,62953.9,3713.8980183,N,13701.410156200001,E,4,15,0.9,92.214,M,37.55,M,1.0,0000*6B,37.231633638333335,137.02350260333336,679505.7754891317,4122487.043838089
1296,[2021-02-22 15:29:54.439] $GPGGA,62954.0,3713.8980174000003,N,13701.410155700001,E,4,15,0.9,92.2117,M,37.55,M,2.0,0000*6A,37.23163362333334,137.023502595,679505.7747853715,4122487.04215794
1297,[2021-02-22 15:29:54.533] $GPGGA,62954.1,3713.8980171,N,13701.4101574,E,4,15,0.9,92.2142,M,37.55,M,2.0,0000*6F,37.23163361833333,137.02350262333331,679505.7773109722,4122487.0416568946
1298,[2021-02-22 15:29:54.642] $GPGGA,62954.2,3713.8980173,N,13701.410159399999,E,4,15,0.9,92.2161,M,37.55,M,2.0,0000*61,37.23163362166667,137.02350265666664,679505.7802604123,4122487.042089968
1299,[2021-02-22 15:29:54.752] $GPGGA,62954.3,3713.8980169,N,13701.410159600002,E,4,15,0.9,92.2184,M,37.55,M,2.0,0000*62,37.231633615,137.02350266000002,679505.7805719633,4122487.041356581
1300,[2021-02-22 15:29:54.830] $GPGGA,62954.4,3713.8980176,N,13701.410159600002,E,4,15,0.9,92.2184,M,37.55,M,2.0,0000*6B,37.231633626666664,137.02350266000002,679505.780544291,4122487.0426510707
1301,[2021-02-22 15:29:54.955] $GPGGA,62954.5,3713.8980171999997,N,13701.4101586,E,4,15,0.9,92.2184,M,37.55,M,2.0,0000*6F,37.23163362,137.02350264333336,679505.7790814328,4122487.0418797527
1302,[2021-02-22 15:29:55.033] $GPGGA,62954.6,3713.8980159999996,N,13701.410157600001,E,4,15,0.9,92.2185,M,37.55,M,2.0,0000*61,37.231633599999995,137.02350262666667,679505.7776501956,4122487.039629017
1303,[2021-02-22 15:29:55.158] $GPGGA,62954.7,3713.8980144,N,13701.410156900001,E,4,15,0.9,92.2211,M,37.55,M,2.0,0000*66,37.23163357333333,137.02350261500004,679505.7766783785,4122487.0366480555
1304,[2021-02-22 15:29:55.236] $GPGGA,62954.8,3713.8980134000003,N,13701.4101558,E,4,15,0.9,92.2211,M,37.55,M,2.0,0000*6C,37.231633556666665,137.02350259666665,679505.7750913635,4122487.0347640137
1305,[2021-02-22 15:29:55.361] $GPGGA,62954.9,3713.8980143,N,13701.410154299998,E,4,15,0.9,92.2227,M,37.55,M,2.0,0000*62,37.23163357166666,137.02350257166663,679505.7728377727,4122487.0363809434
1306,[2021-02-22 15:29:55.439] $GPGGA,62955.0,3713.8980151999995,N,13701.4101519,E,4,15,0.9,92.221,M,37.55,M,3.0,0000*60,37.23163358666666,137.02350253166668,679505.7692533848,4122487.037969426
1307,[2021-02-22 15:29:55.533] $GPGGA,62955.1,3713.898017,N,13701.410153,E,4,15,0.9,92.2197,M,37.55,M,3.0,0000*66,37.23163361666666,137.02350255000002,679505.7708087674,4122487.0413328847
1308,[2021-02-22 15:29:55.658] $GPGGA,62955.2,3713.8980176,N,13701.4101544,E,4,15,0.9,92.2211,M,37.55,M,3.0,0000*6D,37.231633626666664,137.02350257333333,679505.772855189,4122487.0424867016
1309,[2021-02-22 15:29:55.752] $GPGGA,62955.3,3713.8980196,N,13701.410154700003,E,4,15,0.9,92.2215,M,37.55,M,3.0,0000*65,37.23163366000001,137.02350257833336,679505.7732197305,4122487.0461947285
1310,[2021-02-22 15:29:55.830] $GPGGA,62955.4,3713.8980202,N,13701.4101528,E,4,15,0.9,92.2223,M,37.55,M,3.0,0000*60,37.23163367,137.02350254666666,679505.7703865295,4122487.0472442326
1311,[2021-02-22 15:29:55.955] $GPGGA,62955.5,3713.8980202,N,13701.410149399999,E,4,15,0.9,92.2219,M,37.55,M,3.0,0000*6E,37.23163367,137.02350248999997,679505.765359038,4122487.04713676
1312,[2021-02-22 15:29:56.064] $GPGGA,62955.6,3713.8980183,N,13701.4101474,E,4,15,0.9,92.2205,M,37.55,M,3.0,0000*64,37.231633638333335,137.02350245666668,679505.7624768043,4122487.043559925
1313,[2021-02-22 15:29:56.142] $GPGGA,62955.7,3713.8980156,N,13701.410145299998,E,4,15,0.9,92.2209,M,37.55,M,3.0,0000*64,37.23163359333333,137.02350242166665,679505.7594783248,4122487.03850051
1314,[2021-02-22 15:29:56.267] $GPGGA,62955.8,3713.8980134000003,N,13701.410143599998,E,4,15,0.9,92.2205,M,37.55,M,3.0,0000*60,37.231633556666665,137.0235023933333,679505.7570515492,4122487.034378377
1315,[2021-02-22 15:29:56.345] $GPGGA,62955.9,3713.8980126999995,N,13701.4101421,E,4,15,0.9,92.2191,M,37.55,M,3.0,0000*6B,37.231633544999994,137.0235023683333,679505.7548612116,4122487.033036472
1316,[2021-02-22 15:29:56.470] $GPGGA,62956.0,3713.8980125,N,13701.410141499999,E,4,15,0.9,92.2135,M,37.55,M,4.0,0000*6D,37.23163354166666,137.02350235833333,679505.7539819167,4122487.032647652
1317,[2021-02-22 15:29:56.549] $GPGGA,62956.1,3713.8980139,N,13701.4101444,E,4,15,0.9,92.2136,M,37.55,M,4.0,0000*66,37.231633564999996,137.02350240666667,679505.758214725,4122487.0353283
1318,[2021-02-22 15:29:56.658] $GPGGA,62956.2,3713.8980161,N,13701.4101456,E,4,15,0.9,92.2157,M,37.55,M,4.0,0000*6C,37.231633601666665,137.0235024266667,679505.7599021662,4122487.03943463
1319,[2021-02-22 15:29:56.736] $GPGGA,62956.3,3713.8980176,N,13701.4101467,E,4,15,0.9,92.2164,M,37.55,M,4.0,0000*69,37.231633626666664,137.023502445,679505.761469404,4122487.0422433075
1320,[2021-02-22 15:29:56.861] $GPGGA,62956.4,3713.8980169,N,13701.410148299998,E,4,15,0.9,92.2168,M,37.55,M,4.0,0000*66,37.231633615,137.02350247166666,679505.7638629553,4122487.040999393
1321,[2021-02-22 15:29:56.939] $GPGGA,62956.5,3713.8980154,N,13701.4101507,E,4,15,0.9,92.2172,M,37.55,M,4.0,0000*6F,37.23163359,137.02350251166666,679505.7674710692,4122487.0383013487
1322,[2021-02-22 15:29:57.064] $GPGGA,62956.6,3713.8980145000005,N,13701.410152,E,4,15,0.9,92.2157,M,37.55,M,4.0,0000*6E,37.23163357500001,137.02350253333333,679505.7694289216,4122487.0366780986
1323,[2021-02-22 15:29:57.142] $GPGGA,62956.7,3713.8980147,N,13701.410152200002,E,4,15,0.9,92.2149,M,37.55,M,4.0,0000*60,37.231633578333344,137.0235025366667,679505.7697167535,4122487.0370542738
1324,[2021-02-22 15:29:57.252] $GPGGA,62956.8,3713.8980138000006,N,13701.4101512,E,4,15,0.9,92.2172,M,37.55,M,4.0,0000*6C,37.23163356333335,137.02350252,679505.7682736544,4122487.0353583195
1325,[2021-02-22 15:29:57.330] $GPGGA,62956.9,3713.8980134000003,N,13701.410147999999,E,4,15,0.9,92.219,M,37.55,M,4.0,0000*67,37.231633556666665,137.02350246666666,679505.7635577138,4122487.0345174586
1326,[2021-02-22 15:29:57.455] $GPGGA,62957.0,3713.8980138000006,N,13701.410145200001,E,4,15,0.9,92.2167,M,37.55,M,5.0,0000*65,37.23163356333335,137.02350242,679505.7594016176,4122487.0351686617
1327,[2021-02-22 15:29:57.549] $GPGGA,62957.1,3713.8980145000005,N,13701.4101439,E,4,15,0.9,92.2181,M,37.55,M,5.0,0000*6B,37.23163357500001,137.02350239833333,679505.7574516692,4122487.036422061
1328,[2021-02-22 15:29:57.658] $GPGGA,62957.2,3713.8980178999996,N,13701.410146799999,E,4,15,0.9,92.2394,M,37.55,M,5.0,0000*65,37.231633631666654,137.02350244666664,679505.7616054114,4122487.042801249
1329,[2021-02-22 15:29:57.736] $GPGGA,62957.3,3713.8980177000003,N,13701.4101514,E,4,15,0.9,92.2531,M,37.55,M,5.0,0000*69,37.231633628333334,137.02350252333335,679505.7684152185,4122487.0425768
1330,[2021-02-22 15:29:57.861] $GPGGA,62957.4,3713.8980169,N,13701.410154799998,E,4,15,0.9,92.2617,M,37.55,M,5.0,0000*6F,37.231633615,137.02350257999998,679505.7734743288,4122487.041204855
1331,[2021-02-22 15:29:57.955] $GPGGA,62957.5,3713.8980162000003,N,13701.4101558,E,4,15,0.9,92.2688,M,37.55,M,5.0,0000*62,37.231633603333336,137.02350259666665,679505.7749806743,4122487.0399419754
1332,[2021-02-22 15:29:58.033] $GPGGA,62957.6,3713.8980173,N,13701.410158300001,E,4,15,0.9,92.273,M,37.55,M,5.0,0000*65,37.23163362166667,137.02350263833335,679505.7786338767,4122487.042055198
1333,[2021-02-22 15:29:58.158] $GPGGA,62957.7,3713.8980204000004,N,13701.4101584,E,4,15,0.9,92.2758,M,37.55,M,5.0,0000*6E,37.23163367333334,137.02350264,679505.7786591926,4122487.047791101
1334,[2021-02-22 15:29:58.236] $GPGGA,62957.8,3713.8980213,N,13701.4101545,E,4,15,0.9,92.2745,M,37.55,M,5.0,0000*66,37.231633688333325,137.02350257499998,679505.772856788,4122487.049332167
1335,[2021-02-22 15:29:58.361] $GPGGA,62957.9,3713.8980203,N,13701.410155500002,E,4,15,0.9,92.2735,M,37.55,M,5.0,0000*60,37.23163367166667,137.0235025916667,679505.7743749976,4122487.047514506
1336,[2021-02-22 15:29:58.439] $GPGGA,62958.0,3713.8980188,N,13701.4101587,E,4,15,0.9,92.2696,M,37.55,M,6.0,0000*62,37.231633646666666,137.023502645,679505.7791660464,4122487.04484175
1337,[2021-02-22 15:29:58.533] $GPGGA,62958.1,3713.8980186999997,N,13701.4101614,E,4,15,0.9,92.271,M,37.55,M,6.0,0000*6A,37.23163364499999,137.02350269,679505.7831624164,4122487.044742166
1338,[2021-02-22 15:29:58.642] $GPGGA,62958.2,3713.8980215,N,13701.4101614,E,4,15,0.9,92.2665,M,37.55,M,1.0,0000*65,37.23163369166667,137.02350269,679505.7830517272,4122487.049920128
1339,[2021-02-22 15:29:58.752] $GPGGA,62958.3,3713.8980233,N,13701.410158899998,E,4,15,0.9,92.2615,M,37.55,M,1.0,0000*60,37.231633721666675,137.0235026483333,679505.7792838846,4122487.0531697944
1340,[2021-02-22 15:29:58.845] $GPGGA,62958.4,3713.8980240999995,N,13701.410155200001,E,4,15,0.9,92.2605,M,37.55,M,1.0,0000*65,37.23163373499999,137.02350258666667,679505.7737811714,4122487.054532254
1341,[2021-02-22 15:29:58.955] $GPGGA,62958.5,3713.8980257,N,13701.410154,E,4,15,0.9,92.2586,M,37.55,M,1.0,0000*68,37.231633761666664,137.02350256666665,679505.7719435113,4122487.057453158
1342,[2021-02-22 15:29:59.033] $GPGGA,62958.6,3713.8980276,N,13701.410155599999,E,4,15,0.9,92.2564,M,37.55,M,1.0,0000*63,37.231633793333344,137.02350259333332,679505.7742342774,4122487.0610173503
1343,[2021-02-22 15:29:59.158] $GPGGA,62958.7,3713.8980278999998,N,13701.4101585,E,4,15,0.9,92.2545,M,37.55,M,1.0,0000*60,37.23163379833333,137.0235026416667,679505.7785105752,4122487.061663798
1344,[2021-02-22 15:29:59.236] $GPGGA,62958.8,3713.8980280999995,N,13701.4101597,E,4,15,0.9,92.253,M,37.55,M,1.0,0000*69,37.23163380166666,137.02350266166667,679505.7802770735,4122487.0620715846
1345,[2021-02-22 15:29:59.361] $GPGGA,62958.9,3713.8980283,N,13701.4101588,E,4,15,0.9,92.2525,M,37.55,M,1.0,0000*60,37.231633805,137.02350264666666,679505.7789383607,4122487.0624129907
1346,[2021-02-22 15:29:59.455] $GPGGA,62959.0,3713.8980291000003,N,13701.410154899999,E,4,15,0.9,92.2493,M,37.55,M,2.0,0000*69,37.231633818333336,137.02350258166663,679505.773139907,4122487.063769131
1347,[2021-02-22 15:29:59.533] $GPGGA,62959.1,3713.8980314000005,N,13701.410153499999,E,4,15,0.9,92.2493,M,37.55,M,2.0,0000*6F,37.23163385666668,137.0235025583333,679505.7709788409,4122487.0679782047
1348,[2021-02-22 15:29:59.642] $GPGGA,62959.2,3713.8980328000002,N,13701.4101538,E,4,15,0.9,92.2501,M,37.55,M,2.0,0000*64,37.231633880000004,137.02350256333335,679505.7713671037,4122487.0705766655
1349,[2021-02-22 15:29:59.736] $GPGGA,62959.3,3713.8980327,N,13701.4101546,E,4,15,0.9,92.2503,M,37.55,M,2.0,0000*61,37.231633878333334,137.0235025766667,679505.7725539941,4122487.0704170256
1350,[2021-02-22 15:29:59.861] $GPGGA,62959.4,3713.8980308,N,13701.4101566,E,4,15,0.9,92.2504,M,37.55,M,2.0,0000*6E,37.23163384666667,137.02350261000004,679505.7755864533,4122487.066966628
1351,[2021-02-22 15:29:59.939] $GPGGA,62959.5,3713.8980294,N,13701.410155500002,E,4,15,0.9,92.2519,M,37.55,M,2.0,0000*67,37.23163382333333,137.0235025916667,679505.7740152578,4122487.0643428783
1352,[2021-02-22 15:30:00.064] $GPGGA,62959.6,3713.8980275,N,13701.4101532,E,4,15,0.9,92.2521,M,37.55,M,2.0,0000*61,37.23163379166667,137.02350255333334,679505.7706894168,4122487.0607565613
1353,[2021-02-22 15:30:00.142] $GPGGA,62959.7,3713.8980265,N,13701.4101498,E,4,15,0.9,92.2521,M,37.55,M,2.0,0000*60,37.231633775,137.02350249666668,679505.7657014593,4122487.058799816
1354,[2021-02-22 15:30:00.251] $GPGGA,62959.8,3713.898027,N,13701.410146799999,E,4,15,0.9,92.2497,M,37.55,M,2.0,0000*68,37.23163378333334,137.02350244666664,679505.7612456715,4122487.0596296233
1355,[2021-02-22 15:30:00.345] $GPGGA,62959.9,3713.8980265,N,13701.410142299997,E,4,15,0.9,92.2485,M,37.55,M,2.0,0000*61,37.231633775,137.0235023716666,679505.7546114058,4122487.0585627444
1356,[2021-02-22 15:30:00.455] $GPGGA,63000.0,3713.8980263000003,N,13701.410137600002,E,4,15,0.9,92.2448,M,37.55,M,3.0,0000*6D,37.231633771666665,137.02350229333337,679505.7476695558,4122487.0580443246
1357,[2021-02-22 15:30:00.548] $GPGGA,63000.1,3713.8980254000003,N,13701.4101364,E,4,15,0.9,92.2457,M,37.55,M,3.0,0000*65,37.231633756666675,137.02350227333332,679505.7459307208,4122487.05634205
1358,[2021-02-22 15:30:00.658] $GPGGA,63000.2,3713.8980261,N,13701.4101359,E,4,15,0.9,92.2476,M,37.55,M,3.0,0000*6D,37.23163376833333,137.023502265,679505.7451637142,4122487.057620733
1359,[2021-02-22 15:30:00.736] $GPGGA,63000.3,3713.8980263000003,N,13701.4101345,E,4,15,0.9,92.2475,M,37.55,M,3.0,0000*60,37.231633771666665,137.02350224166668,679505.7430856649,4122487.057946335
1360,[2021-02-22 15:30:00.861] $GPGGA,63000.4,3713.8980248000003,N,13701.410133500001,E,4,15,0.9,92.2498,M,37.55,M,3.0,0000*6A,37.231633746666674,137.02350222500004,679505.7416662939,4122487.0551408185
1361,[2021-02-22 15:30:00.939] $GPGGA,63000.5,3713.8980229000003,N,13701.4101333,E,4,15,0.9,92.2512,M,37.55,M,3.0,0000*69,37.23163371500001,137.02350222166663,679505.7414456618,4122487.0516208797
1362,[2021-02-22 15:30:01.064] $GPGGA,63000.6,3713.8980231,N,13701.410134799999,E,4,15,0.9,92.2514,M,37.55,M,3.0,0000*69,37.23163371833333,137.02350224666665,679505.7436557674,4122487.0520381466
1363,[2021-02-22 15:30:01.142] $GPGGA,63000.7,3713.8980225999994,N,13701.410135,E,4,15,0.9,92.2525,M,37.55,M,3.0,0000*65,37.23163370999999,137.02350225,679505.7439712693,4122487.0511198337
1364,[2021-02-22 15:30:01.251] $GPGGA,63000.8,3713.8980224,N,13701.4101333,E,4,15,0.9,92.2552,M,37.55,M,3.0,0000*6D,37.23163370666667,137.02350222166663,679505.7414654277,4122487.050696244
1365,[2021-02-22 15:30:01.329] $GPGGA,63000.9,3713.8980229000003,N,13701.4101329,E,4,15,0.9,92.2553,M,37.55,M,3.0,0000*6B,37.23163371500001,137.023502215,679505.7408541965,4122487.0516082365
1366,[2021-02-22 15:30:01.454] $GPGGA,63001.0,3713.8980228,N,13701.4101329,E,4,15,0.9,92.2521,M,37.55,M,4.0,0000*60,37.23163371333334,137.023502215,679505.7408581497,4122487.0514233084
1367,[2021-02-22 15:30:01.533] $GPGGA,63001.1,3713.8980225,N,13701.410135299999,E,4,15,0.9,92.2526,M,37.55,M,4.0,0000*66,37.23163370833333,137.023502255,679505.7444188254,4122487.050944389
1368,[2021-02-22 15:30:01.658] $GPGGA,63001.2,3713.8980215,N,13701.4101391,E,4,15,0.9,92.2537,M,37.55,M,4.0,0000*68,37.23163369166667,137.02350231833333,679505.750077314,4122487.0492152353
1369,[2021-02-22 15:30:01.751] $GPGGA,63001.3,3713.8980204000004,N,13701.4101412,E,4,15,0.9,92.2527,M,37.55,M,4.0,0000*64,37.23163367333334,137.02350235333333,679505.7532260123,4122487.0472474173
1370,[2021-02-22 15:30:01.845] $GPGGA,63001.4,3713.8980196,N,13701.410142200002,E,4,15,0.9,92.2527,M,37.55,M,4.0,0000*68,37.23163366000001,137.02350237000002,679505.7547363131,4122487.0457996093
1371,[2021-02-22 15:30:01.954] $GPGGA,63001.5,3713.8980186,N,13701.410140900001,E,4,15,0.9,92.2517,M,37.55,M,4.0,0000*62,37.23163364333333,137.02350234833335,679505.7528535713,4122487.0439092433
1372,[2021-02-22 15:30:02.033] $GPGGA,63001.6,3713.8980169,N,13701.410138299998,E,4,15,0.9,92.2522,M,37.55,M,4.0,0000*63,37.231633615,137.02350230499994,679505.7490762165,4122487.0406832965
1373,[2021-02-22 15:30:02.158] $GPGGA,63001.7,3713.8980174000003,N,13701.4101354,E,4,15,0.9,92.2528,M,37.55,M,4.0,0000*6E,37.23163362333334,137.02350225666666,679505.7447683046,4122487.0415162654
1374,[2021-02-22 15:30:02.236] $GPGGA,63001.8,3713.8980193,N,13701.410134200001,E,4,15,0.9,92.2508,M,37.55,M,4.0,0000*6D,37.231633655,137.02350223666667,679505.7429187872,4122487.0449919505
1375,[2021-02-22 15:30:02.361] $GPGGA,63001.9,3713.8980211999997,N,13701.410135,E,4,15,0.9,92.249,M,37.55,M,4.0,0000*65,37.23163368666667,137.02350225,679505.7440266139,4122487.0485308543
1376,[2021-02-22 15:30:02.439] $GPGGA,63002.0,3713.8980221999996,N,13701.4101385,E,4,15,0.9,92.2462,M,37.55,M,5.0,0000*68,37.23163370333332,137.02350230833335,679505.7491624405,4122487.0504907575
1377,[2021-02-22 15:30:02.532] $GPGGA,63002.1,3713.8980229000003,N,13701.410144799998,E,4,15,0.9,92.2466,M,37.55,M,5.0,0000*60,37.23163371500001,137.02350241333332,679505.7584504058,4122487.0519843907
1378,[2021-02-22 15:30:02.626] $GPGGA,63002.2,3713.8980244000004,N,13701.4101459,E,4,15,0.9,92.2454,M,37.55,M,5.0,0000*69,37.23163374000001,137.02350243166666,679505.7600176503,4122487.0547930687
1379,[2021-02-22 15:30:02.751] $GPGGA,63002.3,3713.898026,N,13701.4101446,E,4,15,0.9,92.2451,M,37.55,M,5.0,0000*65,37.23163376666666,137.02350241000002,679505.7580321255,4122487.057710809
1380,[2021-02-22 15:30:02.829] $GPGGA,63002.4,3713.8980281999998,N,13701.4101425,E,4,15,0.9,92.2447,M,37.55,M,5.0,0000*6C,37.23163380333333,137.02350237500002,679505.7548399422,4122487.061712827
1381,[2021-02-22 15:30:02.954] $GPGGA,63002.5,3713.8980291000003,N,13701.410141499999,E,4,15,0.9,92.2452,M,37.55,M,5.0,0000*68,37.231633818333336,137.02350235833333,679505.7533256881,4122487.063345562
1382,[2021-02-22 15:30:03.032] $GPGGA,63002.6,3713.8980266999997,N,13701.41014,E,4,15,0.9,92.2469,M,37.55,M,5.0,0000*6E,37.231633778333325,137.0235023333333,679505.7512025525,4122487.0588598954
1383,[2021-02-22 15:30:03.157] $GPGGA,63002.7,3713.8980229999997,N,13701.4101379,E,4,15,0.9,92.2476,M,37.55,M,5.0,0000*6A,37.23163371666666,137.02350229833334,679505.7482436093,4122487.051951209
1384,[2021-02-22 15:30:03.251] $GPGGA,63002.8,3713.8980199000002,N,13701.410138100002,E,4,15,0.9,92.2478,M,37.55,M,5.0,0000*6C,37.231633665000004,137.0235023016667,679505.748661894,4122487.04622479
1385,[2021-02-22 15:30:03.345] $GPGGA,63002.9,3713.8980174999997,N,13701.410140399998,E,4,15,0.9,92.2503,M,37.55,M,5.0,0000*68,37.231633625,137.02350233999996,679505.7521577151,4122487.0418592407
1386,[2021-02-22 15:30:03.470] $GPGGA,63003.0,3713.8980178,N,13701.410140799999,E,4,15,0.9,92.2475,M,37.55,M,6.0,0000*62,37.231633630000005,137.02350234666665,679505.7527373254,4122487.0424266653
1387,[2021-02-22 15:30:03.548] $GPGGA,63003.1,3713.8980181,N,13701.410140200001,E,4,15,0.9,92.2493,M,37.55,M,6.0,0000*67,37.231633635,137.0235023366667,679505.7518382668,4122487.0429624817
1388,[2021-02-22 15:30:03.657] $GPGGA,63003.2,3713.8980199000002,N,13701.4101405,E,4,15,0.9,92.248,M,37.55,M,1.0,0000*6F,37.231633665000004,137.02350234166664,679505.7522107055,4122487.0463006534
1389,[2021-02-22 15:30:03.736] $GPGGA,63003.3,3713.8980217,N,13701.410141,E,4,15,0.9,92.2471,M,37.55,M,1.0,0000*61,37.23163369499999,137.02350235,679505.7528788872,4122487.0496451464
1390,[2021-02-22 15:30:03.861] $GPGGA,63003.4,3713.8980233999996,N,13701.410140099999,E,4,15,0.9,92.2452,M,37.55,M,1.0,0000*66,37.231633723333324,137.02350233499996,679505.7514808745,4122487.0527604586
1391,[2021-02-22 15:30:03.939] $GPGGA,63003.5,3713.8980248000003,N,13701.4101407,E,4,15,0.9,92.243,M,37.55,M,1.0,0000*6E,37.231633746666674,137.023502345,679505.7523127355,4122487.055368407
1392,[2021-02-22 15:30:04.064] $GPGGA,63003.6,3713.8980254000003,N,13701.4101398,E,4,15,0.9,92.2414,M,37.55,M,1.0,0000*67,37.231633756666675,137.02350233,679505.7509582123,4122487.0564495213
1393,[2021-02-22 15:30:04.142] $GPGGA,63003.7,3713.8980243,N,13701.4101399,E,4,15,0.9,92.2417,M,37.55,M,1.0,0000*62,37.23163373833333,137.02350233166666,679505.7511495643,4122487.0544184824
1394,[2021-02-22 15:30:04.251] $GPGGA,63003.8,3713.898022,N,13701.4101407,E,4,15,0.9,92.2424,M,37.55,M,1.0,0000*68,37.2316337,137.023502345,679505.7524234247,4122487.0501904464
1395,[2021-02-22 15:30:04.345] $GPGGA,63003.9,3713.8980215,N,13701.410140200001,E,4,15,0.9,92.2437,M,37.55,M,1.0,0000*68,37.23163369166667,137.0235023366667,679505.7517038586,4122487.0492500067
1396,[2021-02-22 15:30:04.454] $GPGGA,63004.0,3713.8980217,N,13701.410138100002,E,4,15,0.9,92.2405,M,37.55,M,2.0,0000*6A,37.23163369499999,137.0235023016667,679505.7485907366,4122487.0495534786
1397,[2021-02-22 15:30:04.548] $GPGGA,63004.1,3713.8980228,N,13701.4101368,E,4,15,0.9,92.242,M,37.55,M,2.0,0000*67,37.23163371333334,137.02350227999997,679505.7466249734,4122487.0515465857
1398,[2021-02-22 15:30:04.657] $GPGGA,63004.2,3713.8980225999994,N,13701.4101363,E,4,15,0.9,92.2434,M,37.55,M,2.0,0000*64,37.23163370999999,137.02350227166667,679505.7458935453,4122487.051160926
1399,[2021-02-22 15:30:04.736] $GPGGA,63004.3,3713.898022,N,13701.4101387,E,4,15,0.9,92.2447,M,37.55,M,2.0,0000*6D,37.2316337,137.02350231166665,679505.7494660784,4122487.050127227
1400,[2021-02-22 15:30:04.860] $GPGGA,63004.4,3713.8980218,N,13701.4101403,E,4,15,0.9,92.2461,M,37.55,M,2.0,0000*6E,37.23163369666667,137.02350233833334,679505.7518398636,4122487.0498079476
1401,[2021-02-22 15:30:04.939] $GPGGA,63004.5,3713.8980229999997,N,13701.410141499999,E,4,15,0.9,92.2452,M,37.55,M,2.0,0000*62,37.23163371666666,137.02350235833333,679505.7535668324,4122487.052065004
1402,[2021-02-22 15:30:05.064] $GPGGA,63004.6,3713.8980247,N,13701.4101414,E,4,15,0.9,92.2455,M,37.55,M,2.0,0000*67,37.231633744999996,137.02350235666668,679505.7533517636,4122487.055205607
1403,[2021-02-22 15:30:05.157] $GPGGA,63004.7,3713.8980259000004,N,13701.410138999998,E,4,15,0.9,92.2446,M,37.55,M,2.0,0000*60,37.23163376500001,137.02350231666662,679505.7497555026,4122487.05734887
1404,[2021-02-22 15:30:05.235] $GPGGA,63004.8,3713.8980246,N,13701.4101368,E,4,15,0.9,92.2431,M,37.55,M,2.0,0000*66,37.23163374333334,137.02350227999997,679505.746553816,4122487.0548752756
1405,[2021-02-22 15:30:05.360] $GPGGA,63004.9,3713.8980232,N,13701.410136200002,E,4,15,0.9,92.2421,M,37.55,M,2.0,0000*6F,37.231633720000005,137.02350227000002,679505.7457219594,4122487.052267329
1406,[2021-02-22 15:30:05.439] $GPGGA,63005.0,3713.8980215,N,13701.410135600001,E,4,15,0.9,92.2385,M,37.55,M,3.0,0000*6D,37.23163369166667,137.02350226,679505.7449019578,4122487.049104602
1407,[2021-02-22 15:30:05.532] $GPGGA,63005.1,3713.8980211999997,N,13701.410136000002,E,4,15,0.9,92.2386,M,37.55,M,3.0,0000*6D,37.23163368666667,137.0235022666667,679505.7455052894,4122487.048562464
1408,[2021-02-22 15:30:05.657] $GPGGA,63005.2,3713.8980217,N,13701.410135499998,E,4,15,0.9,92.2366,M,37.55,M,3.0,0000*63,37.23163369499999,137.0235022583333,679505.7447461823,4122487.049471294
1409,[2021-02-22 15:30:05.751] $GPGGA,63005.3,3713.8980229000003,N,13701.4101345,E,4,15,0.9,92.2368,M,37.55,M,3.0,0000*60,37.23163371500001,137.02350224166668,679505.7432200732,4122487.051658812
1410,[2021-02-22 15:30:05.829] $GPGGA,63005.4,3713.8980236999996,N,13701.4101326,E,4,15,0.9,92.2376,M,37.55,M,3.0,0000*62,37.23163372833333,137.02350221,679505.7403789682,4122487.0530781685
1411,[2021-02-22 15:30:05.954] $GPGGA,63005.5,3713.8980246,N,13701.410133700001,E,4,15,0.9,92.2381,M,37.55,M,3.0,0000*6D,37.23163374333334,137.02350222833334,679505.7419699319,4122487.054777285
1412,[2021-02-22 15:30:06.032] $GPGGA,63005.6,3713.8980257,N,13701.4101361,E,4,15,0.9,92.242,M,37.55,M,3.0,0000*61,37.231633761666664,137.02350226833335,679505.7454752629,4122487.0568873463
1413,[2021-02-22 15:30:06.157] $GPGGA,63005.7,3713.8980263999997,N,13701.410136700002,E,4,15,0.9,92.2422,M,37.55,M,3.0,0000*64,37.23163377333333,137.02350227833338,679505.7463347963,4122487.0582008017
1414,[2021-02-22 15:30:06.235] $GPGGA,63005.8,3713.8980261,N,13701.410136700002,E,4,15,0.9,92.2418,M,37.55,M,3.0,0000*67,37.23163376833333,137.02350227833338,679505.7463466559,4122487.0576460212
1415,[2021-02-22 15:30:06.360] $GPGGA,63005.9,3713.8980236999996,N,13701.410135799999,E,4,15,0.9,92.2392,M,37.55,M,3.0,0000*6C,37.23163372833333,137.02350226333328,679505.7451107192,4122487.0531793195
1416,[2021-02-22 15:30:06.438] $GPGGA,63006.0,3713.8980211999997,N,13701.4101354,E,4,15,0.9,92.2346,M,37.55,M,4.0,0000*63,37.23163368666667,137.02350225666666,679505.7446180836,4122487.048543498
1417,[2021-02-22 15:30:06.532] $GPGGA,63006.1,3713.8980201,N,13701.410138100002,E,4,15,0.9,92.2354,M,37.55,M,4.0,0000*6B,37.23163366833334,137.0235023016667,679505.7486539877,4122487.046594645
1418,[2021-02-22 15:30:06.626] $GPGGA,63006.2,3713.8980210999994,N,13701.4101418,E,4,15,0.9,92.2348,M,37.55,M,4.0,0000*63,37.23163368499999,137.02350236333334,679505.7540855458,4122487.0485608713
1419,[2021-02-22 15:30:06.751] $GPGGA,63006.3,3713.8980223000003,N,13701.4101438,E,4,15,0.9,92.2337,M,37.55,M,4.0,0000*69,37.23163370500001,137.0235023966667,679505.7569954562,4122487.0508432183
1420,[2021-02-22 15:30:06.860] $GPGGA,63006.4,3713.8980242,N,13701.4101438,E,4,15,0.9,92.2309,M,37.55,M,4.0,0000*64,37.23163373666666,137.0235023966667,679505.7569203457,4122487.0543568325
1421,[2021-02-22 15:30:06.938] $GPGGA,63006.5,3713.8980254000003,N,13701.4101431,E,4,15,0.9,92.2291,M,37.55,M,4.0,0000*6B,37.231633756666675,137.023502385,679505.7558378326,4122487.0565538337
1422,[2021-02-22 15:30:07.063] $GPGGA,63006.6,3713.8980247,N,13701.4101425,E,4,15,0.9,92.2313,M,37.55,M,4.0,0000*64,37.231633744999996,137.02350237500002,679505.7549783038,4122487.0552403764
1423,[2021-02-22 15:30:07.142] $GPGGA,63006.7,3713.8980243,N,13701.410141499999,E,4,15,0.9,92.2321,M,37.55,M,4.0,0000*63,37.23163373833333,137.02350235833333,679505.753515441,4122487.0544690574
1424,[2021-02-22 15:30:07.251] $GPGGA,63006.8,3713.8980233,N,13701.4101412,E,4,15,0.9,92.2337,M,37.55,M,4.0,0000*6B,37.231633721666675,137.02350235333333,679505.7531113699,4122487.0526103056
1425,[2021-02-22 15:30:07.345] $GPGGA,63006.9,3713.8980226999997,N,13701.410141299999,E,4,15,0.9,92.2344,M,37.55,M,4.0,0000*6A,37.23163371166666,137.02350235499998,679505.753282956,4122487.0515039014
1426,[2021-02-22 15:30:07.470] $GPGGA,63007.0,3713.898022,N,13701.410142200002,E,4,15,0.9,92.2321,M,37.55,M,5.0,0000*65,37.2316337,137.02350237000002,679505.7546414367,4122487.050237861
1427,[2021-02-22 15:30:07.548] $GPGGA,63007.1,3713.8980229999997,N,13701.4101438,E,4,15,0.9,92.2326,M,37.55,M,5.0,0000*69,37.23163371666666,137.0235023966667,679505.7569677839,4122487.0521377064
1428,[2021-02-22 15:30:07.657] $GPGGA,63007.2,3713.8980238000004,N,13701.410142299997,E,4,15,0.9,92.2329,M,37.55,M,5.0,0000*67,37.231633730000006,137.0235023716666,679505.7547181419,4122487.0535697103
1429,[2021-02-22 15:30:07.735] $GPGGA,63007.3,3713.8980243,N,13701.410138100002,E,4,15,0.9,92.2332,M,37.55,M,5.0,0000*6F,37.23163373833333,137.0235023016667,679505.7484879539,4122487.0543615846
1430,[2021-02-22 15:30:07.860] $GPGGA,63007.4,3713.8980229000003,N,13701.410135499998,E,4,15,0.9,92.2332,M,37.55,M,5.0,0000*6D,37.23163371500001,137.0235022583333,679505.744698744,4122487.0516904215
1431,[2021-02-22 15:30:07.938] $GPGGA,63007.5,3713.8980206999995,N,13701.410134200001,E,4,15,0.9,92.2329,M,37.55,M,5.0,0000*6C,37.231633678333324,137.02350223666667,679505.7428634426,4122487.0475809304
1432,[2021-02-22 15:30:08.063] $GPGGA,63007.6,3713.8980186999997,N,13701.410134399997,E,4,15,0.9,92.2327,M,37.55,M,5.0,0000*6C,37.23163364499999,137.02350223999997,679505.7432382378,4122487.043888707
1433,[2021-02-22 15:30:08.141] $GPGGA,63007.7,3713.8980174000003,N,13701.4101351,E,4,15,0.9,92.2319,M,37.55,M,5.0,0000*68,37.23163362333334,137.0235022516667,679505.7443247063,4122487.041506783
1434,[2021-02-22 15:30:08.251] $GPGGA,63007.8,3713.8980164000004,N,13701.410135299999,E,4,15,0.9,92.2307,M,37.55,M,5.0,0000*6B,37.23163360666667,137.023502255,679505.7446599696,4122487.0396638336
1435,[2021-02-22 15:30:08.329] $GPGGA,63007.9,3713.8980159999996,N,13701.4101372,E,4,15,0.9,92.231,M,37.55,M,5.0,0000*6B,37.231633599999995,137.02350228666666,679505.7474852597,4122487.0389841804
1436,[2021-02-22 15:30:08.454] $GPGGA,63008.0,3713.8980163,N,13701.410138299998,E,4,15,0.9,92.23,M,37.55,M,6.0,0000*62,37.231633605,137.02350230499994,679505.7490999356,4122487.0395737337
