,Format,Time,Latitude,LatType,Longitude,LonType,Status,Satellite,LevelAccuracy,Altitude(sea),M(sea),Altitude(geoid),M(geoid),DGPS use,checksum,Lat,Lon,UTM_X,UTM_Y
1334,[2021-02-22 15:25:06.774] $GPGGA,62506.3,3713.8980148,N,13701.4101345,E,4,16,0.8,92.3101,M,37.55,M,4.0,0000*6A,37.23163358,137.02350224166668,679505.7435402811,4122487.0366797103
1335,[2021-02-22 15:25:06.852] $GPGGA,62506.4,3713.8980159999996,N,13701.4101351,E,4,16,0.8,92.3087,M,37.55,M,4.0,0000*6D,37.231633599999995,137.0235022516667,679505.7443800509,4122487.0389178013
1336,[2021-02-22 15:25:06.946] $GPGGA,62506.5,3713.8980139,N,13701.4101336,E,4,16,0.8,92.3132,M,37.55,M,4.0,0000*6E,37.231633564999996,137.0235022266667,679505.7422450557,4122487.034986917
1337,[2021-02-22 15:25:07.071] $GPGGA,62506.6,3713.8980128,N,13701.410133399999,E,4,16,0.8,92.3141,M,37.55,M,4.0,0000*6B,37.231633546666664,137.02350222333328,679505.7419928003,4122487.0329463966
1338,[2021-02-22 15:25:07.165] $GPGGA,62506.7,3713.8980134000003,N,13701.410134,E,4,16,0.8,92.3126,M,37.55,M,4.0,0000*65,37.231633556666665,137.02350223333332,679505.7428562869,4122487.0340749254
1339,[2021-02-22 15:25:07.259] $GPGGA,62506.8,3713.8980124,N,13701.410133399999,E,4,16,0.8,92.3166,M,37.55,M,4.0,0000*6C,37.23163354,137.02350222333328,679505.742008613,4122487.032206687
1340,[2021-02-22 15:25:07.337] $GPGGA,62506.9,3713.8980119999997,N,13701.410132700003,E,4,16,0.8,92.3169,M,37.55,M,4.0,0000*64,37.23163353333333,137.0235022116667,679505.7409893621,4122487.0314448513
1341,[2021-02-22 15:25:07.462] $GPGGA,62507.0,3713.8980099,N,13701.4101292,E,4,16,0.8,92.3164,M,37.55,M,5.0,0000*6C,37.23163349833334,137.0235021533333,679505.7358970183,4122487.0274507497
1342,[2021-02-22 15:25:07.556] $GPGGA,62507.1,3713.8980096,N,13701.4101301,E,4,16,0.8,92.3139,M,37.55,M,5.0,0000*61,37.23163349333333,137.0235021683333,679505.737239682,4122487.026924415
1343,[2021-02-22 15:25:07.665] $GPGGA,62507.2,3713.8980104,N,13701.4101306,E,4,16,0.8,92.311,M,37.55,M,5.0,0000*64,37.231633506666675,137.02350217666665,679505.7379473953,4122487.028419639
1344,[2021-02-22 15:25:07.743] $GPGGA,62507.3,3713.8980094000003,N,13701.410130700002,E,4,16,0.8,92.3121,M,37.55,M,5.0,0000*6E,37.23163349000001,137.0235021783334,679505.7381348007,4122487.0265735276
1345,[2021-02-22 15:25:07.868] $GPGGA,62507.4,3713.8980096,N,13701.4101322,E,4,16,0.8,92.3093,M,37.55,M,5.0,0000*64,37.23163349333333,137.02350220333335,679505.7403448997,4122487.026990795
1346,[2021-02-22 15:25:07.946] $GPGGA,62507.5,3713.8980116999996,N,13701.410134099999,E,4,16,0.8,92.3048,M,37.55,M,5.0,0000*6E,37.231633528333326,137.02350223499997,679505.743071358,4122487.0309343226
1347,[2021-02-22 15:25:08.071] $GPGGA,62507.6,3713.8980109,N,13701.410132100002,E,4,16,0.8,92.3091,M,37.55,M,5.0,0000*60,37.231633515000006,137.0235022016667,679505.7401456437,4122487.0293916883
1348,[2021-02-22 15:25:08.149] $GPGGA,62507.7,3713.8980108,N,13701.4101319,E,4,16,0.8,92.3083,M,37.55,M,5.0,0000*68,37.23163351333333,137.02350219833332,679505.7398538564,4122487.0292004384
1349,[2021-02-22 15:25:08.259] $GPGGA,62507.8,3713.8980116999996,N,13701.4101329,E,4,16,0.8,92.3074,M,37.55,M,5.0,0000*62,37.231633528333326,137.023502215,679505.7412969532,4122487.0308963917
1350,[2021-02-22 15:25:08.337] $GPGGA,62507.9,3713.8980125,N,13701.410131999999,E,4,16,0.8,92.308,M,37.55,M,5.0,0000*60,37.23163354166666,137.02350219999997,679505.7399345192,4122487.0323473616
1351,[2021-02-22 15:25:08.462] $GPGGA,62508.0,3713.8980138000006,N,13701.410133200001,E,4,16,0.8,92.302,M,37.55,M,6.0,0000*60,37.23163356333335,137.02350221999998,679505.741657537,4122487.0347893466
1352,[2021-02-22 15:25:08.555] $GPGGA,62508.1,3713.8980146,N,13701.410133500001,E,4,16,0.8,92.3045,M,37.55,M,6.0,0000*6C,37.23163357666667,137.02350222500004,679505.7420695188,4122487.036278247
1353,[2021-02-22 15:25:08.665] $GPGGA,62508.2,3713.898014,N,13701.410132799998,E,4,16,0.8,92.3068,M,37.55,M,1.0,0000*6D,37.231633566666666,137.0235022133333,679505.7410581586,4122487.035146557
1354,[2021-02-22 15:25:08.759] $GPGGA,62508.3,3713.8980124,N,13701.4101311,E,4,16,0.8,92.3102,M,37.55,M,1.0,0000*69,37.23163354,137.02350218499998,679505.7386076683,4122487.032133986
1355,[2021-02-22 15:25:08.837] $GPGGA,62508.4,3713.8980115000004,N,13701.4101304,E,4,16,0.8,92.3139,M,37.55,M,1.0,0000*60,37.23163352500001,137.02350217333336,679505.7376081788,4122487.030447515
1356,[2021-02-22 15:25:08.962] $GPGGA,62508.5,3713.8980116,N,13701.410129299999,E,4,16,0.8,92.3154,M,37.55,M,1.0,0000*66,37.23163352666666,137.02350215499996,679505.7359776788,4122487.0305976714
1357,[2021-02-22 15:25:09.040] $GPGGA,62508.6,3713.8980116999996,N,13701.4101304,E,4,16,0.8,92.3143,M,37.55,M,1.0,0000*6D,37.231633528333326,137.02350217333336,679505.7376002724,4122487.030817368
1358,[2021-02-22 15:25:09.165] $GPGGA,62508.7,3713.8980115000004,N,13701.4101311,E,4,16,0.8,92.3135,M,37.55,M,1.0,0000*6B,37.23163352500001,137.02350218499998,679505.7386432468,4122487.0304696425
1359,[2021-02-22 15:25:09.243] $GPGGA,62508.8,3713.8980101999996,N,13701.4101296,E,4,16,0.8,92.3147,M,37.55,M,1.0,0000*69,37.23163350333333,137.02350216000002,679505.7364766307,4122487.0280181738
1360,[2021-02-22 15:25:09.368] $GPGGA,62508.9,3713.8980111,N,13701.4101294,E,4,16,0.8,92.3138,M,37.55,M,1.0,0000*60,37.23163351833334,137.02350215666667,679505.736145316,4122487.0296761976
1361,[2021-02-22 15:25:09.446] $GPGGA,62509.0,3713.8980114,N,13701.4101284,E,4,16,0.8,92.3127,M,37.55,M,2.0,0000*61,37.23163352333333,137.02350214000003,679505.7346547856,4122487.030199367
1362,[2021-02-22 15:25:09.540] $GPGGA,62509.1,3713.8980116999996,N,13701.410129299999,E,4,16,0.8,92.3128,M,37.55,M,2.0,0000*6A,37.231633528333326,137.02350215499996,679505.7359737256,4122487.0307825976
1363,[2021-02-22 15:25:09.634] $GPGGA,62509.2,3713.8980123,N,13701.4101296,E,4,16,0.8,92.3123,M,37.55,M,2.0,0000*60,37.23163353833334,137.02350216000002,679505.7363936139,4122487.0319016455
1364,[2021-02-22 15:25:09.759] $GPGGA,62509.3,3713.8980124,N,13701.410129700002,E,4,16,0.8,92.3118,M,37.55,M,2.0,0000*6F,37.23163354,137.0235021616667,679505.7365375299,4122487.0320897326
1365,[2021-02-22 15:25:09.837] $GPGGA,62509.4,3713.8980121,N,13701.410128900001,E,4,16,0.8,92.3137,M,37.55,M,2.0,0000*6F,37.23163353500001,137.02350214833334,679505.7353664476,4122487.0315096644
1366,[2021-02-22 15:25:09.962] $GPGGA,62509.5,3713.8980134000003,N,13701.4101296,E,4,16,0.8,92.311,M,37.55,M,2.0,0000*61,37.231633556666665,137.02350216000002,679505.7363501289,4122487.033935843
1367,[2021-02-22 15:25:10.040] $GPGGA,62509.6,3713.8980138000006,N,13701.4101284,E,4,16,0.8,92.3104,M,37.55,M,2.0,0000*68,37.23163356333335,137.02350214000003,679505.7345599092,4122487.0346376216
1368,[2021-02-22 15:25:10.165] $GPGGA,62509.7,3713.8980144,N,13701.4101276,E,4,16,0.8,92.3108,M,37.55,M,2.0,0000*63,37.23163357333333,137.02350212666664,679505.7333532461,4122487.035721895
1369,[2021-02-22 15:25:10.243] $GPGGA,62509.8,3713.8980146,N,13701.4101259,E,4,16,0.8,92.3125,M,37.55,M,2.0,0000*6C,37.23163357666667,137.02350209833332,679505.7308315962,4122487.036038014
1370,[2021-02-22 15:25:10.368] $GPGGA,62509.9,3713.8980139,N,13701.410124200002,E,4,16,0.8,92.3148,M,37.55,M,2.0,0000*64,37.231633564999996,137.02350207,679505.7283455272,4122487.034689788
1371,[2021-02-22 15:25:10.462] $GPGGA,62510.0,3713.8980144,N,13701.410124799999,E,4,16,0.8,92.3083,M,37.55,M,3.0,0000*62,37.23163357333333,137.02350207999996,679505.7292129602,4122487.0356333884
1372,[2021-02-22 15:25:10.555] $GPGGA,62510.1,3713.8980134999997,N,13701.410123299998,E,4,16,0.8,92.3097,M,37.55,M,3.0,0000*6C,37.23163355833333,137.023502055,679505.7270305314,4122487.0339216287
1373,[2021-02-22 15:25:10.665] $GPGGA,62510.2,3713.8980131,N,13701.4101229,E,4,16,0.8,92.3099,M,37.55,M,3.0,0000*6E,37.23163355166666,137.02350204833334,679505.7264548766,4122487.0331692775
1374,[2021-02-22 15:25:10.743] $GPGGA,62510.3,3713.8980133,N,13701.410121500001,E,4,16,0.8,92.3092,M,37.55,M,3.0,0000*69,37.231633554999995,137.02350202500003,679505.7243768296,4122487.033494878
1375,[2021-02-22 15:25:10.868] $GPGGA,62510.4,3713.8980132,N,13701.410119400001,E,4,16,0.8,92.3077,M,37.55,M,3.0,0000*6E,37.23163355333333,137.02350199,679505.7212755673,4122487.033243571
1376,[2021-02-22 15:25:10.946] $GPGGA,62510.5,3713.8980134000003,N,13701.410119400001,E,4,16,0.8,92.3062,M,37.55,M,3.0,0000*6D,37.231633556666665,137.02350199,679505.7212676608,4122487.033613425
1377,[2021-02-22 15:25:11.071] $GPGGA,62510.6,3713.8980134999997,N,13701.410117399999,E,4,16,0.8,92.3065,M,37.55,M,3.0,0000*66,37.23163355833333,137.02350195666665,679505.718306359,4122487.033735132
1378,[2021-02-22 15:25:11.149] $GPGGA,62510.7,3713.8980131,N,13701.410114899998,E,4,16,0.8,92.3074,M,37.55,M,3.0,0000*6D,37.23163355166666,137.02350191499994,679505.7146254843,4122487.032916401
1379,[2021-02-22 15:25:11.258] $GPGGA,62510.8,3713.898014,N,13701.4101145,E,4,16,0.8,92.3064,M,37.55,M,3.0,0000*69,37.231633566666666,137.02350190833334,679505.7139984427,4122487.0345681016
1380,[2021-02-22 15:25:11.337] $GPGGA,62510.9,3713.8980153000007,N,13701.4101146,E,4,16,0.8,92.3039,M,37.55,M,3.0,0000*61,37.231633588333345,137.02350191,679505.7140949181,4122487.036975317
1381,[2021-02-22 15:25:11.461] $GPGGA,62511.0,3713.8980156,N,13701.4101131,E,4,16,0.8,92.3011,M,37.55,M,4.0,0000*61,37.23163359333333,137.02350188500003,679505.711865051,4122487.037482682
1382,[2021-02-22 15:25:11.555] $GPGGA,62511.1,3713.8980166999995,N,13701.410112200001,E,4,16,0.8,92.3055,M,37.55,M,4.0,0000*60,37.23163361166665,137.02350187,679505.7104907575,4122487.039488431
1383,[2021-02-22 15:25:11.665] $GPGGA,62511.2,3713.8980189999997,N,13701.4101132,E,4,16,0.8,92.3025,M,37.55,M,4.0,0000*6D,37.23163365,137.02350188666668,679505.7118785096,4122487.043773368
1384,[2021-02-22 15:25:11.743] $GPGGA,62511.3,3713.8980186,N,13701.410112900001,E,4,16,0.8,92.3061,M,37.55,M,4.0,0000*61,37.23163364333333,137.02350188166668,679505.7114507195,4122487.0430241753
1385,[2021-02-22 15:25:11.868] $GPGGA,62511.4,3713.8980181999996,N,13701.410112600002,E,4,16,0.8,92.3089,M,37.55,M,4.0,0000*6B,37.231633636666665,137.0235018766667,679505.7110229316,4122487.0422749845
1386,[2021-02-22 15:25:11.946] $GPGGA,62511.5,3713.8980178999996,N,13701.410113299999,E,4,16,0.8,92.3096,M,37.55,M,4.0,0000*64,37.231633631666654,137.02350188833333,679505.7120698594,4122487.041742328
1387,[2021-02-22 15:25:12.055] $GPGGA,62511.6,3713.8980173,N,13701.4101131,E,4,16,0.8,92.309,M,37.55,M,4.0,0000*69,37.23163362166667,137.02350188500003,679505.711797847,4122487.0406264453
1388,[2021-02-22 15:25:12.149] $GPGGA,62511.7,3713.8980143,N,13701.4101139,E,4,16,0.8,92.3109,M,37.55,M,4.0,0000*62,37.23163357166666,137.0235018983333,679505.7130993773,4122487.0351039167
1389,[2021-02-22 15:25:12.258] $GPGGA,62511.8,3713.8980133,N,13701.4101153,E,4,16,0.8,92.3122,M,37.55,M,4.0,0000*6F,37.231633554999995,137.02350192166665,679505.7152090522,4122487.0332988985
1390,[2021-02-22 15:25:12.368] $GPGGA,62511.9,3713.8980124,N,13701.4101158,E,4,16,0.8,92.3143,M,37.55,M,4.0,0000*64,37.23163354,137.02350192999998,679505.7159839674,4122487.0316503597
1391,[2021-02-22 15:25:12.446] $GPGGA,62512.0,3713.8980134000003,N,13701.4101163,E,4,16,0.8,92.3088,M,37.55,M,5.0,0000*60,37.231633556666665,137.0235019383333,679505.7166837722,4122487.033515436
1392,[2021-02-22 15:25:12.540] $GPGGA,62512.1,3713.898014,N,13701.410117399999,E,4,16,0.8,92.3068,M,37.55,M,5.0,0000*6A,37.231633566666666,137.02350195666665,679505.7182865931,4122487.03465977
1393,[2021-02-22 15:25:12.665] $GPGGA,62512.2,3713.8980133,N,13701.410118799999,E,4,16,0.8,92.3063,M,37.55,M,5.0,0000*65,37.231633554999995,137.02350197999996,679505.720384406,4122487.0334095326
1394,[2021-02-22 15:25:12.758] $GPGGA,62512.3,3713.8980136,N,13701.4101199,E,4,16,0.8,92.3041,M,37.55,M,5.0,0000*61,37.23163356,137.02350199833336,679505.7219990933,4122487.0339990845
1395,[2021-02-22 15:25:12.836] $GPGGA,62512.4,3713.8980141,N,13701.4101209,E,4,16,0.8,92.303,M,37.55,M,5.0,0000*6A,37.23163356833334,137.023502015,679505.7234579962,4122487.0349553307
1396,[2021-02-22 15:25:12.961] $GPGGA,62512.5,3713.8980143,N,13701.4101211,E,4,16,0.8,92.3059,M,37.55,M,5.0,0000*6F,37.23163357166666,137.02350201833332,679505.7237458235,4122487.0353315067
1397,[2021-02-22 15:25:13.040] $GPGGA,62512.6,3713.8980148,N,13701.410121500001,E,4,16,0.8,92.3055,M,37.55,M,5.0,0000*6F,37.23163358,137.02350202500003,679505.7243175318,4122487.0362687865
1398,[2021-02-22 15:25:13.165] $GPGGA,62512.7,3713.8980130000004,N,13701.4101199,E,4,16,0.8,92.3104,M,37.55,M,5.0,0000*63,37.23163355000001,137.02350199833336,679505.7220228125,4122487.032889523
1399,[2021-02-22 15:25:13.243] $GPGGA,62512.8,3713.8980109999998,N,13701.4101184,E,4,16,0.8,92.3146,M,37.55,M,5.0,0000*64,37.23163351666666,137.02350197333334,679505.719883864,4122487.029143564
1400,[2021-02-22 15:25:13.368] $GPGGA,62512.9,3713.8980121,N,13701.410118900001,E,4,16,0.8,92.3129,M,37.55,M,5.0,0000*63,37.23163353500001,137.02350198166667,679505.7205797157,4122487.031193569
1401,[2021-02-22 15:25:13.446] $GPGGA,62513.0,3713.8980118,N,13701.4101197,E,4,16,0.8,92.3074,M,37.55,M,6.0,0000*64,37.231633529999996,137.023501995,679505.7217745124,4122487.0306640733
1402,[2021-02-22 15:25:13.540] $GPGGA,62513.1,3713.8980128,N,13701.410119299999,E,4,16,0.8,92.3075,M,37.55,M,6.0,0000*63,37.231633546666664,137.02350198833332,679505.7211435109,4122487.032500702
1403,[2021-02-22 15:25:13.664] $GPGGA,62513.2,3713.8980145000005,N,13701.4101185,E,4,16,0.8,92.3163,M,37.55,M,1.0,0000*6D,37.23163357500001,137.023501975,679505.7198933673,4122487.035619177
1404,[2021-02-22 15:25:13.758] $GPGGA,62513.3,3713.8980141999996,N,13701.410116799998,E,4,16,0.8,92.3244,M,37.55,M,1.0,0000*6E,37.23163356999999,137.0235019466666,679505.7173914788,4122487.035010657
1405,[2021-02-22 15:25:13.836] $GPGGA,62513.4,3713.8980138000006,N,13701.410115,E,4,16,0.8,92.3325,M,37.55,M,1.0,0000*69,37.23163356333335,137.0235019166667,679505.7147456878,4122487.034214053
1406,[2021-02-22 15:25:13.961] $GPGGA,62513.5,3713.8980144,N,13701.4101178,E,4,16,0.8,92.3274,M,37.55,M,1.0,0000*6C,37.23163357333333,137.02350196333333,679505.7188622501,4122487.035412121
1407,[2021-02-22 15:25:14.071] $GPGGA,62513.6,3713.8980138000006,N,13701.4101185,E,4,16,0.8,92.3264,M,37.55,M,1.0,0000*67,37.23163356333335,137.023501975,679505.7199210395,4122487.034324686
1408,[2021-02-22 15:25:14.149] $GPGGA,62513.7,3713.8980132,N,13701.410119999999,E,4,16,0.8,92.3245,M,37.55,M,1.0,0000*61,37.23163355333333,137.023502,679505.7221627708,4122487.0332625364
1409,[2021-02-22 15:25:14.258] $GPGGA,62513.8,3713.8980131,N,13701.410121500001,E,4,16,0.8,92.3214,M,37.55,M,1.0,0000*6D,37.23163355166666,137.02350202500003,679505.724384736,4122487.033125023
1410,[2021-02-22 15:25:14.336] $GPGGA,62513.9,3713.8980129,N,13701.4101226,E,4,16,0.8,92.3214,M,37.55,M,1.0,0000*65,37.23163354833334,137.02350204333334,679505.7260191801,4122487.0327899405
1411,[2021-02-22 15:25:14.461] $GPGGA,62514.0,3713.8980153000007,N,13701.4101245,E,4,16,0.8,92.3131,M,37.55,M,2.0,0000*64,37.231633588333345,137.023502075,679505.7287337832,4122487.0372882513
1412,[2021-02-22 15:25:14.555] $GPGGA,62514.1,3713.8980151,N,13701.410125499999,E,4,16,0.8,92.3146,M,37.55,M,2.0,0000*66,37.231633585,137.02350209166664,679505.7302203606,4122487.0369500043
1413,[2021-02-22 15:25:14.664] $GPGGA,62514.2,3713.8980161,N,13701.4101245,E,4,16,0.8,92.3136,M,37.55,M,2.0,0000*60,37.231633601666665,137.023502075,679505.7287021579,4122487.038767668
1414,[2021-02-22 15:25:14.743] $GPGGA,62514.3,3713.8980164000004,N,13701.4101238,E,4,16,0.8,92.3145,M,37.55,M,2.0,0000*6A,37.23163360666667,137.02350206333332,679505.7276552255,4122487.039300324
1415,[2021-02-22 15:25:14.868] $GPGGA,62514.4,3713.8980168000007,N,13701.4101232,E,4,16,0.8,92.3163,M,37.55,M,2.0,0000*6F,37.23163361333335,137.02350205333335,679505.7267522116,4122487.040021067
1416,[2021-02-22 15:25:14.946] $GPGGA,62514.5,3713.8980169,N,13701.4101212,E,4,16,0.8,92.3222,M,37.55,M,2.0,0000*6B,37.231633615,137.02350202000002,679505.7237909121,4122487.040142773
1417,[2021-02-22 15:25:15.071] $GPGGA,62514.6,3713.8980178999996,N,13701.4101204,E,4,16,0.8,92.3245,M,37.55,M,2.0,0000*6F,37.231633631666654,137.02350200666663,679505.7225684363,4122487.0419667563
1418,[2021-02-22 15:25:15.149] $GPGGA,62514.7,3713.8980195,N,13701.4101204,E,4,16,0.8,92.325,M,37.55,M,2.0,0000*68,37.23163365833334,137.02350200666663,679505.7225051853,4122487.044925593
1419,[2021-02-22 15:25:15.258] $GPGGA,62514.8,3713.8980206,N,13701.4101216,E,4,16,0.8,92.3231,M,37.55,M,2.0,0000*6A,37.23163367666667,137.02350202666668,679505.7242361117,4122487.0469977227
1420,[2021-02-22 15:25:15.336] $GPGGA,62514.9,3713.89802,N,13701.410121399998,E,4,16,0.8,92.3252,M,37.55,M,2.0,0000*6A,37.23163366666667,137.02350202333332,679505.7239640949,4122487.0458818376
1421,[2021-02-22 15:25:15.461] $GPGGA,62515.0,3713.8980196,N,13701.410120800001,E,4,16,0.8,92.3214,M,37.55,M,3.0,0000*60,37.23163366000001,137.02350201333334,679505.7230927063,4122487.045123164
1422,[2021-02-22 15:25:15.555] $GPGGA,62515.1,3713.8980192000004,N,13701.4101205,E,4,16,0.8,92.3253,M,37.55,M,3.0,0000*6B,37.23163365333334,137.02350200833334,679505.7226649162,4122487.044373972
1423,[2021-02-22 15:25:15.664] $GPGGA,62515.2,3713.8980201,N,13701.410120299997,E,4,16,0.8,92.3244,M,37.55,M,3.0,0000*61,37.23163366833334,137.02350200499995,679505.7223335993,4122487.046031995
1424,[2021-02-22 15:25:15.774] $GPGGA,62515.3,3713.8980208999997,N,13701.410117500001,E,4,16,0.8,92.3255,M,37.55,M,3.0,0000*6A,37.23163368166666,137.02350195833336,679505.7181616948,4122487.0474229036
1425,[2021-02-22 15:25:15.852] $GPGGA,62515.4,3713.8980218,N,13701.410113,E,4,16,0.8,92.3281,M,37.55,M,3.0,0000*65,37.23163369666667,137.02350188333332,679505.7114720822,4122487.048945008
1426,[2021-02-22 15:25:15.961] $GPGGA,62515.5,3713.898021,N,13701.410110499999,E,4,16,0.8,92.3301,M,37.55,M,3.0,0000*63,37.231633683333335,137.02350184166664,679505.7078070247,4122487.0473865652
1427,[2021-02-22 15:25:16.039] $GPGGA,62515.6,3713.8980224,N,13701.410110499999,E,4,16,0.8,92.3267,M,37.55,M,3.0,0000*66,37.23163370666667,137.02350184166664,679505.7077516802,4122487.0499755465
1428,[2021-02-22 15:25:16.164] $GPGGA,62515.7,3713.898022,N,13701.410111899999,E,4,16,0.8,92.3211,M,37.55,M,3.0,0000*6F,37.2316337,137.02350186499996,679505.7098376337,4122487.0492800903
1429,[2021-02-22 15:25:16.242] $GPGGA,62515.8,3713.8980208000003,N,13701.410113400001,E,4,16,0.8,92.318,M,37.55,M,3.0,0000*6E,37.23163368,137.02350189000003,679505.7121030884,4122487.0471083787
1430,[2021-02-22 15:25:16.367] $GPGGA,62515.9,3713.8980193999996,N,13701.410113499998,E,4,16,0.8,92.3198,M,37.55,M,3.0,0000*61,37.231633656666666,137.02350189166663,679505.7123062931,4122487.0445225583
1431,[2021-02-22 15:25:16.446] $GPGGA,62516.0,3713.8980189000004,N,13701.4101151,E,4,16,0.8,92.3135,M,37.55,M,4.0,0000*65,37.231633648333336,137.02350191833335,679505.7146919423,4122487.043648499
1432,[2021-02-22 15:25:16.539] $GPGGA,62516.1,3713.8980173,N,13701.4101165,E,4,16,0.8,92.315,M,37.55,M,4.0,0000*65,37.23163362166667,137.02350194166667,679505.716825334,4122487.0407339185
1433,[2021-02-22 15:25:16.664] $GPGGA,62516.2,3713.8980158,N,13701.4101191,E,4,16,0.8,92.3161,M,37.55,M,4.0,0000*66,37.23163359666667,137.02350198500002,679505.7207291839,4122487.038042195
1434,[2021-02-22 15:25:16.758] $GPGGA,62516.3,3713.8980156,N,13701.410120800001,E,4,16,0.8,92.3156,M,37.55,M,4.0,0000*6E,37.23163359333333,137.02350201333334,679505.7232508338,4122487.0377260754
1435,[2021-02-22 15:25:16.836] $GPGGA,62516.4,3713.8980141,N,13701.4101226,E,4,16,0.8,92.3184,M,37.55,M,4.0,0000*6C,37.23163356833334,137.02350204333334,679505.725971742,4122487.035009067
1436,[2021-02-22 15:25:16.961] $GPGGA,62516.5,3713.8980147,N,13701.410126199999,E,4,16,0.8,92.3183,M,37.55,M,4.0,0000*6C,37.231633578333344,137.02350210333333,679505.7312712459,4122487.036232425
1437,[2021-02-22 15:25:17.039] $GPGGA,62516.6,3713.8980149000004,N,13701.410126499999,E,4,16,0.8,92.3232,M,37.55,M,4.0,0000*6F,37.23163358166668,137.02350210833333,679505.7317069423,4122487.0366117624
1438,[2021-02-22 15:25:17.164] $GPGGA,62516.7,3713.898018,N,13701.410127399999,E,4,16,0.8,92.3239,M,37.55,M,4.0,0000*60,37.23163363333333,137.02350212333332,679505.7329151977,4122487.0423729513
1439,[2021-02-22 15:25:17.242] $GPGGA,62516.8,3713.89802,N,13701.410128900001,E,4,16,0.8,92.3199,M,37.55,M,4.0,0000*6F,37.23163366666667,137.02350214833334,679505.735054146,4122487.04611891
1440,[2021-02-22 15:25:17.367] $GPGGA,62516.9,3713.8980206999995,N,13701.4101306,E,4,16,0.8,92.3175,M,37.55,M,4.0,0000*6D,37.231633678333324,137.02350217666665,679505.7375402173,4122487.0474671354
1441,[2021-02-22 15:25:17.445] $GPGGA,62517.0,3713.8980215,N,13701.4101304,E,4,16,0.8,92.3141,M,37.55,M,5.0,0000*62,37.23163369166667,137.02350217333336,679505.7372128604,4122487.048940232
1442,[2021-02-22 15:25:17.539] $GPGGA,62517.1,3713.8980208000003,N,13701.4101312,E,4,16,0.8,92.3173,M,37.55,M,5.0,0000*69,37.23163368,137.0235021866667,679505.7384234698,4122487.047671029
1443,[2021-02-22 15:25:17.664] $GPGGA,62517.2,3713.8980202,N,13701.4101311,E,4,16,0.8,92.319,M,37.55,M,5.0,0000*6E,37.23163367,137.02350218499998,679505.7382993199,4122487.046558305
1444,[2021-02-22 15:25:17.742] $GPGGA,62517.3,3713.8980181,N,13701.410131499999,E,4,16,0.8,92.3206,M,37.55,M,5.0,0000*6F,37.231633635,137.02350219166664,679505.738973804,4122487.0426874785
1445,[2021-02-22 15:25:17.867] $GPGGA,62517.4,3713.898017,N,13701.4101306,E,4,16,0.8,92.3208,M,37.55,M,5.0,0000*6A,37.23163361666666,137.02350217666665,679505.737686485,4122487.0406248304
1446,[2021-02-22 15:25:17.945] $GPGGA,62517.5,3713.8980153000007,N,13701.4101292,E,4,16,0.8,92.3235,M,37.55,M,5.0,0000*68,37.231633588333345,137.0235021533333,679505.7356835463,4122487.037436817
1447,[2021-02-22 15:25:18.070] $GPGGA,62517.6,3713.8980144,N,13701.410128,E,4,16,0.8,92.3279,M,37.55,M,5.0,0000*66,37.23163357333333,137.02350213333335,679505.7339447204,4122487.035734539
1448,[2021-02-22 15:25:18.149] $GPGGA,62517.7,3713.8980156999996,N,13701.4101285,E,4,16,0.8,92.3242,M,37.55,M,5.0,0000*68,37.231633595,137.02350214166668,679505.7346326655,4122487.0381543967
1449,[2021-02-22 15:25:18.258] $GPGGA,62517.8,3713.8980166,N,13701.4101286,E,4,16,0.8,92.3237,M,37.55,M,5.0,0000*64,37.23163361,137.02350214333333,679505.7347449516,4122487.0398219023
1450,[2021-02-22 15:25:18.336] $GPGGA,62517.9,3713.8980181999996,N,13701.410128799998,E,4,16,0.8,92.3237,M,37.55,M,5.0,0000*61,37.231633636666665,137.02350214666663,679505.734977432,4122487.0427870597
1451,[2021-02-22 15:25:18.461] $GPGGA,62518.0,3713.8980192000004,N,13701.410126100001,E,4,16,0.8,92.3195,M,37.55,M,6.0,0000*69,37.23163365333334,137.02350210166668,679505.730945488,4122487.044550985
1452,[2021-02-22 15:25:18.555] $GPGGA,62518.1,3713.8980206,N,13701.4101257,E,4,16,0.8,92.3215,M,37.55,M,6.0,0000*68,37.23163367666667,137.023502095,679505.7302986714,4122487.0471273223
1453,[2021-02-22 15:25:18.664] $GPGGA,62518.2,3713.8980229999997,N,13701.4101273,E,4,16,0.8,92.3216,M,37.55,M,1.0,0000*6C,37.23163371666666,137.02350212166667,679505.7325696739,4122487.051616148
1454,[2021-02-22 15:25:18.742] $GPGGA,62518.3,3713.898024,N,13701.410128100002,E,4,16,0.8,92.3211,M,37.55,M,1.0,0000*60,37.23163373333334,137.02350213500003,679505.7337130816,4122487.053490709
1455,[2021-02-22 15:25:18.867] $GPGGA,62518.4,3713.8980248999997,N,13701.4101284,E,4,16,0.8,92.3201,M,37.55,M,1.0,0000*6A,37.23163374833333,137.02350214000003,679505.7341211058,4122487.0551645346
1456,[2021-02-22 15:25:18.945] $GPGGA,62518.5,3713.8980240999995,N,13701.410126700002,E,4,16,0.8,92.3212,M,37.55,M,1.0,0000*6C,37.23163373499999,137.02350211166672,679505.7316389877,4122487.0536313816
1457,[2021-02-22 15:25:19.055] $GPGGA,62518.6,3713.8980246,N,13701.4101286,E,4,16,0.8,92.3203,M,37.55,M,1.0,0000*67,37.23163374333334,137.02350214333333,679505.7344286967,4122487.0546160764
1458,[2021-02-22 15:25:19.148] $GPGGA,62518.7,3713.8980228,N,13701.4101301,E,4,16,0.8,92.3215,M,37.55,M,1.0,0000*67,37.23163371333334,137.0235021683333,679505.7367178616,4122487.0513348025
1459,[2021-02-22 15:25:19.258] $GPGGA,62518.8,3713.8980223000003,N,13701.4101306,E,4,16,0.8,92.3229,M,37.55,M,1.0,0000*6B,37.23163370500001,137.02350217666665,679505.7374769663,4122487.050425972
1460,[2021-02-22 15:25:19.367] $GPGGA,62518.9,3713.8980221999996,N,13701.410127500001,E,4,16,0.8,92.3216,M,37.55,M,1.0,0000*62,37.23163370333332,137.023502125,679505.7328970332,4122487.050143052
1461,[2021-02-22 15:25:19.445] $GPGGA,62519.0,3713.8980225,N,13701.410125499999,E,4,16,0.8,92.3167,M,37.55,M,2.0,0000*69,37.23163370833333,137.02350209166664,679505.7299278249,4122487.0506346147
1462,[2021-02-22 15:25:19.539] $GPGGA,62519.1,3713.8980221,N,13701.4101244,E,4,16,0.8,92.3173,M,37.55,M,2.0,0000*69,37.231633701666674,137.0235020733333,679505.7283170975,4122487.049860138
1463,[2021-02-22 15:25:19.648] $GPGGA,62519.2,3713.8980229000003,N,13701.4101245,E,4,16,0.8,92.3132,M,37.55,M,2.0,0000*66,37.23163371500001,137.023502075,679505.7284333413,4122487.0513427164
1464,[2021-02-22 15:25:19.758] $GPGGA,62519.3,3713.8980229999997,N,13701.410125499999,E,4,16,0.8,92.3136,M,37.55,M,2.0,0000*6A,37.23163371666666,137.02350209166664,679505.729908059,4122487.0515592513
1465,[2021-02-22 15:25:19.852] $GPGGA,62519.4,3713.8980226999997,N,13701.4101266,E,4,16,0.8,92.3143,M,37.55,M,2.0,0000*69,37.23163371166666,137.02350211,679505.7315464631,4122487.051039241
1466,[2021-02-22 15:25:19.961] $GPGGA,62519.5,3713.8980226999997,N,13701.4101264,E,4,16,0.8,92.3163,M,37.55,M,2.0,0000*68,37.23163371166666,137.02350210666668,679505.7312507271,4122487.051032919
1467,[2021-02-22 15:25:20.039] $GPGGA,62519.6,3713.8980225,N,13701.410126199999,E,4,16,0.8,92.3148,M,37.55,M,2.0,0000*66,37.23163370833333,137.02350210333333,679505.7309628975,4122487.0506567415
1468,[2021-02-22 15:25:20.164] $GPGGA,62519.7,3713.8980217,N,13701.410125,E,4,16,0.8,92.3154,M,37.55,M,2.0,0000*6A,37.23163369499999,137.02350208333334,679505.729220116,4122487.049139394
1469,[2021-02-22 15:25:20.242] $GPGGA,62519.8,3713.8980206,N,13701.410124000002,E,4,16,0.8,92.3169,M,37.55,M,2.0,0000*6A,37.23163367666667,137.0235020666667,679505.7277849325,4122487.0470735854
1470,[2021-02-22 15:25:20.367] $GPGGA,62519.9,3713.8980208999997,N,13701.4101245,E,4,16,0.8,92.3147,M,37.55,M,2.0,0000*6D,37.23163368166666,137.023502075,679505.728512405,4122487.0476441705
1471,[2021-02-22 15:25:20.445] $GPGGA,62520.0,3713.8980211999997,N,13701.410123700001,E,4,16,0.8,92.3106,M,37.55,M,3.0,0000*65,37.23163368666667,137.02350206166668,679505.7273176082,4122487.048173666
1472,[2021-02-22 15:25:20.539] $GPGGA,62520.1,3713.8980213,N,13701.410123399999,E,4,16,0.8,92.3111,M,37.55,M,3.0,0000*60,37.231633688333325,137.02350205666664,679505.72687005,4122487.048349109
1473,[2021-02-22 15:25:20.664] $GPGGA,62520.2,3713.8980211999997,N,13701.410122100002,E,4,16,0.8,92.3119,M,37.55,M,3.0,0000*6E,37.23163368666667,137.02350203500006,679505.724951736,4122487.0481230905
1474,[2021-02-22 15:25:20.758] $GPGGA,62520.3,3713.898021,N,13701.410121,E,4,16,0.8,92.3137,M,37.55,M,3.0,0000*63,37.231633683333335,137.02350201666667,679505.7233330955,4122487.047718465
1475,[2021-02-22 15:25:20.836] $GPGGA,62520.4,3713.8980206,N,13701.410119400001,E,4,16,0.8,92.3169,M,37.55,M,3.0,0000*67,37.23163367666667,137.02350199,679505.7209830317,4122487.046928182
1476,[2021-02-22 15:25:20.961] $GPGGA,62520.5,3713.8980218,N,13701.410119299999,E,4,16,0.8,92.3156,M,37.55,M,3.0,0000*62,37.23163369666667,137.02350198833332,679505.7207877242,4122487.0491441474
1477,[2021-02-22 15:25:21.039] $GPGGA,62520.6,3713.8980225999994,N,13701.410118700001,E,4,16,0.8,92.3144,M,37.55,M,3.0,0000*6A,37.23163370999999,137.02350197833337,679505.7198688999,4122487.0506045977
1478,[2021-02-22 15:25:21.164] $GPGGA,62520.7,3713.8980233999996,N,13701.4101178,E,4,16,0.8,92.3162,M,37.55,M,3.0,0000*6C,37.231633723333324,137.02350196333333,679505.7185064636,4122487.0520555666
1479,[2021-02-22 15:25:21.273] $GPGGA,62520.8,3713.8980248999997,N,13701.4101166,E,4,16,0.8,92.3169,M,37.55,M,3.0,0000*6D,37.23163374833333,137.02350194333332,679505.7166727567,4122487.0547915427
1480,[2021-02-22 15:25:21.351] $GPGGA,62520.9,3713.8980266000003,N,13701.410117299998,E,4,16,0.8,92.3147,M,37.55,M,3.0,0000*69,37.231633776666676,137.02350195499994,679505.7176406205,4122487.0579574327
1481,[2021-02-22 15:25:21.461] $GPGGA,62521.0,3713.8980284000004,N,13701.410116,E,4,16,0.8,92.3113,M,37.55,M,4.0,0000*69,37.23163380666668,137.02350193333334,679505.715647194,4122487.0612450293
1482,[2021-02-22 15:25:21.555] $GPGGA,62521.1,3713.8980310999996,N,13701.4101162,E,4,16,0.8,92.3145,M,37.55,M,4.0,0000*64,37.231633851666665,137.02350193666666,679505.7158361918,4122487.066244383
1483,[2021-02-22 15:25:21.664] $GPGGA,62521.2,3713.8980329000005,N,13701.4101199,E,4,16,0.8,92.315,M,37.55,M,4.0,0000*6C,37.231633881666674,137.02350199833336,679505.7212361288,4122487.069690028
1484,[2021-02-22 15:25:21.742] $GPGGA,62521.3,3713.8980352,N,13701.410120800001,E,4,16,0.8,92.3158,M,37.55,M,4.0,0000*62,37.23163391999999,137.02350201333334,679505.7224760096,4122487.0739718014
1485,[2021-02-22 15:25:21.867] $GPGGA,62521.4,3713.8980361999998,N,13701.410119400001,E,4,16,0.8,92.3135,M,37.55,M,4.0,0000*6B,37.23163393666666,137.02350199,679505.720366335,4122487.0757768187
1486,[2021-02-22 15:25:21.945] $GPGGA,62521.5,3713.8980354,N,13701.410116,E,4,16,0.8,92.3147,M,37.55,M,4.0,0000*61,37.23163392333333,137.02350193333334,679505.7153704711,4122487.0741899284
1487,[2021-02-22 15:25:22.070] $GPGGA,62521.6,3713.8980331999996,N,13701.410113299999,E,4,16,0.8,92.3152,M,37.55,M,4.0,0000*60,37.23163388666666,137.02350188833333,679505.7114650222,4122487.070036185
1488,[2021-02-22 15:25:22.148] $GPGGA,62521.7,3713.8980308,N,13701.410113400001,E,4,16,0.8,92.3157,M,37.55,M,4.0,0000*6A,37.23163384666667,137.02350189000003,679505.7117077699,4122487.065601095
1489,[2021-02-22 15:25:22.258] $GPGGA,62521.8,3713.8980285999996,N,13701.4101152,E,4,16,0.8,92.3175,M,37.55,M,4.0,0000*62,37.23163381,137.02350192,679505.7144563482,4122487.061589593
1490,[2021-02-22 15:25:22.336] $GPGGA,62521.9,3713.8980288000002,N,13701.410121899999,E,4,16,0.8,92.3153,M,37.55,M,4.0,0000*65,37.23163381333333,137.02350203166665,679505.7243555512,4122487.062171233
1491,[2021-02-22 15:25:22.461] $GPGGA,62522.0,3713.8980273,N,13701.410123299998,E,4,16,0.8,92.3181,M,37.55,M,5.0,0000*6D,37.23163378833333,137.023502055,679505.726484992,4122487.0594415795
1492,[2021-02-22 15:25:22.555] $GPGGA,62522.1,3713.8980288000002,N,13701.4101291,E,4,16,0.8,92.3173,M,37.55,M,5.0,0000*6D,37.23163381333333,137.02350215166666,679505.7350019997,4122487.062398822
1493,[2021-02-22 15:25:22.664] $GPGGA,62522.2,3713.8980272,N,13701.410132100002,E,4,16,0.8,92.3154,M,37.55,M,5.0,0000*64,37.23163378666666,137.0235022016667,679505.7395012747,4122487.0595348156
1494,[2021-02-22 15:25:22.742] $GPGGA,62522.3,3713.8980245,N,13701.410129799999,E,4,16,0.8,92.3195,M,37.55,M,5.0,0000*6F,37.23163374166666,137.02350216333332,679505.7362070569,4122487.05446908
1495,[2021-02-22 15:25:22.867] $GPGGA,62522.4,3713.898022,N,13701.410125499999,E,4,16,0.8,92.3196,M,37.55,M,5.0,0000*69,37.2316337,137.02350209166664,679505.7299475909,4122487.04970998
1496,[2021-02-22 15:25:22.961] $GPGGA,62522.5,3713.8980229999997,N,13701.4101218,E,4,16,0.8,92.3157,M,37.55,M,5.0,0000*6D,37.23163371666666,137.02350203,679505.7244369714,4122487.0514422953
1497,[2021-02-22 15:25:23.039] $GPGGA,62522.6,3713.8980242,N,13701.4101185,E,4,16,0.8,92.3147,M,37.55,M,5.0,0000*6D,37.23163373666666,137.023501975,679505.7195099085,4122487.0535571105
1498,[2021-02-22 15:25:23.164] $GPGGA,62522.7,3713.8980263999997,N,13701.4101158,E,4,16,0.8,92.3126,M,37.55,M,5.0,0000*6F,37.23163377333333,137.02350192999998,679505.7154305216,4122487.0575401615
1499,[2021-02-22 15:25:23.242] $GPGGA,62522.8,3713.898029,N,13701.4101171,E,4,16,0.8,92.3128,M,37.55,M,5.0,0000*6E,37.231633816666665,137.02350195166665,679505.7172500126,4122487.0623893617
1500,[2021-02-22 15:25:23.367] $GPGGA,62522.9,3713.8980325,N,13701.410119600001,E,4,16,0.8,92.3112,M,37.55,M,5.0,0000*60,37.23163387500001,137.02350199333335,679505.7208083387,4122487.068940837
1501,[2021-02-22 15:25:23.445] $GPGGA,62523.0,3713.8980334,N,13701.410120200002,E,4,16,0.8,92.3071,M,37.55,M,6.0,0000*61,37.23163388999999,137.02350200333333,679505.7216599613,4122487.070624145
1502,[2021-02-22 15:25:23.539] $GPGGA,62523.1,3713.8980339,N,13701.4101206,E,4,16,0.8,92.308,M,37.55,M,6.0,0000*67,37.231633898333335,137.02350201,679505.7222316652,4122487.0715614264
1503,[2021-02-22 15:25:23.648] $GPGGA,62523.2,3713.8980350999996,N,13701.410118900001,E,4,16,0.8,92.3074,M,37.55,M,1.0,0000*62,37.23163391833332,137.02350198166667,679505.7196704834,4122487.0737268147
1504,[2021-02-22 15:25:23.758] $GPGGA,62523.3,3713.8980329000005,N,13701.410113,E,4,16,0.8,92.3102,M,37.55,M,1.0,0000*6E,37.231633881666674,137.02350188333332,679505.7110332788,4122487.0694719222
1505,[2021-02-22 15:25:23.836] $GPGGA,62523.4,3713.8980303000003,N,13701.410109399998,E,4,16,0.8,92.314,M,37.55,M,1.0,0000*68,37.23163383833334,137.0235018233333,679505.7058128363,4122487.0645500207
1506,[2021-02-22 15:25:23.961] $GPGGA,62523.5,3713.8980294,N,13701.4101102,E,4,16,0.8,92.314,M,37.55,M,1.0,0000*68,37.23163382333333,137.0235018366667,679505.707031359,4122487.062910964
1507,[2021-02-22 15:25:24.039] $GPGGA,62523.6,3713.8980285999996,N,13701.4101136,E,4,16,0.8,92.3081,M,37.55,M,1.0,0000*63,37.23163381,137.02350189333336,679505.7120904737,4122487.061539019
1508,[2021-02-22 15:25:24.164] $GPGGA,62523.7,3713.8980278000004,N,13701.410113299999,E,4,16,0.8,92.3074,M,37.55,M,1.0,0000*6C,37.23163379666668,137.02350188833333,679505.7116784941,4122487.0600501206
1509,[2021-02-22 15:25:24.242] $GPGGA,62523.8,3713.8980269000003,N,13701.410111000001,E,4,16,0.8,92.3126,M,37.55,M,1.0,0000*64,37.231633781666666,137.02350185000003,679505.708313128,4122487.0583130736
1510,[2021-02-22 15:25:24.367] $GPGGA,62523.9,3713.8980261999995,N,13701.4101118,E,4,16,0.8,92.3156,M,37.55,M,1.0,0000*61,37.231633769999995,137.0235018633333,679505.709523733,4122487.0570438695
1511,[2021-02-22 15:25:24.445] $GPGGA,62524.0,3713.8980265,N,13701.410111899999,E,4,16,0.8,92.3137,M,37.55,M,2.0,0000*6D,37.231633775,137.02350186499996,679505.7096597403,4122487.0576018128
1512,[2021-02-22 15:25:24.539] $GPGGA,62524.1,3713.8980287,N,13701.410112,E,4,16,0.8,92.3122,M,37.55,M,2.0,0000*6E,37.23163381166667,137.02350186666666,679505.7097206416,4122487.0616733725
1513,[2021-02-22 15:25:24.664] $GPGGA,62524.2,3713.8980287,N,13701.4101102,E,4,16,0.8,92.3125,M,37.55,M,2.0,0000*6A,37.23163381166667,137.0235018366667,679505.7070590312,4122487.0616164748
1514,[2021-02-22 15:25:24.757] $GPGGA,62524.3,3713.8980295,N,13701.4101103,E,4,16,0.8,92.3088,M,37.55,M,2.0,0000*6F,37.231633825,137.02350183833335,679505.7071752726,4122487.0630990523
1515,[2021-02-22 15:25:24.867] $GPGGA,62524.4,3713.8980298,N,13701.410109399998,E,4,16,0.8,92.3081,M,37.55,M,2.0,0000*63,37.23163383,137.0235018233333,679505.7058326022,4122487.0636253846
1516,[2021-02-22 15:25:24.945] $GPGGA,62524.5,3713.8980297,N,13701.4101097,E,4,16,0.8,92.307,M,37.55,M,2.0,0000*60,37.23163382833333,137.02350182833334,679505.7062801606,4122487.0634499406
1517,[2021-02-22 15:25:25.070] $GPGGA,62524.6,3713.8980295999995,N,13701.4101106,E,4,16,0.8,92.3071,M,37.55,M,2.0,0000*6A,37.23163382666665,137.02350184333332,679505.7076149178,4122487.0632934608
1518,[2021-02-22 15:25:25.148] $GPGGA,62524.7,3713.8980295,N,13701.410112600002,E,4,16,0.8,92.3058,M,37.55,M,2.0,0000*61,37.231633825,137.0235018766667,679505.7105762218,4122487.063171754
1519,[2021-02-22 15:25:25.257] $GPGGA,62524.8,3713.8980276,N,13701.410113499998,E,4,16,0.8,92.3084,M,37.55,M,2.0,0000*60,37.231633793333344,137.02350189166663,679505.7119821319,4122487.0596865877
1520,[2021-02-22 15:25:25.351] $GPGGA,62524.9,3713.8980263000003,N,13701.4101151,E,4,16,0.8,92.3104,M,37.55,M,2.0,0000*6E,37.231633771666665,137.02350191833335,679505.7143994067,4122487.057333109
1521,[2021-02-22 15:25:25.461] $GPGGA,62525.0,3713.8980240999995,N,13701.4101165,E,4,16,0.8,92.3074,M,37.55,M,3.0,0000*66,37.23163373499999,137.02350194166667,679505.7165565175,4122487.0533089642
1522,[2021-02-22 15:25:25.554] $GPGGA,62525.1,3713.8980223000003,N,13701.410116699999,E,4,16,0.8,92.3065,M,37.55,M,3.0,0000*61,37.23163370500001,137.02350194499996,679505.7169234062,4122487.049986598
1523,[2021-02-22 15:25:25.664] $GPGGA,62525.2,3713.8980217,N,13701.410112700001,E,4,16,0.8,92.3083,M,37.55,M,3.0,0000*69,37.23163369499999,137.02350187833335,679505.711032437,4122487.048750596
1524,[2021-02-22 15:25:25.742] $GPGGA,62525.3,3713.8980236999996,N,13701.410107499998,E,4,16,0.8,92.3083,M,37.55,M,3.0,0000*6C,37.23163372833333,137.02350179166663,679505.703264267,4122487.0522847697
1525,[2021-02-22 15:25:25.867] $GPGGA,62525.4,3713.8980272,N,13701.410103999999,E,4,16,0.8,92.3076,M,37.55,M,3.0,0000*66,37.23163378666666,137.02350173333332,679505.6979505516,4122487.0586465867
1526,[2021-02-22 15:25:25.945] $GPGGA,62525.5,3713.8980295,N,13701.4101025,E,4,16,0.8,92.308,M,37.55,M,3.0,0000*64,37.231633825,137.02350170833333,679505.6956416186,4122487.062852498
1527,[2021-02-22 15:25:26.070] $GPGGA,62525.6,3713.8980325,N,13701.410105500001,E,4,16,0.8,92.3029,M,37.55,M,3.0,0000*69,37.23163387500001,137.02350175833334,679505.6999590448,4122487.0684951423
1528,[2021-02-22 15:25:26.148] $GPGGA,62525.7,3713.8980321000004,N,13701.4101056,E,4,16,0.8,92.3074,M,37.55,M,3.0,0000*67,37.23163386833334,137.02350176,679505.7001227222,4122487.0677585937
1529,[2021-02-22 15:25:26.257] $GPGGA,62525.8,3713.8980361000004,N,13701.410109999999,E,4,16,0.8,92.3025,M,37.55,M,3.0,0000*6A,37.231633935000005,137.02350183333328,679505.7064707552,4122487.075294763
1530,[2021-02-22 15:25:26.335] $GPGGA,62525.9,3713.8980373000004,N,13701.410111200003,E,4,16,0.8,92.2985,M,37.55,M,3.0,0000*69,37.23163395500001,137.02350185333336,679505.7081977306,4122487.077551821
1531,[2021-02-22 15:25:26.460] $GPGGA,62526.0,3713.8980361000004,N,13701.4101125,E,4,16,0.8,92.2941,M,37.55,M,4.0,0000*6B,37.231633935000005,137.023501875,679505.7101674427,4122487.075373787
1532,[2021-02-22 15:25:26.539] $GPGGA,62526.1,3713.8980358999997,N,13701.4101111,E,4,16,0.8,92.2919,M,37.55,M,4.0,0000*6B,37.23163393166666,137.02350185166668,679505.7081052061,4122487.0749596776
1533,[2021-02-22 15:25:26.664] $GPGGA,62526.2,3713.8980355,N,13701.4101083,E,4,16,0.8,92.2941,M,37.55,M,4.0,0000*63,37.231633925000004,137.02350180500002,679505.7039807353,4122487.0741314637
1534,[2021-02-22 15:25:26.757] $GPGGA,62526.3,3713.8980358999997,N,13701.4101076,E,4,16,0.8,92.2945,M,37.55,M,4.0,0000*60,37.23163393166666,137.02350179333334,679505.70292985,4122487.074849044
1535,[2021-02-22 15:25:26.851] $GPGGA,62526.4,3713.8980355,N,13701.410105399998,E,4,16,0.8,92.2968,M,37.55,M,4.0,0000*64,37.231633925000004,137.02350175666663,679505.6996925779,4122487.074039796
1536,[2021-02-22 15:25:26.960] $GPGGA,62526.5,3713.8980377999997,N,13701.410105399998,E,4,16,0.8,92.2961,M,37.55,M,4.0,0000*63,37.23163396333333,137.02350175666663,679505.6996016548,4122487.078293119
1537,[2021-02-22 15:25:27.039] $GPGGA,62526.6,3713.8980392,N,13701.4101056,E,4,16,0.8,92.2967,M,37.55,M,4.0,0000*60,37.231633986666665,137.02350176,679505.6998420462,4122487.0808884217
1538,[2021-02-22 15:25:27.164] $GPGGA,62526.7,3713.8980397,N,13701.410107499998,E,4,16,0.8,92.2988,M,37.55,M,4.0,0000*64,37.231633994999996,137.02350179166663,679505.7026317576,4122487.0818731156
1539,[2021-02-22 15:25:27.242] $GPGGA,62526.8,3713.8980401999993,N,13701.4101079,E,4,16,0.8,92.2994,M,37.55,M,4.0,0000*61,37.231634003333326,137.02350179833334,679505.7032034659,4122487.082810396
1540,[2021-02-22 15:25:27.367] $GPGGA,62526.9,3713.8980386999992,N,13701.4101042,E,4,16,0.8,92.3014,M,37.55,M,4.0,0000*62,37.23163397833331,137.02350173666665,679505.6977916693,4122487.0799195305
1541,[2021-02-22 15:25:27.445] $GPGGA,62527.0,3713.8980374,N,13701.4100997,E,4,16,0.8,92.2965,M,37.55,M,5.0,0000*69,37.23163395666666,137.0235016616667,679505.6911890358,4122487.077373237
1542,[2021-02-22 15:25:27.539] $GPGGA,62527.1,3713.8980354,N,13701.410093999999,E,4,16,0.8,92.2992,M,37.55,M,5.0,0000*68,37.23163392333333,137.02350156666665,679505.6828396587,4122487.073494518
1543,[2021-02-22 15:25:27.632] $GPGGA,62527.2,3713.898033,N,13701.4100928,E,4,16,0.8,92.2966,M,37.55,M,5.0,0000*6C,37.23163388333334,137.02350154666667,679505.6811601281,4122487.069018336
1544,[2021-02-22 15:25:27.757] $GPGGA,62527.3,3713.8980313,N,13701.4100937,E,4,16,0.8,92.2955,M,37.55,M,5.0,0000*62,37.231633855000005,137.02350156166665,679505.6825581363,4122487.0659030234
1545,[2021-02-22 15:25:27.835] $GPGGA,62527.4,3713.8980318999998,N,13701.4100963,E,4,16,0.8,92.2932,M,37.55,M,5.0,0000*6F,37.231633865,137.023501605,679505.6863789692,4122487.0670947703
1546,[2021-02-22 15:25:27.960] $GPGGA,62527.5,3713.8980333000004,N,13701.4100965,E,4,16,0.8,92.2965,M,37.55,M,5.0,0000*62,37.23163388833334,137.02350160833336,679505.686619363,4122487.0696900743
1547,[2021-02-22 15:25:28.038] $GPGGA,62527.6,3713.8980355,N,13701.410095700001,E,4,16,0.8,92.2945,M,37.55,M,5.0,0000*62,37.231633925000004,137.02350159500003,679505.6853494535,4122487.0737331836
1548,[2021-02-22 15:25:28.163] $GPGGA,62527.7,3713.8980373000004,N,13701.410098100001,E,4,16,0.8,92.2909,M,37.55,M,5.0,0000*64,37.23163395500001,137.02350163500003,679505.6888271123,4122487.077137736
1549,[2021-02-22 15:25:28.242] $GPGGA,62527.8,3713.8980350999996,N,13701.4101025,E,4,16,0.8,92.2945,M,37.55,M,5.0,0000*65,37.23163391833332,137.02350170833333,679505.6954202403,4122487.073208417
1550,[2021-02-22 15:25:28.367] $GPGGA,62527.9,3713.8980321999998,N,13701.410110799998,E,4,16,0.8,92.2975,M,37.55,M,5.0,0000*6D,37.23163386999999,137.02350184666662,679505.7078078665,4122487.0681078895
1551,[2021-02-22 15:25:28.460] $GPGGA,62528.0,3713.8980303000003,N,13701.410115399998,E,4,16,0.8,92.2949,M,37.55,M,6.0,0000*6D,37.23163383833334,137.0235019233333,679505.7146848754,4122487.064739678
1552,[2021-02-22 15:25:28.570] $GPGGA,62528.1,3713.8980278000004,N,13701.4101197,E,4,16,0.8,92.2977,M,37.55,M,6.0,0000*63,37.23163379666668,137.023501995,679505.721142003,4122487.060252421
1553,[2021-02-22 15:25:28.663] $GPGGA,62528.2,3713.8980251000003,N,13701.4101226,E,4,16,0.8,92.3053,M,37.55,M,1.0,0000*6B,37.231633751666664,137.02350204333334,679505.7255368916,4122487.0553510543
1554,[2021-02-22 15:25:28.742] $GPGGA,62528.3,3713.8980226999997,N,13701.410126299998,E,4,16,0.8,92.3066,M,37.55,M,1.0,0000*6C,37.23163371166666,137.02350210499998,679505.731102858,4122487.0510297576
1555,[2021-02-22 15:25:28.867] $GPGGA,62528.4,3713.89802,N,13701.4101296,E,4,16,0.8,92.3054,M,37.55,M,1.0,0000*65,37.23163366666667,137.02350216000002,679505.7360892186,4122487.0461410363
1556,[2021-02-22 15:25:28.945] $GPGGA,62528.5,3713.8980145000005,N,13701.410134099999,E,4,16,0.8,92.3041,M,37.55,M,1.0,0000*69,37.23163357500001,137.02350223499997,679505.7429606686,4122487.0361122866
1557,[2021-02-22 15:25:29.070] $GPGGA,62528.6,3713.8980073,N,13701.4101382,E,4,16,0.8,92.3062,M,37.55,M,1.0,0000*60,37.231633455,137.02350230333334,679505.7493078621,4122487.0229271282
1558,[2021-02-22 15:25:29.148] $GPGGA,62528.7,3713.8980034,N,13701.4101417,E,4,16,0.8,92.305,M,37.55,M,1.0,0000*68,37.23163339,137.0235023616667,679505.7546373926,4122487.0158256018
1559,[2021-02-22 15:25:29.257] $GPGGA,62528.8,3713.8979999,N,13701.410141999999,E,4,16,0.8,92.3049,M,37.55,M,1.0,0000*63,37.231633331666664,137.02350236666663,679505.7552193523,4122487.0093626343
1560,[2021-02-22 15:25:29.351] $GPGGA,62528.9,3713.8979967,N,13701.410143399999,E,4,16,0.8,92.3058,M,37.55,M,1.0,0000*66,37.23163327833333,137.02350239,679505.7574159994,4122487.0034892177
1561,[2021-02-22 15:25:29.460] $GPGGA,62529.0,3713.8979962,N,13701.4101454,E,4,16,0.8,92.2984,M,37.55,M,2.0,0000*67,37.23163327,137.0235024233333,679505.7603931096,4122487.0026278025
1562,[2021-02-22 15:25:29.554] $GPGGA,62529.1,3713.8979965999997,N,13701.4101459,E,4,16,0.8,92.301,M,37.55,M,2.0,0000*6A,37.231633276666656,137.02350243166666,679505.7611166356,4122487.003383314
1563,[2021-02-22 15:25:29.663] $GPGGA,62529.2,3713.8980023000004,N,13701.410149000001,E,4,16,0.8,92.2968,M,37.55,M,2.0,0000*65,37.23163337166667,137.02350248333335,679505.7654751928,4122487.0140221533
1564,[2021-02-22 15:25:29.741] $GPGGA,62529.3,3713.8980094999997,N,13701.4101461,E,4,16,0.8,92.2991,M,37.55,M,2.0,0000*61,37.231633491666656,137.02350243499998,679505.7609024085,4122487.0272452403
1565,[2021-02-22 15:25:29.866] $GPGGA,62529.4,3713.8980166999995,N,13701.4101405,E,4,16,0.8,92.3003,M,37.55,M,2.0,0000*6B,37.23163361166665,137.02350234166664,679505.7523372076,4122487.040382982
1566,[2021-02-22 15:25:29.945] $GPGGA,62529.5,3713.898022,N,13701.4101366,E,4,16,0.8,92.3002,M,37.55,M,2.0,0000*69,37.2316337,137.02350227666668,679505.7463608673,4122487.0500608464
1567,[2021-02-22 15:25:30.070] $GPGGA,62529.6,3713.8980242,N,13701.410133899999,E,4,16,0.8,92.299,M,37.55,M,2.0,0000*67,37.23163373666666,137.02350223166664,679505.742281476,4122487.054043898
1568,[2021-02-22 15:25:30.163] $GPGGA,62529.7,3713.8980219000005,N,13701.410130799999,E,4,16,0.8,92.3005,M,37.55,M,2.0,0000*6E,37.23163369833334,137.02350217999998,679505.7377885128,4122487.0496925837
1569,[2021-02-22 15:25:30.241] $GPGGA,62529.8,3713.8980176,N,13701.410128900001,E,4,16,0.8,92.3041,M,37.55,M,2.0,0000*63,37.231633626666664,137.02350214833334,679505.7351490225,4122487.0416806582
1570,[2021-02-22 15:25:30.366] $GPGGA,62529.9,3713.8980149999998,N,13701.4101284,E,4,16,0.8,92.3029,M,37.55,M,2.0,0000*65,37.23163358333333,137.02350214000003,679505.7345124709,4122487.0368567454
1571,[2021-02-22 15:25:30.445] $GPGGA,62530.0,3713.8980125,N,13701.410125600001,E,4,16,0.8,92.3008,M,37.55,M,3.0,0000*6B,37.23163354166666,137.02350209333335,679505.7304710147,4122487.0321450606
1572,[2021-02-22 15:25:30.538] $GPGGA,62530.1,3713.8980134999997,N,13701.410126299998,E,4,16,0.8,92.299,M,37.55,M,3.0,0000*64,37.23163355833333,137.02350210499998,679505.731466551,4122487.0340164574
1573,[2021-02-22 15:25:30.663] $GPGGA,62530.2,3713.8980138000006,N,13701.4101258,E,4,16,0.8,92.3024,M,37.55,M,3.0,0000*65,37.23163356333335,137.02350209666665,679505.7307153548,4122487.034555436
1574,[2021-02-22 15:25:30.757] $GPGGA,62530.3,3713.8980151,N,13701.410127000001,E,4,16,0.8,92.3028,M,37.55,M,3.0,0000*6D,37.231633585,137.02350211666666,679505.7324383726,4122487.036997419
1575,[2021-02-22 15:25:30.835] $GPGGA,62530.4,3713.8980165,N,13701.4101287,E,4,16,0.8,92.3019,M,37.55,M,3.0,0000*67,37.23163360833333,137.02350214499998,679505.7348967715,4122487.0396401365
1576,[2021-02-22 15:25:30.960] $GPGGA,62530.5,3713.8980191,N,13701.410131400002,E,4,16,0.8,92.3008,M,37.55,M,3.0,0000*66,37.23163365166667,137.02350219000002,679505.7387864077,4122487.0445335903
1577,[2021-02-22 15:25:31.038] $GPGGA,62530.6,3713.8980208000003,N,13701.410131499999,E,4,16,0.8,92.3005,M,37.55,M,3.0,0000*6A,37.23163368,137.02350219166664,679505.7388670682,4122487.047680512
1578,[2021-02-22 15:25:31.163] $GPGGA,62530.7,3713.8980219000005,N,13701.4101318,E,4,16,0.8,92.2995,M,37.55,M,3.0,0000*67,37.23163369833334,137.02350219666667,679505.7392671884,4122487.0497241938
1579,[2021-02-22 15:25:31.241] $GPGGA,62530.8,3713.8980224,N,13701.410132100002,E,4,16,0.8,92.2974,M,37.55,M,3.0,0000*63,37.23163370666667,137.0235022016667,679505.7396910274,4122487.050658313
1580,[2021-02-22 15:25:31.366] $GPGGA,62530.9,3713.8980231,N,13701.4101311,E,4,16,0.8,92.2961,M,37.55,M,3.0,0000*61,37.23163371833333,137.02350218499998,679505.7381846776,4122487.0519211916
1581,[2021-02-22 15:25:31.444] $GPGGA,62531.0,3713.8980240999995,N,13701.410129700002,E,4,16,0.8,92.2942,M,37.55,M,4.0,0000*67,37.23163373499999,137.0235021616667,679505.7360750074,4122487.053726211
1582,[2021-02-22 15:25:31.538] $GPGGA,62531.1,3713.8980257,N,13701.4101319,E,4,16,0.8,92.2957,M,37.55,M,4.0,0000*62,37.231633761666664,137.02350219833332,679505.7392648319,4122487.056754586
1583,[2021-02-22 15:25:31.632] $GPGGA,62531.2,3713.8980280999995,N,13701.410133700001,E,4,16,0.8,92.295,M,37.55,M,4.0,0000*61,37.23163380166666,137.02350222833334,679505.7418315704,4122487.061249736
1584,[2021-02-22 15:25:31.757] $GPGGA,62531.3,3713.8980299000004,N,13701.410133000001,E,4,16,0.8,92.2984,M,37.55,M,4.0,0000*67,37.23163383166667,137.02350221666669,679505.7407253428,4122487.064556299
1585,[2021-02-22 15:25:31.866] $GPGGA,62531.4,3713.8980310999996,N,13701.410131999999,E,4,16,0.8,92.2985,M,37.55,M,4.0,0000*61,37.231633851666665,137.02350219999997,679505.7391992268,4122487.0667438135
1586,[2021-02-22 15:25:31.944] $GPGGA,62531.5,3713.8980318000004,N,13701.410130700002,E,4,16,0.8,92.3,M,37.55,M,4.0,0000*69,37.231633863333336,137.0235021783334,679505.7372492875,4122487.0679972125
1587,[2021-02-22 15:25:32.069] $GPGGA,62531.6,3713.8980321000004,N,13701.4101305,E,4,16,0.8,92.3009,M,37.55,M,4.0,0000*6B,37.23163386833334,137.023502175,679505.7369416874,4122487.0685456726
1588,[2021-02-22 15:25:32.148] $GPGGA,62531.7,3713.8980333000004,N,13701.4101318,E,4,16,0.8,92.3013,M,37.55,M,4.0,0000*6E,37.23163388833334,137.02350219666667,679505.7388165253,4122487.0708058914
1589,[2021-02-22 15:25:32.257] $GPGGA,62531.8,3713.8980337,N,13701.410130700002,E,4,16,0.8,92.3028,M,37.55,M,4.0,0000*63,37.231633895,137.0235021783334,679505.7371741771,4122487.071510829
1590,[2021-02-22 15:25:32.351] $GPGGA,62531.9,3713.8980344000006,N,13701.4101304,E,4,16,0.8,92.3035,M,37.55,M,4.0,0000*69,37.23163390666667,137.02350217333336,679505.7367028996,4122487.0727958363
1591,[2021-02-22 15:25:32.476] $GPGGA,62532.0,3713.8980337,N,13701.410129700002,E,4,16,0.8,92.2973,M,37.55,M,5.0,0000*67,37.231633895,137.0235021616667,679505.7356955016,4122487.07147922
1592,[2021-02-22 15:25:32.554] $GPGGA,62532.1,3713.8980340999997,N,13701.4101294,E,4,16,0.8,92.2943,M,37.55,M,5.0,0000*67,37.23163390166667,137.02350215666667,679505.7352360836,4122487.072209445
1593,[2021-02-22 15:25:32.663] $GPGGA,62532.2,3713.8980338,N,13701.410127000001,E,4,16,0.8,92.2947,M,37.55,M,5.0,0000*64,37.23163389666667,137.02350211666666,679505.7316991271,4122487.0715788007
1594,[2021-02-22 15:25:32.741] $GPGGA,62532.3,3713.8980335,N,13701.4101277,E,4,16,0.8,92.2924,M,37.55,M,5.0,0000*6A,37.23163389166667,137.02350212833335,679505.7327460593,4122487.071046145
1595,[2021-02-22 15:25:32.866] $GPGGA,62532.4,3713.8980340000003,N,13701.4101278,E,4,16,0.8,92.291,M,37.55,M,5.0,0000*67,37.231633900000006,137.02350213,679505.732874158,4122487.0719739436
1596,[2021-02-22 15:25:32.944] $GPGGA,62532.5,3713.8980343000003,N,13701.4101291,E,4,16,0.8,92.2903,M,37.55,M,5.0,0000*60,37.231633905,137.02350215166666,679505.7347845745,4122487.072569817
1597,[2021-02-22 15:25:33.069] $GPGGA,62532.6,3713.8980334,N,13701.410128,E,4,16,0.8,92.293,M,37.55,M,5.0,0000*63,37.23163388999999,137.02350213333335,679505.7331936153,4122487.0708707003
1598,[2021-02-22 15:25:33.147] $GPGGA,62532.7,3713.8980325,N,13701.4101292,E,4,16,0.8,92.2929,M,37.55,M,5.0,0000*69,37.23163387500001,137.0235021533333,679505.7350035986,4122487.0692442893
1599,[2021-02-22 15:25:33.257] $GPGGA,62532.8,3713.8980306999997,N,13701.4101305,E,4,16,0.8,92.2925,M,37.55,M,5.0,0000*65,37.231633845,137.023502175,679505.7369970321,4122487.065956692
1600,[2021-02-22 15:25:33.335] $GPGGA,62532.9,3713.8980278000004,N,13701.4101317,E,4,16,0.8,92.2922,M,37.55,M,5.0,0000*69,37.23163379666668,137.02350219500002,679505.7388860835,4122487.060631736
1601,[2021-02-22 15:25:33.460] $GPGGA,62533.0,3713.8980255999995,N,13701.410130700002,E,4,16,0.8,92.29,M,37.55,M,6.0,0000*6F,37.231633759999994,137.0235021783334,679505.737494385,4122487.0565317282
1602,[2021-02-22 15:25:33.554] $GPGGA,62533.1,3713.8980240999995,N,13701.410130799999,E,4,16,0.8,92.2916,M,37.55,M,6.0,0000*60,37.23163373499999,137.02350217999998,679505.7377015428,4122487.0537609803
1603,[2021-02-22 15:25:33.663] $GPGGA,62533.2,3713.8980216,N,13701.410131,E,4,16,0.8,92.2937,M,37.55,M,1.0,0000*6C,37.231633693333336,137.02350218333333,679505.7380961084,4122487.049144124
1604,[2021-02-22 15:25:33.772] $GPGGA,62533.3,3713.8980189999997,N,13701.4101299,E,4,16,0.8,92.2966,M,37.55,M,1.0,0000*64,37.23163365,137.023502165,679505.7365723511,4122487.0443012477
1605,[2021-02-22 15:25:33.851] $GPGGA,62533.4,3713.8980198,N,13701.410129299999,E,4,16,0.8,92.2982,M,37.55,M,1.0,0000*6B,37.231633663333334,137.02350215499996,679505.7356535177,4122487.045761699
1606,[2021-02-22 15:25:33.960] $GPGGA,62533.5,3713.8980203,N,13701.4101305,E,4,16,0.8,92.2987,M,37.55,M,1.0,0000*60,37.23163367166667,137.023502175,679505.7374081631,4122487.0467242673
1607,[2021-02-22 15:25:34.038] $GPGGA,62533.6,3713.8980193,N,13701.410131600001,E,4,16,0.8,92.3007,M,37.55,M,1.0,0000*6B,37.231633655,137.02350219333337,679505.7390742396,4122487.044909766
1608,[2021-02-22 15:25:34.163] $GPGGA,62533.7,3713.8980183,N,13701.410133399999,E,4,16,0.8,92.3002,M,37.55,M,1.0,0000*6E,37.231633638333335,137.02350222333328,679505.7417753751,4122487.0431173895
1609,[2021-02-22 15:25:34.241] $GPGGA,62533.8,3713.8980199000002,N,13701.410136899998,E,4,16,0.8,92.2965,M,37.55,M,1.0,0000*6B,37.231633665000004,137.02350228166662,679505.7468874803,4122487.0461868593
1610,[2021-02-22 15:25:34.366] $GPGGA,62533.9,3713.8980213,N,13701.4101384,E,4,16,0.8,92.2954,M,37.55,M,1.0,0000*6A,37.231633688333325,137.0235023066667,679505.7490501523,4122487.0488232537
1611,[2021-02-22 15:25:34.444] $GPGGA,62534.0,3713.8980221,N,13701.410138999998,E,4,16,0.8,92.2923,M,37.55,M,2.0,0000*63,37.231633701666674,137.02350231666662,679505.7499057235,4122487.050321637
1612,[2021-02-22 15:25:34.538] $GPGGA,62534.1,3713.8980218,N,13701.4101373,E,4,16,0.8,92.2983,M,37.55,M,2.0,0000*6F,37.23163369666667,137.0235022883333,679505.7474038417,4122487.04971312
1613,[2021-02-22 15:25:34.663] $GPGGA,62534.2,3713.8980213,N,13701.4101375,E,4,16,0.8,92.2987,M,37.55,M,2.0,0000*65,37.231633688333325,137.02350229166666,679505.7477193436,4122487.0487948046
1614,[2021-02-22 15:25:34.757] $GPGGA,62534.3,3713.8980208999997,N,13701.4101375,E,4,16,0.8,92.2986,M,37.55,M,2.0,0000*6E,37.23163368166666,137.02350229166666,679505.7477351564,4122487.048055095
1615,[2021-02-22 15:25:34.835] $GPGGA,62534.4,3713.8980211999997,N,13701.410136200002,E,4,16,0.8,92.3006,M,37.55,M,2.0,0000*65,37.23163368666667,137.02350227000002,679505.745801023,4122487.048568785
1616,[2021-02-22 15:25:34.960] $GPGGA,62534.5,3713.8980215,N,13701.410135299999,E,4,16,0.8,92.3003,M,37.55,M,2.0,0000*64,37.23163369166667,137.023502255,679505.7444583572,4122487.049095119
1617,[2021-02-22 15:25:35.038] $GPGGA,62534.6,3713.8980208999997,N,13701.410134200001,E,4,16,0.8,92.3031,M,37.55,M,2.0,0000*6B,37.23163368166666,137.02350223666667,679505.7428555363,4122487.0479507837
1618,[2021-02-22 15:25:35.163] $GPGGA,62534.7,3713.8980211999997,N,13701.410136000002,E,4,16,0.8,92.3006,M,37.55,M,2.0,0000*64,37.23163368666667,137.0235022666667,679505.7455052894,4122487.048562464
1619,[2021-02-22 15:25:35.241] $GPGGA,62534.8,3713.8980225999994,N,13701.410136700002,E,4,16,0.8,92.2996,M,37.55,M,2.0,0000*6A,37.23163370999999,137.02350227833338,679505.7464850174,4122487.0511735696
1620,[2021-02-22 15:25:35.366] $GPGGA,62534.9,3713.8980226999997,N,13701.4101375,E,4,16,0.8,92.3014,M,37.55,M,2.0,0000*6B,37.23163371166666,137.02350229166666,679505.7476639991,4122487.0513837845
1621,[2021-02-22 15:25:35.475] $GPGGA,62535.0,3713.8980229000003,N,13701.410138,E,4,16,0.8,92.2948,M,37.55,M,3.0,0000*67,37.23163371500001,137.0235023,679505.7483954293,4122487.051769445
1622,[2021-02-22 15:25:35.569] $GPGGA,62535.1,3713.8980216,N,13701.4101373,E,4,16,0.8,92.297,M,37.55,M,3.0,0000*6D,37.231633693333336,137.0235022883333,679505.7474117482,4122487.0493432637
1623,[2021-02-22 15:25:35.663] $GPGGA,62535.2,3713.8980211999997,N,13701.4101363,E,4,16,0.8,92.2961,M,37.55,M,3.0,0000*6B,37.23163368666667,137.02350227166667,679505.74594889,4122487.0485719466
1624,[2021-02-22 15:25:35.741] $GPGGA,62535.3,3713.8980204000004,N,13701.410134099999,E,4,16,0.8,92.2983,M,37.55,M,3.0,0000*61,37.23163367333334,137.02350223499997,679505.7427274308,4122487.047022989
1625,[2021-02-22 15:25:35.866] $GPGGA,62535.4,3713.8980195,N,13701.410133200001,E,4,16,0.8,92.2999,M,37.55,M,3.0,0000*62,37.23163365833334,137.02350221999998,679505.7414322053,4122487.045330195
1626,[2021-02-22 15:25:35.944] $GPGGA,62535.5,3713.8980196,N,13701.410133000001,E,4,16,0.8,92.2986,M,37.55,M,3.0,0000*6C,37.23163366000001,137.02350221666669,679505.7411325207,4122487.045508801
1627,[2021-02-22 15:25:36.069] $GPGGA,62535.6,3713.8980193,N,13701.410133000001,E,4,16,0.8,92.301,M,37.55,M,3.0,0000*6D,37.231633655,137.02350221666669,679505.7411443803,4122487.0449540187
1628,[2021-02-22 15:25:36.147] $GPGGA,62535.7,3713.8980185,N,13701.410133700001,E,4,16,0.8,92.3026,M,37.55,M,3.0,0000*69,37.23163364166667,137.02350222833334,679505.7422110761,4122487.043496728
1629,[2021-02-22 15:25:36.257] $GPGGA,62535.8,3713.8980178,N,13701.4101336,E,4,16,0.8,92.3027,M,37.55,M,3.0,0000*64,37.231633630000005,137.0235022266667,679505.7420908816,4122487.042199077
1630,[2021-02-22 15:25:36.350] $GPGGA,62535.9,3713.8980171999997,N,13701.410134200001,E,4,16,0.8,92.3036,M,37.55,M,3.0,0000*6C,37.23163362,137.02350223666667,679505.7430018041,4122487.0411084797
1631,[2021-02-22 15:25:36.460] $GPGGA,62536.0,3713.8980173,N,13701.410134900001,E,4,16,0.8,92.2973,M,37.55,M,4.0,0000*62,37.23163362166667,137.02350224833336,679505.7440329235,4122487.041315534
1632,[2021-02-22 15:25:36.554] $GPGGA,62536.1,3713.8980185,N,13701.4101365,E,4,16,0.8,92.2968,M,37.55,M,4.0,0000*6E,37.23163364166667,137.02350227500003,679505.746351362,4122487.0435852357
1633,[2021-02-22 15:25:36.663] $GPGGA,62536.2,3713.8980185,N,13701.4101378,E,4,16,0.8,92.2955,M,37.55,M,4.0,0000*6F,37.23163364166667,137.02350229666666,679505.7482736357,4122487.0436263285
1634,[2021-02-22 15:25:36.757] $GPGGA,62536.3,3713.8980181,N,13701.4101372,E,4,16,0.8,92.2946,M,37.55,M,4.0,0000*62,37.231633635,137.02350228666666,679505.7474022427,4122487.042867653
1635,[2021-02-22 15:25:36.866] $GPGGA,62536.4,3713.8980186,N,13701.410137399998,E,4,16,0.8,92.293,M,37.55,M,4.0,0000*65,37.23163364333333,137.02350228999995,679505.7476782084,4122487.04379861
1636,[2021-02-22 15:25:36.944] $GPGGA,62536.5,3713.8980184,N,13701.410136899998,E,4,16,0.8,92.2907,M,37.55,M,4.0,0000*6E,37.231633640000005,137.02350228166662,679505.746946778,4122487.0434129513
1637,[2021-02-22 15:25:37.054] $GPGGA,62536.6,3713.8980169,N,13701.410136700002,E,4,16,0.8,92.2896,M,37.55,M,4.0,0000*69,37.231633615,137.02350227833338,679505.7467103489,4122487.0406327215
1638,[2021-02-22 15:25:37.132] $GPGGA,62536.7,3713.8980171,N,13701.4101389,E,4,16,0.8,92.2886,M,37.55,M,4.0,0000*60,37.23163361833333,137.02350231500003,679505.7499555227,4122487.0410721176
1639,[2021-02-22 15:25:37.257] $GPGGA,62536.8,3713.8980161,N,13701.410139500002,E,4,16,0.8,92.2905,M,37.55,M,4.0,0000*69,37.231633601666665,137.023502325,679505.7508822579,4122487.0392418113
1640,[2021-02-22 15:25:37.366] $GPGGA,62536.9,3713.8980153000007,N,13701.4101393,E,4,16,0.8,92.2915,M,37.55,M,4.0,0000*6E,37.231633588333345,137.02350232166668,679505.7506181474,4122487.037756073
1641,[2021-02-22 15:25:37.444] $GPGGA,62537.0,3713.8980144,N,13701.410137,E,4,16,0.8,92.2906,M,37.55,M,5.0,0000*6E,37.23163357333333,137.02350228333336,679505.7472527792,4122487.036019025
1642,[2021-02-22 15:25:37.538] $GPGGA,62537.1,3713.8980143,N,13701.4101363,E,4,16,0.8,92.293,M,37.55,M,5.0,0000*6F,37.23163357166666,137.02350227166667,679505.7462216597,4122487.0358119714
1643,[2021-02-22 15:25:37.632] $GPGGA,62537.2,3713.8980146,N,13701.410135600001,E,4,16,0.8,92.2965,M,37.55,M,5.0,0000*6F,37.23163357666667,137.02350226,679505.7451747275,4122487.0363446265
