,Format,Time,Latitude,LatType,Longitude,LonType,Status,Satellite,LevelAccuracy,Altitude(sea),M(sea),Altitude(geoid),M(geoid),DGPS use,checksum,Lat,Lon,UTM_X,UTM_Y
483,[2021-02-22 15:28:44.430] $GPGGA,62844.0,3713.89807174,N,13701.4097738,E,4,6.0,1.4,93.15799999999999,M,36.77,M,1.0,0979*75,37.231634529000004,137.02349623,679505.207931912,4122487.130575685
484,[2021-02-22 15:28:44.524] $GPGGA,62844.1,3713.89807651,N,13701.40977474,E,4,6.0,1.4,93.156,M,36.77,M,1.1,0979*77,37.2316346085,137.02349624566668,679505.2091332992,4122487.1394264237
485,[2021-02-22 15:28:44.617] $GPGGA,62844.2,3713.8980775,N,13701.40977538,E,4,6.0,1.4,93.15,M,36.77,M,1.2,0979*78,37.231634625,137.02349625633335,679505.2100405134,4122487.141277432
486,[2021-02-22 15:28:44.711] $GPGGA,62844.3,3713.89807767,N,13701.40977272,E,4,6.0,1.4,93.152,M,36.77,M,1.3,0979*77,37.23163462783334,137.02349621200003,679505.2061005237,4122487.141507727
487,[2021-02-22 15:28:44.820] $GPGGA,62844.4,3713.89807805,N,13701.40977563,E,4,6.0,1.4,93.148,M,36.77,M,1.4,0979*70,37.23163463416667,137.0234962605,679505.2103884382,4122487.1423024344
488,[2021-02-22 15:28:44.914] $GPGGA,62844.5,3713.89807523,N,13701.40976959,E,4,6.0,1.4,93.152,M,36.77,M,1.5,0979*76,37.23163458716667,137.02349615983334,679505.2015687315,4122487.1368965665
489,[2021-02-22 15:28:45.024] $GPGGA,62844.6,3713.89807493,N,13701.40977074,E,4,6.0,1.4,93.15,M,36.77,M,1.6,0979*79,37.23163458216666,137.023496179,679505.2032810644,4122487.136378136
490,[2021-02-22 15:28:45.117] $GPGGA,62844.7,3713.89807295,N,13701.40976875,E,4,6.0,1.4,93.154,M,36.77,M,1.7,0979*75,37.231634549166664,137.02349614583332,679505.2004167772,4122487.1326536746
491,[2021-02-22 15:28:45.227] $GPGGA,62844.8,3713.89807314,N,13701.40976643,E,4,6.0,1.4,93.152,M,36.77,M,1.8,0979*70,37.23163455233334,137.0234961071667,679505.1969787467,4122487.132931704
492,[2021-02-22 15:28:45.320] $GPGGA,62844.9,3713.89807226,N,13701.40976604,E,4,6.0,1.4,93.146,M,36.77,M,1.9,0979*76,37.23163453766666,137.02349610066668,679505.1964368512,4122487.1312920162
493,[2021-02-22 15:28:45.430] $GPGGA,62845.0,3713.89806974,N,13701.40976993,E,4,6.0,1.4,93.15700000000001,M,36.77,M,1.0,0979*7B,37.23163449566667,137.0234961655,679505.2022885107,4122487.1267548124
494,[2021-02-22 15:28:45.523] $GPGGA,62845.1,3713.89807511,N,13701.4097701,E,4,6.0,1.4,93.137,M,36.77,M,1.1,0979*70,37.23163458516667,137.02349616833334,679505.202327598,4122487.1366907745
495,[2021-02-22 15:28:45.617] $GPGGA,62845.2,3713.89807729,N,13701.40976819,E,4,6.0,1.4,93.146,M,36.77,M,1.2,0979*7F,37.2316346215,137.02349613650003,679505.1994171555,4122487.1406618133
496,[2021-02-22 15:28:45.711] $GPGGA,62845.3,3713.89807291,N,13701.40977331,E,4,6.0,1.4,93.14200000000001,M,36.77,M,1.3,0979*7D,37.2316345485,137.02349622183337,679505.2071611119,4122487.132723843
497,[2021-02-22 15:28:45.820] $GPGGA,62845.4,3713.89807311,N,13701.40977299,E,4,6.0,1.4,93.15100000000001,M,36.77,M,1.4,0979*75,37.23163455183333,137.02349621650004,679505.2066800302,4122487.133083583
498,[2021-02-22 15:28:45.914] $GPGGA,62845.5,3713.89806988,N,13701.40977176,E,4,6.0,1.4,93.141,M,36.77,M,1.5,0979*7D,37.231634498,137.02349619600002,679505.2049889499,4122487.1270715557
499,[2021-02-22 15:28:46.023] $GPGGA,62845.6,3713.89806922,N,13701.40977289,E,4,6.0,1.4,93.149,M,36.77,M,1.6,0979*76,37.231634487,137.02349621483333,679505.2066859374,4122487.1258867555
500,[2021-02-22 15:28:46.117] $GPGGA,62845.7,3713.89806869,N,13701.40977473,E,4,6.0,1.4,93.149,M,36.77,M,1.7,0979*7B,37.23163447816666,137.0234962455,679505.2094276511,4122487.124964801
501,[2021-02-22 15:28:46.227] $GPGGA,62845.8,3713.89806858,N,13701.40977274,E,4,6.0,1.4,93.152,M,36.77,M,1.8,0979*72,37.23163447633333,137.02349621233336,679505.2064894396,4122487.1246984797
502,[2021-02-22 15:28:46.320] $GPGGA,62845.9,3713.89806769,N,13701.40977304,E,4,6.0,1.4,93.15,M,36.77,M,1.9,0979*7B,37.23163446149999,137.02349621733336,679505.2069682257,4122487.12306211
503,[2021-02-22 15:28:46.430] $GPGGA,62846.0,3713.89806832,N,13701.40977387,E,4,6.0,1.4,93.14399999999999,M,36.77,M,2.0,0979*74,37.231634472,137.02349623116666,679505.2081706165,4122487.124253389
504,[2021-02-22 15:28:46.523] $GPGGA,62846.1,3713.89806678,N,13701.4097739,E,4,6.0,1.4,93.139,M,36.77,M,1.1,0979*7B,37.23163444633333,137.0234962316667,679505.2082758609,4122487.1214064574
505,[2021-02-22 15:28:46.617] $GPGGA,62846.2,3713.89806894,N,13701.4097738,E,4,6.0,1.4,93.14200000000001,M,36.77,M,1.2,0979*7A,37.231634482333334,137.02349623,679505.2080426009,4122487.1253977246
506,[2021-02-22 15:28:46.726] $GPGGA,62846.3,3713.8980639,N,13701.40977455,E,4,6.0,1.4,93.14399999999999,M,36.77,M,1.3,0979*7C,37.23163439833334,137.02349624250002,679505.2093508468,4122487.116101103
507,[2021-02-22 15:28:46.820] $GPGGA,62846.4,3713.89806705,N,13701.40977447,E,4,6.0,1.4,93.146,M,36.77,M,1.4,0979*75,37.231634450833326,137.02349624116667,679505.2091080253,4122487.121923778
508,[2021-02-22 15:28:46.914] $GPGGA,62846.5,3713.89806794,N,13701.40977416,E,4,6.0,1.4,93.13799999999999,M,36.77,M,1.5,0979*70,37.231634465666666,137.02349623600003,679505.2086144574,4122487.123559832
509,[2021-02-22 15:28:47.023] $GPGGA,62846.6,3713.89806686,N,13701.40977397,E,4,6.0,1.4,93.139,M,36.77,M,1.6,0979*7D,37.231634447666664,137.0234962328333,679505.2083761975,4122487.1215566117
510,[2021-02-22 15:28:47.117] $GPGGA,62846.7,3713.89806111,N,13701.40977607,E,4,6.0,1.4,93.15299999999999,M,36.77,M,1.7,0979*74,37.231634351833335,137.02349626783334,679505.2117087226,4122487.1109896805
511,[2021-02-22 15:28:47.226] $GPGGA,62846.8,3713.89806391,N,13701.4097726,E,4,6.0,1.4,93.139,M,36.77,M,1.8,0979*77,37.2316343985,137.02349621,679505.2064670364,4122487.1160579557
512,[2021-02-22 15:28:47.320] $GPGGA,62846.9,3713.89806338,N,13701.40977749,E,4,6.0,1.4,93.149,M,36.77,M,1.9,0979*7D,37.231634389666674,137.02349629149998,679505.2137186987,4122487.1152324122
513,[2021-02-22 15:28:47.430] $GPGGA,62847.0,3713.89806434,N,13701.40977007,E,4,6.0,1.4,93.146,M,36.77,M,2.0,0979*76,37.231634405666675,137.02349616783334,679505.2027089961,4122487.1167731723
514,[2021-02-22 15:28:47.523] $GPGGA,62847.1,3713.89806362,N,13701.40977336,E,4,6.0,1.4,93.13799999999999,M,36.77,M,1.1,0979*79,37.23163439366666,137.02349622266664,679505.2076022907,4122487.1155456887
515,[2021-02-22 15:28:47.617] $GPGGA,62847.2,3713.89806275,N,13701.40977055,E,4,6.0,1.4,93.133,M,36.77,M,1.2,0979*73,37.231634379166664,137.02349617583334,679505.2034816134,4122487.113848
516,[2021-02-22 15:28:47.726] $GPGGA,62847.3,3713.8980662,N,13701.4097692,E,4,6.0,1.4,93.149,M,36.77,M,1.3,0979*70,37.23163443666667,137.02349615333335,679505.2013490218,4122487.1201853165
517,[2021-02-22 15:28:47.820] $GPGGA,62847.4,3713.89806475,N,13701.40977071,E,4,6.0,1.4,93.14299999999999,M,36.77,M,1.4,0979*74,37.2316344125,137.0234961785,679505.2036391387,4122487.1175516015
518,[2021-02-22 15:28:47.914] $GPGGA,62847.5,3713.89806574,N,13701.40976946,E,4,6.0,1.4,93.13600000000001,M,36.77,M,1.5,0979*7A,37.23163442900001,137.02349615766667,679505.2017516596,4122487.119342871
519,[2021-02-22 15:28:48.023] $GPGGA,62847.6,3713.89806259,N,13701.40976811,E,4,6.0,1.4,93.15299999999999,M,36.77,M,1.6,0979*72,37.2316343765,137.02349613516665,679505.1998799753,4122487.11347499
520,[2021-02-22 15:28:48.117] $GPGGA,62847.7,3713.89806823,N,13701.4097671,E,4,6.0,1.4,93.12799999999999,M,36.77,M,1.7,0979*77,37.231634470500005,137.02349611833333,679505.1981635567,4122487.123872958
521,[2021-02-22 15:28:48.226] $GPGGA,62847.8,3713.89806568,N,13701.40976589,E,4,6.0,1.4,93.13799999999999,M,36.77,M,1.8,0979*76,37.231634428,137.02349609816667,679505.1964751696,4122487.119119068
522,[2021-02-22 15:28:48.320] $GPGGA,62847.9,3713.89806761,N,13701.40976748,E,4,6.0,1.4,93.15100000000001,M,36.77,M,0.9,0979*7C,37.23163446016666,137.02349612466665,679505.1987499614,4122487.1227384196
523,[2021-02-22 15:28:48.429] $GPGGA,62848.0,3713.89806453,N,13701.40976925,E,4,6.0,1.4,93.145,M,36.77,M,1.0,0979*70,37.23163440883332,137.02349615416668,679505.2014889732,4122487.1170986113
524,[2021-02-22 15:28:48.523] $GPGGA,62848.1,3713.89806876,N,13701.40976747,E,4,6.0,1.4,93.14,M,36.77,M,1.1,0979*74,37.23163447933334,137.02349612449999,679505.1986897138,4122487.1248647673
525,[2021-02-22 15:28:48.633] $GPGGA,62848.2,3713.89806737,N,13701.40977149,E,4,6.0,1.4,93.139,M,36.77,M,1.2,0979*79,37.23163445616666,137.02349619150002,679505.2046889303,4122487.1224213485
526,[2021-02-22 15:28:48.726] $GPGGA,62848.3,3713.89806576,N,13701.40976801,E,4,6.0,1.4,93.15100000000001,M,36.77,M,1.3,0979*74,37.23163442933333,137.0234961335,679505.1996067928,4122487.1193340216
527,[2021-02-22 15:28:48.820] $GPGGA,62848.4,3713.89807021,N,13701.40976779,E,4,6.0,1.4,93.14,M,36.77,M,1.4,0979*72,37.2316345035,137.02349612983332,679505.1991055681,4122487.1275563254
528,[2021-02-22 15:28:48.914] $GPGGA,62848.5,3713.89806679,N,13701.40976475,E,4,6.0,1.4,93.147,M,36.77,M,1.5,0979*70,37.2316344465,137.02349607916665,679505.1947455999,4122487.121135724
529,[2021-02-22 15:28:49.023] $GPGGA,62848.6,3713.89807233,N,13701.40976474,E,4,6.0,1.4,93.124,M,36.77,M,1.6,0979*7F,37.23163453883333,137.023496079,679505.1945118101,4122487.1313803727
530,[2021-02-22 15:28:49.117] $GPGGA,62848.7,3713.89806938,N,13701.40976527,E,4,6.0,1.4,93.145,M,36.77,M,1.7,0979*7E,37.23163448966667,137.02349608783334,679505.195412124,4122487.125941775
531,[2021-02-22 15:28:49.226] $GPGGA,62848.8,3713.89806986,N,13701.40976379,E,4,6.0,1.4,93.14,M,36.77,M,1.8,0979*73,37.23163449766667,137.02349606316665,679505.1932047093,4122487.1267826417
532,[2021-02-22 15:28:49.320] $GPGGA,62848.9,3713.89807074,N,13701.40976546,E,4,6.0,1.4,93.145,M,36.77,M,1.9,0979*79,37.231634512333336,137.023496091,679505.1956393083,4122487.128462791
533,[2021-02-22 15:28:49.429] $GNGGA,62849.0,3713.89807479,N,13701.40976807,E,4,9.0,1.1,93.12799999999999,M,36.77,M,1.0,0979*66,37.23163457983333,137.0234961345,679505.1993385409,4122487.136034841
534,[2021-02-22 15:28:49.523] $GNGGA,62849.1,3713.89807259,N,13701.40976924,E,4,9.0,1.1,93.141,M,36.77,M,1.1,0979*6D,37.23163454316666,137.023496154,679505.2011555589,4122487.1320034266
535,[2021-02-22 15:28:49.633] $GNGGA,62849.2,3713.89807365,N,13701.40977219,E,4,9.0,1.1,93.126,M,36.77,M,1.2,0979*66,37.23163456083333,137.02349620316664,679505.2054757392,4122487.134056901
536,[2021-02-22 15:28:49.726] $GNGGA,62849.3,3713.89807089,N,13701.40977147,E,4,9.0,1.1,93.12799999999999,M,36.77,M,1.3,0979*61,37.23163451483333,137.02349619116666,679505.2045202039,4122487.128930153
537,[2021-02-22 15:28:49.820] $GNGGA,62849.4,3713.89806834,N,13701.40977006,E,4,9.0,1.1,93.13799999999999,M,36.77,M,1.4,0979*6B,37.23163447233333,137.02349616766665,679505.2025360806,4122487.1241699415
538,[2021-02-22 15:28:49.914] $GNGGA,62849.5,3713.89806942,N,13701.40976925,E,4,9.0,1.1,93.13799999999999,M,36.77,M,1.5,0979*62,37.231634490333334,137.02349615416668,679505.201295663,4122487.1261415505
539,[2021-02-22 15:28:50.023] $GNGGA,62849.6,3713.89806683,N,13701.40977284,E,4,9.0,1.1,93.131,M,36.77,M,1.6,0979*68,37.23163444716667,137.023496214,679505.2067064869,4122487.1214654157
540,[2021-02-22 15:28:50.117] $GNGGA,62849.7,3713.89806563,N,13701.40977092,E,4,9.0,1.1,93.133,M,36.77,M,1.7,0979*62,37.23163442716667,137.023496182,679505.2039148707,4122487.1191856
541,[2021-02-22 15:28:50.226] $GNGGA,62849.8,3713.89806729,N,13701.40976945,E,4,9.0,1.1,93.134,M,36.77,M,1.8,0979*6B,37.23163445483334,137.0234961575,679505.2016755992,4122487.1222089254
542,[2021-02-22 15:28:50.320] $GNGGA,62849.9,3713.89806929,N,13701.4097693,E,4,9.0,1.1,93.134,M,36.77,M,1.9,0979*67,37.23163448816666,137.023496155,679505.2013747356,4122487.125902726
543,[2021-02-22 15:28:50.429] $GNGGA,62850.0,3713.89806436,N,13701.40976734,E,4,9.0,1.1,93.14299999999999,M,36.77,M,1.0,0979*66,37.231634406,137.0234961223333,679505.1986714255,4122487.116723861
544,[2021-02-22 15:28:50.523] $GNGGA,62850.1,3713.89806582,N,13701.40977085,E,4,9.0,1.1,93.145,M,36.77,M,1.1,0979*62,37.23163443033333,137.02349618083335,679505.2038038538,4122487.1195347467
545,[2021-02-22 15:28:50.632] $GNGGA,62850.2,3713.89806525,N,13701.4097709,E,4,9.0,1.1,93.148,M,36.77,M,1.2,0979*66,37.23163442083334,137.02349618166667,679505.2039003203,4122487.118482245
546,[2021-02-22 15:28:50.711] $GNGGA,62850.3,3713.89806848,N,13701.40977058,E,4,9.0,1.1,93.13799999999999,M,36.77,M,1.3,0979*63,37.23163447466666,137.02349617633334,679505.2032994576,4122487.124445276
547,[2021-02-22 15:28:50.820] $GNGGA,62850.4,3713.89806454,N,13701.40977157,E,4,9.0,1.1,93.16,M,36.77,M,1.4,0979*61,37.23163440900001,137.02349619283336,679505.2049191018,4122487.1171904393
548,[2021-02-22 15:28:50.914] $GNGGA,62850.5,3713.89806943,N,13701.40977417,E,4,9.0,1.1,93.141,M,36.77,M,1.5,0979*68,37.23163449049999,137.02349623616666,679505.2085703393,4122487.1263155625
549,[2021-02-22 15:28:51.023] $GNGGA,62850.6,3713.89806651,N,13701.40977,E,4,9.0,1.1,93.14200000000001,M,36.77,M,1.6,0979*65,37.231634441833336,137.0234961666667,679505.2025197063,4122487.120783878
550,[2021-02-22 15:28:51.117] $GNGGA,62850.7,3713.89806512,N,13701.40977183,E,4,9.0,1.1,93.149,M,36.77,M,1.7,0979*60,37.231634418666665,137.02349619716668,679505.2052806268,4122487.1182712344
551,[2021-02-22 15:28:51.226] $GNGGA,62850.8,3713.89806342,N,13701.40977039,E,4,9.0,1.1,93.149,M,36.77,M,1.8,0979*63,37.23163439033334,137.02349617316668,679505.2032185405,4122487.1150819566
552,[2021-02-22 15:28:51.320] $GNGGA,62850.9,3713.89806475,N,13701.40977707,E,4,9.0,1.1,93.13799999999999,M,36.77,M,0.9,0979*6D,37.2316344125,137.0234962845,679505.2130435003,4122487.1177526377
553,[2021-02-22 15:28:51.429] $GNGGA,62851.0,3713.89806772,N,13701.40977616,E,4,9.0,1.1,93.141,M,36.77,M,1.0,0979*66,37.231634462,137.02349626933332,679505.2115804963,4122487.1232162113
554,[2021-02-22 15:28:51.523] $GNGGA,62851.1,3713.89806924,N,13701.40977521,E,4,9.0,1.1,93.133,M,36.77,M,1.1,0979*69,37.23163448733333,137.0234962535,679505.2101156706,4122487.1259970744
555,[2021-02-22 15:28:51.632] $GNGGA,62851.2,3713.89806867,N,13701.40977562,E,4,9.0,1.1,93.13600000000001,M,36.77,M,1.2,0979*6D,37.23163447783334,137.02349626033336,679505.2107444619,4122487.12495595
556,[2021-02-22 15:28:51.726] $GNGGA,62851.3,3713.89806697,N,13701.40977801,E,4,9.0,1.1,93.14299999999999,M,36.77,M,1.3,0979*66,37.23163444949999,137.02349630016667,679505.2143456911,4122487.1218877328
557,[2021-02-22 15:28:51.835] $GNGGA,62851.4,3713.89807058,N,13701.40977659,E,4,9.0,1.1,93.126,M,36.77,M,1.4,0979*62,37.23163450966667,137.0234962765,679505.2121032663,4122487.128518719
558,[2021-02-22 15:28:51.914] $GNGGA,62851.5,3713.8980725,N,13701.40977725,E,4,9.0,1.1,93.133,M,36.77,M,1.5,0979*66,37.23163454166667,137.02349628750002,679505.2130032907,4122487.132090185
559,[2021-02-22 15:28:52.023] $GNGGA,62851.6,3713.89806494,N,13701.40977959,E,4,9.0,1.1,93.139,M,36.77,M,1.6,0979*66,37.23163441566666,137.0234963265,679505.2167622447,4122487.118183655
560,[2021-02-22 15:28:52.117] $GNGGA,62851.7,3713.89807028,N,13701.40977429,E,4,9.0,1.1,93.14200000000001,M,36.77,M,1.7,0979*62,37.231634504666665,137.02349623816664,679505.2087141743,4122487.1278912355
561,[2021-02-22 15:28:52.226] $GNGGA,62851.8,3713.89806689,N,13701.40977598,E,4,9.0,1.1,93.13799999999999,M,36.77,M,1.8,0979*68,37.23163444816666,137.02349626633332,679505.2113471464,4122487.121675625
562,[2021-02-22 15:28:52.320] $GNGGA,62851.9,3713.89806616,N,13701.40977401,E,4,9.0,1.1,93.137,M,36.77,M,1.9,0979*60,37.231634436,137.0234962335,679505.2084630191,4122487.120263386
563,[2021-02-22 15:28:52.414] $GNGGA,62852.0,3713.89806489,N,13701.40977595,E,4,9.0,1.1,93.12700000000001,M,36.77,M,1.0,0979*6A,37.23163441483334,137.02349626583333,679505.211381851,4122487.1179761337
564,[2021-02-22 15:28:52.492] $GNGGA,62852.1,3713.89806407,N,13701.40977617,E,4,9.0,1.1,93.135,M,36.77,M,1.1,0979*66,37.231634401166666,137.0234962695,679505.2117395734,4122487.116466685
565,[2021-02-22 15:28:52.632] $GNGGA,62852.2,3713.89806617,N,13701.40977625,E,4,9.0,1.1,93.134,M,36.77,M,1.2,0979*65,37.23163443616667,137.02349627083333,679505.2117748533,4122487.1203526855
566,[2021-02-22 15:28:52.726] $GNGGA,62852.3,3713.89806219,N,13701.40977421,E,4,9.0,1.1,93.139,M,36.77,M,1.3,0979*64,37.23163436983334,137.02349623683335,679505.208915696,4122487.1129281004
567,[2021-02-22 15:28:52.835] $GNGGA,62852.4,3713.89806549,N,13701.40977804,E,4,9.0,1.1,93.125,M,36.77,M,1.4,0979*60,37.23163442483334,137.02349630066666,679505.2144485591,4122487.1191517618
568,[2021-02-22 15:28:52.929] $GNGGA,62852.5,3713.89806281,N,13701.40977669,E,4,9.0,1.1,93.13,M,36.77,M,1.5,0979*62,37.23163438016667,137.02349627816665,679505.2125582924,4122487.1141530396
569,[2021-02-22 15:28:53.023] $GNGGA,62852.6,3713.89806233,N,13701.40977893,E,4,9.0,1.1,93.135,M,36.77,M,1.6,0979*65,37.23163437216667,137.02349631549998,679505.2158894972,4122487.1133361952
570,[2021-02-22 15:28:53.117] $GNGGA,62852.7,3713.89806312,N,13701.40977602,E,4,9.0,1.1,93.12899999999999,M,36.77,M,1.7,0979*6C,37.23163438533333,137.023496267,679505.2115553304,4122487.114705135
571,[2021-02-22 15:28:53.226] $GNGGA,62852.8,3713.89806533,N,13701.40977652,E,4,9.0,1.1,93.132,M,36.77,M,0.8,0979*67,37.23163442216667,137.02349627533334,679505.2122073019,4122487.1188078313
572,[2021-02-22 15:28:53.320] $GNGGA,62852.9,3713.89806596,N,13701.40977922,E,4,9.0,1.1,93.133,M,36.77,M,0.9,0979*61,37.23163443266667,137.02349632033335,679505.2161748159,4122487.1200582176
573,[2021-02-22 15:28:53.429] $GNGGA,62853.0,3713.89806606,N,13701.40977796,E,4,9.0,1.1,93.139,M,36.77,M,1.0,0979*60,37.23163443433333,137.02349629933335,679505.2143077338,4122487.1202033167
574,[2021-02-22 15:28:53.523] $GNGGA,62853.1,3713.8980683,N,13701.40977476,E,4,9.0,1.1,93.14,M,36.77,M,1.1,0979*68,37.231634471666666,137.023496246,679505.2094874273,4122487.124244534
575,[2021-02-22 15:28:53.617] $GNGGA,62853.2,3713.8980674,N,13701.40977604,E,4,9.0,1.1,93.13799999999999,M,36.77,M,1.2,0979*68,37.23163445666667,137.02349626733334,679505.2114157071,4122487.1226206515
576,[2021-02-22 15:28:53.710] $GNGGA,62853.3,3713.89806746,N,13701.40977404,E,4,9.0,1.1,93.139,M,36.77,M,1.3,0979*6D,37.231634457666665,137.023496234,679505.2084559888,4122487.122668388
577,[2021-02-22 15:28:53.820] $GNGGA,62853.4,3713.89807027,N,13701.40977496,E,4,9.0,1.1,93.135,M,36.77,M,1.4,0979*6B,37.23163450450001,137.02349624933336,679505.2097052857,4122487.127893924
578,[2021-02-22 15:28:53.914] $GNGGA,62853.5,3713.89807083,N,13701.40977528,E,4,9.0,1.1,93.146,M,36.77,M,1.5,0979*65,37.23163451383334,137.0234962546667,679505.2101563233,4122487.1289396295
579,[2021-02-22 15:28:54.023] $GNGGA,62853.6,3713.89807301,N,13701.40977249,E,4,9.0,1.1,93.133,M,36.77,M,1.6,0979*6E,37.23163455016667,137.02349620816668,679505.2059446445,4122487.1328828507
580,[2021-02-22 15:28:54.117] $GNGGA,62853.7,3713.89807104,N,13701.40977037,E,4,9.0,1.1,93.14399999999999,M,36.77,M,1.7,0979*62,37.23163451733333,137.02349617283335,679505.2028877363,4122487.1291727745
581,[2021-02-22 15:28:54.226] $GNGGA,62853.8,3713.89807121,N,13701.40977114,E,4,9.0,1.1,93.12899999999999,M,36.77,M,1.8,0979*6E,37.231634520166665,137.0234961856667,679505.2040195945,4122487.1295114886
582,[2021-02-22 15:28:54.320] $GNGGA,62853.9,3713.89807067,N,13701.40976781,E,4,9.0,1.1,93.137,M,36.77,M,0.9,0979*68,37.23163451116666,137.02349613016668,679505.1991169583,4122487.1284076227
583,[2021-02-22 15:28:54.429] $GNGGA,62854.0,3713.89806781,N,13701.40976953,E,4,9.0,1.1,93.134,M,36.77,M,1.0,0979*62,37.23163446350001,137.02349615883332,679505.201773335,4122487.1231730753
584,[2021-02-22 15:28:54.523] $GNGGA,62854.1,3713.89806932,N,13701.40976927,E,4,9.0,1.1,93.132,M,36.77,M,1.1,0979*61,37.23163448866667,137.0234961545,679505.2013291887,4122487.125957256
585,[2021-02-22 15:28:54.632] $GNGGA,62854.2,3713.89806983,N,13701.40976631,E,4,9.0,1.1,93.12799999999999,M,36.77,M,1.2,0979*68,37.231634497166674,137.02349610516666,679505.1969321528,4122487.1268068207
586,[2021-02-22 15:28:54.710] $GNGGA,62854.3,3713.89807042,N,13701.40977017,E,4,9.0,1.1,93.131,M,36.77,M,1.3,0979*66,37.231634507,137.0234961695,679505.2026165079,4122487.1280199043
587,[2021-02-22 15:28:54.820] $GNGGA,62854.4,3713.89806915,N,13701.40976985,E,4,9.0,1.1,93.13600000000001,M,36.77,M,1.4,0979*68,37.23163448583334,137.02349616416666,679505.2021935377,4122487.125661213
588,[2021-02-22 15:28:54.913] $GNGGA,62854.5,3713.89806914,N,13701.40976855,E,4,9.0,1.1,93.133,M,36.77,M,1.5,0979*60,37.23163448566667,137.0234961425,679505.2002716593,4122487.125601628
589,[2021-02-22 15:28:55.023] $GNGGA,62854.6,3713.89806816,N,13701.40976964,E,4,9.0,1.1,93.13799999999999,M,36.77,M,1.6,0979*6B,37.231634469333336,137.02349616066667,679505.2019221542,4122487.1238237973
590,[2021-02-22 15:28:55.117] $GNGGA,62854.7,3713.89806638,N,13701.40976966,E,4,9.0,1.1,93.132,M,36.77,M,1.7,0979*61,37.231634439666664,137.023496161,679505.2020220932,4122487.1205327245
591,[2021-02-22 15:28:55.226] $GNGGA,62854.8,3713.89807035,N,13701.40976754,E,4,9.0,1.1,93.133,M,36.77,M,1.8,0979*65,37.23163450583334,137.02349612566667,679505.1987303664,4122487.1278073206
592,[2021-02-22 15:28:55.320] $GNGGA,62854.9,3713.89806649,N,13701.40977001,E,4,9.0,1.1,93.126,M,36.77,M,1.9,0979*6B,37.231634441500006,137.02349616683333,679505.202535281,4122487.120747209
593,[2021-02-22 15:28:55.429] $GNGGA,62855.0,3713.89807164,N,13701.40977005,E,4,9.0,1.1,93.133,M,36.77,M,1.0,0979*63,37.231634527333334,137.0234961675,679505.2023908419,4122487.130272222
594,[2021-02-22 15:28:55.523] $GNGGA,62855.1,3713.89807166,N,13701.40976496,E,4,9.0,1.1,93.132,M,36.77,M,1.1,0979*6F,37.23163452766667,137.0234960826667,679505.1948636048,4122487.1301483163
595,[2021-02-22 15:28:55.632] $GNGGA,62855.2,3713.8980707,N,13701.40976511,E,4,9.0,1.1,93.13,M,36.77,M,1.2,0979*65,37.23163451166667,137.02349608516667,679505.1951233533,4122487.1283777547
596,[2021-02-22 15:28:55.726] $GNGGA,62855.3,3713.89806854,N,13701.40976304,E,4,9.0,1.1,93.133,M,36.77,M,1.3,0979*6B,37.23163447566667,137.02349605066664,679505.1921478873,4122487.1243178966
597,[2021-02-22 15:28:55.835] $GNGGA,62855.4,3713.89807095,N,13701.40975848,E,4,9.0,1.1,93.133,M,36.77,M,1.4,0979*6F,37.23163451583334,137.02349597466667,679505.1853098692,4122487.128630503
598,[2021-02-22 15:28:55.913] $GNGGA,62855.5,3713.89807261,N,13701.40976198,E,4,9.0,1.1,93.13600000000001,M,36.77,M,1.5,0979*64,37.2316345435,137.023496033,679505.1904196003,4122487.1318109273
599,[2021-02-22 15:28:56.023] $GNGGA,62855.6,3713.89807462,N,13701.40976447,E,4,9.0,1.1,93.132,M,36.77,M,1.6,0979*62,37.231634576999994,137.0234960745,679505.1940220384,4122487.1356066703
600,[2021-02-22 15:28:56.116] $GNGGA,62855.7,3713.89807116,N,13701.40976812,E,4,9.0,1.1,93.12799999999999,M,36.77,M,1.7,0979*63,37.23163451933333,137.02349613533335,679505.1995559769,4122487.1293235654
601,[2021-02-22 15:28:56.226] $GNGGA,62855.8,3713.89806997,N,13701.40976905,E,4,9.0,1.1,93.14200000000001,M,36.77,M,1.8,0979*68,37.2316344995,137.02349615083332,679505.2009781846,4122487.1271523284
602,[2021-02-22 15:28:56.320] $GNGGA,62855.9,3713.89806963,N,13701.40976847,E,4,9.0,1.1,93.135,M,36.77,M,1.9,0979*64,37.23163449383334,137.02349614116667,679505.2001339965,4122487.126505244
603,[2021-02-22 15:28:56.429] $GNGGA,62856.0,3713.89806636,N,13701.40976996,E,4,9.0,1.1,93.131,M,36.77,M,1.0,0979*61,37.231634439333334,137.023496166,679505.2024664866,4122487.120505223
604,[2021-02-22 15:28:56.523] $GNGGA,62856.1,3713.89806546,N,13701.40976777,E,4,9.0,1.1,93.133,M,36.77,M,1.1,0979*66,37.23163442433333,137.0234961295,679505.1992637691,4122487.1187716527
605,[2021-02-22 15:28:56.632] $GNGGA,62856.2,3713.89806547,N,13701.40977274,E,4,9.0,1.1,93.13799999999999,M,36.77,M,1.2,0979*6B,37.2316344245,137.02349621233336,679505.2066123832,4122487.1189472447
606,[2021-02-22 15:28:56.726] $GNGGA,62856.3,3713.89806533,N,13701.40977244,E,4,9.0,1.1,93.12299999999999,M,36.77,M,1.3,0979*61,37.23163442216667,137.02349620733332,679505.2061743125,4122487.1186788646
607,[2021-02-22 15:28:56.835] $GNGGA,62856.4,3713.89806773,N,13701.4097684,E,4,9.0,1.1,93.134,M,36.77,M,1.4,0979*6E,37.23163446216666,137.02349614000002,679505.2001055988,4122487.122989413
608,[2021-02-22 15:28:56.913] $GNGGA,62856.5,3713.89806606,N,13701.40977023,E,4,9.0,1.1,93.132,M,36.77,M,1.5,0979*67,37.23163443433333,137.0234961705,679505.2028775881,4122487.1199589754
609,[2021-02-22 15:28:57.023] $GNGGA,62856.6,3713.89806685,N,13701.40977182,E,4,9.0,1.1,93.139,M,36.77,M,1.6,0979*6D,37.23163444749999,137.023496197,679505.205197446,4122487.121470159
610,[2021-02-22 15:28:57.116] $GNGGA,62856.7,3713.89807144,N,13701.40976695,E,4,9.0,1.1,93.133,M,36.77,M,1.7,0979*6C,37.231634524,137.02349611583335,679505.197814862,4122487.1298043774
611,[2021-02-22 15:28:57.226] $GNGGA,62856.8,3713.89806838,N,13701.40977071,E,4,9.0,1.1,93.13600000000001,M,36.77,M,1.8,0979*67,37.231634473,137.0234961785,679505.2034956386,4122487.124264458
612,[2021-02-22 15:28:57.320] $GNGGA,62856.9,3713.89806382,N,13701.40977295,E,4,9.0,1.1,93.13799999999999,M,36.77,M,1.9,0979*6B,37.23163439700001,137.02349621583335,679505.2069881306,4122487.1159025854
613,[2021-02-22 15:28:57.429] $GNGGA,62857.0,3713.89806469,N,13701.40977162,E,4,9.0,1.1,93.135,M,36.77,M,1.0,0979*6E,37.2316344115,137.02349619366663,679505.2049870987,4122487.1174694104
614,[2021-02-22 15:28:57.523] $GNGGA,62857.1,3713.89806855,N,13701.40976541,E,4,9.0,1.1,93.15799999999999,M,36.77,M,1.1,0979*62,37.23163447583334,137.02349609016667,679505.1956519494,4122487.124411305
615,[2021-02-22 15:28:57.632] $GNGGA,62857.2,3713.89806223,N,13701.4097757,E,4,9.0,1.1,93.135,M,36.77,M,1.2,0979*61,37.231634370500004,137.02349626166668,679505.2111173383,4122487.1130491695
616,[2021-02-22 15:28:57.726] $GNGGA,62857.3,3713.89806637,N,13701.40976974,E,4,9.0,1.1,93.152,M,36.77,M,1.3,0979*68,37.23163443949999,137.02349616233332,679505.2021407828,4122487.12051676
617,[2021-02-22 15:28:57.819] $GNGGA,62857.4,3713.89806209,N,13701.40977517,E,4,9.0,1.1,93.137,M,36.77,M,1.4,0979*6A,37.23163436816667,137.0234962528333,679505.2103391706,4122487.112773517
618,[2021-02-22 15:28:57.913] $GNGGA,62857.5,3713.89806352,N,13701.40977382,E,4,9.0,1.1,93.147,M,36.77,M,1.5,0979*68,37.231634392,137.02349623033334,679505.2082864353,4122487.1153753027
619,[2021-02-22 15:28:58.023] $GNGGA,62857.6,3713.89806217,N,13701.40977602,E,4,9.0,1.1,93.141,M,36.77,M,1.6,0979*63,37.2316343695,137.023496267,679505.2115928855,4122487.112948328
620,[2021-02-22 15:28:58.116] $GNGGA,62857.7,3713.8980679,N,13701.40977253,E,4,9.0,1.1,93.135,M,36.77,M,1.7,0979*6A,37.231634465,137.0234962088333,679505.2062057967,4122487.1234343373
621,[2021-02-22 15:28:58.226] $GNGGA,62857.8,3713.8980655,N,13701.40977414,E,4,9.0,1.1,93.133,M,36.77,M,1.8,0979*67,37.231634424999996,137.02349623566667,679505.208681338,4122487.1190469754
622,[2021-02-22 15:28:58.319] $GNGGA,62857.9,3713.89806374,N,13701.40977202,E,4,9.0,1.1,93.12799999999999,M,36.77,M,1.9,0979*6C,37.231634395666674,137.02349620033334,679505.205616128,4122487.115725247
623,[2021-02-22 15:28:58.429] $GNGGA,62858.0,3713.8980738,N,13701.40976829,E,4,9.0,1.1,93.14200000000001,M,36.77,M,1.0,0979*67,37.23163456333334,137.02349613816668,679505.199702988,4122487.1342110154
624,[2021-02-22 15:28:58.523] $GNGGA,62858.1,3713.89807056,N,13701.40976881,E,4,9.0,1.1,93.147,M,36.77,M,1.1,0979*68,37.23163450933334,137.0234961468333,679505.2005999776,4122487.1282358123
625,[2021-02-22 15:28:58.632] $GNGGA,62858.2,3713.89807288,N,13701.40976556,E,4,9.0,1.1,93.14,M,36.77,M,1.2,0979*69,37.231634548,137.02349609266668,679505.1957025796,4122487.132423391
626,[2021-02-22 15:28:58.726] $GNGGA,62858.3,3713.89807147,N,13701.40977086,E,4,9.0,1.1,93.13799999999999,M,36.77,M,1.3,0979*6F,37.23163452450001,137.02349618099998,679505.2035952834,4122487.1299834508
627,[2021-02-22 15:28:58.819] $GNGGA,62858.4,3713.89807116,N,13701.40976909,E,4,9.0,1.1,93.155,M,36.77,M,1.4,0979*6F,37.23163451933333,137.0234961515,679505.200990289,4122487.1293542264
628,[2021-02-22 15:28:58.913] $GNGGA,62858.5,3713.89807175,N,13701.40977218,E,4,9.0,1.1,93.145,M,36.77,M,1.5,0979*61,37.23163452916666,137.023496203,679505.2055360654,4122487.1305429703
629,[2021-02-22 15:28:59.023] $GNGGA,62858.6,3713.8980728,N,13701.40977261,E,4,9.0,1.1,93.14299999999999,M,36.77,M,1.6,0979*60,37.23163454666667,137.02349621016668,679505.2061303878,4122487.132498298
630,[2021-02-22 15:28:59.116] $GNGGA,62858.7,3713.89807308,N,13701.40977362,E,4,9.0,1.1,93.14399999999999,M,36.77,M,1.7,0979*64,37.231634551333336,137.023496227,679505.2076127783,4122487.1330480184
631,[2021-02-22 15:28:59.226] $GNGGA,62858.8,3713.89807255,N,13701.40977508,E,4,9.0,1.1,93.139,M,36.77,M,1.8,0979*6D,37.2316345425,137.02349625133334,679505.2097925928,4122487.1321140537
632,[2021-02-22 15:28:59.319] $GNGGA,62858.9,3713.89807034,N,13701.40977211,E,4,9.0,1.1,93.149,M,36.77,M,1.9,0979*60,37.231634505666655,137.02349620183332,679505.205488297,4122487.127933282
633,[2021-02-22 15:28:59.429] $GNGGA,62859.0,3713.8980652,N,13701.40977781,E,4,9.0,1.1,93.115,M,36.77,M,1.0,0979*65,37.23163442,137.02349629683332,679505.2141199263,4122487.118608201
634,[2021-02-22 15:28:59.522] $GNGGA,62859.1,3713.8980635,N,13701.40977903,E,4,9.0,1.1,93.126,M,36.77,M,1.1,0979*60,37.23163439166666,137.0234963171667,679505.2159911164,4122487.115503004
635,[2021-02-22 15:28:59.632] $GNGGA,62859.2,3713.8980569,N,13701.40977389,E,4,9.0,1.1,93.13600000000001,M,36.77,M,1.2,0979*63,37.231634281666665,137.02349623150002,679505.2086516436,4122487.1031353376
636,[2021-02-22 15:28:59.710] $GNGGA,62859.3,3713.89806184,N,13701.40977401,E,4,9.0,1.1,93.115,M,36.77,M,1.3,0979*64,37.231634363999994,137.0234962335,679505.2086337962,4122487.1122745327
637,[2021-02-22 15:28:59.819] $GNGGA,62859.4,3713.89806359,N,13701.40977563,E,4,9.0,1.1,93.12799999999999,M,36.77,M,1.4,0979*6D,37.23163439316667,137.0234962605,679505.210960067,4122487.1155619663
638,[2021-02-22 15:28:59.913] $GNGGA,62859.5,3713.89806553,N,13701.40977797,E,4,9.0,1.1,93.12299999999999,M,36.77,M,1.5,0979*63,37.231634425500005,137.02349629949998,679505.2143434696,4122487.119223519
639,[2021-02-22 15:29:00.022] $GNGGA,62859.6,3713.89806336,N,13701.40977559,E,4,9.0,1.1,93.12100000000001,M,36.77,M,1.6,0979*64,37.23163438933333,137.02349625983334,679505.2109100122,4122487.115135368
640,[2021-02-22 15:29:00.116] $GNGGA,62859.7,3713.89806689,N,13701.40977586,E,4,9.0,1.1,93.12700000000001,M,36.77,M,1.7,0979*61,37.23163444816666,137.02349626433335,679505.211169707,4122487.1216718312
641,[2021-02-22 15:29:00.226] $GNGGA,62859.8,3713.89806567,N,13701.40977383,E,4,9.0,1.1,93.12299999999999,M,36.77,M,1.8,0979*65,37.231634427833335,137.0234962305,679505.2082162284,4122487.1193515537
642,[2021-02-22 15:29:00.319] $GNGGA,62859.9,3713.89806503,N,13701.40977103,E,4,9.0,1.1,93.126,M,36.77,M,0.9,0979*69,37.23163441716667,137.02349618383334,679505.2041012452,4122487.1180795142
643,[2021-02-22 15:29:00.429] $GNGGA,62900.0,3713.89806612,N,13701.40977593,E,4,9.0,1.1,93.12700000000001,M,36.77,M,1.0,0979*6A,37.23163443533333,137.0234962655,679505.2113036524,4122487.1202501063
644,[2021-02-22 15:29:00.522] $GNGGA,62900.1,3713.89806759,N,13701.4097748,E,4,9.0,1.1,93.12200000000001,M,36.77,M,1.1,0979*62,37.23163445983334,137.0234962466667,679505.2095746442,4122487.1229328173
645,[2021-02-22 15:29:00.632] $GNGGA,62900.2,3713.89806607,N,13701.40977088,E,4,9.0,1.1,93.132,M,36.77,M,1.2,0979*65,37.2316344345,137.02349618133331,679505.2038383295,4122487.119998014
646,[2021-02-22 15:29:00.710] $GNGGA,62900.3,3713.89806272,N,13701.40977182,E,4,9.0,1.1,93.124,M,36.77,M,1.3,0979*6F,37.23163437866666,137.023496197,679505.2053607121,4122487.113832666
647,[2021-02-22 15:29:00.835] $GNGGA,62900.4,3713.89806664,N,13701.40976804,E,4,9.0,1.1,93.12,M,36.77,M,1.4,0979*6E,37.231634443999994,137.023496134,679505.1996163658,4122487.1209623264
648,[2021-02-22 15:29:00.913] $GNGGA,62900.5,3713.89806046,N,13701.4097647,E,4,9.0,1.1,93.134,M,36.77,M,1.5,0979*62,37.231634341,137.02349607833332,679505.1949219023,4122487.1094282544
649,[2021-02-22 15:29:01.022] $GNGGA,62900.6,3713.89806175,N,13701.40976706,E,4,9.0,1.1,93.126,M,36.77,M,1.6,0979*62,37.2316343625,137.02349611766667,679505.1983605752,4122487.111888413
650,[2021-02-22 15:29:01.116] $GNGGA,62900.7,3713.89806436,N,13701.40976538,E,4,9.0,1.1,93.12200000000001,M,36.77,M,1.7,0979*6B,37.231634406,137.02349608966668,679505.1957732287,4122487.1166619076
651,[2021-02-22 15:29:01.226] $GNGGA,62900.8,3713.89806414,N,13701.40976707,E,4,9.0,1.1,93.126,M,36.77,M,1.8,0979*61,37.23163440233333,137.0234961178333,679505.1982808784,4122487.116308487
652,[2021-02-22 15:29:01.319] $GNGGA,62900.9,3713.89806761,N,13701.40977156,E,4,9.0,1.1,93.116,M,36.77,M,0.9,0979*61,37.23163446016666,137.02349619266667,679505.2047829487,4122487.122867386
653,[2021-02-22 15:29:01.429] $GNGGA,62901.0,3713.89806761,N,13701.40977108,E,4,9.0,1.1,93.12,M,36.77,M,1.0,0979*6F,37.23163446016666,137.02349618466667,679505.2040731867,4122487.1228522137
654,[2021-02-22 15:29:01.522] $GNGGA,62901.1,3713.89806209,N,13701.40977227,E,4,9.0,1.1,93.133,M,36.77,M,1.1,0979*68,37.23163436816667,137.0234962045,679505.2060510225,4122487.1126818503
655,[2021-02-22 15:29:01.632] $GNGGA,62901.2,3713.8980683,N,13701.4097682,E,4,9.0,1.1,93.12200000000001,M,36.77,M,1.2,0979*64,37.231634471666666,137.02349613666667,679505.1997873296,4122487.1240371764
656,[2021-02-22 15:29:01.725] $GNGGA,62901.3,3713.89806953,N,13701.40976709,E,4,9.0,1.1,93.119,M,36.77,M,1.3,0979*6C,37.23163449216666,137.02349611816663,679505.1980973771,4122487.1262766933
657,[2021-02-22 15:29:01.835] $GNGGA,62901.4,3713.89806617,N,13701.40976383,E,4,9.0,1.1,93.118,M,36.77,M,1.4,0979*64,37.23163443616667,137.02349606383333,679505.1934097308,4122487.119960095
658,[2021-02-22 15:29:01.913] $GNGGA,62901.5,3713.89806637,N,13701.40976661,E,4,9.0,1.1,93.12299999999999,M,36.77,M,1.5,0979*67,37.23163443949999,137.0234961101667,679505.1975125377,4122487.1204178226
659,[2021-02-22 15:29:02.022] $GNGGA,62901.6,3713.89806959,N,13701.40976653,E,4,9.0,1.1,93.12100000000001,M,36.77,M,1.6,0979*63,37.23163449316667,137.02349610883334,679505.1972669512,4122487.1263699504
660,[2021-02-22 15:29:02.116] $GNGGA,62901.7,3713.89806557,N,13701.40976973,E,4,9.0,1.1,93.13,M,36.77,M,1.7,0979*6C,37.23163442616667,137.02349616216668,679505.2021576242,4122487.1190370275
661,[2021-02-22 15:29:02.225] $GNGGA,62901.8,3713.8980704,N,13701.40976899,E,4,9.0,1.1,93.11200000000001,M,36.77,M,1.8,0979*6B,37.231634506666666,137.02349614983336,679505.2008724685,4122487.1279456187
662,[2021-02-22 15:29:02.319] $GNGGA,62901.9,3713.89806775,N,13701.40976813,E,4,9.0,1.1,93.132,M,36.77,M,0.9,0979*6A,37.231634462500004,137.0234961355,679505.1997055662,4122487.123017864
663,[2021-02-22 15:29:02.413] $GNGGA,62902.0,3713.89807245,N,13701.40976186,E,4,9.0,1.1,93.135,M,36.77,M,1.0,0979*6D,37.23163454083333,137.023496031,679505.1902484861,4122487.13151125
664,[2021-02-22 15:29:02.522] $GNGGA,62902.1,3713.89807368,N,13701.40975719,E,4,9.0,1.1,93.133,M,36.77,M,1.1,0979*66,37.23163456133334,137.02349595316667,679505.1832944577,4122487.133638239
665,[2021-02-22 15:29:02.632] $GNGGA,62902.2,3713.89807111,N,13701.4097608,E,4,9.0,1.1,93.14200000000001,M,36.77,M,1.2,0979*68,37.231634518499995,137.0234960133333,679505.1887340613,4122487.1289997194
666,[2021-02-22 15:29:02.725] $GNGGA,62902.3,3713.8980721,N,13701.40976228,E,4,9.0,1.1,93.14200000000001,M,36.77,M,1.3,0979*6A,37.23163453499999,137.023496038,679505.1908833644,4122487.1308772806
667,[2021-02-22 15:29:02.819] $GNGGA,62902.4,3713.89807418,N,13701.40976269,E,4,9.0,1.1,93.137,M,36.77,M,1.4,0979*63,37.23163456966666,137.02349604483334,679505.1914073944,4122487.134736724
668,[2021-02-22 15:29:02.913] $GNGGA,62902.5,3713.89806955,N,13701.40976575,E,4,9.0,1.1,93.126,M,36.77,M,1.5,0979*6C,37.23163449250001,137.02349609583334,679505.1961151678,4122487.1262713238
669,[2021-02-22 15:29:03.022] $GNGGA,62902.6,3713.89807519,N,13701.4097576,E,4,9.0,1.1,93.141,M,36.77,M,1.6,0979*6D,37.2316345865,137.02349596000002,679505.1838410231,4122487.1364435977
670,[2021-02-22 15:29:03.116] $GNGGA,62902.7,3713.89807405,N,13701.40976075,E,4,9.0,1.1,93.14299999999999,M,36.77,M,1.7,0979*63,37.2316345675,137.02349601250003,679505.1885439113,4122487.1344349985
671,[2021-02-22 15:29:03.225] $GNGGA,62902.8,3713.89806653,N,13701.4097711,E,4,9.0,1.1,93.125,M,36.77,M,0.8,0979*61,37.23163444216667,137.023496185,679505.2041454534,4122487.1208556336
672,[2021-02-22 15:29:03.319] $GNGGA,62902.9,3713.89806708,N,13701.40976799,E,4,9.0,1.1,93.139,M,36.77,M,0.9,0979*65,37.231634451333335,137.02349613316667,679505.1995250384,4122487.1217744276
673,[2021-02-22 15:29:03.429] $GNGGA,62903.0,3713.89806883,N,13701.40977143,E,4,9.0,1.1,93.12799999999999,M,36.77,M,1.0,0979*69,37.23163448049999,137.0234961905,679505.204542492,4122487.1251193886
674,[2021-02-22 15:29:03.522] $GNGGA,62903.1,3713.89806337,N,13701.40977339,E,4,9.0,1.1,93.125,M,36.77,M,1.1,0979*6F,37.2316343895,137.02349622316666,679505.2076565344,4122487.1150843212
675,[2021-02-22 15:29:03.632] $GNGGA,62903.2,3713.89806751,N,13701.40977024,E,4,9.0,1.1,93.12799999999999,M,36.77,M,1.2,0979*69,37.231634458500004,137.02349617066665,679505.202835051,4122487.122640736
676,[2021-02-22 15:29:03.725] $GNGGA,62903.3,3713.89806882,N,13701.4097692,E,4,9.0,1.1,93.13,M,36.77,M,1.3,0979*6D,37.231634480333334,137.02349615333335,679505.2012454486,4122487.125030407
677,[2021-02-22 15:29:03.819] $GNGGA,62903.4,3713.89806904,N,13701.40977016,E,4,9.0,1.1,93.12200000000001,M,36.77,M,1.4,0979*6C,37.231634484,137.02349616933336,679505.2026562777,4122487.1254675924
678,[2021-02-22 15:29:03.913] $GNGGA,62903.5,3713.89806654,N,13701.40977235,E,4,9.0,1.1,93.12899999999999,M,36.77,M,1.5,0979*6E,37.23163444233333,137.0234962058333,679505.2059933986,4122487.1209136373
679,[2021-02-22 15:29:04.022] $GNGGA,62903.6,3713.89806886,N,13701.40976916,E,4,9.0,1.1,93.126,M,36.77,M,1.6,0979*6B,37.231634481,137.02349615266667,679505.2011847179,4122487.1251031137
680,[2021-02-22 15:29:04.116] $GNGGA,62903.7,3713.89806733,N,13701.40977166,E,4,9.0,1.1,93.12700000000001,M,36.77,M,1.7,0979*65,37.23163445549999,137.02349619433338,679505.2049418888,4122487.122352751
681,[2021-02-22 15:29:04.225] $GNGGA,62903.8,3713.8980669,N,13701.40977213,E,4,9.0,1.1,93.12899999999999,M,36.77,M,1.8,0979*62,37.23163444833333,137.02349620216668,679505.2056538608,4122487.121572422
682,[2021-02-22 15:29:04.319] $GNGGA,62903.9,3713.89806836,N,13701.40977393,E,4,9.0,1.1,93.117,M,36.77,M,1.9,0979*64,37.23163447266666,137.02349623216665,679505.208257755,4122487.124329255
683,[2021-02-22 15:29:04.428] $GNGGA,62904.0,3713.89807308,N,13701.4097684,E,4,9.0,1.1,93.13600000000001,M,36.77,M,1.0,0979*63,37.231634551333336,137.02349614000002,679505.1998941039,4122487.132883018
684,[2021-02-22 15:29:04.522] $GNGGA,62904.1,3713.89807301,N,13701.40976672,E,4,9.0,1.1,93.13799999999999,M,36.77,M,1.1,0979*6B,37.23163455016667,137.02349611199998,679505.197412698,4122487.132700464
685,[2021-02-22 15:29:04.632] $GNGGA,62904.2,3713.89806997,N,13701.40976548,E,4,9.0,1.1,93.139,M,36.77,M,1.2,0979*64,37.2316344995,137.02349609133333,679505.1956993203,4122487.127039482
686,[2021-02-22 15:29:04.725] $GNGGA,62904.3,3713.89807186,N,13701.40976557,E,4,9.0,1.1,93.14399999999999,M,36.77,M,1.3,0979*69,37.231634531000005,137.02349609283334,679505.1957576881,4122487.1305374517
687,[2021-02-22 15:29:04.819] $GNGGA,62904.4,3713.89807094,N,13701.40976916,E,4,9.0,1.1,93.137,M,36.77,M,1.4,0979*66,37.231634515666656,137.02349615266667,679505.2011024919,4122487.128949598
688,[2021-02-22 15:29:04.913] $GNGGA,62904.5,3713.89807105,N,13701.40976596,E,4,9.0,1.1,93.14,M,36.77,M,1.5,0979*6B,37.2316345175,137.02349609933333,679505.1963663902,4122487.129051868
689,[2021-02-22 15:29:05.022] $GNGGA,62904.6,3713.89807226,N,13701.40976925,E,4,9.0,1.1,93.137,M,36.77,M,1.6,0979*6D,37.23163453766666,137.02349615416668,679505.2011833929,4122487.131393482
690,[2021-02-22 15:29:05.116] $GNGGA,62904.7,3713.89806928,N,13701.40976807,E,4,9.0,1.1,93.15,M,36.77,M,1.7,0979*69,37.231634488000005,137.0234961345,679505.1995563607,4122487.125845354
691,[2021-02-22 15:29:05.225] $GNGGA,62904.8,3713.89807283,N,13701.40976537,E,4,9.0,1.1,93.132,M,36.77,M,1.8,0979*68,37.231634547166664,137.0234960895,679505.1954236042,4122487.1323249238
692,[2021-02-22 15:29:05.319] $GNGGA,62904.9,3713.89807492,N,13701.40976488,E,4,9.0,1.1,93.12899999999999,M,36.77,M,0.9,0979*60,37.231634582000005,137.02349608133335,679505.1946164371,4122487.1361744124
693,[2021-02-22 15:29:05.428] $GNGGA,62905.0,3713.89806912,N,13701.40976631,E,4,9.0,1.1,93.12899999999999,M,36.77,M,1.0,0979*64,37.23163448533333,137.02349610516666,679505.1969602205,4122487.125493837
694,[2021-02-22 15:29:05.522] $GNGGA,62905.1,3713.89807425,N,13701.40976133,E,4,9.0,1.1,93.139,M,36.77,M,1.1,0979*68,37.23163457083333,137.02349602216668,679505.1893936337,4122487.134823186
695,[2021-02-22 15:29:05.631] $GNGGA,62905.2,3713.89807478,N,13701.40976455,E,4,9.0,1.1,93.12799999999999,M,36.77,M,1.2,0979*65,37.23163457966666,137.02349607583335,679505.19413401,4122487.1359050823
696,[2021-02-22 15:29:05.710] $GNGGA,62905.3,3713.89807673,N,13701.4097645,E,4,9.0,1.1,93.12799999999999,M,36.77,M,1.3,0979*69,37.231634612166665,137.023496075,679505.1939829874,4122487.139509581
697,[2021-02-22 15:29:05.819] $GNGGA,62905.4,3713.89807734,N,13701.40976219,E,4,9.0,1.1,93.135,M,36.77,M,1.4,0979*6C,37.23163462233333,137.02349603649998,679505.1905431353,4122487.1405646196
698,[2021-02-22 15:29:05.913] $GNGGA,62905.5,3713.89807624,N,13701.40976215,E,4,9.0,1.1,93.13799999999999,M,36.77,M,1.5,0979*6D,37.23163460400001,137.02349603583335,679505.1905274775,4122487.1385291563
699,[2021-02-22 15:29:06.022] $GNGGA,62905.6,3713.89807658,N,13701.4097614,E,4,9.0,1.1,93.134,M,36.77,M,1.6,0979*69,37.23163460966666,137.02349602333334,679505.1894050308,4122487.1391342008
700,[2021-02-22 15:29:06.116] $GNGGA,62905.7,3713.89807645,N,13701.40975901,E,4,9.0,1.1,93.137,M,36.77,M,1.7,0979*68,37.231634607500006,137.0234959835,679505.18587614,4122487.13881825
701,[2021-02-22 15:29:06.225] $GNGGA,62905.8,3713.89807532,N,13701.40976094,E,4,9.0,1.1,93.132,M,36.77,M,1.8,0979*68,37.23163458866667,137.02349601566664,679505.1887746468,4122487.1367895794
702,[2021-02-22 15:29:06.319] $GNGGA,62905.9,3713.89807474,N,13701.40975858,E,4,9.0,1.1,93.139,M,36.77,M,1.9,0979*6B,37.231634578999994,137.02349597633332,679505.1853079086,4122487.135642403
703,[2021-02-22 15:29:06.428] $GNGGA,62906.0,3713.89807361,N,13701.40975835,E,4,9.0,1.1,93.139,M,36.77,M,1.0,0979*60,37.23163456016667,137.02349597250003,679505.1850124893,4122487.133545457
704,[2021-02-22 15:29:06.522] $GNGGA,62906.1,3713.89807409,N,13701.40976053,E,4,9.0,1.1,93.14,M,36.77,M,1.1,0979*6C,37.23163456816667,137.0234960088333,679505.1882170149,4122487.134502015
705,[2021-02-22 15:29:06.631] $GNGGA,62906.2,3713.89807734,N,13701.40975986,E,4,9.0,1.1,93.134,M,36.77,M,1.2,0979*60,37.23163462233333,137.02349599766666,679505.1870978273,4122487.140490969
706,[2021-02-22 15:29:06.725] $GNGGA,62906.3,3713.89807609,N,13701.40976423,E,4,9.0,1.1,93.137,M,36.77,M,1.3,0979*6D,37.2316346015,137.02349607050002,679505.193609048,4122487.138317514
707,[2021-02-22 15:29:06.819] $GNGGA,62906.4,3713.89807835,N,13701.40976042,E,4,9.0,1.1,93.133,M,36.77,M,1.4,0979*6B,37.23163463916667,137.023496007,679505.1878859588,4122487.1423764364
708,[2021-02-22 15:29:06.928] $GNGGA,62906.5,3713.89807413,N,13701.40976253,E,4,9.0,1.1,93.13799999999999,M,36.77,M,1.5,0979*6A,37.231634568833336,137.02349604216667,679505.1911727844,4122487.134639204
709,[2021-02-22 15:29:07.022] $GNGGA,62906.6,3713.89808123,N,13701.40975851,E,4,9.0,1.1,93.12899999999999,M,36.77,M,1.6,0979*68,37.23163468716666,137.0234959751667,679505.1849478441,4122487.147641963
710,[2021-02-22 15:29:07.116] $GNGGA,62906.7,3713.89807777,N,13701.40976041,E,4,9.0,1.1,93.135,M,36.77,M,1.7,0979*67,37.2316346295,137.02349600683337,679505.1878941032,4122487.1413035416
711,[2021-02-22 15:29:07.225] $GNGGA,62906.8,3713.89807839,N,13701.40975753,E,4,9.0,1.1,93.134,M,36.77,M,1.8,0979*64,37.23163463983334,137.02349595883337,679505.1836110157,4122487.142359056
712,[2021-02-22 15:29:07.319] $GNGGA,62906.9,3713.89807748,N,13701.40976097,E,4,9.0,1.1,93.137,M,36.77,M,0.9,0979*63,37.231634624666675,137.02349601616666,679505.1887336215,4122487.1407849547
713,[2021-02-22 15:29:07.428] $GNGGA,62907.0,3713.89807561,N,13701.40976184,E,4,9.0,1.1,93.139,M,36.77,M,1.0,0979*67,37.2316345935,137.02349603066668,679505.1900939934,4122487.137354316
714,[2021-02-22 15:29:07.522] $GNGGA,62907.1,3713.89807992,N,13701.40975958,E,4,9.0,1.1,93.14,M,36.77,M,1.1,0979*63,37.23163466533333,137.02349599299998,679505.1865818074,4122487.1452532397
715,[2021-02-22 15:29:07.631] $GNGGA,62907.2,3713.8980774,N,13701.40975942,E,4,9.0,1.1,93.14299999999999,M,36.77,M,1.2,0979*6A,37.23163462333334,137.02349599033332,679505.1864448385,4122487.1405880186
716,[2021-02-22 15:29:07.725] $GNGGA,62907.3,3713.89807951,N,13701.40975751,E,4,9.0,1.1,93.14200000000001,M,36.77,M,1.3,0979*69,37.231634658500006,137.0234959585,679505.1835371631,4122487.144429608
717,[2021-02-22 15:29:07.819] $GNGGA,62907.4,3713.89808091,N,13701.40975632,E,4,9.0,1.1,93.141,M,36.77,M,1.4,0979*64,37.23163468183333,137.02349593866663,679505.1817221936,4122487.146980971
718,[2021-02-22 15:29:07.913] $GNGGA,62907.5,3713.89807923,N,13701.4097546,E,4,9.0,1.1,93.131,M,36.77,M,1.5,0979*69,37.231634653833325,137.02349590999998,679505.1792452909,4122487.1438198267
719,[2021-02-22 15:29:08.022] $GNGGA,62907.6,3713.89807963,N,13701.40975628,E,4,9.0,1.1,93.14,M,36.77,M,1.6,0979*65,37.231634660500006,137.023495938,679505.1817136515,4122487.14461264
720,[2021-02-22 15:29:08.116] $GNGGA,62907.7,3713.8980781,N,13701.40975756,E,4,9.0,1.1,93.133,M,36.77,M,1.7,0979*6C,37.231634635,137.02349595933333,679505.1836668364,4122487.1418237137
721,[2021-02-22 15:29:08.225] $GNGGA,62907.8,3713.89808103,N,13701.40975722,E,4,9.0,1.1,93.13600000000001,M,36.77,M,1.8,0979*6E,37.23163468383333,137.02349595366667,679505.1830482606,4122487.1472313325
722,[2021-02-22 15:29:08.319] $GNGGA,62907.9,3713.89808045,N,13701.40976147,E,4,9.0,1.1,93.12899999999999,M,36.77,M,0.9,0979*64,37.23163467416667,137.02349602450002,679505.189355551,4122487.1462930962
723,[2021-02-22 15:29:08.428] $GNGGA,62908.0,3713.89808126,N,13701.40976357,E,4,9.0,1.1,93.118,M,36.77,M,1.0,0979*6F,37.23163468766666,137.02349605950002,679505.1924287436,4122487.147857384
724,[2021-02-22 15:29:08.522] $GNGGA,62908.1,3713.89808087,N,13701.40975961,E,4,9.0,1.1,93.116,M,36.77,M,1.1,0979*67,37.23163468116666,137.02349599349998,679505.186588611,4122487.147010995
725,[2021-02-22 15:29:08.631] $GNGGA,62908.2,3713.89807832,N,13701.40976302,E,4,9.0,1.1,93.12200000000001,M,36.77,M,1.2,0979*65,37.23163463866666,137.0234960503333,679505.1917316924,4122487.1424031407
726,[2021-02-22 15:29:08.725] $GNGGA,62908.3,3713.89807748,N,13701.40976453,E,4,9.0,1.1,93.126,M,36.77,M,1.3,0979*60,37.231634624666675,137.02349607550002,679505.1939976995,4122487.1408974845
727,[2021-02-22 15:29:08.819] $GNGGA,62908.4,3713.89807882,N,13701.4097672,E,4,9.0,1.1,93.12100000000001,M,36.77,M,1.4,0979*69,37.231634647,137.02349612000003,679505.1978927872,4122487.143459906
728,[2021-02-22 15:29:08.912] $GNGGA,62908.5,3713.89807894,N,13701.40976833,E,4,9.0,1.1,93.12799999999999,M,36.77,M,1.5,0979*6A,37.23163464899999,137.02349613883334,679505.19955894,4122487.1437175353
729,[2021-02-22 15:29:09.022] $GNGGA,62908.6,3713.89808067,N,13701.40976988,E,4,9.0,1.1,93.132,M,36.77,M,1.6,0979*6B,37.23163467783334,137.02349616466665,679505.2017824932,4122487.146965773
730,[2021-02-22 15:29:09.116] $GNGGA,62908.7,3713.89807988,N,13701.40976895,E,4,9.0,1.1,93.119,M,36.77,M,1.7,0979*68,37.231634664666664,137.02349614916668,679505.2004385582,4122487.145475449
731,[2021-02-22 15:29:09.225] $GNGGA,62908.8,3713.89807806,N,13701.40976853,E,4,9.0,1.1,93.119,M,36.77,M,1.8,0979*65,37.23163463433333,137.0234961421667,679505.1998894662,4122487.142096499
732,[2021-02-22 15:29:09.319] $GNGGA,62908.9,3713.89807322,N,13701.40976951,E,4,9.0,1.1,93.155,M,36.77,M,0.9,0979*62,37.23163455366666,137.02349615850002,679505.2015298981,4122487.133177
733,[2021-02-22 15:29:09.428] $GNGGA,62909.0,3713.89808286,N,13701.40976494,E,4,9.0,1.1,93.134,M,36.77,M,1.0,0979*61,37.23163471433334,137.0234960823333,679505.1943912725,4122487.1508595254
734,[2021-02-22 15:29:09.522] $GNGGA,62909.1,3713.89808177,N,13701.40976149,E,4,9.0,1.1,93.14299999999999,M,36.77,M,1.1,0979*69,37.23163469616667,137.02349602483335,679505.1893329417,4122487.1487347665
735,[2021-02-22 15:29:09.631] $GNGGA,62909.2,3713.89808299,N,13701.40975501,E,4,9.0,1.1,93.133,M,36.77,M,1.2,0979*66,37.2316347165,137.02349591683333,679505.1797029098,4122487.1507860473
736,[2021-02-22 15:29:09.725] $GNGGA,62909.3,3713.89808426,N,13701.40974812,E,4,9.0,1.1,93.133,M,36.77,M,1.3,0979*6A,37.23163473766667,137.02349580199999,679505.1694646454,4122487.1529168338
737,[2021-02-22 15:29:09.819] $GNGGA,62909.4,3713.89808559,N,13701.40974324,E,4,9.0,1.1,93.135,M,36.77,M,1.4,0979*6B,37.231634759833334,137.0234957206667,679505.1621961462,4122487.15522211
738,[2021-02-22 15:29:09.912] $GNGGA,62909.5,3713.8980873,N,13701.4097444,E,4,9.0,1.1,93.13600000000001,M,36.77,M,1.5,0979*60,37.23163478833334,137.02349574,679505.1638438045,4122487.1584210335
739,[2021-02-22 15:29:10.022] $GNGGA,62909.6,3713.89808828,N,13701.40975024,E,4,9.0,1.1,93.139,M,36.77,M,1.6,0979*6E,37.23163480466666,137.02349583733334,679505.1724405158,4122487.160417918
740,[2021-02-22 15:29:10.116] $GNGGA,62909.7,3713.89809047,N,13701.4097569,E,4,9.0,1.1,93.135,M,36.77,M,1.7,0979*6B,37.23163484116667,137.02349594833333,679505.1822019059,4122487.1646783426
741,[2021-02-22 15:29:10.225] $GNGGA,62909.8,3713.89809155,N,13701.40976036,E,4,9.0,1.1,93.137,M,36.77,M,1.8,0979*62,37.23163485916667,137.023496006,679505.1872754182,4122487.1667849245
742,[2021-02-22 15:29:10.319] $GNGGA,62909.9,3713.89809177,N,13701.40976116,E,4,9.0,1.1,93.145,M,36.77,M,1.9,0979*64,37.23163486283334,137.02349601933332,679505.1884496607,4122487.1672170525
743,[2021-02-22 15:29:10.428] $GNGGA,62910.0,3713.89808893,N,13701.40976328,E,4,9.0,1.1,93.139,M,36.77,M,1.0,0979*6A,37.2316348155,137.02349605466668,679505.191696721,4122487.162032133
744,[2021-02-22 15:29:10.522] $GNGGA,62910.1,3713.89809085,N,13701.40976212,E,4,9.0,1.1,93.148,M,36.77,M,1.1,0979*6A,37.23163484749999,137.02349603533332,679505.1899055558,4122487.165546066
745,[2021-02-22 15:29:10.631] $GNGGA,62910.2,3713.89808904,N,13701.40976216,E,4,9.0,1.1,93.14399999999999,M,36.77,M,1.2,0979*63,37.23163481733333,137.023496036,679505.1900362577,4122487.1622001496
746,[2021-02-22 15:29:10.725] $GNGGA,62910.3,3713.89808628,N,13701.40976494,E,4,9.0,1.1,93.133,M,36.77,M,1.3,0979*6E,37.231634771333326,137.0234960823333,679505.194256074,4122487.1571840346
747,[2021-02-22 15:29:10.819] $GNGGA,62910.4,3713.89809142,N,13701.40976203,E,4,9.0,1.1,93.15,M,36.77,M,1.4,0979*69,37.23163485700001,137.0234960338333,679505.189749942,4122487.166597307
748,[2021-02-22 15:29:10.912] $GNGGA,62910.5,3713.89809162,N,13701.4097656,E,4,9.0,1.1,93.137,M,36.77,M,1.5,0979*68,37.23163486033333,137.0234960933333,679505.1950208978,4122487.167080007
749,[2021-02-22 15:29:11.022] $GNGGA,62910.6,3713.89809002,N,13701.4097667,E,4,9.0,1.1,93.146,M,36.77,M,1.6,0979*6B,37.23163483366666,137.0234961116667,679505.1967106953,4122487.164155942
750,[2021-02-22 15:29:11.115] $GNGGA,62910.7,3713.89808559,N,13701.40976958,E,4,9.0,1.1,93.14,M,36.77,M,1.7,0979*62,37.231634759833334,137.02349615966665,679505.2011443943,4122487.1560547045
751,[2021-02-22 15:29:11.225] $GNGGA,62910.8,3713.89808682,N,13701.4097692,E,4,9.0,1.1,93.13799999999999,M,36.77,M,1.8,0979*67,37.23163478033334,137.02349615333335,679505.2005338775,4122487.158317298
752,[2021-02-22 15:29:11.319] $GNGGA,62910.9,3713.89808476,N,13701.40976724,E,4,9.0,1.1,93.14299999999999,M,36.77,M,1.9,0979*68,37.231634746000005,137.02349612066666,679505.1977171114,4122487.1544458442
753,[2021-02-22 15:29:11.428] $GNGGA,62911.0,3713.89808386,N,13701.40976601,E,4,9.0,1.1,93.15,M,36.77,M,1.0,0979*65,37.231634731,137.02349610016665,679505.1959339222,4122487.1527426196
754,[2021-02-22 15:29:11.522] $GNGGA,62911.1,3713.89808526,N,13701.40976853,E,4,9.0,1.1,93.133,M,36.77,M,1.1,0979*65,37.231634754333335,137.0234961421667,679505.1996048377,4122487.1554112546
755,[2021-02-22 15:29:11.631] $GNGGA,62911.2,3713.89807684,N,13701.40976669,E,4,9.0,1.1,93.15,M,36.77,M,1.2,0979*63,37.23163461400001,137.0234961115,679505.1972169328,4122487.1397822276
756,[2021-02-22 15:29:11.725] $GNGGA,62911.3,3713.89807645,N,13701.40976411,E,4,9.0,1.1,93.139,M,36.77,M,1.3,0979*6C,37.231634607500006,137.02349606849998,679505.1934173704,4122487.1389794583
757,[2021-02-22 15:29:11.819] $GNGGA,62911.4,3713.89807387,N,13701.40976105,E,4,9.0,1.1,93.141,M,36.77,M,1.4,0979*68,37.2316345645,137.02349601749998,679505.1889946231,4122487.134111612
758,[2021-02-22 15:29:11.912] $GNGGA,62911.5,3713.8980753,N,13701.4097612,E,4,9.0,1.1,93.13799999999999,M,36.77,M,1.5,0979*6B,37.23163458833333,137.02349602,679505.1891598976,4122487.136760811
759,[2021-02-22 15:29:12.022] $GNGGA,62911.6,3713.89807593,N,13701.40976205,E,4,9.0,1.1,93.148,M,36.77,M,1.6,0979*61,37.23163459883333,137.02349603416667,679505.1903918632,4122487.137952721
760,[2021-02-22 15:29:12.115] $GNGGA,62911.7,3713.89808064,N,13701.4097636,E,4,9.0,1.1,93.14200000000001,M,36.77,M,1.7,0979*6B,37.23163467733333,137.02349606,679505.1924976143,4122487.1467117853
761,[2021-02-22 15:29:12.225] $GNGGA,62911.8,3713.89808438,N,13701.40976824,E,4,9.0,1.1,93.14200000000001,M,36.77,M,1.8,0979*6D,37.23163473966667,137.02349613733335,679505.199210809,4122487.153774729
762,[2021-02-22 15:29:12.318] $GNGGA,62911.9,3713.89808394,N,13701.4097678,E,4,9.0,1.1,93.147,M,36.77,M,1.9,0979*68,37.23163473233333,137.02349612999998,679505.1985775838,4122487.152947142
763,[2021-02-22 15:29:12.412] $GNGGA,62912.0,3713.89808516,N,13701.40977233,E,4,9.0,1.1,93.137,M,36.77,M,2.0,0979*6F,37.23163475266666,137.0234962055,679505.2052277476,4122487.1553464425
764,[2021-02-22 15:29:12.490] $GNGGA,62912.1,3713.8980842,N,13701.40977586,E,4,9.0,1.1,93.134,M,36.77,M,1.1,0979*62,37.23163473666667,137.02349626433335,679505.2104854129,4122487.153682726
765,[2021-02-22 15:29:12.631] $GNGGA,62912.2,3713.89808165,N,13701.40977769,E,4,9.0,1.1,93.13,M,36.77,M,1.2,0979*61,37.23163469416667,137.02349629483334,679505.21329219,4122487.149024928
766,[2021-02-22 15:29:12.725] $GNGGA,62912.3,3713.8980827,N,13701.4097759,E,4,9.0,1.1,93.124,M,36.77,M,1.3,0979*67,37.231634711666665,137.023496265,679505.2106038576,4122487.1509100813
767,[2021-02-22 15:29:12.818] $GNGGA,62912.4,3713.89807963,N,13701.40977004,E,4,9.0,1.1,93.131,M,36.77,M,1.4,0979*6D,37.231634660500006,137.02349616733332,679505.2020601927,4122487.145047586
768,[2021-02-22 15:29:12.912] $GNGGA,62912.5,3713.89808289,N,13701.40976428,E,4,9.0,1.1,93.12899999999999,M,36.77,M,1.5,0979*6F,37.231634714833326,137.02349607133334,679505.1934141635,4122487.1508941394
769,[2021-02-22 15:29:13.022] $GNGGA,62912.6,3713.89807768,N,13701.40976867,E,4,9.0,1.1,93.137,M,36.77,M,1.6,0979*62,37.231634627999995,137.02349614450003,679505.2001115022,4122487.1413982017
770,[2021-02-22 15:29:13.115] $GNGGA,62912.7,3713.89808074,N,13701.40977677,E,4,9.0,1.1,93.12799999999999,M,36.77,M,1.7,0979*67,37.231634678999995,137.02349627950002,679505.2119677875,4122487.1473130095
771,[2021-02-22 15:29:13.225] $GNGGA,62912.8,3713.89807873,N,13701.40978099,E,4,9.0,1.1,93.12799999999999,M,36.77,M,1.8,0979*6E,37.2316346455,137.02349634983332,679505.2182872428,4122487.143729365
772,[2021-02-22 15:29:13.318] $GNGGA,62912.9,3713.89807893,N,13701.40978042,E,4,9.0,1.1,93.124,M,36.77,M,1.9,0979*6A,37.231634648833335,137.0234963403333,679505.2174364916,4122487.144081203
773,[2021-02-22 15:29:13.428] $GNGGA,62913.0,3713.89807212,N,13701.40978169,E,4,9.0,1.1,93.132,M,36.77,M,2.0,0979*64,37.231634535333335,137.0234963615,679505.2195836224,4122487.1315278066
774,[2021-02-22 15:29:13.522] $GNGGA,62913.1,3713.89807185,N,13701.40978425,E,4,9.0,1.1,93.12700000000001,M,36.77,M,2.1,0979*60,37.23163453083333,137.02349640416668,679505.2233796986,4122487.131109423
775,[2021-02-22 15:29:13.631] $GNGGA,62913.2,3713.89807145,N,13701.40978211,E,4,9.0,1.1,93.12700000000001,M,36.77,M,1.2,0979*6E,37.231634524166665,137.0234963685,679505.2202311485,4122487.1303020706
776,[2021-02-22 15:29:13.725] $GNGGA,62913.3,3713.89807307,N,13701.4097801,E,4,9.0,1.1,93.132,M,36.77,M,1.3,0979*6D,37.231634551166664,137.02349633500003,679505.2171949791,4122487.1332343547
777,[2021-02-22 15:29:13.818] $GNGGA,62913.4,3713.89807622,N,13701.40977606,E,4,9.0,1.1,93.12299999999999,M,36.77,M,1.4,0979*61,37.23163460366666,137.02349626766667,679505.211096612,4122487.1389318584
778,[2021-02-22 15:29:13.912] $GNGGA,62913.5,3713.89807746,N,13701.40977451,E,4,9.0,1.1,93.13,M,36.77,M,1.5,0979*60,37.23163462433333,137.02349624183333,679505.2087556472,4122487.14117596
779,[2021-02-22 15:29:14.022] $GNGGA,62913.6,3713.8980784,N,13701.40977207,E,4,9.0,1.1,93.12700000000001,M,36.77,M,1.6,0979*6A,37.231634639999996,137.02349620116667,679505.2051105241,4122487.142837148
780,[2021-02-22 15:29:14.115] $GNGGA,62913.7,3713.89808583,N,13701.40977126,E,4,9.0,1.1,93.134,M,36.77,M,1.7,0979*65,37.231634763833334,137.02349618766667,679505.2036190799,4122487.1565516335
781,[2021-02-22 15:29:14.225] $GNGGA,62913.8,3713.89808258,N,13701.40977293,E,4,9.0,1.1,93.131,M,36.77,M,1.8,0979*6C,37.231634709666665,137.02349621550002,679505.2062169429,4122487.150594289
782,[2021-02-22 15:29:14.318] $GNGGA,62913.9,3713.89808686,N,13701.40977345,E,4,9.0,1.1,93.12200000000001,M,36.77,M,1.9,0979*63,37.231634781000004,137.02349622416665,679505.2068166538,4122487.158525609
783,[2021-02-22 15:29:14.428] $GNGGA,62914.0,3713.89808632,N,13701.40977394,E,4,9.0,1.1,93.12200000000001,M,36.77,M,2.0,0979*64,37.23163477199999,137.02349623233334,679505.2075625536,4122487.157542489
784,[2021-02-22 15:29:14.521] $GNGGA,62914.1,3713.89808659,N,13701.40977821,E,4,9.0,1.1,93.12299999999999,M,36.77,M,1.1,0979*6E,37.231634776499995,137.02349630350002,679505.2138658168,4122487.158176765
785,[2021-02-22 15:29:14.631] $GNGGA,62914.2,3713.89808846,N,13701.40977294,E,4,9.0,1.1,93.124,M,36.77,M,1.2,0979*6D,37.23163480766667,137.02349621566665,679505.2059992802,4122487.161468323
786,[2021-02-22 15:29:14.725] $GNGGA,62914.3,3713.89808719,N,13701.40977091,E,4,9.0,1.1,93.12299999999999,M,36.77,M,1.3,0979*68,37.231634786499995,137.02349618183337,679505.2030477828,4122487.159055579
787,[2021-02-22 15:29:14.818] $GNGGA,62914.4,3713.89808465,N,13701.40976818,E,4,9.0,1.1,93.126,M,36.77,M,1.4,0979*6D,37.23163474416666,137.02349613633334,679505.1991114136,4122487.154272136
788,[2021-02-22 15:29:14.912] $GNGGA,62914.5,3713.89808463,N,13701.40976304,E,4,9.0,1.1,93.12700000000001,M,36.77,M,1.5,0979*6C,37.23163474383333,137.02349605066664,679505.1915118219,4122487.154072678
789,[2021-02-22 15:29:15.021] $GNGGA,62914.6,3713.89808329,N,13701.40976277,E,4,9.0,1.1,93.125,M,36.77,M,1.6,0979*62,37.23163472150001,137.02349604616663,679505.1911655503,4122487.15158612
790,[2021-02-22 15:29:15.115] $GNGGA,62914.7,3713.89808708,N,13701.40976338,E,4,9.0,1.1,93.124,M,36.77,M,1.7,0979*6E,37.23163478466666,137.02349605633333,679505.1919177192,4122487.158614141
791,[2021-02-22 15:29:15.225] $GNGGA,62914.8,3713.89809469,N,13701.40976154,E,4,9.0,1.1,93.12799999999999,M,36.77,M,1.8,0979*6F,37.231634911499995,137.02349602566667,679505.1888961252,4122487.1726289364
792,[2021-02-22 15:29:15.318] $GNGGA,62914.9,3713.89809157,N,13701.40975872,E,4,9.0,1.1,93.13600000000001,M,36.77,M,0.9,0979*67,37.23163485949999,137.02349597866663,679505.1848496015,4122487.166770069
