,Format,Time,Latitude,LatType,Longitude,LonType,Status,Satellite,LevelAccuracy,Altitude(sea),M(sea),Altitude(geoid),M(geoid),DGPS use,checksum,Lat,Lon,UTM_X,UTM_Y
978,[2021-02-22 15:23:54.701] $GPGGA,62354.3,3713.8982581,N,13701.40945043,E,4,9.0,1.5,93.036,M,36.77,M,2.3,0000*7A,37.231637635,137.02349084050002,679504.7224062448,4122487.464984408
980,[2021-02-22 15:23:54.811] $GPGGA,62354.4,3713.89825439,N,13701.40944798,E,4,9.0,1.5,93.052,M,36.77,M,2.4,0000*7F,37.231637573166665,137.0234907996667,679504.7189301578,4122487.4580461676
982,[2021-02-22 15:23:54.904] $GPGGA,62354.5,3713.89825793,N,13701.40944992,E,4,9.0,1.5,93.040,M,36.77,M,2.5,0000*7B,37.23163763216667,137.02349083200002,679504.7216588424,4122487.4646539125
984,[2021-02-22 15:23:54.998] $GPGGA,62354.6,3713.89825967,N,13701.40944807,E,4,9.0,1.5,93.041,M,36.77,M,2.6,0000*72,37.23163766116666,137.02349080116667,679504.7188545092,4122487.467813167
986,[2021-02-22 15:23:55.092] $GPGGA,62354.7,3713.89826143,N,13701.40944967,E,4,9.0,1.5,93.037,M,36.77,M,2.7,0000*79,37.231637690499994,137.02349082783334,679504.7211508122,4122487.471118459
988,[2021-02-22 15:23:55.201] $GPGGA,62354.8,3713.89826021,N,13701.40944546,E,4,9.0,1.5,93.047,M,36.77,M,2.8,0000*74,37.23163767016667,137.02349075766668,679504.7149738262,4122487.4687292725
990,[2021-02-22 15:23:55.295] $GPGGA,62354.9,3713.89825915,N,13701.40944362,E,4,9.0,1.5,93.050,M,36.77,M,2.9,0000*7F,37.23163765249999,137.023490727,679504.71229497,4122487.466710883
992,[2021-02-22 15:23:55.404] $GPGGA,62355.0,3713.89825974,N,13701.40944538,E,4,9.0,1.5,93.040,M,36.77,M,3.0,0000*70,37.231637662333334,137.02349075633333,679504.7148741116,4122487.4678575876
994,[2021-02-22 15:23:55.498] $GPGGA,62355.1,3713.89825658,N,13701.40944296,E,4,9.0,1.5,93.043,M,36.77,M,3.1,0000*71,37.23163760966666,137.02349071600003,679504.7114206433,4122487.461937393
996,[2021-02-22 15:23:55.607] $GPGGA,62355.2,3713.89825742,N,13701.40944602,E,4,9.0,1.5,93.045,M,36.77,M,3.2,0000*74,37.231637623666664,137.023490767,679504.7159121757,4122487.4635875053
998,[2021-02-22 15:23:55.701] $GPGGA,62355.3,3713.89825528,N,13701.40944765,E,4,9.0,1.5,93.045,M,36.77,M,3.3,0000*7A,37.231637588000005,137.02349079416666,679504.7184070108,4122487.4596815896
1000,[2021-02-22 15:23:55.795] $GPGGA,62355.4,3713.89825301,N,13701.40944705,E,4,9.0,1.5,93.047,M,36.77,M,3.4,0000*73,37.23163755016667,137.02349078416665,679504.717609542,4122487.455464776
1002,[2021-02-22 15:23:55.889] $GPGGA,62355.5,3713.89825709,N,13701.4094502,E,4,9.0,1.5,93.043,M,36.77,M,3.5,0000*7A,37.231637618166666,137.02349083666667,679504.7221060748,4122487.463109373
1004,[2021-02-22 15:23:55.998] $GPGGA,62355.6,3713.89825387,N,13701.40945293,E,4,9.0,1.5,93.047,M,36.77,M,3.6,0000*76,37.2316375645,137.02349088216667,679504.7262701441,4122487.4572410136
1006,[2021-02-22 15:23:56.092] $GPGGA,62355.7,3713.89825243,N,13701.4094561,E,4,9.0,1.5,93.049,M,36.77,M,3.7,0000*7E,37.231637540499996,137.023490935,679504.731014464,4122487.454678263
1008,[2021-02-22 15:23:56.201] $GPGGA,62355.8,3713.89824715,N,13701.40946175,E,4,9.0,1.5,93.044,M,36.77,M,3.8,0000*73,37.2316374525,137.02349102916668,679504.7395776957,4122487.4450927023
1010,[2021-02-22 15:23:56.295] $GPGGA,62355.9,3713.89824687,N,13701.40946554,E,4,9.0,1.5,93.045,M,36.77,M,3.9,0000*7F,37.231637447833336,137.02349109233336,679504.7451929371,4122487.4446947062
1012,[2021-02-22 15:23:56.404] $GPGGA,62356.0,3713.89824275,N,13701.40947039,E,4,9.0,1.5,93.040,M,36.77,M,4.0,0000*78,37.23163737916666,137.02349117316663,679504.7525273659,4122487.4372290117
1014,[2021-02-22 15:23:56.498] $GPGGA,62356.1,3713.89824121,N,13701.40947211,E,4,9.0,1.5,93.047,M,36.77,M,4.1,0000*75,37.2316373535,137.0234912018333,679504.7551315628,4122487.4344355017
1016,[2021-02-22 15:23:56.607] $GPGGA,62356.2,3713.89823401,N,13701.40946865,E,4,12.0,0.9,93.085,M,36.77,M,2.2,0000*72,37.2316372335,137.02349114416666,679504.750299984,4122487.421011378
1018,[2021-02-22 15:23:56.701] $GPGGA,62356.3,3713.89823336,N,13701.40948049,E,4,12.0,0.9,93.073,M,36.77,M,2.3,0000*70,37.23163722266668,137.0234913415,679504.7678331706,4122487.4201836083
1020,[2021-02-22 15:23:56.810] $GPGGA,62356.4,3713.89822784,N,13701.40948092,E,4,12.0,0.9,93.073,M,36.77,M,2.4,0000*7A,37.23163713066667,137.02349134866668,679504.7686872159,4122487.409989219
1022,[2021-02-22 15:23:56.904] $GPGGA,62356.5,3713.89822473,N,13701.40948598,E,4,12.0,0.9,93.071,M,36.77,M,2.5,0000*7C,37.23163707883333,137.023491433,679504.7762922446,4122487.4043979277
1024,[2021-02-22 15:23:56.998] $GPGGA,62356.6,3713.89822494,N,13701.40948247,E,4,12.0,0.9,93.077,M,36.77,M,2.6,0000*76,37.231637082333336,137.02349137450003,679504.7710938007,4122487.4046753254
1026,[2021-02-22 15:23:57.092] $GPGGA,62356.7,3713.89822527,N,13701.40948437,E,4,12.0,0.9,93.084,M,36.77,M,2.7,0000*72,37.23163708783333,137.02349140616667,679504.7738902324,4122487.4053456425
1028,[2021-02-22 15:23:57.201] $GPGGA,62356.8,3713.89823203,N,13701.40948668,E,4,12.0,0.9,93.071,M,36.77,M,2.8,0000*70,37.2316372005,137.0234914446667,679504.7770387362,4122487.417919738
1030,[2021-02-22 15:23:57.295] $GPGGA,62356.9,3713.89822915,N,13701.4094928,E,4,12.0,0.9,93.078,M,36.77,M,2.9,0000*77,37.2316371525,137.02349154666666,679504.7862020631,4122487.4127872833
1032,[2021-02-22 15:23:57.404] $GPGGA,62357.0,3713.89822842,N,13701.40949694,E,4,12.0,0.9,93.066,M,36.77,M,3.0,0000*7A,37.23163714033334,137.02349161566664,679504.7923526277,4122487.4115681797
1034,[2021-02-22 15:23:57.498] $GPGGA,62357.1,3713.89822947,N,13701.40949732,E,4,12.0,0.9,93.080,M,36.77,M,3.1,0000*7B,37.23163715783333,137.023491622,679504.7928730168,4122487.413521926
1036,[2021-02-22 15:23:57.607] $GPGGA,62357.2,3713.89823229,N,13701.40950002,E,4,12.0,0.9,93.071,M,36.77,M,3.2,0000*7B,37.23163720483333,137.023491667,679504.7967539562,4122487.418822218
1038,[2021-02-22 15:23:57.701] $GPGGA,62357.3,3713.89823055,N,13701.40950084,E,4,12.0,0.9,93.079,M,36.77,M,3.3,0000*74,37.231637175833335,137.02349168066667,679504.7980352532,4122487.4156304053
1040,[2021-02-22 15:23:57.810] $GPGGA,62357.4,3713.89823048,N,13701.40949808,E,4,12.0,0.9,93.074,M,36.77,M,3.4,0000*71,37.23163717466667,137.02349163466667,679504.793956882,4122487.4154137135
1042,[2021-02-22 15:23:57.904] $GPGGA,62357.5,3713.8982284,N,13701.40949996,E,4,12.0,0.9,93.070,M,36.77,M,3.5,0000*72,37.231637140000004,137.02349166599998,679504.7968190125,4122487.4116266547
1044,[2021-02-22 15:23:57.998] $GPGGA,62357.6,3713.89823207,N,13701.40950528,E,4,12.0,0.9,93.068,M,36.77,M,3.6,0000*72,37.23163720116667,137.02349175466668,679504.8045404745,4122487.4185816436
1046,[2021-02-22 15:23:58.092] $GPGGA,62357.7,3713.89823064,N,13701.40949948,E,4,12.0,1.1,93.068,M,36.77,M,3.7,0000*7E,37.231637177333326,137.02349165799998,679504.7960206976,4122487.41575385
1048,[2021-02-22 15:23:58.201] $GPGGA,62357.8,3713.89823014,N,13701.40949751,E,4,12.0,1.1,93.084,M,36.77,M,3.8,0000*7D,37.231637168999995,137.02349162516666,679504.793127478,4122487.4147669435
1050,[2021-02-22 15:23:58.295] $GPGGA,62357.9,3713.89823,N,13701.40949951,E,4,11.0,1.2,93.066,M,36.77,M,3.9,0000*7A,37.23163716666666,137.0234916585,679504.796090361,4122487.4145712634
1052,[2021-02-22 15:23:58.404] $GPGGA,62358.0,3713.89823155,N,13701.40949451,E,4,11.0,1.2,93.076,M,36.77,M,4.0,0000*7F,37.2316371925,137.02349157516667,679504.7886357213,4122487.4172795876
1054,[2021-02-22 15:23:58.498] $GPGGA,62358.1,3713.8982382,N,13701.40949605,E,4,11.0,1.2,93.073,M,36.77,M,4.1,0000*72,37.231637303333336,137.02349160083335,679504.7906499928,4122487.429625924
1056,[2021-02-22 15:23:58.607] $GPGGA,62358.2,3713.89823868,N,13701.4094939,E,4,11.0,1.2,93.074,M,36.77,M,4.2,0000*70,37.23163731133332,137.02349156500003,679504.7874518711,4122487.4304456124
1058,[2021-02-22 15:23:58.701] $GPGGA,62358.3,3713.89823438,N,13701.40949382,E,4,11.0,1.2,93.071,M,36.77,M,4.3,0000*7F,37.23163723966666,137.02349156366668,679504.7875035628,4122487.4224912156
1060,[2021-02-22 15:23:58.810] $GPGGA,62358.4,3713.89823947,N,13701.4094904,E,4,11.0,1.2,93.076,M,36.77,M,4.4,0000*70,37.2316373245,137.02349150666666,679504.7822452806,4122487.4317959044
1062,[2021-02-22 15:23:58.888] $GPGGA,62358.5,3713.89823754,N,13701.40949378,E,4,11.0,1.2,93.069,M,36.77,M,4.5,0000*7A,37.23163729233333,137.023491563,679504.7873194934,4122487.428333651
1064,[2021-02-22 15:23:58.998] $GPGGA,62358.6,3713.89823676,N,13701.40949259,E,4,11.0,1.2,93.070,M,36.77,M,4.6,0000*71,37.231637279333334,137.02349154316667,679504.7855907073,4122487.426853603
1066,[2021-02-22 15:23:59.092] $GPGGA,62358.7,3713.89823858,N,13701.40948863,E,4,11.0,1.2,93.077,M,36.77,M,4.7,0000*76,37.23163730966667,137.02349147716666,679504.7796632122,4122487.430094104
1068,[2021-02-22 15:23:59.201] $GPGGA,62358.8,3713.8982392,N,13701.40949303,E,4,11.0,1.2,93.073,M,36.77,M,4.8,0000*70,37.23163731999999,137.02349155049998,679504.7861448649,4122487.4313797336
1070,[2021-02-22 15:23:59.295] $GPGGA,62358.9,3713.89823612,N,13701.40948995,E,4,11.0,1.2,93.076,M,36.77,M,4.9,0000*7F,37.23163726866667,137.02349149916668,679504.7817123107,4122487.4255866213
1072,[2021-02-22 15:23:59.404] $GPGGA,62359.0,3713.89824108,N,13701.40949229,E,4,11.0,1.2,93.070,M,36.77,M,5.0,0000*7F,37.231637351333326,137.02349153816667,679504.7849763279,4122487.434832974
1074,[2021-02-22 15:23:59.498] $GPGGA,62359.1,3713.89824046,N,13701.40949078,E,4,11.0,1.2,93.077,M,36.77,M,5.1,0000*75,37.231637341,137.023491513,679504.7827680437,4122487.433638696
1076,[2021-02-22 15:23:59.607] $GPGGA,62359.2,3713.89823927,N,13701.40949052,E,4,11.0,1.2,93.077,M,36.77,M,2.2,0000*73,37.231637321166666,137.0234915086667,679504.782430633,4122487.431429844
1078,[2021-02-22 15:23:59.701] $GPGGA,62359.3,3713.89824214,N,13701.40949293,E,4,11.0,1.2,93.069,M,36.77,M,2.3,0000*7F,37.231637369000005,137.02349154883333,679504.785880777,4122487.4368134327
1080,[2021-02-22 15:23:59.810] $GPGGA,62359.4,3713.898247,N,13701.40949473,E,4,11.0,1.2,93.073,M,36.77,M,2.4,0000*7C,37.23163745,137.02349157883336,679504.7883502659,4122487.4458577894
1082,[2021-02-22 15:23:59.904] $GPGGA,62359.5,3713.89824377,N,13701.40949243,E,4,11.0,1.2,93.071,M,36.77,M,2.5,0000*7F,37.23163739616667,137.0234915405,679504.785077004,4122487.43981194
1084,[2021-02-22 15:23:59.998] $GPGGA,62359.6,3713.89824528,N,13701.40949085,E,4,10.0,1.3,93.081,M,36.77,M,2.6,0000*74,37.23163742133333,137.02349151416666,679504.7826810072,4122487.4425543966
1086,[2021-02-22 15:24:00.091] $GPGGA,62359.7,3713.89824135,N,13701.40949373,E,4,10.0,1.3,93.068,M,36.77,M,2.7,0000*71,37.23163735583333,137.02349156216667,679504.7870949444,4122487.4353777943
1088,[2021-02-22 15:24:00.201] $GPGGA,62359.8,3713.8982383,N,13701.40949285,E,4,10.0,1.3,93.079,M,36.77,M,2.8,0000*72,37.231637305,137.0234915475,679504.7859142821,4122487.4297097
1090,[2021-02-22 15:24:00.295] $GPGGA,62359.9,3713.89823878,N,13701.409491,E,4,10.0,1.3,93.082,M,36.77,M,2.9,0000*74,37.231637313,137.0234915166667,679504.7831597654,4122487.430538873
1092,[2021-02-22 15:24:00.404] $GPGGA,62400.0,3713.89824033,N,13701.40949084,E,4,10.0,1.3,93.069,M,36.77,M,3.0,0000*76,37.23163733883333,137.02349151400003,679504.7828619048,4122487.433400186
1094,[2021-02-22 15:24:00.498] $GPGGA,62400.1,3713.89824422,N,13701.40948834,E,4,10.0,1.3,93.069,M,36.77,M,3.1,0000*70,37.23163740366666,137.02349147233332,679504.7790114395,4122487.4405148285
1096,[2021-02-22 15:24:00.607] $GPGGA,62400.2,3713.89824012,N,13701.40948857,E,4,10.0,1.3,93.075,M,36.77,M,2.2,0000*7E,37.23163733533334,137.02349147616664,679504.7795136116,4122487.4329400863
1098,[2021-02-22 15:24:00.701] $GPGGA,62400.3,3713.89823669,N,13701.4094868,E,4,10.0,1.3,93.080,M,36.77,M,2.3,0000*7D,37.23163727816667,137.02349144666667,679504.7770319581,4122487.426541136
1100,[2021-02-22 15:24:00.810] $GPGGA,62400.4,3713.89823695,N,13701.40948726,E,4,10.0,1.3,93.077,M,36.77,M,2.4,0000*7B,37.231637282499996,137.02349145433334,679504.7777018691,4122487.427036487
1102,[2021-02-22 15:24:00.888] $GPGGA,62400.5,3713.89824388,N,13701.40948645,E,4,10.0,1.3,93.073,M,36.77,M,2.5,0000*75,37.231637398,137.02349144083334,679504.7762301893,4122487.4398263367
1104,[2021-02-22 15:24:00.998] $GPGGA,62400.6,3713.8982413,N,13701.40948428,E,4,10.0,1.3,93.073,M,36.77,M,2.6,0000*7D,37.231637355000004,137.0234914046667,679504.7731234619,4122487.434986623
1106,[2021-02-22 15:24:01.091] $GPGGA,62400.7,3713.89824205,N,13701.40947875,E,4,10.0,1.3,93.081,M,36.77,M,2.7,0000*7E,37.2316373675,137.0234913125,679504.7649167478,4122487.4361987757
1108,[2021-02-22 15:24:01.201] $GPGGA,62400.8,3713.89824499,N,13701.40947566,E,4,10.0,1.3,93.072,M,36.77,M,2.8,0000*7E,37.2316374165,137.023491261,679504.7602314248,4122487.4415379623
1110,[2021-02-22 15:24:01.295] $GPGGA,62400.9,3713.89824523,N,13701.40947374,E,4,10.0,1.3,93.075,M,36.77,M,2.9,0000*7C,37.2316374205,137.023491229,679504.7573828853,4122487.4419210977
1112,[2021-02-22 15:24:01.404] $GPGGA,62401.0,3713.89824522,N,13701.40947353,E,4,10.0,1.3,93.075,M,36.77,M,3.0,0000*78,37.23163742033333,137.0234912255,679504.7570727607,4122487.441895967
1114,[2021-02-22 15:24:01.498] $GPGGA,62401.1,3713.89825176,N,13701.40947028,E,4,10.0,1.3,93.070,M,36.77,M,3.1,0000*76,37.231637529333334,137.0234911713333,679504.7520085305,4122487.4538874724
1116,[2021-02-22 15:24:01.607] $GPGGA,62401.2,3713.89825234,N,13701.40947287,E,4,10.0,1.3,93.073,M,36.77,M,2.2,0000*76,37.231637539000005,137.0234912145,679504.7558153702,4122487.4550419194
1118,[2021-02-22 15:24:01.701] $GPGGA,62401.3,3713.89824956,N,13701.40947768,E,4,10.0,1.3,93.068,M,36.77,M,2.3,0000*76,37.231637492666664,137.02349129466666,679504.7630376839,4122487.450052984
1120,[2021-02-22 15:24:01.810] $GPGGA,62401.4,3713.89824241,N,13701.40948029,E,4,10.0,1.3,93.067,M,36.77,M,2.4,0000*79,37.2316373735,137.02349133816665,679504.7671796733,4122487.4369131927
1122,[2021-02-22 15:24:01.904] $GPGGA,62401.5,3713.89823887,N,13701.40948874,E,4,10.0,1.3,93.076,M,36.77,M,2.5,0000*7E,37.2316373145,137.023491479,679504.7798144034,4122487.43063387
1124,[2021-02-22 15:24:02.013] $GPGGA,62401.6,3713.8982349,N,13701.40949723,E,4,10.0,1.3,93.070,M,36.77,M,2.6,0000*7E,37.23163724833333,137.0234916205,679504.7925252815,4122487.423560625
1126,[2021-02-22 15:24:02.091] $GPGGA,62401.7,3713.89823151,N,13701.40949944,E,4,10.0,1.3,93.070,M,36.77,M,2.7,0000*79,37.231637191833336,137.02349165733335,679504.7959271623,4122487.4173614536
1128,[2021-02-22 15:24:02.201] $GPGGA,62401.8,3713.89822905,N,13701.40950873,E,4,10.0,1.3,93.070,M,36.77,M,2.8,0000*7C,37.23163715083333,137.02349181216667,679504.8097612803,4122487.4131058953
1130,[2021-02-22 15:24:02.294] $GPGGA,62401.9,3713.8982236,N,13701.40951187,E,4,10.0,1.3,93.060,M,36.77,M,2.9,0000*77,37.231637060000004,137.0234918645,679504.8146197612,4122487.403126619
1132,[2021-02-22 15:24:02.419] $GPGGA,62402.0,3713.89822445,N,13701.4095116,E,4,10.0,1.3,93.062,M,36.77,M,3.0,0000*7E,37.23163707416666,137.02349186000004,679504.814186922,4122487.4046899634
1134,[2021-02-22 15:24:02.498] $GPGGA,62402.1,3713.89822128,N,13701.40950567,E,4,10.0,1.3,93.066,M,36.77,M,3.1,0000*76,37.231637021333334,137.02349176116667,679504.8055437021,4122487.398640329
1136,[2021-02-22 15:24:02.607] $GPGGA,62402.2,3713.89822005,N,13701.40950667,E,4,9.0,1.3,93.056,M,36.77,M,2.2,0000*71,37.23163700083334,137.0234917778333,679504.807070997,4122487.3963973355
1138,[2021-02-22 15:24:02.701] $GPGGA,62402.3,3713.8982292,N,13701.40950179,E,4,9.0,1.3,93.063,M,36.77,M,2.3,0000*71,37.23163715333334,137.02349169649997,679504.7994933585,4122487.4131639167
1140,[2021-02-22 15:24:02.810] $GPGGA,62402.4,3713.89823173,N,13701.40950164,E,4,9.0,1.3,93.063,M,36.77,M,2.4,0000*72,37.2316371955,137.023491694,679504.799171543,4122487.417837832
1142,[2021-02-22 15:24:02.904] $GPGGA,62402.5,3713.89823144,N,13701.40951155,E,4,9.0,1.3,93.059,M,36.77,M,2.5,0000*7C,37.231637190666675,137.02349185916665,679504.8138366578,4122487.417614794
1144,[2021-02-22 15:24:02.998] $GPGGA,62402.6,3713.89823473,N,13701.4095053,E,4,9.0,1.3,93.070,M,36.77,M,2.6,0000*70,37.2316372455,137.023491755,679504.8044648928,4122487.423501338
1146,[2021-02-22 15:24:03.091] $GPGGA,62402.7,3713.89823817,N,13701.40950221,E,4,9.0,1.3,93.065,M,36.77,M,2.7,0000*7D,37.23163730283333,137.02349170349996,679504.7997597995,4122487.4297651583
1148,[2021-02-22 15:24:03.201] $GPGGA,62402.8,3713.89824298,N,13701.40950757,E,4,9.0,1.3,93.069,M,36.77,M,2.8,0000*7F,37.23163738299999,137.02349179283334,679504.8074953449,4122487.4388295817
1150,[2021-02-22 15:24:03.294] $GPGGA,62402.9,3713.89824327,N,13701.40951042,E,4,9.0,1.3,93.067,M,36.77,M,2.9,0000*76,37.23163738783333,137.02349184033335,679504.8116980998,4122487.4394559576
1152,[2021-02-22 15:24:03.404] $GPGGA,62403.0,3713.89824738,N,13701.40951638,E,4,9.0,1.3,93.064,M,36.77,M,3.0,0000*74,37.23163745633333,137.02349193966666,679504.820348514,4122487.4472448556
1154,[2021-02-22 15:24:03.497] $GPGGA,62403.1,3713.89823948,N,13701.40951619,E,4,9.0,1.3,93.065,M,36.77,M,3.1,0000*78,37.23163732466667,137.0234919365,679504.8203798665,4122487.432629605
1156,[2021-02-22 15:24:03.607] $GPGGA,62403.2,3713.89823235,N,13701.40950964,E,4,9.0,1.3,93.076,M,36.77,M,2.2,0000*7E,37.23163720583334,137.02349182733332,679504.8109764183,4122487.419237258
1158,[2021-02-22 15:24:03.701] $GPGGA,62403.3,3713.89823177,N,13701.40950483,E,4,9.0,1.3,93.057,M,36.77,M,2.3,0000*7C,37.231637196166666,137.02349174716664,679504.8038869286,4122487.4180126376
1160,[2021-02-22 15:24:03.810] $GPGGA,62403.4,3713.89823033,N,13701.40950574,E,4,9.0,1.3,93.064,M,36.77,M,2.4,0000*74,37.231637172166664,137.02349176233332,679504.8052894467,4122487.41537845
1162,[2021-02-22 15:24:03.904] $GPGGA,62403.5,3713.89823416,N,13701.40950362,E,4,9.0,1.3,93.064,M,36.77,M,2.5,0000*76,37.231637236,137.023491727,679504.802003255,4122487.4223941495
1164,[2021-02-22 15:24:03.997] $GPGGA,62403.6,3713.8982359,N,13701.40950375,E,4,9.0,1.3,93.062,M,36.77,M,2.6,0000*79,37.231637265,137.02349172916666,679504.8021266977,4122487.425615991
1166,[2021-02-22 15:24:04.091] $GPGGA,62403.7,3713.89823553,N,13701.40950764,E,4,9.0,1.3,93.067,M,36.77,M,2.7,0000*77,37.23163725883334,137.023491794,679504.8078933615,4122487.4250547215
1168,[2021-02-22 15:24:04.201] $GPGGA,62403.8,3713.89823631,N,13701.40951133,E,4,9.0,1.3,93.060,M,36.77,M,2.8,0000*72,37.23163727183333,137.02349185550003,679504.8133188348,4122487.4266137914
1170,[2021-02-22 15:24:04.294] $GPGGA,62403.9,3713.89823462,N,13701.40951456,E,4,9.0,1.3,93.071,M,36.77,M,2.9,0000*70,37.23163724366667,137.02349190933336,679504.8181617573,4122487.423590621
1172,[2021-02-22 15:24:04.404] $GPGGA,62404.0,3713.89823547,N,13701.4095143,E,4,9.0,1.3,93.064,M,36.77,M,3.0,0000*74,37.23163725783334,137.023491905,679504.8177436952,4122487.425154284
1174,[2021-02-22 15:24:04.497] $GPGGA,62404.1,3713.89823498,N,13701.40951848,E,4,9.0,1.3,93.064,M,36.77,M,3.1,0000*74,37.23163724966666,137.02349197466665,679504.8239439195,4122487.424380267
1176,[2021-02-22 15:24:04.607] $GPGGA,62404.2,3713.89823123,N,13701.40951663,E,4,10.0,1.1,93.070,M,36.77,M,2.2,0000*78,37.23163718716667,137.02349194383333,679504.8213566195,4122487.4173870217
1178,[2021-02-22 15:24:04.701] $GPGGA,62404.3,3713.89822713,N,13701.40951832,E,4,10.0,1.1,93.063,M,36.77,M,2.3,0000*74,37.23163711883333,137.023491972,679504.8240176565,4122487.4098584265
1180,[2021-02-22 15:24:04.810] $GPGGA,62404.4,3713.89822357,N,13701.40952529,E,4,10.0,1.1,93.071,M,36.77,M,2.4,0000*77,37.231637059499995,137.02349208816668,679504.8344647423,4122487.4034953373
1182,[2021-02-22 15:24:04.904] $GPGGA,62404.5,3713.89822814,N,13701.40952105,E,4,10.0,1.1,93.068,M,36.77,M,2.5,0000*79,37.23163713566666,137.0234920175,679504.828014507,4122487.411812484
1184,[2021-02-22 15:24:04.997] $GPGGA,62404.6,3713.89822926,N,13701.40952145,E,4,10.0,1.1,93.064,M,36.77,M,2.6,0000*71,37.23163715433333,137.02349202416667,679504.8285617034,4122487.4138963134
1186,[2021-02-22 15:24:05.091] $GPGGA,62404.7,3713.89822921,N,13701.40952482,E,4,10.0,1.1,93.072,M,36.77,M,2.7,0000*7F,37.231637153499996,137.0234920803333,679504.8335468059,4122487.4139103736
1188,[2021-02-22 15:24:05.200] $GPGGA,62404.8,3713.89822525,N,13701.40952517,E,4,10.0,1.1,93.075,M,36.77,M,2.8,0000*7D,37.2316370875,137.0234920861667,679504.8342208897,4122487.406598321
1190,[2021-02-22 15:24:05.294] $GPGGA,62404.9,3713.89822558,N,13701.40952525,E,4,10.0,1.1,93.078,M,36.77,M,2.9,0000*7B,37.231637093,137.0234920875,679504.8343261364,4122487.40721111
1192,[2021-02-22 15:24:05.404] $GPGGA,62405.0,3713.89822479,N,13701.40952048,E,4,10.0,1.1,93.075,M,36.77,M,3.0,0000*7A,37.23163707983333,137.02349200799998,679504.8273040933,4122487.4055994074
1194,[2021-02-22 15:24:05.497] $GPGGA,62405.1,3713.89822143,N,13701.40952315,E,4,10.0,1.1,93.077,M,36.77,M,3.1,0000*7F,37.231637023833336,137.0234920525,679504.8313849774,4122487.3994702534
1196,[2021-02-22 15:24:05.607] $GPGGA,62405.2,3713.89821622,N,13701.40952625,E,4,9.0,1.3,93.093,M,36.77,M,2.2,0000*7B,37.231636937000005,137.02349210416668,679504.8361748258,4122487.3899335363
1198,[2021-02-22 15:24:05.700] $GPGGA,62405.3,3713.89821889,N,13701.40952033,E,4,9.0,1.3,93.061,M,36.77,M,2.3,0000*78,37.2316369815,137.0234920055,679504.8273155319,4122487.394683964
1200,[2021-02-22 15:24:05.810] $GPGGA,62405.4,3713.89821987,N,13701.40951171,E,4,9.0,1.3,93.066,M,36.77,M,2.4,0000*74,37.231636997833334,137.02349186183332,679504.8145306255,4122487.3962237774
1202,[2021-02-22 15:24:05.904] $GPGGA,62405.5,3713.89821785,N,13701.40951013,E,4,9.0,1.3,93.063,M,36.77,M,2.5,0000*78,37.23163696416667,137.0234918355,679504.8122741798,4122487.3924383055
1204,[2021-02-22 15:24:06.013] $GPGGA,62405.6,3713.89822139,N,13701.40950932,E,4,9.0,1.3,93.063,M,36.77,M,2.6,0000*71,37.23163702316667,137.02349182199998,679504.81093651,4122487.3989591226
1206,[2021-02-22 15:24:06.091] $GPGGA,62405.7,3713.89821601,N,13701.40950672,E,4,9.0,1.3,93.072,M,36.77,M,2.7,0000*75,37.2316369335,137.02349177866668,679504.8073046427,4122487.3889278574
1208,[2021-02-22 15:24:06.200] $GPGGA,62405.8,3713.89821844,N,13701.40951057,E,4,9.0,1.3,93.058,M,36.77,M,2.8,0000*72,37.231636974,137.02349184283332,679504.8129014685,4122487.393543283
1210,[2021-02-22 15:24:06.294] $GPGGA,62405.9,3713.89821418,N,13701.40951027,E,4,9.0,1.3,93.060,M,36.77,M,2.9,0000*7B,37.231636903,137.02349183783332,679504.8126262728,4122487.3856559037
1212,[2021-02-22 15:24:06.404] $GPGGA,62406.0,3713.8982117,N,13701.40951512,E,4,9.0,1.3,93.086,M,36.77,M,3.0,0000*79,37.231636861666665,137.02349191866665,679504.8198958744,4122487.381223015
1214,[2021-02-22 15:24:06.497] $GPGGA,62406.1,3713.89821502,N,13701.40951268,E,4,9.0,1.3,93.059,M,36.77,M,3.1,0000*70,37.231636917,137.02349187800002,679504.8161566707,4122487.3872854714
1216,[2021-02-22 15:24:06.607] $GPGGA,62406.2,3713.89822032,N,13701.40950851,E,4,9.0,1.3,93.085,M,36.77,M,2.2,0000*74,37.23163700533333,137.02349180849998,679504.8097810831,4122487.3969548
1218,[2021-02-22 15:24:06.700] $GPGGA,62406.3,3713.89822166,N,13701.40950987,E,4,9.0,1.3,93.074,M,36.77,M,2.3,0000*70,37.231637027666665,137.0234918311667,679504.811739111,4122487.399475811
1220,[2021-02-22 15:24:06.810] $GPGGA,62406.4,3713.89821728,N,13701.40951095,E,4,9.0,1.3,93.079,M,36.77,M,2.4,0000*79,37.23163695466666,137.02349184916667,679504.8135092226,4122487.39141014
1222,[2021-02-22 15:24:06.903] $GPGGA,62406.5,3713.89822251,N,13701.4095122,E,4,9.0,1.3,93.084,M,36.77,M,2.5,0000*7F,37.23163704183334,137.02349187,679504.8151508123,4122487.4011213426
1224,[2021-02-22 15:24:06.997] $GPGGA,62406.6,3713.89821987,N,13701.40951101,E,4,9.0,1.3,93.078,M,36.77,M,2.6,0000*7F,37.231636997833334,137.0234918501667,679504.8134955597,4122487.396201651
1226,[2021-02-22 15:24:07.091] $GPGGA,62406.7,3713.89822206,N,13701.40951122,E,4,9.0,1.3,93.070,M,36.77,M,2.7,0000*77,37.23163703433333,137.02349185366663,679504.813719501,4122487.4002581933
1228,[2021-02-22 15:24:07.200] $GPGGA,62406.8,3713.89822245,N,13701.4095072,E,4,9.0,1.3,93.087,M,36.77,M,2.8,0000*7D,37.23163704083333,137.02349178666668,679504.8077598207,4122487.400852338
1230,[2021-02-22 15:24:07.294] $GPGGA,62406.9,3713.89821326,N,13701.40950654,E,4,9.0,1.3,93.083,M,36.77,M,2.9,0000*7C,37.23163688766667,137.02349177566666,679504.8071471911,4122487.383836671
1232,[2021-02-22 15:24:07.403] $GPGGA,62407.0,3713.8982176,N,13701.40951027,E,4,9.0,1.3,93.077,M,36.77,M,3.0,0000*72,37.231636959999996,137.02349183783332,679504.8124910746,4122487.391980413
1234,[2021-02-22 15:24:07.497] $GPGGA,62407.1,3713.8982162,N,13701.40950458,E,4,9.0,1.3,93.070,M,36.77,M,3.1,0000*7D,37.231636936666675,137.023491743,679504.8041327691,4122487.389211576
1236,[2021-02-22 15:24:07.607] $GPGGA,62407.2,3713.89821895,N,13701.40950059,E,4,9.0,1.3,93.068,M,36.77,M,2.2,0000*70,37.2316369825,137.02349167650002,679504.7981241532,4122487.394170951
1238,[2021-02-22 15:24:07.700] $GPGGA,62407.3,3713.89822337,N,13701.40949851,E,4,9.0,1.3,93.068,M,36.77,M,2.3,0000*78,37.23163705616666,137.02349164183335,679504.7948737825,4122487.402278984
1240,[2021-02-22 15:24:07.810] $GPGGA,62407.4,3713.89821841,N,13701.40950087,E,4,9.0,1.3,93.075,M,36.77,M,2.4,0000*76,37.2316369735,137.02349168116666,679504.7985595261,4122487.3931811946
1242,[2021-02-22 15:24:07.903] $GPGGA,62407.5,3713.89822249,N,13701.4094966,E,4,9.0,1.3,93.070,M,36.77,M,2.5,0000*75,37.231637041499994,137.02349160999998,679504.7920843003,4122487.400591251
1244,[2021-02-22 15:24:07.997] $GPGGA,62407.6,3713.89822122,N,13701.40949785,E,4,9.0,1.3,93.065,M,36.77,M,2.6,0000*75,37.23163702033333,137.02349163083332,679504.7939828481,4122487.398282187
1246,[2021-02-22 15:24:08.091] $GPGGA,62407.7,3713.89822441,N,13701.4094973,E,4,9.0,1.3,93.076,M,36.77,M,2.7,0000*79,37.231637073499996,137.02349162166666,679504.7930434744,4122487.404163978
1248,[2021-02-22 15:24:08.200] $GPGGA,62407.8,3713.89822553,N,13701.40950289,E,4,9.0,1.3,93.082,M,36.77,M,2.8,0000*7F,37.231637092166665,137.0234917148333,679504.8012649794,4122487.4064118597
1250,[2021-02-22 15:24:08.294] $GPGGA,62407.9,3713.89822614,N,13701.40950145,E,4,9.0,1.3,93.076,M,36.77,M,2.9,0000*77,37.23163710233334,137.0234916908333,679504.7991115751,4122487.4074943974
1252,[2021-02-22 15:24:08.403] $GPGGA,62408.0,3713.89822558,N,13701.40949998,E,4,9.0,1.3,93.077,M,36.77,M,3.0,0000*73,37.231637093,137.0234916663333,679504.7969600642,4122487.4064123402
1254,[2021-02-22 15:24:08.497] $GPGGA,62408.1,3713.89822343,N,13701.40949691,E,4,9.0,1.3,93.076,M,36.77,M,3.1,0000*78,37.23163705716667,137.02349161516668,679504.7925055319,4122487.402339367
1256,[2021-02-22 15:24:08.607] $GPGGA,62408.2,3713.89822383,N,13701.40949795,E,4,9.0,1.3,93.057,M,36.77,M,2.2,0000*73,37.23163706383334,137.02349163250003,679504.7940275418,4122487.4031119486
1258,[2021-02-22 15:24:08.700] $GPGGA,62408.3,3713.89822041,N,13701.40950259,E,4,9.0,1.3,93.051,M,36.77,M,2.3,0000*75,37.231637006833324,137.02349170983337,679504.8010237832,4122487.396934105
1260,[2021-02-22 15:24:08.810] $GPGGA,62408.4,3713.89822418,N,13701.40950188,E,4,9.0,1.3,93.064,M,36.77,M,2.4,0000*74,37.23163706966667,137.023491698,679504.7998248879,4122487.403883418
1262,[2021-02-22 15:24:08.903] $GPGGA,62408.5,3713.89822424,N,13701.40950016,E,4,9.0,1.3,93.056,M,36.77,M,2.5,0000*7C,37.23163707066667,137.02349166933334,679504.7972792,4122487.403940006
1264,[2021-02-22 15:24:09.013] $GPGGA,62408.6,3713.89822274,N,13701.40949958,E,4,9.0,1.3,93.056,M,36.77,M,2.6,0000*74,37.231637045666666,137.0234916596667,679504.7964808688,4122487.4011477646
1266,[2021-02-22 15:24:09.091] $GPGGA,62408.7,3713.8982211,N,13701.40949645,E,4,9.0,1.3,93.067,M,36.77,M,2.7,0000*74,37.23163701833333,137.0234916075,679504.7919174512,4122487.398016021
1268,[2021-02-22 15:24:09.200] $GPGGA,62408.8,3713.8982204,N,13701.40949811,E,4,9.0,1.3,93.053,M,36.77,M,2.8,0000*78,37.231637006666666,137.0234916351667,679504.7943997242,4122487.3967740024
1270,[2021-02-22 15:24:09.294] $GPGGA,62408.9,3713.89821534,N,13701.40950018,E,4,9.0,1.3,93.062,M,36.77,M,2.9,0000*76,37.23163692233334,137.02349166966667,679504.7976606041,4122487.3874821197
1272,[2021-02-22 15:24:09.403] $GPGGA,62409.0,3713.89821499,N,13701.40949588,E,4,9.0,1.3,93.059,M,36.77,M,3.0,0000*7C,37.231636916499994,137.023491598,679504.7913161449,4122487.3866989543
1274,[2021-02-22 15:24:09.497] $GPGGA,62409.1,3713.89821634,N,13701.40948828,E,4,9.0,1.3,93.054,M,36.77,M,3.1,0000*72,37.231636939000005,137.02349147133336,679504.780024864,4122487.38895524
1276,[2021-02-22 15:24:09.606] $GPGGA,62409.2,3713.89822222,N,13701.4094887,E,4,10.0,1.3,93.073,M,36.77,M,2.2,0000*73,37.231637037,137.02349147833334,679504.7804134602,4122487.3998422325
1278,[2021-02-22 15:24:09.700] $GPGGA,62409.3,3713.8982234,N,13701.40948844,E,4,10.0,1.3,93.062,M,36.77,M,2.3,0000*71,37.23163705666666,137.02349147400002,679504.7799823595,4122487.402016154
1280,[2021-02-22 15:24:09.810] $GPGGA,62409.4,3713.89822203,N,13701.40948662,E,4,10.0,1.3,93.076,M,36.77,M,2.4,0000*78,37.23163703383334,137.02349144366667,679504.7773453306,4122487.3994251243
1282,[2021-02-22 15:24:09.903] $GPGGA,62409.5,3713.89822261,N,13701.40949214,E,4,10.0,1.3,93.070,M,36.77,M,2.5,0000*7E,37.23163704350001,137.02349153566664,679504.7854846746,4122487.4006721857
1284,[2021-02-22 15:24:09.997] $GPGGA,62409.6,3713.89821857,N,13701.40948843,E,4,10.0,1.3,93.061,M,36.77,M,2.6,0000*7B,37.23163697616667,137.02349147383333,679504.7801585065,4122487.393083857
1286,[2021-02-22 15:24:10.091] $GPGGA,62409.7,3713.89821278,N,13701.40949074,E,4,10.0,1.3,93.078,M,36.77,M,2.7,0000*79,37.23163687966667,137.02349151233332,679504.78380313,4122487.382449592
1288,[2021-02-22 15:24:10.200] $GPGGA,62409.8,3713.89821779,N,13701.40948903,E,4,10.0,1.3,93.064,M,36.77,M,2.8,0000*78,37.23163696316667,137.02349148383337,679504.7810765492,4122487.391660392
1290,[2021-02-22 15:24:10.294] $GPGGA,62409.9,3713.89821682,N,13701.4094852,E,4,10.0,1.3,93.076,M,36.77,M,2.9,0000*73,37.231636947000005,137.02349142,679504.7754515728,4122487.389745534
1292,[2021-02-22 15:24:10.403] $GPGGA,62410.0,3713.89821638,N,13701.40947982,E,4,10.0,1.3,93.059,M,36.77,M,3.0,0000*7D,37.23163693966667,137.02349133033334,679504.7675137061,4122487.3887617956
1294,[2021-02-22 15:24:10.497] $GPGGA,62410.1,3713.89822296,N,13701.40947811,E,4,10.0,1.3,93.060,M,36.77,M,3.1,0000*7F,37.23163704933334,137.02349130183333,679504.764725056,4122487.4008759516
1296,[2021-02-22 15:24:10.606] $GPGGA,62410.2,3713.89822289,N,13701.40947229,E,4,10.0,1.3,93.056,M,36.77,M,2.2,0000*74,37.23163704816666,137.02349120483336,679504.756121948,4122487.400562533
1298,[2021-02-22 15:24:10.700] $GPGGA,62410.3,3713.89821958,N,13701.40947077,E,4,10.0,1.3,93.065,M,36.77,M,2.3,0000*79,37.231636992999995,137.02349117949998,679504.7540052112,4122487.394393399
1300,[2021-02-22 15:24:10.809] $GPGGA,62410.4,3713.89822285,N,13701.40946896,E,4,10.0,1.3,93.059,M,36.77,M,2.4,0000*78,37.231637047499994,137.02349114933332,679504.7511995438,4122487.4003833043
1302,[2021-02-22 15:24:10.903] $GPGGA,62410.5,3713.89822042,N,13701.40946987,E,4,10.0,1.3,93.063,M,36.77,M,2.5,0000*79,37.23163700700001,137.02349116449997,679504.7526411982,4122487.39591834
1304,[2021-02-22 15:24:10.997] $GPGGA,62410.6,3713.89821804,N,13701.40946827,E,4,10.0,1.3,93.064,M,36.77,M,2.6,0000*7C,37.23163696733333,137.02349113783333,679504.7503694092,4122487.3914664965
1306,[2021-02-22 15:24:11.091] $GPGGA,62410.7,3713.89822613,N,13701.40947203,E,4,10.0,1.3,93.071,M,36.77,M,2.7,0000*7E,37.231637102166665,137.0234912005,679504.7556094077,4122487.4065459566
1308,[2021-02-22 15:24:11.200] $GPGGA,62410.8,3713.89822539,N,13701.40946806,E,4,10.0,1.3,93.071,M,36.77,M,2.8,0000*7B,37.23163708983333,137.0234911343333,679504.7497683273,4122487.4050520053
1310,[2021-02-22 15:24:11.294] $GPGGA,62410.9,3713.89823047,N,13701.40947427,E,4,10.0,1.3,93.067,M,36.77,M,2.9,0000*7F,37.2316371745,137.02349123783333,679504.7587500676,4122487.4146426017
1312,[2021-02-22 15:24:11.403] $GPGGA,62411.0,3713.89822761,N,13701.4094744,E,4,10.0,1.3,93.059,M,36.77,M,3.0,0000*71,37.231637126833334,137.02349124,679504.7590553581,4122487.409357793
1314,[2021-02-22 15:24:11.497] $GPGGA,62411.1,3713.89822443,N,13701.40947618,E,4,10.0,1.3,93.054,M,36.77,M,3.1,0000*70,37.23163707383334,137.0234912696667,679504.7618131088,4122487.4035333744
1316,[2021-02-22 15:24:11.606] $GPGGA,62411.2,3713.89822564,N,13701.4094698,E,4,10.0,1.3,93.066,M,36.77,M,2.2,0000*7B,37.231637094,137.02349116333335,679504.7523313395,4122487.4055693247
1318,[2021-02-22 15:24:11.700] $GPGGA,62411.3,3713.89821865,N,13701.40947161,E,4,10.0,1.3,93.067,M,36.77,M,2.3,0000*73,37.2316369775,137.0234911935,679504.7552840621,4122487.392700129
1320,[2021-02-22 15:24:11.809] $GPGGA,62411.4,3713.89821791,N,13701.40947575,E,4,10.0,1.3,93.048,M,36.77,M,2.4,0000*7B,37.231636965166665,137.02349126250002,679504.7614350243,4122487.3914625295
1322,[2021-02-22 15:24:11.903] $GPGGA,62411.5,3713.89821653,N,13701.40946876,E,4,10.0,1.3,93.060,M,36.77,M,2.5,0000*71,37.231636942166666,137.02349114600003,679504.7511536523,4122487.3886895855
1324,[2021-02-22 15:24:12.012] $GPGGA,62411.6,3713.89822114,N,13701.40946952,E,4,10.0,1.3,93.065,M,36.77,M,2.6,0000*74,37.231637019,137.0234911586667,679504.7520952037,4122487.3972387514
1326,[2021-02-22 15:24:12.091] $GPGGA,62411.7,3713.89822128,N,13701.40946685,E,4,10.0,1.3,93.060,M,36.77,M,2.7,0000*7B,37.231637021333334,137.0234911141667,679504.7481416115,4122487.3974132524
1328,[2021-02-22 15:24:12.200] $GPGGA,62411.8,3713.89822013,N,13701.40946571,E,4,10.0,1.3,93.065,M,36.77,M,2.8,0000*7F,37.23163700216667,137.02349109516666,679504.7465013834,4122487.3952505565
1330,[2021-02-22 15:24:12.294] $GPGGA,62411.9,3713.89822213,N,13701.40946847,E,4,10.0,1.3,93.056,M,36.77,M,2.9,0000*75,37.23163703549999,137.02349114116663,679504.7505034563,4122487.39903634
1332,[2021-02-22 15:24:12.419] $GPGGA,62412.0,3713.89822495,N,13701.40946183,E,4,10.0,1.3,93.060,M,36.77,M,3.0,0000*7B,37.23163708250001,137.0234910305,679504.7405735899,4122487.404041402
1334,[2021-02-22 15:24:12.497] $GPGGA,62412.1,3713.89822091,N,13701.40945926,E,4,10.0,1.3,93.062,M,36.77,M,3.1,0000*7D,37.23163701516667,137.02349098766666,679504.7369331068,4122487.396489107
1336,[2021-02-22 15:24:12.606] $GPGGA,62412.2,3713.89822508,N,13701.4094571,E,4,10.0,1.3,93.071,M,36.77,M,2.2,0000*70,37.231637084666666,137.0234909516667,679504.7335743294,4122487.4041322935
1338,[2021-02-22 15:24:12.700] $GPGGA,62412.3,3713.89821752,N,13701.40946092,E,4,10.0,1.3,93.059,M,36.77,M,2.3,0000*7A,37.23163695866666,137.02349101533335,679504.7395217175,4122487.3902725466
1340,[2021-02-22 15:24:12.809] $GPGGA,62412.4,3713.89822423,N,13701.40946002,E,4,10.0,1.3,93.072,M,36.77,M,2.4,0000*7C,37.23163707049999,137.02349100033334,679504.737925654,4122487.40265271
1342,[2021-02-22 15:24:12.903] $GPGGA,62412.5,3713.89822805,N,13701.40946006,E,4,10.0,1.3,93.063,M,36.77,M,2.5,0000*70,37.23163713416667,137.023491001,679504.7378337904,4122487.4097181936
1344,[2021-02-22 15:24:13.012] $GPGGA,62412.6,3713.8982299,N,13701.40946393,E,4,10.0,1.3,93.069,M,36.77,M,2.6,0000*78,37.231637164999995,137.0234910655,679504.7434831215,4122487.4132616734
1346,[2021-02-22 15:24:13.091] $GPGGA,62412.7,3713.89822711,N,13701.40946558,E,4,10.0,1.3,93.083,M,36.77,M,2.7,0000*7A,37.2316371185,137.023491093,679504.7460332247,4122487.408154361
1348,[2021-02-22 15:24:13.200] $GPGGA,62412.8,3713.89822719,N,13701.40946532,E,4,10.0,1.3,93.066,M,36.77,M,2.8,0000*75,37.23163711983333,137.02349108866667,679504.7456456089,4122487.408294085
1350,[2021-02-22 15:24:13.294] $GPGGA,62412.9,3713.89822595,N,13701.40946938,E,4,10.0,1.3,93.071,M,36.77,M,2.9,0000*73,37.23163709916666,137.0234911563333,679504.7516980381,4122487.406129323
1352,[2021-02-22 15:24:13.403] $GPGGA,62413.0,3713.898222,N,13701.40946924,E,4,10.0,1.3,93.076,M,36.77,M,3.0,0000*72,37.23163703333333,137.023491154,679504.7516471762,4122487.3988202736
1354,[2021-02-22 15:24:13.497] $GPGGA,62413.1,3713.89822789,N,13701.40947328,E,4,10.0,1.3,93.051,M,36.77,M,3.1,0000*74,37.231637131499994,137.02349122133333,679504.7573881745,4122487.4098401857
1356,[2021-02-22 15:24:13.606] $GPGGA,62413.2,3713.89822285,N,13701.40947259,E,4,10.0,1.3,93.085,M,36.77,M,2.2,0000*72,37.231637047499994,137.02349120983334,679504.7565671299,4122487.4004980475
1358,[2021-02-22 15:24:13.700] $GPGGA,62413.3,3713.89822241,N,13701.40947849,E,4,10.0,1.3,93.047,M,36.77,M,2.3,0000*7F,37.23163704016666,137.02349130816668,679504.7653086957,4122487.399870862
1360,[2021-02-22 15:24:13.809] $GPGGA,62413.4,3713.89822151,N,13701.40946954,E,4,10.0,1.3,93.083,M,36.77,M,2.4,0000*79,37.23163702516667,137.02349115899997,679504.7521101473,4122487.397923614
1362,[2021-02-22 15:24:13.903] $GPGGA,62413.5,3713.89822295,N,13701.40946984,E,4,10.0,1.3,93.080,M,36.77,M,2.5,0000*7C,37.23163704916667,137.02349116400003,679504.752496829,4122487.4005960487
1364,[2021-02-22 15:24:13.997] $GPGGA,62413.6,3713.89821812,N,13701.40947043,E,4,10.0,1.3,93.082,M,36.77,M,2.6,0000*7B,37.23163696866666,137.02349117383332,679504.7535601795,4122487.3916827147
1366,[2021-02-22 15:24:14.091] $GPGGA,62413.7,3713.89821565,N,13701.4094749,E,4,10.0,1.3,93.081,M,36.77,M,2.7,0000*7F,37.2316369275,137.02349124833336,679504.7602674953,4122487.3872563085
1368,[2021-02-22 15:24:14.200] $GPGGA,62413.8,3713.89821789,N,13701.40947382,E,4,10.0,1.3,93.076,M,36.77,M,2.8,0000*73,37.231636964833335,137.02349123033335,679504.7585819745,4122487.391364539
1370,[2021-02-22 15:24:14.294] $GPGGA,62413.9,3713.89822115,N,13701.40947485,E,4,10.0,1.3,93.073,M,36.77,M,2.9,0000*76,37.23163701916667,137.02349124749998,679504.7599761334,4122487.3974257223
1372,[2021-02-22 15:24:14.403] $GPGGA,62414.0,3713.89822247,N,13701.40946964,E,4,10.0,1.3,93.067,M,36.77,M,3.0,0000*72,37.23163704116667,137.02349116066668,679504.7522200659,4122487.399702077
1374,[2021-02-22 15:24:14.497] $GPGGA,62414.1,3713.89822143,N,13701.40947477,E,4,10.0,1.3,93.076,M,36.77,M,3.1,0000*7B,37.231637023833336,137.02349124616666,679504.75984677,4122487.39794099
1376,[2021-02-22 15:24:14.606] $GPGGA,62414.2,3713.89822084,N,13701.40946812,E,4,10.0,1.3,93.056,M,36.77,M,2.2,0000*7C,37.23163701399999,137.02349113533333,679504.7500369181,4122487.3966397154
1378,[2021-02-22 15:24:14.700] $GPGGA,62414.3,3713.8982209,N,13701.4094713,E,4,10.0,1.3,93.067,M,36.77,M,2.3,0000*73,37.231637015,137.0234911883333,679504.7547367247,4122487.3968511904
1380,[2021-02-22 15:24:14.809] $GPGGA,62414.4,3713.89821873,N,13701.40947469,E,4,10.0,1.3,93.070,M,36.77,M,2.4,0000*7A,37.231636978833336,137.0234912448333,679504.7598352111,4122487.392945426
1382,[2021-02-22 15:24:14.903] $GPGGA,62414.5,3713.89821591,N,13701.40947166,E,4,10.0,1.3,93.060,M,36.77,M,2.5,0000*70,37.231636931833336,137.02349119433333,679504.7554663122,4122487.3876347053
1384,[2021-02-22 15:24:15.012] $GPGGA,62414.6,3713.8982199,N,13701.40947759,E,4,10.0,1.3,93.055,M,36.77,M,2.6,0000*71,37.23163699833334,137.02349129316664,679504.7640771116,4122487.3952007433
1386,[2021-02-22 15:24:15.090] $GPGGA,62414.7,3713.89822325,N,13701.40947565,E,4,10.0,1.3,93.067,M,36.77,M,2.7,0000*7A,37.23163705416666,137.0234912608333,679504.7610760541,4122487.40133448
1388,[2021-02-22 15:24:15.200] $GPGGA,62414.8,3713.89822149,N,13701.40947267,E,4,10.0,1.3,93.065,M,36.77,M,2.8,0000*75,37.23163702483334,137.02349121116666,679504.7567391851,4122487.397985567
1390,[2021-02-22 15:24:15.294] $GPGGA,62414.9,3713.89822389,N,13701.40947873,E,4,10.0,1.3,93.076,M,36.77,M,2.9,0000*76,37.23163706483333,137.02349131216667,679504.7656050698,4122487.40261537
1392,[2021-02-22 15:24:15.403] $GPGGA,62415.0,3713.89822244,N,13701.40947532,E,4,10.0,1.3,93.059,M,36.77,M,3.0,0000*73,37.23163704066667,137.02349125533334,679504.7606201154,4122487.399826139
1394,[2021-02-22 15:24:15.497] $GPGGA,62415.1,3713.89822531,N,13701.40947739,E,4,10.0,1.3,93.068,M,36.77,M,3.1,0000*7D,37.231637088499994,137.02349128983332,679504.7635675118,4122487.4051989783
1396,[2021-02-22 15:24:15.606] $GPGGA,62415.2,3713.89822391,N,13701.40947718,E,4,10.0,1.3,93.071,M,36.77,M,2.2,0000*7B,37.23163706516667,137.02349128633332,679504.7633123337,4122487.4026033627
1398,[2021-02-22 15:24:15.700] $GPGGA,62415.3,3713.89822838,N,13701.40947618,E,4,10.0,1.3,93.072,M,36.77,M,2.3,0000*71,37.231637139666674,137.0234912696667,679504.7616569587,4122487.410837998
1400,[2021-02-22 15:24:15.809] $GPGGA,62415.4,3713.89822612,N,13701.40947985,E,4,10.0,1.3,93.072,M,36.77,M,2.4,0000*7C,37.231637102,137.02349133083334,679504.767173029,4122487.40677465
1402,[2021-02-22 15:24:15.903] $GPGGA,62415.5,3713.89822909,N,13701.40947579,E,4,10.0,1.3,93.067,M,36.77,M,2.5,0000*72,37.231637151499996,137.02349126316668,679504.7610522078,4122487.412138651
1404,[2021-02-22 15:24:16.012] $GPGGA,62415.6,3713.89823247,N,13701.40947362,E,4,10.0,1.3,93.069,M,36.77,M,2.6,0000*70,37.23163720783334,137.02349122700002,679504.7577098696,4122487.4183205967
1406,[2021-02-22 15:24:16.106] $GPGGA,62415.7,3713.89823148,N,13701.40947531,E,4,10.0,1.3,93.062,M,36.77,M,2.7,0000*77,37.23163719133334,137.02349125516668,679504.7602479631,4122487.4165432397
1408,[2021-02-22 15:24:16.200] $GPGGA,62415.8,3713.89823293,N,13701.409474,E,4,10.0,1.3,93.058,M,36.77,M,2.8,0000*78,37.2316372155,137.02349123333332,679504.7582535779,4122487.4191832743
1410,[2021-02-22 15:24:16.293] $GPGGA,62415.9,3713.89823634,N,13701.40946744,E,4,10.0,1.3,93.066,M,36.77,M,2.9,0000*7E,37.23163727233334,137.02349112400003,679504.7484186846,4122487.425281934
1412,[2021-02-22 15:24:16.403] $GPGGA,62416.0,3713.89823742,N,13701.40946482,E,4,10.0,1.3,93.068,M,36.77,M,3.0,0000*7B,37.23163729033333,137.02349108033334,679504.7445018637,4122487.42719633
1414,[2021-02-22 15:24:16.497] $GPGGA,62416.1,3713.89823875,N,13701.40946384,E,4,10.0,1.3,93.070,M,36.77,M,3.1,0000*78,37.2316373125,137.02349106399998,679504.7430001837,4122487.429624884
1416,[2021-02-22 15:24:16.606] $GPGGA,62416.2,3713.89823337,N,13701.40946968,E,4,10.0,1.3,93.062,M,36.77,M,2.2,0000*7F,37.231637222833335,137.02349116133337,679504.7518483207,4122487.419860401
1418,[2021-02-22 15:24:16.700] $GPGGA,62416.3,3713.89823189,N,13701.40947282,E,4,10.0,1.3,93.069,M,36.77,M,2.3,0000*7D,37.231637198166666,137.0234912136667,679504.7565498609,4122487.4172227327
1420,[2021-02-22 15:24:16.809] $GPGGA,62416.4,3713.89823045,N,13701.40947331,E,4,10.0,1.3,93.075,M,36.77,M,2.4,0000*78,37.231637174166664,137.02349122183332,679504.7573313323,4122487.4145752694
1422,[2021-02-22 15:24:16.903] $GPGGA,62416.5,3713.89822815,N,13701.40947604,E,4,10.0,1.3,93.074,M,36.77,M,2.5,0000*76,37.23163713583333,137.02349126733336,679504.761459037,4122487.410408239
1424,[2021-02-22 15:24:17.012] $GPGGA,62416.6,3713.89822999,N,13701.40948111,E,4,10.0,1.3,93.067,M,36.77,M,2.6,0000*7D,37.2316371665,137.02349135183331,679504.7688831681,4122487.4139711577
1426,[2021-02-22 15:24:17.090] $GPGGA,62416.7,3713.89823055,N,13701.40948025,E,4,10.0,1.3,93.070,M,36.77,M,2.7,0000*75,37.231637175833335,137.02349133750002,679504.7675893735,4122487.4149795673
1428,[2021-02-22 15:24:17.200] $GPGGA,62416.8,3713.89823227,N,13701.4094803,E,4,10.0,1.3,93.065,M,36.77,M,2.8,0000*72,37.231637204500004,137.02349133833334,679504.7675953126,4122487.4181618956
1430,[2021-02-22 15:24:17.293] $GPGGA,62416.9,3713.89823238,N,13701.40947975,E,4,10.0,1.3,93.062,M,36.77,M,2.9,0000*7C,37.23163720633333,137.0234913291667,679504.766777694,4122487.4183479277
1432,[2021-02-22 15:24:17.403] $GPGGA,62417.0,3713.89823457,N,13701.40948072,E,4,10.0,1.3,93.064,M,36.77,M,3.0,0000*74,37.23163724283334,137.02349134533333,679504.7681254297,4122487.422428495
1434,[2021-02-22 15:24:17.496] $GPGGA,62417.1,3713.89823075,N,13701.4094788,E,4,10.0,1.3,93.071,M,36.77,M,3.1,0000*7E,37.23163717916667,137.02349131333332,679504.7654373888,4122487.4153035874
1436,[2021-02-22 15:24:17.606] $GPGGA,62417.2,3713.89823061,N,13701.40947996,E,4,10.0,1.3,93.081,M,36.77,M,2.2,0000*73,37.23163717683334,137.02349133266668,679504.767158185,4122487.4150813576
1438,[2021-02-22 15:24:17.700] $GPGGA,62417.3,3713.89823354,N,13701.40948025,E,4,10.0,1.3,93.069,M,36.77,M,2.3,0000*7E,37.23163722566667,137.02349133750002,679504.767471174,4122487.420508889
1440,[2021-02-22 15:24:17.809] $GPGGA,62417.4,3713.89823383,N,13701.40948311,E,4,10.0,1.3,93.072,M,36.77,M,2.4,0000*7A,37.231637230500006,137.02349138516664,679504.7716887107,4122487.421135581
1442,[2021-02-22 15:24:17.903] $GPGGA,62417.5,3713.89823349,N,13701.40948009,E,4,10.0,1.3,93.078,M,36.77,M,2.5,0000*7C,37.231637224833335,137.02349133483335,679504.767236564,4122487.420411369
1444,[2021-02-22 15:24:18.012] $GPGGA,62417.6,3713.89823416,N,13701.40948216,E,4,10.0,1.3,93.071,M,36.77,M,2.6,0000*74,37.231637236,137.02349136933333,679504.7702709277,4122487.421715811
1446,[2021-02-22 15:24:18.090] $GPGGA,62417.7,3713.89823164,N,13701.40947871,E,4,10.0,1.3,93.078,M,36.77,M,2.7,0000*79,37.23163719400001,137.0234913118333,679504.7652691249,4122487.416946595
1448,[2021-02-22 15:24:18.200] $GPGGA,62417.8,3713.8982323,N,13701.40947888,E,4,10.0,1.3,93.069,M,36.77,M,2.8,0000*7D,37.231637205,137.02349131466664,679504.7654944068,4122487.418172486
1450,[2021-02-22 15:24:18.293] $GPGGA,62417.9,3713.89823303,N,13701.4094785,E,4,10.0,1.3,93.067,M,36.77,M,2.9,0000*77,37.23163721716667,137.02349130833332,679504.7649036536,4122487.4195104446
1452,[2021-02-22 15:24:18.403] $GPGGA,62418.0,3713.89823224,N,13701.40947772,E,4,10.0,1.3,93.075,M,36.77,M,3.0,0000*71,37.23163720400001,137.02349129533334,679504.7637815212,4122487.418024865
1454,[2021-02-22 15:24:18.496] $GPGGA,62418.1,3713.89823242,N,13701.4094751,E,4,10.0,1.3,93.072,M,36.77,M,3.1,0000*70,37.231637207,137.02349125166666,679504.7599002813,4122487.418274917
1456,[2021-02-22 15:24:18.606] $GPGGA,62418.2,3713.89823205,N,13701.40947719,E,4,10.0,1.3,93.075,M,36.77,M,2.2,0000*7E,37.23163720083333,137.02349128650002,679504.7630053371,4122487.4176567504
1458,[2021-02-22 15:24:18.700] $GPGGA,62418.3,3713.89823413,N,13701.40947647,E,4,10.0,1.3,93.070,M,36.77,M,2.3,0000*70,37.2316372355,137.02349127449997,679504.7618584617,4122487.4214804755
1460,[2021-02-22 15:24:18.809] $GPGGA,62418.4,3713.89823467,N,13701.40947339,E,4,10.0,1.3,93.073,M,36.77,M,2.4,0000*7C,37.23163724449999,137.02349122316667,679504.7572828054,4122487.4223817238
1462,[2021-02-22 15:24:18.903] $GPGGA,62418.5,3713.89823526,N,13701.40947532,E,4,10.0,1.3,93.065,M,36.77,M,2.5,0000*72,37.231637254333336,137.02349125533334,679504.7601133198,4122487.4235338015
1464,[2021-02-22 15:24:19.012] $GPGGA,62418.6,3713.89823538,N,13701.40947484,E,4,10.0,1.3,93.071,M,36.77,M,2.6,0000*74,37.231637256333336,137.02349124733334,679504.759398812,4122487.4237405416
1466,[2021-02-22 15:24:19.090] $GPGGA,62418.7,3713.89823465,N,13701.40947253,E,4,10.0,1.3,93.072,M,36.77,M,2.7,0000*72,37.23163724416667,137.02349120883332,679504.7560119347,4122487.4223175566
1468,[2021-02-22 15:24:19.200] $GPGGA,62418.8,3713.89823542,N,13701.40947458,E,4,10.0,1.3,93.071,M,36.77,M,2.8,0000*78,37.231637257,137.02349124299997,679504.7590127727,4122487.4238062953
1470,[2021-02-22 15:24:19.293] $GPGGA,62418.9,3713.89823298,N,13701.40947702,E,4,10.0,1.3,93.070,M,36.77,M,2.9,0000*75,37.23163721633333,137.0234912836667,679504.7627171976,4122487.419371198
1472,[2021-02-22 15:24:19.403] $GPGGA,62419.0,3713.89823288,N,13701.40947648,E,4,10.0,1.3,93.070,M,36.77,M,3.0,0000*7B,37.23163721466666,137.02349127466667,679504.7619226648,4122487.419169201
1474,[2021-02-22 15:24:19.496] $GPGGA,62419.1,3713.8982309,N,13701.40947926,E,4,10.0,1.3,93.076,M,36.77,M,3.1,0000*71,37.23163718166666,137.02349132100002,679504.7661116506,4122487.4155955184
1476,[2021-02-22 15:24:19.606] $GPGGA,62419.2,3713.89822927,N,13701.40947966,E,4,10.0,1.3,93.066,M,36.77,M,2.2,0000*71,37.2316371545,137.02349132766668,679504.7667675568,4122487.41259385
1478,[2021-02-22 15:24:19.699] $GPGGA,62419.3,3713.89822896,N,13701.40948215,E,4,10.0,1.3,93.068,M,36.77,M,2.3,0000*74,37.23163714933334,137.0234913691667,679504.7704617082,4122487.4120992837
1480,[2021-02-22 15:24:19.809] $GPGGA,62419.4,3713.89823021,N,13701.40948158,E,4,10.0,1.3,93.065,M,36.77,M,2.4,0000*76,37.231637170166664,137.02349135966668,679504.769569449,4122487.4143928546
1482,[2021-02-22 15:24:19.903] $GPGGA,62419.5,3713.89822852,N,13701.40948387,E,4,10.0,1.3,93.073,M,36.77,M,2.5,0000*7C,37.231637142000004,137.02349139783334,679504.773022418,4122487.4113399712
1484,[2021-02-22 15:24:20.012] $GPGGA,62419.6,3713.89823096,N,13701.40947912,E,4,10.0,1.3,93.064,M,36.77,M,2.6,0000*72,37.231637182666674,137.02349131866666,679504.7659022624,4122487.415702051
1486,[2021-02-22 15:24:20.090] $GPGGA,62419.7,3713.89823535,N,13701.40947604,E,4,10.0,1.3,93.065,M,36.77,M,2.7,0000*77,37.23163725583333,137.02349126733336,679504.7611744093,4122487.4237229945
1488,[2021-02-22 15:24:20.199] $GPGGA,62419.8,3713.89823473,N,13701.40947331,E,4,10.0,1.3,93.066,M,36.77,M,2.8,0000*74,37.2316372455,137.02349122183332,679504.7571621368,4122487.4224901535
1490,[2021-02-22 15:24:20.293] $GPGGA,62419.9,3713.89823398,N,13701.40947333,E,4,10.0,1.3,93.069,M,36.77,M,2.9,0000*7B,37.231637233,137.02349122216665,679504.7572213603,4122487.421103832
1492,[2021-02-22 15:24:20.403] $GPGGA,62420.0,3713.89823716,N,13701.40947301,E,4,10.0,1.3,93.065,M,36.77,M,3.0,0000*7F,37.231637286,137.02349121683332,679504.7566224721,4122487.4269744
1494,[2021-02-22 15:24:20.496] $GPGGA,62420.1,3713.89823585,N,13701.40947087,E,4,10.0,1.3,93.060,M,36.77,M,3.1,0000*7F,37.23163726416667,137.02349118116663,679504.7535098982,4122487.424484211
1496,[2021-02-22 15:24:20.606] $GPGGA,62420.2,3713.89823417,N,13701.40947,E,4,10.0,1.3,93.061,M,36.77,M,2.2,0000*7A,37.23163723616667,137.0234911666667,679504.7522898706,4122487.421349935
1498,[2021-02-22 15:24:20.699] $GPGGA,62420.3,3713.89823023,N,13701.40947285,E,4,10.0,1.3,93.073,M,36.77,M,2.3,0000*75,37.2316371705,137.02349121416665,679504.7566598399,4122487.414153891
1500,[2021-02-22 15:24:20.809] $GPGGA,62420.4,3713.89823023,N,13701.4094711,E,4,10.0,1.3,93.066,M,36.77,M,2.4,0000*7E,37.2316371705,137.02349118499998,679504.7540721607,4122487.414098575
1502,[2021-02-22 15:24:20.902] $GPGGA,62420.5,3713.8982318,N,13701.40947464,E,4,10.0,1.3,93.069,M,36.77,M,2.5,0000*7F,37.23163719666666,137.02349124400004,679504.7592446038,4122487.4171138266
1504,[2021-02-22 15:24:21.012] $GPGGA,62420.6,3713.89823025,N,13701.4094801,E,4,10.0,1.3,93.062,M,36.77,M,2.6,0000*72,37.23163717083333,137.023491335,679504.7673794306,4122487.4144200436
1506,[2021-02-22 15:24:21.106] $GPGGA,62420.7,3713.89823266,N,13701.40947579,E,4,10.0,1.3,93.072,M,36.77,M,2.7,0000*73,37.231637211,137.02349126316668,679504.7609110799,4122487.418740551
1508,[2021-02-22 15:24:21.199] $GPGGA,62420.8,3713.89822401,N,13701.40948015,E,4,10.0,1.3,93.064,M,36.77,M,2.8,0000*72,37.23163706683333,137.0234913358333,679504.7677000391,4122487.402882168
1510,[2021-02-22 15:24:21.293] $GPGGA,62420.9,3713.89822752,N,13701.40947871,E,4,10.0,1.3,93.066,M,36.77,M,2.9,0000*70,37.231637125333336,137.0234913118333,679504.7654319953,4122487.409327594
1512,[2021-02-22 15:24:21.403] $GPGGA,62421.0,3713.89822627,N,13701.40947626,E,4,10.0,1.3,93.067,M,36.77,M,3.0,0000*7E,37.23163710450001,137.02349127099998,679504.7618586605,4122487.4069385626
1514,[2021-02-22 15:24:21.496] $GPGGA,62421.1,3713.89822213,N,13701.4094763,E,4,10.0,1.3,93.074,M,36.77,M,3.1,0000*78,37.23163703549999,137.02349127166667,679504.7620814709,4122487.3992838403
1516,[2021-02-22 15:24:21.606] $GPGGA,62421.2,3713.89822448,N,13701.40947425,E,4,10.0,1.3,93.065,M,36.77,M,2.2,0000*77,37.231637074666665,137.0234912375,679504.7589572896,4122487.4035648312
1518,[2021-02-22 15:24:21.699] $GPGGA,62421.3,3713.89822467,N,13701.40947125,E,4,10.0,1.3,93.070,M,36.77,M,2.3,0000*7B,37.23163707783334,137.02349118749999,679504.754513759,4122487.403821366
1520,[2021-02-22 15:24:21.809] $GPGGA,62421.4,3713.89822353,N,13701.40947446,E,4,10.0,1.3,93.067,M,36.77,M,2.4,0000*7D,37.23163705883333,137.02349124100002,679504.7593053691,4122487.4018146605
1522,[2021-02-22 15:24:21.902] $GPGGA,62421.5,3713.89822059,N,13701.40947636,E,4,10.0,1.3,93.059,M,36.77,M,2.5,0000*7C,37.231637009833335,137.0234912726667,679504.7622310715,4122487.39643786
1524,[2021-02-22 15:24:21.996] $GPGGA,62421.6,3713.89822591,N,13701.40946787,E,4,10.0,1.3,93.055,M,36.77,M,2.6,0000*7B,37.231637098499995,137.02349113116665,679504.7494668234,4122487.4060076205
1526,[2021-02-22 15:24:22.090] $GPGGA,62421.7,3713.89821783,N,13701.40947545,E,4,10.0,1.3,93.070,M,36.77,M,2.7,0000*73,37.23163696383333,137.0234912575,679504.7609945841,4122487.391305105
1528,[2021-02-22 15:24:22.199] $GPGGA,62421.8,3713.89821797,N,13701.40946993,E,4,10.0,1.3,93.062,M,36.77,M,2.8,0000*73,37.23163696616667,137.02349116550002,679504.752826775,4122487.39138952
1530,[2021-02-22 15:24:22.293] $GPGGA,62421.9,3713.89821893,N,13701.40946618,E,4,10.0,1.3,93.071,M,36.77,M,2.9,0000*76,37.23163698216667,137.02349110300003,679504.7472438014,4122487.3930462864
1532,[2021-02-22 15:24:22.418] $GPGGA,62422.0,3713.89821849,N,13701.40946521,E,4,10.0,1.3,93.069,M,36.77,M,3.0,0000*73,37.231636974833336,137.02349108683333,679504.7458268786,4122487.392201945
1534,[2021-02-22 15:24:22.496] $GPGGA,62422.1,3713.89821783,N,13701.4094645,E,4,10.0,1.3,93.067,M,36.77,M,3.1,0000*73,37.23163696383333,137.023491075,679504.744803113,4122487.390958983
1536,[2021-02-22 15:24:22.606] $GPGGA,62422.2,3713.89821637,N,13701.40946371,E,4,10.0,1.3,93.072,M,36.77,M,2.2,0000*7C,37.2316369395,137.02349106183337,679504.7436926806,4122487.3882340756
1538,[2021-02-22 15:24:22.699] $GPGGA,62422.3,3713.89821708,N,13701.40946412,E,4,10.0,1.3,93.064,M,36.77,M,2.3,0000*74,37.23163695133333,137.0234910686667,679504.7442708669,4122487.3895600173
1540,[2021-02-22 15:24:22.809] $GPGGA,62422.4,3713.89821831,N,13701.40946442,E,4,10.0,1.3,93.074,M,36.77,M,2.4,0000*75,37.23163697183334,137.02349107366663,679504.7446658411,4122487.3918441054
1542,[2021-02-22 15:24:22.902] $GPGGA,62422.5,3713.89821812,N,13701.40946717,E,4,10.0,1.3,93.079,M,36.77,M,2.5,0000*7A,37.23163696866666,137.02349111950002,679504.7487397067,4122487.391579669
1544,[2021-02-22 15:24:23.012] $GPGGA,62422.6,3713.89821868,N,13701.40946562,E,4,10.0,1.3,93.070,M,36.77,M,2.6,0000*7E,37.231636978,137.02349109366668,679504.7464256259,4122487.3925662665
1546,[2021-02-22 15:24:23.090] $GPGGA,62422.7,3713.89821796,N,13701.40947017,E,4,10.0,1.3,93.071,M,36.77,M,2.7,0000*77,37.231636965999996,137.0234911695,679504.7531820512,4122487.391378612
1548,[2021-02-22 15:24:23.199] $GPGGA,62422.8,3713.89821835,N,13701.40946864,E,4,10.0,1.3,93.077,M,36.77,M,2.8,0000*7A,37.231636972500006,137.023491144,679504.7509042609,4122487.392051467
1550,[2021-02-22 15:24:23.293] $GPGGA,62422.9,3713.89821808,N,13701.40947089,E,4,10.0,1.3,93.071,M,36.77,M,2.9,0000*78,37.231636968,137.0234911815,679504.7542419501,4122487.391623285
1552,[2021-02-22 15:24:23.402] $GPGGA,62423.0,3713.89821904,N,13701.40946959,E,4,10.0,1.3,93.076,M,36.77,M,3.0,0000*77,37.231636984,137.02349115983336,679504.7522817283,4122487.393357494
1554,[2021-02-22 15:24:23.496] $GPGGA,62423.1,3713.89821986,N,13701.40946958,E,4,10.0,1.3,93.074,M,36.77,M,3.1,0000*7E,37.231636997666676,137.02349115966666,679504.7522345216,4122487.3948735804
1556,[2021-02-22 15:24:23.605] $GPGGA,62423.2,3713.89822239,N,13701.40947168,E,4,10.0,1.3,93.070,M,36.77,M,2.2,0000*7D,37.23163703983334,137.02349119466666,679504.7552397196,4122487.3996186177
1558,[2021-02-22 15:24:23.699] $GPGGA,62423.3,3713.89822227,N,13701.4094688,E,4,10.0,1.3,93.066,M,36.77,M,2.3,0000*7B,37.23163703783334,137.02349114666666,679504.7509858857,4122487.3993056696
1560,[2021-02-22 15:24:23.809] $GPGGA,62423.4,3713.89822209,N,13701.40947217,E,4,10.0,1.3,93.077,M,36.77,M,2.4,0000*72,37.23163703483334,137.02349120283333,679504.7559761294,4122487.3990793256
1562,[2021-02-22 15:24:23.902] $GPGGA,62423.5,3713.89822331,N,13701.40947717,E,4,10.0,1.3,93.069,M,36.77,M,2.5,0000*72,37.23163705516667,137.02349128616666,679504.7633212665,4122487.4014934828
1564,[2021-02-22 15:24:24.012] $GPGGA,62423.6,3713.8982219,N,13701.40947934,E,4,10.0,1.3,93.072,M,36.77,M,2.6,0000*7E,37.231637031666665,137.02349132233334,679504.7665857297,4122487.398954602
1566,[2021-02-22 15:24:24.105] $GPGGA,62423.7,3713.89822238,N,13701.40947671,E,4,10.0,1.3,93.071,M,36.77,M,2.7,0000*72,37.231637039666666,137.02349127850002,679504.7626778438,4122487.3997591203
1568,[2021-02-22 15:24:24.199] $GPGGA,62423.8,3713.89822415,N,13701.40946898,E,4,10.0,1.3,93.073,M,36.77,M,2.8,0000*71,37.23163706916666,137.02349114966668,679504.7511777298,4122487.4027879895
1570,[2021-02-22 15:24:24.293] $GPGGA,62423.9,3713.8982238,N,13701.40946328,E,4,10.0,1.3,93.071,M,36.77,M,2.9,0000*78,37.23163706333333,137.0234910546667,679504.7427631299,4122487.4019605713
1572,[2021-02-22 15:24:24.402] $GPGGA,62424.0,3713.89822496,N,13701.40946034,E,4,10.0,1.3,93.070,M,36.77,M,3.0,0000*71,37.231637082666666,137.02349100566667,679504.7383699713,4122487.4040127946
1574,[2021-02-22 15:24:24.496] $GPGGA,62424.1,3713.89822302,N,13701.40945712,E,4,10.0,1.3,93.072,M,36.77,M,3.1,0000*79,37.23163705033333,137.02349095199997,679504.7336853325,4122487.400323425
1576,[2021-02-22 15:24:24.605] $GPGGA,62424.2,3713.89822375,N,13701.40945271,E,4,10.0,1.3,93.071,M,36.77,M,2.2,0000*7B,37.231637062500006,137.0234908785,679504.7271355304,4122487.4015339976
1578,[2021-02-22 15:24:24.699] $GPGGA,62424.3,3713.89822694,N,13701.40945636,E,4,10.0,1.3,93.070,M,36.77,M,2.3,0000*77,37.23163711566666,137.02349093933333,679504.7324065786,4122487.4075485454
1580,[2021-02-22 15:24:24.809] $GPGGA,62424.4,3713.8982273,N,13701.40945727,E,4,10.0,1.3,93.074,M,36.77,M,2.4,0000*7D,37.23163712166667,137.0234909545,679504.7337379418,4122487.408243051
1582,[2021-02-22 15:24:24.902] $GPGGA,62424.5,3713.89823015,N,13701.40946028,E,4,10.0,1.3,93.078,M,36.77,M,2.5,0000*7B,37.23163716916667,137.02349100466665,679504.7380760802,4122487.413608619
1584,[2021-02-22 15:24:25.012] $GPGGA,62424.6,3713.89823289,N,13701.4094607,E,4,10.0,1.3,93.072,M,36.77,M,2.6,0000*7B,37.231637214833334,137.02349101166666,679504.7385888079,4122487.418688899
1586,[2021-02-22 15:24:25.090] $GPGGA,62424.7,3713.89823969,N,13701.40945879,E,4,10.0,1.3,93.074,M,36.77,M,2.7,0000*7A,37.23163732816666,137.02349097983333,679504.7354957273,4122487.431203572
1588,[2021-02-22 15:24:25.199] $GPGGA,62424.8,3713.89824393,N,13701.40945599,E,4,10.0,1.3,93.077,M,36.77,M,2.8,0000*72,37.231637398833335,137.02349093316667,679504.7311878274,4122487.4389559776
1590,[2021-02-22 15:24:25.293] $GPGGA,62424.9,3713.89824398,N,13701.4094586,E,4,10.0,1.3,93.071,M,36.77,M,2.9,0000*74,37.231637399666674,137.02349097666666,679504.735045189,4122487.439130942
1592,[2021-02-22 15:24:25.402] $GPGGA,62425.0,3713.89824243,N,13701.40945706,E,4,10.0,1.3,93.073,M,36.77,M,3.0,0000*7E,37.23163737383334,137.02349095099996,679504.7328293017,4122487.4362158924
1594,[2021-02-22 15:24:25.496] $GPGGA,62425.1,3713.89823997,N,13701.40945776,E,4,10.0,1.3,93.064,M,36.77,M,3.1,0000*7A,37.23163733283333,137.0234909626667,679504.7339616287,4122487.43168881
1596,[2021-02-22 15:24:25.605] $GPGGA,62425.2,3713.89823907,N,13701.4094515,E,4,10.0,1.3,93.071,M,36.77,M,2.2,0000*74,37.23163731783333,137.02349085833336,679504.7247407129,4122487.429826592
1598,[2021-02-22 15:24:25.699] $GPGGA,62425.3,3713.89824044,N,13701.40945319,E,4,10.0,1.3,93.072,M,36.77,M,2.3,0000*71,37.23163734066666,137.02349088649999,679504.7271855073,4122487.4324135114
1600,[2021-02-22 15:24:25.808] $GPGGA,62425.4,3713.89824032,N,13701.4094503,E,4,10.0,1.3,93.069,M,36.77,M,2.4,0000*72,37.23163733866666,137.02349083833332,679504.7229168848,4122487.432100248
1602,[2021-02-22 15:24:25.902] $GPGGA,62425.5,3713.8982424,N,13701.40945177,E,4,10.0,1.3,93.072,M,36.77,M,2.5,0000*7D,37.23163737333333,137.0234908628333,679504.7250083099,4122487.4359932006
1604,[2021-02-22 15:24:26.012] $GPGGA,62425.6,3713.89824451,N,13701.40945293,E,4,10.0,1.3,93.067,M,36.77,M,2.6,0000*76,37.2316374085,137.02349088216667,679504.7266401602,4122487.4399318304
