,Format,Time,Latitude,LatType,Longitude,LonType,Status,Satellite,LevelAccuracy,Altitude(sea),M(sea),Altitude(geoid),M(geoid),DGPS use,checksum,Lat,Lon,UTM_X,UTM_Y
1541,[2021-02-22 16:10:33.075] $GNGGA,71032.5,3713.955915135,N,13701.424807362,E,4,12.0,1.1,96.98299999999999,M,37.566,M,5.5,2006*5B,37.23259858558333,137.02374678936667,679525.1506994261,4122594.573971505
1542,[2021-02-22 16:10:33.184] $GNGGA,71032.6,3713.9559169070003,N,13701.424808511001,E,4,12.0,1.1,96.98100000000001,M,37.566,M,5.6,2006*5E,37.23259861511667,137.02374680851668,679525.1523283389,4122594.57728474
1543,[2021-02-22 16:10:33.309] $GNGGA,71032.7,3713.9559158509996,N,13701.424809583,E,4,12.0,1.1,96.98,M,37.566,M,5.7,2006*54,37.23259859751666,137.02374682638333,679525.1539552066,4122594.5753657976
1544,[2021-02-22 16:10:33.387] $GNGGA,71032.8,3713.9559154790004,N,13701.424809038,E,4,12.0,1.1,96.978,M,37.566,M,5.8,2006*50,37.23259859131668,137.02374681729998,679525.153164048,4122594.5746606407
1545,[2021-02-22 16:10:33.481] $GNGGA,71032.9,3713.955915768,N,13701.424809625,E,4,12.0,1.1,96.975,M,37.566,M,5.9,2006*54,37.23259859613333,137.0237468270833,679525.1540205898,4122594.5752136353
1546,[2021-02-22 16:10:33.574] $GNGGA,71033.0,3713.955914637,N,13701.42480901,E,4,12.0,1.1,96.975,M,37.566,M,6.0,2006*5C,37.23259857728334,137.02374681683335,679525.1531559399,4122594.573102668
1547,[2021-02-22 16:10:33.715] $GNGGA,71033.1,3713.955916075,N,13701.424810321001,E,4,12.0,1.1,96.97200000000001,M,37.566,M,1.1,2006*57,37.23259860125,137.02374683868334,679525.1550375989,4122594.575803365
1548,[2021-02-22 16:10:33.778] $GNGGA,71033.2,3713.95591768,N,13701.424810848,E,4,12.0,1.1,96.975,M,37.566,M,1.2,2006*59,37.232598628,137.0237468474667,679525.155753393,4122594.5787881073
1549,[2021-02-22 16:10:33.887] $GNGGA,71033.3,3713.955918455,N,13701.424810381,E,4,12.0,1.1,96.971,M,37.566,M,1.3,2006*56,37.232598640916656,137.02374683968335,679525.1550322205,4122594.5802065297
1550,[2021-02-22 16:10:33.981] $GNGGA,71033.4,3713.955920163,N,13701.424810493001,E,4,12.0,1.1,96.973,M,37.566,M,1.4,2006*5B,37.232598669383336,137.02374684155,679525.1551302987,4122594.583368628
1551,[2021-02-22 16:10:34.106] $GNGGA,71033.5,3713.9559190170003,N,13701.424809609,E,4,12.0,1.1,96.976,M,37.566,M,1.5,2006*5F,37.23259865028334,137.02374682681668,679525.1538684769,4122594.5812214157
1552,[2021-02-22 16:10:34.184] $GNGGA,71033.6,3713.955919997,N,13701.424808131002,E,4,12.0,1.1,96.975,M,37.566,M,1.6,2006*50,37.23259866661667,137.02374680218338,679525.1516442824,4122594.582986976
1553,[2021-02-22 16:10:34.278] $GNGGA,71033.7,3713.955918912,N,13701.424809845,E,4,12.0,1.1,96.98100000000001,M,37.566,M,1.7,2006*5C,37.23259864853333,137.02374683074999,679525.1542215904,4122594.5810347027
1554,[2021-02-22 16:10:34.387] $GNGGA,71033.8,3713.9559184570003,N,13701.424809291,E,4,12.0,1.1,96.984,M,37.566,M,1.8,2006*56,37.23259864095001,137.02374682151668,679525.153420408,4122594.58017577
1555,[2021-02-22 16:10:34.481] $GNGGA,71033.9,3713.95591919,N,13701.4248085,E,4,12.0,1.1,96.98100000000001,M,37.566,M,1.9,2006*52,37.23259865316666,137.02374680833333,679525.1522218079,4122594.5815062774
1556,[2021-02-22 16:10:34.606] $GNGGA,71034.0,3713.95592024,N,13701.424808033998,E,4,12.0,1.1,96.98200000000001,M,37.566,M,2.0,2006*53,37.23259867066667,137.02374680056667,679525.1514912411,4122594.5834332835
1557,[2021-02-22 16:10:34.684] $GNGGA,71034.1,3713.9559204029997,N,13701.42480593,E,4,12.0,1.1,96.98299999999999,M,37.566,M,2.1,2006*53,37.232598673383336,137.0237467655,679525.1483737082,4122594.583668199
1558,[2021-02-22 16:10:34.778] $GNGGA,71034.2,3713.955921551,N,13701.424805813998,E,4,12.0,1.1,96.98,M,37.566,M,2.2,2006*50,37.23259869251666,137.0237467635666,679525.1481567898,4122594.5857874956
1559,[2021-02-22 16:10:34.887] $GNGGA,71034.3,3713.9559207479997,N,13701.424804732,E,4,12.0,1.1,96.98,M,37.566,M,2.3,2006*51,37.23259867913333,137.02374674553332,679525.1465886384,4122594.584268325
1560,[2021-02-22 16:10:34.981] $GNGGA,71034.4,3713.9559192590004,N,13701.424806797,E,4,12.0,1.1,96.98200000000001,M,37.566,M,2.4,2006*51,37.232598654316675,137.02374677995002,679525.1497009346,4122594.581580043
1561,[2021-02-22 16:10:35.106] $GNGGA,71034.5,3713.95591959,N,13701.424807317,E,4,12.0,1.1,96.98,M,37.566,M,2.5,2006*5C,37.23259865983333,137.02374678861665,679525.1504567447,4122594.582208588
1562,[2021-02-22 16:10:35.184] $GNGGA,71034.6,3713.955918453,N,13701.424807628,E,4,12.0,1.1,96.979,M,37.566,M,2.6,2006*5C,37.23259864088333,137.02374679380003,679525.1509615653,4122594.580115799
1563,[2021-02-22 16:10:35.278] $GNGGA,71034.7,3713.9559192690003,N,13701.424807186,E,4,12.0,1.1,96.98,M,37.566,M,2.7,2006*57,37.23259865448333,137.02374678643335,679525.1502757345,4122594.5816108314
1564,[2021-02-22 16:10:35.387] $GNGGA,71034.8,3713.955919638,N,13701.42480602,E,4,12.0,1.1,96.977,M,37.566,M,2.8,2006*53,37.23259866063333,137.023746767,679525.1485370335,4122594.582256351
1565,[2021-02-22 16:10:35.481] $GNGGA,71034.9,3713.955919927,N,13701.42480537,E,4,12.0,1.1,96.976,M,37.566,M,2.9,2006*56,37.232598665450006,137.02374675616664,679525.1475644802,4122594.5827702424
1566,[2021-02-22 16:10:35.606] $GNGGA,71035.0,3713.955920807,N,13701.424803391,E,4,12.0,1.1,96.97399999999999,M,37.566,M,3.0,2006*54,37.23259868011666,137.02374672318334,679525.1446034313,4122594.5843350366
1567,[2021-02-22 16:10:35.684] $GNGGA,71035.1,3713.955920667,N,13701.424802031,E,4,12.0,1.1,96.97399999999999,M,37.566,M,3.1,2006*54,37.232598677783336,137.02374670051665,679525.1425979965,4122594.584033145
1568,[2021-02-22 16:10:35.777] $GNGGA,71035.2,3713.955920158,N,13701.424802318,E,4,12.0,1.1,96.975,M,37.566,M,3.2,2006*56,37.232598669299996,137.02374670530003,679525.1430424987,4122594.5831009387
1569,[2021-02-22 16:10:35.887] $GNGGA,71035.3,3713.955920945,N,13701.424802758,E,4,12.0,1.1,96.971,M,37.566,M,3.3,2006*56,37.232598682416665,137.02374671263334,679525.1436619868,4122594.5845702253
1570,[2021-02-22 16:10:35.981] $GNGGA,71035.4,3713.955920785,N,13701.424804637,E,4,12.0,1.1,96.973,M,37.566,M,3.4,2006*58,37.23259867975,137.02374674395,679525.1464467059,4122594.5843337444
1571,[2021-02-22 16:10:36.106] $GNGGA,71035.5,3713.955920516,N,13701.42480466,E,4,12.0,1.1,96.979,M,37.566,M,3.5,2006*58,37.232598675266665,137.02374674433335,679525.1464913517,4122594.583837018
1572,[2021-02-22 16:10:36.184] $GNGGA,71035.6,3713.95592257,N,13701.424805753999,E,4,12.0,1.1,96.979,M,37.566,M,3.6,2006*5D,37.232598709499996,137.02374676256665,679525.1480277849,4122594.5876700063
1573,[2021-02-22 16:10:36.277] $GNGGA,71035.7,3713.955920513,N,13701.424808081001,E,4,12.0,1.1,96.978,M,37.566,M,3.7,2006*59,37.232598675216664,137.02374680135,679525.151549944,4122594.583939619
1574,[2021-02-22 16:10:36.387] $GNGGA,71035.8,3713.9559199329997,N,13701.424807941,E,4,12.0,1.1,96.98,M,37.566,M,3.8,2006*50,37.23259866554999,137.0237467990167,679525.1513658667,4122594.5828626156
1575,[2021-02-22 16:10:36.512] $GNGGA,71035.9,3713.9559201909997,N,13701.424807906002,E,4,12.0,1.1,96.98200000000001,M,37.566,M,3.9,2006*5B,37.23259866984999,137.02374679843336,679525.1513039148,4122594.583338621
1576,[2021-02-22 16:10:36.574] $GNGGA,71036.0,3713.9559260140004,N,13701.424811423001,E,4,12.0,1.1,97.00200000000001,M,37.566,M,4.0,2006*58,37.232598766900004,137.02374685705,679525.1562741145,4122594.594218119
1577,[2021-02-22 16:10:36.684] $GNGGA,71036.1,3713.955927003,N,13701.42481238,E,4,12.0,1.1,97.00200000000001,M,37.566,M,4.1,2006*52,37.23259878338333,137.023746873,679525.1576500818,4122594.5960773025
1578,[2021-02-22 16:10:36.777] $GNGGA,71036.2,3713.9559263940005,N,13701.424812048,E,4,12.0,1.1,97.00299999999999,M,37.566,M,4.2,2006*58,37.23259877323335,137.02374686746668,679525.1571832475,4122594.5949406014
1579,[2021-02-22 16:10:36.902] $GNGGA,71036.3,3713.9559260809997,N,13701.424812353,E,4,12.0,1.1,96.99799999999999,M,37.566,M,4.3,2006*5C,37.23259876801666,137.02374687255,679525.1576466108,4122594.594371419
1580,[2021-02-22 16:10:36.981] $GNGGA,71036.4,3713.95592535,N,13701.424812497,E,4,12.0,1.1,97.00200000000001,M,37.566,M,4.4,2006*54,37.23259875583334,137.02374687495,679525.1578884408,4122594.593024155
1581,[2021-02-22 16:10:37.074] $GNGGA,71036.5,3713.955923878,N,13701.424814312,E,4,12.0,1.1,97.00200000000001,M,37.566,M,4.5,2006*5F,37.232598731299994,137.0237469052,679525.1606303978,4122594.590359404
1582,[2021-02-22 16:10:37.184] $GNGGA,71036.6,3713.9559234559997,N,13701.424814086002,E,4,12.0,1.1,97.00399999999999,M,37.566,M,4.6,2006*57,37.23259872426666,137.02374690143336,679525.1603129067,4122594.589571867
1583,[2021-02-22 16:10:37.309] $GNGGA,71036.7,3713.95592061,N,13701.424815446999,E,4,13.0,0.94,97.01,M,37.566,M,4.7,2006*55,37.23259867683333,137.02374692411664,679525.1624378747,4122594.584351864
1584,[2021-02-22 16:10:37.387] $GNGGA,71036.8,3713.9559185340004,N,13701.424816878998,E,4,12.0,1.1,97.01299999999999,M,37.566,M,4.8,2006*56,37.23259864223334,137.02374694798328,679525.1646373864,4122594.5805580495
1585,[2021-02-22 16:10:37.480] $GNGGA,71036.9,3713.955918418,N,13701.424818591999,E,4,12.0,1.1,97.015,M,37.566,M,4.9,2006*59,37.232598640300004,137.02374697653332,679525.1671749108,4122594.5803976874
1586,[2021-02-22 16:10:37.590] $GNGGA,71037.0,3713.955919103,N,13701.424818071999,E,4,12.0,1.1,97.01100000000001,M,37.566,M,5.0,2006*58,37.23259865171666,137.02374696786666,679525.1663789283,4122594.5816479977
1587,[2021-02-22 16:10:37.715] $GNGGA,71037.1,3713.955919951,N,13701.424818451002,E,4,12.0,1.1,97.01,M,37.566,M,5.1,2006*53,37.23259866584999,137.02374697418338,679525.1669058165,4122594.5832281616
1588,[2021-02-22 16:10:37.777] $GNGGA,71037.2,3713.95591991,N,13701.424819382,E,4,12.0,1.1,97.012,M,37.566,M,5.2,2006*5C,37.23259866516666,137.02374698970002,679525.1682840614,4122594.583181775
1589,[2021-02-22 16:10:37.887] $GNGGA,71037.3,3713.955920426,N,13701.424819292,E,4,12.0,1.1,97.009,M,37.566,M,5.3,2006*54,37.23259867376666,137.0237469882,679525.1681305789,4122594.584133154
1590,[2021-02-22 16:10:37.980] $GNGGA,71037.4,3713.955920693,N,13701.424820476,E,4,12.0,1.1,97.009,M,37.566,M,5.4,2006*5E,37.23259867821666,137.02374700793334,679525.169870749,4122594.584664341
1591,[2021-02-22 16:10:38.105] $GNGGA,71037.5,3713.955921917,N,13701.424818901001,E,4,12.0,1.1,97.005,M,37.566,M,5.5,2006*56,37.23259869861667,137.02374698168333,679525.167493476,4122594.5868780576
1592,[2021-02-22 16:10:38.184] $GNGGA,71037.6,3713.955922451,N,13701.424819662,E,4,12.0,1.1,97.008,M,37.566,M,5.6,2006*5C,37.23259870751667,137.02374699436666,679525.1685976172,4122594.5878896276
1593,[2021-02-22 16:10:38.277] $GNGGA,71037.7,3713.955922092,N,13701.424820015,E,4,12.0,1.1,97.009,M,37.566,M,5.7,2006*5A,37.232598701533334,137.02374700025,679525.1691337789,4122594.587236899
1594,[2021-02-22 16:10:38.387] $GNGGA,71037.8,3713.9559219370003,N,13701.42482014,E,4,12.0,1.1,97.008,M,37.566,M,5.8,2006*5F,37.23259869895,137.02374700233332,679525.1693247351,4122594.5869542137
1595,[2021-02-22 16:10:38.512] $GNGGA,71037.9,3713.955921417,N,13701.424820255,E,4,12.0,1.1,97.01,M,37.566,M,5.9,2006*5E,37.23259869028333,137.02374700425,679525.1695153409,4122594.5859962273
1596,[2021-02-22 16:10:38.574] $GNGGA,71038.0,3713.955917489,N,13701.424817341001,E,4,12.0,1.1,96.978,M,37.566,M,6.0,2006*56,37.232598624816674,137.02374695568335,679525.165361848,4122594.5786401653
1597,[2021-02-22 16:10:38.684] $GNGGA,71038.1,3713.955919346,N,13701.424816871999,E,4,12.0,1.1,96.976,M,37.566,M,1.1,2006*5F,37.23259865576667,137.0237469478666,679525.1645949318,4122594.582059436
1598,[2021-02-22 16:10:38.777] $GNGGA,71038.2,3713.955919228,N,13701.424815931001,E,4,12.0,1.1,96.976,M,37.566,M,1.2,2006*53,37.2325986538,137.02374693218334,679525.1632081897,4122594.5818114732
1599,[2021-02-22 16:10:38.887] $GNGGA,71038.3,3713.9559198909997,N,13701.424816323,E,4,12.0,1.1,96.978,M,37.566,M,1.3,2006*5F,37.23259866485,137.02374693871667,679525.1637616073,4122594.5830499334
1600,[2021-02-22 16:10:39.012] $GNGGA,71038.4,3713.955919098,N,13701.424818114,E,4,12.0,1.1,96.979,M,37.566,M,1.4,2006*57,37.23259865163334,137.02374696856668,679525.1664412318,4122594.58164008
1601,[2021-02-22 16:10:39.074] $GNGGA,71038.5,3713.955919998,N,13701.42481651,E,4,12.0,1.1,96.975,M,37.566,M,1.5,2006*5C,37.23259866663333,137.0237469418333,679525.1640338826,4122594.5832537166
1602,[2021-02-22 16:10:39.184] $GNGGA,71038.6,3713.955921622,N,13701.424817325,E,4,12.0,1.1,96.979,M,37.566,M,1.6,2006*54,37.2325986937,137.02374695541667,679525.1651747795,4122594.586282699
1603,[2021-02-22 16:10:39.277] $GNGGA,71038.7,3713.955920614,N,13701.424817465,E,4,12.0,1.1,96.975,M,37.566,M,1.7,2006*5F,37.2325986769,137.02374695774998,679525.1654216424,4122594.584423058
1604,[2021-02-22 16:10:39.387] $GNGGA,71038.8,3713.955920458,N,13701.424818008001,E,4,12.0,1.1,96.977,M,37.566,M,1.8,2006*57,37.23259867430001,137.02374696680002,679525.1662307242,4122594.58415174
1605,[2021-02-22 16:10:39.512] $GNGGA,71038.9,3713.9559208409996,N,13701.424818653999,E,4,12.0,1.1,96.976,M,37.566,M,1.9,2006*5D,37.23259868068333,137.02374697756665,679525.1671707871,4122594.5848804316
1606,[2021-02-22 16:10:39.574] $GNGGA,71039.0,3713.95592062,N,13701.42481826,E,4,12.0,1.1,96.973,M,37.566,M,2.0,2006*50,37.232598677000006,137.023746971,679525.1665969389,4122594.584459289
1607,[2021-02-22 16:10:39.683] $GNGGA,71039.1,3713.955918693,N,13701.424818061001,E,4,12.0,1.1,96.975,M,37.566,M,2.1,2006*56,37.23259864488333,137.02374696768337,679525.1663788763,4122594.5808894495
1608,[2021-02-22 16:10:39.777] $GNGGA,71039.2,3713.9559176529997,N,13701.424818664,E,4,12.0,1.1,96.97399999999999,M,37.566,M,2.2,2006*57,37.23259862755,137.02374697773334,679525.1673116233,4122594.578985269
1609,[2021-02-22 16:10:39.887] $GNGGA,71039.3,3713.955919902,N,13701.424817903,E,4,12.0,1.1,96.971,M,37.566,M,2.3,2006*56,37.23259866503333,137.02374696505,679525.1660974468,4122594.5831202227
1610,[2021-02-22 16:10:40.012] $GNGGA,71039.4,3713.9559196490004,N,13701.424817056,E,4,12.0,1.1,96.969,M,37.566,M,2.4,2006*56,37.23259866081668,137.02374695093332,679525.1648550264,4122594.582625583
1611,[2021-02-22 16:10:40.074] $GNGGA,71039.5,3713.955919101,N,13701.424816592,E,4,12.0,1.1,96.969,M,37.566,M,2.5,2006*51,37.23259865168333,137.02374694320002,679525.1641906024,4122594.581597511
1612,[2021-02-22 16:10:40.183] $GNGGA,71039.6,3713.9559183909996,N,13701.424815946,E,4,13.0,0.94,96.97399999999999,M,37.566,M,2.6,2006*5D,37.23259863984999,137.02374693243334,679525.1632634616,4122594.580264106
1613,[2021-02-22 16:10:40.277] $GNGGA,71039.7,3713.955923464,N,13701.424818282,E,4,13.0,0.94,97.00200000000001,M,37.566,M,2.7,2006*5F,37.232598724400006,137.02374697136665,679525.1665170213,4122594.5897193137
1614,[2021-02-22 16:10:40.387] $GNGGA,71039.8,3713.955922565,N,13701.424817535,E,4,13.0,0.94,96.999,M,37.566,M,2.8,2006*50,37.23259870941667,137.02374695891666,679525.1654480116,4122594.588033203
1615,[2021-02-22 16:10:40.511] $GNGGA,71039.9,3713.955922425,N,13701.424819356002,E,4,13.0,0.94,97.0,M,37.566,M,2.9,2006*50,37.23259870708333,137.02374698926667,679525.1681461786,4122594.5878318725
1616,[2021-02-22 16:10:40.574] $GNGGA,71040.0,3713.9559221490003,N,13701.424819823998,E,4,13.0,0.94,97.00200000000001,M,37.566,M,3.0,2006*5C,37.23259870248334,137.02374699706664,679525.1688490983,4122594.587336269
1617,[2021-02-22 16:10:40.683] $GNGGA,71040.1,3713.955921699,N,13701.424820903001,E,4,13.0,0.94,97.006,M,37.566,M,3.1,2006*5F,37.23259869498334,137.02374701505,679525.1704623587,4122594.586538208
1618,[2021-02-22 16:10:40.777] $GNGGA,71040.2,3713.955920235,N,13701.424821858,E,4,13.0,0.94,97.00299999999999,M,37.566,M,3.2,2006*57,37.232598670583336,137.0237470309667,679525.1719323611,4122594.583861065
1619,[2021-02-22 16:10:40.902] $GNGGA,71040.3,3713.955918055,N,13701.42482216,E,4,13.0,0.94,96.99799999999999,M,37.566,M,3.3,2006*53,37.23259863425,137.02374703599997,679525.1724651007,4122594.5798392
1620,[2021-02-22 16:10:40.980] $GNGGA,71040.4,3713.955918711,N,13701.424822825,E,4,13.0,0.94,96.99799999999999,M,37.566,M,3.4,2006*5C,37.23259864518332,137.02374704708336,679525.1734224745,4122594.5810733438
1621,[2021-02-22 16:10:41.074] $GNGGA,71040.5,3713.955913715,N,13701.424821014,E,4,12.0,1.1,96.97,M,37.566,M,3.5,2006*50,37.23259856191667,137.02374701689996,679525.170942156,4122594.571777129
1622,[2021-02-22 16:10:41.183] $GNGGA,71040.6,3713.9559142929998,N,13701.424822017,E,4,12.0,1.1,96.96700000000001,M,37.566,M,3.6,2006*5A,37.23259857154999,137.02374703361667,679525.1724023959,4122594.572877716
1623,[2021-02-22 16:10:41.308] $GNGGA,71040.7,3713.955914533,N,13701.424823312,E,4,12.0,1.1,96.964,M,37.566,M,3.7,2006*53,37.23259857554999,137.02374705519998,679525.174307763,4122594.5733624813
1624,[2021-02-22 16:10:41.386] $GNGGA,71040.8,3713.9559142790004,N,13701.424823845,E,4,12.0,1.1,96.963,M,37.566,M,3.8,2006*54,37.23259857131668,137.02374706408332,679525.1751059289,4122594.572909618
1625,[2021-02-22 16:10:41.480] $GNGGA,71040.9,3713.955915387,N,13701.424825671002,E,4,12.0,1.1,96.964,M,37.566,M,3.9,2006*5D,37.232598589783336,137.02374709451666,679525.1777621461,4122594.575016338
1626,[2021-02-22 16:10:41.590] $GNGGA,71041.0,3713.955915701,N,13701.42482783,E,4,12.0,1.1,96.962,M,37.566,M,4.0,2006*5E,37.23259859501666,137.02374713049997,679525.1809421428,4122594.575665261
1627,[2021-02-22 16:10:41.715] $GNGGA,71041.1,3713.955915321,N,13701.424829758,E,4,13.0,1.04,96.96700000000001,M,37.566,M,4.1,2006*56,37.23259858868334,137.02374716263333,679525.1838080141,4122594.57502349
1628,[2021-02-22 16:10:41.777] $GNGGA,71041.2,3713.955914586,N,13701.424830683998,E,4,13.0,1.04,96.96700000000001,M,37.566,M,4.2,2006*54,37.23259857643333,137.02374717806666,679525.1852063095,4122594.5736935483
1629,[2021-02-22 16:10:41.886] $GNGGA,71041.3,3713.955914727,N,13701.424832345,E,4,13.0,1.04,96.96700000000001,M,37.566,M,4.3,2006*57,37.23259857878333,137.02374720575,679525.1876567785,4122594.5740068075
1630,[2021-02-22 16:10:41.980] $GNGGA,71041.4,3713.955912973,N,13701.424833107,E,4,13.0,1.04,96.96799999999999,M,37.566,M,4.4,2006*54,37.232598549550005,137.02374721845,679525.1888528647,4122594.5707872747
1631,[2021-02-22 16:10:42.105] $GNGGA,71041.5,3713.955918405,N,13701.424836699,E,4,13.0,1.04,97.0,M,37.566,M,4.5,2006*51,37.23259864008333,137.02374727831665,679525.1939494212,4122594.580946075
1632,[2021-02-22 16:10:42.183] $GNGGA,71041.6,3713.95592037,N,13701.424838878998,E,4,13.0,1.04,97.0,M,37.566,M,4.6,2006*51,37.23259867283334,137.02374731464997,679525.1970951942,4122594.5846488127
1633,[2021-02-22 16:10:42.277] $GNGGA,71041.7,3713.9559194890003,N,13701.424839237,E,4,13.0,1.04,97.001,M,37.566,M,4.7,2006*5A,37.23259865815001,137.02374732061662,679525.1976593831,4122594.5830309223
1634,[2021-02-22 16:10:42.386] $GNGGA,71041.8,3713.955919398,N,13701.424838804,E,4,13.0,1.04,97.00200000000001,M,37.566,M,4.8,2006*55,37.23259865663333,137.02374731339998,679525.1970227272,4122594.5828489494
1635,[2021-02-22 16:10:42.511] $GNGGA,71041.9,3713.955919567,N,13701.424838486999,E,4,12.0,1.1,97.00399999999999,M,37.566,M,4.9,2006*56,37.23259865944999,137.02374730811667,679525.1965473141,4122594.5831514527
1636,[2021-02-22 16:10:42.574] $GNGGA,71042.0,3713.955920362,N,13701.424837901,E,4,12.0,1.1,97.00399999999999,M,37.566,M,5.0,2006*51,37.23259867270001,137.02374729835003,679525.1956493923,4122594.5846031024
1637,[2021-02-22 16:10:42.683] $GNGGA,71042.1,3713.955919862,N,13701.424837058,E,4,12.0,1.1,97.00399999999999,M,37.566,M,5.1,2006*55,37.23259866436666,137.02374728430004,679525.1944226567,4122594.5836518137
1638,[2021-02-22 16:10:42.777] $GNGGA,71042.2,3713.9559214859996,N,13701.4248338,E,4,12.0,1.1,97.005,M,37.566,M,5.2,2006*58,37.232598691433324,137.02374722999997,679525.1895409842,4122594.5865520337
1639,[2021-02-22 16:10:42.902] $GNGGA,71042.3,3713.9559204640004,N,13701.424834529,E,4,12.0,1.1,97.006,M,37.566,M,5.3,2006*57,37.2325986744,137.02374724214997,679525.1906593305,4122594.5846851254
1640,[2021-02-22 16:10:42.980] $GNGGA,71042.4,3713.9559190990003,N,13701.42483513,E,4,12.0,1.1,97.01100000000001,M,37.566,M,5.4,2006*50,37.23259865165001,137.02374725216663,679525.19160197,4122594.582179868
1641,[2021-02-22 16:10:43.074] $GNGGA,71042.5,3713.955919642,N,13701.424835454,E,4,12.0,1.1,97.01299999999999,M,37.566,M,5.5,2006*55,37.232598660700006,137.02374725756667,679525.1920595893,4122594.583194267
1642,[2021-02-22 16:10:43.183] $GNGGA,71042.6,3713.955918217,N,13701.424837532,E,4,12.0,1.1,97.014,M,37.566,M,5.6,2006*54,37.23259863695001,137.0237472922,679525.1951885747,4122594.5806247476
1643,[2021-02-22 16:10:43.277] $GNGGA,71042.7,3713.955918488,N,13701.424837678998,E,4,12.0,1.1,97.016,M,37.566,M,5.7,2006*5A,37.232598641466666,137.02374729464998,679525.1953952195,4122594.581130546
1644,[2021-02-22 16:10:43.402] $GNGGA,71042.8,3713.955918552,N,13701.424838473999,E,4,12.0,1.1,97.016,M,37.566,M,5.8,2006*5C,37.23259864253333,137.02374730789995,679525.1965682182,4122594.5812740326
1645,[2021-02-22 16:10:43.480] $GNGGA,71042.9,3713.955919875,N,13701.424838329,E,4,12.0,1.1,97.01799999999999,M,37.566,M,5.9,2006*54,37.232598664583335,137.02374730548334,679525.1963015102,4122594.5837160363
1646,[2021-02-22 16:10:43.574] $GNGGA,71043.0,3713.9559206979998,N,13701.424835373999,E,4,12.0,1.1,97.02,M,37.566,M,6.0,2006*5F,37.23259867829999,137.02374725623332,679525.1918995448,4122594.585144568
1647,[2021-02-22 16:10:43.683] $GNGGA,71043.1,3713.9559215490003,N,13701.424833038998,E,4,13.0,1.04,97.02,M,37.566,M,6.1,2006*59,37.232598692483336,137.02374721731664,679525.1884132391,4122594.58664448
1648,[2021-02-22 16:10:43.777] $GNGGA,71043.2,3713.955923257,N,13701.424830994,E,4,13.0,1.04,97.02,M,37.566,M,6.2,2006*5E,37.23259872095,137.02374718323333,679525.185321863,4122594.5897383876
1649,[2021-02-22 16:10:43.902] $GNGGA,71043.3,3713.955923651,N,13701.424827511,E,4,13.0,1.04,97.01899999999999,M,37.566,M,6.3,2006*51,37.23259872751666,137.02374712518332,679525.1801561312,4122594.5903568887
1650,[2021-02-22 16:10:43.980] $GNGGA,71043.4,3713.9559226109996,N,13701.424824247,E,4,13.0,1.04,97.01899999999999,M,37.566,M,6.4,2006*53,37.232598710183325,137.02374707078332,679525.1753709218,4122594.5883304593
1651,[2021-02-22 16:10:44.074] $GNGGA,71043.5,3713.955922541,N,13701.42482236,E,4,13.0,1.04,97.01799999999999,M,37.566,M,6.5,2006*56,37.23259870901666,137.02374703933336,679525.1725834721,4122594.5881413547
1652,[2021-02-22 16:10:44.183] $GNGGA,71043.6,3713.9559233940004,N,13701.424823358999,E,4,13.0,1.04,97.02,M,37.566,M,6.6,2006*59,37.232598723233345,137.02374705598334,679525.17402692,4122594.589750368
1653,[2021-02-22 16:10:44.277] $GNGGA,71043.7,3713.9559249709996,N,13701.424827038001,E,4,12.0,1.1,97.01799999999999,M,37.566,M,6.7,2006*50,37.23259874951666,137.02374711730005,679525.1794045436,4122594.5927829747
1654,[2021-02-22 16:10:44.402] $GNGGA,71043.8,3713.9559252259996,N,13701.424830359,E,4,13.0,0.94,97.02,M,37.566,M,6.8,2006*5D,37.232598753766666,137.02374717265,679525.1843050658,4122594.5933595286
1655,[2021-02-22 16:10:44.480] $GNGGA,71043.9,3713.955925851,N,13701.424831131999,E,4,13.0,0.94,97.01299999999999,M,37.566,M,6.9,2006*59,37.23259876418333,137.02374718553332,679525.1854233547,4122594.5945397606
1656,[2021-02-22 16:10:44.574] $GNGGA,71044.0,3713.955927242,N,13701.424829098001,E,4,13.0,0.94,97.01,M,37.566,M,7.0,2006*5E,37.23259878736667,137.02374715163336,679525.1823607788,4122594.597047796
1657,[2021-02-22 16:10:44.683] $GNGGA,71044.1,3713.955926814,N,13701.424825712,E,4,13.0,0.94,97.01100000000001,M,37.566,M,7.1,2006*5E,37.23259878023334,137.02374709519998,679525.1773709737,4122594.596149265
1658,[2021-02-22 16:10:44.777] $GNGGA,71044.2,3713.955924525,N,13701.424821965,E,4,13.0,0.94,97.01100000000001,M,37.566,M,7.2,2006*59,37.23259874208333,137.02374703275,679525.1719209582,4122594.5917978236
1659,[2021-02-22 16:10:44.902] $GNGGA,71044.3,3713.955922523,N,13701.424817615,E,4,13.0,0.94,97.012,M,37.566,M,7.3,2006*57,37.23259870871667,137.02374696025,679525.1655679673,4122594.5879580625
1660,[2021-02-22 16:10:44.980] $GNGGA,71044.4,3713.955921333,N,13701.42481316,E,4,13.0,0.94,97.007,M,37.566,M,7.4,2006*56,37.23259868888333,137.023746886,679525.1590276095,4122594.585616589
1661,[2021-02-22 16:10:45.074] $GNGGA,71044.5,3713.9559177640003,N,13701.4248104,E,4,13.0,0.94,97.008,M,37.566,M,7.5,2006*5A,37.2325986294,137.02374683999997,679525.1550876298,4122594.578929284
1662,[2021-02-22 16:10:45.183] $GNGGA,71044.6,3713.955918235,N,13701.424809066,E,4,13.0,0.94,97.006,M,37.566,M,7.6,2006*56,37.23259863725,137.02374681776666,679525.1530964859,4122594.5797581184
1663,[2021-02-22 16:10:45.308] $GNGGA,71044.7,3713.9559182440003,N,13701.424809926999,E,4,13.0,0.94,97.00200000000001,M,37.566,M,7.7,2006*58,37.2325986374,137.02374683211664,679525.1543692492,4122594.5798019813
1664,[2021-02-22 16:10:45.386] $GNGGA,71044.8,3713.955916001,N,13701.424812453999,E,4,13.0,0.94,97.0,M,37.566,M,7.8,2006*54,37.23259860001667,137.02374687423332,679525.1581944925,4122594.5757339513
1665,[2021-02-22 16:10:45.480] $GNGGA,71044.9,3713.955916896,N,13701.424815609,E,4,13.0,1.04,96.99799999999999,M,37.566,M,7.9,2006*5E,37.23259861493333,137.02374692681664,679525.1628242601,4122594.5774887903
1666,[2021-02-22 16:10:45.589] $GNGGA,71045.0,3713.9559160890003,N,13701.424817813,E,4,13.0,1.04,97.0,M,37.566,M,8.0,2006*58,37.23259860148334,137.02374696355,679525.1661151221,4122594.576066106
1667,[2021-02-22 16:10:45.699] $GNGGA,71045.1,3713.955916664,N,13701.424818336001,E,4,13.0,1.04,96.999,M,37.566,M,3.1,2006*5D,37.23259861106666,137.0237469722667,679525.16686573,4122594.5771459704
1668,[2021-02-22 16:10:45.777] $GNGGA,71045.2,3713.955917598,N,13701.424817916999,E,4,13.0,1.04,97.001,M,37.566,M,3.2,2006*53,37.232598626633326,137.0237469652833,679525.1662092373,4122594.5788599434
1669,[2021-02-22 16:10:45.886] $GNGGA,71045.3,3713.955917685,N,13701.424815248001,E,4,13.0,1.04,97.001,M,37.566,M,3.3,2006*5F,37.23259862808333,137.02374692080002,679525.1622592751,4122594.578936453
1670,[2021-02-22 16:10:45.980] $GNGGA,71045.4,3713.955918013,N,13701.424814223,E,4,13.0,1.04,96.999,M,37.566,M,3.4,2006*5C,37.23259863355,137.02374690371667,679525.160730685,4122594.5795106106
1671,[2021-02-22 16:10:46.105] $GNGGA,71045.5,3713.955918818,N,13701.424812907,E,4,13.0,1.04,97.0,M,37.566,M,3.5,2006*5C,37.23259864696667,137.02374688178335,679525.158752948,4122594.5809576707
1672,[2021-02-22 16:10:46.183] $GNGGA,71045.6,3713.9559190759996,N,13701.424812058,E,4,13.0,1.04,96.995,M,37.566,M,3.6,2006*5A,37.23259865126666,137.02374686763332,679525.1574873668,4122594.5814079437
1673,[2021-02-22 16:10:46.277] $GNGGA,71045.7,3713.955918183,N,13701.424811256002,E,4,13.0,1.04,96.98899999999999,M,37.566,M,3.7,2006*52,37.23259863638334,137.02374685426668,679525.1563367966,4122594.57973119
1674,[2021-02-22 16:10:46.386] $GNGGA,71045.8,3713.9559178970003,N,13701.424809855,E,4,13.0,1.04,96.986,M,37.566,M,3.8,2006*5E,37.232598631616675,137.02374683091665,679525.154276507,4122594.579158008
1675,[2021-02-22 16:10:46.511] $GNGGA,71045.9,3713.955919261,N,13701.424808235,E,4,13.0,1.04,96.98100000000001,M,37.566,M,3.9,2006*59,37.23259865435,137.02374680391668,679525.1518271592,4122594.5816291994
1676,[2021-02-22 16:10:46.574] $GNGGA,71046.0,3713.955919183,N,13701.424807568,E,4,13.0,1.04,96.979,M,37.566,M,4.0,2006*55,37.23259865304999,137.0237467928,679525.1508439821,4122594.581463869
1677,[2021-02-22 16:10:46.683] $GNGGA,71046.1,3713.9559217809997,N,13701.424807193,E,4,13.0,1.04,96.969,M,37.566,M,4.1,2006*5B,37.232598696349996,137.02374678654996,679525.1501867621,4122594.586256424
1678,[2021-02-22 16:10:46.777] $GNGGA,71046.2,3713.955923221,N,13701.424807858999,E,4,13.0,1.04,96.965,M,37.566,M,4.2,2006*55,37.23259872035,137.02374679764998,679525.1511146149,4122594.58894043
1679,[2021-02-22 16:10:46.902] $GNGGA,71046.3,3713.9559255229997,N,13701.424808253001,E,4,13.0,1.04,96.965,M,37.566,M,4.3,2006*59,37.23259875871666,137.02374680421667,679525.1516061903,4122594.5932099093
1680,[2021-02-22 16:10:46.980] $GNGGA,71046.4,3713.9559264070003,N,13701.424807901001,E,4,13.0,1.04,96.96600000000001,M,37.566,M,4.4,2006*5D,37.23259877345,137.02374679835,679525.1510507544,4122594.594833539
1681,[2021-02-22 16:10:47.074] $GNGGA,71046.5,3713.955926198,N,13701.424810212,E,4,13.0,1.04,96.965,M,37.566,M,4.5,2006*52,37.232598769966664,137.02374683686668,679525.1544761882,4122594.5945201
1682,[2021-02-22 16:10:47.183] $GNGGA,71046.6,3713.9559245040004,N,13701.424813782,E,4,13.0,1.04,96.973,M,37.566,M,4.6,2006*59,37.23259874173334,137.02374689636667,679525.1598219598,4122594.591500295
1683,[2021-02-22 16:10:47.308] $GNGGA,71046.7,3713.95592465,N,13701.42481583,E,4,13.0,1.04,96.977,M,37.566,M,4.7,2006*5F,37.232598744166665,137.0237469305,679525.1628444713,4122594.591835032
1684,[2021-02-22 16:10:47.386] $GNGGA,71046.8,3713.955925197,N,13701.424818645,E,4,13.0,1.04,96.985,M,37.566,M,4.8,2006*5E,37.232598753283334,137.02374697741666,679525.1669852566,4122594.5929355775
1685,[2021-02-22 16:10:47.480] $GNGGA,71046.9,3713.9559268109997,N,13701.424817885,E,4,13.0,1.04,96.98700000000001,M,37.566,M,4.9,2006*55,37.23259878018333,137.02374696474996,679525.1657976628,4122594.5958962757
1686,[2021-02-22 16:10:47.589] $GNGGA,71047.0,3713.9559287109996,N,13701.424817332,E,4,13.0,1.04,96.993,M,37.566,M,5.0,2006*56,37.232598811849996,137.02374695553334,679525.1649048482,4122594.5993924085
1687,[2021-02-22 16:10:47.683] $GNGGA,71047.1,3713.9559272829997,N,13701.424816088,E,4,13.0,1.04,96.99,M,37.566,M,5.1,2006*57,37.23259878805,137.0237469348,679525.1631218604,4122594.596712322
1688,[2021-02-22 16:10:47.808] $GNGGA,71047.2,3713.955928279,N,13701.424817056999,E,4,13.0,1.04,96.99600000000001,M,37.566,M,5.2,2006*58,37.23259880465,137.02374695095,679525.1645152987,4122594.598584831
1689,[2021-02-22 16:10:47.886] $GNGGA,71047.3,3713.95592697,N,13701.424816051001,E,4,13.0,1.04,96.994,M,37.566,M,5.3,2006*51,37.232598782833335,137.02374693418338,679525.1630795317,4122594.5961323315
1690,[2021-02-22 16:10:47.980] $GNGGA,71047.4,3713.955924008,N,13701.424815769,E,4,12.0,1.1,96.99600000000001,M,37.566,M,5.4,2006*5C,37.23259873346666,137.0237469294833,679525.1627796551,4122594.59064587
1691,[2021-02-22 16:10:48.089] $GNGGA,71047.5,3713.9559229340002,N,13701.424816764,E,4,13.0,1.04,97.0,M,37.566,M,5.5,2006*51,37.23259871556667,137.02374694606667,679525.1642933819,4122594.5886912094
1692,[2021-02-22 16:10:48.183] $GNGGA,71047.6,3713.955923746,N,13701.424817686,E,4,13.0,1.04,97.0,M,37.566,M,5.6,2006*57,37.2325987291,137.02374696143335,679525.1656245962,4122594.5902219657
1693,[2021-02-22 16:10:48.308] $GNGGA,71047.7,3713.955924397,N,13701.424819261001,E,4,13.0,1.04,97.005,M,37.566,M,5.7,2006*5E,37.23259873995001,137.02374698768335,679525.1679277386,4122594.591475634
1694,[2021-02-22 16:10:48.386] $GNGGA,71047.8,3713.95592489,N,13701.424819492,E,4,12.0,1.1,97.009,M,37.566,M,5.8,2006*50,37.232598748166666,137.02374699153336,679525.168249818,4122594.5923946276
1695,[2021-02-22 16:10:48.480] $GNGGA,71047.9,3713.955921858,N,13701.424817804,E,4,12.0,1.1,97.009,M,37.566,M,5.9,2006*5C,37.23259869763333,137.0237469634,679525.1658737229,4122594.5867342697
1696,[2021-02-22 16:10:48.589] $GNGGA,71048.0,3713.95592025,N,13701.424814777,E,4,13.0,1.04,97.007,M,37.566,M,6.0,2006*51,37.23259867083334,137.02374691294997,679525.1614614114,4122594.5836649477
1697,[2021-02-22 16:10:48.683] $GNGGA,71048.1,3713.955917732,N,13701.424810944,E,4,13.0,1.04,97.007,M,37.566,M,1.1,2006*59,37.23259862886667,137.02374684906664,679525.1558932831,4122594.5788873048
1698,[2021-02-22 16:10:48.808] $GNGGA,71048.2,3713.9559187229997,N,13701.424807506999,E,4,13.0,1.04,97.0,M,37.566,M,1.2,2006*5C,37.232598645383334,137.0237467917833,679525.1507719677,4122594.5806112764
1699,[2021-02-22 16:10:48.886] $GNGGA,71048.3,3713.955921444,N,13701.424804872,E,4,13.0,1.04,97.0,M,37.566,M,1.3,2006*58,37.23259869073333,137.02374674786665,679525.1467681318,4122594.5855598436
1700,[2021-02-22 16:10:48.980] $GNGGA,71048.4,3713.955924423,N,13701.424802356001,E,4,13.0,1.04,96.99600000000001,M,37.566,M,1.4,2006*50,37.23259874038333,137.02374670593335,679525.1429300582,4122594.5909892856
1701,[2021-02-22 16:10:49.089] $GNGGA,71048.5,3713.955927078,N,13701.424799518001,E,4,13.0,1.04,96.995,M,37.566,M,1.5,2006*5B,37.23259878463333,137.02374665863334,679525.1386286637,4122594.595809383
1702,[2021-02-22 16:10:49.183] $GNGGA,71048.6,3713.955926899,N,13701.424797743999,E,4,13.0,1.04,96.992,M,37.566,M,1.6,2006*5F,37.23259878165,137.02374662906666,679525.1360126082,4122594.595422281
1703,[2021-02-22 16:10:49.308] $GNGGA,71048.7,3713.9559293079997,N,13701.424797069,E,4,13.0,1.04,96.99,M,37.566,M,1.7,2006*59,37.232598821799996,137.02374661781667,679525.1349192702,4122594.599855837
1704,[2021-02-22 16:10:49.386] $GNGGA,71048.8,3713.955931825,N,13701.424797112,E,4,13.0,1.04,96.99,M,37.566,M,1.8,2006*59,37.23259886375,137.02374661853332,679525.1348833365,4122594.604511815
1705,[2021-02-22 16:10:49.480] $GNGGA,71048.9,3713.955932914,N,13701.4247991,E,4,13.0,1.04,96.98899999999999,M,37.566,M,1.9,2006*5C,37.232598881899996,137.02374665166664,679525.1377798434,4122594.6065885173
1706,[2021-02-22 16:10:49.589] $GNGGA,71049.0,3713.9559367829997,N,13701.424803075,E,4,12.0,1.19,96.99,M,37.566,M,2.0,2006*50,37.23259894638333,137.02374671791665,679525.1435045253,4122594.613869016
1707,[2021-02-22 16:10:49.698] $GNGGA,71049.1,3713.955936771,N,13701.42480467,E,4,12.0,1.19,96.993,M,37.566,M,2.1,2006*5A,37.23259894618333,137.02374674450002,679525.1458634555,4122594.61389725
1708,[2021-02-22 16:10:49.777] $GNGGA,71049.2,3713.955935823,N,13701.424806781,E,4,11.0,1.26,96.991,M,37.566,M,2.2,2006*51,37.23259893038334,137.02374677968334,679525.1490223755,4122594.612210877
1709,[2021-02-22 16:10:49.886] $GNGGA,71049.3,3713.9559347659997,N,13701.424809606999,E,4,11.0,1.26,96.991,M,37.566,M,2.3,2006*5E,37.23259891276666,137.0237468267833,679525.1532428412,4122594.610345536
1710,[2021-02-22 16:10:49.980] $GNGGA,71049.4,3713.955933536,N,13701.424811886001,E,4,11.0,1.26,96.99,M,37.566,M,2.4,2006*51,37.232598892266665,137.0237468647667,679525.1566613321,4122594.6081429794
1711,[2021-02-22 16:10:50.105] $GNGGA,71049.5,3713.9559305609996,N,13701.424810629,E,4,11.0,1.26,96.999,M,37.566,M,2.5,2006*53,37.23259884268332,137.02374684381664,679525.1549202802,4122594.6026016553
1712,[2021-02-22 16:10:50.183] $GNGGA,71049.6,3713.955929435,N,13701.424810867,E,4,12.0,1.19,96.99799999999999,M,37.566,M,2.6,2006*51,37.23259882391667,137.02374684778331,679525.1553167208,4122594.600526901
1713,[2021-02-22 16:10:50.276] $GNGGA,71049.7,3713.9559273540003,N,13701.424808929,E,4,12.0,1.19,97.00299999999999,M,37.566,M,2.7,2006*57,37.232598789233336,137.02374681548332,679525.1525333675,4122594.5966172987
1714,[2021-02-22 16:10:50.386] $GNGGA,71049.8,3713.955927646,N,13701.424810625,E,4,12.0,1.19,97.007,M,37.566,M,2.8,2006*5F,37.2325987941,137.02374684375,679525.1550296198,4122594.597210902
1715,[2021-02-22 16:10:50.511] $GNGGA,71049.9,3713.955928208,N,13701.424811993,E,4,12.0,1.19,97.00299999999999,M,37.566,M,2.9,2006*59,37.232598803466665,137.02374686654997,679525.1570301964,4122594.5982934413
1716,[2021-02-22 16:10:50.573] $GNGGA,71050.0,3713.9559290079997,N,13701.424813468,E,4,12.0,1.19,97.00299999999999,M,37.566,M,3.0,2006*58,37.23259881679999,137.02374689113333,679525.1591795852,4122594.5998194874
1717,[2021-02-22 16:10:50.683] $GNGGA,71050.1,3713.955930405,N,13701.424814886,E,4,12.0,1.19,96.999,M,37.566,M,3.1,2006*59,37.23259884008333,137.0237469147667,679525.161221085,4122594.602447749
1718,[2021-02-22 16:10:50.776] $GNGGA,71050.2,3713.955928648,N,13701.424814201999,E,4,12.0,1.19,97.0,M,37.566,M,3.2,2006*55,37.2325988108,137.02374690336666,679525.1602791506,4122594.5991769545
1719,[2021-02-22 16:10:50.901] $GNGGA,71050.3,3713.955925373,N,13701.424812686,E,4,12.0,1.19,96.999,M,37.566,M,3.3,2006*53,37.23259875621667,137.02374687809998,679525.1581669945,4122594.593072664
1720,[2021-02-22 16:10:50.980] $GNGGA,71050.4,3713.955922982,N,13701.424810528999,E,4,12.0,1.19,96.99799999999999,M,37.566,M,3.4,2006*55,37.23259871636667,137.02374684215,679525.1550720722,4122594.5885828626
1721,[2021-02-22 16:10:51.073] $GNGGA,71050.5,3713.955922453,N,13701.424807735,E,4,12.0,1.19,97.001,M,37.566,M,3.5,2006*55,37.23259870755,137.02374679558335,679525.1509616282,4122594.5875162687
1722,[2021-02-22 16:10:51.183] $GNGGA,71050.6,3713.9559192290003,N,13701.42480567,E,4,12.0,1.19,97.008,M,37.566,M,3.6,2006*5D,37.232598653816666,137.02374676116668,679525.1480356768,4122594.5814889343
1723,[2021-02-22 16:10:51.308] $GNGGA,71050.7,3713.955919844,N,13701.424804495,E,4,12.0,1.19,97.00399999999999,M,37.566,M,3.7,2006*58,37.23259866406667,137.02374674158332,679525.1462739398,4122594.5825890917
1724,[2021-02-22 16:10:51.386] $GNGGA,71050.8,3713.9559194579997,N,13701.42480428,E,4,12.0,1.19,97.009,M,37.566,M,3.8,2006*56,37.232598657633325,137.023746738,679525.1459712923,4122594.581868473
1725,[2021-02-22 16:10:51.480] $GNGGA,71050.9,3713.955919311,N,13701.424805102,E,4,12.0,1.19,97.01299999999999,M,37.566,M,3.9,2006*5F,37.232598655183324,137.02374675169997,679525.1471925557,4122594.581622617
1726,[2021-02-22 16:10:51.589] $GNGGA,71051.0,3713.955919575,N,13701.42480695,E,4,12.0,1.19,97.016,M,37.566,M,4.0,2006*54,37.232598659583324,137.0237467825,679525.1499146741,4122594.5821692464
1727,[2021-02-22 16:10:51.683] $GNGGA,71051.1,3713.955920924,N,13701.424805728999,E,4,12.0,1.19,97.012,M,37.566,M,4.1,2006*51,37.232598682066666,137.02374676214998,679525.1480558985,4122594.5846253154
1728,[2021-02-22 16:10:51.808] $GNGGA,71051.2,3713.955920883,N,13701.424807041001,E,4,12.0,1.19,97.009,M,37.566,M,4.2,2006*5C,37.23259868138334,137.0237467840167,679525.1499975189,4122594.584590973
1729,[2021-02-22 16:10:51.886] $GNGGA,71051.3,3713.95592185,N,13701.424809298,E,4,12.0,1.19,97.008,M,37.566,M,4.3,2006*5A,37.232598697499995,137.0237468216333,679525.153296603,4122594.5864505707
1730,[2021-02-22 16:10:51.979] $GNGGA,71051.4,3713.955923507,N,13701.424810981001,E,4,12.0,1.19,97.00299999999999,M,37.566,M,4.4,2006*57,37.232598725116674,137.02374684968336,679525.1557196691,4122594.58956802
1731,[2021-02-22 16:10:52.089] $GNGGA,71051.5,3713.95592172,N,13701.424812335,E,4,12.0,1.19,97.00299999999999,M,37.566,M,4.5,2006*55,37.23259869533334,137.02374687225,679525.157792419,4122594.5863061775
1732,[2021-02-22 16:10:52.183] $GNGGA,71051.6,3713.9559196570003,N,13701.424811318,E,4,12.0,1.19,97.005,M,37.566,M,4.6,2006*55,37.23259866095001,137.0237468553,679525.1563701942,4122594.582458979
1733,[2021-02-22 16:10:52.308] $GNGGA,71051.7,3713.955920008,N,13701.424811236,E,4,12.0,1.19,97.005,M,37.566,M,4.7,2006*5E,37.2325986668,137.02374685393335,679525.1562350664,4122594.583105478
1734,[2021-02-22 16:10:52.386] $GNGGA,71051.8,3713.955917075,N,13701.424811177,E,4,12.0,1.19,97.009,M,37.566,M,4.8,2006*5A,37.232598617916665,137.02374685295,679525.15626379,4122594.5776796984
1735,[2021-02-22 16:10:52.479] $GNGGA,71051.9,3713.9559135070003,N,13701.424811753,E,4,12.0,1.19,97.015,M,37.566,M,4.9,2006*53,37.23259855845,137.02374686255,679525.1572565654,4122594.571099706
1736,[2021-02-22 16:10:52.589] $GNGGA,71052.0,3713.955911002,N,13701.424811657,E,4,12.0,1.19,97.01799999999999,M,37.566,M,5.0,2006*5B,37.2325985167,137.02374686095,679525.1572136563,4122594.5664642435
1737,[2021-02-22 16:10:52.683] $GNGGA,71052.1,3713.95590863,N,13701.424811105,E,4,12.0,1.19,97.015,M,37.566,M,5.1,2006*59,37.232598477166675,137.02374685175,679525.1564912201,4122594.5620603217
1738,[2021-02-22 16:10:52.808] $GNGGA,71052.2,3713.955907213,N,13701.424810061999,E,4,12.0,1.19,97.021,M,37.566,M,5.2,2006*55,37.23259845355,137.02374683436665,679525.155005006,4122594.5594069283
1739,[2021-02-22 16:10:52.886] $GNGGA,71052.3,3713.955906376,N,13701.424808499,E,4,12.0,1.19,97.01700000000001,M,37.566,M,5.3,2006*5A,37.2325984396,137.02374680831664,679525.1527269629,4122594.5578096746
1740,[2021-02-22 16:10:52.979] $GNGGA,71052.4,3713.955906198,N,13701.424806652,E,4,12.0,1.19,97.015,M,37.566,M,5.4,2006*51,37.23259843663334,137.02374677753332,679525.1500029251,4122594.5574221145
1741,[2021-02-22 16:10:53.089] $GNGGA,71052.5,3713.955906922,N,13701.424805913999,E,4,12.0,1.19,97.01299999999999,M,37.566,M,5.5,2006*50,37.232598448699996,137.0237467652333,679525.1488830536,4122594.5587376566
1742,[2021-02-22 16:10:53.183] $GNGGA,71052.6,3713.955905232,N,13701.424806897,E,4,12.0,1.19,97.014,M,37.566,M,5.6,2006*57,37.232598420533336,137.02374678161667,679525.15040339,4122594.555643464
1743,[2021-02-22 16:10:53.307] $GNGGA,71052.7,3713.9559045270003,N,13701.424807324,E,4,12.0,1.19,97.016,M,37.566,M,5.7,2006*55,37.23259840878334,137.02374678873332,679525.1510626485,4122594.5543532264
1744,[2021-02-22 16:10:53.386] $GNGGA,71052.8,3713.9559033759997,N,13701.424805226,E,4,12.0,1.19,97.014,M,37.566,M,5.8,2006*53,37.23259838959999,137.02374675376666,679525.1480059396,4122594.552158389
1745,[2021-02-22 16:10:53.479] $GNGGA,71052.9,3713.9559016690005,N,13701.424804273998,E,4,12.0,1.19,97.01700000000001,M,37.566,M,5.9,2006*5F,37.23259836115001,137.02374673789996,679525.1466657487,4122594.5489715864
1746,[2021-02-22 16:10:53.589] $GNGGA,71053.0,3713.955899549,N,13701.424803431999,E,4,12.0,1.19,97.015,M,37.566,M,6.0,2006*5D,37.23259832581667,137.02374672386665,679525.1455045425,4122594.54502451
1747,[2021-02-22 16:10:53.698] $GNGGA,71053.1,3713.955900462,N,13701.424804015,E,4,12.0,1.19,97.021,M,37.566,M,1.1,2006*52,37.23259834103333,137.02374673358332,679525.1463305007,4122594.5467313253
1748,[2021-02-22 16:10:53.776] $GNGGA,71053.2,3713.9559017590004,N,13701.424805338998,E,4,12.0,1.19,97.015,M,37.566,M,1.2,2006*53,37.23259836265,137.02374675565,679525.1482369608,4122594.5491716885
1749,[2021-02-22 16:10:53.886] $GNGGA,71053.3,3713.9559020320003,N,13701.424807532,E,4,12.0,1.19,97.012,M,37.566,M,1.3,2006*52,37.2325983672,137.02374679219997,679525.1514688535,4122594.5497458675
1750,[2021-02-22 16:10:53.979] $GNGGA,71053.4,3713.955906275,N,13701.424807473999,E,4,12.0,1.19,97.01,M,37.566,M,1.4,2006*56,37.23259843791667,137.0237467912333,679525.1512153321,4122594.5575904967
1751,[2021-02-22 16:10:54.104] $GNGGA,71053.5,3713.955907724,N,13701.424810343,E,4,12.0,1.19,97.006,M,37.566,M,1.5,2006*54,37.23259846206667,137.02374683904998,679525.1554003037,4122594.560360791
1752,[2021-02-22 16:10:54.182] $GNGGA,71053.6,3713.9559079240003,N,13701.424811529,E,4,12.0,1.19,96.99600000000001,M,37.566,M,1.6,2006*50,37.2325984654,137.02374685881668,679525.1571460846,4122594.5607681395
1753,[2021-02-22 16:10:54.276] $GNGGA,71053.7,3713.955905678,N,13701.424811361001,E,4,12.0,1.19,97.0,M,37.566,M,1.7,2006*59,37.23259842796667,137.02374685601671,679525.1569864736,4122594.5566093633
1754,[2021-02-22 16:10:54.386] $GNGGA,71053.8,3713.955906955,N,13701.42481436,E,4,12.0,1.19,96.99600000000001,M,37.566,M,1.8,2006*59,37.232598449250006,137.02374690599999,679525.1613704641,4122594.559065694
1755,[2021-02-22 16:10:54.511] $GNGGA,71053.9,3713.955905296,N,13701.424816022,E,4,12.0,1.19,96.995,M,37.566,M,1.9,2006*5A,37.232598421599995,137.0237469337,679525.1638935837,4122594.5560502913
1756,[2021-02-22 16:10:54.573] $GNGGA,71054.0,3713.955905667,N,13701.424817561001,E,4,12.0,1.19,96.99600000000001,M,37.566,M,2.0,2006*54,37.23259842778334,137.02374695935004,679525.1661545647,4122594.5567850266
1757,[2021-02-22 16:10:54.682] $GNGGA,71054.1,3713.9559051829997,N,13701.42481764,E,4,12.0,1.19,96.99600000000001,M,37.566,M,2.1,2006*59,37.232598419716666,137.02374696066667,679525.166290513,4122594.555892475
1758,[2021-02-22 16:10:54.776] $GNGGA,71054.2,3713.955904596,N,13701.4248162,E,4,12.0,1.19,97.00200000000001,M,37.566,M,2.2,2006*5C,37.23259840993333,137.02374693666667,679525.1641844583,4122594.55476143
1759,[2021-02-22 16:10:54.917] $GNGGA,71054.3,3713.9559055259997,N,13701.424815485,E,4,12.0,1.19,97.00399999999999,M,37.566,M,2.3,2006*58,37.23259842543332,137.02374692474996,679525.1630904478,4122594.5564586464
1760,[2021-02-22 16:10:54.979] $GNGGA,71054.4,3713.955906994,N,13701.424815868999,E,4,12.0,1.19,97.006,M,37.566,M,2.4,2006*52,37.232598449899996,137.02374693114996,679525.1636002089,4122594.559185519
1761,[2021-02-22 16:10:55.089] $GNGGA,71054.5,3713.955905773,N,13701.424816661001,E,4,12.0,1.19,97.008,M,37.566,M,2.5,2006*5D,37.232598429549995,137.02374694435,679525.1648195821,4122594.5569525957
1762,[2021-02-22 16:10:55.182] $GNGGA,71054.6,3713.9559035609996,N,13701.424817492,E,4,12.0,1.19,97.01299999999999,M,37.566,M,2.6,2006*5F,37.23259839268333,137.0237469582,679525.1661358025,4122594.5528882765
1763,[2021-02-22 16:10:55.307] $GNGGA,71054.7,3713.955903921,N,13701.424817423998,E,4,12.0,1.19,97.01299999999999,M,37.566,M,2.7,2006*5A,37.23259839868333,137.02374695706663,679525.1660210171,4122594.5535518643
1764,[2021-02-22 16:10:55.385] $GNGGA,71054.8,3713.9559029720003,N,13701.424816303,E,4,12.0,1.19,97.014,M,37.566,M,2.8,2006*59,37.232598382866676,137.02374693838334,679525.1644009703,4122594.551761469
1765,[2021-02-22 16:10:55.479] $GNGGA,71054.9,3713.9559046940003,N,13701.424816317,E,4,12.0,1.19,97.006,M,37.566,M,2.9,2006*5E,37.23259841156667,137.02374693861668,679525.1643535872,4122594.554946357
1766,[2021-02-22 16:10:55.589] $GNGGA,71055.0,3713.9559048779997,N,13701.424817162,E,4,12.0,1.19,97.005,M,37.566,M,3.0,2006*50,37.23259841463334,137.0237469527,679525.1655957762,4122594.555313337
1767,[2021-02-22 16:10:55.714] $GNGGA,71055.1,3713.955904374,N,13701.42481741,E,4,12.0,1.19,97.00299999999999,M,37.566,M,3.1,2006*51,37.232598406233336,137.02374695683335,679525.1659824084,4122594.554389143
1768,[2021-02-22 16:10:55.776] $GNGGA,71055.2,3713.955903607,N,13701.424817603998,E,4,12.0,1.19,96.994,M,37.566,M,3.2,2006*56,37.23259839345,137.02374696006663,679525.1662995897,4122594.5529768844
1769,[2021-02-22 16:10:55.885] $GNGGA,71055.3,3713.9559035859997,N,13701.424817428,E,4,12.0,1.19,96.992,M,37.566,M,3.3,2006*56,37.23259839309999,137.02374695713334,679525.1660401789,4122594.5529324855
1770,[2021-02-22 16:10:55.979] $GNGGA,71055.4,3713.955904253,N,13701.424816143,E,4,12.0,1.19,96.98899999999999,M,37.566,M,3.4,2006*5D,37.232598404216674,137.02374693571667,679525.164113737,4122594.554125328
1771,[2021-02-22 16:10:56.089] $GNGGA,71055.5,3713.9559031440003,N,13701.424815478998,E,4,12.0,1.19,96.994,M,37.566,M,3.5,2006*5C,37.23259838573333,137.02374692464997,679525.1631757545,4122594.552053492
1772,[2021-02-22 16:10:56.214] $GNGGA,71055.6,3713.955902565,N,13701.424814156,E,4,12.0,1.19,96.992,M,37.566,M,3.6,2006*55,37.23259837608334,137.02374690259998,679525.1612423871,4122594.55094094
1773,[2021-02-22 16:10:56.276] $GNGGA,71055.7,3713.955902071,N,13701.424811553,E,4,12.0,1.19,96.992,M,37.566,M,3.7,2006*51,37.232598367849995,137.02374685921666,679525.157412982,4122594.549945108
1774,[2021-02-22 16:10:56.385] $GNGGA,71055.8,3713.955902098,N,13701.424807851,E,4,12.0,1.19,96.988,M,37.566,M,3.8,2006*55,37.2325983683,137.02374679751668,679525.1519379392,4122594.5498780054
1775,[2021-02-22 16:10:56.479] $GNGGA,71055.9,3713.9559008540004,N,13701.424805462,E,4,12.0,1.19,96.98700000000001,M,37.566,M,3.9,2006*5E,37.23259834756667,137.0237467577,679525.1484546175,4122594.547501985
1776,[2021-02-22 16:10:56.589] $GNGGA,71056.0,3713.955899663,N,13701.42480392,E,4,12.0,1.19,96.99,M,37.566,M,4.0,2006*5A,37.232598327716666,137.023746732,679525.1462216214,4122594.5452507543
1777,[2021-02-22 16:10:56.698] $GNGGA,71056.1,3713.95590129,N,13701.424804936001,E,4,12.0,1.19,96.98899999999999,M,37.566,M,4.1,2006*5A,37.232598354833335,137.02374674893338,679525.1476596106,4122594.5482916385
1778,[2021-02-22 16:10:56.776] $GNGGA,71056.2,3713.95590296,N,13701.424806818,E,4,12.0,1.19,96.99,M,37.566,M,4.2,2006*5A,37.232598382666666,137.0237467803,679525.1503764072,4122594.5514394213
1779,[2021-02-22 16:10:56.885] $GNGGA,71056.3,3713.9558993670003,N,13701.424810495,E,4,12.0,1.19,96.99600000000001,M,37.566,M,4.3,2006*5C,37.23259832278333,137.02374684158335,679525.1559554779,4122594.54491123
1780,[2021-02-22 16:10:56.979] $GNGGA,71056.4,3713.9558977959996,N,13701.424812627,E,4,12.0,1.19,96.99700000000001,M,37.566,M,4.4,2006*50,37.23259829659999,137.02374687711665,679525.1591700804,4122594.5420734216
1781,[2021-02-22 16:10:57.088] $GNGGA,71056.5,3713.955900563,N,13701.424816402,E,4,12.0,1.19,96.994,M,37.566,M,4.5,2006*55,37.23259834271666,137.0237469400333,679525.1646425981,4122594.5473097
1782,[2021-02-22 16:10:57.213] $GNGGA,71056.6,3713.9558996490005,N,13701.424819513,E,4,12.0,1.19,96.994,M,37.566,M,4.6,2006*51,37.23259832748334,137.0237469918833,679525.1692788304,4122594.545717817
1783,[2021-02-22 16:10:57.276] $GNGGA,71056.7,3713.955897355,N,13701.424820908998,E,4,12.0,1.19,96.999,M,37.566,M,4.7,2006*57,37.23259828925001,137.02374701514995,679525.1714337294,4122594.5415197196
1784,[2021-02-22 16:10:57.385] $GNGGA,71056.8,3713.955898339,N,13701.424822341001,E,4,12.0,1.19,97.005,M,37.566,M,4.8,2006*5B,37.23259830565001,137.0237470390167,679525.1735122654,4122594.543384674
1785,[2021-02-22 16:10:57.479] $GNGGA,71056.9,3713.9558997940003,N,13701.424821225,E,4,12.0,1.19,96.99799999999999,M,37.566,M,4.9,2006*55,37.2325983299,137.0237470204167,679525.1718045591,4122594.546040083
1786,[2021-02-22 16:10:57.588] $GNGGA,71057.0,3713.9558996640003,N,13701.424822883999,E,4,12.0,1.19,97.0,M,37.566,M,5.0,2006*50,37.23259832773334,137.02374704806664,679525.1742627809,4122594.5458521256
1787,[2021-02-22 16:10:57.713] $GNGGA,71057.1,3713.9558973979997,N,13701.42482362,E,4,12.0,1.19,97.00299999999999,M,37.566,M,5.1,2006*5A,37.23259828996666,137.0237470603333,679525.1754406623,4122594.541684942
1788,[2021-02-22 16:10:57.776] $GNGGA,71057.2,3713.955896765,N,13701.424824706,E,4,12.0,1.19,97.001,M,37.566,M,5.2,2006*5D,37.23259827941667,137.02374707843336,679525.1770715128,4122594.5405486864
1789,[2021-02-22 16:10:57.885] $GNGGA,71057.3,3713.955896712,N,13701.424822664,E,4,12.0,1.19,97.005,M,37.566,M,5.3,2006*5A,37.23259827853334,137.0237470444,679525.1740541959,4122594.540386121
1790,[2021-02-22 16:10:57.979] $GNGGA,71057.4,3713.955897896,N,13701.424823443,E,4,12.0,1.19,97.001,M,37.566,M,5.4,2006*5A,37.23259829826666,137.02374705738333,679525.175159255,4122594.542600284
1791,[2021-02-22 16:10:58.120] $GNGGA,71057.5,3713.9558975970003,N,13701.424823242,E,4,12.0,1.19,96.999,M,37.566,M,5.5,2006*58,37.23259829328334,137.02374705403332,679525.1748738658,4122594.5420409986
1792,[2021-02-22 16:10:58.182] $GNGGA,71057.6,3713.9558953190003,N,13701.424821343999,E,4,12.0,1.19,97.00399999999999,M,37.566,M,5.6,2006*53,37.232598255316674,137.0237470224,679525.1721574457,4122594.5377683532
1793,[2021-02-22 16:10:58.276] $GNGGA,71057.7,3713.955897211,N,13701.424819651002,E,4,12.0,1.19,96.994,M,37.566,M,5.7,2006*53,37.23259828684999,137.02374699418334,679525.1695792794,4122594.5412136544
1794,[2021-02-22 16:10:58.385] $GNGGA,71057.8,3713.955897431,N,13701.424820148,E,4,12.0,1.19,96.992,M,37.566,M,5.8,2006*54,37.23259829051666,137.02374700246668,679525.1703054726,4122594.5416362057
1795,[2021-02-22 16:10:58.510] $GNGGA,71057.9,3713.955898071,N,13701.42481884,E,4,12.0,1.19,96.995,M,37.566,M,5.9,2006*56,37.23259830118333,137.02374698066666,679525.1683460881,4122594.542778389
1796,[2021-02-22 16:10:58.573] $GNGGA,71058.0,3713.955899442,N,13701.424818658,E,4,12.0,1.19,96.991,M,37.566,M,6.0,2006*5C,37.23259832403333,137.02374697763335,679525.1680227693,4122594.545307988
1797,[2021-02-22 16:10:58.682] $GNGGA,71058.1,3713.955900585,N,13701.424815913999,E,4,12.0,1.19,97.0,M,37.566,M,1.1,2006*5A,37.23259834308334,137.02374693189998,679525.1639201466,4122594.547334959
1798,[2021-02-22 16:10:58.776] $GNGGA,71058.2,3713.95590156,N,13701.424811863999,E,4,12.0,1.19,97.008,M,37.566,M,1.2,2006*5A,37.23259835933333,137.02374686439998,679525.1578930474,4122594.549009962
1799,[2021-02-22 16:10:58.916] $GNGGA,71058.3,3713.955901063,N,13701.424809533,E,4,12.0,1.19,97.014,M,37.566,M,1.3,2006*57,37.23259835105,137.02374682555,679525.1544659571,4122594.548017183
1800,[2021-02-22 16:10:58.979] $GNGGA,71058.4,3713.9559006179998,N,13701.424807686,E,4,12.0,1.19,97.015,M,37.566,M,1.4,2006*5E,37.232598343633335,137.02374679476668,679525.1517524759,4122594.547135866
1801,[2021-02-22 16:10:59.088] $GNGGA,71058.5,3713.95589901,N,13701.424806166999,E,4,12.0,1.19,97.01899999999999,M,37.566,M,1.5,2006*54,37.23259831683333,137.02374676944996,679525.1495699727,4122594.544114215
1802,[2021-02-22 16:10:59.182] $GNGGA,71058.6,3713.9558977029997,N,13701.424805683999,E,4,12.0,1.19,97.01700000000001,M,37.566,M,1.6,2006*58,37.232598295049996,137.0237467614,679525.1489074596,4122594.5416819467
1803,[2021-02-22 16:10:59.307] $GNGGA,71058.7,3713.955897824,N,13701.424804809,E,4,12.0,1.19,97.027,M,37.566,M,1.7,2006*5B,37.23259829706667,137.02374674681667,679525.1476088534,4122594.5418780483
1804,[2021-02-22 16:10:59.385] $GNGGA,71058.8,3713.955897535,N,13701.424803566999,E,4,12.0,1.19,97.02799999999999,M,37.566,M,1.8,2006*5B,37.232598292249996,137.02374672611666,679525.1457837918,4122594.5413043434
1805,[2021-02-22 16:10:59.479] $GNGGA,71058.9,3713.955897063,N,13701.424803718,E,4,12.0,1.19,97.02799999999999,M,37.566,M,1.9,2006*57,37.23259828438333,137.02374672863334,679525.1460257318,4122594.5404362604
1806,[2021-02-22 16:10:59.588] $GNGGA,71059.0,3713.9558983109996,N,13701.424802017,E,4,12.0,1.19,97.036,M,37.566,M,2.0,2006*5A,37.23259830518332,137.0237467002833,679525.1434611944,4122594.542690376
1807,[2021-02-22 16:10:59.713] $GNGGA,71059.1,3713.955899812,N,13701.424800117,E,4,12.0,1.19,97.036,M,37.566,M,2.1,2006*50,37.232598330200005,137.02374666861664,679525.1405924046,4122594.54540607
1808,[2021-02-22 16:10:59.776] $GNGGA,71059.2,3713.955901525,N,13701.424799362,E,4,12.0,1.19,97.02799999999999,M,37.566,M,2.2,2006*59,37.23259835875,137.02374665603332,679525.1394082942,4122594.5485500046
1809,[2021-02-22 16:10:59.885] $GNGGA,71059.3,3713.9559018890004,N,13701.424798716002,E,4,12.0,1.19,97.03200000000001,M,37.566,M,2.3,2006*5F,37.232598364816674,137.0237466452667,679525.1384386945,4122594.549202717
1810,[2021-02-22 16:10:59.979] $GNGGA,71059.4,3713.9559011909996,N,13701.42480128,E,4,12.0,1.19,97.035,M,37.566,M,2.4,2006*5D,37.23259835318333,137.02374668800002,679525.1422575607,4122594.5479929815
1811,[2021-02-22 16:11:00.104] $GNGGA,71059.5,3713.955902918,N,13701.424801362,E,4,12.0,1.19,97.029,M,37.566,M,2.5,2006*57,37.23259838196667,137.02374668936667,679525.1423105295,4122594.551189267
1812,[2021-02-22 16:11:00.182] $GNGGA,71059.6,3713.955900985,N,13701.424801621999,E,4,12.0,1.19,97.031,M,37.566,M,2.6,2006*59,37.23259834974999,137.0237466937,679525.142771404,4122594.5476228427
1813,[2021-02-22 16:11:00.276] $GNGGA,71059.7,3713.955900418,N,13701.424802536001,E,4,12.0,1.19,97.025,M,37.566,M,2.7,2006*50,37.2325983403,137.02374670893337,679525.1441453162,4122594.546603201
1814,[2021-02-22 16:11:00.385] $GNGGA,71059.8,3713.955899,N,13701.424801162,E,4,12.0,1.19,97.023,M,37.566,M,2.8,2006*5C,37.23259831666666,137.02374668603332,679525.1421697054,4122594.5439374954
1815,[2021-02-22 16:11:00.479] $GNGGA,71059.9,3713.9559001109997,N,13701.424801671,E,4,12.0,1.19,97.01700000000001,M,37.566,M,2.9,2006*5E,37.232598335183326,137.0237466945167,679525.142878416,4122594.546008129
1816,[2021-02-22 16:11:00.604] $GNGGA,71100.0,3713.955901829,N,13701.424804293001,E,4,12.0,1.19,97.016,M,37.566,M,3.0,2006*5D,37.23259836381667,137.0237467382167,679525.1466875231,4122594.5492680687
1817,[2021-02-22 16:11:00.682] $GNGGA,71100.1,3713.955901386,N,13701.424805392,E,4,12.0,1.19,97.01700000000001,M,37.566,M,3.1,2006*53,37.232598356433336,137.02374675653334,679525.1483300789,4122594.548483586
1818,[2021-02-22 16:11:00.776] $GNGGA,71100.2,3713.955903549,N,13701.424804408001,E,4,12.0,1.19,97.007,M,37.566,M,3.2,2006*50,37.23259839248334,137.02374674013333,679525.1467895627,4122594.5524524534
1819,[2021-02-22 16:11:00.885] $GNGGA,71100.3,3713.955906899,N,13701.424804375,E,4,12.0,1.19,97.005,M,37.566,M,3.3,2006*5A,37.23259844831667,137.02374673958334,679525.1466083156,4122594.5586464717
1820,[2021-02-22 16:11:00.979] $GNGGA,71100.4,3713.95590677,N,13701.424803974,E,4,12.0,1.19,97.001,M,37.566,M,3.4,2006*5A,37.23259844616666,137.02374673289998,679525.1460204731,4122594.558395238
1821,[2021-02-22 16:11:01.104] $GNGGA,71100.5,3713.9559086090003,N,13701.424805345,E,4,12.0,1.19,97.00200000000001,M,37.566,M,3.5,2006*56,37.23259847681667,137.02374675574998,679525.1479749983,4122594.5618393905
1822,[2021-02-22 16:11:01.182] $GNGGA,71100.6,3713.955907807,N,13701.424806511,E,4,12.0,1.19,97.015,M,37.566,M,3.6,2006*5B,37.23259846345,137.02374677518333,679525.1497308215,4122594.5603931365
1823,[2021-02-22 16:11:01.276] $GNGGA,71100.7,3713.9559072409997,N,13701.424807398,E,4,12.0,1.19,97.016,M,37.566,M,3.7,2006*56,37.23259845401666,137.02374678996665,679525.1510647649,4122594.559374489
1824,[2021-02-22 16:11:01.385] $GNGGA,71100.8,3713.955906062,N,13701.424806068,E,4,12.0,1.19,97.014,M,37.566,M,3.8,2006*5B,37.23259843436667,137.0237467678,679525.1491447699,4122594.5571521535
1825,[2021-02-22 16:11:01.479] $GNGGA,71100.9,3713.9559067440005,N,13701.424803631002,E,4,12.0,1.19,97.021,M,37.566,M,3.9,2006*51,37.23259844573334,137.02374672718338,679525.1455143283,4122594.558336313
1826,[2021-02-22 16:11:01.604] $GNGGA,71101.0,3713.9559066290003,N,13701.424801558,E,4,12.0,1.19,97.016,M,37.566,M,4.0,2006*57,37.23259844381668,137.02374669263332,679525.1424536192,4122594.5580581133
1827,[2021-02-22 16:11:01.682] $GNGGA,71101.1,3713.9559042620003,N,13701.424800505,E,4,12.0,1.19,97.014,M,37.566,M,4.1,2006*55,37.23259840436667,137.02374667508334,679525.1409901839,4122594.553647595
1828,[2021-02-22 16:11:01.776] $GNGGA,71101.2,3713.95590376,N,13701.424800151,E,4,12.0,1.19,97.015,M,37.566,M,4.2,2006*51,37.232598396,137.02374666918334,679525.1404865877,4122594.5527080703
1829,[2021-02-22 16:11:01.885] $GNGGA,71101.3,3713.955903782,N,13701.424799771,E,4,12.0,1.19,97.015,M,37.566,M,4.3,2006*56,37.23259839636667,137.02374666285002,679525.13992383,4122594.5527367406
1830,[2021-02-22 16:11:01.979] $GNGGA,71101.4,3713.955903682,N,13701.424799297,E,4,12.0,1.19,97.01899999999999,M,37.566,M,4.4,2006*56,37.232598394700005,137.02374665494997,679525.1392268981,4122594.552536829
1831,[2021-02-22 16:11:02.104] $GNGGA,71101.5,3713.9559030670002,N,13701.424798627,E,4,12.0,1.19,97.01899999999999,M,37.566,M,4.5,2006*55,37.23259838445,137.0237466437833,679525.1382605146,4122594.5513783437
1832,[2021-02-22 16:11:02.182] $GNGGA,71101.6,3713.955902394,N,13701.424798308999,E,4,12.0,1.19,97.01899999999999,M,37.566,M,4.6,2006*52,37.23259837323334,137.02374663848335,679525.1378169156,4122594.550123733
1833,[2021-02-22 16:11:02.276] $GNGGA,71101.7,3713.955900523,N,13701.424799474,E,4,12.0,1.19,97.021,M,37.566,M,4.7,2006*5D,37.23259834205,137.0237466579,679525.1396135213,4122594.5467005717
1834,[2021-02-22 16:11:02.385] $GNGGA,71101.8,3713.955898082,N,13701.424799541,E,4,12.0,1.19,97.023,M,37.566,M,4.8,2006*56,37.232598301366664,137.0237466590167,679525.1398091034,4122594.542188619
1835,[2021-02-22 16:11:02.510] $GNGGA,71101.9,3713.955894723,N,13701.424800874,E,4,12.0,1.19,97.022,M,37.566,M,4.9,2006*53,37.232598245383336,137.02374668123332,679525.1419129532,4122594.536019056
1836,[2021-02-22 16:11:02.588] $GNGGA,71102.0,3713.9558924840003,N,13701.424800327,E,4,12.0,1.19,97.024,M,37.566,M,5.0,2006*52,37.23259820806667,137.0237466721167,679525.141192656,4122594.531861243
1837,[2021-02-22 16:11:02.682] $GNGGA,71102.1,3713.955890909,N,13701.424801273999,E,4,11.0,1.26,97.025,M,37.566,M,5.1,2006*50,37.23259818181666,137.02374668789997,679525.1426552092,4122594.5289785764
1838,[2021-02-22 16:11:02.776] $GNGGA,71102.2,3713.955889898,N,13701.424801033001,E,4,11.0,1.26,97.03299999999999,M,37.566,M,5.2,2006*57,37.23259816496667,137.02374668388336,679525.1423388312,4122594.5271013454
