,Format,Time,Latitude,LatType,Longitude,LonType,Status,Satellite,LevelAccuracy,Altitude(sea),M(sea),Altitude(geoid),M(geoid),DGPS use,checksum,Lat,Lon,UTM_X,UTM_Y
1058,[2021-02-22 15:42:24.508] $GNGGA,64223.9,3713.955935884,N,13701.424744625,E,4,12,1.08,96.915,M,37.566,M,6.9,3006*56,37.232598931400005,137.02374574374997,679525.0571127165,4122594.6103587025
1059,[2021-02-22 15:42:24.586] $GNGGA,64224.0,3713.955939047,N,13701.424745057,E,4,12,1.08,96.91,M,37.566,M,7.0,3006*5C,37.23259898411666,137.02374575094998,679525.0576264393,4122594.616221606
1060,[2021-02-22 15:42:24.680] $GNGGA,64224.1,3713.955940388,N,13701.424744513,E,4,12,1.08,96.904,M,37.566,M,2.1,3006*56,37.232599006466664,137.02374574188332,679525.0567690313,4122594.618684282
1061,[2021-02-22 15:42:24.790] $GNGGA,64224.2,3713.95595002,N,13701.424772435,E,4,12,1.08,96.955,M,37.566,M,2.2,3006*52,37.232599167000004,137.02374620725,679525.0976751974,4122594.6373791886
1062,[2021-02-22 15:42:24.883] $GNGGA,64224.3,3713.955949734,N,13701.424773841001,E,4,12,1.08,96.95,M,37.566,M,2.3,3006*53,37.232599162233335,137.02374623068334,679525.0997654934,4122594.6368947444
1063,[2021-02-22 15:42:25.008] $GNGGA,64224.4,3713.9559468420002,N,13701.424778036999,E,4,12,1.08,96.95200000000001,M,37.566,M,2.4,3006*52,37.23259911403334,137.02374630061666,679525.1060842689,4122594.6316793016
1064,[2021-02-22 15:42:25.086] $GNGGA,64224.5,3713.955944784,N,13701.424782019,E,4,12,1.08,96.955,M,37.566,M,2.5,3006*5B,37.23259907973333,137.02374636698335,679525.1120536396,4122594.627999386
1065,[2021-02-22 15:42:25.180] $GNGGA,64224.6,3713.95594418,N,13701.42478451,E,4,12,1.08,96.95,M,37.566,M,2.6,3006*56,37.23259906966667,137.0237464085,679525.1157608465,4122594.6269611744
1066,[2021-02-22 15:42:25.290] $GNGGA,64224.7,3713.9559441829997,N,13701.424788412,E,4,12,1.08,96.948,M,37.566,M,2.7,3006*53,37.232599069716656,137.0237464735333,679525.1215304354,4122594.627090077
1067,[2021-02-22 15:42:25.414] $GNGGA,64224.8,3713.955947065,N,13701.424788602,E,4,12,1.08,96.943,M,37.566,M,2.8,3006*51,37.23259911775,137.0237464767,679525.1216974368,4122594.6324256873
1068,[2021-02-22 15:42:25.493] $GNGGA,64224.9,3713.9559502959996,N,13701.424784187,E,4,12,1.08,96.94,M,37.566,M,2.9,3006*5C,37.23259917159999,137.02374640311666,679525.1150414301,4122594.638261109
1069,[2021-02-22 15:42:25.586] $GNGGA,64225.0,3713.9559557059997,N,13701.424779538,E,4,12,1.08,96.93299999999999,M,37.566,M,3.0,3006*53,37.23259926176666,137.0237463256333,679525.1079532664,4122594.6481186985
1070,[2021-02-22 15:42:25.680] $GNGGA,64225.1,3713.955958383,N,13701.424775025,E,4,12,1.08,96.92200000000001,M,37.566,M,3.1,3006*52,37.232599306383335,137.02374625041668,679525.1011742603,4122594.6529265293
1071,[2021-02-22 15:42:25.805] $GNGGA,64225.2,3713.955961286,N,13701.424772032,E,4,12,1.08,96.914,M,37.566,M,3.2,3006*58,37.23259935476666,137.0237462005333,679525.0966338677,4122594.658200345
1072,[2021-02-22 15:42:25.883] $GNGGA,64225.3,3713.955962515,N,13701.424768566001,E,4,12,1.08,96.914,M,37.566,M,3.3,3006*59,37.23259937525,137.0237461427667,679525.0914602652,4122594.660363529
1073,[2021-02-22 15:42:25.993] $GNGGA,64225.4,3713.955961339,N,13701.424770405,E,4,12,1.08,96.92,M,37.566,M,3.4,3006*58,37.232599355649995,137.02374617341667,679525.0942260034,4122594.6582469214
1074,[2021-02-22 15:42:26.086] $GNGGA,64225.5,3713.9559607,N,13701.424771654,E,4,12,1.08,96.926,M,37.566,M,3.5,3006*56,37.232599345000004,137.0237461942333,679525.0960981038,4122594.6571047227
1075,[2021-02-22 15:42:26.211] $GNGGA,64225.6,3713.95595689,N,13701.424775296002,E,4,12,1.08,96.93299999999999,M,37.566,M,3.6,3006*5F,37.23259928149999,137.02374625493337,679525.1016340074,4122594.6501741316
1076,[2021-02-22 15:42:26.289] $GNGGA,64225.7,3713.955950836,N,13701.424779891,E,4,12,1.08,96.94,M,37.566,M,3.7,3006*50,37.232599180600005,137.02374633151666,679525.1086677817,4122594.6391239064
1077,[2021-02-22 15:42:26.383] $GNGGA,64225.8,3713.955946975,N,13701.424781283,E,4,12,1.08,96.945,M,37.566,M,3.8,3006*5A,37.23259911625001,137.02374635471668,679525.1108787239,4122594.6320278724
1078,[2021-02-22 15:42:26.493] $GNGGA,64225.9,3713.955944822,N,13701.424783428001,E,4,12,1.08,96.945,M,37.566,M,3.9,3006*5E,37.232599080366676,137.0237463904667,679525.1141355635,4122594.6281142016
1079,[2021-02-22 15:42:26.602] $GNGGA,64226.0,3713.955942975,N,13701.424784203999,E,4,12,1.08,96.94,M,37.566,M,4.0,3006*55,37.232599049583335,137.0237464034,679525.1153560226,4122594.6247231276
1080,[2021-02-22 15:42:26.680] $GNGGA,64226.1,3713.955942305,N,13701.424784556999,E,4,12,1.08,96.941,M,37.566,M,4.1,3006*58,37.23259903841667,137.02374640928332,679525.115904476,4122594.623495276
1081,[2021-02-22 15:42:26.789] $GNGGA,64226.2,3713.9559419690004,N,13701.424783255,E,4,12,1.08,96.93799999999999,M,37.566,M,4.2,3006*57,37.23259903281667,137.02374638758334,679525.1139925541,4122594.6228327593
1082,[2021-02-22 15:42:26.883] $GNGGA,64226.3,3713.9559424209997,N,13701.424782219,E,4,12,1.08,96.939,M,37.566,M,4.3,3006*5D,37.232599040349996,137.02374637031664,679525.1124427945,4122594.623635877
1083,[2021-02-22 15:42:27.008] $GNGGA,64226.4,3713.955940917,N,13701.42478222,E,4,12,1.08,96.945,M,37.566,M,4.4,3006*56,37.23259901528334,137.02374637033333,679525.1125037398,4122594.6208546064
1084,[2021-02-22 15:42:27.086] $GNGGA,64226.5,3713.955939893,N,13701.424781438998,E,4,12,1.08,96.947,M,37.566,M,4.5,3006*5A,37.23259899821667,137.02374635731664,679525.1113893952,4122594.6189362593
1085,[2021-02-22 15:42:27.180] $GNGGA,64226.6,3713.955939817,N,13701.424782127,E,4,12,1.08,96.947,M,37.566,M,4.6,3006*5F,37.23259899695,137.02374636878335,679525.1124097186,4122594.618817466
1086,[2021-02-22 15:42:27.289] $GNGGA,64226.7,3713.9559395509996,N,13701.424785348001,E,4,12,1.08,96.95100000000001,M,37.566,M,4.7,3006*5B,37.232598992516664,137.0237464224667,679525.1171829816,4122594.6184273865
1087,[2021-02-22 15:42:27.383] $GNGGA,64226.8,3713.955940192,N,13701.424785376,E,4,12,1.08,96.956,M,37.566,M,4.8,3006*54,37.23259900320001,137.02374642293333,679525.1171990366,4122594.6196136554
1088,[2021-02-22 15:42:27.508] $GNGGA,64226.9,3713.955939656,N,13701.424786866,E,4,12,1.08,96.955,M,37.566,M,4.9,3006*5F,37.23259899426666,137.02374644776665,679525.1194234244,4122594.6186695485
1089,[2021-02-22 15:42:27.586] $GNGGA,64227.0,3713.955940363,N,13701.424787128,E,4,12,1.08,96.95299999999999,M,37.566,M,5.0,3006*56,37.23259900605,137.0237464521333,679525.119782877,4122594.6199852685
1090,[2021-02-22 15:42:27.680] $GNGGA,64227.1,3713.955941411,N,13701.424787173999,E,4,12,1.08,96.947,M,37.566,M,5.1,3006*59,37.23259902351666,137.02374645289999,679525.119809462,4122594.6219247584
1091,[2021-02-22 15:42:27.789] $GNGGA,64227.2,3713.9559432270003,N,13701.42478918,E,4,12,1.08,96.943,M,37.566,M,5.2,3006*59,37.23259905378334,137.02374648633335,679525.1227038446,4122594.6253464553
1092,[2021-02-22 15:42:27.883] $GNGGA,64227.3,3713.9559451409996,N,13701.42478896,E,4,12,1.08,96.934,M,37.566,M,5.3,3006*5B,37.232599085683326,137.02374648266667,679525.1223028632,4122594.6288790046
1093,[2021-02-22 15:42:28.008] $GNGGA,64227.4,3713.955948113,N,13701.424789354,E,4,12,1.08,96.92299999999999,M,37.566,M,5.4,3006*5B,37.23259913521667,137.0237464892333,679525.1227679461,4122594.634387498
1094,[2021-02-22 15:42:28.086] $GNGGA,64227.5,3713.95594928,N,13701.424789349,E,4,12,1.08,96.913,M,37.566,M,5.5,3006*5C,37.23259915466666,137.02374648915,679525.122714415,4122594.6365454393
1095,[2021-02-22 15:42:28.180] $GNGGA,64227.6,3713.955950446,N,13701.424790121999,E,4,12,1.08,96.904,M,37.566,M,5.6,3006*59,37.232599174099995,137.0237465020333,679525.1238113119,4122594.6387261283
1096,[2021-02-22 15:42:28.289] $GNGGA,64227.7,3713.955957615,N,13701.424808987,E,4,12,1.08,96.89,M,37.566,M,5.7,3006*5F,37.232599293583334,137.02374681645,679525.1514226843,4122594.652579952
1097,[2021-02-22 15:42:28.383] $GNGGA,64227.8,3713.95595083,N,13701.424794014,E,4,11,1.13,96.89399999999999,M,37.566,M,5.8,3006*55,37.232599180499996,137.0237465669,679525.1295510554,4122594.6395592894
1098,[2021-02-22 15:42:28.508] $GNGGA,64227.9,3713.9559406440003,N,13701.424782637,E,4,12,1.08,96.93,M,37.566,M,5.9,3006*5F,37.23259901073333,137.02374637728332,679525.113131132,4122594.6203629356
1099,[2021-02-22 15:42:28.586] $GNGGA,64228.0,3713.9559483909998,N,13701.424792881002,E,4,12,1.08,96.92399999999999,M,37.566,M,6.0,3006*51,37.232599139849995,137.0237465480167,679525.1279721741,4122594.635013096
1100,[2021-02-22 15:42:28.680] $GNGGA,64228.1,3713.95594606,N,13701.424789095,E,4,12,1.08,96.92399999999999,M,37.566,M,6.1,3006*55,37.232599101,137.02374648491667,679525.1224661489,4122594.6305827545
1101,[2021-02-22 15:42:28.789] $GNGGA,64228.2,3713.9559422109996,N,13701.424787302,E,4,12,1.08,96.935,M,37.566,M,6.2,3006*56,37.23259903685,137.02374645503332,679525.1199670979,4122594.6234082216
1102,[2021-02-22 15:42:28.883] $GNGGA,64228.3,3713.955939467,N,13701.424786914,E,4,12,1.08,96.943,M,37.566,M,6.3,3006*50,37.23259899111667,137.02374644856667,679525.1195018744,4122594.6183215547
1103,[2021-02-22 15:42:29.008] $GNGGA,64228.4,3713.95593954,N,13701.424787145,E,4,12,1.08,96.944,M,37.566,M,6.4,3006*5E,37.23259899233333,137.02374645241667,679525.1198405572,4122594.6184638543
1104,[2021-02-22 15:42:29.086] $GNGGA,64228.5,3713.955938016,N,13701.424787941001,E,4,12,1.08,96.948,M,37.566,M,6.5,3006*59,37.23259896693334,137.02374646568336,679525.1210778223,4122594.615670728
1105,[2021-02-22 15:42:29.180] $GNGGA,64228.6,3713.955941626,N,13701.424786393998,E,4,12,1.08,96.949,M,37.566,M,6.6,3006*50,37.2325990271,137.02374643989995,679525.1186476069,4122594.622297694
1106,[2021-02-22 15:42:29.289] $GNGGA,64228.7,3713.955945127,N,13701.424781831001,E,4,12,1.08,96.949,M,37.566,M,6.7,3006*51,37.232599085450005,137.02374636385005,679525.111762096,4122594.6286277426
1107,[2021-02-22 15:42:29.414] $GNGGA,64228.8,3713.955944938,N,13701.42477942,E,4,12,1.08,96.95,M,37.566,M,6.8,3006*55,37.232599082300005,137.02374632366667,679525.1082045286,4122594.6282020104
1108,[2021-02-22 15:42:29.492] $GNGGA,64228.9,3713.955944877,N,13701.424778503999,E,4,12,1.08,96.948,M,37.566,M,6.9,3006*50,37.23259908128333,137.0237463084,679525.1068524932,4122594.6280602454
1109,[2021-02-22 15:42:29.586] $GNGGA,64229.0,3713.955944545,N,13701.424777928001,E,4,12,1.08,96.947,M,37.566,M,7.0,3006*5E,37.232599075749995,137.02374629880003,679525.1060139163,4122594.627428076
1110,[2021-02-22 15:42:29.680] $GNGGA,64229.1,3713.955943078,N,13701.42478126,E,4,12,1.08,96.949,M,37.566,M,2.1,3006*57,37.23259905129999,137.02374635433335,679525.1109987935,4122594.624820532
1111,[2021-02-22 15:42:29.805] $GNGGA,64229.2,3713.955941085,N,13701.424781263999,E,4,12,1.08,96.944,M,37.566,M,2.2,3006*5E,37.23259901808334,137.02374635439998,679525.1110835017,4122594.6211350597
1112,[2021-02-22 15:42:29.883] $GNGGA,64229.3,3713.955938992,N,13701.424777891001,E,4,12,1.08,96.945,M,37.566,M,2.3,3006*57,37.232598983200006,137.02374629818334,679525.1061787552,4122594.617157901
1113,[2021-02-22 15:42:29.992] $GNGGA,64229.4,3713.955938773,N,13701.424774338,E,4,12,1.08,96.943,M,37.566,M,2.4,3006*5B,37.232598979550005,137.02374623896665,679525.100933753,4122594.6166405864
1114,[2021-02-22 15:42:30.086] $GNGGA,64229.5,3713.955937819,N,13701.42477207,E,4,12,1.08,96.95,M,37.566,M,2.5,3006*5C,37.23259896365,137.0237462011667,679525.0976178857,4122594.6148046805
1115,[2021-02-22 15:42:30.211] $GNGGA,64229.6,3713.955937403,N,13701.424769293,E,4,12,1.08,96.95,M,37.566,M,2.6,3006*5E,37.232598956716664,137.02374615488336,679525.0935281104,4122594.613947592
1116,[2021-02-22 15:42:30.289] $GNGGA,64229.7,3713.955937883,N,13701.424765683001,E,4,12,1.08,96.95200000000001,M,37.566,M,2.7,3006*51,37.232598964716665,137.02374609471667,679525.0881711887,4122594.614721118
1117,[2021-02-22 15:42:30.383] $GNGGA,64229.8,3713.955938475,N,13701.424762993998,E,4,12,1.08,96.955,M,37.566,M,2.8,3006*52,37.23259897458333,137.02374604989996,679525.0841716768,4122594.6157308775
1118,[2021-02-22 15:42:30.492] $GNGGA,64229.9,3713.955938247,N,13701.424762151,E,4,12,1.08,96.96,M,37.566,M,2.9,3006*52,37.23259897078334,137.02374603585002,679525.0829341915,4122594.6152825947
1119,[2021-02-22 15:42:30.602] $GNGGA,64230.0,3713.955938477,N,13701.424761493001,E,4,12,1.08,96.963,M,37.566,M,3.0,3006*55,37.23259897461667,137.02374602488337,679525.0819521443,4122594.615687124
1120,[2021-02-22 15:42:30.680] $GNGGA,64230.1,3713.955940959,N,13701.424758625,E,4,12,1.08,96.95700000000001,M,37.566,M,3.1,3006*59,37.23259901598333,137.02374597708334,679525.0776132294,4122594.6201863494
1121,[2021-02-22 15:42:30.789] $GNGGA,64230.2,3713.9559407290003,N,13701.424758956999,E,4,12,1.08,96.958,M,37.566,M,3.2,3006*55,37.232599012150004,137.02374598261662,679525.0781132311,4122594.6197715118
1122,[2021-02-22 15:42:30.883] $GNGGA,64230.3,3713.9559411809996,N,13701.424756416001,E,4,12,1.08,96.955,M,37.566,M,3.3,3006*5B,37.23259901968333,137.02374594026668,679525.074338106,4122594.620527053
1123,[2021-02-22 15:42:31.008] $GNGGA,64230.4,3713.955941268,N,13701.424755877,E,4,12,1.08,96.95100000000001,M,37.566,M,3.4,3006*53,37.23259902113333,137.02374593128332,679525.0735376667,4122594.6206708993
1124,[2021-02-22 15:42:31.086] $GNGGA,64230.5,3713.955940556,N,13701.424754706,E,4,12,1.08,96.949,M,37.566,M,3.5,3006*59,37.232599009266664,137.02374591176667,679525.0718343148,4122594.6193171972
1125,[2021-02-22 15:42:31.180] $GNGGA,64230.6,3713.955937695,N,13701.424754787,E,4,12,1.08,96.95,M,37.566,M,3.6,3006*54,37.23259896158334,137.0237459131167,679525.0720672053,4122594.614028992
1126,[2021-02-22 15:42:31.289] $GNGGA,64230.7,3713.9559382559996,N,13701.424753546002,E,4,12,1.08,96.947,M,37.566,M,3.7,3006*5E,37.232598970933324,137.02374589243337,679525.0702100154,4122594.615027201
1127,[2021-02-22 15:42:31.414] $GNGGA,64230.8,3713.9559358809997,N,13701.424754873,E,4,12,1.08,96.947,M,37.566,M,3.8,3006*5F,37.23259893135,137.02374591455,679525.0722660886,4122594.6106771305
1128,[2021-02-22 15:42:31.492] $GNGGA,64230.9,3713.9559344470003,N,13701.424754036001,E,4,12,1.08,96.949,M,37.566,M,3.9,3006*5F,37.232598907450004,137.0237459006,679525.0710851526,4122594.607998815
1129,[2021-02-22 15:42:31.586] $GNGGA,64231.0,3713.955933655,N,13701.424753448999,E,4,12,1.08,96.955,M,37.566,M,4.0,3006*59,37.23259889425,137.02374589081663,679525.0702484915,4122594.606515633
1130,[2021-02-22 15:42:31.680] $GNGGA,64231.1,3713.95593241,N,13701.424753693998,E,4,12,1.08,96.95700000000001,M,37.566,M,4.1,3006*5B,37.232598873499995,137.02374589489997,679525.0706599874,4122594.6042210343
1131,[2021-02-22 15:42:31.789] $GNGGA,64231.2,3713.955932923,N,13701.424752703999,E,4,12,1.08,96.96,M,37.566,M,4.2,3006*5B,37.232598882050006,137.0237458784,679525.0691758408,4122594.605138415
1132,[2021-02-22 15:42:31.914] $GNGGA,64231.3,3713.955934278,N,13701.424751548,E,4,12,1.08,96.959,M,37.566,M,4.3,3006*5B,37.23259890463333,137.02374585913336,679525.0674129439,4122594.607607633
1133,[2021-02-22 15:42:31.977] $GNGGA,64231.4,3713.955934025,N,13701.424752423001,E,4,12,1.08,96.962,M,37.566,M,4.4,3006*56,37.23259890041666,137.02374587371668,679525.068716769,4122594.6071674293
1134,[2021-02-22 15:42:32.086] $GNGGA,64231.5,3713.95593408,N,13701.424751848,E,4,12,1.08,96.959,M,37.566,M,4.5,3006*53,37.23259890133333,137.02374586413333,679525.0678643651,4122594.6072509605
1135,[2021-02-22 15:42:32.180] $GNGGA,64231.6,3713.955933232,N,13701.424753058998,E,4,12,1.08,96.959,M,37.566,M,4.6,3006*55,37.2325988872,137.02374588431664,679525.069688542,4122594.6057210616
1136,[2021-02-22 15:42:32.289] $GNGGA,64231.7,3713.9559330409998,N,13701.424752858,E,4,12,1.08,96.96,M,37.566,M,4.7,3006*51,37.23259888401666,137.02374588096666,679525.069398885,4122594.605361496
1137,[2021-02-22 15:42:32.414] $GNGGA,64231.8,3713.955931415,N,13701.424751432,E,4,12,1.08,96.956,M,37.566,M,4.8,3006*50,37.23259885691667,137.0237458572,679525.0673546126,4122594.6023095003
1138,[2021-02-22 15:42:32.477] $GNGGA,64231.9,3713.955929878,N,13701.424752988001,E,4,12,1.08,96.954,M,37.566,M,4.9,3006*53,37.2325988313,137.02374588313336,679525.069716172,4122594.59951636
1139,[2021-02-22 15:42:32.586] $GNGGA,64232.0,3713.955928914,N,13701.424754158,E,4,12,1.08,96.948,M,37.566,M,5.0,3006*55,37.23259881523334,137.02374590263335,679525.0714843101,4122594.5977706495
1140,[2021-02-22 15:42:32.680] $GNGGA,64232.1,3713.955928755,N,13701.424754872,E,4,12,1.08,96.947,M,37.566,M,5.1,3006*50,37.23259881258333,137.02374591453332,679525.0725463543,4122594.5974991876
1141,[2021-02-22 15:42:32.789] $GNGGA,64232.2,3713.955930347,N,13701.42475558,E,4,12,1.08,96.94200000000001,M,37.566,M,5.2,3006*5A,37.23259883911667,137.0237459263333,679525.0735302966,4122594.6004656106
1142,[2021-02-22 15:42:32.898] $GNGGA,64232.3,3713.95593197,N,13701.424755873,E,4,12,1.08,96.93,M,37.566,M,5.3,3006*51,37.23259886616666,137.02374593121667,679525.0738993741,4122594.6034762417
1143,[2021-02-22 15:42:32.977] $GNGGA,64232.4,3713.9559324370002,N,13701.424752698,E,4,12,1.08,96.925,M,37.566,M,5.4,3006*54,37.23259887395001,137.0237458783,679525.0691861821,4122594.6042394787
1144,[2021-02-22 15:42:33.086] $GNGGA,64232.5,3713.955932948,N,13701.424749976,E,4,12,1.08,96.92299999999999,M,37.566,M,5.5,3006*52,37.23259888246667,137.02374583293337,679525.0651410855,4122594.6050984045
1145,[2021-02-22 15:42:33.180] $GNGGA,64232.6,3713.955935263,N,13701.424748156001,E,4,12,1.08,96.92299999999999,M,37.566,M,5.6,3006*5C,37.232598921050005,137.02374580260002,679525.0623584031,4122594.609321933
1146,[2021-02-22 15:42:33.289] $GNGGA,64232.7,3713.955934559,N,13701.424745198,E,4,12,1.08,96.92200000000001,M,37.566,M,5.7,3006*5D,37.23259890931667,137.0237457533,679525.0580123756,4122594.607926531
1147,[2021-02-22 15:42:33.414] $GNGGA,64232.8,3713.95593739,N,13701.424744838001,E,4,12,1.08,96.92399999999999,M,37.566,M,5.8,3006*59,37.2325989565,137.02374574730004,679525.0573681339,4122594.6131504397
1148,[2021-02-22 15:42:33.492] $GNGGA,64232.9,3713.95593821,N,13701.424743042,E,4,12,1.08,96.925,M,37.566,M,5.9,3006*5C,37.23259897016667,137.02374571736667,679525.0546800464,4122594.6146100657
1149,[2021-02-22 15:42:33.586] $GNGGA,64233.0,3713.9559377990004,N,13701.424743087,E,4,12,1.08,96.925,M,37.566,M,6.0,3006*5C,37.232598963316676,137.02374571811666,679525.0547628335,4122594.6138514373
1150,[2021-02-22 15:42:33.680] $GNGGA,64233.1,3713.955941763,N,13701.424741728999,E,4,12,1.08,96.926,M,37.566,M,6.1,3006*5A,37.23259902938333,137.0237456954833,679525.0525980941,4122594.621139019
1151,[2021-02-22 15:42:33.805] $GNGGA,64233.2,3713.955942713,N,13701.424742574,E,4,12,1.08,96.929,M,37.566,M,6.2,3006*58,37.23259904521666,137.02374570956667,679525.0538099974,4122594.6229225406
1152,[2021-02-22 15:42:33.883] $GNGGA,64233.3,3713.955941659,N,13701.424745273998,E,4,12,1.08,96.93,M,37.566,M,6.3,3006*5C,37.232599027650004,137.02374575456665,679525.0578440358,4122594.621058766
1153,[2021-02-22 15:42:33.992] $GNGGA,64233.4,3713.955940638,N,13701.424745991,E,4,12,1.08,96.927,M,37.566,M,6.4,3006*5C,37.232599010633336,137.02374576651667,679525.0589446014,4122594.6191933253
1154,[2021-02-22 15:42:34.086] $GNGGA,64233.5,3713.955938337,N,13701.424749737,E,4,12,1.08,96.927,M,37.566,M,6.5,3006*57,37.232598972283334,137.02374582895,679525.0645746156,4122594.615056575
1155,[2021-02-22 15:42:34.211] $GNGGA,64233.6,3713.955937112,N,13701.42475198,E,4,12,1.08,96.928,M,37.566,M,6.6,3006*59,37.23259895186667,137.02374586633331,679525.06793967,4122594.6128621264
1156,[2021-02-22 15:42:34.289] $GNGGA,64233.7,3713.9559375540002,N,13701.424753466,E,4,12,1.08,96.926,M,37.566,M,6.7,3006*56,37.232598959233336,137.0237458911,679525.0701194755,4122594.613726483
1157,[2021-02-22 15:42:34.383] $GNGGA,64233.8,3713.955935119,N,13701.424754427,E,4,12,1.08,96.93,M,37.566,M,6.8,3006*5C,37.232598918650005,137.02374590711668,679525.0716367381,4122594.609253888
1158,[2021-02-22 15:42:34.492] $GNGGA,64233.9,3713.95593253,N,13701.424755845,E,4,12,1.08,96.928,M,37.566,M,6.9,3006*54,37.232598875499995,137.02374593074998,679525.07383583,4122594.6045109485
1159,[2021-02-22 15:42:34.601] $GNGGA,64234.0,3713.955931185,N,13701.424758358999,E,4,12,1.08,96.928,M,37.566,M,7.0,3006*50,37.23259885308333,137.02374597264998,679525.0776063442,4122594.6021031556
1160,[2021-02-22 15:42:34.680] $GNGGA,64234.1,3713.9559331359997,N,13701.424758518,E,4,12,1.08,96.925,M,37.566,M,2.1,3006*51,37.2325988856,137.0237459753,679525.0777643138,4122594.605716111
1161,[2021-02-22 15:42:34.789] $GNGGA,64234.2,3713.955935006,N,13701.424759578998,E,4,12,1.08,96.932,M,37.566,M,2.2,3006*55,37.23259891676666,137.0237459929833,679525.079259228,4122594.6092077913
1162,[2021-02-22 15:42:34.883] $GNGGA,64234.3,3713.9559352779997,N,13701.42476184,E,4,12,1.08,96.93799999999999,M,37.566,M,2.3,3006*58,37.232598921299996,137.02374603066664,679525.0825917141,4122594.6097822716
1163,[2021-02-22 15:42:35.008] $GNGGA,64234.4,3713.955935266,N,13701.42476254,E,4,12,1.08,96.941,M,37.566,M,2.4,3006*57,37.2325989211,137.02374604233333,679525.083627248,4122594.6097822115
1164,[2021-02-22 15:42:35.086] $GNGGA,64234.5,3713.955934185,N,13701.424765331001,E,4,12,1.08,96.946,M,37.566,M,2.5,3006*58,37.232598903083336,137.02374608885,679525.0877969115,4122594.6078713816
1165,[2021-02-22 15:42:35.179] $GNGGA,64234.6,3713.95589734,N,13701.424750531001,E,4,12,1.08,97.016,M,37.566,M,2.6,3006*56,37.232598289,137.02374584218336,679525.0673695891,4122594.5392670734
1166,[2021-02-22 15:42:35.289] $GNGGA,64234.7,3713.955895475,N,13701.424753692,E,4,12,1.08,97.023,M,37.566,M,2.7,3006*5A,37.23259825791667,137.02374589486664,679525.0721173474,4122594.5359181114
1167,[2021-02-22 15:42:35.414] $GNGGA,64234.8,3713.955893861,N,13701.424753805,E,4,12,1.08,97.02799999999999,M,37.566,M,2.8,3006*5E,37.23259823101667,137.02374589675,679525.0723482522,4122594.5329369586
1168,[2021-02-22 15:42:35.492] $GNGGA,64234.9,3713.955893261,N,13701.424753057,E,4,12,1.08,97.031,M,37.566,M,2.9,3006*53,37.232598221016666,137.02374588428333,679525.0712659401,4122594.531803748
1169,[2021-02-22 15:42:35.586] $GNGGA,64235.0,3713.9559395859997,N,13701.42475919,E,4,12,1.08,96.98,M,37.566,M,3.0,3006*5E,37.2325989931,137.02374598650002,679525.0785029555,4122594.6176651595
1170,[2021-02-22 15:42:35.679] $GNGGA,64235.1,3713.9558910379997,N,13701.424752944,E,4,12,1.08,97.04,M,37.566,M,3.1,3006*53,37.23259818396666,137.02374588240002,679525.0711867451,4122594.527689243
1171,[2021-02-22 15:42:35.804] $GNGGA,64235.2,3713.955929909,N,13701.424769873998,E,4,12,1.08,96.971,M,37.566,M,3.2,3006*5A,37.232598831816674,137.02374616456663,679525.0946834985,4122594.6001075166
1172,[2021-02-22 15:42:35.883] $GNGGA,64235.3,3713.955931961,N,13701.424771046,E,4,12,1.08,96.96799999999999,M,37.566,M,3.3,3006*55,37.232598866016666,137.02374618410002,679525.0963353554,4122594.6039392734
1173,[2021-02-22 15:42:35.992] $GNGGA,64235.4,3713.955933788,N,13701.424770475,E,4,12,1.08,96.964,M,37.566,M,3.4,3006*57,37.23259889646667,137.02374617458335,679525.0954188078,4122594.607299843
1174,[2021-02-22 15:42:36.086] $GNGGA,64235.5,3713.9559332,N,13701.424770198,E,4,12,1.08,96.958,M,37.566,M,3.5,3006*5B,37.232598886666665,137.02374616996667,679525.0950324688,4122594.6062037125
1175,[2021-02-22 15:42:36.195] $GNGGA,64235.6,3713.955934403,N,13701.424771222,E,4,12,1.08,96.95100000000001,M,37.566,M,3.6,3006*53,37.23259890671666,137.02374618703334,679525.0964990461,4122594.608460759
1176,[2021-02-22 15:42:36.304] $GNGGA,64235.7,3713.955934187,N,13701.424770413001,E,4,12,1.08,96.95200000000001,M,37.566,M,3.7,3006*5C,37.23259890311666,137.02374617355002,679525.0953113567,4122594.6080357404
1177,[2021-02-22 15:42:36.383] $GNGGA,64235.8,3713.955935985,N,13701.424769455,E,4,12,1.08,96.95200000000001,M,37.566,M,3.8,3006*5D,37.23259893308333,137.02374615758333,679525.0938237152,4122594.611330446
1178,[2021-02-22 15:42:36.492] $GNGGA,64235.9,3713.955937524,N,13701.42476959,E,4,12,1.08,96.95,M,37.566,M,3.9,3006*52,37.23259895873333,137.02374615983334,679525.0939624854,4122594.6141807428
1179,[2021-02-22 15:42:36.586] $GNGGA,64236.0,3713.955936312,N,13701.424768562,E,4,12,1.08,96.961,M,37.566,M,4.0,3006*5A,37.232598938533336,137.02374614270002,679525.0924903495,4122594.6119069266
1180,[2021-02-22 15:42:36.695] $GNGGA,64236.1,3713.955937063,N,13701.424768312,E,4,12,1.08,96.964,M,37.566,M,4.1,3006*5A,37.232598951049994,137.02374613853334,679525.0920909923,4122594.613287826
1181,[2021-02-22 15:42:36.804] $GNGGA,64236.2,3713.9559389329997,N,13701.424767263,E,4,12,1.08,96.961,M,37.566,M,4.2,3006*54,37.23259898221666,137.02374612105,679525.0904659489,4122594.6167128016
1182,[2021-02-22 15:42:36.882] $GNGGA,64236.3,3713.955938488,N,13701.424767813001,E,4,12,1.08,96.97200000000001,M,37.566,M,4.3,3006*56,37.232598974800005,137.02374613021667,679525.0912968027,4122594.6159072644
1183,[2021-02-22 15:42:36.992] $GNGGA,64236.4,3713.955937483,N,13701.424767436001,E,4,12,1.08,96.979,M,37.566,M,4.4,3006*52,37.23259895805,137.02374612393334,679525.0907790859,4122594.614036828
1184,[2021-02-22 15:42:37.086] $GNGGA,64236.5,3713.9559389620003,N,13701.424766103999,E,4,12,1.08,96.977,M,37.566,M,4.5,3006*54,37.232598982700004,137.02374610173334,679525.0887510407,4122594.6167297913
1185,[2021-02-22 15:42:37.195] $GNGGA,64236.6,3713.9559384520003,N,13701.424765943,E,4,12,1.08,96.979,M,37.566,M,4.6,3006*5C,37.23259897420001,137.02374609905,679525.0885331404,4122594.615781574
1186,[2021-02-22 15:42:37.304] $GNGGA,64236.7,3713.955938925,N,13701.424765847,E,4,12,1.08,96.977,M,37.566,M,4.7,3006*5A,37.232598982083324,137.02374609745,679525.0883724886,4122594.6166532426
1187,[2021-02-22 15:42:37.382] $GNGGA,64236.8,3713.955936502,N,13701.424767342,E,4,12,1.08,96.977,M,37.566,M,4.8,3006*51,37.2325989417,137.02374612236665,679525.0906788765,4122594.6122197197
1188,[2021-02-22 15:42:37.492] $GNGGA,64236.9,3713.9559373340003,N,13701.424767853001,E,4,12,1.08,96.977,M,37.566,M,4.9,3006*58,37.23259895556668,137.02374613088335,679525.0914015776,4122594.613774471
1189,[2021-02-22 15:42:37.586] $GNGGA,64237.0,3713.955938485,N,13701.424766883001,E,4,12,1.08,96.97399999999999,M,37.566,M,5.0,3006*55,37.232598974750005,137.02374611471672,679525.089921776,4122594.6158723165
1190,[2021-02-22 15:42:37.695] $GNGGA,64237.1,3713.955936784,N,13701.424766595,E,4,12,1.08,96.97200000000001,M,37.566,M,5.1,3006*55,37.2325989464,137.02374610991666,679525.0895631731,4122594.6127176
1191,[2021-02-22 15:42:37.804] $GNGGA,64237.2,3713.9559358779998,N,13701.424767646002,E,4,12,1.08,96.97200000000001,M,37.566,M,5.2,3006*56,37.2325989313,137.02374612743338,679525.091153064,4122594.6110753855
1192,[2021-02-22 15:42:37.882] $GNGGA,64237.3,3713.955937582,N,13701.424766696002,E,4,12,1.08,96.96700000000001,M,37.566,M,5.3,3006*54,37.2325989597,137.02374611160002,679525.089680968,4122594.614196512
1193,[2021-02-22 15:42:37.992] $GNGGA,64237.4,3713.955937451,N,13701.42476829,E,4,12,1.08,96.963,M,37.566,M,5.4,3006*53,37.232598957516664,137.02374613816664,679525.0920431202,4122594.6140046488
1194,[2021-02-22 15:42:38.086] $GNGGA,64237.5,3713.955937766,N,13701.424768945,E,4,12,1.08,96.96,M,37.566,M,5.5,3006*54,37.232598962766666,137.02374614908334,679525.0929991858,4122594.6146078766
1195,[2021-02-22 15:42:38.210] $GNGGA,64237.6,3713.955938985,N,13701.424768387,E,4,12,1.08,96.959,M,37.566,M,5.6,3006*56,37.232598983083335,137.02374613978333,679525.0921258987,4122594.616844499
1196,[2021-02-22 15:42:38.289] $GNGGA,64237.7,3713.955938056,N,13701.424769117,E,4,12,1.08,96.959,M,37.566,M,5.7,3006*5B,37.232598967600005,137.02374615195,679525.0932420489,4122594.615149603
1197,[2021-02-22 15:42:38.382] $GNGGA,64237.8,3713.955940691,N,13701.424765801,E,4,12,1.08,96.95299999999999,M,37.566,M,5.8,3006*51,37.23259901151666,137.02374609668337,679525.0882346518,4122594.619917603
1198,[2021-02-22 15:42:38.492] $GNGGA,64237.9,3713.955940088,N,13701.424763354,E,4,12,1.08,96.955,M,37.566,M,5.9,3006*54,37.23259900146666,137.0237460559,679525.0846402231,4122594.618725134
1199,[2021-02-22 15:42:38.601] $GNGGA,64238.0,3713.955940103,N,13701.424761111999,E,4,12,1.08,96.95100000000001,M,37.566,M,6.0,3006*5C,37.232599001716665,137.02374601853333,679525.0813244854,4122594.6186819947
1200,[2021-02-22 15:42:38.679] $GNGGA,64238.1,3713.9559422159996,N,13701.424756626,E,4,12,1.08,96.947,M,37.566,M,6.1,3006*5A,37.23259903693333,137.02374594376667,679525.0746077007,4122594.6224476877
1201,[2021-02-22 15:42:38.789] $GNGGA,64238.2,3713.9559442990003,N,13701.424753868001,E,4,12,1.08,96.946,M,37.566,M,6.2,3006*5B,37.23259907165001,137.02374589780004,679525.0704472191,4122594.626212532
1202,[2021-02-22 15:42:38.882] $GNGGA,64238.3,3713.955944395,N,13701.424753891,E,4,12,1.08,96.946,M,37.566,M,6.3,3006*50,37.23259907325,137.02374589818336,679525.0704774314,4122594.626390789
1203,[2021-02-22 15:42:39.007] $GNGGA,64238.4,3713.9559459609995,N,13701.424753803001,E,4,12,1.08,96.944,M,37.566,M,6.4,3006*59,37.23259909935,137.0237458967167,679525.0702853918,4122594.629283966
1204,[2021-02-22 15:42:39.085] $GNGGA,64238.5,3713.955945687,N,13701.424753599,E,4,12,1.08,96.945,M,37.566,M,6.5,3006*51,37.23259909478334,137.02374589331666,679525.0699945784,4122594.6287708166
1205,[2021-02-22 15:42:39.179] $GNGGA,64238.6,3713.9559448970003,N,13701.42475374,E,4,12,1.08,96.95200000000001,M,37.566,M,6.6,3006*5F,37.23259908161668,137.02374589566665,679525.0702343007,4122594.62731435
1206,[2021-02-22 15:42:39.289] $GNGGA,64238.7,3713.955945944,N,13701.424754478001,E,4,12,1.08,96.95100000000001,M,37.566,M,6.7,3006*5D,37.23259909906667,137.02374590796668,679525.071284156,4122594.629273868
1207,[2021-02-22 15:42:39.414] $GNGGA,64238.8,3713.955948624,N,13701.42475415,E,4,12,1.08,96.95,M,37.566,M,6.8,3006*57,37.23259914373334,137.0237459025,679525.0706931949,4122594.6342195477
1208,[2021-02-22 15:42:39.492] $GNGGA,64238.9,3713.955948258,N,13701.424753618001,E,4,12,1.08,96.945,M,37.566,M,6.9,3006*50,37.23259913763333,137.02374589363336,679525.0699210255,4122594.633525894
1209,[2021-02-22 15:42:39.585] $GNGGA,64239.0,3713.955948582,N,13701.424752437,E,4,12,1.08,96.948,M,37.566,M,7.0,3006*53,37.23259914303333,137.02374587395002,679525.0681619222,4122594.6340877237
1210,[2021-02-22 15:42:39.679] $GNGGA,64239.1,3713.955951871,N,13701.42475167,E,4,12,1.08,96.94200000000001,M,37.566,M,2.1,3006*57,37.23259919785,137.02374586116667,679525.0668977553,4122594.640145732
1211,[2021-02-22 15:42:39.804] $GNGGA,64239.2,3713.955952247,N,13701.424751759,E,4,12,1.08,96.94,M,37.566,M,2.2,3006*53,37.23259920411667,137.02374586264997,679525.0670144871,4122594.6408438715
1212,[2021-02-22 15:42:39.882] $GNGGA,64239.3,3713.95595153,N,13701.424751973998,E,4,12,1.08,96.939,M,37.566,M,2.3,3006*58,37.23259919216667,137.02374586623333,679525.0673607468,4122594.63952474
1213,[2021-02-22 15:42:39.992] $GNGGA,64239.4,3713.955950485,N,13701.424752505,E,4,12,1.08,96.93700000000001,M,37.566,M,2.4,3006*51,37.23259917475,137.02374587508334,679525.0681872298,4122594.637609038
1214,[2021-02-22 15:42:40.085] $GNGGA,64239.5,3713.95594685,N,13701.424753695,E,4,12,1.08,96.936,M,37.566,M,2.5,3006*58,37.232599114166675,137.02374589491666,679525.0700905469,4122594.6309245564
1215,[2021-02-22 15:42:40.210] $GNGGA,64239.6,3713.955949399,N,13701.424754176001,E,4,12,1.08,96.934,M,37.566,M,2.6,3006*56,37.23259915665,137.02374590293337,679525.0707010017,4122594.6356535545
1216,[2021-02-22 15:42:40.288] $GNGGA,64239.7,3713.955949366,N,13701.424753481,E,4,12,1.08,96.93299999999999,M,37.566,M,2.7,3006*5B,37.2325991561,137.02374589135002,679525.06967464,4122594.635570558
1217,[2021-02-22 15:42:40.382] $GNGGA,64239.8,3713.955949322,N,13701.424753102,E,4,12,1.08,96.935,M,37.566,M,2.8,3006*53,37.232599155366664,137.02374588503335,679525.0691159705,4122594.6354772076
1218,[2021-02-22 15:42:40.492] $GNGGA,64239.9,3713.9559489959997,N,13701.42475182,E,4,12,1.08,96.935,M,37.566,M,2.9,3006*5C,37.232599149933336,137.0237458636667,679525.0672332252,4122594.6348338183
1219,[2021-02-22 15:42:40.585] $GNGGA,64240.0,3713.955948206,N,13701.424754443,E,4,12,1.08,96.939,M,37.566,M,3.0,3006*51,37.232599136766666,137.02374590738333,679525.0711429664,4122594.633455815
1220,[2021-02-22 15:42:40.710] $GNGGA,64240.1,3713.955948532,N,13701.424753936,E,4,12,1.08,96.93799999999999,M,37.566,M,3.1,3006*58,37.2325991422,137.02374589893336,679525.070380402,4122594.63404265
1221,[2021-02-22 15:42:40.788] $GNGGA,64240.2,3713.955947404,N,13701.42475551,E,4,12,1.08,96.945,M,37.566,M,3.2,3006*57,37.2325991234,137.02374592516665,679525.0727523987,4122594.6320064305
1222,[2021-02-22 15:42:40.882] $GNGGA,64240.3,3713.955945257,N,13701.424759108,E,4,12,1.08,96.948,M,37.566,M,3.3,3006*59,37.23259908761668,137.02374598513333,679525.0781574859,4122594.62814979
1223,[2021-02-22 15:42:40.992] $GNGGA,64240.4,3713.955943579,N,13701.42475809,E,4,12,1.08,96.95100000000001,M,37.566,M,3.4,3006*5D,37.232599059650006,137.02374596816665,679525.0767185583,4122594.625014529
1224,[2021-02-22 15:42:41.085] $GNGGA,64240.5,3713.9559416320003,N,13701.424758236,E,4,12,1.08,96.95200000000001,M,37.566,M,3.5,3006*5E,37.23259902720001,137.02374597060003,679525.0770114254,4122594.6214186125
1225,[2021-02-22 15:42:41.210] $GNGGA,64240.6,3713.9559411990003,N,13701.424757538001,E,4,12,1.08,96.954,M,37.566,M,3.6,3006*58,37.23259901998335,137.02374595896669,679525.0759964429,4122594.6205958114
1226,[2021-02-22 15:42:41.288] $GNGGA,64240.7,3713.955938997,N,13701.424755046,E,4,12,1.08,96.959,M,37.566,M,3.7,3006*53,37.23259898328334,137.02374591743333,679525.0723986974,4122594.6164449323
1227,[2021-02-22 15:42:41.382] $GNGGA,64240.8,3713.9559391440002,N,13701.424754228,E,4,12,1.08,96.959,M,37.566,M,3.8,3006*5F,37.23259898573334,137.0237459038,679525.0711833461,4122594.6166909146
1228,[2021-02-22 15:42:41.492] $GNGGA,64240.9,3713.955939679,N,13701.424751321001,E,4,12,1.08,96.959,M,37.566,M,3.9,3006*5B,37.23259899465,137.02374585535003,679525.0668637474,4122594.6175883743
1229,[2021-02-22 15:42:41.585] $GNGGA,64241.0,3713.955940274,N,13701.424749751,E,4,12,1.08,96.959,M,37.566,M,4.0,3006*50,37.232599004566666,137.02374582918335,679525.0645187342,4122594.6186390584
1230,[2021-02-22 15:42:41.710] $GNGGA,64241.1,3713.955941068,N,13701.424747952,E,4,12,1.08,96.955,M,37.566,M,4.1,3006*51,37.2325990178,137.02374579920001,679525.0618272412,4122594.6200505057
1231,[2021-02-22 15:42:41.788] $GNGGA,64241.2,3713.9559449340004,N,13701.424746863,E,4,12,1.08,96.955,M,37.566,M,4.2,3006*56,37.23259908223334,137.02374578105,679525.0600641347,4122594.6271653674
1232,[2021-02-22 15:42:41.882] $GNGGA,64241.3,3713.9559470890003,N,13701.424746126,E,4,12,1.08,96.95,M,37.566,M,4.3,3006*57,37.23259911815001,137.02374576876667,679525.0588891635,4122594.631127248
1233,[2021-02-22 15:42:41.991] $GNGGA,64241.4,3713.95594689,N,13701.424746785,E,4,12,1.08,96.954,M,37.566,M,4.4,3006*5D,37.23259911483334,137.02374577975,679525.0598714636,4122594.630780076
1234,[2021-02-22 15:42:42.085] $GNGGA,64241.5,3713.95594639,N,13701.424748259,E,4,12,1.08,96.954,M,37.566,M,4.5,3006*5C,37.2325991065,137.0237458043167,679525.0620707702,4122594.6299020373
1235,[2021-02-22 15:42:42.210] $GNGGA,64241.6,3713.955946311,N,13701.424748738,E,4,12,1.08,96.95299999999999,M,37.566,M,4.6,3006*50,37.232599105183326,137.0237458123,679525.0627821679,4122594.6297710864
1236,[2021-02-22 15:42:42.288] $GNGGA,64241.7,3713.9559444909996,N,13701.424750621001,E,4,12,1.08,96.95100000000001,M,37.566,M,4.7,3006*5F,37.23259907485,137.02374584368334,679525.0656384337,4122594.6264649415
1237,[2021-02-22 15:42:42.382] $GNGGA,64241.8,3713.955941107,N,13701.424750805,E,4,12,1.08,96.95299999999999,M,37.566,M,4.8,3006*5A,37.232599018449996,137.02374584675002,679525.0660443008,4122594.620212822
1238,[2021-02-22 15:42:42.491] $GNGGA,64241.9,3713.955940122,N,13701.424751475,E,4,12,1.08,96.954,M,37.566,M,4.9,3006*51,37.23259900203333,137.02374585791665,679525.0670739419,4122594.61841247
1239,[2021-02-22 15:42:42.601] $GNGGA,64242.0,3713.955941264,N,13701.424752414,E,4,12,1.08,96.956,M,37.566,M,5.0,3006*55,37.232599021066676,137.02374587356664,679525.0684172452,4122594.620554025
1240,[2021-02-22 15:42:42.679] $GNGGA,64242.1,3713.955940835,N,13701.424754181999,E,4,12,1.08,96.955,M,37.566,M,5.1,3006*55,37.23259901391667,137.02374590303333,679525.0710484702,4122594.61981658
1241,[2021-02-22 15:42:42.788] $GNGGA,64242.2,3713.9559396520003,N,13701.424753905,E,4,12,1.08,96.95299999999999,M,37.566,M,5.2,3006*52,37.23259899420001,137.02374589841665,679525.0706856537,4122594.617620136
1242,[2021-02-22 15:42:42.882] $GNGGA,64242.3,3713.95593889,N,13701.424754771999,E,4,12,1.08,96.956,M,37.566,M,5.3,3006*5F,37.232598981500004,137.02374591286662,679525.0719977722,4122594.6162383975
1243,[2021-02-22 15:42:43.007] $GNGGA,64242.4,3713.955938106,N,13701.424756632,E,4,12,1.08,96.95700000000001,M,37.566,M,5.4,3006*5F,37.23259896843333,137.02374594386666,679525.0747790692,4122594.61484737
1244,[2021-02-22 15:42:43.085] $GNGGA,64242.5,3713.9559369390004,N,13701.424757215,E,4,12,1.08,96.956,M,37.566,M,5.5,3006*54,37.232598948983345,137.02374595358333,679525.0756872653,4122594.612707702
1245,[2021-02-22 15:42:43.179] $GNGGA,64242.6,3713.955935104,N,13701.424757051002,E,4,12,1.08,96.961,M,37.566,M,5.6,3006*57,37.2325989184,137.02374595085,679525.0755173209,4122594.609309102
1246,[2021-02-22 15:42:43.288] $GNGGA,64242.7,3713.955937278,N,13701.424755699,E,4,12,1.08,96.958,M,37.566,M,5.7,3006*57,37.23259895463333,137.02374592831666,679525.0734322228,4122594.6132866777
1247,[2021-02-22 15:42:43.413] $GNGGA,64242.8,3713.955937716,N,13701.424754988999,E,4,12,1.08,96.96,M,37.566,M,5.8,3006*5E,37.23259896193333,137.02374591648334,679525.0723650622,4122594.6140742125
1248,[2021-02-22 15:42:43.491] $GNGGA,64242.9,3713.9559399809996,N,13701.424753648998,E,4,12,1.08,96.964,M,37.566,M,5.9,3006*50,37.232598999683326,137.02374589414998,679525.0702941095,4122594.6182204504
1249,[2021-02-22 15:42:43.585] $GNGGA,64243.0,3713.955941582,N,13701.424751633,E,4,12,1.08,96.95299999999999,M,37.566,M,6.0,3006*59,37.23259902636667,137.02374586054998,679525.0672498435,4122594.621117403
1250,[2021-02-22 15:42:43.694] $GNGGA,64243.1,3713.9559441240003,N,13701.424750368999,E,4,12,1.08,96.955,M,37.566,M,6.1,3006*59,37.232599068733336,137.0237458394833,679525.0652803174,4122594.6257782923
1251,[2021-02-22 15:42:43.804] $GNGGA,64243.2,3713.9559469990004,N,13701.424747869,E,4,12,1.08,96.947,M,37.566,M,6.2,3006*5B,37.23259911665001,137.02374579781664,679525.0614700133,4122594.631015916
1252,[2021-02-22 15:42:43.882] $GNGGA,64243.3,3713.9559483020003,N,13701.424747108998,E,4,12,1.08,96.944,M,37.566,M,6.3,3006*51,37.232599138366666,137.02374578514997,679525.0602947182,4122594.633401491
1253,[2021-02-22 15:42:43.991] $GNGGA,64243.4,3713.9559488890004,N,13701.424745995,E,4,12,1.08,96.941,M,37.566,M,6.4,3006*53,37.23259914815,137.02374576658335,679525.058624292,4122594.6344517954
1254,[2021-02-22 15:42:44.085] $GNGGA,64243.5,3713.955950355,N,13701.424743778001,E,4,12,1.08,96.94,M,37.566,M,6.5,3006*5A,37.23259917258333,137.02374572963333,679525.0552881529,4122594.637092741
1255,[2021-02-22 15:42:44.210] $GNGGA,64243.6,3713.955948933,N,13701.424745118999,E,4,12,1.08,96.935,M,37.566,M,6.6,3006*5C,37.23259914888333,137.0237457519833,679525.0573272496,4122594.63450547
1256,[2021-02-22 15:42:44.288] $GNGGA,64243.7,3713.955947783,N,13701.424744206,E,4,12,1.08,96.935,M,37.566,M,6.7,3006*5A,37.23259912971666,137.02374573676667,679525.0560227064,4122594.6323499433
1257,[2021-02-22 15:42:44.382] $GNGGA,64243.8,3713.955949016,N,13701.42474321,E,4,12,1.08,96.93299999999999,M,37.566,M,6.8,3006*59,37.23259915026666,137.0237457201667,679525.0545012191,4122594.6345986067
1258,[2021-02-22 15:42:44.491] $GNGGA,64243.9,3713.955950165,N,13701.424739027,E,4,12,1.08,96.925,M,37.566,M,6.9,3006*58,37.232599169416666,137.02374565044997,679525.0482705748,4122594.636591182
1259,[2021-02-22 15:42:44.601] $GNGGA,64244.0,3713.955950058,N,13701.424738697,E,4,12,1.08,96.925,M,37.566,M,7.0,3006*5D,37.23259916763333,137.02374564495,679525.0477868521,4122594.6363828764
1260,[2021-02-22 15:42:44.679] $GNGGA,64244.1,3713.955951977,N,13701.424736155,E,4,12,1.08,96.929,M,37.566,M,7.1,3006*53,37.23259919961667,137.02374560258338,679525.0439522446,4122594.6398512693
1261,[2021-02-22 15:42:44.788] $GNGGA,64244.2,3713.9559527429997,N,13701.424734908,E,4,12,1.08,96.931,M,37.566,M,7.2,3006*52,37.23259921238333,137.0237455818,679525.0420780734,4122594.6412283876
1262,[2021-02-22 15:42:44.882] $GNGGA,64244.3,3713.955954265,N,13701.424734868,E,4,12,1.08,96.93700000000001,M,37.566,M,7.3,3006*54,37.232599237749994,137.0237455811333,679525.0419587487,4122594.644041715
1263,[2021-02-22 15:42:44.991] $GNGGA,64244.4,3713.955956794,N,13701.424733166,E,4,11,1.11,96.936,M,37.566,M,7.4,3006*57,37.23259927989999,137.02374555276668,679525.0393420919,4122594.6486647185
1264,[2021-02-22 15:42:45.101] $GNGGA,64244.5,3713.955956349,N,13701.424735421999,E,4,12,1.08,96.926,M,37.566,M,7.5,3006*5A,37.23259927248334,137.02374559036662,679525.0426955244,4122594.647913115
1265,[2021-02-22 15:42:45.179] $GNGGA,64244.6,3713.955955855,N,13701.424736678,E,4,12,1.08,96.929,M,37.566,M,7.6,3006*5E,37.23259926425,137.02374561130003,679525.0445722535,4122594.6470392793
1266,[2021-02-22 15:42:45.288] $GNGGA,64244.7,3713.9559554909997,N,13701.424737418001,E,4,12,1.08,96.929,M,37.566,M,7.7,3006*5F,37.23259925818332,137.02374562363335,679525.0456808464,4122594.646389537
1267,[2021-02-22 15:42:45.382] $GNGGA,64244.8,3713.95595561,N,13701.424739379,E,4,12,1.08,96.92,M,37.566,M,7.8,3006*53,37.23259926016666,137.02374565631663,679525.0485757801,4122594.646671596
1268,[2021-02-22 15:42:45.491] $GNGGA,64244.9,3713.955953936,N,13701.424741047,E,4,11,1.13,96.915,M,37.566,M,7.9,3006*50,37.232599232266665,137.02374568411668,679525.0511083641,4122594.6436286466
1269,[2021-02-22 15:42:45.601] $GNGGA,64245.0,3713.955955327,N,13701.424738278001,E,4,11,1.13,96.919,M,37.566,M,8.0,3006*5E,37.232599255450005,137.0237456379667,679525.0469589757,4122594.6461134464
1270,[2021-02-22 15:42:45.679] $GNGGA,64245.1,3713.9559562809995,N,13701.42473748,E,4,12,1.08,96.91799999999999,M,37.566,M,3.1,3006*5D,37.23259927134999,137.02374562466665,679525.0457412852,4122594.647852423
1271,[2021-02-22 15:42:45.788] $GNGGA,64245.2,3713.955914108,N,13701.424719203,E,4,12,1.08,97.001,M,37.566,M,3.2,3006*58,37.23259856846666,137.02374532004998,679525.0203833338,4122594.5692852726
1272,[2021-02-22 15:42:45.882] $GNGGA,64245.3,3713.955952156,N,13701.42473862,E,4,12,1.08,96.943,M,37.566,M,3.3,3006*59,37.23259920260001,137.02374564366667,679525.0475900455,4122594.640260217
1273,[2021-02-22 15:42:45.991] $GNGGA,64245.4,3713.9559546009996,N,13701.424737988998,E,4,12,1.08,96.927,M,37.566,M,3.4,3006*5B,37.232599243349995,137.02374563314996,679525.0465603429,4122594.644761737
1274,[2021-02-22 15:42:46.101] $GNGGA,64245.5,3713.9559526479998,N,13701.424742172,E,4,12,1.08,96.92399999999999,M,37.566,M,3.5,3006*5D,37.2325992108,137.02374570286668,679525.0528227752,4122594.6412823503
1275,[2021-02-22 15:42:46.179] $GNGGA,64245.6,3713.955955497,N,13701.424739838001,E,4,10,1.15,96.936,M,37.566,M,3.6,3006*5C,37.23259925828333,137.02374566396668,679525.0492589544,4122594.646477139
1276,[2021-02-22 15:42:46.288] $GNGGA,64245.7,3713.955948349,N,13701.424740396002,E,4,12,1.08,96.98,M,37.566,M,3.7,3006*56,37.232599139150004,137.0237456732667,679525.0503666569,4122594.6332761827
1277,[2021-02-22 15:42:46.382] $GNGGA,64245.8,3713.955954122,N,13701.424736722,E,4,10,1.15,96.945,M,37.566,M,3.8,3006*59,37.23259923536667,137.02374561203334,679525.0447058305,4122594.643835882
1278,[2021-02-22 15:42:46.491] $GNGGA,64245.9,3713.955952049,N,13701.424736295,E,4,12,1.08,96.944,M,37.566,M,3.9,3006*55,37.23259920081667,137.02374560491666,679525.0441564049,4122594.6399888434
1279,[2021-02-22 15:42:46.601] $GNGGA,64246.0,3713.955953111,N,13701.424733198,E,4,12,1.08,96.94,M,37.566,M,4.0,3006*53,37.23259921851666,137.02374555330002,679525.0395350261,4122594.6418548613
1280,[2021-02-22 15:42:46.679] $GNGGA,64246.1,3713.955952914,N,13701.424732737,E,4,12,1.08,96.93799999999999,M,37.566,M,4.1,3006*52,37.232599215233336,137.02374554561663,679525.0388611511,4122594.6414759816
1281,[2021-02-22 15:42:46.788] $GNGGA,64246.2,3713.955953703,N,13701.424733868,E,4,12,1.08,96.929,M,37.566,M,4.2,3006*5F,37.232599228383336,137.02374556446668,679525.0405023166,4122594.6429708116
1282,[2021-02-22 15:42:46.882] $GNGGA,64246.3,3713.9559549409996,N,13701.424732008001,E,4,12,1.08,96.928,M,37.566,M,4.3,3006*5E,37.23259924901666,137.0237455334667,679525.0377030742,4122594.645201409
1283,[2021-02-22 15:42:47.007] $GNGGA,64246.4,3713.955955839,N,13701.424731113,E,4,10,1.11,96.916,M,37.566,M,4.4,3006*5E,37.23259926398334,137.02374551855,679525.0363441708,4122594.6468337616
1284,[2021-02-22 15:42:47.085] $GNGGA,64246.5,3713.955959163,N,13701.424729882,E,4,10,1.11,96.91,M,37.566,M,4.5,3006*5A,37.232599319383326,137.0237454980333,679525.0343925204,4122594.6529418235
1285,[2021-02-22 15:42:47.179] $GNGGA,64246.6,3713.955960846,N,13701.424729874,E,4,10,1.11,96.90799999999999,M,37.566,M,4.6,3006*5E,37.23259934743333,137.0237454979,679525.0343141544,4122594.656053896
1286,[2021-02-22 15:42:47.288] $GNGGA,64246.7,3713.955962384,N,13701.424729714,E,4,10,1.11,96.90299999999999,M,37.566,M,4.7,3006*5B,37.23259937306667,137.02374549523333,679525.0340167601,4122594.65889302
1287,[2021-02-22 15:42:47.413] $GNGGA,64246.8,3713.9559624179997,N,13701.424731785,E,4,12,1.08,96.90100000000001,M,37.566,M,4.8,3006*50,37.23259937363333,137.02374552975,679525.0370777077,4122594.659021366
1288,[2021-02-22 15:42:47.491] $GNGGA,64246.9,3713.9559237159997,N,13701.424711163001,E,4,12,1.08,96.97399999999999,M,37.566,M,4.9,3006*56,37.2325987286,137.02374518605,679525.0081150784,4122594.5867989045
1289,[2021-02-22 15:42:47.585] $GNGGA,64247.0,3713.95596189,N,13701.424732205,E,4,12,1.08,96.891,M,37.566,M,5.0,3006*59,37.23259936483333,137.02374553674997,679525.0377196178,4122594.658058226
1290,[2021-02-22 15:42:47.694] $GNGGA,64247.1,3713.955925058,N,13701.424714556,E,4,12,1.08,96.979,M,37.566,M,5.1,3006*57,37.232598750966666,137.0237452426,679525.0130790942,4122594.5893878913
1291,[2021-02-22 15:42:47.804] $GNGGA,64247.2,3713.95593586,N,13701.424736381001,E,4,12,1.08,97.00200000000001,M,37.566,M,5.2,3006*5D,37.23259893099999,137.02374560635,679525.0449236418,4122594.6100536953
1292,[2021-02-22 15:42:47.882] $GNGGA,64247.3,3713.95592182,N,13701.424714311,E,4,12,1.08,96.98899999999999,M,37.566,M,5.3,3006*5E,37.232598697,137.02374523851665,679525.0128448448,4122594.583392204
1293,[2021-02-22 15:42:47.991] $GNGGA,64247.4,3713.9559328309997,N,13701.424734491002,E,4,12,1.08,97.007,M,37.566,M,5.4,3006*5F,37.23259888051667,137.02374557485004,679525.0422487475,4122594.6043925025
1294,[2021-02-22 15:42:48.085] $GNGGA,64247.5,3713.9559585159996,N,13701.424733738999,E,4,11,1.11,96.911,M,37.566,M,5.5,3006*59,37.23259930859999,137.02374556231663,679525.0401212736,4122594.6518672775
1295,[2021-02-22 15:42:48.210] $GNGGA,64247.6,3713.955959303,N,13701.424732407,E,4,11,1.11,96.911,M,37.566,M,5.6,3006*55,37.23259932171667,137.02374554011666,679525.0381205906,4122594.653280548
1296,[2021-02-22 15:42:48.288] $GNGGA,64247.7,3713.9559596179997,N,13701.424733125,E,4,11,1.11,96.917,M,37.566,M,5.7,3006*58,37.232599326966664,137.02374555208334,679525.0391698129,4122594.6538857664
1297,[2021-02-22 15:42:48.382] $GNGGA,64247.8,3713.9559601779997,N,13701.424733155,E,4,11,1.11,96.911,M,37.566,M,5.8,3006*52,37.2325993363,137.02374555258334,679525.0391920302,4122594.654922307
1298,[2021-02-22 15:42:48.491] $GNGGA,64247.9,3713.955962738,N,13701.42473114,E,4,12,1.08,96.921,M,37.566,M,5.9,3006*5C,37.23259937896667,137.023745519,679525.0361113241,4122594.659592742
1299,[2021-02-22 15:42:48.600] $GNGGA,64248.0,3713.955951455,N,13701.424735806,E,4,12,1.08,96.869,M,37.566,M,6.0,3006*5A,37.232599190916666,137.02374559676667,679525.04345683,4122594.6388749164
1300,[2021-02-22 15:42:48.679] $GNGGA,64248.1,3713.95592307,N,13701.424713591,E,4,12,1.08,96.984,M,37.566,M,6.1,3006*59,37.23259871783333,137.0237452265167,679525.0117307937,4122594.585681031
1301,[2021-02-22 15:42:48.788] $GNGGA,64248.2,3713.9559202459996,N,13701.424715815,E,4,12,1.08,96.979,M,37.566,M,6.2,3006*58,37.232598670766656,137.02374526358332,679525.015130973,4122594.5805289955
1302,[2021-02-22 15:42:48.882] $GNGGA,64248.3,3713.955947002,N,13701.424734891001,E,4,12,1.08,96.9,M,37.566,M,6.3,3006*5A,37.232599116699994,137.02374558151666,679525.0422799195,4122594.6306111803
1303,[2021-02-22 15:42:49.007] $GNGGA,64248.4,3713.9559535659996,N,13701.424732954,E,4,12,1.08,96.895,M,37.566,M,6.4,3006*5B,37.2325992261,137.0237455492333,679525.0391562389,4122594.642688567
1304,[2021-02-22 15:42:49.085] $GNGGA,64248.5,3713.95591772,N,13701.424715697,E,4,12,1.08,96.97,M,37.566,M,6.5,3006*54,37.232598628666665,137.02374526161665,679525.0150563624,4122594.5758540044
1305,[2021-02-22 15:42:49.179] $GNGGA,64248.6,3713.9559528990003,N,13701.42473643,E,4,12,1.08,96.9,M,37.566,M,6.6,3006*51,37.232599214983345,137.0237456071667,679525.0443224186,4122594.641564993
1306,[2021-02-22 15:42:49.288] $GNGGA,64248.7,3713.9559520659996,N,13701.42473569,E,4,12,1.08,96.895,M,37.566,M,6.7,3006*5F,37.23259920109999,137.02374559483334,679525.0432611476,4122594.6400011526
1307,[2021-02-22 15:42:49.382] $GNGGA,64248.8,3713.955951812,N,13701.424734463,E,4,12,1.08,96.89299999999999,M,37.566,M,6.8,3006*5E,37.23259919686667,137.02374557438336,679525.0414568833,4122594.639492649
1308,[2021-02-22 15:42:49.507] $GNGGA,64248.9,3713.955950305,N,13701.42473563,E,4,12,1.08,96.904,M,37.566,M,6.9,3006*58,37.23259917175,137.02374559383333,679525.0432420522,4122594.6367426882
1309,[2021-02-22 15:42:49.585] $GNGGA,64249.0,3713.955951826,N,13701.424733556001,E,4,12,1.08,96.90799999999999,M,37.566,M,7.0,3006*5A,37.2325991971,137.0237455592667,679525.0401151902,4122594.639489865
1310,[2021-02-22 15:42:49.678] $GNGGA,64249.1,3713.95595249,N,13701.424733793001,E,4,12,1.08,96.912,M,37.566,M,2.1,3006*5D,37.23259920816667,137.0237455632167,679525.040439378,4122594.640725275
1311,[2021-02-22 15:42:49.788] $GNGGA,64249.2,3713.9559527990004,N,13701.424735018001,E,4,12,1.08,96.91799999999999,M,37.566,M,2.2,3006*5F,37.23259921331667,137.02374558363334,679525.0422385103,4122594.6413354264
1312,[2021-02-22 15:42:49.882] $GNGGA,64249.3,3713.9559521009996,N,13701.424736076002,E,4,12,1.08,96.92,M,37.566,M,2.3,3006*58,37.232599201683335,137.02374560126668,679525.0438305255,4122594.640078082
1313,[2021-02-22 15:42:50.007] $GNGGA,64249.4,3713.955951772,N,13701.42473576,E,4,12,1.08,96.92200000000001,M,37.566,M,2.4,3006*58,37.232599196200006,137.023745596,679525.043376276,4122594.639459681
1314,[2021-02-22 15:42:50.085] $GNGGA,64249.5,3713.955953472,N,13701.424736365,E,4,12,1.08,96.925,M,37.566,M,2.5,3006*5C,37.23259922453333,137.0237456060833,679525.0442036476,4122594.642622569
1315,[2021-02-22 15:42:50.178] $GNGGA,64249.6,3713.955954168,N,13701.42473578,E,4,12,1.08,96.927,M,37.566,M,2.6,3006*5B,37.23259923613333,137.02374559633333,679525.0433111187,4122594.643891168
1316,[2021-02-22 15:42:50.288] $GNGGA,64249.7,3713.955953648,N,13701.424735169,E,4,12,1.08,96.926,M,37.566,M,2.7,3006*59,37.232599227466665,137.02374558614997,679525.0424282168,4122594.642910231
1317,[2021-02-22 15:42:50.382] $GNGGA,64249.8,3713.955952803,N,13701.424737364,E,4,12,1.08,96.926,M,37.566,M,2.8,3006*54,37.23259921338333,137.02374562273332,679525.045707274,4122594.6414169883
1318,[2021-02-22 15:42:50.507] $GNGGA,64249.9,3713.9559532079998,N,13701.424737749,E,4,12,1.08,96.929,M,37.566,M,2.9,3006*50,37.23259922013333,137.02374562915,679525.0462605444,4122594.642178114
1319,[2021-02-22 15:42:50.585] $GNGGA,64250.0,3713.9559514109997,N,13701.424739138998,E,4,12,1.08,96.928,M,37.566,M,3.0,3006*5B,37.23259919018333,137.02374565231662,679525.0483869193,4122594.6388989156
1320,[2021-02-22 15:42:50.678] $GNGGA,64250.1,3713.95594899,N,13701.424741065,E,4,12,1.08,96.932,M,37.566,M,3.1,3006*5B,37.23259914983333,137.02374568441667,679525.0513305316,4122594.6344827153
1321,[2021-02-22 15:42:50.788] $GNGGA,64250.2,3713.9559504020003,N,13701.424740741999,E,4,12,1.08,96.926,M,37.566,M,3.2,3006*52,37.23259917336668,137.0237456790333,679525.0507970972,4122594.6370836785
1322,[2021-02-22 15:42:50.882] $GNGGA,64250.3,3713.9559500170003,N,13701.424739463,E,4,12,1.08,96.928,M,37.566,M,3.3,3006*52,37.23259916695,137.02374565771666,679525.0489211228,4122594.6363312732
1323,[2021-02-22 15:42:51.006] $GNGGA,64250.4,3713.955951625,N,13701.42473704,E,4,12,1.08,96.932,M,37.566,M,3.4,3006*54,37.232599193750005,137.02374561733333,679525.0452747655,4122594.6392283035
1324,[2021-02-22 15:42:51.085] $GNGGA,64250.5,3713.955955655,N,13701.424734136,E,4,12,1.08,96.93299999999999,M,37.566,M,3.5,3006*55,37.232599260916665,137.02374556893335,679525.040821419,4122594.6465890636
1325,[2021-02-22 15:42:51.178] $GNGGA,64250.6,3713.9559540590003,N,13701.424735491,E,4,12,1.08,96.93700000000001,M,37.566,M,3.6,3006*53,37.232599234316666,137.02374559151667,679525.0428880979,4122594.6436804608
1326,[2021-02-22 15:42:51.288] $GNGGA,64250.7,3713.955952573,N,13701.42473179,E,4,12,1.08,96.939,M,37.566,M,3.7,3006*50,37.23259920955,137.02374552983335,679525.0374743517,4122594.6408154415
1327,[2021-02-22 15:42:51.413] $GNGGA,64250.8,3713.955950384,N,13701.424729994,E,4,12,1.08,96.94,M,37.566,M,3.8,3006*51,37.23259917306666,137.0237454999,679525.0349052327,4122594.636710606
1328,[2021-02-22 15:42:51.491] $GNGGA,64250.9,3713.9559499029997,N,13701.42472915,E,4,12,1.08,96.939,M,37.566,M,3.9,3006*52,37.23259916505,137.02374548583333,679525.0336762673,4122594.635794424
1329,[2021-02-22 15:42:51.585] $GNGGA,64251.0,3713.955948477,N,13701.424725488001,E,4,12,1.08,96.936,M,37.566,M,4.0,3006*58,37.23259914128334,137.02374542480004,679525.028317819,4122594.6330415932
1330,[2021-02-22 15:42:51.694] $GNGGA,64251.1,3713.955951037,N,13701.42472251,E,4,11,1.21,96.934,M,37.566,M,4.1,3006*5D,37.23259918395,137.02374537516667,679525.0238131669,4122594.6376815853
1331,[2021-02-22 15:42:51.803] $GNGGA,64251.2,3713.955950666,N,13701.424719991,E,4,11,1.21,96.93299999999999,M,37.566,M,4.2,3006*54,37.232599177766666,137.02374533318337,679525.0201031081,4122594.636915871
1332,[2021-02-22 15:42:51.881] $GNGGA,64251.3,3713.9559513209997,N,13701.424714746001,E,4,11,1.21,96.928,M,37.566,M,4.3,3006*50,37.232599188683324,137.02374524576666,679525.0123216653,4122594.637961328
1333,[2021-02-22 15:42:51.991] $GNGGA,64251.4,3713.955952399,N,13701.424714777,E,4,11,1.21,96.92299999999999,M,37.566,M,4.4,3006*59,37.23259920665,137.0237452462833,679525.0123248806,4122594.6399558247
1334,[2021-02-22 15:42:52.085] $GNGGA,64251.5,3713.955953415,N,13701.424716981,E,4,11,1.21,96.926,M,37.566,M,4.5,3006*5B,37.23259922358333,137.02374528301667,679525.015543666,4122594.64190436
1335,[2021-02-22 15:42:52.209] $GNGGA,64251.6,3713.955952649,N,13701.424719568999,E,4,11,1.21,96.919,M,37.566,M,4.6,3006*58,37.23259921081667,137.02374532615,679525.0194007093,4122594.640569635
1336,[2021-02-22 15:42:52.288] $GNGGA,64251.7,3713.955951418,N,13701.424725838,E,4,11,1.21,96.92200000000001,M,37.566,M,4.7,3006*53,37.2325991903,137.02374543063334,679525.0287190643,4122594.638491367
1337,[2021-02-22 15:42:52.381] $GNGGA,64251.8,3713.955947821,N,13701.424734372,E,4,11,1.21,96.925,M,37.566,M,4.8,3006*50,37.232599130349996,137.02374557286666,679525.0414801155,4122594.632109327
1338,[2021-02-22 15:42:52.491] $GNGGA,64251.9,3713.955943459,N,13701.424742832,E,4,11,1.21,96.926,M,37.566,M,4.9,3006*5A,37.23259905765,137.02374571386667,679525.0541619959,4122594.6243102537
1339,[2021-02-22 15:42:52.600] $GNGGA,64252.0,3713.955940869,N,13701.424748577,E,4,11,1.21,96.931,M,37.566,M,5.0,3006*54,37.23259901448334,137.02374580961666,679525.0627592666,4122594.619702262
1340,[2021-02-22 15:42:52.678] $GNGGA,64252.1,3713.955939678,N,13701.424752133,E,4,11,1.21,96.935,M,37.566,M,5.1,3006*5F,37.232598994633335,137.0237458688833,679525.06806445,4122594.617612195
1341,[2021-02-22 15:42:52.788] $GNGGA,64252.2,3713.955939006,N,13701.424758801,E,4,11,1.21,96.939,M,37.566,M,5.2,3006*5E,37.232598983433334,137.02374598001666,679525.0779506874,4122594.616580284
1342,[2021-02-22 15:42:52.881] $GNGGA,64252.3,3713.955938733,N,13701.424766285,E,4,11,1.21,96.941,M,37.566,M,5.3,3006*5A,37.23259897888334,137.02374610474996,679525.089027729,4122594.6163120307
1343,[2021-02-22 15:42:53.006] $GNGGA,64252.4,3713.9559377940004,N,13701.424771906999,E,4,11,1.21,96.948,M,37.566,M,5.4,3006*56,37.232598963233336,137.02374619845,679525.0973778525,4122594.6147532966
1344,[2021-02-22 15:42:53.084] $GNGGA,64252.5,3713.955938202,N,13701.424776352,E,4,11,1.21,96.946,M,37.566,M,5.5,3006*50,37.23259897003334,137.02374627253332,679525.1039343382,4122594.6156483223
1345,[2021-02-22 15:42:53.178] $GNGGA,64252.6,3713.955939027,N,13701.424778558001,E,4,11,1.21,96.948,M,37.566,M,5.6,3006*58,37.23259898378333,137.0237463093,679525.1071636346,4122594.6172437104
1346,[2021-02-22 15:42:53.288] $GNGGA,64252.7,3713.955925959,N,13701.424780913001,E,4,12,1.08,96.948,M,37.566,M,5.7,3006*59,37.23259876598333,137.02374634855002,679525.1111625421,4122594.593151876
1347,[2021-02-22 15:42:53.413] $GNGGA,64252.8,3713.955922146,N,13701.424783367,E,4,12,1.08,96.995,M,37.566,M,5.8,3006*52,37.23259870243333,137.02374638945,679525.1149419143,4122594.58617818
1348,[2021-02-22 15:42:53.491] $GNGGA,64252.9,3713.9559279759997,N,13701.424788336,E,4,12,1.08,96.95100000000001,M,37.566,M,5.9,3006*5B,37.23259879959999,137.02374647226668,679525.1220588458,4122594.597116523
1349,[2021-02-22 15:42:53.584] $GNGGA,64253.0,3713.955927696,N,13701.424794747,E,4,12,1.08,96.958,M,37.566,M,6.0,3006*5E,37.23259879493333,137.02374657911665,679525.1315495671,4122594.5968014034
1350,[2021-02-22 15:42:53.694] $GNGGA,64253.1,3713.955903968,N,13701.424776398999,E,4,12,1.08,97.04,M,37.566,M,6.1,3006*5C,37.23259839946666,137.02374627331668,679525.1053573638,4122594.552341829
1351,[2021-02-22 15:42:53.788] $GNGGA,64253.2,3713.955902178,N,13701.424778937,E,4,12,1.08,97.044,M,37.566,M,6.2,3006*50,37.23259836963334,137.02374631561665,679525.1091809589,4122594.549111869
1352,[2021-02-22 15:42:53.912] $GNGGA,64253.3,3713.955942205,N,13701.424801106,E,4,12,1.08,96.98,M,37.566,M,6.3,3006*56,37.232599036749995,137.0237466851,679525.1403786831,4122594.623833522
1353,[2021-02-22 15:42:53.991] $GNGGA,64253.4,3713.955898576,N,13701.424778146002,E,4,12,1.08,97.056,M,37.566,M,6.4,3006*55,37.23259830959999,137.02374630243338,679525.1081537628,4122594.542425784
1354,[2021-02-22 15:42:54.084] $GNGGA,64253.5,3713.9558963679997,N,13701.424774652,E,4,12,1.08,97.05799999999999,M,37.566,M,6.5,3006*52,37.23259827279999,137.0237462442,679525.1030746384,4122594.538232132
1355,[2021-02-22 15:42:54.194] $GNGGA,64253.6,3713.955895666,N,13701.42476999,E,4,12,1.08,97.059,M,37.566,M,6.6,3006*56,37.232598261099994,137.02374616650002,679525.0962089105,4122594.536786562
1356,[2021-02-22 15:42:54.288] $GNGGA,64253.7,3713.955893662,N,13701.424764885,E,4,12,1.08,97.061,M,37.566,M,6.7,3006*57,37.232598227699995,137.02374608141665,679525.0887396091,4122594.5329192323
1357,[2021-02-22 15:42:54.412] $GNGGA,64253.8,3713.95589195,N,13701.424757306999,E,4,12,1.08,97.06299999999999,M,37.566,M,6.8,3006*58,37.23259819916666,137.02374595511662,679525.0776020515,4122594.5295137097
1358,[2021-02-22 15:42:54.491] $GNGGA,64253.9,3713.9558930209996,N,13701.424755631999,E,4,12,1.08,97.06299999999999,M,37.566,M,6.9,3006*54,37.23259821701666,137.02374592719997,679525.0750829626,4122594.5314413277
1359,[2021-02-22 15:42:54.584] $GNGGA,64254.0,3713.955935305,N,13701.424774701001,E,4,12,1.08,96.99,M,37.566,M,7.0,3006*5C,37.23259892175,137.0237462450167,679525.1016076251,4122594.610238787
