,Format,Time,Latitude,LatType,Longitude,LonType,Status,Satellite,LevelAccuracy,Altitude(sea),M(sea),Altitude(geoid),M(geoid),DGPS use,checksum,Lat,Lon,UTM_X,UTM_Y
365,[2021-02-22 15:35:20.182] $GNGGA,63519.6,3713.955292662,N,13701.426071121,E,4,5,1.46,96.512,M,37.566,M,57.6,2006*6D,37.23258821103333,137.02376785201668,679527.0439735381,4122593.4628019035
366,[2021-02-22 15:35:20.307] $GNGGA,63519.7,3713.9553615409995,N,13701.426178159,E,4,5,1.46,96.665,M,37.566,M,57.7,2006*66,37.23258935901666,137.0237696359833,679527.1995224367,4122593.5935618114
367,[2021-02-22 15:35:20.385] $GNGGA,63519.8,3713.95536225,N,13701.426175195,E,4,5,1.46,96.65899999999999,M,37.566,M,57.8,2006*60,37.232589370833324,137.0237695865833,679527.1951116703,4122593.5947792414
368,[2021-02-22 15:35:20.495] $GNGGA,63519.9,3713.9553578709997,N,13701.426169888,E,4,5,1.46,96.65100000000001,M,37.566,M,57.9,2006*6F,37.23258929785,137.02376949813333,679527.1874375888,4122593.5865135053
369,[2021-02-22 15:35:20.589] $GNGGA,63520.0,3713.955359056,N,13701.426172276999,E,4,5,1.46,96.64399999999999,M,37.566,M,58.0,2006*6D,37.232589317599995,137.02376953795,679527.1909232409,4122593.5887804185
370,[2021-02-22 15:35:20.713] $GNGGA,63520.1,3713.955357416,N,13701.426169343998,E,4,5,1.46,96.637,M,37.566,M,58.1,2006*6C,37.23258929026666,137.02376948906664,679527.1866511882,4122593.5856548874
371,[2021-02-22 15:35:20.792] $GNGGA,63520.2,3713.955351729,N,13701.426164181,E,4,5,1.46,96.62799999999999,M,37.566,M,58.2,2006*6D,37.23258919548334,137.02376940301667,679527.1792417505,4122593.574974856
372,[2021-02-22 15:35:20.885] $GNGGA,63520.3,3713.955346483,N,13701.426153638999,E,4,5,1.46,96.62200000000001,M,37.566,M,58.3,2006*62,37.23258910805,137.02376922731665,679527.1638611876,4122593.5649403
373,[2021-02-22 15:35:20.995] $GNGGA,63520.4,3713.955340595,N,13701.426145816002,E,4,5,1.46,96.615,M,37.566,M,58.4,2006*62,37.23258900991667,137.02376909693334,679527.1525264725,4122593.55380447
374,[2021-02-22 15:35:21.089] $GNGGA,63520.5,3713.955339631,N,13701.426141797,E,4,5,1.46,96.602,M,37.566,M,58.5,2006*65,37.23258899385,137.02376902995002,679527.1466218776,4122593.551894715
375,[2021-02-22 15:35:21.213] $GNGGA,63520.6,3713.95533569,N,13701.426135263,E,4,5,1.46,96.596,M,37.566,M,58.6,2006*61,37.23258892816667,137.02376892105,679527.1371161647,4122593.5444001667
376,[2021-02-22 15:35:21.292] $GNGGA,63520.7,3713.955332438,N,13701.426131206,E,4,5,1.46,96.59,M,37.566,M,58.7,2006*67,37.23258887396666,137.02376885343332,679527.1312458388,4122593.5382580752
377,[2021-02-22 15:35:21.385] $GNGGA,63520.8,3713.955332393,N,13701.426134256,E,4,10,0.92,96.585,M,37.566,M,58.8,2006*69,37.23258887321667,137.02376890426666,679527.1357575165,4122593.5382712814
378,[2021-02-22 15:35:21.495] $GNGGA,63520.9,3713.955262064,N,13701.425934448998,E,4,12,0.85,96.06299999999999,M,37.566,M,58.9,2006*6C,37.23258770106667,137.02376557414996,679526.8430926304,4122593.401897131
379,[2021-02-22 15:35:21.588] $GNGGA,63521.0,3713.955268984,N,13701.425935403999,E,4,14,0.84,96.054,M,37.566,M,59.0,2006*6A,37.232587816400006,137.02376559006663,679526.8442311434,4122593.4147242843
380,[2021-02-22 15:35:21.713] $GNGGA,63521.1,3713.955239385,N,13701.425915016001,E,4,14,0.84,96.089,M,37.566,M,59.1,2006*60,37.23258732308333,137.02376525026668,679526.8152546182,4122593.359343136
381,[2021-02-22 15:35:21.792] $GNGGA,63521.2,3713.9552062440002,N,13701.425893018,E,4,14,0.84,96.12899999999999,M,37.566,M,59.2,2006*6A,37.23258677073334,137.02376488363333,679526.7840374957,4122593.297360969
382,[2021-02-22 15:35:21.885] $GNGGA,63521.3,3713.955197622,N,13701.425887758998,E,4,14,0.84,96.137,M,37.566,M,59.3,2006*6D,37.23258662703333,137.0237647959833,679526.7766021458,4122593.2812502873
383,[2021-02-22 15:35:21.995] $GNGGA,63521.4,3713.95519414,N,13701.425882805,E,4,14,0.84,96.137,M,37.566,M,59.4,2006*6E,37.232586569,137.02376471341668,679526.7694145638,4122593.2746545076
384,[2021-02-22 15:35:22.088] $GNGGA,63521.5,3713.9551886229997,N,13701.425876743,E,4,14,0.84,96.14200000000001,M,37.566,M,59.5,2006*65,37.23258647704999,137.02376461238333,679526.7606690883,4122593.2642604285
385,[2021-02-22 15:35:22.213] $GNGGA,63521.6,3713.9551849209997,N,13701.425875363999,E,4,14,0.84,96.149,M,37.566,M,59.6,2006*6D,37.23258641534999,137.02376458939997,679526.7587763913,4122593.257370828
386,[2021-02-22 15:35:22.292] $GNGGA,63521.7,3713.955181919,N,13701.425874057,E,4,14,0.84,96.149,M,37.566,M,59.7,2006*61,37.23258636531667,137.02376456761667,679526.756962484,4122593.251777995
387,[2021-02-22 15:35:22.385] $GNGGA,63521.8,3713.9551779490002,N,13701.425873196002,E,4,14,0.84,96.152,M,37.566,M,59.8,2006*6C,37.23258629915001,137.0237645532667,679526.7558463297,4122593.244409165
388,[2021-02-22 15:35:22.495] $GNGGA,63521.9,3713.9550254990004,N,13701.42578635,E,4,12,0.87,96.346,M,37.566,M,59.9,2006*65,37.23258375831668,137.02376310583335,679526.6334586269,4122592.9597421032
389,[2021-02-22 15:35:22.588] $GNGGA,63522.0,3713.955027383,N,13701.425786296,E,4,12,0.87,96.34700000000001,M,37.566,M,60.0,2006*68,37.232583789716664,137.02376310493332,679526.6333042863,4122592.963224423
390,[2021-02-22 15:35:22.713] $GNGGA,63522.1,3713.955027656,N,13701.425786173999,E,4,12,0.87,96.346,M,37.566,M,60.1,2006*6B,37.23258379426667,137.02376310289998,679526.6331130959,4122592.963725418
391,[2021-02-22 15:35:22.792] $GNGGA,63522.2,3713.9550296509997,N,13701.425785155,E,4,12,0.87,96.34299999999999,M,37.566,M,60.2,2006*67,37.232583827516656,137.02376308591664,679526.6315274697,4122592.9673825
392,[2021-02-22 15:35:22.885] $GNGGA,63522.3,3713.9550318670003,N,13701.425786115,E,4,12,0.87,96.34200000000001,M,37.566,M,60.3,2006*63,37.23258386445001,137.02376310191664,679526.6328593622,4122592.9715108383
393,[2021-02-22 15:35:22.995] $GNGGA,63522.4,3713.955032148,N,13701.425787508,E,4,12,0.87,96.34299999999999,M,37.566,M,60.4,2006*6C,37.232583869133336,137.02376312513334,679526.634908021,4122592.9720745217
394,[2021-02-22 15:35:23.104] $GNGGA,63522.5,3713.9550342740004,N,13701.425789628,E,4,12,0.87,96.344,M,37.566,M,60.5,2006*6E,37.23258390456667,137.02376316046664,679526.6379587079,4122592.9760730946
395,[2021-02-22 15:35:23.182] $GNGGA,63522.6,3713.955034513,N,13701.425790365,E,4,12,0.87,96.344,M,37.566,M,60.6,2006*6C,37.232583908550005,137.02376317275,679526.6390390287,4122592.9765383704
396,[2021-02-22 15:35:23.292] $GNGGA,63522.7,3713.95503406,N,13701.425789304,E,4,12,0.87,96.34299999999999,M,37.566,M,60.7,2006*65,37.23258390099999,137.02376315506666,679526.6374880874,4122592.9756671074
397,[2021-02-22 15:35:23.385] $GNGGA,63522.8,3713.95503339,N,13701.425789797,E,4,12,0.87,96.344,M,37.566,M,60.8,2006*67,37.23258388983334,137.02376316328332,679526.6382435525,4122592.974443682
398,[2021-02-22 15:35:23.510] $GNGGA,63522.9,3713.9550330829998,N,13701.425790113999,E,4,12,0.87,96.345,M,37.566,M,60.9,2006*62,37.23258388471666,137.02376316856663,679526.6387244243,4122592.973885976
399,[2021-02-22 15:35:23.588] $GNGGA,63523.0,3713.955032112,N,13701.425789096002,E,4,12,0.87,96.34100000000001,M,37.566,M,61.0,2006*6D,37.23258386853333,137.0237631516,679526.6372575482,4122592.97205815
400,[2021-02-22 15:35:23.682] $GNGGA,63523.1,3713.955032166,N,13701.425789128001,E,4,12,0.87,96.34100000000001,M,37.566,M,61.1,2006*6A,37.23258386943333,137.02376315213334,679526.6373027308,4122592.972159022
401,[2021-02-22 15:35:23.791] $GNGGA,63523.2,3713.955032583,N,13701.425788435,E,4,13,0.85,96.34,M,37.566,M,61.2,2006*6F,37.23258387638334,137.02376314058333,679526.6362615341,4122592.972908261
402,[2021-02-22 15:35:23.901] $GNGGA,63523.3,3713.9550326070002,N,13701.425787058999,E,4,12,0.87,96.337,M,37.566,M,61.3,2006*62,37.23258387678334,137.02376311765,679526.6342259548,4122592.9729091427
403,[2021-02-22 15:35:23.979] $GNGGA,63523.4,3713.955032713,N,13701.425788966,E,4,12,0.87,96.34299999999999,M,37.566,M,61.4,2006*6F,37.23258387855,137.02376314943334,679526.6370415605,4122592.973165453
404,[2021-02-22 15:35:24.088] $GNGGA,63523.5,3713.955033039,N,13701.425791361002,E,4,13,0.85,96.344,M,37.566,M,61.5,2006*60,37.23258388398334,137.02376318935,679526.6405700499,4122592.9738440327
405,[2021-02-22 15:35:24.182] $GNGGA,63523.6,3713.955032248,N,13701.425793822,E,4,13,0.85,96.34100000000001,M,37.566,M,61.6,2006*6E,37.2325838708,137.02376323036665,679526.6442402909,4122592.9724590583
406,[2021-02-22 15:35:24.307] $GNGGA,63523.7,3713.955032009,N,13701.425796008001,E,4,12,0.87,96.34299999999999,M,37.566,M,61.7,2006*6D,37.23258386681667,137.02376326680002,679526.6474820815,4122592.9720861916
407,[2021-02-22 15:35:24.385] $GNGGA,63523.8,3713.9550335020003,N,13701.425809418,E,4,14,0.84,96.37700000000001,M,37.566,M,61.8,2006*6C,37.23258389170001,137.0237634903,679526.6672518108,4122592.9752710974
408,[2021-02-22 15:35:24.494] $GNGGA,63523.9,3713.9550374,N,13701.425811313999,E,4,14,0.84,96.361,M,37.566,M,61.9,2006*6E,37.23258395666667,137.02376352189998,679526.6699012199,4122592.9825395
409,[2021-02-22 15:35:24.588] $GNGGA,63524.0,3713.9550278829997,N,13701.425803226,E,4,14,0.84,96.34700000000001,M,37.566,M,62.0,2006*6B,37.23258379805,137.02376338710002,679526.6583181445,4122592.9646842834
410,[2021-02-22 15:35:24.713] $GNGGA,63524.1,3713.9550312759998,N,13701.42580657,E,4,14,0.84,96.37700000000001,M,37.566,M,62.1,2006*6E,37.2325838546,137.02376344283334,679526.6631286149,4122592.971064581
411,[2021-02-22 15:35:24.791] $GNGGA,63524.2,3713.9550294809997,N,13701.425792798998,E,4,13,0.85,96.335,M,37.566,M,62.2,2006*6E,37.232583824683324,137.0237632133166,679526.6428370249,4122592.9673097804
412,[2021-02-22 15:35:24.885] $GNGGA,63524.3,3713.955029883,N,13701.425791974,E,4,12,0.87,96.338,M,37.566,M,62.3,2006*60,37.23258383138334,137.02376319956667,679526.6416012454,4122592.968027108
413,[2021-02-22 15:35:24.994] $GNGGA,63524.4,3713.955028552,N,13701.425791621,E,4,12,0.87,96.336,M,37.566,M,62.4,2006*61,37.2325838092,137.02376319368332,679526.6411319047,4122592.965554566
414,[2021-02-22 15:35:25.088] $GNGGA,63524.5,3713.9550286040003,N,13701.425791453,E,4,12,0.87,96.338,M,37.566,M,62.5,2006*68,37.23258381006668,137.02376319088336,679526.6408814362,4122592.96564542
415,[2021-02-22 15:35:25.213] $GNGGA,63524.6,3713.9550300940004,N,13701.425790628999,E,4,12,0.87,96.337,M,37.566,M,62.6,2006*6F,37.232583834900005,137.02376317715,679526.6396041114,4122592.9683747836
416,[2021-02-22 15:35:25.291] $GNGGA,63524.7,3713.955030498,N,13701.425790406001,E,4,12,0.87,96.338,M,37.566,M,62.7,2006*67,37.23258384163333,137.02376317343334,679526.6392584003,4122592.9691148386
417,[2021-02-22 15:35:25.385] $GNGGA,63524.8,3713.955031651,N,13701.425789523,E,4,12,0.87,96.337,M,37.566,M,62.8,2006*60,37.23258386084999,137.02376315871666,679526.6379071597,4122592.9712191345
418,[2021-02-22 15:35:25.494] $GNGGA,63524.9,3713.9550320870003,N,13701.425788854,E,4,12,0.87,96.335,M,37.566,M,62.9,2006*60,37.23258386811667,137.02376314756665,679526.6369007006,4122592.9720042674
419,[2021-02-22 15:35:25.588] $GNGGA,63525.0,3713.955032336,N,13701.425788613,E,4,12,0.87,96.331,M,37.566,M,63.0,2006*60,37.232583872266666,137.02376314354998,679526.6365344984,4122592.9724571174
420,[2021-02-22 15:35:25.713] $GNGGA,63525.1,3713.9550336190005,N,13701.42578847,E,4,12,0.87,96.33200000000001,M,37.566,M,63.1,2006*6D,37.23258389365001,137.02376314116665,679526.636272324,4122592.9748252137
421,[2021-02-22 15:35:25.791] $GNGGA,63525.2,3713.9550337040005,N,13701.425788343,E,4,12,0.87,96.33200000000001,M,37.566,M,63.2,2006*67,37.232583895066675,137.02376313904998,679526.6360811738,4122592.974978387
422,[2021-02-22 15:35:25.885] $GNGGA,63525.3,3713.9550330859997,N,13701.425788268001,E,4,12,0.87,96.335,M,37.566,M,63.3,2006*65,37.23258388476666,137.0237631378,679526.6359947105,4122592.9738331633
423,[2021-02-22 15:35:25.994] $GNGGA,63525.4,3713.955033358,N,13701.425787718,E,4,12,0.87,96.335,M,37.566,M,63.4,2006*68,37.232583889299995,137.02376312863333,679526.6351706964,4122592.9743187777
424,[2021-02-22 15:35:26.088] $GNGGA,63525.5,3713.955033063,N,13701.425788298999,E,4,12,0.87,96.334,M,37.566,M,63.5,2006*61,37.23258388438334,137.02376313831667,679526.6360414589,4122592.9737916123
425,[2021-02-22 15:35:26.213] $GNGGA,63525.6,3713.955031933,N,13701.425789382,E,4,10,1.38,96.333,M,37.566,M,63.6,2006*65,37.23258386555,137.02376315636667,679526.6376875201,4122592.9717361713
426,[2021-02-22 15:35:26.291] $GNGGA,63525.7,3713.955034433,N,13701.425791975,E,4,11,1.33,96.33200000000001,M,37.566,M,63.7,2006*6D,37.232583907216664,137.02376319958336,679526.6414228292,4122592.9764413266
427,[2021-02-22 15:35:26.385] $GNGGA,63525.8,3713.955033727,N,13701.425790916,E,4,10,1.36,96.336,M,37.566,M,63.8,2006*68,37.232583895450006,137.02376318193333,679526.6398848459,4122592.975102262
428,[2021-02-22 15:35:26.494] $GNGGA,63525.9,3713.955034089,N,13701.425789845,E,4,10,2.02,96.334,M,37.566,M,63.9,2006*65,37.23258390148333,137.0237631640833,679526.6382868909,4122592.9757378395
429,[2021-02-22 15:35:26.588] $GNGGA,63526.0,3713.955035387,N,13701.425787958,E,4,11,1.82,96.338,M,37.566,M,64.0,2006*68,37.232583923116664,137.02376313263332,679526.6354453507,4122592.978078539
430,[2021-02-22 15:35:26.713] $GNGGA,63526.1,3713.95503638,N,13701.425787297,E,4,11,1.82,96.331,M,37.566,M,64.1,2006*6D,37.23258393966666,137.02376312161667,679526.6344287002,4122592.979893969
431,[2021-02-22 15:35:26.791] $GNGGA,63526.2,3713.955038148,N,13701.425782818998,E,4,11,1.82,96.339,M,37.566,M,64.2,2006*64,37.23258396913333,137.0237630469833,679526.6277373782,4122592.983021915
432,[2021-02-22 15:35:26.885] $GNGGA,63526.3,3713.955041169,N,13701.425787148,E,4,10,2.02,96.33,M,37.566,M,64.3,2006*62,37.23258401948334,137.02376311913332,679526.6340190322,4122592.988745424
433,[2021-02-22 15:35:26.994] $GNGGA,63526.4,3713.955042589,N,13701.425785025,E,4,9,2.1,96.331,M,37.566,M,64.4,2006*69,37.23258404315,137.02376308375,679526.6308237063,4122592.991304273
434,[2021-02-22 15:35:27.088] $GNGGA,63526.5,3713.9550452790004,N,13701.42578476,E,4,8,2.13,96.334,M,37.566,M,64.5,2006*66,37.23258408798334,137.02376307933332,679526.6303255057,4122592.9962704373
435,[2021-02-22 15:35:27.213] $GNGGA,63526.6,3713.955047329,N,13701.425784573,E,4,8,2.13,96.333,M,37.566,M,64.6,2006*67,37.23258412215,137.02376307621668,679526.6299679474,4122593.000055532
436,[2021-02-22 15:35:27.291] $GNGGA,63526.7,3713.955048917,N,13701.425784542,E,4,8,2.13,96.334,M,37.566,M,64.7,2006*6A,37.23258414861667,137.02376307569997,679526.6298593177,4122593.0029911967
437,[2021-02-22 15:35:27.385] $GNGGA,63526.8,3713.955049902,N,13701.425785325,E,4,8,2.13,96.331,M,37.566,M,64.8,2006*6C,37.23258416503334,137.02376308875,679526.6309781636,4122593.0048374836
438,[2021-02-22 15:35:27.494] $GNGGA,63526.9,3713.955051381,N,13701.425786055,E,4,8,2.13,96.333,M,37.566,M,64.9,2006*61,37.23258418968334,137.02376310091668,679526.6319991049,4122593.007595635
439,[2021-02-22 15:35:27.604] $GNGGA,63527.0,3713.9550515240003,N,13701.425786591,E,4,8,2.13,96.335,M,37.566,M,65.0,2006*63,37.232584192066675,137.02376310985,679526.6327860081,4122593.007877026
440,[2021-02-22 15:35:27.682] $GNGGA,63527.1,3713.955050088,N,13701.425787269,E,4,8,2.13,96.33,M,37.566,M,65.1,2006*65,37.23258416813333,137.02376312114998,679526.6338453125,4122593.005242906
441,[2021-02-22 15:35:27.791] $GNGGA,63527.2,3713.955050287,N,13701.425787416001,E,4,8,2.13,96.329,M,37.566,M,65.2,2006*6E,37.23258417145,137.02376312360005,679526.6340548107,4122593.0056155575
442,[2021-02-22 15:35:27.885] $GNGGA,63527.3,3713.95505071,N,13701.425787933,E,4,8,2.13,96.329,M,37.566,M,65.3,2006*6F,37.2325841785,137.02376313221666,679526.6348025475,4122593.006414143
443,[2021-02-22 15:35:28.010] $GNGGA,63527.4,3713.9550458520002,N,13701.425782505,E,4,9,1.98,96.336,M,37.566,M,65.4,2006*61,37.23258409753334,137.02376304175002,679526.6269684857,4122592.997258781
444,[2021-02-22 15:35:28.088] $GNGGA,63527.5,3713.95504928,N,13701.42578291,E,4,9,1.98,96.339,M,37.566,M,65.5,2006*6F,37.23258415466666,137.02376304850003,679526.6274318076,4122593.0036108876
445,[2021-02-22 15:35:28.182] $GNGGA,63527.6,3713.9550511059997,N,13701.425781237,E,4,9,1.98,96.337,M,37.566,M,65.6,2006*68,37.23258418509999,137.02376302061668,679526.6248858196,4122593.006934768
446,[2021-02-22 15:35:28.291] $GNGGA,63527.7,3713.955048877,N,13701.425780718999,E,4,9,1.98,96.335,M,37.566,M,65.7,2006*65,37.23258414795,137.0237630119833,679526.6242080027,4122593.002796365
447,[2021-02-22 15:35:28.416] $GNGGA,63527.8,3713.9550487190004,N,13701.425780055,E,4,9,1.98,96.335,M,37.566,M,65.8,2006*6D,37.23258414531668,137.0237630009167,679526.6232324266,4122593.0024831896
448,[2021-02-22 15:35:28.479] $GNGGA,63527.9,3713.955051592,N,13701.425780127,E,4,9,1.98,96.334,M,37.566,M,65.9,2006*61,37.2325841932,137.02376300211665,679526.6232252963,4122593.0077984217
449,[2021-02-22 15:35:28.588] $GNGGA,63528.0,3713.9550531209998,N,13701.425779484,E,4,9,1.98,96.335,M,37.566,M,66.0,2006*68,37.23258421868333,137.02376299140002,679526.6222140705,4122593.0106056323
450,[2021-02-22 15:35:28.682] $GNGGA,63528.1,3713.955048071,N,13701.425779808998,E,4,9,1.98,96.331,M,37.566,M,66.1,2006*6B,37.232584134516664,137.02376299681663,679526.6228942944,4122593.0012770835
451,[2021-02-22 15:35:28.807] $GNGGA,63528.2,3713.955051289,N,13701.42578062,E,4,9,1.98,96.33,M,37.566,M,66.2,2006*64,37.23258418814999,137.0237630103333,679526.623966251,4122593.0072536785
452,[2021-02-22 15:35:28.885] $GNGGA,63528.3,3713.9550515940005,N,13701.425779738998,E,4,9,1.98,96.331,M,37.566,M,66.3,2006*61,37.232584193233336,137.02376299564995,679526.6226514936,4122593.0077898563
453,[2021-02-22 15:35:28.994] $GNGGA,63528.4,3713.95504784,N,13701.425780105,E,4,9,1.98,96.32799999999999,M,37.566,M,66.4,2006*65,37.23258413066667,137.02376300175,679526.6233411127,4122593.00085926
454,[2021-02-22 15:35:29.088] $GNGGA,63528.5,3713.9550505609996,N,13701.425779571999,E,4,9,1.98,96.33200000000001,M,37.566,M,66.5,2006*64,37.23258417601666,137.02376299286666,679526.6224454069,4122593.005874278
455,[2021-02-22 15:35:29.213] $GNGGA,63528.6,3713.955050583,N,13701.425778133998,E,4,9,1.98,96.329,M,37.566,M,66.6,2006*65,37.23258417638333,137.02376296889997,679526.6203182286,4122593.005869501
456,[2021-02-22 15:35:29.291] $GNGGA,63528.7,3713.9550505740003,N,13701.425777161001,E,4,9,1.98,96.331,M,37.566,M,66.7,2006*6B,37.23258417623334,137.02376295268334,679526.6188798565,4122593.0058220983
457,[2021-02-22 15:35:29.385] $GNGGA,63528.8,3713.955046509,N,13701.425774972,E,4,9,1.98,96.33,M,37.566,M,66.8,2006*6E,37.23258410848334,137.0237629162,679526.6158038031,4122592.9982356043
458,[2021-02-22 15:35:29.494] $GNGGA,63528.9,3713.955045385,N,13701.425775641,E,4,9,1.98,96.331,M,37.566,M,66.9,2006*60,37.23258408975,137.02376292735002,679526.6168374643,4122592.996178171
459,[2021-02-22 15:35:29.588] $GNGGA,63529.0,3713.9550487720003,N,13701.425773694,E,4,9,1.98,96.33200000000001,M,37.566,M,67.0,2006*6C,37.232584146200004,137.02376289490002,679526.6138246086,4122593.0023801043
460,[2021-02-22 15:35:29.713] $GNGGA,63529.1,3713.955045657,N,13701.425772662,E,4,9,1.98,96.32700000000001,M,37.566,M,67.1,2006*6B,37.23258409428333,137.0237628777,679526.6124217967,4122592.996586995
461,[2021-02-22 15:35:29.791] $GNGGA,63529.2,3713.955044775,N,13701.425773373001,E,4,9,1.98,96.329,M,37.566,M,67.2,2006*61,37.232584079583326,137.02376288955,679526.613507991,4122592.994978415
462,[2021-02-22 15:35:29.885] $GNGGA,63529.3,3713.9550486609996,N,13701.425771512,E,4,9,1.98,96.33200000000001,M,37.566,M,67.3,2006*60,37.23258414435,137.02376285853336,679526.6106025729,4122593.002105853
463,[2021-02-22 15:35:29.994] $GNGGA,63529.4,3713.955045837,N,13701.425770344,E,4,9,1.98,96.323,M,37.566,M,67.4,2006*64,37.23258409728333,137.02376283906665,679526.6089871561,4122592.996846583
464,[2021-02-22 15:35:30.088] $GNGGA,63529.5,3713.9550448940004,N,13701.425771627,E,4,9,1.98,96.329,M,37.566,M,67.5,2006*67,37.23258408156668,137.02376286045,679526.6109215559,4122592.9951432818
465,[2021-02-22 15:35:30.213] $GNGGA,63529.6,3713.95504496,N,13701.425770287,E,4,9,1.98,96.329,M,37.566,M,67.6,2006*62,37.23258408266667,137.02376283811665,679526.6089375479,4122592.995222971
466,[2021-02-22 15:35:30.291] $GNGGA,63529.7,3713.955046,N,13701.425769616,E,4,9,1.98,96.32700000000001,M,37.566,M,67.7,2006*65,37.232584100000004,137.02376282693334,679526.6079042531,4122592.997125001
467,[2021-02-22 15:35:30.385] $GNGGA,63529.8,3713.95504689,N,13701.425769086001,E,4,9,1.98,96.33,M,37.566,M,67.8,2006*6D,37.232584114833344,137.0237628181,679526.6070853765,4122592.9987540985
468,[2021-02-22 15:35:30.494] $GNGGA,63529.9,3713.955046047,N,13701.425768812,E,4,9,1.98,96.331,M,37.566,M,67.9,2006*6A,37.23258410078333,137.0237628135333,679526.6067135534,4122592.9971864987
469,[2021-02-22 15:35:30.588] $GNGGA,63530.0,3713.955047786,N,13701.425768148001,E,4,9,1.98,96.335,M,37.566,M,68.0,2006*64,37.232584129766664,137.0237628024667,679526.6056629764,4122593.0003813896
470,[2021-02-22 15:35:30.713] $GNGGA,63530.1,3713.9550476390004,N,13701.425769118001,E,4,9,1.98,96.333,M,37.566,M,68.1,2006*63,37.23258412731668,137.02376281863334,679526.6071030804,4122593.000140214
471,[2021-02-22 15:35:30.791] $GNGGA,63530.2,3713.955049535,N,13701.425767963,E,4,9,1.98,96.334,M,37.566,M,68.2,2006*6F,37.232584158916666,137.02376279938338,679526.6053202738,4122593.003609919
472,[2021-02-22 15:35:30.885] $GNGGA,63530.3,3713.95504999,N,13701.425769418998,E,4,9,1.98,96.333,M,37.566,M,68.3,2006*65,37.232584166500004,137.02376282364997,679526.6074551984,4122593.0044973674
473,[2021-02-22 15:35:30.994] $GNGGA,63530.4,3713.9550530270003,N,13701.425776457,E,4,8,2.14,96.319,M,37.566,M,68.4,2006*61,37.23258421711667,137.02376294095,679526.6177418985,4122593.0103361057
474,[2021-02-22 15:35:31.088] $GNGGA,63530.5,3713.9550528090003,N,13701.425777075,E,4,8,2.14,96.321,M,37.566,M,68.5,2006*6A,37.23258421348334,137.02376295124998,679526.6186643227,4122593.009952502
475,[2021-02-22 15:35:31.213] $GNGGA,63530.6,3713.955051698,N,13701.425778581,E,4,8,2.14,96.319,M,37.566,M,68.6,2006*65,37.232584194966655,137.02376297635,679526.6209351075,4122593.0079455697
476,[2021-02-22 15:35:31.291] $GNGGA,63530.7,3713.9550525709997,N,13701.425777661001,E,4,8,2.14,96.318,M,37.566,M,68.7,2006*61,37.232584209516666,137.02376296101667,679526.6195402269,4122593.0095308996
477,[2021-02-22 15:35:31.385] $GNGGA,63530.8,3713.955053699,N,13701.425776558,E,4,8,2.14,96.32,M,37.566,M,68.8,2006*66,37.23258422831667,137.02376294263334,679526.6178646728,4122593.0115820086
478,[2021-02-22 15:35:31.494] $GNGGA,63530.9,3713.955052279,N,13701.425778056,E,4,8,2.14,96.323,M,37.566,M,68.9,2006*6B,37.23258420465,137.0237629676,679526.6201358391,4122593.0090034003
479,[2021-02-22 15:35:31.588] $GNGGA,63531.0,3713.9550529609996,N,13701.425778493998,E,4,8,2.14,96.318,M,37.566,M,69.0,2006*6B,37.23258421601666,137.02376297489997,679526.6207565235,4122593.0102784503
480,[2021-02-22 15:35:31.713] $GNGGA,63531.1,3713.955054538,N,13701.425777587,E,4,8,2.14,96.319,M,37.566,M,69.1,2006*60,37.23258424229999,137.0237629597833,679526.6193530326,4122593.0131660793
481,[2021-02-22 15:35:31.791] $GNGGA,63531.2,3713.9550496590005,N,13701.425774368001,E,4,9,1.98,96.331,M,37.566,M,69.2,2006*60,37.23258416098334,137.02376290613336,679526.6147861521,4122593.004041717
482,[2021-02-22 15:35:31.885] $GNGGA,63531.3,3713.95505063,N,13701.425773234,E,4,9,1.98,96.331,M,37.566,M,69.3,2006*68,37.23258417716667,137.02376288723332,679526.6130709642,4122593.00580151
483,[2021-02-22 15:35:31.994] $GNGGA,63531.4,3713.9550497140003,N,13701.425773858,E,4,9,1.98,96.33200000000001,M,37.566,M,69.4,2006*64,37.2325841619,137.02376289763333,679526.614029862,4122593.0041273027
484,[2021-02-22 15:35:32.103] $GNGGA,63531.5,3713.955055855,N,13701.425772075,E,4,9,1.98,96.333,M,37.566,M,69.5,2006*64,37.23258426425,137.02376286791664,679526.6111506172,4122593.015427314
485,[2021-02-22 15:35:32.182] $GNGGA,63531.6,3713.9550516470003,N,13701.42577271,E,4,9,1.98,96.32799999999999,M,37.566,M,69.6,2006*63,37.23258419411667,137.02376287849998,679526.6122559382,4122593.0076656523
486,[2021-02-22 15:35:32.291] $GNGGA,63531.7,3713.9550565,N,13701.42577293,E,4,9,1.98,96.33,M,37.566,M,69.7,2006*61,37.232584275,137.02376288216666,679526.6123893678,4122593.016647125
487,[2021-02-22 15:35:32.385] $GNGGA,63531.8,3713.9550497329997,N,13701.42577581,E,4,9,1.98,96.32600000000001,M,37.566,M,69.8,2006*6E,37.23258416221667,137.02376293016667,679526.6169154447,4122593.0042241495
488,[2021-02-22 15:35:32.510] $GNGGA,63531.9,3713.955055471,N,13701.425781575,E,4,8,2.14,96.322,M,37.566,M,69.9,2006*61,37.23258425785,137.02376302625,679526.6252130214,4122593.0150175258
489,[2021-02-22 15:35:32.588] $GNGGA,63532.0,3713.955055755,N,13701.425781328,E,4,8,2.14,96.32,M,37.566,M,70.0,2006*63,37.23258426258334,137.02376302213335,679526.6248365659,4122593.015534911
490,[2021-02-22 15:35:32.681] $GNGGA,63532.1,3713.955056731,N,13701.425780434,E,4,8,2.14,96.321,M,37.566,M,70.1,2006*68,37.23258427884999,137.02376300723333,679526.623476059,4122593.017311538
491,[2021-02-22 15:35:32.791] $GNGGA,63532.2,3713.955056188,N,13701.425782052,E,4,8,2.14,96.32,M,37.566,M,70.2,2006*6B,37.2325842698,137.0237630342,679526.62588999,4122593.0163585343
492,[2021-02-22 15:35:32.916] $GNGGA,63532.3,3713.9550564720003,N,13701.425783747,E,4,8,2.14,96.324,M,37.566,M,70.3,2006*6D,37.23258427453334,137.02376306244997,679526.6283850801,4122593.0169373145
493,[2021-02-22 15:35:32.978] $GNGGA,63532.4,3713.955056703,N,13701.425785723,E,4,8,2.14,96.32700000000001,M,37.566,M,70.4,2006*6F,37.232584278383335,137.02376309538334,679526.631297772,4122593.0174269658
494,[2021-02-22 15:35:33.088] $GNGGA,63532.5,3713.955056915,N,13701.425785882,E,4,8,2.14,96.324,M,37.566,M,70.5,2006*61,37.23258428191667,137.02376309803333,679526.631524495,4122593.0178240365
495,[2021-02-22 15:35:33.181] $GNGGA,63532.6,3713.955057615,N,13701.425786679,E,4,8,2.14,96.324,M,37.566,M,70.6,2006*66,37.232584293583336,137.02376311131664,679526.6326753028,4122593.0191437234
496,[2021-02-22 15:35:33.306] $GNGGA,63532.7,3713.955058441,N,13701.425786451002,E,4,8,2.14,96.32799999999999,M,37.566,M,70.7,2006*6E,37.232584307349995,137.02376310751671,679526.6323055181,4122593.020664013
497,[2021-02-22 15:35:33.385] $GNGGA,63532.8,3713.955058035,N,13701.425786876001,E,4,8,2.14,96.325,M,37.566,M,70.8,2006*6D,37.23258430058334,137.02376311460003,679526.6329499979,4122593.019926646
498,[2021-02-22 15:35:33.494] $GNGGA,63532.9,3713.9550581940002,N,13701.425786557,E,4,8,2.14,96.325,M,37.566,M,70.9,2006*69,37.23258430323333,137.02376310928332,679526.632472016,4122593.0202105944
499,[2021-02-22 15:35:33.588] $GNGGA,63533.0,3713.9550565759996,N,13701.425786726,E,4,8,2.14,96.325,M,37.566,M,71.0,2006*6B,37.232584276266664,137.0237631121,679526.6327858816,4122593.0172238145
500,[2021-02-22 15:35:33.713] $GNGGA,63533.1,3713.955055093,N,13701.425786344,E,4,8,2.14,96.321,M,37.566,M,71.1,2006*62,37.232584251549994,137.02376310573334,679526.632279671,4122593.0144692673
501,[2021-02-22 15:35:33.791] $GNGGA,63533.2,3713.9550558329997,N,13701.425786821,E,4,8,2.14,96.323,M,37.566,M,71.2,2006*6A,37.23258426388333,137.02376311368332,679526.6329557301,4122593.0158528094
502,[2021-02-22 15:35:33.885] $GNGGA,63533.3,3713.9550576559996,N,13701.425784226001,E,4,8,2.14,96.32,M,37.566,M,71.3,2006*69,37.232584294266665,137.02376307043335,679526.6290465463,4122593.0191419944
503,[2021-02-22 15:35:33.994] $GNGGA,63533.4,3713.95505788,N,13701.425783097,E,4,8,2.14,96.324,M,37.566,M,71.4,2006*67,37.232584298,137.02376305161667,679526.6273682883,4122593.019520539
504,[2021-02-22 15:35:34.088] $GNGGA,63533.5,3713.955056692,N,13701.425783028999,E,4,8,2.14,96.322,M,37.566,M,71.5,2006*68,37.2325842782,137.0237630504833,679526.6273147074,4122593.017321455
505,[2021-02-22 15:35:34.213] $GNGGA,63533.6,3713.955056654,N,13701.425782246,E,4,8,2.14,96.323,M,37.566,M,71.6,2006*69,37.23258427756667,137.02376303743333,679526.6261584236,4122593.0172264287
506,[2021-02-22 15:35:34.291] $GNGGA,63533.7,3713.9550578109997,N,13701.425778293999,E,4,8,2.14,96.322,M,37.566,M,71.7,2006*6C,37.23258429684999,137.02376297156664,679526.6202690351,4122593.0192410974
507,[2021-02-22 15:35:34.384] $GNGGA,63533.8,3713.9550561270003,N,13701.42577938,E,4,9,1.98,96.32700000000001,M,37.566,M,71.8,2006*67,37.232584268783334,137.02376298966666,679526.6219414382,4122593.016161255
508,[2021-02-22 15:35:34.494] $GNGGA,63533.9,3713.955054005,N,13701.425779476001,E,4,8,2.14,96.32700000000001,M,37.566,M,71.9,2006*6C,37.232584233416674,137.02376299126672,679526.6221672926,4122593.0122401374
509,[2021-02-22 15:35:34.588] $GNGGA,63534.0,3713.955053237,N,13701.425779156001,E,4,9,1.98,96.325,M,37.566,M,72.0,2006*6F,37.23258422061667,137.02376298593333,679526.6217244837,4122593.0108097796
510,[2021-02-22 15:35:34.713] $GNGGA,63534.1,3713.955053451,N,13701.425779208,E,4,9,1.98,96.324,M,37.566,M,72.1,2006*60,37.232584224183334,137.0237629868,679526.6217929124,4122593.011207167
511,[2021-02-22 15:35:34.791] $GNGGA,63534.2,3713.955053218,N,13701.425780095,E,4,9,1.98,96.32,M,37.566,M,72.2,2006*6F,37.232584220300005,137.02376300158332,679526.6231136902,4122593.0108043286
512,[2021-02-22 15:35:34.884] $GNGGA,63534.3,3713.9550558759997,N,13701.425777372,E,4,9,1.98,96.319,M,37.566,M,72.3,2006*63,37.2325842646,137.02376295620002,679526.618982224,4122593.015633608
513,[2021-02-22 15:35:34.994] $GNGGA,63534.4,3713.95505531,N,13701.425777761002,E,4,9,1.98,96.32,M,37.566,M,72.4,2006*64,37.23258425516667,137.02376296268338,679526.6195798024,4122593.0145992176
514,[2021-02-22 15:35:35.088] $GNGGA,63534.5,3713.955056447,N,13701.425777419,E,4,9,1.98,96.322,M,37.566,M,72.5,2006*6C,37.23258427411667,137.02376295698332,679526.6190291424,4122593.016691028
515,[2021-02-22 15:35:35.212] $GNGGA,63534.6,3713.9550579340003,N,13701.42577782,E,4,9,1.98,96.325,M,37.566,M,72.6,2006*65,37.23258429890001,137.02376296366668,679526.6195632928,4122593.0194535744
516,[2021-02-22 15:35:35.291] $GNGGA,63534.7,3713.955057205,N,13701.425778575,E,4,9,1.98,96.322,M,37.566,M,72.7,2006*69,37.23258428675,137.02376297625,679526.6207084989,4122593.018129322
517,[2021-02-22 15:35:35.384] $GNGGA,63534.8,3713.955056619,N,13701.425779461,E,4,9,1.98,96.324,M,37.566,M,72.8,2006*62,37.23258427698334,137.02376299101664,679526.6220417527,4122593.017073659
518,[2021-02-22 15:35:35.494] $GNGGA,63534.9,3713.955057546,N,13701.425779216,E,4,9,1.98,96.319,M,37.566,M,72.9,2006*62,37.23258429243333,137.02376298693335,679526.6216428361,4122593.0187801877
519,[2021-02-22 15:35:35.588] $GNGGA,63535.0,3713.955057322,N,13701.425779551,E,4,9,1.98,96.318,M,37.566,M,73.0,2006*63,37.2325842887,137.02376299251665,679526.6221470388,4122593.0183765413
520,[2021-02-22 15:35:35.712] $GNGGA,63535.1,3713.955057878,N,13701.425779183,E,4,9,1.98,96.321,M,37.566,M,73.1,2006*66,37.23258429796666,137.02376298638333,679526.6215809111,4122593.019393102
521,[2021-02-22 15:35:35.791] $GNGGA,63535.2,3713.955057345,N,13701.425778796001,E,4,9,1.98,96.321,M,37.566,M,73.2,2006*60,37.232584289083334,137.02376297993337,679526.6210297487,4122593.0183952064
522,[2021-02-22 15:35:35.884] $GNGGA,63535.3,3713.955057469,N,13701.425778358998,E,4,9,1.98,96.319,M,37.566,M,73.3,2006*65,37.23258429115,137.02376297264996,679526.6203786687,4122593.0186107005
523,[2021-02-22 15:35:35.994] $GNGGA,63535.4,3713.95505932,N,13701.425778363,E,4,9,1.98,96.322,M,37.566,M,73.4,2006*60,37.232584322,137.02376297271667,679526.6203114007,4122593.0220338297
524,[2021-02-22 15:35:36.087] $GNGGA,63535.5,3713.95505765,N,13701.425777296,E,4,8,2.14,96.316,M,37.566,M,73.5,2006*69,37.232584294166664,137.02376295493335,679526.6187997055,4122593.018911814
525,[2021-02-22 15:35:36.212] $GNGGA,63535.6,3713.9550565520003,N,13701.425777838998,E,4,9,1.98,96.319,M,37.566,M,73.6,2006*6F,37.23258427586667,137.0237629639833,679526.619646023,4122593.0168984807
526,[2021-02-22 15:35:36.291] $GNGGA,63535.7,3713.955056808,N,13701.425778201,E,4,9,1.98,96.322,M,37.566,M,73.7,2006*6B,37.23258428013333,137.0237629700167,679526.6201711813,4122593.017383339
527,[2021-02-22 15:35:36.384] $GNGGA,63535.8,3713.955057838,N,13701.42577612,E,4,8,2.14,96.315,M,37.566,M,73.8,2006*65,37.232584297299994,137.02376293533337,679526.6170533765,4122593.019222299
528,[2021-02-22 15:35:36.494] $GNGGA,63535.9,3713.955058205,N,13701.425776604,E,4,9,1.98,96.316,M,37.566,M,73.9,2006*6A,37.232584303416665,137.02376294340002,679526.6177545334,4122593.0199162834
529,[2021-02-22 15:35:36.603] $GNGGA,63536.0,3713.955057071,N,13701.425775602,E,4,9,1.98,96.31299999999999,M,37.566,M,74.0,2006*60,37.23258428451667,137.0237629267,679526.6163177552,4122593.0177875324
530,[2021-02-22 15:35:36.681] $GNGGA,63536.1,3713.9550573859997,N,13701.425775203,E,4,8,2.14,96.31700000000001,M,37.566,M,74.1,2006*6C,37.23258428976666,137.02376292005002,679526.6157153193,4122593.018357437
531,[2021-02-22 15:35:36.791] $GNGGA,63536.2,3713.955057631,N,13701.425774001002,E,4,9,1.98,96.32,M,37.566,M,74.2,2006*66,37.23258429385,137.0237629000167,679526.6139282907,4122593.0187725094
532,[2021-02-22 15:35:36.884] $GNGGA,63536.3,3713.955058297,N,13701.425775242,E,4,9,1.98,96.322,M,37.566,M,74.3,2006*67,37.23258430495,137.02376292070002,679526.6157369682,4122593.020043358
533,[2021-02-22 15:35:37.009] $GNGGA,63536.4,3713.955057294,N,13701.425775938998,E,4,8,2.14,96.323,M,37.566,M,74.4,2006*6B,37.23258428823334,137.02376293231663,679526.6168072417,4122593.018210574
534,[2021-02-22 15:35:37.087] $GNGGA,63536.5,3713.9550576,N,13701.42577692,E,4,9,1.98,96.32700000000001,M,37.566,M,74.5,2006*6B,37.23258429333334,137.02376294866664,679526.6182457065,4122593.018807465
535,[2021-02-22 15:35:37.181] $GNGGA,63536.6,3713.955057562,N,13701.425775718999,E,4,8,2.14,96.325,M,37.566,M,74.6,2006*6F,37.2325842927,137.02376292865,679526.6164713457,4122593.018699222
536,[2021-02-22 15:35:37.291] $GNGGA,63536.7,3713.955057352,N,13701.425775428,E,4,9,1.98,96.325,M,37.566,M,74.7,2006*6D,37.2325842892,137.0237629238,679526.616049361,4122593.018301675
537,[2021-02-22 15:35:37.400] $GNGGA,63536.8,3713.955057354,N,13701.425775778,E,4,9,1.98,96.325,M,37.566,M,74.8,2006*6D,37.23258428923333,137.02376292963334,679526.6165668095,4122593.0183164403
538,[2021-02-22 15:35:37.494] $GNGGA,63536.9,3713.955057493,N,13701.425775431,E,4,8,2.14,96.319,M,37.566,M,74.9,2006*66,37.23258429155,137.02376292385,679526.616048222,4122593.0185625185
539,[2021-02-22 15:35:37.587] $GNGGA,63537.0,3713.9550577640002,N,13701.425776546,E,4,9,1.98,96.323,M,37.566,M,75.0,2006*60,37.23258429606667,137.02376294243334,679526.617686206,4122593.019098921
540,[2021-02-22 15:35:37.681] $GNGGA,63537.1,3713.9550582240004,N,13701.42577493,E,4,8,2.14,96.318,M,37.566,M,75.1,2006*6F,37.23258430373334,137.0237629155,679526.6152785117,4122593.019898498
541,[2021-02-22 15:35:37.806] $GNGGA,63537.2,3713.95505732,N,13701.425777171002,E,4,9,1.98,96.322,M,37.566,M,75.2,2006*64,37.232584288666665,137.02376295285003,679526.6186279228,4122593.018297602
542,[2021-02-22 15:35:37.884] $GNGGA,63537.3,3713.9550583540004,N,13701.425777858001,E,4,9,1.98,96.323,M,37.566,M,75.3,2006*6B,37.2325843059,137.0237629643,679526.6196028739,4122593.020231468
543,[2021-02-22 15:35:37.994] $GNGGA,63537.4,3713.955049058,N,13701.425778243998,E,4,9,1.98,96.32600000000001,M,37.566,M,75.4,2006*69,37.232584150966666,137.02376297073332,679526.6205411771,4122593.0030528386
544,[2021-02-22 15:35:38.087] $GNGGA,63537.5,3713.955061949,N,13701.425776918,E,4,9,1.98,96.335,M,37.566,M,75.5,2006*64,37.23258436581667,137.02376294863333,679526.6180707994,4122593.026849885
545,[2021-02-22 15:35:38.197] $GNGGA,63537.6,3713.955050697,N,13701.425776847,E,4,9,1.98,96.32600000000001,M,37.566,M,75.6,2006*63,37.232584178283325,137.02376294745,679526.6184106956,4122593.0060396306
546,[2021-02-22 15:35:38.306] $GNGGA,63537.7,3713.9550601540004,N,13701.425775883,E,4,9,1.98,96.337,M,37.566,M,75.7,2006*63,37.2325843359,137.02376293138335,679526.616611364,4122593.0234977216
547,[2021-02-22 15:35:38.384] $GNGGA,63537.8,3713.955047566,N,13701.425776353999,E,4,9,1.98,96.329,M,37.566,M,75.8,2006*6E,37.2325841261,137.02376293923334,679526.6178055115,4122593.000233975
548,[2021-02-22 15:35:38.494] $GNGGA,63537.9,3713.95505815,N,13701.425774673,E,4,9,1.98,96.338,M,37.566,M,75.9,2006*63,37.232584302499994,137.0237629112167,679526.614901427,4122593.0197535274
549,[2021-02-22 15:35:38.587] $GNGGA,63538.0,3713.955044834,N,13701.425775706999,E,4,9,1.98,96.33,M,37.566,M,76.0,2006*62,37.232584080566674,137.02376292845,679526.6169568397,4122592.9951613112
550,[2021-02-22 15:35:38.681] $GNGGA,63538.1,3713.9550444,N,13701.425773813999,E,4,9,1.98,96.32799999999999,M,37.566,M,76.1,2006*6B,37.232584073333335,137.02376289689997,679526.6141749028,4122592.9942988805
551,[2021-02-22 15:35:38.806] $GNGGA,63538.2,3713.955058436,N,13701.425769573001,E,4,9,1.98,96.34,M,37.566,M,76.2,2006*6A,37.23258430726667,137.02376282621668,679526.6073489785,4122593.020121187
552,[2021-02-22 15:35:38.884] $GNGGA,63538.3,3713.95504753,N,13701.42576784,E,4,9,1.98,96.329,M,37.566,M,76.3,2006*6F,37.2325841255,137.02376279733335,679526.6052176696,4122592.9998982404
553,[2021-02-22 15:35:38.994] $GNGGA,63538.4,3713.9550620229998,N,13701.42576409,E,4,9,1.98,96.335,M,37.566,M,76.4,2006*64,37.232584367049995,137.0237627348333,679526.5990996897,4122593.0265811854
554,[2021-02-22 15:35:39.087] $GNGGA,63538.5,3713.955053241,N,13701.425764459,E,4,9,1.98,96.32600000000001,M,37.566,M,76.5,2006*63,37.23258422068333,137.02376274098333,679526.5999925365,4122593.0103525445
555,[2021-02-22 15:35:39.197] $GNGGA,63538.6,3713.955066437,N,13701.425761731001,E,4,9,1.98,96.321,M,37.566,M,76.6,2006*6D,37.23258444061666,137.0237626955167,679526.5954370279,4122593.0346692945
556,[2021-02-22 15:35:39.306] $GNGGA,63538.7,3713.9550711809998,N,13701.425761545,E,4,8,2.14,96.322,M,37.566,M,76.7,2006*67,37.23258451968333,137.02376269241665,679526.5949744286,4122593.043436362
557,[2021-02-22 15:35:39.384] $GNGGA,63538.8,3713.9550747040003,N,13701.425763166,E,4,8,2.14,96.323,M,37.566,M,76.8,2006*6F,37.23258457840001,137.02376271943334,679526.597232037,4122593.050002595
558,[2021-02-22 15:35:39.493] $GNGGA,63538.9,3713.9550762490003,N,13701.425763153,E,4,8,2.14,96.32700000000001,M,37.566,M,76.9,2006*63,37.232584604150006,137.02376271921668,679526.5971517292,4122593.052859308
559,[2021-02-22 15:35:39.587] $GNGGA,63539.0,3713.955076463,N,13701.425763762,E,4,9,1.98,96.324,M,37.566,M,77.0,2006*6C,37.23258460771667,137.02376272936667,679526.5980437679,4122593.0532743055
560,[2021-02-22 15:35:39.697] $GNGGA,63539.1,3713.955078064,N,13701.425766741999,E,4,8,2.14,96.325,M,37.566,M,77.1,2006*61,37.2325846344,137.02376277903332,679526.6023868575,4122593.0563291986
561,[2021-02-22 15:35:39.806] $GNGGA,63539.2,3713.955075641,N,13701.425769456999,E,4,9,1.98,96.32700000000001,M,37.566,M,77.2,2006*61,37.23258459401666,137.0237628242833,679526.6064972033,4122593.051934244
562,[2021-02-22 15:35:39.884] $GNGGA,63539.3,3713.9550742379997,N,13701.425772812,E,4,8,2.14,96.32600000000001,M,37.566,M,77.3,2006*6A,37.23258457063333,137.02376288019997,679526.6115135617,4122593.049445781
563,[2021-02-22 15:35:39.993] $GNGGA,63539.4,3713.9550730809997,N,13701.425777786,E,4,9,1.98,96.323,M,37.566,M,77.4,2006*69,37.23258455134999,137.02376296309998,679526.6189141365,4122593.0474634203
564,[2021-02-22 15:35:40.087] $GNGGA,63539.5,3713.95506944,N,13701.425782862,E,4,8,2.14,96.322,M,37.566,M,77.5,2006*63,37.23258449066667,137.02376304770002,679526.6265637476,4122593.040890694
565,[2021-02-22 15:35:40.181] $GNGGA,63539.6,3713.955064801,N,13701.425788281002,E,4,9,1.98,96.324,M,37.566,M,77.6,2006*6A,37.232584413350004,137.0237631380167,679526.634759995,4122593.0324832387
566,[2021-02-22 15:35:40.306] $GNGGA,63539.7,3713.955063544,N,13701.425793158001,E,4,9,1.98,96.321,M,37.566,M,77.7,2006*69,37.23258439240001,137.0237632193,679526.6420210899,4122593.030312884
567,[2021-02-22 15:35:40.384] $GNGGA,63539.8,3713.955061394,N,13701.425794465,E,4,8,2.14,96.32799999999999,M,37.566,M,77.8,2006*63,37.23258435656667,137.02376324108334,679526.6440386985,4122593.0263782674
568,[2021-02-22 15:35:40.493] $GNGGA,63539.9,3713.955060125,N,13701.425794281002,E,4,9,1.98,96.33,M,37.566,M,77.9,2006*69,37.23258433541667,137.0237632380167,679526.643816802,4122593.024025725
569,[2021-02-22 15:35:40.587] $GNGGA,63540.0,3713.9550593179997,N,13701.425793498998,E,4,9,1.98,96.32600000000001,M,37.566,M,78.0,2006*61,37.23258432196666,137.0237632249833,679526.6426923946,4122593.0225086394
570,[2021-02-22 15:35:40.712] $GNGGA,63540.1,3713.955059205,N,13701.425793001,E,4,9,1.98,96.32799999999999,M,37.566,M,78.1,2006*67,37.23258432008333,137.02376321668336,679526.641960499,4122593.0222839294
571,[2021-02-22 15:35:40.790] $GNGGA,63540.2,3713.9550486790004,N,13701.425793919,E,4,9,1.98,96.32600000000001,M,37.566,M,78.2,2006*66,37.23258414465,137.02376323198334,679526.6437340764,4122593.0028475136
572,[2021-02-22 15:35:40.884] $GNGGA,63540.3,3713.955048522,N,13701.42579337,E,4,9,1.98,96.32799999999999,M,37.566,M,78.3,2006*60,37.23258414203333,137.0237632228333,679526.6429285004,4122593.002539821
573,[2021-02-22 15:35:40.993] $GNGGA,63540.4,3713.9550476179998,N,13701.425793311,E,4,7,2.49,96.318,M,37.566,M,78.4,2006*60,37.232584126966664,137.02376322185,679526.6428770026,4122593.0008662133
574,[2021-02-22 15:35:41.103] $GNGGA,63540.5,3713.955047946,N,13701.425793494,E,4,7,2.49,96.322,M,37.566,M,78.5,2006*67,37.23258413243333,137.0237632249,679526.643134628,4122593.0014785607
575,[2021-02-22 15:35:41.181] $GNGGA,63540.6,3713.955046525,N,13701.425793086,E,4,7,2.49,96.319,M,37.566,M,78.6,2006*60,37.23258410875,137.0237632181,679526.64258752,4122592.9988378473
576,[2021-02-22 15:35:41.290] $GNGGA,63540.7,3713.9550466459996,N,13701.425792368998,E,4,7,2.49,96.32,M,37.566,M,78.7,2006*6F,37.23258411076666,137.02376320615,679526.64152254,4122592.9990389408
577,[2021-02-22 15:35:41.384] $GNGGA,63540.8,3713.955047467,N,13701.425792501,E,4,7,2.49,96.321,M,37.566,M,78.8,2006*66,37.23258412445001,137.02376320835003,679526.6416852666,4122593.0005613687
578,[2021-02-22 15:35:41.509] $GNGGA,63540.9,3713.9550469459996,N,13701.425792537,E,4,7,2.49,96.319,M,37.566,M,78.9,2006*67,37.23258411576666,137.02376320895002,679526.6417590956,4122592.999599034
579,[2021-02-22 15:35:41.587] $GNGGA,63541.0,3713.955046457,N,13701.425794308001,E,4,7,2.49,96.321,M,37.566,M,79.0,2006*6D,37.23258410761667,137.02376323846667,679526.6443971248,4122592.9987507295
580,[2021-02-22 15:35:41.681] $GNGGA,63541.1,3713.955046357,N,13701.425794382,E,4,7,2.49,96.319,M,37.566,M,79.1,2006*63,37.23258410595,137.02376323969997,679526.6445104977,4122592.9985681404
581,[2021-02-22 15:35:41.790] $GNGGA,63541.2,3713.955045914,N,13701.425794773999,E,4,7,2.49,96.316,M,37.566,M,79.2,2006*6F,37.23258409856666,137.02376324623333,679526.6451076465,4122592.997761306
582,[2021-02-22 15:35:41.900] $GNGGA,63541.3,3713.95504537,N,13701.425794988001,E,4,7,2.49,96.319,M,37.566,M,79.3,2006*65,37.232584089499994,137.0237632498,679526.6454455878,4122592.996762067
583,[2021-02-22 15:35:41.993] $GNGGA,63541.4,3713.955046697,N,13701.425793176999,E,4,7,2.49,96.31700000000001,M,37.566,M,79.4,2006*6B,37.23258411161667,137.02376321961663,679526.6427152748,4122592.9991587987
584,[2021-02-22 15:35:42.087] $GNGGA,63541.5,3713.9550464340005,N,13701.425792083,E,4,7,2.49,96.31299999999999,M,37.566,M,79.5,2006*6F,37.23258410723334,137.02376320138333,679526.6411080274,4122592.9986378555
585,[2021-02-22 15:35:42.196] $GNGGA,63541.6,3713.955045223,N,13701.425793212,E,4,7,2.49,96.314,M,37.566,M,79.6,2006*60,37.23258408704999,137.02376322019998,679526.6428253071,4122592.996434078
586,[2021-02-22 15:35:42.306] $GNGGA,63541.7,3713.9550461979998,N,13701.425792305,E,4,7,2.49,96.315,M,37.566,M,79.7,2006*67,37.2325841033,137.02376320508333,679526.64144562,4122592.998208445
587,[2021-02-22 15:35:42.384] $GNGGA,63541.8,3713.955047258,N,13701.425793061,E,4,7,2.49,96.31299999999999,M,37.566,M,79.8,2006*6F,37.23258412096666,137.02376321768332,679526.6425215714,4122593.0001925733
588,[2021-02-22 15:35:42.493] $GNGGA,63541.9,3713.955048792,N,13701.425793568,E,4,7,2.49,96.315,M,37.566,M,79.9,2006*69,37.23258414653333,137.02376322613335,679526.6432106025,4122593.0030453843
589,[2021-02-22 15:35:42.587] $GNGGA,63542.0,3713.955049161,N,13701.425793203998,E,4,7,2.49,96.31700000000001,M,37.566,M,80.0,2006*68,37.23258415268332,137.02376322006663,679526.6426577759,4122593.0037162574
590,[2021-02-22 15:35:42.696] $GNGGA,63542.1,3713.955048273,N,13701.425795448999,E,4,7,2.49,96.319,M,37.566,M,80.1,2006*6E,37.232584137883336,137.0237632574833,679526.6460124666,4122593.0021450785
591,[2021-02-22 15:35:42.806] $GNGGA,63542.2,3713.955048622,N,13701.425794185,E,4,7,2.49,96.324,M,37.566,M,80.2,2006*64,37.2325841437,137.02376323641664,679526.6441296503,4122593.002750515
592,[2021-02-22 15:35:42.884] $GNGGA,63542.3,3713.9550483159996,N,13701.425794947,E,4,7,2.49,96.325,M,37.566,M,80.3,2006*61,37.23258413859999,137.02376324911666,679526.6452684843,4122593.0022087255
593,[2021-02-22 15:35:42.993] $GNGGA,63542.4,3713.955048203,N,13701.425793946999,E,4,7,2.49,96.321,M,37.566,M,80.4,2006*67,37.23258413671666,137.02376323244997,679526.643794295,4122593.0019681444
594,[2021-02-22 15:35:43.087] $GNGGA,63542.5,3713.955047715,N,13701.425792173,E,4,6,3.49,96.315,M,37.566,M,80.5,2006*63,37.23258412858334,137.02376320288334,679526.6411904607,4122593.0010096175
595,[2021-02-22 15:35:43.196] $GNGGA,63542.6,3713.9550475220003,N,13701.425793731001,E,4,6,3.49,96.31299999999999,M,37.566,M,80.6,2006*62,37.23258412536668,137.02376322885004,679526.6435018372,4122593.000701964
596,[2021-02-22 15:35:43.306] $GNGGA,63542.7,3713.955047788,N,13701.425795153998,E,4,6,3.49,96.315,M,37.566,M,80.7,2006*65,37.2325841298,137.02376325256662,679526.6455954383,4122593.001238856
597,[2021-02-22 15:35:43.384] $GNGGA,63542.8,3713.95504774,N,13701.425795631001,E,4,6,3.49,96.31700000000001,M,37.566,M,80.8,2006*67,37.232584129,137.0237632605167,679526.64630266,4122593.0011651707
598,[2021-02-22 15:35:43.493] $GNGGA,63542.9,3713.955050212,N,13701.425795313999,E,4,6,3.49,96.319,M,37.566,M,80.9,2006*6F,37.232584170200006,137.0237632552333,679526.6457361843,4122593.005726548
599,[2021-02-22 15:35:43.587] $GNGGA,63543.0,3713.955049796,N,13701.425794248998,E,4,6,3.49,96.314,M,37.566,M,81.0,2006*6B,37.23258416326667,137.0237632374833,679526.6441778659,4122593.004923582
600,[2021-02-22 15:35:43.696] $GNGGA,63543.1,3713.9550510579998,N,13701.425793958,E,4,6,3.49,96.318,M,37.566,M,81.1,2006*67,37.23258418429999,137.02376323263334,679526.6436976838,4122593.0072481628
601,[2021-02-22 15:35:43.806] $GNGGA,63543.2,3713.955049854,N,13701.425795049,E,4,6,3.49,96.318,M,37.566,M,81.2,2006*65,37.23258416423334,137.02376325081664,679526.6453584973,4122593.005056132
602,[2021-02-22 15:35:43.884] $GNGGA,63543.3,3713.9550490059996,N,13701.425795096002,E,4,6,3.49,96.316,M,37.566,M,81.3,2006*66,37.232584150099996,137.02376325160006,679526.6454615289,4122593.003489435
603,[2021-02-22 15:35:43.993] $GNGGA,63543.4,3713.955050039,N,13701.425795703,E,4,6,3.49,96.318,M,37.566,M,81.4,2006*67,37.232584167316666,137.02376326171665,679526.646318222,4122593.0054189228
604,[2021-02-22 15:35:44.087] $GNGGA,63543.5,3713.9550491859995,N,13701.425794628001,E,4,6,3.49,96.314,M,37.566,M,81.5,2006*6F,37.232584153099985,137.02376324380003,679526.6447624001,4122593.003807508
605,[2021-02-22 15:35:44.196] $GNGGA,63543.6,3713.955048985,N,13701.425795099,E,4,6,3.49,96.31299999999999,M,37.566,M,81.6,2006*6F,37.23258414974999,137.02376325164997,679526.6454667859,4122593.0034506936
606,[2021-02-22 15:35:44.306] $GNGGA,63543.7,3713.9550484409997,N,13701.425796762,E,4,6,3.49,96.31700000000001,M,37.566,M,81.7,2006*6E,37.23258414068332,137.02376327936665,679526.6479473005,4122593.0024972633
607,[2021-02-22 15:35:44.384] $GNGGA,63543.8,3713.955047503,N,13701.425796324,E,4,6,3.49,96.314,M,37.566,M,81.8,2006*63,37.232584125049996,137.02376327206667,679526.6473367376,4122593.0007488
608,[2021-02-22 15:35:44.493] $GNGGA,63543.9,3713.955047655,N,13701.425796667,E,4,6,3.49,96.314,M,37.566,M,81.9,2006*61,37.23258412758333,137.0237632777833,679526.6478379029,4122593.001040733
609,[2021-02-22 15:35:44.587] $GNGGA,63544.0,3713.955045784,N,13701.425795889,E,4,6,3.49,96.314,M,37.566,M,82.0,2006*67,37.232584096400004,137.02376326481667,679526.6467614874,4122592.9975561514
610,[2021-02-22 15:35:44.696] $GNGGA,63544.1,3713.9550471459997,N,13701.42579506,E,4,6,3.49,96.315,M,37.566,M,82.1,2006*63,37.2325841191,137.02376325100002,679526.6454818349,4122593.0000486504
611,[2021-02-22 15:35:44.806] $GNGGA,63544.2,3713.955046572,N,13701.425794716,E,4,6,3.49,96.31299999999999,M,37.566,M,82.2,2006*60,37.232584109533335,137.02376324526665,679526.6449958691,4122592.998976294
612,[2021-02-22 15:35:44.884] $GNGGA,63544.3,3713.955046866,N,13701.425795353001,E,4,6,3.49,96.31299999999999,M,37.566,M,82.3,2006*6C,37.23258411443333,137.02376325588335,679526.6459261503,4122592.999540118
613,[2021-02-22 15:35:44.993] $GNGGA,63544.4,3713.955048157,N,13701.42579604,E,4,6,3.49,96.315,M,37.566,M,82.4,2006*6D,37.23258413595,137.02376326733332,679526.6468909403,4122593.0019492465
614,[2021-02-22 15:35:45.087] $GNGGA,63544.5,3713.955049365,N,13701.425793745,E,4,6,3.49,96.314,M,37.566,M,82.5,2006*69,37.232584156083334,137.02376322908333,679526.6434496671,4122593.004110614
615,[2021-02-22 15:35:45.212] $GNGGA,63544.6,3713.9550476179998,N,13701.425795845,E,4,6,3.49,96.314,M,37.566,M,82.6,2006*61,37.232584126966664,137.02376326408333,679526.6466239141,4122593.0009463234
616,[2021-02-22 15:35:45.290] $GNGGA,63544.7,3713.955048572,N,13701.425795422,E,4,6,3.49,96.315,M,37.566,M,82.7,2006*6D,37.23258414286667,137.02376325703332,679526.6459607225,4122593.002697157
617,[2021-02-22 15:35:45.384] $GNGGA,63544.8,3713.955048211,N,13701.42579526,E,4,6,3.49,96.314,M,37.566,M,82.8,2006*6E,37.232584136849994,137.02376325433332,679526.6457354549,4122593.002024447
618,[2021-02-22 15:35:45.493] $GNGGA,63544.9,3713.955048683,N,13701.425796258998,E,4,6,3.49,96.319,M,37.566,M,82.9,2006*65,37.23258414471666,137.02376327098332,679526.6471939691,4122593.0029288866
619,[2021-02-22 15:35:45.602] $GNGGA,63545.0,3713.95504715,N,13701.425797038,E,4,6,3.49,96.319,M,37.566,M,83.0,2006*67,37.23258411916667,137.0237632839667,679526.6484064568,4122593.000118581
620,[2021-02-22 15:35:45.681] $GNGGA,63545.1,3713.95504577,N,13701.425797033999,E,4,6,3.49,96.31700000000001,M,37.566,M,83.1,2006*63,37.232584096166676,137.0237632839,679526.6484551,4122592.99756646
621,[2021-02-22 15:35:45.790] $GNGGA,63545.2,3713.955045413,N,13701.425797865,E,4,6,3.49,96.316,M,37.566,M,83.2,2006*68,37.23258409021666,137.02376329774998,679526.6496979764,4122592.99693254
622,[2021-02-22 15:35:45.884] $GNGGA,63545.3,3713.955045267,N,13701.425796814,E,4,6,3.49,96.319,M,37.566,M,83.3,2006*65,37.23258408778334,137.0237632802333,679526.6481496831,4122592.99662932
623,[2021-02-22 15:35:46.009] $GNGGA,63545.4,3713.955044677,N,13701.425797075,E,4,6,3.49,96.322,M,37.566,M,83.4,2006*67,37.23258407795,137.02376328458334,679526.6485589399,4122592.995546501
624,[2021-02-22 15:35:46.087] $GNGGA,63545.5,3713.955045232,N,13701.425798298,E,4,6,3.49,96.318,M,37.566,M,83.5,2006*64,37.2325840872,137.02376330496665,679526.650345389,4122592.9966115104
625,[2021-02-22 15:35:46.181] $GNGGA,63545.6,3713.955043853,N,13701.425798811,E,4,7,2.5,96.321,M,37.566,M,83.6,2006*66,37.23258406421667,137.02376331351664,679526.6511584609,4122592.9940775824
626,[2021-02-22 15:35:46.290] $GNGGA,63545.7,3713.955040802,N,13701.425801222,E,4,7,2.5,96.31700000000001,M,37.566,M,83.7,2006*61,37.23258401336667,137.02376335370002,679526.6548441316,4122592.988511675
627,[2021-02-22 15:35:46.399] $GNGGA,63545.8,3713.955041438,N,13701.425800306999,E,4,7,2.5,96.31299999999999,M,37.566,M,83.8,2006*66,37.23258402396667,137.02376333844998,679526.6534660145,4122592.989658885
628,[2021-02-22 15:35:46.493] $GNGGA,63545.9,3713.9550416909997,N,13701.425799302,E,4,7,2.5,96.31200000000001,M,37.566,M,83.9,2006*6C,37.23258402818333,137.02376332170002,679526.6519699661,4122592.990094979
629,[2021-02-22 15:35:46.587] $GNGGA,63546.0,3713.9550418020003,N,13701.425797425,E,4,7,2.5,96.31,M,37.566,M,84.0,2006*62,37.23258403003334,137.02376329041667,679526.649190141,4122592.9902409078
630,[2021-02-22 15:35:46.681] $GNGGA,63546.1,3713.955042632,N,13701.425797795,E,4,7,2.5,96.311,M,37.566,M,84.1,2006*65,37.232584043866666,137.02376329658333,679526.6497044264,4122592.9917875016
631,[2021-02-22 15:35:46.805] $GNGGA,63546.2,3713.955041054,N,13701.425796843001,E,4,7,2.5,96.309,M,37.566,M,84.2,2006*6C,37.23258401756667,137.02376328071668,679526.64835914,4122592.9888392533
632,[2021-02-22 15:35:46.884] $GNGGA,63546.3,3713.955041497,N,13701.425795321002,E,4,7,2.5,96.306,M,37.566,M,84.3,2006*64,37.23258402494999,137.02376325535002,679526.6460911112,4122592.989610364
633,[2021-02-22 15:35:46.993] $GNGGA,63546.4,3713.9550405990003,N,13701.425795806,E,4,7,2.5,96.309,M,37.566,M,84.4,2006*6B,37.232584009983334,137.02376326343332,679526.6468437621,4122592.987965051
634,[2021-02-22 15:35:47.087] $GNGGA,63546.5,3713.9550412629997,N,13701.425794482,E,4,7,2.5,96.30799999999999,M,37.566,M,84.5,2006*68,37.23258402104999,137.02376324136668,679526.6448597729,4122592.9891511095
635,[2021-02-22 15:35:47.196] $GNGGA,63546.6,3713.95504054,N,13701.425794677,E,4,7,2.5,96.303,M,37.566,M,84.6,2006*6C,37.232584009,137.02376324461665,679526.6451766933,4122592.987820252
636,[2021-02-22 15:35:47.305] $GNGGA,63546.7,3713.9550411809996,N,13701.425794509,E,4,7,2.5,96.303,M,37.566,M,84.7,2006*6E,37.23258401968333,137.02376324181662,679526.6449029327,4122592.9890003237
637,[2021-02-22 15:35:47.384] $GNGGA,63546.8,3713.9550414990003,N,13701.425794686002,E,4,7,2.5,96.303,M,37.566,M,84.8,2006*66,37.23258402498334,137.0237632447667,679526.6451520885,4122592.9895939883
638,[2021-02-22 15:35:47.493] $GNGGA,63546.9,3713.9550421040003,N,13701.425793931001,E,4,7,2.5,96.306,M,37.566,M,84.9,2006*65,37.23258403506668,137.02376323218334,679526.6440117807,4122592.9906889303
639,[2021-02-22 15:35:47.587] $GNGGA,63547.0,3713.955042781,N,13701.425793656,E,4,7,2.5,96.304,M,37.566,M,85.0,2006*62,37.23258404635,137.0237632276,679526.6435783838,4122592.991932193
640,[2021-02-22 15:35:47.696] $GNGGA,63547.1,3713.955042724,N,13701.425793207,E,4,7,2.5,96.304,M,37.566,M,85.1,2006*6D,37.2325840454,137.02376322011665,679526.642916719,4122592.991812589
641,[2021-02-22 15:35:47.805] $GNGGA,63547.2,3713.9550416559996,N,13701.425794388,E,4,7,2.5,96.305,M,37.566,M,85.2,2006*6A,37.2325840276,137.02376323980002,679526.6447052411,4122592.9898749026
642,[2021-02-22 15:35:47.884] $GNGGA,63547.3,3713.955041684,N,13701.425795484,E,4,7,2.5,96.307,M,37.566,M,85.3,2006*6D,37.23258402806667,137.02376325806665,679526.646324737,4122592.9899613317
643,[2021-02-22 15:35:47.993] $GNGGA,63547.4,3713.9550411890004,N,13701.425796948,E,4,7,2.5,96.305,M,37.566,M,85.4,2006*6B,37.23258401981668,137.0237632824667,679526.6485090605,4122592.989092226
644,[2021-02-22 15:35:48.087] $GNGGA,63547.5,3713.955039688,N,13701.425799095,E,4,7,2.5,96.307,M,37.566,M,85.5,2006*66,37.232583994799995,137.02376331825,679526.6517430756,4122592.9863843424
645,[2021-02-22 15:35:48.196] $GNGGA,63547.6,3713.955039632,N,13701.425798716002,E,4,7,2.5,96.30799999999999,M,37.566,M,85.6,2006*65,37.232583993866676,137.02376331193338,679526.6511848848,4122592.986268802
646,[2021-02-22 15:35:48.305] $GNGGA,63547.7,3713.9550388440002,N,13701.425795742,E,4,7,2.5,96.31,M,37.566,M,85.7,2006*6E,37.23258398073333,137.02376326236666,679526.6468185158,4122592.984717555
647,[2021-02-22 15:35:48.384] $GNGGA,63547.8,3713.955036839,N,13701.425792501,E,4,7,2.5,96.30799999999999,M,37.566,M,85.8,2006*61,37.23258394731666,137.02376320835003,679526.6421054746,4122592.9809073037
648,[2021-02-22 15:35:48.493] $GNGGA,63547.9,3713.955035149,N,13701.42579153,E,4,7,2.5,96.307,M,37.566,M,85.9,2006*62,37.23258391915,137.02376319216665,679526.6407365161,4122592.9777513375
649,[2021-02-22 15:35:48.587] $GNGGA,63548.0,3713.955035563,N,13701.425790203,E,4,7,2.5,96.305,M,37.566,M,86.0,2006*66,37.23258392605,137.02376317005002,679526.6387579753,4122592.978474984
650,[2021-02-22 15:35:48.696] $GNGGA,63548.1,3713.9550359940004,N,13701.425789983,E,4,7,2.5,96.306,M,37.566,M,86.1,2006*6A,37.232583933233336,137.02376316638333,679526.6384156279,4122592.979265066
651,[2021-02-22 15:35:48.805] $GNGGA,63548.2,3713.9550355359997,N,13701.42578996,E,4,7,2.5,96.307,M,37.566,M,86.2,2006*62,37.232583925600004,137.023763166,679526.6383997283,4122592.978417372
652,[2021-02-22 15:35:48.883] $GNGGA,63548.3,3713.955036279,N,13701.425788165,E,4,7,2.5,96.304,M,37.566,M,86.3,2006*62,37.23258393798334,137.02376313608332,679526.6357161631,4122592.979734635
653,[2021-02-22 15:35:48.993] $GNGGA,63548.4,3713.9550358859997,N,13701.425787072,E,4,7,2.5,96.303,M,37.566,M,86.4,2006*64,37.23258393143333,137.02376311786668,679526.6341155344,4122592.9789733165
654,[2021-02-22 15:35:49.087] $GNGGA,63548.5,3713.9550355959996,N,13701.425783753999,E,4,7,2.5,96.303,M,37.566,M,86.5,2006*6F,37.23258392659999,137.02376306256664,679526.6292208219,4122592.978332132
655,[2021-02-22 15:35:49.212] $GNGGA,63548.6,3713.955035216,N,13701.425779287,E,4,7,2.5,96.301,M,37.566,M,86.6,2006*6C,37.23258392026667,137.02376298811663,679526.6226306942,4122592.9774881895
656,[2021-02-22 15:35:49.290] $GNGGA,63548.7,3713.9550347609998,N,13701.425778636001,E,4,7,2.5,96.301,M,37.566,M,86.7,2006*67,37.23258391268333,137.0237629772667,679526.6216860872,4122592.9766261894
657,[2021-02-22 15:35:49.383] $GNGGA,63548.8,3713.9550340909996,N,13701.425779708,E,4,7,2.5,96.304,M,37.566,M,86.8,2006*67,37.23258390151666,137.02376299513335,679526.623297694,4122592.9754210683
658,[2021-02-22 15:35:49.493] $GNGGA,63548.9,3713.9550342109997,N,13701.425782138,E,4,7,2.5,96.307,M,37.566,M,86.9,2006*6F,37.23258390351666,137.02376303563332,679526.626886077,4122592.975719803
659,[2021-02-22 15:35:49.602] $GNGGA,63549.0,3713.95503386,N,13701.425784118,E,4,7,2.5,96.31,M,37.566,M,87.0,2006*66,37.23258389766667,137.02376306863334,679526.6298276919,4122592.9751333036
660,[2021-02-22 15:35:49.680] $GNGGA,63549.1,3713.9550343379997,N,13701.425784796002,E,4,7,2.5,96.31,M,37.566,M,87.1,2006*67,37.23258390563333,137.02376307993336,679526.6308113233,4122592.976038689
661,[2021-02-22 15:35:49.790] $GNGGA,63549.2,3713.955035417,N,13701.425781256,E,4,7,2.5,96.31299999999999,M,37.566,M,87.2,2006*63,37.232583923616666,137.02376302093333,679526.6255342219,4122592.9779221406
662,[2021-02-22 15:35:49.883] $GNGGA,63549.3,3713.955035165,N,13701.425781177,E,4,7,2.5,96.31299999999999,M,37.566,M,87.3,2006*63,37.23258391941667,137.02376301961667,679526.625427371,4122592.977453627
663,[2021-02-22 15:35:50.008] $GNGGA,63549.4,3713.9550344920003,N,13701.425780963,E,4,7,2.5,96.31299999999999,M,37.566,M,87.4,2006*63,37.232583908200006,137.02376301605003,679526.6251375518,4122592.976202302
664,[2021-02-22 15:35:50.087] $GNGGA,63549.5,3713.9550360870003,N,13701.425781081001,E,4,7,2.5,96.309,M,37.566,M,87.5,2006*6E,37.23258393478334,137.0237630180167,679526.6252489688,4122592.9791556224
665,[2021-02-22 15:35:50.180] $GNGGA,63549.6,3713.95503705,N,13701.425782797,E,4,7,2.5,96.31200000000001,M,37.566,M,87.6,2006*6C,37.23258395083334,137.02376304661666,679526.6277482638,4122592.980990719
666,[2021-02-22 15:35:50.290] $GNGGA,63549.7,3713.955038746,N,13701.425783175,E,4,7,2.5,96.311,M,37.566,M,87.7,2006*6B,37.2325839791,137.02376305291668,679526.6282401406,4122592.9841390336
667,[2021-02-22 15:35:50.415] $GNGGA,63549.8,3713.95503985,N,13701.425784346999,E,4,7,2.5,96.31,M,37.566,M,87.8,2006*67,37.2325839975,137.02376307244995,679526.6299294678,4122592.9862176827
