,Format,Time,Latitude,LatType,Longitude,LonType,Status,Satellite,LevelAccuracy,Altitude(sea),M(sea),Altitude(geoid),M(geoid),DGPS use,checksum,Lat,Lon,UTM_X,UTM_Y
883,[2021-02-22 16:09:37.719] $GPGGA,70937.3,3713.9559283,N,13701.4248195,E,4,11,1.3,97.0328,M,37.55,M,5.0,0000*68,37.232598804999995,137.02374699166666,679525.1681268193,4122594.5987008973
884,[2021-02-22 16:09:37.828] $GPGGA,70937.4,3713.9559273,N,13701.4248188,E,4,11,1.3,97.0342,M,37.55,M,5.0,0000*60,37.23259878833334,137.02374698000003,679525.167131302,4122594.5968294973
885,[2021-02-22 16:09:37.922] $GPGGA,70937.5,3713.9559272,N,13701.424817899999,E,4,11,1.3,97.0343,M,37.55,M,5.0,0000*6F,37.232598786666664,137.023746965,679525.165804464,4122594.596616116
886,[2021-02-22 16:09:38.000] $GPGGA,70937.6,3713.9559279,N,13701.4248177,E,4,11,1.3,97.0355,M,37.55,M,5.0,0000*6E,37.23259879833333,137.0237469616667,679525.16548106,4122594.5979042836
887,[2021-02-22 16:09:38.125] $GPGGA,70937.7,3713.9559284,N,13701.4248185,E,4,11,1.3,97.0377,M,37.55,M,5.0,0000*60,37.232598806666665,137.02374697499997,679525.1666442088,4122594.5988542107
888,[2021-02-22 16:09:38.203] $GPGGA,70937.8,3713.9559289999997,N,13701.424818200001,E,4,11,1.3,97.0376,M,37.55,M,5.0,0000*6C,37.23259881666666,137.02374697000002,679525.1661768961,4122594.59995429
889,[2021-02-22 16:09:38.313] $GPGGA,70937.9,3713.9559294,N,13701.4248188,E,4,11,1.3,97.0387,M,37.55,M,5.0,0000*6D,37.23259882333333,137.02374698000003,679525.1670482731,4122594.6007129676
890,[2021-02-22 16:09:38.391] $GPGGA,70938.0,3713.9559295999998,N,13701.424820200002,E,4,11,1.3,97.0388,M,37.55,M,6.0,0000*64,37.23259882666666,137.02374700333334,679525.1691104799,4122594.6011270806
891,[2021-02-22 16:09:38.500] $GPGGA,70938.1,3713.9559301,N,13701.424819999998,E,4,11,1.3,97.0405,M,37.55,M,6.0,0000*6A,37.232598835,137.023747,679525.168794979,4122594.602045393
892,[2021-02-22 16:09:38.594] $GPGGA,70938.2,3713.9559296999996,N,13701.424820299999,E,4,11,1.3,97.043,M,37.55,M,1.0,0000*65,37.23259882833333,137.023747005,679525.1692543912,4122594.6013151687
893,[2021-02-22 16:09:38.719] $GPGGA,70938.3,3713.9559299000002,N,13701.424818700001,E,4,11,1.3,97.045,M,37.55,M,1.0,0000*63,37.23259883166668,137.02374697833338,679525.1668806416,4122594.6016344437
894,[2021-02-22 16:09:38.828] $GPGGA,70938.4,3713.9559298,N,13701.424816699999,E,4,11,1.3,97.046,M,37.55,M,1.0,0000*68,37.23259883,137.02374694499997,679525.1639272798,4122594.6013862877
895,[2021-02-22 16:09:38.906] $GPGGA,70938.5,3713.9559305,N,13701.424815200002,E,4,11,1.3,97.0457,M,37.55,M,1.0,0000*6E,37.232598841666665,137.02374692000004,679525.1616816288,4122594.6026333575
896,[2021-02-22 16:09:39.031] $GPGGA,70938.6,3713.9559317000003,N,13701.424814200001,E,4,11,1.3,97.0432,M,37.55,M,1.0,0000*6C,37.232598861666666,137.02374690333335,679525.1601555272,4122594.604820871
897,[2021-02-22 16:09:39.094] $GPGGA,70938.7,3713.9559317000003,N,13701.4248129,E,4,11,1.3,97.0415,M,37.55,M,1.0,0000*65,37.232598861666666,137.02374688166668,679525.1582332755,4122594.6047797725
898,[2021-02-22 16:09:39.219] $GPGGA,70938.8,3713.9559313,N,13701.4248129,E,4,11,1.3,97.0395,M,37.55,M,1.0,0000*61,37.232598855,137.02374688166668,679525.1582490905,4122594.604040063
899,[2021-02-22 16:09:39.297] $GPGGA,70938.9,3713.9559313,N,13701.4248122,E,4,11,1.3,97.0376,M,37.55,M,1.0,0000*66,37.232598855,137.02374687,679525.1572140312,4122594.604017933
900,[2021-02-22 16:09:39.422] $GPGGA,70939.0,3713.9559314000003,N,13701.4248122,E,4,11,1.3,97.0348,M,37.55,M,2.0,0000*67,37.23259885666667,137.02374687,679525.1572100774,4122594.6042028614
901,[2021-02-22 16:09:39.516] $GPGGA,70939.1,3713.9559314999997,N,13701.4248129,E,4,11,1.3,97.035,M,37.55,M,2.0,0000*65,37.23259885833333,137.02374688166668,679525.158241183,4122594.604409918
902,[2021-02-22 16:09:39.625] $GPGGA,70939.2,3713.9559306,N,13701.4248149,E,4,11,1.3,97.0381,M,37.55,M,2.0,0000*6E,37.232598843333335,137.023746915,679525.1612340757,4122594.602808801
903,[2021-02-22 16:09:39.703] $GPGGA,70939.3,3713.9559306999995,N,13701.4248158,E,4,11,1.3,97.0387,M,37.55,M,2.0,0000*68,37.232598844999984,137.02374693,679525.1625609089,4122594.603022178
904,[2021-02-22 16:09:39.813] $GPGGA,70939.4,3713.9559303,N,13701.424817200003,E,4,11,1.3,97.0397,M,37.55,M,2.0,0000*62,37.23259883833333,137.0237469533334,679525.1646468451,4122594.6023267303
905,[2021-02-22 16:09:39.906] $GPGGA,70939.5,3713.9559302000002,N,13701.4248176,E,4,11,1.3,97.041,M,37.55,M,2.0,0000*6E,37.23259883666667,137.02374695999998,679525.1652422543,4122594.602154449
906,[2021-02-22 16:09:40.016] $GPGGA,70939.6,3713.9559304,N,13701.4248174,E,4,11,1.3,97.0427,M,37.55,M,2.0,0000*6D,37.23259884,137.02374695666668,679525.164938619,4122594.6025179806
907,[2021-02-22 16:09:40.094] $GPGGA,70939.7,3713.9559299999996,N,13701.424817899999,E,4,11,1.3,97.0435,M,37.55,M,2.0,0000*66,37.23259883333333,137.023746965,679525.165693759,4122594.601794078
908,[2021-02-22 16:09:40.219] $GPGGA,70939.8,3713.9559310000004,N,13701.4248174,E,4,11,1.3,97.0439,M,37.55,M,2.0,0000*69,37.23259885,137.02374695666668,679525.1649148965,4122594.6036275425
909,[2021-02-22 16:09:40.297] $GPGGA,70939.9,3713.9559312,N,13701.4248181,E,4,11,1.3,97.0454,M,37.55,M,2.0,0000*6B,37.232598853333336,137.02374696833334,679525.1659420462,4122594.604019528
910,[2021-02-22 16:09:40.422] $GPGGA,70940.0,3713.9559308,N,13701.424818200001,E,4,11,1.3,97.0408,M,37.55,M,3.0,0000*6C,37.23259884666666,137.02374697000002,679525.1661057285,4122594.603282979
911,[2021-02-22 16:09:40.516] $GPGGA,70940.1,3713.9559306999995,N,13701.4248185,E,4,11,1.3,97.0412,M,37.55,M,3.0,0000*6E,37.232598844999984,137.02374697499997,679525.1665532726,4122594.603107535
912,[2021-02-22 16:09:40.625] $GPGGA,70940.2,3713.9559299000002,N,13701.424819400001,E,4,11,1.3,97.0419,M,37.55,M,3.0,0000*60,37.23259883166668,137.02374699,679525.1679156965,4122594.6016565734
913,[2021-02-22 16:09:40.719] $GPGGA,70940.3,3713.9559305,N,13701.4248199,E,4,11,1.3,97.0425,M,37.55,M,3.0,0000*67,37.232598841666665,137.02374699833334,679525.1686313013,4122594.6027819416
914,[2021-02-22 16:09:40.797] $GPGGA,70940.4,3713.9559303,N,13701.424820700002,E,4,11,1.3,97.042,M,37.55,M,3.0,0000*67,37.23259883833333,137.02374701166667,679525.1698221309,4122594.602437378
915,[2021-02-22 16:09:40.922] $GPGGA,70940.5,3713.9559289999997,N,13701.424820200002,E,4,12,1.1,97.0421,M,37.55,M,3.0,0000*68,37.23259881666666,137.02374700333334,679525.1691342025,4122594.600017517
916,[2021-02-22 16:09:41.000] $GPGGA,70940.6,3713.9559280999997,N,13701.4248199,E,4,12,1.1,97.0414,M,37.55,M,3.0,0000*6C,37.23259880166666,137.02374699833334,679525.1687261913,4122594.5983436885
917,[2021-02-22 16:09:41.125] $GPGGA,70940.7,3713.9559280999997,N,13701.424820100001,E,4,12,1.1,97.0408,M,37.55,M,3.0,0000*62,37.23259880166666,137.0237470016667,679525.1690219236,4122594.5983500103
918,[2021-02-22 16:09:41.203] $GPGGA,70940.8,3713.9559276999994,N,13701.424818599999,E,4,12,1.1,97.0399,M,37.55,M,3.0,0000*67,37.232598794999994,137.02374697666662,679525.1668197502,4122594.597562881
919,[2021-02-22 16:09:41.328] $GPGGA,70940.9,3713.9559279,N,13701.424817899999,E,4,12,1.1,97.0392,M,37.55,M,3.0,0000*63,37.23259879833333,137.023746965,679525.1657767878,4122594.5979106063
920,[2021-02-22 16:09:41.406] $GPGGA,70941.0,3713.9559278000006,N,13701.4248181,E,4,12,1.1,97.0352,M,37.55,M,4.0,0000*66,37.23259879666668,137.02374696833334,679525.1660764737,4122594.5977320047
921,[2021-02-22 16:09:41.500] $GPGGA,70941.1,3713.9559288,N,13701.424817200003,E,4,12,1.1,97.0335,M,37.55,M,4.0,0000*65,37.23259881333333,137.0237469533334,679525.1647061514,4122594.599552822
922,[2021-02-22 16:09:41.594] $GPGGA,70941.2,3713.9559288,N,13701.4248171,E,4,12,1.1,97.0324,M,37.55,M,4.0,0000*65,37.23259881333333,137.02374695166665,679525.1645582796,4122594.5995496605
923,[2021-02-22 16:09:41.719] $GPGGA,70941.3,3713.9559284999996,N,13701.424815600001,E,4,12,1.1,97.0322,M,37.55,M,4.0,0000*6A,37.23259880833333,137.0237469266667,679525.1623521637,4122594.5989474575
924,[2021-02-22 16:09:41.812] $GPGGA,70941.4,3713.9559286,N,13701.424814700002,E,4,12,1.1,97.0313,M,37.55,M,4.0,0000*6C,37.23259881,137.0237469116667,679525.1610174228,4122594.599103935
925,[2021-02-22 16:09:41.922] $GPGGA,70941.5,3713.9559266999995,N,13701.424815299999,E,4,12,1.1,97.0314,M,37.55,M,4.0,0000*60,37.232598778333326,137.02374692166663,679525.1619797295,4122594.5956092835
926,[2021-02-22 16:09:42.000] $GPGGA,70941.6,3713.9559256,N,13701.4248163,E,4,12,1.1,97.0331,M,37.55,M,4.0,0000*65,37.232598759999995,137.02374693833332,679525.1635018775,4122594.593606699
927,[2021-02-22 16:09:42.125] $GPGGA,70941.7,3713.9559243,N,13701.424815600001,E,4,12,1.1,97.0325,M,37.55,M,4.0,0000*63,37.23259873833334,137.0237469266667,679525.1625182213,4122594.591180517
928,[2021-02-22 16:09:42.203] $GPGGA,70941.8,3713.9559235,N,13701.4248135,E,4,12,1.1,97.0334,M,37.55,M,4.0,0000*68,37.232598725,137.02374689166666,679525.1594446731,4122594.5896347095
929,[2021-02-22 16:09:42.328] $GPGGA,70941.9,3713.9559225999997,N,13701.424813799998,E,4,12,1.1,97.036,M,37.55,M,4.0,0000*67,37.23259870999999,137.0237468966666,679525.1599238496,4122594.587979848
930,[2021-02-22 16:09:42.422] $GPGGA,70942.0,3713.9559236,N,13701.424812700001,E,4,12,1.1,97.0342,M,37.55,M,5.0,0000*63,37.23259872666666,137.02374687833333,679525.1582577972,4122594.5897943447
931,[2021-02-22 16:09:42.516] $GPGGA,70942.1,3713.9559238000006,N,13701.4248111,E,4,12,1.1,97.0339,M,37.55,M,5.0,0000*65,37.23259873000001,137.02374685166666,679525.1558840431,4122594.59011362
932,[2021-02-22 16:09:42.625] $GPGGA,70942.2,3713.9559251,N,13701.4248089,E,4,12,1.1,97.0335,M,37.55,M,5.0,0000*65,37.23259875166667,137.023746815,679525.1525796056,4122594.592448123
933,[2021-02-22 16:09:42.703] $GPGGA,70942.3,3713.9559265000003,N,13701.4248065,E,4,12,1.1,97.0327,M,37.55,M,5.0,0000*62,37.23259877500001,137.023746775,679525.1489754821,4122594.594961231
934,[2021-02-22 16:09:42.828] $GPGGA,70942.4,3713.9559281999996,N,13701.424805899998,E,4,12,1.1,97.0322,M,37.55,M,5.0,0000*66,37.232598803333325,137.02374676499997,679525.1480210717,4122594.598086024
935,[2021-02-22 16:09:42.906] $GPGGA,70942.5,3713.9559280999997,N,13701.4248062,E,4,12,1.1,97.0317,M,37.55,M,5.0,0000*6A,37.23259880166666,137.02374677,679525.148468625,4122594.5979105807
936,[2021-02-22 16:09:43.015] $GPGGA,70942.6,3713.9559272,N,13701.4248076,E,4,12,1.1,97.0315,M,37.55,M,5.0,0000*62,37.232598786666664,137.02374679333334,679525.1505743254,4122594.596290495
937,[2021-02-22 16:09:43.109] $GPGGA,70942.7,3713.9559247,N,13701.424811399998,E,4,12,1.1,97.0306,M,37.55,M,5.0,0000*62,37.232598745000004,137.02374685666666,679525.1562920543,4122594.5917874486
938,[2021-02-22 16:09:43.219] $GPGGA,70942.8,3713.9559223000006,N,13701.4248139,E,4,12,1.1,97.0298,M,37.55,M,5.0,0000*66,37.23259870500001,137.02374689833331,679525.1600835803,4122594.5874282294
939,[2021-02-22 16:09:43.312] $GPGGA,70942.9,3713.9559205,N,13701.424815600001,E,4,12,1.1,97.029,M,37.55,M,5.0,0000*62,37.232598675,137.0237469266667,679525.1626684639,4122594.584153282
940,[2021-02-22 16:09:43.422] $GPGGA,70943.0,3713.9559204,N,13701.424814500002,E,4,12,1.1,97.0264,M,37.55,M,6.0,0000*61,37.232598673333335,137.02374690833335,679525.161045896,4122594.583933581
941,[2021-02-22 16:09:43.515] $GPGGA,70943.1,3713.9559200999997,N,13701.424813299998,E,4,12,1.1,97.0273,M,37.55,M,6.0,0000*62,37.23259866833333,137.02374688833333,679525.1592833707,4122594.5833408623
942,[2021-02-22 16:09:43.625] $GPGGA,70943.2,3713.9559173000002,N,13701.424812700001,E,4,12,1.1,97.0391,M,37.55,M,1.0,0000*68,37.23259862166667,137.02374687833333,679525.1585068835,4122594.578143934
943,[2021-02-22 16:09:43.703] $GPGGA,70943.3,3713.9559173000002,N,13701.4248129,E,4,12,1.1,97.0504,M,37.55,M,1.0,0000*6D,37.23259862166667,137.02374688166668,679525.1588026157,4122594.5781502556
944,[2021-02-22 16:09:43.828] $GPGGA,70943.4,3713.9559166999998,N,13701.424813,E,4,12,1.1,97.0579,M,37.55,M,1.0,0000*6D,37.23259861166666,137.02374688333333,679525.1589742033,4122594.5770438537
945,[2021-02-22 16:09:43.906] $GPGGA,70943.5,3713.9559166,N,13701.424813,E,4,12,1.1,97.0634,M,37.55,M,1.0,0000*67,37.23259861,137.02374688333333,679525.158978157,4122594.5768589266
946,[2021-02-22 16:09:44.015] $GPGGA,70943.6,3713.9559182,N,13701.4248121,E,4,12,1.1,97.0668,M,37.55,M,1.0,0000*67,37.232598636666665,137.02374686833335,679525.1575841075,4122594.5797893093
947,[2021-02-22 16:09:44.109] $GPGGA,70943.7,3713.955918,N,13701.4248104,E,4,12,1.1,97.069,M,37.55,M,1.0,0000*64,37.23259863333333,137.02374683999997,679525.155078299,4122594.5793657117
948,[2021-02-22 16:09:44.219] $GPGGA,70943.8,3713.9559185000003,N,13701.424808700001,E,4,12,1.1,97.0685,M,37.55,M,1.0,0000*60,37.23259864166667,137.0237468116667,679525.1525448256,4122594.580236605
949,[2021-02-22 16:09:44.328] $GPGGA,70943.9,3713.9559189999995,N,13701.4248076,E,4,12,1.1,97.0683,M,37.55,M,1.0,0000*6D,37.232598649999986,137.02374679333334,679525.1508985328,4122594.5811264645
950,[2021-02-22 16:09:44.406] $GPGGA,70944.0,3713.9559197,N,13701.424808000002,E,4,12,1.1,97.0643,M,37.55,M,2.0,0000*62,37.232598661666664,137.02374680000003,679525.151462321,4122594.5824336
951,[2021-02-22 16:09:44.500] $GPGGA,70944.1,3713.9559193000005,N,13701.424809600001,E,4,12,1.1,97.0644,M,37.55,M,2.0,0000*67,37.232598655000004,137.0237468266667,679525.1538439826,4122594.5817444734
952,[2021-02-22 16:09:44.609] $GPGGA,70944.2,3713.9559184,N,13701.424810299999,E,4,12,1.1,97.0643,M,37.55,M,2.0,0000*68,37.23259864,137.02374683833332,679525.1549146213,4122594.580102259
953,[2021-02-22 16:09:44.718] $GPGGA,70944.3,3713.9559182999997,N,13701.4248102,E,4,12,1.1,97.0641,M,37.55,M,2.0,0000*6D,37.23259863833333,137.02374683666667,679525.15477071,4122594.5799141694
954,[2021-02-22 16:09:44.812] $GPGGA,70944.4,3713.9559179,N,13701.424809099999,E,4,12,1.1,97.0635,M,37.55,M,2.0,0000*67,37.23259863166666,137.0237468183333,679525.1531600034,4122594.579139686
955,[2021-02-22 16:09:44.922] $GPGGA,70944.5,3713.9559181,N,13701.424807799998,E,4,12,1.1,97.0632,M,37.55,M,2.0,0000*61,37.232598635,137.02374679666664,679525.1512298443,4122594.579468444
956,[2021-02-22 16:09:45.000] $GPGGA,70944.6,3713.9559176,N,13701.424807299998,E,4,12,1.1,97.0643,M,37.55,M,2.0,0000*67,37.232598626666665,137.02374678833328,679525.1505102837,4122594.578528
957,[2021-02-22 16:09:45.125] $GPGGA,70944.7,3713.9559155999996,N,13701.424808000002,E,4,12,1.1,97.064,M,37.55,M,2.0,0000*6B,37.23259859333333,137.02374680000003,679525.1516244248,4122594.5748515856
958,[2021-02-22 16:09:45.203] $GPGGA,70944.8,3713.9559136,N,13701.4248088,E,4,12,1.1,97.0637,M,37.55,M,2.0,0000*6A,37.23259855999999,137.02374681333336,679525.152886422,4122594.5711783324
959,[2021-02-22 16:09:45.328] $GPGGA,70944.9,3713.9559130000002,N,13701.4248068,E,4,12,1.1,97.0623,M,37.55,M,2.0,0000*66,37.232598550000006,137.02374678,679525.1499528358,4122594.5700055435
960,[2021-02-22 16:09:45.406] $GPGGA,70945.0,3713.9559118,N,13701.424807299998,E,4,12,1.1,97.0599,M,37.55,M,3.0,0000*6D,37.232598530000004,137.02374678833328,679525.1507396011,4122594.5678022224
961,[2021-02-22 16:09:45.500] $GPGGA,70945.1,3713.955912,N,13701.4248044,E,4,12,1.1,97.0598,M,37.55,M,3.0,0000*62,37.23259853333334,137.02374674,679525.1464436023,4122594.568080398
962,[2021-02-22 16:09:45.625] $GPGGA,70945.2,3713.9559111000003,N,13701.424804100001,E,4,12,1.1,97.0592,M,37.55,M,3.0,0000*6C,37.23259851833334,137.023746735,679525.1460355888,4122594.566406569
963,[2021-02-22 16:09:45.718] $GPGGA,70945.3,3713.955911,N,13701.424803200001,E,4,12,1.1,97.0588,M,37.55,M,3.0,0000*63,37.23259851666667,137.02374672000002,679525.1447087554,4122594.566193189
964,[2021-02-22 16:09:45.812] $GPGGA,70945.4,3713.9559105999997,N,13701.424803400001,E,4,12,1.1,97.0578,M,37.55,M,3.0,0000*6A,37.23259851,137.02374672333337,679525.1450203026,4122594.5654598037
965,[2021-02-22 16:09:45.922] $GPGGA,70945.5,3713.9559113000005,N,13701.424804499999,E,4,12,1.1,97.0572,M,37.55,M,3.0,0000*63,37.232598521666674,137.02374674166666,679525.1466191413,4122594.566789069
966,[2021-02-22 16:09:46.031] $GPGGA,70945.6,3713.9559111000003,N,13701.4248062,E,4,12,1.1,97.0566,M,37.55,M,3.0,0000*62,37.23259851833334,137.02374677,679525.1491407626,4122594.5664729574
967,[2021-02-22 16:09:46.109] $GPGGA,70945.7,3713.9559126999998,N,13701.4248076,E,4,12,1.1,97.058,M,37.55,M,3.0,0000*6B,37.232598544999995,137.02374679333334,679525.1511476191,4122594.5694760513
968,[2021-02-22 16:09:46.218] $GPGGA,70945.8,3713.9559135,N,13701.424807,E,4,12,1.1,97.0594,M,37.55,M,3.0,0000*64,37.23259855833333,137.02374678333334,679525.150228797,4122594.570936501
969,[2021-02-22 16:09:46.312] $GPGGA,70945.9,3713.9559134000006,N,13701.4248075,E,4,12,1.1,97.0594,M,37.55,M,3.0,0000*61,37.23259855666667,137.02374679166664,679525.1509720756,4122594.570767381
970,[2021-02-22 16:09:46.421] $GPGGA,70946.0,3713.9559139,N,13701.424809200002,E,4,12,1.1,97.0589,M,37.55,M,4.0,0000*64,37.232598564999996,137.02374682,679525.153466023,4122594.5717457593
971,[2021-02-22 16:09:46.515] $GPGGA,70946.1,3713.955914,N,13701.424810600001,E,4,12,1.1,97.0612,M,37.55,M,4.0,0000*66,37.232598566666674,137.02374684333338,679525.155532188,4122594.571974947
972,[2021-02-22 16:09:46.625] $GPGGA,70946.2,3713.9559145999997,N,13701.424811,E,4,12,1.1,97.0625,M,37.55,M,4.0,0000*60,37.23259857666666,137.02374685,679525.1560999232,4122594.573097154
973,[2021-02-22 16:09:46.703] $GPGGA,70946.3,3713.9559142,N,13701.424811200002,E,4,12,1.1,97.0653,M,37.55,M,4.0,0000*66,37.23259856999999,137.02374685333336,679525.1564114705,4122594.5723637687
974,[2021-02-22 16:09:46.828] $GPGGA,70946.4,3713.9559144,N,13701.424811200002,E,4,12,1.1,97.066,M,37.55,M,4.0,0000*67,37.23259857333334,137.02374685333336,679525.156403563,4122594.572733625
975,[2021-02-22 16:09:46.906] $GPGGA,70946.5,3713.9559145000003,N,13701.424810299999,E,4,12,1.1,97.0658,M,37.55,M,4.0,0000*6C,37.232598575,137.02374683833332,679525.1550688175,4122594.5728900987
976,[2021-02-22 16:09:47.031] $GPGGA,70946.6,3713.9559149000006,N,13701.424809600001,E,4,12,1.1,97.0648,M,37.55,M,4.0,0000*6F,37.23259858166668,137.0237468266667,679525.1540179476,4122594.5736076795
977,[2021-02-22 16:09:47.109] $GPGGA,70946.7,3713.9559160999997,N,13701.424808200001,E,4,12,1.1,97.0654,M,37.55,M,4.0,0000*6C,37.23259860166666,137.02374680333338,679525.1519003883,4122594.5757825444
978,[2021-02-22 16:09:47.218] $GPGGA,70946.8,3713.9559173000002,N,13701.4248089,E,4,12,1.1,97.0647,M,37.55,M,4.0,0000*69,37.23259862166667,137.023746815,679525.1528879983,4122594.5780238006
979,[2021-02-22 16:09:47.296] $GPGGA,70946.9,3713.9559188000003,N,13701.424810100001,E,4,12,1.1,97.0638,M,37.55,M,4.0,0000*65,37.232598646666666,137.02374683500003,679525.1546030785,4122594.5808356456
980,[2021-02-22 16:09:47.421] $GPGGA,70947.0,3713.9559206999993,N,13701.4248116,E,4,12,1.1,97.0624,M,37.55,M,5.0,0000*63,37.23259867833332,137.02374686000002,679525.1567459388,4122594.5843966817
981,[2021-02-22 16:09:47.515] $GPGGA,70947.1,3713.9559223000006,N,13701.424812600002,E,4,12,1.1,97.0644,M,37.55,M,5.0,0000*61,37.23259870500001,137.02374687666668,679525.158161331,4122594.587387131
982,[2021-02-22 16:09:47.625] $GPGGA,70947.2,3713.9559233000004,N,13701.4248144,E,4,12,1.1,97.0653,M,37.55,M,5.0,0000*61,37.232598721666676,137.02374690666664,679525.1607833699,4122594.5892933095
983,[2021-02-22 16:09:47.703] $GPGGA,70947.3,3713.9559227,N,13701.4248141,E,4,12,1.1,97.064,M,37.55,M,5.0,0000*62,37.23259871166667,137.02374690166667,679525.1603634976,4122594.588174261
984,[2021-02-22 16:09:47.828] $GPGGA,70947.4,3713.9559216,N,13701.424814500002,E,4,12,1.1,97.0655,M,37.55,M,5.0,0000*67,37.23259869333332,137.02374690833335,679525.160998451,4122594.5861527063
985,[2021-02-22 16:09:47.921] $GPGGA,70947.5,3713.955921,N,13701.424813799998,E,4,12,1.1,97.0652,M,37.55,M,5.0,0000*6D,37.232598683333336,137.0237468966666,679525.1599871095,4122594.5850210143
986,[2021-02-22 16:09:48.015] $GPGGA,70947.6,3713.9559204,N,13701.4248129,E,4,12,1.1,97.0643,M,37.55,M,5.0,0000*6B,37.232598673333335,137.02374688166668,679525.1586800495,4122594.5838829987
987,[2021-02-22 16:09:48.125] $GPGGA,70947.7,3713.9559195,N,13701.4248123,E,4,12,1.1,97.0629,M,37.55,M,5.0,0000*67,37.23259865833334,137.02374687166665,679525.1578284366,4122594.5821996857
988,[2021-02-22 16:09:48.203] $GPGGA,70947.8,3713.9559196,N,13701.424810699998,E,4,12,1.1,97.0627,M,37.55,M,5.0,0000*63,37.23259866,137.02374684499998,679525.1554586361,4122594.5823340304
989,[2021-02-22 16:09:48.328] $GPGGA,70947.9,3713.9559205,N,13701.424809200002,E,4,12,1.1,97.0619,M,37.55,M,5.0,0000*6B,37.232598675,137.02374682,679525.1532050753,4122594.5839509554
990,[2021-02-22 16:09:48.406] $GPGGA,70948.0,3713.9559224,N,13701.4248083,E,4,12,1.1,97.059,M,37.55,M,6.0,0000*6F,37.23259870666667,137.02374680500003,679525.1517991647,4122594.5874361214
991,[2021-02-22 16:09:48.499] $GPGGA,70948.1,3713.9559248000005,N,13701.424807299998,E,4,12,1.1,97.0585,M,37.55,M,6.0,0000*6F,37.232598746666675,137.02374678833328,679525.1502256136,4122594.5918427585
992,[2021-02-22 16:09:48.593] $GPGGA,70948.2,3713.9559252999998,N,13701.4248056,E,4,12,1.1,97.0613,M,37.55,M,1.0,0000*6A,37.23259875499999,137.02374675999997,679525.1476921333,4122594.592713651
993,[2021-02-22 16:09:48.718] $GPGGA,70948.3,3713.9559265000003,N,13701.424803999998,E,4,12,1.1,97.0625,M,37.55,M,1.0,0000*6C,37.23259877500001,137.0237467333333,679525.1452788417,4122594.5948821977
994,[2021-02-22 16:09:48.812] $GPGGA,70948.4,3713.9559276999994,N,13701.4248037,E,4,12,1.1,97.0654,M,37.55,M,1.0,0000*6E,37.232598794999994,137.02374672833332,679525.1447878017,4122594.5970918373
995,[2021-02-22 16:09:48.921] $GPGGA,70948.5,3713.9559272,N,13701.424803900001,E,4,12,1.1,97.0665,M,37.55,M,1.0,0000*66,37.232598786666664,137.0237467316667,679525.1451033072,4122594.596173524
996,[2021-02-22 16:09:48.999] $GPGGA,70948.6,3713.9559276999994,N,13701.424803900001,E,4,12,1.1,97.0681,M,37.55,M,1.0,0000*6A,37.232598794999994,137.0237467316667,679525.1450835385,4122594.59709816
997,[2021-02-22 16:09:49.124] $GPGGA,70948.7,3713.9559276999994,N,13701.424805200002,E,4,12,1.1,97.0692,M,37.55,M,1.0,0000*64,37.232598794999994,137.02374675333337,679525.1470057878,4122594.5971392584
998,[2021-02-22 16:09:49.203] $GPGGA,70948.8,3713.9559286,N,13701.4248061,E,4,12,1.1,97.0704,M,37.55,M,1.0,0000*6B,37.23259881,137.02374676833333,679525.1483009888,4122594.598832056
999,[2021-02-22 16:09:49.328] $GPGGA,70948.9,3713.9559293000007,N,13701.4248067,E,4,12,1.1,97.0726,M,37.55,M,1.0,0000*68,37.23259882166668,137.02374677833336,679525.1491605093,4122594.6001455155
1000,[2021-02-22 16:09:49.406] $GPGGA,70949.0,3713.9559299000002,N,13701.4248074,E,4,12,1.1,97.0702,M,37.55,M,2.0,0000*6D,37.23259883166668,137.02374679,679525.1501718417,4122594.601277208
1001,[2021-02-22 16:09:49.499] $GPGGA,70949.1,3713.9559316,N,13701.4248085,E,4,12,1.1,97.0716,M,37.55,M,2.0,0000*61,37.23259886,137.02374680833333,679525.1517311474,4122594.6044557444
1002,[2021-02-22 16:09:49.624] $GPGGA,70949.2,3713.9559324,N,13701.424809299999,E,4,12,1.1,97.0722,M,37.55,M,2.0,0000*63,37.23259887333334,137.02374682166666,679525.1528824418,4122594.6059604534
1003,[2021-02-22 16:09:49.718] $GPGGA,70949.3,3713.9559342000002,N,13701.424811200002,E,4,12,1.1,97.0754,M,37.55,M,2.0,0000*6B,37.23259890333334,137.02374685333336,679525.1556207202,4122594.6093492093
1004,[2021-02-22 16:09:49.827] $GPGGA,70949.4,3713.9559340000005,N,13701.424811500001,E,4,12,1.1,97.0757,M,37.55,M,2.0,0000*6A,37.232598900000006,137.02374685833337,679525.156072225,4122594.6089888397
1005,[2021-02-22 16:09:49.906] $GPGGA,70949.5,3713.9559340000005,N,13701.424812000001,E,4,12,1.1,97.0778,M,37.55,M,2.0,0000*60,37.232598900000006,137.0237468666667,679525.1568115521,4122594.609004646
1006,[2021-02-22 16:09:50.031] $GPGGA,70949.6,3713.9559340000005,N,13701.4248117,E,4,12,1.1,97.079,M,37.55,M,2.0,0000*61,37.232598900000006,137.02374686166667,679525.1563679527,4122594.6089951615
1007,[2021-02-22 16:09:50.109] $GPGGA,70949.7,3713.9559325000005,N,13701.424811,E,4,12,1.1,97.0777,M,37.55,M,2.0,0000*6D,37.232598875000015,137.02374685,679525.1553922017,4122594.606199126
1008,[2021-02-22 16:09:50.234] $GPGGA,70949.8,3713.9559317000003,N,13701.4248109,E,4,12,1.1,97.0762,M,37.55,M,2.0,0000*6F,37.232598861666666,137.02374684833333,679525.1552759644,4122594.6047165445
1009,[2021-02-22 16:09:50.296] $GPGGA,70949.9,3713.955932,N,13701.4248118,E,4,12,1.1,97.0761,M,37.55,M,2.0,0000*69,37.23259886666666,137.02374686333332,679525.1565948927,4122594.605299779
1010,[2021-02-22 16:09:50.421] $GPGGA,70950.0,3713.9559319,N,13701.424812399999,E,4,12,1.1,97.0742,M,37.55,M,3.0,0000*6D,37.232598865,137.0237468733333,679525.1574860364,4122594.6051338194
1011,[2021-02-22 16:09:50.515] $GPGGA,70950.1,3713.9559306,N,13701.4248141,E,4,12,1.1,97.0752,M,37.55,M,3.0,0000*60,37.232598843333335,137.02374690166667,679525.1600511512,4122594.60278351
1012,[2021-02-22 16:09:50.624] $GPGGA,70950.2,3713.9559303,N,13701.424814599999,E,4,12,1.1,97.0769,M,37.55,M,3.0,0000*69,37.23259883833333,137.02374691,679525.1608023397,4122594.602244534
1013,[2021-02-22 16:09:50.702] $GPGGA,70950.3,3713.9559314999997,N,13701.424813999998,E,4,12,1.1,97.0781,M,37.55,M,3.0,0000*6F,37.23259885833333,137.02374689999996,679525.1598676979,4122594.604444693
1014,[2021-02-22 16:09:50.827] $GPGGA,70950.4,3713.9559325000005,N,13701.4248131,E,4,12,1.1,97.0785,M,37.55,M,3.0,0000*69,37.232598875000015,137.02374688500004,679525.1584973778,4122594.6062655146
1015,[2021-02-22 16:09:50.906] $GPGGA,70950.5,3713.9559327,N,13701.424814599999,E,4,12,1.1,97.0807,M,37.55,M,3.0,0000*6F,37.232598878333334,137.02374691,679525.1607074495,4122594.606682787
1016,[2021-02-22 16:09:51.015] $GPGGA,70950.6,3713.9559329000003,N,13701.4248155,E,4,12,1.1,97.0812,M,37.55,M,3.0,0000*64,37.23259888166667,137.02374692500004,679525.1620303338,4122594.607081095
1017,[2021-02-22 16:09:51.109] $GPGGA,70950.7,3713.9559331,N,13701.4248155,E,4,12,1.1,97.0811,M,37.55,M,3.0,0000*6F,37.232598885,137.02374692500004,679525.1620224263,4122594.6074509495
1018,[2021-02-22 16:09:51.218] $GPGGA,70950.8,3713.9559335999998,N,13701.424815,E,4,12,1.1,97.0807,M,37.55,M,3.0,0000*65,37.23259889333333,137.02374691666668,679525.161263328,4122594.6083597774
1019,[2021-02-22 16:09:51.296] $GPGGA,70950.9,3713.9559338,N,13701.4248148,E,4,12,1.1,97.0814,M,37.55,M,3.0,0000*61,37.232598896666666,137.02374691333335,679525.1609596906,4122594.6087233103
1020,[2021-02-22 16:09:51.421] $GPGGA,70951.0,3713.9559346,N,13701.4248144,E,4,12,1.1,97.0785,M,37.55,M,4.0,0000*6C,37.23259891,137.02374690666664,679525.1603365961,4122594.610190081
1021,[2021-02-22 16:09:51.499] $GPGGA,70951.1,3713.9559342000002,N,13701.4248144,E,4,12,1.1,97.0775,M,37.55,M,4.0,0000*66,37.23259890333334,137.02374690666664,679525.1603524111,4122594.609450373
1022,[2021-02-22 16:09:51.609] $GPGGA,70951.2,3713.9559335,N,13701.4248144,E,4,12,1.1,97.0756,M,37.55,M,4.0,0000*64,37.23259889166667,137.02374690666664,679525.1603800873,4122594.608155883
1023,[2021-02-22 16:09:51.718] $GPGGA,70951.3,3713.9559346999995,N,13701.424814599999,E,4,12,1.1,97.0758,M,37.55,M,4.0,0000*6C,37.232598911666656,137.02374691,679525.1606283747,4122594.6103813304
1024,[2021-02-22 16:09:51.812] $GPGGA,70951.4,3713.9559348000007,N,13701.4248148,E,4,12,1.1,97.0755,M,37.55,M,4.0,0000*67,37.23259891333334,137.02374691333335,679525.1609201529,4122594.6105725816
1025,[2021-02-22 16:09:51.921] $GPGGA,70951.5,3713.9559343,N,13701.424814500002,E,4,12,1.1,97.0737,M,37.55,M,4.0,0000*64,37.232598905,137.02374690833335,679525.1604963245,4122594.609638462
1026,[2021-02-22 16:09:52.015] $GPGGA,70951.6,3713.9559343,N,13701.424812700001,E,4,12,1.1,97.074,M,37.55,M,4.0,0000*63,37.232598905,137.02374687833333,679525.1578347458,4122594.6095815576
1027,[2021-02-22 16:09:52.124] $GPGGA,70951.7,3713.9559338,N,13701.4248118,E,4,12,1.1,97.0737,M,37.55,M,4.0,0000*62,37.232598896666666,137.02374686333332,679525.1565237251,4122594.6086284686
1028,[2021-02-22 16:09:52.202] $GPGGA,70951.8,3713.9559329000003,N,13701.4248117,E,4,12,1.1,97.0741,M,37.55,M,4.0,0000*63,37.23259888166667,137.02374686166667,679525.156411444,4122594.6069609635
1029,[2021-02-22 16:09:52.327] $GPGGA,70951.9,3713.9559321,N,13701.4248123,E,4,12,1.1,97.0741,M,37.55,M,4.0,0000*6D,37.23259886833333,137.02374687166665,679525.1573302639,4122594.6055005123
1030,[2021-02-22 16:09:52.405] $GPGGA,70952.0,3713.9559316,N,13701.4248122,E,4,12,1.1,97.0721,M,37.55,M,5.0,0000*65,37.23259886,137.02374687,679525.1572021698,4122594.6045727157
1031,[2021-02-22 16:09:52.499] $GPGGA,70952.1,3713.9559319,N,13701.424811500001,E,4,12,1.1,97.0736,M,37.55,M,5.0,0000*69,37.232598865,137.02374685833337,679525.1561552538,4122594.6051053675
1032,[2021-02-22 16:09:52.624] $GPGGA,70952.2,3713.9559321,N,13701.424810600001,E,4,12,1.1,97.0733,M,37.55,M,5.0,0000*66,37.23259886833333,137.02374684333338,679525.154816559,4122594.60544677
1033,[2021-02-22 16:09:52.718] $GPGGA,70952.3,3713.955932,N,13701.424809399998,E,4,12,1.1,97.0728,M,37.55,M,5.0,0000*66,37.23259886666666,137.0237468233333,679525.1530461218,4122594.6052239058
1034,[2021-02-22 16:09:52.812] $GPGGA,70952.4,3713.9559311,N,13701.4248088,E,4,12,1.1,97.0727,M,37.55,M,5.0,0000*61,37.232598851666665,137.02374681333336,679525.1521945156,4122594.6035405938
1035,[2021-02-22 16:09:52.921] $GPGGA,70952.5,3713.9559314000003,N,13701.4248081,E,4,12,1.1,97.0723,M,37.55,M,5.0,0000*68,37.23259885666667,137.02374680166668,679525.1511475949,4122594.604073246
1036,[2021-02-22 16:09:52.999] $GPGGA,70952.6,3713.9559314000003,N,13701.4248071,E,4,12,1.1,97.073,M,37.55,M,5.0,0000*66,37.23259885666667,137.023746785,679525.1496689382,4122594.6040416313
1037,[2021-02-22 16:09:53.124] $GPGGA,70952.7,3713.9559308,N,13701.424807299998,E,4,12,1.1,97.073,M,37.55,M,5.0,0000*68,37.23259884666666,137.02374678833328,679525.1499883885,4122594.6029383894
1038,[2021-02-22 16:09:53.218] $GPGGA,70952.8,3713.9559299999996,N,13701.424807299998,E,4,12,1.1,97.073,M,37.55,M,5.0,0000*6F,37.23259883333333,137.02374678833328,679525.1500200186,4122594.6014589723
1039,[2021-02-22 16:09:53.312] $GPGGA,70952.9,3713.9559291,N,13701.4248074,E,4,12,1.1,97.0737,M,37.55,M,5.0,0000*67,37.23259881833333,137.02374679,679525.1502034718,4122594.5997977895
1040,[2021-02-22 16:09:53.421] $GPGGA,70953.0,3713.9559298,N,13701.424807700003,E,4,12,1.1,97.0726,M,37.55,M,6.0,0000*66,37.23259883,137.02374679500002,679525.1506193948,4122594.601101765
1041,[2021-02-22 16:09:53.515] $GPGGA,70953.1,3713.9559293000007,N,13701.424808700001,E,4,12,1.1,97.0723,M,37.55,M,6.0,0000*66,37.23259882166668,137.0237468116667,679525.1521178203,4122594.6002087425
1042,[2021-02-22 16:09:53.624] $GPGGA,70953.2,3713.9559281999996,N,13701.424809399998,E,4,12,1.1,97.074,M,37.55,M,1.0,0000*65,37.232598803333325,137.0237468233333,679525.1531963643,4122594.5981966723
1043,[2021-02-22 16:09:53.702] $GPGGA,70953.3,3713.9559283,N,13701.424809099999,E,4,12,1.1,97.0765,M,37.55,M,1.0,0000*67,37.232598804999995,137.0237468183333,679525.1527488134,4122594.598372115
1044,[2021-02-22 16:09:53.827] $GPGGA,70953.4,3713.9559287,N,13701.424809299999,E,4,12,1.1,97.0796,M,37.55,M,1.0,0000*6A,37.232598811666676,137.02374682166666,679525.1530287305,4122594.599118148
1045,[2021-02-22 16:09:53.905] $GPGGA,70953.5,3713.9559284999996,N,13701.424809799999,E,4,12,1.1,97.081,M,37.55,M,1.0,0000*63,37.23259880833333,137.02374683,679525.1537759652,4122594.5987640987
1046,[2021-02-22 16:09:54.030] $GPGGA,70953.6,3713.9559281999996,N,13701.424809200002,E,4,12,1.1,97.0811,M,37.55,M,1.0,0000*6C,37.232598803333325,137.02374682,679525.1529006365,4122594.5981903486
1047,[2021-02-22 16:09:54.108] $GPGGA,70953.7,3713.9559283,N,13701.424809600001,E,4,12,1.1,97.0812,M,37.55,M,1.0,0000*6B,37.232598804999995,137.0237468266667,679525.153488145,4122594.598387921
1048,[2021-02-22 16:09:54.218] $GPGGA,70953.8,3713.9559281999996,N,13701.4248102,E,4,12,1.1,97.0808,M,37.55,M,1.0,0000*62,37.232598803333325,137.02374683666667,679525.1543792887,4122594.598221962
1049,[2021-02-22 16:09:54.296] $GPGGA,70953.9,3713.9559270000004,N,13701.4248102,E,4,12,1.1,97.0807,M,37.55,M,1.0,0000*61,37.232598783333344,137.02374683666667,679525.1544267336,4122594.5960028386
1050,[2021-02-22 16:09:54.421] $GPGGA,70954.0,3713.9559257,N,13701.4248102,E,4,12,1.1,97.077,M,37.55,M,2.0,0000*66,37.23259876166667,137.02374683666667,679525.1544781325,4122594.5935987835
1051,[2021-02-22 16:09:54.515] $GPGGA,70954.1,3713.9559254,N,13701.4248111,E,4,12,1.1,97.0787,M,37.55,M,2.0,0000*6E,37.23259875666666,137.02374685166666,679525.1558207831,4122594.5930724535
1052,[2021-02-22 16:09:54.624] $GPGGA,70954.2,3713.9559251999995,N,13701.424810699998,E,4,12,1.1,97.0786,M,37.55,M,2.0,0000*6D,37.23259875333333,137.02374684499998,679525.155237226,4122594.5926899537
1053,[2021-02-22 16:09:54.702] $GPGGA,70954.3,3713.9559256,N,13701.4248109,E,4,12,1.1,97.0792,M,37.55,M,2.0,0000*63,37.232598759999995,137.02374684833333,679525.1555171433,4122594.593435985
1054,[2021-02-22 16:09:54.827] $GPGGA,70954.4,3713.9559252999998,N,13701.4248117,E,4,12,1.1,97.0805,M,37.55,M,2.0,0000*6F,37.23259875499999,137.02374686166667,679525.156711929,4122594.5929064946
1055,[2021-02-22 16:09:54.921] $GPGGA,70954.5,3713.9559255000004,N,13701.4248121,E,4,12,1.1,97.0806,M,37.55,M,2.0,0000*6E,37.23259875833334,137.02374686833335,679525.1572954837,4122594.593288996
1056,[2021-02-22 16:09:55.015] $GPGGA,70954.6,3713.9559264,N,13701.424812399999,E,4,12,1.1,97.0806,M,37.55,M,2.0,0000*6A,37.23259877333333,137.0237468733333,679525.1577034927,4122594.5949628237
1057,[2021-02-22 16:09:55.124] $GPGGA,70954.7,3713.9559263000006,N,13701.424812600002,E,4,12,1.1,97.0817,M,37.55,M,2.0,0000*6E,37.23259877166667,137.02374687666668,679525.1580031809,4122594.5947842197
1058,[2021-02-22 16:09:55.202] $GPGGA,70954.8,3713.9559266,N,13701.424812600002,E,4,12,1.1,97.0806,M,37.55,M,2.0,0000*64,37.23259877666666,137.02374687666668,679525.1579913197,4122594.5953390007
1059,[2021-02-22 16:09:55.327] $GPGGA,70954.9,3713.9559270000004,N,13701.424812399999,E,4,12,1.1,97.0808,M,37.55,M,2.0,0000*6E,37.232598783333344,137.0237468733333,679525.1576797701,4122594.596072389
1060,[2021-02-22 16:09:55.405] $GPGGA,70955.0,3713.9559274999997,N,13701.424811399998,E,4,12,1.1,97.0778,M,37.55,M,3.0,0000*69,37.23259879166666,137.02374685666666,679525.1561813493,4122594.596965408
1061,[2021-02-22 16:09:55.499] $GPGGA,70955.1,3713.9559273,N,13701.424811899999,E,4,12,1.1,97.0773,M,37.55,M,3.0,0000*68,37.23259878833334,137.02374686499996,679525.1569285817,4122594.5966113624
1062,[2021-02-22 16:09:55.624] $GPGGA,70955.2,3713.9559283,N,13701.4248123,E,4,12,1.1,97.0778,M,37.55,M,3.0,0000*66,37.232598804999995,137.02374687166665,679525.1574805065,4122594.598473278
1063,[2021-02-22 16:09:55.718] $GPGGA,70955.3,3713.9559284,N,13701.424812000001,E,4,12,1.1,97.0779,M,37.55,M,3.0,0000*62,37.232598806666665,137.0237468666667,679525.1570329622,4122594.598648722
1064,[2021-02-22 16:09:55.811] $GPGGA,70955.4,3713.9559286,N,13701.4248132,E,4,12,1.1,97.0771,M,37.55,M,3.0,0000*6C,37.23259881,137.0237468866667,679525.158799439,4122594.5990565135
1065,[2021-02-22 16:09:55.921] $GPGGA,70955.5,3713.9559283,N,13701.424813999998,E,4,12,1.1,97.078,M,37.55,M,3.0,0000*63,37.232598804999995,137.02374689999996,679525.1599942179,4122594.5985270217
1066,[2021-02-22 16:09:55.999] $GPGGA,70955.6,3713.9559289000003,N,13701.424814599999,E,4,12,1.1,97.0805,M,37.55,M,3.0,0000*6E,37.23259881500001,137.02374691,679525.1608576921,4122594.5996555556
1067,[2021-02-22 16:09:56.124] $GPGGA,70955.7,3713.9559286,N,13701.4248148,E,4,12,1.1,97.0815,M,37.55,M,3.0,0000*6F,37.23259881,137.02374691333335,679525.1611652856,4122594.5991070955
1068,[2021-02-22 16:09:56.202] $GPGGA,70955.8,3713.9559289999997,N,13701.4248135,E,4,12,1.1,97.0825,M,37.55,M,3.0,0000*6E,37.23259881666666,137.02374689166666,679525.1592272167,4122594.5998057052
1069,[2021-02-22 16:09:56.327] $GPGGA,70955.9,3713.9559295000004,N,13701.4248132,E,4,12,1.1,97.0826,M,37.55,M,3.0,0000*6E,37.23259882500001,137.0237468866667,679525.1587638552,4122594.6007208596
1070,[2021-02-22 16:09:56.405] $GPGGA,70956.0,3713.9559299000002,N,13701.424813,E,4,12,1.1,97.0807,M,37.55,M,4.0,0000*6E,37.23259883166668,137.02374688333333,679525.158452308,4122594.6014542454
1071,[2021-02-22 16:09:56.499] $GPGGA,70956.1,3713.9559286,N,13701.4248132,E,4,12,1.1,97.0818,M,37.55,M,4.0,0000*6D,37.23259881,137.0237468866667,679525.158799439,4122594.5990565135
1072,[2021-02-22 16:09:56.624] $GPGGA,70956.2,3713.9559280000003,N,13701.424813,E,4,12,1.1,97.0811,M,37.55,M,4.0,0000*63,37.2325988,137.02374688333333,679525.1585274294,4122594.597940627
1073,[2021-02-22 16:09:56.718] $GPGGA,70956.3,3713.9559286,N,13701.424813,E,4,12,1.1,97.0807,M,37.55,M,4.0,0000*63,37.23259881,137.02374688333333,679525.1585037068,4122594.59905019
1074,[2021-02-22 16:09:56.827] $GPGGA,70956.4,3713.9559284999996,N,13701.4248131,E,4,12,1.1,97.0805,M,37.55,M,4.0,0000*64,37.23259880833333,137.02374688500004,679525.1586555279,4122594.5988684236
1075,[2021-02-22 16:09:56.905] $GPGGA,70956.5,3713.9559281999996,N,13701.4248134,E,4,12,1.1,97.0816,M,37.55,M,4.0,0000*65,37.232598803333325,137.02374689,679525.1591109841,4122594.598323127
1076,[2021-02-22 16:09:57.030] $GPGGA,70956.6,3713.9559269,N,13701.4248134,E,4,12,1.1,97.0801,M,37.55,M,4.0,0000*65,37.232598781666674,137.02374689,679525.1591623828,4122594.595919074
1077,[2021-02-22 16:09:57.108] $GPGGA,70956.7,3713.9559270000004,N,13701.4248136,E,4,12,1.1,97.0783,M,37.55,M,4.0,0000*6B,37.232598783333344,137.0237468933333,679525.1594541568,4122594.596110325
1078,[2021-02-22 16:09:57.218] $GPGGA,70956.8,3713.9559266999995,N,13701.424813799998,E,4,12,1.1,97.0796,M,37.55,M,4.0,0000*68,37.232598778333326,137.0237468966666,679525.1597617457,4122594.595561864
1079,[2021-02-22 16:09:57.311] $GPGGA,70956.9,3713.9559259999996,N,13701.424813299998,E,4,12,1.1,97.0787,M,37.55,M,4.0,0000*65,37.23259876666666,137.02374688833333,679525.1590500993,4122594.594251566
1080,[2021-02-22 16:09:57.421] $GPGGA,70957.0,3713.9559268,N,13701.424811899999,E,4,12,1.1,97.0742,M,37.55,M,5.0,0000*65,37.23259878,137.02374686499996,679525.1569483504,4122594.595686726
1081,[2021-02-22 16:09:57.514] $GPGGA,70957.1,3713.9559270000004,N,13701.4248117,E,4,12,1.1,97.0747,M,37.55,M,5.0,0000*66,37.232598783333344,137.02374686166667,679525.1566447152,4122594.5960502587
1082,[2021-02-22 16:09:57.624] $GPGGA,70957.2,3713.9559294,N,13701.424810600001,E,4,12,1.1,97.0671,M,37.55,M,5.0,0000*6B,37.23259882333333,137.02374684333338,679525.1549233104,4122594.600453735
1083,[2021-02-22 16:09:57.702] $GPGGA,70957.3,3713.9559299999996,N,13701.424810299999,E,4,12,1.1,97.0616,M,37.55,M,5.0,0000*62,37.23259883333333,137.02374683833332,679525.1544559861,4122594.6015538145
1084,[2021-02-22 16:09:57.827] $GPGGA,70957.4,3713.9559308,N,13701.424811,E,4,12,1.1,97.0582,M,37.55,M,5.0,0000*61,37.23259884666666,137.02374685,679525.1554594155,4122594.6030553603
1085,[2021-02-22 16:09:57.905] $GPGGA,70957.5,3713.9559311,N,13701.4248117,E,4,12,1.1,97.0564,M,37.55,M,5.0,0000*67,37.232598851666665,137.02374686166667,679525.1564826116,4122594.6036322727
1086,[2021-02-22 16:09:58.030] $GPGGA,70957.6,3713.9559305,N,13701.4248128,E,4,12,1.1,97.056,M,37.55,M,5.0,0000*69,37.232598841666665,137.02374687999998,679525.1581328511,4122594.6025574845
1087,[2021-02-22 16:09:58.108] $GPGGA,70957.7,3713.9559296999996,N,13701.424814200001,E,4,12,1.1,97.0537,M,37.55,M,5.0,0000*6C,37.23259882833333,137.02374690333335,679525.1602346022,4122594.6011223258
1088,[2021-02-22 16:09:58.218] $GPGGA,70957.8,3713.9559301,N,13701.4248137,E,4,12,1.1,97.0551,M,37.55,M,5.0,0000*6F,37.232598835,137.02374689499996,679525.1594794554,4122594.6018462265
1089,[2021-02-22 16:09:58.296] $GPGGA,70957.9,3713.9559294,N,13701.4248121,E,4,12,1.1,97.0554,M,37.55,M,5.0,0000*61,37.23259882333333,137.02374686833335,679525.1571412875,4122594.600501156
1090,[2021-02-22 16:09:58.421] $GPGGA,70958.0,3713.9559295000004,N,13701.424812399999,E,4,12,1.1,97.0533,M,37.55,M,6.0,0000*61,37.23259882500001,137.0237468733333,679525.1575809263,4122594.6006955677
1091,[2021-02-22 16:09:58.499] $GPGGA,70958.1,3713.9559294,N,13701.4248123,E,4,12,1.1,97.0548,M,37.55,M,6.0,0000*6A,37.23259882333333,137.02374687166665,679525.1574370151,4122594.6005074773
1092,[2021-02-22 16:09:58.608] $GPGGA,70958.2,3713.9559298,N,13701.4248122,E,4,12,1.1,97.0554,M,37.55,M,1.0,0000*6E,37.23259883,137.02374687,679525.1572733374,4122594.6012440263
1093,[2021-02-22 16:09:58.718] $GPGGA,70958.3,3713.9559304,N,13701.424812600002,E,4,12,1.1,97.0551,M,37.55,M,1.0,0000*6A,37.23259884,137.02374687666668,679525.1578410771,4122594.602366235
1094,[2021-02-22 16:09:58.811] $GPGGA,70958.4,3713.9559310000004,N,13701.4248136,E,4,12,1.1,97.058,M,37.55,M,1.0,0000*65,37.23259885,137.0237468933333,679525.1592960067,4122594.603507411
1095,[2021-02-22 16:09:58.921] $GPGGA,70958.5,3713.9559321999996,N,13701.4248137,E,4,12,1.1,97.0585,M,37.55,M,1.0,0000*61,37.23259887,137.02374689499996,679525.1593964268,4122594.6057296977
1096,[2021-02-22 16:09:58.999] $GPGGA,70958.6,3713.9559328,N,13701.4248141,E,4,12,1.1,97.0602,M,37.55,M,1.0,0000*65,37.23259888,137.02374690166667,679525.1599641687,4122594.6068519074
1097,[2021-02-22 16:09:59.124] $GPGGA,70958.7,3713.9559327,N,13701.424813299998,E,4,12,1.1,97.0605,M,37.55,M,1.0,0000*69,37.232598878333334,137.02374688833333,679525.158785198,4122594.60664169
1098,[2021-02-22 16:09:59.202] $GPGGA,70958.8,3713.9559316,N,13701.424812700001,E,4,12,1.1,97.0602,M,37.55,M,1.0,0000*66,37.23259886,137.02374687833333,679525.157941497,4122594.6045885216
1099,[2021-02-22 16:09:59.327] $GPGGA,70958.9,3713.9559314999997,N,13701.424812399999,E,4,12,1.1,97.0598,M,37.55,M,1.0,0000*67,37.23259885833333,137.0237468733333,679525.1575018514,4122594.60439411
1100,[2021-02-22 16:09:59.405] $GPGGA,70959.0,3713.9559304,N,13701.4248129,E,4,12,1.1,97.0555,M,37.55,M,2.0,0000*60,37.23259884,137.02374688166668,679525.1582846743,4122594.6023757197
1101,[2021-02-22 16:09:59.514] $GPGGA,70959.1,3713.9559299999996,N,13701.4248149,E,4,12,1.1,97.0565,M,37.55,M,2.0,0000*60,37.23259883333333,137.023746915,679525.1612577981,4122594.6016992372
1102,[2021-02-22 16:09:59.624] $GPGGA,70959.2,3713.9559298,N,13701.4248176,E,4,12,1.1,97.0584,M,37.55,M,2.0,0000*60,37.23259883,137.02374695999998,679525.1652580693,4122594.6014147396
1103,[2021-02-22 16:09:59.717] $GPGGA,70959.3,3713.9559299999996,N,13701.424817500001,E,4,12,1.1,97.0589,M,37.55,M,2.0,0000*6F,37.23259883333333,137.02374695833333,679525.1651022991,4122594.6017814325
1104,[2021-02-22 16:09:59.796] $GPGGA,70959.4,3713.9559309,N,13701.4248164,E,4,12,1.1,97.0583,M,37.55,M,2.0,0000*6B,37.23259884833333,137.02374694000002,679525.1634401958,4122594.603411003
1105,[2021-02-22 16:09:59.921] $GPGGA,70959.5,3713.9559321999996,N,13701.424815299999,E,4,12,1.1,97.0584,M,37.55,M,2.0,0000*60,37.23259887,137.02374692166663,679525.1617622732,4122594.6057802807
1106,[2021-02-22 16:09:59.999] $GPGGA,70959.6,3713.9559329999997,N,13701.424815399998,E,4,12,1.1,97.0594,M,37.55,M,2.0,0000*66,37.23259888333333,137.02374692333328,679525.161878506,4122594.607262859
1107,[2021-02-22 16:10:00.124] $GPGGA,70959.7,3713.9559334,N,13701.424815999999,E,4,12,1.1,97.0586,M,37.55,M,2.0,0000*67,37.23259889,137.0237469333333,679525.1627498877,4122594.608021537
1108,[2021-02-22 16:10:00.202] $GPGGA,70959.8,3713.9559335999998,N,13701.4248185,E,4,12,1.1,97.0596,M,37.55,M,2.0,0000*60,37.23259889333333,137.02374697499997,679525.1664386139,4122594.6084704255
1109,[2021-02-22 16:10:00.327] $GPGGA,70959.9,3713.9559342000002,N,13701.424819299998,E,4,12,1.1,97.06,M,37.55,M,2.0,0000*69,37.23259890333334,137.0237469883333,679525.1675978157,4122594.6096052798
1110,[2021-02-22 16:10:00.421] $GPGGA,71000.0,3713.9559346,N,13701.424819,E,4,12,1.1,97.0579,M,37.55,M,3.0,0000*6F,37.23259891,137.02374698333333,679525.1671384057,4122594.6103355046
1111,[2021-02-22 16:10:00.514] $GPGGA,71000.1,3713.9559339,N,13701.424819,E,4,12,1.1,97.0581,M,37.55,M,3.0,0000*61,37.232598898333336,137.02374698333333,679525.167166082,4122594.609041014
1112,[2021-02-22 16:10:00.624] $GPGGA,71000.2,3713.9559335,N,13701.4248176,E,4,12,1.1,97.059,M,37.55,M,3.0,0000*66,37.23259889166667,137.02374695999998,679525.1651117805,4122594.608257047
1113,[2021-02-22 16:10:00.702] $GPGGA,71000.3,3713.9559339,N,13701.4248177,E,4,12,1.1,97.0597,M,37.55,M,3.0,0000*6D,37.232598898333336,137.0237469616667,679525.165243835,4122594.608999917
1114,[2021-02-22 16:10:00.827] $GPGGA,71000.4,3713.9559329000003,N,13701.4248177,E,4,12,1.1,97.0609,M,37.55,M,3.0,0000*6F,37.23259888166667,137.0237469616667,679525.1652833724,4122594.6071506455
1115,[2021-02-22 16:10:00.905] $GPGGA,71000.5,3713.9559321999996,N,13701.424818399999,E,4,12,1.1,97.0602,M,37.55,M,3.0,0000*62,37.23259887,137.02374697333332,679525.1663461037,4122594.6058782823
1116,[2021-02-22 16:10:01.030] $GPGGA,71000.6,3713.9559306999995,N,13701.4248174,E,4,12,1.1,97.0584,M,37.55,M,3.0,0000*64,37.232598844999984,137.02374695666668,679525.1649267578,4122594.60307276
1117,[2021-02-22 16:10:01.108] $GPGGA,71000.7,3713.9559299000002,N,13701.424817500001,E,4,12,1.1,97.0584,M,37.55,M,3.0,0000*62,37.23259883166668,137.02374695833333,679525.1651062528,4122594.601596507
1118,[2021-02-22 16:10:01.233] $GPGGA,71000.8,3713.9559295000004,N,13701.4248171,E,4,12,1.1,97.0574,M,37.55,M,3.0,0000*6A,37.23259882500001,137.02374695166665,679525.1645306032,4122594.6008441523
1119,[2021-02-22 16:10:01.295] $GPGGA,71000.9,3713.9559302000002,N,13701.424815900002,E,4,12,1.1,97.0563,M,37.55,M,3.0,0000*68,37.23259883666667,137.02374693166666,679525.1627285427,4122594.6021007053
1120,[2021-02-22 16:10:01.420] $GPGGA,71001.0,3713.9559299999996,N,13701.4248139,E,4,12,1.1,97.0533,M,37.55,M,4.0,0000*66,37.23259883333333,137.02374689833331,679525.1597791415,4122594.6016676226
1121,[2021-02-22 16:10:01.514] $GPGGA,71001.1,3713.9559298,N,13701.4248129,E,4,12,1.1,97.0531,M,37.55,M,4.0,0000*64,37.23259883,137.02374688166668,679525.1583083968,4122594.601266156
1122,[2021-02-22 16:10:01.624] $GPGGA,71001.2,3713.9559306999995,N,13701.424811200002,E,4,12,1.1,97.0526,M,37.55,M,4.0,0000*6E,37.232598844999984,137.02374685333336,679525.1557591016,4122594.6028767545
1123,[2021-02-22 16:10:01.702] $GPGGA,71001.3,3713.9559325000005,N,13701.424809600001,E,4,12,1.1,97.0512,M,37.55,M,4.0,0000*65,37.232598875000015,137.0237468266667,679525.1533220874,4122594.6061548665
1124,[2021-02-22 16:10:01.827] $GPGGA,71001.4,3713.9559329000003,N,13701.4248076,E,4,12,1.1,97.0502,M,37.55,M,4.0,0000*61,37.23259888166667,137.02374679333334,679525.1503489615,4122594.606831346
1125,[2021-02-22 16:10:01.905] $GPGGA,71001.5,3713.9559331,N,13701.424805200002,E,4,12,1.1,97.047,M,37.55,M,4.0,0000*6B,37.232598885,137.02374675333337,679525.1467922851,4122594.6071253275
1126,[2021-02-22 16:10:02.014] $GPGGA,71001.6,3713.9559321999996,N,13701.4248042,E,4,12,1.1,97.0454,M,37.55,M,4.0,0000*6D,37.23259887,137.02374673666665,679525.1453492101,4122594.6054293686
1127,[2021-02-22 16:10:02.124] $GPGGA,71001.7,3713.9559299999996,N,13701.424803,E,4,12,1.1,97.0442,M,37.55,M,4.0,0000*6E,37.23259883333333,137.02374671666666,679525.1436618082,4122594.601323033
1128,[2021-02-22 16:10:02.202] $GPGGA,71001.8,3713.9559311,N,13701.424802599999,E,4,12,1.1,97.0444,M,37.55,M,4.0,0000*60,37.232598851666665,137.02374670999998,679525.1430268548,4122594.6033445885
1129,[2021-02-22 16:10:02.327] $GPGGA,71001.9,3713.9559301,N,13701.424802000001,E,4,12,1.1,97.0435,M,37.55,M,4.0,0000*60,37.232598835,137.02374670000003,679525.1421792046,4122594.6014763466
1130,[2021-02-22 16:10:02.405] $GPGGA,71002.0,3713.9559289000003,N,13701.424803100002,E,4,12,1.1,97.0404,M,37.55,M,5.0,0000*68,37.23259881500001,137.02374671833337,679525.1438531689,4122594.599291998
1131,[2021-02-22 16:10:02.514] $GPGGA,71002.1,3713.9559276,N,13701.424804700002,E,4,12,1.1,97.0412,M,37.55,M,5.0,0000*6F,37.23259879333333,137.02374674500004,679525.1462704167,4122594.596938523
1132,[2021-02-22 16:10:02.592] $GPGGA,71002.2,3713.9559271,N,13701.4248056,E,4,12,1.1,97.0409,M,37.55,M,5.0,0000*61,37.23259878499999,137.02374675999997,679525.1476209657,4122594.5960423406
1133,[2021-02-22 16:10:02.717] $GPGGA,71002.3,3713.9559273,N,13701.4248063,E,4,12,1.1,97.0415,M,37.55,M,5.0,0000*69,37.23259878833334,137.02374677166665,679525.1486481199,4122594.5964343264
1134,[2021-02-22 16:10:02.811] $GPGGA,71002.4,3713.9559271,N,13701.4248065,E,4,12,1.1,97.0404,M,37.55,M,5.0,0000*6A,37.23259878499999,137.023746775,679525.1489517597,4122594.596070793
1135,[2021-02-22 16:10:02.920] $GPGGA,71002.5,3713.9559276,N,13701.4248076,E,4,12,1.1,97.0415,M,37.55,M,5.0,0000*6E,37.23259879333333,137.02374679333334,679525.1505585103,4122594.5970302033
1136,[2021-02-22 16:10:02.998] $GPGGA,71002.6,3713.9559274000003,N,13701.424807899999,E,4,12,1.1,97.0424,M,37.55,M,5.0,0000*62,37.23259879,137.02374679833332,679525.1510100127,4122594.5966698346
1137,[2021-02-22 16:10:03.123] $GPGGA,71002.7,3713.9559289000003,N,13701.4248089,E,4,12,1.1,97.0428,M,37.55,M,5.0,0000*62,37.23259881500001,137.023746815,679525.152429363,4122594.599475357
1138,[2021-02-22 16:10:03.202] $GPGGA,71002.8,3713.9559295000004,N,13701.4248081,E,4,12,1.1,97.0436,M,37.55,M,5.0,0000*67,37.23259882500001,137.02374680166668,679525.1512227162,4122594.60055963
1139,[2021-02-22 16:10:03.327] $GPGGA,71002.9,3713.9559301,N,13701.4248068,E,4,12,1.1,97.0434,M,37.55,M,5.0,0000*6F,37.232598835,137.02374678,679525.1492767443,4122594.6016280926
1140,[2021-02-22 16:10:03.405] $GPGGA,71003.0,3713.9559310000004,N,13701.4248061,E,4,12,1.1,97.0418,M,37.55,M,6.0,0000*63,37.23259885,137.02374676833333,679525.1482060989,4122594.603270309
1141,[2021-02-22 16:10:03.498] $GPGGA,71003.1,3713.9559310000004,N,13701.424805399998,E,4,12,1.1,97.0424,M,37.55,M,6.0,0000*6B,37.23259885,137.02374675666664,679525.1471710395,4122594.603248179
1142,[2021-02-22 16:10:03.623] $GPGGA,71003.2,3713.9559306,N,13701.4248067,E,4,12,1.1,97.043,M,37.55,M,1.0,0000*6D,37.232598843333335,137.02374677833336,679525.1491091106,4122594.602549569
1143,[2021-02-22 16:10:03.717] $GPGGA,71003.3,3713.9559299999996,N,13701.424807899999,E,4,12,1.1,97.0439,M,37.55,M,1.0,0000*6C,37.23259883333333,137.02374679833332,679525.1509072152,4122594.6014779406
1144,[2021-02-22 16:10:03.811] $GPGGA,71003.4,3713.9559293000007,N,13701.4248088,E,4,12,1.1,97.046,M,37.55,M,1.0,0000*62,37.23259882166668,137.02374681333336,679525.152265683,4122594.6002119035
1145,[2021-02-22 16:10:03.920] $GPGGA,71003.5,3713.9559291,N,13701.424809799999,E,4,12,1.1,97.0457,M,37.55,M,1.0,0000*64,37.23259881833333,137.02374683,679525.1537522427,4122594.5998736625
1146,[2021-02-22 16:10:04.030] $GPGGA,71003.6,3713.9559291,N,13701.424809299999,E,4,12,1.1,97.0453,M,37.55,M,1.0,0000*68,37.23259881833333,137.02374682166666,679525.1530129155,4122594.5998578547
1147,[2021-02-22 16:10:04.108] $GPGGA,71003.7,3713.9559288,N,13701.424809200002,E,4,12,1.1,97.0449,M,37.55,M,1.0,0000*6B,37.23259881333333,137.02374682,679525.152876914,4122594.5992999123
1148,[2021-02-22 16:10:04.217] $GPGGA,71003.8,3713.9559299999996,N,13701.424807799998,E,4,12,1.1,97.0429,M,37.55,M,1.0,0000*67,37.23259883333333,137.02374679666664,679525.150759348,4122594.60147478
1149,[2021-02-22 16:10:04.311] $GPGGA,71003.9,3713.9559317000003,N,13701.4248063,E,4,12,1.1,97.042,M,37.55,M,1.0,0000*63,37.232598861666666,137.02374677166665,679525.1484741549,4122594.6045711217
1150,[2021-02-22 16:10:04.420] $GPGGA,71004.0,3713.9559325000005,N,13701.424805899998,E,4,12,1.1,97.0403,M,37.55,M,2.0,0000*67,37.232598875000015,137.02374676499997,679525.1478510604,4122594.606037896
1151,[2021-02-22 16:10:04.514] $GPGGA,71004.1,3713.9559326,N,13701.424805,E,4,12,1.1,97.0396,M,37.55,M,2.0,0000*67,37.232598876666664,137.02374675,679525.1465163195,4122594.606194368
1152,[2021-02-22 16:10:04.623] $GPGGA,71004.2,3713.9559334,N,13701.4248063,E,4,12,1.1,97.0416,M,37.55,M,2.0,0000*68,37.23259889,137.02374677166665,679525.1484069411,4122594.607714884
1153,[2021-02-22 16:10:04.701] $GPGGA,71004.3,3713.9559342000002,N,13701.424806600002,E,4,12,1.1,97.0423,M,37.55,M,2.0,0000*6B,37.23259890333334,137.0237467766667,679525.1488189128,4122594.609203786
1154,[2021-02-22 16:10:04.826] $GPGGA,71004.4,3713.9559339,N,13701.424807899999,E,4,12,1.1,97.0442,M,37.55,M,2.0,0000*69,37.232598898333336,137.02374679833332,679525.1507530189,4122594.608690102
1155,[2021-02-22 16:10:04.905] $GPGGA,71004.5,3713.9559346999995,N,13701.4248083,E,4,12,1.1,97.0458,M,37.55,M,2.0,0000*6F,37.232598911666656,137.02374680500003,679525.1513128534,4122594.6101821642
1156,[2021-02-22 16:10:05.030] $GPGGA,71004.6,3713.9559356,N,13701.4248075,E,4,12,1.1,97.0473,M,37.55,M,2.0,0000*6C,37.23259892666667,137.02374679166664,679525.150094343,4122594.6118212193
1157,[2021-02-22 16:10:05.108] $GPGGA,71004.7,3713.9559369000003,N,13701.424807799998,E,4,12,1.1,97.0499,M,37.55,M,2.0,0000*68,37.23259894833334,137.02374679666664,679525.1504865391,4122594.614234758
1158,[2021-02-22 16:10:05.217] $GPGGA,71004.8,3713.9559375,N,13701.424807700003,E,4,12,1.1,97.05,M,37.55,M,2.0,0000*64,37.23259895833333,137.02374679500002,679525.1503149561,4122594.6153411586
1159,[2021-02-22 16:10:05.311] $GPGGA,71004.9,3713.9559385,N,13701.424806600002,E,4,12,1.1,97.0489,M,37.55,M,2.0,0000*6A,37.232598974999995,137.0237467766667,679525.1486489016,4122594.6171556558
1160,[2021-02-22 16:10:05.420] $GPGGA,71005.0,3713.955939,N,13701.4248072,E,4,12,1.1,97.0465,M,37.55,M,3.0,0000*60,37.23259898333334,137.02374678666663,679525.1495163182,4122594.618099261
1161,[2021-02-22 16:10:05.514] $GPGGA,71005.1,3713.9559396,N,13701.424807799998,E,4,12,1.1,97.0466,M,37.55,M,3.0,0000*6E,37.23259899333334,137.02374679666664,679525.1503797878,4122594.6192277926
1162,[2021-02-22 16:10:05.623] $GPGGA,71005.2,3713.95594,N,13701.424807700003,E,4,12,1.1,97.0457,M,37.55,M,3.0,0000*68,37.23259899999999,137.02374679500002,679525.1502161124,4122594.619964339
1163,[2021-02-22 16:10:05.717] $GPGGA,71005.3,3713.9559401,N,13701.424809,E,4,12,1.1,97.0464,M,37.55,M,3.0,0000*61,37.232599001666664,137.02374681666666,679525.1521344057,4122594.620190364
1164,[2021-02-22 16:10:05.811] $GPGGA,71005.4,3713.9559395,N,13701.424808700001,E,4,12,1.1,97.0449,M,37.55,M,3.0,0000*65,37.23259899166666,137.0237468116667,679525.1517145378,4122594.6190713155
1165,[2021-02-22 16:10:05.920] $GPGGA,71005.5,3713.9559401,N,13701.4248088,E,4,12,1.1,97.0457,M,37.55,M,3.0,0000*6E,37.232599001666664,137.02374681333336,679525.1518386779,4122594.62018404
1166,[2021-02-22 16:10:06.014] $GPGGA,71005.6,3713.9559411,N,13701.424809200002,E,4,12,1.1,97.0448,M,37.55,M,3.0,0000*69,37.23259901833333,137.02374682,679525.1523906027,4122594.6220459575
1167,[2021-02-22 16:10:06.123] $GPGGA,71005.7,3713.9559409000003,N,13701.424809799999,E,4,12,1.1,97.0473,M,37.55,M,3.0,0000*63,37.232599015,137.02374683,679525.1532857001,4122594.6216950724
1168,[2021-02-22 16:10:06.201] $GPGGA,71005.8,3713.9559415,N,13701.4248097,E,4,12,1.1,97.0481,M,37.55,M,3.0,0000*63,37.232599025,137.02374682833334,679525.1531141127,4122594.6228014743
1169,[2021-02-22 16:10:06.326] $GPGGA,71005.9,3713.9559418000003,N,13701.424808000002,E,4,12,1.1,97.0486,M,37.55,M,3.0,0000*6E,37.23259903000001,137.02374680000003,679525.1505885421,4122594.623302514
1170,[2021-02-22 16:10:06.404] $GPGGA,71006.0,3713.9559421999998,N,13701.424807799998,E,4,12,1.1,97.0492,M,37.55,M,4.0,0000*68,37.23259903666666,137.02374679666664,679525.1502769904,4122594.6240358986
1171,[2021-02-22 16:10:06.514] $GPGGA,71006.1,3713.9559424000004,N,13701.4248068,E,4,12,1.1,97.0502,M,37.55,M,4.0,0000*66,37.23259904000001,137.02374678,679525.148790433,4122594.6243741405
1172,[2021-02-22 16:10:06.623] $GPGGA,71006.2,3713.9559420999994,N,13701.4248057,E,4,12,1.1,97.0497,M,37.55,M,4.0,0000*61,37.23259903499999,137.02374676166667,679525.1471757726,4122594.623784582
1173,[2021-02-22 16:10:06.717] $GPGGA,71006.3,3713.9559418000003,N,13701.4248051,E,4,12,1.1,97.0485,M,37.55,M,4.0,0000*6F,37.23259903000001,137.02374675166664,679525.1463004394,4122594.6232108343
1174,[2021-02-22 16:10:06.811] $GPGGA,71006.4,3713.9559421999998,N,13701.424805899998,E,4,12,1.1,97.0492,M,37.55,M,4.0,0000*6F,37.23259903666666,137.02374676499997,679525.1474675465,4122594.623975832
1175,[2021-02-22 16:10:06.920] $GPGGA,71006.5,3713.9559414000005,N,13701.4248083,E,4,12,1.1,97.0492,M,37.55,M,4.0,0000*6C,37.23259902333334,137.02374680500003,679525.151047952,4122594.6225722884
1176,[2021-02-22 16:10:06.998] $GPGGA,71006.6,3713.9559418000003,N,13701.424809399998,E,4,12,1.1,97.0481,M,37.55,M,4.0,0000*67,37.23259903000001,137.0237468233333,679525.152658654,4122594.6233467725
1177,[2021-02-22 16:10:07.123] $GPGGA,71006.7,3713.9559421999998,N,13701.424810299999,E,4,12,1.1,97.0471,M,37.55,M,4.0,0000*6F,37.23259903666666,137.02374683833332,679525.1539736285,4122594.624114933
1178,[2021-02-22 16:10:07.201] $GPGGA,71006.8,3713.9559418000003,N,13701.424812000001,E,4,12,1.1,97.0463,M,37.55,M,4.0,0000*6B,37.23259903000001,137.0237468666667,679525.1565031594,4122594.6234289687
1179,[2021-02-22 16:10:07.326] $GPGGA,71006.9,3713.9559405,N,13701.4248122,E,4,12,1.1,97.0445,M,37.55,M,4.0,0000*60,37.23259900833333,137.02374687,679525.1568502861,4122594.621031235
1180,[2021-02-22 16:10:07.404] $GPGGA,71007.0,3713.9559406999997,N,13701.424812600002,E,4,12,1.1,97.0416,M,37.55,M,5.0,0000*69,37.232599011666665,137.02374687666668,679525.1574338408,4122594.6214137366
1181,[2021-02-22 16:10:07.498] $GPGGA,71007.1,3713.9559411,N,13701.4248134,E,4,12,1.1,97.0409,M,37.55,M,5.0,0000*62,37.23259901833333,137.02374689,679525.1586009501,4122594.622178736
1182,[2021-02-22 16:10:07.623] $GPGGA,71007.2,3713.9559393,N,13701.424813799998,E,4,12,1.1,97.0412,M,37.55,M,5.0,0000*6A,37.23259898833333,137.0237468966666,679525.1592635731,4122594.618862692
1183,[2021-02-22 16:10:07.701] $GPGGA,71007.3,3713.9559399000004,N,13701.424812000001,E,4,12,1.1,97.0401,M,37.55,M,5.0,0000*6A,37.232598998333344,137.0237468666667,679525.1565782807,4122594.619915352
1184,[2021-02-22 16:10:07.826] $GPGGA,71007.4,3713.9559398,N,13701.424811500001,E,4,12,1.1,97.0411,M,37.55,M,5.0,0000*6B,37.232598996666674,137.02374685833337,679525.1558429075,4122594.6197146163
1185,[2021-02-22 16:10:07.904] $GPGGA,71007.5,3713.955939,N,13701.424810499999,E,4,12,1.1,97.0407,M,37.55,M,5.0,0000*64,37.23259898333334,137.02374684166662,679525.1543958762,4122594.6182035855
1186,[2021-02-22 16:10:08.029] $GPGGA,71007.6,3713.9559393,N,13701.424810600001,E,4,12,1.1,97.0402,M,37.55,M,5.0,0000*62,37.23259898833333,137.02374684333338,679525.154531889,4122594.618761527
1187,[2021-02-22 16:10:08.107] $GPGGA,71007.7,3713.9559388000002,N,13701.424810799997,E,4,12,1.1,97.0418,M,37.55,M,5.0,0000*6C,37.232598980000006,137.02374684666663,679525.1548473809,4122594.617843216
1188,[2021-02-22 16:10:08.232] $GPGGA,71007.8,3713.9559386999995,N,13701.424809900001,E,4,12,1.1,97.0414,M,37.55,M,5.0,0000*69,37.23259897833332,137.0237468316667,679525.1535205522,4122594.617629833
1189,[2021-02-22 16:10:08.311] $GPGGA,71007.9,3713.9559378,N,13701.424810699998,E,4,12,1.1,97.0409,M,37.55,M,5.0,0000*62,37.23259896333334,137.02374684499998,679525.1547390535,4122594.615990782
1190,[2021-02-22 16:10:08.420] $GPGGA,71008.0,3713.9559363000008,N,13701.4248104,E,4,12,1.1,97.0375,M,37.55,M,6.0,0000*62,37.23259893833335,137.02374683999997,679525.1543547625,4122594.6132073905
1191,[2021-02-22 16:10:08.529] $GPGGA,71008.1,3713.9559358,N,13701.4248109,E,4,12,1.1,97.037,M,37.55,M,6.0,0000*63,37.23259893,137.02374684833333,679525.1551138607,4122594.612298561
1192,[2021-02-22 16:10:08.623] $GPGGA,71008.2,3713.9559351,N,13701.4248111,E,4,12,1.1,97.0385,M,37.55,M,1.0,0000*6D,37.23259891833332,137.02374685166666,679525.1554372692,4122594.6110103917
