,Format,Time,Latitude,LatType,Longitude,LonType,Status,Satellite,LevelAccuracy,Altitude(sea),M(sea),Altitude(geoid),M(geoid),DGPS use,checksum,Lat,Lon,UTM_X,UTM_Y
1715,[2021-02-22 15:37:47.203] $GPGGA,63746.8,3713.9559495999997,N,13701.424793,E,4,11,1.4,96.9915,M,37.55,M,4.0,0000*69,37.23259915999999,137.02374655000003,679525.1281003316,4122594.637252628
1716,[2021-02-22 15:37:47.328] $GPGGA,63746.9,3713.9559489,N,13701.4247905,E,4,11,1.4,96.9917,M,37.55,M,4.0,0000*62,37.232599148333335,137.02374650833332,679525.1244313697,4122594.635879105
1717,[2021-02-22 15:37:47.406] $GPGGA,63747.0,3713.9559490999995,N,13701.424787799999,E,4,11,1.4,96.9899,M,37.55,M,5.0,0000*6E,37.232599151666655,137.0237464633333,679525.1204310942,4122594.6361636003
1718,[2021-02-22 15:37:47.500] $GPGGA,63747.1,3713.9559486999997,N,13701.424784600002,E,4,11,1.4,96.9905,M,37.55,M,5.0,0000*61,37.232599145,137.02374641000003,679525.1157152205,4122594.635322729
1719,[2021-02-22 15:37:47.625] $GPGGA,63747.2,3713.9559480999997,N,13701.4247838,E,4,11,1.4,96.9925,M,37.55,M,5.0,0000*6F,37.232599135,137.02374639666664,679525.1145560141,4122594.6341878744
1720,[2021-02-22 15:37:47.719] $GPGGA,63747.3,3713.9559483000003,N,13701.4247833,E,4,11,1.4,96.9927,M,37.55,M,5.0,0000*65,37.232599138333335,137.02374638833336,679525.1138087839,4122594.6345419236
1721,[2021-02-22 15:37:47.797] $GPGGA,63747.4,3713.955949,N,13701.4247842,E,4,11,1.4,96.9918,M,37.55,M,5.0,0000*6A,37.232599150000006,137.02374640333335,679525.1151118948,4122594.635864866
1722,[2021-02-22 15:37:47.922] $GPGGA,63747.5,3713.955949,N,13701.4247848,E,4,11,1.4,96.9916,M,37.55,M,5.0,0000*6F,37.232599150000006,137.02374641333333,679525.115999087,4122594.635883834
1723,[2021-02-22 15:37:48.000] $GPGGA,63747.6,3713.95595,N,13701.424787,E,4,11,1.4,96.9916,M,37.55,M,5.0,0000*6F,37.23259916666666,137.02374644999998,679525.119212586,4122594.6378026544
1724,[2021-02-22 15:37:48.125] $GPGGA,63747.7,3713.9559501000003,N,13701.424787399998,E,4,11,1.4,96.9928,M,37.55,M,5.0,0000*66,37.23259916833334,137.02374645666663,679525.1198000944,4122594.6380002294
1725,[2021-02-22 15:37:48.203] $GPGGA,63747.8,3713.9559522,N,13701.424787900001,E,4,11,1.4,96.9911,M,37.55,M,5.0,0000*6F,37.23259920333333,137.02374646500002,679525.1204563973,4122594.6418995066
1726,[2021-02-22 15:37:48.328] $GPGGA,63747.9,3713.955951,N,13701.4247898,E,4,11,1.4,96.9914,M,37.55,M,5.0,0000*65,37.23259918333333,137.0237464966667,679525.1233132861,4122594.6397404443
1727,[2021-02-22 15:37:48.422] $GPGGA,63748.0,3713.9559514,N,13701.4247908,E,4,11,1.4,96.9888,M,37.55,M,6.0,0000*68,37.232599189999995,137.02374651333332,679525.1247761232,4122594.6405117684
1728,[2021-02-22 15:37:48.531] $GPGGA,63748.1,3713.9559508,N,13701.424790600002,E,4,11,1.4,96.9908,M,37.55,M,6.0,0000*63,37.23259918000001,137.02374651000002,679525.1245041157,4122594.6393958833
1729,[2021-02-22 15:37:48.625] $GPGGA,63748.2,3713.9559492,N,13701.424791,E,4,11,1.4,96.9892,M,37.55,M,1.0,0000*60,37.232599153333325,137.02374651666665,679525.1251588357,4122594.636449691
1730,[2021-02-22 15:37:48.703] $GPGGA,63748.3,3713.9559477,N,13701.424792200001,E,4,11,1.4,96.9886,M,37.55,M,1.0,0000*6E,37.232599128333334,137.0237465366667,679525.1269925308,4122594.6337137218
1731,[2021-02-22 15:37:48.828] $GPGGA,63748.4,3713.9559483999997,N,13701.4247909,E,4,11,1.4,96.9873,M,37.55,M,1.0,0000*66,37.23259913999999,137.023746515,679525.1250426007,4122594.6349671124
1732,[2021-02-22 15:37:48.906] $GPGGA,63748.5,3713.9559492,N,13701.424789200002,E,4,11,1.4,96.9865,M,37.55,M,1.0,0000*64,37.232599153333325,137.02374648666668,679525.1224972593,4122594.636392786
1733,[2021-02-22 15:37:49.031] $GPGGA,63748.6,3713.9559498000003,N,13701.424788999999,E,4,11,1.4,96.9864,M,37.55,M,1.0,0000*6E,37.23259916333334,137.0237464833333,679525.1221778021,4122594.63749603
1734,[2021-02-22 15:37:49.110] $GPGGA,63748.7,3713.9559501000003,N,13701.424788600001,E,4,11,1.4,96.9851,M,37.55,M,1.0,0000*6F,37.23259916833334,137.0237464766667,679525.1215744854,4122594.638038165
1735,[2021-02-22 15:37:49.234] $GPGGA,63748.8,3713.9559507,N,13701.424788999999,E,4,11,1.4,96.9838,M,37.55,M,1.0,0000*6E,37.23259917833334,137.0237464833333,679525.1221422184,4122594.6391603737
1736,[2021-02-22 15:37:49.313] $GPGGA,63748.9,3713.955951,N,13701.424787200001,E,4,11,1.4,96.9836,M,37.55,M,1.0,0000*6B,37.23259918333333,137.0237464533334,679525.1194687875,4122594.63965825
1737,[2021-02-22 15:37:49.422] $GPGGA,63749.0,3713.9559508,N,13701.424787200001,E,4,11,1.4,96.9794,M,37.55,M,2.0,0000*6E,37.23259918000001,137.0237464533334,679525.1194766948,4122594.639288397
1738,[2021-02-22 15:37:49.516] $GPGGA,63749.1,3713.9559509000005,N,13701.424788299999,E,4,11,1.4,96.9804,M,37.55,M,2.0,0000*66,37.23259918166668,137.02374647166667,679525.121099256,4122594.6395081
1739,[2021-02-22 15:37:49.625] $GPGGA,63749.2,3713.9559495999997,N,13701.424790000001,E,4,11,1.4,96.9812,M,37.55,M,2.0,0000*6F,37.23259915999999,137.02374650000002,679525.1236643685,4122594.6371577866
1740,[2021-02-22 15:37:49.703] $GPGGA,63749.3,3713.9559494000005,N,13701.4247902,E,4,11,1.4,96.9814,M,37.55,M,2.0,0000*68,37.23259915666667,137.0237465033333,679525.1239680038,4122594.636794257
1741,[2021-02-22 15:37:49.828] $GPGGA,63749.4,3713.9559504,N,13701.4247895,E,4,11,1.4,96.9813,M,37.55,M,2.0,0000*6F,37.23259917333333,137.02374649166669,679525.1228934114,4122594.6386213982
1742,[2021-02-22 15:37:49.906] $GPGGA,63749.5,3713.9559513000004,N,13701.424789300001,E,4,11,1.4,96.9798,M,37.55,M,2.0,0000*62,37.23259918833334,137.02374648833333,679525.1225620954,4122594.6402794207
1743,[2021-02-22 15:37:50.016] $GPGGA,63749.6,3713.9559509000005,N,13701.4247921,E,4,11,1.4,96.9816,M,37.55,M,2.0,0000*6B,37.23259918166668,137.023746535,679525.1267181413,4122594.6396282315
1744,[2021-02-22 15:37:50.125] $GPGGA,63749.7,3713.9559520000003,N,13701.4247936,E,4,11,1.4,96.9825,M,37.55,M,2.0,0000*67,37.23259920000001,137.02374656,679525.1288926337,4122594.64170985
1745,[2021-02-22 15:37:50.203] $GPGGA,63749.8,3713.9559525,N,13701.4247936,E,4,11,1.4,96.983,M,37.55,M,2.0,0000*69,37.23259920833334,137.02374656,679525.128872865,4122594.642634486
1746,[2021-02-22 15:37:50.328] $GPGGA,63749.9,3713.9559526000003,N,13701.424791100002,E,4,11,1.4,96.981,M,37.55,M,2.0,0000*6C,37.23259921,137.02374651833335,679525.1251722754,4122594.642740379
1747,[2021-02-22 15:37:50.406] $GPGGA,63750.0,3713.9559537,N,13701.4247936,E,4,11,1.4,96.9788,M,37.55,M,3.0,0000*67,37.23259922833333,137.02374656,679525.12882542,4122594.6448536115
1748,[2021-02-22 15:37:50.500] $GPGGA,63750.1,3713.9559520999996,N,13701.424793,E,4,11,1.4,96.9803,M,37.55,M,3.0,0000*6B,37.23259920166666,137.02374655000003,679525.1280014879,4122594.641875808
1749,[2021-02-22 15:37:50.625] $GPGGA,63750.2,3713.955953,N,13701.4247908,E,4,11,1.4,96.9823,M,37.55,M,3.0,0000*61,37.232599216666664,137.02374651333332,679525.1247128631,4122594.643470603
1750,[2021-02-22 15:37:50.719] $GPGGA,63750.3,3713.9559537,N,13701.424790000001,E,4,11,1.4,96.9799,M,37.55,M,3.0,0000*61,37.23259922833333,137.02374650000002,679525.1235022647,4122594.6447398015
1751,[2021-02-22 15:37:50.797] $GPGGA,63750.4,3713.9559535,N,13701.424786000001,E,4,11,1.4,96.9799,M,37.55,M,3.0,0000*63,37.232599224999994,137.02374643333334,679525.1175955548,4122594.6442434927
1752,[2021-02-22 15:37:50.922] $GPGGA,63750.5,3713.9559522,N,13701.4247836,E,4,11,1.4,96.9784,M,37.55,M,3.0,0000*6B,37.23259920333333,137.0237463933333,679525.1140981803,4122594.641763567
1753,[2021-02-22 15:37:51.000] $GPGGA,63750.6,3713.9559522,N,13701.424782799997,E,4,11,1.4,96.9794,M,37.55,M,3.0,0000*66,37.23259920333333,137.02374637999998,679525.112915256,4122594.641738276
1754,[2021-02-22 15:37:51.125] $GPGGA,63750.7,3713.9559515,N,13701.4247855,E,4,11,1.4,96.9799,M,37.55,M,3.0,0000*64,37.23259919166667,137.023746425,679525.1169353026,4122594.640529144
1755,[2021-02-22 15:37:51.203] $GPGGA,63750.8,3713.9559507,N,13701.4247926,E,4,11,1.4,96.981,M,37.55,M,3.0,0000*63,37.23259917833334,137.02374654333332,679525.1274653759,4122594.6392741837
1756,[2021-02-22 15:37:51.328] $GPGGA,63750.9,3713.9559509000005,N,13701.4247962,E,4,11,1.4,96.9811,M,37.55,M,3.0,0000*6D,37.23259918166668,137.02374660333336,679525.1327806282,4122594.6397578474
1757,[2021-02-22 15:37:51.406] $GPGGA,63751.0,3713.9559518,N,13701.4247996,E,4,11,1.4,96.9792,M,37.55,M,4.0,0000*6D,37.23259919666666,137.02374666,679525.1377724675,4122594.6415296765
1758,[2021-02-22 15:37:51.500] $GPGGA,63751.1,3713.9559518,N,13701.424797799998,E,4,11,1.4,96.9788,M,37.55,M,4.0,0000*67,37.23259919666666,137.02374662999998,679525.1351108865,4122594.641472773
1759,[2021-02-22 15:37:51.594] $GPGGA,63751.2,3713.9559524000006,N,13701.4247958,E,4,11,1.4,96.9798,M,37.55,M,4.0,0000*68,37.23259920666668,137.02374659666665,679525.1321298574,4122594.642519109
1760,[2021-02-22 15:37:51.719] $GPGGA,63751.3,3713.955953,N,13701.4247935,E,4,11,1.4,96.9795,M,37.55,M,4.0,0000*6A,37.232599216666664,137.02374655833336,679525.1287052314,4122594.64355596
1761,[2021-02-22 15:37:51.797] $GPGGA,63751.4,3713.9559543000005,N,13701.4247926,E,4,11,1.4,96.9789,M,37.55,M,4.0,0000*66,37.23259923833334,137.02374654333332,679525.127323041,4122594.645931563
1762,[2021-02-22 15:37:51.922] $GPGGA,63751.5,3713.9559553999998,N,13701.4247898,E,4,11,1.4,96.9788,M,37.55,M,4.0,0000*64,37.23259925666666,137.0237464966667,679525.1231393211,4122594.647877242
1763,[2021-02-22 15:37:52.031] $GPGGA,63751.6,3713.9559545,N,13701.4247891,E,4,11,1.4,96.98,M,37.55,M,4.0,0000*61,37.23259924166668,137.023746485,679525.1221398453,4122594.646190769
1764,[2021-02-22 15:37:52.109] $GPGGA,63751.7,3713.9559549,N,13701.4247887,E,4,11,1.4,96.9786,M,37.55,M,4.0,0000*6A,37.23259924833333,137.02374647833335,679525.1215325681,4122594.6469178298
1765,[2021-02-22 15:37:52.219] $GPGGA,63751.8,3713.9559556000004,N,13701.4247887,E,4,11,1.4,96.9768,M,37.55,M,4.0,0000*6B,37.23259926,137.02374647833335,679525.121504892,4122594.648212321
1766,[2021-02-22 15:37:52.297] $GPGGA,63751.9,3713.9559547,N,13701.4247909,E,4,11,1.4,96.9765,M,37.55,M,4.0,0000*60,37.232599244999996,137.023746515,679525.1247935144,4122594.646617526
1767,[2021-02-22 15:37:52.422] $GPGGA,63752.0,3713.9559560999996,N,13701.424791999998,E,4,11,1.4,96.9731,M,37.55,M,5.0,0000*65,37.23259926833333,137.02374653333328,679525.1263646767,4122594.649241283
1768,[2021-02-22 15:37:52.516] $GPGGA,63752.1,3713.9559575000003,N,13701.4247926,E,4,11,1.4,96.9718,M,37.55,M,5.0,0000*6C,37.232599291666666,137.02374654333332,679525.1271965209,4122594.6518492335
1769,[2021-02-22 15:37:52.625] $GPGGA,63752.2,3713.9559572999997,N,13701.424791799998,E,4,11,1.4,96.9713,M,37.55,M,5.0,0000*6F,37.23259928833333,137.02374652999998,679525.1260215039,4122594.6514540864
1770,[2021-02-22 15:37:52.703] $GPGGA,63752.3,3713.9559571000004,N,13701.424791799998,E,4,11,1.4,96.9691,M,37.55,M,5.0,0000*67,37.23259928500001,137.02374652999998,679525.1260294114,4122594.6510842345
1771,[2021-02-22 15:37:52.828] $GPGGA,63752.4,3713.9559583000005,N,13701.4247905,E,4,11,1.4,96.9743,M,37.55,M,5.0,0000*6F,37.232599305000015,137.02374650833332,679525.1240597172,4122594.653262262
1772,[2021-02-22 15:37:52.906] $GPGGA,63752.5,3713.9559603,N,13701.4247868,E,4,11,1.4,96.9747,M,37.55,M,5.0,0000*6B,37.23259933833332,137.02374644666668,679525.1185096219,4122594.6568438336
1773,[2021-02-22 15:37:53.031] $GPGGA,63752.6,3713.9559615000003,N,13701.4247831,E,4,11,1.4,96.9748,M,37.55,M,5.0,0000*6C,37.23259935833334,137.023746385,679525.1129911565,4122594.6589459907
1774,[2021-02-22 15:37:53.109] $GPGGA,63752.7,3713.9559604,N,13701.4247821,E,4,11,1.4,96.9758,M,37.55,M,5.0,0000*6D,37.23259934,137.02374636833332,679525.1115559912,4122594.6568801776
1775,[2021-02-22 15:37:53.219] $GPGGA,63752.8,3713.9559596,N,13701.424783200002,E,4,11,1.4,96.9771,M,37.55,M,5.0,0000*63,37.232599326666666,137.02374638666672,679525.1132141474,4122594.655435534
1776,[2021-02-22 15:37:53.297] $GPGGA,63752.9,3713.9559596999998,N,13701.4247866,E,4,11,1.4,96.9766,M,37.55,M,5.0,0000*64,37.23259932833332,137.02374644333335,679525.1182376145,4122594.655727948
1777,[2021-02-22 15:37:53.422] $GPGGA,63753.0,3713.9559599,N,13701.424787900001,E,4,11,1.4,96.9748,M,37.55,M,6.0,0000*63,37.23259933166667,137.02374646500002,679525.1201519585,4122594.6561388993
1778,[2021-02-22 15:37:53.515] $GPGGA,63753.1,3713.9559581,N,13701.424788799997,E,4,11,1.4,96.972,M,37.55,M,6.0,0000*6B,37.23259930166667,137.02374647999994,679525.1215539087,4122594.652838663
1779,[2021-02-22 15:37:53.625] $GPGGA,63753.2,3713.9559567,N,13701.424787799999,E,4,11,1.4,96.9752,M,37.55,M,1.0,0000*6D,37.23259927833333,137.0237464633333,679525.120130609,4122594.650218068
1780,[2021-02-22 15:37:53.719] $GPGGA,63753.3,3713.9559577,N,13701.4247869,E,4,11,1.4,96.9746,M,37.55,M,1.0,0000*68,37.232599295,137.02374644833333,679525.1187602844,4122594.6520388895
1781,[2021-02-22 15:37:53.797] $GPGGA,63753.4,3713.9559579,N,13701.4247887,E,4,11,1.4,96.9752,M,37.55,M,1.0,0000*64,37.232599298333334,137.02374647833335,679525.1214139557,4122594.652465648
1782,[2021-02-22 15:37:53.922] $GPGGA,63753.5,3713.9559567,N,13701.4247895,E,4,11,1.4,96.9726,M,37.55,M,1.0,0000*6A,37.23259927833333,137.02374649166669,679525.1226443251,4122594.650271812
1783,[2021-02-22 15:37:54.000] $GPGGA,63753.6,3713.9559553000004,N,13701.4247908,E,4,11,1.4,96.9753,M,37.55,M,1.0,0000*69,37.23259925500001,137.02374651333332,679525.1246219269,4122594.6477239304
1784,[2021-02-22 15:37:54.125] $GPGGA,63753.7,3713.9559545,N,13701.424791999998,E,4,11,1.4,96.9766,M,37.55,M,1.0,0000*63,37.23259924166668,137.02374653333328,679525.1264279366,4122594.64628245
1785,[2021-02-22 15:37:54.203] $GPGGA,63753.8,3713.9559541000003,N,13701.424793200002,E,4,11,1.4,96.978,M,37.55,M,1.0,0000*63,37.23259923500001,137.02374655333335,679525.128218145,4122594.645580677
1786,[2021-02-22 15:37:54.328] $GPGGA,63753.9,3713.9559535,N,13701.424793099999,E,4,11,1.4,96.979,M,37.55,M,1.0,0000*63,37.232599224999994,137.02374655166668,679525.1280940004,4122594.64446795
1787,[2021-02-22 15:37:54.406] $GPGGA,63754.0,3713.9559544,N,13701.4247909,E,4,11,1.4,96.9765,M,37.55,M,2.0,0000*69,37.23259924,137.023746515,679525.1248053757,4122594.646062745
1788,[2021-02-22 15:37:54.500] $GPGGA,63754.1,3713.9559533,N,13701.424791799998,E,4,11,1.4,96.9794,M,37.55,M,2.0,0000*66,37.232599221666675,137.02374652999998,679525.1261796539,4122594.644056999
1789,[2021-02-22 15:37:54.625] $GPGGA,63754.2,3713.9559532,N,13701.424791999998,E,4,11,1.4,96.9795,M,37.55,M,2.0,0000*6E,37.23259922,137.02374653333328,679525.1264793355,4122594.6438783947
1790,[2021-02-22 15:37:54.718] $GPGGA,63754.3,3713.9559530999995,N,13701.4247912,E,4,11,1.4,96.9784,M,37.55,M,2.0,0000*6D,37.23259921833333,137.02374652,679525.1253003716,4122594.643668175
1791,[2021-02-22 15:37:54.797] $GPGGA,63754.4,3713.9559541999997,N,13701.4247919,E,4,11,1.4,96.9801,M,37.55,M,2.0,0000*67,37.232599236666665,137.0237465316667,679525.1262919398,4122594.6457245047
1792,[2021-02-22 15:37:54.922] $GPGGA,63754.5,3713.9559533,N,13701.424791299998,E,4,11,1.4,96.9793,M,37.55,M,2.0,0000*6E,37.232599221666675,137.02374652166665,679525.1254403269,4122594.644041193
1793,[2021-02-22 15:37:55.000] $GPGGA,63754.6,3713.955954,N,13701.424787799999,E,4,11,1.4,96.9765,M,37.55,M,2.0,0000*6C,37.23259923333333,137.0237464633333,679525.1202373602,4122594.645225034
1794,[2021-02-22 15:37:55.125] $GPGGA,63754.7,3713.9559553999998,N,13701.424787,E,4,11,1.4,96.9765,M,37.55,M,2.0,0000*60,37.23259925666666,137.02374644999998,679525.1189990834,4122594.647788723
1795,[2021-02-22 15:37:55.203] $GPGGA,63754.8,3713.9559547,N,13701.4247848,E,4,11,1.4,96.972,M,37.55,M,2.0,0000*67,37.232599244999996,137.02374641333333,679525.1157737232,4122594.6464246833
1796,[2021-02-22 15:37:55.328] $GPGGA,63754.9,3713.9559543000005,N,13701.4247835,E,4,11,1.4,96.9743,M,37.55,M,2.0,0000*6D,37.23259923833334,137.02374639166666,679525.1138672866,4122594.6456438783
1797,[2021-02-22 15:37:55.406] $GPGGA,63755.0,3713.9559564,N,13701.424780899999,E,4,11,1.4,96.9691,M,37.55,M,3.0,0000*60,37.232599273333335,137.0237463483333,679525.1099397547,4122594.6494451524
1798,[2021-02-22 15:37:55.500] $GPGGA,63755.1,3713.9559556000004,N,13701.4247806,E,4,11,1.4,96.9699,M,37.55,M,3.0,0000*67,37.23259926,137.02374634333336,679525.109527792,4122594.64795625
1799,[2021-02-22 15:37:55.625] $GPGGA,63755.2,3713.955955,N,13701.424779700003,E,4,11,1.4,96.9745,M,37.55,M,3.0,0000*65,37.23259925,137.02374632833337,679525.1082207274,4122594.646818235
1800,[2021-02-22 15:37:55.703] $GPGGA,63755.3,3713.9559553999998,N,13701.4247787,E,4,11,1.4,96.9728,M,37.55,M,3.0,0000*6A,37.23259925666666,137.02374631166668,679525.1067262557,4122594.6475263303
1801,[2021-02-22 15:37:55.828] $GPGGA,63755.4,3713.9559545999996,N,13701.424778600001,E,4,11,1.4,96.9744,M,37.55,M,3.0,0000*65,37.232599243333325,137.02374631000004,679525.106610023,4122594.6460437505
1802,[2021-02-22 15:37:55.906] $GPGGA,63755.5,3713.9559541000003,N,13701.424781799999,E,4,11,1.4,96.9741,M,37.55,M,3.0,0000*6E,37.23259923500001,137.0237463633333,679525.111361478,4122594.6452202816
1803,[2021-02-22 15:37:56.031] $GPGGA,63755.6,3713.9559520000003,N,13701.424787099999,E,4,11,1.4,96.9791,M,37.55,M,3.0,0000*68,37.23259920000001,137.02374645166663,679525.1192813759,4122594.6415043613
1804,[2021-02-22 15:37:56.109] $GPGGA,63755.7,3713.955951,N,13701.424788999999,E,4,11,1.4,96.9803,M,37.55,M,3.0,0000*61,37.23259918333333,137.0237464833333,679525.1221303572,4122594.6397151537
1805,[2021-02-22 15:37:56.218] $GPGGA,63755.8,3713.9559507,N,13701.424790399999,E,4,11,1.4,96.9806,M,37.55,M,3.0,0000*61,37.23259917833334,137.0237465066666,679525.1242123328,4122594.639204633
1806,[2021-02-22 15:37:56.297] $GPGGA,63755.9,3713.9559525,N,13701.424789200002,E,4,11,1.4,96.9803,M,37.55,M,3.0,0000*6B,37.23259920833334,137.02374648666668,679525.1223667854,4122594.642495387
1807,[2021-02-22 15:37:56.421] $GPGGA,63756.0,3713.9559533,N,13701.424786500002,E,4,11,1.4,96.9759,M,37.55,M,4.0,0000*69,37.232599221666675,137.0237464416667,679525.1183427917,4122594.643889447
1808,[2021-02-22 15:37:56.515] $GPGGA,63756.1,3713.9559535,N,13701.4247861,E,4,11,1.4,96.9793,M,37.55,M,4.0,0000*6C,37.232599224999994,137.023746435,679525.1177434175,4122594.6442466537
1809,[2021-02-22 15:37:56.625] $GPGGA,63756.2,3713.9559544,N,13701.424786500002,E,4,11,1.4,96.9783,M,37.55,M,4.0,0000*6C,37.23259924,137.0237464416667,679525.1182993005,4122594.6459236452
1810,[2021-02-22 15:37:56.703] $GPGGA,63756.3,3713.9559538000003,N,13701.424787399998,E,4,11,1.4,96.9775,M,37.55,M,4.0,0000*6F,37.23259923,137.02374645666663,679525.1196538056,4122594.6448425343
1811,[2021-02-22 15:37:56.828] $GPGGA,63756.4,3713.9559550999998,N,13701.4247873,E,4,11,1.4,96.9753,M,37.55,M,4.0,0000*64,37.23259925166666,137.02374645500004,679525.1194545464,4122594.647243426
1812,[2021-02-22 15:37:56.906] $GPGGA,63756.5,3713.9559553999998,N,13701.424785,E,4,11,1.4,96.9741,M,37.55,M,4.0,0000*62,37.23259925666666,137.02374641666668,679525.1160417792,4122594.647725496
1813,[2021-02-22 15:37:57.031] $GPGGA,63756.6,3713.9559565,N,13701.424781200001,E,4,11,1.4,96.9739,M,37.55,M,4.0,0000*6A,37.232599275,137.02374635333334,679525.1103794004,4122594.649639564
1814,[2021-02-22 15:37:57.093] $GPGGA,63756.7,3713.9559563000003,N,13701.424781099999,E,4,11,1.4,96.9722,M,37.55,M,4.0,0000*64,37.23259927166668,137.02374635166666,679525.1102394406,4122594.6492665503
1815,[2021-02-22 15:37:57.218] $GPGGA,63756.8,3713.9559556000004,N,13701.424783200002,E,4,11,1.4,96.9715,M,37.55,M,4.0,0000*68,37.23259926,137.02374638666672,679525.1133722975,4122594.6480384464
1816,[2021-02-22 15:37:57.328] $GPGGA,63756.9,3713.9559553999998,N,13701.424782600001,E,4,11,1.4,96.9719,M,37.55,M,4.0,0000*62,37.23259925666666,137.02374637666668,679525.1124930083,4122594.647649623
1817,[2021-02-22 15:37:57.406] $GPGGA,63757.0,3713.955955,N,13701.4247833,E,4,11,1.4,96.9694,M,37.55,M,5.0,0000*6F,37.23259925,137.02374638833336,679525.1135438826,4122594.646932045
1818,[2021-02-22 15:37:57.500] $GPGGA,63757.1,3713.9559548,N,13701.4247847,E,4,11,1.4,96.9709,M,37.55,M,5.0,0000*61,37.232599246666666,137.02374641166668,679525.1156219045,4122594.64660645
1819,[2021-02-22 15:37:57.625] $GPGGA,63757.2,3713.9559479000004,N,13701.4247835,E,4,11,1.4,96.9817,M,37.55,M,5.0,0000*64,37.232599131666674,137.02374639166666,679525.1141203266,4122594.633808537
1820,[2021-02-22 15:37:57.718] $GPGGA,63757.3,3713.9559465999996,N,13701.4247824,E,4,11,1.4,96.9841,M,37.55,M,5.0,0000*68,37.23259910999999,137.02374637333332,679525.1125452061,4122594.631369706
1821,[2021-02-22 15:37:57.796] $GPGGA,63757.4,3713.9559463,N,13701.424782,E,4,11,1.4,96.9861,M,37.55,M,5.0,0000*6C,37.232599105,137.02374636666667,679525.111965605,4122594.63080228
1822,[2021-02-22 15:37:57.921] $GPGGA,63757.5,3713.9559469000005,N,13701.424784499999,E,4,11,1.4,96.9875,M,37.55,M,5.0,0000*61,37.232599115000006,137.02374640833332,679525.1156385185,4122594.63199088
1823,[2021-02-22 15:37:57.999] $GPGGA,63757.6,3713.955946,N,13701.424787900001,E,4,11,1.4,96.9889,M,37.55,M,5.0,0000*67,37.2325991,137.02374646500002,679525.1207015299,4122594.63043402
1824,[2021-02-22 15:37:58.124] $GPGGA,63757.7,3713.9559435,N,13701.4247882,E,4,11,1.4,96.9935,M,37.55,M,5.0,0000*64,37.232599058333335,137.02374647000002,679525.1212439708,4122594.6258203243
1825,[2021-02-22 15:37:58.203] $GPGGA,63757.8,3713.9559442,N,13701.424791799998,E,4,11,1.4,96.9896,M,37.55,M,5.0,0000*61,37.23259907,137.02374652999998,679525.1265394454,4122594.6272286233
1826,[2021-02-22 15:37:58.328] $GPGGA,63757.9,3713.9559428999996,N,13701.4247951,E,4,11,1.4,96.9907,M,37.55,M,5.0,0000*69,37.23259904833333,137.02374658499997,679525.1314704022,4122594.6249288954
1827,[2021-02-22 15:37:58.406] $GPGGA,63758.0,3713.9559438,N,13701.424792500002,E,4,11,1.4,96.9894,M,37.55,M,6.0,0000*64,37.23259906333333,137.02374654166667,679525.1275903197,4122594.626511044
1828,[2021-02-22 15:37:58.499] $GPGGA,63758.1,3713.9559431000002,N,13701.4247926,E,4,11,1.4,96.9922,M,37.55,M,6.0,0000*63,37.23259905166667,137.02374654333332,679525.127765861,4122594.6252197153
1829,[2021-02-22 15:37:58.593] $GPGGA,63758.2,3713.9559445,N,13701.424792700001,E,4,11,1.4,96.9919,M,37.55,M,1.0,0000*6D,37.232599075,137.02374654500002,679525.127858378,4122594.627811857
1830,[2021-02-22 15:37:58.718] $GPGGA,63758.3,3713.9559453,N,13701.4247943,E,4,11,1.4,96.9911,M,37.55,M,1.0,0000*61,37.23259908833334,137.02374657166663,679525.13019259,4122594.6293418566
1831,[2021-02-22 15:37:58.796] $GPGGA,63758.4,3713.955947,N,13701.4247947,E,4,11,1.4,96.9936,M,37.55,M,1.0,0000*66,37.23259911666667,137.02374657833334,679525.1307168407,4122594.632498265
1832,[2021-02-22 15:37:58.921] $GPGGA,63758.5,3713.9559477,N,13701.4247936,E,4,11,1.4,96.9924,M,37.55,M,1.0,0000*65,37.232599128333334,137.02374656,679525.1290626451,4122594.6337579805
1833,[2021-02-22 15:37:59.031] $GPGGA,63758.6,3713.9559471999996,N,13701.4247942,E,4,11,1.4,96.9891,M,37.55,M,1.0,0000*6F,37.23259911999999,137.02374657,679525.1299696037,4122594.632852311
1834,[2021-02-22 15:37:59.109] $GPGGA,63758.7,3713.9559463,N,13701.424794999999,E,4,11,1.4,96.9916,M,37.55,M,1.0,0000*63,37.232599105,137.02374658333332,679525.131188112,4122594.631213257
1835,[2021-02-22 15:37:59.218] $GPGGA,63758.8,3713.9559442,N,13701.424797799998,E,4,11,1.4,96.9931,M,37.55,M,1.0,0000*60,37.23259907,137.02374662999998,679525.1354113716,4122594.627418305
1836,[2021-02-22 15:37:59.296] $GPGGA,63758.9,3713.9559435999995,N,13701.424797999998,E,4,11,1.4,96.9926,M,37.55,M,1.0,0000*63,37.232599059999984,137.02374663333333,679525.1357308263,4122594.6263150633
1837,[2021-02-22 15:37:59.421] $GPGGA,63759.0,3713.9559435,N,13701.424797,E,4,11,1.4,96.988,M,37.55,M,2.0,0000*69,37.232599058333335,137.02374661666664,679525.1342561233,4122594.6260985243
1838,[2021-02-22 15:37:59.515] $GPGGA,63759.1,3713.9559435999995,N,13701.4247962,E,4,11,1.4,96.9892,M,37.55,M,2.0,0000*6B,37.232599059999984,137.02374660333336,679525.1330692521,4122594.6262581595
1839,[2021-02-22 15:37:59.624] $GPGGA,63759.2,3713.9559431999996,N,13701.424793200002,E,4,11,1.4,96.9918,M,37.55,M,2.0,0000*6A,37.23259905333333,137.02374655333335,679525.1286491039,4122594.625423611
1840,[2021-02-22 15:37:59.703] $GPGGA,63759.3,3713.9559446999997,N,13701.4247919,E,4,11,1.4,96.99,M,37.55,M,2.0,0000*69,37.23259907833333,137.0237465316667,679525.1266675461,4122594.6281564203
1841,[2021-02-22 15:37:59.827] $GPGGA,63759.4,3713.9559452,N,13701.4247914,E,4,11,1.4,96.9893,M,37.55,M,2.0,0000*6C,37.23259908666667,137.02374652333336,679525.1259084501,4122594.6290652505
1842,[2021-02-22 15:37:59.906] $GPGGA,63759.5,3713.9559452,N,13701.4247905,E,4,11,1.4,96.9907,M,37.55,M,2.0,0000*61,37.23259908666667,137.02374650833332,679525.1245776585,4122594.6290367967
1843,[2021-02-22 15:38:00.031] $GPGGA,63759.6,3713.955946,N,13701.424789899998,E,4,11,1.4,96.9941,M,37.55,M,2.0,0000*65,37.2325991,137.02374649833334,679525.1236588364,4122594.6304972474
1844,[2021-02-22 15:38:00.109] $GPGGA,63759.7,3713.955945,N,13701.424788999999,E,4,11,1.4,96.9956,M,37.55,M,2.0,0000*68,37.232599083333334,137.0237464833333,679525.1223675822,4122594.628619523
1845,[2021-02-22 15:38:00.218] $GPGGA,63759.8,3713.9559458000003,N,13701.424789300001,E,4,11,1.4,96.9905,M,37.55,M,2.0,0000*6A,37.23259909666667,137.02374648833333,679525.1227795517,4122594.630108425
1846,[2021-02-22 15:38:00.296] $GPGGA,63759.9,3713.9559464000004,N,13701.4247857,E,4,11,1.4,96.9905,M,37.55,M,2.0,0000*6C,37.23259910666667,137.0237464283333,679525.1174326716,4122594.6311041783
1847,[2021-02-22 15:38:00.421] $GPGGA,63800.0,3713.9559467,N,13701.424782700002,E,4,11,1.4,96.9836,M,37.55,M,3.0,0000*62,37.232599111666666,137.02374637833336,679525.1129848518,4122594.6315641184
1848,[2021-02-22 15:38:00.515] $GPGGA,63800.1,3713.955944,N,13701.4247856,E,4,11,1.4,96.9861,M,37.55,M,3.0,0000*62,37.232599066666666,137.02374642666666,679525.1173796966,4122594.626662764
1849,[2021-02-22 15:38:00.624] $GPGGA,63800.2,3713.9559431000002,N,13701.424785100002,E,4,11,1.4,96.9875,M,37.55,M,3.0,0000*65,37.23259905166667,137.02374641833336,679525.1166759577,4122594.6249826127
1850,[2021-02-22 15:38:00.702] $GPGGA,63800.3,3713.9559439000004,N,13701.4247856,E,4,11,1.4,96.9859,M,37.55,M,3.0,0000*65,37.232599065,137.02374642666666,679525.1173836503,4122594.626477836
1851,[2021-02-22 15:38:00.827] $GPGGA,63800.4,3713.9559443999997,N,13701.424786700001,E,4,11,1.4,96.9865,M,37.55,M,3.0,0000*65,37.23259907333333,137.02374644500003,679525.1189904055,4122594.6274372484
1852,[2021-02-22 15:38:00.921] $GPGGA,63800.5,3713.9559441,N,13701.4247863,E,4,11,1.4,96.985,M,37.55,M,3.0,0000*63,37.232599068333336,137.02374643833335,679525.1184108022,4122594.6268698205
1853,[2021-02-22 15:38:00.999] $GPGGA,63800.6,3713.955946,N,13701.424787,E,4,11,1.4,96.9848,M,37.55,M,3.0,0000*68,37.2325991,137.02374644999998,679525.119370736,4122594.630405567
1854,[2021-02-22 15:38:01.124] $GPGGA,63800.7,3713.9559479000004,N,13701.424786000001,E,4,11,1.4,96.9834,M,37.55,M,3.0,0000*6B,37.232599131666674,137.02374643333334,679525.1178169647,4122594.6338875713
1855,[2021-02-22 15:38:01.202] $GPGGA,63800.8,3713.955946,N,13701.4247877,E,4,11,1.4,96.9857,M,37.55,M,3.0,0000*6F,37.2325991,137.02374646166666,679525.1204057976,4122594.630427697
1856,[2021-02-22 15:38:01.327] $GPGGA,63800.9,3713.9559486999997,N,13701.4247869,E,4,11,1.4,96.9848,M,37.55,M,3.0,0000*66,37.232599145,137.02374644833333,679525.1191161219,4122594.6353954407
1857,[2021-02-22 15:38:01.406] $GPGGA,63801.0,3713.9559495,N,13701.424787200001,E,4,11,1.4,96.9806,M,37.55,M,4.0,0000*6A,37.232599158333336,137.0237464533334,679525.1195280936,4122594.636884342
1858,[2021-02-22 15:38:01.499] $GPGGA,63801.1,3713.9559498999997,N,13701.4247856,E,4,11,1.4,96.9811,M,37.55,M,4.0,0000*67,37.232599165,137.02374642666666,679525.1171464253,4122594.6375734694
1859,[2021-02-22 15:38:01.593] $GPGGA,63801.2,3713.9559486999997,N,13701.4247857,E,4,11,1.4,96.9823,M,37.55,M,4.0,0000*6B,37.232599145,137.0237464283333,679525.1173417354,4122594.6353575042
1860,[2021-02-22 15:38:01.718] $GPGGA,63801.3,3713.9559501000003,N,13701.424785,E,4,11,1.4,96.9793,M,37.55,M,4.0,0000*66,37.23259916833334,137.02374641666668,679525.1162513279,4122594.6379243555
1861,[2021-02-22 15:38:01.796] $GPGGA,63801.4,3713.9559515,N,13701.424782499998,E,4,11,1.4,96.9792,M,37.55,M,4.0,0000*67,37.23259919166667,137.02374637499997,679525.112499335,4122594.640434302
1862,[2021-02-22 15:38:01.921] $GPGGA,63801.5,3713.9559511999996,N,13701.4247848,E,4,11,1.4,96.9815,M,37.55,M,4.0,0000*6A,37.23259918666666,137.02374641333333,679525.1159121045,4122594.6399522326
1863,[2021-02-22 15:38:01.999] $GPGGA,63801.6,3713.9559513000004,N,13701.4247847,E,4,11,1.4,96.981,M,37.55,M,4.0,0000*62,37.23259918833334,137.02374641166668,679525.1157602858,4122594.640133998
1864,[2021-02-22 15:38:02.124] $GPGGA,63801.7,3713.9559513000004,N,13701.4247856,E,4,11,1.4,96.9842,M,37.55,M,4.0,0000*64,37.23259918833334,137.02374642666666,679525.1170910728,4122594.64016245
1865,[2021-02-22 15:38:02.202] $GPGGA,63801.8,3713.9559533,N,13701.4247833,E,4,11,1.4,96.9771,M,37.55,M,4.0,0000*65,37.232599221666675,137.02374638833336,679525.1136110964,4122594.6437882837
1866,[2021-02-22 15:38:02.327] $GPGGA,63801.9,3713.9559534,N,13701.424787,E,4,11,1.4,96.9779,M,37.55,M,4.0,0000*6C,37.23259922333333,137.02374644999998,679525.1190781584,4122594.6440901803
1867,[2021-02-22 15:38:02.405] $GPGGA,63802.0,3713.9559533,N,13701.424787399998,E,4,11,1.4,96.9723,M,37.55,M,5.0,0000*6B,37.232599221666675,137.02374645666663,679525.1196735743,4122594.6439179005
1868,[2021-02-22 15:38:02.499] $GPGGA,63802.1,3713.9559495999997,N,13701.4247901,E,4,11,1.4,96.9759,M,37.55,M,5.0,0000*6A,37.23259915999999,137.02374650166666,679525.1238122314,4122594.6371609475
1869,[2021-02-22 15:38:02.624] $GPGGA,63802.2,3713.9559518,N,13701.424788499999,E,4,11,1.4,96.9762,M,37.55,M,5.0,0000*6B,37.23259919666666,137.02374647499997,679525.1213594,4122594.6411787653
1870,[2021-02-22 15:38:02.702] $GPGGA,63802.3,3713.9559498999997,N,13701.424788,E,4,11,1.4,96.9816,M,37.55,M,5.0,0000*6B,37.232599165,137.02374646666667,679525.1206951963,4122594.6376493424
1871,[2021-02-22 15:38:02.827] $GPGGA,63802.4,3713.9559498999997,N,13701.424786399999,E,4,11,1.4,96.9818,M,37.55,M,5.0,0000*68,37.232599165,137.02374644,679525.1183293497,4122594.6375987604
1872,[2021-02-22 15:38:02.905] $GPGGA,63802.5,3713.9559508,N,13701.424788299999,E,4,11,1.4,96.9823,M,37.55,M,5.0,0000*61,37.23259918000001,137.02374647166667,679525.1211032097,4122594.639323172
1873,[2021-02-22 15:38:03.030] $GPGGA,63802.6,3713.9559505,N,13701.424790000001,E,4,11,1.4,96.9837,M,37.55,M,5.0,0000*60,37.232599175000004,137.02374650000002,679525.1236287848,4122594.638822133
1874,[2021-02-22 15:38:03.109] $GPGGA,63802.7,3713.95595,N,13701.424792500002,E,4,11,1.4,96.9846,M,37.55,M,5.0,0000*65,37.23259916666666,137.02374654166667,679525.1273451871,4122594.6379765295
1875,[2021-02-22 15:38:03.218] $GPGGA,63802.8,3713.9559488000004,N,13701.4247933,E,4,11,1.4,96.9864,M,37.55,M,5.0,0000*6C,37.23259914666667,137.023746555,679525.1285755567,4122594.635782696
1876,[2021-02-22 15:38:03.312] $GPGGA,63802.9,3713.9559495999997,N,13701.4247944,E,4,11,1.4,96.9881,M,37.55,M,5.0,0000*69,37.23259915999999,137.02374657333334,679525.1301704482,4122594.637296887
1877,[2021-02-22 15:38:03.421] $GPGGA,63803.0,3713.9559509000005,N,13701.424794499999,E,4,11,1.4,96.9824,M,37.55,M,6.0,0000*6B,37.23259918166668,137.023746575,679525.1302669122,4122594.6397041036
1878,[2021-02-22 15:38:03.515] $GPGGA,63803.1,3713.9559511999996,N,13701.424793099999,E,4,11,1.4,96.9847,M,37.55,M,6.0,0000*66,37.23259918666666,137.02374655166668,679525.1281849367,4122594.6402146253
1879,[2021-02-22 15:38:03.624] $GPGGA,63803.2,3713.9559532,N,13701.424789200002,E,4,11,1.4,96.985,M,37.55,M,1.0,0000*6E,37.23259922,137.02374648666668,679525.1223391092,4122594.6437898763
1880,[2021-02-22 15:38:03.702] $GPGGA,63803.3,3713.9559534,N,13701.4247891,E,4,11,1.4,96.9826,M,37.55,M,1.0,0000*6B,37.23259922333333,137.023746485,679525.1221833366,4122594.6441565696
1881,[2021-02-22 15:38:03.827] $GPGGA,63803.4,3713.9559539000006,N,13701.424788600001,E,4,11,1.4,96.9837,M,37.55,M,1.0,0000*67,37.232599231666676,137.0237464766667,679525.1214242429,4122594.645065399
1882,[2021-02-22 15:38:03.905] $GPGGA,63803.5,3713.9559541000003,N,13701.4247863,E,4,11,1.4,96.9847,M,37.55,M,1.0,0000*65,37.23259923500001,137.02374643833335,679525.1180154271,4122594.6453625425
1883,[2021-02-22 15:38:04.030] $GPGGA,63803.6,3713.9559541000003,N,13701.424785100002,E,4,11,1.4,96.983,M,37.55,M,1.0,0000*67,37.23259923500001,137.02374641833336,679525.1162410451,4122594.645324606
1884,[2021-02-22 15:38:04.108] $GPGGA,63803.7,3713.9559548,N,13701.4247841,E,4,11,1.4,96.9805,M,37.55,M,1.0,0000*68,37.232599246666666,137.02374640166664,679525.1147347101,4122594.6465874817
1885,[2021-02-22 15:38:04.218] $GPGGA,63803.8,3713.9559553999998,N,13701.424783700002,E,4,11,1.4,96.9791,M,37.55,M,1.0,0000*69,37.23259925666666,137.02374639500005,679525.1141195298,4122594.6476843976
1886,[2021-02-22 15:38:04.296] $GPGGA,63803.9,3713.955955,N,13701.4247855,E,4,11,1.4,96.9796,M,37.55,M,1.0,0000*6F,37.23259925,137.023746425,679525.1167969215,4122594.647001594
1887,[2021-02-22 15:38:04.421] $GPGGA,63804.0,3713.9559549,N,13701.424788100001,E,4,11,1.4,96.9773,M,37.55,M,2.0,0000*68,37.23259924833333,137.02374646833337,679525.1206453784,4122594.646898863
1888,[2021-02-22 15:38:04.499] $GPGGA,63804.1,3713.9559541000003,N,13701.4247894,E,4,11,1.4,96.9766,M,37.55,M,2.0,0000*61,37.23259923500001,137.02374648999998,679525.1225992531,4122594.6454605456
1889,[2021-02-22 15:38:04.608] $GPGGA,63804.2,3713.955953,N,13701.424788600001,E,4,11,1.4,96.9805,M,37.55,M,2.0,0000*6D,37.232599216666664,137.0237464766667,679525.1214598268,4122594.6434010533
1890,[2021-02-22 15:38:04.718] $GPGGA,63804.3,3713.955953,N,13701.424787399998,E,4,11,1.4,96.9814,M,37.55,M,2.0,0000*61,37.232599216666664,137.02374645666663,679525.1196854356,4122594.643363117
1891,[2021-02-22 15:38:04.796] $GPGGA,63804.4,3713.9559530999995,N,13701.4247876,E,4,11,1.4,96.9795,M,37.55,M,2.0,0000*63,37.23259921833333,137.02374646,679525.1199772164,4122594.6435543653
1892,[2021-02-22 15:38:04.921] $GPGGA,63804.5,3713.955954,N,13701.4247882,E,4,11,1.4,96.978,M,37.55,M,2.0,0000*6B,37.23259923333333,137.02374647000002,679525.120828827,4122594.645237679
1893,[2021-02-22 15:38:04.999] $GPGGA,63804.6,3713.9559534,N,13701.424788600001,E,4,11,1.4,96.9763,M,37.55,M,2.0,0000*62,37.23259922333333,137.0237464766667,679525.1214440118,4122594.6441407623
1894,[2021-02-22 15:38:05.124] $GPGGA,63804.7,3713.9559532,N,13701.424788100001,E,4,11,1.4,96.9763,M,37.55,M,2.0,0000*62,37.23259922,137.02374646833337,679525.120712592,4122594.643755101
1895,[2021-02-22 15:38:05.202] $GPGGA,63804.8,3713.9559526999997,N,13701.424788600001,E,4,11,1.4,96.9807,M,37.55,M,2.0,0000*63,37.23259921166666,137.0237464766667,679525.1214716879,4122594.6428462714
1896,[2021-02-22 15:38:05.327] $GPGGA,63804.9,3713.9559524000006,N,13701.424786500002,E,4,11,1.4,96.9816,M,37.55,M,2.0,0000*6C,37.23259920666668,137.0237464416667,679525.1183783754,4122594.6422251016
1897,[2021-02-22 15:38:05.405] $GPGGA,63805.0,3713.9559526000003,N,13701.4247854,E,4,11,1.4,96.9798,M,37.55,M,3.0,0000*6C,37.23259921,137.02374642333336,679525.1167439463,4122594.6425601807
1898,[2021-02-22 15:38:05.499] $GPGGA,63805.1,3713.9559526000003,N,13701.424784,E,4,11,1.4,96.9796,M,37.55,M,3.0,0000*66,37.23259921,137.0237464,679525.1146738275,4122594.642515922
1899,[2021-02-22 15:38:05.624] $GPGGA,63805.2,3713.9559528000004,N,13701.424784499999,E,4,11,1.4,96.9814,M,37.55,M,3.0,0000*6B,37.232599213333344,137.02374640833332,679525.1154052472,4122594.6429015836
1900,[2021-02-22 15:38:05.718] $GPGGA,63805.3,3713.9559520000003,N,13701.424785,E,4,11,1.4,96.9821,M,37.55,M,3.0,0000*60,37.23259920000001,137.02374641666668,679525.1161762066,4122594.6414379734
1901,[2021-02-22 15:38:05.796] $GPGGA,63805.4,3713.9559526000003,N,13701.424786500002,E,4,11,1.4,96.9831,M,37.55,M,3.0,0000*66,37.23259921,137.0237464416667,679525.118370468,4122594.6425949563
1902,[2021-02-22 15:38:05.921] $GPGGA,63805.5,3713.9559532,N,13701.424786399999,E,4,11,1.4,96.9836,M,37.55,M,3.0,0000*64,37.23259922,137.02374644,679525.118198876,4122594.643701357
1903,[2021-02-22 15:38:05.999] $GPGGA,63805.6,3713.9559526000003,N,13701.424786399999,E,4,11,1.4,96.9835,M,37.55,M,3.0,0000*61,37.23259921,137.02374644,679525.1182225985,4122594.642591795
1904,[2021-02-22 15:38:06.124] $GPGGA,63805.7,3713.9559519,N,13701.4247868,E,4,11,1.4,96.9847,M,37.55,M,3.0,0000*65,37.23259919833334,137.02374644666668,679525.1188417369,4122594.6413099505
1905,[2021-02-22 15:38:06.233] $GPGGA,63805.8,3713.9559528000004,N,13701.4247854,E,4,11,1.4,96.9868,M,37.55,M,3.0,0000*6A,37.232599213333344,137.02374642333336,679525.1167360388,4122594.6429300364
1906,[2021-02-22 15:38:06.311] $GPGGA,63805.9,3713.9559522,N,13701.424782,E,4,11,1.4,96.9848,M,37.55,M,3.0,0000*60,37.23259920333333,137.02374636666667,679525.1117323338,4122594.6417129855
1907,[2021-02-22 15:38:06.421] $GPGGA,63806.0,3713.9559519,N,13701.4247789,E,4,11,1.4,96.9819,M,37.55,M,4.0,0000*6D,37.23259919833334,137.02374631499998,679525.1071603647,4122594.6410602015
1908,[2021-02-22 15:38:06.515] $GPGGA,63806.1,3713.9559515,N,13701.424779899999,E,4,11,1.4,96.9807,M,37.55,M,4.0,0000*6E,37.23259919166667,137.02374633166662,679525.1086548318,4122594.6403521067
1909,[2021-02-22 15:38:06.624] $GPGGA,63806.2,3713.95595,N,13701.424778499999,E,4,11,1.4,96.9837,M,37.55,M,4.0,0000*67,37.23259916666666,137.0237463083333,679525.1066440238,4122594.637533938
1910,[2021-02-22 15:38:06.702] $GPGGA,63806.3,3713.9559490999995,N,13701.424781200001,E,4,11,1.4,96.9841,M,37.55,M,4.0,0000*6F,37.232599151666655,137.02374635333334,679525.110671978,4122594.6359549495
1911,[2021-02-22 15:38:06.827] $GPGGA,63806.4,3713.9559478,N,13701.424783000002,E,4,11,1.4,96.9839,M,37.55,M,4.0,0000*60,37.232599130000004,137.02374638333336,679525.1133849554,4122594.6336078024
1912,[2021-02-22 15:38:06.905] $GPGGA,63806.5,3713.9559456999996,N,13701.424787900001,E,4,11,1.4,96.9863,M,37.55,M,4.0,0000*6E,37.232599095,137.02374646500002,679525.1207133911,4122594.629879237
1913,[2021-02-22 15:38:07.030] $GPGGA,63806.6,3713.9559454000005,N,13701.424791,E,4,11,1.4,96.9881,M,37.55,M,4.0,0000*6C,37.232599090000015,137.02374651666665,679525.1253090781,4122594.6294224616
1914,[2021-02-22 15:38:07.108] $GPGGA,63806.7,3713.955946,N,13701.424791100002,E,4,11,1.4,96.9872,M,37.55,M,4.0,0000*67,37.2325991,137.02374651833335,679525.125433223,4122594.630535184
1915,[2021-02-22 15:38:07.218] $GPGGA,63806.8,3713.9559461999997,N,13701.4247917,E,4,11,1.4,96.9843,M,37.55,M,4.0,0000*6E,37.23259910333332,137.02374652833333,679525.1263125075,4122594.630924006
1916,[2021-02-22 15:38:07.296] $GPGGA,63806.9,3713.9559449000003,N,13701.4247916,E,4,11,1.4,96.99,M,37.55,M,4.0,0000*61,37.23259908166667,137.02374652666668,679525.1262160414,4122594.628516792
1917,[2021-02-22 15:38:07.421] $GPGGA,63807.0,3713.9559450999996,N,13701.424791799998,E,4,11,1.4,96.9859,M,37.55,M,5.0,0000*62,37.232599085,137.02374652999998,679525.1265038616,4122594.628892969
1918,[2021-02-22 15:38:07.514] $GPGGA,63807.1,3713.9559453,N,13701.4247919,E,4,11,1.4,96.988,M,37.55,M,5.0,0000*64,37.23259908833334,137.0237465316667,679525.1266438236,4122594.629265984
1919,[2021-02-22 15:38:07.624] $GPGGA,63807.2,3713.9559441,N,13701.424793,E,4,11,1.4,96.9896,M,37.55,M,5.0,0000*68,37.232599068333336,137.02374655000003,679525.128317788,4122594.627081632
1920,[2021-02-22 15:38:07.702] $GPGGA,63807.3,3713.9559448,N,13701.4247949,E,4,11,1.4,96.9904,M,37.55,M,5.0,0000*64,37.23259908,137.02374658166667,679525.1310995532,4122594.628436188
1921,[2021-02-22 15:38:07.827] $GPGGA,63807.4,3713.9559438,N,13701.4247961,E,4,11,1.4,96.9906,M,37.55,M,5.0,0000*6C,37.23259906333333,137.02374660166666,679525.132913475,4122594.626624853
1922,[2021-02-22 15:38:07.905] $GPGGA,63807.5,3713.9559446999997,N,13701.424795299998,E,4,11,1.4,96.9881,M,37.55,M,5.0,0000*6A,37.23259907833333,137.02374658833327,679525.1316949624,4122594.6282639066
1923,[2021-02-22 15:38:08.030] $GPGGA,63807.6,3713.9559446999997,N,13701.4247956,E,4,11,1.4,96.9865,M,37.55,M,5.0,0000*66,37.23259907833333,137.02374659333333,679525.132138564,4122594.628273391
1924,[2021-02-22 15:38:08.124] $GPGGA,63807.7,3713.9559446999997,N,13701.424797200001,E,4,11,1.4,96.9862,M,37.55,M,5.0,0000*66,37.23259907833333,137.02374662000003,679525.1345044151,4122594.628323973
1925,[2021-02-22 15:38:08.202] $GPGGA,63807.8,3713.9559454000005,N,13701.4247968,E,4,11,1.4,96.9843,M,37.55,M,5.0,0000*63,37.232599090000015,137.02374661333334,679525.1338852744,4122594.62960582
1926,[2021-02-22 15:38:08.327] $GPGGA,63807.9,3713.9559456999996,N,13701.424798299999,E,4,11,1.4,96.984,M,37.55,M,5.0,0000*67,37.232599095,137.0237466383333,679525.1360913925,4122594.630208019
1927,[2021-02-22 15:38:08.405] $GPGGA,63808.0,3713.955949,N,13701.4248,E,4,11,1.4,96.9813,M,37.55,M,6.0,0000*62,37.232599150000006,137.02374666666668,679525.1384746347,4122594.636364362
1928,[2021-02-22 15:38:08.499] $GPGGA,63808.1,3713.95595,N,13701.424801199999,E,4,11,1.4,96.9799,M,37.55,M,6.0,0000*65,37.23259916666666,137.02374668666667,679525.1402094816,4122594.6382515687
1929,[2021-02-22 15:38:08.624] $GPGGA,63808.2,3713.9559486999997,N,13701.424802599999,E,4,11,1.4,96.9865,M,37.55,M,1.0,0000*64,37.232599145,137.02374670999998,679525.1423309946,4122594.635891775
1930,[2021-02-22 15:38:08.717] $GPGGA,63808.3,3713.9559501999997,N,13701.4248025,E,4,11,1.4,96.986,M,37.55,M,1.0,0000*6F,37.23259916999999,137.02374670833333,679525.1421238257,4122594.6386625213
1931,[2021-02-22 15:38:08.796] $GPGGA,63808.4,3713.9559513000004,N,13701.424801,E,4,11,1.4,96.9847,M,37.55,M,1.0,0000*6B,37.23259918833334,137.02374668333331,679525.1398623507,4122594.6406493015
1932,[2021-02-22 15:38:08.921] $GPGGA,63808.5,3713.955951,N,13701.424802000001,E,4,11,1.4,96.9882,M,37.55,M,1.0,0000*63,37.23259918333333,137.02374670000003,679525.1413528707,4122594.640126132
1933,[2021-02-22 15:38:08.999] $GPGGA,63808.6,3713.9559492,N,13701.4248007,E,4,11,1.4,96.9848,M,37.55,M,1.0,0000*68,37.232599153333325,137.0237466783333,679525.1395017823,4122594.636756343
1934,[2021-02-22 15:38:09.124] $GPGGA,63808.7,3713.9559488000004,N,13701.424802700001,E,4,11,1.4,96.9854,M,37.55,M,1.0,0000*6D,37.23259914666667,137.0237467116667,679525.1424749104,4122594.636079864
1935,[2021-02-22 15:38:09.202] $GPGGA,63808.8,3713.9559460999994,N,13701.424803200001,E,4,11,1.4,96.9859,M,37.55,M,1.0,0000*6C,37.232599101666665,137.02374672000002,679525.1433209889,4122594.6311026365
1936,[2021-02-22 15:38:09.327] $GPGGA,63808.9,3713.9559469000005,N,13701.424803200001,E,4,11,1.4,96.9891,M,37.55,M,1.0,0000*61,37.232599115000006,137.02374672000002,679525.1432893589,4122594.6325820554
1937,[2021-02-22 15:38:09.405] $GPGGA,63809.0,3713.9559478,N,13701.4248037,E,4,11,1.4,96.9881,M,37.55,M,2.0,0000*6E,37.232599130000004,137.02374672833332,679525.1439930978,4122594.634262206
1938,[2021-02-22 15:38:09.499] $GPGGA,63809.1,3713.9559452,N,13701.4248021,E,4,11,1.4,96.9872,M,37.55,M,2.0,0000*6C,37.23259908666667,137.02374670166668,679525.141730051,4122594.6294035167
1939,[2021-02-22 15:38:09.624] $GPGGA,63809.2,3713.9559456999996,N,13701.4248002,E,4,11,1.4,96.9889,M,37.55,M,2.0,0000*6F,37.232599095,137.02374667000004,679525.1389008408,4122594.6302680857
1940,[2021-02-22 15:38:09.717] $GPGGA,63809.3,3713.9559465,N,13701.4248003,E,4,11,1.4,96.9887,M,37.55,M,2.0,0000*60,37.23259910833334,137.0237466716667,679525.1390170758,4122594.6317506665
1941,[2021-02-22 15:38:09.827] $GPGGA,63809.4,3713.9559469000005,N,13701.424801299998,E,4,11,1.4,96.9916,M,37.55,M,2.0,0000*63,37.232599115000006,137.02374668833332,679525.1404799129,4122594.6325219884
1942,[2021-02-22 15:38:09.905] $GPGGA,63809.5,3713.9559495,N,13701.4248007,E,4,11,1.4,96.9917,M,37.55,M,2.0,0000*65,37.232599158333336,137.0237466783333,679525.1394899208,4122594.6373111275
1943,[2021-02-22 15:38:10.030] $GPGGA,63809.6,3713.9559486000003,N,13701.424799899998,E,4,11,1.4,96.9929,M,37.55,M,2.0,0000*68,37.23259914333334,137.02374666499998,679525.1383425803,4122594.6356214923
1944,[2021-02-22 15:38:10.108] $GPGGA,63809.7,3713.9559495,N,13701.4247974,E,4,11,1.4,96.9955,M,37.55,M,2.0,0000*63,37.232599158333336,137.02374662333332,679525.1346103628,4122594.6372068017
1945,[2021-02-22 15:38:10.233] $GPGGA,63809.8,3713.9559520999996,N,13701.424794499999,E,4,11,1.4,96.9925,M,37.55,M,2.0,0000*67,37.23259920166666,137.023746575,679525.1302194672,4122594.6419232287
1946,[2021-02-22 15:38:10.296] $GPGGA,63809.9,3713.9559535999997,N,13701.4247914,E,4,11,1.4,96.9941,M,37.55,M,2.0,0000*66,37.232599226666665,137.02374652333336,679525.125576335,4122594.6445991346
1947,[2021-02-22 15:38:10.421] $GPGGA,63810.0,3713.9559550999998,N,13701.424792500002,E,4,11,1.4,96.9912,M,37.55,M,3.0,0000*63,37.23259925166666,137.02374654166667,679525.127143546,4122594.647407817
1948,[2021-02-22 15:38:10.514] $GPGGA,63810.1,3713.9559528000004,N,13701.424793,E,4,11,1.4,96.9935,M,37.55,M,3.0,0000*6D,37.232599213333344,137.02374655000003,679525.1279738116,4122594.6431703
1949,[2021-02-22 15:38:10.624] $GPGGA,63810.2,3713.955954,N,13701.424793,E,4,11,1.4,96.9916,M,37.55,M,3.0,0000*61,37.23259923333333,137.02374655000003,679525.1279263666,4122594.6453894256
1950,[2021-02-22 15:38:10.702] $GPGGA,63810.3,3713.9559520000003,N,13701.424796700001,E,4,11,1.4,96.9912,M,37.55,M,3.0,0000*60,37.23259920000001,137.0237466116667,679525.1334764641,4122594.6418078537
1951,[2021-02-22 15:38:10.827] $GPGGA,63810.4,3713.9559535,N,13701.4247995,E,4,11,1.4,96.989,M,37.55,M,3.0,0000*65,37.232599224999994,137.02374665833335,679525.1375573889,4122594.6446702774
1952,[2021-02-22 15:38:10.905] $GPGGA,63810.5,3713.955951,N,13701.4248007,E,4,11,1.4,96.9869,M,37.55,M,3.0,0000*68,37.23259918333333,137.0237466783333,679525.1394306147,4122594.6400850336
1953,[2021-02-22 15:38:11.030] $GPGGA,63810.6,3713.9559501000003,N,13701.4248007,E,4,11,1.4,96.9833,M,37.55,M,3.0,0000*64,37.23259916833334,137.0237466783333,679525.1394661984,4122594.6384206912
1954,[2021-02-22 15:38:11.108] $GPGGA,63810.7,3713.9559498000003,N,13701.424801299998,E,4,11,1.4,96.9837,M,37.55,M,3.0,0000*65,37.23259916333334,137.02374668833332,679525.1403652541,4122594.637884878
1955,[2021-02-22 15:38:11.217] $GPGGA,63810.8,3713.9559464000004,N,13701.4248051,E,4,11,1.4,96.982,M,37.55,M,3.0,0000*69,37.23259910666667,137.02374675166664,679525.1461185669,4122594.631717484
1956,[2021-02-22 15:38:11.295] $GPGGA,63810.9,3713.9559461999997,N,13701.424807700003,E,4,11,1.4,96.9832,M,37.55,M,3.0,0000*69,37.23259910333332,137.02374679500002,679525.1499709798,4122594.631429824
1957,[2021-02-22 15:38:11.420] $GPGGA,63811.0,3713.9559458999997,N,13701.424810100001,E,4,11,1.4,96.981,M,37.55,M,4.0,0000*6E,37.23259909833333,137.02374683500003,679525.153531612,4122594.630950916
1958,[2021-02-22 15:38:11.514] $GPGGA,63811.1,3713.9559477,N,13701.424809399998,E,4,11,1.4,96.9821,M,37.55,M,4.0,0000*6C,37.232599128333334,137.0237468233333,679525.1524253828,4122594.6342574772
1959,[2021-02-22 15:38:11.624] $GPGGA,63811.2,3713.9559461999997,N,13701.4248089,E,4,11,1.4,96.9864,M,37.55,M,4.0,0000*66,37.23259910333332,137.023746815,679525.1517453642,4122594.6314677615
1960,[2021-02-22 15:38:11.717] $GPGGA,63811.3,3713.9559468,N,13701.424809,E,4,11,1.4,96.9868,M,37.55,M,4.0,0000*69,37.232599113333336,137.02374681666666,679525.1518695044,4122594.6325804866
1961,[2021-02-22 15:38:11.811] $GPGGA,63811.4,3713.9559478,N,13701.4248074,E,4,11,1.4,96.9851,M,37.55,M,4.0,0000*6F,37.232599130000004,137.02374679,679525.1494641204,4122594.634379177
1962,[2021-02-22 15:38:11.920] $GPGGA,63811.5,3713.9559478,N,13701.4248051,E,4,11,1.4,96.9838,M,37.55,M,4.0,0000*66,37.232599130000004,137.02374675166664,679525.1460632144,4122594.634306465
1963,[2021-02-22 15:38:11.999] $GPGGA,63811.6,3713.9559474,N,13701.4248042,E,4,11,1.4,96.9873,M,37.55,M,4.0,0000*64,37.23259912333332,137.02374673666665,679525.1447482399,4122594.633538303
1964,[2021-02-22 15:38:12.123] $GPGGA,63811.7,3713.9559475,N,13701.424804299999,E,4,11,1.4,96.9873,M,37.55,M,4.0,0000*65,37.232599125,137.0237467383333,679525.1448921512,4122594.633726392
1965,[2021-02-22 15:38:12.202] $GPGGA,63811.8,3713.955949,N,13701.4248051,E,4,11,1.4,96.9874,M,37.55,M,4.0,0000*65,37.232599150000006,137.02374675166664,679525.1460157693,4122594.6365255923
1966,[2021-02-22 15:38:12.327] $GPGGA,63811.9,3713.9559483000003,N,13701.424803799999,E,4,11,1.4,96.9904,M,37.55,M,4.0,0000*6F,37.232599138333335,137.02374672999997,679525.144121194,4122594.6351900036
1967,[2021-02-22 15:38:12.405] $GPGGA,63812.0,3713.9559505,N,13701.424802000001,E,4,11,1.4,96.9841,M,37.55,M,5.0,0000*62,37.232599175000004,137.02374670000003,679525.1413726395,4122594.6392014977
1968,[2021-02-22 15:38:12.499] $GPGGA,63812.1,3713.9559498000003,N,13701.424802000001,E,4,11,1.4,96.9887,M,37.55,M,5.0,0000*6C,37.23259916333334,137.02374670000003,679525.1414003157,4122594.6379070072
1969,[2021-02-22 15:38:12.623] $GPGGA,63812.2,3713.9559509000005,N,13701.4247998,E,4,11,1.4,96.9905,M,37.55,M,5.0,0000*68,37.23259918166668,137.02374666333333,679525.1381037813,4122594.6398716564
1970,[2021-02-22 15:38:12.717] $GPGGA,63812.3,3713.9559495,N,13701.424802700001,E,4,11,1.4,96.9898,M,37.55,M,5.0,0000*6A,37.232599158333336,137.0237467116667,679525.1424472341,4122594.6373743545
1971,[2021-02-22 15:38:12.795] $GPGGA,63812.4,3713.9559479000004,N,13701.424804299999,E,4,11,1.4,96.9917,M,37.55,M,5.0,0000*6B,37.232599131666674,137.0237467383333,679525.1448763362,4122594.6344661014
1972,[2021-02-22 15:38:12.920] $GPGGA,63812.5,3713.9559478,N,13701.424804700002,E,4,11,1.4,96.9908,M,37.55,M,5.0,0000*61,37.232599130000004,137.02374674500004,679525.1454717589,4122594.63429382
1973,[2021-02-22 15:38:12.998] $GPGGA,63812.6,3713.9559477,N,13701.424805200002,E,4,11,1.4,96.9894,M,37.55,M,5.0,0000*6D,37.232599128333334,137.02374675333337,679525.1462150377,4122594.634124699
1974,[2021-02-22 15:38:13.123] $GPGGA,63812.7,3713.9559488000004,N,13701.424803,E,4,11,1.4,96.9903,M,37.55,M,5.0,0000*67,37.23259914666667,137.02374671666666,679525.1429185031,4122594.6360893487
1975,[2021-02-22 15:38:13.202] $GPGGA,63812.8,3713.9559498999997,N,13701.4248035,E,4,11,1.4,96.9903,M,37.55,M,5.0,0000*6D,37.232599165,137.02374672500002,679525.1436143413,4122594.638139354
1976,[2021-02-22 15:38:13.327] $GPGGA,63812.9,3713.9559520000003,N,13701.424802399999,E,4,11,1.4,96.9881,M,37.55,M,5.0,0000*64,37.23259920000001,137.02374670666663,679525.1419047887,4122594.6419880507
1977,[2021-02-22 15:38:13.420] $GPGGA,63813.0,3713.9559535999997,N,13701.4248008,E,4,11,1.4,96.9844,M,37.55,M,6.0,0000*6F,37.232599226666665,137.02374667999996,679525.139475682,4122594.644896304
1978,[2021-02-22 15:38:13.530] $GPGGA,63813.1,3713.9559525,N,13701.4247998,E,4,11,1.4,96.9863,M,37.55,M,6.0,0000*66,37.23259920833334,137.02374666333333,679525.1380405212,4122594.642830491
1979,[2021-02-22 15:38:13.623] $GPGGA,63813.2,3713.9559559,N,13701.4247997,E,4,11,1.4,96.9956,M,37.55,M,1.0,0000*61,37.232599265,137.02374666166668,679525.1377582287,4122594.649114854
1980,[2021-02-22 15:38:13.702] $GPGGA,63813.3,3713.9559563000003,N,13701.4248016,E,4,11,1.4,97.0011,M,37.55,M,1.0,0000*64,37.23259927166668,137.02374669333335,679525.1405518574,4122594.6499146293
1981,[2021-02-22 15:38:13.827] $GPGGA,63813.4,3713.9559578000003,N,13701.4248007,E,4,11,1.4,97.006,M,37.55,M,1.0,0000*6F,37.23259929666667,137.0237466783333,679525.1391617595,4122594.652660085
1982,[2021-02-22 15:38:13.905] $GPGGA,63813.5,3713.9559577,N,13701.4248002,E,4,11,1.4,97.0066,M,37.55,M,1.0,0000*62,37.232599295,137.02374667000004,679525.1384263906,4122594.652459351
1983,[2021-02-22 15:38:14.030] $GPGGA,63813.6,3713.9559579,N,13701.4248004,E,4,11,1.4,97.0035,M,37.55,M,1.0,0000*6F,37.232599298333334,137.02374667333333,679525.138714211,4122594.652835528
1984,[2021-02-22 15:38:14.108] $GPGGA,63813.7,3713.9559563000003,N,13701.424800100001,E,4,11,1.4,97.0039,M,37.55,M,1.0,0000*6C,37.23259927166668,137.0237466683334,679525.1383338803,4122594.6498672096
1985,[2021-02-22 15:38:14.217] $GPGGA,63813.8,3713.9559553000004,N,13701.424799,E,4,11,1.4,97.0042,M,37.55,M,1.0,0000*62,37.23259925500001,137.02374665,679525.1367468919,4122594.647983163
1986,[2021-02-22 15:38:14.295] $GPGGA,63813.9,3713.9559559,N,13701.424797200001,E,4,11,1.4,97.0018,M,37.55,M,1.0,0000*6A,37.232599265,137.02374662000003,679525.1340615951,4122594.64903582
1987,[2021-02-22 15:38:14.420] $GPGGA,63814.0,3713.9559557999996,N,13701.424798600001,E,4,11,1.4,97.0011,M,37.55,M,2.0,0000*64,37.23259926333333,137.02374664333337,679525.1361356654,4122594.6488951514
1988,[2021-02-22 15:38:14.514] $GPGGA,63814.1,3713.9559559,N,13701.4247996,E,4,11,1.4,96.9996,M,37.55,M,2.0,0000*6B,37.232599265,137.02374666,679525.1376103638,4122594.6491116923
1989,[2021-02-22 15:38:14.623] $GPGGA,63814.2,3713.9559548,N,13701.424801899999,E,4,11,1.4,96.998,M,37.55,M,2.0,0000*6E,37.232599246666666,137.0237466983333,679525.1410547565,4122594.647150205
1990,[2021-02-22 15:38:14.701] $GPGGA,63814.3,3713.9559545,N,13701.424803999998,E,4,11,1.4,96.9974,M,37.55,M,2.0,0000*65,37.23259924166668,137.0237467333333,679525.1441717914,4122594.646661814
1991,[2021-02-22 15:38:14.826] $GPGGA,63814.4,3713.9559547,N,13701.4248014,E,4,11,1.4,96.9978,M,37.55,M,2.0,0000*6D,37.232599244999996,137.02374669,679525.1403193853,4122594.6469494705
1992,[2021-02-22 15:38:14.905] $GPGGA,63814.5,3713.9559553999998,N,13701.4247995,E,4,11,1.4,96.9988,M,37.55,M,2.0,0000*6E,37.23259925666666,137.02374665833335,679525.1374822676,4122594.648183895
1993,[2021-02-22 15:38:15.030] $GPGGA,63814.6,3713.9559552,N,13701.4247997,E,4,11,1.4,96.9983,M,37.55,M,2.0,0000*62,37.23259925333333,137.02374666166668,679525.137785905,4122594.6478203633
1994,[2021-02-22 15:38:15.123] $GPGGA,63814.7,3713.9559562,N,13701.424799,E,4,11,1.4,96.9973,M,37.55,M,2.0,0000*68,37.23259927,137.02374665,679525.136711308,4122594.6496475064
1995,[2021-02-22 15:38:15.201] $GPGGA,63814.8,3713.9559566,N,13701.4247997,E,4,11,1.4,96.996,M,37.55,M,2.0,0000*66,37.23259927666666,137.02374666166668,679525.1377305525,4122594.650409345
1996,[2021-02-22 15:38:15.326] $GPGGA,63814.9,3713.9559565,N,13701.4248011,E,4,11,1.4,96.9937,M,37.55,M,2.0,0000*6E,37.232599275,137.02374668500002,679525.1398046251,4122594.6502686767
1997,[2021-02-22 15:38:15.405] $GPGGA,63815.0,3713.9559567,N,13701.4248014,E,4,11,1.4,96.9907,M,37.55,M,3.0,0000*63,37.23259927833333,137.02374669,679525.1402403102,4122594.6506480156
1998,[2021-02-22 15:38:15.498] $GPGGA,63815.1,3713.9559555,N,13701.4248,E,4,11,1.4,96.9919,M,37.55,M,3.0,0000*69,37.23259925833333,137.02374666666668,679525.138217641,4122594.6483846284
1999,[2021-02-22 15:38:15.608] $GPGGA,63815.2,3713.9559553999998,N,13701.4247995,E,4,11,1.4,96.9924,M,37.55,M,3.0,0000*6F,37.23259925666666,137.02374665833335,679525.1374822676,4122594.648183895
2000,[2021-02-22 15:38:15.717] $GPGGA,63815.3,3713.9559559,N,13701.4248004,E,4,11,1.4,96.9916,M,37.55,M,3.0,0000*6C,37.232599265,137.02374667333333,679525.1387932859,4122594.6491369833
2001,[2021-02-22 15:38:15.811] $GPGGA,63815.4,3713.9559553999998,N,13701.424801299998,E,4,11,1.4,96.9924,M,37.55,M,3.0,0000*61,37.23259925666666,137.02374668833332,679525.1401438441,4122594.648240799
2002,[2021-02-22 15:38:15.920] $GPGGA,63815.5,3713.9559556000004,N,13701.4248029,E,4,11,1.4,96.9945,M,37.55,M,3.0,0000*6C,37.23259926,137.023746715,679525.1425017831,4122594.6486612353
2003,[2021-02-22 15:38:15.998] $GPGGA,63815.6,3713.9559564,N,13701.424803799999,E,4,11,1.4,96.995,M,37.55,M,3.0,0000*6A,37.232599273333335,137.02374672999997,679525.1438009401,4122594.650169106
2004,[2021-02-22 15:38:16.123] $GPGGA,63815.7,3713.9559560999996,N,13701.424805200002,E,4,11,1.4,96.998,M,37.55,M,3.0,0000*6F,37.23259926833333,137.02374675333337,679525.1458829226,4122594.6496585836
2005,[2021-02-22 15:38:16.201] $GPGGA,63815.8,3713.9559567,N,13701.4248037,E,4,11,1.4,96.998,M,37.55,M,3.0,0000*65,37.23259927833333,137.02374672833332,679525.143641214,4122594.6507207262
2006,[2021-02-22 15:38:16.326] $GPGGA,63815.9,3713.9559564,N,13701.4248042,E,4,11,1.4,96.9983,M,37.55,M,3.0,0000*66,37.232599273333335,137.02374673666665,679525.1443924024,4122594.6501817517
2007,[2021-02-22 15:38:16.404] $GPGGA,63816.0,3713.9559559,N,13701.424804700002,E,4,11,1.4,96.9955,M,37.55,M,4.0,0000*6B,37.232599265,137.02374674500004,679525.1451515051,4122594.6492729234
2008,[2021-02-22 15:38:16.498] $GPGGA,63816.1,3713.9559545,N,13701.4248058,E,4,11,1.4,96.9957,M,37.55,M,4.0,0000*6B,37.23259924166668,137.02374676333332,679525.1468333724,4122594.646718718
2009,[2021-02-22 15:38:16.623] $GPGGA,63816.2,3713.955954,N,13701.4248056,E,4,11,1.4,96.9958,M,37.55,M,4.0,0000*6C,37.23259923333333,137.02374675999997,679525.1465574068,4122594.6457877574
2010,[2021-02-22 15:38:16.717] $GPGGA,63816.3,3713.9559545999996,N,13701.4248064,E,4,11,1.4,96.9938,M,37.55,M,4.0,0000*6C,37.232599243333325,137.02374677333336,679525.1477166131,4122594.6469226107
2011,[2021-02-22 15:38:16.795] $GPGGA,63816.4,3713.9559550999998,N,13701.424804100001,E,4,11,1.4,96.9958,M,37.55,M,4.0,0000*6C,37.23259925166666,137.023746735,679525.1442959384,4122594.6477745366
2012,[2021-02-22 15:38:16.920] $GPGGA,63816.5,3713.9559541999997,N,13701.424801700003,E,4,11,1.4,96.9964,M,37.55,M,4.0,0000*63,37.232599236666665,137.02374669500006,679525.1407827558,4122594.646034319
2013,[2021-02-22 15:38:17.029] $GPGGA,63816.6,3713.9559559,N,13701.4247989,E,4,11,1.4,96.9939,M,37.55,M,4.0,0000*63,37.232599265,137.02374664833332,679525.1365753043,4122594.649089563
2014,[2021-02-22 15:38:17.108] $GPGGA,63816.7,3713.9559545,N,13701.424801,E,4,11,1.4,96.9915,M,37.55,M,4.0,0000*67,37.23259924166668,137.02374668333331,679525.1397358306,4122594.6465669726
2015,[2021-02-22 15:38:17.232] $GPGGA,63816.8,3713.9559544,N,13701.4248008,E,4,11,1.4,96.9923,M,37.55,M,4.0,0000*65,37.23259924,137.02374667999996,679525.1394440521,4122594.6463757204
2016,[2021-02-22 15:38:17.311] $GPGGA,63816.9,3713.9559555,N,13701.424799200002,E,4,11,1.4,96.9932,M,37.55,M,4.0,0000*61,37.23259925833333,137.02374665333335,679525.1370347166,4122594.6483593383
2017,[2021-02-22 15:38:17.420] $GPGGA,63817.0,3713.9559553000004,N,13701.4247988,E,4,11,1.4,96.9891,M,37.55,M,5.0,0000*6D,37.23259925500001,137.02374664666667,679525.1364511618,4122594.6479768394
2018,[2021-02-22 15:38:17.514] $GPGGA,63817.1,3713.9559557,N,13701.424798299999,E,4,11,1.4,96.9887,M,37.55,M,5.0,0000*64,37.232599261666664,137.0237466383333,679525.1356960174,4122594.6487007397
2019,[2021-02-22 15:38:17.623] $GPGGA,63817.2,3713.9559556000004,N,13701.424798700002,E,4,11,1.4,96.9922,M,37.55,M,5.0,0000*6C,37.23259926,137.02374664500002,679525.1362914379,4122594.6485284586
2020,[2021-02-22 15:38:17.701] $GPGGA,63817.3,3713.9559565,N,13701.424798600001,E,4,11,1.4,96.9939,M,37.55,M,5.0,0000*66,37.232599275,137.02374664333337,679525.1361079891,4122594.650189642
2021,[2021-02-22 15:38:17.826] $GPGGA,63817.4,3713.9559565,N,13701.424797200001,E,4,11,1.4,96.9941,M,37.55,M,5.0,0000*65,37.232599275,137.02374662000003,679525.1340378725,4122594.650145382
2022,[2021-02-22 15:38:17.904] $GPGGA,63817.5,3713.9559563000003,N,13701.424795700003,E,4,11,1.4,96.9966,M,37.55,M,5.0,0000*60,37.23259927166668,137.02374659500006,679525.1318278008,4122594.649728109
2023,[2021-02-22 15:38:18.029] $GPGGA,63817.6,3713.9559555,N,13701.424798500002,E,4,11,1.4,96.999,M,37.55,M,5.0,0000*60,37.23259925833333,137.02374664166672,679525.135999664,4122594.6483372087
2024,[2021-02-22 15:38:18.107] $GPGGA,63817.7,3713.9559545,N,13701.4247968,E,4,11,1.4,96.9985,M,37.55,M,5.0,0000*67,37.23259924166668,137.02374661333334,679525.1335254831,4122594.6464341953
