,Format,Time,Latitude,LatType,Longitude,LonType,Status,Satellite,LevelAccuracy,Altitude(sea),M(sea),Altitude(geoid),M(geoid),DGPS use,checksum,Lat,Lon,UTM_X,UTM_Y
8650,[2021-02-22 15:55:19.392] $GPGGA,065519.00,3713.955954,N,13701.4248007,E,4,9.0,1.4,97.0107,M,37.55,M,2.0,0000*6B,37.23259923333333,137.0237466783333,679525.1393120021,4122594.645632851
8651,[2021-02-22 15:55:19.501] $GPGGA,065519.10,3713.9559503,N,13701.424802000001,E,4,9.0,1.4,97.011,M,37.55,M,2.0,0000*6E,37.23259917166667,137.02374670000003,679525.141380547,4122594.6388316425
8652,[2021-02-22 15:55:19.595] $GPGGA,065519.20,3713.955945,N,13701.424806,E,4,9.0,1.4,97.0144,M,37.55,M,2.0,0000*6F,37.232599083333334,137.02374676666668,679525.147504711,4122594.6291569555
8653,[2021-02-22 15:55:19.720] $GPGGA,065519.30,3713.9559401999995,N,13701.424810499999,E,4,9.0,1.4,97.0163,M,37.55,M,2.0,0000*6E,37.23259900333333,137.02374684166662,679525.1543484313,4122594.6204227107
8654,[2021-02-22 15:55:19.798] $GPGGA,065519.40,3713.9559384000004,N,13701.424813999998,E,4,9.0,1.4,97.0238,M,37.55,M,2.0,0000*6C,37.23259897333334,137.02374689999996,679525.159594889,4122594.61720467
8655,[2021-02-22 15:55:19.923] $GPGGA,065519.50,3713.9559363000008,N,13701.424815200002,E,4,9.0,1.4,97.0269,M,37.55,M,2.0,0000*63,37.23259893833335,137.02374692000004,679525.1614523112,4122594.613359138
8656,[2021-02-22 15:55:20.001] $GPGGA,065519.60,3713.9559346,N,13701.4248144,E,4,9.0,1.4,97.0307,M,37.55,M,2.0,0000*69,37.23259891,137.02374690666664,679525.1603365961,4122594.610190081
8657,[2021-02-22 15:55:20.111] $GPGGA,065519.70,3713.9559354999997,N,13701.424814500002,E,4,9.0,1.4,97.0331,M,37.55,M,2.0,0000*6E,37.23259892499999,137.02374690833335,679525.1604488796,4122594.6118575865
8658,[2021-02-22 15:55:20.220] $GPGGA,065519.80,3713.9559366999997,N,13701.424812000001,E,4,9.0,1.4,97.0401,M,37.55,M,2.0,0000*67,37.23259894499999,137.0237468666667,679525.1567048009,4122594.6139976787
8659,[2021-02-22 15:55:20.298] $GPGGA,065519.90,3713.9559385,N,13701.424811,E,4,9.0,1.4,97.0385,M,37.55,M,2.0,0000*62,37.232598974999995,137.02374685,679525.1551549768,4122594.6172947558
8660,[2021-02-22 15:55:20.423] $GPGGA,065520.00,3713.9559412,N,13701.4248074,E,4,9.0,1.4,97.0398,M,37.55,M,3.0,0000*66,37.232599019999995,137.02374679,679525.1497250679,4122594.6221739813
8661,[2021-02-22 15:55:20.517] $GPGGA,065520.10,3713.9559434000003,N,13701.4248064,E,4,9.0,1.4,97.0351,M,37.55,M,3.0,0000*67,37.23259905666668,137.02374677333336,679525.1481594332,4122594.626210767
8662,[2021-02-22 15:55:20.626] $GPGGA,065520.20,3713.9559438,N,13701.4248057,E,4,9.0,1.4,97.0339,M,37.55,M,3.0,0000*66,37.23259906333333,137.02374676166667,679525.1471085588,4122594.626928345
8663,[2021-02-22 15:55:20.704] $GPGGA,065520.30,3713.9559456,N,13701.424806,E,4,9.0,1.4,97.0307,M,37.55,M,3.0,0000*66,37.232599093333334,137.02374676666668,679525.1474809885,4122594.630266519
8664,[2021-02-22 15:55:20.814] $GPGGA,065520.40,3713.9559458999997,N,13701.4248065,E,4,9.0,1.4,97.0338,M,37.55,M,3.0,0000*67,37.23259909833333,137.023746775,679525.1482084545,4122594.6308371066
8665,[2021-02-22 15:55:20.892] $GPGGA,065520.50,3713.955946,N,13701.424808700001,E,4,9.0,1.4,97.0322,M,37.55,M,3.0,0000*6B,37.2325991,137.0237468116667,679525.151457544,4122594.6310915845
8666,[2021-02-22 15:55:21.017] $GPGGA,065520.60,3713.9559464000004,N,13701.4248065,E,4,9.0,1.4,97.0362,M,37.55,M,3.0,0000*64,37.23259910666667,137.023746775,679525.1481886856,4122594.631761744
8667,[2021-02-22 15:55:21.095] $GPGGA,065520.70,3713.9559479000004,N,13701.4248044,E,4,9.0,1.4,97.0375,M,37.55,M,3.0,0000*6C,37.232599131666674,137.02374674,679525.1450242057,4122594.6344692633
8668,[2021-02-22 15:55:21.220] $GPGGA,065520.80,3713.9559479000004,N,13701.4248004,E,4,9.0,1.4,97.0419,M,37.55,M,3.0,0000*6A,37.232599131666674,137.02374667333333,679525.1391095859,4122594.6343428087
8669,[2021-02-22 15:55:21.298] $GPGGA,065520.90,3713.9559482,N,13701.424798299999,E,4,9.0,1.4,97.0439,M,37.55,M,3.0,0000*64,37.23259913666667,137.0237466383333,679525.1359925487,4122594.634831201
8670,[2021-02-22 15:55:21.423] $GPGGA,065521.00,3713.9559498999997,N,13701.424796399999,E,4,9.0,1.4,97.0444,M,37.55,M,4.0,0000*62,37.232599165,137.02374660666666,679525.1331158935,4122594.637914897
8671,[2021-02-22 15:55:21.517] $GPGGA,065521.10,3713.9559524000006,N,13701.4247943,E,4,9.0,1.4,97.0436,M,37.55,M,4.0,0000*64,37.23259920666668,137.02374657166663,679525.1299118737,4122594.642471688
8672,[2021-02-22 15:55:21.610] $GPGGA,065521.20,3713.9559553000004,N,13701.424792500002,E,4,9.0,1.4,97.0404,M,37.55,M,4.0,0000*66,37.23259925500001,137.02374654166667,679525.1271356384,4122594.6477776743
8673,[2021-02-22 15:55:21.689] $GPGGA,065521.30,3713.9559584,N,13701.424790399999,E,4,9.0,1.4,97.0383,M,37.55,M,4.0,0000*66,37.232599306666664,137.0237465066666,679525.1239078939,4122594.653444027
8674,[2021-02-22 15:55:21.814] $GPGGA,065521.40,3713.9559585999996,N,13701.4247896,E,4,9.0,1.4,97.0332,M,37.55,M,4.0,0000*63,37.23259931,137.02374649333333,679525.1227170689,4122594.6537885903
8675,[2021-02-22 15:55:21.892] $GPGGA,065521.50,3713.9559583000005,N,13701.424791799998,E,4,9.0,1.4,97.0268,M,37.55,M,4.0,0000*6E,37.232599305000015,137.02374652999998,679525.1259819665,4122594.6533033606
8676,[2021-02-22 15:55:22.017] $GPGGA,065521.60,3713.9559553999998,N,13701.424794499999,E,4,9.0,1.4,97.0232,M,37.55,M,4.0,0000*60,37.23259925666666,137.023746575,679525.1300889935,4122594.6480258266
8677,[2021-02-22 15:55:22.110] $GPGGA,065521.70,3713.9559545999996,N,13701.4247958,E,4,9.0,1.4,97.0163,M,37.55,M,4.0,0000*69,37.232599243333325,137.02374659666665,679525.132042875,4122594.646587506
8678,[2021-02-22 15:55:22.204] $GPGGA,065521.80,3713.9559543000005,N,13701.424795200002,E,4,9.0,1.4,97.0185,M,37.55,M,4.0,0000*61,37.23259923833334,137.02374658666673,679525.1311675486,4122594.646013758
8679,[2021-02-22 15:55:22.313] $GPGGA,065521.90,3713.9559555,N,13701.4247958,E,4,9.0,1.4,97.0175,M,37.55,M,4.0,0000*62,37.23259925833333,137.02374659666665,679525.1320072913,4122594.648251852
8680,[2021-02-22 15:55:22.392] $GPGGA,065522.00,3713.9559560000002,N,13701.4247975,E,4,9.0,1.4,97.012,M,37.55,M,5.0,0000*60,37.23259926666667,137.02374662499997,679525.1345012318,4122594.649230231
8681,[2021-02-22 15:55:22.501] $GPGGA,065522.10,3713.9559563000003,N,13701.4247976,E,4,9.0,1.4,97.0144,M,37.55,M,5.0,0000*63,37.23259927166668,137.02374662666668,679525.13463724,4122594.6497881757
8682,[2021-02-22 15:55:22.595] $GPGGA,065522.20,3713.9559562,N,13701.4247975,E,4,9.0,1.4,97.0171,M,37.55,M,5.0,0000*64,37.23259927,137.02374662499997,679525.1344933243,4122594.6496000853
8683,[2021-02-22 15:55:22.720] $GPGGA,065522.30,3713.9559565,N,13701.4247991,E,4,9.0,1.4,97.0139,M,37.55,M,5.0,0000*64,37.232599275,137.02374665166664,679525.1368473119,4122594.6502054487
8684,[2021-02-22 15:55:22.798] $GPGGA,065522.40,3713.9559585,N,13701.424800499999,E,4,9.0,1.4,97.016,M,37.55,M,5.0,0000*6A,37.232599308333334,137.02374667499998,679525.1388383533,4122594.653948252
8685,[2021-02-22 15:55:22.923] $GPGGA,065522.50,3713.9559593000004,N,13701.424801,E,4,9.0,1.4,97.0184,M,37.55,M,5.0,0000*62,37.23259932166667,137.02374668333331,679525.1395460506,4122594.655443475
8686,[2021-02-22 15:55:23.001] $GPGGA,065522.60,3713.9559590000003,N,13701.4248016,E,4,9.0,1.4,97.0175,M,37.55,M,5.0,0000*6A,37.23259931666667,137.02374669333335,679525.1404451062,4122594.6549076643
8687,[2021-02-22 15:55:23.110] $GPGGA,065522.70,3713.9559600999996,N,13701.424801,E,4,9.0,1.4,97.0224,M,37.55,M,5.0,0000*61,37.23259933499999,137.02374668333331,679525.1395144206,4122594.6569228927
8688,[2021-02-22 15:55:23.188] $GPGGA,065522.80,3713.9559619999995,N,13701.424801199999,E,4,9.0,1.4,97.023,M,37.55,M,5.0,0000*6A,37.232599366666655,137.02374668666667,679525.1397350315,4122594.660442833
8689,[2021-02-22 15:55:23.313] $GPGGA,065522.90,3713.9559623000005,N,13701.4248003,E,4,9.0,1.4,97.0231,M,37.55,M,5.0,0000*69,37.23259937166667,137.0237466716667,679525.1383923831,4122594.6609691638
8690,[2021-02-22 15:55:23.392] $GPGGA,065523.00,3713.9559636,N,13701.4248003,E,4,9.0,1.4,97.0205,M,37.55,M,6.0,0000*61,37.23259939333334,137.0237466716667,679525.1383409844,4122594.663373216
8691,[2021-02-22 15:55:23.501] $GPGGA,065523.10,3713.9559618000003,N,13701.424799899998,E,4,9.0,1.4,97.02,M,37.55,M,6.0,0000*6C,37.232599363333335,137.02374666499998,679525.1378206852,4122594.6600318826
8692,[2021-02-22 15:55:23.595] $GPGGA,065523.20,3713.9559625,N,13701.424799,E,4,9.0,1.4,97.0233,M,37.55,M,1.0,0000*6F,37.23259937500001,137.02374665,679525.1364622217,4122594.66129792
8693,[2021-02-22 15:55:23.720] $GPGGA,065523.30,3713.9559608000004,N,13701.4247991,E,4,9.0,1.4,97.025,M,37.55,M,1.0,0000*65,37.232599346666674,137.02374665166664,679525.1366773006,4122594.6581573193
8694,[2021-02-22 15:55:23.813] $GPGGA,065523.40,3713.9559595,N,13701.4248,E,4,9.0,1.4,97.0297,M,37.55,M,1.0,0000*60,37.232599325,137.02374666666668,679525.138059491,4122594.655781717
8695,[2021-02-22 15:55:23.892] $GPGGA,065523.50,3713.9559596999998,N,13701.424799399998,E,4,9.0,1.4,97.0335,M,37.55,M,1.0,0000*61,37.23259932833332,137.02374665666665,679525.1371643867,4122594.6561326026
8696,[2021-02-22 15:55:24.016] $GPGGA,065523.60,3713.9559599,N,13701.4247984,E,4,9.0,1.4,97.0368,M,37.55,M,1.0,0000*65,37.23259933166667,137.02374664,679525.1356778294,4122594.656470843
8697,[2021-02-22 15:55:24.095] $GPGGA,065523.70,3713.9559606,N,13701.424797200001,E,4,9.0,1.4,97.0429,M,37.55,M,1.0,0000*6A,37.232599343333334,137.02374662000003,679525.1338757689,4122594.657727399
8698,[2021-02-22 15:55:24.220] $GPGGA,065523.80,3713.9559599,N,13701.4247958,E,4,9.0,1.4,97.0419,M,37.55,M,1.0,0000*6B,37.23259933166667,137.02374659666665,679525.1318333263,4122594.656388648
8699,[2021-02-22 15:55:24.298] $GPGGA,065523.90,3713.9559590999997,N,13701.4247937,E,4,9.0,1.4,97.0422,M,37.55,M,1.0,0000*63,37.23259931833332,137.02374656166666,679525.1287597803,4122594.6548428405
8700,[2021-02-22 15:55:24.423] $GPGGA,065524.00,3713.9559619,N,13701.4247924,E,4,9.0,1.4,97.0424,M,37.55,M,2.0,0000*69,37.232599365000006,137.02374654,679525.126726826,4122594.6599797066
8701,[2021-02-22 15:55:24.516] $GPGGA,065524.10,3713.9559630000003,N,13701.4247896,E,4,9.0,1.4,97.0452,M,37.55,M,2.0,0000*6A,37.23259938333334,137.02374649333333,679525.1225431038,4122594.6619253876
8702,[2021-02-22 15:55:24.610] $GPGGA,065524.20,3713.9559622,N,13701.4247873,E,4,9.0,1.4,97.0485,M,37.55,M,2.0,0000*6B,37.23259937,137.02374645500004,679525.1191738301,4122594.6603732584
8703,[2021-02-22 15:55:24.688] $GPGGA,065524.30,3713.9559615999997,N,13701.4247857,E,4,9.0,1.4,97.0522,M,37.55,M,2.0,0000*67,37.23259936,137.0237464283333,679525.1168317015,4122594.659213113
8704,[2021-02-22 15:55:24.813] $GPGGA,065524.40,3713.9559629,N,13701.4247847,E,4,9.0,1.4,97.054,M,37.55,M,2.0,0000*69,37.23259938166666,137.02374641166668,679525.1153016507,4122594.6615855517
8705,[2021-02-22 15:55:24.891] $GPGGA,065524.50,3713.9559642,N,13701.4247838,E,4,9.0,1.4,97.0554,M,37.55,M,2.0,0000*68,37.23259940333334,137.02374639666664,679525.1139194603,4122594.6639611544
8706,[2021-02-22 15:55:25.016] $GPGGA,065524.60,3713.9559661,N,13701.424782299999,E,4,9.0,1.4,97.0559,M,37.55,M,2.0,0000*6D,37.232599435,137.02374637166662,679525.1116263552,4122594.6674273494
8707,[2021-02-22 15:55:25.095] $GPGGA,065524.70,3713.9559681999995,N,13701.4247806,E,4,9.0,1.4,97.054,M,37.55,M,2.0,0000*6E,37.23259947,137.02374634333336,679525.1090296195,4122594.671257077
8708,[2021-02-22 15:55:25.220] $GPGGA,065524.80,3713.9559694,N,13701.4247821,E,4,9.0,1.4,97.0506,M,37.55,M,2.0,0000*61,37.23259949,137.02374636833332,679525.1112001538,4122594.673523625
8709,[2021-02-22 15:55:25.298] $GPGGA,065524.90,3713.9559723000007,N,13701.4247855,E,4,9.0,1.4,97.048,M,37.55,M,2.0,0000*61,37.23259953833334,137.023746425,679525.1161129226,4122594.678994002
8710,[2021-02-22 15:55:25.423] $GPGGA,065525.00,3713.9559735,N,13701.4247877,E,4,9.0,1.4,97.0486,M,37.55,M,3.0,0000*69,37.232599558333334,137.02374646166666,679525.1193185162,4122594.6812826777
8711,[2021-02-22 15:55:25.501] $GPGGA,065525.10,3713.9559763,N,13701.4247876,E,4,9.0,1.4,97.0519,M,37.55,M,3.0,0000*6D,37.232599605000004,137.02374646,679525.1190599462,4122594.6864574784
8712,[2021-02-22 15:55:25.595] $GPGGA,065525.20,3713.9559780999994,N,13701.4247869,E,4,9.0,1.4,97.0561,M,37.55,M,3.0,0000*63,37.23259963499999,137.02374644833333,679525.1179537193,4122594.6897640363
8713,[2021-02-22 15:55:25.719] $GPGGA,065525.30,3713.9559756,N,13701.4247875,E,4,9.0,1.4,97.0588,M,37.55,M,3.0,0000*62,37.232599593333326,137.02374645833333,679525.1189397553,4122594.6851598257
8714,[2021-02-22 15:55:25.798] $GPGGA,065525.40,3713.9559721,N,13701.424786000001,E,4,9.0,1.4,97.0625,M,37.55,M,3.0,0000*65,37.232599535,137.02374643333334,679525.1168601571,4122594.678639954
8715,[2021-02-22 15:55:25.923] $GPGGA,065525.50,3713.9559679,N,13701.4247866,E,4,9.0,1.4,97.0632,M,37.55,M,3.0,0000*68,37.232599465,137.02374644333335,679525.117913407,4122594.6708919783
8716,[2021-02-22 15:55:26.001] $GPGGA,065525.60,3713.955964,N,13701.424788,E,4,9.0,1.4,97.0653,M,37.55,M,3.0,0000*6E,37.232599400000005,137.02374646666667,679525.1201377175,4122594.6637240774
8717,[2021-02-22 15:55:26.110] $GPGGA,065525.70,3713.9559603,N,13701.4247847,E,4,9.0,1.4,97.0673,M,37.55,M,3.0,0000*61,37.23259933833332,137.02374641166668,679525.1154044482,4122594.656777445
8718,[2021-02-22 15:55:26.204] $GPGGA,065525.80,3713.9559572,N,13701.424784499999,E,4,9.0,1.4,97.062,M,37.55,M,3.0,0000*6F,37.23259928666666,137.02374640833332,679525.1152312823,4122594.6510383794
8719,[2021-02-22 15:55:26.313] $GPGGA,065525.90,3713.9559544,N,13701.424783700002,E,4,9.0,1.4,97.058,M,37.55,M,3.0,0000*67,37.23259924,137.02374639500005,679525.1141590674,4122594.645835127
8720,[2021-02-22 15:55:26.391] $GPGGA,065526.00,3713.9559529,N,13701.424780700001,E,4,9.0,1.4,97.0537,M,37.55,M,4.0,0000*6E,37.23259921499999,137.023746345,679525.1097824082,4122594.6429663775
8721,[2021-02-22 15:55:26.501] $GPGGA,065526.10,3713.9559525,N,13701.4247773,E,4,9.0,1.4,97.0515,M,37.55,M,4.0,0000*6F,37.23259920833334,137.0237462883333,679525.1047707957,4122594.642119183
8722,[2021-02-22 15:55:26.594] $GPGGA,065526.20,3713.9559530999995,N,13701.4247788,E,4,9.0,1.4,97.0449,M,37.55,M,4.0,0000*65,37.23259921833333,137.02374631333333,679525.106965057,4122594.6432761652
8723,[2021-02-22 15:55:26.719] $GPGGA,065526.30,3713.9559545999996,N,13701.4247789,E,4,9.0,1.4,97.0365,M,37.55,M,4.0,0000*6C,37.232599243333325,137.02374631499998,679525.1070536135,4122594.646053234
8724,[2021-02-22 15:55:26.798] $GPGGA,065526.40,3713.9559575000003,N,13701.424780700001,E,4,9.0,1.4,97.0295,M,37.55,M,4.0,0000*6C,37.232599291666666,137.023746345,679525.1096005357,4122594.6514730295
8725,[2021-02-22 15:55:26.923] $GPGGA,065526.50,3713.9559595,N,13701.424782,E,4,9.0,1.4,97.0205,M,37.55,M,4.0,0000*6F,37.232599325,137.02374636666667,679525.11144371,4122594.6552126715
8726,[2021-02-22 15:55:27.001] $GPGGA,065526.60,3713.9559625,N,13701.424782,E,4,9.0,1.4,97.0132,M,37.55,M,4.0,0000*63,37.23259937500001,137.02374636666667,679525.1113250975,4122594.6607604874
8727,[2021-02-22 15:55:27.110] $GPGGA,065526.70,3713.9559625,N,13701.4247817,E,4,9.0,1.4,97.0105,M,37.55,M,4.0,0000*62,37.23259937500001,137.02374636166664,679525.1108815003,4122594.660751004
8728,[2021-02-22 15:55:27.188] $GPGGA,065526.80,3713.9559596999998,N,13701.4247817,E,4,9.0,1.4,97.0092,M,37.55,M,4.0,0000*68,37.23259932833332,137.02374636166664,679525.1109922053,4122594.655573041
8729,[2021-02-22 15:55:27.313] $GPGGA,065526.90,3713.9559592,N,13701.4247843,E,4,9.0,1.4,97.0083,M,37.55,M,4.0,0000*6D,37.23259932,137.023746405,679525.1148564774,4122594.6547306003
8730,[2021-02-22 15:55:27.422] $GPGGA,065527.00,3713.9559590000003,N,13701.4247843,E,4,9.0,1.4,97.0067,M,37.55,M,5.0,0000*6C,37.23259931666667,137.023746405,679525.1148643848,4122594.6543607484
8731,[2021-02-22 15:55:27.516] $GPGGA,065527.10,3713.9559612,N,13701.424785199999,E,4,9.0,1.4,97.0044,M,37.55,M,5.0,0000*65,37.232599353333335,137.02374641999998,679525.1161081893,4122594.658457597
8732,[2021-02-22 15:55:27.626] $GPGGA,065527.20,3713.9559626,N,13701.424788799997,E,4,9.0,1.4,96.996,M,37.55,M,5.0,0000*61,37.23259937666667,137.02374647999994,679525.1213759899,4122594.661160388
8733,[2021-02-22 15:55:27.704] $GPGGA,065527.30,3713.9559659999995,N,13701.4247912,E,4,9.0,1.4,96.9902,M,37.55,M,5.0,0000*64,37.23259943333333,137.02374652,679525.1247903379,4122594.667523784
8734,[2021-02-22 15:55:27.813] $GPGGA,065527.40,3713.9559679999998,N,13701.424789700002,E,4,9.0,1.4,96.9861,M,37.55,M,5.0,0000*65,37.23259946666666,137.02374649500004,679525.1224932835,4122594.6711749085
8735,[2021-02-22 15:55:27.891] $GPGGA,065527.50,3713.9559699,N,13701.4247876,E,4,9.0,1.4,96.9812,M,37.55,M,5.0,0000*67,37.232599498333336,137.02374646,679525.1193129863,4122594.674622137
8736,[2021-02-22 15:55:28.016] $GPGGA,065527.60,3713.9559713,N,13701.424787900001,E,4,9.0,1.4,96.9819,M,37.55,M,5.0,0000*63,37.232599521666664,137.02374646500002,679525.119701231,4122594.6772206016
8737,[2021-02-22 15:55:28.094] $GPGGA,065527.70,3713.9559708000006,N,13701.424789899998,E,4,9.0,1.4,96.9802,M,37.55,M,5.0,0000*6C,37.23259951333335,137.02374649833334,679525.1226783062,4122594.676359194
8738,[2021-02-22 15:55:28.219] $GPGGA,065527.80,3713.9559676,N,13701.4247936,E,4,9.0,1.4,96.9755,M,37.55,M,5.0,0000*62,37.232599459999996,137.02374656,679525.1282758487,4122594.6705584927
8739,[2021-02-22 15:55:28.297] $GPGGA,065527.90,3713.9559646,N,13701.4247951,E,4,9.0,1.4,96.9804,M,37.55,M,5.0,0000*6A,37.23259940999999,137.02374658499997,679525.1306124382,4122594.6650580964
8740,[2021-02-22 15:55:28.422] $GPGGA,065528.00,3713.9559609,N,13701.424797100002,E,4,9.0,1.4,96.9839,M,37.55,M,6.0,0000*68,37.23259934833332,137.02374661833338,679525.1337160426,4122594.658279018
8741,[2021-02-22 15:55:28.516] $GPGGA,065528.10,3713.9559590999997,N,13701.424794999999,E,4,9.0,1.4,96.9898,M,37.55,M,6.0,0000*63,37.23259931833332,137.02374658333332,679525.1306820319,4122594.654883939
8742,[2021-02-22 15:55:28.610] $GPGGA,065528.20,3713.9559575999997,N,13701.424793099999,E,4,9.0,1.4,96.987,M,37.55,M,1.0,0000*6F,37.23259929333333,137.02374655166668,679525.1279318966,4122594.6520499657
8743,[2021-02-22 15:55:28.688] $GPGGA,065528.30,3713.9559563000003,N,13701.424793099999,E,4,9.0,1.4,96.9825,M,37.55,M,1.0,0000*6A,37.23259927166668,137.02374655166668,679525.1279832954,4122594.649645914
8744,[2021-02-22 15:55:28.813] $GPGGA,065528.40,3713.9559578000003,N,13701.424792700001,E,4,9.0,1.4,96.981,M,37.55,M,1.0,0000*66,37.23259929666667,137.02374654500002,679525.1273325292,4122594.6524071754
8745,[2021-02-22 15:55:28.891] $GPGGA,065528.50,3713.9559613000006,N,13701.4247942,E,4,9.0,1.4,96.9799,M,37.55,M,1.0,0000*64,37.232599355000005,137.02374657,679525.1294121249,4122594.6589270486
8746,[2021-02-22 15:55:29.016] $GPGGA,065528.60,3713.9559641,N,13701.424793099999,E,4,9.0,1.4,96.9812,M,37.55,M,1.0,0000*68,37.23259940166666,137.02374655166668,679525.1276749028,4122594.6640702332
8747,[2021-02-22 15:55:29.125] $GPGGA,065528.70,3713.9559649000003,N,13701.4247907,E,4,9.0,1.4,96.9881,M,37.55,M,1.0,0000*6E,37.23259941500001,137.02374651166667,679525.1240945018,4122594.6654737806
8748,[2021-02-22 15:55:29.204] $GPGGA,065528.80,3713.9559648000004,N,13701.424789300001,E,4,9.0,1.4,96.9888,M,37.55,M,1.0,0000*65,37.23259941333334,137.02374648833333,679525.1220283391,4122594.6652445933
8749,[2021-02-22 15:55:29.313] $GPGGA,065528.90,3713.9559633000003,N,13701.4247882,E,4,9.0,1.4,96.9907,M,37.55,M,1.0,0000*6E,37.23259938833334,137.02374647000002,679525.1204611282,4122594.66243591
8750,[2021-02-22 15:55:29.391] $GPGGA,065529.00,3713.9559625,N,13701.424788600001,E,4,9.0,1.4,96.987,M,37.55,M,2.0,0000*67,37.23259937500001,137.0237464766667,679525.1210842205,4122594.660969137
8751,[2021-02-22 15:55:29.501] $GPGGA,065529.10,3713.9559609,N,13701.424787900001,E,4,9.0,1.4,96.9868,M,37.55,M,2.0,0000*61,37.23259934833332,137.02374646500002,679525.120112421,4122594.6579881716
8752,[2021-02-22 15:55:29.594] $GPGGA,065529.20,3713.9559604999995,N,13701.4247869,E,4,9.0,1.4,96.9901,M,37.55,M,2.0,0000*61,37.232599341666656,137.02374644833333,679525.1186495794,4122594.6572168497
8753,[2021-02-22 15:55:29.719] $GPGGA,065529.30,3713.9559596,N,13701.424787399998,E,4,9.0,1.4,96.9881,M,37.55,M,2.0,0000*6C,37.232599326666666,137.02374645666663,679525.1194244882,4122594.655568311
8754,[2021-02-22 15:55:29.797] $GPGGA,065529.40,3713.9559624,N,13701.4247863,E,4,9.0,1.4,96.9978,M,37.55,M,2.0,0000*60,37.232599373333336,137.02374643833335,679525.117687266,4122594.6607115003
8755,[2021-02-22 15:55:29.922] $GPGGA,065529.50,3713.9559661,N,13701.4247857,E,4,9.0,1.4,97.0062,M,37.55,M,2.0,0000*6D,37.232599435,137.0237464283333,679525.1166537828,4122594.667534836
8756,[2021-02-22 15:55:30.000] $GPGGA,065529.60,3713.9559692000003,N,13701.424782,E,4,9.0,1.4,97.011,M,37.55,M,2.0,0000*66,37.23259948666668,137.02374636666667,679525.1110601963,4122594.673150611
8757,[2021-02-22 15:55:30.110] $GPGGA,065529.70,3713.9559691,N,13701.424779899999,E,4,9.0,1.4,97.0104,M,37.55,M,2.0,0000*6C,37.232599485,137.02374633166662,679525.1079589718,4122594.6728992932
8758,[2021-02-22 15:55:30.188] $GPGGA,065529.80,3713.9559692000003,N,13701.4247802,E,4,9.0,1.4,97.0028,M,37.55,M,2.0,0000*62,37.23259948666668,137.02374633666668,679525.1083986198,4122594.673093707
8759,[2021-02-22 15:55:30.313] $GPGGA,065529.90,3713.9559711999996,N,13701.4247787,E,4,9.0,1.4,96.9954,M,37.55,M,2.0,0000*62,37.23259951999999,137.02374631166668,679525.1061015633,4122594.6767448275
8760,[2021-02-22 15:55:30.391] $GPGGA,065530.00,3713.9559726999996,N,13701.424776,E,4,9.0,1.4,96.9886,M,37.55,M,3.0,0000*63,37.232599545,137.02374626666665,679525.1020498866,4122594.679433379
8761,[2021-02-22 15:55:30.500] $GPGGA,065530.10,3713.9559743,N,13701.424773199999,E,4,9.0,1.4,96.987,M,37.55,M,3.0,0000*6E,37.23259957166667,137.02374621999996,679525.0978463935,4122594.682303696
8762,[2021-02-22 15:55:30.610] $GPGGA,065530.20,3713.9559741999997,N,13701.424774500001,E,4,9.0,1.4,96.9866,M,37.55,M,3.0,0000*6B,37.23259956999999,137.0237462416667,679525.0997726033,4122594.682159866
8763,[2021-02-22 15:55:30.719] $GPGGA,065530.30,3713.9559738000007,N,13701.4247756,E,4,9.0,1.4,96.9874,M,37.55,M,3.0,0000*66,37.23259956333335,137.02374626,679525.1014149353,4122594.681454936
8764,[2021-02-22 15:55:30.797] $GPGGA,065530.40,3713.9559747000003,N,13701.424777200002,E,4,9.0,1.4,96.993,M,37.55,M,3.0,0000*6E,37.232599578333335,137.02374628666666,679525.1037452004,4122594.68316986
8765,[2021-02-22 15:55:30.907] $GPGGA,065530.50,3713.9559770000005,N,13701.424778400002,E,4,9.0,1.4,97.0009,M,37.55,M,3.0,0000*69,37.232599616666676,137.0237463066667,679525.105428653,4122594.687461123
8766,[2021-02-22 15:55:31.016] $GPGGA,065530.60,3713.9559784000003,N,13701.424777799999,E,4,9.0,1.4,97.0077,M,37.55,M,3.0,0000*6B,37.23259964,137.02374629666667,679525.1044861039,4122594.690031133
8767,[2021-02-22 15:55:31.094] $GPGGA,065530.70,3713.9559801,N,13701.4247766,E,4,9.0,1.4,97.0151,M,37.55,M,3.0,0000*62,37.23259966833333,137.02374627666669,679525.1026445057,4122594.6931369603
8768,[2021-02-22 15:55:31.219] $GPGGA,065530.80,3713.9559809,N,13701.4247769,E,4,9.0,1.4,97.0232,M,37.55,M,3.0,0000*6C,37.23259968166668,137.0237462816667,679525.103056473,4122594.6946258633
8769,[2021-02-22 15:55:31.297] $GPGGA,065530.90,3713.9559811999998,N,13701.424776700002,E,4,9.0,1.4,97.0294,M,37.55,M,3.0,0000*65,37.23259968666666,137.0237462783334,679525.102748884,4122594.695174321
8770,[2021-02-22 15:55:31.422] $GPGGA,065531.00,3713.9559805,N,13701.4247771,E,4,9.0,1.4,97.033,M,37.55,M,4.0,0000*64,37.232599674999996,137.023746285,679525.1033680157,4122594.693892476
8771,[2021-02-22 15:55:31.516] $GPGGA,065531.10,3713.9559784999997,N,13701.4247771,E,4,9.0,1.4,97.0357,M,37.55,M,4.0,0000*63,37.23259964166666,137.023746285,679525.1034470906,4122594.690193931
8772,[2021-02-22 15:55:31.610] $GPGGA,065531.20,3713.9559780999994,N,13701.424777799999,E,4,9.0,1.4,97.0358,M,37.55,M,4.0,0000*62,37.23259963499999,137.02374629666667,679525.1044979651,4122594.689476351
8773,[2021-02-22 15:55:31.688] $GPGGA,065531.30,3713.9559776999995,N,13701.4247808,E,4,9.0,1.4,97.0296,M,37.55,M,4.0,0000*61,37.232599628333325,137.02374634666666,679525.1089497409,4122594.6888314844
8774,[2021-02-22 15:55:31.813] $GPGGA,065531.40,3713.9559766,N,13701.424782799997,E,4,9.0,1.4,97.0206,M,37.55,M,4.0,0000*6D,37.23259961000001,137.02374637999998,679525.1119505409,4122594.6868605143
8775,[2021-02-22 15:55:31.891] $GPGGA,065531.50,3713.9559765,N,13701.424785100002,E,4,9.0,1.4,97.0052,M,37.55,M,4.0,0000*62,37.23259960833334,137.02374641833336,679525.1153554051,4122594.686748298
8776,[2021-02-22 15:55:32.016] $GPGGA,065531.60,3713.9559775,N,13701.4247859,E,4,9.0,1.4,96.9999,M,37.55,M,4.0,0000*6E,37.23259962499999,137.02374643166667,679525.1164987875,4122594.6886228593
8777,[2021-02-22 15:55:32.094] $GPGGA,065531.70,3713.9559773,N,13701.424785199999,E,4,9.0,1.4,96.9985,M,37.55,M,4.0,0000*6F,37.23259962166667,137.02374641999998,679525.1154716355,4122594.6882308773
8778,[2021-02-22 15:55:32.219] $GPGGA,065531.80,3713.9559774000004,N,13701.424785799998,E,4,9.0,1.4,96.9975,M,37.55,M,4.0,0000*62,37.23259962333334,137.02374642999996,679525.1163548718,4122594.688434773
8779,[2021-02-22 15:55:32.297] $GPGGA,065531.90,3713.9559779,N,13701.4247847,E,4,9.0,1.4,97.0036,M,37.55,M,4.0,0000*66,37.23259963166667,137.02374641166668,679525.1147085881,4122594.6893246337
8780,[2021-02-22 15:55:32.422] $GPGGA,065532.00,3713.9559795,N,13701.4247836,E,4,9.0,1.4,97.0102,M,37.55,M,5.0,0000*6F,37.23259965833333,137.0237463933333,679525.1130188066,4122594.6922486937
8781,[2021-02-22 15:55:32.516] $GPGGA,065532.10,3713.9559821000003,N,13701.424781400001,E,4,9.0,1.4,97.0192,M,37.55,M,5.0,0000*67,37.23259970166668,137.0237463566667,679525.1096629726,4122594.6969872518
8782,[2021-02-22 15:55:32.610] $GPGGA,065532.20,3713.9559839000003,N,13701.4247794,E,4,9.0,1.4,97.0256,M,37.55,M,5.0,0000*61,37.23259973166667,137.02374632333334,679525.1066344942,4122594.700252711
8783,[2021-02-22 15:55:32.719] $GPGGA,065532.30,3713.955985,N,13701.424777899998,E,4,9.0,1.4,97.0309,M,37.55,M,5.0,0000*67,37.23259975,137.02374629833332,679525.1043730213,4122594.702239491
8784,[2021-02-22 15:55:32.797] $GPGGA,065532.40,3713.9559853,N,13701.4247776,E,4,9.0,1.4,97.0304,M,37.55,M,5.0,0000*61,37.232599755,137.02374629333332,679525.1039175629,4122594.702784789
8785,[2021-02-22 15:55:32.922] $GPGGA,065532.50,3713.9559854000004,N,13701.424777899998,E,4,9.0,1.4,97.0322,M,37.55,M,5.0,0000*6C,37.23259975666667,137.02374629833332,679525.1043572063,4122594.7029792005
8786,[2021-02-22 15:55:33.000] $GPGGA,065532.60,3713.9559843,N,13701.424779100002,E,4,9.0,1.4,97.0332,M,37.55,M,5.0,0000*6E,37.232599738333334,137.02374631833334,679525.1061750841,4122594.700982938
8787,[2021-02-22 15:55:33.125] $GPGGA,065532.70,3713.9559835,N,13701.424780500001,E,4,9.0,1.4,97.0294,M,37.55,M,5.0,0000*61,37.232599725,137.0237463416667,679525.108276833,4122594.699547779
8788,[2021-02-22 15:55:33.203] $GPGGA,065532.80,3713.9559827,N,13701.4247816,E,4,9.0,1.4,97.029,M,37.55,M,5.0,0000*6B,37.232599711666666,137.02374636,679525.1099349777,4122594.6981031355
8789,[2021-02-22 15:55:33.313] $GPGGA,065532.90,3713.9559846999996,N,13701.424782799997,E,4,9.0,1.4,97.0283,M,37.55,M,5.0,0000*63,37.23259974499999,137.02374637999998,679525.1116302871,4122594.7018396147
8790,[2021-02-22 15:55:33.391] $GPGGA,065533.00,3713.9559886,N,13701.424782700002,E,4,9.0,1.4,97.0211,M,37.55,M,6.0,0000*61,37.23259981,137.02374637833336,679525.1113282304,4122594.7090486167
8791,[2021-02-22 15:55:33.500] $GPGGA,065533.10,3713.9559898,N,13701.424783000002,E,4,9.0,1.4,97.0121,M,37.55,M,6.0,0000*69,37.232599830000005,137.02374638333336,679525.1117243804,4122594.711277227
8792,[2021-02-22 15:55:33.610] $GPGGA,065533.20,3713.9559916000003,N,13701.424782799997,E,4,9.0,1.4,97.0058,M,37.55,M,1.0,0000*6C,37.23259986000001,137.02374637999998,679525.1113574783,4122594.714599594
8793,[2021-02-22 15:55:33.719] $GPGGA,065533.30,3713.9559916999997,N,13701.424784399998,E,4,9.0,1.4,96.996,M,37.55,M,1.0,0000*6C,37.232599861666664,137.02374640666665,679525.1137193711,4122594.7148351027
8794,[2021-02-22 15:55:33.797] $GPGGA,065533.40,3713.9559928999997,N,13701.424784499999,E,4,9.0,1.4,96.9869,M,37.55,M,1.0,0000*6F,37.232599881666665,137.02374640833332,679525.1138197933,4122594.7170573906
8795,[2021-02-22 15:55:33.922] $GPGGA,065533.50,3713.9559907,N,13701.424785199999,E,4,9.0,1.4,96.9766,M,37.55,M,1.0,0000*64,37.232599844999996,137.02374641999998,679525.1149418331,4122594.713011121
8796,[2021-02-22 15:55:34.000] $GPGGA,065533.60,3713.9559894,N,13701.4247873,E,4,9.0,1.4,96.9726,M,37.55,M,1.0,0000*6B,37.23259982333334,137.02374645500004,679525.11809841,4122594.7106734565
8797,[2021-02-22 15:55:34.110] $GPGGA,065533.70,3713.9559856,N,13701.424790000001,E,4,9.0,1.4,96.9706,M,37.55,M,1.0,0000*63,37.23259976,137.02374650000002,679525.1222410183,4122594.7037315797
8798,[2021-02-22 15:55:34.188] $GPGGA,065533.80,3713.9559817000004,N,13701.4247916,E,4,9.0,1.4,96.9698,M,37.55,M,1.0,0000*68,37.23259969500001,137.02374652666668,679525.1247610612,4122594.696570001
8799,[2021-02-22 15:55:34.313] $GPGGA,065533.90,3713.9559791,N,13701.424793200002,E,4,9.0,1.4,96.9716,M,37.55,M,1.0,0000*69,37.232599651666675,137.02374655333335,679525.1272297074,4122594.691812476
8800,[2021-02-22 15:55:34.391] $GPGGA,065534.00,3713.9559793000003,N,13701.4247956,E,4,9.0,1.4,96.9788,M,37.55,M,2.0,0000*63,37.23259965500001,137.02374659333333,679525.1307705664,4122594.6922582043
8801,[2021-02-22 15:55:34.500] $GPGGA,065534.10,3713.9559799999997,N,13701.424794,E,4,9.0,1.4,96.989,M,37.55,M,2.0,0000*66,37.232599666666665,137.0237465666667,679525.1283770457,4122594.693502112
8802,[2021-02-22 15:55:34.594] $GPGGA,065534.20,3713.9559799999997,N,13701.4247905,E,4,9.0,1.4,97.0011,M,37.55,M,2.0,0000*6D,37.232599666666665,137.02374650833332,679525.1232017534,4122594.6933914633
8803,[2021-02-22 15:55:34.703] $GPGGA,065534.30,3713.9559813,N,13701.4247903,E,4,9.0,1.4,97.0092,M,37.55,M,2.0,0000*63,37.23259968833333,137.02374650499996,679525.1228546223,4122594.6957891937
8804,[2021-02-22 15:55:34.813] $GPGGA,065534.40,3713.9559831999995,N,13701.4247916,E,4,9.0,1.4,97.0171,M,37.55,M,2.0,0000*6F,37.232599719999996,137.02374652666668,679525.1247017549,4122594.6993439086
8805,[2021-02-22 15:55:34.891] $GPGGA,065534.50,3713.9559814000004,N,13701.424793900002,E,4,9.0,1.4,97.0202,M,37.55,M,2.0,0000*60,37.23259969,137.02374656500004,679525.1281738307,4122594.6960879313
8806,[2021-02-22 15:55:35.016] $GPGGA,065534.60,3713.9559771,N,13701.4247996,E,4,9.0,1.4,97.0166,M,37.55,M,2.0,0000*6B,37.23259961833334,137.02374666,679525.1367721686,4122594.6883162595
8807,[2021-02-22 15:55:35.094] $GPGGA,065534.70,3713.9559686,N,13701.4248057,E,4,9.0,1.4,97.0104,M,37.55,M,2.0,0000*6C,37.232599476666664,137.02374676166667,679525.1461280286,4122594.672790291
8808,[2021-02-22 15:55:35.219] $GPGGA,065534.80,3713.9559612,N,13701.424810299999,E,4,9.0,1.4,97.0048,M,37.55,M,2.0,0000*67,37.232599353333335,137.02374683833332,679525.1532224158,4122594.6592511004
8809,[2021-02-22 15:55:35.297] $GPGGA,065534.90,3713.9559560999996,N,13701.424809799999,E,4,9.0,1.4,97.0041,M,37.55,M,2.0,0000*6B,37.23259926833333,137.02374683,679525.1526847299,4122594.6498040063
8810,[2021-02-22 15:55:35.422] $GPGGA,065535.00,3713.9559524000006,N,13701.424808599999,E,4,9.0,1.4,97.004,M,37.55,M,3.0,0000*6D,37.23259920666668,137.02374680999998,679525.1510566322,4122594.6429237644
8811,[2021-02-22 15:55:35.516] $GPGGA,065535.10,3713.9559497,N,13701.4248075,E,4,9.0,1.4,97.0039,M,37.55,M,3.0,0000*67,37.23259916166667,137.02374679166664,679525.1495368641,4122594.6378959543
8812,[2021-02-22 15:55:35.609] $GPGGA,065535.20,3713.9559445,N,13701.4248071,E,4,9.0,1.4,97.0045,M,37.55,M,3.0,0000*64,37.232599075,137.023746785,679525.1491509969,4122594.6282670945
8813,[2021-02-22 15:55:35.688] $GPGGA,065535.30,3713.9559393,N,13701.424807,E,4,9.0,1.4,97.0152,M,37.55,M,3.0,0000*6F,37.23259898833333,137.02374678333334,679525.1492087293,4122594.618647718
8814,[2021-02-22 15:55:35.813] $GPGGA,065535.40,3713.9559335999998,N,13701.4248055,E,4,9.0,1.4,97.0297,M,37.55,M,3.0,0000*6A,37.23259889333333,137.02374675833332,679525.1472161092,4122594.6080594473
8815,[2021-02-22 15:55:35.891] $GPGGA,065535.50,3713.9559289000003,N,13701.424802200001,E,4,9.0,1.4,97.049,M,37.55,M,3.0,0000*6F,37.23259881500001,137.02374670333333,679525.1425223773,4122594.599263545
8816,[2021-02-22 15:55:36.016] $GPGGA,065535.60,3713.955925,N,13701.4247984,E,4,9.0,1.4,97.0662,M,37.55,M,3.0,0000*6D,37.23259875000001,137.02374664,679525.1370576884,4122594.5919312527
8817,[2021-02-22 15:55:36.094] $GPGGA,065535.70,3713.9559229999995,N,13701.4247963,E,4,9.0,1.4,97.0829,M,37.55,M,3.0,0000*62,37.23259871666666,137.023746605,679525.1340315897,4122594.5881663165
8818,[2021-02-22 15:55:36.219] $GPGGA,065535.80,3713.9559240999997,N,13701.4247924,E,4,9.0,1.4,97.0972,M,37.55,M,3.0,0000*67,37.232598735,137.02374654,679525.1282213435,4122594.590077224
8819,[2021-02-22 15:55:36.313] $GPGGA,065535.90,3713.9559261,N,13701.424793099999,E,4,9.0,1.4,97.1012,M,37.55,M,3.0,0000*6E,37.23259876833334,137.02374655166668,679525.1291773281,4122594.5937978993
8820,[2021-02-22 15:55:36.391] $GPGGA,065536.00,3713.9559288,N,13701.424794499999,E,4,9.0,1.4,97.1002,M,37.55,M,4.0,0000*66,37.23259881333333,137.023746575,679525.1311406911,4122594.598835191
8821,[2021-02-22 15:55:36.500] $GPGGA,065536.10,3713.9559314999997,N,13701.424796599998,E,4,9.0,1.4,97.0936,M,37.55,M,4.0,0000*6C,37.23259885833333,137.02374660999996,679525.1341391113,4122594.6038946137
8822,[2021-02-22 15:55:36.594] $GPGGA,065536.20,3713.9559346999995,N,13701.424798700002,E,4,9.0,1.4,97.0868,M,37.55,M,4.0,0000*6D,37.232598911666656,137.02374664500002,679525.1371177718,4122594.609878673
8823,[2021-02-22 15:55:36.719] $GPGGA,065536.30,3713.9559366,N,13701.424799,E,4,9.0,1.4,97.0782,M,37.55,M,4.0,0000*62,37.232598943333336,137.02374665,679525.1374862433,4122594.613401775
8824,[2021-02-22 15:55:36.797] $GPGGA,065536.40,3713.9559399000004,N,13701.4247965,E,4,9.0,1.4,97.0597,M,37.55,M,4.0,0000*69,37.232598998333344,137.0237466083333,679525.1336591335,4122594.6194253396
8825,[2021-02-22 15:55:36.922] $GPGGA,065536.50,3713.955944,N,13701.4247984,E,4,9.0,1.4,97.0404,M,37.55,M,4.0,0000*6F,37.232599066666666,137.02374664,679525.1363064757,4122594.6270674197
8826,[2021-02-22 15:55:37.000] $GPGGA,065536.60,3713.9559464000004,N,13701.424803,E,4,9.0,1.4,97.0222,M,37.55,M,4.0,0000*61,37.23259910666667,137.02374671666666,679525.143013393,4122594.6316510956
8827,[2021-02-22 15:55:37.109] $GPGGA,065536.70,3713.9559456,N,13701.4248058,E,4,9.0,1.4,97.0107,M,37.55,M,4.0,0000*6B,37.232599093333334,137.02374676333332,679525.1471852562,4122594.630260196
8828,[2021-02-22 15:55:37.203] $GPGGA,065536.80,3713.9559446999997,N,13701.4248074,E,4,9.0,1.4,97.0106,M,37.55,M,4.0,0000*6B,37.23259907833333,137.02374679,679525.1495866866,4122594.628646433
8829,[2021-02-22 15:55:37.312] $GPGGA,065536.90,3713.9559413,N,13701.4248074,E,4,9.0,1.4,97.0122,M,37.55,M,4.0,0000*6D,37.232599021666665,137.02374679,679525.1497211142,4122594.6223589084
8830,[2021-02-22 15:55:37.391] $GPGGA,065537.00,3713.9559369000003,N,13701.4248049,E,4,9.0,1.4,97.0118,M,37.55,M,5.0,0000*69,37.23259894833334,137.02374674833334,679525.1461984455,4122594.614143078
8831,[2021-02-22 15:55:37.500] $GPGGA,065537.10,3713.9559338,N,13701.424801700003,E,4,9.0,1.4,97.0191,M,37.55,M,5.0,0000*66,37.232598896666666,137.02374669500006,679525.141589321,4122594.6083091707
8832,[2021-02-22 15:55:37.609] $GPGGA,065537.20,3713.9559321999996,N,13701.4247968,E,4,9.0,1.4,97.0259,M,37.55,M,5.0,0000*67,37.23259887,137.02374661333334,679525.1344071695,4122594.605195428
8833,[2021-02-22 15:55:37.719] $GPGGA,065537.30,3713.9559314999997,N,13701.424795500001,E,4,9.0,1.4,97.0269,M,37.55,M,5.0,0000*6F,37.23259885833333,137.02374659166668,679525.1325125964,4122594.603859839
8834,[2021-02-22 15:55:37.797] $GPGGA,065537.40,3713.9559339,N,13701.424795200002,E,4,9.0,1.4,97.0285,M,37.55,M,5.0,0000*63,37.232598898333336,137.02374658666673,679525.1319741138,4122594.6082886085
8835,[2021-02-22 15:55:37.922] $GPGGA,065537.50,3713.9559342000002,N,13701.424796899999,E,4,9.0,1.4,97.0298,M,37.55,M,5.0,0000*6A,37.23259890333334,137.023746615,679525.1344759595,4122594.608897133
8836,[2021-02-22 15:55:38.000] $GPGGA,065537.60,3713.9559341,N,13701.4247988,E,4,9.0,1.4,97.0328,M,37.55,M,5.0,0000*6F,37.23259890166667,137.02374664666667,679525.137289357,4122594.6087722722
8837,[2021-02-22 15:55:38.109] $GPGGA,065537.70,3713.9559346,N,13701.4248002,E,4,9.0,1.4,97.0344,M,37.55,M,5.0,0000*67,37.23259891,137.02374667000004,679525.1393397071,4122594.609741167
8838,[2021-02-22 15:55:38.219] $GPGGA,065537.80,3713.9559351999997,N,13701.424804499999,E,4,9.0,1.4,97.0349,M,37.55,M,5.0,0000*63,37.23259892,137.02374674166666,679525.1456741948,4122594.610986669
8839,[2021-02-22 15:55:38.297] $GPGGA,065537.90,3713.9559366,N,13701.424809299999,E,4,9.0,1.4,97.0376,M,37.55,M,5.0,0000*62,37.232598943333336,137.02374682166666,679525.1527163843,4122594.613727396
8840,[2021-02-22 15:55:38.422] $GPGGA,065538.00,3713.9559376999996,N,13701.424815600001,E,4,9.0,1.4,97.0385,M,37.55,M,6.0,0000*63,37.23259896166666,137.0237469266667,679525.1619884187,4122594.6159607605
8841,[2021-02-22 15:55:38.516] $GPGGA,065538.10,3713.9559391999996,N,13701.4248236,E,4,9.0,1.4,97.0324,M,37.55,M,6.0,0000*67,37.23259898666666,137.02374706000003,679525.1737583474,4122594.618987578
8842,[2021-02-22 15:55:38.625] $GPGGA,065538.20,3713.95594,N,13701.424828700001,E,4,9.0,1.4,97.0317,M,37.55,M,1.0,0000*65,37.23259899999999,137.02374714500002,679525.1812678543,4122594.620628227
8843,[2021-02-22 15:55:38.703] $GPGGA,065538.30,3713.9559423,N,13701.424832100001,E,4,9.0,1.4,97.0291,M,37.55,M,1.0,0000*67,37.23259903833333,137.0237472016667,679525.1862043455,4122594.6249890383
8844,[2021-02-22 15:55:38.812] $GPGGA,065538.40,3713.9559424999998,N,13701.424833399999,E,4,9.0,1.4,97.0282,M,37.55,M,1.0,0000*60,37.23259904166666,137.0237472233333,679525.1881186806,4122594.6253999905
8845,[2021-02-22 15:55:38.890] $GPGGA,065538.50,3713.9559428999996,N,13701.4248363,E,4,9.0,1.4,97.0176,M,37.55,M,1.0,0000*67,37.23259904833333,137.02374727166668,679525.1923909682,4122594.626231379
8846,[2021-02-22 15:55:39.015] $GPGGA,065538.60,3713.9559428999996,N,13701.4248368,E,4,9.0,1.4,97.0106,M,37.55,M,1.0,0000*68,37.23259904833333,137.02374728,679525.1931302954,4122594.626247186
8847,[2021-02-22 15:55:39.094] $GPGGA,065538.70,3713.9559433,N,13701.424835400001,E,4,9.0,1.4,97.0065,M,37.55,M,1.0,0000*69,37.232599055,137.0237472566667,679525.1910443661,4122594.626942636
8848,[2021-02-22 15:55:39.219] $GPGGA,065538.80,3713.9559424999998,N,13701.424834200001,E,4,9.0,1.4,97.0008,M,37.55,M,1.0,0000*6D,37.23259904166666,137.02374723666668,679525.1893016094,4122594.6254252815
8849,[2021-02-22 15:55:39.297] $GPGGA,065538.90,3713.9559435999995,N,13701.4248317,E,4,9.0,1.4,97.0035,M,37.55,M,1.0,0000*60,37.232599059999984,137.02374719500003,679525.1855614823,4122594.6273804447
8850,[2021-02-22 15:55:39.422] $GPGGA,065539.00,3713.9559431000002,N,13701.424827399998,E,4,9.0,1.4,97.005,M,37.55,M,2.0,0000*6B,37.23259905166667,137.0237471233333,679525.1792230319,4122594.6263198717
8851,[2021-02-22 15:55:39.515] $GPGGA,065539.10,3713.9559443000003,N,13701.4248236,E,4,9.0,1.4,97.0063,M,37.55,M,2.0,0000*69,37.23259907166667,137.02374706000003,679525.173556706,4122594.628418867
8852,[2021-02-22 15:55:39.609] $GPGGA,065539.20,3713.9559453,N,13701.424819799999,E,4,9.0,1.4,97.0181,M,37.55,M,2.0,0000*61,37.23259908833334,137.02374699666666,679525.1678982787,4122594.6301480066
8853,[2021-02-22 15:55:39.687] $GPGGA,065539.30,3713.9559450999996,N,13701.424819299998,E,4,9.0,1.4,97.0227,M,37.55,M,2.0,0000*66,37.232599085,137.0237469883333,679525.1671668568,4122594.629762345
8854,[2021-02-22 15:55:39.812] $GPGGA,065539.40,3713.9559435,N,13701.424820100001,E,4,9.0,1.4,97.0263,M,37.55,M,2.0,0000*6B,37.232599058333335,137.0237470016667,679525.1684130458,4122594.626828801
8855,[2021-02-22 15:55:39.922] $GPGGA,065539.50,3713.9559446999997,N,13701.424821,E,4,9.0,1.4,97.0235,M,37.55,M,2.0,0000*6C,37.23259907833333,137.02374701666668,679525.169696388,4122594.6290763784
8856,[2021-02-22 15:55:40.000] $GPGGA,065539.60,3713.9559442,N,13701.424819400001,E,4,9.0,1.4,97.0249,M,37.55,M,2.0,0000*6E,37.23259907,137.02374699,679525.16735031,4122594.6281011603
8857,[2021-02-22 15:55:40.125] $GPGGA,065539.70,3713.9559446000003,N,13701.4248183,E,4,9.0,1.4,97.025,M,37.55,M,2.0,0000*65,37.232599076666666,137.02374697166667,679525.1657079735,4122594.6288060956
8858,[2021-02-22 15:55:40.203] $GPGGA,065539.80,3713.9559423,N,13701.4248188,E,4,9.0,1.4,97.0191,M,37.55,M,2.0,0000*6C,37.23259903833333,137.02374698000003,679525.1665382392,4122594.6245685765
8859,[2021-02-22 15:55:40.312] $GPGGA,065539.90,3713.9559424000004,N,13701.4248157,E,4,9.0,1.4,97.013,M,37.55,M,2.0,0000*63,37.23259904000001,137.02374692833334,679525.161950455,4122594.6246555024
8860,[2021-02-22 15:55:40.390] $GPGGA,065540.00,3713.9559431999996,N,13701.4248129,E,4,9.0,1.4,97.0043,M,37.55,M,3.0,0000*6E,37.23259905333333,137.02374688166668,679525.1577785942,4122594.6260464
8861,[2021-02-22 15:55:40.500] $GPGGA,065540.10,3713.9559458999997,N,13701.4248131,E,4,9.0,1.4,97.0023,M,37.55,M,3.0,0000*6D,37.23259909833333,137.02374688500004,679525.1579675751,4122594.6310457564
8862,[2021-02-22 15:55:40.593] $GPGGA,065540.20,3713.955945,N,13701.4248135,E,4,9.0,1.4,96.9996,M,37.55,M,3.0,0000*6C,37.232599083333334,137.02374689166666,679525.1585946166,4122594.629394058
8863,[2021-02-22 15:55:40.718] $GPGGA,065540.30,3713.9559435999995,N,13701.4248139,E,4,9.0,1.4,96.9934,M,37.55,M,3.0,0000*69,37.232599059999984,137.02374689833331,679525.1592414314,4122594.626817721
8864,[2021-02-22 15:55:40.797] $GPGGA,065540.40,3713.9559445,N,13701.424813,E,4,9.0,1.4,96.996,M,37.55,M,3.0,0000*62,37.232599075,137.02374688333333,679525.1578750605,4122594.6284536156
8865,[2021-02-22 15:55:40.922] $GPGGA,065540.50,3713.9559461999997,N,13701.4248104,E,4,9.0,1.4,97.0037,M,37.55,M,3.0,0000*62,37.23259910333332,137.02374683999997,679525.1539633413,4122594.631515182
8866,[2021-02-22 15:55:41.000] $GPGGA,065540.60,3713.955947,N,13701.4248083,E,4,9.0,1.4,97.0113,M,37.55,M,3.0,0000*6B,37.23259911666667,137.02374680500003,679525.1508265419,4122594.6329282112
8867,[2021-02-22 15:55:41.109] $GPGGA,065540.70,3713.9559485,N,13701.424807799998,E,4,9.0,1.4,97.0205,M,37.55,M,3.0,0000*60,37.23259914166667,137.02374679666664,679525.150027904,4122594.6356863114
8868,[2021-02-22 15:55:41.187] $GPGGA,065540.80,3713.9559498999997,N,13701.424810100001,E,4,9.0,1.4,97.0245,M,37.55,M,3.0,0000*69,37.232599165,137.02374683500003,679525.153373462,4122594.638348005
8869,[2021-02-22 15:55:41.312] $GPGGA,065540.90,3713.9559508,N,13701.4248125,E,4,9.0,1.4,97.0347,M,37.55,M,3.0,0000*64,37.23259918000001,137.023746875,679525.1568866469,4122594.640088223
8870,[2021-02-22 15:55:41.390] $GPGGA,065541.00,3713.9559526000003,N,13701.4248129,E,4,9.0,1.4,97.0389,M,37.55,M,4.0,0000*69,37.23259921,137.02374688166668,679525.1574069415,4122594.6434295573
8871,[2021-02-22 15:55:41.500] $GPGGA,065541.10,3713.9559519,N,13701.4248118,E,4,9.0,1.4,97.0428,M,37.55,M,4.0,0000*6A,37.23259919833334,137.02374686333332,679525.1558080962,4122594.6421002923
8872,[2021-02-22 15:55:41.625] $GPGGA,065541.20,3713.9559508,N,13701.424809,E,4,9.0,1.4,97.0477,M,37.55,M,4.0,0000*62,37.23259918000001,137.02374681666666,679525.1517113543,4122594.6399775753
8873,[2021-02-22 15:55:41.703] $GPGGA,065541.30,3713.9559455,N,13701.4248069,E,4,9.0,1.4,97.0463,M,37.55,M,4.0,0000*69,37.232599091666664,137.0237467816667,679525.1488157316,4122594.6301100445
8874,[2021-02-22 15:55:41.812] $GPGGA,065541.40,3713.9559420999994,N,13701.424803400001,E,4,9.0,1.4,97.0484,M,37.55,M,4.0,0000*6C,37.23259903499999,137.02374672333337,679525.1437748712,4122594.6237118705
8875,[2021-02-22 15:55:41.890] $GPGGA,065541.50,3713.9559394000003,N,13701.424802000001,E,4,9.0,1.4,97.0458,M,37.55,M,4.0,0000*60,37.23259899000001,137.02374670000003,679525.1418115059,4122594.6186745786
8876,[2021-02-22 15:55:42.015] $GPGGA,065541.60,3713.9559375,N,13701.424801199999,E,4,9.0,1.4,97.043,M,37.55,M,4.0,0000*63,37.23259895833333,137.02374668666667,679525.1407037005,4122594.6151356692
8877,[2021-02-22 15:55:42.093] $GPGGA,065541.70,3713.9559353,N,13701.4248009,E,4,9.0,1.4,97.0354,M,37.55,M,4.0,0000*69,37.23259892166667,137.02374668166667,679525.1403470858,4122594.6110577886
8878,[2021-02-22 15:55:42.218] $GPGGA,065541.80,3713.9559329999997,N,13701.424804700002,E,4,9.0,1.4,97.0272,M,37.55,M,4.0,0000*6C,37.23259888333333,137.02374674500004,679525.1460569141,4122594.606924593
8879,[2021-02-22 15:55:42.297] $GPGGA,065541.90,3713.9559321999996,N,13701.424806,E,4,9.0,1.4,97.0158,M,37.55,M,4.0,0000*60,37.23259887,137.02374676666668,679525.1480107912,4122594.6054862733
8880,[2021-02-22 15:55:42.421] $GPGGA,065542.00,3713.9559335999998,N,13701.424807299998,E,4,9.0,1.4,97.0102,M,37.55,M,5.0,0000*63,37.23259889333333,137.02374678833328,679525.1498776834,4122594.608116353
8881,[2021-02-22 15:55:42.515] $GPGGA,065542.10,3713.9559358999995,N,13701.4248068,E,4,9.0,1.4,97.0044,M,37.55,M,5.0,0000*62,37.23259893166666,137.02374678,679525.1490474268,4122594.61235387
8882,[2021-02-22 15:55:42.625] $GPGGA,065542.20,3713.9559366999997,N,13701.424805200002,E,4,9.0,1.4,97.0049,M,37.55,M,5.0,0000*68,37.23259894499999,137.02374675333337,679525.1466499502,4122594.6137827057
8883,[2021-02-22 15:55:42.703] $GPGGA,065542.30,3713.9559381,N,13701.424803200001,E,4,9.0,1.4,97.0099,M,37.55,M,5.0,0000*6A,37.23259896833333,137.02374672000002,679525.1436372891,4122594.616308459
8884,[2021-02-22 15:55:42.812] $GPGGA,065542.40,3713.9559369999997,N,13701.424800499999,E,4,9.0,1.4,97.016,M,37.55,M,5.0,0000*60,37.23259895,137.02374667499998,679525.1396884099,4122594.614188904
8885,[2021-02-22 15:55:42.890] $GPGGA,065542.50,3713.9559381,N,13701.424797200001,E,4,9.0,1.4,97.0241,M,37.55,M,5.0,0000*69,37.23259896833333,137.02374662000003,679525.1347653627,4122594.6161187775
8886,[2021-02-22 15:55:43.015] $GPGGA,065542.60,3713.9559373,N,13701.424797200001,E,4,9.0,1.4,97.0285,M,37.55,M,5.0,0000*6F,37.23259895500001,137.02374662000003,679525.1347969928,4122594.614639362
8887,[2021-02-22 15:55:43.093] $GPGGA,065542.70,3713.9559376,N,13701.424795500001,E,4,9.0,1.4,97.0333,M,37.55,M,5.0,0000*62,37.232598960000004,137.02374659166668,679525.1322714176,4122594.6151403994
8888,[2021-02-22 15:55:43.218] $GPGGA,065542.80,3713.9559376,N,13701.4247926,E,4,9.0,1.4,97.0398,M,37.55,M,5.0,0000*68,37.232598960000004,137.02374654333332,679525.1279833172,4122594.6150487205
8889,[2021-02-22 15:55:43.296] $GPGGA,065542.90,3713.95594,N,13701.4247894,E,4,9.0,1.4,97.0393,M,37.55,M,5.0,0000*6C,37.23259899999999,137.02374648999998,679525.1231567318,4122594.619385808
8890,[2021-02-22 15:55:43.421] $GPGGA,065543.00,3713.9559415,N,13701.424789300001,E,4,9.0,1.4,97.036,M,37.55,M,6.0,0000*68,37.232599025,137.02374648833333,679525.122949563,4122594.6221565553
8891,[2021-02-22 15:55:43.500] $GPGGA,065543.10,3713.9559419,N,13701.424789700002,E,4,9.0,1.4,97.0334,M,37.55,M,6.0,0000*60,37.232599031666666,137.02374649500004,679525.1235252124,4122594.622908909
8892,[2021-02-22 15:55:43.609] $GPGGA,065543.20,3713.9559391000003,N,13701.424789700002,E,4,9.0,1.4,97.0417,M,37.55,M,1.0,0000*65,37.23259898500001,137.02374649500004,679525.1236359173,4122594.617730949
8893,[2021-02-22 15:55:43.718] $GPGGA,065543.30,3713.9559372000003,N,13701.424792500002,E,4,9.0,1.4,97.0456,M,37.55,M,1.0,0000*64,37.23259895333334,137.02374654166667,679525.1278512672,4122594.6143058497
8894,[2021-02-22 15:55:43.796] $GPGGA,065543.40,3713.9559369999997,N,13701.424795299998,E,4,9.0,1.4,97.0486,M,37.55,M,1.0,0000*6D,37.23259895,137.02374658833327,679525.1319994011,4122594.6140245134
8895,[2021-02-22 15:55:43.921] $GPGGA,065543.50,3713.9559365,N,13701.424796399999,E,4,9.0,1.4,97.0515,M,37.55,M,1.0,0000*67,37.23259894166666,137.02374660666666,679525.1336456961,4122594.6131346505
8896,[2021-02-22 15:55:43.999] $GPGGA,065543.60,3713.9559357000003,N,13701.424796700001,E,4,9.0,1.4,97.0568,M,37.55,M,1.0,0000*6C,37.23259892833334,137.0237466116667,679525.1341209256,4122594.6116647194
8897,[2021-02-22 15:55:44.124] $GPGGA,065543.70,3713.9559351,N,13701.424795500001,E,4,9.0,1.4,97.0576,M,37.55,M,1.0,0000*65,37.23259891833332,137.02374659166668,679525.1323702615,4122594.610517218
8898,[2021-02-22 15:55:44.203] $GPGGA,065543.80,3713.9559346999995,N,13701.4247943,E,4,9.0,1.4,97.0651,M,37.55,M,1.0,0000*6C,37.232598911666656,137.02374657166663,679525.1306116877,4122594.6097395723
8899,[2021-02-22 15:55:44.312] $GPGGA,065543.90,3713.9559354000003,N,13701.4247924,E,4,9.0,1.4,97.0762,M,37.55,M,1.0,0000*6F,37.232598923333335,137.02374654,679525.1277745698,4122594.610973999
8900,[2021-02-22 15:55:44.390] $GPGGA,065544.00,3713.9559361,N,13701.424793,E,4,9.0,1.4,97.0858,M,37.55,M,2.0,0000*67,37.232598935000006,137.02374655000003,679525.128634088,4122594.6122874576
8901,[2021-02-22 15:55:44.499] $GPGGA,065544.10,3713.9559363000008,N,13701.4247933,E,4,9.0,1.4,97.0937,M,37.55,M,2.0,0000*6F,37.23259893833335,137.023746555,679525.1290697753,4122594.612666798
8902,[2021-02-22 15:55:44.593] $GPGGA,065544.20,3713.9559356,N,13701.424793,E,4,9.0,1.4,97.0972,M,37.55,M,2.0,0000*68,37.23259892666667,137.02374655000003,679525.1286538567,4122594.611362821
8903,[2021-02-22 15:55:44.687] $GPGGA,065544.30,3713.9559344000004,N,13701.424791799998,E,4,9.0,1.4,97.103,M,37.55,M,2.0,0000*6E,37.232598906666674,137.02374652999998,679525.1269269128,4122594.609105759
8904,[2021-02-22 15:55:44.796] $GPGGA,065544.40,3713.9559334,N,13701.424791999998,E,4,9.0,1.4,97.1073,M,37.55,M,2.0,0000*62,37.23259889,137.02374653333328,679525.1272621781,4122594.6072628074
8905,[2021-02-22 15:55:44.921] $GPGGA,065544.50,3713.955932,N,13701.424792700001,E,4,9.0,1.4,97.1113,M,37.55,M,2.0,0000*66,37.23259886666666,137.02374654500002,679525.1283525969,4122594.6046959576
8906,[2021-02-22 15:55:44.999] $GPGGA,065544.60,3713.9559321999996,N,13701.424793,E,4,9.0,1.4,97.1111,M,37.55,M,2.0,0000*63,37.23259887,137.02374655000003,679525.1287882843,4122594.605075296
8907,[2021-02-22 15:55:45.109] $GPGGA,065544.70,3713.9559339,N,13701.424793900002,E,4,9.0,1.4,97.1081,M,37.55,M,2.0,0000*69,37.232598898333336,137.02374656500004,679525.1300518621,4122594.6082475116
8908,[2021-02-22 15:55:45.218] $GPGGA,065544.80,3713.9559346999995,N,13701.4247954,E,4,9.0,1.4,97.1022,M,37.55,M,2.0,0000*6D,37.232598911666656,137.02374659000003,679525.1322382115,4122594.6097743474
8909,[2021-02-22 15:55:45.296] $GPGGA,065544.90,3713.955936,N,13701.4247963,E,4,9.0,1.4,97.0936,M,37.55,M,2.0,0000*60,37.232598933333335,137.023746605,679525.1335176021,4122594.6122068553
8910,[2021-02-22 15:55:45.421] $GPGGA,065545.00,3713.9559366,N,13701.4247954,E,4,9.0,1.4,97.0855,M,37.55,M,3.0,0000*6F,37.232598943333336,137.02374659000003,679525.1321630902,4122594.6132879658
8911,[2021-02-22 15:55:45.515] $GPGGA,065545.10,3713.9559364,N,13701.4247981,E,4,9.0,1.4,97.0727,M,37.55,M,3.0,0000*6E,37.23259894,137.023746635,679525.1361633637,4122594.613003469
8912,[2021-02-22 15:55:45.624] $GPGGA,065545.20,3713.9559368,N,13701.4248014,E,4,9.0,1.4,97.066,M,37.55,M,3.0,0000*69,37.23259894666667,137.02374669,679525.1410271067,4122594.6138475025
8913,[2021-02-22 15:55:45.702] $GPGGA,065545.30,3713.9559364,N,13701.424802599999,E,4,9.0,1.4,97.0568,M,37.55,M,3.0,0000*6E,37.23259894,137.02374670999998,679525.1428173061,4122594.61314573
8914,[2021-02-22 15:55:45.812] $GPGGA,065545.40,3713.9559364,N,13701.424803999998,E,4,9.0,1.4,97.0528,M,37.55,M,3.0,0000*6D,37.23259894,137.0237467333333,679525.1448874203,4122594.6131899897
8915,[2021-02-22 15:55:45.890] $GPGGA,065545.50,3713.9559366999997,N,13701.424803,E,4,9.0,1.4,97.0481,M,37.55,M,3.0,0000*6A,37.23259894499999,137.02374671666666,679525.1433969069,4122594.613713156
8916,[2021-02-22 15:55:46.015] $GPGGA,065545.60,3713.9559369000003,N,13701.4248015,E,4,9.0,1.4,97.0487,M,37.55,M,3.0,0000*66,37.23259894833334,137.02374669166664,679525.1411710179,4122594.614035591
8917,[2021-02-22 15:55:46.093] $GPGGA,065545.70,3713.9559364,N,13701.424801,E,4,9.0,1.4,97.0489,M,37.55,M,3.0,0000*61,37.23259894,137.02374668333331,679525.1404514594,4122594.613095148
8918,[2021-02-22 15:55:46.218] $GPGGA,065545.80,3713.9559361,N,13701.4247988,E,4,9.0,1.4,97.055,M,37.55,M,3.0,0000*69,37.232598935000006,137.02374664666667,679525.137210282,4122594.612470817
8919,[2021-02-22 15:55:46.296] $GPGGA,065545.90,3713.955938,N,13701.4247989,E,4,9.0,1.4,97.0568,M,37.55,M,3.0,0000*6D,37.23259896666667,137.02374664833332,679525.1372830258,4122594.6159875942
8920,[2021-02-22 15:55:46.421] $GPGGA,065546.00,3713.9559386,N,13701.4247995,E,4,9.0,1.4,97.057,M,37.55,M,4.0,0000*62,37.23259897666667,137.02374665833335,679525.1381464977,4122594.617116126
8921,[2021-02-22 15:55:46.515] $GPGGA,065546.10,3713.9559384000004,N,13701.424798700002,E,4,9.0,1.4,97.0613,M,37.55,M,4.0,0000*64,37.23259897333334,137.02374664500002,679525.136971483,4122594.6167209805
8922,[2021-02-22 15:55:46.609] $GPGGA,065546.20,3713.9559361,N,13701.4247977,E,4,9.0,1.4,97.0615,M,37.55,M,4.0,0000*65,37.232598935000006,137.02374662833333,679525.1355837627,4122594.612436042
8923,[2021-02-22 15:55:46.702] $GPGGA,065546.30,3713.9559358,N,13701.424797799998,E,4,9.0,1.4,97.0621,M,37.55,M,4.0,0000*66,37.23259893,137.02374662999998,679525.1357434866,4122594.6118844217
8924,[2021-02-22 15:55:46.812] $GPGGA,065546.40,3713.9559345,N,13701.4247947,E,4,9.0,1.4,97.0666,M,37.55,M,4.0,0000*62,37.23259890833332,137.02374657833334,679525.1312110595,4122594.6093823635
8925,[2021-02-22 15:55:46.890] $GPGGA,065546.50,3713.9559348000007,N,13701.424793900002,E,4,9.0,1.4,97.0736,M,37.55,M,4.0,0000*63,37.23259891333334,137.02374656500004,679525.1300162782,4122594.6099118567
8926,[2021-02-22 15:55:47.015] $GPGGA,065546.60,3713.9559354999997,N,13701.4247912,E,4,9.0,1.4,97.0744,M,37.55,M,4.0,0000*60,37.23259892499999,137.02374652,679525.1259962318,4122594.611120987
8927,[2021-02-22 15:55:47.124] $GPGGA,065546.70,3713.9559358,N,13701.4247869,E,4,9.0,1.4,97.0728,M,37.55,M,4.0,0000*6B,37.23259893,137.02374644833333,679525.1196261557,4122594.611539832
8928,[2021-02-22 15:55:47.202] $GPGGA,065546.80,3713.9559371,N,13701.424784,E,4,9.0,1.4,97.075,M,37.55,M,4.0,0000*6B,37.23259895166666,137.0237464,679525.1152866589,4122594.6138522048
8929,[2021-02-22 15:55:47.312] $GPGGA,065546.90,3713.9559381,N,13701.4247836,E,4,9.0,1.4,97.0733,M,37.55,M,4.0,0000*61,37.23259896833333,137.0237463933333,679525.1146556592,4122594.615688831
8930,[2021-02-22 15:55:47.390] $GPGGA,065547.00,3713.9559381,N,13701.4247869,E,4,9.0,1.4,97.0711,M,37.55,M,5.0,0000*62,37.23259896833333,137.02374644833333,679525.1195352195,4122594.6157931574
8931,[2021-02-22 15:55:47.499] $GPGGA,065547.10,3713.9559371,N,13701.4247903,E,4,9.0,1.4,97.0697,M,37.55,M,5.0,0000*6E,37.23259895166666,137.02374650499996,679525.1246021801,4122594.614051371
8932,[2021-02-22 15:55:47.609] $GPGGA,065547.20,3713.9559381999998,N,13701.424791299998,E,4,9.0,1.4,97.076,M,37.55,M,5.0,0000*69,37.23259896999999,137.02374652166665,679525.1260373432,4122594.6161171836
8933,[2021-02-22 15:55:47.718] $GPGGA,065547.30,3713.9559369999997,N,13701.424793399998,E,4,9.0,1.4,97.0746,M,37.55,M,5.0,0000*64,37.23259895,137.02374655666662,679525.1291899597,4122594.613964447
8934,[2021-02-22 15:55:47.796] $GPGGA,065547.40,3713.9559375,N,13701.4247942,E,4,9.0,1.4,97.0767,M,37.55,M,5.0,0000*64,37.23259895833333,137.02374657,679525.1303531176,4122594.614914373
8935,[2021-02-22 15:55:47.921] $GPGGA,065547.50,3713.9559381999998,N,13701.4247926,E,4,9.0,1.4,97.0764,M,37.55,M,5.0,0000*6C,37.23259896999999,137.02374654333332,679525.1279595948,4122594.6161582815
8936,[2021-02-22 15:55:47.999] $GPGGA,065547.60,3713.9559385,N,13701.424792200001,E,4,9.0,1.4,97.078,M,37.55,M,5.0,0000*66,37.232598974999995,137.0237465366667,679525.1273562758,4122594.616700418
8937,[2021-02-22 15:55:48.124] $GPGGA,065547.70,3713.955938,N,13701.424790399999,E,4,9.0,1.4,97.0777,M,37.55,M,5.0,0000*6E,37.23259896666667,137.0237465066666,679525.1247144591,4122594.615718879
8938,[2021-02-22 15:55:48.202] $GPGGA,065547.80,3713.9559376999996,N,13701.4247928,E,4,9.0,1.4,97.0733,M,37.55,M,5.0,0000*67,37.23259896166666,137.02374654666667,679525.1282750957,4122594.615239968
8939,[2021-02-22 15:55:48.312] $GPGGA,065547.90,3713.9559361999995,N,13701.4247916,E,4,9.0,1.4,97.0743,M,37.55,M,5.0,0000*68,37.232598936666655,137.02374652666668,679525.1265600177,4122594.612428123
8940,[2021-02-22 15:55:48.390] $GPGGA,065548.00,3713.9559357000003,N,13701.4247921,E,4,9.0,1.4,97.0696,M,37.55,M,6.0,0000*66,37.23259892833334,137.023746535,679525.1273191114,4122594.6115192957
8941,[2021-02-22 15:55:48.499] $GPGGA,065548.10,3713.955935,N,13701.424791999998,E,4,9.0,1.4,97.0667,M,37.55,M,6.0,0000*6F,37.23259891666667,137.02374653333328,679525.1271989181,4122594.610221644
8942,[2021-02-22 15:55:48.593] $GPGGA,065548.20,3713.9559353,N,13701.4247928,E,4,9.0,1.4,97.0621,M,37.55,M,1.0,0000*62,37.23259892166667,137.02374654666667,679525.1283699857,4122594.6108017177
8943,[2021-02-22 15:55:48.718] $GPGGA,065548.30,3713.9559373999996,N,13701.4247917,E,4,9.0,1.4,97.0601,M,37.55,M,1.0,0000*68,37.232598956666656,137.02374652833333,679525.1266604377,4122594.614650412
8944,[2021-02-22 15:55:48.812] $GPGGA,065548.40,3713.9559393,N,13701.4247912,E,4,9.0,1.4,97.061,M,37.55,M,1.0,0000*63,37.23259898833333,137.02374652,679525.1258459892,4122594.6181482226
8945,[2021-02-22 15:55:48.890] $GPGGA,065548.50,3713.9559401999995,N,13701.424792299998,E,4,9.0,1.4,97.062,M,37.55,M,1.0,0000*6C,37.23259900333333,137.02374653833328,679525.1274369203,4122594.619847341
8946,[2021-02-22 15:55:49.015] $GPGGA,065548.60,3713.9559415,N,13701.4247917,E,4,9.0,1.4,97.0638,M,37.55,M,1.0,0000*67,37.232599025,137.02374652833333,679525.1264983339,4122594.6222324283
8947,[2021-02-22 15:55:49.093] $GPGGA,065548.70,3713.9559435999995,N,13701.424792200001,E,4,9.0,1.4,97.0683,M,37.55,M,1.0,0000*61,37.232599059999984,137.0237465366667,679525.1271546346,4122594.6261317036
8948,[2021-02-22 15:55:49.218] $GPGGA,065548.80,3713.9559433,N,13701.4247914,E,4,9.0,1.4,97.0722,M,37.55,M,1.0,0000*64,37.232599055,137.02374652333336,679525.1259835714,4122594.625551633
8949,[2021-02-22 15:55:49.296] $GPGGA,065548.90,3713.9559420999994,N,13701.4247901,E,4,9.0,1.4,97.0777,M,37.55,M,1.0,0000*62,37.23259903499999,137.02374650166666,679525.1241087626,4122594.623291408
8950,[2021-02-22 15:55:49.421] $GPGGA,065549.00,3713.9559413,N,13701.4247914,E,4,9.0,1.4,97.0782,M,37.55,M,2.0,0000*66,37.232599021666665,137.02374652333336,679525.1260626464,4122594.6218530894
8951,[2021-02-22 15:55:49.515] $GPGGA,065549.10,3713.9559406999997,N,13701.4247894,E,4,9.0,1.4,97.0807,M,37.55,M,2.0,0000*69,37.232599011666665,137.02374648999998,679525.1231290556,4122594.6206802987
8952,[2021-02-22 15:55:49.624] $GPGGA,065549.20,3713.9559401,N,13701.424788499999,E,4,9.0,1.4,97.0805,M,37.55,M,2.0,0000*6E,37.232599001666664,137.02374647499997,679525.1218219888,4122594.619542282
8953,[2021-02-22 15:55:49.702] $GPGGA,065549.30,3713.95594,N,13701.424786700001,E,4,9.0,1.4,97.078,M,37.55,M,2.0,0000*60,37.23259899999999,137.02374644500003,679525.1191643705,4122594.6193004516
8954,[2021-02-22 15:55:49.812] $GPGGA,065549.40,3713.9559411,N,13701.4247863,E,4,9.0,1.4,97.0773,M,37.55,M,2.0,0000*6F,37.23259901833333,137.02374643833335,679525.1185294149,4122594.621322005
8955,[2021-02-22 15:55:49.890] $GPGGA,065549.50,3713.9559421999998,N,13701.424786399999,E,4,9.0,1.4,97.0754,M,37.55,M,2.0,0000*6C,37.23259903666666,137.02374644,679525.1186337884,4122594.623359366
