,Format,Time,Latitude,LatType,Longitude,LonType,Status,Satellite,LevelAccuracy,Altitude(sea),M(sea),Altitude(geoid),M(geoid),DGPS use,checksum,Lat,Lon,UTM_X,UTM_Y
2206,[2021-02-22 15:38:33.419] $GPGGA,63833.0,3713.95598923,N,13701.42443525,E,4,5.0,3.3,97.895,M,36.771,M,1.0,0979*72,37.2325998205,137.02374058750001,679524.5975448515,4122594.6992294984
2207,[2021-02-22 15:38:33.513] $GPGGA,63833.1,3713.95599225,N,13701.42443125,E,4,5.0,3.3,97.875,M,36.771,M,1.1,0979*74,37.23259987083333,137.02374052083331,679524.5915108288,4122594.7046878464
2208,[2021-02-22 15:38:33.622] $GPGGA,63833.2,3713.95599343,N,13701.42442875,E,4,5.0,3.3,97.887,M,36.771,M,1.2,0979*75,37.232599890500005,137.02374047916666,679524.5877675411,4122594.7067909534
2209,[2021-02-22 15:38:33.716] $GPGGA,63833.3,3713.95598893,N,13701.42443033,E,4,5.0,3.3,97.887,M,36.771,M,1.3,0979*79,37.232599815499995,137.02374050549997,679524.5902817294,4122594.6985191773
2210,[2021-02-22 15:38:33.825] $GPGGA,63833.4,3713.95598894,N,13701.42442848,E,4,5.0,3.3,97.88799999999999,M,36.771,M,1.4,0979*74,37.232599815666674,137.02374047466668,679524.5875458271,4122594.6984791863
2211,[2021-02-22 15:38:33.919] $GPGGA,63833.5,3713.95599098,N,13701.42442873,E,4,5.0,3.3,97.89399999999999,M,36.771,M,1.5,0979*74,37.23259984966666,137.02374047883336,679524.5878348355,4122594.702259603
2212,[2021-02-22 15:38:34.028] $GPGGA,63833.6,3713.95598876,N,13701.42443094,E,4,5.0,3.3,97.891,M,36.771,M,1.6,0979*78,37.23259981266667,137.02374051566667,679524.5911904332,4122594.698224086
2213,[2021-02-22 15:38:34.122] $GPGGA,63833.7,3713.95599371,N,13701.42442991,E,4,5.0,3.3,97.881,M,36.771,M,1.7,0979*79,37.23259989516666,137.0237404985,679524.5894717085,4122594.707345419
2214,[2021-02-22 15:38:34.216] $GPGGA,63833.8,3713.95597937,N,13701.42443499,E,4,5.0,3.3,97.861,M,36.771,M,1.8,0979*75,37.23259965616667,137.02374058316667,679524.5975502393,4122594.6809874573
2215,[2021-02-22 15:38:34.309] $GPGGA,63833.9,3713.95598952,N,13701.42443588,E,4,5.0,3.3,97.87899999999999,M,36.771,M,1.9,0979*71,37.23259982533334,137.023740598,679524.5984649359,4122594.6997857033
2216,[2021-02-22 15:38:34.419] $GPGGA,63834.0,3713.9559888,N,13701.42443725,E,4,5.0,3.3,97.88600000000001,M,36.771,M,2.0,0979*7E,37.23259981333334,137.02374062083334,679524.6005191612,4122594.698497538
2217,[2021-02-22 15:38:34.513] $GPGGA,63834.1,3713.95600216,N,13701.42443524,E,4,5.0,3.3,97.848,M,36.771,M,1.1,0979*7B,37.232600035999994,137.02374058733332,679524.5970188447,4122594.723140268
2218,[2021-02-22 15:38:34.622] $GPGGA,63834.2,3713.95600041,N,13701.4244315,E,4,5.0,3.3,97.84100000000001,M,36.771,M,1.2,0979*75,37.23260000683333,137.02374052499997,679524.5915578662,4122594.7197858077
2219,[2021-02-22 15:38:34.716] $GPGGA,63834.3,3713.95599831,N,13701.42443145,E,4,5.0,3.3,97.854,M,36.771,M,1.3,0979*79,37.23259997183333,137.02374052416664,679524.5915669622,4122594.715900756
2220,[2021-02-22 15:38:34.825] $GPGGA,63834.4,3713.95599825,N,13701.42443281,E,4,5.0,3.3,97.848,M,36.771,M,1.4,0979*7A,37.23259997083334,137.02374054683335,679524.5935803091,4122594.7158327955
2221,[2021-02-22 15:38:34.919] $GPGGA,63834.5,3713.95599624,N,13701.42443583,E,4,5.0,3.3,97.853,M,36.771,M,1.5,0979*7A,37.23259993733333,137.02374059716666,679524.5981253145,4122594.7122112312
2222,[2021-02-22 15:38:35.028] $GPGGA,63834.6,3713.95599572,N,13701.42443604,E,4,5.0,3.3,97.84299999999999,M,36.771,M,1.6,0979*77,37.232599928666666,137.02374060066666,679524.5984563899,4122594.711256249
2223,[2021-02-22 15:38:35.122] $GPGGA,63834.7,3713.95599865,N,13701.42443225,E,4,5.0,3.3,97.855,M,36.771,M,1.7,0979*7C,37.232599977499994,137.02374053749998,679524.592736444,4122594.716554799
2224,[2021-02-22 15:38:35.216] $GPGGA,63834.8,3713.95600272,N,13701.4244318,E,4,5.0,3.3,97.84700000000001,M,36.771,M,1.8,0979*7C,37.23260004533333,137.02374053000003,679524.5919101366,4122594.7240671096
2225,[2021-02-22 15:38:35.309] $GPGGA,63834.9,3713.95600463,N,13701.4244241,E,4,5.0,3.3,97.84899999999999,M,36.771,M,1.9,0979*79,37.232600077166666,137.02374040166666,679524.580448978,4122594.7273557954
2226,[2021-02-22 15:38:35.419] $GPGGA,63835.0,3713.95599686,N,13701.42443563,E,4,5.0,3.3,97.84700000000001,M,36.771,M,2.0,0979*7B,37.23259994766667,137.02374059383334,679524.5978050691,4122594.713351457
2227,[2021-02-22 15:38:35.513] $GPGGA,63835.1,3713.95600463,N,13701.42442766,E,4,4.0,5.1,97.85600000000001,M,36.771,M,1.1,0979*71,37.232600077166666,137.02374046100002,679524.5857129891,4122594.7274683407
2228,[2021-02-22 15:38:35.622] $GPGGA,63835.2,3713.95598735,N,13701.42444511,E,4,4.0,5.1,97.851,M,36.771,M,1.2,0979*70,37.23259978916668,137.02374075183334,679524.6121987138,4122594.6960645784
2229,[2021-02-22 15:38:35.716] $GPGGA,63835.3,3713.95600032,N,13701.42443133,E,4,4.0,5.1,97.86399999999999,M,36.771,M,1.3,0979*77,37.232600005333325,137.02374052216666,679524.591310055,4122594.7196139987
2230,[2021-02-22 15:38:35.825] $GPGGA,63835.4,3713.95600825,N,13701.42442669,E,4,4.0,5.1,97.854,M,36.771,M,1.4,0979*73,37.23260013750001,137.02374044483332,679524.5841355675,4122594.734132039
2231,[2021-02-22 15:38:35.919] $GPGGA,63835.5,3713.9560015,N,13701.42442729,E,4,4.0,5.1,97.85,M,36.771,M,1.5,0979*79,37.232600025,137.0237404548333,679524.5852896348,4122594.721668422
2232,[2021-02-22 15:38:36.028] $GPGGA,63835.6,3713.95600361,N,13701.42442752,E,4,4.0,5.1,97.84299999999999,M,36.771,M,1.6,0979*77,37.23260006016667,137.02374045866665,679524.5855463035,4122594.7255776566
2233,[2021-02-22 15:38:36.122] $GPGGA,63835.7,3713.95599212,N,13701.42443652,E,4,4.0,5.1,97.861,M,36.771,M,1.7,0979*71,37.23259986866666,137.02374060866666,679524.5993084774,4122594.7046140423
2234,[2021-02-22 15:38:36.216] $GPGGA,63835.8,3713.95599986,N,13701.4244292,E,4,4.0,5.1,97.846,M,36.771,M,1.8,0979*79,37.23259999766667,137.02374048666667,679524.5881787103,4122594.7186959973
2235,[2021-02-22 15:38:36.309] $GPGGA,63835.9,3713.95601095,N,13701.42442185,E,4,4.0,5.1,97.848,M,36.771,M,1.9,0979*79,37.23260018249999,137.02374036416668,679524.5768721328,4122594.738972064
2236,[2021-02-22 15:38:36.419] $GPGGA,63836.0,3713.95599649,N,13701.42442749,E,4,4.0,5.1,97.874,M,36.771,M,1.0,0979*76,37.232599941500006,137.02374045816666,679524.5857834516,4122594.712409892
2237,[2021-02-22 15:38:36.512] $GPGGA,63836.1,3713.95599241,N,13701.42443451,E,4,4.0,5.1,97.875,M,36.771,M,1.1,0979*70,37.2325998735,137.02374057516667,679524.5963249189,4122594.7050867896
2238,[2021-02-22 15:38:36.622] $GPGGA,63836.2,3713.95599612,N,13701.42442891,E,4,4.0,5.1,97.87700000000001,M,36.771,M,1.2,0979*71,37.23259993533333,137.02374048183336,679524.5878977713,4122594.711770552
2239,[2021-02-22 15:38:36.716] $GPGGA,63836.3,3713.95598837,N,13701.42442915,E,4,4.0,5.1,97.88,M,36.771,M,1.3,0979*7C,37.23259980616667,137.02374048583334,679524.5885590625,4122594.697446281
2240,[2021-02-22 15:38:36.825] $GPGGA,63836.4,3713.95599021,N,13701.42442621,E,4,4.0,5.1,97.87299999999999,M,36.771,M,1.4,0979*76,37.23259983683333,137.02374043683332,679524.584139067,4122594.700755997
2241,[2021-02-22 15:38:36.919] $GPGGA,63836.5,3713.95598202,N,13701.42443217,E,4,4.0,5.1,97.87299999999999,M,36.771,M,1.5,0979*74,37.23259970033333,137.02374053616668,679524.5932756623,4122594.6857988765
2242,[2021-02-22 15:38:37.028] $GPGGA,63836.6,3713.9559851,N,13701.42442705,E,4,4.0,5.1,97.876,M,36.771,M,1.6,0979*72,37.23259975166667,137.02374045083334,679524.585583176,4122594.6913327733
2243,[2021-02-22 15:38:37.122] $GPGGA,63836.7,3713.9559933,N,13701.42441828,E,4,4.0,5.1,97.844,M,36.771,M,1.7,0979*75,37.23259988833333,137.02374030466663,679524.572291166,4122594.7062195526
2244,[2021-02-22 15:38:37.231] $GPGGA,63836.8,3713.9559846,N,13701.42442915,E,4,4.0,5.1,97.88799999999999,M,36.771,M,1.8,0979*7A,37.23259974333334,137.02374048583334,679524.5887081184,4122594.690474527
2245,[2021-02-22 15:38:37.309] $GPGGA,63836.9,3713.95600723,N,13701.42442067,E,4,4.0,5.1,97.85700000000001,M,36.771,M,1.9,0979*72,37.2326001205,137.0237403445,679524.5752743974,4122594.7320554685
2246,[2021-02-22 15:38:37.419] $GPGGA,63837.0,3713.95598648,N,13701.42443208,E,4,4.0,5.1,97.89299999999999,M,36.771,M,1.0,0979*7F,37.23259977466667,137.02374053466667,679524.5929662443,4122594.6940437853
2247,[2021-02-22 15:38:37.512] $GPGGA,63837.1,3713.95598878,N,13701.4244261,E,4,4.0,5.1,97.869,M,36.771,M,1.1,0979*7B,37.23259981300001,137.02374043500004,679524.5840329588,4122594.698108062
2248,[2021-02-22 15:38:37.622] $GPGGA,63837.2,3713.95599951,N,13701.42442706,E,4,4.0,5.1,97.87200000000001,M,36.771,M,1.2,0979*7C,37.23259999183333,137.02374045099998,679524.585028226,4122594.7179810996
2249,[2021-02-22 15:38:37.715] $GPGGA,63837.3,3713.9559949,N,13701.42443113,E,4,4.0,5.1,97.88,M,36.771,M,1.3,0979*72,37.232599915,137.02374051883336,679524.5912286199,4122594.7095846226
2250,[2021-02-22 15:38:37.825] $GPGGA,63837.4,3713.95600132,N,13701.42442944,E,4,4.0,5.1,97.87799999999999,M,36.771,M,1.4,0979*70,37.23260002199999,137.02374049066665,679524.58847586,4122594.7214035206
2251,[2021-02-22 15:38:37.919] $GPGGA,63837.5,3713.95599409,N,13701.42443198,E,4,4.0,5.1,97.87700000000001,M,36.771,M,1.5,0979*79,37.2325999015,137.02374053300002,679524.5925175021,4122594.7081135837
2252,[2021-02-22 15:38:38.028] $GPGGA,63837.6,3713.95600041,N,13701.424429,E,4,4.0,5.1,97.867,M,36.771,M,1.6,0979*7B,37.23260000683333,137.0237404833333,679524.5878612304,4122594.719706774
2253,[2021-02-22 15:38:38.122] $GPGGA,63837.7,3713.95599237,N,13701.42443832,E,4,4.0,5.1,97.868,M,36.771,M,1.7,0979*75,37.23259987283333,137.02374063866668,679524.601960174,4122594.7051332667
2254,[2021-02-22 15:38:38.215] $GPGGA,63837.8,3713.95598674,N,13701.42444406,E,4,4.0,5.1,97.889,M,36.771,M,1.8,0979*74,37.23259977899999,137.02374073433336,679524.6106702471,4122594.6949033258
2255,[2021-02-22 15:38:38.309] $GPGGA,63837.9,3713.95599104,N,13701.42444063,E,4,4.0,5.1,97.876,M,36.771,M,1.9,0979*72,37.23259985066666,137.02374067716667,679524.6054284484,4122594.702746761
2256,[2021-02-22 15:38:38.419] $GPGGA,63838.0,3713.9559837,N,13701.42444807,E,4,4.0,5.1,97.89299999999999,M,36.771,M,1.0,0979*7C,37.232599728333334,137.02374080116667,679524.6167198421,4122594.68940831
2257,[2021-02-22 15:38:38.512] $GPGGA,63838.1,3713.95598597,N,13701.42444277,E,4,4.0,5.1,97.87200000000001,M,36.771,M,1.1,0979*71,37.232599766166665,137.02374071283333,679524.6087932232,4122594.6934386045
2258,[2021-02-22 15:38:38.622] $GPGGA,63838.2,3713.95598968,N,13701.42444308,E,4,4.0,5.1,97.88600000000001,M,36.771,M,1.2,0979*7F,37.232599828000005,137.023740718,679524.6091049226,4122594.700309206
2259,[2021-02-22 15:38:38.715] $GPGGA,63838.3,3713.95599278,N,13701.4244446,E,4,4.0,5.1,97.88799999999999,M,36.771,M,1.3,0979*73,37.232599879666665,137.02374074333332,679524.6112299103,4122594.7060900005
2260,[2021-02-22 15:38:38.825] $GPGGA,63838.4,3713.95598175,N,13701.42444575,E,4,4.0,5.1,97.874,M,36.771,M,1.4,0979*7A,37.232599695833336,137.0237407625,679524.6133664618,4122594.685728886
2261,[2021-02-22 15:38:38.919] $GPGGA,63838.5,3713.9559941,N,13701.42444256,E,4,4.0,5.1,97.883,M,36.771,M,1.5,0979*73,37.23259990166667,137.02374070933334,679524.608161268,4122594.7084665485
2262,[2021-02-22 15:38:39.028] $GPGGA,63838.6,3713.95599591,N,13701.42444665,E,4,4.0,5.1,97.87799999999999,M,36.771,M,1.6,0979*7B,37.23259993183334,137.0237407775,679524.6141374018,4122594.7119430318
2263,[2021-02-22 15:38:39.122] $GPGGA,63838.7,3713.95599462,N,13701.4244456,E,4,4.0,5.1,97.89,M,36.771,M,1.7,0979*76,37.232599910333334,137.02374076,679524.6126358182,4122594.709524275
2264,[2021-02-22 15:38:39.215] $GPGGA,63838.8,3713.95598535,N,13701.42445571,E,4,4.0,5.1,97.89200000000001,M,36.771,M,1.8,0979*77,37.23259975583334,137.0237409285,679524.6279515245,4122594.6927011376
2265,[2021-02-22 15:38:39.309] $GPGGA,63838.9,3713.95599901,N,13701.42444261,E,4,4.0,5.1,97.895,M,36.771,M,0.9,0979*7C,37.23259998350001,137.02374071016666,679524.608041072,4122594.717548055
2266,[2021-02-22 15:38:39.419] $GPGGA,63839.0,3713.95598837,N,13701.4244517,E,4,4.0,5.1,97.895,M,36.771,M,1.0,0979*7B,37.23259980616667,137.02374086166668,679524.6219027203,4122594.6981591675
2267,[2021-02-22 15:38:39.512] $GPGGA,63839.1,3713.95599364,N,13701.42444972,E,4,4.0,5.1,97.896,M,36.771,M,1.1,0979*7F,37.232599893999996,137.02374082866666,679524.6187666194,4122594.7078422364
2268,[2021-02-22 15:38:39.622] $GPGGA,63839.2,3713.95599953,N,13701.42443964,E,4,4.0,5.1,97.883,M,36.771,M,1.2,0979*75,37.232599992166676,137.0237406606667,679524.6036289122,4122594.7184157846
2269,[2021-02-22 15:38:39.715] $GPGGA,63839.3,3713.95599334,N,13701.42444496,E,4,4.0,5.1,97.887,M,36.771,M,1.3,0979*7D,37.232599889,137.02374074933334,679524.6117400875,4122594.707136974
2270,[2021-02-22 15:38:39.825] $GPGGA,63839.4,3713.95598455,N,13701.42445332,E,4,4.0,5.1,97.897,M,36.771,M,1.4,0979*75,37.23259974249999,137.02374088866665,679524.6244491695,4122594.6911461623
2271,[2021-02-22 15:38:39.918] $GPGGA,63839.5,3713.95599098,N,13701.42444662,E,4,4.0,5.1,97.899,M,36.771,M,1.5,0979*7E,37.23259984966666,137.02374077700003,679524.614287963,4122594.70282517
2272,[2021-02-22 15:38:40.028] $GPGGA,63839.6,3713.95599747,N,13701.42444597,E,4,4.0,5.1,97.89299999999999,M,36.771,M,1.6,0979*78,37.23259995783333,137.02374076616667,679524.6130702384,4122594.7148063965
2273,[2021-02-22 15:38:40.122] $GPGGA,63839.7,3713.95599091,N,13701.42444725,E,4,4.0,5.1,97.89,M,36.771,M,1.7,0979*7C,37.2325998485,137.0237407875,679524.615222281,4122594.7027156395
2274,[2021-02-22 15:38:40.215] $GPGGA,63839.8,3713.95599173,N,13701.42444986,E,4,4.0,5.1,97.889,M,36.771,M,1.8,0979*7E,37.232599862166666,137.023740831,679524.6190491471,4122594.704314553
2275,[2021-02-22 15:38:40.309] $GPGGA,63839.9,3713.95599529,N,13701.42444592,E,4,4.0,5.1,97.885,M,36.771,M,1.9,0979*70,37.232599921500004,137.02374076533334,679524.6130824974,4122594.7107734056
2276,[2021-02-22 15:38:40.418] $GPGGA,63840.0,3713.95598097,N,13701.4244561,E,4,4.0,5.1,97.89399999999999,M,36.771,M,2.0,0979*74,37.232599682833325,137.023740935,679524.6287013743,4122594.684613654
2277,[2021-02-22 15:38:40.512] $GPGGA,63840.1,3713.95598214,N,13701.42445272,E,4,4.0,5.1,97.89,M,36.771,M,2.1,0979*79,37.23259970233333,137.0237408786667,679524.623657267,4122594.6866704496
2278,[2021-02-22 15:38:40.622] $GPGGA,63840.2,3713.95598945,N,13701.42444836,E,4,4.0,5.1,97.87299999999999,M,36.771,M,1.2,0979*73,37.23259982416666,137.023740806,679524.6169213131,4122594.7000507917
2279,[2021-02-22 15:38:40.715] $GPGGA,63840.3,3713.95598605,N,13701.42444962,E,4,4.0,5.1,97.885,M,36.771,M,1.3,0979*71,37.2325997675,137.023740827,679524.6189188454,4122594.6938031
2280,[2021-02-22 15:38:40.825] $GPGGA,63840.4,3713.95598888,N,13701.42444462,E,4,4.0,5.1,97.875,M,36.771,M,1.4,0979*78,37.23259981466667,137.02374074366665,679524.6114136783,4122594.698878472
2281,[2021-02-22 15:38:40.918] $GPGGA,63840.5,3713.95599829,N,13701.42444277,E,4,4.0,5.1,97.884,M,36.771,M,1.5,0979*7E,37.23259997150001,137.02374071283333,679524.6083061225,4122594.716221637
2282,[2021-02-22 15:38:41.028] $GPGGA,63840.6,3713.95598807,N,13701.42444714,E,4,4.0,5.1,97.887,M,36.771,M,1.6,0979*70,37.232599801166664,137.02374078566666,679524.6151719138,4122594.697460228
2283,[2021-02-22 15:38:41.121] $GPGGA,63840.7,3713.95600574,N,13701.42443357,E,4,4.0,5.1,97.866,M,36.771,M,1.7,0979*70,37.23260009566666,137.0237405595,679524.5944079497,4122594.7297078683
2284,[2021-02-22 15:38:41.215] $GPGGA,63840.8,3713.95600104,N,13701.42443641,E,4,4.0,5.1,97.87700000000001,M,36.771,M,1.8,0979*71,37.23260001733334,137.02374060683331,679524.5987931527,4122594.7211060734
2285,[2021-02-22 15:38:41.309] $GPGGA,63840.9,3713.95599323,N,13701.42443781,E,4,4.0,5.1,97.885,M,36.771,M,1.9,0979*75,37.23259988716666,137.02374063016666,679524.6011720564,4122594.7067075158
2286,[2021-02-22 15:38:41.418] $GPGGA,63841.0,3713.95599333,N,13701.42443678,E,4,4.0,5.1,97.89200000000001,M,36.771,M,1.0,0979*74,37.232599888833334,137.02374061299997,679524.5996450855,4122594.706859882
2287,[2021-02-22 15:38:41.512] $GPGGA,63841.1,3713.95599172,N,13701.42443921,E,4,4.0,5.1,97.87100000000001,M,36.771,M,1.1,0979*7D,37.232599861999994,137.02374065350003,679524.6033018765,4122594.7039593747
2288,[2021-02-22 15:38:41.621] $GPGGA,63841.2,3713.955992,N,13701.42443962,E,4,4.0,5.1,97.89299999999999,M,36.771,M,1.2,0979*70,37.232599866666675,137.02374066033332,679524.6038970498,4122594.704490134
2289,[2021-02-22 15:38:41.715] $GPGGA,63841.3,3713.95599547,N,13701.42443157,E,4,4.0,5.1,97.885,M,36.771,M,1.3,0979*7D,37.23259992449999,137.02374052616668,679524.5918566901,4122594.7106526163
2290,[2021-02-22 15:38:41.825] $GPGGA,63841.4,3713.9559946,N,13701.4244276,E,4,4.0,5.1,97.876,M,36.771,M,1.4,0979*76,37.23259991,137.02374046,679524.5860208282,4122594.708918244
2291,[2021-02-22 15:38:41.918] $GPGGA,63841.5,3713.9559982,N,13701.42442828,E,4,4.0,5.1,97.87200000000001,M,36.771,M,1.5,0979*79,37.23259997,137.0237404713333,679524.5868839765,4122594.715597121
2292,[2021-02-22 15:38:42.028] $GPGGA,63841.6,3713.95599307,N,13701.42442981,E,4,4.0,5.1,97.88600000000001,M,36.771,M,1.6,0979*7E,37.232599884500004,137.02374049683334,679524.5893491474,4122594.7061587255
2293,[2021-02-22 15:38:42.121] $GPGGA,63841.7,3713.95600151,N,13701.42442495,E,4,4.0,5.1,97.889,M,36.771,M,1.7,0979*7B,37.23260002516667,137.02374041583332,679524.5818291893,4122594.721612938
2294,[2021-02-22 15:38:42.215] $GPGGA,63841.8,3713.95599432,N,13701.42443679,E,4,4.0,5.1,97.899,M,36.771,M,1.8,0979*78,37.23259990533333,137.02374061316667,679524.5996207341,4122594.708690977
2295,[2021-02-22 15:38:42.309] $GPGGA,63841.9,3713.95598353,N,13701.42444568,E,4,4.0,5.1,97.881,M,36.771,M,0.9,0979*75,37.232599725499995,137.02374076133336,679524.6131925809,4122594.6890183766
2296,[2021-02-22 15:38:42.403] $GPGGA,63842.0,3713.95598194,N,13701.4244425,E,4,4.0,5.1,97.87,M,36.771,M,1.0,0979*7C,37.232599699,137.02374070833332,679524.608553322,4122594.6859775027
2297,[2021-02-22 15:38:42.512] $GPGGA,63842.1,3713.95598727,N,13701.42444211,E,4,4.0,5.1,97.85700000000001,M,36.771,M,1.1,0979*72,37.232599787833344,137.0237407018333,679524.6077659115,4122594.695821796
2298,[2021-02-22 15:38:42.621] $GPGGA,63842.2,3713.95600136,N,13701.42443621,E,4,4.0,5.1,97.855,M,36.771,M,1.2,0979*74,37.23260002266666,137.0237406035,679524.5984847709,4122594.721691516
2299,[2021-02-22 15:38:42.715] $GPGGA,63842.3,3713.95599299,N,13701.42443495,E,4,4.0,5.1,97.869,M,36.771,M,1.3,0979*73,37.23259988316667,137.02374058250004,679524.5969525982,4122594.706173277
2300,[2021-02-22 15:38:42.825] $GPGGA,63842.4,3713.955998,N,13701.42443049,E,4,4.0,5.1,97.85600000000001,M,36.771,M,1.4,0979*70,37.23259996666667,137.02374050816664,679524.590159711,4122594.7152971323
2301,[2021-02-22 15:38:42.918] $GPGGA,63842.5,3713.95600892,N,13701.42442842,E,4,4.0,5.1,97.861,M,36.771,M,1.5,0979*7E,37.23260014866666,137.02374047366666,679524.5866671493,4122594.7354257433
2302,[2021-02-22 15:38:43.028] $GPGGA,63842.6,3713.95601979,N,13701.42441916,E,4,4.0,5.1,97.85600000000001,M,36.771,M,1.6,0979*7C,37.23260032983334,137.02374031933334,679524.5725450404,4122594.7552345884
2303,[2021-02-22 15:38:43.121] $GPGGA,63842.7,3713.95600301,N,13701.42442927,E,4,4.0,5.1,97.87100000000001,M,36.771,M,1.7,0979*7C,37.23260005016667,137.02374048783332,679524.5881576722,4122594.724523417
2304,[2021-02-22 15:38:43.215] $GPGGA,63842.8,3713.95600127,N,13701.42442713,E,4,4.0,5.1,97.845,M,36.771,M,1.8,0979*74,37.23260002116667,137.02374045216663,679524.5850621448,4122594.7212380306
2305,[2021-02-22 15:38:43.309] $GPGGA,63842.9,3713.95600695,N,13701.42442509,E,4,4.0,5.1,97.853,M,36.771,M,1.9,0979*74,37.232600115833336,137.02374041816665,679524.5818211195,4122594.731677404
2306,[2021-02-22 15:38:43.418] $GPGGA,63843.0,3713.95600034,N,13701.42443684,E,4,4.0,5.1,97.90799999999999,M,36.771,M,1.0,0979*70,37.23260000566667,137.023740614,679524.5994566493,4122594.719825176
2307,[2021-02-22 15:38:43.512] $GPGGA,63843.1,3713.95601642,N,13701.42443119,E,4,4.0,5.1,97.92299999999999,M,36.771,M,1.1,0979*7C,37.23260027366666,137.02374051983332,679524.5904664916,4122594.749382851
2308,[2021-02-22 15:38:43.621] $GPGGA,63843.2,3713.95600694,N,13701.42442336,E,4,4.0,5.1,97.905,M,36.771,M,1.2,0979*7C,37.23260011566666,137.02374038933334,679524.5792634431,4122594.73160422
2309,[2021-02-22 15:38:43.715] $GPGGA,63843.3,3713.95600437,N,13701.42442515,E,4,4.0,5.1,97.90299999999999,M,36.771,M,1.3,0979*76,37.232600072833336,137.02374041916667,679524.582011847,4122594.7269081795
2310,[2021-02-22 15:38:43.824] $GPGGA,63843.4,3713.95601242,N,13701.42443376,E,4,4.0,5.1,97.928,M,36.771,M,1.4,0979*78,37.232600207000004,137.02374056266666,679524.5944247838,4122594.7420670115
2311,[2021-02-22 15:38:43.918] $GPGGA,63843.5,3713.95600291,N,13701.42442481,E,4,4.0,5.1,97.90100000000001,M,36.771,M,1.5,0979*72,37.2326000485,137.0237404135,679524.5815668278,4122594.7241974934
2312,[2021-02-22 15:38:44.028] $GPGGA,63843.6,3713.95598619,N,13701.42444534,E,4,4.0,5.1,97.90700000000001,M,36.771,M,1.6,0979*7B,37.23259976983334,137.0237407556667,679524.6125846698,4122594.693926693
2313,[2021-02-22 15:38:44.121] $GPGGA,63843.7,3713.95600825,N,13701.42442843,E,4,4.0,5.1,97.916,M,36.771,M,1.7,0979*73,37.23260013750001,137.02374047383333,679524.5867084278,4122594.7341870475
2314,[2021-02-22 15:38:44.215] $GPGGA,63843.8,3713.95598229,N,13701.42444892,E,4,4.0,5.1,97.912,M,36.771,M,1.8,0979*79,37.232599704833326,137.02374081533333,679524.6180324466,4122594.686827708
2315,[2021-02-22 15:38:44.309] $GPGGA,63843.9,3713.95598669,N,13701.42444448,E,4,4.0,5.1,97.912,M,36.771,M,1.9,0979*72,37.232599778166666,137.02374074133334,679524.611293256,4122594.69482414
2316,[2021-02-22 15:38:44.418] $GPGGA,63844.0,3713.95597976,N,13701.42444534,E,4,4.0,5.1,97.90100000000001,M,36.771,M,2.0,0979*70,37.232599662666665,137.0237407556667,679524.6128388953,4122594.682035873
2317,[2021-02-22 15:38:44.512] $GPGGA,63844.1,3713.95598137,N,13701.42443608,E,4,4.0,5.1,97.859,M,36.771,M,1.1,0979*76,37.23259968949999,137.02374060133334,679524.5990829002,4122594.6847204575
2318,[2021-02-22 15:38:44.621] $GPGGA,63844.2,3713.95598381,N,13701.42442753,E,4,4.0,5.1,97.86399999999999,M,36.771,M,1.2,0979*79,37.23259973016666,137.02374045883334,679524.5863439321,4122594.6889623865
2319,[2021-02-22 15:38:44.715] $GPGGA,63844.3,3713.95597772,N,13701.4244351,E,4,4.0,5.1,97.866,M,36.771,M,1.3,0979*78,37.23259962866666,137.023740585,679524.5977781294,4122594.6779396334
2320,[2021-02-22 15:38:44.824] $GPGGA,63844.4,3713.95597772,N,13701.42443336,E,4,4.0,5.1,97.85799999999999,M,36.771,M,1.4,0979*77,37.23259962866666,137.023740556,679524.5952052714,4122594.677884626
2321,[2021-02-22 15:38:44.918] $GPGGA,63844.5,3713.95598127,N,13701.42443107,E,4,4.0,5.1,97.84700000000001,M,36.771,M,1.5,0979*70,37.232599687833336,137.02374051783335,679524.5916787938,4122594.6843771483
2322,[2021-02-22 15:38:45.027] $GPGGA,63844.6,3713.95599213,N,13701.424424,E,4,4.0,5.1,97.845,M,36.771,M,1.6,0979*74,37.23259986883333,137.0237404,679524.5807953327,4122594.7042367337
2323,[2021-02-22 15:38:45.121] $GPGGA,63844.7,3713.95599315,N,13701.42442536,E,4,4.0,5.1,97.855,M,36.771,M,1.7,0979*76,37.232599885833324,137.02374042266666,679524.5827659725,4122594.7061659843
2324,[2021-02-22 15:38:45.215] $GPGGA,63844.8,3713.9559953,N,13701.42442337,E,4,4.0,5.1,97.838,M,36.771,M,1.8,0979*7B,37.23259992166666,137.0237403895,679524.5797384465,4122594.710079009
2325,[2021-02-22 15:38:45.309] $GPGGA,63844.9,3713.95599525,N,13701.42442749,E,4,4.0,5.1,97.853,M,36.771,M,1.9,0979*7F,37.23259992083334,137.02374045816666,679524.5858324779,4122594.710116794
2326,[2021-02-22 15:38:45.418] $GPGGA,63845.0,3713.95599575,N,13701.42443219,E,4,4.0,5.1,97.87299999999999,M,36.771,M,1.0,0979*78,37.23259992916666,137.02374053650001,679524.5927623861,4122594.7111900137
2327,[2021-02-22 15:38:45.512] $GPGGA,63845.1,3713.95599231,N,13701.42443658,E,4,4.0,5.1,97.87899999999999,M,36.771,M,1.1,0979*74,37.23259987183334,137.02374060966667,679524.599389686,4122594.7049673027
2328,[2021-02-22 15:38:45.621] $GPGGA,63845.2,3713.95599893,N,13701.42443201,E,4,4.0,5.1,97.87,M,36.771,M,1.2,0979*77,37.232599982166676,137.02374053350002,679524.5923704993,4122594.7170650093
2329,[2021-02-22 15:38:45.715] $GPGGA,63845.3,3713.9559954,N,13701.4244382,E,4,4.0,5.1,97.868,M,36.771,M,1.3,0979*74,37.23259992333333,137.02374063666664,679524.6016629341,4122594.710732767
2330,[2021-02-22 15:38:45.824] $GPGGA,63845.4,3713.95599301,N,13701.42444034,E,4,4.0,5.1,97.869,M,36.771,M,1.4,0979*7C,37.2325998835,137.02374067233333,679524.6049217508,4122594.7063806606
2331,[2021-02-22 15:38:45.918] $GPGGA,63845.5,3713.95599886,N,13701.42443118,E,4,4.0,5.1,97.867,M,36.771,M,1.5,0979*7E,37.232599981,137.02374051966663,679524.5911459798,4122594.7169093206
2332,[2021-02-22 15:38:46.027] $GPGGA,63845.6,3713.95599308,N,13701.42443567,E,4,4.0,5.1,97.876,M,36.771,M,1.6,0979*7F,37.232599884666676,137.0237405945,679524.5980136667,4122594.7063624742
2333,[2021-02-22 15:38:46.121] $GPGGA,63845.7,3713.95599865,N,13701.42443198,E,4,4.0,5.1,97.87100000000001,M,36.771,M,1.7,0979*7C,37.232599977499994,137.02374053300002,679524.5923372116,4122594.716546263
2334,[2021-02-22 15:38:46.215] $GPGGA,63845.8,3713.95599555,N,13701.42443185,E,4,4.0,5.1,97.875,M,36.771,M,1.8,0979*7A,37.23259992583333,137.02374053083335,679524.5922675522,4122594.71080941
2335,[2021-02-22 15:38:46.309] $GPGGA,63845.9,3713.95600031,N,13701.42443135,E,4,4.0,5.1,97.874,M,36.771,M,1.9,0979*74,37.23260000516667,137.0237405225,679524.5913400247,4122594.7195961387
2336,[2021-02-22 15:38:46.418] $GPGGA,63846.0,3713.9559884,N,13701.42443396,E,4,4.0,5.1,97.87700000000001,M,36.771,M,1.0,0979*73,37.23259980666667,137.023740566,679524.5956702019,4122594.697653821
2337,[2021-02-22 15:38:46.512] $GPGGA,63846.1,3713.95599471,N,13701.42442808,E,4,4.0,5.1,97.869,M,36.771,M,1.1,0979*7E,37.23259991183334,137.023740468,679524.5867262343,4122594.7091368395
2338,[2021-02-22 15:38:46.621] $GPGGA,63846.2,3713.95598727,N,13701.42443395,E,4,4.0,5.1,97.87700000000001,M,36.771,M,1.2,0979*7E,37.232599787833344,137.02374056583335,679524.5957000954,4122594.6955638295
2339,[2021-02-22 15:38:46.715] $GPGGA,63846.3,3713.95599854,N,13701.42442777,E,4,4.0,5.1,97.87799999999999,M,36.771,M,1.3,0979*72,37.232599975666666,137.0237404628333,679524.5861164206,4122594.7162097506
2340,[2021-02-22 15:38:46.824] $GPGGA,63846.4,3713.95599683,N,13701.42443039,E,4,4.0,5.1,97.87200000000001,M,36.771,M,1.4,0979*70,37.23259994716666,137.0237405065,679524.5900581069,4122594.713130323
2341,[2021-02-22 15:38:46.918] $GPGGA,63846.5,3713.95599426,N,13701.42443099,E,4,4.0,5.1,97.868,M,36.771,M,1.5,0979*7C,37.232599904333334,137.0237405165,679524.5910469102,4122594.7083966634
2342,[2021-02-22 15:38:47.027] $GPGGA,63846.6,3713.95599923,N,13701.42442399,E,4,4.0,5.1,97.867,M,36.771,M,1.6,0979*79,37.232599987166665,137.02374039983331,679524.5804998266,4122594.7173662493
2343,[2021-02-22 15:38:47.121] $GPGGA,63846.7,3713.95600214,N,13701.42442496,E,4,4.0,5.1,97.874,M,36.771,M,1.7,0979*7F,37.23260003566667,137.02374041599998,679524.5818190691,4122594.7227782966
2344,[2021-02-22 15:38:47.215] $GPGGA,63846.8,3713.95599311,N,13701.42442996,E,4,4.0,5.1,97.859,M,36.771,M,1.8,0979*7A,37.23259988516666,137.02374049933331,679524.5895693634,4122594.706237437
2345,[2021-02-22 15:38:47.309] $GPGGA,63846.9,3713.9560024,N,13701.42442636,E,4,4.0,5.1,97.87899999999999,M,36.771,M,1.9,0979*7B,37.23260004000001,137.02374043933335,679524.5838789081,4122594.723303367
2346,[2021-02-22 15:38:47.418] $GPGGA,63847.0,3713.95599664,N,13701.42443662,E,4,4.0,5.1,97.87,M,36.771,M,1.0,0979*72,37.232599944,137.0237406103333,679524.5992776332,4122594.712975914
2347,[2021-02-22 15:38:47.512] $GPGGA,63847.1,3713.95600773,N,13701.4244254,E,4,4.0,5.1,97.874,M,36.771,M,1.1,0979*70,37.232600128833326,137.02374042333335,679524.582248666,4122594.733129636
2348,[2021-02-22 15:38:47.621] $GPGGA,63847.2,3713.95600498,N,13701.42442925,E,4,4.0,5.1,97.87799999999999,M,36.771,M,1.2,0979*75,37.23260008300001,137.0237404875,679524.5880502092,4122594.728165852
2349,[2021-02-22 15:38:47.715] $GPGGA,63847.3,3713.95600252,N,13701.42442953,E,4,4.0,5.1,97.869,M,36.771,M,1.3,0979*74,37.232600041999994,137.02374049216664,679524.588561494,4122594.723625492
2350,[2021-02-22 15:38:47.824] $GPGGA,63847.4,3713.95601386,N,13701.42442828,E,4,4.0,5.1,97.87899999999999,M,36.771,M,1.4,0979*71,37.23260023099999,137.0237404713333,679524.586264821,4122594.7445567194
2351,[2021-02-22 15:38:47.918] $GPGGA,63847.5,3713.95600214,N,13701.42443479,E,4,4.0,5.1,97.87299999999999,M,36.771,M,1.5,0979*79,37.23260003566667,137.02374057983332,679524.5963542408,4122594.723089058
2352,[2021-02-22 15:38:48.027] $GPGGA,63847.6,3713.95598269,N,13701.4244537,E,4,4.0,5.1,97.87899999999999,M,36.771,M,1.6,0979*73,37.232599711499994,137.023740895,679524.6250845991,4122594.68771853
2353,[2021-02-22 15:38:48.121] $GPGGA,63847.7,3713.95600627,N,13701.42443711,E,4,4.0,5.1,97.874,M,36.771,M,1.7,0979*77,37.2326001045,137.0237406185,679524.5996214317,4122594.7307998943
2354,[2021-02-22 15:38:48.230] $GPGGA,63847.8,3713.95600726,N,13701.42443564,E,4,4.0,5.1,97.883,M,36.771,M,1.8,0979*7F,37.23260012100001,137.02374059399997,679524.597408664,4122594.7325842027
2355,[2021-02-22 15:38:48.309] $GPGGA,63847.9,3713.95599957,N,13701.42444004,E,4,4.0,5.1,97.875,M,36.771,M,1.9,0979*79,37.23259999283334,137.02374066733333,679524.6042187883,4122594.7185024014
2356,[2021-02-22 15:38:48.418] $GPGGA,63848.0,3713.95601105,N,13701.42443688,E,4,4.0,5.1,97.88,M,36.771,M,1.0,0979*74,37.232600184166664,137.02374061466662,679524.599092348,4122594.7396321436
2357,[2021-02-22 15:38:48.512] $GPGGA,63848.1,3713.95600721,N,13701.42443733,E,4,4.0,5.1,97.87299999999999,M,36.771,M,1.1,0979*78,37.23260012016666,137.02374062216668,679524.5999095708,4122594.732545165
2358,[2021-02-22 15:38:48.621] $GPGGA,63848.2,3713.95599786,N,13701.42444347,E,4,4.0,5.1,97.882,M,36.771,M,1.2,0979*78,37.23259996433333,137.02374072450002,679524.6093581829,4122594.7154485793
2359,[2021-02-22 15:38:48.715] $GPGGA,63848.3,3713.95601181,N,13701.42443718,E,4,4.0,5.1,97.883,M,36.771,M,1.3,0979*73,37.23260019683333,137.02374061966668,679524.5995059013,4122594.7410470746
2360,[2021-02-22 15:38:48.824] $GPGGA,63848.4,3713.95600906,N,13701.42443641,E,4,4.0,5.1,97.88799999999999,M,36.771,M,1.4,0979*73,37.232600151,137.02374060683331,679524.5984760629,4122594.735937234
2361,[2021-02-22 15:38:48.918] $GPGGA,63848.5,3713.95599893,N,13701.42444015,E,4,4.0,5.1,97.874,M,36.771,M,1.5,0979*7E,37.232599982166676,137.02374066916667,679524.6044067455,4122594.717322344
2362,[2021-02-22 15:38:49.027] $GPGGA,63848.6,3713.95601409,N,13701.42443804,E,4,4.0,5.1,97.891,M,36.771,M,1.6,0979*77,37.23260023483333,137.02374063399998,679524.6006873945,4122594.7452906026
2363,[2021-02-22 15:38:49.121] $GPGGA,63848.7,3713.95599947,N,13701.42444132,E,4,4.0,5.1,97.87899999999999,M,36.771,M,1.7,0979*7F,37.232599991166666,137.02374068866666,679524.6061154192,4122594.718357938
2364,[2021-02-22 15:38:49.215] $GPGGA,63848.8,3713.95599996,N,13701.42444236,E,4,4.0,5.1,97.88,M,36.771,M,1.8,0979*72,37.23259999933334,137.02374070599998,679524.6076338468,4122594.7192969606
2365,[2021-02-22 15:38:49.308] $GPGGA,63848.9,3713.95599187,N,13701.42444389,E,4,4.0,5.1,97.884,M,36.771,M,1.9,0979*7B,37.2325998645,137.0237407315,679524.6102160462,4122594.7043847186
2366,[2021-02-22 15:38:49.418] $GPGGA,63849.0,3713.95600251,N,13701.42443403,E,4,4.0,5.1,97.87299999999999,M,36.771,M,2.0,0979*78,37.23260004183333,137.02374056716667,679524.5952158363,4122594.723749261
2367,[2021-02-22 15:38:49.512] $GPGGA,63849.1,3713.95599465,N,13701.42444268,E,4,4.0,5.1,97.884,M,36.771,M,2.1,0979*7E,37.232599910833336,137.02374071133332,679524.6083169596,4122594.7094874415
2368,[2021-02-22 15:38:49.621] $GPGGA,63849.2,3713.95599187,N,13701.42443072,E,4,4.0,5.1,97.88600000000001,M,36.771,M,1.2,0979*78,37.2325998645,137.02374051200002,679524.59074217,4122594.703968367
2369,[2021-02-22 15:38:49.715] $GPGGA,63849.3,3713.95598117,N,13701.4244372,E,4,4.0,5.1,97.88600000000001,M,36.771,M,1.3,0979*70,37.23259968616667,137.02374062,679524.600746899,4122594.6843860135
2370,[2021-02-22 15:38:49.824] $GPGGA,63849.4,3713.95598132,N,13701.42443624,E,4,4.0,5.1,97.88,M,36.771,M,1.4,0979*74,37.23259968866667,137.023740604,679524.5993214605,4122594.6846330543
2371,[2021-02-22 15:38:49.918] $GPGGA,63849.5,3713.95599306,N,13701.42442282,E,4,4.0,5.1,97.87899999999999,M,36.771,M,1.5,0979*7F,37.23259988433333,137.02374038033332,679524.5790137484,4122594.7059192536
2372,[2021-02-22 15:38:50.027] $GPGGA,63849.6,3713.95599605,N,13701.42442254,E,4,4.0,5.1,97.895,M,36.771,M,1.6,0979*70,37.23259993416667,137.02374037566668,679524.5784815088,4122594.711439725
2373,[2021-02-22 15:38:50.121] $GPGGA,63849.7,3713.95598796,N,13701.42442934,E,4,4.0,5.1,97.88799999999999,M,36.771,M,1.7,0979*7B,37.232599799333336,137.023740489,679524.5888562168,4122594.696694086
2374,[2021-02-22 15:38:50.215] $GPGGA,63849.8,3713.95598155,N,13701.42443252,E,4,4.0,5.1,97.88600000000001,M,36.771,M,1.8,0979*76,37.2325996925,137.02374054199998,679524.5938117701,4122594.684940785
2375,[2021-02-22 15:38:50.324] $GPGGA,63849.9,3713.95598863,N,13701.42443001,E,4,4.0,5.1,97.88600000000001,M,36.771,M,1.9,0979*7E,37.2325998105,137.02374050016664,679524.5898204212,4122594.6979542794
2376,[2021-02-22 15:38:50.418] $GPGGA,63850.0,3713.95598859,N,13701.42443556,E,4,4.0,5.1,97.884,M,36.771,M,2.0,0979*79,37.23259980983333,137.02374059266666,679524.5980285364,4122594.6980557637
2377,[2021-02-22 15:38:50.511] $GPGGA,63850.1,3713.95599325,N,13701.42443864,E,4,4.0,5.1,97.87700000000001,M,36.771,M,1.1,0979*7B,37.2325998875,137.02374064400001,679524.6023985504,4122594.706770741
2378,[2021-02-22 15:38:50.621] $GPGGA,63850.2,3713.95600107,N,13701.42443297,E,4,4.0,5.1,97.865,M,36.771,M,1.2,0979*7F,37.232600017833335,137.02374054950002,679524.5937053972,4122594.7210527994
2379,[2021-02-22 15:38:50.715] $GPGGA,63850.3,3713.95600013,N,13701.42443386,E,4,4.0,5.1,97.87,M,36.771,M,1.3,0979*7E,37.23260000216666,137.02374056433334,679524.5950585634,4122594.719342619
2380,[2021-02-22 15:38:50.824] $GPGGA,63850.4,3713.95600165,N,13701.42443064,E,4,4.0,5.1,97.86399999999999,M,36.771,M,1.4,0979*74,37.2326000275,137.02374051066667,679524.5902372014,4122594.7220517183
2381,[2021-02-22 15:38:50.918] $GPGGA,63850.5,3713.95600489,N,13701.42442593,E,4,4.0,5.1,97.866,M,36.771,M,1.5,0979*7D,37.23260008149999,137.02374043216668,679524.5831446375,4122594.727894458
2382,[2021-02-22 15:38:51.027] $GPGGA,63850.6,3713.95599438,N,13701.42443203,E,4,4.0,5.1,97.865,M,36.771,M,1.6,0979*78,37.232599906333334,137.02374053383335,679524.5925799687,4122594.7086514537
2383,[2021-02-22 15:38:51.121] $GPGGA,63850.7,3713.95599114,N,13701.42443373,E,4,4.0,5.1,97.87,M,36.771,M,1.7,0979*71,37.23259985233333,137.02374056216667,679524.5952217791,4122594.702713554
2384,[2021-02-22 15:38:51.215] $GPGGA,63850.8,3713.95599256,N,13701.42443707,E,4,4.0,5.1,97.86200000000001,M,36.771,M,1.8,0979*70,37.23259987600001,137.02374061783334,679524.6001043428,4122594.7054451113
2385,[2021-02-22 15:38:51.308] $GPGGA,63850.9,3713.95599732,N,13701.42443236,E,4,4.0,5.1,97.874,M,36.771,M,1.9,0979*77,37.232599955333335,137.02374053933332,679524.5929516819,4122594.7140987446
2386,[2021-02-22 15:38:51.418] $GPGGA,63851.0,3713.95598318,N,13701.42443367,E,4,4.0,5.1,97.876,M,36.771,M,1.0,0979*7C,37.232599719666666,137.02374056116665,679524.595447776,4122594.6879914543
2387,[2021-02-22 15:38:51.511] $GPGGA,63851.1,3713.95598461,N,13701.42443437,E,4,4.0,5.1,97.887,M,36.771,M,1.1,0979*79,37.232599743499996,137.02374057283333,679524.596426297,4122594.69065804
2388,[2021-02-22 15:38:51.621] $GPGGA,63851.2,3713.95598528,N,13701.42443487,E,4,4.0,5.1,97.882,M,36.771,M,1.2,0979*7B,37.232599754666666,137.02374058116666,679524.5971391341,4122594.6919128606
2389,[2021-02-22 15:38:51.715] $GPGGA,63851.3,3713.95598288,N,13701.42443033,E,4,4.0,5.1,97.875,M,36.771,M,1.3,0979*75,37.23259971466667,137.02374050549997,679524.5905209304,4122594.6873310828
2390,[2021-02-22 15:38:51.824] $GPGGA,63851.4,3713.95598258,N,13701.42443743,E,4,4.0,5.1,97.87700000000001,M,36.771,M,1.4,0979*7A,37.232599709666665,137.02374062383333,679524.6010312417,4122594.6870007575
2391,[2021-02-22 15:38:51.918] $GPGGA,63851.5,3713.95598044,N,13701.42443904,E,4,4.0,5.1,97.884,M,36.771,M,1.5,0979*74,37.232599674,137.02374065066667,679524.6034964842,4122594.6830942133
2392,[2021-02-22 15:38:52.027] $GPGGA,63851.6,3713.95598313,N,13701.42443292,E,4,4.0,5.1,97.885,M,36.771,M,1.6,0979*70,37.23259971883333,137.02374054866664,679524.594340761,4122594.6878752783
2393,[2021-02-22 15:38:52.121] $GPGGA,63851.7,3713.95598568,N,13701.42443276,E,4,4.0,5.1,97.887,M,36.771,M,1.7,0979*72,37.23259976133333,137.02374054600003,679524.5940033615,4122594.692585864
2394,[2021-02-22 15:38:52.230] $GPGGA,63851.8,3713.95598934,N,13701.4244329,E,4,4.0,5.1,97.89200000000001,M,36.771,M,1.8,0979*7B,37.23259982233333,137.02374054833334,679524.5940656639,4122594.6993586253
2395,[2021-02-22 15:38:52.308] $GPGGA,63851.9,3713.9559907,N,13701.42442322,E,4,4.0,5.1,97.88799999999999,M,36.771,M,1.9,0979*71,37.232599844999996,137.02374038699998,679524.5796985165,4122594.701567616
2396,[2021-02-22 15:38:52.418] $GPGGA,63852.0,3713.95598914,N,13701.42442932,E,4,4.0,5.1,97.884,M,36.771,M,2.0,0979*7C,37.232599818999994,137.0237404886667,679524.5887799928,4122594.6988755944
2397,[2021-02-22 15:38:52.511] $GPGGA,63852.1,3713.95599121,N,13701.42443125,E,4,4.0,5.1,97.90299999999999,M,36.771,M,1.1,0979*71,37.2325998535,137.02374052083331,679524.5915519478,4122594.702764603
2398,[2021-02-22 15:38:52.621] $GPGGA,63852.2,3713.95599537,N,13701.42443616,E,4,4.0,5.1,97.89399999999999,M,36.771,M,1.2,0979*7A,37.23259992283334,137.02374060266666,679524.5986476672,4122594.7106127962
2399,[2021-02-22 15:38:52.714] $GPGGA,63852.3,3713.95599146,N,13701.42442999,E,4,4.0,5.1,97.896,M,36.771,M,1.3,0979*73,37.23259985766666,137.02374049983337,679524.5896789627,4122594.7031870876
2400,[2021-02-22 15:38:52.824] $GPGGA,63852.4,3713.95599766,N,13701.42443066,E,4,4.0,5.1,97.89299999999999,M,36.771,M,1.4,0979*7A,37.232599961,137.023740511,679524.5904245276,4122594.7146737548
2401,[2021-02-22 15:38:52.918] $GPGGA,63852.5,3713.95599786,N,13701.42443078,E,4,4.0,5.1,97.891,M,36.771,M,1.5,0979*79,37.23259996433333,137.023740513,679524.5905940596,4122594.715047402
2402,[2021-02-22 15:38:53.027] $GPGGA,63852.6,3713.95598976,N,13701.42443375,E,4,4.0,5.1,97.90100000000001,M,36.771,M,1.6,0979*7F,37.23259982933334,137.0237405625,679524.5953059151,4122594.700162192
2403,[2021-02-22 15:38:53.121] $GPGGA,63852.7,3713.9559931,N,13701.42442984,E,4,4.0,5.1,97.89200000000001,M,36.771,M,1.7,0979*7A,37.232599885,137.02374049733334,679524.5893923216,4122594.7062151507
2404,[2021-02-22 15:38:53.214] $GPGGA,63852.8,3713.95599387,N,13701.42443464,E,4,4.0,5.1,97.899,M,36.771,M,1.8,0979*7D,37.232599897833325,137.02374057733334,679524.5964594197,4122594.7077908353
2405,[2021-02-22 15:38:53.308] $GPGGA,63852.9,3713.95598964,N,13701.42443365,E,4,4.0,5.1,97.906,M,36.771,M,1.9,0979*7A,37.23259982733334,137.02374056083332,679524.5951627924,4122594.6999371196
2406,[2021-02-22 15:38:53.417] $GPGGA,63853.0,3713.95598546,N,13701.42442486,E,4,4.0,5.1,97.86399999999999,M,36.771,M,1.0,0979*79,37.23259975766667,137.02374041433333,679524.5823306877,4122594.691929277
2407,[2021-02-22 15:38:53.511] $GPGGA,63853.1,3713.95598978,N,13701.42442404,E,4,4.0,5.1,97.85600000000001,M,36.771,M,1.1,0979*73,37.23259982966666,137.02374040066664,679524.5809473875,4122594.699892209
2408,[2021-02-22 15:38:53.621] $GPGGA,63853.2,3713.95598185,N,13701.42442788,E,4,4.0,5.1,97.869,M,36.771,M,1.2,0979*72,37.23259969750001,137.02374046466664,679524.5869389528,4122594.6853488795
2409,[2021-02-22 15:38:53.714] $GPGGA,63853.3,3713.95598409,N,13701.4244315,E,4,4.0,5.1,97.85700000000001,M,36.771,M,1.3,0979*7C,37.23259973483333,137.02374052499997,679524.5922031164,4122594.6896056887
2410,[2021-02-22 15:38:53.824] $GPGGA,63853.4,3713.95597922,N,13701.42443296,E,4,4.0,5.1,97.861,M,36.771,M,1.4,0979*7B,37.23259965366666,137.02374054933335,679524.5945545031,4122594.6806458905
2411,[2021-02-22 15:38:53.918] $GPGGA,63853.5,3713.95598231,N,13701.424432,E,4,4.0,5.1,97.86,M,36.771,M,1.5,0979*73,37.23259970516667,137.02374053333332,679524.5930128223,4122594.6863297923
2412,[2021-02-22 15:38:54.027] $GPGGA,63853.6,3713.95599293,N,13701.42442414,E,4,4.0,5.1,97.852,M,36.771,M,1.6,0979*79,37.23259988216667,137.0237404023333,679524.5809707097,4122594.7057205783
2413,[2021-02-22 15:38:54.121] $GPGGA,63853.7,3713.95597343,N,13701.42443794,E,4,4.0,5.1,97.861,M,36.771,M,1.7,0979*71,37.232599557166665,137.02374063233333,679524.602147122,4122594.6700960402
2414,[2021-02-22 15:38:54.230] $GPGGA,63853.8,3713.95597794,N,13701.42443448,E,4,4.0,5.1,97.867,M,36.771,M,1.8,0979*7B,37.23259963233334,137.02374057466668,679524.5968526646,4122594.6783268754
2415,[2021-02-22 15:38:54.324] $GPGGA,63853.9,3713.95597551,N,13701.42443628,E,4,4.0,5.1,97.85799999999999,M,36.771,M,1.9,0979*78,37.232599591833335,137.0237406046667,679524.5996103215,4122594.6738900486
2416,[2021-02-22 15:38:54.417] $GPGGA,63854.0,3713.95598764,N,13701.42443582,E,4,4.0,5.1,97.897,M,36.771,M,1.0,0979*74,37.232599794,137.02374059699997,679524.5984505455,4122594.6963071753
2417,[2021-02-22 15:38:54.511] $GPGGA,63854.1,3713.95598325,N,13701.42443561,E,4,4.0,5.1,97.89299999999999,M,36.771,M,1.1,0979*7C,37.23259972083333,137.02374059349998,679524.5983135985,4122594.6881822315
2418,[2021-02-22 15:38:54.621] $GPGGA,63854.2,3713.95598126,N,13701.42443532,E,4,4.0,5.1,97.90100000000001,M,36.771,M,1.2,0979*71,37.232599687666664,137.02374058866664,679524.5979634668,4122594.6844930123
2419,[2021-02-22 15:38:54.714] $GPGGA,63854.3,3713.95599024,N,13701.42443062,E,4,4.0,5.1,97.87799999999999,M,36.771,M,1.3,0979*7C,37.23259983733334,137.02374051033334,679524.5906587486,4122594.700950892
2420,[2021-02-22 15:38:54.824] $GPGGA,63854.4,3713.95598763,N,13701.42443139,E,4,4.0,5.1,97.889,M,36.771,M,1.4,0979*78,37.23259979383333,137.02374052316668,679524.5919005052,4122594.696148634
2421,[2021-02-22 15:38:54.917] $GPGGA,63854.5,3713.95598834,N,13701.42443036,E,4,4.0,5.1,97.887,M,36.771,M,1.5,0979*75,37.23259980566667,137.02374050600002,679524.5903494211,4122594.6974290567
2422,[2021-02-22 15:38:55.027] $GPGGA,63854.6,3713.95598446,N,13701.42443573,E,4,4.0,5.1,97.889,M,36.771,M,1.6,0979*76,37.232599741,137.0237405955,679524.5984431977,4122594.690423646
2423,[2021-02-22 15:38:55.120] $GPGGA,63854.7,3713.95598365,N,13701.42443249,E,4,4.0,5.1,97.896,M,36.771,M,1.7,0979*70,37.232599727499995,137.02374054150002,679524.5936843856,4122594.688823307
2424,[2021-02-22 15:38:55.230] $GPGGA,63854.8,3713.95598215,N,13701.42443733,E,4,4.0,5.1,97.896,M,36.771,M,1.8,0979*7E,37.2325997025,137.02374062216668,679524.6009003777,4122594.6862024087
2425,[2021-02-22 15:38:55.308] $GPGGA,63854.9,3713.95597894,N,13701.42443961,E,4,4.0,5.1,97.882,M,36.771,M,1.9,0979*7E,37.23259964900001,137.02374066016665,679524.6043986222,4122594.6803383254
2426,[2021-02-22 15:38:55.417] $GPGGA,63855.0,3713.95598472,N,13701.42443474,E,4,4.0,5.1,97.902,M,36.771,M,1.0,0979*74,37.23259974533333,137.023740579,679524.5969690497,4122594.690873158
2427,[2021-02-22 15:38:55.511] $GPGGA,63855.1,3713.95597794,N,13701.42444548,E,4,4.0,5.1,97.925,M,36.771,M,1.1,0979*7C,37.23259963233334,137.02374075799997,679524.6131178603,4122594.6786746248
2428,[2021-02-22 15:38:55.621] $GPGGA,63855.2,3713.95597683,N,13701.42444548,E,4,4.0,5.1,97.92399999999999,M,36.771,M,1.2,0979*7A,37.23259961383334,137.02374075799997,679524.6131617468,4122594.676621933
2429,[2021-02-22 15:38:55.714] $GPGGA,63855.3,3713.95597679,N,13701.42444524,E,4,4.0,5.1,97.90899999999999,M,36.771,M,1.3,0979*7A,37.23259961316667,137.023740754,679524.6128084519,4122594.6765403748
2430,[2021-02-22 15:38:55.824] $GPGGA,63855.4,3713.95599394,N,13701.42444135,E,4,4.0,5.1,97.915,M,36.771,M,1.4,0979*7B,37.232599899,137.02374068916666,679524.6063784214,4122594.7081324123
2431,[2021-02-22 15:38:55.917] $GPGGA,63855.5,3713.95598285,N,13701.42444183,E,4,4.0,5.1,97.913,M,36.771,M,1.5,0979*70,37.23259971416666,137.02374069716666,679524.6075266439,4122594.6876391587
2432,[2021-02-22 15:38:56.027] $GPGGA,63855.6,3713.95598176,N,13701.42444529,E,4,4.0,5.1,97.919,M,36.771,M,1.6,0979*71,37.232599696,137.02374075483337,679524.612685888,4122594.6857328364
2433,[2021-02-22 15:38:56.120] $GPGGA,63855.7,3713.95598523,N,13701.42444388,E,4,4.0,5.1,97.916,M,36.771,M,1.7,0979*77,37.23259975383333,137.02374073133333,679524.6104637885,4122594.692105235
2434,[2021-02-22 15:38:56.230] $GPGGA,63855.8,3713.95597678,N,13701.42444968,E,4,4.0,5.1,97.916,M,36.771,M,1.8,0979*71,37.232599613000005,137.02374082799997,679524.619374071,4122594.676662246
2435,[2021-02-22 15:38:56.308] $GPGGA,63855.9,3713.95598805,N,13701.42443807,E,4,4.0,5.1,97.84899999999999,M,36.771,M,0.9,0979*7F,37.232599800833334,137.0237406345,679524.6017613108,4122594.6971365083
2436,[2021-02-22 15:38:56.417] $GPGGA,63856.0,3713.95599588,N,13701.42444071,E,4,4.0,5.1,97.845,M,36.771,M,1.0,0979*76,37.23259993133333,137.0237406785,679524.6053553803,4122594.711699767
2437,[2021-02-22 15:38:56.511] $GPGGA,63856.1,3713.95599809,N,13701.42443959,E,4,4.0,5.1,97.846,M,36.771,M,1.1,0979*75,37.23259996816666,137.02374065983332,679524.603611909,4122594.7157512517
2438,[2021-02-22 15:38:56.620] $GPGGA,63856.2,3713.95599135,N,13701.42443994,E,4,4.0,5.1,97.859,M,36.771,M,1.2,0979*7C,37.232599855833335,137.02374066566665,679524.6043959185,4122594.7032982227
2439,[2021-02-22 15:38:56.714] $GPGGA,63856.3,3713.95599182,N,13701.42443867,E,4,4.0,5.1,97.845,M,36.771,M,1.3,0979*70,37.232599863666664,137.0237406445,679524.6024994493,4122594.7041272307
2440,[2021-02-22 15:38:56.823] $GPGGA,63856.4,3713.95599534,N,13701.4244327,E,4,4.0,5.1,97.845,M,36.771,M,1.4,0979*75,37.23259992233333,137.023740545,679524.5935327096,4122594.7104479345
2441,[2021-02-22 15:38:56.917] $GPGGA,63856.5,3713.9559941,N,13701.42444189,E,4,4.0,5.1,97.852,M,36.771,M,1.5,0979*76,37.23259990166667,137.02374069816668,679524.6071705691,4122594.7084453674
2442,[2021-02-22 15:38:57.027] $GPGGA,63856.6,3713.9559983,N,13701.42443183,E,4,4.0,5.1,97.84,M,36.771,M,1.6,0979*76,37.232599971666666,137.0237405305,679524.5921292476,4122594.7158942767
2443,[2021-02-22 15:38:57.120] $GPGGA,63856.7,3713.95598552,N,13701.42444087,E,4,4.0,5.1,97.85,M,36.771,M,1.7,0979*7D,37.232599758666666,137.02374068116666,679524.6060015713,4122594.6925463676
2444,[2021-02-22 15:38:57.230] $GPGGA,63856.8,3713.95598843,N,13701.42444336,E,4,4.0,5.1,97.85,M,36.771,M,1.8,0979*79,37.232599807166665,137.02374072266667,679524.6095683695,4122594.698006467
2445,[2021-02-22 15:38:57.308] $GPGGA,63856.9,3713.95599576,N,13701.42444086,E,4,4.0,5.1,97.86,M,36.771,M,0.9,0979*79,37.23259992933333,137.02374068100002,679524.6055819246,4122594.711482597
2446,[2021-02-22 15:38:57.417] $GPGGA,63857.0,3713.95598942,N,13701.4244399,E,4,4.0,5.1,97.867,M,36.771,M,1.0,0979*7D,37.232599823666675,137.02374066500002,679524.6044130836,4122594.6997278635
2447,[2021-02-22 15:38:57.511] $GPGGA,63857.1,3713.95597935,N,13701.42444429,E,4,4.0,5.1,97.87,M,36.771,M,1.1,0979*7C,37.23259965583333,137.02374073816668,679524.6113025165,4122594.6812444776
2448,[2021-02-22 15:38:57.620] $GPGGA,63857.2,3713.95598564,N,13701.42444157,E,4,4.0,5.1,97.845,M,36.771,M,1.2,0979*71,37.232599760666666,137.02374069283334,679524.6070318861,4122594.692790409
2449,[2021-02-22 15:38:57.714] $GPGGA,63857.3,3713.95599029,N,13701.42442916,E,4,4.0,5.1,97.84299999999999,M,36.771,M,1.3,0979*71,37.23259983816667,137.02374048599998,679524.5884979344,4122594.7009971994
2450,[2021-02-22 15:38:57.823] $GPGGA,63857.4,3713.95599246,N,13701.42443485,E,4,4.0,5.1,97.86399999999999,M,36.771,M,1.4,0979*79,37.23259987433333,137.02374058083333,679524.5968256835,4122594.7051900006
2451,[2021-02-22 15:38:57.917] $GPGGA,63857.5,3713.95599192,N,13701.42442882,E,4,4.0,5.1,97.84200000000001,M,36.771,M,1.5,0979*7D,37.23259986533334,137.02374048033337,679524.5879307516,4122594.704000765
2452,[2021-02-22 15:38:58.027] $GPGGA,63857.6,3713.95598435,N,13701.42443897,E,4,4.0,5.1,97.84700000000001,M,36.771,M,1.6,0979*74,37.23259973916667,137.02374064949998,679524.6032383862,4122594.690322654
2453,[2021-02-22 15:38:58.120] $GPGGA,63857.7,3713.95598491,N,13701.42443068,E,4,4.0,5.1,97.84,M,36.771,M,1.7,0979*75,37.23259974850001,137.0237405113333,679524.5909581992,4122594.6910961694
2454,[2021-02-22 15:38:58.230] $GPGGA,63857.8,3713.95598158,N,13701.42443886,E,4,4.0,5.1,97.869,M,36.771,M,1.8,0979*76,37.232599693,137.02374064766664,679524.6031852515,4122594.685196692
2455,[2021-02-22 15:38:58.308] $GPGGA,63857.9,3713.95598521,N,13701.42442799,E,4,4.0,5.1,97.85799999999999,M,36.771,M,1.9,0979*7E,37.2325997535,137.0237404665,679524.5869687605,4122594.69156591
2456,[2021-02-22 15:38:58.417] $GPGGA,63858.0,3713.95598722,N,13701.42443442,E,4,4.0,5.1,97.899,M,36.771,M,1.0,0979*79,37.232599787000005,137.02374057366666,679524.5963970368,4122594.6954862224
2457,[2021-02-22 15:38:58.511] $GPGGA,63858.1,3713.95599641,N,13701.42443399,E,4,4.0,5.1,97.919,M,36.771,M,1.1,0979*74,37.23259994016667,137.02374056649998,679524.5953978656,4122594.7124674385
2458,[2021-02-22 15:38:58.620] $GPGGA,63858.2,3713.95598854,N,13701.42443462,E,4,4.0,5.1,97.90799999999999,M,36.771,M,1.2,0979*7C,37.23259980899999,137.023740577,679524.5966405796,4122594.6979335835
2459,[2021-02-22 15:38:58.714] $GPGGA,63858.3,3713.95599071,N,13701.42443156,E,4,4.0,5.1,97.906,M,36.771,M,1.3,0979*7E,37.23259984516667,137.02374052599998,679524.5920300997,4122594.701849767
2460,[2021-02-22 15:38:58.823] $GPGGA,63858.4,3713.95599203,N,13701.42443544,E,4,4.0,5.1,97.90700000000001,M,36.771,M,1.4,0979*7F,37.23259986716667,137.02374059066668,679524.5977150907,4122594.704413467
2461,[2021-02-22 15:38:58.917] $GPGGA,63858.5,3713.95599283,N,13701.42443293,E,4,4.0,5.1,97.90799999999999,M,36.771,M,1.5,0979*75,37.232599880500004,137.02374054883333,679524.5939720388,4122594.705813533
2462,[2021-02-22 15:38:59.026] $GPGGA,63858.6,3713.95599929,N,13701.42442779,E,4,4.0,5.1,97.90100000000001,M,36.771,M,1.6,0979*77,37.23259998816666,137.02374046316666,679524.5861163419,4122594.7175973365
2463,[2021-02-22 15:38:59.120] $GPGGA,63858.7,3713.95599897,N,13701.42442997,E,4,4.0,5.1,97.90899999999999,M,36.771,M,1.7,0979*75,37.23259998283334,137.0237404995,679524.5893524627,4122594.7170744888
2464,[2021-02-22 15:38:59.230] $GPGGA,63858.8,3713.95599589,N,13701.42443252,E,4,4.0,5.1,97.912,M,36.771,M,1.8,0979*7E,37.232599931500005,137.02374054199998,679524.5932448038,4122594.7114593456
2465,[2021-02-22 15:38:59.308] $GPGGA,63858.9,3713.95599792,N,13701.42443126,E,4,4.0,5.1,97.90100000000001,M,36.771,M,1.9,0979*74,37.232599965333335,137.023740521,679524.5913014401,4122594.715173534
2466,[2021-02-22 15:38:59.417] $GPGGA,63859.0,3713.95600017,N,13701.42442854,E,4,4.0,5.1,97.895,M,36.771,M,2.0,0979*7E,37.232600002833344,137.02374047566667,679524.5871905407,4122594.7192484075
2467,[2021-02-22 15:38:59.511] $GPGGA,63859.1,3713.95599658,N,13701.42442263,E,4,4.0,5.1,97.85600000000001,M,36.771,M,1.1,0979*72,37.232599943,137.0237403771667,679524.5785936351,4122594.712422683
2468,[2021-02-22 15:38:59.620] $GPGGA,63859.2,3713.956006,N,13701.42441128,E,4,4.0,5.1,97.85600000000001,M,36.771,M,1.2,0979*73,37.2326001,137.02374018800003,679524.5614384677,4122594.7294840124
2469,[2021-02-22 15:38:59.714] $GPGGA,63859.3,3713.95599204,N,13701.42442065,E,4,4.0,5.1,97.852,M,36.771,M,1.3,0979*7F,37.23259986733334,137.02374034416667,679524.5758453982,4122594.7039643945
2470,[2021-02-22 15:38:59.823] $GPGGA,63859.4,3713.95600246,N,13701.42441071,E,4,4.0,5.1,97.853,M,36.771,M,1.4,0979*7D,37.232600041000005,137.02374017850002,679524.5607355937,4122594.722919569
2471,[2021-02-22 15:38:59.917] $GPGGA,63859.5,3713.95600515,N,13701.42440967,E,4,4.0,5.1,97.851,M,36.771,M,1.5,0979*71,37.23260008583333,137.02374016116667,679524.5590914374,4122594.7278612326
2472,[2021-02-22 15:39:00.026] $GPGGA,63859.6,3713.95599367,N,13701.42441583,E,4,4.0,5.1,97.85700000000001,M,36.771,M,1.6,0979*70,37.232599894500005,137.02374026383336,679524.5686538384,4122594.70682633
2473,[2021-02-22 15:39:00.120] $GPGGA,63859.7,3713.95601041,N,13701.42440557,E,4,4.0,5.1,97.854,M,36.771,M,1.7,0979*7E,37.232600173499996,137.02374009283335,679524.5528209883,4122594.7374587865
2474,[2021-02-22 15:39:00.230] $GPGGA,63859.8,3713.9560018,N,13701.42440762,E,4,4.0,5.1,97.846,M,36.771,M,1.8,0979*74,37.23260003000001,137.02374012699997,679524.5561926418,4122594.721601366
2475,[2021-02-22 15:39:00.308] $GPGGA,63859.9,3713.95598867,N,13701.42442424,E,4,4.0,5.1,97.859,M,36.771,M,1.9,0979*7B,37.232599811166665,137.023740404,679524.5812870061,4122594.69784584
2476,[2021-02-22 15:39:00.417] $GPGGA,63900.0,3713.95600348,N,13701.42441646,E,4,4.0,5.1,97.851,M,36.771,M,2.0,0979*7C,37.232600057999996,137.02374027433333,679524.569197527,4122594.7249876037
2477,[2021-02-22 15:39:00.511] $GPGGA,63900.1,3713.95599006,N,13701.42442514,E,4,4.0,5.1,97.884,M,36.771,M,1.1,0979*7A,37.23259983433334,137.02374041899998,679524.5825628362,4122594.7004447817
2478,[2021-02-22 15:39:00.620] $GPGGA,63900.2,3713.95598395,N,13701.42443351,E,4,4.0,5.1,97.891,M,36.771,M,1.2,0979*70,37.23259973249999,137.02374055849998,679524.5951807487,4122594.6894103335
2479,[2021-02-22 15:39:00.714] $GPGGA,63900.3,3713.95598611,N,13701.42443169,E,4,4.0,5.1,97.896,M,36.771,M,1.3,0979*77,37.23259976850001,137.02374052816668,679524.5924041993,4122594.693347226
2480,[2021-02-22 15:39:00.823] $GPGGA,63900.4,3713.95599034,N,13701.42443639,E,4,4.0,5.1,97.905,M,36.771,M,1.4,0979*7E,37.232599838999995,137.02374060649998,679524.5991866285,4122594.7013182286
2481,[2021-02-22 15:39:00.917] $GPGGA,63900.5,3713.95599496,N,13701.42442771,E,4,4.0,5.1,97.88799999999999,M,36.771,M,1.5,0979*7A,37.232599916,137.02374046183334,679524.5861692481,4122594.70958746
2482,[2021-02-22 15:39:01.026] $GPGGA,63900.6,3713.95598689,N,13701.42443502,E,4,4.0,5.1,97.899,M,36.771,M,1.6,0979*70,37.2325997815,137.0237405836667,679524.5972972808,4122594.6948949303
2483,[2021-02-22 15:39:01.120] $GPGGA,63900.7,3713.95598533,N,13701.42443869,E,4,4.0,5.1,97.916,M,36.771,M,1.7,0979*74,37.2325997555,137.02374064483334,679524.602785619,4122594.692126088
2484,[2021-02-22 15:39:01.229] $GPGGA,63900.8,3713.95598695,N,13701.42442919,E,4,4.0,5.1,97.889,M,36.771,M,1.8,0979*7B,37.232599782499996,137.02374048649997,679524.5886743475,4122594.694821579
2485,[2021-02-22 15:39:01.308] $GPGGA,63900.9,3713.95598486,N,13701.42443188,E,4,4.0,5.1,97.89200000000001,M,36.771,M,1.9,0979*70,37.23259974766667,137.02374053133332,679524.5927345627,4122594.691041641
2486,[2021-02-22 15:39:01.417] $GPGGA,63901.0,3713.95597039,N,13701.42443584,E,4,4.0,5.1,97.889,M,36.771,M,1.0,0979*7C,37.232599506499994,137.02374059733333,679524.599162142,4122594.664407865
2487,[2021-02-22 15:39:01.511] $GPGGA,63901.1,3713.9559818,N,13701.4244275,E,4,4.0,5.1,97.881,M,36.771,M,1.1,0979*72,37.23259969666666,137.02374045833335,679524.5863790442,4122594.685244401
2488,[2021-02-22 15:39:01.620] $GPGGA,63901.2,3713.95599035,N,13701.42442444,E,4,4.0,5.1,97.891,M,36.771,M,1.2,0979*7B,37.23259983916667,137.02374040733335,679524.5815163178,4122594.70095894
2489,[2021-02-22 15:39:01.714] $GPGGA,63901.3,3713.9559817,N,13701.42442983,E,4,4.0,5.1,97.898,M,36.771,M,1.3,0979*75,37.232599695,137.0237404971667,679524.5898282642,4122594.685133134
2490,[2021-02-22 15:39:01.823] $GPGGA,63901.4,3713.95598393,N,13701.42442761,E,4,4.0,5.1,97.88799999999999,M,36.771,M,1.4,0979*79,37.23259973216666,137.02374046016664,679524.586457476,4122594.689186828
2491,[2021-02-22 15:39:01.917] $GPGGA,63901.5,3713.9559865,N,13701.42443046,E,4,4.0,5.1,97.891,M,36.771,M,1.5,0979*78,37.232599775000004,137.02374050766667,679524.5905700349,4122594.6940295566
2492,[2021-02-22 15:39:02.026] $GPGGA,63901.6,3713.95598873,N,13701.42443119,E,4,4.0,5.1,97.884,M,36.771,M,1.6,0979*78,37.23259981216667,137.02374051983332,679524.5915612819,4122594.6981765116
2493,[2021-02-22 15:39:02.120] $GPGGA,63901.7,3713.95599712,N,13701.42442858,E,4,4.0,5.1,97.89399999999999,M,36.771,M,1.7,0979*7D,37.232599952,137.02374047633333,679524.5873702763,4122594.7136093923
2494,[2021-02-22 15:39:02.229] $GPGGA,63901.8,3713.95598915,N,13701.42443745,E,4,4.0,5.1,97.883,M,36.771,M,1.8,0979*71,37.232599819166666,137.02374062416663,679524.6008010509,4122594.6991511057
2495,[2021-02-22 15:39:02.308] $GPGGA,63901.9,3713.95600101,N,13701.42442577,E,4,4.0,5.1,97.876,M,36.771,M,1.9,0979*76,37.23260001683333,137.0237404295,679524.5830614589,4122594.7207142264
2496,[2021-02-22 15:39:02.417] $GPGGA,63902.0,3713.95600401,N,13701.42442143,E,4,4.0,5.1,97.84,M,36.771,M,1.0,0979*76,37.232600066833335,137.02374035716664,679524.5765254835,4122594.726124838
2497,[2021-02-22 15:39:02.495] $GPGGA,63902.1,3713.95601559,N,13701.42441498,E,4,4.0,5.1,97.833,M,36.771,M,1.1,0979*7F,37.23260025983333,137.02374024966664,679524.5665303199,4122594.747335501
2498,[2021-02-22 15:39:02.620] $GPGGA,63902.2,3713.95601148,N,13701.42442456,E,4,4.0,5.1,97.854,M,36.771,M,1.2,0979*7B,37.23260019133333,137.02374040933333,679524.5808583277,4122594.74003785
2499,[2021-02-22 15:39:02.714] $GPGGA,63902.3,3713.9560178,N,13701.42441739,E,4,4.0,5.1,97.83200000000001,M,36.771,M,1.3,0979*70,37.232600296666675,137.02374028983334,679524.5700065014,4122594.7514985814
2500,[2021-02-22 15:39:02.823] $GPGGA,63902.4,3713.95601304,N,13701.42441657,E,4,4.0,5.1,97.829,M,36.771,M,1.4,0979*7B,37.232600217333335,137.02374027616668,679524.5689822028,4122594.7426701235
2501,[2021-02-22 15:39:02.917] $GPGGA,63902.5,3713.95601039,N,13701.42441828,E,4,4.0,5.1,97.84899999999999,M,36.771,M,1.5,0979*76,37.23260017316666,137.02374030466663,679524.5716154722,4122594.737823611
2502,[2021-02-22 15:39:03.026] $GPGGA,63902.6,3713.95600961,N,13701.42441233,E,4,4.0,5.1,97.83,M,36.771,M,1.6,0979*7D,37.23260016016666,137.0237402055,679524.56284832,4122594.736193077
2503,[2021-02-22 15:39:03.120] $GPGGA,63902.7,3713.95600536,N,13701.42442039,E,4,4.0,5.1,97.853,M,36.771,M,1.7,0979*7D,37.23260008933333,137.02374033983335,679524.5749343095,4122594.7285884777
2504,[2021-02-22 15:39:03.214] $GPGGA,63902.8,3713.95599189,N,13701.42442438,E,4,4.0,5.1,97.882,M,36.771,M,0.8,0979*76,37.23259986483333,137.02374040633333,679524.5813667094,4122594.7038049214
2505,[2021-02-22 15:39:03.307] $GPGGA,63902.9,3713.95599161,N,13701.42443002,E,4,4.0,5.1,97.89200000000001,M,36.771,M,0.9,0979*7D,37.23259986016667,137.02374050033333,679524.5897173902,4122594.7034654273
2506,[2021-02-22 15:39:03.417] $GPGGA,63903.0,3713.95598989,N,13701.42442868,E,4,4.0,5.1,97.904,M,36.771,M,1.0,0979*79,37.2325998315,137.02374047799998,679524.5878039943,4122594.7002423173
2507,[2021-02-22 15:39:03.511] $GPGGA,63903.1,3713.95599708,N,13701.42441816,E,4,4.0,5.1,97.89399999999999,M,36.771,M,1.1,0979*7D,37.232599951333334,137.0237403026667,679524.5719642822,4122594.713206007
2508,[2021-02-22 15:39:03.620] $GPGGA,63903.2,3713.95598971,N,13701.4244251,E,4,4.0,5.1,97.90299999999999,M,36.771,M,1.2,0979*7B,37.2325998285,137.02374041833335,679524.5825175324,4122594.699796271
2509,[2021-02-22 15:39:03.714] $GPGGA,63903.3,3713.95598785,N,13701.42442225,E,4,4.0,5.1,97.898,M,36.771,M,1.3,0979*7C,37.2325997975,137.02374037083334,679524.5783769065,4122594.6962665254
2510,[2021-02-22 15:39:03.823] $GPGGA,63903.4,3713.95598281,N,13701.42442427,E,4,4.0,5.1,97.905,M,36.771,M,1.4,0979*7C,37.232599713499994,137.02374040450002,679524.581563058,4122594.6870100535
2511,[2021-02-22 15:39:03.917] $GPGGA,63903.5,3713.95599084,N,13701.42442252,E,4,4.0,5.1,97.90100000000001,M,36.771,M,1.5,0979*7A,37.23259984733334,137.02374037533335,679524.5786579264,4122594.7018043855
