,Format,Time,Latitude,LatType,Longitude,LonType,Status,Satellite,LevelAccuracy,Altitude(sea),M(sea),Altitude(geoid),M(geoid),DGPS use,checksum,Lat,Lon,UTM_X,UTM_Y
720,[2021-02-22 16:08:40.692] $GPGGA,70840.3,3713.95614798,N,13701.42416429,E,4,11.0,1.5,97.732,M,36.771,M,2.3,0000*77,37.23260246633333,137.0237360715,679524.1906121115,4122594.984235418
722,[2021-02-22 16:08:40.801] $GPGGA,70840.4,3713.9561455,N,13701.42416995,E,4,11.0,1.5,97.748,M,36.771,M,2.4,0000*76,37.232602424999996,137.02373616583333,679524.1990793463,4122594.9798281565
724,[2021-02-22 16:08:40.895] $GPGGA,70840.5,3713.95614339,N,13701.42416693,E,4,11.0,1.5,97.746,M,36.771,M,2.5,0000*78,37.23260238983333,137.02373611550004,679524.1946972394,4122594.9758307193
726,[2021-02-22 16:08:41.004] $GPGGA,70840.6,3713.95614471,N,13701.42416972,E,4,11.0,1.5,97.746,M,36.771,M,2.6,0000*73,37.232602411833334,137.02373616199998,679524.1987704904,4122594.9783599596
728,[2021-02-22 16:08:41.082] $GPGGA,70840.7,3713.95614279,N,13701.42416897,E,4,11.0,1.5,97.756,M,36.771,M,2.7,0000*76,37.23260237983333,137.02373614949997,679524.1977374101,4122594.9747856474
730,[2021-02-22 16:08:41.207] $GPGGA,70840.8,3713.95614835,N,13701.42416931,E,4,11.0,1.5,97.740,M,36.771,M,2.8,0000*7E,37.232602472500005,137.02373615516666,679524.1980203263,4122594.9850783497
732,[2021-02-22 16:08:41.285] $GPGGA,70840.9,3713.95614933,N,13701.42417347,E,4,11.0,1.5,97.738,M,36.771,M,2.9,0000*7C,37.23260248883334,137.02373622450003,679524.204132785,4122594.987022148
734,[2021-02-22 16:08:41.395] $GPGGA,70841.0,3713.9561482,N,13701.42417328,E,4,11.0,1.5,97.738,M,36.771,M,3.0,0000*76,37.232602469999996,137.02373622133334,679524.203896516,4122594.984926463
736,[2021-02-22 16:08:41.489] $GPGGA,70841.1,3713.95614984,N,13701.4241733,E,4,11.0,1.5,97.738,M,36.771,M,3.1,0000*70,37.23260249733333,137.02373622166667,679524.2038612469,4122594.9879599013
738,[2021-02-22 16:08:41.598] $GPGGA,70841.2,3713.95615202,N,13701.42417379,E,4,11.0,1.5,97.730,M,36.771,M,3.2,0000*71,37.232602533666665,137.02373622983333,679524.2044995967,4122594.992006806
740,[2021-02-22 16:08:41.692] $GPGGA,70841.3,3713.95614993,N,13701.42416929,E,4,11.0,1.5,97.746,M,36.771,M,2.3,0000*7D,37.23260249883334,137.0237361548333,679524.1979282829,4122594.9879995673
742,[2021-02-22 16:08:41.801] $GPGGA,70841.4,3713.95615152,N,13701.42416855,E,4,11.0,1.5,97.750,M,36.771,M,2.4,0000*74,37.232602525333334,137.02373614249998,679524.1967712152,4122594.9909165152
744,[2021-02-22 16:08:41.895] $GPGGA,70841.5,3713.95615068,N,13701.42417015,E,4,11.0,1.5,97.749,M,36.771,M,2.5,0000*79,37.23260251133333,137.02373616916665,679524.1991702729,4122594.989413708
746,[2021-02-22 16:08:41.988] $GPGGA,70841.6,3713.95615057,N,13701.42416985,E,4,11.0,1.5,97.754,M,36.771,M,2.6,0000*78,37.232602509500005,137.02373616416668,679524.1987310294,4122594.9892008044
748,[2021-02-22 16:08:42.098] $GPGGA,70841.7,3713.95615263,N,13701.42416888,E,4,11.0,1.5,97.746,M,36.771,M,2.7,0000*72,37.23260254383333,137.02373614799998,679524.1972152841,4122594.992979639
750,[2021-02-22 16:08:42.192] $GPGGA,70841.8,3713.9561504,N,13701.42417322,E,4,11.0,1.5,97.754,M,36.771,M,2.8,0000*78,37.232602506666666,137.02373622033338,679524.2037208177,4122594.9889929662
752,[2021-02-22 16:08:42.285] $GPGGA,70841.9,3713.95615119,N,13701.42417228,E,4,11.0,1.5,97.747,M,36.771,M,2.9,0000*7C,37.23260251983333,137.02373620466665,679524.202299643,4122594.990424173
754,[2021-02-22 16:08:42.410] $GPGGA,70842.0,3713.9561505,N,13701.42417111,E,4,11.0,1.5,97.753,M,36.771,M,3.0,0000*7E,37.232602508333336,137.02373618516665,679524.2005968997,4122594.989111189
756,[2021-02-22 16:08:42.488] $GPGGA,70842.1,3713.95614983,N,13701.42417324,E,4,11.0,1.5,97.753,M,36.771,M,3.1,0000*7C,37.23260249716666,137.02373622066665,679524.2037729215,4122594.9879395114
758,[2021-02-22 16:08:42.598] $GPGGA,70842.2,3713.95614916,N,13701.42416781,E,4,11.0,1.5,97.752,M,36.771,M,3.2,0000*7B,37.23260248600001,137.02373613016667,679524.1957703196,4122594.9865288413
760,[2021-02-22 16:08:42.692] $GPGGA,70842.3,3713.95614753,N,13701.42417266,E,4,11.0,1.5,97.745,M,36.771,M,2.3,0000*7E,37.232602458833334,137.023736211,679524.2030062395,4122594.9836678514
762,[2021-02-22 16:08:42.801] $GPGGA,70842.4,3713.95614874,N,13701.42417126,E,4,11.0,1.5,97.739,M,36.771,M,2.4,0000*78,37.232602479,137.02373618766663,679524.2008882806,4122594.9858612125
764,[2021-02-22 16:08:42.895] $GPGGA,70842.5,3713.95614597,N,13701.42417323,E,4,11.0,1.5,97.739,M,36.771,M,2.5,0000*7F,37.23260243283333,137.0237362205,679524.2039107517,4122594.9808010063
766,[2021-02-22 16:08:43.004] $GPGGA,70842.6,3713.95614988,N,13701.42416817,E,4,11.0,1.5,97.738,M,36.771,M,2.6,0000*71,37.232602498,137.0237361361667,679524.1962741708,4122594.9878716953
768,[2021-02-22 16:08:43.082] $GPGGA,70842.7,3713.95615002,N,13701.42416793,E,4,11.0,1.5,97.737,M,36.771,M,2.7,0000*77,37.232602500333336,137.02373613216668,679524.1959137568,4122594.9881230067
770,[2021-02-22 16:08:43.192] $GPGGA,70842.8,3713.95614816,N,13701.42416851,E,4,11.0,1.5,97.738,M,36.771,M,2.8,0000*75,37.23260246933333,137.02373614183335,679524.1968449185,4122594.984701697
772,[2021-02-22 16:08:43.285] $GPGGA,70842.9,3713.95614976,N,13701.42416601,E,4,11.0,1.5,97.736,M,36.771,M,2.9,0000*77,37.232602496,137.02373610016667,679524.1930850209,4122594.9875814966
774,[2021-02-22 16:08:43.410] $GPGGA,70843.0,3713.95614714,N,13701.42416878,E,4,11.0,1.5,97.742,M,36.771,M,3.0,0000*7E,37.23260245233333,137.02373614633333,679524.1972844811,4122594.982823975
776,[2021-02-22 16:08:43.488] $GPGGA,70843.1,3713.95614618,N,13701.42416828,E,4,11.0,1.5,97.743,M,36.771,M,3.1,0000*77,37.23260243633333,137.02373613799998,679524.1965831076,4122594.981032867
778,[2021-02-22 16:08:43.598] $GPGGA,70843.2,3713.95614481,N,13701.42417044,E,4,11.0,1.5,97.742,M,36.771,M,3.2,0000*77,37.2326024135,137.02373617399996,679524.1998311658,4122594.9785676487
780,[2021-02-22 16:08:43.692] $GPGGA,70843.3,3713.95614657,N,13701.42416148,E,4,11.0,1.5,97.752,M,36.771,M,2.3,0000*72,37.23260244283333,137.02373602466668,679524.1865128401,4122594.9815391116
782,[2021-02-22 16:08:43.801] $GPGGA,70843.4,3713.95614701,N,13701.42416251,E,4,11.0,1.5,97.752,M,36.771,M,2.4,0000*7B,37.232602450166674,137.02373604183333,679524.1880184583,4122594.982385353
784,[2021-02-22 16:08:43.895] $GPGGA,70843.5,3713.95615134,N,13701.42416308,E,4,11.0,1.5,97.758,M,36.771,M,2.5,0000*7D,37.23260252233333,137.02373605133334,679524.1886900959,4122594.9904107195
786,[2021-02-22 16:08:44.004] $GPGGA,70843.6,3713.95614879,N,13701.42416293,E,4,11.0,1.5,97.752,M,36.771,M,2.6,0000*75,37.23260247983334,137.0237360488333,679524.188569114,4122594.9856903357
788,[2021-02-22 16:08:44.098] $GPGGA,70843.7,3713.9561507,N,13701.42416368,E,4,11.0,1.5,97.754,M,36.771,M,2.7,0000*76,37.23260251166666,137.02373606133332,679524.1896025896,4122594.989246153
790,[2021-02-22 16:08:44.207] $GPGGA,70843.8,3713.95614962,N,13701.42416417,E,4,11.0,1.5,97.752,M,36.771,M,2.8,0000*74,37.23260249366667,137.02373606949996,679524.1903698287,4122594.9872644315
792,[2021-02-22 16:08:44.285] $GPGGA,70843.9,3713.95615349,N,13701.42416547,E,4,11.0,1.5,97.753,M,36.771,M,2.9,0000*73,37.23260255816666,137.02373609116665,679524.1921390708,4122594.994462211
794,[2021-02-22 16:08:44.395] $GPGGA,70844.0,3713.95615075,N,13701.42416545,E,4,11.0,1.5,97.757,M,36.771,M,3.0,0000*7F,37.232602512499994,137.02373609083335,679524.1922178334,4122594.9893945726
796,[2021-02-22 16:08:44.488] $GPGGA,70844.1,3713.95615442,N,13701.42416158,E,4,11.0,1.5,97.759,M,36.771,M,3.1,0000*79,37.23260257366667,137.02373602633332,679524.1863503372,4122594.9960590582
798,[2021-02-22 16:08:44.598] $GPGGA,70844.2,3713.9561524,N,13701.42416341,E,4,11.0,1.5,97.756,M,36.771,M,3.2,0000*78,37.23260254,137.02373605683331,679524.1891361394,4122594.992381381
800,[2021-02-22 16:08:44.691] $GPGGA,70844.3,3713.95616268,N,13701.42415689,E,4,11.0,1.5,97.742,M,36.771,M,2.3,0000*77,37.232602711333335,137.02373594816666,679524.1790888709,4122595.011185778
802,[2021-02-22 16:08:44.801] $GPGGA,70844.4,3713.95616623,N,13701.42415872,E,4,11.0,1.5,97.742,M,36.771,M,2.4,0000*76,37.232602770499994,137.02373597866665,679524.1816544503,4122595.0178085435
804,[2021-02-22 16:08:44.895] $GPGGA,70844.5,3713.95616391,N,13701.42415748,E,4,11.0,1.5,97.740,M,36.771,M,2.5,0000*7E,37.23260273183334,137.023735958,679524.179912646,4122595.0134790344
806,[2021-02-22 16:08:45.004] $GPGGA,70844.6,3713.95616479,N,13701.42416026,E,4,11.0,1.5,97.744,M,36.771,M,2.6,0000*77,37.23260274650001,137.02373600433336,679524.1839885141,4122595.015194278
808,[2021-02-22 16:08:45.098] $GPGGA,70844.7,3713.95616488,N,13701.42415635,E,4,11.0,1.5,97.740,M,36.771,M,2.7,0000*7A,37.232602748,137.02373593916667,679524.1782034152,4122595.015237103
810,[2021-02-22 16:08:45.191] $GPGGA,70844.8,3713.95616549,N,13701.42415801,E,4,11.0,1.5,97.742,M,36.771,M,2.8,0000*7D,37.232602758166664,137.02373596683336,679524.1806338669,4122595.0164176384
812,[2021-02-22 16:08:45.285] $GPGGA,70844.9,3713.95616277,N,13701.42415687,E,4,11.0,1.5,97.745,M,36.771,M,2.9,0000*70,37.23260271283333,137.0237359478333,679524.1790557359,4122595.0113515784
814,[2021-02-22 16:08:45.395] $GPGGA,70845.0,3713.95616422,N,13701.42415718,E,4,11.0,1.5,97.735,M,36.771,M,3.0,0000*76,37.232602737,137.023735953,679524.1794567923,4122595.014042823
816,[2021-02-22 16:08:45.488] $GPGGA,70845.1,3713.95616476,N,13701.42415681,E,4,11.0,1.5,97.738,M,36.771,M,3.1,0000*7B,37.232602746,137.02373594683334,679524.1788883426,4122595.0150297335
818,[2021-02-22 16:08:45.598] $GPGGA,70845.2,3713.95616745,N,13701.42415106,E,4,11.0,1.5,97.740,M,36.771,M,3.2,0000*7F,37.23260279083333,137.02373585100003,679524.1702797262,4122595.0198224974
820,[2021-02-22 16:08:45.691] $GPGGA,70845.3,3713.95616139,N,13701.42415427,E,4,11.0,1.5,97.740,M,36.771,M,2.3,0000*75,37.232602689833335,137.0237359045,679524.1752657989,4122595.0087173893
822,[2021-02-22 16:08:45.801] $GPGGA,70845.4,3713.95616045,N,13701.42415403,E,4,11.0,1.5,97.736,M,36.771,M,2.4,0000*78,37.23260267416667,137.02373590050004,679524.1749480921,4122595.006971486
824,[2021-02-22 16:08:45.894] $GPGGA,70845.5,3713.95616428,N,13701.42415027,E,4,11.0,1.5,97.732,M,36.771,M,2.5,0000*71,37.232602738,137.02373583783333,679524.1692369189,4122595.0139353303
826,[2021-02-22 16:08:46.004] $GPGGA,70845.6,3713.95616295,N,13701.42415119,E,4,11.0,1.5,97.743,M,36.771,M,2.6,0000*7B,37.23260271583334,137.02373585316667,679524.1706498672,4122595.0115048834
828,[2021-02-22 16:08:46.082] $GPGGA,70845.7,3713.95615769,N,13701.42415787,E,4,11.0,1.5,97.742,M,36.771,M,2.7,0000*7E,37.23260262816667,137.0237359645,679524.180735242,4122595.0019888915
830,[2021-02-22 16:08:46.191] $GPGGA,70845.8,3713.95616362,N,13701.42415212,E,4,11.0,1.5,97.738,M,36.771,M,2.8,0000*76,37.232602727,137.02373586866668,679524.1719985247,4122595.012773296
832,[2021-02-22 16:08:46.285] $GPGGA,70845.9,3713.95615973,N,13701.4241569,E,4,11.0,1.5,97.740,M,36.771,M,2.9,0000*7E,37.23260266216667,137.02373594833335,679524.1792202942,4122595.0057307407
834,[2021-02-22 16:08:46.394] $GPGGA,70846.0,3713.95616131,N,13701.424156,E,4,11.0,1.5,97.740,M,36.771,M,3.0,0000*78,37.2326026885,137.0237359333333,679524.1778270337,4122595.008624139
836,[2021-02-22 16:08:46.488] $GPGGA,70846.1,3713.95615977,N,13701.42415864,E,4,11.0,1.5,97.732,M,36.771,M,3.1,0000*78,37.23260266283334,137.02373597733333,679524.1817915683,4122595.005859718
838,[2021-02-22 16:08:46.598] $GPGGA,70846.2,3713.95615891,N,13701.42416141,E,4,11.0,1.5,97.741,M,36.771,M,3.2,0000*78,37.2326026485,137.0237360235,679524.1859214429,4122595.004356914
840,[2021-02-22 16:08:46.691] $GPGGA,70846.3,3713.95616169,N,13701.42415761,E,4,11.0,1.5,97.742,M,36.771,M,3.3,0000*71,37.23260269483334,137.02373596016668,679524.1801926442,4122595.009377761
842,[2021-02-22 16:08:46.801] $GPGGA,70846.4,3713.95615876,N,13701.4241596,E,4,11.0,1.5,97.742,M,36.771,M,3.4,0000*7A,37.232602646,137.02373599333333,679524.1832510112,4122595.0040223016
844,[2021-02-22 16:08:46.894] $GPGGA,70846.5,3713.95615812,N,13701.42416023,E,4,11.0,1.5,97.735,M,36.771,M,3.5,0000*75,37.23260263533333,137.02373600383336,679524.1842078697,4122595.0028586863
846,[2021-02-22 16:08:47.004] $GPGGA,70846.6,3713.95615461,N,13701.42416133,E,4,11.0,1.5,97.736,M,36.771,M,3.6,0000*7E,37.23260257683333,137.02373602216664,679524.1859731604,4122594.9964025156
848,[2021-02-22 16:08:47.097] $GPGGA,70846.7,3713.95615768,N,13701.42415986,E,4,11.0,1.5,97.746,M,36.771,M,3.7,0000*76,37.232602627999995,137.02373599766665,679524.18367816,4122595.002033308
850,[2021-02-22 16:08:47.207] $GPGGA,70846.8,3713.95615433,N,13701.42415866,E,4,11.0,1.5,97.738,M,36.771,M,3.8,0000*7D,37.23260257216668,137.0237359776667,679524.1820362278,4122594.995800312
852,[2021-02-22 16:08:47.285] $GPGGA,70846.9,3713.95614951,N,13701.42416514,E,4,11.0,1.5,97.747,M,36.771,M,3.9,0000*76,37.23260249183334,137.02373608566666,679524.191808474,4122594.9870916777
854,[2021-02-22 16:08:47.394] $GPGGA,70847.0,3713.95615183,N,13701.42415901,E,4,11.0,1.5,97.735,M,36.771,M,4.0,0000*78,37.232602530499996,137.0237359835,679524.1826525963,4122594.9911881955
856,[2021-02-22 16:08:47.488] $GPGGA,70847.1,3713.95615119,N,13701.42415995,E,4,11.0,1.5,97.736,M,36.771,M,4.1,0000*75,37.23260251983333,137.02373599916666,679524.1840678359,4122594.990034378
858,[2021-02-22 16:08:47.598] $GPGGA,70847.2,3713.95615252,N,13701.42415933,E,4,11.0,1.5,97.740,M,36.771,M,4.2,0000*74,37.232602542,137.02373598883332,679524.1830984848,4122594.992474311
860,[2021-02-22 16:08:47.691] $GPGGA,70847.3,3713.95614406,N,13701.42417058,E,4,12.0,1.3,97.761,M,36.771,M,2.3,0000*74,37.232602400999994,137.02373617633333,679524.2000678326,4122594.9771851203
862,[2021-02-22 16:08:47.801] $GPGGA,70847.4,3713.95614382,N,13701.4241667,E,4,12.0,1.3,97.768,M,36.771,M,2.4,0000*7B,37.232602396999994,137.02373611166666,679524.1943401436,4122594.9766186345
864,[2021-02-22 16:08:47.894] $GPGGA,70847.5,3713.95614138,N,13701.4241711,E,4,12.0,1.3,97.769,M,36.771,M,2.5,0000*79,37.23260235633334,137.02373618499996,679524.2009426894,4122594.9722455125
866,[2021-02-22 16:08:48.004] $GPGGA,70847.6,3713.9561427,N,13701.42416985,E,4,12.0,1.3,97.762,M,36.771,M,2.6,0000*78,37.232602378333326,137.02373616416668,679524.199042188,4122594.974647032
868,[2021-02-22 16:08:48.097] $GPGGA,70847.7,3713.95614209,N,13701.42416856,E,4,12.0,1.3,97.763,M,36.771,M,2.7,0000*78,37.23260236816667,137.02373614266668,679524.1971588403,4122594.973478196
870,[2021-02-22 16:08:48.207] $GPGGA,70847.8,3713.95614048,N,13701.42416949,E,4,12.0,1.3,97.765,M,36.771,M,2.8,0000*76,37.23260234133333,137.02373615816666,679524.1985976428,4122594.970530269
872,[2021-02-22 16:08:48.301] $GPGGA,70847.9,3713.95614107,N,13701.42417088,E,4,12.0,1.3,97.763,M,36.771,M,2.9,0000*7F,37.23260235116666,137.02373618133333,679524.2006296463,4122594.971665282
874,[2021-02-22 16:08:48.394] $GPGGA,70848.0,3713.95614254,N,13701.42417199,E,4,12.0,1.3,97.768,M,36.771,M,3.0,0000*7E,37.23260237566667,137.02373619983337,679524.2022128361,4122594.9744188045
876,[2021-02-22 16:08:48.488] $GPGGA,70848.1,3713.95614038,N,13701.4241745,E,4,12.0,1.3,97.763,M,36.771,M,3.1,0000*7D,37.23260233966667,137.02373624166665,679524.2060096541,4122594.970503726
878,[2021-02-22 16:08:48.597] $GPGGA,70848.2,3713.95614122,N,13701.42417767,E,4,12.0,1.3,97.761,M,36.771,M,3.2,0000*72,37.23260235366667,137.0237362945,679524.2106637775,4122594.9721573293
880,[2021-02-22 16:08:48.691] $GPGGA,70848.3,3713.95614036,N,13701.42417547,E,4,12.0,1.3,97.755,M,36.771,M,2.3,0000*70,37.23260233933333,137.02373625783335,679524.2074447433,4122594.970497406
882,[2021-02-22 16:08:48.801] $GPGGA,70848.4,3713.95614109,N,13701.42417549,E,4,12.0,1.3,97.756,M,36.771,M,2.4,0000*70,37.2326023515,137.02373625816665,679524.2074454508,4122594.971848007
884,[2021-02-22 16:08:48.894] $GPGGA,70848.5,3713.95614425,N,13701.4241725,E,4,12.0,1.3,97.749,M,36.771,M,2.5,0000*7A,37.23260240416666,137.02373620833333,679524.2028993383,4122594.9775971808
886,[2021-02-22 16:08:49.004] $GPGGA,70848.6,3713.95614108,N,13701.42417782,E,4,12.0,1.3,97.757,M,36.771,M,2.6,0000*75,37.232602351333334,137.02373629699997,679524.2108911102,4122594.9719031733
888,[2021-02-22 16:08:49.097] $GPGGA,70848.7,3713.95614327,N,13701.42417555,E,4,12.0,1.3,97.755,M,36.771,M,2.7,0000*70,37.23260238783333,137.02373625916667,679524.2074479803,4122594.975881316
890,[2021-02-22 16:08:49.191] $GPGGA,70848.8,3713.95614555,N,13701.42417691,E,4,12.0,1.3,97.756,M,36.771,M,2.8,0000*7B,37.232602425833335,137.02373628183335,679524.2093688054,4122594.9801406506
892,[2021-02-22 16:08:49.285] $GPGGA,70848.9,3713.9561467,N,13701.42417512,E,4,12.0,1.3,97.755,M,36.771,M,2.9,0000*74,37.232602445,137.02373625200002,679524.2066765471,4122594.982210725
894,[2021-02-22 16:08:49.394] $GPGGA,70849.0,3713.95614515,N,13701.42417616,E,4,12.0,1.3,97.754,M,36.771,M,3.0,0000*72,37.23260241916667,137.02373626933334,679524.2082756306,4122594.979377232
896,[2021-02-22 16:08:49.488] $GPGGA,70849.1,3713.95614619,N,13701.42417309,E,4,12.0,1.3,97.750,M,36.771,M,3.1,0000*72,37.2326024365,137.02373621816665,679524.2036950397,4122594.98120342
898,[2021-02-22 16:08:49.597] $GPGGA,70849.2,3713.95614676,N,13701.4241709,E,4,12.0,1.3,97.751,M,36.771,M,3.2,0000*79,37.23260244600001,137.02373618166666,679524.2004342511,4122594.982188272
900,[2021-02-22 16:08:49.691] $GPGGA,70849.3,3713.95614665,N,13701.42416931,E,4,12.0,1.3,97.754,M,36.771,M,2.3,0000*7C,37.232602444166666,137.02373615516666,679524.1980875398,4122594.981934586
902,[2021-02-22 16:08:49.800] $GPGGA,70849.4,3713.95614471,N,13701.42416832,E,4,12.0,1.3,97.748,M,36.771,M,2.4,0000*74,37.232602411833334,137.02373613866666,679524.1967003761,4122594.9783157012
904,[2021-02-22 16:08:49.894] $GPGGA,70849.5,3713.95614415,N,13701.42416762,E,4,12.0,1.3,97.745,M,36.771,M,2.5,0000*71,37.2326024025,137.02373612699998,679524.1956874554,4122594.97725798
906,[2021-02-22 16:08:50.004] $GPGGA,70849.6,3713.95614524,N,13701.42416798,E,4,12.0,1.3,97.752,M,36.771,M,2.6,0000*71,37.23260242066666,137.023736133,679524.1961766777,4122594.9792850674
908,[2021-02-22 16:08:50.097] $GPGGA,70849.7,3713.95614267,N,13701.42416954,E,4,12.0,1.3,97.747,M,36.771,M,2.7,0000*7B,37.23260237783333,137.02373615899998,679524.1985849886,4122594.974581756
910,[2021-02-22 16:08:50.191] $GPGGA,70849.8,3713.95614182,N,13701.42416615,E,4,12.0,1.3,97.747,M,36.771,M,2.8,0000*79,37.23260236366667,137.02373610249998,679524.1936059563,4122594.972902705
912,[2021-02-22 16:08:50.285] $GPGGA,70849.9,3713.95614073,N,13701.42416803,E,4,12.0,1.3,97.752,M,36.771,M,2.9,0000*7B,37.2326023455,137.02373613383332,679524.1964289234,4122594.9709464307
914,[2021-02-22 16:08:50.394] $GPGGA,70850.0,3713.95613992,N,13701.42416776,E,4,12.0,1.3,97.746,M,36.771,M,3.0,0000*7B,37.232602332000006,137.02373612933334,679524.1960617141,4122594.9694399857
916,[2021-02-22 16:08:50.488] $GPGGA,70850.1,3713.95614208,N,13701.42416675,E,4,12.0,1.3,97.751,M,36.771,M,3.1,0000*70,37.232602368,137.0237361125,679524.1944828709,4122594.9734024825
918,[2021-02-22 16:08:50.597] $GPGGA,70850.2,3713.95614323,N,13701.4241664,E,4,12.0,1.3,97.749,M,36.771,M,3.2,0000*77,37.232602387166665,137.02373610666666,679524.1939198733,4122594.975518081
920,[2021-02-22 16:08:50.691] $GPGGA,70850.3,3713.95614019,N,13701.42416888,E,4,12.0,1.3,97.752,M,36.771,M,2.3,0000*7C,37.23260233650001,137.02373614799998,679524.1977071281,4122594.9699746957
922,[2021-02-22 16:08:50.800] $GPGGA,70850.4,3713.95613984,N,13701.42417014,E,4,12.0,1.3,97.753,M,36.771,M,2.4,0000*7B,37.232602330666666,137.02373616900002,679524.1995840736,4122594.969367284
924,[2021-02-22 16:08:50.894] $GPGGA,70850.5,3713.95614122,N,13701.42416934,E,4,12.0,1.3,97.755,M,36.771,M,2.5,0000*74,37.23260235366667,137.02373615566668,679524.1983465899,4122594.9718939876
926,[2021-02-22 16:08:51.003] $GPGGA,70850.6,3713.95613959,N,13701.42416724,E,4,12.0,1.3,97.753,M,36.771,M,2.6,0000*7E,37.23260232650001,137.02373612066668,679524.1953058622,4122594.9688132866
928,[2021-02-22 16:08:51.097] $GPGGA,70850.7,3713.95614211,N,13701.42417172,E,4,12.0,1.3,97.746,M,36.771,M,2.7,0000*7E,37.23260236850001,137.02373619533336,679524.2018305982,4122594.9736150806
930,[2021-02-22 16:08:51.207] $GPGGA,70850.8,3713.9561362,N,13701.42417716,E,4,12.0,1.3,97.759,M,36.771,M,2.8,0000*75,37.23260227,137.02373628600003,679524.2101081439,4122594.96285786
932,[2021-02-22 16:08:51.285] $GPGGA,70850.9,3713.95613808,N,13701.42417182,E,4,12.0,1.3,97.754,M,36.771,M,2.9,0000*77,37.23260230133334,137.023736197,679524.2021377985,4122594.966165676
934,[2021-02-22 16:08:51.410] $GPGGA,70851.0,3713.95614219,N,13701.42417095,E,4,12.0,1.3,97.757,M,36.771,M,3.0,0000*7E,37.23260236983333,137.0237361825,679524.200688869,4122594.9737386787
936,[2021-02-22 16:08:51.488] $GPGGA,70851.1,3713.95614184,N,13701.42416945,E,4,12.0,1.3,97.755,M,36.771,M,3.1,0000*7E,37.232602364,137.02373615749997,679524.1984847233,4122594.9730440155
938,[2021-02-22 16:08:51.597] $GPGGA,70851.2,3713.95614323,N,13701.42417004,E,4,12.0,1.3,97.757,M,36.771,M,3.2,0000*7E,37.232602387166665,137.0237361673333,679524.1993021748,4122594.9756331546
940,[2021-02-22 16:08:51.691] $GPGGA,70851.3,3713.95614705,N,13701.4241672,E,4,12.0,1.3,97.759,M,36.771,M,2.3,0000*71,37.23260245083333,137.02373612,679524.1949517652,4122594.982607591
942,[2021-02-22 16:08:51.800] $GPGGA,70851.4,3713.95614686,N,13701.42416266,E,4,12.0,1.3,97.760,M,36.771,M,2.4,0000*76,37.232602447666665,137.0237360443333,679524.1882461843,4122594.982112704
944,[2021-02-22 16:08:51.894] $GPGGA,70851.5,3713.95614835,N,13701.42416655,E,4,12.0,1.3,97.758,M,36.771,M,2.5,0000*7F,37.232602472500005,137.02373610916663,679524.1939392375,4122594.9849910964
946,[2021-02-22 16:08:52.003] $GPGGA,70851.6,3713.9561508,N,13701.4241677,E,4,12.0,1.3,97.754,M,36.771,M,2.6,0000*72,37.23260251333333,137.02373612833333,679524.1955428275,4122594.989558168
948,[2021-02-22 16:08:52.097] $GPGGA,70851.7,3713.9561442,N,13701.42417022,E,4,12.0,1.3,97.764,M,36.771,M,2.7,0000*7F,37.23260240333334,137.02373617033334,679524.1995299838,4122594.9774326393
950,[2021-02-22 16:08:52.769] $GPGGA,70851.8,3713.9561448,N,13701.42417206,E,4,12.0,1.3,97.752,M,36.771,M,2.8,0000*74,37.23260241333334,137.02373620100002,679524.2022269864,4122594.978600371
952,[2021-02-22 16:08:52.769] $GPGGA,70851.9,3713.95614097,N,13701.42417622,E,4,12.0,1.3,97.762,M,36.771,M,2.9,0000*77,37.2326023495,137.0237362703333,679524.2085296107,4122594.971649171
954,[2021-02-22 16:08:52.769] $GPGGA,70852.0,3713.95614404,N,13701.42417395,E,4,12.0,1.3,97.756,M,36.771,M,3.0,0000*75,37.23260240066667,137.0237362325,679524.2050516901,4122594.977254674
956,[2021-02-22 16:08:52.785] $GPGGA,70852.1,3713.95614061,N,13701.42417523,E,4,12.0,1.3,97.761,M,36.771,M,3.1,0000*7D,37.2326023435,137.02373625383333,679524.2070799803,4122594.9709521355
958,[2021-02-22 16:08:52.785] $GPGGA,70852.2,3713.95614068,N,13701.42417452,E,4,12.0,1.3,97.758,M,36.771,M,3.2,0000*79,37.23260234466667,137.02373624199998,679524.2060273673,4122594.9710591407
960,[2021-02-22 16:08:52.785] $GPGGA,70852.3,3713.95614032,N,13701.42417241,E,4,12.0,1.3,97.767,M,36.771,M,2.3,0000*7F,37.232602338666666,137.02373620683335,679524.2029216411,4122594.9703266965
962,[2021-02-22 16:08:52.800] $GPGGA,70852.4,3713.95613965,N,13701.42417085,E,4,12.0,1.3,97.766,M,36.771,M,2.4,0000*78,37.2326023275,137.0237361808333,679524.2006414266,4122594.969038367
964,[2021-02-22 16:08:52.894] $GPGGA,70852.5,3713.95614183,N,13701.42416969,E,4,12.0,1.3,97.767,M,36.771,M,2.5,0000*74,37.23260236383333,137.0237361615,679524.1988399996,4122594.9730331074
966,[2021-02-22 16:08:53.003] $GPGGA,70852.6,3713.95613525,N,13701.42417094,E,4,12.0,1.3,97.764,M,36.771,M,2.6,0000*72,37.23260225416667,137.0237361823333,679524.2009484696,4122594.960904415
968,[2021-02-22 16:08:53.097] $GPGGA,70852.7,3713.95614001,N,13701.42416533,E,4,12.0,1.3,97.759,M,36.771,M,2.7,0000*71,37.2326023335,137.02373608883332,679524.1924650223,4122594.9695295985
970,[2021-02-22 16:08:53.191] $GPGGA,70852.8,3713.956135,N,13701.42416486,E,4,12.0,1.3,97.768,M,36.771,M,2.8,0000*7F,37.23260225,137.023736081,679524.1919681397,4122594.960249888
972,[2021-02-22 16:08:53.285] $GPGGA,70852.9,3713.95613781,N,13701.42416116,E,4,12.0,1.3,97.765,M,36.771,M,2.9,0000*75,37.23260229683334,137.02373601933334,679524.1863860176,4122594.965329373
974,[2021-02-22 16:08:53.410] $GPGGA,70853.0,3713.95613606,N,13701.42416155,E,4,12.0,1.3,97.768,M,36.771,M,3.0,0000*71,37.232602267666664,137.02373602583333,679524.1870318818,4122594.9621054763
976,[2021-02-22 16:08:53.488] $GPGGA,70853.1,3713.95613606,N,13701.42416085,E,4,12.0,1.3,97.763,M,36.771,M,3.1,0000*76,37.232602267666664,137.02373601416664,679524.1859968224,4122594.962083346
978,[2021-02-22 16:08:53.597] $GPGGA,70853.2,3713.95613782,N,13701.42416286,E,4,12.0,1.3,97.770,M,36.771,M,3.2,0000*78,37.232602297,137.02373604766666,679524.1888993336,4122594.9654016085
980,[2021-02-22 16:08:53.691] $GPGGA,70853.3,3713.95612885,N,13701.42416933,E,4,12.0,1.3,97.756,M,36.771,M,2.3,0000*71,37.232602147499996,137.0237361555,679524.1988208758,4122594.949018176
982,[2021-02-22 16:08:54.144] $GPGGA,70853.4,3713.95613307,N,13701.42416469,E,4,12.0,1.3,97.758,M,36.771,M,2.4,0000*7D,37.23260221783333,137.0237360781667,679524.1917930772,4122594.956675418
984,[2021-02-22 16:08:54.144] $GPGGA,70853.5,3713.95613005,N,13701.42416622,E,4,12.0,1.3,97.759,M,36.771,M,2.5,0000*70,37.2326021675,137.02373610366666,679524.1941748172,4122594.951138985
986,[2021-02-22 16:08:54.144] $GPGGA,70853.6,3713.95613252,N,13701.4241641,E,4,12.0,1.3,97.755,M,36.771,M,2.6,0000*7F,37.23260220866666,137.02373606833336,679524.1909424165,4122594.955639666
988,[2021-02-22 16:08:54.144] $GPGGA,70853.7,3713.95613122,N,13701.42416454,E,4,12.0,1.3,97.762,M,36.771,M,2.7,0000*7F,37.232602187000005,137.02373607566668,679524.1916444214,4122594.953249524
990,[2021-02-22 16:08:54.191] $GPGGA,70853.8,3713.9561323,N,13701.42416456,E,4,12.0,1.3,97.754,M,36.771,M,2.8,0000*78,37.23260220499999,137.023736076,679524.1916312933,4122594.9552473687
992,[2021-02-22 16:08:54.285] $GPGGA,70853.9,3713.95613247,N,13701.42416059,E,4,12.0,1.3,97.757,M,36.771,M,2.9,0000*70,37.23260220783333,137.02373600983333,679524.1857543128,4122594.9554362386
994,[2021-02-22 16:08:54.409] $GPGGA,70854.0,3713.95612768,N,13701.42416082,E,4,12.0,1.3,97.756,M,36.771,M,3.0,0000*78,37.232602128,137.02373601366665,679524.1862837868,4122594.9465854988
996,[2021-02-22 16:08:54.488] $GPGGA,70854.1,3713.95612787,N,13701.42415671,E,4,12.0,1.3,97.751,M,36.771,M,3.1,0000*77,37.232602131166665,137.02373594516664,679524.1801990042,4122594.9468069286
998,[2021-02-22 16:08:54.597] $GPGGA,70854.2,3713.95612731,N,13701.42416062,E,4,12.0,1.3,97.754,M,36.771,M,3.2,0000*78,37.23260212183333,137.02373601033332,679524.1860026857,4122594.9458949445
1000,[2021-02-22 16:08:54.691] $GPGGA,70854.3,3713.95613321,N,13701.42415787,E,4,12.0,1.3,97.742,M,36.771,M,2.3,0000*75,37.23260222016667,137.0237359645,679524.1817031151,4122594.956718712
1002,[2021-02-22 16:08:54.800] $GPGGA,70854.4,3713.95613208,N,13701.42416077,E,4,12.0,1.3,97.746,M,36.771,M,2.4,0000*70,37.23260220133333,137.02373601283333,679524.1860358901,4122594.954720714
1004,[2021-02-22 16:08:54.894] $GPGGA,70854.5,3713.95613181,N,13701.42416134,E,4,12.0,1.3,97.747,M,36.771,M,2.5,0000*75,37.232602196833334,137.02373602233334,679524.1868893993,4122594.9542394313
1006,[2021-02-22 16:08:55.003] $GPGGA,70854.6,3713.95613078,N,13701.42416166,E,4,12.0,1.3,97.745,M,36.771,M,2.6,0000*77,37.23260217966667,137.02373602766667,679524.1874032919,4122594.9523447966
1008,[2021-02-22 16:08:55.097] $GPGGA,70854.7,3713.9561331,N,13701.42416161,E,4,12.0,1.3,97.742,M,36.771,M,2.7,0000*7A,37.23260221833334,137.02373602683335,679524.1872376329,4122594.956633528
1010,[2021-02-22 16:08:55.206] $GPGGA,70854.8,3713.95613177,N,13701.42416324,E,4,12.0,1.3,97.741,M,36.771,M,2.8,0000*79,37.23260219616667,137.023736054,679524.1897004244,4122594.954225525
1012,[2021-02-22 16:08:55.284] $GPGGA,70854.9,3713.95613187,N,13701.42416821,E,4,12.0,1.3,97.741,M,36.771,M,2.9,0000*78,37.23260219783333,137.02373613683332,679524.1970453818,4122594.9545675716
1014,[2021-02-22 16:08:55.409] $GPGGA,70855.0,3713.95613127,N,13701.42416538,E,4,12.0,1.3,97.749,M,36.771,M,3.0,0000*7F,37.23260218783333,137.0237360896667,679524.1928845154,4122594.953368542
1016,[2021-02-22 16:08:55.488] $GPGGA,70855.1,3713.95613182,N,13701.42416478,E,4,12.0,1.3,97.744,M,36.771,M,3.1,0000*78,37.232602197000006,137.0237360796667,679524.1919755777,4122594.9543666737
1018,[2021-02-22 16:08:55.597] $GPGGA,70855.2,3713.95613174,N,13701.42416787,E,4,12.0,1.3,97.745,M,36.771,M,3.2,0000*73,37.23260219566666,137.02373613116666,679524.1965477781,4122594.954316417
1020,[2021-02-22 16:08:55.691] $GPGGA,70855.3,3713.95613244,N,13701.42416575,E,4,12.0,1.3,97.754,M,36.771,M,2.3,0000*7D,37.23260220733333,137.02373609583336,679524.1933853584,4122594.9555438873
1022,[2021-02-22 16:08:55.800] $GPGGA,70855.4,3713.95613172,N,13701.42416602,E,4,12.0,1.3,97.748,M,36.771,M,2.4,0000*75,37.23260219533333,137.02373610033337,679524.1938130622,4122594.954220946
1024,[2021-02-22 16:08:55.894] $GPGGA,70855.5,3713.956133,N,13701.4241646,E,4,12.0,1.3,97.754,M,36.771,M,2.5,0000*79,37.23260221666666,137.02373607666664,679524.1916627613,4122594.956543123
1026,[2021-02-22 16:08:56.003] $GPGGA,70855.6,3713.9561316,N,13701.42416804,E,4,12.0,1.3,97.752,M,36.771,M,2.6,0000*75,37.23260219333333,137.02373613400002,679524.1968046874,4122594.9540628926
1028,[2021-02-22 16:08:56.097] $GPGGA,70855.7,3713.95613271,N,13701.42416445,E,4,12.0,1.3,97.755,M,36.771,M,2.7,0000*78,37.23260221183333,137.02373607416666,679524.1914524296,4122594.956002093
1030,[2021-02-22 16:08:56.191] $GPGGA,70855.8,3713.95613308,N,13701.42416555,E,4,12.0,1.3,97.748,M,36.771,M,2.8,0000*7B,37.232602218,137.0237360925,679524.1930643223,4122594.9567210977
1032,[2021-02-22 16:08:56.284] $GPGGA,70855.9,3713.9561304,N,13701.42416683,E,4,12.0,1.3,97.749,M,36.771,M,2.9,0000*7D,37.232602173333326,137.02373611383334,679524.1950629596,4122594.9518055134
1034,[2021-02-22 16:08:56.394] $GPGGA,70856.0,3713.95612924,N,13701.42416674,E,4,12.0,1.3,97.746,M,36.771,M,3.0,0000*72,37.23260215399999,137.02373611233332,679524.1949757439,4122594.9496575133
1036,[2021-02-22 16:08:56.488] $GPGGA,70856.1,3713.95613432,N,13701.42416851,E,4,12.0,1.3,97.745,M,36.771,M,3.1,0000*73,37.232602238666665,137.02373614183335,679524.1973921149,4122594.959107772
1038,[2021-02-22 16:08:56.597] $GPGGA,70856.2,3713.95613237,N,13701.42416662,E,4,12.0,1.3,97.750,M,36.771,M,3.2,0000*7A,37.23260220616667,137.02373611033335,679524.194674555,4122594.9554419424
1040,[2021-02-22 16:08:56.691] $GPGGA,70856.3,3713.9561322,N,13701.42416822,E,4,12.0,1.3,97.749,M,36.771,M,2.3,0000*7F,37.23260220333333,137.02373613700001,679524.1970471229,4122594.9551781463
1042,[2021-02-22 16:08:56.800] $GPGGA,70856.4,3713.95613451,N,13701.42416507,E,4,12.0,1.3,97.746,M,36.771,M,2.4,0000*7A,37.232602241833334,137.0237360845,679524.192298029,4122594.959350383
1044,[2021-02-22 16:08:56.894] $GPGGA,70856.5,3713.95613337,N,13701.42417002,E,4,12.0,1.3,97.756,M,36.771,M,2.5,0000*7D,37.232602222833336,137.02373616699998,679524.1996624384,4122594.9573987
1046,[2021-02-22 16:08:57.003] $GPGGA,70856.6,3713.95613535,N,13701.42416529,E,4,12.0,1.3,97.753,M,36.771,M,2.6,0000*71,37.232602255833335,137.0237360881667,679524.1925901242,4122594.9609107273
1048,[2021-02-22 16:08:57.097] $GPGGA,70856.7,3713.95613485,N,13701.42416838,E,4,12.0,1.3,97.758,M,36.771,M,2.7,0000*7D,37.232602247500004,137.02373613966662,679524.197178928,4122594.960083776
1050,[2021-02-22 16:08:57.191] $GPGGA,70856.8,3713.95613464,N,13701.42416813,E,4,12.0,1.3,97.754,M,36.771,M,2.8,0000*77,37.232602244,137.0237361355,679524.1968175729,4122594.9596875273
1052,[2021-02-22 16:08:57.284] $GPGGA,70856.9,3713.95613512,N,13701.42416879,E,4,12.0,1.3,97.754,M,36.771,M,2.9,0000*7B,37.232602252,137.02373614649997,679524.1977745034,4122594.9605960418
1054,[2021-02-22 16:08:57.394] $GPGGA,70857.0,3713.95613582,N,13701.42416726,E,4,12.0,1.3,97.756,M,36.771,M,3.0,0000*75,37.232602263666664,137.023736121,679524.1954844899,4122594.9618421625
1056,[2021-02-22 16:08:57.487] $GPGGA,70857.1,3713.95613334,N,13701.42416831,E,4,12.0,1.3,97.755,M,36.771,M,3.1,0000*74,37.23260222233334,137.02373613850003,679524.1971351292,4122594.9572891635
1058,[2021-02-22 16:08:57.597] $GPGGA,70857.2,3713.95613445,N,13701.42416733,E,4,12.0,1.3,97.757,M,36.771,M,3.2,0000*7A,37.23260224083332,137.02373612216667,679524.1956421606,4122594.959310873
1060,[2021-02-22 16:08:57.691] $GPGGA,70857.3,3713.95613369,N,13701.42416687,E,4,12.0,1.3,97.756,M,36.771,M,2.3,0000*7D,37.23260222816667,137.02373611450002,679524.1949920305,4122594.957890884
1062,[2021-02-22 16:08:57.800] $GPGGA,70857.4,3713.95613354,N,13701.42416716,E,4,12.0,1.3,97.756,M,36.771,M,2.4,0000*7A,37.23260222566666,137.0237361193333,679524.1954267655,4122594.9576226613
1064,[2021-02-22 16:08:57.894] $GPGGA,70857.5,3713.95613297,N,13701.42416659,E,4,12.0,1.3,97.753,M,36.771,M,2.5,0000*7B,37.23260221616667,137.02373610983335,679524.1946064723,4122594.9565505562
1066,[2021-02-22 16:08:58.003] $GPGGA,70857.6,3713.95613472,N,13701.42416545,E,4,12.0,1.3,97.757,M,36.771,M,2.6,0000*7C,37.23260224533333,137.02373609083335,679524.1928516162,4122594.959750743
1068,[2021-02-22 16:08:58.081] $GPGGA,70857.7,3713.95613469,N,13701.42416516,E,4,12.0,1.3,97.748,M,36.771,M,2.7,0000*7E,37.23260224483334,137.023736086,679524.1924239935,4122594.9596860986
1070,[2021-02-22 16:08:58.191] $GPGGA,70857.8,3713.95612972,N,13701.42416507,E,4,12.0,1.3,97.751,M,36.771,M,2.8,0000*70,37.23260216199999,137.0237360845,679524.1924874127,4122594.9504923685
1072,[2021-02-22 16:08:58.284] $GPGGA,70857.9,3713.95613142,N,13701.42416484,E,4,12.0,1.3,97.748,M,36.771,M,2.9,0000*78,37.23260219033334,137.02373608066668,679524.1920801111,4122594.953628862
1074,[2021-02-22 16:08:58.394] $GPGGA,70858.0,3713.95613269,N,13701.42416346,E,4,12.0,1.3,97.752,M,36.771,M,3.0,0000*7E,37.2326022115,137.0237360576667,679524.1899893567,4122594.95593381
1076,[2021-02-22 16:08:58.487] $GPGGA,70858.1,3713.95612823,N,13701.42416543,E,4,12.0,1.3,97.755,M,36.771,M,3.1,0000*7F,37.232602137166666,137.02373609050002,679524.1930786413,4122594.947748336
1078,[2021-02-22 16:08:58.597] $GPGGA,70858.2,3713.95613049,N,13701.42416346,E,4,12.0,1.3,97.755,M,36.771,M,3.2,0000*79,37.23260217483333,137.0237360576667,679524.1900763387,4122594.9518654123
1080,[2021-02-22 16:08:58.690] $GPGGA,70858.3,3713.9561344,N,13701.42415753,E,4,12.0,1.3,97.763,M,36.771,M,2.3,0000*73,37.23260224,137.02373595883333,679524.1811533243,4122594.9589085975
1082,[2021-02-22 16:08:58.800] $GPGGA,70858.4,3713.95613446,N,13701.42415857,E,4,12.0,1.3,97.765,M,36.771,M,2.4,0000*78,37.23260224100001,137.02373597616668,679524.1826887529,4122594.959052433
1084,[2021-02-22 16:08:58.894] $GPGGA,70858.5,3713.95613361,N,13701.42415879,E,4,12.0,1.3,97.751,M,36.771,M,2.5,0000*71,37.232602226833336,137.0237359798333,679524.1830476616,4122594.9574875063
1086,[2021-02-22 16:08:59.003] $GPGGA,70858.6,3713.95613507,N,13701.42415707,E,4,12.0,1.3,97.760,M,36.771,M,2.6,0000*73,37.23260225116667,137.02373595116666,679524.1804466536,4122594.960133068
1088,[2021-02-22 16:08:59.097] $GPGGA,70858.7,3713.95613499,N,13701.42416011,E,4,12.0,1.3,97.756,M,36.771,M,2.7,0000*73,37.232602249833334,137.02373600183333,679524.184944926,4122594.9600812313
1090,[2021-02-22 16:08:59.190] $GPGGA,70858.8,3713.95613297,N,13701.42415874,E,4,12.0,1.3,97.759,M,36.771,M,2.8,0000*7C,37.23260221616667,137.02373597899998,679524.182999033,4122594.9563023904
1092,[2021-02-22 16:08:59.284] $GPGGA,70858.9,3713.95613387,N,13701.42415685,E,4,12.0,1.3,97.754,M,36.771,M,2.9,0000*71,37.232602231166666,137.02373594750003,679524.1801687963,4122594.957906986
1094,[2021-02-22 16:08:59.409] $GPGGA,70859.0,3713.95613311,N,13701.42415703,E,4,12.0,1.3,97.756,M,36.771,M,3.0,0000*73,37.2326022185,137.02373595049997,679524.1804649981,4122594.9565072292
1096,[2021-02-22 16:08:59.487] $GPGGA,70859.1,3713.95613475,N,13701.42415485,E,4,12.0,1.3,97.755,M,36.771,M,3.1,0000*78,37.232602245833334,137.02373591416665,679524.1771766904,4122594.959471118
1098,[2021-02-22 16:08:59.597] $GPGGA,70859.2,3713.95613063,N,13701.42416034,E,4,12.0,1.3,97.756,M,36.771,M,3.2,0000*75,37.23260217716667,137.02373600566665,679524.1854573967,4122594.9520256757
1100,[2021-02-22 16:08:59.690] $GPGGA,70859.3,3713.95613005,N,13701.42415663,E,4,11.0,1.5,97.758,M,36.771,M,2.3,0000*78,37.2326021675,137.02373594383334,679524.1799945245,4122594.9508358114
1102,[2021-02-22 16:08:59.800] $GPGGA,70859.4,3713.95612893,N,13701.42415569,E,4,11.0,1.5,97.752,M,36.771,M,2.4,0000*7D,37.23260214883333,137.02373592816667,679524.1786488706,4122594.9487349107
1104,[2021-02-22 16:08:59.894] $GPGGA,70859.5,3713.95613006,N,13701.42415505,E,4,11.0,1.5,97.752,M,36.771,M,2.5,0000*72,37.23260216766667,137.0237359175,679524.1776578549,4122594.950804355
1106,[2021-02-22 16:09:00.003] $GPGGA,70859.6,3713.95613046,N,13701.42415531,E,4,11.0,1.5,97.755,M,36.771,M,2.6,0000*76,37.23260217433334,137.02373592183332,679524.1780264884,4122594.9515522835
1108,[2021-02-22 16:09:00.097] $GPGGA,70859.7,3713.9561292,N,13701.42415683,E,4,11.0,1.5,97.753,M,36.771,M,2.7,0000*72,37.232602153333325,137.02373594716667,679524.1803238612,4122594.949270253
1110,[2021-02-22 16:09:00.190] $GPGGA,70859.8,3713.95613155,N,13701.42415364,E,4,11.0,1.5,97.752,M,36.771,M,2.8,0000*74,37.2326021925,137.023735894,679524.1755140394,4122594.9535151958
1112,[2021-02-22 16:09:00.284] $GPGGA,70859.9,3713.95612988,N,13701.42415418,E,4,11.0,1.5,97.753,M,36.771,M,2.9,0000*70,37.23260216466666,137.02373590300002,679524.1763785426,4122594.950443982
1114,[2021-02-22 16:09:00.393] $GPGGA,70900.0,3713.95612991,N,13701.42415474,E,4,11.0,1.5,97.754,M,36.771,M,3.0,0000*79,37.23260216516667,137.0237359123333,679524.1772053998,4122594.9505171645
1116,[2021-02-22 16:09:00.487] $GPGGA,70900.1,3713.95612847,N,13701.42415566,E,4,11.0,1.5,97.752,M,36.771,M,3.1,0000*77,37.232602141166666,137.02373592766668,679524.1786226972,4122594.947883296
1118,[2021-02-22 16:09:00.597] $GPGGA,70900.2,3713.95613042,N,13701.42415614,E,4,11.0,1.5,97.750,M,36.771,M,3.2,0000*7F,37.23260217366667,137.02373593566665,679524.1792553524,4122594.9515045523
1120,[2021-02-22 16:09:00.690] $GPGGA,70900.3,3713.95612606,N,13701.4241602,E,4,11.0,1.5,97.750,M,36.771,M,2.3,0000*7B,37.232602101,137.02373600333334,679524.1854310731,4122594.943570076
1122,[2021-02-22 16:09:00.800] $GPGGA,70900.4,3713.95612598,N,13701.42415813,E,4,11.0,1.5,97.750,M,36.771,M,2.4,0000*74,37.232602099666664,137.0237359688333,679524.1823734182,4122594.9433566947
1124,[2021-02-22 16:09:00.893] $GPGGA,70900.5,3713.95612703,N,13701.42415451,E,4,11.0,1.5,97.748,M,36.771,M,2.5,0000*77,37.232602117166664,137.0237359085,679524.176979177,4122594.9451839887
1126,[2021-02-22 16:09:01.003] $GPGGA,70900.6,3713.95612592,N,13701.42415357,E,4,11.0,1.5,97.751,M,36.771,M,2.6,0000*74,37.23260209866667,137.02373589283332,679524.1756331276,4122594.943101581
1128,[2021-02-22 16:09:01.097] $GPGGA,70900.7,3713.95612381,N,13701.424157,E,4,11.0,1.5,97.751,M,36.771,M,2.7,0000*76,37.2326020635,137.02373595,679524.1807883391,4122594.939308051
1130,[2021-02-22 16:09:01.206] $GPGGA,70900.8,3713.95613022,N,13701.42415272,E,4,11.0,1.5,97.746,M,36.771,M,2.8,0000*7B,37.23260217033334,137.02373587866666,679524.1742062626,4122594.9510265794
1132,[2021-02-22 16:09:01.284] $GPGGA,70900.9,3713.95612733,N,13701.42415295,E,4,11.0,1.5,97.761,M,36.771,M,2.9,0000*71,37.232602122166675,137.0237358825,679524.174660618,4122594.945689455
1134,[2021-02-22 16:09:01.409] $GPGGA,70901.0,3713.95612996,N,13701.42415305,E,4,11.0,1.5,97.747,M,36.771,M,3.0,0000*7C,37.23260216599999,137.02373588416668,679524.1747045,4122594.950556201
1136,[2021-02-22 16:09:01.487] $GPGGA,70901.1,3713.95613562,N,13701.42414973,E,4,11.0,1.5,97.746,M,36.771,M,3.1,0000*71,37.232602260333344,137.02373582883337,679524.1695715889,4122594.960918125
1138,[2021-02-22 16:09:01.597] $GPGGA,70901.2,3713.95613291,N,13701.42415158,E,4,11.0,1.5,97.749,M,36.771,M,3.2,0000*75,37.23260221516667,137.02373585966666,679524.1724142416,4122594.955965081
1140,[2021-02-22 16:09:01.690] $GPGGA,70901.3,3713.95613397,N,13701.42415418,E,4,12.0,1.3,97.753,M,36.771,M,2.3,0000*7C,37.23260223283334,137.02373590300002,679524.176216835,4122594.958007505
1142,[2021-02-22 16:09:01.800] $GPGGA,70901.4,3713.95613227,N,13701.42415467,E,4,12.0,1.3,97.757,M,36.771,M,2.4,0000*7A,37.232602204500004,137.02373591116665,679524.1770085873,4122594.9548792345
1144,[2021-02-22 16:09:01.893] $GPGGA,70901.5,3713.95613402,N,13701.42415503,E,4,12.0,1.3,97.753,M,36.771,M,2.5,0000*7C,37.23260223366666,137.02373591716668,679524.1774717128,4122594.9581268397
1146,[2021-02-22 16:09:02.003] $GPGGA,70901.6,3713.95613542,N,13701.42415871,E,4,12.0,1.3,97.750,M,36.771,M,2.6,0000*72,37.232602256999996,137.0237359785,679524.1828578108,4122594.9608321586
1148,[2021-02-22 16:09:02.096] $GPGGA,70901.7,3713.95613689,N,13701.42415736,E,4,12.0,1.3,97.753,M,36.771,M,2.7,0000*79,37.23260228149999,137.023735956,679524.1808035047,4122594.9635079093
1150,[2021-02-22 16:09:02.190] $GPGGA,70901.8,3713.95613646,N,13701.42415991,E,4,12.0,1.3,97.754,M,36.771,M,2.8,0000*7E,37.23260227433333,137.02373599850003,679524.1845910784,4122594.962793338
1152,[2021-02-22 16:09:02.284] $GPGGA,70901.9,3713.95613463,N,13701.42416335,E,4,12.0,1.3,97.756,M,36.771,M,2.9,0000*7E,37.232602243833334,137.02373605583335,679524.189750001,4122594.959517921
1154,[2021-02-22 16:09:02.409] $GPGGA,70902.0,3713.95613515,N,13701.42416318,E,4,12.0,1.3,97.752,M,36.771,M,3.0,0000*77,37.2326022525,137.023736053,679524.1894780676,4122594.960474168
1156,[2021-02-22 16:09:02.487] $GPGGA,70902.1,3713.9561359,N,13701.42416232,E,4,12.0,1.3,97.750,M,36.771,M,3.1,0000*71,37.232602265,137.02373603866667,679524.188176774,4122594.961833934
1158,[2021-02-22 16:09:02.596] $GPGGA,70902.2,3713.95613541,N,13701.42416274,E,4,12.0,1.3,97.753,M,36.771,M,3.2,0000*7C,37.23260225683334,137.02373604566665,679524.1888171792,4122594.96094107
1160,[2021-02-22 16:09:02.690] $GPGGA,70902.3,3713.95613888,N,13701.42416356,E,4,12.0,1.3,97.753,M,36.771,M,2.3,0000*74,37.232602314666664,137.02373605933334,679524.1898924834,4122594.9673839654
1162,[2021-02-22 16:09:02.800] $GPGGA,70902.4,3713.95614252,N,13701.42415832,E,4,12.0,1.3,97.744,M,36.771,M,2.4,0000*72,37.232602375333336,137.023735972,679524.1820004175,4122594.9739496615
1164,[2021-02-22 16:09:02.893] $GPGGA,70902.5,3713.95614192,N,13701.42416095,E,4,12.0,1.3,97.753,M,36.771,M,2.5,0000*7D,37.232602365333335,137.02373601583335,679524.1859130033,4122594.972923241
1166,[2021-02-22 16:09:03.003] $GPGGA,70902.6,3713.95614251,N,13701.42415805,E,4,12.0,1.3,97.750,M,36.771,M,2.6,0000*70,37.232602375166664,137.0237359675,679524.1816015762,4122594.973922631
1168,[2021-02-22 16:09:03.096] $GPGGA,70902.7,3713.95614053,N,13701.42415857,E,4,12.0,1.3,97.752,M,36.771,M,2.7,0000*75,37.232602342166665,137.02373597616668,679524.1824487615,4122594.9702775124
1170,[2021-02-22 16:09:03.190] $GPGGA,70902.8,3713.95613988,N,13701.42416144,E,4,12.0,1.3,97.749,M,36.771,M,2.8,0000*7F,37.23260233133333,137.023736024,679524.1867181982,4122594.9691662164
1172,[2021-02-22 16:09:03.284] $GPGGA,70902.9,3713.95614217,N,13701.42415997,E,4,12.0,1.3,97.751,M,36.771,M,2.9,0000*79,37.2326023695,137.0237359995,679524.1844540345,4122594.9733545776
1174,[2021-02-22 16:09:03.393] $GPGGA,70903.0,3713.95614031,N,13701.4241591,E,4,12.0,1.3,97.749,M,36.771,M,3.0,0000*79,37.23260233850001,137.023735985,679524.1832411472,4122594.9698874294
1176,[2021-02-22 16:09:03.487] $GPGGA,70903.1,3713.95614192,N,13701.42415694,E,4,12.0,1.3,97.752,M,36.771,M,3.1,0000*78,37.232602365333335,137.023735949,679524.1799836,4122594.972796471
1178,[2021-02-22 16:09:03.596] $GPGGA,70903.2,3713.95614016,N,13701.42416223,E,4,12.0,1.3,97.752,M,36.771,M,3.2,0000*7E,37.232602336,137.02373603716669,679524.1878752661,4122594.9697089875
1180,[2021-02-22 16:09:03.690] $GPGGA,70903.3,3713.95614023,N,13701.42416333,E,4,11.0,1.5,97.758,M,36.771,M,2.3,0000*76,37.232602337166675,137.0237360555,679524.1894990178,4122594.9698732123
1182,[2021-02-22 16:09:03.799] $GPGGA,70903.4,3713.95613863,N,13701.42416376,E,4,11.0,1.5,97.761,M,36.771,M,2.4,0000*76,37.232602310500006,137.02373606266667,679524.1901980977,4122594.966927971
1184,[2021-02-22 16:09:03.893] $GPGGA,70903.5,3713.95614117,N,13701.42416037,E,4,11.0,1.5,97.758,M,36.771,M,2.5,0000*77,37.23260235283333,137.02373600616664,679524.185085034,4122594.971517951
1186,[2021-02-22 16:09:04.003] $GPGGA,70903.6,3713.95613925,N,13701.4241682,E,4,11.0,1.5,97.757,M,36.771,M,2.6,0000*78,37.23260232083333,137.02373613666668,679524.1967388127,4122594.9682148825
1188,[2021-02-22 16:09:04.096] $GPGGA,70903.7,3713.95614191,N,13701.42416369,E,4,11.0,1.5,97.757,M,36.771,M,2.7,0000*7E,37.23260236516666,137.02373606150002,679524.1899649109,4122594.9729913697
1190,[2021-02-22 16:09:04.190] $GPGGA,70903.8,3713.95614107,N,13701.42416615,E,4,11.0,1.5,97.758,M,36.771,M,2.8,0000*70,37.23260235116666,137.02373610249998,679524.1936356092,4122594.97151575
1192,[2021-02-22 16:09:04.284] $GPGGA,70903.9,3713.95614161,N,13701.42416667,E,4,11.0,1.5,97.760,M,36.771,M,2.9,0000*7E,37.232602360166666,137.02373611116667,679524.1943831607,4122594.9725307967
1194,[2021-02-22 16:09:04.393] $GPGGA,70904.0,3713.9561436,N,13701.42416477,E,4,11.0,1.5,97.759,M,36.771,M,3.0,0000*72,37.23260239333334,137.0237360795,679524.1914950378,4122594.9761507832
1196,[2021-02-22 16:09:04.487] $GPGGA,70904.1,3713.95614059,N,13701.4241637,E,4,11.0,1.5,97.756,M,36.771,M,3.1,0000*74,37.23260234316666,137.02373606166665,679524.1900318839,4122594.970550645
1198,[2021-02-22 16:09:04.596] $GPGGA,70904.2,3713.95613952,N,13701.42416442,E,4,11.0,1.5,97.758,M,36.771,M,3.2,0000*79,37.23260232533333,137.02373607366664,679524.1911388203,4122594.9685946866
1200,[2021-02-22 16:09:04.690] $GPGGA,70904.3,3713.95614294,N,13701.42415941,E,4,11.0,1.5,97.756,M,36.771,M,2.3,0000*7D,37.23260238233334,137.0237359901667,679524.1835955495,4122594.974760815
1202,[2021-02-22 16:09:04.799] $GPGGA,70904.4,3713.95613924,N,13701.4241614,E,4,11.0,1.5,97.758,M,36.771,M,2.4,0000*7E,37.232602320666665,137.02373602333336,679524.1866843579,4122594.967981418
1204,[2021-02-22 16:09:04.893] $GPGGA,70904.5,3713.95614133,N,13701.42416138,E,4,11.0,1.5,97.753,M,36.771,M,2.5,0000*73,37.2326023555,137.02373602300003,679524.1865721529,4122594.971845764
1206,[2021-02-22 16:09:05.003] $GPGGA,70904.6,3713.95614093,N,13701.42415814,E,4,11.0,1.5,97.761,M,36.771,M,2.6,0000*7D,37.23260234883333,137.023735969,679524.1817971262,4122594.971003628
1208,[2021-02-22 16:09:05.096] $GPGGA,70904.7,3713.95613864,N,13701.42416289,E,4,11.0,1.5,97.764,M,36.771,M,2.7,0000*72,37.23260231066667,137.02373604816668,679524.1889112757,4122594.9669189597
1210,[2021-02-22 16:09:05.206] $GPGGA,70904.8,3713.9561384,N,13701.42416322,E,4,11.0,1.5,97.758,M,36.771,M,2.8,0000*7B,37.232602306666664,137.02373605366665,679524.1894087177,4122594.966485567
1212,[2021-02-22 16:09:05.284] $GPGGA,70904.9,3713.95613845,N,13701.42416379,E,4,11.0,1.5,97.758,M,36.771,M,2.9,0000*70,37.232602307499995,137.02373606316667,679524.1902495748,4122594.9665960493
1214,[2021-02-22 16:09:05.409] $GPGGA,70905.0,3713.95613941,N,13701.42416419,E,4,11.0,1.5,97.759,M,36.771,M,3.0,0000*75,37.2326023235,137.02373606983335,679524.1908030811,4122594.968383996
1216,[2021-02-22 16:09:05.487] $GPGGA,70905.1,3713.95613795,N,13701.4241631,E,4,11.0,1.5,97.760,M,36.771,M,3.1,0000*76,37.23260229916667,137.02373605166667,679524.1892490725,4122594.9656496
1218,[2021-02-22 16:09:05.596] $GPGGA,70905.2,3713.95613809,N,13701.42416558,E,4,11.0,1.5,97.764,M,36.771,M,3.2,0000*72,37.232602301499995,137.023736093,679524.1929105986,4122594.9659869
1220,[2021-02-22 16:09:05.690] $GPGGA,70905.3,3713.95613535,N,13701.42417025,E,4,11.0,1.5,97.759,M,36.771,M,2.3,0000*71,37.232602255833335,137.02373617083336,679524.1999242492,4122594.9610675303
1222,[2021-02-22 16:09:05.799] $GPGGA,70905.4,3713.95614113,N,13701.42416364,E,4,11.0,1.5,97.756,M,36.771,M,2.4,0000*7E,37.232602352166666,137.0237360606667,679524.1899218196,4122594.971547357
1224,[2021-02-22 16:09:05.893] $GPGGA,70905.5,3713.95614055,N,13701.42416611,E,4,11.0,1.5,97.757,M,36.771,M,2.5,0000*7B,37.232602342499995,137.02373610183335,679524.1935970266,4122594.9705528636
1226,[2021-02-22 16:09:06.002] $GPGGA,70905.6,3713.95614035,N,13701.42416834,E,4,11.0,1.5,97.763,M,36.771,M,2.6,0000*73,37.232602339166675,137.023736139,679524.1969023308,4122594.9702535085
1228,[2021-02-22 16:09:06.096] $GPGGA,70905.7,3713.95613912,N,13701.42417028,E,4,11.0,1.5,97.762,M,36.771,M,2.7,0000*7D,37.232602318666665,137.02373617133335,679524.1998195541,4122594.968040233
1230,[2021-02-22 16:09:06.206] $GPGGA,70905.8,3713.95614175,N,13701.42416604,E,4,11.0,1.5,97.762,M,36.771,M,2.8,0000*7A,37.232602362499996,137.02373610066664,679524.1934460707,4122594.972769777
1232,[2021-02-22 16:09:06.284] $GPGGA,70905.9,3713.95614057,N,13701.42417035,E,4,11.0,1.5,97.767,M,36.771,M,2.9,0000*7B,37.23260234283333,137.0237361725,679524.1998657295,4122594.970723891
1234,[2021-02-22 16:09:06.409] $GPGGA,70906.0,3713.95614167,N,13701.42416853,E,4,11.0,1.5,97.762,M,36.771,M,3.0,0000*77,37.23260236116666,137.02373614216665,679524.1971310856,4122594.9727005525
1236,[2021-02-22 16:09:06.487] $GPGGA,70906.1,3713.95613702,N,13701.42417428,E,4,11.0,1.5,97.760,M,36.771,M,3.1,0000*76,37.232602283666665,137.02373623800003,679524.2058171997,4122594.964283216
1238,[2021-02-22 16:09:06.596] $GPGGA,70906.2,3713.95613981,N,13701.42417074,E,4,11.0,1.5,97.761,M,36.771,M,3.2,0000*7F,37.232602330166664,137.023736179,679524.2004724517,4122594.969330774
1240,[2021-02-22 16:09:06.690] $GPGGA,70906.3,3713.95613913,N,13701.42416787,E,4,12.0,1.3,97.764,M,36.771,M,2.3,0000*7F,37.23260231883333,137.02373613116666,679524.1962555973,4122594.9679825376
1242,[2021-02-22 16:09:06.799] $GPGGA,70906.4,3713.95613956,N,13701.42416706,E,4,12.0,1.3,97.759,M,36.771,M,2.4,0000*79,37.232602326,137.02373611766666,679524.1950408882,4122594.9687521183
1244,[2021-02-22 16:09:06.893] $GPGGA,70906.5,3713.95613937,N,13701.42416612,E,4,12.0,1.3,97.756,M,36.771,M,2.5,0000*75,37.23260232283333,137.02373610200002,679524.1936584667,4122594.968371039
1246,[2021-02-22 16:09:07.002] $GPGGA,70906.6,3713.95613589,N,13701.42416709,E,4,12.0,1.3,97.763,M,36.771,M,2.6,0000*71,37.23260226483334,137.02373611816665,679524.1952303483,4122594.9619662394
1248,[2021-02-22 16:09:07.096] $GPGGA,70906.7,3713.95613612,N,13701.42416758,E,4,12.0,1.3,97.761,M,36.771,M,2.7,0000*76,37.23260226866667,137.02373612633335,679524.1959457981,4122594.962407061
1250,[2021-02-22 16:09:07.190] $GPGGA,70906.8,3713.95613687,N,13701.4241726,E,4,12.0,1.3,97.756,M,36.771,M,2.8,0000*71,37.23260228116667,137.02373620999998,679524.2033389864,4122594.9639527155
1252,[2021-02-22 16:09:07.284] $GPGGA,70906.9,3713.95613789,N,13701.42416874,E,4,12.0,1.3,97.763,M,36.771,M,2.9,0000*76,37.23260229816666,137.0237361456667,679524.197591057,4122594.965716944
1254,[2021-02-22 16:09:07.409] $GPGGA,70907.0,3713.95613563,N,13701.42417231,E,4,12.0,1.3,97.759,M,36.771,M,3.0,0000*73,37.2326022605,137.0237362051667,679524.2029592083,4122594.9616504502
1256,[2021-02-22 16:09:07.487] $GPGGA,70907.1,3713.95613764,N,13701.4241715,E,4,12.0,1.3,97.760,M,36.771,M,3.1,0000*78,37.232602294,137.02373619166667,679524.2016820256,4122594.9653418805
1258,[2021-02-22 16:09:07.596] $GPGGA,70907.2,3713.95613668,N,13701.42417691,E,4,12.0,1.3,97.766,M,36.771,M,3.2,0000*79,37.232602277999995,137.02373628183335,679524.2097195012,4122594.963737608
1260,[2021-02-22 16:09:07.690] $GPGGA,70907.3,3713.95613731,N,13701.42417461,E,4,12.0,1.3,97.747,M,36.771,M,2.3,0000*7B,37.232602288500004,137.0237362435,679524.2062936869,4122594.964829939
1262,[2021-02-22 16:09:07.799] $GPGGA,70907.4,3713.95613558,N,13701.42417912,E,4,12.0,1.3,97.759,M,36.771,M,2.4,0000*70,37.23260225966666,137.02373631866666,679524.2130308169,4122594.9617732745
1264,[2021-02-22 16:09:07.893] $GPGGA,70907.5,3713.95613472,N,13701.42417813,E,4,12.0,1.3,97.752,M,36.771,M,2.5,0000*72,37.23260224533333,137.02373630216667,679524.211600953,4122594.960151602
1266,[2021-02-22 16:09:08.002] $GPGGA,70907.6,3713.95613322,N,13701.42418151,E,4,12.0,1.3,97.755,M,36.771,M,2.6,0000*77,37.23260222033334,137.0237363585,679524.2166581097,4122594.957484549
1268,[2021-02-22 16:09:08.096] $GPGGA,70907.7,3713.95613181,N,13701.42418471,E,4,12.0,1.3,97.759,M,36.771,M,2.7,0000*77,37.232602196833334,137.02373641183334,679524.2214455524,4122594.954978239
1270,[2021-02-22 16:09:08.205] $GPGGA,70907.8,3713.95613807,N,13701.42417997,E,4,12.0,1.3,97.732,M,36.771,M,2.8,0000*77,37.23260230116667,137.02373633283332,679524.2141892258,4122594.966404834
1272,[2021-02-22 16:09:08.284] $GPGGA,70907.9,3713.95612716,N,13701.42418104,E,4,12.0,1.3,97.748,M,36.771,M,2.9,0000*79,37.232602119333336,137.02373635066667,679524.216202739,4122594.946263103
1274,[2021-02-22 16:09:08.408] $GPGGA,70908.0,3713.95612937,N,13701.42417756,E,4,12.0,1.3,97.750,M,36.771,M,3.0,0000*7D,37.232602156166664,137.02373629266665,679524.2109696436,4122594.950239978
1276,[2021-02-22 16:09:08.487] $GPGGA,70908.1,3713.9561295,N,13701.42417748,E,4,12.0,1.3,97.747,M,36.771,M,3.1,0000*75,37.232602158333336,137.0237362913333,679524.2108462086,4122594.9504778543
1278,[2021-02-22 16:09:08.596] $GPGGA,70908.2,3713.95612734,N,13701.42418007,E,4,12.0,1.3,97.757,M,36.771,M,3.2,0000*7B,37.23260212233333,137.0237363345,679524.2147613261,4122594.9465653053
1280,[2021-02-22 16:09:08.690] $GPGGA,70908.3,3713.95613185,N,13701.42417206,E,4,12.0,1.3,97.747,M,36.771,M,2.3,0000*7A,37.2326021975,137.02373620100002,679524.2027389947,4122594.9546522982
1282,[2021-02-22 16:09:08.799] $GPGGA,70908.4,3713.9561303,N,13701.42417475,E,4,12.0,1.3,97.746,M,36.771,M,2.4,0000*76,37.23260217166667,137.02373624583333,679524.2067778548,4122594.951870968
1284,[2021-02-22 16:09:08.893] $GPGGA,70908.5,3713.9561314,N,13701.42417586,E,4,12.0,1.3,97.747,M,36.771,M,2.5,0000*7C,37.232602189999994,137.02373626433334,679524.2083756714,4122594.9539402565
1286,[2021-02-22 16:09:09.002] $GPGGA,70908.6,3713.9561303,N,13701.42417741,E,4,12.0,1.3,97.748,M,36.771,M,2.6,0000*7C,37.23260217166667,137.02373629016665,679524.2107110741,4122594.9519550595
1288,[2021-02-22 16:09:09.096] $GPGGA,70908.7,3713.95613072,N,13701.42417614,E,4,12.0,1.3,97.752,M,36.771,M,2.7,0000*70,37.232602178666674,137.023736269,679524.2088165795,4122594.9526916053
1290,[2021-02-22 16:09:09.205] $GPGGA,70908.8,3713.95613279,N,13701.42417256,E,4,12.0,1.3,97.748,M,36.771,M,2.8,0000*70,37.232602213166665,137.02373620933335,679524.2034411567,4122594.9564064206
1292,[2021-02-22 16:09:09.283] $GPGGA,70908.9,3713.95613457,N,13701.42417044,E,4,12.0,1.3,97.750,M,36.771,M,2.9,0000*72,37.23260224283334,137.02373617399996,679524.2002360278,4122594.959631105
1294,[2021-02-22 16:09:09.408] $GPGGA,70909.0,3713.95613388,N,13701.42417115,E,4,12.0,1.3,97.752,M,36.771,M,3.0,0000*70,37.23260223133333,137.02373618583334,679524.2013131562,4122594.958377552
1296,[2021-02-22 16:09:09.487] $GPGGA,70909.1,3713.95613448,N,13701.42416925,E,4,12.0,1.3,97.754,M,36.771,M,3.1,0000*77,37.23260224133333,137.02373615416667,679524.1984799902,4122594.95942705
1298,[2021-02-22 16:09:09.596] $GPGGA,70909.2,3713.95613088,N,13701.42417313,E,4,12.0,1.3,97.750,M,36.771,M,3.2,0000*75,37.23260218133333,137.02373621883336,679524.204359507,4122594.9528923295
1300,[2021-02-22 16:09:09.690] $GPGGA,70909.3,3713.9561321,N,13701.42417326,E,4,11.0,1.5,97.747,M,36.771,M,2.3,0000*72,37.23260220166667,137.023736221,679524.2045034945,4122594.9551525535
1302,[2021-02-22 16:09:09.799] $GPGGA,70909.4,3713.95613654,N,13701.42416694,E,4,11.0,1.5,97.757,M,36.771,M,2.4,0000*7A,37.232602275666665,137.02373611566668,679524.1949828537,4122594.9631635225
1304,[2021-02-22 16:09:09.893] $GPGGA,70909.5,3713.95613479,N,13701.42416828,E,4,11.0,1.5,97.751,M,36.771,M,2.5,0000*78,37.2326022465,137.02373613799998,679524.1970334374,4122594.959969659
1306,[2021-02-22 16:09:10.002] $GPGGA,70909.6,3713.95613306,N,13701.42416896,E,4,11.0,1.5,97.750,M,36.771,M,2.6,0000*73,37.232602217666674,137.02373614933333,679524.1981073243,4122594.9567919173
1308,[2021-02-22 16:09:10.096] $GPGGA,70909.7,3713.95613531,N,13701.42416918,E,4,11.0,1.5,97.751,M,36.771,M,2.7,0000*77,37.23260225516667,137.02373615300002,679524.1983436696,4122594.9609597325
1310,[2021-02-22 16:09:10.205] $GPGGA,70909.8,3713.95613421,N,13701.42416901,E,4,11.0,1.5,97.752,M,36.771,M,2.8,0000*7C,37.23260223683334,137.02373615016666,679524.1981357867,4122594.958920159
1312,[2021-02-22 16:09:10.283] $GPGGA,70909.9,3713.95613627,N,13701.42416726,E,4,11.0,1.5,97.748,M,36.771,M,2.9,0000*78,37.23260227116667,137.023736121,679524.1954666981,4122594.9626743356
1314,[2021-02-22 16:09:10.393] $GPGGA,70910.0,3713.95613802,N,13701.42416919,E,4,11.0,1.5,97.753,M,36.771,M,3.0,0000*70,37.23260230033333,137.02373615316665,679524.1982513074,4122594.965971576
1316,[2021-02-22 16:09:10.487] $GPGGA,70910.1,3713.95613612,N,13701.42417005,E,4,11.0,1.5,97.755,M,36.771,M,3.1,0000*7C,37.23260226866667,137.0237361675,679524.1995980735,4122594.9624851462
1318,[2021-02-22 16:09:10.596] $GPGGA,70910.2,3713.95613703,N,13701.42416774,E,4,11.0,1.5,97.751,M,36.771,M,3.2,0000*79,37.23260228383334,137.023736129,679524.1961464025,4122594.964094958
1320,[2021-02-22 16:09:10.690] $GPGGA,70910.3,3713.95613866,N,13701.42416887,E,4,11.0,1.5,97.751,M,36.771,M,2.3,0000*77,37.232602311,137.02373614783332,679524.1977528342,4122594.9671449936
1322,[2021-02-22 16:09:10.799] $GPGGA,70910.4,3713.95613595,N,13701.42417323,E,4,11.0,1.5,97.754,M,36.771,M,2.4,0000*77,37.232602265833336,137.0237362205,679524.2043069155,4122594.962271302
1324,[2021-02-22 16:09:10.893] $GPGGA,70910.5,3713.95613647,N,13701.42417307,E,4,11.0,1.5,97.749,M,36.771,M,2.5,0000*71,37.2326022745,137.02373621783335,679524.2040497726,4122594.963227865
1326,[2021-02-22 16:09:11.002] $GPGGA,70910.6,3713.95613832,N,13701.42417293,E,4,11.0,1.5,97.755,M,36.771,M,2.6,0000*7C,37.23260230533333,137.02373621549998,679524.2037696127,4122594.966644591
1328,[2021-02-22 16:09:11.096] $GPGGA,70910.7,3713.95613722,N,13701.42417226,E,4,11.0,1.5,97.758,M,36.771,M,2.7,0000*71,37.232602287,137.02373620433332,679524.2028224069,4122594.9645892107
1330,[2021-02-22 16:09:11.190] $GPGGA,70910.8,3713.95613869,N,13701.42417118,E,4,11.0,1.5,97.750,M,36.771,M,2.8,0000*77,37.232602311499996,137.02373618633334,679524.2011673423,4122594.967273498
1332,[2021-02-22 16:09:11.283] $GPGGA,70910.9,3713.95613705,N,13701.42417233,E,4,11.0,1.5,97.754,M,36.771,M,2.9,0000*7C,37.23260228416666,137.02373620549997,679524.2029326329,4122594.964277048
1334,[2021-02-22 16:09:11.393] $GPGGA,70911.0,3713.95613923,N,13701.42417067,E,4,11.0,1.5,97.754,M,36.771,M,3.0,0000*75,37.23260232050001,137.02373617783334,679524.2003918788,4122594.9682559837
1336,[2021-02-22 16:09:11.486] $GPGGA,70911.1,3713.95613868,N,13701.42417055,E,4,11.0,1.5,97.754,M,36.771,M,3.1,0000*7A,37.23260231133334,137.02373617583336,679524.2002361873,4122594.9672350907
1338,[2021-02-22 16:09:11.596] $GPGGA,70911.2,3713.95614016,N,13701.42416984,E,4,11.0,1.5,97.754,M,36.771,M,3.2,0000*78,37.232602336,137.023736164,679524.1991278266,4122594.969949567
1340,[2021-02-22 16:09:11.690] $GPGGA,70911.3,3713.95613752,N,13701.42416865,E,4,11.0,1.5,97.758,M,36.771,M,2.3,0000*7B,37.232602292,137.0237361441667,679524.1974726069,4122594.9650298683
1342,[2021-02-22 16:09:11.799] $GPGGA,70911.4,3713.95613836,N,13701.42416843,E,4,11.0,1.5,97.760,M,36.771,M,2.4,0000*79,37.232602306,137.0237361405,679524.197114089,4122594.966576301
