,Format,Time,Latitude,LatType,Longitude,LonType,Status,Satellite,LevelAccuracy,Altitude(sea),M(sea),Altitude(geoid),M(geoid),DGPS use,checksum,Lat,Lon,UTM_X,UTM_Y
1486,[2021-02-22 16:04:55.692] $GPGGA,70455.3,3713.95613417,N,13701.42417825,E,4,10.0,1.1,97.769,M,36.771,M,2.3,0000*76,37.23260223616667,137.02373630416665,679524.2118001333,4122594.9591382965
1488,[2021-02-22 16:04:55.801] $GPGGA,70455.4,3713.95613194,N,13701.42417677,E,4,10.0,1.1,97.777,M,36.771,M,2.4,0000*7E,37.232602199000006,137.0237362795,679524.2096998966,4122594.954967633
1490,[2021-02-22 16:04:55.895] $GPGGA,70455.5,3713.95613291,N,13701.42417363,E,4,10.0,1.1,97.777,M,36.771,M,2.5,0000*78,37.23260221516667,137.02373622716667,679524.2050185688,4122594.956662161
1492,[2021-02-22 16:04:56.004] $GPGGA,70455.6,3713.95613121,N,13701.42417792,E,4,10.0,1.1,97.772,M,36.771,M,2.6,0000*7F,37.23260218683333,137.02373629866668,679524.2114292106,4122594.9536540196
1494,[2021-02-22 16:04:56.098] $GPGGA,70455.7,3713.95612875,N,13701.42417923,E,4,10.0,1.1,97.771,M,36.771,M,2.7,0000*71,37.23260214583333,137.0237363205,679524.2134635099,4122594.9491462233
1496,[2021-02-22 16:04:56.192] $GPGGA,70455.8,3713.95613149,N,13701.42417631,E,4,10.0,1.1,97.772,M,36.771,M,2.8,0000*79,37.2326021915,137.02373627183331,679524.2090375054,4122594.9541209186
1498,[2021-02-22 16:04:56.285] $GPGGA,70455.9,3713.95612926,N,13701.42417378,E,4,10.0,1.1,97.777,M,36.771,M,2.9,0000*74,37.232602154333335,137.02373622966667,679524.2053846798,4122594.9499170585
1500,[2021-02-22 16:04:56.395] $GPGGA,70456.0,3713.9561326,N,13701.42417497,E,4,10.0,1.1,97.776,M,36.771,M,3.0,0000*79,37.232602209999996,137.02373624950002,679524.2070122256,4122594.956131248
1502,[2021-02-22 16:04:56.489] $GPGGA,70456.1,3713.95613014,N,13701.42417464,E,4,10.0,1.1,97.778,M,36.771,M,3.1,0000*7A,37.232602169,137.023736244,679524.2066215274,4122594.9515716066
1504,[2021-02-22 16:04:56.598] $GPGGA,70456.2,3713.95612809,N,13701.42417768,E,4,10.0,1.1,97.776,M,36.771,M,3.2,0000*7E,37.23260213483334,137.0237362946667,679524.2111976929,4122594.9478767053
1506,[2021-02-22 16:04:56.692] $GPGGA,70456.3,3713.95612858,N,13701.42417037,E,4,13.0,1.1,97.784,M,36.771,M,2.3,0000*78,37.232602143,137.02373617283334,679524.2003693539,4122594.948551751
1508,[2021-02-22 16:04:56.801] $GPGGA,70456.4,3713.95612437,N,13701.42417356,E,4,13.0,1.1,97.779,M,36.771,M,2.4,0000*7B,37.23260207283334,137.02373622599998,679524.2052527106,4122594.9408671646
1510,[2021-02-22 16:04:56.895] $GPGGA,70456.5,3713.95612913,N,13701.42416879,E,4,13.0,1.1,97.776,M,36.771,M,2.5,0000*78,37.23260215216666,137.02373614649997,679524.1980113318,4122594.949518901
1512,[2021-02-22 16:04:56.988] $GPGGA,70456.6,3713.95612618,N,13701.42416886,E,4,13.0,1.1,97.781,M,36.771,M,2.6,0000*74,37.232602103,137.02373614766668,679524.198231476,4122594.9440657627
1514,[2021-02-22 16:04:57.082] $GPGGA,70456.7,3713.95612626,N,13701.42417092,E,4,13.0,1.1,97.784,M,36.771,M,2.7,0000*70,37.23260210433333,137.02373618200002,679524.2012743424,4122594.944278829
1516,[2021-02-22 16:04:57.192] $GPGGA,70456.8,3713.95612746,N,13701.4241695,E,4,13.0,1.1,97.780,M,36.771,M,2.8,0000*75,37.23260212433333,137.02373615833335,679524.1991272068,4122594.9464530633
1518,[2021-02-22 16:04:57.285] $GPGGA,70456.9,3713.95612939,N,13701.42417169,E,4,13.0,1.1,97.776,M,36.771,M,2.9,0000*79,37.2326021565,137.0237361948333,679524.2022891501,4122594.9500913923
1520,[2021-02-22 16:04:57.395] $GPGGA,70457.0,3713.95613575,N,13701.42418171,E,4,13.0,1.1,97.777,M,36.771,M,3.0,0000*7B,37.2326022625,137.0237363618333,679524.216853808,4122594.9621695303
1522,[2021-02-22 16:04:57.488] $GPGGA,70457.1,3713.95612874,N,13701.42418585,E,4,13.0,1.1,97.774,M,36.771,M,3.1,0000*7A,37.23260214566667,137.02373643083337,679524.2232525998,4122594.949337013
1524,[2021-02-22 16:04:57.598] $GPGGA,70457.2,3713.95612679,N,13701.42419069,E,4,13.0,1.1,97.776,M,36.771,M,3.2,0000*7D,37.232602113166664,137.0237365115,679524.2304863813,4122594.945883942
1526,[2021-02-22 16:04:57.692] $GPGGA,70457.3,3713.9561272,N,13701.42419573,E,4,13.0,1.1,97.780,M,36.771,M,2.3,0000*76,37.23260212,137.02373659549997,679524.2379225866,4122594.9468014752
1528,[2021-02-22 16:04:57.801] $GPGGA,70457.4,3713.95611665,N,13701.42420143,E,4,13.0,1.1,97.778,M,36.771,M,2.4,0000*7F,37.23260194416666,137.02373669050002,679524.2467680386,4122594.9274718524
1530,[2021-02-22 16:04:57.895] $GPGGA,70457.5,3713.95612167,N,13701.42419381,E,4,13.0,1.1,97.787,M,36.771,M,2.5,0000*7F,37.23260202783334,137.02373656350002,679524.2353022168,4122594.936514304
1532,[2021-02-22 16:04:58.004] $GPGGA,70457.6,3713.95613133,N,13701.42420034,E,4,13.0,1.1,97.796,M,36.771,M,2.6,0000*78,37.23260218883333,137.02373667233334,679524.2445758975,4122594.9545847066
1534,[2021-02-22 16:04:58.098] $GPGGA,70457.7,3713.95611693,N,13701.4241994,E,4,13.0,1.1,97.781,M,36.771,M,2.7,0000*71,37.232601948833334,137.02373665666667,679524.243755299,4122594.927925474
1536,[2021-02-22 16:04:58.207] $GPGGA,70457.8,3713.95612138,N,13701.42418893,E,4,13.0,1.1,97.776,M,36.771,M,2.8,0000*72,37.232602023,137.02373648216667,679524.2280978459,4122594.9358237414
1538,[2021-02-22 16:04:58.285] $GPGGA,70457.9,3713.95611384,N,13701.42418771,E,4,13.0,1.1,97.778,M,36.771,M,2.9,0000*79,37.23260189733333,137.02373646183335,679524.2265920009,4122594.9218416605
1540,[2021-02-22 16:04:58.395] $GPGGA,70458.0,3713.95611665,N,13701.42418575,E,4,13.0,1.1,97.779,M,36.771,M,3.0,0000*7A,37.23260194416666,137.02373642916666,679524.2235827366,4122594.926976152
1542,[2021-02-22 16:04:58.488] $GPGGA,70458.1,3713.95612305,N,13701.42418202,E,4,13.0,1.1,97.774,M,36.771,M,3.1,0000*70,37.232602050833336,137.023736367,679524.2178143173,4122594.938693575
1544,[2021-02-22 16:04:58.598] $GPGGA,70458.2,3713.95612514,N,13701.42417454,E,4,13.0,1.1,97.780,M,36.771,M,3.2,0000*77,37.23260208566667,137.02373624233334,679524.2066713513,4122594.9423220856
1546,[2021-02-22 16:04:58.691] $GPGGA,70458.3,3713.95612698,N,13701.424171,E,4,13.0,1.1,97.765,M,36.771,M,2.3,0000*7E,37.23260211633333,137.0237361833333,679524.2013641639,4122594.945612833
1548,[2021-02-22 16:04:58.801] $GPGGA,70458.4,3713.95612919,N,13701.42417064,E,4,13.0,1.1,97.765,M,36.771,M,2.4,0000*7B,37.23260215316667,137.02373617733335,679524.200744473,4122594.949688344
1550,[2021-02-22 16:04:58.895] $GPGGA,70458.5,3713.95612827,N,13701.4241749,E,4,13.0,1.1,97.768,M,36.771,M,2.5,0000*75,37.23260213783333,137.02373624833334,679524.2070799153,4122594.9481216874
1552,[2021-02-22 16:04:59.004] $GPGGA,70458.6,3713.95612917,N,13701.42417237,E,4,13.0,1.1,97.762,M,36.771,M,2.6,0000*76,37.232602152833344,137.02373620616666,679524.2033033355,4122594.949706051
1554,[2021-02-22 16:04:59.098] $GPGGA,70458.7,3713.95612767,N,13701.42416683,E,4,13.0,1.1,97.771,M,36.771,M,2.7,0000*77,37.23260212783333,137.02373611383334,679524.1951708964,4122594.9467570027
1556,[2021-02-22 16:04:59.191] $GPGGA,70458.8,3713.95613172,N,13701.42416398,E,4,13.0,1.1,97.765,M,36.771,M,2.8,0000*7E,37.23260219533333,137.02373606633333,679524.1907966048,4122594.9541564547
1558,[2021-02-22 16:04:59.285] $GPGGA,70458.9,3713.95613141,N,13701.42416455,E,4,13.0,1.1,97.767,M,36.771,M,2.9,0000*7A,37.232602190166666,137.0237360758333,679524.1916516931,4122594.9536012006
1560,[2021-02-22 16:04:59.395] $GPGGA,70459.0,3713.9561286,N,13701.42416202,E,4,13.0,1.1,97.773,M,36.771,M,3.0,0000*70,37.232602143333324,137.02373603366664,679524.1880217968,4122594.948324764
1562,[2021-02-22 16:04:59.488] $GPGGA,70459.1,3713.95613582,N,13701.42415393,E,4,13.0,1.1,97.767,M,36.771,M,3.1,0000*7F,37.232602263666664,137.02373589883334,679524.1757740263,4122594.961420754
1564,[2021-02-22 16:04:59.598] $GPGGA,70459.2,3713.95612848,N,13701.42415917,E,4,13.0,1.1,97.772,M,36.771,M,3.2,0000*77,37.23260214133334,137.02373598616666,679524.1838123781,4122594.9480127534
1566,[2021-02-22 16:04:59.691] $GPGGA,70459.3,3713.95612475,N,13701.42415443,E,4,12.0,1.1,97.781,M,36.771,M,2.3,0000*75,37.23260207916666,137.02373590716667,679524.1769510314,4122594.9409651197
1568,[2021-02-22 16:04:59.801] $GPGGA,70459.4,3713.95612436,N,13701.42415316,E,4,12.0,1.1,97.763,M,36.771,M,2.4,0000*79,37.232602072666666,137.023735886,679524.1750885599,4122594.940203756
1570,[2021-02-22 16:04:59.895] $GPGGA,70459.5,3713.95611627,N,13701.42415515,E,4,12.0,1.1,97.768,M,36.771,M,2.5,0000*76,37.232601937833344,137.02373591916665,679524.1783509369,4122594.925306057
1572,[2021-02-22 16:05:00.004] $GPGGA,70459.6,3713.95612199,N,13701.42415157,E,4,12.0,1.1,97.769,M,36.771,M,2.6,0000*74,37.23260203316667,137.02373585950002,679524.1728312051,4122594.9357707156
1574,[2021-02-22 16:05:00.098] $GPGGA,70459.7,3713.95612348,N,13701.42415166,E,4,12.0,1.1,97.767,M,36.771,M,2.7,0000*76,37.232602058,137.023735861,679524.1729053712,4122594.938528976
1576,[2021-02-22 16:05:00.191] $GPGGA,70459.8,3713.95611711,N,13701.42415492,E,4,12.0,1.1,97.765,M,36.771,M,2.8,0000*71,37.23260195183333,137.02373591533333,679524.1779776375,4122594.926852173
1578,[2021-02-22 16:05:00.285] $GPGGA,70459.9,3713.95612243,N,13701.42415209,E,4,12.0,1.1,97.762,M,36.771,M,2.9,0000*73,37.232602040500005,137.02373586816665,679524.1735827057,4122594.936600835
1580,[2021-02-22 16:05:00.395] $GPGGA,70500.0,3713.95611502,N,13701.42415938,E,4,12.0,1.1,97.759,M,36.771,M,3.0,0000*7F,37.232601917000004,137.02373598966665,679524.1846550661,4122594.9231281905
1582,[2021-02-22 16:05:00.488] $GPGGA,70500.1,3713.95611004,N,13701.42416313,E,4,12.0,1.1,97.765,M,36.771,M,3.1,0000*73,37.232601834,137.02373605216667,679524.1903969167,4122594.914037367
1584,[2021-02-22 16:05:00.598] $GPGGA,70500.2,3713.95611154,N,13701.42416039,E,4,12.0,1.1,97.756,M,36.771,M,3.2,0000*7C,37.232601859,137.02373600650003,679524.1862861009,4122594.9167246544
1586,[2021-02-22 16:05:00.691] $GPGGA,70500.3,3713.95611335,N,13701.42415359,E,4,12.0,1.1,97.758,M,36.771,M,2.3,0000*70,37.23260188916667,137.02373589316667,679524.176159688,4122594.919856865
1588,[2021-02-22 16:05:00.801] $GPGGA,70500.4,3713.95611492,N,13701.42414951,E,4,12.0,1.1,97.758,M,36.771,M,2.4,0000*79,37.23260191533333,137.02373582516668,679524.1700647044,4122594.922631238
1590,[2021-02-22 16:05:00.894] $GPGGA,70500.5,3713.95611186,N,13701.42415312,E,4,12.0,1.1,97.765,M,36.771,M,2.5,0000*7B,37.23260186433333,137.02373588533337,679524.1755236319,4122594.9170865915
1592,[2021-02-22 16:05:01.004] $GPGGA,70500.6,3713.95611105,N,13701.42415524,E,4,12.0,1.1,97.759,M,36.771,M,2.6,0000*7C,37.232601850833326,137.02373592066667,679524.1786904028,4122594.915655701
1594,[2021-02-22 16:05:01.098] $GPGGA,70500.7,3713.95611412,N,13701.42415291,E,4,12.0,1.1,97.762,M,36.771,M,2.7,0000*7E,37.232601902000006,137.02373588183332,679524.175123757,4122594.921259308
1596,[2021-02-22 16:05:01.191] $GPGGA,70500.8,3713.95611399,N,13701.42415185,E,4,12.0,1.1,97.753,M,36.771,M,2.8,0000*7E,37.23260189983334,137.02373586416667,679524.173561524,4122594.9209853914
1598,[2021-02-22 16:05:01.285] $GPGGA,70500.9,3713.95611799,N,13701.4241575,E,4,12.0,1.1,97.757,M,36.771,M,2.9,0000*70,37.2326019665,137.02373595833333,679524.1817577711,4122594.928561096
1600,[2021-02-22 16:05:01.394] $GPGGA,70501.0,3713.95611738,N,13701.42415608,E,4,12.0,1.1,97.756,M,36.771,M,3.0,0000*76,37.232601956333326,137.02373593466666,679524.1796822002,4122594.9273881475
1602,[2021-02-22 16:05:01.488] $GPGGA,70501.1,3713.95611667,N,13701.42415691,E,4,12.0,1.1,97.758,M,36.771,M,3.1,0000*73,37.2326019445,137.0237359485,679524.1809375542,4122594.926101404
1604,[2021-02-22 16:05:01.598] $GPGGA,70501.2,3713.95611818,N,13701.42415884,E,4,12.0,1.1,97.754,M,36.771,M,3.2,0000*73,37.23260196966666,137.0237359806667,679524.1837316592,4122594.9289548188
1606,[2021-02-22 16:05:01.691] $GPGGA,70501.3,3713.95611709,N,13701.424165,E,4,12.0,1.1,97.761,M,36.771,M,2.3,0000*79,37.2326019515,137.02373608333335,679524.1928832643,4122594.9271338517
1608,[2021-02-22 16:05:01.801] $GPGGA,70501.4,3713.95611953,N,13701.42416351,E,4,12.0,1.1,97.763,M,36.771,M,2.4,0000*78,37.232601992166664,137.02373605850002,679524.1905836001,4122594.9315989707
1610,[2021-02-22 16:05:01.894] $GPGGA,70501.5,3713.95611671,N,13701.42416631,E,4,12.0,1.1,97.762,M,36.771,M,2.5,0000*75,37.232601945166664,137.02373610516665,679524.1948353237,4122594.926472543
1612,[2021-02-22 16:05:02.004] $GPGGA,70501.6,3713.95611903,N,13701.42416174,E,4,12.0,1.1,97.753,M,36.771,M,2.6,0000*7B,37.232601983833334,137.023736029,679524.187986146,4122594.930618379
1614,[2021-02-22 16:05:02.097] $GPGGA,70501.7,3713.95611828,N,13701.42416527,E,4,12.0,1.1,97.754,M,36.771,M,2.7,0000*76,37.23260197133334,137.02373608783336,679524.1932354517,4122594.9293430224
1616,[2021-02-22 16:05:02.191] $GPGGA,70501.8,3713.95611758,N,13701.42416206,E,4,12.0,1.1,97.766,M,36.771,M,2.8,0000*7B,37.23260195966666,137.02373603433335,679524.1885166488,4122594.927947051
1618,[2021-02-22 16:05:02.285] $GPGGA,70501.9,3713.95611821,N,13701.42416624,E,4,12.0,1.1,97.754,M,36.771,M,2.9,0000*7F,37.23260197016667,137.023736104,679524.1946725132,4122594.929244239
1620,[2021-02-22 16:05:02.410] $GPGGA,70502.0,3713.95611668,N,13701.42416842,E,4,12.0,1.1,97.760,M,36.771,M,3.0,0000*77,37.23260194466667,137.02373614033337,679524.197956474,4122594.9264837694
1622,[2021-02-22 16:05:02.488] $GPGGA,70502.1,3713.95611665,N,13701.42417064,E,4,12.0,1.1,97.757,M,36.771,M,3.1,0000*73,37.23260194416666,137.02373617733335,679524.2012402709,4122594.9264984727
1624,[2021-02-22 16:05:02.597] $GPGGA,70502.2,3713.95611949,N,13701.4241701,E,4,12.0,1.1,97.764,M,36.771,M,3.2,0000*71,37.232601991500005,137.02373616833333,679524.2003295112,4122594.931733335
1626,[2021-02-22 16:05:02.691] $GPGGA,70502.3,3713.95612703,N,13701.42416699,E,4,11.0,1.5,97.744,M,36.771,M,2.3,0000*70,37.232602117166664,137.0237361165,679524.1954327861,4122594.945578526
1628,[2021-02-22 16:05:02.801] $GPGGA,70502.4,3713.9561223,N,13701.42416373,E,4,11.0,1.5,97.752,M,36.771,M,2.4,0000*73,37.23260203833333,137.02373606216665,679524.1907993815,4122594.93672841
1630,[2021-02-22 16:05:02.894] $GPGGA,70502.5,3713.95612166,N,13701.42416099,E,4,11.0,1.5,97.754,M,36.771,M,2.5,0000*72,37.232602027666665,137.0237360165,679524.1867731755,4122594.9354582545
1632,[2021-02-22 16:05:02.988] $GPGGA,70502.6,3713.95612096,N,13701.42416055,E,4,11.0,1.5,97.752,M,36.771,M,2.6,0000*7A,37.23260201600001,137.02373600916664,679524.1861502407,4122594.934149856
1634,[2021-02-22 16:05:03.097] $GPGGA,70502.7,3713.95611914,N,13701.42416542,E,4,11.0,1.5,97.755,M,36.771,M,2.7,0000*7E,37.23260198566666,137.02373609033333,679524.193423247,4122594.9309381363
1636,[2021-02-22 16:05:03.207] $GPGGA,70502.8,3713.95612315,N,13701.4241663,E,4,11.0,1.5,97.748,M,36.771,M,2.8,0000*7C,37.232602052500006,137.023736105,679524.1945659197,4122594.9383815387
1638,[2021-02-22 16:05:03.285] $GPGGA,70502.9,3713.95611522,N,13701.42417041,E,4,11.0,1.5,97.754,M,36.771,M,2.9,0000*71,37.23260192033334,137.02373617350003,679524.2009567211,4122594.9238467435
1640,[2021-02-22 16:05:03.394] $GPGGA,70503.0,3713.95612257,N,13701.42417471,E,4,11.0,1.5,97.744,M,36.771,M,3.0,0000*71,37.232602042833335,137.0237362451667,679524.2070243363,4122594.937574831
1642,[2021-02-22 16:05:03.488] $GPGGA,70503.1,3713.95612769,N,13701.42416961,E,4,11.0,1.5,97.739,M,36.771,M,3.1,0000*7E,37.23260212816666,137.02373616016664,679524.199280762,4122594.9468818726
1644,[2021-02-22 16:05:03.597] $GPGGA,70503.2,3713.95612675,N,13701.42417501,E,4,11.0,1.5,97.746,M,36.771,M,3.2,0000*71,37.2326021125,137.02373625016668,679524.207302663,4122594.945314271
1646,[2021-02-22 16:05:03.691] $GPGGA,70503.3,3713.956129,N,13701.42417421,E,4,11.0,1.5,97.761,M,36.771,M,2.3,0000*7B,37.232602150000005,137.02373623683334,679524.2060307821,4122594.949449843
1648,[2021-02-22 16:05:03.801] $GPGGA,70503.4,3713.95612931,N,13701.42417675,E,4,11.0,1.5,97.763,M,36.771,M,2.4,0000*78,37.23260215516667,137.02373627916668,679524.2097743077,4122594.9501034156
1650,[2021-02-22 16:05:03.894] $GPGGA,70503.5,3713.95613055,N,13701.42417428,E,4,11.0,1.5,97.752,M,36.771,M,2.5,0000*7A,37.232602175833335,137.02373623800003,679524.206073006,4122594.9523184267
1652,[2021-02-22 16:05:04.004] $GPGGA,70503.6,3713.95613072,N,13701.42417374,E,4,11.0,1.5,97.760,M,36.771,M,2.6,0000*70,37.232602178666674,137.023736229,679524.2052678089,4122594.952615733
1654,[2021-02-22 16:05:04.097] $GPGGA,70503.7,3713.95613203,N,13701.42417022,E,4,11.0,1.5,97.763,M,36.771,M,2.7,0000*77,37.2326022005,137.02373617033334,679524.2000111528,4122594.9549269984
1656,[2021-02-22 16:05:04.191] $GPGGA,70503.8,3713.95613311,N,13701.42416901,E,4,11.0,1.5,97.756,M,36.771,M,2.8,0000*7A,37.2326022185,137.02373615016666,679524.1981792777,4122594.956885959
1658,[2021-02-22 16:05:04.285] $GPGGA,70503.9,3713.95613609,N,13701.42416873,E,4,11.0,1.5,97.763,M,36.771,M,2.9,0000*74,37.23260226816667,137.0237361455,679524.1976474358,4122594.96238794
1660,[2021-02-22 16:05:04.394] $GPGGA,70504.0,3713.95613738,N,13701.42416811,E,4,11.0,1.5,97.756,M,36.771,M,3.0,0000*73,37.232602289666666,137.02373613516667,679524.1966796662,4122594.9647538993
1662,[2021-02-22 16:05:04.488] $GPGGA,70504.1,3713.9561356,N,13701.42416896,E,4,11.0,1.5,97.755,M,36.771,M,3.1,0000*70,37.23260226,137.02373614933333,679524.1980068996,4122594.9614890665
1664,[2021-02-22 16:05:04.597] $GPGGA,70504.2,3713.95613434,N,13701.42416684,E,4,11.0,1.5,97.751,M,36.771,M,3.2,0000*79,37.23260223900001,137.02373611400003,679524.1949219708,4122594.959091964
1666,[2021-02-22 16:05:04.691] $GPGGA,70504.3,3713.9561384,N,13701.4241675,E,4,11.0,1.5,97.746,M,36.771,M,2.3,0000*79,37.232602306666664,137.023736125,679524.19573736,4122594.9666208723
1668,[2021-02-22 16:05:04.800] $GPGGA,70504.4,3713.95613698,N,13701.42416909,E,4,11.0,1.5,97.746,M,36.771,M,2.4,0000*70,37.232602283,137.0237361515,679524.1981445635,4122594.9640451716
1670,[2021-02-22 16:05:04.894] $GPGGA,70504.5,3713.95613821,N,13701.42416396,E,4,11.0,1.5,97.746,M,36.771,M,2.5,0000*70,37.232602303499995,137.02373606600003,679524.1905104378,4122594.966157598
1672,[2021-02-22 16:05:05.004] $GPGGA,70504.6,3713.95613604,N,13701.42416293,E,4,11.0,1.5,97.745,M,36.771,M,2.6,0000*7E,37.23260226733333,137.0237360488333,679524.1890732147,4122594.962112115
1674,[2021-02-22 16:05:05.097] $GPGGA,70504.7,3713.95613467,N,13701.42416072,E,4,11.0,1.5,97.746,M,36.771,M,2.7,0000*77,37.2326022445,137.023736012,679524.1858595561,4122594.9595087487
1676,[2021-02-22 16:05:05.191] $GPGGA,70504.8,3713.95613744,N,13701.42416097,E,4,11.0,1.5,97.748,M,36.771,M,2.8,0000*70,37.23260229066667,137.02373601616668,679524.1861197024,4122594.964639136
1678,[2021-02-22 16:05:05.285] $GPGGA,70504.9,3713.95613702,N,13701.42415875,E,4,11.0,1.5,97.751,M,36.771,M,2.9,0000*7D,37.232602283666665,137.02373597916667,679524.1828536952,4122594.963792258
1680,[2021-02-22 16:05:05.394] $GPGGA,70505.0,3713.95613834,N,13701.42415876,E,4,11.0,1.5,97.747,M,36.771,M,3.0,0000*73,37.23260230566667,137.02373597933334,679524.182816292,4122594.966233613
1682,[2021-02-22 16:05:05.488] $GPGGA,70505.1,3713.95613464,N,13701.42415916,E,4,11.0,1.5,97.747,M,36.771,M,3.1,0000*7D,37.232602244,137.02373598600002,679524.1835540445,4122594.9594039535
1684,[2021-02-22 16:05:05.597] $GPGGA,70505.2,3713.95613906,N,13701.42416051,E,4,11.0,1.5,97.748,M,36.771,M,3.2,0000*72,37.23260231766667,137.02373600849998,679524.185375469,4122594.9676204124
1686,[2021-02-22 16:05:05.691] $GPGGA,70505.3,3713.95613438,N,13701.42415707,E,4,11.0,1.5,97.764,M,36.771,M,2.3,0000*7A,37.232602239666676,137.02373595116666,679524.1804739344,4122594.95885707
1688,[2021-02-22 16:05:05.800] $GPGGA,70505.4,3713.95613467,N,13701.42415601,E,4,11.0,1.5,97.765,M,36.771,M,2.4,0000*76,37.2326022445,137.0237359335,679524.1788950957,4122594.959359849
1690,[2021-02-22 16:05:05.894] $GPGGA,70505.5,3713.95613516,N,13701.42415881,E,4,11.0,1.5,97.763,M,36.771,M,2.5,0000*71,37.232602252666666,137.02373598016666,679524.1830159532,4122594.9603545093
1692,[2021-02-22 16:05:05.988] $GPGGA,70505.6,3713.95613744,N,13701.42416031,E,4,11.0,1.5,97.767,M,36.771,M,2.6,0000*70,37.23260229066667,137.02373600516668,679524.1851437918,4122594.96461827
1694,[2021-02-22 16:05:06.082] $GPGGA,70505.7,3713.95613077,N,13701.42416296,E,4,11.0,1.5,97.762,M,36.771,M,2.7,0000*7D,37.2326021795,137.02373604933334,679524.1893259389,4122594.9523674017
1696,[2021-02-22 16:05:06.191] $GPGGA,70505.8,3713.9561331,N,13701.42416398,E,4,11.0,1.5,97.769,M,36.771,M,2.8,0000*7B,37.23260221833334,137.02373606633333,679524.1907420433,4122594.956708452
1698,[2021-02-22 16:05:06.285] $GPGGA,70505.9,3713.95612976,N,13701.42416251,E,4,11.0,1.5,97.766,M,36.771,M,2.9,0000*7B,37.23260216266666,137.02373604183333,679524.1887004769,4122594.9504854097
1700,[2021-02-22 16:05:06.410] $GPGGA,70506.0,3713.9561246,N,13701.42416824,E,4,11.0,1.5,97.768,M,36.771,M,3.0,0000*75,37.232602076666666,137.02373613733334,679524.1973771785,4122594.9411243126
1702,[2021-02-22 16:05:06.488] $GPGGA,70506.1,3713.9561248,N,13701.42416472,E,4,11.0,1.5,97.768,M,36.771,M,3.1,0000*74,37.23260208,137.02373607866667,679524.1921644087,4122594.9413828873
1704,[2021-02-22 16:05:06.597] $GPGGA,70506.2,3713.95612215,N,13701.42416614,E,4,11.0,1.5,97.769,M,36.771,M,3.2,0000*7D,37.232602035833324,137.0237361023333,679524.1943688666,4122594.936527207
1706,[2021-02-22 16:05:06.691] $GPGGA,70506.3,3713.95611581,N,13701.42416055,E,4,11.0,1.5,97.764,M,36.771,M,2.3,0000*7B,37.232601930166666,137.02373600916664,679524.1863538579,4122594.9246261036
1708,[2021-02-22 16:05:06.800] $GPGGA,70506.4,3713.95611681,N,13701.42415545,E,4,11.0,1.5,97.761,M,36.771,M,2.4,0000*7A,37.232601946833334,137.0237359241667,679524.1787731862,4122594.926314147
1710,[2021-02-22 16:05:06.894] $GPGGA,70506.5,3713.95611876,N,13701.42415048,E,4,11.0,1.5,97.768,M,36.771,M,2.5,0000*7D,37.23260197933334,137.02373584133332,679524.1713471727,4122594.9297631085
1712,[2021-02-22 16:05:07.003] $GPGGA,70506.6,3713.95611628,N,13701.4241544,E,4,11.0,1.5,97.762,M,36.771,M,2.6,0000*7E,37.232601938,137.02373590666664,679524.1772415496,4122594.9253008403
1714,[2021-02-22 16:05:07.097] $GPGGA,70506.7,3713.95612055,N,13701.4241576,E,4,11.0,1.5,97.763,M,36.771,M,2.7,0000*71,37.23260200916667,137.02373596000004,679524.1818044251,4122594.9332983927
1716,[2021-02-22 16:05:07.206] $GPGGA,70506.8,3713.95611719,N,13701.42416048,E,4,11.0,1.5,97.773,M,36.771,M,2.8,0000*72,37.232601953166665,137.02373600800004,679524.1861957962,4122594.927175886
1718,[2021-02-22 16:05:07.285] $GPGGA,70506.9,3713.95611632,N,13701.42415982,E,4,11.0,1.5,97.767,M,36.771,M,2.9,0000*73,37.23260193866667,137.02373599700002,679524.1852542786,4122594.9255461544
1720,[2021-02-22 16:05:07.394] $GPGGA,70507.0,3713.95611547,N,13701.4241627,E,4,11.0,1.5,97.766,M,36.771,M,3.0,0000*76,37.232601924499996,137.023736045,679524.1895464088,4122594.9240653194
1722,[2021-02-22 16:05:07.488] $GPGGA,70507.1,3713.95611662,N,13701.42416002,E,4,11.0,1.5,97.772,M,36.771,M,3.1,0000*70,37.23260194366667,137.02373600033332,679524.185538145,4122594.92610726
1724,[2021-02-22 16:05:07.597] $GPGGA,70507.2,3713.95611654,N,13701.42415881,E,4,11.0,1.5,97.768,M,36.771,M,3.2,0000*7E,37.23260194233334,137.02373598016666,679524.1837521377,4122594.925921066
1726,[2021-02-22 16:05:07.691] $GPGGA,70507.3,3713.95611855,N,13701.42415886,E,4,11.0,1.5,97.769,M,36.771,M,2.3,0000*76,37.23260197583333,137.023735981,679524.1837466002,4122594.9296396817
1728,[2021-02-22 16:05:07.800] $GPGGA,70507.4,3713.95611477,N,13701.42415968,E,4,11.0,1.5,97.775,M,36.771,M,2.4,0000*76,37.23260191283333,137.02373599466665,679524.1851085477,4122594.9226753563
1730,[2021-02-22 16:05:07.894] $GPGGA,70507.5,3713.95611533,N,13701.42415939,E,4,11.0,1.5,97.772,M,36.771,M,2.5,0000*74,37.232601922166666,137.02373598983334,679524.1846575979,4122594.923701782
1732,[2021-02-22 16:05:07.988] $GPGGA,70507.6,3713.95611551,N,13701.42416405,E,4,11.0,1.5,97.775,M,36.771,M,2.6,0000*76,37.23260192516666,137.02373606750004,679524.1915410135,4122594.924181969
1734,[2021-02-22 16:05:08.081] $GPGGA,70507.7,3713.95611791,N,13701.424169,E,4,11.0,1.5,97.773,M,36.771,M,2.7,0000*76,37.232601965166666,137.02373615000002,679524.1987654609,4122594.9287767103
1736,[2021-02-22 16:05:08.191] $GPGGA,70507.8,3713.95611705,N,13701.42417499,E,4,11.0,1.5,97.775,M,36.771,M,2.8,0000*71,37.232601950833335,137.0237362498333,679524.2076565983,4122594.9273757003
1738,[2021-02-22 16:05:08.285] $GPGGA,70507.9,3713.95611541,N,13701.4241733,E,4,11.0,1.5,97.773,M,36.771,M,2.9,0000*71,37.2326019235,137.02373622166667,679524.2052225164,4122594.924289467
1740,[2021-02-22 16:05:08.410] $GPGGA,70508.0,3713.95611661,N,13701.42416915,E,4,11.0,1.5,97.783,M,36.771,M,3.0,0000*7D,37.2326019435,137.0237361525,679524.1990386569,4122594.926377397
1742,[2021-02-22 16:05:08.488] $GPGGA,70508.1,3713.95611781,N,13701.42417045,E,4,11.0,1.5,97.770,M,36.771,M,3.1,0000*73,37.232601963499995,137.02373617416666,679524.2009134614,4122594.92863762
1744,[2021-02-22 16:05:08.597] $GPGGA,70508.2,3713.95612423,N,13701.42416735,E,4,11.0,1.5,97.772,M,36.771,M,3.2,0000*78,37.23260207050001,137.02373612250003,679524.1960758062,4122594.9404119463
1746,[2021-02-22 16:05:08.691] $GPGGA,70508.3,3713.95612095,N,13701.42417119,E,4,12.0,1.1,97.780,M,36.771,M,2.3,0000*73,37.23260201583332,137.02373618649997,679524.2018835178,4122594.934467728
1748,[2021-02-22 16:05:08.800] $GPGGA,70508.4,3713.95612351,N,13701.42417117,E,4,12.0,1.1,97.767,M,36.771,M,2.4,0000*7F,37.23260205849999,137.02373618616667,679524.2017527325,4122594.939201234
1750,[2021-02-22 16:05:08.894] $GPGGA,70508.5,3713.95612303,N,13701.42417182,E,4,12.0,1.1,97.767,M,36.771,M,2.5,0000*74,37.232602050500006,137.023736197,679524.202732835,4122594.938334133
1752,[2021-02-22 16:05:09.003] $GPGGA,70508.6,3713.95611986,N,13701.42417526,E,4,12.0,1.1,97.772,M,36.771,M,2.6,0000*7E,37.23260199766666,137.0237362543333,679524.2079447353,4122594.93258069
1754,[2021-02-22 16:05:09.097] $GPGGA,70508.7,3713.95612176,N,13701.4241663,E,4,12.0,1.1,97.767,M,36.771,M,2.7,0000*7B,37.23260202933333,137.023736105,679524.1946208766,4122594.93581105
1756,[2021-02-22 16:05:09.206] $GPGGA,70508.8,3713.95612177,N,13701.42416778,E,4,12.0,1.1,97.763,M,36.771,M,2.8,0000*73,37.2326020295,137.02373612966664,679524.196808886,4122594.935876331
1758,[2021-02-22 16:05:09.285] $GPGGA,70508.9,3713.95612373,N,13701.42416468,E,4,12.0,1.1,97.772,M,36.771,M,2.9,0000*77,37.23260206216667,137.023736078,679524.1921475673,4122594.939402903
1760,[2021-02-22 16:05:09.409] $GPGGA,70509.0,3713.95612267,N,13701.42416362,E,4,12.0,1.1,97.766,M,36.771,M,3.0,0000*7B,37.23260204449999,137.02373606033336,679524.1906221039,4122594.937409162
1762,[2021-02-22 16:05:09.488] $GPGGA,70509.1,3713.95612231,N,13701.42416531,E,4,12.0,1.1,97.769,M,36.771,M,3.1,0000*77,37.232602038500005,137.0237360885,679524.1931352606,4122594.936796852
1764,[2021-02-22 16:05:09.597] $GPGGA,70509.2,3713.9561213,N,13701.42416484,E,4,12.0,1.1,97.759,M,36.771,M,3.2,0000*79,37.232602021666665,137.02373608066668,679524.1924802287,4122594.9349142294
1766,[2021-02-22 16:05:09.691] $GPGGA,70509.3,3713.95612621,N,13701.42416138,E,4,11.0,1.5,97.767,M,36.771,M,2.3,0000*77,37.23260210350001,137.02373602300003,679524.1871699569,4122594.9438847727
1768,[2021-02-22 16:05:09.800] $GPGGA,70509.4,3713.95612799,N,13701.42416006,E,4,11.0,1.5,97.761,M,36.771,M,2.4,0000*7F,37.232602133166665,137.023736001,679524.1851477546,4122594.9471347462
1770,[2021-02-22 16:05:09.894] $GPGGA,70509.5,3713.95612643,N,13701.42416742,E,4,11.0,1.5,97.768,M,36.771,M,2.5,0000*77,37.23260210716666,137.02373612366668,679524.1960923288,4122594.9444825556
1772,[2021-02-22 16:05:10.003] $GPGGA,70509.6,3713.95612444,N,13701.42416597,E,4,11.0,1.5,97.765,M,36.771,M,2.6,0000*75,37.232602074,137.02373609949998,679524.1940269568,4122594.940756667
1774,[2021-02-22 16:05:10.097] $GPGGA,70509.7,3713.95612608,N,13701.42417029,E,4,11.0,1.5,97.769,M,36.771,M,2.7,0000*72,37.232602101333335,137.0237361715,679524.2003499044,4122594.943926043
1776,[2021-02-22 16:05:10.191] $GPGGA,70509.8,3713.95613057,N,13701.42416416,E,4,11.0,1.5,97.769,M,36.771,M,2.8,0000*76,37.232602176166665,137.02373606933332,679524.1911082306,4122594.952035483
1778,[2021-02-22 16:05:10.284] $GPGGA,70509.9,3713.95612574,N,13701.42416841,E,4,11.0,1.5,97.771,M,36.771,M,2.9,0000*74,37.23260209566667,137.02373614016668,679524.1975834777,4122594.9432378574
1780,[2021-02-22 16:05:10.394] $GPGGA,70510.0,3713.95612707,N,13701.42416608,E,4,11.0,1.5,97.771,M,36.771,M,3.0,0000*78,37.23260211783333,137.02373610133333,679524.1940856269,4122594.9456237294
1782,[2021-02-22 16:05:10.488] $GPGGA,70510.1,3713.95612694,N,13701.42416433,E,4,11.0,1.5,97.771,M,36.771,M,3.1,0000*79,37.232602115666666,137.02373607216663,679524.1915031184,4122594.9453280005
1784,[2021-02-22 16:05:10.597] $GPGGA,70510.2,3713.9561295,N,13701.42416489,E,4,11.0,1.5,97.767,M,36.771,M,3.2,0000*78,37.232602158333336,137.0237360815,679524.192229953,4122594.950079841
1786,[2021-02-22 16:05:10.691] $GPGGA,70510.3,3713.95612754,N,13701.42416863,E,4,11.0,1.5,97.765,M,36.771,M,2.3,0000*79,37.232602125666666,137.0237361438333,679524.1978376104,4122594.946573501
1788,[2021-02-22 16:05:10.800] $GPGGA,70510.4,3713.95612818,N,13701.42416582,E,4,11.0,1.5,97.763,M,36.771,M,2.4,0000*7A,37.232602136333334,137.023736097,679524.193657292,4122594.947668201
1790,[2021-02-22 16:05:10.894] $GPGGA,70510.5,3713.9561311,N,13701.42416813,E,4,11.0,1.5,97.760,M,36.771,M,2.5,0000*7C,37.232602185000005,137.0237361355,679524.196957535,4122594.953141104
1792,[2021-02-22 16:05:11.003] $GPGGA,70510.6,3713.9561283,N,13701.42417659,E,4,11.0,1.5,97.773,M,36.771,M,2.6,0000*75,37.232602138333334,137.02373627650002,679524.2095776546,4122594.9482305916
1794,[2021-02-22 16:05:11.081] $GPGGA,70510.7,3713.9561278,N,13701.42416906,E,4,11.0,1.5,97.764,M,36.771,M,2.7,0000*73,37.232602130000004,137.02373615099998,679524.1984631532,4122594.9470679066
1796,[2021-02-22 16:05:11.191] $GPGGA,70510.8,3713.95612367,N,13701.42417402,E,4,11.0,1.5,97.767,M,36.771,M,2.8,0000*75,37.23260206116667,137.02373623366665,679524.2059605697,4122594.939587217
1798,[2021-02-22 16:05:11.284] $GPGGA,70510.9,3713.95612721,N,13701.42416872,E,4,11.0,1.5,97.758,M,36.771,M,2.9,0000*75,37.23260212016666,137.02373614533332,679524.1979837388,4122594.945966087
1800,[2021-02-22 16:05:11.394] $GPGGA,70511.0,3713.95612731,N,13701.42416679,E,4,11.0,1.5,97.761,M,36.771,M,3.0,0000*7B,37.23260212183333,137.02373611316665,679524.1951259811,4122594.9460899984
1802,[2021-02-22 16:05:11.488] $GPGGA,70511.1,3713.95612685,N,13701.42416689,E,4,11.0,1.5,97.764,M,36.771,M,3.1,0000*7F,37.232602114166674,137.0237361148333,679524.1952920333,4122594.9452424976
1804,[2021-02-22 16:05:11.597] $GPGGA,70511.2,3713.9561278,N,13701.42416657,E,4,11.0,1.5,97.757,M,36.771,M,3.2,0000*78,37.232602130000004,137.02373610949996,679524.1947813035,4122594.9469891884
1806,[2021-02-22 16:05:11.691] $GPGGA,70511.3,3713.95612639,N,13701.42416238,E,4,11.0,1.5,97.766,M,36.771,M,2.3,0000*75,37.232602106499996,137.0237360396667,679524.1886414945,4122594.9442492537
1808,[2021-02-22 16:05:11.800] $GPGGA,70511.4,3713.95612365,N,13701.42416496,E,4,11.0,1.5,97.761,M,36.771,M,2.4,0000*7C,37.23260206083334,137.02373608266666,679524.1925647508,4122594.9392638127
1810,[2021-02-22 16:05:11.894] $GPGGA,70511.5,3713.95612491,N,13701.42416569,E,4,11.0,1.5,97.766,M,36.771,M,2.5,0000*76,37.23260208183334,137.02373609483334,679524.1935943535,4122594.9416169734
1812,[2021-02-22 16:05:12.003] $GPGGA,70511.6,3713.95612457,N,13701.42416685,E,4,11.0,1.5,97.773,M,36.771,M,2.6,0000*79,37.23260207616667,137.02373611416667,679524.1953230341,4122594.9410248925
1814,[2021-02-22 16:05:12.097] $GPGGA,70511.7,3713.95612447,N,13701.42416678,E,4,11.0,1.5,97.768,M,36.771,M,2.7,0000*70,37.232602074499994,137.023736113,679524.1952234833,4122594.94083775
1816,[2021-02-22 16:05:12.206] $GPGGA,70511.8,3713.95612607,N,13701.42416346,E,4,11.0,1.5,97.767,M,36.771,M,2.8,0000*71,37.23260210116666,137.0237360576667,679524.1902510936,4122594.9436916304
1818,[2021-02-22 16:05:12.284] $GPGGA,70511.9,3713.95612721,N,13701.42416166,E,4,11.0,1.5,97.770,M,36.771,M,2.9,0000*72,37.23260212016666,137.02373602766667,679524.1875444402,4122594.9457428944
1820,[2021-02-22 16:05:12.409] $GPGGA,70512.0,3713.95612445,N,13701.42416743,E,4,11.0,1.5,97.767,M,36.771,M,3.0,0000*76,37.23260207416667,137.02373612383332,679524.1961853963,4122594.940821314
1822,[2021-02-22 16:05:12.487] $GPGGA,70512.1,3713.95612608,N,13701.42416562,E,4,11.0,1.5,97.771,M,36.771,M,3.1,0000*7B,37.232602101333335,137.02373609366666,679524.1934445881,4122594.9437784073
1824,[2021-02-22 16:05:12.597] $GPGGA,70512.2,3713.9561268,N,13701.42416742,E,4,11.0,1.5,97.764,M,36.771,M,3.2,0000*7F,37.232602113333336,137.02373612366668,679524.1960776999,4122594.945166787
1826,[2021-02-22 16:05:12.691] $GPGGA,70512.3,3713.95612884,N,13701.42416466,E,4,11.0,1.5,97.766,M,36.771,M,2.3,0000*73,37.23260214733334,137.02373607766665,679524.1919159573,4122594.948852051
1828,[2021-02-22 16:05:12.800] $GPGGA,70512.4,3713.95612849,N,13701.42416527,E,4,11.0,1.5,97.758,M,36.771,M,2.4,0000*7B,37.232602141499996,137.02373608783336,679524.1928317759,4122594.9482240886
1830,[2021-02-22 16:05:12.894] $GPGGA,70512.5,3713.9561288,N,13701.42416507,E,4,11.0,1.5,97.767,M,36.771,M,2.5,0000*70,37.23260214666667,137.0237360845,679524.192523787,4122594.948791041
1832,[2021-02-22 16:05:13.003] $GPGGA,70512.6,3713.95612926,N,13701.42416801,E,4,11.0,1.5,97.756,M,36.771,M,2.6,0000*74,37.232602154333335,137.02373613350002,679524.1968528465,4122594.9497346487
1834,[2021-02-22 16:05:13.097] $GPGGA,70512.7,3713.95612792,N,13701.42416495,E,4,11.0,1.5,97.764,M,36.771,M,2.7,0000*75,37.232602132000004,137.02373608250002,679524.1923811428,4122594.9471598878
1836,[2021-02-22 16:05:13.190] $GPGGA,70512.8,3713.95612917,N,13701.42416657,E,4,11.0,1.5,97.763,M,36.771,M,2.8,0000*7D,37.232602152833344,137.02373610949996,679524.1947271373,4122594.9495226922
1838,[2021-02-22 16:05:13.284] $GPGGA,70512.9,3713.95612797,N,13701.42416592,E,4,11.0,1.5,97.762,M,36.771,M,2.9,0000*70,37.23260213283334,137.02373609866666,679524.1938134597,4122594.947283017
1840,[2021-02-22 16:05:13.394] $GPGGA,70513.0,3713.95612835,N,13701.42416728,E,4,11.0,1.5,97.765,M,36.771,M,3.0,0000*73,37.232602139166666,137.02373612133334,679524.1958094056,4122594.9480287344
1842,[2021-02-22 16:05:13.487] $GPGGA,70513.1,3713.95613037,N,13701.42416612,E,4,11.0,1.5,97.747,M,36.771,M,3.1,0000*70,37.23260217283333,137.02373610200002,679524.1940143025,4122594.9517275915
1844,[2021-02-22 16:05:13.597] $GPGGA,70513.2,3713.95613132,N,13701.42416288,E,4,11.0,1.5,97.762,M,36.771,M,3.2,0000*74,37.232602188666675,137.023736048,679524.1891858982,4122594.9533819733
1846,[2021-02-22 16:05:13.690] $GPGGA,70513.3,3713.95612903,N,13701.42417224,E,4,11.0,1.5,97.775,M,36.771,M,2.3,0000*7F,37.2326021505,137.02373620400002,679524.2031166477,4122594.949443042
1848,[2021-02-22 16:05:13.800] $GPGGA,70513.4,3713.95613017,N,13701.42417068,E,4,11.0,1.5,97.781,M,36.771,M,2.4,0000*73,37.2326021695,137.02373617799998,679524.2007648706,4122594.951501894
1850,[2021-02-22 16:05:13.894] $GPGGA,70513.5,3713.95613204,N,13701.42416832,E,4,11.0,1.5,97.777,M,36.771,M,2.5,0000*7C,37.23260220066666,137.02373613866666,679524.1972013138,4122594.9548854255
1852,[2021-02-22 16:05:14.003] $GPGGA,70513.6,3713.956135,N,13701.42416916,E,4,11.0,1.5,97.774,M,36.771,M,2.6,0000*7B,37.23260225,137.0237361526667,679524.1983263541,4122594.9603858264
1854,[2021-02-22 16:05:14.097] $GPGGA,70513.7,3713.95613234,N,13701.42416896,E,4,11.0,1.5,97.777,M,36.771,M,2.7,0000*71,37.23260220566666,137.02373614933333,679524.1981357912,4122594.9554604385
1856,[2021-02-22 16:05:14.206] $GPGGA,70513.8,3713.95613562,N,13701.42416774,E,4,11.0,1.5,97.774,M,36.771,M,2.8,0000*75,37.232602260333344,137.023736129,679524.1962021502,4122594.961487484
1858,[2021-02-22 16:05:14.284] $GPGGA,70513.9,3713.9561337,N,13701.42416771,E,4,11.0,1.5,97.771,M,36.771,M,2.9,0000*70,37.23260222833334,137.0237361285,679524.1962337014,4122594.957935933
1860,[2021-02-22 16:05:14.394] $GPGGA,70514.0,3713.95613812,N,13701.42416218,E,4,11.0,1.5,97.766,M,36.771,M,3.0,0000*75,37.232602302000004,137.0237360363333,679524.1878819852,4122594.965934893
1862,[2021-02-22 16:05:14.487] $GPGGA,70514.1,3713.95613588,N,13701.42416498,E,4,11.0,1.5,97.769,M,36.771,M,3.1,0000*7A,37.23260226466667,137.023736083,679524.1921107839,4122594.96188104
1864,[2021-02-22 16:05:14.597] $GPGGA,70514.2,3713.95613788,N,13701.42416579,E,4,11.0,1.5,97.769,M,36.771,M,3.2,0000*76,37.232602297999996,137.02373609650002,679524.193229422,4122594.9656051924
1866,[2021-02-22 16:05:14.690] $GPGGA,70514.3,3713.95613679,N,13701.42416107,E,4,11.0,1.5,97.749,M,36.771,M,2.3,0000*77,37.23260227983334,137.02373601783333,679524.1862932667,4122594.96344027
1868,[2021-02-22 16:05:14.800] $GPGGA,70514.4,3713.95613639,N,13701.42416427,E,4,11.0,1.5,97.751,M,36.771,M,2.4,0000*7D,37.23260227316667,137.02373607116667,679524.1910407746,4122594.962801723
1870,[2021-02-22 16:05:14.894] $GPGGA,70514.5,3713.9561349,N,13701.424165,E,4,11.0,1.5,97.760,M,36.771,M,2.5,0000*7A,37.23260224833333,137.02373608333335,679524.1921791048,4122594.960069386
1872,[2021-02-22 16:05:15.003] $GPGGA,70514.6,3713.95613573,N,13701.42416581,E,4,11.0,1.5,97.746,M,36.771,M,2.6,0000*7B,37.23260226216666,137.02373609683332,679524.193343997,4122594.961629889
1874,[2021-02-22 16:05:15.097] $GPGGA,70514.7,3713.95613524,N,13701.42416677,E,4,11.0,1.5,97.748,M,36.771,M,2.7,0000*7D,37.232602254,137.02373611283338,679524.1947828827,4122594.960754095
1876,[2021-02-22 16:05:15.190] $GPGGA,70514.8,3713.95613575,N,13701.42416317,E,4,11.0,1.5,97.753,M,36.771,M,2.8,0000*70,37.2326022625,137.02373605283333,679524.1894395591,4122594.961583415
1878,[2021-02-22 16:05:15.284] $GPGGA,70514.9,3713.95613485,N,13701.42416317,E,4,11.0,1.5,97.752,M,36.771,M,2.9,0000*7F,37.232602247500004,137.02373605283333,679524.1894751426,4122594.9599190704
1880,[2021-02-22 16:05:15.393] $GPGGA,70515.0,3713.95613332,N,13701.42416615,E,4,11.0,1.5,97.755,M,36.771,M,3.0,0000*74,37.232602222,137.02373610249998,679524.1939420233,4122594.957183892
1882,[2021-02-22 16:05:15.487] $GPGGA,70515.1,3713.95613618,N,13701.42416515,E,4,11.0,1.5,97.757,M,36.771,M,3.1,0000*78,37.232602269666664,137.02373608583332,679524.1923502923,4122594.9624411967
1884,[2021-02-22 16:05:15.597] $GPGGA,70515.2,3713.95613287,N,13701.4241721,E,4,11.0,1.5,97.766,M,36.771,M,3.2,0000*7B,37.232602214500005,137.02373620166665,679524.2027578084,4122594.9565398204
1886,[2021-02-22 16:05:15.690] $GPGGA,70515.3,3713.95613764,N,13701.42417014,E,4,11.0,1.5,97.757,M,36.771,M,2.3,0000*76,37.232602294,137.02373616900002,679524.1996710555,4122594.9652988855
1888,[2021-02-22 16:05:15.800] $GPGGA,70515.4,3713.95614015,N,13701.42416659,E,4,11.0,1.5,97.753,M,36.771,M,2.4,0000*7A,37.23260233583334,137.02373610983335,679524.1943225944,4122594.9698283314
1890,[2021-02-22 16:05:15.893] $GPGGA,70515.5,3713.95613639,N,13701.42417044,E,4,11.0,1.5,97.760,M,36.771,M,2.5,0000*7E,37.23260227316667,137.02373617399996,679524.20016407,4122594.962996779
1892,[2021-02-22 16:05:16.003] $GPGGA,70515.6,3713.95613416,N,13701.42417351,E,4,11.0,1.5,97.766,M,36.771,M,2.6,0000*70,37.232602236,137.02373622516666,679524.2047917102,4122594.9589699563
1894,[2021-02-22 16:05:16.097] $GPGGA,70515.7,3713.956134,N,13701.42417206,E,4,11.0,1.5,97.767,M,36.771,M,2.7,0000*75,37.23260223333333,137.02373620100002,679524.2026539894,4122594.9586282326
1896,[2021-02-22 16:05:16.190] $GPGGA,70515.8,3713.95613772,N,13701.42416666,E,4,11.0,1.5,97.758,M,36.771,M,2.8,0000*7C,37.23260229533333,137.02373611099998,679524.1945221723,4122594.9653368117
1898,[2021-02-22 16:05:16.284] $GPGGA,70515.9,3713.95613551,N,13701.42417283,E,4,11.0,1.5,97.761,M,36.771,M,2.9,0000*7B,37.2326022585,137.02373621383333,679524.2037328498,4122594.9614449763
1900,[2021-02-22 16:05:16.409] $GPGGA,70516.0,3713.956139,N,13701.42417079,E,4,11.0,1.5,97.765,M,36.771,M,3.0,0000*72,37.232602316666664,137.02373617983332,679524.2005784095,4122594.9678344433
1902,[2021-02-22 16:05:16.487] $GPGGA,70516.1,3713.95613835,N,13701.4241702,E,4,11.0,1.5,97.762,M,36.771,M,3.1,0000*7E,37.23260230583334,137.02373616999998,679524.1997317004,4122594.9666137667
1904,[2021-02-22 16:05:16.597] $GPGGA,70516.2,3713.95613843,N,13701.4241707,E,4,11.0,1.5,97.759,M,36.771,M,3.2,0000*72,37.23260230716667,137.02373617833334,679524.2004678668,4122594.966777514
1906,[2021-02-22 16:05:16.690] $GPGGA,70516.3,3713.95613298,N,13701.42417286,E,4,12.0,1.1,97.775,M,36.771,M,2.3,0000*7D,37.232602216333326,137.02373621433335,679524.2038772396,4122594.9567672657
1908,[2021-02-22 16:05:16.800] $GPGGA,70516.4,3713.95612722,N,13701.42417837,E,4,12.0,1.1,97.776,M,36.771,M,2.4,0000*7B,37.23260212033333,137.02373630616665,679524.2122523569,4122594.9462896492
1910,[2021-02-22 16:05:16.893] $GPGGA,70516.5,3713.95612826,N,13701.42417846,E,4,12.0,1.1,97.773,M,36.771,M,2.5,0000*73,37.23260213766667,137.02373630766664,679524.212344317,4122594.9482157375
1912,[2021-02-22 16:05:17.003] $GPGGA,70516.6,3713.95612857,N,13701.42417689,E,4,12.0,1.1,97.778,M,36.771,M,2.6,0000*73,37.23260214283334,137.02373628149996,679524.2100105722,4122594.948739381
1914,[2021-02-22 16:05:17.096] $GPGGA,70516.7,3713.95612392,N,13701.42418058,E,4,12.0,1.1,97.774,M,36.771,M,2.7,0000*78,37.23260206533333,137.023736343,679524.215650657,4122594.940256918
1916,[2021-02-22 16:05:17.190] $GPGGA,70516.8,3713.95612303,N,13701.42418305,E,4,12.0,1.1,97.772,M,36.771,M,2.8,0000*7D,37.232602050500006,137.02373638416665,679524.2193381204,4122594.9386891522
1918,[2021-02-22 16:05:17.284] $GPGGA,70516.9,3713.95612559,N,13701.42417871,E,4,12.0,1.1,97.781,M,36.771,M,2.9,0000*7F,37.23260209316666,137.02373631183332,679524.2128195465,4122594.9432860855
1920,[2021-02-22 16:05:17.393] $GPGGA,70517.0,3713.95612195,N,13701.42418232,E,4,12.0,1.1,97.781,M,36.771,M,3.0,0000*79,37.232602032500004,137.023736372,679524.2183014055,4122594.9366688607
1922,[2021-02-22 16:05:17.487] $GPGGA,70517.1,3713.95612685,N,13701.42417842,E,4,12.0,1.1,97.769,M,36.771,M,3.1,0000*7B,37.232602114166674,137.023736307,679524.2123409205,4122594.9456070005
1924,[2021-02-22 16:05:17.596] $GPGGA,70517.2,3713.95612218,N,13701.42418122,E,4,12.0,1.1,97.771,M,36.771,M,3.2,0000*72,37.23260203633333,137.02373635366666,679524.2166657927,4122594.9370594183
1926,[2021-02-22 16:05:17.690] $GPGGA,70517.3,3713.95612816,N,13701.42417699,E,4,12.0,1.1,97.762,M,36.771,M,2.3,0000*7D,37.232602136000004,137.02373628316667,679524.2101746519,4122594.9479843397
1928,[2021-02-22 16:05:17.800] $GPGGA,70517.4,3713.95612606,N,13701.42417572,E,4,12.0,1.1,97.759,M,36.771,M,2.4,0000*7C,37.232602101,137.02373626200003,679524.2083797915,4122594.944060718
1930,[2021-02-22 16:05:17.893] $GPGGA,70517.5,3713.95612912,N,13701.42417434,E,4,12.0,1.1,97.761,M,36.771,M,2.5,0000*7E,37.23260215199999,137.023736239,679524.2062182607,4122594.949675863
1932,[2021-02-22 16:05:18.003] $GPGGA,70517.6,3713.95612535,N,13701.4241752,E,4,12.0,1.1,97.756,M,36.771,M,2.6,0000*77,37.23260208916666,137.02373625333334,679524.2076389592,4122594.9427312957
1934,[2021-02-22 16:05:18.096] $GPGGA,70517.7,3713.95613061,N,13701.42416952,E,4,12.0,1.1,97.756,M,36.771,M,2.7,0000*7A,37.23260217683333,137.02373615866665,679524.1990322341,4122594.9522789028
1936,[2021-02-22 16:05:18.206] $GPGGA,70517.8,3713.95613093,N,13701.42416831,E,4,12.0,1.1,97.746,M,36.771,M,2.8,0000*72,37.232602182166666,137.02373613850003,679524.1972304141,4122594.9528324166
1938,[2021-02-22 16:05:18.284] $GPGGA,70517.9,3713.95612938,N,13701.42417007,E,4,12.0,1.1,97.762,M,36.771,M,2.9,0000*71,37.232602156333336,137.02373616783336,679524.1998941292,4122594.9500216856
1940,[2021-02-22 16:05:18.393] $GPGGA,70518.0,3713.95613147,N,13701.42416896,E,4,12.0,1.1,97.760,M,36.771,M,3.0,0000*7D,37.23260219116666,137.02373614933333,679524.1981701886,4122594.9538515727
1942,[2021-02-22 16:05:18.487] $GPGGA,70518.1,3713.95613101,N,13701.42417135,E,4,12.0,1.1,97.758,M,36.771,M,3.1,0000*75,37.2326021835,137.02373618916664,679524.201722356,4122594.9530764637
1944,[2021-02-22 16:05:18.596] $GPGGA,70518.2,3713.95613185,N,13701.42417009,E,4,12.0,1.1,97.757,M,36.771,M,3.2,0000*78,37.2326021975,137.0237361681667,679524.1998260464,4122594.954590019
1946,[2021-02-22 16:05:18.690] $GPGGA,70518.3,3713.9561236,N,13701.4241791,E,4,12.0,1.1,97.761,M,36.771,M,2.3,0000*75,37.23260206,137.02373631833336,679524.213474904,4122594.9396183626
1948,[2021-02-22 16:05:18.800] $GPGGA,70518.4,3713.95612741,N,13701.42417797,E,4,12.0,1.1,97.767,M,36.771,M,2.4,0000*75,37.23260212350001,137.0237362995,679524.2116533848,4122594.946628368
1950,[2021-02-22 16:05:18.893] $GPGGA,70518.5,3713.95612577,N,13701.42417891,E,4,12.0,1.1,97.764,M,36.771,M,2.5,0000*78,37.23260209616667,137.02373631516667,679524.2131081619,4122594.943625279
1952,[2021-02-22 16:05:19.003] $GPGGA,70518.6,3713.95612867,N,13701.42417389,E,4,12.0,1.1,97.764,M,36.771,M,2.6,0000*76,37.2326021445,137.0237362315,679524.2055706601,4122594.9488294665
1954,[2021-02-22 16:05:19.096] $GPGGA,70518.7,3713.95612839,N,13701.42417656,E,4,12.0,1.1,97.763,M,36.771,M,2.7,0000*7D,37.23260213983333,137.023736276,679524.2095297358,4122594.9483960764
1956,[2021-02-22 16:05:19.190] $GPGGA,70518.8,3713.95612799,N,13701.42417643,E,4,12.0,1.1,97.765,M,36.771,M,2.8,0000*7A,37.232602133166665,137.02373627383335,679524.2093533278,4122594.94765226
1958,[2021-02-22 16:05:19.284] $GPGGA,70518.9,3713.95612912,N,13701.42417689,E,4,12.0,1.1,97.764,M,36.771,M,2.9,0000*70,37.23260215199999,137.02373628149996,679524.2099888267,4122594.949756478
1960,[2021-02-22 16:05:19.409] $GPGGA,70519.0,3713.95613016,N,13701.42417667,E,4,12.0,1.1,97.761,M,36.771,M,3.0,0000*79,37.23260216933334,137.02373627783334,679524.209622408,4122594.9516727687
1962,[2021-02-22 16:05:19.487] $GPGGA,70519.1,3713.95613416,N,13701.42417551,E,4,12.0,1.1,97.764,M,36.771,M,3.1,0000*7E,37.232602236,137.02373625849998,679524.2077490165,4122594.959033183
1964,[2021-02-22 16:05:19.596] $GPGGA,70519.2,3713.95612771,N,13701.42417702,E,4,12.0,1.1,97.765,M,36.771,M,3.2,0000*78,37.2326021285,137.0237362836667,679524.2102368042,4122594.9471531142
1966,[2021-02-22 16:05:19.690] $GPGGA,70519.3,3713.95613253,N,13701.42417446,E,4,12.0,1.1,97.763,M,36.771,M,2.3,0000*78,37.232602208833335,137.02373624100002,679524.20626088,4122594.955985676
1968,[2021-02-22 16:05:19.799] $GPGGA,70519.4,3713.9561269,N,13701.42417752,E,4,12.0,1.1,97.766,M,36.771,M,2.4,0000*71,37.232602115,137.02373629200002,679524.2110081565,4122594.945671012
1970,[2021-02-22 16:05:19.893] $GPGGA,70519.5,3713.95612658,N,13701.42417551,E,4,12.0,1.1,97.762,M,36.771,M,2.5,0000*70,37.232602109666665,137.02373625849998,679524.2080487092,4122594.9450157015
1972,[2021-02-22 16:05:20.002] $GPGGA,70519.6,3713.95612881,N,13701.42417656,E,4,12.0,1.1,97.759,M,36.771,M,2.6,0000*76,37.23260214683333,137.023736276,679524.2095131301,4122594.949172771
1974,[2021-02-22 16:05:20.096] $GPGGA,70519.7,3713.95612765,N,13701.42417631,E,4,12.0,1.1,97.770,M,36.771,M,2.7,0000*79,37.232602127499995,137.02373627183331,679524.2091893287,4122594.947019713
1976,[2021-02-22 16:05:20.206] $GPGGA,70519.8,3713.95612689,N,13701.42417939,E,4,12.0,1.1,97.764,M,36.771,M,2.8,0000*78,37.23260211483334,137.02373632316667,679524.2137736351,4122594.945711637
1978,[2021-02-22 16:05:20.284] $GPGGA,70519.9,3713.95612735,N,13701.42417811,E,4,12.0,1.1,97.758,M,36.771,M,2.9,0000*7A,37.2326021225,137.02373630183334,679524.2118627686,4122594.9465218363
1980,[2021-02-22 16:05:20.409] $GPGGA,70520.0,3713.95613067,N,13701.42417567,E,4,12.0,1.1,97.763,M,36.771,M,3.0,0000*74,37.232602177833336,137.02373626116665,679524.2081235875,4122594.9525842825
1982,[2021-02-22 16:05:20.487] $GPGGA,70520.1,3713.95612764,N,13701.424177,E,4,12.0,1.1,97.761,M,36.771,M,3.1,0000*70,37.23260212733334,137.02373628333336,679524.2102099997,4122594.947023034
1984,[2021-02-22 16:05:20.596] $GPGGA,70520.2,3713.95612876,N,13701.42417679,E,4,12.0,1.1,97.763,M,36.771,M,3.2,0000*71,37.232602146000005,137.02373627983332,679524.209855195,4122594.94908758
1986,[2021-02-22 16:05:20.690] $GPGGA,70520.3,3713.95612833,N,13701.42417351,E,4,12.0,1.1,97.750,M,36.771,M,2.3,0000*7E,37.23260213883333,137.02373622516666,679524.2050222126,4122594.9481887
1988,[2021-02-22 16:05:20.799] $GPGGA,70520.4,3713.95612764,N,13701.42417492,E,4,12.0,1.1,97.749,M,36.771,M,2.4,0000*73,37.23260212733334,137.02373624866664,679524.2071343936,4122594.9469572776
1990,[2021-02-22 16:05:20.893] $GPGGA,70520.5,3713.95612774,N,13701.42417403,E,4,12.0,1.1,97.758,M,36.771,M,2.5,0000*7A,37.232602129,137.02373623383335,679524.2058144412,4122594.9471140695
1992,[2021-02-22 16:05:21.002] $GPGGA,70520.6,3713.95612871,N,13701.42417131,E,4,12.0,1.1,97.752,M,36.771,M,2.6,0000*7E,37.232602145166666,137.0237361885,679524.2017541499,4122594.948821874
1994,[2021-02-22 16:05:21.096] $GPGGA,70520.7,3713.95612708,N,13701.4241714,E,4,12.0,1.1,97.763,M,36.771,M,2.7,0000*7B,37.232602118,137.02373619000002,679524.2019516747,4122594.945810406
1996,[2021-02-22 16:05:21.190] $GPGGA,70520.8,3713.95613017,N,13701.42417153,E,4,12.0,1.1,97.751,M,36.771,M,2.8,0000*70,37.2326021695,137.02373619216664,679524.2020217252,4122594.9515287657
1998,[2021-02-22 16:05:21.299] $GPGGA,70520.9,3713.95612952,N,13701.42417368,E,4,12.0,1.1,97.749,M,36.771,M,2.9,0000*7A,37.23260215866667,137.023736228,679524.2052265328,4122594.9503947096
2000,[2021-02-22 16:05:21.409] $GPGGA,70521.0,3713.95612837,N,13701.42417113,E,4,12.0,1.1,97.752,M,36.771,M,3.0,0000*7C,37.232602139499996,137.0237361855,679524.2015014347,4122594.94818743
2002,[2021-02-22 16:05:21.487] $GPGGA,70521.1,3713.95612826,N,13701.42417376,E,4,12.0,1.1,97.753,M,36.771,M,3.1,0000*7C,37.23260213766667,137.02373622933334,679524.205394645,4122594.948067154
2004,[2021-02-22 16:05:21.596] $GPGGA,70521.2,3713.95612982,N,13701.42417381,E,4,12.0,1.1,97.750,M,36.771,M,3.2,0000*78,37.23260216366667,137.02373623016666,679524.205406897,4122594.9509536
2006,[2021-02-22 16:05:21.690] $GPGGA,70521.3,3713.95612252,N,13701.42417494,E,4,12.0,1.1,97.768,M,36.771,M,2.3,0000*77,37.232602041999996,137.02373624900002,679524.2073664013,4122594.937489637
2008,[2021-02-22 16:05:21.799] $GPGGA,70521.4,3713.95612707,N,13701.42417544,E,4,12.0,1.1,97.756,M,36.771,M,2.4,0000*73,37.23260211783333,137.02373625733335,679524.2079258336,4122594.9459196306
2010,[2021-02-22 16:05:21.893] $GPGGA,70521.5,3713.95612846,N,13701.42417511,E,4,12.0,1.1,97.758,M,36.771,M,2.5,0000*77,37.232602141,137.02373625183333,679524.2073829193,4122594.9484796883
2012,[2021-02-22 16:05:22.002] $GPGGA,70521.6,3713.95612842,N,13701.42417523,E,4,12.0,1.1,97.762,M,36.771,M,2.6,0000*7B,37.232602140333334,137.02373625383333,679524.2075619401,4122594.94840951
2014,[2021-02-22 16:05:22.096] $GPGGA,70521.7,3713.95613014,N,13701.4241739,E,4,12.0,1.1,97.759,M,36.771,M,2.7,0000*77,37.232602169,137.02373623166667,679524.2055273263,4122594.9515482117
2016,[2021-02-22 16:05:22.190] $GPGGA,70521.8,3713.95612823,N,13701.4241753,E,4,12.0,1.1,97.757,M,36.771,M,2.8,0000*78,37.232602137166666,137.023736255,679524.2076729567,4122594.9480603607
2018,[2021-02-22 16:05:22.284] $GPGGA,70521.9,3713.95612859,N,13701.42417394,E,4,12.0,1.1,97.757,M,36.771,M,2.9,0000*7D,37.232602143166666,137.02373623233333,679524.2056477533,4122594.9486831045
2020,[2021-02-22 16:05:22.409] $GPGGA,70522.0,3713.95612801,N,13701.424175,E,4,12.0,1.1,97.760,M,36.771,M,3.0,0000*7D,37.23260213350001,137.02373624999998,679524.2072380577,4122594.9476440386
2022,[2021-02-22 16:05:22.487] $GPGGA,70522.1,3713.95612991,N,13701.42417577,E,4,12.0,1.1,97.758,M,36.771,M,3.1,0000*7E,37.23260216516667,137.02373626283335,679524.208301503,4122594.951181997
2024,[2021-02-22 16:05:22.596] $GPGGA,70522.2,3713.9561278,N,13701.42417704,E,4,12.0,1.1,97.760,M,36.771,M,3.2,0000*7D,37.232602130000004,137.023736284,679524.2102628156,4122594.947320183
2026,[2021-02-22 16:05:22.690] $GPGGA,70522.3,3713.95612741,N,13701.42418085,E,4,12.0,1.1,97.764,M,36.771,M,2.3,0000*74,37.23260212350001,137.0237363475,679524.2159119108,4122594.9467194146
2028,[2021-02-22 16:05:22.799] $GPGGA,70522.4,3713.95612689,N,13701.42417968,E,4,12.0,1.1,97.761,M,36.771,M,2.4,0000*71,37.23260211483334,137.023736328,679524.214202444,4122594.945720805
2030,[2021-02-22 16:05:22.893] $GPGGA,70522.5,3713.95612753,N,13701.42417914,E,4,12.0,1.1,97.766,M,36.771,M,2.5,0000*7B,37.232602125499994,137.023736319,679524.2133786666,4122594.9468872664
2032,[2021-02-22 16:05:23.002] $GPGGA,70522.6,3713.95612508,N,13701.42417939,E,4,12.0,1.1,97.767,M,36.771,M,2.6,0000*79,37.23260208466667,137.02373632316667,679524.2138451977,4122594.942364454
2034,[2021-02-22 16:05:23.096] $GPGGA,70522.7,3713.95612689,N,13701.42417817,E,4,12.0,1.1,97.768,M,36.771,M,2.7,0000*71,37.23260211483334,137.02373630283336,679524.2119696764,4122594.9456730685
2036,[2021-02-22 16:05:23.190] $GPGGA,70522.8,3713.95612617,N,13701.42417949,E,4,12.0,1.1,97.769,M,36.771,M,2.8,0000*7D,37.23260210283334,137.02373632483335,679524.2139499671,4122594.9443833227
2038,[2021-02-22 16:05:23.299] $GPGGA,70522.9,3713.95612419,N,13701.42418143,E,4,12.0,1.1,97.766,M,36.771,M,2.9,0000*73,37.23260206983333,137.02373635716665,679524.2168968387,4122594.940783093
2040,[2021-02-22 16:05:23.393] $GPGGA,70523.0,3713.956126,N,13701.42417673,E,4,12.0,1.1,97.765,M,36.771,M,3.0,0000*71,37.2326021,137.02373627883335,679524.209875604,4122594.9439816917
2042,[2021-02-22 16:05:23.487] $GPGGA,70523.1,3713.95612744,N,13701.42417572,E,4,12.0,1.1,97.767,M,36.771,M,3.1,0000*70,37.23260212399999,137.02373626200003,679524.20832523,4122594.946612713
2044,[2021-02-22 16:05:23.596] $GPGGA,70523.2,3713.95612705,N,13701.42417622,E,4,12.0,1.1,97.764,M,36.771,M,3.2,0000*70,37.232602117499994,137.0237362703333,679524.2090799699,4122594.9459073045
2046,[2021-02-22 16:05:23.690] $GPGGA,70523.3,3713.95612707,N,13701.42417456,E,4,12.0,1.1,97.760,M,36.771,M,2.3,0000*76,37.23260211783333,137.02373624266667,679524.2066246164,4122594.945891812
2048,[2021-02-22 16:05:23.799] $GPGGA,70523.4,3713.95612511,N,13701.42417913,E,4,12.0,1.1,97.760,M,36.771,M,2.4,0000*7F,37.23260208516666,137.0237363188333,679524.2134595562,4122594.9424117124
2050,[2021-02-22 16:05:23.893] $GPGGA,70523.5,3713.95612587,N,13701.4241779,E,4,12.0,1.1,97.761,M,36.771,M,2.5,0000*74,37.23260209783333,137.02373629833335,679524.2116107678,4122594.943778274
2052,[2021-02-22 16:05:24.002] $GPGGA,70523.6,3713.95612162,N,13701.42418006,E,4,12.0,1.1,97.773,M,36.771,M,2.6,0000*7F,37.232602027,137.0237363343333,679524.2149726913,4122594.9359871536
2054,[2021-02-22 16:05:24.096] $GPGGA,70523.7,3713.95612688,N,13701.42417788,E,4,12.0,1.1,97.758,M,36.771,M,2.7,0000*7B,37.23260211466667,137.023736298,679524.2115412607,4122594.9456454073
2056,[2021-02-22 16:05:24.205] $GPGGA,70523.8,3713.95612408,N,13701.42418034,E,4,12.0,1.1,97.759,M,36.771,M,2.8,0000*7F,37.232602068,137.023736339,679524.2152894568,4122594.9405452153
2058,[2021-02-22 16:05:24.283] $GPGGA,70523.9,3713.95612548,N,13701.42418032,E,4,12.0,1.1,97.762,M,36.771,M,2.9,0000*74,37.232602091333334,137.02373633866668,679524.2152045303,4122594.9431335633
2060,[2021-02-22 16:05:24.393] $GPGGA,70524.0,3713.95612966,N,13701.42417587,E,4,12.0,1.1,97.756,M,36.771,M,3.0,0000*71,37.232602161,137.0237362645,679524.2084592524,4122594.95072284
2062,[2021-02-22 16:05:24.487] $GPGGA,70524.1,3713.95612824,N,13701.42417748,E,4,12.0,1.1,97.765,M,36.771,M,3.1,0000*77,37.23260213733334,137.0237362913333,679524.2108960256,4122594.948147773
2064,[2021-02-22 16:05:24.596] $GPGGA,70524.2,3713.95612775,N,13701.42417692,E,4,12.0,1.1,97.760,M,36.771,M,3.2,0000*7F,37.232602129166665,137.023736282,679524.2100873531,4122594.947223924
2066,[2021-02-22 16:05:24.690] $GPGGA,70524.3,3713.9561295,N,13701.4241794,E,4,12.0,1.1,97.769,M,36.771,M,2.3,0000*7E,37.232602158333336,137.02373632333337,679524.213685231,4122594.9505385533
2068,[2021-02-22 16:05:24.799] $GPGGA,70524.4,3713.95612911,N,13701.42417892,E,4,12.0,1.1,97.763,M,36.771,M,2.4,0000*7F,37.23260215183333,137.02373631533337,679524.2129908956,4122594.949802161
2070,[2021-02-22 16:05:24.893] $GPGGA,70524.5,3713.95613411,N,13701.42417633,E,4,12.0,1.1,97.768,M,36.771,M,2.5,0000*7D,37.232602235166674,137.02373627216664,679524.2089634899,4122594.958966644
2072,[2021-02-22 16:05:25.002] $GPGGA,70524.6,3713.95613288,N,13701.42417582,E,4,12.0,1.1,97.761,M,36.771,M,2.6,0000*7B,37.23260221466666,137.02373626366668,679524.2082580097,4122594.9566759146
2074,[2021-02-22 16:05:25.096] $GPGGA,70524.7,3713.9561294,N,13701.42417748,E,4,12.0,1.1,97.766,M,36.771,M,2.7,0000*76,37.23260215666667,137.0237362913333,679524.2108501623,4122594.9502929277
2076,[2021-02-22 16:05:25.205] $GPGGA,70524.8,3713.9561312,N,13701.42418124,E,4,12.0,1.1,97.770,M,36.771,M,2.8,0000*7D,37.23260218666666,137.023736354,679524.2163387383,4122594.9537404836
2078,[2021-02-22 16:05:25.299] $GPGGA,70524.9,3713.95613123,N,13701.42417977,E,4,12.0,1.1,97.766,M,36.771,M,2.9,0000*78,37.23260218716667,137.02373632950003,679524.2141639333,4122594.95374949
2080,[2021-02-22 16:05:25.393] $GPGGA,70525.0,3713.95613327,N,13701.42417993,E,4,12.0,1.1,97.761,M,36.771,M,3.0,0000*73,37.232602221166665,137.0237363321667,679524.2143198607,4122594.957527064
2082,[2021-02-22 16:05:25.487] $GPGGA,70525.1,3713.95613469,N,13701.42417838,E,4,12.0,1.1,97.756,M,36.771,M,3.1,0000*7A,37.23260224483334,137.02373630633335,679524.2119718038,4122594.9601040296
2084,[2021-02-22 16:05:25.596] $GPGGA,70525.2,3713.95613381,N,13701.424176,E,4,12.0,1.1,97.757,M,36.771,M,3.2,0000*7F,37.23260223016667,137.02373626666667,679524.2084873979,4122594.958401428
2086,[2021-02-22 16:05:25.690] $GPGGA,70525.3,3713.95612957,N,13701.42417646,E,4,12.0,1.1,97.760,M,36.771,M,2.3,0000*78,37.2326021595,137.02373627433334,679524.2093352169,4122594.9505750565
2088,[2021-02-22 16:05:25.799] $GPGGA,70525.4,3713.9561278,N,13701.42417893,E,4,12.0,1.1,97.753,M,36.771,M,2.4,0000*7A,37.232602130000004,137.0237363155,679524.2130574733,4122594.947379932
2090,[2021-02-22 16:05:25.893] $GPGGA,70525.5,3713.95612656,N,13701.42417785,E,4,12.0,1.1,97.754,M,36.771,M,2.5,0000*7F,37.232602109333335,137.02373629750002,679524.2115095545,4122594.945052692
2092,[2021-02-22 16:05:26.002] $GPGGA,70525.6,3713.95612861,N,13701.42418015,E,4,12.0,1.1,97.756,M,36.771,M,2.6,0000*76,37.23260214350001,137.02373633583332,679524.2148294066,4122594.948916413
2094,[2021-02-22 16:05:26.096] $GPGGA,70525.7,3713.9561274,N,13701.4241787,E,4,12.0,1.1,97.757,M,36.771,M,2.7,0000*7F,37.23260212333332,137.02373631166668,679524.2127332,4122594.9466329515
2096,[2021-02-22 16:05:26.205] $GPGGA,70525.8,3713.95612765,N,13701.42418301,E,4,12.0,1.1,97.764,M,36.771,M,2.8,0000*7A,37.232602127499995,137.0237363835,679524.2190963139,4122594.9472315237
2098,[2021-02-22 16:05:26.299] $GPGGA,70525.9,3713.95612862,N,13701.42417769,E,4,12.0,1.1,97.757,M,36.771,M,2.9,0000*77,37.23260214366667,137.02373629483336,679524.2111915242,4122594.9488571347
2100,[2021-02-22 16:05:26.393] $GPGGA,70526.0,3713.95612586,N,13701.42418077,E,4,12.0,1.1,97.760,M,36.771,M,3.0,0000*71,37.23260209766667,137.02373634616666,679524.2158548986,4122594.9438505126
2102,[2021-02-22 16:05:26.486] $GPGGA,70526.1,3713.9561278,N,13701.42418004,E,4,12.0,1.1,97.757,M,36.771,M,3.1,0000*75,37.232602130000004,137.02373633399998,679524.2146987786,4122594.9474150226
2104,[2021-02-22 16:05:26.596] $GPGGA,70526.2,3713.95612592,N,13701.42418226,E,4,12.0,1.1,97.758,M,36.771,M,3.2,0000*79,37.23260209866667,137.02373637099998,679524.2180557216,4122594.9440085725
2106,[2021-02-22 16:05:26.690] $GPGGA,70526.3,3713.95612545,N,13701.4241832,E,4,12.0,1.1,97.764,M,36.771,M,2.3,0000*7A,37.23260209083334,137.02373638666668,679524.2194642421,4122594.943169134
2108,[2021-02-22 16:05:26.799] $GPGGA,70526.4,3713.95612366,N,13701.4241863,E,4,12.0,1.1,97.766,M,36.771,M,2.4,0000*7B,37.232602060999994,137.02373643833332,679524.2241188397,4122594.939956937
