,Format,Time,Latitude,LatType,Longitude,LonType,Status,Satellite,LevelAccuracy,Altitude(sea),M(sea),Altitude(geoid),M(geoid),DGPS use,checksum,Lat,Lon,UTM_X,UTM_Y
328,[2021-02-22 16:13:55.710] $GNGGA,71355.1,3713.967957473,N,13701.454718708,E,4,4,2.47,98.195,M,37.566,M,68.1,2006*6B,37.23279929121666,137.02424531180003,679568.9030024778,4122617.7892568638
329,[2021-02-22 16:13:55.773] $GNGGA,71355.2,3713.96794866,N,13701.454710693999,E,4,4,2.47,98.25,M,37.566,M,68.2,2006*63,37.23279914433333,137.02424517823334,679568.891501102,4122617.7727058115
330,[2021-02-22 16:13:55.882] $GNGGA,71355.3,3713.967955559,N,13701.454712054,E,4,4,2.47,98.23299999999999,M,37.566,M,68.3,2006*6B,37.232799259316664,137.02424520089997,679568.893239227,4122617.7855069465
331,[2021-02-22 16:13:55.976] $GNGGA,71355.4,3713.967958935,N,13701.454714664,E,4,4,2.47,98.228,M,37.566,M,68.4,2006*69,37.23279931558333,137.02424524439996,679568.8969649919,4122617.791832621
332,[2021-02-22 16:13:56.085] $GNGGA,71355.5,3713.9679617140005,N,13701.454714791002,E,4,4,2.47,98.22,M,37.566,M,68.5,2006*6D,37.23279936190001,137.02424524651667,679568.8970428808,4122617.796975767
333,[2021-02-22 16:13:56.195] $GNGGA,71355.6,3713.9679659490002,N,13701.454715462,E,4,4,2.47,98.212,M,37.566,M,68.6,2006*60,37.23279943248333,137.02424525770002,679568.8978675725,4122617.8048286517
334,[2021-02-22 16:13:56.273] $GNGGA,71355.7,3713.967967815,N,13701.454714917,E,4,4,2.47,98.204,M,37.566,M,68.7,2006*63,37.23279946358334,137.02424524861667,679568.8969879124,4122617.8082621614
335,[2021-02-22 16:13:56.382] $GNGGA,71355.8,3713.967969708,N,13701.454714844,E,4,4,2.47,98.197,M,37.566,M,68.8,2006*60,37.23279949513333,137.0242452474,679568.8968051067,4122617.811760523
336,[2021-02-22 16:13:56.476] $GNGGA,71355.9,3713.967969614,N,13701.454713686999,E,4,4,2.47,98.193,M,37.566,M,68.9,2006*6E,37.23279949356667,137.02424522811665,679568.8950980242,4122617.811550106
337,[2021-02-22 16:13:56.601] $GNGGA,71356.0,3713.967972289,N,13701.454713216,E,4,4,2.47,98.182,M,37.566,M,69.0,2006*6A,37.232799538150005,137.02424522026666,679568.8942957912,4122617.816482016
338,[2021-02-22 16:13:56.679] $GNGGA,71356.1,3713.9679755390002,N,13701.454713605,E,4,4,2.47,98.169,M,37.566,M,69.1,2006*62,37.232799592316674,137.02424522675,679568.894742458,4122617.8225044515
339,[2021-02-22 16:13:56.788] $GNGGA,71356.2,3713.9679778590003,N,13701.454713838,E,4,4,2.47,98.16,M,37.566,M,69.2,2006*62,37.23279963098334,137.02424523063334,679568.8949952333,4122617.826802131
340,[2021-02-22 16:13:56.882] $GNGGA,71356.3,3713.967981493,N,13701.454713091001,E,4,4,2.47,98.14399999999999,M,37.566,M,69.3,2006*6C,37.23279969155,137.02424521818335,679568.893746967,4122617.833498764
341,[2021-02-22 16:13:57.007] $GNGGA,71356.4,3713.967984227,N,13701.454712944,E,4,4,2.47,98.14,M,37.566,M,69.4,2006*64,37.232799737116665,137.02424521573332,679568.8934214808,4122617.8385500256
342,[2021-02-22 16:13:57.085] $GNGGA,71356.5,3713.9679867659997,N,13701.454712116001,E,4,4,2.47,98.133,M,37.566,M,69.5,2006*6D,37.232799779433336,137.02424520193335,679568.89209675,4122617.843219146
343,[2021-02-22 16:13:57.179] $GNGGA,71356.6,3713.967987937,N,13701.454710061002,E,4,4,2.47,98.132,M,37.566,M,69.6,2006*64,37.23279979895,137.02424516768335,679568.8890118111,4122617.8453196604
344,[2021-02-22 16:13:57.288] $GNGGA,71356.7,3713.967989595,N,13701.454708168001,E,4,4,2.47,98.13600000000001,M,37.566,M,69.7,2006*6B,37.232799826583324,137.02424513613335,679568.8861471575,4122617.8483258937
345,[2021-02-22 16:13:57.398] $GNGGA,71356.8,3713.9679876679998,N,13701.454705523998,E,4,7,1.62,98.13600000000001,M,37.566,M,69.8,2006*62,37.232799794466665,137.02424509206662,679568.8823138068,4122617.84467874
346,[2021-02-22 16:13:57.476] $GNGGA,71356.9,3713.967993914,N,13701.454705975,E,4,12,0.97,98.119,M,37.566,M,69.9,2006*69,37.23279989856667,137.02424509958337,679568.8827336719,4122617.8562435554
347,[2021-02-22 16:13:57.585] $GNGGA,71357.0,3713.968352067,N,13701.454804702,E,4,12,1.05,96.686,M,37.566,M,70.0,2006*60,37.23280586778333,137.0242467450333,679569.0145523573,4122618.521687847
348,[2021-02-22 16:13:57.679] $GNGGA,71357.1,3713.968351271,N,13701.454801832,E,4,13,1.02,96.682,M,37.566,M,70.1,2006*6D,37.23280585451667,137.0242466972,679569.0103401128,4122618.520125074
349,[2021-02-22 16:13:57.804] $GNGGA,71357.2,3713.968349873,N,13701.454801254,E,4,13,1.02,96.68,M,37.566,M,70.2,2006*64,37.232805831216666,137.02424668756666,679569.0095407396,4122618.517521513
350,[2021-02-22 16:13:57.882] $GNGGA,71357.3,3713.9683497540004,N,13701.454799156001,E,4,13,1.02,96.68,M,37.566,M,70.3,2006*61,37.23280582923334,137.02424665260003,679569.0064432397,4122618.5172351096
351,[2021-02-22 16:13:57.976] $GNGGA,71357.4,3713.968351412,N,13701.454799501002,E,4,11,1.2,96.677,M,37.566,M,70.4,2006*65,37.23280585686667,137.02424665835002,679569.0068878053,4122618.5203121114
352,[2021-02-22 16:13:58.085] $GNGGA,71357.5,3713.968045089,N,13701.454721461001,E,4,13,0.95,97.866,M,37.566,M,70.5,2006*63,37.23280075148333,137.02424535768336,679568.9036082148,4122617.9513697512
353,[2021-02-22 16:13:58.195] $GNGGA,71357.6,3713.968052455,N,13701.454724775,E,4,13,0.95,97.84,M,37.566,M,70.6,2006*67,37.23280087425,137.02424541291666,679568.9082171519,4122617.9650962856
354,[2021-02-22 16:13:58.273] $GNGGA,71357.7,3713.96806073,N,13701.454730035,E,4,13,0.95,97.803,M,37.566,M,70.7,2006*67,37.23280101216667,137.02424550058336,679568.9156676037,4122617.980565343
355,[2021-02-22 16:13:58.382] $GNGGA,71357.8,3713.968352367,N,13701.454802835,E,4,13,0.95,96.70299999999999,M,37.566,M,70.8,2006*6B,37.23280587278334,137.02424671391665,679569.011779855,4122618.5221835934
356,[2021-02-22 16:13:58.476] $GNGGA,71357.9,3713.968075158,N,13701.454740481002,E,4,13,0.95,97.756,M,37.566,M,70.9,2006*68,37.23280125263334,137.02424567468339,679568.9305429994,4122618.00757696
357,[2021-02-22 16:13:58.585] $GNGGA,71358.0,3713.968355079,N,13701.45481392,E,4,13,0.95,96.681,M,37.566,M,71.0,2006*60,37.23280591798334,137.02424689866666,679569.0280634428,4122618.527549345
358,[2021-02-22 16:13:58.710] $GNGGA,71358.1,3713.968354644,N,13701.454811841999,E,4,13,0.95,96.697,M,37.566,M,71.1,2006*69,37.23280591073334,137.0242468640333,679569.0250080074,4122618.5266792015
359,[2021-02-22 16:13:58.773] $GNGGA,71358.2,3713.9683536929997,N,13701.454814158,E,4,12,1.16,96.671,M,37.566,M,71.2,2006*60,37.23280589488332,137.02424690263334,679569.0284701762,4122618.5249937777
360,[2021-02-22 16:13:58.882] $GNGGA,71358.3,3713.968354787,N,13701.454809514,E,4,12,1.16,96.671,M,37.566,M,71.3,2006*63,37.232805913116664,137.02424682523332,679569.0215600566,4122618.5268700323
361,[2021-02-22 16:13:58.976] $GNGGA,71358.4,3713.968355343,N,13701.454808115,E,4,13,0.95,96.675,M,37.566,M,71.4,2006*65,37.23280592238333,137.02424680191666,679569.0194694358,4122618.5278539886
362,[2021-02-22 16:13:59.085] $GNGGA,71358.5,3713.9683568940004,N,13701.4548074,E,4,13,0.95,96.698,M,37.566,M,71.5,2006*6A,37.232805948233334,137.02424679,679569.0183508642,4122618.530699601
363,[2021-02-22 16:13:59.210] $GNGGA,71358.6,3713.9683545440002,N,13701.454807129,E,4,12,1.16,96.662,M,37.566,M,71.6,2006*68,37.23280590906667,137.0242467854833,679569.0180430842,4122618.526345242
364,[2021-02-22 16:13:59.273] $GNGGA,71358.7,3713.968355265,N,13701.454810223,E,4,11,1.29,96.67,M,37.566,M,71.7,2006*6E,37.23280592108333,137.02424683705001,679569.0225895171,4122618.5277764047
365,[2021-02-22 16:13:59.382] $GNGGA,71358.8,3713.968357434,N,13701.454812958,E,4,11,1.29,96.666,M,37.566,M,71.8,2006*6C,37.23280595723334,137.02424688263332,679569.0265478471,4122618.5318739605
366,[2021-02-22 16:13:59.476] $GNGGA,71358.9,3713.968358939,N,13701.454815016,E,4,11,1.29,96.669,M,37.566,M,71.9,2006*68,37.23280598231667,137.02424691693335,679569.0295313924,4122618.534722192
367,[2021-02-22 16:13:59.585] $GNGGA,71359.0,3713.96835975,N,13701.454816143001,E,4,11,1.29,96.675,M,37.566,M,72.0,2006*65,37.23280599583334,137.0242469357167,679569.0311657588,4122618.5362575892
368,[2021-02-22 16:13:59.710] $GNGGA,71359.1,3713.9683585870002,N,13701.454814951001,E,4,11,1.29,96.675,M,37.566,M,72.1,2006*65,37.23280597645,137.02424691585,679569.0294491996,4122618.534069193
369,[2021-02-22 16:13:59.773] $GNGGA,71359.2,3713.968358769,N,13701.454813856,E,4,11,1.29,96.67,M,37.566,M,72.2,2006*63,37.23280597948334,137.0242468976,679569.0278228798,4122618.5343711353
370,[2021-02-22 16:13:59.882] $GNGGA,71359.3,3713.9683575309996,N,13701.45481186,E,4,11,1.29,96.669,M,37.566,M,72.3,2006*6C,37.232805958849994,137.02424686433335,679569.0249204554,4122618.5320186187
371,[2021-02-22 16:13:59.976] $GNGGA,71359.4,3713.968356858,N,13701.454810374,E,4,11,1.29,96.671,M,37.566,M,72.4,2006*69,37.23280594763333,137.02424683956667,679569.0227497934,4122618.5307270694
372,[2021-02-22 16:14:00.085] $GNGGA,71359.5,3713.9683569659996,N,13701.454810391,E,4,11,1.29,96.664,M,37.566,M,72.5,2006*6A,37.23280594943332,137.02424683984998,679569.0227706585,4122618.530927327
373,[2021-02-22 16:14:00.195] $GNGGA,71359.6,3713.9683565990003,N,13701.454809943001,E,4,11,1.29,96.662,M,37.566,M,72.6,2006*6D,37.23280594331668,137.02424683238337,679569.0221227411,4122618.5302344803
374,[2021-02-22 16:14:00.273] $GNGGA,71359.7,3713.968356538,N,13701.454810092,E,4,11,1.29,96.661,M,37.566,M,72.7,2006*68,37.232805942300004,137.02424683486666,679569.0223454696,4122618.530126385
375,[2021-02-22 16:14:00.382] $GNGGA,71359.8,3713.968355663,N,13701.454811016001,E,4,11,1.29,96.661,M,37.566,M,72.8,2006*6B,37.23280592771666,137.02424685026668,679569.0237463482,4122618.528537489
376,[2021-02-22 16:14:00.476] $GNGGA,71359.9,3713.968355934,N,13701.454809611001,E,4,11,1.29,96.65799999999999,M,37.566,M,72.9,2006*64,37.23280593223333,137.02424682685003,679569.0216581291,4122618.528994215
377,[2021-02-22 16:14:00.585] $GNGGA,71400.0,3713.968356495,N,13701.454808895,E,4,11,1.29,96.655,M,37.566,M,73.0,2006*65,37.23280594158333,137.02424681491667,679569.0205772263,4122618.530009014
378,[2021-02-22 16:14:00.694] $GNGGA,71400.1,3713.968356667,N,13701.454809216,E,4,13,0.95,96.655,M,37.566,M,73.1,2006*6E,37.23280594445,137.02424682026665,679569.0210450685,4122618.5303372405
379,[2021-02-22 16:14:00.773] $GNGGA,71400.2,3713.968354688,N,13701.454809298,E,4,13,0.95,96.652,M,37.566,M,73.2,2006*6C,37.23280591146667,137.0242468216333,679569.0212445827,4122618.5266801235
380,[2021-02-22 16:14:00.882] $GNGGA,71400.3,3713.968355079,N,13701.454808711002,E,4,13,0.95,96.65,M,37.566,M,73.3,2006*62,37.23280591798334,137.02424681185005,679569.0203611562,4122618.5273846285
381,[2021-02-22 16:14:00.976] $GNGGA,71400.4,3713.968355972,N,13701.454809034,E,4,13,0.95,96.65,M,37.566,M,73.4,2006*61,37.23280593286666,137.02424681723332,679569.0208034397,4122618.5290462403
382,[2021-02-22 16:14:01.101] $GNGGA,71400.5,3713.968354347,N,13701.454808048999,E,4,13,0.95,96.65,M,37.566,M,73.5,2006*67,37.23280590578333,137.02424680081666,679569.0194112351,4122618.526010026
383,[2021-02-22 16:14:01.179] $GNGGA,71400.6,3713.968353898,N,13701.454808747,E,4,13,0.95,96.65100000000001,M,37.566,M,73.6,2006*61,37.23280589829999,137.02424681244997,679569.0204610869,4122618.5252017747
384,[2021-02-22 16:14:01.288] $GNGGA,71400.7,3713.968353376,N,13701.454809588999,E,4,13,0.95,96.648,M,37.566,M,73.7,2006*63,37.2328058896,137.0242468264833,679569.0217267554,4122618.524263082
385,[2021-02-22 16:14:01.382] $GNGGA,71400.8,3713.968353496,N,13701.454811271002,E,4,13,0.95,96.646,M,37.566,M,73.8,2006*6D,37.2328058916,137.02424685451672,679569.0242091066,4122618.5245381813
386,[2021-02-22 16:14:01.507] $GNGGA,71400.9,3713.968353932,N,13701.454811711,E,4,13,0.95,96.648,M,37.566,M,73.9,2006*63,37.23280589886666,137.02424686185,679569.0248424662,4122618.525358375
387,[2021-02-22 16:14:01.585] $GNGGA,71401.0,3713.968353313,N,13701.454812116,E,4,13,0.95,96.645,M,37.566,M,74.0,2006*63,37.232805888550004,137.02424686860002,679569.0254657998,4122618.5242264844
388,[2021-02-22 16:14:01.679] $GNGGA,71401.1,3713.968353972,N,13701.454811665,E,4,13,0.95,96.648,M,37.566,M,74.1,2006*63,37.232805899533325,137.02424686108333,679569.0247728643,4122618.5254308917
389,[2021-02-22 16:14:01.788] $GNGGA,71401.2,3713.968355363,N,13701.454813302,E,4,13,0.95,96.64299999999999,M,37.566,M,74.2,2006*62,37.232805922716665,137.02424688836663,679569.0271384022,4122618.528054995
390,[2021-02-22 16:14:01.898] $GNGGA,71401.3,3713.968356165,N,13701.454813795,E,4,13,0.95,96.645,M,37.566,M,74.3,2006*69,37.23280593608334,137.02424689658335,679569.0278356646,4122618.529553702
391,[2021-02-22 16:14:01.976] $GNGGA,71401.4,3713.968357745,N,13701.454815505,E,4,13,0.95,96.645,M,37.566,M,74.4,2006*61,37.23280596241667,137.02424692508333,679569.0303016705,4122618.5325296237
392,[2021-02-22 16:14:02.085] $GNGGA,71401.5,3713.9683589720003,N,13701.454817111999,E,4,13,0.95,96.645,M,37.566,M,74.5,2006*64,37.232805982866665,137.02424695186667,679569.0326293384,4122618.5348494956
393,[2021-02-22 16:14:02.179] $GNGGA,71401.6,3713.968359727,N,13701.454816235,E,4,13,0.95,96.64299999999999,M,37.566,M,74.6,2006*6A,37.23280599545,137.02424693724998,679569.031302702,4122618.5362179666
394,[2021-02-22 16:14:02.304] $GNGGA,71401.7,3713.9683582790003,N,13701.454815149,E,4,13,0.95,96.64299999999999,M,37.566,M,74.7,2006*6E,37.23280597131668,137.02424691915002,679569.0297541544,4122618.5335058793
395,[2021-02-22 16:14:02.382] $GNGGA,71401.8,3713.968358703,N,13701.454814336,E,4,13,0.95,96.645,M,37.566,M,74.8,2006*6B,37.23280597838333,137.0242469056,679569.028535241,4122618.534264261
396,[2021-02-22 16:14:02.476] $GNGGA,71401.9,3713.968358533,N,13701.4548153,E,4,13,0.95,96.645,M,37.566,M,74.9,2006*6E,37.232805975549994,137.02424692166664,679569.0299673827,4122618.5339803663
397,[2021-02-22 16:14:02.585] $GNGGA,71402.0,3713.968357027,N,13701.454816071999,E,4,13,0.95,96.647,M,37.566,M,75.0,2006*64,37.23280595045,137.0242469345333,679569.0311684571,4122618.5312197753
398,[2021-02-22 16:14:02.679] $GNGGA,71402.1,3713.968355615,N,13701.454816766001,E,4,13,0.95,96.648,M,37.566,M,75.1,2006*6C,37.23280592691666,137.02424694610005,679569.0322504899,4122618.5286305477
399,[2021-02-22 16:14:02.804] $GNGGA,71402.2,3713.9683559190003,N,13701.454818106002,E,4,13,0.95,96.649,M,37.566,M,75.2,2006*60,37.23280593198334,137.02424696843335,679569.0342198558,4122618.5292351013
400,[2021-02-22 16:14:02.882] $GNGGA,71402.3,3713.968355635,N,13701.454817281001,E,4,13,0.95,96.649,M,37.566,M,75.3,2006*62,37.23280592725,137.02424695468335,679569.0330112011,4122618.5286838193
401,[2021-02-22 16:14:02.976] $GNGGA,71402.4,3713.9683542509997,N,13701.454815535,E,4,13,0.95,96.65100000000001,M,37.566,M,75.4,2006*66,37.23280590418333,137.02424692558336,679569.030484212,4122618.5260692155
402,[2021-02-22 16:14:03.085] $GNGGA,71402.5,3713.9683544070003,N,13701.454813761002,E,4,13,0.95,96.65299999999999,M,37.566,M,75.5,2006*64,37.23280590678334,137.02424689601668,679569.0278549143,4122618.526301607
403,[2021-02-22 16:14:03.179] $GNGGA,71402.6,3713.968354805,N,13701.454815133,E,4,13,0.95,96.65100000000001,M,37.566,M,75.6,2006*6F,37.23280591341667,137.0242469188833,679569.0298678803,4122618.5270810006
404,[2021-02-22 16:14:03.304] $GNGGA,71402.7,3713.968354138,N,13701.454814016,E,4,13,0.95,96.649,M,37.566,M,75.7,2006*66,37.2328059023,137.02424690026666,679569.0282426071,4122618.5258122147
405,[2021-02-22 16:14:03.382] $GNGGA,71402.8,3713.968353429,N,13701.454814267,E,4,13,0.95,96.645,M,37.566,M,75.8,2006*6C,37.232805890483334,137.02424690444997,679569.0286417864,4122618.524509016
406,[2021-02-22 16:14:03.476] $GNGGA,71402.9,3713.968353628,N,13701.454813712,E,4,13,0.95,96.65,M,37.566,M,75.9,2006*6B,37.23280589379999,137.02424689519998,679569.027813266,4122618.5248594717
407,[2021-02-22 16:14:03.585] $GNGGA,71403.0,3713.968353398,N,13701.454813673,E,4,13,0.95,96.64399999999999,M,37.566,M,76.0,2006*64,37.23280588996666,137.02424689455003,679569.0277646987,4122618.524432906
408,[2021-02-22 16:14:03.679] $GNGGA,71403.1,3713.9683536209996,N,13701.454813602,E,4,13,0.95,96.64399999999999,M,37.566,M,76.1,2006*65,37.23280589368332,137.0242468933667,679569.0276508945,4122618.524843048
409,[2021-02-22 16:14:03.804] $GNGGA,71403.2,3713.968355346,N,13701.4548128,E,4,13,0.95,96.64299999999999,M,37.566,M,76.2,2006*6D,37.232805922433336,137.02424688,679569.0263967944,4122618.5280076843
410,[2021-02-22 16:14:03.882] $GNGGA,71403.3,3713.9683554509998,N,13701.454812275,E,4,13,0.95,96.64,M,37.566,M,76.3,2006*67,37.23280592418333,137.02424687125,679569.0256163516,4122618.528185255
411,[2021-02-22 16:14:03.976] $GNGGA,71403.4,3713.968357808,N,13701.454813978999,E,4,13,0.95,96.64,M,37.566,M,76.4,2006*63,37.23280596346666,137.02424689964997,679569.0280427553,4122618.5325978734
412,[2021-02-22 16:14:04.085] $GNGGA,71403.5,3713.9683578229997,N,13701.454814838999,E,4,13,0.95,96.639,M,37.566,M,76.5,2006*66,37.232805963716665,137.02424691398332,679569.0293138038,4122618.532652807
413,[2021-02-22 16:14:04.179] $GNGGA,71403.6,3713.96835878,N,13701.454815388,E,4,13,0.95,96.639,M,37.566,M,76.6,2006*6F,37.232805979666665,137.02424692313335,679569.0300877381,4122618.5344399204
414,[2021-02-22 16:14:04.304] $GNGGA,71403.7,3713.9683578390004,N,13701.454816542,E,4,13,0.95,96.64,M,37.566,M,76.7,2006*60,37.232805963983346,137.02424694236666,679569.031831314,4122618.5327362493
415,[2021-02-22 16:14:04.382] $GNGGA,71403.8,3713.968359186,N,13701.454816959,E,4,13,0.95,96.63600000000001,M,37.566,M,76.8,2006*64,37.232805986433334,137.02424694931668,679569.0323946426,4122618.5352404034
416,[2021-02-22 16:14:04.476] $GNGGA,71403.9,3713.968359545,N,13701.45481543,E,4,13,0.95,96.631,M,37.566,M,76.9,2006*69,37.23280599241667,137.02424692383335,679569.0301195877,4122618.5358559433
417,[2021-02-22 16:14:04.585] $GNGGA,71404.0,3713.9683582659995,N,13701.454814777,E,4,13,0.95,96.63600000000001,M,37.566,M,77.0,2006*6E,37.2328059711,137.02424691295,679569.0292046088,4122618.5334700746
418,[2021-02-22 16:14:04.679] $GNGGA,71404.1,3713.9683592359997,N,13701.45481552,E,4,13,0.95,96.641,M,37.566,M,77.1,2006*6B,37.232805987266666,137.02424692533333,679569.0302648842,4122618.5352873625
419,[2021-02-22 16:14:04.804] $GNGGA,71404.2,3713.968359171,N,13701.454818396001,E,4,13,0.95,96.64299999999999,M,37.566,M,77.2,2006*6F,37.23280598618333,137.02424697326668,679569.0345200552,4122618.5352581027
420,[2021-02-22 16:14:04.882] $GNGGA,71404.3,3713.968360682,N,13701.454818676,E,4,13,0.95,96.641,M,37.566,M,77.3,2006*67,37.23280601136667,137.02424697793336,679569.0348743229,4122618.538061208
421,[2021-02-22 16:14:04.975] $GNGGA,71404.4,3713.9683598590004,N,13701.454819491,E,4,13,0.95,96.647,M,37.566,M,77.4,2006*69,37.232805997650004,137.02424699151666,679569.0361119686,4122618.53656503
422,[2021-02-22 16:14:05.085] $GNGGA,71404.5,3713.968358785,N,13701.454818676999,E,4,13,0.95,96.648,M,37.566,M,77.5,2006*62,37.232805979750005,137.02424697794999,679569.0349508186,4122618.5345531716
423,[2021-02-22 16:14:05.210] $GNGGA,71404.6,3713.9683568009996,N,13701.454817306001,E,4,13,0.95,96.648,M,37.566,M,77.6,2006*63,37.23280594668332,137.0242469551,679569.0330020536,4122618.5308408597
424,[2021-02-22 16:14:05.272] $GNGGA,71404.7,3713.968356006,N,13701.454817985,E,4,13,0.95,96.64399999999999,M,37.566,M,77.7,2006*61,37.23280593343333,137.02424696641668,679569.0340374976,4122618.529392161
425,[2021-02-22 16:14:05.382] $GNGGA,71404.8,3713.968354895,N,13701.454817789,E,4,13,0.95,96.64399999999999,M,37.566,M,77.8,2006*63,37.232805914916675,137.02424696314998,679569.0337916178,4122618.5273314225
426,[2021-02-22 16:14:05.475] $GNGGA,71404.9,3713.968352928,N,13701.454817625,E,4,13,0.95,96.645,M,37.566,M,77.9,2006*64,37.232805882133334,137.02424696041666,679569.0336269105,4122618.523688717
427,[2021-02-22 16:14:05.600] $GNGGA,71405.0,3713.9683510570003,N,13701.454816168998,E,4,13,0.95,96.646,M,37.566,M,78.0,2006*65,37.23280585095,137.02424693614998,679569.0315479866,4122618.520182688
428,[2021-02-22 16:14:05.679] $GNGGA,71405.1,3713.968351338,N,13701.454816137,E,4,13,0.95,96.645,M,37.566,M,78.1,2006*67,37.23280585563333,137.0242469356167,679569.0314895608,4122618.5207013222
429,[2021-02-22 16:14:05.788] $GNGGA,71405.2,3713.968349728,N,13701.454815425,E,4,13,0.95,96.646,M,37.566,M,78.2,2006*6D,37.2328058288,137.02424692375,679569.0305004324,4122618.517701478
430,[2021-02-22 16:14:05.882] $GNGGA,71405.3,3713.9683515990005,N,13701.4548151,E,4,13,0.95,96.647,M,37.566,M,78.3,2006*6F,37.232805859983344,137.02424691833332,679569.0299458755,4122618.5211511906
431,[2021-02-22 16:14:06.007] $GNGGA,71405.4,3713.9683534220003,N,13701.454816341002,E,4,13,0.95,96.646,M,37.566,M,78.4,2006*69,37.23280589036668,137.02424693901668,679569.0317087874,4122618.524561656
432,[2021-02-22 16:14:06.085] $GNGGA,71405.5,3713.968352425,N,13701.454816711,E,4,13,0.95,96.649,M,37.566,M,78.5,2006*61,37.232805873749996,137.02424694518334,679569.0322953166,4122618.522729631
433,[2021-02-22 16:14:06.179] $GNGGA,71405.6,3713.9683531729997,N,13701.454816927,E,4,13,0.95,96.646,M,37.566,M,78.6,2006*62,37.23280588621667,137.02424694878334,679569.0325851241,4122618.524119717
434,[2021-02-22 16:14:06.288] $GNGGA,71405.7,3713.9683558409997,N,13701.454815664,E,4,13,0.95,96.647,M,37.566,M,78.7,2006*66,37.232805930683334,137.02424692773332,679569.0306120731,4122618.529013638
435,[2021-02-22 16:14:06.397] $GNGGA,71405.8,3713.968354209,N,13701.454814068999,E,4,13,0.95,96.647,M,37.566,M,78.8,2006*6B,37.23280590348334,137.02424690114998,679569.0283181674,4122618.52594519
436,[2021-02-22 16:14:06.475] $GNGGA,71405.9,3713.968354823,N,13701.454814796001,E,4,13,0.95,96.648,M,37.566,M,78.9,2006*61,37.232805913716675,137.02424691326667,679569.0293688641,4122618.5271036318
437,[2021-02-22 16:14:06.585] $GNGGA,71406.0,3713.968354968,N,13701.454815355,E,4,13,0.95,96.648,M,37.566,M,79.0,2006*67,37.23280591613334,137.02424692258336,679569.0301896993,4122618.5273894514
438,[2021-02-22 16:14:06.678] $GNGGA,71406.1,3713.968352933,N,13701.454816185,E,4,13,0.95,96.646,M,37.566,M,79.1,2006*6D,37.23280588221667,137.02424693641666,679569.0314974554,4122618.5236524288
439,[2021-02-22 16:14:06.803] $GNGGA,71406.2,3713.9683531270002,N,13701.454816254,E,4,13,0.95,96.646,M,37.566,M,79.2,2006*6E,37.232805885450006,137.02424693756666,679569.0315918089,4122618.5240133707
440,[2021-02-22 16:14:06.882] $GNGGA,71406.3,3713.968351257,N,13701.454815664,E,4,13,0.95,96.645,M,37.566,M,79.3,2006*6F,37.232805854283335,137.02424692773332,679569.0307933588,4122618.5205365736
441,[2021-02-22 16:14:06.975] $GNGGA,71406.4,3713.968349206,N,13701.454815383,E,4,13,0.95,96.65100000000001,M,37.566,M,79.4,2006*6B,37.232805820100005,137.02424692305,679569.0304589705,4122618.516734831
442,[2021-02-22 16:14:07.085] $GNGGA,71406.5,3713.968349787,N,13701.454813764,E,4,13,0.95,96.649,M,37.566,M,79.5,2006*65,37.23280582978334,137.02424689606664,679569.0280420573,4122618.517758062
443,[2021-02-22 16:14:07.178] $GNGGA,71406.6,3713.968349537,N,13701.454812922,E,4,13,0.95,96.645,M,37.566,M,79.6,2006*6D,37.232805825616666,137.02424688203334,679569.0268069218,4122618.517269119
444,[2021-02-22 16:14:07.303] $GNGGA,71406.7,3713.9683494759997,N,13701.454811545,E,4,13,0.95,96.645,M,37.566,M,79.7,2006*67,37.2328058246,137.02424685908332,679569.0247732308,4122618.51711277
445,[2021-02-22 16:14:07.382] $GNGGA,71406.8,3713.96834807,N,13701.454809824,E,4,13,0.95,96.65,M,37.566,M,79.8,2006*63,37.23280580116667,137.0242468304,679569.0222840791,4122618.514458273
446,[2021-02-22 16:14:07.475] $GNGGA,71406.9,3713.9683475320003,N,13701.454810202,E,4,13,0.95,96.645,M,37.566,M,79.9,2006*6D,37.23280579220001,137.0242468367,679569.0228642848,4122618.5134753184
447,[2021-02-22 16:14:07.585] $GNGGA,71407.0,3713.9683470540003,N,13701.454811033,E,4,13,0.95,96.649,M,37.566,M,80.0,2006*62,37.23280578423334,137.02424685054999,679569.0241119463,4122618.5126176444
448,[2021-02-22 16:14:07.678] $GNGGA,71407.1,3713.9683453740004,N,13701.454810492,E,4,13,0.95,96.648,M,37.566,M,80.1,2006*6E,37.23280575623334,137.0242468415333,679569.023378436,4122618.5094937594
449,[2021-02-22 16:14:07.803] $GNGGA,71407.2,3713.9683452940003,N,13701.454810056,E,4,13,0.95,96.645,M,37.566,M,80.2,2006*60,37.232805754900006,137.02424683426668,679569.0227369118,4122618.5093320305
450,[2021-02-22 16:14:07.882] $GNGGA,71407.3,3713.9683454590004,N,13701.454808142,E,4,13,0.95,96.645,M,37.566,M,80.3,2006*6A,37.23280575765001,137.02424680236666,679569.0199002475,4122618.5095766373
451,[2021-02-22 16:14:07.975] $GNGGA,71407.4,3713.9683453740004,N,13701.45480578,E,4,13,0.95,96.64299999999999,M,37.566,M,80.4,2006*61,37.23280575623334,137.024246763,679569.0164110366,4122618.5093447585
452,[2021-02-22 16:14:08.085] $GNGGA,71407.5,3713.96834595,N,13701.45480408,E,4,13,0.95,96.64399999999999,M,37.566,M,80.5,2006*6C,37.232805765833334,137.0242467346667,679569.0138745547,4122618.510356182
453,[2021-02-22 16:14:08.178] $GNGGA,71407.6,3713.9683465259996,N,13701.454806022,E,4,13,0.95,96.641,M,37.566,M,80.6,2006*6D,37.23280577543332,137.02424676703333,679569.0167233106,4122618.511482769
454,[2021-02-22 16:14:08.303] $GNGGA,71407.7,3713.9683466640004,N,13701.454805297,E,4,13,0.95,96.64399999999999,M,37.566,M,80.7,2006*62,37.23280577773333,137.02424675495,679569.0156458336,4122618.511715045
455,[2021-02-22 16:14:08.381] $GNGGA,71407.8,3713.968348085,N,13701.454808625,E,4,13,0.95,96.64299999999999,M,37.566,M,80.8,2006*62,37.23280580141666,137.02424681041666,679569.0205105826,4122618.514448097
456,[2021-02-22 16:14:08.475] $GNGGA,71407.9,3713.968347352,N,13701.454809351,E,4,13,0.95,96.64399999999999,M,37.566,M,80.9,2006*64,37.2328057892,137.02424682251666,679569.0216130712,4122618.513115539
457,[2021-02-22 16:14:08.585] $GNGGA,71408.0,3713.968347599,N,13701.454808873,E,4,13,0.95,96.648,M,37.566,M,81.0,2006*6D,37.232805793316665,137.02424681455003,679569.0208965115,4122618.5135571943
458,[2021-02-22 16:14:08.678] $GNGGA,71408.1,3713.968346679,N,13701.454809308001,E,4,13,0.95,96.647,M,37.566,M,81.1,2006*68,37.23280577798334,137.0242468218,679569.0215761068,4122618.511869619
459,[2021-02-22 16:14:08.803] $GNGGA,71408.2,3713.9683460429997,N,13701.4548084,E,4,13,0.95,96.648,M,37.566,M,81.2,2006*66,37.23280576738333,137.0242468066667,679569.0202586466,4122618.510664769
460,[2021-02-22 16:14:08.881] $GNGGA,71408.3,3713.9683446309996,N,13701.454809435,E,4,13,0.95,96.65299999999999,M,37.566,M,81.3,2006*6A,37.232805743849994,137.02424682391668,679569.0218448892,4122618.5080863247
461,[2021-02-22 16:14:08.975] $GNGGA,71408.4,3713.968343692,N,13701.454809975,E,4,13,0.95,96.65299999999999,M,37.566,M,81.4,2006*6D,37.232805728200006,137.0242468329167,679569.022680498,4122618.5063669346
462,[2021-02-22 16:14:09.085] $GNGGA,71408.5,3713.968344953,N,13701.454809623001,E,4,13,0.95,96.652,M,37.566,M,81.5,2006*65,37.23280574921666,137.02424682705004,679569.0221101431,4122618.508687734
463,[2021-02-22 16:14:09.178] $GNGGA,71408.6,3713.9683435640004,N,13701.454808128,E,4,13,0.95,96.654,M,37.566,M,81.6,2006*61,37.23280572606667,137.02424680213332,679569.0199544872,4122618.506071823
464,[2021-02-22 16:14:09.303] $GNGGA,71408.7,3713.968342822,N,13701.454806551,E,4,13,0.95,96.655,M,37.566,M,81.7,2006*6A,37.2328057137,137.02424677585003,679569.0176520036,4122618.5046497956
465,[2021-02-22 16:14:09.381] $GNGGA,71408.8,3713.968343292,N,13701.454806546,E,4,13,0.95,96.654,M,37.566,M,81.8,2006*6D,37.23280572153334,137.02424677576664,679569.0176260187,4122618.505518795
466,[2021-02-22 16:14:09.475] $GNGGA,71408.9,3713.968342763,N,13701.454806107,E,4,13,0.95,96.656,M,37.566,M,81.9,2006*64,37.23280571271666,137.02424676845,679569.0169978156,4122618.504526648
467,[2021-02-22 16:14:09.585] $GNGGA,71409.0,3713.9683423640004,N,13701.454806998001,E,4,13,0.95,96.656,M,37.566,M,82.0,2006*6B,37.23280570606667,137.02424678330001,679569.0183310711,4122618.5038169646
468,[2021-02-22 16:14:09.694] $GNGGA,71409.1,3713.96834383,N,13701.454806395,E,4,13,0.95,96.656,M,37.566,M,82.1,2006*67,37.2328057305,137.02424677325,679569.017381469,4122618.5065089297
469,[2021-02-22 16:14:09.788] $GNGGA,71409.2,3713.9683431109997,N,13701.454807152,E,4,13,0.95,96.655,M,37.566,M,82.2,2006*66,37.232805718516666,137.0242467858667,679569.0185292428,4122618.5052032396
470,[2021-02-22 16:14:09.881] $GNGGA,71409.3,3713.968343977,N,13701.454806572,E,4,13,0.95,96.65,M,37.566,M,82.3,2006*6C,37.232805732950006,137.0242467762,679569.0176373746,4122618.5067863697
471,[2021-02-22 16:14:09.975] $GNGGA,71409.4,3713.9683437490003,N,13701.454806738,E,4,13,0.95,96.652,M,37.566,M,82.4,2006*61,37.23280572915,137.02424677896664,679569.0178918459,4122618.506369984
472,[2021-02-22 16:14:10.100] $GNGGA,71409.5,3713.96834418,N,13701.45480707,E,4,13,0.95,96.648,M,37.566,M,82.5,2006*64,37.232805736333326,137.02424678450004,679569.018365719,4122618.5071775173
473,[2021-02-22 16:14:10.178] $GNGGA,71409.6,3713.9683425709995,N,13701.454806442,E,4,13,0.95,96.65,M,37.566,M,82.6,2006*65,37.23280570951666,137.02424677403332,679569.0175007535,4122618.504182179
474,[2021-02-22 16:14:10.288] $GNGGA,71409.7,3713.9683416929997,N,13701.454806101001,E,4,13,0.95,96.65,M,37.566,M,82.7,2006*6B,37.23280569488333,137.02424676835,679569.0170312575,4122618.502547737
475,[2021-02-22 16:14:10.381] $GNGGA,71409.8,3713.968341058,N,13701.454804338999,E,4,13,0.95,96.652,M,37.566,M,82.8,2006*63,37.2328056843,137.02424673898332,679569.0144509876,4122618.501317732
476,[2021-02-22 16:14:10.506] $GNGGA,71409.9,3713.968341715,N,13701.454804803001,E,4,13,0.95,96.65299999999999,M,37.566,M,82.9,2006*6E,37.23280569524999,137.02424674671667,679569.0151111004,4122618.5025473754
477,[2021-02-22 16:14:10.584] $GNGGA,71410.0,3713.968342353,N,13701.454804881001,E,4,13,0.95,96.655,M,37.566,M,83.0,2006*6E,37.23280570588334,137.02424674801668,679569.0152012045,4122618.503729678
478,[2021-02-22 16:14:10.678] $GNGGA,71410.1,3713.968340887,N,13701.454805198999,E,4,13,0.95,96.656,M,37.566,M,83.1,2006*6C,37.232805681449996,137.02424675331662,679569.0157293853,4122618.5010287
479,[2021-02-22 16:14:10.788] $GNGGA,71410.2,3713.9683410459998,N,13701.454806222,E,4,13,0.95,96.655,M,37.566,M,83.2,2006*6B,37.23280568409999,137.02424677036666,679569.0172357599,4122618.5013550837
480,[2021-02-22 16:14:10.897] $GNGGA,71410.3,3713.9683409,N,13701.45480677,E,4,13,0.95,96.652,M,37.566,M,83.3,2006*64,37.23280568166667,137.02424677949998,679569.0180518342,4122618.5011024196
481,[2021-02-22 16:14:10.975] $GNGGA,71410.4,3713.968341573,N,13701.454805646,E,4,13,0.95,96.652,M,37.566,M,83.4,2006*6A,37.23280569288333,137.02424676076666,679569.0163632173,4122618.5023114355
482,[2021-02-22 16:14:11.084] $GNGGA,71410.5,3713.9683413240004,N,13701.454805292,E,4,14,0.92,96.65100000000001,M,37.566,M,83.5,2006*60,37.23280568873334,137.02424675486665,679569.0158496219,4122618.5018397756
483,[2021-02-22 16:14:11.178] $GNGGA,71410.6,3713.9683441059997,N,13701.454807168,E,4,14,0.92,96.656,M,37.566,M,83.6,2006*64,37.23280573509999,137.02424678613332,679569.0185135484,4122618.507043769
484,[2021-02-22 16:14:11.303] $GNGGA,71410.7,3713.968343687,N,13701.454807711001,E,4,14,0.92,96.66,M,37.566,M,83.7,2006*60,37.232805728116666,137.02424679518336,679569.0193330307,4122618.5062860963
485,[2021-02-22 16:14:11.381] $GNGGA,71410.8,3713.9683451759997,N,13701.454809178,E,4,13,0.95,96.66,M,37.566,M,83.8,2006*68,37.23280575293333,137.02424681963333,679569.0214433218,4122618.5090860506
486,[2021-02-22 16:14:11.475] $GNGGA,71410.9,3713.96834337,N,13701.454808933,E,4,13,0.95,96.66,M,37.566,M,83.9,2006*6C,37.232805722833334,137.02424681555,679569.0211524738,4122618.505738519
487,[2021-02-22 16:14:11.584] $GNGGA,71411.0,3713.968344725,N,13701.454806947,E,4,13,0.95,96.66,M,37.566,M,84.0,2006*64,37.23280574541667,137.02424678245,679569.0181622887,4122618.5081814816
488,[2021-02-22 16:14:11.678] $GNGGA,71411.1,3713.9683433679998,N,13701.454807345,E,4,13,0.95,96.661,M,37.566,M,84.1,2006*66,37.232805722799995,137.02424678908335,679569.0188044581,4122618.5056846044
489,[2021-02-22 16:14:11.803] $GNGGA,71411.2,3713.968343185,N,13701.454808576002,E,4,13,0.95,96.665,M,37.566,M,84.2,2006*6A,37.23280571974999,137.02424680960004,679569.0206319161,4122618.505385114
490,[2021-02-22 16:14:11.881] $GNGGA,71411.3,3713.9683438479997,N,13701.45480772,E,4,13,0.95,96.66,M,37.566,M,84.3,2006*69,37.232805730799996,137.02424679533334,679569.0193399687,4122618.5065841135
491,[2021-02-22 16:14:11.975] $GNGGA,71411.4,3713.968344962,N,13701.454809463,E,4,13,0.95,96.663,M,37.566,M,84.4,2006*6E,37.23280574936667,137.02424682438337,679569.0218732043,4122618.5086993203
492,[2021-02-22 16:14:12.084] $GNGGA,71411.5,3713.968345242,N,13701.454810547,E,4,14,0.92,96.662,M,37.566,M,84.5,2006*68,37.232805754033336,137.02424684245,679569.0234649839,4122618.509251395
493,[2021-02-22 16:14:12.178] $GNGGA,71411.6,3713.968344315,N,13701.454811463998,E,4,14,0.92,96.664,M,37.566,M,84.6,2006*6D,37.232805738583345,137.0242468577333,679569.0248575619,4122618.5075661168
494,[2021-02-22 16:14:12.303] $GNGGA,71411.7,3713.968345412,N,13701.454811936,E,4,14,0.92,96.66799999999999,M,37.566,M,84.7,2006*6A,37.23280575686666,137.0242468656,679569.0255121051,4122618.509609692
495,[2021-02-22 16:14:12.381] $GNGGA,71411.8,3713.96834676,N,13701.454813106,E,4,14,0.92,96.665,M,37.566,M,84.8,2006*6B,37.23280577933333,137.02424688509998,679569.0271888167,4122618.5121395076
496,[2021-02-22 16:14:12.475] $GNGGA,71411.9,3713.968346697,N,13701.454815308001,E,4,14,0.92,96.666,M,37.566,M,84.9,2006*6B,37.23280577828333,137.0242469218,679569.0304472977,4122618.5120926346
497,[2021-02-22 16:14:12.584] $GNGGA,71412.0,3713.968349697,N,13701.454818723001,E,4,14,0.92,96.667,M,37.566,M,85.0,2006*67,37.23280582828333,137.0242469787167,679569.0353782484,4122618.51774844
498,[2021-02-22 16:14:12.678] $GNGGA,71412.1,3713.968350832,N,13701.454821066001,E,4,14,0.92,96.666,M,37.566,M,85.1,2006*63,37.2328058472,137.0242470177667,679569.0387978412,4122618.5199214527
499,[2021-02-22 16:14:12.803] $GNGGA,71412.2,3713.9683519309997,N,13701.454824185,E,4,13,0.95,96.665,M,37.566,M,85.2,2006*6A,37.23280586551666,137.02424706975,679569.0433662855,4122618.5220524296
500,[2021-02-22 16:14:12.881] $GNGGA,71412.3,3713.968350003,N,13701.454823867,E,4,13,0.95,96.663,M,37.566,M,85.3,2006*67,37.23280583338334,137.02424706444998,679569.04297232,4122618.518476978
501,[2021-02-22 16:14:12.975] $GNGGA,71412.4,3713.9683508059998,N,13701.454820009,E,4,13,0.95,96.665,M,37.566,M,85.4,2006*6F,37.23280584676666,137.02424700014998,679569.037235932,4122618.519839946
502,[2021-02-22 16:14:13.084] $GNGGA,71412.5,3713.9683519409996,N,13701.454817058999,E,4,13,0.95,96.667,M,37.566,M,85.5,2006*6F,37.23280586568333,137.02424695098333,679569.0328290265,4122618.521845588
503,[2021-02-22 16:14:13.178] $GNGGA,71412.6,3713.968350863,N,13701.454814072,E,4,13,0.95,96.667,M,37.566,M,85.6,2006*65,37.23280584771667,137.0242469012,679569.0284549313,4122618.51975762
504,[2021-02-22 16:14:13.303] $GNGGA,71412.7,3713.968350812,N,13701.4548119,E,4,13,0.95,96.667,M,37.566,M,85.7,2006*6A,37.23280584686667,137.02424686499998,679569.0252453168,4122618.5195946232
505,[2021-02-22 16:14:13.381] $GNGGA,71412.8,3713.968352221,N,13701.454811301,E,4,13,0.95,96.66799999999999,M,37.566,M,85.8,2006*66,37.23280587035,137.02424685501666,679569.0243038832,4122618.522181307
506,[2021-02-22 16:14:13.475] $GNGGA,71412.9,3713.968354342,N,13701.454810418001,E,4,13,0.95,96.667,M,37.566,M,85.9,2006*65,37.2328059057,137.02424684030004,679569.02291436,4122618.526075692
507,[2021-02-22 16:14:13.584] $GNGGA,71413.0,3713.968356069,N,13701.454811455,E,4,13,0.95,96.667,M,37.566,M,86.0,2006*67,37.23280593448334,137.02424685758334,679569.0243794179,4122618.529302178
508,[2021-02-22 16:14:13.709] $GNGGA,71413.1,3713.968357856,N,13701.454812856999,E,4,13,0.95,96.667,M,37.566,M,86.1,2006*6F,37.23280596426666,137.02424688095,679569.0263818126,4122618.5326511576
509,[2021-02-22 16:14:13.787] $GNGGA,71413.2,3713.9683580220003,N,13701.454814183,E,4,13,0.95,96.66799999999999,M,37.566,M,86.2,2006*62,37.232805967033336,137.02424690305,679569.0283359401,4122618.5330000687
510,[2021-02-22 16:14:13.881] $GNGGA,71413.3,3713.968359902,N,13701.454816193,E,4,13,0.95,96.662,M,37.566,M,86.3,2006*61,37.23280599836667,137.02424693655,679569.03123368,4122618.53654026
511,[2021-02-22 16:14:13.990] $GNGGA,71413.4,3713.968360499,N,13701.454817842,E,4,13,0.95,96.669,M,37.566,M,86.4,2006*6B,37.232806008316665,137.02424696403332,679569.0336483619,4122618.5376964193
512,[2021-02-22 16:14:14.100] $GNGGA,71413.5,3713.968359289,N,13701.454815923998,E,4,13,0.95,96.66799999999999,M,37.566,M,86.5,2006*64,37.232805988150005,137.02424693206663,679569.030860161,4122618.5353981494
513,[2021-02-22 16:14:14.178] $GNGGA,71413.6,3713.968358745,N,13701.454814919,E,4,13,0.95,96.66799999999999,M,37.566,M,86.6,2006*6F,37.23280597908334,137.02424691531667,679569.0293956336,4122618.5343603664
514,[2021-02-22 16:14:14.287] $GNGGA,71413.7,3713.9683577140004,N,13701.454814246,E,4,13,0.95,96.67,M,37.566,M,86.7,2006*6C,37.232805961900006,137.0242469041,679569.0284412771,4122618.532432487
515,[2021-02-22 16:14:14.381] $GNGGA,71413.8,3713.968358063,N,13701.454812746999,E,4,13,0.95,96.665,M,37.566,M,86.8,2006*62,37.232805967716665,137.02424687911665,679569.0262109757,4122618.53303048
516,[2021-02-22 16:14:14.506] $GNGGA,71413.9,3713.9683576909997,N,13701.454811094,E,4,13,0.95,96.667,M,37.566,M,86.9,2006*6E,37.23280596151666,137.02424685156663,679569.0237814768,4122618.5322902803
517,[2021-02-22 16:14:14.584] $GNGGA,71414.0,3713.968357327,N,13701.45481133,E,4,13,0.95,96.66799999999999,M,37.566,M,87.0,2006*62,37.23280595545,137.02424685550002,679569.0241448376,4122618.531624608
518,[2021-02-22 16:14:14.678] $GNGGA,71414.1,3713.9683561459997,N,13701.454811937,E,4,13,0.95,96.666,M,37.566,M,87.1,2006*65,37.23280593576666,137.02424686561667,679569.0250890832,4122618.5294598117
519,[2021-02-22 16:14:14.787] $GNGGA,71414.2,3713.968356412,N,13701.454811668998,E,4,13,0.95,96.667,M,37.566,M,87.2,2006*64,37.232805940199995,137.02424686114998,679569.0246822827,4122618.5299432436
520,[2021-02-22 16:14:14.912] $GNGGA,71414.3,3713.968357354,N,13701.454812753,E,4,13,0.95,96.669,M,37.566,M,87.3,2006*65,37.2328059559,137.02424687921666,679569.0262478865,4122618.531719536
521,[2021-02-22 16:14:14.975] $GNGGA,71414.4,3713.968358557,N,13701.454812637,E,4,13,0.95,96.664,M,37.566,M,87.4,2006*61,37.232805975949994,137.0242468772833,679569.0260287863,4122618.533940541
522,[2021-02-22 16:14:15.084] $GNGGA,71414.5,3713.968357591,N,13701.454811127,E,4,13,0.95,96.663,M,37.566,M,87.5,2006*66,37.23280595985,137.02424685211665,679569.0238342276,4122618.532106396
523,[2021-02-22 16:14:15.178] $GNGGA,71414.6,3713.96835587,N,13701.454811026999,E,4,13,0.95,96.669,M,37.566,M,87.6,2006*6D,37.232805931166666,137.02424685045,679569.0237544242,4122618.528920637
524,[2021-02-22 16:14:15.303] $GNGGA,71414.7,3713.9683558790002,N,13701.45481084,E,4,13,0.95,96.667,M,37.566,M,87.7,2006*62,37.232805931316676,137.02424684733333,679569.0234775608,4122618.5289313677
525,[2021-02-22 16:14:15.381] $GNGGA,71414.8,3713.968353286,N,13701.454808145,E,4,13,0.95,96.667,M,37.566,M,87.8,2006*6B,37.232805888099996,137.02424680241666,679569.0195951452,4122618.524050983
526,[2021-02-22 16:14:15.475] $GNGGA,71414.9,3713.96835311,N,13701.454806805,E,4,13,0.95,96.666,M,37.566,M,87.9,2006*65,37.23280588516666,137.02424678008333,679569.0176207151,4122618.523683139
527,[2021-02-22 16:14:15.584] $GNGGA,71415.0,3713.968351751,N,13701.454804808998,E,4,13,0.95,96.667,M,37.566,M,88.0,2006*65,37.23280586251667,137.02424674681663,679569.014723069,4122618.521106862
528,[2021-02-22 16:14:15.678] $GNGGA,71415.1,3713.968351675,N,13701.454804108,E,4,13,0.95,96.661,M,37.566,M,88.1,2006*6C,37.23280586125001,137.02424673513332,679569.0136895438,4122618.5209441506
529,[2021-02-22 16:14:15.803] $GNGGA,71415.2,3713.9683507090003,N,13701.454803548999,E,4,13,0.95,96.66,M,37.566,M,88.2,2006*60,37.23280584515001,137.02424672581662,679569.0129011773,4122618.519140078
530,[2021-02-22 16:14:15.881] $GNGGA,71415.3,3713.968350823,N,13701.454802875,E,4,13,0.95,96.661,M,37.566,M,88.3,2006*65,37.23280584705,137.02424671458334,679569.0119000626,4122618.5193295814
531,[2021-02-22 16:14:15.975] $GNGGA,71415.4,3713.9683503509996,N,13701.454802166001,E,4,13,0.95,96.65899999999999,M,37.566,M,88.4,2006*6B,37.23280583918332,137.02424670276667,679569.0108703673,4122618.5184343033
532,[2021-02-22 16:14:16.084] $GNGGA,71415.5,3713.968348083,N,13701.454801308,E,4,13,0.95,96.65799999999999,M,37.566,M,88.5,2006*66,37.232805801383336,137.02424668846666,679569.0096913762,4122618.5142130246
533,[2021-02-22 16:14:16.178] $GNGGA,71415.6,3713.968348211,N,13701.454799091001,E,4,13,0.95,96.66,M,37.566,M,88.6,2006*69,37.23280580351667,137.0242466515167,679569.0064081502,4122618.514379626
534,[2021-02-22 16:14:16.303] $GNGGA,71415.7,3713.9683477840003,N,13701.454799396999,E,4,13,0.95,96.65700000000001,M,37.566,M,88.7,2006*6E,37.2328057964,137.02424665661664,679569.0068774978,4122618.5135996626
535,[2021-02-22 16:14:16.381] $GNGGA,71415.8,3713.968348279,N,13701.454799603,E,4,13,0.95,96.65700000000001,M,37.566,M,88.8,2006*6E,37.23280580465,137.02424666004998,679569.0071625249,4122618.514521567
536,[2021-02-22 16:14:16.475] $GNGGA,71415.9,3713.968349018,N,13701.454799061,E,4,13,0.95,96.656,M,37.566,M,88.9,2006*69,37.23280581696666,137.02424665101665,679569.0063318728,4122618.51587104
537,[2021-02-22 16:14:16.584] $GNGGA,71416.0,3713.968347391,N,13701.454798678,E,4,13,0.95,96.662,M,37.566,M,89.0,2006*6F,37.23280578985,137.02424664463334,679569.0058298943,4122618.512850162
538,[2021-02-22 16:14:16.678] $GNGGA,71416.1,3713.968348088,N,13701.454798141001,E,4,13,0.95,96.662,M,37.566,M,89.1,2006*66,37.23280580146666,137.02424663568334,679569.005008294,4122618.514122125
539,[2021-02-22 16:14:16.803] $GNGGA,71416.2,3713.968348006,N,13701.454797208,E,4,13,0.95,96.66,M,37.566,M,89.2,2006*63,37.2328058001,137.02424662013334,679569.0036319573,4122618.5139409816
540,[2021-02-22 16:14:16.881] $GNGGA,71416.3,3713.968348465,N,13701.454798168,E,4,13,0.95,96.65899999999999,M,37.566,M,89.3,2006*62,37.23280580775,137.02424663613334,679569.0050333092,4122618.5148201543
541,[2021-02-22 16:14:16.975] $GNGGA,71416.4,3713.9683502559997,N,13701.454797432,E,4,13,0.95,96.656,M,37.566,M,89.4,2006*67,37.2328058376,137.02424662386665,679569.0038741888,4122618.5181089276
542,[2021-02-22 16:14:17.084] $GNGGA,71416.5,3713.968349293,N,13701.454797356,E,4,13,0.95,96.662,M,37.566,M,89.5,2006*64,37.232805821549995,137.02424662260003,679569.0037999017,4122618.516325675
543,[2021-02-22 16:14:17.178] $GNGGA,71416.6,3713.968348465,N,13701.45479742,E,4,13,0.95,96.664,M,37.566,M,89.6,2006*6A,37.23280580775,137.02424662366664,679569.0039272752,4122618.5147965015
544,[2021-02-22 16:14:17.303] $GNGGA,71416.7,3713.96834834,N,13701.454795598998,E,4,13,0.95,96.663,M,37.566,M,89.7,2006*6C,37.232805805666665,137.02424659331666,679569.0012395985,4122618.51450776
545,[2021-02-22 16:14:17.381] $GNGGA,71416.8,3713.9683462129997,N,13701.454796746,E,4,13,0.95,96.661,M,37.566,M,89.8,2006*64,37.23280577021666,137.02424661243333,679569.0030197275,4122618.510610626
546,[2021-02-22 16:14:17.475] $GNGGA,71416.9,3713.968344955,N,13701.454795089,E,4,13,0.95,96.663,M,37.566,M,89.9,2006*6A,37.23280574925,137.02424658481667,679569.0006193555,4122618.5082318466
547,[2021-02-22 16:14:17.584] $GNGGA,71417.0,3713.968345087,N,13701.454793758001,E,4,13,0.95,96.662,M,37.566,M,90.0,2006*68,37.23280575145,137.02424656263335,679568.9986460521,4122618.508433862
548,[2021-02-22 16:14:17.678] $GNGGA,71417.1,3713.968343929,N,13701.454793118999,E,4,13,0.95,96.665,M,37.566,M,90.1,2006*67,37.232805732150005,137.0242465519833,679568.997746986,4122618.5062722
549,[2021-02-22 16:14:17.803] $GNGGA,71417.2,3713.9683434740004,N,13701.45479221,E,4,13,0.95,96.662,M,37.566,M,90.2,2006*6E,37.23280572456668,137.0242465368333,679568.9964208868,4122618.5054020374
550,[2021-02-22 16:14:17.881] $GNGGA,71417.3,3713.96834376,N,13701.454791249,E,4,13,0.95,96.661,M,37.566,M,90.3,2006*64,37.23280572933333,137.02424652081666,679568.9949885958,4122618.505900537
551,[2021-02-22 16:14:17.975] $GNGGA,71417.4,3713.968342894,N,13701.454791665,E,4,13,0.95,96.662,M,37.566,M,90.4,2006*68,37.2328057149,137.02424652775,679568.9956379621,4122618.504312224
552,[2021-02-22 16:14:18.084] $GNGGA,71417.5,3713.9683413820003,N,13701.45479154,E,4,13,0.95,96.662,M,37.566,M,90.5,2006*63,37.2328056897,137.02424652566665,679568.9955129261,4122618.5015121717
553,[2021-02-22 16:14:18.209] $GNGGA,71417.6,3713.9683400490003,N,13701.454790913998,E,4,13,0.95,96.661,M,37.566,M,90.6,2006*69,37.23280566748333,137.02424651523333,679568.9946400094,4122618.4990272964
554,[2021-02-22 16:14:18.287] $GNGGA,71417.7,3713.9683419440003,N,13701.454790774,E,4,13,0.95,96.661,M,37.566,M,90.7,2006*64,37.232805699066674,137.0242465129,679568.9943580538,4122618.5025272416
555,[2021-02-22 16:14:18.381] $GNGGA,71417.8,3713.9683417779997,N,13701.45479063,E,4,13,0.95,96.65899999999999,M,37.566,M,90.8,2006*6F,37.2328056963,137.02424651049998,679568.9941516934,4122618.5022157077
556,[2021-02-22 16:14:18.475] $GNGGA,71417.9,3713.968342217,N,13701.454791114,E,4,13,0.95,96.661,M,37.566,M,90.9,2006*6B,37.23280570361667,137.02424651856666,679568.9948499997,4122618.5030428446
557,[2021-02-22 16:14:18.600] $GNGGA,71418.0,3713.968343405,N,13701.454790718,E,4,13,0.95,96.655,M,37.566,M,91.0,2006*6D,37.23280572341667,137.02424651196668,679568.9942174733,4122618.505227256
558,[2021-02-22 16:14:18.678] $GNGGA,71418.1,3713.968341085,N,13701.454791372,E,4,13,0.95,96.661,M,37.566,M,91.1,2006*6D,37.23280568475,137.0242465228667,679568.9952762622,4122618.500957626
559,[2021-02-22 16:14:18.787] $GNGGA,71418.2,3713.968343074,N,13701.454790613001,E,4,13,0.95,96.66,M,37.566,M,91.2,2006*63,37.2328057179,137.0242465102167,679568.994075306,4122618.504611828
560,[2021-02-22 16:14:18.881] $GNGGA,71418.3,3713.9683411220003,N,13701.454790716001,E,4,13,0.95,96.65799999999999,M,37.566,M,91.3,2006*6C,37.23280568536668,137.02424651193337,679568.9943048052,4122618.501005307
561,[2021-02-22 16:14:19.006] $GNGGA,71418.4,3713.968342408,N,13701.454790982,E,4,13,0.95,96.662,M,37.566,M,91.4,2006*68,37.232805706799994,137.02424651636665,679568.9946472618,4122618.5033918796
562,[2021-02-22 16:14:19.084] $GNGGA,71418.5,3713.968343298,N,13701.454792585,E,4,13,0.95,96.656,M,37.566,M,91.5,2006*68,37.23280572163333,137.02424654308334,679568.9969823451,4122618.5050884215
563,[2021-02-22 16:14:19.178] $GNGGA,71418.6,3713.9683426320003,N,13701.454792423001,E,4,13,0.95,96.66,M,37.566,M,91.6,2006*65,37.23280571053334,137.02424654038336,679568.9967691436,4122618.5038516843
564,[2021-02-22 16:14:19.287] $GNGGA,71418.7,3713.9683436570003,N,13701.454793191999,E,4,13,0.95,96.656,M,37.566,M,91.7,2006*6C,37.23280572761667,137.0242465532,679568.9978656853,4122618.5057715056
565,[2021-02-22 16:14:19.396] $GNGGA,71418.8,3713.9683439759997,N,13701.454792093999,E,4,13,0.95,96.65700000000001,M,37.566,M,91.8,2006*67,37.23280573293333,137.02424653489996,679568.9962295096,4122618.5063267015
566,[2021-02-22 16:14:19.474] $GNGGA,71418.9,3713.9683429740003,N,13701.454790901002,E,4,13,0.95,96.66,M,37.566,M,91.9,2006*67,37.23280571623334,137.0242465150167,679568.9945051135,4122618.5044360072
567,[2021-02-22 16:14:19.584] $GNGGA,71419.0,3713.968344,N,13701.454789955,E,4,13,0.95,96.656,M,37.566,M,92.0,2006*65,37.23280573333333,137.02424649924998,679568.9930657295,4122618.5063034454
568,[2021-02-22 16:14:19.678] $GNGGA,71419.1,3713.968344765,N,13701.454791917,E,4,13,0.95,96.655,M,37.566,M,92.1,2006*6D,37.232805746083336,137.02424653195,679568.9959365898,4122618.507780182
569,[2021-02-22 16:14:19.803] $GNGGA,71419.2,3713.968343403,N,13701.454792515,E,4,13,0.95,96.66,M,37.566,M,92.2,2006*62,37.23280572338333,137.02424654191665,679568.996874686,4122618.5052803815
570,[2021-02-22 16:14:19.881] $GNGGA,71419.3,3713.968345387,N,13701.454792507,E,4,13,0.95,96.662,M,37.566,M,92.3,2006*6E,37.23280575645,137.02424654178333,679568.996784395,4122618.5089490847
571,[2021-02-22 16:14:19.974] $GNGGA,71419.4,3713.9683452970003,N,13701.45479139,E,4,13,0.95,96.662,M,37.566,M,92.4,2006*65,37.23280575495001,137.02424652316668,679568.995136303,4122618.50874733
572,[2021-02-22 16:14:20.084] $GNGGA,71419.5,3713.96834486,N,13701.454791818,E,4,13,0.95,96.65799999999999,M,37.566,M,92.5,2006*64,37.23280574766666,137.0242465303,679568.9957864444,4122618.5079527306
573,[2021-02-22 16:14:20.178] $GNGGA,71419.6,3713.9683448859996,N,13701.454790087,E,4,13,0.95,96.654,M,37.566,M,92.6,2006*6F,37.2328057481,137.02424650145002,679568.9932258748,4122618.5079460754
574,[2021-02-22 16:14:20.303] $GNGGA,71419.7,3713.9683453840003,N,13701.454789991001,E,4,13,0.95,96.65799999999999,M,37.566,M,92.7,2006*6D,37.2328057564,137.02424649985002,679568.9930642298,4122618.508863977
575,[2021-02-22 16:14:20.381] $GNGGA,71419.8,3713.968346403,N,13701.454789673999,E,4,13,0.95,96.652,M,37.566,M,92.8,2006*68,37.23280577338333,137.02424649456665,679568.9925551965,4122618.5107383616
576,[2021-02-22 16:14:20.474] $GNGGA,71419.9,3713.9683474470003,N,13701.454789468,E,4,13,0.95,96.65299999999999,M,37.566,M,92.9,2006*67,37.23280579078334,137.0242464911333,679568.9922093059,4122618.512662488
577,[2021-02-22 16:14:20.584] $GNGGA,71420.0,3713.968346657,N,13701.454789088,E,4,13,0.95,96.654,M,37.566,M,93.0,2006*63,37.23280577761666,137.02424648480002,679568.9916786643,4122618.5111895455
578,[2021-02-22 16:14:20.678] $GNGGA,71420.1,3713.968344768,N,13701.45478899,E,4,13,0.95,96.65100000000001,M,37.566,M,93.1,2006*68,37.23280574613333,137.02424648316668,679568.9916084622,4122618.507693172
579,[2021-02-22 16:14:20.802] $GNGGA,71420.2,3713.968345662,N,13701.454787865,E,4,13,0.95,96.652,M,37.566,M,93.2,2006*65,37.23280576103333,137.02424646441662,679568.9899096198,4122618.5093108476
580,[2021-02-22 16:14:20.881] $GNGGA,71420.3,3713.968345355,N,13701.454787702,E,4,13,0.95,96.652,M,37.566,M,93.3,2006*6A,37.232805755916665,137.0242464617,679568.9896807445,4122618.5087379664
581,[2021-02-22 16:14:20.974] $GNGGA,71420.4,3713.968346299,N,13701.45478838,E,4,13,0.95,96.645,M,37.566,M,93.4,2006*6F,37.23280577165,137.02424647299998,679568.9906459346,4122618.510505118
582,[2021-02-22 16:14:21.084] $GNGGA,71420.5,3713.968346785,N,13701.454790091999,E,4,13,0.95,96.654,M,37.566,M,93.5,2006*6E,37.232805779749995,137.0242465015333,679568.9931581626,4122618.511458
583,[2021-02-22 16:14:21.177] $GNGGA,71420.6,3713.9683474559997,N,13701.454791352,E,4,13,0.95,96.65299999999999,M,37.566,M,93.6,2006*6B,37.23280579093333,137.02424652253333,679568.9949947287,4122618.5127387047
584,[2021-02-22 16:14:21.302] $GNGGA,71420.7,3713.9683479890004,N,13701.454792983,E,4,13,0.95,96.65299999999999,M,37.566,M,93.7,2006*61,37.232805799816674,137.02424654971668,679568.9973853313,4122618.5137759442
585,[2021-02-22 16:14:21.381] $GNGGA,71420.8,3713.968349645,N,13701.454795743999,E,4,13,0.95,96.655,M,37.566,M,93.8,2006*64,37.232805827416676,137.0242465957333,679569.0014023905,4122618.5169256465
586,[2021-02-22 16:14:21.474] $GNGGA,71420.9,3713.968350217,N,13701.454797424,E,4,13,0.95,96.65700000000001,M,37.566,M,93.9,2006*6A,37.23280583695,137.02424662373335,679569.0038639068,4122618.518036553
587,[2021-02-22 16:14:21.584] $GNGGA,71421.0,3713.9683481459997,N,13701.454796602,E,4,13,0.95,96.66,M,37.566,M,94.0,2006*61,37.232805802433326,137.02424661003332,679569.0027303548,4122618.5141807166
588,[2021-02-22 16:14:21.677] $GNGGA,71421.1,3713.968349923,N,13701.454796506001,E,4,13,0.95,96.65899999999999,M,37.566,M,94.1,2006*66,37.232805832050005,137.02424660843337,679569.0025181331,4122618.5174638387
589,[2021-02-22 16:14:21.802] $GNGGA,71421.2,3713.96835054,N,13701.454796478001,E,4,13,0.95,96.65799999999999,M,37.566,M,94.2,2006*6E,37.232805842333335,137.0242466079667,679569.0024523293,4122618.5186039535
590,[2021-02-22 16:14:21.881] $GNGGA,71421.3,3713.9683503959996,N,13701.454796638,E,4,13,0.95,96.655,M,37.566,M,94.3,2006*68,37.23280583993332,137.02424661063336,679569.0026946093,4122618.518342717
591,[2021-02-22 16:14:21.974] $GNGGA,71421.4,3713.968352157,N,13701.454798886001,E,4,13,0.95,96.65700000000001,M,37.566,M,94.4,2006*62,37.23280586928333,137.02424664810002,679569.0059489714,4122618.5216703718
592,[2021-02-22 16:14:22.084] $GNGGA,71421.5,3713.968355053,N,13701.454801201999,E,4,13,0.95,96.652,M,37.566,M,94.5,2006*6C,37.23280591755,137.02424668669997,679569.0092589918,4122618.5270991004
593,[2021-02-22 16:14:22.177] $GNGGA,71421.6,3713.968355095,N,13701.454802455,E,4,13,0.95,96.654,M,37.566,M,94.6,2006*67,37.232805918249994,137.02424670758336,679569.0111100854,4122618.5272163902
594,[2021-02-22 16:14:22.302] $GNGGA,71421.7,3713.968354223,N,13701.454801355,E,4,13,0.95,96.655,M,37.566,M,94.7,2006*6C,37.232805903716674,137.02424668924996,679569.009518049,4122618.525569042
595,[2021-02-22 16:14:22.381] $GNGGA,71421.8,3713.9683573770003,N,13701.454800196001,E,4,13,0.95,96.652,M,37.566,M,94.8,2006*64,37.232805956283336,137.02424666993335,679569.007679566,4122618.5313649965
596,[2021-02-22 16:14:22.474] $GNGGA,71421.9,3713.9683573740003,N,13701.454798791001,E,4,13,0.95,96.65299999999999,M,37.566,M,94.9,2006*69,37.232805956233335,137.0242466465167,679569.0056021828,4122618.5313150217
597,[2021-02-22 16:14:22.584] $GNGGA,71422.0,3713.9683573790003,N,13701.454796856999,E,4,13,0.95,96.647,M,37.566,M,95.0,2006*68,37.23280595631667,137.0242466142833,679569.0027422673,4122618.5312631107
598,[2021-02-22 16:14:22.709] $GNGGA,71422.1,3713.968357174,N,13701.454797723001,E,4,13,0.95,96.65299999999999,M,37.566,M,95.1,2006*6F,37.2328059529,137.0242466287167,679569.0040308925,4122618.5309113944
599,[2021-02-22 16:14:22.787] $GNGGA,71422.2,3713.968357373,N,13701.45479934,E,4,13,0.95,96.649,M,37.566,M,95.2,2006*6E,37.23280595621666,137.02424665566664,679569.0064139946,4122618.53133053
600,[2021-02-22 16:14:22.880] $GNGGA,71422.3,3713.9683570340003,N,13701.454799686999,E,4,13,0.95,96.65,M,37.566,M,95.3,2006*68,37.23280595056667,137.02424666144998,679569.0069404937,4122618.530714602
601,[2021-02-22 16:14:22.974] $GNGGA,71422.4,3713.9683541990003,N,13701.454799153998,E,4,13,0.95,96.654,M,37.566,M,95.4,2006*60,37.232805903316674,137.02424665256663,679569.0062644894,4122618.5254550604
602,[2021-02-22 16:14:23.099] $GNGGA,71422.5,3713.968355823,N,13701.454798424,E,4,13,0.95,96.65299999999999,M,37.566,M,95.5,2006*6D,37.23280593038333,137.0242466404,679569.0051208519,4122618.5284351935
603,[2021-02-22 16:14:23.177] $GNGGA,71422.6,3713.9683547209997,N,13701.454800216,E,4,13,0.95,96.654,M,37.566,M,95.6,2006*6F,37.232805912016666,137.02424667026668,679569.0078141761,4122618.526453962
604,[2021-02-22 16:14:23.287] $GNGGA,71422.7,3713.968354188,N,13701.454801308999,E,4,13,0.95,96.656,M,37.566,M,95.7,2006*66,37.232805903133325,137.0242466884833,679569.0094514152,4122618.5255028624
605,[2021-02-22 16:14:23.380] $GNGGA,71422.8,3713.96835459,N,13701.454802095,E,4,13,0.95,96.655,M,37.566,M,95.8,2006*6D,37.23280590983333,137.02424670158334,679569.0105977403,4122618.526271124
606,[2021-02-22 16:14:23.505] $GNGGA,71422.9,3713.96835241,N,13701.454804437,E,4,13,0.95,96.654,M,37.566,M,95.9,2006*69,37.2328058735,137.02424674061666,679569.014146952,4122618.52231377
607,[2021-02-22 16:14:23.584] $GNGGA,71423.0,3713.968352771,N,13701.454805585,E,4,13,0.95,96.648,M,37.566,M,96.0,2006*6B,37.23280587951666,137.02424675974999,679569.0158301655,4122618.5230176575
608,[2021-02-22 16:14:23.677] $GNGGA,71423.1,3713.96835053,N,13701.454805071999,E,4,13,0.95,96.654,M,37.566,M,96.1,2006*6E,37.23280584216666,137.02424675119997,679569.0151602421,4122618.5188572165
609,[2021-02-22 16:14:23.787] $GNGGA,71423.2,3713.96835127,N,13701.454805406001,E,4,13,0.95,96.652,M,37.566,M,96.2,2006*6D,37.23280585449999,137.0242467567667,679569.0156248522,4122618.52023624
610,[2021-02-22 16:14:23.896] $GNGGA,71423.3,3713.96835072,N,13701.454802741999,E,4,13,0.95,96.649,M,37.566,M,96.3,2006*62,37.23280584533334,137.02424671236662,679569.0117074708,4122618.5191349005
611,[2021-02-22 16:14:23.974] $GNGGA,71423.4,3713.9683504,N,13701.454801958998,E,4,13,0.95,96.648,M,37.566,M,96.4,2006*65,37.23280584,137.02424669931665,679569.0105623454,4122618.5185183734
612,[2021-02-22 16:14:24.084] $GNGGA,71423.5,3713.968349381,N,13701.454801711001,E,4,13,0.95,96.65,M,37.566,M,96.5,2006*68,37.23280582301666,137.02424669518334,679569.0102359424,4122618.516626122
613,[2021-02-22 16:14:24.177] $GNGGA,71423.6,3713.9683509009997,N,13701.454800779,E,4,13,0.95,96.649,M,37.566,M,96.6,2006*65,37.23280584835,137.02424667965002,679569.0087977292,4122618.5194075448
614,[2021-02-22 16:14:24.302] $GNGGA,71423.7,3713.96835162,N,13701.454799436002,E,4,13,0.95,96.65,M,37.566,M,96.7,2006*67,37.23280586033332,137.0242466572667,679569.0067834681,4122618.520694703
615,[2021-02-22 16:14:24.380] $GNGGA,71423.8,3713.968352147,N,13701.454798248,E,4,13,0.95,96.65299999999999,M,37.566,M,96.8,2006*6F,37.232805869116675,137.02424663746666,679569.0050059856,4122618.521631705
616,[2021-02-22 16:14:24.474] $GNGGA,71423.9,3713.968351991,N,13701.454798568999,E,4,13,0.95,96.65100000000001,M,37.566,M,96.9,2006*69,37.23280586651667,137.02424664281668,679569.005486804,4122618.521353369
617,[2021-02-22 16:14:24.583] $GNGGA,71424.0,3713.9683517440003,N,13701.454800137,E,4,13,0.95,96.65100000000001,M,37.566,M,97.0,2006*68,37.232805862400006,137.02424666895,679569.0078150949,4122618.5209461814
618,[2021-02-22 16:14:24.677] $GNGGA,71424.1,3713.968352452,N,13701.454799968,E,4,13,0.95,96.652,M,37.566,M,97.1,2006*61,37.232805874200004,137.0242466661333,679569.0075372006,4122618.522250123
619,[2021-02-22 16:14:24.802] $GNGGA,71424.2,3713.9683510620002,N,13701.454799986,E,4,13,0.95,96.652,M,37.566,M,97.2,2006*65,37.23280585103334,137.02424666643336,679569.0076187907,4122618.5196802034
620,[2021-02-22 16:14:24.880] $GNGGA,71424.3,3713.968350793,N,13701.454799631001,E,4,13,0.95,96.65,M,37.566,M,97.3,2006*6C,37.23280584655,137.02424666051667,679569.0071045079,4122618.519171523
621,[2021-02-22 16:14:24.974] $GNGGA,71424.4,3713.9683511559997,N,13701.454798493998,E,4,13,0.95,96.65100000000001,M,37.566,M,97.4,2006*6F,37.23280585259999,137.02424664156663,679569.0054089221,4122618.5198068535
622,[2021-02-22 16:14:25.083] $GNGGA,71424.5,3713.968351412,N,13701.454798538001,E,4,13,0.95,96.65299999999999,M,37.566,M,97.5,2006*6F,37.23280585686667,137.0242466423,679569.005463863,4122618.5202816594
623,[2021-02-22 16:14:25.177] $GNGGA,71424.6,3713.9683509540005,N,13701.454797716002,E,4,13,0.95,96.654,M,37.566,M,97.6,2006*67,37.232805849233344,137.02424662860003,679569.0042665276,4122618.5194087015
624,[2021-02-22 16:14:25.302] $GNGGA,71424.7,3713.968350355,N,13701.454799308001,E,4,13,0.95,96.647,M,37.566,M,97.7,2006*6B,37.232805839250005,137.02424665513337,679569.006644228,4122618.5183513276
625,[2021-02-22 16:14:25.380] $GNGGA,71424.8,3713.968350715,N,13701.454800758998,E,4,13,0.95,96.65,M,37.566,M,97.8,2006*62,37.23280584524999,137.02424667931663,679569.0087755062,4122618.5190629484
626,[2021-02-22 16:14:25.474] $GNGGA,71424.9,3713.968350522,N,13701.454800668,E,4,13,0.95,96.65100000000001,M,37.566,M,97.9,2006*66,37.23280584203333,137.0242466778,679569.0086485839,4122618.5187031613
627,[2021-02-22 16:14:25.583] $GNGGA,71425.0,3713.9683512640004,N,13701.454800513,E,4,13,0.95,96.65100000000001,M,37.566,M,98.0,2006*63,37.232805854400006,137.02424667521666,679569.0083900497,4122618.52007042
628,[2021-02-22 16:14:25.677] $GNGGA,71425.1,3713.968351337,N,13701.454801568001,E,4,13,0.95,96.649,M,37.566,M,98.1,2006*60,37.23280585561667,137.02424669280003,679569.009947143,4122618.5202387776
629,[2021-02-22 16:14:25.802] $GNGGA,71425.2,3713.96835162,N,13701.454801069,E,4,13,0.95,96.648,M,37.566,M,98.2,2006*66,37.23280586033332,137.02424668448333,679569.0091981001,4122618.5207463405
