,Format,Time,Latitude,LatType,Longitude,LonType,Status,Satellite,LevelAccuracy,Altitude(sea),M(sea),Altitude(geoid),M(geoid),DGPS use,checksum,Lat,Lon,UTM_X,UTM_Y
359,[2021-02-22 16:17:35.272] $GNGGA,71734.7,3713.9683488670003,N,13701.454763923,E,4,13,0.95,96.516,M,37.566,M,97.7,2006*6B,37.23280581445,137.02424606538335,679568.9543810249,4122618.5144806816
360,[2021-02-22 16:17:35.382] $GNGGA,71734.8,3713.9683475459997,N,13701.454764383001,E,4,13,0.95,96.51899999999999,M,37.566,M,97.8,2006*62,37.232805792433325,137.02424607305002,679568.9551134484,4122618.512052338
361,[2021-02-22 16:17:35.475] $GNGGA,71734.9,3713.9683469009997,N,13701.454763806001,E,4,13,0.95,96.51899999999999,M,37.566,M,97.9,2006*6D,37.232805781683325,137.02424606343334,679568.9542857723,4122618.5108413114
362,[2021-02-22 16:17:35.600] $GNGGA,71735.0,3713.968346305,N,13701.454763958998,E,4,13,0.95,96.51899999999999,M,37.566,M,98.0,2006*66,37.232805771749995,137.0242460659833,679568.9545355729,4122618.5097439834
363,[2021-02-22 16:17:35.679] $GNGGA,71735.1,3713.968345811,N,13701.454762745,E,4,13,0.95,96.51799999999999,M,37.566,M,98.1,2006*68,37.232805763516666,137.02424604574998,679568.9527600294,4122618.5087920553
364,[2021-02-22 16:17:35.772] $GNGGA,71735.2,3713.968345662,N,13701.454762186999,E,4,13,0.95,96.51899999999999,M,37.566,M,98.2,2006*6B,37.23280576103333,137.02424603644997,679568.9519408332,4122618.5084988684
365,[2021-02-22 16:17:35.882] $GNGGA,71735.3,3713.968346203,N,13701.454761691999,E,4,13,0.95,96.52,M,37.566,M,98.3,2006*61,37.23280577005,137.0242460282,679568.9511875082,4122618.5094836727
366,[2021-02-22 16:17:35.975] $GNGGA,71735.4,3713.9683467590003,N,13701.454760924,E,4,13,0.95,96.51799999999999,M,37.566,M,98.4,2006*63,37.23280577931667,137.0242460154,679568.950029916,4122618.510487584
367,[2021-02-22 16:17:36.100] $GNGGA,71735.5,3713.968347088,N,13701.454760669,E,4,13,0.95,96.522,M,37.566,M,98.5,2006*66,37.2328057848,137.02424601115,679568.9496398504,4122618.511087929
368,[2021-02-22 16:17:36.179] $GNGGA,71735.6,3713.968349355,N,13701.454762176001,E,4,13,0.95,96.51799999999999,M,37.566,M,98.6,2006*69,37.23280582258334,137.0242460362667,679568.9517785267,4122618.515327883
369,[2021-02-22 16:17:36.272] $GNGGA,71735.7,3713.968350257,N,13701.454762648998,E,4,13,0.95,96.521,M,37.566,M,98.7,2006*63,37.23280583761667,137.02424604414998,679568.9524422511,4122618.5170108834
370,[2021-02-22 16:17:36.382] $GNGGA,71735.8,3713.968349747,N,13701.454761231002,E,4,13,0.95,96.521,M,37.566,M,98.8,2006*67,37.23280582911667,137.0242460205167,679568.9503656989,4122618.5160229164
371,[2021-02-22 16:17:36.475] $GNGGA,71735.9,3713.968350232,N,13701.454761383999,E,4,13,0.95,96.521,M,37.566,M,98.9,2006*67,37.2328058372,137.02424602306667,679568.9505727489,4122618.51692465
372,[2021-02-22 16:17:36.600] $GNGGA,71736.0,3713.968351046,N,13701.454761444,E,4,13,0.95,96.522,M,37.566,M,99.0,2006*6D,37.232805850766674,137.02424602406668,679568.9506292777,4122618.5184318568
373,[2021-02-22 16:17:36.679] $GNGGA,71736.1,3713.968350902,N,13701.454761121002,E,4,13,0.95,96.521,M,37.566,M,99.1,2006*60,37.232805848366674,137.02424601868336,679568.9501573688,4122618.5181553476
374,[2021-02-22 16:17:36.772] $GNGGA,71736.2,3713.9683502340004,N,13701.45476268,E,4,13,0.95,96.522,M,37.566,M,99.2,2006*62,37.23280583723334,137.02424604466663,679568.9524889973,4122618.516969332
375,[2021-02-22 16:17:36.882] $GNGGA,71736.3,3713.968350729,N,13701.454762663001,E,4,13,0.95,96.524,M,37.566,M,99.3,2006*60,37.232805845483334,137.02424604438337,679568.9524442896,4122618.5178841837
376,[2021-02-22 16:17:36.975] $GNGGA,71736.4,3713.968350348,N,13701.454763893,E,4,13,0.95,96.525,M,37.566,M,99.4,2006*62,37.232805839133334,137.02424606488333,679568.9542780949,4122618.517218505
377,[2021-02-22 16:17:37.100] $GNGGA,71736.5,3713.968350358,N,13701.454763955,E,4,13,0.95,96.527,M,37.566,M,99.5,2006*6A,37.232805839300006,137.02424606591666,679568.9543693749,4122618.5172389583
378,[2021-02-22 16:17:37.178] $GNGGA,71736.6,3713.968351215,N,13701.4547641,E,4,13,0.95,96.524,M,37.566,M,99.6,2006*6F,37.232805853583336,137.02424606833335,679568.9545498888,4122618.51882837
379,[2021-02-22 16:17:37.272] $GNGGA,71736.7,3713.9683508159997,N,13701.454764388998,E,4,13,0.95,96.52600000000001,M,37.566,M,99.7,2006*66,37.23280584693333,137.02424607314998,679568.9549929952,4122618.518099648
380,[2021-02-22 16:17:37.382] $GNGGA,71736.8,3713.968351589,N,13701.45476385,E,4,13,0.95,96.525,M,37.566,M,99.8,2006*67,37.232805859816665,137.02424606416668,679568.9541654345,4122618.5195120918
381,[2021-02-22 16:17:37.475] $GNGGA,71736.9,3713.968351338,N,13701.454762976002,E,4,13,0.95,96.524,M,37.566,M,99.9,2006*6E,37.23280585563333,137.02424604960004,679568.9528830231,4122618.519020288
382,[2021-02-22 16:17:37.600] $GNGGA,71737.0,3713.968349817,N,13701.45476294,E,4,13,0.95,96.52600000000001,M,37.566,M,100.0,2006*56,37.23280583028333,137.024246049,679568.9528899407,4122618.5162064056
383,[2021-02-22 16:17:37.678] $GNGGA,71737.1,3713.96834843,N,13701.45476248,E,4,13,0.95,96.527,M,37.566,M,100.1,2006*5E,37.23280580716667,137.02424604133333,679568.952264614,4122618.5136269196
384,[2021-02-22 16:17:37.772] $GNGGA,71737.2,3713.968347575,N,13701.454761311,E,4,13,0.95,96.524,M,37.566,M,100.2,2006*5E,37.232805792916665,137.02424602185002,679568.9505698865,4122618.5120088267
385,[2021-02-22 16:17:37.882] $GNGGA,71737.3,3713.968346777,N,13701.454760788001,E,4,13,0.95,96.52600000000001,M,37.566,M,100.3,2006*58,37.23280577961666,137.02424601313336,679568.9498281121,4122618.510516569
386,[2021-02-22 16:17:37.975] $GNGGA,71737.4,3713.968347255,N,13701.454758254,E,4,13,0.95,96.525,M,37.566,M,100.4,2006*50,37.23280578758333,137.02424597089998,679568.9460623031,4122618.511320391
387,[2021-02-22 16:17:38.100] $GNGGA,71737.5,3713.9683470540003,N,13701.454757047,E,4,13,0.95,96.527,M,37.566,M,100.5,2006*5E,37.23280578423334,137.02424595078332,679568.9442855222,4122618.510910522
388,[2021-02-22 16:17:38.178] $GNGGA,71737.6,3713.9683461990003,N,13701.454755561,E,4,13,0.95,96.529,M,37.566,M,100.6,2006*52,37.23280576998334,137.02424592601665,679568.9421220601,4122618.5092824046
389,[2021-02-22 16:17:38.272] $GNGGA,71737.7,3713.96834711,N,13701.454754188999,E,4,13,0.95,96.525,M,37.566,M,100.7,2006*5D,37.23280578516667,137.02424590314996,679568.9400573222,4122618.5109237055
390,[2021-02-22 16:17:38.382] $GNGGA,71737.8,3713.9683457940005,N,13701.45475384,E,4,13,0.95,96.52600000000001,M,37.566,M,100.8,2006*5D,37.23280576323334,137.02424589733332,679568.9395933191,4122618.5084790285
391,[2021-02-22 16:17:38.491] $GNGGA,71737.9,3713.968344365,N,13701.454753992,E,4,13,0.95,96.527,M,37.566,M,100.9,2006*59,37.23280573941667,137.02424589986668,679568.9398745911,4122618.505841225
392,[2021-02-22 16:17:38.585] $GNGGA,71738.0,3713.9683435370002,N,13701.454753961001,E,4,13,0.95,96.52600000000001,M,37.566,M,101.0,2006*5C,37.23280572561667,137.02424589935003,679568.9398614997,4122618.5043090475
393,[2021-02-22 16:17:38.678] $GNGGA,71738.1,3713.9683429240004,N,13701.454753038,E,4,13,0.95,96.523,M,37.566,M,101.1,2006*53,37.232805715400005,137.0242458839667,679568.9385209464,4122618.5031462563
394,[2021-02-22 16:17:38.772] $GNGGA,71738.2,3713.968341872,N,13701.454752593001,E,4,13,0.95,96.522,M,37.566,M,101.2,2006*56,37.232805697866674,137.02424587655,679568.9379045481,4122618.5011867513
395,[2021-02-22 16:17:38.897] $GNGGA,71738.3,3713.9683422290004,N,13701.454751017,E,4,13,0.95,96.521,M,37.566,M,101.3,2006*58,37.23280570381667,137.0242458502833,679568.9355600735,4122618.5017971057
396,[2021-02-22 16:17:38.975] $GNGGA,71738.4,3713.9683411459996,N,13701.454748746,E,4,13,0.95,96.521,M,37.566,M,101.4,2006*5A,37.232805685766664,137.02424581243332,679568.9322448905,4122618.499722529
397,[2021-02-22 16:17:39.085] $GNGGA,71738.5,3713.968340818,N,13701.45474681,E,4,13,0.95,96.524,M,37.566,M,101.5,2006*5E,37.2328056803,137.02424578016667,679568.929395196,4122618.4990547495
398,[2021-02-22 16:17:39.178] $GNGGA,71738.6,3713.9683390309997,N,13701.454745728,E,4,13,0.95,96.525,M,37.566,M,101.6,2006*55,37.23280565051666,137.02424576213335,679568.9278659695,4122618.4957158845
399,[2021-02-22 16:17:39.303] $GNGGA,71738.7,3713.968337569,N,13701.454744502,E,4,13,0.95,96.521,M,37.566,M,101.7,2006*5C,37.23280562615,137.02424574169999,679568.9261109577,4122618.4929734804
400,[2021-02-22 16:17:39.381] $GNGGA,71738.8,3713.968335023,N,13701.454744773,E,4,13,0.95,96.521,M,37.566,M,101.8,2006*51,37.23280558371667,137.02424574621665,679568.9266123599,4122618.488273803
401,[2021-02-22 16:17:39.475] $GNGGA,71738.9,3713.9683333370003,N,13701.45474365,E,4,13,0.95,96.52,M,37.566,M,101.9,2006*57,37.23280555561667,137.02424572750002,679568.9250185164,4122618.4851204203
402,[2021-02-22 16:17:39.585] $GNGGA,71739.0,3713.968333537,N,13701.454743676,E,4,13,0.95,96.521,M,37.566,M,102.0,2006*56,37.232805558950005,137.02424572793336,679568.9250490528,4122618.4854910984
403,[2021-02-22 16:17:39.694] $GNGGA,71739.1,3713.9683336909998,N,13701.454744264,E,4,13,0.95,96.51799999999999,M,37.566,M,102.1,2006*53,37.23280556151666,137.02424573773334,679568.9259124068,4122618.485794478
404,[2021-02-22 16:17:39.772] $GNGGA,71739.2,3713.968334429,N,13701.454742491002,E,4,13,0.95,96.521,M,37.566,M,102.2,2006*55,37.23280557381666,137.02424570818334,679568.9232615735,4122618.4871031754
405,[2021-02-22 16:17:39.881] $GNGGA,71739.3,3713.9683362279998,N,13701.4547402,E,4,13,0.95,96.522,M,37.566,M,102.3,2006*5F,37.232805603799996,137.02424567,679568.9198028381,4122618.490357571
406,[2021-02-22 16:17:39.975] $GNGGA,71739.4,3713.9683375229997,N,13701.454738752,E,4,13,0.95,96.51700000000001,M,37.566,M,102.4,2006*59,37.232805625383335,137.02424564586667,679568.9176105403,4122618.492706592
407,[2021-02-22 16:17:40.085] $GNGGA,71739.5,3713.968338944,N,13701.454737865,E,4,13,0.95,96.51899999999999,M,37.566,M,102.5,2006*51,37.23280564906667,137.02424563108335,679568.9162427792,4122618.4953063587
408,[2021-02-22 16:17:40.194] $GNGGA,71739.6,3713.9683402859996,N,13701.454736856002,E,4,13,0.95,96.51700000000001,M,37.566,M,102.6,2006*54,37.232805671433326,137.0242456142667,679568.9146977509,4122618.4977561757
409,[2021-02-22 16:17:40.272] $GNGGA,71739.7,3713.96833946,N,13701.454736955,E,4,13,0.95,96.516,M,37.566,M,102.7,2006*57,37.23280565766667,137.02424561591667,679568.914876801,4122618.496231808
410,[2021-02-22 16:17:40.381] $GNGGA,71739.8,3713.968337408,N,13701.454736807,E,4,13,0.95,96.51700000000001,M,37.566,M,102.8,2006*50,37.23280562346667,137.02424561345,679568.9147391126,4122618.492432421
411,[2021-02-22 16:17:40.475] $GNGGA,71739.9,3713.9683343190004,N,13701.454735523,E,4,13,0.95,96.52,M,37.566,M,102.9,2006*58,37.232805571983334,137.02424559205002,679568.912962688,4122618.4866794166
412,[2021-02-22 16:17:40.585] $GNGGA,71740.0,3713.968334143,N,13701.454732963,E,4,13,0.95,96.51899999999999,M,37.566,M,103.0,2006*5F,37.23280556905,137.02424554938335,679568.909184304,4122618.4862729944
413,[2021-02-22 16:17:40.694] $GNGGA,71740.1,3713.9683328190004,N,13701.454729618,E,4,13,0.95,96.51700000000001,M,37.566,M,103.1,2006*58,37.232805546983336,137.02424549363334,679568.9042905781,4122618.4837187836
414,[2021-02-22 16:17:40.772] $GNGGA,71740.2,3713.968331267,N,13701.454727868,E,4,13,0.95,96.521,M,37.566,M,103.2,2006*5A,37.23280552111667,137.02424546446667,679568.9017643163,4122618.4807933746
415,[2021-02-22 16:17:40.881] $GNGGA,71740.3,3713.968330057,N,13701.454726021999,E,4,13,0.95,96.521,M,37.566,M,103.3,2006*5D,37.23280550095,137.02424543369997,679568.8990825769,4122618.478497382
416,[2021-02-22 16:17:40.975] $GNGGA,71740.4,3713.968328908,N,13701.454725825,E,4,13,0.95,96.52,M,37.566,M,103.4,2006*5A,37.23280548179999,137.02424543041664,679568.8988367235,4122618.476366338
417,[2021-02-22 16:17:41.084] $GNGGA,71740.5,3713.9683285329997,N,13701.454724973,E,4,13,0.95,96.521,M,37.566,M,103.5,2006*5C,37.23280547554999,137.0242454162167,679568.8975917476,4122618.4756459184
418,[2021-02-22 16:17:41.194] $GNGGA,71740.6,3713.968327175,N,13701.454724495,E,4,13,0.95,96.52,M,37.566,M,103.6,2006*51,37.23280545291667,137.02424540824998,679568.8969386547,4122618.4731194926
419,[2021-02-22 16:17:41.272] $GNGGA,71740.7,3713.9683262490003,N,13701.454725005,E,4,13,0.95,96.522,M,37.566,M,103.7,2006*52,37.232805437483336,137.02424541674998,679568.8977293869,4122618.471423194
420,[2021-02-22 16:17:41.381] $GNGGA,71740.8,3713.968326209,N,13701.454724656001,E,4,13,0.95,96.525,M,37.566,M,103.8,2006*50,37.23280543681667,137.0242454109334,679568.8972149258,4122618.471338188
421,[2021-02-22 16:17:41.475] $GNGGA,71740.9,3713.968325203,N,13701.454724611001,E,4,13,0.95,96.521,M,37.566,M,103.9,2006*5E,37.23280542004999,137.02424541018337,679568.8971881713,4122618.4694763958
422,[2021-02-22 16:17:41.584] $GNGGA,71741.0,3713.968324454,N,13701.45472438,E,4,13,0.95,96.521,M,37.566,M,104.0,2006*50,37.23280540756667,137.02424540633334,679568.8968762197,4122618.468083988
423,[2021-02-22 16:17:41.694] $GNGGA,71741.1,3713.9683247129997,N,13701.454725186,E,4,13,0.95,96.52,M,37.566,M,104.1,2006*54,37.23280541188333,137.02424541976666,679568.8980577675,4122618.4685884346
424,[2021-02-22 16:17:41.772] $GNGGA,71741.2,3713.968324834,N,13701.454727093,E,4,13,0.95,96.51899999999999,M,37.566,M,104.2,2006*53,37.232805413899996,137.02424545155,679568.900872771,4122618.4688724997
425,[2021-02-22 16:17:41.881] $GNGGA,71741.3,3713.968327141,N,13701.454729486,E,4,13,0.95,96.52,M,37.566,M,104.3,2006*5F,37.23280545235,137.02424549143333,679568.9043199464,4122618.4732144424
426,[2021-02-22 16:17:41.975] $GNGGA,71741.4,3713.9683278479997,N,13701.454732429,E,4,13,0.95,96.521,M,37.566,M,104.4,2006*51,37.232805464133335,137.02424554048332,679568.908643653,4122618.4746149397
427,[2021-02-22 16:17:42.084] $GNGGA,71741.5,3713.9683287,N,13701.454733768998,E,4,13,0.95,96.521,M,37.566,M,104.5,2006*5B,37.232805478333326,137.02424556281662,679568.9105913469,4122618.4762328914
428,[2021-02-22 16:17:42.194] $GNGGA,71741.6,3713.9683309320003,N,13701.454735645,E,4,13,0.95,96.521,M,37.566,M,104.6,2006*54,37.23280551553334,137.02424559408334,679568.9132770291,4122618.48041979
429,[2021-02-22 16:17:42.272] $GNGGA,71741.7,3713.968333059,N,13701.454738908998,E,4,13,0.95,96.51799999999999,M,37.566,M,104.7,2006*53,37.232805550983336,137.02424564848332,679568.9180192249,4122618.4844564036
430,[2021-02-22 16:17:42.381] $GNGGA,71741.8,3713.968334775,N,13701.454741455,E,4,13,0.95,96.516,M,37.566,M,104.8,2006*59,37.232805579583335,137.02424569091667,679568.9217160078,4122618.487710265
431,[2021-02-22 16:17:42.475] $GNGGA,71741.9,3713.9683364770003,N,13701.454745296001,E,4,13,0.95,96.516,M,37.566,M,104.9,2006*57,37.23280560795,137.02424575493336,679568.9273281978,4122618.4909791835
432,[2021-02-22 16:17:42.600] $GNGGA,71742.0,3713.968337245,N,13701.454750061,E,4,13,0.95,96.515,M,37.566,M,105.0,2006*5E,37.23280562075,137.02424583435,679568.9343435928,4122618.492550102
433,[2021-02-22 16:17:42.678] $GNGGA,71742.1,3713.968338392,N,13701.454753223,E,4,13,0.95,96.515,M,37.566,M,105.1,2006*5D,37.23280563986667,137.02424588705003,679568.9389737257,4122618.4947712054
434,[2021-02-22 16:17:42.772] $GNGGA,71742.2,3713.96833918,N,13701.454756708,E,4,13,0.95,96.51299999999999,M,37.566,M,105.2,2006*52,37.232805653,137.02424594513334,679568.9440956577,4122618.496338631
435,[2021-02-22 16:17:42.881] $GNGGA,71742.3,3713.968340969,N,13701.454760707,E,4,13,0.95,96.51100000000001,M,37.566,M,105.3,2006*5B,37.23280568281667,137.02424601178333,679568.9499380304,4122618.4997734344
436,[2021-02-22 16:17:42.991] $GNGGA,71742.4,3713.968341626,N,13701.454763873,E,4,13,0.95,96.514,M,37.566,M,105.4,2006*54,37.232805693766664,137.02424606455,679568.9545934536,4122618.50108852
437,[2021-02-22 16:17:43.084] $GNGGA,71742.5,3713.968341901,N,13701.454764206,E,4,13,0.95,96.512,M,37.566,M,105.5,2006*57,37.23280569835,137.0242460701,679568.9550749679,4122618.501607599
438,[2021-02-22 16:17:43.178] $GNGGA,71742.6,3713.968342427,N,13701.454763857,E,4,13,0.95,96.51100000000001,M,37.566,M,105.6,2006*57,37.232805707116675,137.02424606428335,679568.9545381208,4122618.5025692824
439,[2021-02-22 16:17:43.287] $GNGGA,71742.7,3713.968343897,N,13701.454763776,E,4,13,0.95,96.51,M,37.566,M,105.7,2006*5C,37.23280573161667,137.02424606293337,679568.954360217,4122618.505285151
440,[2021-02-22 16:17:43.395] $GNGGA,71742.8,3713.9683453390003,N,13701.454764398,E,4,13,0.95,96.512,M,37.566,M,105.8,2006*54,37.23280575565001,137.0242460733,679568.9552229063,4122618.5079714702
441,[2021-02-22 16:17:43.473] $GNGGA,71742.9,3713.968347318,N,13701.454764671002,E,4,13,0.95,96.512,M,37.566,M,105.9,2006*57,37.232805788633335,137.02424607785002,679568.9555483158,4122618.5116398116
442,[2021-02-22 16:17:43.583] $GNGGA,71743.0,3713.96834796,N,13701.454765713,E,4,13,0.95,96.51100000000001,M,37.566,M,106.0,2006*57,37.23280579933333,137.02424609521668,679568.9570636802,4122618.5128599936
443,[2021-02-22 16:17:43.676] $GNGGA,71743.1,3713.9683500540004,N,13701.454767958001,E,4,13,0.95,96.51100000000001,M,37.566,M,106.1,2006*5C,37.23280583423334,137.02424613263335,679568.9603004372,4122618.516803362
444,[2021-02-22 16:17:43.801] $GNGGA,71743.2,3713.968351294,N,13701.454768546999,E,4,13,0.95,96.508,M,37.566,M,106.2,2006*56,37.23280585490001,137.02424614244995,679568.961122319,4122618.519115084
445,[2021-02-22 16:17:43.879] $GNGGA,71743.3,3713.968352175,N,13701.454770161,E,4,13,0.95,96.51100000000001,M,37.566,M,106.3,2006*58,37.23280586958334,137.02424616935002,679568.9634740251,4122618.5207953295
446,[2021-02-22 16:17:43.973] $GNGGA,71743.4,3713.968353229,N,13701.454770781002,E,4,13,0.95,96.508,M,37.566,M,106.4,2006*53,37.23280588715,137.02424617968336,679568.9643491063,4122618.5227640667
447,[2021-02-22 16:17:44.083] $GNGGA,71743.5,3713.9683534220003,N,13701.45477217,E,4,13,0.95,96.509,M,37.566,M,106.5,2006*55,37.23280589036668,137.02424620283335,679568.9663953178,4122618.5231649005
448,[2021-02-22 16:17:44.176] $GNGGA,71743.6,3713.968354777,N,13701.454773189,E,4,13,0.95,96.507,M,37.566,M,106.6,2006*58,37.23280591295,137.02424621981666,679568.9678484725,4122618.525702886
449,[2021-02-22 16:17:44.301] $GNGGA,71743.7,3713.968354663,N,13701.454775642,E,4,13,0.95,96.506,M,37.566,M,106.7,2006*5B,37.232805911049994,137.0242462607,679568.9714801129,4122618.5255696364
450,[2021-02-22 16:17:44.379] $GNGGA,71743.8,3713.968355069,N,13701.454777275,E,4,13,0.95,96.507,M,37.566,M,106.8,2006*55,37.23280591781667,137.02424628791667,679568.9738786931,4122618.5263720793
451,[2021-02-22 16:17:44.473] $GNGGA,71743.9,3713.968356232,N,13701.454776568999,E,4,13,0.95,96.507,M,37.566,M,106.9,2006*51,37.232805937200006,137.02424627615,679568.9727887709,4122618.528500459
452,[2021-02-22 16:17:44.582] $GNGGA,71744.0,3713.9683588979997,N,13701.454775696999,E,4,13,0.95,96.506,M,37.566,M,107.0,2006*53,37.232805981633334,137.02424626161664,679568.9713939524,4122618.533403043
453,[2021-02-22 16:17:44.676] $GNGGA,71744.1,3713.968360641,N,13701.454775807,E,4,13,0.95,96.505,M,37.566,M,107.1,2006*56,37.232806010683326,137.02424626344998,679568.9714876718,4122618.5366298016
454,[2021-02-22 16:17:44.801] $GNGGA,71744.2,3713.968361484,N,13701.454774976999,E,4,13,0.95,96.506,M,37.566,M,107.2,2006*58,37.232806024733335,137.02424624961668,679568.9702270585,4122618.538162494
455,[2021-02-22 16:17:44.879] $GNGGA,71744.3,3713.968361815,N,13701.454774935,E,4,13,0.95,96.505,M,37.566,M,107.3,2006*59,37.23280603025,137.02424624891668,679568.9701518647,4122618.5387732745
456,[2021-02-22 16:17:44.973] $GNGGA,71744.4,3713.968361354,N,13701.454774825,E,4,13,0.95,96.505,M,37.566,M,107.4,2006*57,37.23280602256667,137.02424624708334,679568.9700074433,4122618.537917283
457,[2021-02-22 16:17:45.082] $GNGGA,71744.5,3713.968361585,N,13701.454774713999,E,4,13,0.95,96.505,M,37.566,M,107.5,2006*50,37.23280602641666,137.02424624523334,679568.9698341787,4122618.538340954
458,[2021-02-22 16:17:45.176] $GNGGA,71744.6,3713.968360508,N,13701.454773851001,E,4,13,0.95,96.50200000000001,M,37.566,M,107.6,2006*5A,37.23280600846667,137.02424623085,679568.9686006936,4122618.5363219986
459,[2021-02-22 16:17:45.301] $GNGGA,71744.7,3713.968360484,N,13701.454774569,E,4,13,0.95,96.50299999999999,M,37.566,M,107.7,2006*5F,37.23280600806667,137.02424624281667,679568.9696633143,4122618.53630032
460,[2021-02-22 16:17:45.379] $GNGGA,71744.8,3713.96836141,N,13701.454775142,E,4,13,0.95,96.50200000000001,M,37.566,M,107.8,2006*5E,37.232806023500004,137.02424625236665,679568.9704739586,4122618.538030866
461,[2021-02-22 16:17:45.473] $GNGGA,71744.9,3713.968362048,N,13701.454777348,E,4,13,0.95,96.499,M,37.566,M,107.9,2006*5D,37.23280603413333,137.02424628913337,679568.9737106358,4122618.5392804584
462,[2021-02-22 16:17:45.582] $GNGGA,71745.0,3713.968362618,N,13701.454776958,E,4,13,0.95,96.49700000000001,M,37.566,M,108.0,2006*54,37.23280604363334,137.02424628263333,679568.9731114146,4122618.540322212
463,[2021-02-22 16:17:45.676] $GNGGA,71745.1,3713.968362308,N,13701.45477693,E,4,13,0.95,96.495,M,37.566,M,108.1,2006*5C,37.23280603846667,137.02424628216667,679568.9730822735,4122618.5397480517
464,[2021-02-22 16:17:45.801] $GNGGA,71745.2,3713.968362012,N,13701.45477806,E,4,13,0.95,96.49700000000001,M,37.566,M,108.2,2006*54,37.23280603353333,137.024246301,679568.9747648549,4122618.5392363984
465,[2021-02-22 16:17:45.879] $GNGGA,71745.3,3713.968362137,N,13701.454777477,E,4,13,0.95,96.49600000000001,M,37.566,M,108.3,2006*5E,37.23280603561666,137.02424629128333,679568.9738978578,4122618.5394491213
466,[2021-02-22 16:17:45.973] $GNGGA,71745.4,3713.968361487,N,13701.454777844,E,4,13,0.95,96.499,M,37.566,M,108.4,2006*50,37.232806024783336,137.0242462974,679568.9744662283,4122618.5382587
467,[2021-02-22 16:17:46.082] $GNGGA,71745.5,3713.96836203,N,13701.454778782,E,4,13,0.95,96.49600000000001,M,37.566,M,108.5,2006*5E,37.23280603383334,137.02424631303333,679568.9758317289,4122618.5392925176
468,[2021-02-22 16:17:46.176] $GNGGA,71745.6,3713.96836182,N,13701.454779656002,E,4,13,0.95,96.49799999999999,M,37.566,M,108.6,2006*53,37.232806030333336,137.02424632760003,679568.977132376,4122618.538931807
469,[2021-02-22 16:17:46.301] $GNGGA,71745.7,3713.968361394,N,13701.454779762,E,4,13,0.95,96.49700000000001,M,37.566,M,108.7,2006*5E,37.23280602323334,137.02424632936666,679568.9773059573,4122618.5381473685
470,[2021-02-22 16:17:46.379] $GNGGA,71745.8,3713.968361241,N,13701.454778936,E,4,13,0.95,96.494,M,37.566,M,108.8,2006*5A,37.23280602068333,137.02424631559998,679568.9760906409,4122618.5378383095
471,[2021-02-22 16:17:46.473] $GNGGA,71745.9,3713.968362491,N,13701.454777458,E,4,13,0.95,96.494,M,37.566,M,108.9,2006*58,37.23280604151667,137.02424629096666,679568.9738557624,4122618.5401031636
472,[2021-02-22 16:17:46.582] $GNGGA,71746.0,3713.968362187,N,13701.454777235,E,4,13,0.95,96.495,M,37.566,M,109.0,2006*54,37.23280603645,137.02424628725,679568.9735380479,4122618.5395339336
473,[2021-02-22 16:17:46.676] $GNGGA,71746.1,3713.968362313,N,13701.454775879,E,4,13,0.95,96.495,M,37.566,M,109.1,2006*5B,37.232806038549995,137.02424626465,679568.9715280144,4122618.5397240627
474,[2021-02-22 16:17:46.801] $GNGGA,71746.2,3713.968361795,N,13701.454776096001,E,4,13,0.95,96.494,M,37.566,M,109.2,2006*59,37.23280602991667,137.02424626826667,679568.9718693676,4122618.538773002
475,[2021-02-22 16:17:46.879] $GNGGA,71746.3,3713.968361026,N,13701.454776171002,E,4,13,0.95,96.49700000000001,M,37.566,M,109.3,2006*5D,37.2328060171,137.0242462695167,679568.9720106814,4122618.537353284
476,[2021-02-22 16:17:46.973] $GNGGA,71746.4,3713.968360548,N,13701.454775436001,E,4,13,0.95,96.49700000000001,M,37.566,M,109.4,2006*54,37.232806009133334,137.0242462572667,679568.9709427753,4122618.5364460903
477,[2021-02-22 16:17:47.082] $GNGGA,71746.5,3713.968360575,N,13701.454776178998,E,4,13,0.95,96.495,M,37.566,M,109.5,2006*55,37.232806009583335,137.02424626964995,679568.9720403372,4122618.536519514
478,[2021-02-22 16:17:47.192] $GNGGA,71746.6,3713.968359486,N,13701.454776719,E,4,13,0.95,96.495,M,37.566,M,109.6,2006*52,37.232805991433324,137.02424627865003,679568.9728818827,4122618.534522732
479,[2021-02-22 16:17:47.285] $GNGGA,71746.7,3713.96835952,N,13701.454776289,E,4,13,0.95,96.49700000000001,M,37.566,M,109.7,2006*51,37.232805991999996,137.02424627148335,679568.9722447172,4122618.53457201
480,[2021-02-22 16:17:47.379] $GNGGA,71746.8,3713.96835928,N,13701.45477744,E,4,13,0.95,96.49700000000001,M,37.566,M,109.8,2006*5E,37.23280598800001,137.02424629066667,679568.9739561344,4122618.5341645824
481,[2021-02-22 16:17:47.473] $GNGGA,71746.9,3713.9683581179997,N,13701.454777416,E,4,13,0.95,96.49600000000001,M,37.566,M,109.9,2006*5F,37.23280596863332,137.0242462902667,679568.9739666046,4122618.532014968
482,[2021-02-22 16:17:47.598] $GNGGA,71747.0,3713.9683568190003,N,13701.454777279,E,4,13,0.95,96.495,M,37.566,M,110.0,2006*5C,37.23280594698333,137.02424628798332,679568.9738153971,4122618.5296084317
483,[2021-02-22 16:17:47.676] $GNGGA,71747.1,3713.968355655,N,13701.454776753,E,4,13,0.95,96.499,M,37.566,M,110.1,2006*59,37.23280592758333,137.02424627921664,679568.9730836592,4122618.5274392446
484,[2021-02-22 16:17:47.785] $GNGGA,71747.2,3713.968355067,N,13701.454777531999,E,4,13,0.95,96.495,M,37.566,M,110.2,2006*56,37.23280591778333,137.02424629219996,679568.9742587815,4122618.5263765063
485,[2021-02-22 16:17:47.879] $GNGGA,71747.3,3713.9683546540004,N,13701.454778268,E,4,13,0.95,96.49700000000001,M,37.566,M,110.3,2006*54,37.23280591090001,137.0242463044667,679568.9753634054,4122618.5256360327
486,[2021-02-22 16:17:48.004] $GNGGA,71747.4,3713.96835476,N,13701.454779096,E,4,13,0.95,96.499,M,37.566,M,110.4,2006*5E,37.23280591266667,137.02424631826665,679568.9765835332,4122618.525858236
487,[2021-02-22 16:17:48.082] $GNGGA,71747.5,3713.968353565,N,13701.454779996999,E,4,13,0.95,96.49799999999999,M,37.566,M,110.5,2006*57,37.23280589275,137.02424633328332,679568.9779630569,4122618.5236768466
488,[2021-02-22 16:17:48.176] $GNGGA,71747.6,3713.96835379,N,13701.454780656,E,4,13,0.95,96.49600000000001,M,37.566,M,110.6,2006*55,37.2328058965,137.0242463442667,679568.9789285928,4122618.524113773
489,[2021-02-22 16:17:48.285] $GNGGA,71747.7,3713.9683546220003,N,13701.454780877,E,4,13,0.95,96.5,M,37.566,M,110.7,2006*59,37.23280591036668,137.02424634795,679568.979222469,4122618.5256593563
490,[2021-02-22 16:17:48.395] $GNGGA,71747.8,3713.968355611,N,13701.454781091,E,4,13,0.95,96.49799999999999,M,37.566,M,110.8,2006*59,37.23280592685,137.0242463515167,679568.9794997907,4122618.5274950513
491,[2021-02-22 16:17:48.473] $GNGGA,71747.9,3713.9683569629997,N,13701.454780379,E,4,13,0.95,96.49700000000001,M,37.566,M,110.9,2006*5B,37.23280594938333,137.02424633964998,679568.9783935181,4122618.529972752
492,[2021-02-22 16:17:48.582] $GNGGA,71748.0,3713.9683591820003,N,13701.454780208,E,4,13,0.95,96.5,M,37.566,M,111.0,2006*55,37.23280598636667,137.0242463368,679568.9780529147,4122618.534070881
493,[2021-02-22 16:17:48.676] $GNGGA,71748.1,3713.96836233,N,13701.454779799,E,4,13,0.95,96.49700000000001,M,37.566,M,111.1,2006*52,37.23280603883334,137.02424632998333,679568.9773236513,4122618.539879457
494,[2021-02-22 16:17:48.785] $GNGGA,71748.2,3713.968363369,N,13701.454779527,E,4,13,0.95,96.49700000000001,M,37.566,M,111.2,2006*58,37.23280605615,137.02424632545,679568.9768803685,4122618.5417922493
495,[2021-02-22 16:17:48.895] $GNGGA,71748.3,3713.96836414,N,13701.454778734,E,4,13,0.95,96.495,M,37.566,M,111.3,2006*55,37.232806069000006,137.02424631223334,679568.9756773086,4122618.543192963
496,[2021-02-22 16:17:48.973] $GNGGA,71748.4,3713.9683644140005,N,13701.454780613001,E,4,13,0.95,96.495,M,37.566,M,111.4,2006*52,37.23280607356668,137.02424634355003,679568.9784448583,4122618.5437590824
497,[2021-02-22 16:17:49.082] $GNGGA,71748.5,3713.968363803,N,13701.454781666002,E,4,13,0.95,96.49700000000001,M,37.566,M,111.5,2006*5E,37.232806063383336,137.0242463611,679568.9800260402,4122618.5426624734
498,[2021-02-22 16:17:49.176] $GNGGA,71748.6,3713.968362456,N,13701.454781896999,E,4,13,0.95,96.49700000000001,M,37.566,M,111.6,2006*53,37.23280604093333,137.02424636495,679568.9804208766,4122618.540178808
499,[2021-02-22 16:17:49.285] $GNGGA,71748.7,3713.9683611170003,N,13701.454781833001,E,4,13,0.95,96.495,M,37.566,M,111.7,2006*5C,37.232806018616664,137.02424636388335,679568.9803792003,4122618.537700608
500,[2021-02-22 16:17:49.395] $GNGGA,71748.8,3713.9683612970002,N,13701.454780982,E,4,13,0.95,96.493,M,37.566,M,111.8,2006*5B,37.232806021616675,137.02424634969998,679568.979113745,4122618.5380065683
501,[2021-02-22 16:17:49.473] $GNGGA,71748.9,3713.968362708,N,13701.454780015,E,4,13,0.95,96.493,M,37.566,M,111.9,2006*5C,37.23280604513333,137.0242463335833,679568.9776280891,4122618.5405853125
502,[2021-02-22 16:17:49.582] $GNGGA,71749.0,3713.968363079,N,13701.454779275,E,4,13,0.95,96.492,M,37.566,M,112.0,2006*5D,37.23280605131667,137.02424632125,679568.9765192163,4122618.5412479932
503,[2021-02-22 16:17:49.676] $GNGGA,71749.1,3713.9683645640002,N,13701.454779202,E,4,13,0.95,96.49,M,37.566,M,112.1,2006*51,37.23280607606667,137.02424632003334,679568.9763525482,4122618.543991855
504,[2021-02-22 16:17:49.785] $GNGGA,71749.2,3713.9683643659996,N,13701.454780442,E,4,13,0.95,96.49,M,37.566,M,112.2,2006*51,37.23280607276666,137.02424634070002,679568.9781939068,4122618.543664907
505,[2021-02-22 16:17:49.895] $GNGGA,71749.3,3713.968363067,N,13701.454780566999,E,4,13,0.95,96.49,M,37.566,M,112.3,2006*52,37.23280605111667,137.02424634278333,679568.9784301086,4122618.5412666555
506,[2021-02-22 16:17:49.973] $GNGGA,71749.4,3713.968362395,N,13701.454780265,E,4,13,0.95,96.491,M,37.566,M,112.4,2006*59,37.23280603991667,137.02424633775,679568.9780101313,4122618.540014396
507,[2021-02-22 16:17:50.082] $GNGGA,71749.5,3713.968360765,N,13701.454779115,E,4,13,0.95,96.48899999999999,M,37.566,M,112.5,2006*5B,37.23280601275,137.02424631858332,679568.9763741463,4122618.536963716
508,[2021-02-22 16:17:50.176] $GNGGA,71749.6,3713.96835918,N,13701.454777386001,E,4,13,0.95,96.491,M,37.566,M,112.6,2006*53,37.23280598633333,137.0242462897667,679568.9738802448,4122618.533977947
509,[2021-02-22 16:17:50.285] $GNGGA,71749.7,3713.9683576109996,N,13701.454776379,E,4,13,0.95,96.491,M,37.566,M,112.7,2006*53,37.23280596018333,137.02424627298333,679568.9724532919,4122618.5310445954
510,[2021-02-22 16:17:50.395] $GNGGA,71749.8,3713.968356919,N,13701.454774748001,E,4,13,0.95,96.48899999999999,M,37.566,M,112.8,2006*58,37.23280594865,137.02424624580001,679568.9700689795,4122618.5297133233
511,[2021-02-22 16:17:50.473] $GNGGA,71749.9,3713.968357054,N,13701.454773443,E,4,13,0.95,96.48899999999999,M,37.566,M,112.9,2006*56,37.2328059509,137.02424622405002,679568.9681340033,4122618.5299217105
512,[2021-02-22 16:17:50.582] $GNGGA,71750.0,3713.9683578920003,N,13701.454773168001,E,4,13,0.95,96.488,M,37.566,M,113.0,2006*50,37.232805964866664,137.02424621946668,679568.9676942317,4122618.5314627043
513,[2021-02-22 16:17:50.676] $GNGGA,71750.1,3713.9683577220003,N,13701.454771588,E,4,13,0.95,96.48899999999999,M,37.566,M,113.1,2006*5D,37.23280596203334,137.0242461931333,679568.9653646841,4122618.5310983662
514,[2021-02-22 16:17:50.785] $GNGGA,71750.2,3713.968356933,N,13701.454770611,E,4,13,0.95,96.48899999999999,M,37.566,M,113.2,2006*50,37.23280594888334,137.02424617685,679568.9639512489,4122618.529608397
515,[2021-02-22 16:17:50.895] $GNGGA,71750.3,3713.968356768,N,13701.454770095,E,4,13,0.95,96.48899999999999,M,37.566,M,113.3,2006*5A,37.23280594613334,137.02424616825002,679568.9631947915,4122618.52928695
516,[2021-02-22 16:17:50.973] $GNGGA,71750.4,3713.968355592,N,13701.45477011,E,4,13,0.95,96.48899999999999,M,37.566,M,113.4,2006*52,37.23280592653334,137.0242461685,679568.9632634782,4122618.527112681
517,[2021-02-22 16:17:51.082] $GNGGA,71750.5,3713.9683546059996,N,13701.454769491002,E,4,13,0.95,96.48899999999999,M,37.566,M,113.5,2006*59,37.2328059101,137.02424615818336,679568.9623871889,4122618.525269724
518,[2021-02-22 16:17:51.176] $GNGGA,71750.6,3713.9683549220003,N,13701.4547688,E,4,13,0.95,96.488,M,37.566,M,113.6,2006*54,37.23280591536667,137.02424614666666,679568.9613529426,4122618.5258322437
519,[2021-02-22 16:17:51.301] $GNGGA,71750.7,3713.9683542420003,N,13701.454770156999,E,4,13,0.95,96.48700000000001,M,37.566,M,113.7,2006*54,37.232805904033334,137.02424616928332,679568.9633863617,4122618.524617648
520,[2021-02-22 16:17:51.379] $GNGGA,71750.8,3713.9683534620003,N,13701.454771403001,E,4,13,0.95,96.488,M,37.566,M,113.8,2006*5D,37.232805891033344,137.02424619005004,679568.965259613,4122618.5232146173
521,[2021-02-22 16:17:51.473] $GNGGA,71750.9,3713.96835373,N,13701.4547722,E,4,13,0.95,96.492,M,37.566,M,113.9,2006*54,37.2328058955,137.02424620333335,679568.9664274952,4122618.5237354236
522,[2021-02-22 16:17:51.582] $GNGGA,71751.0,3713.968352892,N,13701.454774985,E,4,13,0.95,96.493,M,37.566,M,114.0,2006*55,37.23280588153334,137.02424624975,679568.9705786768,4122618.5222737994
523,[2021-02-22 16:17:51.691] $GNGGA,71751.1,3713.96835431,N,13701.454776169,E,4,13,0.95,96.492,M,37.566,M,114.1,2006*5B,37.232805905166664,137.0242462694833,679568.9722733183,4122618.524933507
524,[2021-02-22 16:17:51.785] $GNGGA,71751.2,3713.9683552270003,N,13701.454779438,E,4,13,0.95,96.488,M,37.566,M,114.2,2006*5A,37.23280592045,137.02424632396668,679568.9770707663,4122618.5267326613
525,[2021-02-22 16:17:51.879] $GNGGA,71751.3,3713.968356195,N,13701.454781252,E,4,13,0.95,96.48899999999999,M,37.566,M,114.3,2006*5F,37.23280593658333,137.0242463542,679568.9797147543,4122618.5285801184
526,[2021-02-22 16:17:51.973] $GNGGA,71751.4,3713.968357222,N,13701.454781188999,E,4,13,0.95,96.48299999999999,M,37.566,M,114.4,2006*5E,37.2328059537,137.02424635315,679568.9795809848,4122618.530477329
527,[2021-02-22 16:17:52.098] $GNGGA,71751.5,3713.968358589,N,13701.454780721999,E,4,13,0.95,96.48299999999999,M,37.566,M,114.5,2006*51,37.23280597648334,137.02424634536666,679568.978836392,4122618.532990517
528,[2021-02-22 16:17:52.176] $GNGGA,71751.6,3713.968357188,N,13701.454780682,E,4,13,0.95,96.488,M,37.566,M,114.6,2006*5B,37.23280595313333,137.02424634469997,679568.9788326519,4122618.5303984215
529,[2021-02-22 16:17:52.285] $GNGGA,71751.7,3713.9683573929997,N,13701.454779602,E,4,13,0.95,96.485,M,37.566,M,114.7,2006*50,37.23280595655,137.0242463267,679568.9772276038,4122618.5307433708
530,[2021-02-22 16:17:52.379] $GNGGA,71751.8,3713.9683567370002,N,13701.454779793,E,4,13,0.95,96.485,M,37.566,M,114.8,2006*52,37.23280594561667,137.02424632988337,679568.977535971,4122618.529536288
531,[2021-02-22 16:17:52.504] $GNGGA,71751.9,3713.968357335,N,13701.454779046999,E,4,13,0.95,96.484,M,37.566,M,114.9,2006*5A,37.23280595558333,137.02424631744995,679568.9764092425,4122618.530618563
532,[2021-02-22 16:17:52.582] $GNGGA,71752.0,3713.968357755,N,13701.454778768999,E,4,13,0.95,96.486,M,37.566,M,115.0,2006*52,37.232805962583335,137.02424631281664,679568.9759815703,4122618.531386467
533,[2021-02-22 16:17:52.676] $GNGGA,71752.1,3713.968358994,N,13701.454778845,E,4,13,0.95,96.484,M,37.566,M,115.1,2006*5D,37.232805983233334,137.0242463140833,679568.9760449468,4122618.533680118
534,[2021-02-22 16:17:52.785] $GNGGA,71752.2,3713.968359882,N,13701.454778846,E,4,13,0.95,96.48200000000001,M,37.566,M,115.2,2006*5F,37.232805998033335,137.0242463141,679568.9760113095,4122618.535322304
535,[2021-02-22 16:17:52.879] $GNGGA,71752.3,3713.968359563,N,13701.454778763,E,4,13,0.95,96.48200000000001,M,37.566,M,115.3,2006*55,37.23280599271666,137.02424631271666,679568.9759011968,4122618.534729761
536,[2021-02-22 16:17:53.004] $GNGGA,71752.4,3713.9683590390005,N,13701.454779512,E,4,13,0.95,96.48100000000001,M,37.566,M,115.4,2006*59,37.23280598398335,137.02424632519998,679568.9770294279,4122618.533784429
537,[2021-02-22 16:17:53.082] $GNGGA,71752.5,3713.968358263,N,13701.454780454,E,4,13,0.95,96.484,M,37.566,M,115.5,2006*55,37.23280597105,137.0242463409,679568.978453006,4122618.5323791793
538,[2021-02-22 16:17:53.176] $GNGGA,71752.6,3713.9683571009996,N,13701.454781199,E,4,13,0.95,96.48299999999999,M,37.566,M,115.6,2006*5F,37.232805951683325,137.02424635331664,679568.9796005539,4122618.5302538816
539,[2021-02-22 16:17:53.285] $GNGGA,71752.7,3713.9683575540002,N,13701.454780333,E,4,13,0.95,96.486,M,37.566,M,115.7,2006*5D,37.23280595923334,137.02424633888333,679568.97830213,4122618.531064219
540,[2021-02-22 16:17:53.379] $GNGGA,71752.8,3713.968358878,N,13701.454780823999,E,4,13,0.95,96.484,M,37.566,M,115.8,2006*5E,37.232805981300004,137.02424634706665,679568.9789757846,4122618.5335281827
541,[2021-02-22 16:17:53.504] $GNGGA,71752.9,3713.968358807,N,13701.454780852,E,4,13,0.95,96.486,M,37.566,M,115.9,2006*55,37.232805980116666,137.02424634753334,679568.9790199955,4122618.5333977686
542,[2021-02-22 16:17:53.582] $GNGGA,71753.0,3713.96835977,N,13701.454781491,E,4,13,0.95,96.484,M,37.566,M,116.0,2006*59,37.23280599616667,137.02424635818335,679568.9799267711,4122618.535198824
543,[2021-02-22 16:17:53.676] $GNGGA,71753.1,3713.9683600079998,N,13701.454782302,E,4,13,0.95,96.484,M,37.566,M,116.1,2006*55,37.23280600013333,137.0242463717,679568.9811165426,4122618.535664596
544,[2021-02-22 16:17:53.785] $GNGGA,71753.2,3713.9683584,N,13701.454784091002,E,4,13,0.95,96.485,M,37.566,M,116.2,2006*5C,37.23280597333333,137.02424640151668,679568.9838254419,4122618.532747536
545,[2021-02-22 16:17:53.879] $GNGGA,71753.3,3713.968357262,N,13701.454785683998,E,4,13,0.95,96.485,M,37.566,M,116.3,2006*52,37.23280595436667,137.02424642806665,679568.9862259347,4122618.5306934393
546,[2021-02-22 16:17:54.004] $GNGGA,71753.4,3713.9683561340003,N,13701.454787436001,E,4,13,0.95,96.484,M,37.566,M,116.4,2006*5B,37.23280593556667,137.02424645726668,679568.9888611431,4122618.5286628604
547,[2021-02-22 16:17:54.082] $GNGGA,71753.5,3713.9683552990005,N,13701.454788104,E,4,13,0.95,96.48299999999999,M,37.566,M,116.5,2006*50,37.23280592165001,137.02424646839998,679568.9898818999,4122618.527139843
548,[2021-02-22 16:17:54.176] $GNGGA,71753.6,3713.968356173,N,13701.454788392,E,4,13,0.95,96.484,M,37.566,M,116.6,2006*5E,37.23280593621666,137.02424647320004,679568.9902731929,4122618.52876521
549,[2021-02-22 16:17:54.285] $GNGGA,71753.7,3713.968358225,N,13701.454789639,E,4,13,0.95,96.48200000000001,M,37.566,M,116.7,2006*53,37.23280597041667,137.0242464939833,679568.9920359107,4122618.5325993514
550,[2021-02-22 16:17:54.379] $GNGGA,71753.8,3713.9683599090004,N,13701.454789333999,E,4,13,0.95,96.48200000000001,M,37.566,M,116.8,2006*5F,37.23280599848334,137.0242464889,679568.9915183283,4122618.5357038816
551,[2021-02-22 16:17:54.504] $GNGGA,71753.9,3713.9683609920003,N,13701.454789373,E,4,13,0.95,96.48299999999999,M,37.566,M,116.9,2006*55,37.232806016533345,137.02424648955,679568.991533166,4122618.537707877
552,[2021-02-22 16:17:54.582] $GNGGA,71754.0,3713.9683615229997,N,13701.45479137,E,4,13,0.95,96.484,M,37.566,M,117.0,2006*59,37.23280602538333,137.02424652283332,679568.9944650291,4122618.538752988
553,[2021-02-22 16:17:54.675] $GNGGA,71754.1,3713.968361435,N,13701.454792298999,E,4,13,0.95,96.484,M,37.566,M,117.1,2006*5A,37.232806023916666,137.02424653831662,679568.9958421724,4122618.5386196277
554,[2021-02-22 16:17:54.785] $GNGGA,71754.2,3713.968361997,N,13701.454791926999,E,4,13,0.95,96.48299999999999,M,37.566,M,117.2,2006*55,37.23280603328333,137.02424653211668,679568.9952698959,4122618.5396471564
555,[2021-02-22 16:17:54.879] $GNGGA,71754.3,3713.9683628840003,N,13701.45478937,E,4,13,0.95,96.484,M,37.566,M,117.3,2006*53,37.23280604806667,137.02424648950003,679568.9914539087,4122618.5412066053
556,[2021-02-22 16:17:55.004] $GNGGA,71754.4,3713.968363234,N,13701.454788263001,E,4,13,0.95,96.48299999999999,M,37.566,M,117.4,2006*56,37.232806053900006,137.02424647105002,679568.9898031997,4122618.5418188446
557,[2021-02-22 16:17:55.082] $GNGGA,71754.5,3713.968364144,N,13701.454787746,E,4,13,0.95,96.48299999999999,M,37.566,M,117.5,2006*58,37.23280606906667,137.02424646243335,679568.9890027499,4122618.543485333
558,[2021-02-22 16:17:55.176] $GNGGA,71754.6,3713.9683645570003,N,13701.454787716,E,4,13,0.95,96.48200000000001,M,37.566,M,117.6,2006*5A,37.23280607595,137.02424646193333,679568.9889420543,4122618.544248134
559,[2021-02-22 16:17:55.285] $GNGGA,71754.7,3713.968364932,N,13701.454786208998,E,4,13,0.95,96.48200000000001,M,37.566,M,117.7,2006*5F,37.2328060822,137.02424643681664,679568.9866988959,4122618.5448939577
560,[2021-02-22 16:17:55.379] $GNGGA,71754.8,3713.968364977,N,13701.454786311999,E,4,13,0.95,96.48100000000001,M,37.566,M,117.8,2006*56,37.23280608295,137.0242464385333,679568.9868494188,4122618.5449804314
561,[2021-02-22 16:17:55.504] $GNGGA,71754.9,3713.9683656409998,N,13701.454785038999,E,4,13,0.95,96.48100000000001,M,37.566,M,117.9,2006*54,37.23280609401667,137.02424641731665,679568.9849408374,4122618.5461680954
562,[2021-02-22 16:17:55.582] $GNGGA,71755.0,3713.968365123,N,13701.454785322,E,4,13,0.95,96.486,M,37.566,M,118.0,2006*57,37.23280608538334,137.02424642203331,679568.9853797805,4122618.545219121
563,[2021-02-22 16:17:55.675] $GNGGA,71755.1,3713.968365649,N,13701.45478433,E,4,13,0.95,96.488,M,37.566,M,118.1,2006*50,37.23280609415,137.02424640549998,679568.983892157,4122618.5461604684
564,[2021-02-22 16:17:55.785] $GNGGA,71755.2,3713.968365626,N,13701.454783952,E,4,13,0.95,96.48899999999999,M,37.566,M,118.2,2006*51,37.23280609376666,137.0242463992,679568.9833341374,4122618.546105983
565,[2021-02-22 16:17:55.894] $GNGGA,71755.3,3713.9683649979997,N,13701.454783627,E,4,13,0.95,96.49,M,37.566,M,118.3,2006*5F,37.2328060833,137.02424639378333,679568.9828784121,4122618.544934362
566,[2021-02-22 16:17:55.972] $GNGGA,71755.4,3713.968364121,N,13701.454784398,E,4,13,0.95,96.49,M,37.566,M,118.4,2006*53,37.23280606868333,137.02424640663335,679568.9840531371,4122618.5433369307
567,[2021-02-22 16:17:56.082] $GNGGA,71755.5,3713.9683628,N,13701.454784595,E,4,13,0.95,96.486,M,37.566,M,118.5,2006*53,37.23280604666667,137.02424640991669,679568.9843966727,4122618.540900273
568,[2021-02-22 16:17:56.175] $GNGGA,71755.6,3713.96836122,N,13701.454785185,E,4,13,0.95,96.486,M,37.566,M,118.6,2006*5C,37.232806020333335,137.02424641975003,679568.9853315637,4122618.537997079
569,[2021-02-22 16:17:56.300] $GNGGA,71755.7,3713.968360433,N,13701.454785048001,E,4,13,0.95,96.48899999999999,M,37.566,M,118.7,2006*56,37.23280600721666,137.02424641746666,679568.9851601081,4122618.5365373683
570,[2021-02-22 16:17:56.379] $GNGGA,71755.8,3713.9683610559996,N,13701.454784078,E,4,13,0.95,96.488,M,37.566,M,118.8,2006*53,37.2328060176,137.02424640129996,679568.9837011775,4122618.537658793
571,[2021-02-22 16:17:56.472] $GNGGA,71755.9,3713.968360879,N,13701.45478244,E,4,13,0.95,96.486,M,37.566,M,118.9,2006*50,37.23280601465,137.02424637399997,679568.9812861481,4122618.5372796752
572,[2021-02-22 16:17:56.582] $GNGGA,71756.0,3713.968360405,N,13701.454780442,E,4,13,0.95,96.486,M,37.566,M,119.0,2006*55,37.232806006749996,137.02424634070002,679568.9783505544,4122618.5363399396
573,[2021-02-22 16:17:56.691] $GNGGA,71756.1,3713.9683560579997,N,13701.454779223,E,4,12,1.08,96.51299999999999,M,37.566,M,4.1,2006*5F,37.232805934299996,137.02424632038336,679568.976719992,4122618.5282626073
574,[2021-02-22 16:17:56.785] $GNGGA,71756.2,3713.9683537809997,N,13701.4547782,E,4,13,0.95,96.531,M,37.566,M,4.2,2006*5D,37.23280589634999,137.02424630333337,679568.9752973833,4122618.524019465
575,[2021-02-22 16:17:56.879] $GNGGA,71756.3,3713.968353092,N,13701.454777759,E,4,13,0.95,96.542,M,37.566,M,4.3,2006*5A,37.23280588486667,137.02424629598332,679568.9746725436,4122618.522731372
576,[2021-02-22 16:17:56.972] $GNGGA,71756.4,3713.968352072,N,13701.454777986999,E,4,13,0.95,96.54700000000001,M,37.566,M,4.4,2006*5D,37.23280586786667,137.0242462997833,679568.9750500121,4122618.520852324
577,[2021-02-22 16:17:57.097] $GNGGA,71756.5,3713.96835208,N,13701.454777686002,E,4,13,0.95,96.554,M,37.566,M,4.5,2006*5C,37.232805868,137.0242462947667,679568.9746046278,4122618.520857601
578,[2021-02-22 16:17:57.175] $GNGGA,71756.6,3713.968351776,N,13701.454776568,E,4,13,0.95,96.557,M,37.566,M,4.6,2006*50,37.23280586293333,137.0242462761333,679568.9729635136,4122618.520260069
579,[2021-02-22 16:17:57.285] $GNGGA,71756.7,3713.968351932,N,13701.454776576002,E,4,13,0.95,96.56200000000001,M,37.566,M,4.7,2006*57,37.23280586553334,137.02424627626672,679568.9729691799,4122618.520548809
580,[2021-02-22 16:17:57.378] $GNGGA,71756.8,3713.968352715,N,13701.454776663,E,4,13,0.95,96.559,M,37.566,M,4.8,2006*50,37.23280587858333,137.02424627771668,679568.9730668546,4122618.5219995384
581,[2021-02-22 16:17:57.503] $GNGGA,71756.9,3713.968352622,N,13701.454776131,E,4,13,0.95,96.56700000000001,M,37.566,M,4.9,2006*58,37.23280587703334,137.02424626885002,679568.9722838898,4122618.5218107356
582,[2021-02-22 16:17:57.582] $GNGGA,71757.0,3713.968351902,N,13701.454776241,E,4,13,0.95,96.566,M,37.566,M,5.0,2006*53,37.23280586503333,137.0242462706833,679568.9724750124,4122618.520482736
583,[2021-02-22 16:17:57.675] $GNGGA,71757.1,3713.9683509009997,N,13701.454775843,E,4,13,0.95,96.569,M,37.566,M,5.1,2006*55,37.23280584835,137.02424626405002,679568.9719261006,4122618.51861903
584,[2021-02-22 16:17:57.785] $GNGGA,71757.2,3713.968351672,N,13701.454776132,E,4,13,0.95,96.56700000000001,M,37.566,M,5.2,2006*5D,37.2328058612,137.02424626886665,679568.9723229363,4122618.520053957
585,[2021-02-22 16:17:57.878] $GNGGA,71757.3,3713.968351743,N,13701.454775075,E,4,13,0.95,96.56700000000001,M,37.566,M,5.3,2006*5F,37.23280586238334,137.02424625125002,679568.9707571978,4122618.520151832
586,[2021-02-22 16:17:58.003] $GNGGA,71757.4,3713.96835184,N,13701.454775293001,E,4,13,0.95,96.569,M,37.566,M,5.4,2006*57,37.23280586400001,137.02424625488337,679568.9710757079,4122618.5203381055
587,[2021-02-22 16:17:58.082] $GNGGA,71757.5,3713.968352895,N,13701.454775012,E,4,13,0.95,96.566,M,37.566,M,5.5,2006*58,37.23280588158334,137.02424625019998,679568.9706184804,4122618.5222802022
588,[2021-02-22 16:17:58.175] $GNGGA,71757.6,3713.9683534359997,N,13701.454775131999,E,4,13,0.95,96.565,M,37.566,M,5.6,2006*5C,37.23280589059999,137.02424625219996,679568.9707745218,4122618.5232844516
589,[2021-02-22 16:17:58.285] $GNGGA,71757.7,3713.9683546590004,N,13701.454775602,E,4,13,0.95,96.565,M,37.566,M,5.7,2006*54,37.232805910983345,137.02424626003332,679568.9714211226,4122618.5255609755
590,[2021-02-22 16:17:58.378] $GNGGA,71757.8,3713.9683557840003,N,13701.454776023998,E,4,13,0.95,96.56299999999999,M,37.566,M,5.8,2006*53,37.23280592973334,137.02424626706664,679568.9720006215,4122618.5276547503
591,[2021-02-22 16:17:58.503] $GNGGA,71757.9,3713.968355022,N,13701.454776858,E,4,13,0.95,96.56700000000001,M,37.566,M,5.9,2006*5F,37.23280591703333,137.02424628096668,679568.9732639549,4122618.5262719765
592,[2021-02-22 16:17:58.582] $GNGGA,71758.0,3713.968354912,N,13701.454777778,E,4,13,0.95,96.566,M,37.566,M,6.0,2006*55,37.232805915200004,137.0242462963,679568.9746286606,4122618.5260976497
593,[2021-02-22 16:17:58.675] $GNGGA,71758.1,3713.968354573,N,13701.454776931001,E,4,13,0.95,96.568,M,37.566,M,1.1,2006*55,37.23280590955,137.02424628218336,679568.973389654,4122618.5254439623
594,[2021-02-22 16:17:58.785] $GNGGA,71758.2,3713.9683549740002,N,13701.454777922,E,4,13,0.95,96.56700000000001,M,37.566,M,1.2,2006*52,37.23280591623333,137.02424629869998,679568.974839134,4122618.526216856
595,[2021-02-22 16:17:58.878] $GNGGA,71758.3,3713.9683545559997,N,13701.454777887,E,4,13,0.95,96.57,M,37.566,M,1.3,2006*56,37.23280590926666,137.02424629811665,679568.9748039115,4122618.525442754
596,[2021-02-22 16:17:59.003] $GNGGA,71758.4,3713.96835434,N,13701.454777664,E,4,13,0.95,96.572,M,37.566,M,1.4,2006*56,37.23280590566667,137.0242462944,679568.9744827169,4122618.5250362605
597,[2021-02-22 16:17:59.081] $GNGGA,71758.5,3713.968354392,N,13701.454777515,E,4,13,0.95,96.568,M,37.566,M,1.5,2006*57,37.232805906533336,137.02424629191665,679568.9742603397,4122618.5251277112
598,[2021-02-22 16:17:59.175] $GNGGA,71758.6,3713.968354626,N,13701.454778213001,E,4,13,0.95,96.571,M,37.566,M,1.6,2006*5B,37.23280591043333,137.02424630355003,679568.9752831875,4122618.5255825114
599,[2021-02-22 16:17:59.285] $GNGGA,71758.7,3713.96835346,N,13701.454777678999,E,4,13,0.95,96.575,M,37.566,M,1.7,2006*5F,37.23280589099999,137.02424629464997,679568.9745396953,4122618.5234093736
600,[2021-02-22 16:17:59.378] $GNGGA,71758.8,3713.968353177,N,13701.454777347,E,4,13,0.95,96.57,M,37.566,M,1.8,2006*51,37.23280588628334,137.0242462891167,679568.9740599806,4122618.5228755325
601,[2021-02-22 16:17:59.503] $GNGGA,71758.9,3713.968352372,N,13701.454777108,E,4,13,0.95,96.572,M,37.566,M,1.9,2006*5C,37.23280587286667,137.02424628513333,679568.973738417,4122618.5213793106
602,[2021-02-22 16:17:59.581] $GNGGA,71759.0,3713.96835212,N,13701.454777291001,E,4,13,0.95,96.571,M,37.566,M,2.0,2006*5B,37.23280586866667,137.02424628818338,679568.9740189805,4122618.5209190813
603,[2021-02-22 16:17:59.675] $GNGGA,71759.1,3713.968350612,N,13701.454776112,E,4,13,0.95,96.56700000000001,M,37.566,M,2.1,2006*51,37.232805843533335,137.02424626853332,679568.9723352822,4122618.5180930966
604,[2021-02-22 16:17:59.785] $GNGGA,71759.2,3713.96834985,N,13701.454776941999,E,4,13,0.95,96.566,M,37.566,M,2.2,2006*5D,37.23280583083333,137.02424628236662,679568.9735926946,4122618.5167101966
605,[2021-02-22 16:17:59.894] $GNGGA,71759.3,3713.968349623,N,13701.454777945,E,4,13,0.95,96.566,M,37.566,M,2.3,2006*51,37.23280582705,137.02424629908333,679568.9750847627,4122618.5163221285
606,[2021-02-22 16:17:59.972] $GNGGA,71759.4,3713.968349474,N,13701.45477833,E,4,13,0.95,96.56200000000001,M,37.566,M,2.4,2006*52,37.232805824566675,137.02424630550001,679568.9756599368,4122618.516058763
607,[2021-02-22 16:18:00.081] $GNGGA,71759.5,3713.9683498309996,N,13701.454778325,E,4,13,0.95,96.56299999999999,M,37.566,M,2.5,2006*5A,37.23280583051667,137.02424630541668,679568.9756384253,4122618.5167187946
608,[2021-02-22 16:18:00.175] $GNGGA,71759.6,3713.968349502,N,13701.454778848001,E,4,13,0.95,96.56200000000001,M,37.566,M,2.6,2006*56,37.23280582503334,137.02424631413334,679568.9764247695,4122618.5161269205
609,[2021-02-22 16:18:00.300] $GNGGA,71759.7,3713.9683492970003,N,13701.454778098001,E,4,13,0.95,96.56700000000001,M,37.566,M,2.7,2006*5D,37.232805821616665,137.02424630163338,679568.9753238945,4122618.515724104
610,[2021-02-22 16:18:00.378] $GNGGA,71759.8,3713.968349652,N,13701.454778948,E,4,13,0.95,96.565,M,37.566,M,2.8,2006*56,37.23280582753333,137.02424631579999,679568.9765667019,4122618.5164074744
611,[2021-02-22 16:18:00.472] $GNGGA,71759.9,3713.96834911,N,13701.454779972,E,4,13,0.95,96.569,M,37.566,M,2.9,2006*53,37.232805818500005,137.02424633286665,679568.9781022735,4122618.5154375494
612,[2021-02-22 16:18:00.581] $GNGGA,71800.0,3713.968349789,N,13701.454781123,E,4,13,0.95,96.565,M,37.566,M,3.0,2006*50,37.23280582981666,137.02424635205003,679568.9797773514,4122618.5167296003
613,[2021-02-22 16:18:00.691] $GNGGA,71800.1,3713.9683505470002,N,13701.454781315,E,4,13,0.95,96.57,M,37.566,M,3.1,2006*5B,37.232805842450006,137.02424635524997,679568.9800312702,4122618.518137421
614,[2021-02-22 16:18:00.784] $GNGGA,71800.2,3713.9683506009997,N,13701.454781853,E,4,13,0.95,96.571,M,37.566,M,3.2,2006*52,37.23280584334999,137.0242463642167,679568.9808246557,4122618.518254293
615,[2021-02-22 16:18:00.878] $GNGGA,71800.3,3713.968351122,N,13701.454782823,E,4,13,0.95,96.568,M,37.566,M,3.3,2006*59,37.23280585203333,137.02424638038335,679568.9822383394,4122618.5192484376
616,[2021-02-22 16:18:00.972] $GNGGA,71800.4,3713.968350408,N,13701.454783948,E,4,13,0.95,96.572,M,37.566,M,3.4,2006*53,37.23280584013333,137.02424639913335,679568.9839300587,4122618.5179636325
617,[2021-02-22 16:18:01.097] $GNGGA,71800.5,3713.968350617,N,13701.454784857,E,4,13,0.95,96.57,M,37.566,M,3.5,2006*55,37.23280584361667,137.02424641428334,679568.9852658864,4122618.5183788743
618,[2021-02-22 16:18:01.175] $GNGGA,71800.6,3713.968351051,N,13701.454786415,E,4,13,0.95,96.56700000000001,M,37.566,M,3.6,2006*5E,37.23280585084999,137.02424644025004,679568.9875524619,4122618.5192307243
619,[2021-02-22 16:18:01.284] $GNGGA,71800.7,3713.968349927,N,13701.454785778,E,4,13,0.95,96.56299999999999,M,37.566,M,3.7,2006*50,37.23280583211667,137.02424642963334,679568.9866550106,4122618.517132
620,[2021-02-22 16:18:01.378] $GNGGA,71800.8,3713.968349466,N,13701.454785233,E,4,13,0.95,96.565,M,37.566,M,3.8,2006*54,37.23280582443333,137.02424642054999,679568.9858673753,4122618.516262251
621,[2021-02-22 16:18:01.503] $GNGGA,71800.9,3713.968349092,N,13701.454785571,E,4,13,0.95,96.56,M,37.566,M,3.9,2006*5F,37.2328058182,137.02424642618337,679568.9863819557,4122618.515581311
622,[2021-02-22 16:18:01.581] $GNGGA,71801.0,3713.968347374,N,13701.454784408,E,4,13,0.95,96.56,M,37.566,M,4.0,2006*52,37.23280578956667,137.0242464068,679568.9847302223,4122618.5123674865
623,[2021-02-22 16:18:01.675] $GNGGA,71801.1,3713.968346746,N,13701.454783133,E,4,13,0.95,96.564,M,37.566,M,4.1,2006*58,37.232805779100005,137.02424638555,679568.9828697789,4122618.511165826
624,[2021-02-22 16:18:01.784] $GNGGA,71801.2,3713.9683460140004,N,13701.454783911002,E,4,13,0.95,96.565,M,37.566,M,4.2,2006*51,37.23280576690001,137.02424639851668,679568.9840491198,4122618.5098367603
625,[2021-02-22 16:18:01.894] $GNGGA,71801.3,3713.968346075,N,13701.454783128,E,4,13,0.95,96.564,M,37.566,M,4.3,2006*55,37.232805767916666,137.02424638546665,679568.9828889223,4122618.5099248053
626,[2021-02-22 16:18:01.972] $GNGGA,71801.4,3713.968346252,N,13701.45478266,E,4,13,0.95,96.566,M,37.566,M,4.4,2006*5A,37.232805770866676,137.02424637766666,679568.9821899146,4122618.510237329
627,[2021-02-22 16:18:02.081] $GNGGA,71801.5,3713.968344529,N,13701.454783255,E,4,13,0.95,96.568,M,37.566,M,4.5,2006*5E,37.232805742150006,137.02424638758333,679568.9831378518,4122618.5070698475
628,[2021-02-22 16:18:02.175] $GNGGA,71801.6,3713.968343714,N,13701.454785638998,E,4,13,0.95,96.566,M,37.566,M,4.6,2006*53,37.23280572856667,137.02424642731663,679568.9866951824,4122618.505638075
629,[2021-02-22 16:18:02.284] $GNGGA,71801.7,3713.968343342,N,13701.454785346,E,4,13,0.95,96.566,M,37.566,M,4.7,2006*59,37.23280572236667,137.02424642243335,679568.9862766549,4122618.5049408814
630,[2021-02-22 16:18:02.394] $GNGGA,71801.8,3713.968342495,N,13701.454784442,E,4,13,0.95,96.568,M,37.566,M,4.8,2006*59,37.23280570825,137.0242464073667,679568.9849734514,4122618.503345961
631,[2021-02-22 16:18:02.472] $GNGGA,71801.9,3713.968342249,N,13701.454783889,E,4,13,0.95,96.57,M,37.566,M,4.9,2006*5B,37.23280570415,137.02424639814998,679568.9841654822,4122618.502873554
632,[2021-02-22 16:18:02.581] $GNGGA,71802.0,3713.96834259,N,13701.454782798999,E,4,13,0.95,96.568,M,37.566,M,5.0,2006*5C,37.23280570983333,137.0242463799833,679568.9825402675,4122618.5034696874
633,[2021-02-22 16:18:02.675] $GNGGA,71802.1,3713.968343318,N,13701.454783141999,E,4,13,0.95,96.568,M,37.566,M,5.1,2006*5A,37.23280572196666,137.02424638569997,679568.9830186528,4122618.504826804
634,[2021-02-22 16:18:02.784] $GNGGA,71802.2,3713.9683434020003,N,13701.454783665,E,4,13,0.95,96.568,M,37.566,M,5.2,2006*54,37.23280572336667,137.02424639441665,679568.9837886684,4122618.504998681
635,[2021-02-22 16:18:02.894] $GNGGA,71802.3,3713.968344073,N,13701.454783203,E,4,13,0.95,96.568,M,37.566,M,5.3,2006*55,37.232805734550006,137.02424638671664,679568.9830789936,4122618.506224935
636,[2021-02-22 16:18:02.972] $GNGGA,71802.4,3713.968345198,N,13701.454784336001,E,4,13,0.95,96.569,M,37.566,M,5.4,2006*51,37.2328057533,137.02424640560002,679568.9847098184,4122618.508341192
637,[2021-02-22 16:18:03.081] $GNGGA,71802.5,3713.9683466379997,N,13701.454784999,E,4,13,0.95,96.568,M,37.566,M,5.5,2006*51,37.2328057773,137.02424641664996,679568.9856332093,4122618.5110251107
638,[2021-02-22 16:18:03.175] $GNGGA,71802.6,3713.968347215,N,13701.454784532,E,4,13,0.95,96.569,M,37.566,M,5.6,2006*57,37.232805786916664,137.02424640886665,679568.9849198613,4122618.5120773716
639,[2021-02-22 16:18:03.284] $GNGGA,71802.7,3713.968348206,N,13701.45478494,E,4,13,0.95,96.56700000000001,M,37.566,M,5.7,2006*5D,37.23280580343334,137.02424641566668,679568.9854839637,4122618.5139229037
640,[2021-02-22 16:18:03.394] $GNGGA,71802.8,3713.9683473140003,N,13701.454784981,E,4,13,0.95,96.569,M,37.566,M,5.8,2006*53,37.23280578856667,137.02424641635002,679568.985579865,4122618.512274649
641,[2021-02-22 16:18:03.472] $GNGGA,71802.9,3713.968346995,N,13701.454786113001,E,4,13,0.95,96.566,M,37.566,M,5.9,2006*5F,37.23280578325,137.0242464352167,679568.9872663133,4122618.5117205256
642,[2021-02-22 16:18:03.581] $GNGGA,71803.0,3713.9683479,N,13701.454787244,E,4,13,0.95,96.564,M,37.566,M,6.0,2006*52,37.23280579833333,137.02424645406668,679568.9889028766,4122618.513429882
643,[2021-02-22 16:18:03.675] $GNGGA,71803.1,3713.968347812,N,13701.454788983001,E,4,13,0.95,96.566,M,37.566,M,1.1,2006*5A,37.232805796866664,137.02424648305,679568.9914777294,4122618.5133221345
644,[2021-02-22 16:18:03.784] $GNGGA,71803.2,3713.9683474840003,N,13701.454788422,E,4,13,0.95,96.566,M,37.566,M,1.2,2006*5F,37.23280579140001,137.02424647369998,679568.9906611743,4122618.512697835
645,[2021-02-22 16:18:03.894] $GNGGA,71803.3,3713.9683476729997,N,13701.454789671001,E,4,13,0.95,96.565,M,37.566,M,1.3,2006*53,37.232805794549996,137.0242464945167,679568.9925005378,4122618.513086842
646,[2021-02-22 16:18:03.972] $GNGGA,71803.4,3713.968346818,N,13701.454789723,E,4,13,0.95,96.566,M,37.566,M,1.4,2006*54,37.232805780300005,137.02424649538335,679568.9926112402,4122618.5115073593
647,[2021-02-22 16:18:04.081] $GNGGA,71803.5,3713.96834615,N,13701.454790213,E,4,13,0.95,96.56700000000001,M,37.566,M,1.5,2006*5E,37.23280576916667,137.02424650355002,679568.9933621972,4122618.510287539
648,[2021-02-22 16:18:04.175] $GNGGA,71803.6,3713.9683456559997,N,13701.45478997,E,4,13,0.95,96.572,M,37.566,M,1.6,2006*5E,37.232805760933324,137.0242464995,679568.9930224202,4122618.509366314
649,[2021-02-22 16:18:04.300] $GNGGA,71803.7,3713.968346461,N,13701.454790926002,E,4,13,0.95,96.571,M,37.566,M,1.7,2006*53,37.23280577434999,137.02424651543336,679568.9944041765,4122618.5108852084
650,[2021-02-22 16:18:04.378] $GNGGA,71803.8,3713.9683477020003,N,13701.454790156002,E,4,13,0.95,96.573,M,37.566,M,1.8,2006*59,37.232805795033336,137.02424650260002,679568.993216537,4122618.513155808
651,[2021-02-22 16:18:04.472] $GNGGA,71803.9,3713.9683482670002,N,13701.454789128,E,4,13,0.95,96.57600000000001,M,37.566,M,1.9,2006*54,37.23280580445,137.02424648546665,679568.991674137,4122618.51416814
652,[2021-02-22 16:18:04.581] $GNGGA,71804.0,3713.9683500509996,N,13701.454787395,E,4,13,0.95,96.575,M,37.566,M,2.0,2006*57,37.232805834183324,137.0242464565833,679568.9890410833,4122618.5174124395
653,[2021-02-22 16:18:04.690] $GNGGA,71804.1,3713.968350395,N,13701.454787788998,E,4,13,0.95,96.572,M,37.566,M,2.1,2006*52,37.23280583991667,137.02424646314998,679568.9896100657,4122618.5180610497
654,[2021-02-22 16:18:04.784] $GNGGA,71804.2,3713.968350105,N,13701.454789345,E,4,13,0.95,96.571,M,37.566,M,2.2,2006*50,37.23280583508333,137.0242464890833,679568.991922314,4122618.517573965
655,[2021-02-22 16:18:04.878] $GNGGA,71804.3,3713.968350416,N,13701.454789636002,E,4,13,0.95,96.571,M,37.566,M,2.3,2006*56,37.232805840266664,137.0242464939334,679568.9923403102,4122618.5181582905
656,[2021-02-22 16:18:04.987] $GNGGA,71804.4,3713.96835106,N,13701.454789067,E,4,13,0.95,96.571,M,37.566,M,2.4,2006*50,37.232805851,137.02424648445,679568.9914734839,4122618.5193312285
657,[2021-02-22 16:18:05.097] $GNGGA,71804.5,3713.968351562,N,13701.45478983,E,4,13,0.95,96.572,M,37.566,M,2.5,2006*5E,37.232805859366664,137.02424649716667,679568.9925818419,4122618.5202836907
658,[2021-02-22 16:18:05.175] $GNGGA,71804.6,3713.968350912,N,13701.454790278998,E,4,13,0.95,96.571,M,37.566,M,2.6,2006*58,37.23280584853333,137.02424650464997,679568.9932714576,4122618.51909586
