,Format,Time,Latitude,LatType,Longitude,LonType,Status,Satellite,LevelAccuracy,Altitude(sea),M(sea),Altitude(geoid),M(geoid),DGPS use,checksum,Lat,Lon,UTM_X,UTM_Y
990,[2021-02-22 16:15:14.430] $GPGGA,71514.0,3713.9683545999997,N,13701.4547831,E,4,12,1.2,96.5639,M,37.55,M,2.0,0000*66,37.23280590999999,137.02424638499997,679568.982510377,4122618.5256889644
991,[2021-02-22 16:15:14.508] $GPGGA,71514.1,3713.9683557,N,13701.454783899999,E,4,12,1.2,96.5646,M,37.55,M,2.0,0000*67,37.23280592833333,137.0242463983333,679568.9836497938,4122618.527748461
992,[2021-02-22 16:15:14.602] $GPGGA,71514.2,3713.9683559,N,13701.454785799999,E,4,12,1.2,96.5644,M,37.55,M,2.0,0000*6F,37.23280593166666,137.02424642999998,679568.9864513207,4122618.5281783966
993,[2021-02-22 16:15:14.727] $GPGGA,71514.3,3713.9683556,N,13701.4547884,E,4,12,1.2,96.5641,M,37.55,M,2.0,0000*65,37.23280592666667,137.02424647333333,679568.9903076801,4122618.5277058324
994,[2021-02-22 16:15:14.805] $GPGGA,71514.4,3713.9683549,N,13701.454789899999,E,4,12,1.2,96.5628,M,37.55,M,2.0,0000*6F,37.23280591500001,137.0242464983333,679568.9925533345,4122618.526458775
995,[2021-02-22 16:15:14.914] $GPGGA,71514.5,3713.9683545000003,N,13701.454789,E,4,12,1.2,96.5627,M,37.55,M,2.0,0000*64,37.23280590833334,137.02424648333331,679568.9912383698,4122618.525690607
996,[2021-02-22 16:15:14.992] $GPGGA,71514.6,3713.9683532999998,N,13701.4547885,E,4,12,1.2,96.5631,M,37.55,M,2.0,0000*65,37.232805888333324,137.02424647499998,679568.9905465016,4122618.5234556673
997,[2021-02-22 16:15:15.117] $GPGGA,71514.7,3713.9683532999998,N,13701.4547863,E,4,12,1.2,96.5634,M,37.55,M,2.0,0000*69,37.232805888333324,137.02424643833336,679568.9872934738,4122618.5233861
998,[2021-02-22 16:15:15.227] $GPGGA,71514.8,3713.9683529,N,13701.4547847,E,4,12,1.2,96.5642,M,37.55,M,2.0,0000*6A,37.23280588166666,137.02424641166664,679568.984943448,4122618.5225957963
999,[2021-02-22 16:15:15.305] $GPGGA,71514.9,3713.9683539000002,N,13701.454784200001,E,4,12,1.2,96.5639,M,37.55,M,2.0,0000*63,37.23280589833334,137.02424640333336,679568.9841645798,4122618.5244292603
1000,[2021-02-22 16:15:15.430] $GPGGA,71515.0,3713.9683545000003,N,13701.4547838,E,4,12,1.2,96.5621,M,37.55,M,3.0,0000*65,37.23280590833334,137.02424639666665,679568.9835493884,4122618.5255261753
1001,[2021-02-22 16:15:15.523] $GPGGA,71515.1,3713.9683534,N,13701.4547838,E,4,12,1.2,96.5626,M,37.55,M,3.0,0000*65,37.23280589,137.02424639666665,679568.9835928907,4122618.523491974
1002,[2021-02-22 16:15:15.617] $GPGGA,71515.2,3713.9683523000003,N,13701.454784600002,E,4,12,1.2,96.5648,M,37.55,M,3.0,0000*61,37.23280587166667,137.02424641000005,679568.9848193186,4122618.521483073
1003,[2021-02-22 16:15:15.695] $GPGGA,71515.3,3713.9683511,N,13701.4547864,E,4,12,1.2,96.5651,M,37.55,M,3.0,0000*69,37.23280585166667,137.02424644,679568.9875283428,4122618.519320865
1004,[2021-02-22 16:15:15.820] $GPGGA,71515.4,3713.9683498000004,N,13701.4547854,E,4,12,1.2,96.5671,M,37.55,M,3.0,0000*6F,37.232805830000004,137.02424642333332,679568.9861011019,4122618.516885188
1005,[2021-02-22 16:15:15.898] $GPGGA,71515.5,3713.9683486999998,N,13701.4547845,E,4,12,1.2,96.5654,M,37.55,M,3.0,0000*67,37.232805811666665,137.02424640833334,679568.9848138205,4122618.51482253
1006,[2021-02-22 16:15:16.023] $GPGGA,71515.6,3713.9683483000003,N,13701.4547831,E,4,12,1.2,96.565,M,37.55,M,3.0,0000*67,37.23280580500001,137.02424638499997,679568.982759526,4122618.514038552
1007,[2021-02-22 16:15:16.102] $GPGGA,71515.7,3713.9683473000005,N,13701.454782700002,E,4,12,1.2,96.5664,M,37.55,M,3.0,0000*69,37.232805788333344,137.02424637833337,679568.9822076196,4122618.512176631
1008,[2021-02-22 16:15:16.226] $GPGGA,71515.8,3713.9683486999998,N,13701.4547815,E,4,12,1.2,96.5649,M,37.55,M,3.0,0000*63,37.232805811666665,137.02424635833336,679568.980377869,4122618.514727665
1009,[2021-02-22 16:15:16.305] $GPGGA,71515.9,3713.9683494,N,13701.4547812,E,4,12,1.2,96.5644,M,37.55,M,3.0,0000*6A,37.23280582333334,137.02424635333333,679568.9799065898,4122618.5160126695
1010,[2021-02-22 16:15:16.430] $GPGGA,71516.0,3713.9683482,N,13701.4547818,E,4,12,1.2,96.5627,M,37.55,M,4.0,0000*6F,37.232805803333335,137.0242463633333,679568.9808412343,4122618.5138125145
1011,[2021-02-22 16:15:16.523] $GPGGA,71516.1,3713.9683493,N,13701.4547838,E,4,12,1.2,96.5634,M,37.55,M,4.0,0000*6E,37.232805821666666,137.02424639666665,679568.9837550353,4122618.515909958
1012,[2021-02-22 16:15:16.617] $GPGGA,71516.2,3713.96835,N,13701.454784,E,4,12,1.2,96.5627,M,37.55,M,4.0,0000*6B,37.23280583333334,137.0242464,679568.9840230835,4122618.517210774
1013,[2021-02-22 16:15:16.695] $GPGGA,71516.3,3713.9683496,N,13701.4547843,E,4,12,1.2,96.5636,M,37.55,M,4.0,0000*67,37.23280582666666,137.024246405,679568.9844824985,4122618.516480551
1014,[2021-02-22 16:15:16.820] $GPGGA,71516.4,3713.9683499,N,13701.454785299999,E,4,12,1.2,96.5632,M,37.55,M,4.0,0000*6A,37.23280583166667,137.02424642166665,679568.9859492802,4122618.517066954
1015,[2021-02-22 16:15:16.930] $GPGGA,71516.5,3713.9683496,N,13701.4547864,E,4,12,1.2,96.5613,M,37.55,M,4.0,0000*63,37.23280582666666,137.02424644,679568.987587664,4122618.516546956
1016,[2021-02-22 16:15:17.008] $GPGGA,71516.6,3713.9683504,N,13701.454786899998,E,4,12,1.2,96.5622,M,37.55,M,4.0,0000*65,37.23280584,137.02424644833332,679568.9882953491,4122618.5180421844
1017,[2021-02-22 16:15:17.117] $GPGGA,71516.7,3713.9683507,N,13701.4547879,E,4,12,1.2,96.5632,M,37.55,M,4.0,0000*67,37.232805845,137.02424646499998,679568.989762133,4122618.5186285875
1018,[2021-02-22 16:15:17.211] $GPGGA,71516.8,3713.9683505000003,N,13701.454786899998,E,4,12,1.2,96.564,M,37.55,M,4.0,0000*6E,37.23280584166667,137.02424644833332,679568.9882913942,4122618.5182271115
1019,[2021-02-22 16:15:17.320] $GPGGA,71516.9,3713.9683511,N,13701.454785299999,E,4,12,1.2,96.5653,M,37.55,M,4.0,0000*61,37.23280585166667,137.02424642166665,679568.9859018232,4122618.5192860803
1020,[2021-02-22 16:15:17.398] $GPGGA,71517.0,3713.9683520999997,N,13701.454783700001,E,4,12,1.2,96.5627,M,37.55,M,5.0,0000*6A,37.23280586833332,137.024246395,679568.9834964378,4122618.5210847575
1021,[2021-02-22 16:15:17.508] $GPGGA,71517.1,3713.9683520999997,N,13701.454782799998,E,4,12,1.2,96.5665,M,37.55,M,5.0,0000*63,37.23280586833332,137.02424638,679568.9821656519,4122618.5210562977
1022,[2021-02-22 16:15:17.633] $GPGGA,71517.2,3713.9683520999997,N,13701.4547822,E,4,12,1.2,96.5685,M,37.55,M,5.0,0000*64,37.23280586833332,137.02424637,679568.9812784598,4122618.521037325
1023,[2021-02-22 16:15:17.726] $GPGGA,71517.3,3713.9683511999992,N,13701.454782700002,E,4,12,1.2,96.5664,M,37.55,M,5.0,0000*6F,37.23280585333332,137.02424637833337,679568.9820533847,4122618.5193887902
1024,[2021-02-22 16:15:17.804] $GPGGA,71517.4,3713.9683517999997,N,13701.454783500001,E,4,12,1.2,96.5655,M,37.55,M,5.0,0000*63,37.23280586333333,137.02424639166668,679568.9832125729,4122618.5205236515
1025,[2021-02-22 16:15:17.930] $GPGGA,71517.5,3713.9683513000004,N,13701.454783000001,E,4,12,1.2,96.5666,M,37.55,M,5.0,0000*6C,37.232805855,137.02424638333332,679568.9824930191,4122618.5195832057
1026,[2021-02-22 16:15:18.008] $GPGGA,71517.6,3713.9683511999992,N,13701.454783200003,E,4,12,1.2,96.5657,M,37.55,M,5.0,0000*6E,37.23280585333332,137.02424638666673,679568.982792712,4122618.5194046004
1027,[2021-02-22 16:15:18.133] $GPGGA,71517.7,3713.9683508000003,N,13701.454783200003,E,4,12,1.2,96.5647,M,37.55,M,5.0,0000*65,37.23280584666667,137.02424638666673,679568.982808531,4122618.5186648946
1028,[2021-02-22 16:15:18.211] $GPGGA,71517.8,3713.9683511999992,N,13701.454783899999,E,4,12,1.2,96.5633,M,37.55,M,5.0,0000*69,37.23280585333332,137.0242463983333,679568.9838277574,4122618.5194267356
1029,[2021-02-22 16:15:18.336] $GPGGA,71517.9,3713.9683514,N,13701.454783500001,E,4,12,1.2,96.5633,M,37.55,M,5.0,0000*62,37.232805856666666,137.02424639166668,679568.9832283919,4122618.519783943
1030,[2021-02-22 16:15:18.414] $GPGGA,71518.0,3713.9683508000003,N,13701.454784099999,E,4,12,1.2,96.5625,M,37.55,M,6.0,0000*6E,37.23280584666667,137.02424640166666,679568.9841393079,4122618.518693353
1031,[2021-02-22 16:15:18.508] $GPGGA,71518.1,3713.9683515,N,13701.454783899999,E,4,12,1.2,96.5623,M,37.55,M,6.0,0000*6A,37.232805858333336,137.0242463983333,679568.9838158932,4122618.5199815193
1032,[2021-02-22 16:15:18.633] $GPGGA,71518.2,3713.9683517999997,N,13701.454783000001,E,4,12,1.2,96.5651,M,37.55,M,1.0,0000*6F,37.23280586333333,137.02424638333332,679568.9824732454,4122618.5205078414
1033,[2021-02-22 16:15:18.726] $GPGGA,71518.3,3713.9683508000003,N,13701.454782700002,E,4,12,1.2,96.5681,M,37.55,M,1.0,0000*64,37.23280584666667,137.02424637833337,679568.9820692035,4122618.518649084
1034,[2021-02-22 16:15:18.836] $GPGGA,71518.4,3713.9683502,N,13701.454782100001,E,4,12,1.2,96.5708,M,37.55,M,1.0,0000*6F,37.232805836666664,137.02424636833334,679568.9812057377,4122618.517520547
1035,[2021-02-22 16:15:18.914] $GPGGA,71518.5,3713.9683502,N,13701.4547819,E,4,12,1.2,96.5728,M,37.55,M,1.0,0000*67,37.232805836666664,137.024246365,679568.9809100085,4122618.5175142214
1036,[2021-02-22 16:15:19.039] $GPGGA,71518.6,3713.9683496,N,13701.454780700002,E,4,12,1.2,96.574,M,37.55,M,1.0,0000*69,37.23280582666666,137.02424634500002,679568.9791593573,4122618.516366713
1037,[2021-02-22 16:15:19.117] $GPGGA,71518.7,3713.9683495,N,13701.4547805,E,4,12,1.2,96.5739,M,37.55,M,1.0,0000*67,37.232805825,137.02424634166667,679568.9788675806,4122618.51617546
1038,[2021-02-22 16:15:19.226] $GPGGA,71518.8,3713.9683493,N,13701.454779799999,E,4,12,1.2,96.574,M,37.55,M,1.0,0000*6B,37.232805821666666,137.02424632999998,679568.9778404312,4122618.5157834725
1039,[2021-02-22 16:15:19.304] $GPGGA,71518.9,3713.9683492,N,13701.454779499998,E,4,12,1.2,96.575,M,37.55,M,1.0,0000*67,37.232805819999996,137.02424632499995,679568.97740079,4122618.515589058
1040,[2021-02-22 16:15:19.429] $GPGGA,71519.0,3713.9683490999996,N,13701.4547785,E,4,12,1.2,96.5712,M,37.55,M,2.0,0000*68,37.23280581833333,137.02424630833332,679568.9759260964,4122618.515372509
1041,[2021-02-22 16:15:19.523] $GPGGA,71519.1,3713.9683492,N,13701.4547785,E,4,12,1.2,96.5722,M,37.55,M,2.0,0000*69,37.232805819999996,137.02424630833332,679568.9759221418,4122618.5155574363
1042,[2021-02-22 16:15:19.633] $GPGGA,71519.2,3713.9683498000004,N,13701.4547794,E,4,12,1.2,96.573,M,37.55,M,2.0,0000*63,37.232805830000004,137.0242463233333,679568.9772291968,4122618.51669546
1043,[2021-02-22 16:15:19.711] $GPGGA,71519.3,3713.9683488000005,N,13701.454779799999,E,4,12,1.2,96.5725,M,37.55,M,2.0,0000*6B,37.232805813333336,137.02424632999998,679568.977860205,4122618.5148588372
1044,[2021-02-22 16:15:19.836] $GPGGA,71519.4,3713.9683486000004,N,13701.454780200002,E,4,12,1.2,96.5715,M,37.55,M,2.0,0000*6D,37.23280581,137.0242463366667,679568.9784595796,4122618.51450163
1045,[2021-02-22 16:15:19.914] $GPGGA,71519.5,3713.9683486999998,N,13701.454779799999,E,4,12,1.2,96.5713,M,37.55,M,2.0,0000*67,37.232805811666665,137.02424632999998,679568.9778641597,4122618.5146739087
1046,[2021-02-22 16:15:20.039] $GPGGA,71519.6,3713.9683496,N,13701.4547801,E,4,12,1.2,96.5711,M,37.55,M,2.0,0000*69,37.23280582666666,137.02424633500004,679568.9782721675,4122618.5163477403
1047,[2021-02-22 16:15:20.117] $GPGGA,71519.7,3713.9683498000004,N,13701.454780899998,E,4,12,1.2,96.572,M,37.55,M,2.0,0000*6C,37.232805830000004,137.02424634833326,679568.9794471703,4122618.5167428907
1048,[2021-02-22 16:15:20.226] $GPGGA,71519.8,3713.9683502999997,N,13701.4547815,E,4,12,1.2,96.5709,M,37.55,M,2.0,0000*66,37.23280583833332,137.02424635833336,679568.9803145931,4122618.5176864993
1049,[2021-02-22 16:15:20.304] $GPGGA,71519.9,3713.9683511999992,N,13701.4547817,E,4,12,1.2,96.5726,M,37.55,M,2.0,0000*68,37.23280585333332,137.02424636166666,679568.9805747296,4122618.519357169
1050,[2021-02-22 16:15:20.429] $GPGGA,71520.0,3713.9683511999992,N,13701.454781400002,E,4,12,1.2,96.5693,M,37.55,M,3.0,0000*66,37.23280585333332,137.0242463566667,679568.9801311381,4122618.5193476817
1051,[2021-02-22 16:15:20.539] $GPGGA,71520.1,3713.9683515,N,13701.454782299998,E,4,12,1.2,96.5708,M,37.55,M,3.0,0000*67,37.232805858333336,137.02424637166664,679568.9814500529,4122618.5199309257
1052,[2021-02-22 16:15:20.617] $GPGGA,71520.2,3713.9683515,N,13701.454782299998,E,4,12,1.2,96.5723,M,37.55,M,3.0,0000*6D,37.232805858333336,137.02424637166664,679568.9814500529,4122618.5199309257
1053,[2021-02-22 16:15:20.726] $GPGGA,71520.3,3713.968351,N,13701.4547817,E,4,12,1.2,96.5715,M,37.55,M,3.0,0000*6B,37.23280585,137.02424636166666,679568.9805826391,4122618.5189873157
1054,[2021-02-22 16:15:20.820] $GPGGA,71520.4,3713.9683514,N,13701.454781,E,4,12,1.2,96.5729,M,37.55,M,3.0,0000*60,37.232805856666666,137.02424635000003,679568.9795317679,4122618.519704889
1055,[2021-02-22 16:15:20.929] $GPGGA,71520.5,3713.9683517999997,N,13701.4547799,E,4,12,1.2,96.5718,M,37.55,M,3.0,0000*61,37.23280586333333,137.02424633166663,679568.9778894272,4122618.5204098145
1056,[2021-02-22 16:15:21.007] $GPGGA,71520.6,3713.9683508000003,N,13701.4547792,E,4,12,1.2,96.5711,M,37.55,M,3.0,0000*61,37.23280584666667,137.02424632,679568.9768939224,4122618.5185384084
1057,[2021-02-22 16:15:21.132] $GPGGA,71520.7,3713.9683509,N,13701.4547791,E,4,12,1.2,96.5695,M,37.55,M,3.0,0000*6F,37.232805848333335,137.02424631833335,679568.9767421053,4122618.518720173
1058,[2021-02-22 16:15:21.211] $GPGGA,71520.8,3713.9683511999992,N,13701.4547792,E,4,12,1.2,96.5687,M,37.55,M,3.0,0000*6A,37.23280585333332,137.02424632,679568.9768781036,4122618.519278114
1059,[2021-02-22 16:15:21.336] $GPGGA,71520.9,3713.9683515,N,13701.4547794,E,4,12,1.2,96.5671,M,37.55,M,3.0,0000*63,37.232805858333336,137.0242463233333,679568.9771619661,4122618.5198392225
1060,[2021-02-22 16:15:21.414] $GPGGA,71521.0,3713.9683508000003,N,13701.4547777,E,4,12,1.2,96.5651,M,37.55,M,4.0,0000*6F,37.23280584666667,137.02424629500004,679568.974675949,4122618.5184909757
1061,[2021-02-22 16:15:21.507] $GPGGA,71521.1,3713.968351,N,13701.454777200002,E,4,12,1.2,96.5649,M,37.55,M,4.0,0000*6B,37.23280585,137.02424628666668,679568.9739287121,4122618.518845018
1062,[2021-02-22 16:15:21.632] $GPGGA,71521.2,3713.9683517,N,13701.454776499999,E,4,12,1.2,96.5638,M,37.55,M,4.0,0000*6F,37.23280586166667,137.02424627499997,679568.9728659699,4122618.5201173746
1063,[2021-02-22 16:15:21.726] $GPGGA,71521.3,3713.9683517,N,13701.4547771,E,4,12,1.2,96.5638,M,37.55,M,4.0,0000*6B,37.23280586166667,137.024246285,679568.9737531642,4122618.520136348
1064,[2021-02-22 16:15:21.804] $GPGGA,71521.4,3713.9683529,N,13701.4547764,E,4,12,1.2,96.5643,M,37.55,M,4.0,0000*69,37.23280588166666,137.02424627333332,679568.9726706506,4122618.522333337
1065,[2021-02-22 16:15:21.929] $GPGGA,71521.5,3713.9683532,N,13701.4547766,E,4,12,1.2,96.5632,M,37.55,M,4.0,0000*66,37.23280588666667,137.02424627666664,679568.9729545156,4122618.522894445
1066,[2021-02-22 16:15:22.007] $GPGGA,71521.6,3713.9683526,N,13701.4547764,E,4,12,1.2,96.5637,M,37.55,M,4.0,0000*67,37.23280587666667,137.02424627333332,679568.9726825147,4122618.521778557
1067,[2021-02-22 16:15:22.132] $GPGGA,71521.7,3713.9683523000003,N,13701.4547764,E,4,12,1.2,96.5647,M,37.55,M,4.0,0000*64,37.23280587166667,137.02424627333332,679568.972694379,4122618.5212237756
1068,[2021-02-22 16:15:22.210] $GPGGA,71521.8,3713.9683516000005,N,13701.4547766,E,4,12,1.2,96.5663,M,37.55,M,4.0,0000*69,37.232805860000006,137.02424627666664,679568.9730177915,4122618.5199356084
1069,[2021-02-22 16:15:22.335] $GPGGA,71521.9,3713.968351,N,13701.4547762,E,4,12,1.2,96.5681,M,37.55,M,4.0,0000*66,37.23280585,137.02424627000002,679568.9724500638,4122618.5188133973
1070,[2021-02-22 16:15:22.445] $GPGGA,71522.0,3713.9683515,N,13701.454776100001,E,4,12,1.2,96.5662,M,37.55,M,5.0,0000*66,37.232805858333336,137.02424626833337,679568.9722824255,4122618.519734871
1071,[2021-02-22 16:15:22.523] $GPGGA,71522.1,3713.9683522,N,13701.4547759,E,4,12,1.2,96.5662,M,37.55,M,5.0,0000*68,37.23280587,137.02424626500002,679568.9719590108,4122618.5210230374
1072,[2021-02-22 16:15:22.632] $GPGGA,71522.2,3713.9683529,N,13701.4547752,E,4,12,1.2,96.5666,M,37.55,M,5.0,0000*6F,37.23280588166666,137.02424625333333,679568.970896271,4122618.522295392
1073,[2021-02-22 16:15:22.710] $GPGGA,71522.3,3713.9683526,N,13701.454775600001,E,4,12,1.2,96.5666,M,37.55,M,5.0,0000*65,37.23280587666667,137.02424626,679568.9714995959,4122618.5217532604
1074,[2021-02-22 16:15:22.835] $GPGGA,71522.4,3713.9683522,N,13701.4547762,E,4,12,1.2,96.5674,M,37.55,M,5.0,0000*62,37.23280587,137.02424627000002,679568.9724026069,4122618.521032524
1075,[2021-02-22 16:15:22.914] $GPGGA,71522.5,3713.9683513000004,N,13701.454775999999,E,4,12,1.2,96.5692,M,37.55,M,5.0,0000*6B,37.232805855,137.02424626666667,679568.9721424659,4122618.5193618536
1076,[2021-02-22 16:15:23.039] $GPGGA,71522.6,3713.96835,N,13701.454775600001,E,4,12,1.2,96.5673,M,37.55,M,5.0,0000*60,37.23280583333334,137.02424626,679568.9716024193,4122618.516945152
1077,[2021-02-22 16:15:23.117] $GPGGA,71522.7,3713.9683499,N,13701.4547762,E,4,12,1.2,96.5669,M,37.55,M,5.0,0000*6C,37.23280583166667,137.02424627000002,679568.9724935661,4122618.516779199
1078,[2021-02-22 16:15:23.226] $GPGGA,71522.8,3713.9683502,N,13701.454776499999,E,4,12,1.2,96.5651,M,37.55,M,5.0,0000*6C,37.232805836666664,137.02424627499997,679568.972925291,4122618.5173434657
1079,[2021-02-22 16:15:23.320] $GPGGA,71522.9,3713.9683502999997,N,13701.454776700002,E,4,12,1.2,96.564,M,37.55,M,5.0,0000*6E,37.23280583833332,137.02424627833335,679568.9732170723,4122618.517534716
1080,[2021-02-22 16:15:23.429] $GPGGA,71523.0,3713.9683508000003,N,13701.4547771,E,4,12,1.2,96.5605,M,37.55,M,6.0,0000*68,37.23280584666667,137.024246285,679568.9737887569,4122618.5184720024
1081,[2021-02-22 16:15:23.523] $GPGGA,71523.1,3713.9683511,N,13701.454777500001,E,4,12,1.2,96.5611,M,37.55,M,6.0,0000*60,37.23280585166667,137.02424629166669,679568.9743683534,4122618.519039433
1082,[2021-02-22 16:15:23.632] $GPGGA,71523.2,3713.9683502999997,N,13701.454775299999,E,4,12,1.2,96.5655,M,37.55,M,1.0,0000*63,37.23280583833332,137.02424625499998,679568.9711469567,4122618.5174904456
1083,[2021-02-22 16:15:23.710] $GPGGA,71523.3,3713.9683489,N,13701.454775299999,E,4,12,1.2,96.5693,M,37.55,M,1.0,0000*6B,37.232805815,137.02424625499998,679568.9712023232,4122618.5149014657
1084,[2021-02-22 16:15:23.835] $GPGGA,71523.4,3713.9683475999996,N,13701.4547748,E,4,12,1.2,96.5715,M,37.55,M,1.0,0000*69,37.23280579333333,137.02424624666668,679568.970514412,4122618.5124816
1085,[2021-02-22 16:15:23.913] $GPGGA,71523.5,3713.9683469000006,N,13701.4547755,E,4,12,1.2,96.5733,M,37.55,M,1.0,0000*6E,37.23280578166668,137.02424625833333,679568.9715771518,4122618.511209248
1086,[2021-02-22 16:15:24.038] $GPGGA,71523.6,3713.9683475,N,13701.454774599999,E,4,12,1.2,96.5753,M,37.55,M,1.0,0000*64,37.232805791666664,137.0242462433333,679568.9702226329,4122618.512290349
1087,[2021-02-22 16:15:24.132] $GPGGA,71523.7,3713.9683478,N,13701.454773500001,E,4,12,1.2,96.5761,M,37.55,M,1.0,0000*6D,37.23280579666667,137.024246225,679568.9685842581,4122618.5128103476
1088,[2021-02-22 16:15:24.210] $GPGGA,71523.8,3713.9683483999997,N,13701.4547732,E,4,12,1.2,96.5759,M,37.55,M,1.0,0000*6D,37.23280580666666,137.02424621999998,679568.9681169314,4122618.513910424
1089,[2021-02-22 16:15:24.335] $GPGGA,71523.9,3713.968349,N,13701.4547724,E,4,12,1.2,96.5767,M,37.55,M,1.0,0000*63,37.23280581666667,137.02424620666667,679568.9669102861,4122618.514994691
1090,[2021-02-22 16:15:24.413] $GPGGA,71524.0,3713.9683495,N,13701.454772699999,E,4,12,1.2,96.5742,M,37.55,M,2.0,0000*6F,37.232805825,137.02424621166662,679568.9673341017,4122618.515928813
1091,[2021-02-22 16:15:24.507] $GPGGA,71524.1,3713.9683504,N,13701.4547724,E,4,12,1.2,96.5722,M,37.55,M,2.0,0000*62,37.23280584,137.02424620666667,679568.9668549197,4122618.517583671
1092,[2021-02-22 16:15:24.617] $GPGGA,71524.2,3713.9683492,N,13701.4547722,E,4,12,1.2,96.5724,M,37.55,M,2.0,0000*6F,37.232805819999996,137.02424620333335,679568.9666066451,4122618.51535822
1093,[2021-02-22 16:15:24.726] $GPGGA,71524.3,3713.9683494,N,13701.454772699999,E,4,12,1.2,96.5709,M,37.55,M,2.0,0000*62,37.23280582333334,137.02424621166662,679568.9673380564,4122618.5157438857
1094,[2021-02-22 16:15:24.820] $GPGGA,71524.4,3713.9683505000003,N,13701.4547729,E,4,12,1.2,96.5701,M,37.55,M,2.0,0000*6A,37.23280584166667,137.02424621500003,679568.9675902925,4122618.5177844106
1095,[2021-02-22 16:15:24.929] $GPGGA,71524.5,3713.9683504,N,13701.4547731,E,4,12,1.2,96.5695,M,37.55,M,2.0,0000*6F,37.23280584,137.02424621833333,679568.9678899741,4122618.5176058062
1096,[2021-02-22 16:15:25.007] $GPGGA,71524.6,3713.9683504,N,13701.4547724,E,4,12,1.2,96.5705,M,37.55,M,2.0,0000*60,37.23280584,137.02424620666667,679568.9668549197,4122618.517583671
1097,[2021-02-22 16:15:25.132] $GPGGA,71524.7,3713.9683513000004,N,13701.454772,E,4,12,1.2,96.5708,M,37.55,M,2.0,0000*6E,37.232805855,137.0242462,679568.9662278641,4122618.519235368
1098,[2021-02-22 16:15:25.210] $GPGGA,71524.8,3713.9683511,N,13701.454772100002,E,4,12,1.2,96.571,M,37.55,M,2.0,0000*6B,37.23280585166667,137.0242462016667,679568.9663836427,4122618.518868676
1099,[2021-02-22 16:15:25.335] $GPGGA,71524.9,3713.9683507,N,13701.454771200002,E,4,12,1.2,96.571,M,37.55,M,2.0,0000*6D,37.232805845,137.02424618666672,679568.9650686781,4122618.518100508
1100,[2021-02-22 16:15:25.413] $GPGGA,71525.0,3713.9683502999997,N,13701.4547697,E,4,12,1.2,96.5689,M,37.55,M,3.0,0000*6D,37.23280583833332,137.0242461616667,679568.9628665192,4122618.517313365
1101,[2021-02-22 16:15:25.523] $GPGGA,71525.1,3713.9683494,N,13701.454767399999,E,4,12,1.2,96.5684,M,37.55,M,3.0,0000*63,37.23280582333334,137.02424612333334,679568.9595012127,4122618.5155762914
1102,[2021-02-22 16:15:25.632] $GPGGA,71525.2,3713.9683486000004,N,13701.454764200002,E,4,12,1.2,96.5669,M,37.55,M,3.0,0000*65,37.23280581,137.02424607000003,679568.9548011724,4122618.5139956847
1103,[2021-02-22 16:15:25.726] $GPGGA,71525.3,3713.9683493,N,13701.454762700001,E,4,12,1.2,96.5652,M,37.55,M,3.0,0000*6B,37.232805821666666,137.024246045,679568.9525555111,4122618.5152427433
1104,[2021-02-22 16:15:25.804] $GPGGA,71525.4,3713.9683486000004,N,13701.454760499999,E,4,12,1.2,96.5662,M,37.55,M,3.0,0000*6B,37.23280581,137.0242460083333,679568.9493301598,4122618.513878684
1105,[2021-02-22 16:15:25.929] $GPGGA,71525.5,3713.9683462,N,13701.4547595,E,4,12,1.2,96.5654,M,37.55,M,3.0,0000*6F,37.23280577,137.02424599166667,679568.9479464279,4122618.50940881
1106,[2021-02-22 16:15:26.038] $GPGGA,71525.6,3713.9683450999996,N,13701.454760600001,E,4,12,1.2,96.5663,M,37.55,M,3.0,0000*61,37.23280575166666,137.02424601,679568.949616445,4122618.5074093947
1107,[2021-02-22 16:15:26.116] $GPGGA,71525.7,3713.9683439000005,N,13701.4547616,E,4,12,1.2,96.5677,M,37.55,M,3.0,0000*6A,37.23280573166667,137.02424602666665,679568.9511425502,4122618.50522189
1108,[2021-02-22 16:15:26.226] $GPGGA,71525.8,3713.9683418000004,N,13701.454762200001,E,4,12,1.2,96.5674,M,37.55,M,3.0,0000*62,37.232805696666674,137.02424603666668,679568.9521127918,4122618.501357391
1109,[2021-02-22 16:15:26.320] $GPGGA,71525.9,3713.9683405999995,N,13701.4547611,E,4,12,1.2,96.5671,M,37.55,M,3.0,0000*69,37.23280567666666,137.02424601833334,679568.9505337338,4122618.49910348
1110,[2021-02-22 16:15:26.429] $GPGGA,71526.0,3713.9683397,N,13701.4547602,E,4,12,1.2,96.5646,M,37.55,M,4.0,0000*6D,37.23280566166667,137.02424600333333,679568.9492385407,4122618.4974106755
1111,[2021-02-22 16:15:26.523] $GPGGA,71526.1,3713.96834,N,13701.4547589,E,4,12,1.2,96.565,M,37.55,M,4.0,0000*62,37.23280566666666,137.02424598166664,679568.9473044277,4122618.497924348
1112,[2021-02-22 16:15:26.632] $GPGGA,71526.2,3713.9683395,N,13701.454759399998,E,4,12,1.2,96.5647,M,37.55,M,4.0,0000*60,37.232805658333334,137.02424598999994,679568.9480635244,4122618.497015524
1113,[2021-02-22 16:15:26.710] $GPGGA,71526.3,3713.9683384000004,N,13701.454761200002,E,4,12,1.2,96.5645,M,37.55,M,4.0,0000*6E,37.23280564,137.02424602000005,679568.9507686073,4122618.4950382435
1114,[2021-02-22 16:15:26.835] $GPGGA,71526.4,3713.9683367,N,13701.4547632,E,4,12,1.2,96.5652,M,37.55,M,4.0,0000*60,37.23280561166666,137.02424605333331,679568.9537931322,4122618.491957724
1115,[2021-02-22 16:15:26.913] $GPGGA,71526.5,3713.9683363000004,N,13701.4547676,E,4,12,1.2,96.5632,M,37.55,M,4.0,0000*63,37.232805605,137.02424612666667,679568.9603150159,4122618.4913571496
1116,[2021-02-22 16:15:27.038] $GPGGA,71526.6,3713.9683376999997,N,13701.454770200002,E,4,12,1.2,96.5662,M,37.55,M,4.0,0000*62,37.23280562833333,137.02424617000003,679568.9641041425,4122618.494028346
1117,[2021-02-22 16:15:27.116] $GPGGA,71526.7,3713.9683386999995,N,13701.454770200002,E,4,12,1.2,96.5682,M,37.55,M,4.0,0000*62,37.232805645,137.02424617000003,679568.964064595,4122618.495877619
1118,[2021-02-22 16:15:27.226] $GPGGA,71526.8,3713.9683395,N,13701.454771200002,E,4,12,1.2,96.5668,M,37.55,M,4.0,0000*6B,37.232805658333334,137.02424618666672,679568.9655116098,4122618.4973886586
1119,[2021-02-22 16:15:27.304] $GPGGA,71526.9,3713.9683393,N,13701.454770800001,E,4,12,1.2,96.5639,M,37.55,M,4.0,0000*63,37.232805655,137.02424618,679568.964928054,4122618.497006155
1120,[2021-02-22 16:15:27.429] $GPGGA,71527.0,3713.9683388000003,N,13701.4547685,E,4,12,1.2,96.5627,M,37.55,M,5.0,0000*6B,37.23280564666667,137.02424614166665,679568.961546931,4122618.4960087896
1121,[2021-02-22 16:15:27.523] $GPGGA,71527.1,3713.9683386,N,13701.454767200003,E,4,12,1.2,96.5609,M,37.55,M,5.0,0000*60,37.232805643333336,137.02424612000004,679568.9596325983,4122618.4955978277
1122,[2021-02-22 16:15:27.632] $GPGGA,71527.2,3713.9683378,N,13701.454766699999,E,4,12,1.2,96.5507,M,37.55,M,5.0,0000*6B,37.23280563,137.02424611166666,679568.9589249066,4122618.494102598
1123,[2021-02-22 16:15:27.741] $GPGGA,71527.3,3713.9683368,N,13701.454767399999,E,4,12,1.2,96.541,M,37.55,M,5.0,0000*6E,37.23280561333333,137.02424612333334,679568.9599995108,4122618.4922754625
1124,[2021-02-22 16:15:27.819] $GPGGA,71527.4,3713.9683379000003,N,13701.4547685,E,4,12,1.2,96.535,M,37.55,M,5.0,0000*64,37.23280563166667,137.02424614166665,679568.9615825235,4122618.4943444454
1125,[2021-02-22 16:15:27.929] $GPGGA,71527.5,3713.968338,N,13701.454768900001,E,4,12,1.2,96.5333,M,37.55,M,5.0,0000*6A,37.232805633333335,137.02424614833336,679568.9621700317,4122618.4945420213
1126,[2021-02-22 16:15:28.007] $GPGGA,71527.6,3713.968338,N,13701.4547696,E,4,12,1.2,96.5317,M,37.55,M,5.0,0000*61,37.232805633333335,137.02424616000005,679568.9632050884,4122618.494564157
1127,[2021-02-22 16:15:28.132] $GPGGA,71527.7,3713.9683384000004,N,13701.4547692,E,4,12,1.2,96.5324,M,37.55,M,5.0,0000*60,37.23280564,137.02424615333334,679568.9625978065,4122618.4952912163
1128,[2021-02-22 16:15:28.210] $GPGGA,71527.8,3713.9683386,N,13701.454771200002,E,4,12,1.2,96.5306,M,37.55,M,5.0,0000*64,37.232805643333336,137.02424618666672,679568.9655472024,4122618.4957243134
1129,[2021-02-22 16:15:28.335] $GPGGA,71527.9,3713.9683395999996,N,13701.454772699999,E,4,12,1.2,96.53,M,37.55,M,5.0,0000*64,37.23280565999999,137.02424621166662,679568.9677256217,4122618.497621017
1130,[2021-02-22 16:15:28.413] $GPGGA,71528.0,3713.9683405999995,N,13701.454773299998,E,4,12,1.2,96.5276,M,37.55,M,6.0,0000*6A,37.23280567666666,137.02424622166663,679568.9685732662,4122618.4994892627
1131,[2021-02-22 16:15:28.507] $GPGGA,71528.1,3713.9683412,N,13701.454772799998,E,4,12,1.2,96.5288,M,37.55,M,6.0,0000*65,37.23280568666666,137.02424621333327,679568.9678102103,4122618.500583015
1132,[2021-02-22 16:15:28.616] $GPGGA,71528.2,3713.96834,N,13701.454772799998,E,4,12,1.2,96.5328,M,37.55,M,1.0,0000*69,37.23280566666666,137.02424621333327,679568.9678576672,4122618.4983638874
1133,[2021-02-22 16:15:28.726] $GPGGA,71528.3,3713.9683403000004,N,13701.454774000002,E,4,12,1.2,96.5334,M,37.55,M,1.0,0000*68,37.232805671666675,137.02424623333334,679568.9696201894,4122618.4989566174
1134,[2021-02-22 16:15:28.804] $GPGGA,71528.4,3713.9683405999995,N,13701.4547757,E,4,12,1.2,96.5378,M,37.55,M,1.0,0000*64,37.23280567666666,137.02424626166666,679568.9721220301,4122618.4995651543
1135,[2021-02-22 16:15:28.929] $GPGGA,71528.5,3713.968344,N,13701.4547803,E,4,12,1.2,96.5404,M,37.55,M,1.0,0000*65,37.23280573333333,137.02424633833334,679568.9787893603,4122618.5059981397
1136,[2021-02-22 16:15:29.007] $GPGGA,71528.6,3713.9683486000004,N,13701.454786000002,E,4,12,1.2,96.5401,M,37.55,M,1.0,0000*6C,37.23280581,137.02424643333336,679568.9870357532,4122618.5146850343
1137,[2021-02-22 16:15:29.132] $GPGGA,71528.7,3713.9683524,N,13701.454792800001,E,4,12,1.2,96.5397,M,37.55,M,1.0,0000*61,37.232805873333334,137.0242465466667,679568.9969402944,4122618.5219272957
1138,[2021-02-22 16:15:29.210] $GPGGA,71528.8,3713.9683552,N,13701.4547977,E,4,12,1.2,96.5414,M,37.55,M,1.0,0000*69,37.232805920000004,137.02424662833334,679569.0040749492,4122618.527260205
1139,[2021-02-22 16:15:29.335] $GPGGA,71528.9,3713.9683545000003,N,13701.4547978,E,4,12,1.2,96.5398,M,37.55,M,1.0,0000*62,37.23280590833334,137.02424663,679569.0042504946,4122618.5259688767
1140,[2021-02-22 16:15:29.413] $GPGGA,71529.0,3713.9683526999993,N,13701.454796,E,4,12,1.2,96.5371,M,37.55,M,2.0,0000*63,37.23280587833332,137.02424659999997,679569.0016601084,4122618.522583266
1141,[2021-02-22 16:15:29.507] $GPGGA,71529.1,3713.9683485,N,13701.454792299997,E,4,12,1.2,96.5384,M,37.55,M,2.0,0000*66,37.23280580833333,137.0242465383333,679568.9963551998,4122618.5146993236
1142,[2021-02-22 16:15:29.632] $GPGGA,71529.2,3713.9683473000005,N,13701.454789399999,E,4,12,1.2,96.5389,M,37.55,M,2.0,0000*6C,37.232805788333344,137.02424648999997,679568.99211457,4122618.512388496
1143,[2021-02-22 16:15:29.710] $GPGGA,71529.3,3713.9683482,N,13701.4547875,E,4,12,1.2,96.5394,M,37.55,M,2.0,0000*60,37.232805803333335,137.02424645833335,679568.9892695455,4122618.5139927575
1144,[2021-02-22 16:15:29.835] $GPGGA,71529.4,3713.9683475999996,N,13701.454788299998,E,4,12,1.2,96.5379,M,37.55,M,2.0,0000*66,37.23280579333333,137.02424647166663,679568.9904761908,4122618.512908491
1145,[2021-02-22 16:15:29.913] $GPGGA,71529.5,3713.9683475999996,N,13701.454789,E,4,12,1.2,96.5374,M,37.55,M,2.0,0000*68,37.23280579333333,137.02424648333331,679568.9915112475,4122618.5129306265
1146,[2021-02-22 16:15:30.038] $GPGGA,71529.6,3713.968348,N,13701.454790600003,E,4,12,1.2,96.537,M,37.55,M,2.0,0000*68,37.2328058,137.02424651000004,679568.9938612732,4122618.513720931
1147,[2021-02-22 16:15:30.116] $GPGGA,71529.7,3713.9683465999997,N,13701.454791600001,E,4,12,1.2,96.5369,M,37.55,M,2.0,0000*68,37.23280577666666,137.02424652666667,679568.9953952879,4122618.5111635714
1148,[2021-02-22 16:15:30.226] $GPGGA,71529.8,3713.9683442,N,13701.454791799999,E,4,12,1.2,96.5382,M,37.55,M,2.0,0000*6A,37.23280573666666,137.02424652999997,679568.9957859288,4122618.5067316415
1149,[2021-02-22 16:15:30.304] $GPGGA,71529.9,3713.9683425,N,13701.4547919,E,4,12,1.2,96.5393,M,37.55,M,2.0,0000*6B,37.23280570833334,137.02424653166665,679568.9960010264,4122618.5035910425
1150,[2021-02-22 16:15:30.429] $GPGGA,71530.0,3713.968342,N,13701.4547898,E,4,12,1.2,96.537,M,37.55,M,3.0,0000*6B,37.23280570000001,137.02424649666665,679568.9929156345,4122618.502600001
1151,[2021-02-22 16:15:30.522] $GPGGA,71530.1,3713.9683435999996,N,13701.454788799998,E,4,12,1.2,96.5398,M,37.55,M,3.0,0000*6A,37.23280572666666,137.02424647999996,679568.9913737059,4122618.5055272137
1152,[2021-02-22 16:15:30.632] $GPGGA,71530.2,3713.9683446000004,N,13701.454788299998,E,4,12,1.2,96.5406,M,37.55,M,3.0,0000*65,37.232805743333344,137.02424647166663,679568.9905948332,4122618.5073606777
1153,[2021-02-22 16:15:30.710] $GPGGA,71530.3,3713.9683446000004,N,13701.4547886,E,4,12,1.2,96.5408,M,37.55,M,3.0,0000*6F,37.232805743333344,137.02424647666666,679568.9910384314,4122618.5073701637
1154,[2021-02-22 16:15:30.835] $GPGGA,71530.4,3713.9683456999996,N,13701.454789500001,E,4,12,1.2,96.5415,M,37.55,M,3.0,0000*66,37.23280576166666,137.0242464916667,679568.9923257174,4122618.50943282
1155,[2021-02-22 16:15:30.913] $GPGGA,71530.5,3713.9683475,N,13701.45479,E,4,12,1.2,96.5425,M,37.55,M,3.0,0000*69,37.232805791666664,137.0242465,679568.9929938549,4122618.512777322
1156,[2021-02-22 16:15:31.038] $GPGGA,71530.6,3713.9683483999997,N,13701.4547903,E,4,12,1.2,96.5403,M,37.55,M,3.0,0000*63,37.23280580666666,137.02424650499998,679568.9934018537,4122618.514451153
1157,[2021-02-22 16:15:31.116] $GPGGA,71530.7,3713.9683483999997,N,13701.454788799998,E,4,12,1.2,96.5393,M,37.55,M,3.0,0000*6E,37.23280580666666,137.02424647999996,679568.9911838779,4122618.51440372
1158,[2021-02-22 16:15:31.225] $GPGGA,71530.8,3713.9683464,N,13701.454787399998,E,4,12,1.2,96.5379,M,37.55,M,3.0,0000*68,37.23280577333333,137.02424645666665,679568.9891928642,4122618.5106609054
1159,[2021-02-22 16:15:31.335] $GPGGA,71530.9,3713.9683446000004,N,13701.4547864,E,4,12,1.2,96.5378,M,37.55,M,3.0,0000*69,37.232805743333344,137.02424644,679568.9877854014,4122618.507300596
1160,[2021-02-22 16:15:31.413] $GPGGA,71531.0,3713.9683431999997,N,13701.4547856,E,4,12,1.2,96.5358,M,37.55,M,4.0,0000*66,37.232805719999995,137.02424642666668,679568.9866578466,4122618.504686316
1161,[2021-02-22 16:15:31.507] $GPGGA,71531.1,3713.9683428000003,N,13701.4547873,E,4,12,1.2,96.5366,M,37.55,M,4.0,0000*66,37.23280571333334,137.024246455,679568.9891873704,4122618.5040003653
1162,[2021-02-22 16:15:31.632] $GPGGA,71531.2,3713.9683445,N,13701.454789,E,4,12,1.2,96.5363,M,37.55,M,4.0,0000*66,37.232805741666674,137.02424648333331,679568.9916338446,4122618.507197884
1163,[2021-02-22 16:15:31.725] $GPGGA,71531.3,3713.9683462,N,13701.454790799999,E,4,12,1.2,96.5361,M,37.55,M,4.0,0000*60,37.23280577,137.02424651333334,679568.9942281856,4122618.5103985653
1164,[2021-02-22 16:15:31.804] $GPGGA,71531.4,3713.9683460999995,N,13701.4547893,E,4,12,1.2,96.5375,M,37.55,M,4.0,0000*62,37.23280576833333,137.02424648833332,679568.9920141647,4122618.510166204
1165,[2021-02-22 16:15:31.929] $GPGGA,71531.5,3713.9683456999996,N,13701.4547873,E,4,12,1.2,96.5384,M,37.55,M,4.0,0000*66,37.23280576166666,137.024246455,679568.9890726828,4122618.5093632527
1166,[2021-02-22 16:15:32.007] $GPGGA,71531.6,3713.9683459,N,13701.4547845,E,4,12,1.2,96.5386,M,37.55,M,4.0,0000*6C,37.232805764999995,137.02424640833334,679568.9849245533,4122618.509644568
1167,[2021-02-22 16:15:32.132] $GPGGA,71531.7,3713.9683448,N,13701.454782799998,E,4,12,1.2,96.5399,M,37.55,M,4.0,0000*68,37.23280574666666,137.02424638,679568.9824543485,4122618.5075566103
1168,[2021-02-22 16:15:32.210] $GPGGA,71531.8,3713.9683433,N,13701.454784399999,E,4,12,1.2,96.5414,M,37.55,M,4.0,0000*63,37.23280572166667,137.02424640666666,679568.9848795099,4122618.5048332973
1169,[2021-02-22 16:15:32.335] $GPGGA,71531.9,3713.9683425,N,13701.4547854,E,4,12,1.2,96.5397,M,37.55,M,4.0,0000*68,37.23280570833334,137.02424642333332,679568.9863897983,4122618.5033855024
1170,[2021-02-22 16:15:32.413] $GPGGA,71532.0,3713.9683427,N,13701.454786100001,E,4,12,1.2,96.5384,M,37.55,M,5.0,0000*65,37.23280571166667,137.024246435,679568.9874169455,4122618.5037774923
1171,[2021-02-22 16:15:32.507] $GPGGA,71532.1,3713.9683410999996,N,13701.4547863,E,4,12,1.2,96.5386,M,37.55,M,5.0,0000*61,37.23280568499999,137.02424643833336,679568.987775953,4122618.500824978
1172,[2021-02-22 16:15:32.632] $GPGGA,71532.2,3713.9683408,N,13701.454787399998,E,4,12,1.2,96.5404,M,37.55,M,5.0,0000*61,37.232805680000006,137.02424645666665,679568.98941433,4122618.5003049825
1173,[2021-02-22 16:15:32.725] $GPGGA,71532.3,3713.9683395999996,N,13701.454789,E,4,12,1.2,96.5421,M,37.55,M,5.0,0000*6D,37.23280565999999,137.02424648333331,679568.9918276272,4122618.4981364477
1174,[2021-02-22 16:15:32.803] $GPGGA,71532.4,3713.9683388000003,N,13701.454789500001,E,4,12,1.2,96.5404,M,37.55,M,5.0,0000*67,37.23280564666667,137.0242464916667,679568.9925985949,4122618.496672843
1175,[2021-02-22 16:15:32.928] $GPGGA,71532.5,3713.9683388999997,N,13701.454789700001,E,4,12,1.2,96.5435,M,37.55,M,5.0,0000*67,37.23280564833333,137.024246495,679568.9928903672,4122618.496864094
1176,[2021-02-22 16:15:33.038] $GPGGA,71532.6,3713.9683382,N,13701.4547896,E,4,12,1.2,96.5441,M,37.55,M,5.0,0000*6D,37.23280563666667,137.02424649333335,679568.992770188,4122618.4955664426
1177,[2021-02-22 16:15:33.116] $GPGGA,71532.7,3713.9683397,N,13701.454788299998,E,4,12,1.2,96.5441,M,37.55,M,5.0,0000*6C,37.23280566166667,137.02424647166663,679568.9907886158,4122618.4982992415
1178,[2021-02-22 16:15:33.225] $GPGGA,71532.8,3713.968339,N,13701.454788100002,E,4,12,1.2,96.5429,M,37.55,M,5.0,0000*68,37.23280565,137.0242464683334,679568.9905205766,4122618.4969984274
1179,[2021-02-22 16:15:33.319] $GPGGA,71532.9,3713.9683380999995,N,13701.454788699999,E,4,12,1.2,96.5429,M,37.55,M,5.0,0000*6F,37.232805635,137.0242464783333,679568.9914433524,4122618.4953530543
1180,[2021-02-22 16:15:33.444] $GPGGA,71533.0,3713.9683371,N,13701.454790099999,E,4,12,1.2,96.5422,M,37.55,M,6.0,0000*6F,37.23280561833334,137.02424650166665,679568.993553011,4122618.493548054
1181,[2021-02-22 16:15:33.522] $GPGGA,71533.1,3713.9683365999995,N,13701.4547925,E,4,12,1.2,96.5425,M,37.55,M,6.0,0000*69,37.232805609999986,137.02424654166668,679568.9971215485,4122618.4926993065
1182,[2021-02-22 16:15:33.632] $GPGGA,71533.2,3713.9683361999996,N,13701.454792899998,E,4,12,1.2,96.5432,M,37.55,M,1.0,0000*63,37.23280560333333,137.02424654833328,679568.9977288214,4122618.491972248
1183,[2021-02-22 16:15:33.710] $GPGGA,71533.3,3713.9683361999996,N,13701.4547925,E,4,12,1.2,96.5447,M,37.55,M,1.0,0000*6C,37.23280560333333,137.02424654166668,679568.9971373675,4122618.4919595993
1184,[2021-02-22 16:15:33.835] $GPGGA,71533.4,3713.9683364,N,13701.454791799999,E,4,12,1.2,96.5435,M,37.55,M,1.0,0000*66,37.232805606666666,137.02424652999997,679568.996094399,4122618.4923073193
1185,[2021-02-22 16:15:33.913] $GPGGA,71533.5,3713.9683367,N,13701.4547905,E,4,12,1.2,96.5449,M,37.55,M,1.0,0000*63,37.23280561166666,137.02424650833333,679568.9941602928,4122618.492820993
1186,[2021-02-22 16:15:34.038] $GPGGA,71533.6,3713.968337,N,13701.454790799999,E,4,12,1.2,96.5452,M,37.55,M,1.0,0000*61,37.23280561666667,137.02424651333334,679568.9945920224,4122618.493385261
1187,[2021-02-22 16:15:34.116] $GPGGA,71533.7,3713.9683380999995,N,13701.4547917,E,4,12,1.2,96.546,M,37.55,M,1.0,0000*61,37.232805635,137.02424652833332,679568.995879306,4122618.495447919
1188,[2021-02-22 16:15:34.225] $GPGGA,71533.8,3713.9683393,N,13701.454792899998,E,4,12,1.2,96.5487,M,37.55,M,1.0,0000*69,37.232805655,137.02424654833328,679568.9976062241,4122618.497704992
1189,[2021-02-22 16:15:34.303] $GPGGA,71533.9,3713.9683386,N,13701.4547931,E,4,12,1.2,96.5484,M,37.55,M,1.0,0000*66,37.232805643333336,137.0242465516667,679568.9979296456,4122618.4964168263
1190,[2021-02-22 16:15:34.428] $GPGGA,71534.0,3713.9683382,N,13701.454792100001,E,4,12,1.2,96.547,M,37.55,M,2.0,0000*65,37.23280563666667,137.024246535,679568.9964668119,4122618.4956454965
1191,[2021-02-22 16:15:34.522] $GPGGA,71534.1,3713.9683393,N,13701.4547931,E,4,12,1.2,96.5486,M,37.55,M,2.0,0000*6C,37.232805655,137.0242465516667,679568.9979019624,4122618.4977113167
1192,[2021-02-22 16:15:34.631] $GPGGA,71534.2,3713.9683393,N,13701.454795299998,E,4,12,1.2,96.5475,M,37.55,M,2.0,0000*67,37.232805655,137.02424658833328,679569.0011549857,4122618.4977808837
1193,[2021-02-22 16:15:34.710] $GPGGA,71534.3,3713.9683388000003,N,13701.454796200002,E,4,12,1.2,96.5484,M,37.55,M,2.0,0000*60,37.23280564666667,137.02424660333338,679569.0025055544,4122618.496884708
1194,[2021-02-22 16:15:34.835] $GPGGA,71534.4,3713.9683399000005,N,13701.454796099999,E,4,12,1.2,96.5463,M,37.55,M,2.0,0000*6D,37.23280566500001,137.02424660166662,679569.0023141785,4122618.498915746
1195,[2021-02-22 16:15:34.928] $GPGGA,71534.5,3713.9683397,N,13701.4547947,E,4,12,1.2,96.5463,M,37.55,M,2.0,0000*66,37.23280566166667,137.0242465783333,679569.0002519792,4122618.4985016203
1196,[2021-02-22 16:15:35.006] $GPGGA,71534.6,3713.9683395,N,13701.4547924,E,4,12,1.2,96.5484,M,37.55,M,2.0,0000*6B,37.232805658333334,137.02424654,679568.9968589962,4122618.4980590357
1197,[2021-02-22 16:15:35.131] $GPGGA,71534.7,3713.9683397,N,13701.454790600003,E,4,12,1.2,96.5482,M,37.55,M,2.0,0000*6E,37.23280566166667,137.02424651000004,679568.9941895173,4122618.498371972
1198,[2021-02-22 16:15:35.210] $GPGGA,71534.8,3713.9683391000003,N,13701.4547904,E,4,12,1.2,96.5477,M,37.55,M,2.0,0000*6F,37.23280565166667,137.02424650666663,679568.9939175098,4122618.497256085
1199,[2021-02-22 16:15:35.335] $GPGGA,71534.9,3713.9683380999995,N,13701.454791600001,E,4,12,1.2,96.5481,M,37.55,M,2.0,0000*65,37.232805635,137.02424652666667,679568.9957314414,4122618.4954447555
1200,[2021-02-22 16:15:35.413] $GPGGA,71535.0,3713.9683369000004,N,13701.454792899998,E,4,12,1.2,96.5451,M,37.55,M,3.0,0000*6B,37.232805615000004,137.02424654833328,679568.997701138,4122618.493266739
1201,[2021-02-22 16:15:35.506] $GPGGA,71535.1,3713.9683372,N,13701.4547912,E,4,12,1.2,96.5465,M,37.55,M,3.0,0000*6F,37.23280562,137.02424652000002,679568.9951755757,4122618.4937677635
1202,[2021-02-22 16:15:35.616] $GPGGA,71535.2,3713.968338,N,13701.454788,E,4,12,1.2,96.5446,M,37.55,M,3.0,0000*6A,37.232805633333335,137.02424646666663,679568.9904122504,4122618.495145993
1203,[2021-02-22 16:15:35.725] $GPGGA,71535.3,3713.9683375,N,13701.4547851,E,4,12,1.2,96.5436,M,37.55,M,3.0,0000*6A,37.232805625,137.02424641833335,679568.986143942,4122618.4941296536
1204,[2021-02-22 16:15:35.803] $GPGGA,71535.4,3713.9683379000003,N,13701.4547831,E,4,12,1.2,96.5443,M,37.55,M,3.0,0000*65,37.23280563166667,137.02424638499997,679568.9831708198,4122618.4948061197
1205,[2021-02-22 16:15:35.928] $GPGGA,71535.5,3713.968339,N,13701.4547836,E,4,12,1.2,96.5458,M,37.55,M,3.0,0000*6E,37.23280565,137.02424639333333,679568.983866645,4122618.49685613
1206,[2021-02-22 16:15:36.006] $GPGGA,71535.6,3713.968339,N,13701.4547857,E,4,12,1.2,96.5455,M,37.55,M,3.0,0000*67,37.23280565,137.02424642833333,679568.9869718105,4122618.4969225354
1207,[2021-02-22 16:15:36.131] $GPGGA,71535.7,3713.9683391999997,N,13701.454788299998,E,4,12,1.2,96.545,M,37.55,M,3.0,0000*68,37.23280565333332,137.02424647166663,679568.9908083895,4122618.497374604
1208,[2021-02-22 16:15:36.209] $GPGGA,71535.8,3713.9683393,N,13701.4547905,E,4,12,1.2,96.5459,M,37.55,M,3.0,0000*60,37.232805655,137.02424650833333,679568.9940574694,4122618.497629101
1209,[2021-02-22 16:15:36.335] $GPGGA,71535.9,3713.9683401,N,13701.454790799999,E,4,12,1.2,96.5448,M,37.55,M,3.0,0000*60,37.232805668333334,137.02424651333334,679568.9944694252,4122618.499118005
1210,[2021-02-22 16:15:36.413] $GPGGA,71536.0,3713.9683395,N,13701.454789399999,E,4,12,1.2,96.5421,M,37.55,M,4.0,0000*6C,37.232805658333334,137.02424648999997,679568.9924230403,4122618.4979641703
1211,[2021-02-22 16:15:36.506] $GPGGA,71536.1,3713.9683388000003,N,13701.4547912,E,4,12,1.2,96.5424,M,37.55,M,4.0,0000*6B,37.23280564666667,137.02424652000002,679568.9951122998,4122618.496726599
1212,[2021-02-22 16:15:36.631] $GPGGA,71536.2,3713.9683372,N,13701.454792899998,E,4,12,1.2,96.5432,M,37.55,M,4.0,0000*62,37.23280562,137.02424654833328,679568.9976892739,4122618.49382152
1213,[2021-02-22 16:15:36.725] $GPGGA,71536.3,3713.9683367,N,13701.4547963,E,4,12,1.2,96.5426,M,37.55,M,4.0,0000*6C,37.23280561166666,137.02424660500003,679569.0027364686,4122618.493004398
1214,[2021-02-22 16:15:36.834] $GPGGA,71536.4,3713.9683351999997,N,13701.454796899998,E,4,12,1.2,96.5434,M,37.55,M,4.0,0000*64,37.232805586666665,137.02424661499995,679569.0036829729,4122618.490249462
1215,[2021-02-22 16:15:36.913] $GPGGA,71536.5,3713.9683338,N,13701.454796200002,E,4,12,1.2,96.5424,M,37.55,M,4.0,0000*63,37.23280556333333,137.02424660333338,679569.0027032918,4122618.487638346
1216,[2021-02-22 16:15:37.038] $GPGGA,71536.6,3713.9683342,N,13701.4547958,E,4,12,1.2,96.544,M,37.55,M,4.0,0000*66,37.23280557,137.02424659666667,679569.0020960097,4122618.488365407
1217,[2021-02-22 16:15:37.116] $GPGGA,71536.7,3713.9683351999997,N,13701.454795200003,E,4,12,1.2,96.5452,M,37.55,M,4.0,0000*6F,37.232805586666665,137.02424658666675,679569.001169277,4122618.4901957056
1218,[2021-02-22 16:15:37.225] $GPGGA,71536.8,3713.9683356,N,13701.4547942,E,4,12,1.2,96.5446,M,37.55,M,4.0,0000*60,37.23280559333333,137.02424657,679568.9996748009,4122618.4909037924
1219,[2021-02-22 16:15:37.319] $GPGGA,71536.9,3713.968337,N,13701.4547939,E,4,12,1.2,96.5456,M,37.55,M,4.0,0000*68,37.23280561666667,137.02424656500003,679568.9991758429,4122618.4934832877
1220,[2021-02-22 16:15:37.428] $GPGGA,71537.0,3713.9683373999997,N,13701.454793500001,E,4,12,1.2,96.5442,M,37.55,M,5.0,0000*6C,37.23280562333332,137.02424655833332,679568.9985685587,4122618.494210346
1221,[2021-02-22 16:15:37.522] $GPGGA,71537.1,3713.9683371,N,13701.454792700002,E,4,12,1.2,96.5446,M,37.55,M,5.0,0000*6F,37.23280561833334,137.02424654500004,679568.9973975085,4122618.4936302695
1222,[2021-02-22 16:15:37.631] $GPGGA,71537.2,3713.9683376999997,N,13701.454792200002,E,4,12,1.2,96.543,M,37.55,M,5.0,0000*6E,37.23280562833333,137.0242465366667,679568.9966344547,4122618.4947240218
1223,[2021-02-22 16:15:37.709] $GPGGA,71537.3,3713.9683383,N,13701.454792299997,E,4,12,1.2,96.5424,M,37.55,M,5.0,0000*60,37.23280563833334,137.0242465383333,679568.996758584,4122618.495836748
1224,[2021-02-22 16:15:37.834] $GPGGA,71537.4,3713.9683386999995,N,13701.454793,E,4,12,1.2,96.5423,M,37.55,M,5.0,0000*66,37.232805645,137.02424655000004,679568.9977778263,4122618.496598591
1225,[2021-02-22 16:15:37.913] $GPGGA,71537.5,3713.9683399000005,N,13701.4547933,E,4,12,1.2,96.5437,M,37.55,M,5.0,0000*6E,37.23280566500001,137.024246555,679568.9981739608,4122618.498827205
1226,[2021-02-22 16:15:38.037] $GPGGA,71537.6,3713.9683398,N,13701.454794,E,4,12,1.2,96.5438,M,37.55,M,5.0,0000*67,37.23280566333334,137.02424656666668,679568.9992129722,4122618.498664413
1227,[2021-02-22 16:15:38.116] $GPGGA,71537.7,3713.9683395,N,13701.4547947,E,4,12,1.2,96.5447,M,37.55,M,5.0,0000*64,37.232805658333334,137.0242465783333,679569.0002598886,4122618.4981317655
1228,[2021-02-22 16:15:38.225] $GPGGA,71537.8,3713.9683391000003,N,13701.4547946,E,4,12,1.2,96.5452,M,37.55,M,5.0,0000*6A,37.23280565166667,137.02424657666666,679569.000127843,4122618.497388895
1229,[2021-02-22 16:15:38.303] $GPGGA,71537.9,3713.9683391000003,N,13701.454795,E,4,12,1.2,96.5458,M,37.55,M,5.0,0000*66,37.23280565166667,137.02424658333334,679569.0007193058,4122618.4974015434
1230,[2021-02-22 16:15:38.428] $GPGGA,71538.0,3713.9683384000004,N,13701.4547946,E,4,12,1.2,96.5431,M,37.55,M,6.0,0000*6F,37.23280564,137.02424657666666,679569.0001555263,4122618.4960944047
1231,[2021-02-22 16:15:38.506] $GPGGA,71538.1,3713.9683378,N,13701.4547942,E,4,12,1.2,96.5448,M,37.55,M,6.0,0000*67,37.23280563,137.02424657,679568.9995877964,4122618.494972192
1232,[2021-02-22 16:15:38.616] $GPGGA,71538.2,3713.9683379000003,N,13701.4547937,E,4,12,1.2,96.5479,M,37.55,M,1.0,0000*62,37.23280563166667,137.02424656166667,679568.9988445165,4122618.495141309
1233,[2021-02-22 16:15:38.725] $GPGGA,71538.3,3713.9683371,N,13701.4547946,E,4,12,1.2,96.5507,M,37.55,M,1.0,0000*65,37.23280561833334,137.02424657666666,679569.000206938,4122618.493690351
1234,[2021-02-22 16:15:38.819] $GPGGA,71538.4,3713.9683348000003,N,13701.4547944,E,4,12,1.2,96.5522,M,37.55,M,1.0,0000*6D,37.23280558000001,137.02424657333336,679569.0000021702,4122618.489430701
1235,[2021-02-22 16:15:38.928] $GPGGA,71538.5,3713.9683338,N,13701.454795399999,E,4,12,1.2,96.5532,M,37.55,M,1.0,0000*6B,37.23280556333333,137.02424659,679569.001520366,4122618.4876130484
1236,[2021-02-22 16:15:39.022] $GPGGA,71538.6,3713.9683318,N,13701.454795299998,E,4,12,1.2,96.5542,M,37.55,M,1.0,0000*6A,37.23280553000001,137.02424658833328,679569.0014515917,4122618.4839113425
1237,[2021-02-22 16:15:39.131] $GPGGA,71538.7,3713.9683303999996,N,13701.454793,E,4,12,1.2,96.5537,M,37.55,M,1.0,0000*61,37.23280550666666,137.02424655000004,679568.9981060703,4122618.4812496305
1238,[2021-02-22 16:15:39.209] $GPGGA,71538.8,3713.9683284000002,N,13701.4547932,E,4,12,1.2,96.5524,M,37.55,M,1.0,0000*67,37.232805473333336,137.02424655333334,679568.9984808923,4122618.4775574114
1239,[2021-02-22 16:15:39.334] $GPGGA,71538.9,3713.9683270000005,N,13701.4547919,E,4,12,1.2,96.5518,M,37.55,M,1.0,0000*6B,37.23280545000001,137.02424653166665,679568.9966140122,4122618.4749273243
1240,[2021-02-22 16:15:39.412] $GPGGA,71539.0,3713.9683261,N,13701.4547924,E,4,12,1.2,96.5496,M,37.55,M,2.0,0000*69,37.232805435,137.02424654,679568.9973889324,4122618.4732787875
1241,[2021-02-22 16:15:39.506] $GPGGA,71539.1,3713.9683248,N,13701.4547924,E,4,12,1.2,96.55,M,37.55,M,2.0,0000*6D,37.23280541333334,137.02424654,679568.9974403441,4122618.4708747347
1242,[2021-02-22 16:15:39.600] $GPGGA,71539.2,3713.9683244999997,N,13701.4547904,E,4,12,1.2,96.5494,M,37.55,M,2.0,0000*6D,37.23280540833332,137.02424650666663,679568.9944949029,4122618.470256708
1243,[2021-02-22 16:15:39.725] $GPGGA,71539.3,3713.9683261,N,13701.4547904,E,4,12,1.2,96.5496,M,37.55,M,2.0,0000*68,37.232805435,137.02424650666663,679568.994431627,4122618.473215545
1244,[2021-02-22 16:15:39.803] $GPGGA,71539.4,3713.9683265,N,13701.4547891,E,4,12,1.2,96.5504,M,37.55,M,2.0,0000*6C,37.23280544166667,137.02424648500002,679568.9924935682,4122618.473914147
1245,[2021-02-22 16:15:39.928] $GPGGA,71539.5,3713.9683274999998,N,13701.454789700001,E,4,12,1.2,96.5498,M,37.55,M,2.0,0000*6E,37.232805458333324,137.024246495,679568.9933412083,4122618.4757823907
1246,[2021-02-22 16:15:40.006] $GPGGA,71539.6,3713.9683305,N,13701.4547904,E,4,12,1.2,96.5512,M,37.55,M,2.0,0000*63,37.23280550833333,137.02424650666663,679568.9942576181,4122618.481352343
1247,[2021-02-22 16:15:40.131] $GPGGA,71539.7,3713.9683326,N,13701.454790200001,E,4,12,1.2,96.552,M,37.55,M,2.0,0000*64,37.23280554333333,137.02424650333333,679568.9938788414,4122618.4852294894
1248,[2021-02-22 16:15:40.240] $GPGGA,71539.8,3713.968332,N,13701.45479,E,4,12,1.2,96.5518,M,37.55,M,2.0,0000*64,37.23280553333333,137.0242465,679568.9936068407,4122618.484113603
1249,[2021-02-22 16:15:40.319] $GPGGA,71539.9,3713.9683316,N,13701.454787600002,E,4,12,1.2,96.5536,M,37.55,M,2.0,0000*6C,37.232805526666674,137.02424646000003,679568.9900739004,4122618.483298003
1250,[2021-02-22 16:15:40.444] $GPGGA,71540.0,3713.9683314999997,N,13701.4547864,E,4,12,1.2,96.5502,M,37.55,M,3.0,0000*6D,37.232805524999996,137.02424644,679568.9883034732,4122618.483075129
1251,[2021-02-22 16:15:40.522] $GPGGA,71540.1,3713.9683316,N,13701.4547852,E,4,12,1.2,96.5494,M,37.55,M,3.0,0000*64,37.232805526666674,137.02424642,679568.9865251366,4122618.4832221116
1252,[2021-02-22 16:15:40.631] $GPGGA,71540.2,3713.968332,N,13701.454787399998,E,4,12,1.2,96.5505,M,37.55,M,3.0,0000*6F,37.23280553333333,137.02424645666665,679568.9897623478,4122618.484031386
1253,[2021-02-22 16:15:40.709] $GPGGA,71540.3,3713.9683323,N,13701.4547898,E,4,12,1.2,96.5532,M,37.55,M,3.0,0000*6B,37.23280553833333,137.02424649666665,679568.993299245,4122618.484662059
1254,[2021-02-22 16:15:40.834] $GPGGA,71540.4,3713.9683317000004,N,13701.454789399999,E,4,12,1.2,96.5525,M,37.55,M,3.0,0000*61,37.232805528333344,137.02424648999997,679568.9927315107,4122618.4835398486
1255,[2021-02-22 16:15:40.912] $GPGGA,71540.5,3713.9683318999996,N,13701.4547873,E,4,12,1.2,96.5528,M,37.55,M,3.0,0000*6A,37.23280553166666,137.024246455,679568.9896184378,4122618.4838432968
1256,[2021-02-22 16:15:41.037] $GPGGA,71540.6,3713.9683318999996,N,13701.454784399999,E,4,12,1.2,96.5525,M,37.55,M,3.0,0000*60,37.23280553166666,137.02424640666666,679568.985330351,4122618.4837515936
1257,[2021-02-22 16:15:41.115] $GPGGA,71540.7,3713.968333,N,13701.454783200003,E,4,12,1.2,96.5522,M,37.55,M,3.0,0000*6C,37.232805549999995,137.02424638666673,679568.9835124761,4122618.485747848
1258,[2021-02-22 16:15:41.225] $GPGGA,71540.8,3713.9683343,N,13701.454783899999,E,4,12,1.2,96.5537,M,37.55,M,3.0,0000*68,37.23280557166667,137.0242463983333,679568.9844961097,4122618.4881740366
1259,[2021-02-22 16:15:41.318] $GPGGA,71540.9,3713.968336,N,13701.454784900001,E,4,12,1.2,96.5527,M,37.55,M,3.0,0000*6E,37.2328056,137.024246415,679568.9859075317,4122618.491349422
1260,[2021-02-22 16:15:41.428] $GPGGA,71541.0,3713.9683376999997,N,13701.454786899998,E,4,12,1.2,96.5505,M,37.55,M,4.0,0000*65,37.23280562833333,137.02424644833332,679568.9887976019,4122618.494556427
1261,[2021-02-22 16:15:41.522] $GPGGA,71541.1,3713.9683388000003,N,13701.4547873,E,4,12,1.2,96.5502,M,37.55,M,4.0,0000*68,37.23280564666667,137.024246455,679568.9893455603,4122618.4966032756
1262,[2021-02-22 16:15:41.631] $GPGGA,71541.2,3713.9683401,N,13701.4547878,E,4,12,1.2,96.5516,M,37.55,M,4.0,0000*63,37.232805668333334,137.02424646333333,679568.9900334738,4122618.49902314
1263,[2021-02-22 16:15:41.709] $GPGGA,71541.3,3713.9683424000004,N,13701.4547878,E,4,12,1.2,96.5528,M,37.55,M,4.0,0000*68,37.232805706666674,137.02424646333333,679568.9899425147,4122618.5032764673
1264,[2021-02-22 16:15:41.834] $GPGGA,71541.4,3713.9683427,N,13701.454786200002,E,4,12,1.2,96.5528,M,37.55,M,4.0,0000*67,37.23280571166667,137.02424643666671,679568.9875648146,4122618.503780654
1265,[2021-02-22 16:15:41.912] $GPGGA,71541.5,3713.9683435999996,N,13701.454785499998,E,4,12,1.2,96.5566,M,37.55,M,4.0,0000*68,37.23280572666666,137.02424642499997,679568.9864941607,4122618.505422863
1266,[2021-02-22 16:15:42.037] $GPGGA,71541.6,3713.9683433,N,13701.454784099999,E,4,12,1.2,96.5576,M,37.55,M,4.0,0000*6A,37.23280572166667,137.02424640166666,679568.9844359139,4122618.5048238114
1267,[2021-02-22 16:15:42.131] $GPGGA,71541.7,3713.9683433,N,13701.454783200003,E,4,12,1.2,96.5593,M,37.55,M,4.0,0000*64,37.23280572166667,137.02424638666673,679568.9831051371,4122618.5047953525
1268,[2021-02-22 16:15:42.209] $GPGGA,71541.8,3713.9683427,N,13701.454783899999,E,4,12,1.2,96.5584,M,37.55,M,4.0,0000*63,37.23280571166667,137.0242463983333,679568.984163911,4122618.5037079244
1269,[2021-02-22 16:15:42.334] $GPGGA,71541.9,3713.968342,N,13701.4547845,E,4,12,1.2,96.5559,M,37.55,M,4.0,0000*6E,37.23280570000001,137.02424640833334,679568.9850787884,4122618.5024324073
1270,[2021-02-22 16:15:42.412] $GPGGA,71542.0,3713.9683416000003,N,13701.4547854,E,4,12,1.2,96.5535,M,37.55,M,5.0,0000*6A,37.23280569333334,137.02424642333332,679568.986425391,4122618.501721158
1271,[2021-02-22 16:15:42.506] $GPGGA,71542.1,3713.9683428000003,N,13701.454786100001,E,4,12,1.2,96.5546,M,37.55,M,5.0,0000*64,37.23280571333334,137.024246435,679568.9874129908,4122618.503962419
1272,[2021-02-22 16:15:42.615] $GPGGA,71542.2,3713.9683443999998,N,13701.4547857,E,4,12,1.2,96.555,M,37.55,M,5.0,0000*6F,37.232805739999996,137.02424642833333,679568.9867582542,4122618.5069086063
1273,[2021-02-22 16:15:42.725] $GPGGA,71542.3,3713.9683453000002,N,13701.4547856,E,4,12,1.2,96.555,M,37.55,M,5.0,0000*69,37.23280575500001,137.02424642666668,679568.986574797,4122618.508569789
1274,[2021-02-22 16:15:42.803] $GPGGA,71542.4,3713.9683458000004,N,13701.454785,E,4,12,1.2,96.5556,M,37.55,M,5.0,0000*65,37.232805763333346,137.02424641666664,679568.985667831,4122618.5094754538
1275,[2021-02-22 16:15:42.928] $GPGGA,71542.5,3713.9683463,N,13701.454785299999,E,4,12,1.2,96.5561,M,37.55,M,5.0,0000*6B,37.232805771666676,137.02424642166665,679568.9860916511,4122618.510409574
1276,[2021-02-22 16:15:43.006] $GPGGA,71542.6,3713.9683463,N,13701.454786200002,E,4,12,1.2,96.5559,M,37.55,M,5.0,0000*61,37.232805771666676,137.02424643666671,679568.9874224437,4122618.5104380334
1277,[2021-02-22 16:15:43.131] $GPGGA,71542.7,3713.9683456999996,N,13701.4547863,E,4,12,1.2,96.5554,M,37.55,M,5.0,0000*6B,37.23280576166666,137.02424643833336,679568.9875940346,4122618.5093316315
1278,[2021-02-22 16:15:43.209] $GPGGA,71542.8,3713.9683443000004,N,13701.4547856,E,4,12,1.2,96.5559,M,37.55,M,5.0,0000*6A,37.23280573833334,137.02424642666668,679568.9866143443,4122618.5067205164
1279,[2021-02-22 16:15:43.334] $GPGGA,71542.9,3713.9683442,N,13701.4547845,E,4,12,1.2,96.5556,M,37.55,M,5.0,0000*67,37.23280573666666,137.02424640833334,679568.984991784,4122618.5065008053
1280,[2021-02-22 16:15:43.412] $GPGGA,71543.0,3713.9683442,N,13701.454784099999,E,4,12,1.2,96.5514,M,37.55,M,6.0,0000*6E,37.23280573666666,137.02424640166666,679568.9844003211,4122618.5064881556
1281,[2021-02-22 16:15:43.506] $GPGGA,71543.1,3713.9683437,N,13701.454783500001,E,4,12,1.2,96.553,M,37.55,M,6.0,0000*68,37.23280572833334,137.02424639166668,679568.9835329073,4122618.5055445484
1282,[2021-02-22 16:15:43.631] $GPGGA,71543.2,3713.9683438,N,13701.454783700001,E,4,12,1.2,96.5766,M,37.55,M,1.0,0000*60,37.232805729999995,137.024246395,679568.9838246817,4122618.5057357983
1283,[2021-02-22 16:15:43.725] $GPGGA,71543.3,3713.9683446999998,N,13701.4547843,E,4,12,1.2,96.5947,M,37.55,M,1.0,0000*67,37.23280574499999,137.024246405,679568.9846762811,4122618.5074191163
1284,[2021-02-22 16:15:43.834] $GPGGA,71543.4,3713.9683465000003,N,13701.454784200001,E,4,12,1.2,96.6051,M,37.55,M,1.0,0000*6C,37.23280577500001,137.02424640333336,679568.984457231,4122618.5107446457
1285,[2021-02-22 16:15:43.912] $GPGGA,71543.5,3713.9683479,N,13701.454783000001,E,4,12,1.2,96.6145,M,37.55,M,1.0,0000*61,37.23280579833333,137.02424638333332,679568.9826274804,4122618.51329568
1286,[2021-02-22 16:15:44.037] $GPGGA,71543.6,3713.9683483000003,N,13701.4547824,E,4,12,1.2,96.6201,M,37.55,M,1.0,0000*61,37.23280580500001,137.02424637333334,679568.9817244739,4122618.514016417
1287,[2021-02-22 16:15:44.115] $GPGGA,71543.7,3713.9683483000003,N,13701.454781,E,4,12,1.2,96.6255,M,37.55,M,1.0,0000*66,37.23280580500001,137.02424635000003,679568.979654365,4122618.5139721464
1288,[2021-02-22 16:15:44.225] $GPGGA,71543.8,3713.9683482,N,13701.4547808,E,4,12,1.2,96.6246,M,37.55,M,1.0,0000*63,37.232805803333335,137.02424634666667,679568.979362586,4122618.5137808933
1289,[2021-02-22 16:15:44.303] $GPGGA,71543.9,3713.9683464,N,13701.454782700002,E,4,12,1.2,96.6251,M,37.55,M,1.0,0000*61,37.23280577333333,137.02424637833337,679568.9822432124,4122618.510512284
1290,[2021-02-22 16:15:44.428] $GPGGA,71544.0,3713.9683448,N,13701.454785299999,E,4,12,1.2,96.6212,M,37.55,M,2.0,0000*66,37.23280574666666,137.02424642166665,679568.9861509723,4122618.507635665
1291,[2021-02-22 16:15:44.521] $GPGGA,71544.1,3713.9683442,N,13701.454787,E,4,12,1.2,96.623,M,37.55,M,2.0,0000*6C,37.23280573666666,137.02424645,679568.9886884079,4122618.506579858
1292,[2021-02-22 16:15:44.631] $GPGGA,71544.2,3713.9683423,N,13701.4547872,E,4,12,1.2,96.6225,M,37.55,M,2.0,0000*6E,37.232805705000004,137.02424645333335,679568.9890592818,4122618.5030725654
1293,[2021-02-22 16:15:44.709] $GPGGA,71544.3,3713.9683416999997,N,13701.454788100002,E,4,12,1.2,96.6212,M,37.55,M,2.0,0000*60,37.23280569499999,137.0242464683334,679568.9904137985,4122618.5019914615
1294,[2021-02-22 16:15:44.834] $GPGGA,71544.4,3713.968342,N,13701.454789,E,4,12,1.2,96.6215,M,37.55,M,2.0,0000*64,37.23280570000001,137.02424648333331,679568.9917327133,4122618.5025747037
1295,[2021-02-22 16:15:44.912] $GPGGA,71544.5,3713.9683422,N,13701.454788,E,4,12,1.2,96.6217,M,37.55,M,2.0,0000*64,37.23280570333333,137.02424646666663,679568.9902461511,4122618.502912935
1296,[2021-02-22 16:15:45.021] $GPGGA,71544.6,3713.9683439000005,N,13701.4547879,E,4,12,1.2,96.6209,M,37.55,M,2.0,0000*64,37.23280573166667,137.02424646499998,679568.9900310558,4122618.5060535367
1297,[2021-02-22 16:15:45.099] $GPGGA,71544.7,3713.9683455,N,13701.454788299998,E,4,12,1.2,96.622,M,37.55,M,2.0,0000*61,37.23280575833333,137.02424647166663,679568.9905592405,4122618.5090250196
1298,[2021-02-22 16:15:45.225] $GPGGA,71544.8,3713.9683465999997,N,13701.454789,E,4,12,1.2,96.6213,M,37.55,M,2.0,0000*6C,37.23280577666666,137.02424648333331,679568.9915507949,4122618.5110813547
1299,[2021-02-22 16:15:45.303] $GPGGA,71544.9,3713.9683464,N,13701.4547885,E,4,12,1.2,96.6205,M,37.55,M,2.0,0000*6C,37.23280577333333,137.02424647499998,679568.9908193791,4122618.51069569
