,Format,Time,Latitude,LatType,Longitude,LonType,Status,Satellite,LevelAccuracy,Altitude(sea),M(sea),Altitude(geoid),M(geoid),DGPS use,checksum,Lat,Lon,UTM_X,UTM_Y
817,[2021-02-22 16:18:32.923] $GPGGA,71832.5,3713.9683539000002,N,13701.454785799999,E,4,13,1.0,96.5752,M,37.55,M,5.0,0000*65,37.23280589833334,137.02424642999998,679568.9865304155,4122618.5244798544
818,[2021-02-22 16:18:33.017] $GPGGA,71832.6,3713.9683545000003,N,13701.4547856,E,4,13,1.0,96.5763,M,37.55,M,5.0,0000*61,37.23280590833334,137.02424642666668,679568.9862109601,4122618.5255830935
819,[2021-02-22 16:18:33.110] $GPGGA,71832.7,3713.9683551,N,13701.4547864,E,4,13,1.0,96.5776,M,37.55,M,5.0,0000*60,37.23280591833333,137.02424644,679568.987370153,4122618.526717952
820,[2021-02-22 16:18:33.235] $GPGGA,71832.8,3713.9683560000003,N,13701.454786700002,E,4,13,1.0,96.5789,M,37.55,M,5.0,0000*6E,37.23280593333334,137.02424644500005,679568.9877781584,4122618.528391786
821,[2021-02-22 16:18:33.313] $GPGGA,71832.9,3713.9683566,N,13701.4547872,E,4,13,1.0,96.5787,M,37.55,M,5.0,0000*63,37.23280594333334,137.02424645333335,679568.988493753,4122618.5295171593
822,[2021-02-22 16:18:33.438] $GPGGA,71833.0,3713.9683563000003,N,13701.4547871,E,4,13,1.0,96.5747,M,37.55,M,6.0,0000*62,37.23280593833334,137.02424645166664,679568.988357748,4122618.5289592165
823,[2021-02-22 16:18:33.532] $GPGGA,71833.1,3713.9683579000002,N,13701.454787399998,E,4,13,1.0,96.5761,M,37.55,M,6.0,0000*69,37.232805965,137.02424645666665,679568.9887380681,4122618.5319275367
824,[2021-02-22 16:18:33.626] $GPGGA,71833.2,3713.9683578000004,N,13701.454788100002,E,4,13,1.0,96.5803,M,37.55,M,1.0,0000*6D,37.23280596333334,137.0242464683334,679568.9897770841,4122618.5317647443
825,[2021-02-22 16:18:33.735] $GPGGA,71833.3,3713.9683581,N,13701.4547875,E,4,13,1.0,96.5847,M,37.55,M,1.0,0000*61,37.23280596833333,137.02424645833335,679568.9888780256,4122618.532300553
826,[2021-02-22 16:18:33.813] $GPGGA,71833.4,3713.9683585999996,N,13701.454787,E,4,13,1.0,96.5861,M,37.55,M,1.0,0000*60,37.23280597666666,137.02424645,679568.9881189244,4122618.533209378
827,[2021-02-22 16:18:33.938] $GPGGA,71833.5,3713.9683583000005,N,13701.454786200002,E,4,13,1.0,96.5879,M,37.55,M,1.0,0000*6E,37.23280597166668,137.02424643666671,679568.9869478741,4122618.532629301
828,[2021-02-22 16:18:34.017] $GPGGA,71833.6,3713.9683591,N,13701.4547863,E,4,13,1.0,96.5885,M,37.55,M,1.0,0000*6C,37.232805985,137.02424643833336,679568.9870640985,4122618.5341118798
829,[2021-02-22 16:18:34.126] $GPGGA,71833.7,3713.9683596,N,13701.4547863,E,4,13,1.0,96.5882,M,37.55,M,1.0,0000*6D,37.23280599333333,137.02424643833336,679568.9870443247,4122618.5350365154
830,[2021-02-22 16:18:34.220] $GPGGA,71833.8,3713.9683598000006,N,13701.454786200002,E,4,13,1.0,96.5892,M,37.55,M,1.0,0000*6C,37.23280599666668,137.02424643666671,679568.9868885529,4122618.5354032097
831,[2021-02-22 16:18:34.329] $GPGGA,71833.9,3713.9683596999994,N,13701.4547854,E,4,13,1.0,96.5906,M,37.55,M,1.0,0000*6B,37.23280599499999,137.02424642333332,679568.9857095819,4122618.5351929823
832,[2021-02-22 16:18:34.407] $GPGGA,71834.0,3713.9683589,N,13701.454785799999,E,4,13,1.0,96.5902,M,37.55,M,2.0,0000*61,37.232805981666665,137.02424642999998,679568.9863326782,4122618.533726215
833,[2021-02-22 16:18:34.517] $GPGGA,71834.1,3713.9683583000005,N,13701.454785499998,E,4,13,1.0,96.5897,M,37.55,M,2.0,0000*6A,37.23280597166668,137.02424642499997,679568.9859128129,4122618.532607166
834,[2021-02-22 16:18:34.626] $GPGGA,71834.2,3713.9683575000004,N,13701.454785499998,E,4,13,1.0,96.5912,M,37.55,M,2.0,0000*6C,37.232805958333344,137.02424642499997,679568.9859444508,4122618.5311277485
835,[2021-02-22 16:18:34.735] $GPGGA,71834.3,3713.9683571,N,13701.4547859,E,4,13,1.0,96.5919,M,37.55,M,2.0,0000*6E,37.23280595166666,137.02424643166668,679568.9865517328,4122618.530400687
836,[2021-02-22 16:18:34.813] $GPGGA,71834.4,3713.9683571,N,13701.454785499998,E,4,13,1.0,96.5906,M,37.55,M,2.0,0000*6B,37.23280595166666,137.02424642499997,679568.9859602698,4122618.530388037
837,[2021-02-22 16:18:34.938] $GPGGA,71834.5,3713.9683571,N,13701.4547857,E,4,13,1.0,96.5898,M,37.55,M,2.0,0000*6E,37.23280595166666,137.02424642833333,679568.9862560013,4122618.5303943614
838,[2021-02-22 16:18:35.016] $GPGGA,71834.6,3713.9683571,N,13701.4547857,E,4,13,1.0,96.5895,M,37.55,M,2.0,0000*60,37.23280595166666,137.02424642833333,679568.9862560013,4122618.5303943614
839,[2021-02-22 16:18:35.126] $GPGGA,71834.7,3713.9683579999996,N,13701.454786100001,E,4,13,1.0,96.5875,M,37.55,M,2.0,0000*64,37.23280596666666,137.024246435,679568.9868118693,4122618.5320713543
840,[2021-02-22 16:18:35.204] $GPGGA,71834.8,3713.9683583000005,N,13701.4547856,E,4,13,1.0,96.5874,M,37.55,M,2.0,0000*6D,37.23280597166668,137.02424642666668,679568.9860606797,4122618.532610327
841,[2021-02-22 16:18:35.329] $GPGGA,71834.9,3713.9683587,N,13701.4547866,E,4,13,1.0,96.5881,M,37.55,M,2.0,0000*61,37.23280597833333,137.0242464433333,679568.987523509,4122618.5333816567
842,[2021-02-22 16:18:35.407] $GPGGA,71835.0,3713.9683587,N,13701.4547856,E,4,13,1.0,96.5861,M,37.55,M,3.0,0000*65,37.23280597833333,137.02424642666668,679568.9860448607,4122618.533350035
843,[2021-02-22 16:18:35.516] $GPGGA,71835.1,3713.9683592,N,13701.454786100001,E,4,13,1.0,96.5874,M,37.55,M,3.0,0000*60,37.232805986666676,137.024246435,679568.9867644123,4122618.534290484
844,[2021-02-22 16:18:35.641] $GPGGA,71835.2,3713.9683588,N,13701.4547871,E,4,13,1.0,96.588,M,37.55,M,3.0,0000*62,37.232805979999995,137.02424645166664,679568.9882588794,4122618.533582394
845,[2021-02-22 16:18:35.720] $GPGGA,71835.3,3713.9683590000004,N,13701.4547877,E,4,13,1.0,96.5872,M,37.55,M,3.0,0000*61,37.23280598333334,137.02424646166668,679568.989138162,4122618.533971223
846,[2021-02-22 16:18:35.829] $GPGGA,71835.4,3713.9683592,N,13701.454788100002,E,4,13,1.0,96.5863,M,37.55,M,3.0,0000*6D,37.232805986666676,137.0242464683334,679568.9897217177,4122618.5343537265
847,[2021-02-22 16:18:35.907] $GPGGA,71835.5,3713.9683596,N,13701.4547886,E,4,13,1.0,96.5869,M,37.55,M,3.0,0000*65,37.23280599333333,137.02424647666666,679568.9904452193,4122618.5351092448
848,[2021-02-22 16:18:36.032] $GPGGA,71835.6,3713.9683592,N,13701.4547885,E,4,13,1.0,96.5859,M,37.55,M,3.0,0000*62,37.232805986666676,137.02424647499998,679568.9903131715,4122618.5343663758
849,[2021-02-22 16:18:36.110] $GPGGA,71835.7,3713.9683589,N,13701.4547879,E,4,13,1.0,96.5864,M,37.55,M,3.0,0000*64,37.232805981666665,137.02424646499998,679568.9894378437,4122618.53379262
850,[2021-02-22 16:18:36.235] $GPGGA,71835.8,3713.9683588,N,13701.454787399998,E,4,13,1.0,96.587,M,37.55,M,3.0,0000*62,37.232805979999995,137.02424645666665,679568.9887024756,4122618.5335918805
851,[2021-02-22 16:18:36.313] $GPGGA,71835.9,3713.9683587,N,13701.454787,E,4,13,1.0,96.5874,M,37.55,M,3.0,0000*6C,37.23280597833333,137.02424645,679568.9881149696,4122618.533394305
852,[2021-02-22 16:18:36.438] $GPGGA,71836.0,3713.9683579999996,N,13701.454786000002,E,4,13,1.0,96.5864,M,37.55,M,4.0,0000*66,37.23280596666666,137.02424643333336,679568.986664007,4122618.5320681925
853,[2021-02-22 16:18:36.532] $GPGGA,71836.1,3713.9683584,N,13701.4547857,E,4,13,1.0,96.5872,M,37.55,M,4.0,0000*60,37.23280597333333,137.02424642833333,679568.9862045896,4122618.5327984155
854,[2021-02-22 16:18:36.626] $GPGGA,71836.2,3713.9683590000004,N,13701.454784399999,E,4,13,1.0,96.5878,M,37.55,M,4.0,0000*6E,37.23280598333334,137.02424640666666,679568.9842586146,4122618.5338668725
855,[2021-02-22 16:18:36.704] $GPGGA,71836.3,3713.9683618,N,13701.4547829,E,4,13,1.0,96.59,M,37.55,M,4.0,0000*69,37.23280603,137.02424638166667,679568.9819299083,4122618.538997401
856,[2021-02-22 16:18:36.829] $GPGGA,71836.4,3713.9683639,N,13701.4547815,E,4,13,1.0,96.5896,M,37.55,M,4.0,0000*6C,37.232806065,137.02424635833336,679568.9797767475,4122618.542836603
857,[2021-02-22 16:18:36.907] $GPGGA,71836.5,3713.9683658,N,13701.4547801,E,4,13,1.0,96.5903,M,37.55,M,4.0,0000*62,37.23280609666666,137.02424633500004,679568.9776314985,4122618.5463059493
858,[2021-02-22 16:18:37.032] $GPGGA,71836.6,3713.9683669,N,13701.454778600002,E,4,13,1.0,96.5915,M,37.55,M,4.0,0000*64,37.232806115,137.02424631000002,679568.9753700206,4122618.5482927174
859,[2021-02-22 16:18:37.110] $GPGGA,71836.7,3713.9683670000004,N,13701.4547783,E,4,13,1.0,96.5919,M,37.55,M,4.0,0000*64,37.23280611666667,137.02424630500002,679568.9749224698,4122618.5484681586
860,[2021-02-22 16:18:37.235] $GPGGA,71836.8,3713.9683654,N,13701.4547776,E,4,13,1.0,96.5927,M,37.55,M,4.0,0000*6A,37.232806090000004,137.02424629333333,679568.9739506891,4122618.5454871873
861,[2021-02-22 16:18:37.329] $GPGGA,71836.9,3713.9683636,N,13701.454777899999,E,4,13,1.0,96.5943,M,37.55,M,4.0,0000*62,37.23280606,137.02424629833334,679568.9744654683,4122618.542167983
862,[2021-02-22 16:18:37.407] $GPGGA,71837.0,3713.9683609,N,13701.4547785,E,4,13,1.0,96.5933,M,37.55,M,5.0,0000*63,37.232806015,137.02424630833332,679568.9754594364,4122618.5371939214
863,[2021-02-22 16:18:37.516] $GPGGA,71837.1,3713.9683594000003,N,13701.4547801,E,4,13,1.0,96.592,M,37.55,M,5.0,0000*64,37.23280599000001,137.02424633500004,679568.9778846023,4122618.5344706094
864,[2021-02-22 16:18:37.626] $GPGGA,71837.2,3713.9683596999994,N,13701.454782700002,E,4,13,1.0,96.5923,M,37.55,M,5.0,0000*63,37.23280599499999,137.02424637833337,679568.9817172311,4122618.5351076047
865,[2021-02-22 16:18:37.735] $GPGGA,71837.3,3713.9683617,N,13701.454783500001,E,4,13,1.0,96.5923,M,37.55,M,5.0,0000*6A,37.232806028333336,137.02424639166668,679568.9828210529,4122618.5388314477
866,[2021-02-22 16:18:37.813] $GPGGA,71837.4,3713.9683631,N,13701.454783399999,E,4,13,1.0,96.5923,M,37.55,M,5.0,0000*68,37.232806051666664,137.02424638999997,679568.9826178174,4122618.5414172653
867,[2021-02-22 16:18:37.938] $GPGGA,71837.5,3713.9683634999997,N,13701.4547845,E,4,13,1.0,96.593,M,37.55,M,5.0,0000*69,37.23280605833333,137.02424640833334,679568.9842285179,4122618.542191759
868,[2021-02-22 16:18:38.016] $GPGGA,71837.6,3713.9683641,N,13701.454787399998,E,4,13,1.0,96.5905,M,37.55,M,5.0,0000*6D,37.23280606833334,137.02424645666665,679568.9884928737,4122618.5433930247
869,[2021-02-22 16:18:38.126] $GPGGA,71837.7,3713.9683634000003,N,13701.454789899999,E,4,13,1.0,96.5899,M,37.55,M,5.0,0000*69,37.23280605666667,137.0242464983333,679568.992217181,4122618.5421775887
870,[2021-02-22 16:18:38.219] $GPGGA,71837.8,3713.9683607,N,13701.454792200002,E,4,13,1.0,96.5881,M,37.55,M,5.0,0000*6E,37.23280601166667,137.0242465366667,679568.9957248629,4122618.537257283
871,[2021-02-22 16:18:38.329] $GPGGA,71837.9,3713.9683591,N,13701.454794799998,E,4,13,1.0,96.5876,M,37.55,M,5.0,0000*67,37.232805985,137.02424657999995,679568.9996326227,4122618.534380663
872,[2021-02-22 16:18:38.407] $GPGGA,71838.0,3713.9683588,N,13701.454795,E,4,13,1.0,96.5847,M,37.55,M,6.0,0000*61,37.232805979999995,137.02424658333334,679568.9999402206,4122618.5338322045
873,[2021-02-22 16:18:38.516] $GPGGA,71838.1,3713.9683609999997,N,13701.4547965,E,4,13,1.0,96.5853,M,37.55,M,6.0,0000*61,37.232806016666665,137.02424660833333,679569.0020711919,4122618.537948036
874,[2021-02-22 16:18:38.610] $GPGGA,71838.2,3713.9683611,N,13701.454795399999,E,4,13,1.0,96.5915,M,37.55,M,1.0,0000*65,37.232806018333335,137.02424659,679569.0004407198,4122618.53809818
875,[2021-02-22 16:18:38.735] $GPGGA,71838.3,3713.9683609999997,N,13701.4547938,E,4,13,1.0,96.5971,M,37.55,M,1.0,0000*6D,37.232806016666665,137.02424656333332,679568.9980788343,4122618.537862659
876,[2021-02-22 16:18:38.813] $GPGGA,71838.4,3713.9683607,N,13701.4547926,E,4,13,1.0,96.6018,M,37.55,M,1.0,0000*66,37.23280601166667,137.02424654333333,679568.9963163189,4122618.5372699313
877,[2021-02-22 16:18:38.922] $GPGGA,71838.5,3713.9683604999996,N,13701.454792100001,E,4,13,1.0,96.605,M,37.55,M,1.0,0000*6E,37.23280600833333,137.024246535,679568.9955849033,4122618.5368842655
878,[2021-02-22 16:18:39.016] $GPGGA,71838.6,3713.9683594000003,N,13701.454791799999,E,4,13,1.0,96.6062,M,37.55,M,1.0,0000*6D,37.23280599000001,137.02424652999997,679568.9951848071,4122618.5348405815
879,[2021-02-22 16:18:39.126] $GPGGA,71838.7,3713.9683587,N,13701.4547931,E,4,13,1.0,96.607,M,37.55,M,1.0,0000*66,37.23280597833333,137.0242465516667,679568.9971347414,4122618.5335871973
880,[2021-02-22 16:18:39.235] $GPGGA,71838.8,3713.9683581999993,N,13701.454794,E,4,13,1.0,96.6066,M,37.55,M,1.0,0000*6D,37.232805969999994,137.02424656666668,679568.9984852987,4122618.5326910196
881,[2021-02-22 16:18:39.313] $GPGGA,71838.9,3713.9683575000004,N,13701.4547943,E,4,13,1.0,96.6063,M,37.55,M,1.0,0000*62,37.232805958333344,137.02424657166665,679568.9989565756,4122618.531406019
882,[2021-02-22 16:18:39.438] $GPGGA,71839.0,3713.9683581,N,13701.4547938,E,4,13,1.0,96.6053,M,37.55,M,2.0,0000*6D,37.23280596833333,137.02424656333332,679568.998193522,4122618.5324997692
883,[2021-02-22 16:18:39.532] $GPGGA,71839.1,3713.9683575999998,N,13701.4547931,E,4,13,1.0,96.6039,M,37.55,M,2.0,0000*61,37.23280595999999,137.0242465516667,679568.9971782436,4122618.5315529974
884,[2021-02-22 16:18:39.626] $GPGGA,71839.2,3713.9683572999998,N,13701.4547925,E,4,13,1.0,96.6044,M,37.55,M,2.0,0000*68,37.232805954999996,137.02424654166668,679568.9963029157,4122618.5309792426
885,[2021-02-22 16:18:39.719] $GPGGA,71839.3,3713.9683571,N,13701.454793,E,4,13,1.0,96.6032,M,37.55,M,2.0,0000*6E,37.23280595166666,137.02424655000004,679568.9970501527,4122618.5306252
886,[2021-02-22 16:18:39.829] $GPGGA,71839.4,3713.9683564999996,N,13701.4547931,E,4,13,1.0,96.6036,M,37.55,M,2.0,0000*69,37.23280594166666,137.0242465516667,679568.9972217459,4122618.5295187975
887,[2021-02-22 16:18:39.907] $GPGGA,71839.5,3713.9683567,N,13701.4547943,E,4,13,1.0,96.6036,M,37.55,M,2.0,0000*6F,37.232805944999996,137.02424657166665,679568.9989882137,4122618.5299265985
888,[2021-02-22 16:18:40.032] $GPGGA,71839.6,3713.9683574,N,13701.4547939,E,4,13,1.0,96.6044,M,37.55,M,2.0,0000*66,37.232805956666674,137.02424656500003,679568.9983690744,4122618.531208441
889,[2021-02-22 16:18:40.110] $GPGGA,71839.7,3713.9683592,N,13701.454793500001,E,4,13,1.0,96.6041,M,37.55,M,2.0,0000*66,37.232805986666676,137.02424655833332,679568.9977064237,4122618.534524482
890,[2021-02-22 16:18:40.235] $GPGGA,71839.8,3713.9683594000003,N,13701.454793399998,E,4,13,1.0,96.6035,M,37.55,M,2.0,0000*6D,37.23280599000001,137.02424655666664,679568.9975506475,4122618.534891176
891,[2021-02-22 16:18:40.313] $GPGGA,71839.9,3713.9683599,N,13701.454793599998,E,4,13,1.0,96.6047,M,37.55,M,2.0,0000*66,37.23280599833333,137.02424655999997,679568.9978266051,4122618.535822134
892,[2021-02-22 16:18:40.438] $GPGGA,71840.0,3713.9683604999996,N,13701.4547939,E,4,13,1.0,96.6021,M,37.55,M,3.0,0000*69,37.23280600833333,137.02424656500003,679568.9982464772,4122618.5369411847
893,[2021-02-22 16:18:40.532] $GPGGA,71840.1,3713.9683606,N,13701.4547943,E,4,13,1.0,96.6038,M,37.55,M,3.0,0000*6E,37.23280601,137.02424657166665,679568.9988339785,4122618.5371387596
894,[2021-02-22 16:18:40.625] $GPGGA,71840.2,3713.9683614,N,13701.454793399998,E,4,13,1.0,96.6048,M,37.55,M,3.0,0000*69,37.23280602333333,137.02424655666664,679568.9974715525,4122618.5385897183
895,[2021-02-22 16:18:40.704] $GPGGA,71840.3,3713.9683622000002,N,13701.4547924,E,4,13,1.0,96.606,M,37.55,M,3.0,0000*66,37.232806036666666,137.02424654,679568.9959612685,4122618.5400375156
896,[2021-02-22 16:18:40.829] $GPGGA,71840.4,3713.9683623000005,N,13701.454791999999,E,4,13,1.0,96.6062,M,37.55,M,3.0,0000*66,37.23280603833334,137.0242465333333,679568.9953658486,4122618.5402097944
897,[2021-02-22 16:18:40.938] $GPGGA,71840.5,3713.9683609999997,N,13701.4547907,E,4,13,1.0,96.6075,M,37.55,M,3.0,0000*64,37.232806016666665,137.0242465116667,679568.9934950207,4122618.5377646317
898,[2021-02-22 16:18:41.016] $GPGGA,71840.6,3713.9683603,N,13701.454790200001,E,4,13,1.0,96.608,M,37.55,M,3.0,0000*6A,37.232806005,137.02424650333333,679568.9927833765,4122618.5364543307
899,[2021-02-22 16:18:41.141] $GPGGA,71840.7,3713.9683591,N,13701.4547904,E,4,13,1.0,96.6088,M,37.55,M,3.0,0000*6D,37.232805985,137.02424650666663,679568.9931265604,4122618.534241528
900,[2021-02-22 16:18:41.219] $GPGGA,71840.8,3713.9683575999998,N,13701.4547896,E,4,13,1.0,96.6087,M,37.55,M,3.0,0000*6E,37.23280595999999,137.02424649333335,679568.992002967,4122618.531442322
901,[2021-02-22 16:18:41.329] $GPGGA,71840.9,3713.9683572,N,13701.4547889,E,4,13,1.0,96.6078,M,37.55,M,3.0,0000*65,37.232805953333326,137.02424648166667,679568.9909837272,4122618.530680478
902,[2021-02-22 16:18:41.407] $GPGGA,71841.0,3713.9683572,N,13701.4547886,E,4,13,1.0,96.6037,M,37.55,M,4.0,0000*6E,37.232805953333326,137.02424647666666,679568.9905401333,4122618.5306709916
903,[2021-02-22 16:18:41.516] $GPGGA,71841.1,3713.9683578000004,N,13701.454789,E,4,13,1.0,96.6061,M,37.55,M,4.0,0000*61,37.23280596333334,137.02424648333331,679568.9911078631,4122618.531793204
904,[2021-02-22 16:18:41.625] $GPGGA,71841.2,3713.9683574,N,13701.454790799999,E,4,13,1.0,96.6059,M,37.55,M,4.0,0000*65,37.232805956666674,137.02424651333334,679568.993785254,4122618.531110415
905,[2021-02-22 16:18:41.735] $GPGGA,71841.3,3713.9683567,N,13701.454791799999,E,4,13,1.0,96.6051,M,37.55,M,4.0,0000*6F,37.232805944999996,137.02424652999997,679568.9952915853,4122618.5298475437
906,[2021-02-22 16:18:41.813] $GPGGA,71841.4,3713.9683572999998,N,13701.4547931,E,4,13,1.0,96.6046,M,37.55,M,4.0,0000*60,37.232805954999996,137.0242465516667,679568.9971901078,4122618.530998216
907,[2021-02-22 16:18:41.938] $GPGGA,71841.5,3713.9683583000005,N,13701.4547938,E,4,13,1.0,96.6046,M,37.55,M,4.0,0000*67,37.23280597166668,137.02424656333332,679568.9981856125,4122618.5328696254
908,[2021-02-22 16:18:42.016] $GPGGA,71841.6,3713.9683577,N,13701.454792700002,E,4,13,1.0,96.6048,M,37.55,M,4.0,0000*6F,37.232805961666664,137.02424654500004,679568.9965828306,4122618.5317252763
909,[2021-02-22 16:18:42.125] $GPGGA,71841.7,3713.9683591,N,13701.4547917,E,4,13,1.0,96.6071,M,37.55,M,4.0,0000*6F,37.232805985,137.02424652833332,679568.9950488091,4122618.534282636
910,[2021-02-22 16:18:42.203] $GPGGA,71841.8,3713.9683598000006,N,13701.454790600003,E,4,13,1.0,96.6082,M,37.55,M,4.0,0000*65,37.23280599666668,137.02424651000004,679568.9933946129,4122618.535542345
911,[2021-02-22 16:18:42.328] $GPGGA,71841.9,3713.9683602,N,13701.454789700001,E,4,13,1.0,96.6088,M,37.55,M,4.0,0000*67,37.23280600333333,137.024246495,679568.9920480059,4122618.5362535915
912,[2021-02-22 16:18:42.407] $GPGGA,71842.0,3713.9683607,N,13701.454788799998,E,4,13,1.0,96.6069,M,37.55,M,5.0,0000*68,37.23280601166667,137.02424647999996,679568.9906974441,4122618.5371497683
913,[2021-02-22 16:18:42.516] $GPGGA,71842.1,3713.9683613000007,N,13701.454788799998,E,4,13,1.0,96.609,M,37.55,M,5.0,0000*6A,37.23280602166668,137.02424647999996,679568.9906737155,4122618.538259334
914,[2021-02-22 16:18:42.610] $GPGGA,71842.2,3713.9683615000004,N,13701.454788,E,4,13,1.0,96.61,M,37.55,M,5.0,0000*6F,37.232806025,137.02424646666663,679568.9894828849,4122618.5386038898
915,[2021-02-22 16:18:42.735] $GPGGA,71842.3,3713.9683624,N,13701.4547872,E,4,13,1.0,96.6115,M,37.55,M,5.0,0000*65,37.23280604,137.02424645333335,679568.9882643776,4122618.540242938
916,[2021-02-22 16:18:42.828] $GPGGA,71842.4,3713.9683626999995,N,13701.4547875,E,4,13,1.0,96.6119,M,37.55,M,5.0,0000*6A,37.232806045,137.02424645833335,679568.9886961072,4122618.5408072053
917,[2021-02-22 16:18:42.907] $GPGGA,71842.5,3713.9683630000004,N,13701.4547886,E,4,13,1.0,96.6137,M,37.55,M,5.0,0000*6D,37.232806050000015,137.02424647666666,679568.9903107579,4122618.5413967716
918,[2021-02-22 16:18:43.032] $GPGGA,71842.6,3713.9683628,N,13701.454788699999,E,4,13,1.0,96.6132,M,37.55,M,5.0,0000*63,37.23280604666667,137.0242464783333,679568.9904665297,4122618.541030079
919,[2021-02-22 16:18:43.110] $GPGGA,71842.7,3713.9683626999995,N,13701.4547879,E,4,13,1.0,96.6148,M,37.55,M,5.0,0000*61,37.232806045,137.02424646499998,679568.9892875633,4122618.5408198535
920,[2021-02-22 16:18:43.235] $GPGGA,71842.8,3713.9683623000005,N,13701.4547863,E,4,13,1.0,96.6165,M,37.55,M,5.0,0000*6E,37.23280603833334,137.02424643833336,679568.9869375465,4122618.5400295514
921,[2021-02-22 16:18:43.313] $GPGGA,71842.9,3713.9683615999998,N,13701.454785799999,E,4,13,1.0,96.6173,M,37.55,M,5.0,0000*66,37.232806026666665,137.02424642999998,679568.9862259,4122618.53871925
922,[2021-02-22 16:18:43.438] $GPGGA,71843.0,3713.9683609999997,N,13701.454786100001,E,4,13,1.0,96.6141,M,37.55,M,6.0,0000*60,37.232806016666665,137.024246435,679568.9866932267,4122618.5376191726
923,[2021-02-22 16:18:43.532] $GPGGA,71843.1,3713.9683615000004,N,13701.4547879,E,4,13,1.0,96.6128,M,37.55,M,6.0,0000*62,37.232806025,137.02424646499998,679568.9893350202,4122618.5386007275
924,[2021-02-22 16:18:43.641] $GPGGA,71843.2,3713.9683606,N,13701.454786700002,E,4,13,1.0,96.6078,M,37.55,M,1.0,0000*6F,37.23280601,137.02424644500005,679568.9875962401,4122618.536898435
925,[2021-02-22 16:18:43.703] $GPGGA,71843.3,3713.9683603,N,13701.4547863,E,4,13,1.0,96.6029,M,37.55,M,1.0,0000*6B,37.232806005,137.02424643833336,679568.9870166415,4122618.536331006
926,[2021-02-22 16:18:43.828] $GPGGA,71843.4,3713.9683600000003,N,13701.454785499998,E,4,13,1.0,96.6007,M,37.55,M,1.0,0000*66,37.23280600000001,137.02424642499997,679568.9858455821,4122618.535750929
927,[2021-02-22 16:18:43.906] $GPGGA,71843.5,3713.9683603,N,13701.4547851,E,4,13,1.0,96.5993,M,37.55,M,1.0,0000*67,37.232806005,137.02424641833335,679568.9852422596,4122618.53629306
928,[2021-02-22 16:18:44.031] $GPGGA,71843.6,3713.9683607,N,13701.454785299999,E,4,13,1.0,96.5988,M,37.55,M,1.0,0000*68,37.23280601166667,137.02424642166665,679568.9855221675,4122618.5370390937
929,[2021-02-22 16:18:44.110] $GPGGA,71843.7,3713.9683604,N,13701.454785499998,E,4,13,1.0,96.5988,M,37.55,M,1.0,0000*6C,37.232806006666664,137.02424642499997,679568.9858297631,4122618.5364906364
930,[2021-02-22 16:18:44.235] $GPGGA,71843.8,3713.9683600000003,N,13701.454785799999,E,4,13,1.0,96.5983,M,37.55,M,1.0,0000*61,37.23280600000001,137.02424642999998,679568.9862891759,4122618.535760415
931,[2021-02-22 16:18:44.313] $GPGGA,71843.9,3713.9683590000004,N,13701.454785799999,E,4,13,1.0,96.5996,M,37.55,M,1.0,0000*6E,37.23280598333334,137.02424642999998,679568.9863287235,4122618.533911143
932,[2021-02-22 16:18:44.438] $GPGGA,71844.0,3713.9683589,N,13701.454784900001,E,4,13,1.0,96.5968,M,37.55,M,2.0,0000*6A,37.232805981666665,137.024246415,679568.9850018946,4122618.533697755
933,[2021-02-22 16:18:44.516] $GPGGA,71844.1,3713.9683603,N,13701.4547829,E,4,13,1.0,96.5986,M,37.55,M,2.0,0000*6C,37.232806005,137.02424638166667,679568.9819892296,4122618.5362234926
934,[2021-02-22 16:18:44.625] $GPGGA,71844.2,3713.9683618,N,13701.454780700002,E,4,13,1.0,96.601,M,37.55,M,2.0,0000*6C,37.23280603,137.02424634500002,679568.9786768781,4122618.538927833
935,[2021-02-22 16:18:44.735] $GPGGA,71844.3,3713.9683638000006,N,13701.4547782,E,4,13,1.0,96.6031,M,37.55,M,2.0,0000*6E,37.23280606333335,137.02424630333337,679568.9749011571,4122618.542547326
936,[2021-02-22 16:18:44.813] $GPGGA,71844.4,3713.9683648,N,13701.4547784,E,4,13,1.0,96.6039,M,37.55,M,2.0,0000*60,37.23280608,137.02424630666667,679568.9751573366,4122618.5444029206
937,[2021-02-22 16:18:44.938] $GPGGA,71844.5,3713.9683644,N,13701.4547792,E,4,13,1.0,96.6051,M,37.55,M,2.0,0000*64,37.232806073333336,137.02424632,679568.9763560769,4122618.5436885087
938,[2021-02-22 16:18:45.016] $GPGGA,71844.6,3713.9683634999997,N,13701.4547815,E,4,13,1.0,96.6072,M,37.55,M,2.0,0000*60,37.23280605833333,137.02424635833336,679568.9797925665,4122618.5420968933
939,[2021-02-22 16:18:45.125] $GPGGA,71844.7,3713.9683614,N,13701.4547831,E,4,13,1.0,96.6066,M,37.55,M,2.0,0000*61,37.23280602333333,137.02424638499997,679568.9822414542,4122618.5382640157
940,[2021-02-22 16:18:45.219] $GPGGA,71844.8,3713.9683611999994,N,13701.4547836,E,4,13,1.0,96.6069,M,37.55,M,2.0,0000*60,37.232806019999984,137.02424639333333,679568.9829886913,4122618.5379099706
941,[2021-02-22 16:18:45.328] $GPGGA,71844.9,3713.9683613000007,N,13701.454783500001,E,4,13,1.0,96.6059,M,37.55,M,2.0,0000*60,37.23280602166668,137.02424639166668,679568.9828368718,4122618.5380917396
942,[2021-02-22 16:18:45.406] $GPGGA,71845.0,3713.9683608000005,N,13701.454781299999,E,4,13,1.0,96.6026,M,37.55,M,3.0,0000*6F,37.232806013333345,137.02424635499997,679568.9796036109,4122618.5370975365
943,[2021-02-22 16:18:45.516] $GPGGA,71845.1,3713.9683609,N,13701.454780899998,E,4,13,1.0,96.6015,M,37.55,M,3.0,0000*64,37.232806015,137.02424634833326,679568.9790081934,4122618.537269813
944,[2021-02-22 16:18:45.625] $GPGGA,71845.2,3713.9683615000004,N,13701.454780200002,E,4,13,1.0,96.6038,M,37.55,M,3.0,0000*6E,37.232806025,137.0242463366667,679568.9779494172,4122618.538357242
945,[2021-02-22 16:18:45.734] $GPGGA,71845.3,3713.9683617,N,13701.454779799999,E,4,13,1.0,96.604,M,37.55,M,3.0,0000*6E,37.232806028333336,137.02424632999998,679568.9773500427,4122618.538714448
946,[2021-02-22 16:18:45.813] $GPGGA,71845.4,3713.9683609999997,N,13701.454779700001,E,4,13,1.0,96.6036,M,37.55,M,3.0,0000*60,37.232806016666665,137.02424632833333,679568.9772298634,4122618.537416794
947,[2021-02-22 16:18:45.938] $GPGGA,71845.5,3713.9683606,N,13701.4547806,E,4,13,1.0,96.6041,M,37.55,M,3.0,0000*61,37.23280601,137.02424634333332,679568.9785764661,4122618.5367055438
948,[2021-02-22 16:18:46.016] $GPGGA,71845.6,3713.9683603,N,13701.4547818,E,4,13,1.0,96.604,M,37.55,M,3.0,0000*69,37.232806005,137.0242463633333,679568.98036271,4122618.536188709
949,[2021-02-22 16:18:46.125] $GPGGA,71845.7,3713.9683609,N,13701.4547829,E,4,13,1.0,96.6042,M,37.55,M,3.0,0000*62,37.232806015,137.02424638166667,679568.9819655011,4122618.5373330563
950,[2021-02-22 16:18:46.234] $GPGGA,71845.8,3713.9683617,N,13701.454783000001,E,4,13,1.0,96.6051,M,37.55,M,3.0,0000*68,37.232806028333336,137.02424638333332,679568.9820817254,4122618.538815637
951,[2021-02-22 16:18:46.313] $GPGGA,71845.9,3713.9683629,N,13701.454782799998,E,4,13,1.0,96.6054,M,37.55,M,3.0,0000*68,37.23280604833334,137.02424638,679568.9817385392,4122618.541028439
952,[2021-02-22 16:18:46.438] $GPGGA,71846.0,3713.9683644,N,13701.4547799,E,4,13,1.0,96.6025,M,37.55,M,4.0,0000*6D,37.232806073333336,137.02424633166663,679568.977391129,4122618.5437106444
953,[2021-02-22 16:18:46.531] $GPGGA,71846.1,3713.9683663,N,13701.454776499999,E,4,13,1.0,96.6028,M,37.55,M,4.0,0000*67,37.232806105,137.02424627499997,679568.9722885769,4122618.5471167485
954,[2021-02-22 16:18:46.625] $GPGGA,71846.2,3713.9683684,N,13701.454775799999,E,4,13,1.0,96.6052,M,37.55,M,4.0,0000*6E,37.23280614000001,137.0242462633333,679568.9711704727,4122618.550978086
955,[2021-02-22 16:18:46.719] $GPGGA,71846.3,3713.9683693,N,13701.4547757,E,4,13,1.0,96.606,M,37.55,M,4.0,0000*67,37.232806155000006,137.02424626166666,679568.9709870176,4122618.552639268
956,[2021-02-22 16:18:46.828] $GPGGA,71846.4,3713.9683696999996,N,13701.4547782,E,4,13,1.0,96.6081,M,37.55,M,4.0,0000*63,37.23280616166666,137.02424630333337,679568.9746678271,4122618.5534580285
957,[2021-02-22 16:18:46.906] $GPGGA,71846.5,3713.9683696,N,13701.454784099999,E,4,13,1.0,96.608,M,37.55,M,4.0,0000*62,37.232806159999996,137.02424640166666,679568.9833958154,4122618.553459671
958,[2021-02-22 16:18:47.031] $GPGGA,71846.6,3713.9683704000004,N,13701.454788799998,E,4,13,1.0,96.6094,M,37.55,M,4.0,0000*6B,37.232806173333344,137.02424647999996,679568.9903138336,4122618.555087711
959,[2021-02-22 16:18:47.109] $GPGGA,71846.7,3713.9683709,N,13701.4547925,E,4,13,1.0,96.6108,M,37.55,M,4.0,0000*65,37.232806181666675,137.02424654166668,679568.9957650701,4122618.5561293466
960,[2021-02-22 16:18:47.234] $GPGGA,71846.8,3713.9683729999997,N,13701.4547939,E,4,13,1.0,96.6115,M,37.55,M,4.0,0000*61,37.23280621666666,137.02424656500003,679568.9977521338,4122618.560057087
961,[2021-02-22 16:18:47.312] $GPGGA,71846.9,3713.9683725999994,N,13701.454793599998,E,4,13,1.0,96.6119,M,37.55,M,4.0,0000*64,37.23280620999999,137.02424655999997,679568.9973243522,4122618.559307891
962,[2021-02-22 16:18:47.438] $GPGGA,71847.0,3713.9683717,N,13701.454792100001,E,4,13,1.0,96.61,M,37.55,M,5.0,0000*61,37.232806194999995,137.024246535,679568.9951419715,4122618.5575961135
963,[2021-02-22 16:18:47.531] $GPGGA,71847.1,3713.9683713,N,13701.454792100001,E,4,13,1.0,96.6115,M,37.55,M,5.0,0000*60,37.23280618833333,137.024246535,679568.9951577905,4122618.556856405
964,[2021-02-22 16:18:47.625] $GPGGA,71847.2,3713.9683715000006,N,13701.454790900001,E,4,13,1.0,96.6137,M,37.55,M,5.0,0000*6F,37.232806191666675,137.02424651500002,679568.9933755014,4122618.5571883144
965,[2021-02-22 16:18:47.703] $GPGGA,71847.3,3713.9683699,N,13701.4547882,E,4,13,1.0,96.6126,M,37.55,M,5.0,0000*69,37.23280616500001,137.02424647000004,679568.989446422,4122618.554144101
966,[2021-02-22 16:18:47.828] $GPGGA,71847.4,3713.9683679,N,13701.4547852,E,4,13,1.0,96.6121,M,37.55,M,5.0,0000*6A,37.23280613166667,137.02424642,679568.9850895633,4122618.5503506926
967,[2021-02-22 16:18:47.906] $GPGGA,71847.5,3713.9683666,N,13701.4547826,E,4,13,1.0,96.6135,M,37.55,M,5.0,0000*63,37.232806110000006,137.0242463766667,679568.9812964866,4122618.5478644227
968,[2021-02-22 16:18:48.031] $GPGGA,71847.6,3713.9683634000003,N,13701.4547817,E,4,13,1.0,96.6122,M,37.55,M,5.0,0000*63,37.23280605666667,137.02424636166666,679568.9800922505,4122618.541918291
969,[2021-02-22 16:18:48.125] $GPGGA,71847.7,3713.9683609,N,13701.4547811,E,4,13,1.0,96.611,M,37.55,M,5.0,0000*6B,37.232806015,137.02424635166668,679568.9793039293,4122618.537276137
970,[2021-02-22 16:18:48.219] $GPGGA,71847.8,3713.9683592,N,13701.4547818,E,4,13,1.0,96.6116,M,37.55,M,5.0,0000*6A,37.232805986666676,137.0242463633333,679568.9804062122,4122618.534154511
971,[2021-02-22 16:18:48.328] $GPGGA,71847.9,3713.9683581,N,13701.454784900001,E,4,13,1.0,96.6117,M,37.55,M,5.0,0000*6C,37.23280596833333,137.024246415,679568.9850335325,4122618.532218336
972,[2021-02-22 16:18:48.406] $GPGGA,71848.0,3713.9683584,N,13701.4547875,E,4,13,1.0,96.6096,M,37.55,M,6.0,0000*6B,37.23280597333333,137.02424645833335,679568.9888661613,4122618.532855334
973,[2021-02-22 16:18:48.516] $GPGGA,71848.1,3713.9683596,N,13701.4547898,E,4,13,1.0,96.6102,M,37.55,M,6.0,0000*66,37.23280599333333,137.02424649666665,679568.992219599,4122618.535147191
974,[2021-02-22 16:18:48.609] $GPGGA,71848.2,3713.9683596999994,N,13701.454790099999,E,4,13,1.0,96.6083,M,37.55,M,1.0,0000*6A,37.23280599499999,137.02424650166665,679568.992659238,4122618.5353416037
975,[2021-02-22 16:18:48.734] $GPGGA,71848.3,3713.9683598000006,N,13701.4547885,E,4,13,1.0,96.6097,M,37.55,M,1.0,0000*6C,37.23280599666668,137.02424647499998,679568.9902894429,4122618.53547594
976,[2021-02-22 16:18:48.812] $GPGGA,71848.4,3713.9683603,N,13701.4547878,E,4,13,1.0,96.6087,M,37.55,M,1.0,0000*69,37.232806005,137.02424646333333,679568.9892346149,4122618.536378438
977,[2021-02-22 16:18:48.937] $GPGGA,71848.5,3713.9683606,N,13701.454788,E,4,13,1.0,96.6078,M,37.55,M,1.0,0000*6A,37.23280601,137.02424646666663,679568.9895184776,4122618.536939543
978,[2021-02-22 16:18:49.015] $GPGGA,71848.6,3713.9683592,N,13701.4547865,E,4,13,1.0,96.6079,M,37.55,M,1.0,0000*6D,37.232805986666676,137.02424644166666,679568.9873558707,4122618.5343031315
979,[2021-02-22 16:18:49.125] $GPGGA,71848.7,3713.9683589,N,13701.454784200001,E,4,13,1.0,96.6083,M,37.55,M,1.0,0000*66,37.232805981666665,137.02424640333336,679568.9839668424,4122618.533675619
980,[2021-02-22 16:18:49.219] $GPGGA,71848.8,3713.9683581999993,N,13701.4547831,E,4,13,1.0,96.6075,M,37.55,M,1.0,0000*6F,37.232805969999994,137.02424638499997,679568.9823680061,4122618.5323463446
981,[2021-02-22 16:18:49.328] $GPGGA,71848.9,3713.9683564999996,N,13701.454782700002,E,4,13,1.0,96.6068,M,37.55,M,1.0,0000*6C,37.23280594166666,137.02424637833337,679568.9818437829,4122618.529189934
982,[2021-02-22 16:18:49.406] $GPGGA,71849.0,3713.9683551,N,13701.4547818,E,4,13,1.0,96.6023,M,37.55,M,2.0,0000*63,37.23280591833333,137.0242463633333,679568.9805683568,4122618.526572492
983,[2021-02-22 16:18:49.515] $GPGGA,71849.1,3713.9683539000002,N,13701.4547812,E,4,13,1.0,96.6028,M,37.55,M,2.0,0000*6D,37.23280589833334,137.02424635333333,679568.9797286261,4122618.524334395
984,[2021-02-22 16:18:49.625] $GPGGA,71849.2,3713.9683530999996,N,13701.4547808,E,4,13,1.0,96.6039,M,37.55,M,2.0,0000*6D,37.23280588499999,137.02424634666667,679568.9791688035,4122618.5228423267
985,[2021-02-22 16:18:49.734] $GPGGA,71849.3,3713.9683530999996,N,13701.4547808,E,4,13,1.0,96.6042,M,37.55,M,2.0,0000*60,37.23280588499999,137.02424634666667,679568.9791688035,4122618.5228423267
986,[2021-02-22 16:18:49.828] $GPGGA,71849.4,3713.9683528000005,N,13701.4547811,E,4,13,1.0,96.6041,M,37.55,M,2.0,0000*64,37.23280588000001,137.02424635166668,679568.9796242637,4122618.5222970336
987,[2021-02-22 16:18:49.906] $GPGGA,71849.5,3713.9683524,N,13701.454781600001,E,4,13,1.0,96.6035,M,37.55,M,2.0,0000*6D,37.232805873333334,137.02424636,679568.980379408,4122618.521573134
988,[2021-02-22 16:18:50.031] $GPGGA,71849.6,3713.9683526,N,13701.454782799998,E,4,13,1.0,96.6032,M,37.55,M,2.0,0000*66,37.23280587666667,137.02424638,679568.9821458781,4122618.521980935
989,[2021-02-22 16:18:50.109] $GPGGA,71849.7,3713.9683525,N,13701.454784799998,E,4,13,1.0,96.6026,M,37.55,M,2.0,0000*67,37.232805875000004,137.0242464133333,679568.9851071293,4122618.521859251
990,[2021-02-22 16:18:50.234] $GPGGA,71849.8,3713.9683526999993,N,13701.454787,E,4,13,1.0,96.602,M,37.55,M,2.0,0000*67,37.23280587833332,137.02424645,679568.9883522545,4122618.5222986713
991,[2021-02-22 16:18:50.312] $GPGGA,71849.9,3713.9683517999997,N,13701.454788799998,E,4,13,1.0,96.6018,M,37.55,M,2.0,0000*66,37.23280586333333,137.02424647999996,679568.9910494166,4122618.5206912463
992,[2021-02-22 16:18:50.437] $GPGGA,71850.0,3713.9683513000004,N,13701.4547889,E,4,13,1.0,96.6,M,37.55,M,3.0,0000*65,37.232805855,137.02424648166667,679568.9912170572,4122618.519769772
993,[2021-02-22 16:18:50.531] $GPGGA,71850.1,3713.9683502999997,N,13701.454789500001,E,4,13,1.0,96.6006,M,37.55,M,3.0,0000*6E,37.23280583833332,137.0242464916667,679568.992143799,4122618.517939473
994,[2021-02-22 16:18:50.625] $GPGGA,71850.2,3713.9683505000003,N,13701.4547882,E,4,13,1.0,96.6009,M,37.55,M,3.0,0000*62,37.23280584166667,137.02424647000004,679568.9902136431,4122618.5182682197
995,[2021-02-22 16:18:50.718] $GPGGA,71850.3,3713.9683514,N,13701.4547873,E,4,13,1.0,96.5997,M,37.55,M,3.0,0000*60,37.232805856666666,137.024246455,679568.9888472622,4122618.519904105
996,[2021-02-22 16:18:50.828] $GPGGA,71850.4,3713.9683520000003,N,13701.454787399998,E,4,13,1.0,96.6,M,37.55,M,3.0,0000*63,37.23280586666667,137.02424645666665,679568.9889713982,4122618.521016832
997,[2021-02-22 16:18:50.906] $GPGGA,71850.5,3713.9683530999996,N,13701.4547865,E,4,13,1.0,96.6,M,37.55,M,3.0,0000*62,37.23280588499999,137.02424644166666,679568.9875971102,4122618.5230225683
998,[2021-02-22 16:18:51.031] $GPGGA,71850.6,3713.9683539000002,N,13701.454786700002,E,4,13,1.0,96.6001,M,37.55,M,3.0,0000*6A,37.23280589833334,137.02424644500005,679568.9878612082,4122618.5245083137
999,[2021-02-22 16:18:51.109] $GPGGA,71850.7,3713.9683544,N,13701.454787600002,E,4,13,1.0,96.6002,M,37.55,M,3.0,0000*62,37.23280590666667,137.02424646000003,679568.989172218,4122618.525461409
1000,[2021-02-22 16:18:51.234] $GPGGA,71850.8,3713.9683551,N,13701.4547885,E,4,13,1.0,96.6016,M,37.55,M,3.0,0000*60,37.23280591833333,137.02424647499998,679568.9904753161,4122618.5267843567
1001,[2021-02-22 16:18:51.312] $GPGGA,71850.9,3713.9683553000004,N,13701.454789,E,4,13,1.0,96.6003,M,37.55,M,3.0,0000*63,37.232805921666674,137.02424648333331,679568.9912067319,4122618.527170024
1002,[2021-02-22 16:18:51.437] $GPGGA,71851.0,3713.9683554,N,13701.4547886,E,4,13,1.0,96.5973,M,37.55,M,4.0,0000*61,37.23280592333334,137.02424647666666,679568.9906113187,4122618.5273423027
1003,[2021-02-22 16:18:51.531] $GPGGA,71851.1,3713.9683575000004,N,13701.454789,E,4,13,1.0,96.5975,M,37.55,M,4.0,0000*62,37.232805958333344,137.02424648333331,679568.9911197275,4122618.531238424
1004,[2021-02-22 16:18:51.625] $GPGGA,71851.2,3713.9683596,N,13701.4547884,E,4,13,1.0,96.598,M,37.55,M,4.0,0000*63,37.23280599333333,137.02424647333333,679568.9901494902,4122618.535102921
1005,[2021-02-22 16:18:51.734] $GPGGA,71851.3,3713.9683613000007,N,13701.454788799998,E,4,13,1.0,96.598,M,37.55,M,4.0,0000*60,37.23280602166668,137.02424647999996,679568.9906737155,4122618.538259334
1006,[2021-02-22 16:18:51.812] $GPGGA,71851.4,3713.9683633,N,13701.4547878,E,4,13,1.0,96.5991,M,37.55,M,4.0,0000*6A,37.232806055,137.02424646333333,679568.9891159725,4122618.541926255
1007,[2021-02-22 16:18:51.937] $GPGGA,71851.5,3713.9683651,N,13701.4547864,E,4,13,1.0,96.5995,M,37.55,M,4.0,0000*66,37.232806085,137.02424644,679568.9869746782,4122618.5452106753
1008,[2021-02-22 16:18:52.015] $GPGGA,71851.6,3713.9683653000006,N,13701.454785799999,E,4,13,1.0,96.6009,M,37.55,M,4.0,0000*67,37.23280608833334,137.02424642999998,679568.9860795743,4122618.5455615586
1009,[2021-02-22 16:18:52.125] $GPGGA,71851.7,3713.9683647,N,13701.454786200002,E,4,13,1.0,96.6027,M,37.55,M,4.0,0000*66,37.23280607833333,137.02424643666671,679568.9866947702,4122618.544464642
1010,[2021-02-22 16:18:52.218] $GPGGA,71851.8,3713.9683634000003,N,13701.4547868,E,4,13,1.0,96.6033,M,37.55,M,4.0,0000*62,37.23280605666667,137.0242464466667,679568.9876333695,4122618.5420795614
1011,[2021-02-22 16:18:52.328] $GPGGA,71851.9,3713.9683624,N,13701.4547873,E,4,13,1.0,96.6035,M,37.55,M,4.0,0000*6E,37.23280604,137.024246455,679568.98841224,4122618.5402460997
1012,[2021-02-22 16:18:52.421] $GPGGA,71852.0,3713.9683609999997,N,13701.4547866,E,4,13,1.0,96.6026,M,37.55,M,5.0,0000*64,37.232806016666665,137.0242464433333,679568.9874325497,4122618.537634983
1013,[2021-02-22 16:18:52.515] $GPGGA,71852.1,3713.9683594999997,N,13701.4547864,E,4,13,1.0,96.6019,M,37.55,M,5.0,0000*65,37.23280599166666,137.02424644,679568.9871961441,4122618.534854749
1014,[2021-02-22 16:18:52.625] $GPGGA,71852.2,3713.9683585000002,N,13701.4547871,E,4,13,1.0,96.6025,M,37.55,M,5.0,0000*6C,37.232805975,137.02424645166664,679568.9882707436,4122618.533027613
1015,[2021-02-22 16:18:52.734] $GPGGA,71852.3,3713.9683581999993,N,13701.4547873,E,4,13,1.0,96.6035,M,37.55,M,5.0,0000*69,37.232805969999994,137.024246455,679568.9885783393,4122618.532479156
1016,[2021-02-22 16:18:52.812] $GPGGA,71852.4,3713.9683575000004,N,13701.4547877,E,4,13,1.0,96.6039,M,37.55,M,5.0,0000*6E,37.232805958333344,137.02424646166668,679568.9891974832,4122618.5311973165
1017,[2021-02-22 16:18:52.937] $GPGGA,71852.5,3713.9683560999997,N,13701.4547882,E,4,13,1.0,96.6041,M,37.55,M,5.0,0000*6F,37.232805934999995,137.02424647000004,679568.9899921771,4122618.528624144
1018,[2021-02-22 16:18:53.015] $GPGGA,71852.6,3713.9683562,N,13701.454789200003,E,4,13,1.0,96.6042,M,37.55,M,5.0,0000*6D,37.23280593666667,137.0242464866667,679568.9914668729,4122618.5288406936
1019,[2021-02-22 16:18:53.125] $GPGGA,71852.7,3713.9683557,N,13701.454789899999,E,4,13,1.0,96.6048,M,37.55,M,5.0,0000*6B,37.23280592833333,137.0242464983333,679568.9925216965,4122618.5279381904
1020,[2021-02-22 16:18:53.203] $GPGGA,71852.8,3713.9683548,N,13701.4547898,E,4,13,1.0,96.6044,M,37.55,M,5.0,0000*67,37.23280591333334,137.02424649666665,679568.9924094268,4122618.5262706857
1021,[2021-02-22 16:18:53.328] $GPGGA,71852.9,3713.9683541,N,13701.4547891,E,4,13,1.0,96.6053,M,37.55,M,5.0,0000*60,37.23280590166666,137.02424648500002,679568.9914020579,4122618.524954058
1022,[2021-02-22 16:18:53.437] $GPGGA,71853.0,3713.9683541,N,13701.4547889,E,4,13,1.0,96.6025,M,37.55,M,6.0,0000*63,37.23280590166666,137.02424648166667,679568.9911063244,4122618.524947734
1023,[2021-02-22 16:18:53.531] $GPGGA,71853.1,3713.9683545000003,N,13701.4547896,E,4,13,1.0,96.6025,M,37.55,M,6.0,0000*68,37.23280590833334,137.02424649333335,679568.9921255641,4122618.5257095797
1024,[2021-02-22 16:18:53.640] $GPGGA,71853.2,3713.9683545000003,N,13701.4547884,E,4,13,1.0,96.6043,M,37.55,M,1.0,0000*6F,37.23280590833334,137.02424647333333,679568.9903511823,4122618.525671634
1025,[2021-02-22 16:18:53.718] $GPGGA,71853.3,3713.9683557999997,N,13701.4547865,E,4,13,1.0,96.6046,M,37.55,M,1.0,0000*68,37.23280592999999,137.02424644166666,679568.987490332,4122618.528015604
1026,[2021-02-22 16:18:53.828] $GPGGA,71853.4,3713.9683569,N,13701.4547836,E,4,13,1.0,96.6054,M,37.55,M,1.0,0000*68,37.23280594833333,137.02424639333333,679568.9831587453,4122618.529958102
1027,[2021-02-22 16:18:53.906] $GPGGA,71853.5,3713.9683581999993,N,13701.454783399999,E,4,13,1.0,96.6077,M,37.55,M,1.0,0000*6F,37.232805969999994,137.02424638999997,679568.9828116,4122618.532355832
1028,[2021-02-22 16:18:54.031] $GPGGA,71853.6,3713.9683589,N,13701.454783399999,E,4,13,1.0,96.608,M,37.55,M,1.0,0000*6F,37.232805981666665,137.02424638999997,679568.9827839166,4122618.533650322
1029,[2021-02-22 16:18:54.109] $GPGGA,71853.7,3713.9683588,N,13701.454783899999,E,4,13,1.0,96.6073,M,37.55,M,1.0,0000*6E,37.232805979999995,137.0242463983333,679568.9835271967,4122618.533481205
1030,[2021-02-22 16:18:54.234] $GPGGA,71853.8,3713.9683577,N,13701.454784799998,E,4,13,1.0,96.6077,M,37.55,M,1.0,0000*63,37.232805961666664,137.0242464133333,679568.9849014825,4122618.5314754667
1031,[2021-02-22 16:18:54.312] $GPGGA,71853.9,3713.9683569,N,13701.454785799999,E,4,13,1.0,96.6077,M,37.55,M,1.0,0000*6C,37.23280594833333,137.02424642999998,679568.9864117731,4122618.5300276694
1032,[2021-02-22 16:18:54.437] $GPGGA,71854.0,3713.9683569,N,13701.454786899998,E,4,13,1.0,96.6053,M,37.55,M,2.0,0000*65,37.23280594833333,137.02424644833332,679568.9880382905,4122618.5300624534
1033,[2021-02-22 16:18:54.531] $GPGGA,71854.1,3713.9683571,N,13701.4547873,E,4,13,1.0,96.6063,M,37.55,M,2.0,0000*65,37.23280595166666,137.024246455,679568.9886218417,4122618.530444957
1034,[2021-02-22 16:18:54.624] $GPGGA,71854.2,3713.9683579000002,N,13701.4547875,E,4,13,1.0,96.6073,M,37.55,M,2.0,0000*69,37.232805965,137.02424645833335,679568.988885935,4122618.531930699
1035,[2021-02-22 16:18:54.703] $GPGGA,71854.3,3713.9683591,N,13701.454786899998,E,4,13,1.0,96.6087,M,37.55,M,2.0,0000*68,37.232805985,137.02424644833332,679568.9879512859,4122618.534130852
1036,[2021-02-22 16:18:54.828] $GPGGA,71854.4,3713.9683596999994,N,13701.454786200002,E,4,13,1.0,96.6107,M,37.55,M,2.0,0000*6B,37.23280599499999,137.02424643666671,679568.9868925076,4122618.5352182793
1037,[2021-02-22 16:18:54.906] $GPGGA,71854.5,3713.9683602,N,13701.454785499998,E,4,13,1.0,96.6117,M,37.55,M,2.0,0000*60,37.23280600333333,137.02424642499997,679568.9858376727,4122618.536120781
1038,[2021-02-22 16:18:55.031] $GPGGA,71854.6,3713.9683604,N,13701.454784799998,E,4,13,1.0,96.613,M,37.55,M,2.0,0000*6C,37.232806006666664,137.0242464133333,679568.9847947042,4122618.536468501
1039,[2021-02-22 16:18:55.109] $GPGGA,71854.7,3713.9683600999997,N,13701.4547854,E,4,13,1.0,96.6142,M,37.55,M,2.0,0000*60,37.23280600166666,137.02424642333332,679568.9856937629,4122618.5359326922
1040,[2021-02-22 16:18:55.234] $GPGGA,71854.8,3713.9683596,N,13701.4547852,E,4,13,1.0,96.6146,M,37.55,M,2.0,0000*60,37.23280599333333,137.02424642,679568.9854178074,4122618.5350017315
1041,[2021-02-22 16:18:55.328] $GPGGA,71854.9,3713.9683581999993,N,13701.454784399999,E,4,13,1.0,96.6141,M,37.55,M,2.0,0000*64,37.232805969999994,137.02424640666666,679568.9842902526,4122618.5323874536
1042,[2021-02-22 16:18:55.406] $GPGGA,71855.0,3713.9683572,N,13701.454785,E,4,13,1.0,96.6113,M,37.55,M,3.0,0000*60,37.232805953333326,137.02424641666664,679568.9852169899,4122618.530557154
1043,[2021-02-22 16:18:55.515] $GPGGA,71855.1,3713.9683560999997,N,13701.4547851,E,4,13,1.0,96.6114,M,37.55,M,3.0,0000*65,37.232805934999995,137.02424641833335,679568.985408359,4122618.528526116
1044,[2021-02-22 16:18:55.624] $GPGGA,71855.2,3713.9683551,N,13701.454785,E,4,13,1.0,96.611,M,37.55,M,3.0,0000*60,37.23280591833333,137.02424641666664,679568.9853000396,4122618.526673682
1045,[2021-02-22 16:18:55.734] $GPGGA,71855.3,3713.9683560000003,N,13701.4547859,E,4,13,1.0,96.6117,M,37.55,M,3.0,0000*6D,37.23280593333334,137.02424643166668,679568.986595235,4122618.5283664884
1046,[2021-02-22 16:18:55.812] $GPGGA,71855.4,3713.9683575000004,N,13701.454787,E,4,13,1.0,96.6125,M,37.55,M,3.0,0000*64,37.232805958333344,137.02424645,679568.9881624265,4122618.531175181
1047,[2021-02-22 16:18:55.937] $GPGGA,71855.5,3713.9683584,N,13701.4547871,E,4,13,1.0,96.6128,M,37.55,M,3.0,0000*67,37.23280597333333,137.02424645166664,679568.9882746985,4122618.532842686
1048,[2021-02-22 16:18:56.015] $GPGGA,71855.6,3713.9683596999994,N,13701.4547875,E,4,13,1.0,96.6117,M,37.55,M,3.0,0000*6E,37.23280599499999,137.02424645833335,679568.9888147495,4122618.535259387
1049,[2021-02-22 16:18:56.124] $GPGGA,71855.7,3713.9683622000002,N,13701.454788,E,4,13,1.0,96.6133,M,37.55,M,3.0,0000*6E,37.232806036666666,137.02424646666663,679568.9894552015,4122618.53989838
1050,[2021-02-22 16:18:56.218] $GPGGA,71855.8,3713.9683641999995,N,13701.454788699999,E,4,13,1.0,96.6137,M,37.55,M,3.0,0000*64,37.23280606999999,137.0242464783333,679568.9904111633,4122618.543619058
1051,[2021-02-22 16:18:56.327] $GPGGA,71855.9,3713.9683649999997,N,13701.454789,E,4,13,1.0,96.6133,M,37.55,M,3.0,0000*64,37.23280608333332,137.02424648333331,679568.9908231214,4122618.5451079635
1052,[2021-02-22 16:18:56.406] $GPGGA,71856.0,3713.9683655000003,N,13701.454788299998,E,4,13,1.0,96.6118,M,37.55,M,4.0,0000*67,37.232806091666674,137.02424647166663,679568.989768291,4122618.5460104644
1053,[2021-02-22 16:18:56.515] $GPGGA,71856.1,3713.9683658,N,13701.454788,E,4,13,1.0,96.6123,M,37.55,M,4.0,0000*60,37.23280609666666,137.02424646666663,679568.9893128307,4122618.546555759
1054,[2021-02-22 16:18:56.609] $GPGGA,71856.2,3713.9683661,N,13701.4547873,E,4,13,1.0,96.6143,M,37.55,M,4.0,0000*63,37.23280610166667,137.024246455,679568.9882659144,4122618.547088407
1055,[2021-02-22 16:18:56.734] $GPGGA,71856.3,3713.9683649000003,N,13701.454787399998,E,4,13,1.0,96.615,M,37.55,M,4.0,0000*6D,37.23280608166667,137.02424645666665,679568.9884612359,4122618.544872443
1056,[2021-02-22 16:18:56.812] $GPGGA,71856.4,3713.9683636999994,N,13701.454788699999,E,4,13,1.0,96.6162,M,37.55,M,4.0,0000*6E,37.23280606166665,137.0242464783333,679568.9904309371,4122618.5426944215
1057,[2021-02-22 16:18:56.937] $GPGGA,71856.5,3713.9683636,N,13701.4547896,E,4,13,1.0,96.6157,M,37.55,M,4.0,0000*68,37.23280606,137.02424649333335,679568.9917656822,4122618.5425379556
1058,[2021-02-22 16:18:57.031] $GPGGA,71856.6,3713.9683634000003,N,13701.454789899999,E,4,13,1.0,96.616,M,37.55,M,4.0,0000*62,37.23280605666667,137.0242464983333,679568.992217181,4122618.5421775887
1059,[2021-02-22 16:18:57.109] $GPGGA,71856.7,3713.9683632,N,13701.4547879,E,4,13,1.0,96.6157,M,37.55,M,4.0,0000*6F,37.232806053333334,137.02424646499998,679568.9892677895,4122618.54174449
1060,[2021-02-22 16:18:57.234] $GPGGA,71856.8,3713.9683636999994,N,13701.4547854,E,4,13,1.0,96.6148,M,37.55,M,4.0,0000*64,37.23280606166665,137.02424642333332,679568.985551392,4122618.54259007
1061,[2021-02-22 16:18:57.312] $GPGGA,71856.9,3713.9683636,N,13701.454784,E,4,13,1.0,96.6146,M,37.55,M,4.0,0000*6F,37.23280606,137.0242464,679568.9834852378,4122618.5423608744
1062,[2021-02-22 16:18:57.437] $GPGGA,71857.0,3713.9683631,N,13701.454783000001,E,4,13,1.0,96.6124,M,37.55,M,5.0,0000*62,37.232806051666664,137.02424638333332,679568.982026359,4122618.541404617
1063,[2021-02-22 16:18:57.531] $GPGGA,71857.1,3713.9683626999995,N,13701.454783200003,E,4,13,1.0,96.6129,M,37.55,M,5.0,0000*6B,37.232806045,137.02424638666673,679568.9823379162,4122618.540671233
1064,[2021-02-22 16:18:57.624] $GPGGA,71857.2,3713.9683578000004,N,13701.454781400002,E,4,13,1.0,96.6252,M,37.55,M,5.0,0000*6A,37.23280596333334,137.0242463566667,679568.9798701247,4122618.53155288
1065,[2021-02-22 16:18:57.718] $GPGGA,71857.3,3713.9683551,N,13701.454780200002,E,4,13,1.0,96.634,M,37.55,M,5.0,0000*65,37.23280591833333,137.0242463366667,679568.9782025211,4122618.526521898
1066,[2021-02-22 16:18:57.827] $GPGGA,71857.4,3713.9683539000002,N,13701.4547792,E,4,13,1.0,96.6401,M,37.55,M,5.0,0000*68,37.23280589833334,137.02424632,679568.9767713253,4122618.5242711524
1067,[2021-02-22 16:18:57.905] $GPGGA,71857.5,3713.9683529,N,13701.454778,E,4,13,1.0,96.6447,M,37.55,M,5.0,0000*69,37.23280588166666,137.0242463,679568.9750364909,4122618.5223839325
1068,[2021-02-22 16:18:58.031] $GPGGA,71857.6,3713.9683523000003,N,13701.454776800001,E,4,13,1.0,96.6482,M,37.55,M,5.0,0000*6F,37.23280587166667,137.02424628,679568.9732858397,4122618.5212364243
1069,[2021-02-22 16:18:58.109] $GPGGA,71857.7,3713.9683517999997,N,13701.454775299999,E,4,13,1.0,96.6502,M,37.55,M,5.0,0000*67,37.23280586333333,137.02424625499998,679568.9710876355,4122618.5202643555
1070,[2021-02-22 16:18:58.234] $GPGGA,71857.8,3713.9683529,N,13701.4547743,E,4,13,1.0,96.6509,M,37.55,M,5.0,0000*60,37.23280588166666,137.02424623833335,679568.9695654874,4122618.5222669323
1071,[2021-02-22 16:18:58.312] $GPGGA,71857.9,3713.9683539000002,N,13701.454776100001,E,4,13,1.0,96.6513,M,37.55,M,5.0,0000*6B,37.23280589833334,137.02424626833337,679568.9721875115,4122618.5241731256
1072,[2021-02-22 16:18:58.437] $GPGGA,71858.0,3713.9683534999995,N,13701.4547769,E,4,13,1.0,96.6488,M,37.55,M,6.0,0000*69,37.23280589166666,137.02424628166665,679568.9733862473,4122618.523458712
1073,[2021-02-22 16:18:58.530] $GPGGA,71858.1,3713.9683549,N,13701.4547796,E,4,13,1.0,96.6483,M,37.55,M,6.0,0000*68,37.23280591500001,137.02424632666668,679568.9773232385,4122618.5261330726
1074,[2021-02-22 16:18:58.624] $GPGGA,71858.2,3713.9683567,N,13701.4547806,E,4,13,1.0,96.6423,M,37.55,M,1.0,0000*6C,37.232805944999996,137.02424634333332,679568.9787307011,4122618.5294933827
1075,[2021-02-22 16:18:58.702] $GPGGA,71858.3,3713.9683585999996,N,13701.454781299999,E,4,13,1.0,96.6391,M,37.55,M,1.0,0000*68,37.23280597666666,137.02424635499997,679568.9796906153,4122618.533029135
1076,[2021-02-22 16:18:58.827] $GPGGA,71858.4,3713.9683603,N,13701.4547804,E,4,13,1.0,96.6359,M,37.55,M,1.0,0000*63,37.232806005,137.02424634,679568.9782926011,4122618.536144439
1077,[2021-02-22 16:18:58.937] $GPGGA,71858.5,3713.9683604999996,N,13701.4547801,E,4,13,1.0,96.6335,M,37.55,M,1.0,0000*6B,37.23280600833333,137.02424633500004,679568.9778411001,4122618.5365048065
1078,[2021-02-22 16:18:59.015] $GPGGA,71858.6,3713.9683608000005,N,13701.454778600002,E,4,13,1.0,96.6309,M,37.55,M,1.0,0000*6A,37.232806013333345,137.02424631000002,679568.9756112602,4122618.5370121575
1079,[2021-02-22 16:18:59.140] $GPGGA,71858.7,3713.9683594000003,N,13701.454778799998,E,4,13,1.0,96.6303,M,37.55,M,1.0,0000*69,37.23280599000001,137.02424631333332,679568.9759623535,4122618.5344295013
1080,[2021-02-22 16:18:59.218] $GPGGA,71858.8,3713.9683588,N,13701.4547778,E,4,13,1.0,96.6302,M,37.55,M,1.0,0000*65,37.232805979999995,137.0242462966667,679568.9745074338,4122618.5332883135
1081,[2021-02-22 16:18:59.327] $GPGGA,71858.9,3713.9683575999998,N,13701.4547766,E,4,13,1.0,96.6288,M,37.55,M,1.0,0000*69,37.23280595999999,137.02424627666664,679568.9727805066,4122618.531031241
1082,[2021-02-22 16:18:59.405] $GPGGA,71859.0,3713.9683567,N,13701.454773700001,E,4,13,1.0,96.6266,M,37.55,M,2.0,0000*66,37.232805944999996,137.02424622833337,679568.9685280172,4122618.5292751947
1083,[2021-02-22 16:18:59.515] $GPGGA,71859.1,3713.9683569,N,13701.4547731,E,4,13,1.0,96.6265,M,37.55,M,2.0,0000*6C,37.23280594833333,137.02424621833333,679568.9676329156,4122618.529626075
1084,[2021-02-22 16:18:59.624] $GPGGA,71859.2,3713.9683567,N,13701.454773399999,E,4,13,1.0,96.6271,M,37.55,M,2.0,0000*61,37.232805944999996,137.0242462233333,679568.9680844166,4122618.529265708
1085,[2021-02-22 16:18:59.733] $GPGGA,71859.3,3713.9683569,N,13701.4547736,E,4,13,1.0,96.6286,M,37.55,M,2.0,0000*64,37.23280594833333,137.02424622666666,679568.9683722386,4122618.5296418867
1086,[2021-02-22 16:18:59.812] $GPGGA,71859.4,3713.9683572999998,N,13701.454773299998,E,4,13,1.0,96.6297,M,37.55,M,2.0,0000*6D,37.232805954999996,137.02424622166663,679568.9679128235,4122618.530372109
1087,[2021-02-22 16:18:59.937] $GPGGA,71859.5,3713.9683581,N,13701.454773500001,E,4,13,1.0,96.6303,M,37.55,M,2.0,0000*6B,37.23280596833333,137.024246225,679568.9681769193,4122618.531857851
1088,[2021-02-22 16:19:00.015] $GPGGA,71859.6,3713.9683579000002,N,13701.4547769,E,4,13,1.0,96.6312,M,37.55,M,2.0,0000*66,37.232805965,137.02424628166665,679568.9732122385,4122618.5315955104
1089,[2021-02-22 16:19:00.124] $GPGGA,71859.7,3713.9683577,N,13701.454777500001,E,4,13,1.0,96.6309,M,37.55,M,2.0,0000*6E,37.232805961666664,137.02424629166669,679568.97410734,4122618.5312446286
1090,[2021-02-22 16:19:00.202] $GPGGA,71859.8,3713.9683572999998,N,13701.454776700002,E,4,13,1.0,96.6306,M,37.55,M,2.0,0000*69,37.232805954999996,137.02424627833335,679568.97294024,4122618.5304796225
1091,[2021-02-22 16:19:00.327] $GPGGA,71859.9,3713.9683555,N,13701.454775400001,E,4,13,1.0,96.6314,M,37.55,M,2.0,0000*6F,37.23280592500001,137.0242462566667,679568.9710891789,4122618.527109825
1092,[2021-02-22 16:19:00.405] $GPGGA,71900.0,3713.9683543000006,N,13701.454773500001,E,4,13,1.0,96.6283,M,37.55,M,3.0,0000*65,37.232805905000006,137.024246225,679568.9683271996,4122618.5248306175
1093,[2021-02-22 16:19:00.515] $GPGGA,71900.1,3713.9683530999996,N,13701.454773,E,4,13,1.0,96.6292,M,37.55,M,3.0,0000*64,37.23280588499999,137.02424621666668,679568.9676353314,4122618.5225956785
1094,[2021-02-22 16:19:00.640] $GPGGA,71900.2,3713.9683524,N,13701.454772100002,E,4,13,1.0,96.6294,M,37.55,M,3.0,0000*65,37.232805873333334,137.0242462016667,679568.966332231,4122618.52127273
1095,[2021-02-22 16:19:00.718] $GPGGA,71900.3,3713.9683524,N,13701.454771399998,E,4,13,1.0,96.6289,M,37.55,M,3.0,0000*6E,37.232805873333334,137.02424618999996,679568.9652971699,4122618.5212505953
1096,[2021-02-22 16:19:00.827] $GPGGA,71900.4,3713.968353,N,13701.454771,E,4,13,1.0,96.6287,M,37.55,M,3.0,0000*66,37.232805883333334,137.02424618333336,679568.9646819852,4122618.52234751
1097,[2021-02-22 16:19:00.905] $GPGGA,71900.5,3713.9683523000003,N,13701.454770700002,E,4,13,1.0,96.6301,M,37.55,M,3.0,0000*6C,37.23280587166667,137.02424617833336,679568.9642660747,4122618.521043534
1098,[2021-02-22 16:19:01.030] $GPGGA,71900.6,3713.9683514,N,13701.454770800001,E,4,13,1.0,96.6304,M,37.55,M,3.0,0000*61,37.232805856666666,137.02424618,679568.9644495298,4122618.5193823487
1099,[2021-02-22 16:19:01.108] $GPGGA,71900.7,3713.9683502,N,13701.4547717,E,4,13,1.0,96.6301,M,37.55,M,3.0,0000*6C,37.232805836666664,137.024246195,679568.9658277703,4122618.517191681
1100,[2021-02-22 16:19:01.233] $GPGGA,71900.8,3713.9683492,N,13701.454771399998,E,4,13,1.0,96.6305,M,37.55,M,3.0,0000*6C,37.232805819999996,137.02424618999996,679568.9654237217,4122618.5153329233
1101,[2021-02-22 16:19:01.312] $GPGGA,71900.9,3713.9683475,N,13701.4547723,E,4,13,1.0,96.6292,M,37.55,M,3.0,0000*6F,37.232805791666664,137.024246205,679568.9668217406,4122618.5122176195
1102,[2021-02-22 16:19:01.436] $GPGGA,71901.0,3713.9683469000006,N,13701.4547724,E,4,13,1.0,96.6263,M,37.55,M,4.0,0000*64,37.23280578166668,137.02424620666667,679568.9669933359,4122618.5111112203
1103,[2021-02-22 16:19:01.530] $GPGGA,71901.1,3713.9683465999997,N,13701.454774700002,E,4,13,1.0,96.6251,M,37.55,M,4.0,0000*6E,37.23280577666666,137.02424624500003,679568.9704060971,4122618.5106291664
1104,[2021-02-22 16:19:01.624] $GPGGA,71901.2,3713.9683448,N,13701.454776800001,E,4,13,1.0,96.6256,M,37.55,M,4.0,0000*6B,37.23280574666666,137.02424628,679568.9735824456,4122618.5073668812
1105,[2021-02-22 16:19:01.718] $GPGGA,71901.3,3713.9683435,N,13701.454778600002,E,4,13,1.0,96.6265,M,37.55,M,4.0,0000*60,37.232805725000006,137.02424631000002,679568.9762954314,4122618.5050197486
1106,[2021-02-22 16:19:01.827] $GPGGA,71901.4,3713.9683420999995,N,13701.4547801,E,4,13,1.0,96.6265,M,37.55,M,4.0,0000*62,37.232805701666656,137.02424633500004,679568.9785687735,4122618.5024781977
1107,[2021-02-22 16:19:01.921] $GPGGA,71901.5,3713.9683418000004,N,13701.454780700002,E,4,13,1.0,96.625,M,37.55,M,4.0,0000*69,37.232805696666674,137.02424634500002,679568.9794678276,4122618.5019423896
1108,[2021-02-22 16:19:02.030] $GPGGA,71901.6,3713.9683423,N,13701.454781,E,4,13,1.0,96.6252,M,37.55,M,4.0,0000*66,37.232805705000004,137.02424635000003,679568.9798916499,4122618.5028765122
1109,[2021-02-22 16:19:02.108] $GPGGA,71901.7,3713.9683435,N,13701.4547803,E,4,13,1.0,96.6251,M,37.55,M,4.0,0000*61,37.232805725000006,137.02424633833334,679568.978809134,4122618.5050735045
1110,[2021-02-22 16:19:02.233] $GPGGA,71901.8,3713.9683456000002,N,13701.454778799998,E,4,13,1.0,96.6245,M,37.55,M,4.0,0000*62,37.23280576,137.02424631333332,679568.9765081087,4122618.5089095426
1111,[2021-02-22 16:19:02.327] $GPGGA,71901.9,3713.9683473000005,N,13701.454778100002,E,4,13,1.0,96.6274,M,37.55,M,4.0,0000*6F,37.232805788333344,137.02424630166672,679568.9754058281,4122618.512031172
1112,[2021-02-22 16:19:02.421] $GPGGA,71902.0,3713.9683471999997,N,13701.454778100002,E,4,13,1.0,96.6256,M,37.55,M,5.0,0000*65,37.23280578666666,137.02424630166672,679568.9754097828,4122618.511846243
1113,[2021-02-22 16:19:02.515] $GPGGA,71902.1,3713.9683475,N,13701.4547806,E,4,13,1.0,96.6269,M,37.55,M,5.0,0000*6F,37.232805791666664,137.02424634333332,679568.9790945379,4122618.512480079
1114,[2021-02-22 16:19:02.608] $GPGGA,71902.2,3713.968349,N,13701.4547833,E,4,13,1.0,96.6292,M,37.55,M,5.0,0000*65,37.23280581666667,137.02424638833332,679568.9830275744,4122618.5153393657
1115,[2021-02-22 16:19:02.733] $GPGGA,71902.3,3713.9683502999997,N,13701.4547854,E,4,13,1.0,96.6295,M,37.55,M,5.0,0000*69,37.23280583833332,137.02424642333332,679568.9860813281,4122618.517809823
1116,[2021-02-22 16:19:02.811] $GPGGA,71902.4,3713.9683517999997,N,13701.454786700002,E,4,13,1.0,96.6308,M,37.55,M,5.0,0000*61,37.23280586333333,137.02424644500005,679568.9879442579,4122618.5206248406
1117,[2021-02-22 16:19:02.936] $GPGGA,71902.5,3713.968353,N,13701.454786100001,E,4,13,1.0,96.6342,M,37.55,M,5.0,0000*62,37.232805883333334,137.024246435,679568.9870096066,4122618.5228249957
1118,[2021-02-22 16:19:03.015] $GPGGA,71902.6,3713.9683534999995,N,13701.4547856,E,4,13,1.0,96.6354,M,37.55,M,5.0,0000*67,37.23280589166666,137.02424642666668,679568.9862505076,4122618.523733819
1119,[2021-02-22 16:19:03.139] $GPGGA,71902.7,3713.9683526,N,13701.454784099999,E,4,13,1.0,96.6361,M,37.55,M,5.0,0000*64,37.23280587666667,137.02424640166666,679568.9840681223,4122618.5220220424
1120,[2021-02-22 16:19:03.218] $GPGGA,71902.8,3713.9683525,N,13701.4547819,E,4,13,1.0,96.6378,M,37.55,M,5.0,0000*6D,37.232805875000004,137.024246365,679568.9808190493,4122618.521767548
1121,[2021-02-22 16:19:03.327] $GPGGA,71902.9,3713.9683519,N,13701.454779700001,E,4,13,1.0,96.6382,M,37.55,M,5.0,0000*6F,37.232805865,137.02424632833333,679568.9775897454,4122618.5205884175
1122,[2021-02-22 16:19:03.405] $GPGGA,71903.0,3713.9683513000004,N,13701.454779499998,E,4,13,1.0,96.6364,M,37.55,M,6.0,0000*64,37.232805855,137.02424632499995,679568.9773177403,4122618.51947253
1123,[2021-02-22 16:19:03.514] $GPGGA,71903.1,3713.9683517999997,N,13701.454781400002,E,4,13,1.0,96.6359,M,37.55,M,6.0,0000*66,37.23280586333333,137.0242463566667,679568.9801074096,4122618.520457247
1124,[2021-02-22 16:19:03.624] $GPGGA,71903.2,3713.9683502999997,N,13701.454783200003,E,4,13,1.0,96.6355,M,37.55,M,1.0,0000*60,37.23280583833332,137.02424638666673,679568.9828283048,4122618.5177402566
1125,[2021-02-22 16:19:03.733] $GPGGA,71903.3,3713.9683505000003,N,13701.454784600002,E,4,13,1.0,96.6356,M,37.55,M,1.0,0000*67,37.23280584166667,137.02424641000005,679568.984890504,4122618.518154382
1126,[2021-02-22 16:19:03.811] $GPGGA,71903.4,3713.9683515,N,13701.454786700002,E,4,13,1.0,96.6352,M,37.55,M,1.0,0000*66,37.232805858333336,137.02424644500005,679568.9879561221,4122618.5200700606
1127,[2021-02-22 16:19:03.936] $GPGGA,71903.5,3713.9683516000005,N,13701.454788699999,E,4,13,1.0,96.6347,M,37.55,M,1.0,0000*6E,37.232805860000006,137.0242464783333,679568.9909094614,4122618.5203182288
