,Format,Time,Latitude,LatType,Longitude,LonType,Status,Satellite,LevelAccuracy,Altitude(sea),M(sea),Altitude(geoid),M(geoid),DGPS use,checksum,Lat,Lon,UTM_X,UTM_Y
403,[2021-02-22 16:17:46.410] $GPGGA,71746.0,3713.96842499,N,13701.45441296,E,4,7.0,1.2,97.42200000000001,M,36.771,M,1.0,0979*72,37.23280708316667,137.024240216,679568.4324189527,4122618.6441548476
404,[2021-02-22 16:17:46.504] $GPGGA,71746.1,3713.96842488,N,13701.45441046,E,4,7.0,1.2,97.427,M,36.771,M,1.1,0979*78,37.232807081333334,137.02424017433336,679568.4287266769,4122618.6438723737
405,[2021-02-22 16:17:46.614] $GPGGA,71746.2,3713.96842321,N,13701.45441178,E,4,7.0,1.2,97.431,M,36.771,M,1.2,0979*77,37.23280705349999,137.02424019633332,679568.4307445372,4122618.6408258276
406,[2021-02-22 16:17:46.707] $GPGGA,71746.3,3713.96842291,N,13701.45441064,E,4,7.0,1.2,97.434,M,36.771,M,1.3,0979*74,37.2328070485,137.02424017733333,679568.42907074,4122618.6402349994
407,[2021-02-22 16:17:46.817] $GPGGA,71746.4,3713.96842163,N,13701.4544113,E,4,7.0,1.2,97.431,M,36.771,M,1.4,0979*7F,37.23280702716667,137.02424018833332,679568.430097271,4122618.6378888017
408,[2021-02-22 16:17:46.910] $GPGGA,71746.5,3713.96842087,N,13701.45441122,E,4,7.0,1.2,97.429,M,36.771,M,1.5,0979*7E,37.232807014500004,137.02424018700003,679568.4300090367,4122618.6364808255
409,[2021-02-22 16:17:47.020] $GPGGA,71746.6,3713.96842206,N,13701.45441476,E,4,7.0,1.2,97.429,M,36.771,M,1.6,0979*71,37.23280703433334,137.02424024600003,679568.4351963981,4122618.6387933996
410,[2021-02-22 16:17:47.114] $GPGGA,71746.7,3713.9684207,N,13701.45441209,E,4,7.0,1.2,97.428,M,36.771,M,1.7,0979*7D,37.23280701166667,137.02424020149996,679568.4313021807,4122618.63619396
411,[2021-02-22 16:17:47.207] $GPGGA,71746.8,3713.96842073,N,13701.454413,E,4,7.0,1.2,97.432,M,36.771,M,1.8,0979*7D,37.23280701216667,137.02424021666664,679568.4326465662,4122618.636278213
412,[2021-02-22 16:17:47.317] $GPGGA,71746.9,3713.96842068,N,13701.45441335,E,4,7.0,1.2,97.432,M,36.771,M,1.9,0979*71,37.23280701133333,137.02424022250003,679568.4331660764,4122618.636196817
413,[2021-02-22 16:17:47.410] $GPGGA,71747.0,3713.96841973,N,13701.45441291,E,4,7.0,1.2,97.427,M,36.771,M,2.0,0979*78,37.2328069955,137.02424021516666,679568.4325530372,4122618.6344260946
414,[2021-02-22 16:17:47.504] $GPGGA,71747.1,3713.96841406,N,13701.45441117,E,4,7.0,1.2,97.456,M,36.771,M,1.1,0979*7F,37.232806901000004,137.02424018616665,679568.4302044173,4122618.6238857005
415,[2021-02-22 16:17:47.614] $GPGGA,71747.2,3713.9684105,N,13701.45441093,E,4,7.0,1.2,97.456,M,36.771,M,1.2,0979*75,37.232806841666665,137.02424018216666,679568.4299903327,4122618.617294702
416,[2021-02-22 16:17:47.707] $GPGGA,71747.3,3713.96841351,N,13701.45441328,E,4,7.0,1.2,97.462,M,36.771,M,1.3,0979*73,37.23280689183333,137.02424022133334,679568.4333461244,4122618.6229353203
417,[2021-02-22 16:17:47.817] $GPGGA,71747.4,3713.96841269,N,13701.45441149,E,4,7.0,1.2,97.463,M,36.771,M,1.4,0979*7D,37.23280687816667,137.02424019149998,679568.4307317676,4122618.6213623146
418,[2021-02-22 16:17:47.910] $GPGGA,71747.5,3713.96841225,N,13701.45441579,E,4,7.0,1.2,97.458,M,36.771,M,1.5,0979*7A,37.232806870833336,137.02424026316666,679568.437107366,4122618.620684609
419,[2021-02-22 16:17:48.020] $GPGGA,71747.6,3713.968412,N,13701.45441166,E,4,7.0,1.2,97.459,M,36.771,M,1.6,0979*76,37.232806866666664,137.0242401943333,679568.4310104218,4122618.620091693
420,[2021-02-22 16:17:48.113] $GPGGA,71747.7,3713.96841149,N,13701.45441271,E,4,7.0,1.2,97.463,M,36.771,M,1.7,0979*74,37.23280685816667,137.02424021183336,679568.4325831805,4122618.6191817666
421,[2021-02-22 16:17:48.207] $GPGGA,71747.8,3713.96841417,N,13701.45441399,E,4,7.0,1.2,97.458,M,36.771,M,1.8,0979*75,37.23280690283334,137.0242402331667,679568.4343698658,4122618.624178293
422,[2021-02-22 16:17:48.301] $GPGGA,71747.9,3713.96841444,N,13701.45441326,E,4,7.0,1.2,97.461,M,36.771,M,1.9,0979*7D,37.232806907333334,137.024240221,679568.4332797732,4122618.6246545115
423,[2021-02-22 16:17:48.410] $GPGGA,71748.0,3713.96842051,N,13701.45441067,E,4,7.0,1.2,97.45299999999999,M,36.771,M,2.0,0979*75,37.232807008500004,137.02424017783332,679568.429210014,4122618.6357976953
424,[2021-02-22 16:17:48.504] $GPGGA,71748.1,3713.96842614,N,13701.4544108,E,4,7.0,1.2,97.44,M,36.771,M,1.1,0979*7A,37.23280710233333,137.02424018,679568.4291795873,4122618.6462132083
425,[2021-02-22 16:17:48.613] $GPGGA,71748.2,3713.96842802,N,13701.45440861,E,4,7.0,1.2,97.439,M,36.771,M,1.2,0979*7B,37.23280713366667,137.02424014349998,679568.425866992,4122618.6496205884
426,[2021-02-22 16:17:48.707] $GPGGA,71748.3,3713.9684259,N,13701.45440957,E,4,7.0,1.2,97.446,M,36.771,M,1.3,0979*71,37.23280709833333,137.02424015949998,679568.4273703364,4122618.6457304885
427,[2021-02-22 16:17:48.817] $GPGGA,71748.4,3713.96842718,N,13701.45441078,E,4,7.0,1.2,97.441,M,36.771,M,1.4,0979*71,37.23280711966667,137.02424017966666,679568.4291088837,4122618.648135818
428,[2021-02-22 16:17:48.910] $GPGGA,71748.5,3713.96842664,N,13701.45441193,E,4,7.0,1.2,97.44,M,36.771,M,1.5,0979*7E,37.23280711066666,137.02424019883335,679568.4308306911,4122618.6471735747
429,[2021-02-22 16:17:49.020] $GPGGA,71748.6,3713.96842645,N,13701.45441332,E,4,7.0,1.2,97.445,M,36.771,M,1.6,0979*71,37.23280710750001,137.02424022199997,679568.4328935234,4122618.6468661698
430,[2021-02-22 16:17:49.113] $GPGGA,71748.7,3713.96842548,N,13701.45441204,E,4,7.0,1.2,97.432,M,36.771,M,1.7,0979*7B,37.232807091333335,137.0242402006667,679568.4310392166,4122618.6450318997
431,[2021-02-22 16:17:49.207] $GPGGA,71748.8,3713.96842362,N,13701.45441098,E,4,7.0,1.2,97.443,M,36.771,M,1.8,0979*74,37.23280706033333,137.024240183,679568.4295454015,4122618.6415587333
432,[2021-02-22 16:17:49.301] $GPGGA,71748.9,3713.96842759,N,13701.45440951,E,4,7.0,1.2,97.43700000000001,M,36.771,M,1.9,0979*76,37.232807126500006,137.02424015849996,679568.4272147808,4122618.648853862
433,[2021-02-22 16:17:49.410] $GPGGA,71749.0,3713.96842656,N,13701.45440866,E,4,7.0,1.2,97.441,M,36.771,M,2.0,0979*7E,37.23280710933333,137.02424014433336,679568.425998668,4122618.646922232
434,[2021-02-22 16:17:49.504] $GPGGA,71749.1,3713.96842812,N,13701.45440989,E,4,7.0,1.2,97.443,M,36.771,M,2.1,0979*72,37.23280713533334,137.02424016483337,679568.4277557139,4122618.6498459917
435,[2021-02-22 16:17:49.613] $GPGGA,71749.2,3713.96842933,N,13701.45441066,E,4,7.0,1.2,97.431,M,36.771,M,2.2,0979*7C,37.2328071555,137.02424017766666,679568.428846418,4122618.652107959
436,[2021-02-22 16:17:49.707] $GPGGA,71749.3,3713.96842003,N,13701.4544166,E,4,7.0,1.2,97.455,M,36.771,M,1.3,0979*77,37.232807000499996,137.0242402766667,679568.4379973949,4122618.6350975595
437,[2021-02-22 16:17:49.816] $GPGGA,71749.4,3713.9684204,N,13701.45441457,E,4,7.0,1.2,97.454,M,36.771,M,1.4,0979*77,37.23280700666666,137.02424024283334,679568.4349811012,4122618.6357175973
438,[2021-02-22 16:17:49.910] $GPGGA,71749.5,3713.9684185,N,13701.4544121,E,4,7.0,1.2,97.458,M,36.771,M,1.5,0979*74,37.232806975,137.02424020166666,679568.4314039731,4122618.6321258764
439,[2021-02-22 16:17:50.020] $GPGGA,71749.6,3713.96841624,N,13701.45441307,E,4,7.0,1.2,97.45700000000001,M,36.771,M,1.6,0979*71,37.232806937333336,137.02424021783332,679568.4329276426,4122618.627977194
440,[2021-02-22 16:17:50.113] $GPGGA,71749.7,3713.96841855,N,13701.45440934,E,4,7.0,1.2,97.45299999999999,M,36.771,M,1.7,0979*76,37.232806975833334,137.02424015566666,679568.4273209223,4122618.632131065
441,[2021-02-22 16:17:50.223] $GPGGA,71749.8,3713.96841319,N,13701.45440859,E,4,7.0,1.2,97.45100000000001,M,36.771,M,1.8,0979*7D,37.23280688649999,137.02424014316665,679568.426423907,4122618.6221952485
442,[2021-02-22 16:17:50.301] $GPGGA,71749.9,3713.96841366,N,13701.454405,E,4,7.0,1.2,97.45700000000001,M,36.771,M,1.9,0979*72,37.23280689433333,137.02424008333335,679568.4210969671,4122618.6229508854
443,[2021-02-22 16:17:50.410] $GPGGA,71750.0,3713.96841625,N,13701.45440653,E,4,7.0,1.2,97.45299999999999,M,36.771,M,1.0,0979*79,37.232806937499994,137.0242401088333,679568.4232568708,4122618.627788881
444,[2021-02-22 16:17:50.504] $GPGGA,71750.1,3713.96841842,N,13701.45440487,E,4,7.0,1.2,97.45299999999999,M,36.771,M,1.1,0979*7D,37.23280697366667,137.02424008116668,679568.4207164968,4122618.631749312
445,[2021-02-22 16:17:50.613] $GPGGA,71750.2,3713.9684148,N,13701.45440422,E,4,7.0,1.2,97.449,M,36.771,M,1.2,0979*7B,37.232806913333334,137.02424007033332,679568.4198985338,4122618.625034393
446,[2021-02-22 16:17:50.707] $GPGGA,71750.3,3713.96841398,N,13701.45440677,E,4,7.0,1.2,97.445,M,36.771,M,1.3,0979*7B,37.23280689966667,137.02424011283333,679568.423701521,4122618.623598624
447,[2021-02-22 16:17:50.816] $GPGGA,71750.4,3713.96841391,N,13701.45440258,E,4,7.0,1.2,97.45200000000001,M,36.771,M,1.4,0979*7D,37.232806898499994,137.02424004300002,679568.4175087467,4122618.6233366802
448,[2021-02-22 16:17:50.910] $GPGGA,71750.5,3713.96841422,N,13701.45439889,E,4,7.0,1.2,97.449,M,36.771,M,1.5,0979*70,37.23280690366666,137.02423998150002,679568.412040265,4122618.623793271
449,[2021-02-22 16:17:51.020] $GPGGA,71750.6,3713.96841172,N,13701.45440236,E,4,7.0,1.2,97.454,M,36.771,M,1.6,0979*7C,37.232806862,137.02424003933334,679568.4172700497,4122618.619279818
450,[2021-02-22 16:17:51.113] $GPGGA,71750.7,3713.96841268,N,13701.45440307,E,4,7.0,1.2,97.45,M,36.771,M,1.7,0979*73,37.232806878,137.02424005116666,679568.4182819246,4122618.62107757
451,[2021-02-22 16:17:51.223] $GPGGA,71750.8,3713.96841249,N,13701.45440584,E,4,7.0,1.2,97.45,M,36.771,M,1.8,0979*7D,37.23280687483334,137.02424009733338,679568.4223853049,4122618.6208138005
452,[2021-02-22 16:17:51.301] $GPGGA,71750.9,3713.96840988,N,13701.454409,E,4,7.0,1.2,97.449,M,36.771,M,0.9,0979*73,37.23280683133333,137.02424014999997,679568.4271610533,4122618.6160871224
453,[2021-02-22 16:17:51.426] $GPGGA,71751.0,3713.96841172,N,13701.45440893,E,4,7.0,1.2,97.443,M,36.771,M,1.0,0979*7E,37.232806862,137.02424014883331,679568.4269847817,4122618.619487571
454,[2021-02-22 16:17:51.504] $GPGGA,71751.1,3713.96841001,N,13701.45441024,E,4,7.0,1.2,97.446,M,36.771,M,1.1,0979*7B,37.2328068335,137.02424017066667,679568.4289894425,4122618.61636674
455,[2021-02-22 16:17:51.613] $GPGGA,71751.2,3713.96841062,N,13701.45441479,E,4,7.0,1.2,97.443,M,36.771,M,1.2,0979*77,37.232806843666665,137.02424024649997,679568.4356931755,4122618.617638672
456,[2021-02-22 16:17:51.707] $GPGGA,71751.3,3713.96841551,N,13701.45441461,E,4,7.0,1.2,97.444,M,36.771,M,1.3,0979*7C,37.23280692516666,137.0242402435,679568.4352336341,4122618.626675922
457,[2021-02-22 16:17:51.816] $GPGGA,71751.4,3713.9684127,N,13701.45441379,E,4,7.0,1.2,97.448,M,36.771,M,1.4,0979*7A,37.232806878333335,137.02424022983334,679568.434132269,4122618.6214535376
458,[2021-02-22 16:17:51.910] $GPGGA,71751.5,3713.96841092,N,13701.45441448,E,4,7.0,1.2,97.45,M,36.771,M,1.5,0979*78,37.23280684866668,137.02424024133333,679568.4352229316,4122618.6181836524
459,[2021-02-22 16:17:52.019] $GPGGA,71751.6,3713.96841453,N,13701.45441544,E,4,7.0,1.2,97.45,M,36.771,M,1.6,0979*7C,37.232806908833325,137.02424025733333,679568.4364996698,4122618.6248898804
460,[2021-02-22 16:17:52.113] $GPGGA,71751.7,3713.96841189,N,13701.45441386,E,4,7.0,1.2,97.446,M,36.771,M,1.7,0979*71,37.232806864833336,137.024240231,679568.4342678066,4122618.6199578415
461,[2021-02-22 16:17:52.207] $GPGGA,71751.8,3713.96841422,N,13701.45441416,E,4,7.0,1.2,97.43700000000001,M,36.771,M,1.8,0979*7D,37.23280690366666,137.024240236,679568.4346192572,4122618.6242761314
462,[2021-02-22 16:17:52.301] $GPGGA,71751.9,3713.96841331,N,13701.45441282,E,4,7.0,1.2,97.456,M,36.771,M,1.9,0979*74,37.232806888499994,137.02424021366664,679568.4326738527,4122618.6225509206
463,[2021-02-22 16:17:52.410] $GPGGA,71752.0,3713.96841374,N,13701.45441456,E,4,7.0,1.2,97.444,M,36.771,M,2.0,0979*79,37.23280689566666,137.02424024266665,679568.4352296984,4122618.6234011287
464,[2021-02-22 16:17:52.504] $GPGGA,71752.1,3713.96841508,N,13701.45440754,E,4,7.0,1.2,97.464,M,36.771,M,1.1,0979*75,37.232806918,137.0242401256667,679568.4247965822,4122618.6256571715
465,[2021-02-22 16:17:52.613] $GPGGA,71752.2,3713.96841423,N,13701.45440811,E,4,7.0,1.2,97.459,M,36.771,M,1.2,0979*7D,37.23280690383333,137.02424013516665,679568.4256730247,4122618.624103313
466,[2021-02-22 16:17:52.707] $GPGGA,71752.3,3713.96841438,N,13701.45440866,E,4,7.0,1.2,97.45700000000001,M,36.771,M,1.3,0979*79,37.23280690633333,137.02424014433336,679568.4264803546,4122618.6243980955
467,[2021-02-22 16:17:52.816] $GPGGA,71752.4,3713.96841239,N,13701.45440855,E,4,7.0,1.2,97.459,M,36.771,M,1.4,0979*70,37.23280687316667,137.02424014250002,679568.426396401,4122618.620714568
468,[2021-02-22 16:17:52.910] $GPGGA,71752.5,3713.96841462,N,13701.45441082,E,4,7.0,1.2,97.45299999999999,M,36.771,M,1.5,0979*71,37.23280691033334,137.02424018033332,679568.4296647446,4122618.624910225
469,[2021-02-22 16:17:53.019] $GPGGA,71752.6,3713.96841375,N,13701.454412,E,4,7.0,1.2,97.449,M,36.771,M,1.6,0979*73,37.23280689583333,137.02424019999998,679568.4314439585,4122618.6233386705
470,[2021-02-22 16:17:53.113] $GPGGA,71752.7,3713.96841239,N,13701.45441252,E,4,7.0,1.2,97.455,M,36.771,M,1.7,0979*70,37.23280687316667,137.02424020866664,679568.4322666401,4122618.6208401043
471,[2021-02-22 16:17:53.207] $GPGGA,71752.8,3713.96841294,N,13701.45441201,E,4,7.0,1.2,97.45700000000001,M,36.771,M,1.8,0979*73,37.23280688233333,137.02424020016667,679568.4314907802,4122618.6218410768
472,[2021-02-22 16:17:53.301] $GPGGA,71752.9,3713.96841332,N,13701.45441061,E,4,7.0,1.2,97.456,M,36.771,M,1.9,0979*7B,37.232806888666666,137.02424017683333,679568.429405641,4122618.6224995297
473,[2021-02-22 16:17:53.410] $GPGGA,71753.0,3713.96841739,N,13701.4544108,E,4,7.0,1.2,97.46799999999999,M,36.771,M,2.0,0979*74,37.2328069565,137.02424018,679568.4295256266,4122618.630032076
474,[2021-02-22 16:17:53.504] $GPGGA,71753.1,3713.96841783,N,13701.45441119,E,4,7.0,1.2,97.454,M,36.771,M,2.1,0979*7B,37.23280696383333,137.02424018649998,679568.4300848981,4122618.6308580884
475,[2021-02-22 16:17:53.613] $GPGGA,71753.2,3713.96841275,N,13701.45441192,E,4,7.0,1.2,97.459,M,36.771,M,1.2,0979*7A,37.23280687916666,137.02424019866666,679568.4313652134,4122618.6214868687
476,[2021-02-22 16:17:53.707] $GPGGA,71753.3,3713.96841155,N,13701.45441418,E,4,7.0,1.2,97.455,M,36.771,M,1.3,0979*70,37.23280685916666,137.02424023633333,679568.4347544208,4122618.6193392063
477,[2021-02-22 16:17:53.816] $GPGGA,71753.4,3713.96841141,N,13701.45441714,E,4,7.0,1.2,97.461,M,36.771,M,1.4,0979*7D,37.232806856833335,137.02424028566665,679568.4391367624,4122618.6191739086
478,[2021-02-22 16:17:53.910] $GPGGA,71753.5,3713.96841018,N,13701.45441568,E,4,7.0,1.2,97.458,M,36.771,M,1.5,0979*73,37.23280683633333,137.02424026133335,679568.4370265785,4122618.616853135
479,[2021-02-22 16:17:54.019] $GPGGA,71753.6,3713.96840984,N,13701.45441722,E,4,7.0,1.2,97.455,M,36.771,M,1.6,0979*7F,37.23280683066666,137.024240287,679568.4393171443,4122618.6162730805
480,[2021-02-22 16:17:54.113] $GPGGA,71753.7,3713.96841348,N,13701.4544201,E,4,7.0,1.2,97.45,M,36.771,M,1.7,0979*74,37.23280689133333,137.024240335,679568.4434317066,4122618.6230955007
481,[2021-02-22 16:17:54.207] $GPGGA,71753.8,3713.96841484,N,13701.45442013,E,4,7.0,1.2,97.462,M,36.771,M,1.8,0979*71,37.232806914,137.0242403355,679568.4434222801,4122618.62561146
482,[2021-02-22 16:17:54.285] $GPGGA,71753.9,3713.9684158,N,13701.45441608,E,4,7.0,1.2,97.45100000000001,M,36.771,M,1.9,0979*7B,37.23280693,137.024240268,679568.4373957807,4122618.6272586957
483,[2021-02-22 16:17:54.394] $GPGGA,71754.0,3713.96841858,N,13701.45442125,E,4,7.0,1.2,97.456,M,36.771,M,1.0,0979*78,37.232806976333336,137.02424035416666,679568.4449304624,4122618.6325631547
484,[2021-02-22 16:17:54.504] $GPGGA,71754.1,3713.96841804,N,13701.45442417,E,4,7.0,1.2,97.449,M,36.771,M,1.1,0979*7B,37.232806967333325,137.02424040283336,679568.449269479,4122618.631656881
485,[2021-02-22 16:17:54.613] $GPGGA,71754.2,3713.96841917,N,13701.45442264,E,4,7.0,1.2,97.45200000000001,M,36.771,M,1.2,0979*70,37.232806986166665,137.02424037733334,679568.4469624545,4122618.633698179
486,[2021-02-22 16:17:54.707] $GPGGA,71754.3,3713.96842103,N,13701.45441983,E,4,7.0,1.2,97.45100000000001,M,36.771,M,1.3,0979*7C,37.23280701716667,137.0242403305,679568.4427338861,4122618.6370489686
487,[2021-02-22 16:17:54.816] $GPGGA,71754.4,3713.9684228,N,13701.4544189,E,4,7.0,1.2,97.45299999999999,M,36.771,M,1.4,0979*75,37.232807046666665,137.02424031500004,679568.4412887478,4122618.640292773
488,[2021-02-22 16:17:54.910] $GPGGA,71754.5,3713.96842376,N,13701.4544147,E,4,7.0,1.2,97.45200000000001,M,36.771,M,1.5,0979*7E,37.232807062666666,137.02424024500002,679568.435040447,4122618.6419352633
489,[2021-02-22 16:17:55.019] $GPGGA,71754.6,3713.9684224,N,13701.45441816,E,4,7.0,1.2,97.449,M,36.771,M,1.6,0979*7C,37.23280704,137.02424030266667,679568.4402103617,4122618.639529663
490,[2021-02-22 16:17:55.113] $GPGGA,71754.7,3713.96842391,N,13701.45441648,E,4,7.0,1.2,97.45,M,36.771,M,1.7,0979*7C,37.23280706516667,137.02424027466668,679568.4376665145,4122618.642268942
491,[2021-02-22 16:17:55.207] $GPGGA,71754.8,3713.96842117,N,13701.45441682,E,4,7.0,1.2,97.45200000000001,M,36.771,M,1.8,0979*74,37.2328070195,137.02424028033332,679568.4382776122,4122618.6372126876
492,[2021-02-22 16:17:55.300] $GPGGA,71754.9,3713.96842335,N,13701.45441477,E,4,7.0,1.2,97.45100000000001,M,36.771,M,1.9,0979*7D,37.232807055833334,137.02424024616667,679568.4351601658,4122618.641179275
493,[2021-02-22 16:17:55.410] $GPGGA,71755.0,3713.96842384,N,13701.45441335,E,4,7.0,1.2,97.45,M,36.771,M,2.0,0979*75,37.232807064,137.02424022250003,679568.4330411067,4122618.6420405162
494,[2021-02-22 16:17:55.504] $GPGGA,71755.1,3713.9684231,N,13701.45441315,E,4,7.0,1.2,97.444,M,36.771,M,1.1,0979*7C,37.232807051666676,137.02424021916667,679568.4327746404,4122618.640665732
495,[2021-02-22 16:17:55.613] $GPGGA,71755.2,3713.96842008,N,13701.45441439,E,4,7.0,1.2,97.449,M,36.771,M,1.2,0979*72,37.23280700133334,137.02424023983332,679568.434727597,4122618.63512014
496,[2021-02-22 16:17:55.707] $GPGGA,71755.3,3713.96842238,N,13701.45441334,E,4,7.0,1.2,97.45200000000001,M,36.771,M,1.3,0979*73,37.232807039666675,137.02424022233333,679568.4330840576,4122618.639340264
497,[2021-02-22 16:17:55.816] $GPGGA,71755.4,3713.96842071,N,13701.45441422,E,4,7.0,1.2,97.45,M,36.771,M,1.4,0979*7E,37.23280701183333,137.02424023699996,679568.4344513111,4122618.636279804
498,[2021-02-22 16:17:55.910] $GPGGA,71755.5,3713.96841873,N,13701.45441692,E,4,7.0,1.2,97.449,M,36.771,M,1.5,0979*76,37.23280697883333,137.02424028200002,679568.4385219768,4122618.632703623
499,[2021-02-22 16:17:56.019] $GPGGA,71755.6,3713.96841636,N,13701.45441597,E,4,7.0,1.2,97.45200000000001,M,36.771,M,1.6,0979*75,37.23280693933334,137.02424026616666,679568.4372109814,4122618.6282908088
500,[2021-02-22 16:17:56.113] $GPGGA,71755.7,3713.96841635,N,13701.45441692,E,4,7.0,1.2,97.449,M,36.771,M,1.7,0979*7A,37.232806939166665,137.02424028200002,679568.4386160995,4122618.628302356
501,[2021-02-22 16:17:56.207] $GPGGA,71755.8,3713.96841684,N,13701.45441535,E,4,7.0,1.2,97.458,M,36.771,M,1.8,0979*7E,37.23280694733334,137.02424025583332,679568.4362752368,4122618.629158855
502,[2021-02-22 16:17:56.300] $GPGGA,71755.9,3713.96841655,N,13701.45441148,E,4,7.0,1.2,97.45100000000001,M,36.771,M,0.9,0979*74,37.2328069425,137.02424019133335,679568.4305643288,4122618.628500189
503,[2021-02-22 16:17:56.410] $GPGGA,71756.0,3713.96841284,N,13701.45440802,E,4,7.0,1.2,97.461,M,36.771,M,1.0,0979*7B,37.232806880666665,137.02424013366664,679568.4255949169,4122618.62152998
504,[2021-02-22 16:17:56.504] $GPGGA,71756.1,3713.96841431,N,13701.45440625,E,4,7.0,1.2,97.458,M,36.771,M,1.1,0979*72,37.23280690516666,137.0242401041667,679568.4229195754,4122618.62419244
505,[2021-02-22 16:17:56.613] $GPGGA,71756.2,3713.96841152,N,13701.4544072,E,4,7.0,1.2,97.458,M,36.771,M,1.2,0979*76,37.23280685866666,137.02424012,679568.4244346283,4122618.61906301
506,[2021-02-22 16:17:56.707] $GPGGA,71756.3,3713.96841355,N,13701.45441037,E,4,7.0,1.2,97.456,M,36.771,M,1.3,0979*7D,37.23280689250001,137.02424017283332,679568.4290416675,4122618.6229172745
507,[2021-02-22 16:17:56.816] $GPGGA,71756.4,3713.96841401,N,13701.45440803,E,4,7.0,1.2,97.462,M,36.771,M,1.4,0979*72,37.23280690016667,137.02424013383333,679568.4255634348,4122618.623693946
508,[2021-02-22 16:17:56.910] $GPGGA,71756.5,3713.96841252,N,13701.45440878,E,4,7.0,1.2,97.455,M,36.771,M,1.5,0979*7A,37.23280687533333,137.02424014633334,679568.4267313493,4122618.6209622445
509,[2021-02-22 16:17:57.019] $GPGGA,71756.6,3713.96841425,N,13701.45440715,E,4,7.0,1.2,97.461,M,36.771,M,1.6,0979*7F,37.23280690416667,137.02424011916668,679568.4242527318,4122618.6241099434
510,[2021-02-22 16:17:57.113] $GPGGA,71756.7,3713.96841579,N,13701.4544063,E,4,7.0,1.2,97.45700000000001,M,36.771,M,1.7,0979*74,37.23280692983333,137.024240105,679568.4229349731,4122618.626930943
511,[2021-02-22 16:17:57.207] $GPGGA,71756.8,3713.96841582,N,13701.45440787,E,4,7.0,1.2,97.455,M,36.771,M,1.8,0979*7F,37.23280693033333,137.02424013116666,679568.4252552689,4122618.6270360686
512,[2021-02-22 16:17:57.300] $GPGGA,71756.9,3713.9684169,N,13701.45440558,E,4,7.0,1.2,97.458,M,36.771,M,1.9,0979*72,37.232806948333334,137.024240093,679568.4218264492,4122618.628960868
513,[2021-02-22 16:17:57.410] $GPGGA,71757.0,3713.96841554,N,13701.45440812,E,4,7.0,1.2,97.462,M,36.771,M,1.0,0979*72,37.232806925666665,137.02424013533334,679568.4256360059,4122618.6265261765
514,[2021-02-22 16:17:57.503] $GPGGA,71757.1,3713.96841768,N,13701.4544081,E,4,7.0,1.2,97.459,M,36.771,M,1.1,0979*75,37.23280696133334,137.02424013499999,679568.4255218003,4122618.6304829884
515,[2021-02-22 16:17:57.613] $GPGGA,71757.2,3713.96841484,N,13701.45440848,E,4,7.0,1.2,97.458,M,36.771,M,1.2,0979*78,37.232806914,137.02424014133334,679568.4261960034,4122618.62524307
516,[2021-02-22 16:17:57.707] $GPGGA,71757.3,3713.96841735,N,13701.45440689,E,4,7.0,1.2,97.458,M,36.771,M,1.3,0979*72,37.23280695583333,137.02424011483333,679568.4237456854,4122618.6298344657
517,[2021-02-22 16:17:57.816] $GPGGA,71757.4,3713.96841487,N,13701.45440813,E,4,7.0,1.2,97.462,M,36.771,M,1.4,0979*7C,37.232806914499996,137.02424013549998,679568.4256772865,4122618.62528748
518,[2021-02-22 16:17:57.910] $GPGGA,71757.5,3713.96841711,N,13701.45440729,E,4,7.0,1.2,97.456,M,36.771,M,1.5,0979*71,37.23280695183333,137.02424012150001,679568.4243466372,4122618.62940329
519,[2021-02-22 16:17:58.019] $GPGGA,71757.6,3713.96841853,N,13701.4544062,E,4,7.0,1.2,97.463,M,36.771,M,1.6,0979*76,37.2328069755,137.02424010333334,679568.4226787512,4122618.631994787
520,[2021-02-22 16:17:58.113] $GPGGA,71757.7,3713.96841842,N,13701.45440896,E,4,7.0,1.2,97.461,M,36.771,M,1.7,0979*77,37.23280697366667,137.02424014933334,679568.4267641772,4122618.631878644
521,[2021-02-22 16:17:58.207] $GPGGA,71757.8,3713.96841909,N,13701.45440978,E,4,7.0,1.2,97.464,M,36.771,M,1.8,0979*7D,37.23280698483333,137.02424016300003,679568.427950176,4122618.6331435842
522,[2021-02-22 16:17:58.300] $GPGGA,71757.9,3713.96841776,N,13701.45440998,E,4,7.0,1.2,97.463,M,36.771,M,1.9,0979*72,37.23280696266667,137.02424016633333,679568.4282985008,4122618.630690377
523,[2021-02-22 16:17:58.410] $GPGGA,71758.0,3713.96841847,N,13701.45440911,E,4,7.0,1.2,97.458,M,36.771,M,1.0,0979*79,37.2328069745,137.0242401518333,679568.4269839943,4122618.63197585
524,[2021-02-22 16:17:58.503] $GPGGA,71758.1,3713.96841805,N,13701.45440811,E,4,7.0,1.2,97.458,M,36.771,M,1.1,0979*7E,37.2328069675,137.02424013516665,679568.4255219538,4122618.6311675333
525,[2021-02-22 16:17:58.613] $GPGGA,71758.2,3713.96841524,N,13701.45440751,E,4,7.0,1.2,97.45700000000001,M,36.771,M,1.2,0979*74,37.23280692066667,137.02424012516664,679568.4247458922,4122618.625952106
526,[2021-02-22 16:17:58.706] $GPGGA,71758.3,3713.96841622,N,13701.45440862,E,4,7.0,1.2,97.465,M,36.771,M,1.3,0979*7F,37.232806937,137.02424014366667,679568.426348439,4122618.6277994923
527,[2021-02-22 16:17:58.816] $GPGGA,71758.4,3713.96841735,N,13701.45440647,E,4,7.0,1.2,97.461,M,36.771,M,1.4,0979*75,37.23280695583333,137.02424010783335,679568.4231246527,4122618.6298211846
528,[2021-02-22 16:17:58.910] $GPGGA,71758.5,3713.96841505,N,13701.45440779,E,4,7.0,1.2,97.46,M,36.771,M,1.5,0979*79,37.23280691750001,137.02424012983332,679568.4251674277,4122618.6256095995
529,[2021-02-22 16:17:59.019] $GPGGA,71758.6,3713.96841728,N,13701.45440598,E,4,7.0,1.2,97.458,M,36.771,M,1.6,0979*72,37.23280695466666,137.02424009966666,679568.4224028796,4122618.6296762396
530,[2021-02-22 16:17:59.113] $GPGGA,71758.7,3713.96841481,N,13701.45440678,E,4,7.0,1.2,97.46,M,36.771,M,1.7,0979*74,37.232806913500006,137.024240113,679568.4236834827,4122618.6251338366
531,[2021-02-22 16:17:59.206] $GPGGA,71758.8,3713.9684129,N,13701.45440712,E,4,7.0,1.2,97.461,M,36.771,M,1.8,0979*7E,37.23280688166667,137.02424011866665,679568.4242617583,4122618.621612476
532,[2021-02-22 16:17:59.300] $GPGGA,71758.9,3713.96841375,N,13701.45440663,E,4,7.0,1.2,97.473,M,36.771,M,1.9,0979*70,37.23280689583333,137.02424011050002,679568.4235036083,4122618.6231688634
533,[2021-02-22 16:17:59.410] $GPGGA,71759.0,3713.96840945,N,13701.45440762,E,4,7.0,1.2,97.45299999999999,M,36.771,M,1.0,0979*7B,37.232806824166666,137.02424012699998,679568.4251375217,4122618.615248298
534,[2021-02-22 16:17:59.503] $GPGGA,71759.1,3713.96841073,N,13701.45440747,E,4,7.0,1.2,97.446,M,36.771,M,1.1,0979*75,37.2328068455,137.0242401245,679568.4248651066,4122618.6176106236
535,[2021-02-22 16:17:59.613] $GPGGA,71759.2,3713.9684073,N,13701.45440802,E,4,7.0,1.2,97.449,M,36.771,M,1.2,0979*75,37.23280678833333,137.02424013366664,679568.4258140093,4122618.6112850113
536,[2021-02-22 16:17:59.706] $GPGGA,71759.3,3713.96840962,N,13701.45441072,E,4,7.0,1.2,97.444,M,36.771,M,1.3,0979*7F,37.232806827,137.02424017866667,679568.429714617,4122618.615660701
537,[2021-02-22 16:17:59.816] $GPGGA,71759.4,3713.9684078,N,13701.454407,E,4,7.0,1.2,97.454,M,36.771,M,1.4,0979*7F,37.23280679666667,137.02424011666668,679568.4242860153,4122618.6121773953
538,[2021-02-22 16:17:59.910] $GPGGA,71759.5,3713.96840689,N,13701.45440989,E,4,7.0,1.2,97.45200000000001,M,36.771,M,1.5,0979*7E,37.2328067815,137.02424016483337,679568.4285953041,4122618.6105859424
539,[2021-02-22 16:18:00.019] $GPGGA,71759.6,3713.96840762,N,13701.45440988,E,4,7.0,1.2,97.45200000000001,M,36.771,M,1.6,0979*7B,37.23280679366666,137.02424016466668,679568.4285516464,4122618.6119355937
540,[2021-02-22 16:18:00.113] $GPGGA,71759.7,3713.96840814,N,13701.45440767,E,4,7.0,1.2,97.456,M,36.771,M,1.7,0979*7E,37.23280680233333,137.0242401278333,679568.4252632612,4122618.6128273318
541,[2021-02-22 16:18:00.206] $GPGGA,71759.8,3713.96840713,N,13701.45440702,E,4,7.0,1.2,97.448,M,36.771,M,1.8,0979*7A,37.232806785499996,137.024240117,679568.4243420842,4122618.610939014
542,[2021-02-22 16:18:00.300] $GPGGA,71759.9,3713.96840576,N,13701.45440974,E,4,7.0,1.2,97.449,M,36.771,M,1.9,0979*75,37.23280676266667,137.02424016233334,679568.4284181935,4122618.608491522
543,[2021-02-22 16:18:00.410] $GPGGA,71800.0,3713.96841097,N,13701.45440885,E,4,7.0,1.2,97.454,M,36.771,M,1.0,0979*7E,37.2328068495,137.0242401475,679568.4268961521,4122618.6180980867
544,[2021-02-22 16:18:00.503] $GPGGA,71800.1,3713.96841379,N,13701.45440878,E,4,7.0,1.2,97.449,M,36.771,M,1.1,0979*73,37.232806896499994,137.02424014633334,679568.4266811243,4122618.6233108197
545,[2021-02-22 16:18:00.613] $GPGGA,71800.2,3713.96841261,N,13701.45441353,E,4,7.0,1.2,97.443,M,36.771,M,1.2,0979*72,37.23280687683334,137.02424022550002,679568.4337513807,4122618.6212788816
546,[2021-02-22 16:18:00.706] $GPGGA,71800.3,3713.96841391,N,13701.45441016,E,4,7.0,1.2,97.455,M,36.771,M,1.3,0979*79,37.232806898499994,137.02424016933332,679568.4287169152,4122618.62357637
547,[2021-02-22 16:18:00.816] $GPGGA,71800.4,3713.96841307,N,13701.45441153,E,4,7.0,1.2,97.45100000000001,M,36.771,M,1.4,0979*72,37.23280688450001,137.02424019216667,679568.4307758858,4122618.622066304
548,[2021-02-22 16:18:00.909] $GPGGA,71800.5,3713.96841245,N,13701.45441277,E,4,7.0,1.2,97.45,M,36.771,M,1.5,0979*71,37.23280687416667,137.02424021283332,679568.432633931,4122618.6209589657
549,[2021-02-22 16:18:01.019] $GPGGA,71800.6,3713.96841398,N,13701.45441207,E,4,7.0,1.2,97.447,M,36.771,M,1.6,0979*71,37.23280689966667,137.02424020116663,679568.431538367,4122618.6237662174
550,[2021-02-22 16:18:01.113] $GPGGA,71800.7,3713.96841359,N,13701.45441524,E,4,7.0,1.2,97.449,M,36.771,M,1.7,0979*74,37.232806893166675,137.02424025399998,679568.4362411129,4122618.6231452418
551,[2021-02-22 16:18:01.206] $GPGGA,71800.8,3713.96841196,N,13701.45441281,E,4,7.0,1.2,97.443,M,36.771,M,1.8,0979*77,37.232806866,137.0242402135,679568.4327124556,4122618.620054086
552,[2021-02-22 16:18:01.300] $GPGGA,71800.9,3713.96840924,N,13701.45441551,E,4,7.0,1.2,97.45200000000001,M,36.771,M,1.9,0979*7D,37.23280682066666,137.0242402585,679568.4368123796,4122618.615109444
553,[2021-02-22 16:18:01.409] $GPGGA,71801.0,3713.96840775,N,13701.45440952,E,4,7.0,1.2,97.45200000000001,M,36.771,M,2.0,0979*7B,37.23280679583333,137.02424015866666,679568.4280141885,4122618.612164618
554,[2021-02-22 16:18:01.503] $GPGGA,71801.1,3713.96840848,N,13701.45440933,E,4,7.0,1.2,97.456,M,36.771,M,2.1,0979*79,37.23280680800001,137.0242401555,679568.4277043758,4122618.613508578
555,[2021-02-22 16:18:01.613] $GPGGA,71801.2,3713.96840525,N,13701.45440953,E,4,7.0,1.2,97.448,M,36.771,M,1.2,0979*75,37.23280675416667,137.02424015883335,679568.4281278475,4122618.607541753
556,[2021-02-22 16:18:01.706] $GPGGA,71801.3,3713.96840592,N,13701.45440879,E,4,7.0,1.2,97.446,M,36.771,M,1.3,0979*7E,37.232806765333336,137.02424014649998,679568.4270071455,4122618.6087573646
557,[2021-02-22 16:18:01.816] $GPGGA,71801.4,3713.96840328,N,13701.45440724,E,4,7.0,1.2,97.456,M,36.771,M,1.4,0979*7F,37.23280672133333,137.0242401206667,679568.4248196449,4122618.6038262723
558,[2021-02-22 16:18:01.909] $GPGGA,71801.5,3713.96840358,N,13701.45440844,E,4,7.0,1.2,97.455,M,36.771,M,1.5,0979*72,37.23280672633334,137.02424014066668,679568.4265821602,4122618.6044190004
559,[2021-02-22 16:18:02.019] $GPGGA,71801.6,3713.96840442,N,13701.45440908,E,4,7.0,1.2,97.445,M,36.771,M,1.6,0979*76,37.232806740333324,137.02424015133334,679568.4274952789,4122618.6059926255
560,[2021-02-22 16:18:02.112] $GPGGA,71801.7,3713.96840412,N,13701.45440898,E,4,7.0,1.2,97.448,M,36.771,M,1.7,0979*76,37.232806735333334,137.0242401496667,679568.4273592784,4122618.605434683
561,[2021-02-22 16:18:02.206] $GPGGA,71801.8,3713.96840319,N,13701.45440708,E,4,7.0,1.2,97.444,M,36.771,M,1.8,0979*70,37.23280671983334,137.02424011800002,679568.4245866212,4122618.6036547804
562,[2021-02-22 16:18:02.300] $GPGGA,71801.9,3713.96840428,N,13701.45440895,E,4,7.0,1.2,97.447,M,36.771,M,1.9,0979*7D,37.232806738,137.02424014916664,679568.4273085862,4122618.605729617
563,[2021-02-22 16:18:02.394] $GPGGA,71802.0,3713.96840324,N,13701.45440719,E,4,7.0,1.2,97.449,M,36.771,M,2.0,0979*73,37.232806720666666,137.0242401198333,679568.42474729,4122618.60375072
564,[2021-02-22 16:18:02.487] $GPGGA,71802.1,3713.96840595,N,13701.45441014,E,4,7.0,1.2,97.459,M,36.771,M,1.1,0979*76,37.23280676583333,137.02424016900002,679568.4290021402,4122618.6088555316
565,[2021-02-22 16:18:02.612] $GPGGA,71802.2,3713.9684077,N,13701.45441182,E,4,7.0,1.2,97.458,M,36.771,M,1.2,0979*70,37.232806794999995,137.02424019699995,679568.4314170606,4122618.6121448805
566,[2021-02-22 16:18:02.706] $GPGGA,71802.3,3713.96840478,N,13701.45441011,E,4,7.0,1.2,97.465,M,36.771,M,1.3,0979*7E,37.23280674633334,137.0242401685,679568.4290040503,4122618.606690935
567,[2021-02-22 16:18:02.816] $GPGGA,71802.4,3713.96840747,N,13701.45441402,E,4,7.0,1.2,97.458,M,36.771,M,1.4,0979*79,37.23280679116667,137.02424023366666,679568.4346791911,4122618.611789117
568,[2021-02-22 16:18:02.909] $GPGGA,71802.5,3713.96840849,N,13701.4544112,E,4,7.0,1.2,97.46,M,36.771,M,1.5,0979*76,37.232806808166664,137.02424018666667,679568.4304690587,4122618.6135862023
569,[2021-02-22 16:18:03.019] $GPGGA,71802.6,3713.9684086,N,13701.4544138,E,4,7.0,1.2,97.465,M,36.771,M,1.6,0979*70,37.23280681000001,137.02424022999998,679568.4343091968,4122618.613871839
570,[2021-02-22 16:18:03.112] $GPGGA,71802.7,3713.96840742,N,13701.45441206,E,4,7.0,1.2,97.45700000000001,M,36.771,M,1.7,0979*71,37.23280679033333,137.024240201,679568.4317830139,4122618.6116346745
571,[2021-02-22 16:18:03.206] $GPGGA,71802.8,3713.96840818,N,13701.45441195,E,4,7.0,1.2,97.465,M,36.771,M,1.8,0979*79,37.232806802999995,137.02424019916668,679568.4315903073,4122618.6130366432
572,[2021-02-22 16:18:03.300] $GPGGA,71802.9,3713.96840827,N,13701.45441466,E,4,7.0,1.2,97.46600000000001,M,36.771,M,1.9,0979*7F,37.2328068045,137.02424024433333,679568.4355938892,4122618.613288773
573,[2021-02-22 16:18:03.409] $GPGGA,71803.0,3713.96840937,N,13701.45441407,E,4,7.0,1.2,97.443,M,36.771,M,1.0,0979*7E,37.23280682283333,137.02424023449998,679568.4346779811,4122618.615304315
574,[2021-02-22 16:18:03.503] $GPGGA,71803.1,3713.96840709,N,13701.45441689,E,4,7.0,1.2,97.45100000000001,M,36.771,M,1.1,0979*7A,37.23280678483333,137.02424028149997,679568.4389379432,4122618.611177147
575,[2021-02-22 16:18:03.612] $GPGGA,71803.2,3713.96840764,N,13701.4544151,E,4,7.0,1.2,97.45100000000001,M,36.771,M,1.2,0979*72,37.232806794000005,137.02424025166667,679568.436269411,4122618.6121376446
576,[2021-02-22 16:18:03.706] $GPGGA,71803.3,3713.96840736,N,13701.45441524,E,4,7.0,1.2,97.455,M,36.771,M,1.3,0979*76,37.23280678933334,137.02424025399998,679568.4364874929,4122618.611624276
577,[2021-02-22 16:18:03.816] $GPGGA,71803.4,3713.96840735,N,13701.4544161,E,4,7.0,1.2,97.447,M,36.771,M,1.4,0979*72,37.232806789166666,137.02424026833333,679568.4377595279,4122618.611632976
578,[2021-02-22 16:18:03.909] $GPGGA,71803.5,3713.9684051,N,13701.45441635,E,4,7.0,1.2,97.454,M,36.771,M,1.5,0979*72,37.23280675166666,137.0242402725,679568.4382181732,4122618.6074800184
579,[2021-02-22 16:18:04.019] $GPGGA,71803.6,3713.96840431,N,13701.45441814,E,4,7.0,1.2,97.455,M,36.771,M,1.6,0979*7C,37.23280673850001,137.02424030233334,679568.4408962012,4122618.606075698
580,[2021-02-22 16:18:04.112] $GPGGA,71803.7,3713.96840533,N,13701.454417,E,4,7.0,1.2,97.449,M,36.771,M,1.7,0979*78,37.2328067555,137.02424028333337,679568.439170204,4122618.607925907
581,[2021-02-22 16:18:04.206] $GPGGA,71803.8,3713.96840852,N,13701.45441813,E,4,7.0,1.2,97.45200000000001,M,36.771,M,1.8,0979*75,37.23280680866667,137.02424030216667,679568.4407149209,4122618.613860818
582,[2021-02-22 16:18:04.300] $GPGGA,71803.9,3713.96840745,N,13701.45441509,E,4,7.0,1.2,97.462,M,36.771,M,0.9,0979*78,37.23280679083334,137.0242402515,679568.436262139,4122618.611785967
583,[2021-02-22 16:18:04.409] $GPGGA,71804.0,3713.96840912,N,13701.4544149,E,4,7.0,1.2,97.459,M,36.771,M,1.0,0979*7B,37.232806818666674,137.0242402483333,679568.4359151472,4122618.614868243
584,[2021-02-22 16:18:04.503] $GPGGA,71804.1,3713.9684092,N,13701.4544127,E,4,7.0,1.2,97.45700000000001,M,36.771,M,1.1,0979*7C,37.23280682000001,137.0242402116667,679568.4326589579,4122618.6149466196
585,[2021-02-22 16:18:04.612] $GPGGA,71804.2,3713.96840934,N,13701.45441497,E,4,7.0,1.2,97.459,M,36.771,M,1.2,0979*78,37.23280682233333,137.02424024949997,679568.4360099512,4122618.615277297
586,[2021-02-22 16:18:04.706] $GPGGA,71804.3,3713.9684087,N,13701.4544168,E,4,7.0,1.2,97.455,M,36.771,M,1.3,0979*71,37.23280681166666,137.02424028,679568.4387411934,4122618.6141516296
587,[2021-02-22 16:18:04.815] $GPGGA,71804.4,3713.96840811,N,13701.45441837,E,4,7.0,1.2,97.459,M,36.771,M,1.4,0979*78,37.232806801833334,137.02424030616666,679568.4410860086,4122618.613110204
588,[2021-02-22 16:18:04.909] $GPGGA,71804.5,3713.96841105,N,13701.45441846,E,4,7.0,1.2,97.461,M,36.771,M,1.5,0979*78,37.232806850833335,137.02424030766667,679568.4411028202,4122618.6185499104
589,[2021-02-22 16:18:05.019] $GPGGA,71804.6,3713.96840932,N,13701.45441713,E,4,7.0,1.2,97.461,M,36.771,M,1.6,0979*7A,37.23280682199999,137.0242402855,679568.4392046325,4122618.615308614
590,[2021-02-22 16:18:05.112] $GPGGA,71804.7,3713.96841073,N,13701.45441814,E,4,7.0,1.2,97.459,M,36.771,M,1.7,0979*74,37.2328068455,137.02424030233334,679568.4406423073,4122618.617948024
591,[2021-02-22 16:18:05.222] $GPGGA,71804.8,3713.96841196,N,13701.45441691,E,4,7.0,1.2,97.458,M,36.771,M,1.8,0979*7C,37.232806866,137.02424028183336,679568.438774924,4122618.620183734
592,[2021-02-22 16:18:05.300] $GPGGA,71804.9,3713.96841158,N,13701.45441385,E,4,7.0,1.2,97.462,M,36.771,M,1.9,0979*77,37.23280685966667,137.02424023083336,679568.4342652825,4122618.61938425
593,[2021-02-22 16:18:05.409] $GPGGA,71805.0,3713.96841296,N,13701.45441546,E,4,7.0,1.2,97.45,M,36.771,M,1.0,0979*7F,37.232806882666665,137.02424025766666,679568.4365913311,4122618.6219871566
594,[2021-02-22 16:18:05.503] $GPGGA,71805.1,3713.96841213,N,13701.45441358,E,4,7.0,1.2,97.46,M,36.771,M,1.1,0979*78,37.232806868833336,137.02424022633335,679568.4338442957,4122618.620392812
595,[2021-02-22 16:18:05.612] $GPGGA,71805.2,3713.9684123,N,13701.45441493,E,4,7.0,1.2,97.45299999999999,M,36.771,M,1.2,0979*79,37.23280687166667,137.02424024883334,679568.4358337491,4122618.620749877
596,[2021-02-22 16:18:05.706] $GPGGA,71805.3,3713.96841242,N,13701.45441554,E,4,7.0,1.2,97.45200000000001,M,36.771,M,1.3,0979*77,37.23280687366666,137.02424025899998,679568.4367309792,4122618.6209910787
597,[2021-02-22 16:18:05.815] $GPGGA,71805.4,3713.96841165,N,13701.45441577,E,4,7.0,1.2,97.459,M,36.771,M,1.4,0979*7B,37.232806860833335,137.02424026283336,679568.4371015226,4122618.6195744122
598,[2021-02-22 16:18:05.909] $GPGGA,71805.5,3713.96841291,N,13701.45441302,E,4,7.0,1.2,97.45200000000001,M,36.771,M,1.5,0979*7C,37.23280688183334,137.024240217,679568.432985403,4122618.6218175376
599,[2021-02-22 16:18:06.018] $GPGGA,71805.6,3713.96841152,N,13701.45441346,E,4,7.0,1.2,97.458,M,36.771,M,1.6,0979*7A,37.23280685866666,137.0242402243333,679568.4336909784,4122618.6192609607
600,[2021-02-22 16:18:06.112] $GPGGA,71805.7,3713.96841218,N,13701.45441312,E,4,7.0,1.2,97.45299999999999,M,36.771,M,1.7,0979*7D,37.23280686966667,137.02424021866668,679568.4331621372,4122618.62047073
601,[2021-02-22 16:18:06.206] $GPGGA,71805.8,3713.96841043,N,13701.45441235,E,4,7.0,1.2,97.45299999999999,M,36.771,M,1.8,0979*75,37.232806840500004,137.02424020583334,679568.432092784,4122618.6172101554
602,[2021-02-22 16:18:06.300] $GPGGA,71805.9,3713.96841027,N,13701.45441341,E,4,7.0,1.2,97.462,M,36.771,M,1.9,0979*77,37.23280683783332,137.0242402235,679568.4336664805,4122618.616947789
603,[2021-02-22 16:18:06.409] $GPGGA,71806.0,3713.96841171,N,13701.45441067,E,4,7.0,1.2,97.459,M,36.771,M,1.0,0979*79,37.23280686183334,137.02424017783332,679568.4295580307,4122618.6195240994
604,[2021-02-22 16:18:06.503] $GPGGA,71806.1,3713.96841877,N,13701.4544141,E,4,7.0,1.2,97.45,M,36.771,M,1.1,0979*7B,37.2328069795,137.02424023500004,679568.4343506008,4122618.6326884227
605,[2021-02-22 16:18:06.612] $GPGGA,71806.2,3713.96841581,N,13701.45441113,E,4,7.0,1.2,97.455,M,36.771,M,1.2,0979*7C,37.23280693016666,137.02424018550002,679568.4300760678,4122618.627120659
606,[2021-02-22 16:18:06.706] $GPGGA,71806.3,3713.96841658,N,13701.45441042,E,4,7.0,1.2,97.459,M,36.771,M,1.3,0979*72,37.232806943,137.02424017366664,679568.4289957713,4122618.6285221493
607,[2021-02-22 16:18:06.815] $GPGGA,71806.4,3713.96841488,N,13701.45441198,E,4,7.0,1.2,97.463,M,36.771,M,1.4,0979*72,37.23280691466667,137.02424019966668,679568.431369698,4122618.625427716
608,[2021-02-22 16:18:06.909] $GPGGA,71806.5,3713.96841594,N,13701.45440985,E,4,7.0,1.2,97.458,M,36.771,M,1.5,0979*73,37.23280693233333,137.02424016416663,679568.4281782475,4122618.627320591
609,[2021-02-22 16:18:07.018] $GPGGA,71806.6,3713.96841635,N,13701.45441166,E,4,7.0,1.2,97.464,M,36.771,M,1.6,0979*70,37.232806939166665,137.0242401943333,679568.4308383908,4122618.6281360276
610,[2021-02-22 16:18:07.112] $GPGGA,71806.7,3713.96841563,N,13701.4544106,E,4,7.0,1.2,97.456,M,36.771,M,1.7,0979*76,37.23280692716666,137.02424017666664,679568.4292994961,4122618.626771033
611,[2021-02-22 16:18:07.206] $GPGGA,71806.8,3713.96841788,N,13701.45441238,E,4,7.0,1.2,97.45,M,36.771,M,1.8,0979*78,37.23280696466666,137.02424020633333,679568.4318425166,4122618.6309881797
612,[2021-02-22 16:18:07.300] $GPGGA,71806.9,3713.96841664,N,13701.45440853,E,4,7.0,1.2,97.456,M,36.771,M,1.9,0979*7B,37.232806944000004,137.02424014216666,679568.4261987505,4122618.6285733418
613,[2021-02-22 16:18:07.409] $GPGGA,71807.0,3713.96840967,N,13701.45440591,E,4,7.0,1.2,97.469,M,36.771,M,1.0,0979*78,37.23280682783332,137.02424009850003,679568.4226003329,4122618.615601064
614,[2021-02-22 16:18:07.503] $GPGGA,71807.1,3713.96841004,N,13701.45440541,E,4,7.0,1.2,97.48,M,36.771,M,1.1,0979*7F,37.232806833999994,137.0242400901667,679568.4218463773,4122618.6162694856
615,[2021-02-22 16:18:07.612] $GPGGA,71807.2,3713.9684078,N,13701.4544065,E,4,7.0,1.2,97.478,M,36.771,M,1.2,0979*71,37.23280679666667,137.02424010833332,679568.4235466879,4122618.6121615837
616,[2021-02-22 16:18:07.706] $GPGGA,71807.3,3713.96841297,N,13701.45440825,E,4,7.0,1.2,97.47,M,36.771,M,1.3,0979*77,37.23280688283334,137.02424013750002,679568.4259298674,4122618.6217776593
617,[2021-02-22 16:18:07.815] $GPGGA,71807.4,3713.96841177,N,13701.45440879,E,4,7.0,1.2,97.477,M,36.771,M,1.4,0979*74,37.232806862833336,137.02424014649998,679568.4267757935,4122618.6195756076
618,[2021-02-22 16:18:07.909] $GPGGA,71807.5,3713.96841289,N,13701.45440859,E,4,7.0,1.2,97.47200000000001,M,36.771,M,1.5,0979*71,37.232806881500004,137.02424014316665,679568.4264357713,4122618.621640468
619,[2021-02-22 16:18:08.018] $GPGGA,71807.6,3713.96841629,N,13701.45440955,E,4,7.0,1.2,97.475,M,36.771,M,1.6,0979*75,37.23280693816666,137.02424015916668,679568.4277208167,4122618.62795835
620,[2021-02-22 16:18:08.112] $GPGGA,71807.7,3713.9684144,N,13701.45440759,E,4,7.0,1.2,97.476,M,36.771,M,1.7,0979*79,37.23280690666667,137.02424012650002,679568.4248974067,4122618.6244012467
621,[2021-02-22 16:18:08.206] $GPGGA,71807.8,3713.96841549,N,13701.45440646,E,4,7.0,1.2,97.471,M,36.771,M,1.8,0979*79,37.23280692483334,137.02424010766666,679568.4231834225,4122618.6263812217
622,[2021-02-22 16:18:08.300] $GPGGA,71807.9,3713.96841831,N,13701.45440464,E,4,7.0,1.2,97.47399999999999,M,36.771,M,1.9,0979*7C,37.232806971833334,137.02424007733333,679568.4203807553,4122618.631538618
623,[2021-02-22 16:18:08.409] $GPGGA,71808.0,3713.96841784,N,13701.45440336,E,4,7.0,1.2,97.476,M,36.771,M,2.0,0979*73,37.23280696399999,137.024240056,679568.4185066703,4122618.6306289835
624,[2021-02-22 16:18:08.503] $GPGGA,71808.1,3713.9684166,N,13701.45440659,E,4,7.0,1.2,97.47200000000001,M,36.771,M,2.1,0979*70,37.23280694333334,137.02424010983333,679568.4233317497,4122618.628438026
625,[2021-02-22 16:18:08.612] $GPGGA,71808.2,3713.96842309,N,13701.45440891,E,4,7.0,1.2,97.449,M,36.771,M,1.2,0979*78,37.232807051500004,137.0242401485,679568.4265055587,4122618.6405131635
626,[2021-02-22 16:18:08.706] $GPGGA,71808.3,3713.96842193,N,13701.45440665,E,4,7.0,1.2,97.464,M,36.771,M,1.3,0979*73,37.23280703216667,137.02424011083335,679568.423209683,4122618.638296543
627,[2021-02-22 16:18:08.815] $GPGGA,71808.4,3713.96842423,N,13701.45440585,E,4,7.0,1.2,97.456,M,36.771,M,1.4,0979*71,37.2328070705,137.0242400975,679568.4219358028,4122618.6425245726
628,[2021-02-22 16:18:08.909] $GPGGA,71808.5,3713.96842547,N,13701.45440608,E,4,7.0,1.2,97.461,M,36.771,M,1.5,0979*70,37.23280709116667,137.02424010133333,679568.4222268536,4122618.644824943
629,[2021-02-22 16:18:09.018] $GPGGA,71808.6,3713.96842515,N,13701.45440672,E,4,7.0,1.2,97.464,M,36.771,M,1.6,0979*7F,37.232807085833336,137.024240112,679568.4231858449,4122618.6442534127
630,[2021-02-22 16:18:09.112] $GPGGA,71808.7,3713.9684247,N,13701.45440968,E,4,7.0,1.2,97.459,M,36.771,M,1.7,0979*77,37.23280707833333,137.02424016133332,679568.4275804462,4122618.6435148395
631,[2021-02-22 16:18:09.206] $GPGGA,71808.8,3713.96842513,N,13701.45441061,E,4,7.0,1.2,97.463,M,36.771,M,1.8,0979*7B,37.23280708549999,137.02424017683333,679568.428938587,4122618.6443394334
632,[2021-02-22 16:18:09.299] $GPGGA,71808.9,3713.96842391,N,13701.45441015,E,4,7.0,1.2,97.45700000000001,M,36.771,M,1.9,0979*73,37.23280706516667,137.0242401691667,679568.4283066556,4122618.642068778
633,[2021-02-22 16:18:09.409] $GPGGA,71809.0,3713.96842203,N,13701.45440939,E,4,7.0,1.2,97.46600000000001,M,36.771,M,1.0,0979*7C,37.23280703383333,137.0242401565,679568.4272572298,4122618.638568113
634,[2021-02-22 16:18:09.503] $GPGGA,71809.1,3713.96842439,N,13701.45440947,E,4,7.0,1.2,97.463,M,36.771,M,1.1,0979*7F,37.23280707316667,137.02424015783333,679568.4272821905,4122618.6429349254
635,[2021-02-22 16:18:09.612] $GPGGA,71809.2,3713.96842088,N,13701.45440941,E,4,7.0,1.2,97.465,M,36.771,M,1.2,0979*71,37.23280701466666,137.02424015683332,679568.4273322813,4122618.636442081
636,[2021-02-22 16:18:09.706] $GPGGA,71809.3,3713.96841526,N,13701.45441029,E,4,7.0,1.2,97.46799999999999,M,36.771,M,1.3,0979*78,37.232806921,137.0242401715,679568.4288557512,4122618.626076999
637,[2021-02-22 16:18:09.815] $GPGGA,71809.4,3713.96841009,N,13701.45440644,E,4,7.0,1.2,97.47,M,36.771,M,1.4,0979*75,37.23280683483333,137.0242401073333,679568.4233674039,4122618.616394519
638,[2021-02-22 16:18:09.909] $GPGGA,71809.5,3713.968411,N,13701.45440829,E,4,7.0,1.2,97.463,M,36.771,M,1.5,0979*7A,37.232806849999996,137.02424013816665,679568.4260669198,4122618.618135856
639,[2021-02-22 16:18:10.018] $GPGGA,71809.6,3713.96840766,N,13701.45440759,E,4,7.0,1.2,97.463,M,36.771,M,1.6,0979*75,37.23280679433333,137.02424012650002,679568.4251639558,4122618.611937152
640,[2021-02-22 16:18:10.112] $GPGGA,71809.7,3713.96840597,N,13701.45440934,E,4,7.0,1.2,97.464,M,36.771,M,1.7,0979*7B,37.23280676616666,137.02424015566666,679568.4278184279,4122618.6088672196
641,[2021-02-22 16:18:10.206] $GPGGA,71809.8,3713.96840591,N,13701.45441127,E,4,7.0,1.2,97.46600000000001,M,36.771,M,1.8,0979*74,37.232806765166664,137.02424018783336,679568.4306745974,4122618.6088172924
642,[2021-02-22 16:18:10.299] $GPGGA,71809.9,3713.96840832,N,13701.45441306,E,4,7.0,1.2,97.459,M,36.771,M,0.9,0979*7C,37.23280680533334,137.02424021766666,679568.4332260694,4122618.613330643
643,[2021-02-22 16:18:10.409] $GPGGA,71810.0,3713.96840864,N,13701.45441214,E,4,7.0,1.2,97.463,M,36.771,M,1.0,0979*7D,37.23280681066666,137.02424020233335,679568.4318530586,4122618.613893316
644,[2021-02-22 16:18:10.503] $GPGGA,71810.1,3713.96840708,N,13701.45441275,E,4,7.0,1.2,97.46700000000001,M,36.771,M,1.1,0979*7B,37.23280678466667,137.0242402125,679568.432816726,4122618.6110277413
645,[2021-02-22 16:18:10.612] $GPGGA,71810.2,3713.96840674,N,13701.45441047,E,4,7.0,1.2,97.465,M,36.771,M,1.2,0979*70,37.23280677899999,137.02424017450002,679568.4294588541,4122618.6103268918
646,[2021-02-22 16:18:10.706] $GPGGA,71810.3,3713.96840624,N,13701.45441219,E,4,7.0,1.2,97.464,M,36.771,M,1.3,0979*7D,37.23280677066667,137.02424020316667,679568.4320219046,4122618.6094566444
647,[2021-02-22 16:18:10.815] $GPGGA,71810.4,3713.96839521,N,13701.45441214,E,4,7.0,1.2,97.459,M,36.771,M,1.4,0979*76,37.232806586833334,137.02424020233335,679568.4323841796,4122618.589057592
648,[2021-02-22 16:18:10.909] $GPGGA,71810.5,3713.96839634,N,13701.4544125,E,4,7.0,1.2,97.449,M,36.771,M,1.5,0979*70,37.23280660566666,137.0242402083333,679568.4328718008,4122618.591158652
649,[2021-02-22 16:18:11.018] $GPGGA,71810.6,3713.96839421,N,13701.45441552,E,4,7.0,1.2,97.462,M,36.771,M,1.6,0979*7A,37.232806570166666,137.02424025866668,679568.4374215646,4122618.5873151994
650,[2021-02-22 16:18:11.112] $GPGGA,71810.7,3713.96840281,N,13701.45441802,E,4,7.0,1.2,97.46,M,36.771,M,1.7,0979*72,37.2328067135,137.02424030033333,679568.4407780834,4122618.6032979935
651,[2021-02-22 16:18:11.206] $GPGGA,71810.8,3713.96840563,N,13701.45441427,E,4,7.0,1.2,97.455,M,36.771,M,1.8,0979*74,37.2328067605,137.02424023783334,679568.4351216219,4122618.608394361
652,[2021-02-22 16:18:11.299] $GPGGA,71810.9,3713.96840762,N,13701.4544131,E,4,7.0,1.2,97.447,M,36.771,M,1.9,0979*77,37.23280679366666,137.02424021833335,679568.4333129011,4122618.612037415
653,[2021-02-22 16:18:11.424] $GPGGA,71811.0,3713.96840674,N,13701.45440952,E,4,7.0,1.2,97.46700000000001,M,36.771,M,2.0,0979*7C,37.23280677899999,137.02424015866666,679568.4280541315,4122618.6102968515
654,[2021-02-22 16:18:11.502] $GPGGA,71811.1,3713.9684105,N,13701.45440674,E,4,7.0,1.2,97.461,M,36.771,M,1.1,0979*73,37.232806841666665,137.02424011233336,679568.42379479,4122618.6171622085
655,[2021-02-22 16:18:11.612] $GPGGA,71811.2,3713.96841275,N,13701.45440622,E,4,7.0,1.2,97.458,M,36.771,M,1.2,0979*7F,37.23280687916666,137.02424010366667,679568.4229369067,4122618.6213066266
656,[2021-02-22 16:18:11.706] $GPGGA,71811.3,3713.96841599,N,13701.45440781,E,4,7.0,1.2,97.461,M,36.771,M,1.3,0979*78,37.232806933166664,137.0242401301667,679568.4251598321,4122618.6273485473
657,[2021-02-22 16:18:11.815] $GPGGA,71811.4,3713.96841496,N,13701.45441188,E,4,7.0,1.2,97.454,M,36.771,M,1.4,0979*7E,37.232806916,137.02424019800003,679568.4312186718,4122618.625572496
658,[2021-02-22 16:18:11.909] $GPGGA,71811.5,3713.96841368,N,13701.45441548,E,4,7.0,1.2,97.459,M,36.771,M,1.5,0979*7D,37.232806894666666,137.02424025800002,679568.4365924336,4122618.623319264
659,[2021-02-22 16:18:12.018] $GPGGA,71811.6,3713.96841931,N,13701.45441922,E,4,7.0,1.2,97.455,M,36.771,M,1.6,0979*77,37.2328069885,137.02424032033332,679568.4418999316,4122618.6338489316
660,[2021-02-22 16:18:12.112] $GPGGA,71811.7,3713.96841266,N,13701.45441874,E,4,7.0,1.2,97.458,M,36.771,M,1.7,0979*71,37.23280687766667,137.02424031233338,679568.4414531729,4122618.621536093
661,[2021-02-22 16:18:12.206] $GPGGA,71811.8,3713.96841325,N,13701.45441939,E,4,7.0,1.2,97.456,M,36.771,M,1.8,0979*71,37.232806887500004,137.02424032316668,679568.442390962,4122618.6226477185
662,[2021-02-22 16:18:12.299] $GPGGA,71811.9,3713.96841363,N,13701.45441702,E,4,7.0,1.2,97.456,M,36.771,M,1.9,0979*75,37.23280689383334,137.02424028366667,679568.4388715306,4122618.6232755
663,[2021-02-22 16:18:12.409] $GPGGA,71812.0,3713.96841481,N,13701.45441964,E,4,7.0,1.2,97.463,M,36.771,M,1.0,0979*75,37.232806913500006,137.02424032733336,679568.4426989319,4122618.6255404875
664,[2021-02-22 16:18:12.502] $GPGGA,71812.1,3713.96841503,N,13701.45441759,E,4,7.0,1.2,97.459,M,36.771,M,1.1,0979*77,37.23280691716666,137.02424029316666,679568.4396589939,4122618.625882503
665,[2021-02-22 16:18:12.612] $GPGGA,71812.2,3713.96841539,N,13701.45442056,E,4,7.0,1.2,97.45299999999999,M,36.771,M,1.2,0979*7F,37.23280692316666,137.02424034266667,679568.4440363501,4122618.626642157
666,[2021-02-22 16:18:12.706] $GPGGA,71812.3,3713.96841312,N,13701.45441918,E,4,7.0,1.2,97.45700000000001,M,36.771,M,1.3,0979*74,37.23280688533333,137.02424031966663,679568.4420855812,4122618.6224006712
667,[2021-02-22 16:18:12.815] $GPGGA,71812.4,3713.96841317,N,13701.45442036,E,4,7.0,1.2,97.459,M,36.771,M,1.4,0979*79,37.23280688616667,137.02424033933332,679568.4438284137,4122618.6225304487
668,[2021-02-22 16:18:12.909] $GPGGA,71812.5,3713.96840973,N,13701.45441872,E,4,7.0,1.2,97.458,M,36.771,M,1.5,0979*7A,37.23280682883333,137.02424031200002,679568.4415394724,4122618.6161170923
669,[2021-02-22 16:18:13.018] $GPGGA,71812.6,3713.96841054,N,13701.4544185,E,4,7.0,1.2,97.45700000000001,M,36.771,M,1.6,0979*78,37.23280684233333,137.02424030833333,679568.4411821334,4122618.617608048
670,[2021-02-22 16:18:13.112] $GPGGA,71812.7,3713.96841114,N,13701.45442108,E,4,7.0,1.2,97.45700000000001,M,36.771,M,1.7,0979*7A,37.23280685233333,137.0242403513333,679568.4449733213,4122618.6187991938
671,[2021-02-22 16:18:13.205] $GPGGA,71812.8,3713.96840563,N,13701.45441836,E,4,7.0,1.2,97.46700000000001,M,36.771,M,1.8,0979*7B,37.2328067605,137.02424030599997,679568.4411692977,4122618.608523693
672,[2021-02-22 16:18:13.299] $GPGGA,71812.9,3713.968409,N,13701.45441713,E,4,7.0,1.2,97.455,M,36.771,M,0.9,0979*7A,37.232806816666674,137.0242402855,679568.4392172878,4122618.6147168474
673,[2021-02-22 16:18:13.409] $GPGGA,71813.0,3713.96840739,N,13701.45441752,E,4,7.0,1.2,97.455,M,36.771,M,1.0,0979*7B,37.23280678983333,137.024240292,679568.4398576313,4122618.61175185
674,[2021-02-22 16:18:13.502] $GPGGA,71813.1,3713.96840852,N,13701.4544191,E,4,7.0,1.2,97.45700000000001,M,36.771,M,1.1,0979*73,37.23280680866667,137.02424031833334,679568.442149211,4122618.6138914907
675,[2021-02-22 16:18:13.612] $GPGGA,71813.2,3713.96840842,N,13701.45442261,E,4,7.0,1.2,97.447,M,36.771,M,1.2,0979*7D,37.232806806999996,137.02424037683335,679568.4473432283,4122618.613817554
676,[2021-02-22 16:18:13.705] $GPGGA,71813.3,3713.96840726,N,13701.45442038,E,4,7.0,1.2,97.459,M,36.771,M,1.3,0979*71,37.23280678766666,137.02424033966668,679568.4440917129,4122618.611601881
677,[2021-02-22 16:18:13.815] $GPGGA,71813.4,3713.96840971,N,13701.45441724,E,4,7.0,1.2,97.461,M,36.771,M,1.4,0979*7F,37.2328068285,137.02424028733336,679568.4393518618,4122618.616033308
678,[2021-02-22 16:18:13.909] $GPGGA,71813.5,3713.96841048,N,13701.45441396,E,4,7.0,1.2,97.45700000000001,M,36.771,M,1.5,0979*75,37.23280684133333,137.02424023266664,679568.4344714329,4122618.6173535287
679,[2021-02-22 16:18:14.018] $GPGGA,71813.6,3713.96840993,N,13701.45441669,E,4,7.0,1.2,97.45100000000001,M,36.771,M,1.6,0979*78,37.232806832166666,137.02424027816667,679568.4385299018,4122618.616422756
680,[2021-02-22 16:18:14.112] $GPGGA,71813.7,3713.96841209,N,13701.45441287,E,4,7.0,1.2,97.454,M,36.771,M,1.7,0979*70,37.23280686816667,137.02424021450003,679568.432796035,4122618.62029639
681,[2021-02-22 16:18:14.205] $GPGGA,71813.8,3713.96841378,N,13701.45441179,E,4,7.0,1.2,97.45700000000001,M,36.771,M,1.8,0979*76,37.23280689633334,137.02424019650002,679568.4311322569,4122618.6233875095
682,[2021-02-22 16:18:14.315] $GPGGA,71813.9,3713.96841417,N,13701.45441209,E,4,7.0,1.2,97.45100000000001,M,36.771,M,1.9,0979*7A,37.23280690283334,137.02424020149996,679568.4315604251,4122618.6241182117
683,[2021-02-22 16:18:14.409] $GPGGA,71814.0,3713.96841654,N,13701.45441174,E,4,7.0,1.2,97.46,M,36.771,M,1.0,0979*73,37.23280694233333,137.02424019566666,679568.4309491739,4122618.6284899195
684,[2021-02-22 16:18:14.502] $GPGGA,71814.1,3713.9684164,N,13701.454411,E,4,7.0,1.2,97.45299999999999,M,36.771,M,1.1,0979*75,37.23280694,137.02424018333335,679568.4298605099,4122618.6282076216
685,[2021-02-22 16:18:14.612] $GPGGA,71814.2,3713.96841712,N,13701.45441142,E,4,7.0,1.2,97.45700000000001,M,36.771,M,1.2,0979*71,37.232806952000004,137.02424019033333,679568.4304530661,4122618.6295523783
686,[2021-02-22 16:18:14.705] $GPGGA,71814.3,3713.96841559,N,13701.45441397,E,4,7.0,1.2,97.455,M,36.771,M,1.3,0979*74,37.2328069265,137.0242402328333,679568.434284132,4122618.6268036254
687,[2021-02-22 16:18:14.815] $GPGGA,71814.4,3713.96841634,N,13701.45441438,E,4,7.0,1.2,97.446,M,36.771,M,1.4,0979*7C,37.23280693900001,137.02424023966663,679568.4348607159,4122618.628203546
688,[2021-02-22 16:18:14.908] $GPGGA,71814.5,3713.96841557,N,13701.45441335,E,4,7.0,1.2,97.45700000000001,M,36.771,M,1.5,0979*70,37.232806926166674,137.02424022250003,679568.4333681634,4122618.6267470364
689,[2021-02-22 16:18:15.018] $GPGGA,71814.6,3713.96841378,N,13701.45441168,E,4,7.0,1.2,97.455,M,36.771,M,1.6,0979*73,37.23280689633334,137.02424019466667,679568.4309696063,4122618.6233840305
690,[2021-02-22 16:18:15.112] $GPGGA,71814.7,3713.96841466,N,13701.45440718,E,4,7.0,1.2,97.45700000000001,M,36.771,M,1.7,0979*79,37.232806911,137.02424011966667,679568.4242808755,4122618.6248690938
691,[2021-02-22 16:18:15.221] $GPGGA,71814.8,3713.96841494,N,13701.45440546,E,4,7.0,1.2,97.456,M,36.771,M,1.8,0979*7C,37.232806915666664,137.02424009099997,679568.4217265209,4122618.625332501
692,[2021-02-22 16:18:15.299] $GPGGA,71814.9,3713.96841699,N,13701.45440549,E,4,7.0,1.2,97.458,M,36.771,M,1.9,0979*72,37.23280694983333,137.0242400915,679568.4216898113,4122618.629124456
693,[2021-02-22 16:18:15.408] $GPGGA,71815.0,3713.96841811,N,13701.45440425,E,4,7.0,1.2,97.454,M,36.771,M,1.0,0979*7A,37.2328069685,137.02424007083334,679568.4198119924,4122618.6311564315
694,[2021-02-22 16:18:15.502] $GPGGA,71815.1,3713.96841569,N,13701.45440669,E,4,7.0,1.2,97.454,M,36.771,M,1.1,0979*72,37.23280692816666,137.02424011149998,679568.4235156025,4122618.6267583477
695,[2021-02-22 16:18:15.612] $GPGGA,71815.2,3713.96841749,N,13701.45441049,E,4,7.0,1.2,97.447,M,36.771,M,1.2,0979*75,37.23280695816666,137.0242401748333,679568.4290632876,4122618.6302072015
696,[2021-02-22 16:18:15.705] $GPGGA,71815.3,3713.96841675,N,13701.45441028,E,4,7.0,1.2,97.445,M,36.771,M,1.3,0979*7E,37.23280694583333,137.0242401713333,679568.4287820351,4122618.6288320986
697,[2021-02-22 16:18:15.815] $GPGGA,71815.4,3713.96841629,N,13701.45441161,E,4,7.0,1.2,97.45200000000001,M,36.771,M,1.4,0979*7D,37.23280693816666,137.02424019350002,679568.4307668381,4122618.6280234894
698,[2021-02-22 16:18:15.908] $GPGGA,71815.5,3713.96841502,N,13701.45441088,E,4,7.0,1.2,97.456,M,36.771,M,1.5,0979*75,37.232806917,137.02424018133334,679568.4297376464,4122618.625651831
699,[2021-02-22 16:18:16.018] $GPGGA,71815.6,3713.96841465,N,13701.4544087,E,4,7.0,1.2,97.458,M,36.771,M,1.6,0979*75,37.23280691083334,137.024240145,679568.4265288186,4122618.624898665
700,[2021-02-22 16:18:16.112] $GPGGA,71815.7,3713.96841531,N,13701.45441149,E,4,7.0,1.2,97.45100000000001,M,36.771,M,1.7,0979*7E,37.23280692183333,137.02424019149998,679568.4306281535,4122618.626207408
701,[2021-02-22 16:18:16.205] $GPGGA,71815.8,3713.96841427,N,13701.45441369,E,4,7.0,1.2,97.45100000000001,M,36.771,M,1.8,0979*78,37.232806904499995,137.0242402281667,679568.433922315,4122618.6243537315
702,[2021-02-22 16:18:16.315] $GPGGA,71815.9,3713.96841301,N,13701.45441711,E,4,7.0,1.2,97.45100000000001,M,36.771,M,1.9,0979*70,37.232806883500004,137.02424028516666,679568.4390291263,4122618.6221317956
703,[2021-02-22 16:18:16.408] $GPGGA,71816.0,3713.96841403,N,13701.45441715,E,4,7.0,1.2,97.448,M,36.771,M,2.0,0979*79,37.232806900499995,137.02424028583334,679568.4390479366,4122618.624019318
704,[2021-02-22 16:18:16.502] $GPGGA,71816.1,3713.96841388,N,13701.45441544,E,4,7.0,1.2,97.45100000000001,M,36.771,M,2.1,0979*73,37.232806898,137.02424025733333,679568.4365253756,4122618.6236878545
705,[2021-02-22 16:18:16.611] $GPGGA,71816.2,3713.96841061,N,13701.45441401,E,4,7.0,1.2,97.462,M,36.771,M,1.2,0979*74,37.2328068435,137.02424023350002,679568.4345402286,4122618.6175955166
706,[2021-02-22 16:18:16.705] $GPGGA,71816.3,3713.9684117,N,13701.45441234,E,4,7.0,1.2,97.463,M,36.771,M,1.3,0979*74,37.23280686166667,137.02424020566664,679568.4320277707,4122618.6195584154
707,[2021-02-22 16:18:16.815] $GPGGA,71816.4,3713.96840931,N,13701.45441207,E,4,7.0,1.2,97.461,M,36.771,M,1.4,0979*7A,37.232806821833336,137.02424020116663,679568.4317230531,4122618.6151301158
708,[2021-02-22 16:18:16.908] $GPGGA,71816.5,3713.96840785,N,13701.45441219,E,4,7.0,1.2,97.458,M,36.771,M,1.5,0979*7E,37.2328067975,137.02424020316667,679568.4319582334,4122618.6124339723
709,[2021-02-22 16:18:17.018] $GPGGA,71816.6,3713.96840897,N,13701.45441481,E,4,7.0,1.2,97.464,M,36.771,M,1.6,0979*7A,37.232806816166665,137.0242402468333,679568.4357880007,4122618.614588006
710,[2021-02-22 16:18:17.111] $GPGGA,71816.7,3713.96840888,N,13701.45441241,E,4,7.0,1.2,97.458,M,36.771,M,1.7,0979*71,37.232806814666674,137.0242402068333,679568.4322427985,4122618.6143456795
711,[2021-02-22 16:18:17.205] $GPGGA,71816.8,3713.96841095,N,13701.45441356,E,4,7.0,1.2,97.463,M,36.771,M,1.8,0979*7B,37.23280684916666,137.02424022600002,679568.4338613873,4122618.618210037
712,[2021-02-22 16:18:17.299] $GPGGA,71816.9,3713.96841014,N,13701.45441079,E,4,7.0,1.2,97.459,M,36.771,M,1.9,0979*75,37.232806835666665,137.02424017983336,679568.4297975611,4122618.6166245365
