,Format,Time,Latitude,LatType,Longitude,LonType,Status,Satellite,LevelAccuracy,Altitude(sea),M(sea),Altitude(geoid),M(geoid),DGPS use,checksum,Lat,Lon,UTM_X,UTM_Y
679,[2021-02-22 16:14:00.694] $GPGGA,71400.3,3713.96855794,N,13701.45413257,E,4,7.0,2.1,97.370,M,36.771,M,2.3,0000*75,37.232809299,137.0242355428333,679568.0125623393,4122618.8811492533
681,[2021-02-22 16:14:00.804] $GPGGA,71400.4,3713.96855642,N,13701.45413104,E,4,7.0,2.1,97.370,M,36.771,M,2.4,0000*7A,37.23280927366667,137.02423551733335,679568.0103601199,4122618.878289979
683,[2021-02-22 16:14:00.882] $GPGGA,71400.5,3713.96855645,N,13701.4541315,E,4,7.0,2.1,97.378,M,36.771,M,2.5,0000*74,37.23280927416666,137.024235525,679568.0110391101,4122618.8783600023
685,[2021-02-22 16:14:00.991] $GPGGA,71400.6,3713.96855783,N,13701.4541325,E,4,7.0,2.1,97.376,M,36.771,M,2.6,0000*72,37.232809297166675,137.02423554166663,679568.0124631829,4122618.880943621
687,[2021-02-22 16:14:01.085] $GPGGA,71400.7,3713.96855282,N,13701.45412691,E,4,7.0,2.1,97.384,M,36.771,M,2.7,0000*73,37.23280921366666,137.02423544849998,679568.0043956613,4122618.871502002
689,[2021-02-22 16:14:01.194] $GPGGA,71400.8,3713.96855668,N,13701.45413455,E,4,7.0,2.1,97.376,M,36.771,M,2.8,0000*75,37.232809278,137.02423557583333,679568.0155398976,4122618.878881781
691,[2021-02-22 16:14:01.288] $GPGGA,71400.9,3713.96855263,N,13701.45414075,E,4,7.0,2.1,97.363,M,36.771,M,2.9,0000*7F,37.2328092105,137.02423567916665,679568.0248676955,4122618.8715882814
693,[2021-02-22 16:14:01.398] $GPGGA,71401.0,3713.96855772,N,13701.45413312,E,4,7.0,2.1,97.377,M,36.771,M,3.0,0000*7A,37.23280929533333,137.02423555200002,679568.0133843017,4122618.8807598054
695,[2021-02-22 16:14:01.491] $GPGGA,71401.1,3713.96855631,N,13701.45413764,E,4,7.0,2.1,97.373,M,36.771,M,3.1,0000*7D,37.23280927183334,137.02423562733333,679568.0201235597,4122618.8782952614
697,[2021-02-22 16:14:01.601] $GPGGA,71401.2,3713.96855755,N,13701.45413977,E,4,7.0,2.1,97.372,M,36.771,M,3.2,0000*73,37.232809292499994,137.02423566283332,679568.0232240469,4122618.8806557097
699,[2021-02-22 16:14:01.694] $GPGGA,71401.3,3713.96856131,N,13701.45413844,E,4,7.0,2.1,97.369,M,36.771,M,3.3,0000*7F,37.232809355166665,137.02423564066666,679568.0211087447,4122618.887566918
701,[2021-02-22 16:14:01.788] $GPGGA,71401.4,3713.96856123,N,13701.45413777,E,4,7.0,2.1,97.378,M,36.771,M,3.4,0000*73,37.23280935383333,137.0242356295,679568.0201212121,4122618.8873977894
703,[2021-02-22 16:14:01.882] $GPGGA,71401.5,3713.96856169,N,13701.45414223,E,4,7.0,2.1,97.370,M,36.771,M,3.5,0000*76,37.2328093615,137.02423570383334,679568.0266978032,4122618.8883894878
705,[2021-02-22 16:14:01.991] $GPGGA,71401.6,3713.96856586,N,13701.45413891,E,4,7.0,2.1,97.375,M,36.771,M,3.6,0000*72,37.232809431,137.0242356485,679568.0216237695,4122618.895995969
707,[2021-02-22 16:14:02.085] $GPGGA,71401.7,3713.96856275,N,13701.45413805,E,4,7.0,2.1,97.374,M,36.771,M,3.7,0000*75,37.23280937916667,137.02423563416664,679568.020475122,4122618.8902175385
709,[2021-02-22 16:14:02.194] $GPGGA,71401.8,3713.96856059,N,13701.45413675,E,4,7.0,2.1,97.374,M,36.771,M,3.8,0000*70,37.232809343166664,137.02423561250004,679568.0186383022,4122618.8861820023
711,[2021-02-22 16:14:02.288] $GPGGA,71401.9,3713.96856308,N,13701.45413805,E,4,7.0,2.1,97.375,M,36.771,M,3.9,0000*7F,37.23280938466667,137.02423563416664,679568.0204620714,4122618.8908277983
713,[2021-02-22 16:14:02.398] $GPGGA,71402.0,3713.96856515,N,13701.45413778,E,4,7.0,2.1,97.369,M,36.771,M,4.0,0000*79,37.23280941916667,137.02423562966663,679568.0199809707,4122618.894647253
715,[2021-02-22 16:14:02.491] $GPGGA,71402.1,3713.96855796,N,13701.45413747,E,4,7.0,2.1,97.373,M,36.771,M,4.1,0000*74,37.23280929933333,137.0242356245,679568.0198069379,4122618.881341184
717,[2021-02-22 16:14:02.601] $GPGGA,71402.2,3713.96855986,N,13701.45414032,E,4,7.0,2.1,97.371,M,36.771,M,4.2,0000*7B,37.23280933099999,137.02423567200003,679568.0239459546,4122618.8849449223
719,[2021-02-22 16:14:02.694] $GPGGA,71402.3,3713.96856042,N,13701.45413752,E,4,7.0,2.1,97.372,M,36.771,M,4.3,0000*7C,37.232809340333326,137.02423562533332,679568.0197835817,4122618.8858919735
721,[2021-02-22 16:14:02.804] $GPGGA,71402.4,3713.968559,N,13701.45413518,E,4,7.0,2.1,97.369,M,36.771,M,4.4,0000*76,37.23280931666667,137.02423558633333,679568.016379698,4122618.8831920144
723,[2021-02-22 16:14:02.897] $GPGGA,71402.5,3713.96855993,N,13701.454138,E,4,7.0,2.1,97.370,M,36.771,M,4.5,0000*70,37.23280933216667,137.02423563333332,679568.0205127131,4122618.8850010093
725,[2021-02-22 16:14:02.991] $GPGGA,71402.6,3713.96855816,N,13701.45413829,E,4,7.0,2.1,97.374,M,36.771,M,4.6,0000*73,37.232809302666666,137.0242356381667,679568.0210115239,4122618.8817369672
727,[2021-02-22 16:14:03.085] $GPGGA,71402.7,3713.96855939,N,13701.45413439,E,4,7.0,2.1,97.375,M,36.771,M,4.7,0000*73,37.23280932316666,137.02423557316666,679568.0151961417,4122618.8838882484
729,[2021-02-22 16:14:03.194] $GPGGA,71402.8,3713.96855765,N,13701.45413827,E,4,7.0,2.1,97.369,M,36.771,M,4.8,0000*7A,37.232809294166664,137.02423563783333,679568.0210021166,4122618.880793207
731,[2021-02-22 16:14:03.288] $GPGGA,71402.9,3713.9685565,N,13701.45413527,E,4,7.0,2.1,97.373,M,36.771,M,4.9,0000*7B,37.232809275,137.02423558783335,679568.016611647,4122618.87857168
733,[2021-02-22 16:14:03.397] $GPGGA,71403.0,3713.96855575,N,13701.45413659,E,4,7.0,2.1,97.366,M,36.771,M,5.0,0000*71,37.232809262500005,137.02423560983337,679568.0185931281,4122618.877226466
735,[2021-02-22 16:14:03.491] $GPGGA,71403.1,3713.9685588,N,13701.45413442,E,4,7.0,2.1,97.369,M,36.771,M,5.1,0000*71,37.232809313333334,137.0242355736667,679568.0152638349,4122618.8827981274
737,[2021-02-22 16:14:03.601] $GPGGA,71403.2,3713.96855698,N,13701.45413626,E,4,7.0,2.1,97.382,M,36.771,M,5.2,0000*73,37.232809283,137.02423560433334,679568.0180565286,4122618.8794906354
739,[2021-02-22 16:14:03.694] $GPGGA,71403.3,3713.96856344,N,13701.45413213,E,4,8.0,1.2,97.364,M,36.771,M,2.3,0000*76,37.23280939066666,137.02423553550003,679568.011694227,4122618.891306336
741,[2021-02-22 16:14:03.804] $GPGGA,71403.4,3713.96856648,N,13701.45413475,E,4,8.0,1.2,97.371,M,36.771,M,2.4,0000*7D,37.23280944133333,137.02423557916666,679568.0154480659,4122618.897010973
743,[2021-02-22 16:14:03.897] $GPGGA,71403.5,3713.96856293,N,13701.45413545,E,4,8.0,1.2,97.365,M,36.771,M,2.5,0000*78,37.23280938216667,137.02423559083334,679568.0166235153,4122618.890468192
745,[2021-02-22 16:14:03.991] $GPGGA,71403.6,3713.9685641,N,13701.45413553,E,4,8.0,1.2,97.364,M,36.771,M,2.6,0000*73,37.232809401666664,137.02423559216666,679568.0166955353,4122618.8926343694
747,[2021-02-22 16:14:04.085] $GPGGA,71403.7,3713.9685668,N,13701.45413649,E,4,8.0,1.2,97.366,M,36.771,M,2.7,0000*72,37.232809446666664,137.02423560816666,679568.0180082617,4122618.8976577614
749,[2021-02-22 16:14:04.194] $GPGGA,71403.8,3713.96856325,N,13701.45413896,E,4,8.0,1.2,97.364,M,36.771,M,2.8,0000*76,37.2328093875,137.02423564933332,679568.0218009201,4122618.8911709497
751,[2021-02-22 16:14:04.288] $GPGGA,71403.9,3713.96856851,N,13701.45413611,E,4,8.0,1.2,97.371,M,36.771,M,2.9,0000*7B,37.23280947516666,137.0242356018333,679568.0173787473,4122618.9008079995
753,[2021-02-22 16:14:04.397] $GPGGA,71404.0,3713.96856439,N,13701.45413766,E,4,8.0,1.2,97.373,M,36.771,M,3.0,0000*7C,37.2328094065,137.02423562766666,679568.0198335922,4122618.893238012
755,[2021-02-22 16:14:04.491] $GPGGA,71404.1,3713.968566,N,13701.45413754,E,4,8.0,1.2,97.364,M,36.771,M,3.1,0000*73,37.23280943333333,137.02423562566668,679568.0195924846,4122618.8962115454
757,[2021-02-22 16:14:04.601] $GPGGA,71404.2,3713.96856537,N,13701.4541406,E,4,8.0,1.2,97.369,M,36.771,M,3.2,0000*7E,37.232809422833334,137.02423567666668,679568.0241420688,4122618.895143265
759,[2021-02-22 16:14:04.694] $GPGGA,71404.3,3713.96856432,N,13701.4541406,E,4,9.0,1.1,97.374,M,36.771,M,2.3,0000*75,37.23280940533334,137.02423567666668,679568.0241835933,4122618.8932015314
761,[2021-02-22 16:14:04.804] $GPGGA,71404.4,3713.96856817,N,13701.45414471,E,4,9.0,1.1,97.376,M,36.771,M,2.4,0000*78,37.232809469500005,137.02423574516664,679568.0301085862,4122618.9004511926
763,[2021-02-22 16:14:04.897] $GPGGA,71404.5,3713.96856499,N,13701.45414094,E,4,9.0,1.1,97.369,M,36.771,M,2.5,0000*73,37.23280941649999,137.02423568233334,679568.024659839,4122618.894451293
765,[2021-02-22 16:14:04.991] $GPGGA,71404.6,3713.96856514,N,13701.45413785,E,4,9.0,1.1,97.384,M,36.771,M,2.6,0000*74,37.232809419,137.02423563083332,679568.0200848749,4122618.894630976
767,[2021-02-22 16:14:05.085] $GPGGA,71404.7,3713.9685625,N,13701.45414081,E,4,9.0,1.1,97.364,M,36.771,M,2.7,0000*79,37.232809374999995,137.02423568016667,679568.0245660846,4122618.889842496
769,[2021-02-22 16:14:05.194] $GPGGA,71404.8,3713.96856311,N,13701.45413738,E,4,9.0,1.1,97.372,M,36.771,M,2.8,0000*78,37.23280938516667,137.024235623,679568.019470191,4122618.89086209
771,[2021-02-22 16:14:05.288] $GPGGA,71404.9,3713.96855691,N,13701.45414132,E,4,9.0,1.1,97.377,M,36.771,M,2.9,0000*78,37.23280928183334,137.02423568866666,679568.0255412649,4122618.8795211907
773,[2021-02-22 16:14:05.397] $GPGGA,71405.0,3713.96856064,N,13701.45413987,E,4,9.0,1.1,97.365,M,36.771,M,3.0,0000*75,37.232809344,137.0242356645,679568.0232497125,4122618.886373126
775,[2021-02-22 16:14:05.491] $GPGGA,71405.1,3713.96855807,N,13701.4541372,E,4,9.0,1.1,97.379,M,36.771,M,3.1,0000*75,37.232809301166675,137.02423561999998,679568.0194033497,4122618.8815360675
777,[2021-02-22 16:14:05.600] $GPGGA,71405.2,3713.9685586,N,13701.45413825,E,4,9.0,1.1,97.368,M,36.771,M,3.2,0000*7E,37.23280931,137.0242356375,679568.0209349747,4122618.882549384
779,[2021-02-22 16:14:05.694] $GPGGA,71405.3,3713.96856074,N,13701.4541364,E,4,9.0,1.1,97.381,M,36.771,M,2.3,0000*7B,37.23280934566667,137.02423560666665,679568.0181148397,4122618.8864483265
781,[2021-02-22 16:14:05.788] $GPGGA,71405.4,3713.96856044,N,13701.45413605,E,4,9.0,1.1,97.387,M,36.771,M,2.4,0000*7F,37.23280934066667,137.02423560083335,679568.0176091777,4122618.8858824763
783,[2021-02-22 16:14:05.897] $GPGGA,71405.5,3713.96855834,N,13701.45414074,E,4,9.0,1.1,97.383,M,36.771,M,2.5,0000*70,37.23280930566667,137.02423567900001,679568.0246270968,4122618.8821473103
785,[2021-02-22 16:14:05.991] $GPGGA,71405.6,3713.96856471,N,13701.45413946,E,4,9.0,1.1,97.380,M,36.771,M,2.6,0000*72,37.23280941183334,137.02423565766668,679568.0224825087,4122618.8938866975
787,[2021-02-22 16:14:06.085] $GPGGA,71405.7,3713.96856234,N,13701.45414101,E,4,9.0,1.1,97.378,M,36.771,M,2.7,0000*7E,37.23280937233333,137.02423568349997,679568.0248681391,4122618.8895529355
789,[2021-02-22 16:14:06.194] $GPGGA,71405.8,3713.96856175,N,13701.45413787,E,4,9.0,1.1,97.384,M,36.771,M,2.8,0000*74,37.2328093625,137.02423563116665,679568.0202485122,4122618.8883625735
791,[2021-02-22 16:14:06.288] $GPGGA,71405.9,3713.96856156,N,13701.45414419,E,4,9.0,1.1,97.371,M,36.771,M,2.9,0000*7C,37.23280935933334,137.0242357365,679568.0296010987,4122618.8882110594
793,[2021-02-22 16:14:06.397] $GPGGA,71406.0,3713.96856236,N,13701.45413873,E,4,9.0,1.1,97.390,M,36.771,M,3.0,0000*73,37.23280937266667,137.0242356455,679568.02149603,4122618.889517825
795,[2021-02-22 16:14:06.491] $GPGGA,71406.1,3713.96856226,N,13701.45414075,E,4,9.0,1.1,97.374,M,36.771,M,3.1,0000*71,37.232809370999995,137.02423567916665,679568.0244868554,4122618.889396772
797,[2021-02-22 16:14:06.600] $GPGGA,71406.2,3713.96856131,N,13701.45413912,E,4,9.0,1.1,97.388,M,36.771,M,3.2,0000*78,37.232809355166665,137.024235652,679568.0221142271,4122618.8875884213
799,[2021-02-22 16:14:06.694] $GPGGA,71406.3,3713.96855557,N,13701.45413854,E,4,9.0,1.1,97.360,M,36.771,M,2.3,0000*7B,37.232809259499994,137.02423564233334,679568.0214836128,4122618.8769552577
801,[2021-02-22 16:14:06.803] $GPGGA,71406.4,3713.96855547,N,13701.45413744,E,4,9.0,1.1,97.371,M,36.771,M,2.4,0000*74,37.23280925783334,137.02423562399997,679568.0198610481,4122618.8767355485
803,[2021-02-22 16:14:06.897] $GPGGA,71406.5,3713.9685571,N,13701.45413568,E,4,9.0,1.1,97.364,M,36.771,M,2.5,0000*7C,37.232809285,137.0242355946667,679568.0171941653,4122618.879694208
805,[2021-02-22 16:14:06.991] $GPGGA,71406.6,3713.96855116,N,13701.45413524,E,4,9.0,1.1,97.371,M,36.771,M,2.6,0000*70,37.232809186,137.02423558733332,679568.0167784669,4122618.868695616
807,[2021-02-22 16:14:07.085] $GPGGA,71406.7,3713.96855437,N,13701.45413574,E,4,9.0,1.1,97.370,M,36.771,M,2.7,0000*72,37.23280923950001,137.02423559566665,679568.0173908453,4122618.874647593
809,[2021-02-22 16:14:07.194] $GPGGA,71406.8,3713.96855318,N,13701.45412936,E,4,9.0,1.1,97.365,M,36.771,M,2.8,0000*77,37.23280921966666,137.0242354893333,679568.0080041157,4122618.872245212
811,[2021-02-22 16:14:07.288] $GPGGA,71406.9,3713.96855185,N,13701.45413633,E,4,9.0,1.1,97.374,M,36.771,M,2.9,0000*7A,37.2328091975,137.0242356055,679568.0183629105,4122618.8700060816
813,[2021-02-22 16:14:07.397] $GPGGA,71407.0,3713.9685519,N,13701.4541351,E,4,9.0,1.1,97.366,M,36.771,M,3.0,0000*7F,37.23280919833333,137.02423558500004,679568.0165421956,4122618.870059651
815,[2021-02-22 16:14:07.491] $GPGGA,71407.1,3713.96854849,N,13701.45414347,E,4,9.0,1.1,97.368,M,36.771,M,3.1,0000*7E,37.2328091415,137.0242357245,679568.0290533506,4122618.8640183043
817,[2021-02-22 16:14:07.600] $GPGGA,71407.2,3713.96855174,N,13701.4541366,E,4,9.0,1.1,97.368,M,36.771,M,3.2,0000*7F,37.23280919566666,137.02423561,679568.0187664963,4122618.8698112
819,[2021-02-22 16:14:07.694] $GPGGA,71407.3,3713.9685502,N,13701.45413354,E,4,9.0,1.1,97.369,M,36.771,M,2.3,0000*7D,37.232809169999996,137.024235559,679568.0143027275,4122618.8668665593
821,[2021-02-22 16:14:07.803] $GPGGA,71407.4,3713.96855254,N,13701.45413224,E,4,9.0,1.1,97.368,M,36.771,M,2.4,0000*7B,37.232809208999996,137.0242355373333,679568.0122879406,4122618.871152748
823,[2021-02-22 16:14:07.882] $GPGGA,71407.5,3713.96855194,N,13701.45413128,E,4,9.0,1.1,97.367,M,36.771,M,2.5,0000*74,37.232809198999995,137.0242355213333,679568.0108921648,4122618.8700128286
825,[2021-02-22 16:14:07.991] $GPGGA,71407.6,3713.96855152,N,13701.45413118,E,4,9.0,1.1,97.373,M,36.771,M,2.6,0000*78,37.232809192,137.02423551966666,679568.0107609101,4122618.8692329726
827,[2021-02-22 16:14:08.085] $GPGGA,71407.7,3713.96855259,N,13701.45413183,E,4,9.0,1.1,97.369,M,36.771,M,2.7,0000*79,37.232809209833334,137.0242355305,679568.0116797165,4122618.8712322474
829,[2021-02-22 16:14:08.194] $GPGGA,71407.8,3713.96855353,N,13701.45412958,E,4,9.0,1.1,97.366,M,36.771,M,2.8,0000*72,37.232809225500006,137.024235493,679568.0083155798,4122618.8728994154
831,[2021-02-22 16:14:08.288] $GPGGA,71407.9,3713.96855204,N,13701.45413654,E,4,9.0,1.1,97.360,M,36.771,M,2.9,0000*75,37.232809200666665,137.024235609,679568.0186659116,4122618.8703640834
833,[2021-02-22 16:14:08.397] $GPGGA,71408.0,3713.96855211,N,13701.45413289,E,4,9.0,1.1,97.370,M,36.771,M,3.0,0000*7A,37.232809201833334,137.02423554816667,679568.0132660702,4122618.8703781157
835,[2021-02-22 16:14:08.491] $GPGGA,71408.1,3713.9685488,N,13701.45412868,E,4,9.0,1.1,97.387,M,36.771,M,3.1,0000*75,37.23280914666666,137.02423547799998,679568.0071718526,4122618.8641238976
837,[2021-02-22 16:14:08.600] $GPGGA,71408.2,3713.9685527,N,13701.4541324,E,4,9.0,1.1,97.368,M,36.771,M,3.2,0000*71,37.23280921166668,137.02423553999998,679568.0125181958,4122618.8714536936
839,[2021-02-22 16:14:08.694] $GPGGA,71408.3,3713.96855156,N,13701.45413182,E,4,9.0,1.1,97.363,M,36.771,M,2.3,0000*71,37.232809192666664,137.02423553033333,679568.0117056642,4122618.869327181
841,[2021-02-22 16:14:08.803] $GPGGA,71408.4,3713.96855101,N,13701.45413303,E,4,9.0,1.1,97.372,M,36.771,M,2.4,0000*78,37.2328091835,137.0242355505,679568.013516583,4122618.8683483438
843,[2021-02-22 16:14:08.897] $GPGGA,71408.5,3713.96855152,N,13701.45413477,E,4,9.0,1.1,97.368,M,36.771,M,2.5,0000*71,37.232809192,137.02423557950002,679568.0160692672,4122618.869346493
845,[2021-02-22 16:14:08.991] $GPGGA,71408.6,3713.96855336,N,13701.45413149,E,4,9.0,1.1,97.370,M,36.771,M,2.6,0000*70,37.23280922266667,137.0242355248333,679568.0111465228,4122618.8726454363
847,[2021-02-22 16:14:09.085] $GPGGA,71408.7,3713.96855194,N,13701.45413489,E,4,9.0,1.1,97.360,M,36.771,M,2.7,0000*72,37.232809198999995,137.0242355815,679568.0162300939,4122618.8701269818
849,[2021-02-22 16:14:09.194] $GPGGA,71408.8,3713.96855392,N,13701.45413255,E,4,9.0,1.1,97.361,M,36.771,M,2.8,0000*70,37.232809232,137.0242355425,679568.0126917496,4122618.873714546
851,[2021-02-22 16:14:09.288] $GPGGA,71408.9,3713.96855238,N,13701.45413412,E,4,9.0,1.1,97.363,M,36.771,M,2.9,0000*76,37.23280920633333,137.02423556866668,679568.0150741346,4122618.870916314
853,[2021-02-22 16:14:09.397] $GPGGA,71409.0,3713.9685524,N,13701.45413281,E,4,9.0,1.1,97.365,M,36.771,M,3.0,0000*73,37.232809206666666,137.02423554683332,679568.0131363089,4122618.8709118753
855,[2021-02-22 16:14:09.491] $GPGGA,71409.1,3713.96855197,N,13701.45413755,E,4,9.0,1.1,97.366,M,36.771,M,3.1,0000*75,37.232809199500004,137.0242356258333,679568.0201621164,4122618.8702665735
857,[2021-02-22 16:14:09.600] $GPGGA,71409.2,3713.96854854,N,13701.45413244,E,4,9.0,1.1,97.365,M,36.771,M,3.2,0000*74,37.23280914233334,137.02423554066667,679568.0127418609,4122618.8637619847
859,[2021-02-22 16:14:09.694] $GPGGA,71409.3,3713.96855291,N,13701.4541334,E,4,9.0,1.1,97.362,M,36.771,M,2.3,0000*75,37.23280921516667,137.02423555666667,679568.0139885435,4122618.8718736595
861,[2021-02-22 16:14:09.803] $GPGGA,71409.4,3713.968556,N,13701.45413421,E,4,9.0,1.1,97.371,M,36.771,M,2.4,0000*7B,37.23280926666666,137.02423557016664,679568.0150640474,4122618.877613523
863,[2021-02-22 16:14:09.897] $GPGGA,71409.5,3713.96855162,N,13701.45413303,E,4,9.0,1.1,97.369,M,36.771,M,2.5,0000*76,37.232809193666675,137.0242355505,679568.0134924592,4122618.869476401
865,[2021-02-22 16:14:09.991] $GPGGA,71409.6,3713.96855367,N,13701.45413397,E,4,9.0,1.1,97.372,M,36.771,M,2.6,0000*76,37.232809227833336,137.02423556616668,679568.0148013193,4122618.873297132
867,[2021-02-22 16:14:10.084] $GPGGA,71409.7,3713.96855347,N,13701.45413407,E,4,9.0,1.1,97.369,M,36.771,M,2.7,0000*70,37.2328092245,137.02423556783333,679568.0149570934,4122618.87293044
869,[2021-02-22 16:14:10.194] $GPGGA,71409.8,3713.96855085,N,13701.45412986,E,4,9.0,1.1,97.369,M,36.771,M,2.8,0000*78,37.232809180833335,137.02423549766667,679568.0088355882,4122618.8679522197
871,[2021-02-22 16:14:10.288] $GPGGA,71409.9,3713.96855017,N,13701.45413216,E,4,9.0,1.1,97.371,M,36.771,M,2.9,0000*79,37.2328091695,137.02423553600002,679568.0122633795,4122618.866767444
873,[2021-02-22 16:14:10.397] $GPGGA,71410.0,3713.96855267,N,13701.45413019,E,4,9.0,1.1,97.369,M,36.771,M,3.0,0000*71,37.23280921116667,137.0242355031667,679568.0092515708,4122618.871328331
875,[2021-02-22 16:14:10.491] $GPGGA,71410.1,3713.96855451,N,13701.45413162,E,4,9.0,1.1,97.373,M,36.771,M,3.1,0000*74,37.23280924183334,137.024235527,679568.0112932706,4122618.874776209
877,[2021-02-22 16:14:10.600] $GPGGA,71410.2,3713.96855035,N,13701.4541335,E,4,9.0,1.1,97.374,M,36.771,M,3.2,0000*76,37.2328091725,137.02423555833332,679568.0142376492,4122618.867142685
879,[2021-02-22 16:14:10.694] $GPGGA,71410.3,3713.96854781,N,13701.45413496,E,4,9.0,1.1,97.376,M,36.771,M,2.3,0000*71,37.232809130166665,137.02423558266665,679568.0164969284,4122618.8624917013
881,[2021-02-22 16:14:10.803] $GPGGA,71410.4,3713.96854856,N,13701.45413427,E,4,9.0,1.1,97.373,M,36.771,M,2.4,0000*7B,37.23280914266666,137.02423557116666,679568.0154469996,4122618.863856836
883,[2021-02-22 16:14:10.897] $GPGGA,71410.5,3713.96854942,N,13701.45413423,E,4,9.0,1.1,97.375,M,36.771,M,2.5,0000*7D,37.23280915699999,137.0242355705,679568.0153538428,4122618.8654459445
885,[2021-02-22 16:14:10.991] $GPGGA,71410.6,3713.96855169,N,13701.4541328,E,4,9.0,1.1,97.369,M,36.771,M,2.6,0000*7F,37.23280919483334,137.0242355466667,679568.0131496035,4122618.869598577
887,[2021-02-22 16:14:11.084] $GPGGA,71410.7,3713.96854839,N,13701.45413583,E,4,9.0,1.1,97.372,M,36.771,M,2.7,0000*7C,37.23280913983333,137.02423559716667,679568.0177604188,4122618.8635917897
889,[2021-02-22 16:14:11.194] $GPGGA,71410.8,3713.96854992,N,13701.4541376,E,4,9.0,1.1,97.371,M,36.771,M,2.8,0000*70,37.23280916533333,137.0242356266667,679568.0203171251,4122618.8664771453
891,[2021-02-22 16:14:11.288] $GPGGA,71410.9,3713.96854602,N,13701.4541376,E,4,9.0,1.1,97.372,M,36.771,M,2.9,0000*75,37.232809100333334,137.0242356266667,679568.0204713594,4122618.859264984
893,[2021-02-22 16:14:11.397] $GPGGA,71411.0,3713.96855367,N,13701.45413453,E,4,9.0,1.1,97.375,M,36.771,M,3.0,0000*76,37.232809227833336,137.02423557550003,679568.0156293651,4122618.87331484
895,[2021-02-22 16:14:11.491] $GPGGA,71411.1,3713.96854833,N,13701.45413474,E,4,9.0,1.1,97.368,M,36.771,M,3.1,0000*74,37.23280913883333,137.02423557900002,679568.0161510649,4122618.8634463665
897,[2021-02-22 16:14:11.600] $GPGGA,71411.2,3713.96854962,N,13701.45413582,E,4,9.0,1.1,97.372,M,36.771,M,3.2,0000*72,37.23280916033334,137.024235597,679568.0176969897,4122618.8658660785
899,[2021-02-22 16:14:11.694] $GPGGA,71411.3,3713.96855397,N,13701.45413055,E,4,9.0,1.1,97.377,M,36.771,M,3.3,0000*79,37.232809232833326,137.0242355091667,679568.0097324714,4122618.8737437674
901,[2021-02-22 16:14:11.803] $GPGGA,71411.4,3713.96855299,N,13701.45413426,E,4,9.0,1.1,97.377,M,36.771,M,3.4,0000*76,37.2328092165,137.02423557100002,679568.0152570215,4122618.8720487966
903,[2021-02-22 16:14:11.897] $GPGGA,71411.5,3713.96855422,N,13701.45413975,E,4,9.0,1.1,97.366,M,36.771,M,3.5,0000*7B,37.232809237,137.02423566250002,679568.0233261695,4122618.8744970025
905,[2021-02-22 16:14:11.991] $GPGGA,71411.6,3713.96855295,N,13701.45413684,E,4,9.0,1.1,97.373,M,36.771,M,3.6,0000*74,37.232809215833335,137.02423561400002,679568.019073522,4122618.8720564097
907,[2021-02-22 16:14:12.084] $GPGGA,71411.7,3713.96855215,N,13701.45413631,E,4,9.0,1.1,97.383,M,36.771,M,3.7,0000*7D,37.2328092025,137.02423560516667,679568.018321472,4122618.8705602316
909,[2021-02-22 16:14:12.194] $GPGGA,71411.8,3713.96855334,N,13701.45413635,E,4,9.0,1.1,97.374,M,36.771,M,3.8,0000*73,37.232809222333344,137.02423560583333,679568.0183335571,4122618.872762131
911,[2021-02-22 16:14:12.287] $GPGGA,71411.9,3713.96855551,N,13701.45413954,E,4,9.0,1.1,97.382,M,36.771,M,3.9,0000*77,37.232809258500005,137.02423565899997,679568.0229646316,4122618.8768759235
913,[2021-02-22 16:14:12.412] $GPGGA,71412.0,3713.96855304,N,13701.45414204,E,4,9.0,1.1,97.367,M,36.771,M,4.0,0000*77,37.23280921733333,137.02423570066668,679568.0267589438,4122618.872387274
915,[2021-02-22 16:14:12.491] $GPGGA,71412.1,3713.96855408,N,13701.45414683,E,4,9.0,1.1,97.368,M,36.771,M,4.1,0000*78,37.23280923466667,137.0242357805,679568.0338005491,4122618.874461984
917,[2021-02-22 16:14:12.600] $GPGGA,71412.2,3713.9685571,N,13701.45415151,E,4,9.0,1.1,97.371,M,36.771,M,4.2,0000*73,37.232809285,137.02423585850002,679568.0406012025,4122618.880194775
919,[2021-02-22 16:14:12.694] $GPGGA,71412.3,3713.96855431,N,13701.45414562,E,4,8.0,1.3,97.373,M,36.771,M,2.3,0000*71,37.2328092385,137.0242357603333,679568.0320022833,4122618.8748490545
921,[2021-02-22 16:14:12.803] $GPGGA,71412.4,3713.96855643,N,13701.45414014,E,4,8.0,1.3,97.364,M,36.771,M,2.4,0000*74,37.232809273833325,137.024235669,679568.0238154423,4122618.8785962253
923,[2021-02-22 16:14:12.897] $GPGGA,71412.5,3713.96855441,N,13701.45413977,E,4,8.0,1.3,97.376,M,36.771,M,2.5,0000*7C,37.23280924016666,137.02423566283332,679568.0233482253,4122618.874848996
925,[2021-02-22 16:14:12.990] $GPGGA,71412.6,3713.96855753,N,13701.45413397,E,4,8.0,1.3,97.367,M,36.771,M,2.6,0000*78,37.232809292166664,137.02423556616668,679568.014648667,4122618.880435321
927,[2021-02-22 16:14:13.084] $GPGGA,71412.7,3713.96855685,N,13701.45413343,E,4,8.0,1.3,97.373,M,36.771,M,2.7,0000*7E,37.23280928083333,137.02423555716666,679568.0138770876,4122618.879160741
929,[2021-02-22 16:14:13.194] $GPGGA,71412.8,3713.96855479,N,13701.45413214,E,4,8.0,1.3,97.372,M,36.771,M,2.8,0000*7D,37.232809246500004,137.02423553566666,679568.0120510946,4122618.87531045
931,[2021-02-22 16:14:13.287] $GPGGA,71412.9,3713.96855977,N,13701.45413555,E,4,8.0,1.3,97.370,M,36.771,M,2.9,0000*7E,37.2328093295,137.0242355925,679568.0168963469,4122618.884627654
933,[2021-02-22 16:14:13.397] $GPGGA,71413.0,3713.96855968,N,13701.45413288,E,4,8.0,1.3,97.374,M,36.771,M,3.0,0000*73,37.232809328,137.02423554799998,679568.0129519091,4122618.884376791
935,[2021-02-22 16:14:13.491] $GPGGA,71413.1,3713.96856056,N,13701.45413658,E,4,8.0,1.3,97.374,M,36.771,M,3.1,0000*7D,37.23280934266667,137.02423560966668,679568.0183881175,4122618.8861211496
937,[2021-02-22 16:14:13.600] $GPGGA,71413.2,3713.96856328,N,13701.45413539,E,4,8.0,1.3,97.368,M,36.771,M,3.2,0000*7E,37.23280938800001,137.02423558983332,679568.0165209532,4122618.8911135397
939,[2021-02-22 16:14:13.694] $GPGGA,71413.3,3713.96856817,N,13701.45413651,E,4,9.0,1.1,97.359,M,36.771,M,2.3,0000*74,37.232809469500005,137.0242356085,679568.017983654,4122618.9001918966
941,[2021-02-22 16:14:13.803] $GPGGA,71413.4,3713.96856935,N,13701.45413853,E,4,9.0,1.1,97.374,M,36.771,M,2.4,0000*76,37.23280948916666,137.02423564216664,679568.0209238611,4122618.902437913
943,[2021-02-22 16:14:13.881] $GPGGA,71413.5,3713.96856958,N,13701.45413737,E,4,9.0,1.1,97.368,M,36.771,M,2.5,0000*7D,37.232809493,137.02423562283332,679568.0191995319,4122618.902826565
945,[2021-02-22 16:14:14.006] $GPGGA,71413.6,3713.96856763,N,13701.45413382,E,4,9.0,1.1,97.366,M,36.771,M,2.6,0000*7F,37.23280946049999,137.02423556366665,679568.0140274405,4122618.899108227
947,[2021-02-22 16:14:14.084] $GPGGA,71413.7,3713.96856939,N,13701.45413339,E,4,9.0,1.1,97.367,M,36.771,M,2.7,0000*7F,37.23280948983333,137.02423555649997,679568.0133220163,4122618.902349349
949,[2021-02-22 16:14:14.194] $GPGGA,71413.8,3713.9685681,N,13701.45413254,E,4,9.0,1.1,97.373,M,36.771,M,2.8,0000*7A,37.232809468333336,137.02423554233337,679568.0121161856,4122618.899936911
951,[2021-02-22 16:14:14.287] $GPGGA,71413.9,3713.96857002,N,13701.45413192,E,4,9.0,1.1,97.372,M,36.771,M,2.9,0000*78,37.23280950033333,137.02423553199998,679568.0111234863,4122618.9034679076
953,[2021-02-22 16:14:14.397] $GPGGA,71414.0,3713.96856848,N,13701.45413218,E,4,9.0,1.1,97.370,M,36.771,M,3.0,0000*7A,37.23280947466667,137.02423553633335,679568.0115688411,4122618.9006282515
955,[2021-02-22 16:14:14.490] $GPGGA,71414.1,3713.96856832,N,13701.45413261,E,4,9.0,1.1,97.365,M,36.771,M,3.1,0000*7D,37.232809472,137.02423554350003,679568.0122109895,4122618.900345965
957,[2021-02-22 16:14:14.600] $GPGGA,71414.2,3713.96857107,N,13701.45413257,E,4,9.0,1.1,97.368,M,36.771,M,3.2,0000*7B,37.23280951783333,137.0242355428333,679568.0120430838,4122618.9054301977
959,[2021-02-22 16:14:14.694] $GPGGA,71414.3,3713.96856819,N,13701.45413187,E,4,9.0,1.1,97.372,M,36.771,M,3.3,0000*79,37.23280946983333,137.02423553116665,679568.0111219255,4122618.9000821584
961,[2021-02-22 16:14:14.803] $GPGGA,71414.4,3713.96856898,N,13701.45413023,E,4,9.0,1.1,97.367,M,36.771,M,3.4,0000*7B,37.232809483,137.02423550383335,679568.008665699,4122618.9014912248
963,[2021-02-22 16:14:14.897] $GPGGA,71414.5,3713.96856984,N,13701.45413114,E,4,9.0,1.1,97.369,M,36.771,M,3.5,0000*7C,37.232809497333335,137.024235519,679568.0099772601,4122618.9031103747
965,[2021-02-22 16:14:14.990] $GPGGA,71414.6,3713.96856714,N,13701.45413241,E,4,9.0,1.1,97.363,M,36.771,M,3.6,0000*72,37.23280945233333,137.02423554016664,679568.0119619194,4122618.898157497
967,[2021-02-22 16:14:15.084] $GPGGA,71414.7,3713.96856634,N,13701.45413334,E,4,9.0,1.1,97.369,M,36.771,M,3.7,0000*78,37.232809439,137.02423555566665,679568.0133687032,4122618.896707488
969,[2021-02-22 16:14:15.194] $GPGGA,71414.8,3713.96856521,N,13701.45412921,E,4,9.0,1.1,97.373,M,36.771,M,3.8,0000*7B,37.23280942016667,137.02423548683333,679568.0073065675,4122618.8944872157
971,[2021-02-22 16:14:15.287] $GPGGA,71414.9,3713.96856179,N,13701.45413056,E,4,9.0,1.1,97.365,M,36.771,M,3.9,0000*7D,37.232809363166666,137.02423550933335,679568.0094379978,4122618.8882053923
973,[2021-02-22 16:14:15.397] $GPGGA,71415.0,3713.96856307,N,13701.45412673,E,4,9.0,1.1,97.375,M,36.771,M,4.0,0000*71,37.2328093845,137.02423544549998,679568.0037241448,4122618.890451351
975,[2021-02-22 16:14:15.490] $GPGGA,71415.1,3713.96856229,N,13701.45412757,E,4,9.0,1.1,97.376,M,36.771,M,4.1,0000*78,37.232809371500004,137.0242354595,679568.004997059,4122618.8890354815
977,[2021-02-22 16:14:15.600] $GPGGA,71415.2,3713.96856113,N,13701.45412285,E,4,9.0,1.1,97.373,M,36.771,M,4.2,0000*7D,37.23280935216667,137.02423538083335,679567.9980637038,4122618.886741072
979,[2021-02-22 16:14:15.693] $GPGGA,71415.3,3713.96856251,N,13701.45412873,E,4,9.0,1.1,97.389,M,36.771,M,2.3,0000*78,37.23280937516667,137.02423547883333,679568.0067035919,4122618.889479002
981,[2021-02-22 16:14:15.803] $GPGGA,71415.4,3713.96855965,N,13701.45412788,E,4,9.0,1.1,97.381,M,36.771,M,2.4,0000*74,37.2328093275,137.02423546466667,679568.005559846,4122618.8841632046
983,[2021-02-22 16:14:15.881] $GPGGA,71415.5,3713.96855811,N,13701.45412956,E,4,9.0,1.1,97.370,M,36.771,M,2.5,0000*75,37.23280930183333,137.02423549266666,679568.0081048814,4122618.8813684485
985,[2021-02-22 16:14:15.990] $GPGGA,71415.6,3713.96855844,N,13701.45412464,E,4,9.0,1.1,97.393,M,36.771,M,2.6,0000*74,37.23280930733333,137.02423541066668,679568.0008168715,4122618.8818231313
987,[2021-02-22 16:14:16.084] $GPGGA,71415.7,3713.96856031,N,13701.45412302,E,4,9.0,1.1,97.386,M,36.771,M,2.7,0000*7E,37.2328093385,137.02423538366665,679567.9983475014,4122618.8852300444
989,[2021-02-22 16:14:16.193] $GPGGA,71415.8,3713.96855763,N,13701.45412647,E,4,9.0,1.1,97.384,M,36.771,M,2.8,0000*7B,37.23280929383333,137.02423544116667,679568.0035548344,4122618.8803830883
991,[2021-02-22 16:14:16.287] $GPGGA,71415.9,3713.96855871,N,13701.45412555,E,4,9.0,1.1,97.385,M,36.771,M,2.9,0000*76,37.23280931183333,137.02423542583335,679568.0021517655,4122618.882351211
993,[2021-02-22 16:14:16.397] $GPGGA,71416.0,3713.96855599,N,13701.45412435,E,4,9.0,1.1,97.382,M,36.771,M,3.0,0000*7F,37.232809266500006,137.02423540583337,679568.0004849544,4122618.877283245
995,[2021-02-22 16:14:16.490] $GPGGA,71416.1,3713.96855817,N,13701.45412267,E,4,9.0,1.1,97.379,M,36.771,M,3.1,0000*71,37.23280930283333,137.02423537783335,679567.9979146087,4122618.8812615345
997,[2021-02-22 16:14:16.600] $GPGGA,71416.2,3713.96855781,N,13701.45412244,E,4,9.0,1.1,97.380,M,36.771,M,3.2,0000*76,37.23280929683333,137.024235374,679567.997588754,4122618.8805885236
999,[2021-02-22 16:14:16.693] $GPGGA,71416.3,3713.96855825,N,13701.45412336,E,4,9.0,1.1,97.380,M,36.771,M,2.3,0000*72,37.232809304166665,137.02423538933334,679567.9989317133,4122618.8814312946
1001,[2021-02-22 16:14:16.803] $GPGGA,71416.4,3713.96855655,N,13701.45412494,E,4,9.0,1.1,97.376,M,36.771,M,2.4,0000*7D,37.23280927583334,137.02423541566665,679568.0013352074,4122618.878337495
1003,[2021-02-22 16:14:16.896] $GPGGA,71416.5,3713.96855801,N,13701.45412266,E,4,9.0,1.1,97.374,M,36.771,M,2.5,0000*7B,37.232809300166664,137.02423537766666,679567.9979061458,4122618.880965335
1005,[2021-02-22 16:14:16.990] $GPGGA,71416.6,3713.96855715,N,13701.45412118,E,4,9.0,1.1,97.375,M,36.771,M,2.6,0000*7A,37.232809285833326,137.02423535300002,679567.9957517574,4122618.8793281596
1007,[2021-02-22 16:14:17.084] $GPGGA,71416.7,3713.96855752,N,13701.45412018,E,4,9.0,1.1,97.377,M,36.771,M,2.7,0000*7A,37.232809292,137.02423533633333,679567.9942584722,4122618.8799807695
1009,[2021-02-22 16:14:17.193] $GPGGA,71416.8,3713.96855699,N,13701.45412164,E,4,9.0,1.1,97.380,M,36.771,M,2.8,0000*7E,37.23280928316666,137.02423536066667,679567.9964382616,4122618.8790468224
1011,[2021-02-22 16:14:17.287] $GPGGA,71416.9,3713.96855012,N,13701.45412277,E,4,9.0,1.1,97.363,M,36.771,M,2.9,0000*77,37.23280916866666,137.0242353795,679567.9983808266,4122618.866378055
1013,[2021-02-22 16:14:17.396] $GPGGA,71417.0,3713.96855516,N,13701.45411563,E,4,9.0,1.1,97.378,M,36.771,M,3.0,0000*7D,37.23280925266667,137.0242352605,679567.9876239448,4122618.87547261
1015,[2021-02-22 16:14:17.490] $GPGGA,71417.1,3713.96855274,N,13701.45412138,E,4,9.0,1.1,97.366,M,36.771,M,3.1,0000*78,37.23280921233334,137.02423535633335,679567.99622189,4122618.871179197
1017,[2021-02-22 16:14:17.600] $GPGGA,71417.2,3713.96855359,N,13701.45411749,E,4,9.0,1.1,97.375,M,36.771,M,3.2,0000*77,37.2328092265,137.02423529150002,679567.990436326,4122618.872628069
1019,[2021-02-22 16:14:17.693] $GPGGA,71417.3,3713.96854867,N,13701.4541198,E,4,9.0,1.1,97.367,M,36.771,M,3.3,0000*78,37.2328091445,137.02423533000004,679567.9940465814,4122618.8636026955
1021,[2021-02-22 16:14:17.803] $GPGGA,71417.4,3713.96855211,N,13701.45411693,E,4,9.0,1.1,97.378,M,36.771,M,3.4,0000*71,37.232809201833334,137.02423528216667,679567.9896668103,4122618.869873438
1023,[2021-02-22 16:14:17.881] $GPGGA,71417.5,3713.96855114,N,13701.4541198,E,4,9.0,1.1,97.374,M,36.771,M,3.5,0000*76,37.23280918566666,137.02423533000004,679567.9939488997,4122618.8681703974
1025,[2021-02-22 16:14:17.990] $GPGGA,71417.6,3713.96855348,N,13701.454115,E,4,9.0,1.1,97.370,M,36.771,M,3.6,0000*7D,37.23280922466667,137.02423525000003,679567.9867588363,4122618.872345912
1027,[2021-02-22 16:14:18.084] $GPGGA,71417.7,3713.96854877,N,13701.45411944,E,4,9.0,1.1,97.374,M,36.771,M,3.7,0000*73,37.232809146166666,137.02423532400002,679567.9935103124,4122618.8637762386
1029,[2021-02-22 16:14:18.193] $GPGGA,71417.8,3713.96855182,N,13701.45411772,E,4,9.0,1.1,97.365,M,36.771,M,3.8,0000*7A,37.232809196999995,137.02423529533337,679567.9908464142,4122618.8693621294
1031,[2021-02-22 16:14:18.287] $GPGGA,71417.9,3713.96855569,N,13701.45411376,E,4,9.0,1.1,97.371,M,36.771,M,3.9,0000*7E,37.232809261499995,137.02423522933336,679567.9848379111,4122618.8763935925
1033,[2021-02-22 16:14:18.396] $GPGGA,71418.0,3713.96855367,N,13701.45411699,E,4,9.0,1.1,97.374,M,36.771,M,4.0,0000*7F,37.232809227833336,137.0242352831667,679567.9896938371,4122618.8727602004
1035,[2021-02-22 16:14:18.490] $GPGGA,71418.1,3713.96855187,N,13701.45411868,E,4,9.0,1.1,97.379,M,36.771,M,4.1,0000*7E,37.23280919783333,137.0242353113333,679567.9922639364,4122618.86948495
1037,[2021-02-22 16:14:18.600] $GPGGA,71418.2,3713.96855549,N,13701.45411874,E,4,9.0,1.1,97.375,M,36.771,M,4.2,0000*79,37.232809258166675,137.02423531233333,679567.9922094959,4122618.876181214
1039,[2021-02-22 16:14:18.693] $GPGGA,71418.3,3713.96855031,N,13701.45411742,E,4,9.0,1.1,97.375,M,36.771,M,2.3,0000*7F,37.23280917183333,137.0242352903333,679567.9904625299,4122618.866560243
1041,[2021-02-22 16:14:18.803] $GPGGA,71418.4,3713.96855503,N,13701.45411735,E,4,9.0,1.1,97.371,M,36.771,M,2.4,0000*7F,37.232809250500004,137.02423528916665,679567.9901723627,4122618.8752865936
1043,[2021-02-22 16:14:18.896] $GPGGA,71418.5,3713.96855271,N,13701.45411985,E,4,9.0,1.1,97.377,M,36.771,M,2.5,0000*7E,37.232809211833334,137.0242353308333,679567.9939607383,4122618.871075336
1045,[2021-02-22 16:14:18.990] $GPGGA,71418.6,3713.96855319,N,13701.45411972,E,4,9.0,1.1,97.370,M,36.771,M,2.6,0000*7E,37.232809219833335,137.02423532866666,679567.993749533,4122618.871958876
1047,[2021-02-22 16:14:19.084] $GPGGA,71418.7,3713.96855066,N,13701.45412011,E,4,9.0,1.1,97.376,M,36.771,M,2.7,0000*7C,37.23280917766666,137.02423533516668,679567.9944262622,4122618.8672925485
1049,[2021-02-22 16:14:19.193] $GPGGA,71418.8,3713.9685542,N,13701.45411867,E,4,9.0,1.1,97.371,M,36.771,M,2.8,0000*77,37.23280923666667,137.02423531116668,679567.9921570076,4122618.8737934395
1051,[2021-02-22 16:14:19.287] $GPGGA,71418.9,3713.96855724,N,13701.45411431,E,4,9.0,1.1,97.373,M,36.771,M,2.9,0000*7D,37.23280928733333,137.02423523849998,679567.9855898658,4122618.8792773564
1053,[2021-02-22 16:14:19.396] $GPGGA,71419.0,3713.96855406,N,13701.45411701,E,4,9.0,1.1,97.373,M,36.771,M,3.0,0000*7E,37.23280923433333,137.0242352835,679567.9897079834,4122618.8734820476
1055,[2021-02-22 16:14:19.490] $GPGGA,71419.1,3713.96855634,N,13701.45411534,E,4,9.0,1.1,97.376,M,36.771,M,3.1,0000*7C,37.232809272333334,137.0242352556667,679567.9871484735,4122618.877645582
1057,[2021-02-22 16:14:19.599] $GPGGA,71419.2,3713.96855552,N,13701.45411916,E,4,9.0,1.1,97.371,M,36.771,M,3.2,0000*74,37.23280925866666,137.02423531933331,679567.9928293421,4122618.8762499713
1059,[2021-02-22 16:14:19.693] $GPGGA,71419.3,3713.96855835,N,13701.45412144,E,4,9.0,1.1,97.362,M,36.771,M,2.3,0000*77,37.23280930583333,137.02423535733334,679567.9960887481,4122618.8815555084
1061,[2021-02-22 16:14:19.803] $GPGGA,71419.4,3713.96856126,N,13701.4541189,E,4,9.0,1.1,97.368,M,36.771,M,2.4,0000*76,37.23280935433334,137.024235315,679567.9922178934,4122618.8868565736
1063,[2021-02-22 16:14:19.896] $GPGGA,71419.5,3713.96855939,N,13701.45411635,E,4,9.0,1.1,97.368,M,36.771,M,2.5,0000*72,37.23280932316666,137.02423527249996,679567.988521284,4122618.883317799
1065,[2021-02-22 16:14:19.990] $GPGGA,71419.6,3713.96856016,N,13701.45411776,E,4,9.0,1.1,97.364,M,36.771,M,2.6,0000*7F,37.232809336,137.024235296,679567.9905757341,4122618.8847863255
1067,[2021-02-22 16:14:20.084] $GPGGA,71419.7,3713.96856045,N,13701.45411597,E,4,9.0,1.1,97.364,M,36.771,M,2.7,0000*74,37.232809340833334,137.02423526616667,679567.987917482,4122618.8852660106
1069,[2021-02-22 16:14:20.193] $GPGGA,71419.8,3713.96856192,N,13701.45411742,E,4,9.0,1.1,97.368,M,36.771,M,2.8,0000*79,37.23280936533334,137.0242352903333,679567.9900033863,4122618.8880302925
1071,[2021-02-22 16:14:20.287] $GPGGA,71419.9,3713.96856107,N,13701.45411653,E,4,9.0,1.1,97.366,M,36.771,M,2.9,0000*7A,37.232809351166665,137.0242352755,679567.988721004,4122618.886430268
1073,[2021-02-22 16:14:20.396] $GPGGA,71420.0,3713.96856011,N,13701.45411974,E,4,9.0,1.1,97.356,M,36.771,M,3.0,0000*7E,37.232809335166664,137.02423532900002,679567.9935054403,4122618.884756471
1075,[2021-02-22 16:14:20.490] $GPGGA,71420.1,3713.96855483,N,13701.45411789,E,4,9.0,1.1,97.367,M,36.771,M,3.1,0000*7C,37.23280924716667,137.02423529816667,679567.9909787459,4122618.8749338156
1077,[2021-02-22 16:14:20.599] $GPGGA,71420.2,3713.96856007,N,13701.45411622,E,4,9.0,1.1,97.364,M,36.771,M,3.2,0000*74,37.2328093345,137.02423527033335,679567.9883021738,4122618.8845711937
1079,[2021-02-22 16:14:20.693] $GPGGA,71420.3,3713.96855968,N,13701.45411495,E,4,9.0,1.1,97.364,M,36.771,M,3.3,0000*79,37.232809328,137.02423524916665,679567.9864397065,4122618.883809818
1081,[2021-02-22 16:14:20.802] $GPGGA,71420.4,3713.96855703,N,13701.45411654,E,4,9.0,1.1,97.344,M,36.771,M,3.4,0000*77,37.232809283833326,137.02423527566668,679567.9888955655,4122618.878959524
1083,[2021-02-22 16:14:20.896] $GPGGA,71420.5,3713.96855807,N,13701.45411585,E,4,9.0,1.1,97.369,M,36.771,M,3.5,0000*7C,37.232809301166675,137.0242352641667,679567.9878341679,4122618.880860951
1085,[2021-02-22 16:14:20.990] $GPGGA,71420.6,3713.96856249,N,13701.45411995,E,4,9.0,1.1,97.367,M,36.771,M,3.6,0000*7C,37.23280937483333,137.0242353325,679567.9937218352,4122618.88916438
1087,[2021-02-22 16:14:21.084] $GPGGA,71420.7,3713.96855961,N,13701.4541218,E,4,9.0,1.1,97.362,M,36.771,M,3.7,0000*74,37.23280932683333,137.02423536333333,679567.9965712329,4122618.883896976
1089,[2021-02-22 16:14:21.193] $GPGGA,71420.8,3713.96855954,N,13701.45412253,E,4,9.0,1.1,97.361,M,36.771,M,3.8,0000*7C,37.23280932566667,137.0242353755,679567.9976534159,4122618.8837906113
1091,[2021-02-22 16:14:21.287] $GPGGA,71420.9,3713.96856368,N,13701.45412531,E,4,9.0,1.1,97.368,M,36.771,M,3.9,0000*70,37.232809394666674,137.0242354218333,679568.0016003356,4122618.8915345045
1093,[2021-02-22 16:14:21.396] $GPGGA,71421.0,3713.96856098,N,13701.45412598,E,4,9.0,1.1,97.363,M,36.771,M,4.0,0000*72,37.23280934966666,137.02423543300003,679568.0026978141,4122618.886562655
1095,[2021-02-22 16:14:21.490] $GPGGA,71421.1,3713.96855852,N,13701.45413127,E,4,9.0,1.1,97.356,M,36.771,M,4.1,0000*78,37.23280930866667,137.02423552116667,679568.01061716,4122618.8821807234
1097,[2021-02-22 16:14:21.599] $GPGGA,71421.2,3713.96856205,N,13701.45412241,E,4,9.0,1.1,97.367,M,36.771,M,4.2,0000*73,37.232809367499996,137.02423537349998,679567.9973767111,4122618.8884284883
1099,[2021-02-22 16:14:21.693] $GPGGA,71421.3,3713.96855921,N,13701.45412804,E,4,9.0,1.1,97.360,M,36.771,M,2.3,0000*77,37.232809320166666,137.02423546733334,679568.0058138318,4122618.8833545847
1101,[2021-02-22 16:14:21.802] $GPGGA,71421.4,3713.96855961,N,13701.45412593,E,4,9.0,1.1,97.375,M,36.771,M,2.4,0000*74,37.23280932683333,137.0242354321667,679568.0026780616,4122618.884027573
1103,[2021-02-22 16:14:21.881] $GPGGA,71421.5,3713.96856192,N,13701.45413067,E,4,9.0,1.1,97.370,M,36.771,M,2.5,0000*79,37.23280936533334,137.02423551116664,679568.009595505,4122618.888449277
1105,[2021-02-22 16:14:21.990] $GPGGA,71421.6,3713.96856599,N,13701.45413224,E,4,9.0,1.1,97.362,M,36.771,M,2.6,0000*70,37.23280943316667,137.0242355373333,679568.0117560298,4122618.896025461
1107,[2021-02-22 16:14:22.084] $GPGGA,71421.7,3713.96856075,N,13701.45413061,E,4,9.0,1.1,97.376,M,36.771,M,2.7,0000*71,37.23280934583333,137.02423551016668,679568.0095530592,4122618.88628373
1109,[2021-02-22 16:14:22.193] $GPGGA,71421.8,3713.96856382,N,13701.45413492,E,4,9.0,1.1,97.354,M,36.771,M,2.8,0000*72,37.232809397,137.02423558200002,679568.0158046327,4122618.892097284
1111,[2021-02-22 16:14:22.287] $GPGGA,71421.9,3713.96856552,N,13701.45412623,E,4,9.0,1.1,97.367,M,36.771,M,2.9,0000*70,37.23280942533333,137.02423543716668,679568.002887931,4122618.8949662573
1113,[2021-02-22 16:14:22.412] $GPGGA,71422.0,3713.96856765,N,13701.45412548,E,4,9.0,1.1,97.368,M,36.771,M,3.0,0000*75,37.23280946083334,137.02423542466667,679568.0016947064,4122618.8988814903
1115,[2021-02-22 16:14:22.490] $GPGGA,71422.1,3713.96856737,N,13701.4541265,E,4,9.0,1.1,97.366,M,36.771,M,3.1,0000*76,37.23280945616667,137.0242354416667,679568.0032140043,4122618.898395949
1117,[2021-02-22 16:14:22.599] $GPGGA,71422.2,3713.96856958,N,13701.45412888,E,4,9.0,1.1,97.368,M,36.771,M,3.2,0000*74,37.232809493,137.0242354813333,679568.0066457897,4122618.902558099
1119,[2021-02-22 16:14:22.693] $GPGGA,71422.3,3713.96856511,N,13701.45413317,E,4,8.0,1.3,97.375,M,36.771,M,2.3,0000*77,37.23280941849999,137.02423555283335,679568.0131659798,4122618.894427507
1121,[2021-02-22 16:14:22.802] $GPGGA,71422.4,3713.96856705,N,13701.45412655,E,4,8.0,1.3,97.369,M,36.771,M,2.4,0000*7F,37.23280945083334,137.0242354425,679568.0033005895,4122618.897805764
1123,[2021-02-22 16:14:22.896] $GPGGA,71422.5,3713.968567,N,13701.45412971,E,4,8.0,1.3,97.370,M,36.771,M,2.5,0000*7B,37.23280945,137.0242354951667,679568.0079751054,4122618.897813223
1125,[2021-02-22 16:14:22.990] $GPGGA,71422.6,3713.96856691,N,13701.45412866,E,4,8.0,1.3,97.375,M,36.771,M,2.6,0000*70,37.23280944849999,137.02423547766668,679568.0064260798,4122618.8976135836
1127,[2021-02-22 16:14:23.084] $GPGGA,71422.7,3713.96856815,N,13701.4541309,E,4,8.0,1.3,97.370,M,36.771,M,2.7,0000*77,37.23280946916666,137.02423551500002,679568.0096892195,4122618.8999775145
1129,[2021-02-22 16:14:23.193] $GPGGA,71422.8,3713.96856605,N,13701.45413426,E,4,8.0,1.3,97.377,M,36.771,M,2.8,0000*76,37.23280943416667,137.02423557100002,679568.0147405342,4122618.8962002913
1131,[2021-02-22 16:14:23.287] $GPGGA,71422.9,3713.96856733,N,13701.45413347,E,4,8.0,1.3,97.365,M,36.771,M,2.9,0000*71,37.2328094555,137.02423555783332,679568.0135217763,4122618.898542379
1133,[2021-02-22 16:14:23.396] $GPGGA,71423.0,3713.96856151,N,13701.45413551,E,4,8.0,1.3,97.369,M,36.771,M,3.0,0000*7E,37.2328093585,137.02423559183333,679568.0167683907,4122618.887844122
1135,[2021-02-22 16:14:23.490] $GPGGA,71423.1,3713.96856303,N,13701.45413499,E,4,8.0,1.3,97.372,M,36.771,M,3.1,0000*74,37.232809383833334,137.02423558316664,679568.0159393771,4122618.8906385726
1137,[2021-02-22 16:14:23.599] $GPGGA,71423.2,3713.96856046,N,13701.45413704,E,4,8.0,1.3,97.377,M,36.771,M,3.2,0000*74,37.23280934099999,137.02423561733332,679568.019072249,4122618.885950767
1139,[2021-02-22 16:14:23.693] $GPGGA,71423.3,3713.96856501,N,13701.45413548,E,4,8.0,1.3,97.374,M,36.771,M,2.3,0000*7A,37.232809416833334,137.02423559133334,679568.016585615,4122618.894315626
1141,[2021-02-22 16:14:23.802] $GPGGA,71423.4,3713.96856142,N,13701.45413304,E,4,8.0,1.3,97.360,M,36.771,M,2.4,0000*72,37.232809356999994,137.02423555066665,679568.0131196798,4122618.887599582
1143,[2021-02-22 16:14:23.896] $GPGGA,71423.5,3713.96856538,N,13701.45413299,E,4,8.0,1.3,97.377,M,36.771,M,2.5,0000*78,37.232809423,137.02423554983332,679568.0128891426,4122618.8949211203
1145,[2021-02-22 16:14:23.990] $GPGGA,71423.6,3713.96856346,N,13701.4541341,E,4,8.0,1.3,97.373,M,36.771,M,2.6,0000*74,37.232809390999996,137.02423556833335,679568.0146063765,4122618.891405616
1147,[2021-02-22 16:14:24.084] $GPGGA,71423.7,3713.96856609,N,13701.45413118,E,4,8.0,1.3,97.371,M,36.771,M,2.7,0000*75,37.232809434833335,137.02423551966666,679568.0101847064,4122618.896176869
1149,[2021-02-22 16:14:24.193] $GPGGA,71423.8,3713.96856872,N,13701.45412839,E,4,8.0,1.3,97.361,M,36.771,M,2.8,0000*7D,37.23280947866667,137.02423547316667,679568.0059552634,4122618.9009522307
1151,[2021-02-22 16:14:24.287] $GPGGA,71423.9,3713.96856584,N,13701.45413169,E,4,8.0,1.3,97.369,M,36.771,M,2.9,0000*7C,37.23280943066666,137.02423552816666,679568.0109487044,4122618.8957306775
1153,[2021-02-22 16:14:24.396] $GPGGA,71424.0,3713.96856543,N,13701.45413174,E,4,8.0,1.3,97.370,M,36.771,M,3.0,0000*75,37.23280942383334,137.02423552899998,679568.011038851,4122618.894974057
1155,[2021-02-22 16:14:24.490] $GPGGA,71424.1,3713.96856487,N,13701.45412679,E,4,8.0,1.3,97.382,M,36.771,M,3.1,0000*7A,37.232809414500004,137.0242354465,679568.0037416802,4122618.893781939
1157,[2021-02-22 16:14:24.599] $GPGGA,71424.2,3713.96856675,N,13701.45412956,E,4,8.0,1.3,97.367,M,36.771,M,3.2,0000*7C,37.232809445833325,137.02423549266666,679568.007763193,4122618.897346161
1159,[2021-02-22 16:14:24.693] $GPGGA,71424.3,3713.96856541,N,13701.45413124,E,4,9.0,1.1,97.369,M,36.771,M,2.3,0000*78,37.2328094235,137.02423552066665,679568.0103003168,4122618.894921261
1161,[2021-02-22 16:14:24.802] $GPGGA,71424.4,3713.96856436,N,13701.45413135,E,4,9.0,1.1,97.371,M,36.771,M,2.4,0000*70,37.23280940600001,137.0242355225,679568.0105044943,4122618.8929830045
1163,[2021-02-22 16:14:24.896] $GPGGA,71424.5,3713.96856874,N,13701.4541304,E,4,9.0,1.1,97.371,M,36.771,M,2.5,0000*79,37.232809479000004,137.02423550666668,679568.0089265615,4122618.901052775
1165,[2021-02-22 16:14:24.990] $GPGGA,71424.6,3713.96856649,N,13701.45413287,E,4,9.0,1.1,97.367,M,36.771,M,2.6,0000*77,37.2328094415,137.02423554783334,679568.0126678084,4122618.896970018
1167,[2021-02-22 16:14:25.083] $GPGGA,71424.7,3713.96856386,N,13701.45413126,E,4,9.0,1.1,97.362,M,36.771,M,2.7,0000*7C,37.232809397666664,137.02423552099998,679568.0103911872,4122618.892055521
1169,[2021-02-22 16:14:25.193] $GPGGA,71424.8,3713.96856779,N,13701.45413308,E,4,9.0,1.1,97.362,M,36.771,M,2.8,0000*76,37.232809463166674,137.02423555133333,679568.0129269122,4122618.899380712
1171,[2021-02-22 16:14:25.287] $GPGGA,71424.9,3713.96856529,N,13701.4541331,E,4,9.0,1.1,97.369,M,36.771,M,2.9,0000*73,37.2328094215,137.02423555166666,679568.0130553524,4122618.894758164
1173,[2021-02-22 16:14:25.396] $GPGGA,71425.0,3713.96856788,N,13701.4541327,E,4,9.0,1.1,97.354,M,36.771,M,3.0,0000*73,37.232809464666666,137.02423554500004,679568.0123614689,4122618.89953513
1175,[2021-02-22 16:14:25.490] $GPGGA,71425.1,3713.96856749,N,13701.45412806,E,4,9.0,1.1,97.354,M,36.771,M,3.1,0000*74,37.23280945816667,137.0242354676667,679568.0055159548,4122618.8986671907
1177,[2021-02-22 16:14:25.599] $GPGGA,71425.2,3713.96856948,N,13701.4541288,E,4,9.0,1.1,97.353,M,36.771,M,3.2,0000*72,37.232809491333335,137.02423548000002,679568.0065314564,4122618.9023706424
1179,[2021-02-22 16:14:25.693] $GPGGA,71425.3,3713.96856558,N,13701.45413238,E,4,9.0,1.1,97.348,M,36.771,M,2.3,0000*7C,37.23280942633333,137.0242355396667,679568.0119792596,4122618.8952716845
1181,[2021-02-22 16:14:25.802] $GPGGA,71425.4,3713.96856756,N,13701.4541276,E,4,9.0,1.1,97.350,M,36.771,M,2.4,0000*70,37.23280945933333,137.02423545999997,679568.0048330008,4122618.8987820945
1183,[2021-02-22 16:14:25.896] $GPGGA,71425.5,3713.9685673,N,13701.4541287,E,4,9.0,1.1,97.351,M,36.771,M,2.5,0000*7F,37.232809455,137.0242354783333,679568.0064698004,4122618.898336067
1185,[2021-02-22 16:14:25.990] $GPGGA,71425.6,3713.96856487,N,13701.45412999,E,4,9.0,1.1,97.362,M,36.771,M,2.6,0000*76,37.232809414500004,137.02423549983334,679568.0084733604,4122618.893883128
1187,[2021-02-22 16:14:26.083] $GPGGA,71425.7,3713.96856644,N,13701.45412794,E,4,9.0,1.1,97.356,M,36.771,M,2.7,0000*7F,37.232809440666664,137.02423546566666,679568.0053800383,4122618.8967216606
1189,[2021-02-22 16:14:26.193] $GPGGA,71425.8,3713.96856713,N,13701.45413321,E,4,9.0,1.1,97.358,M,36.771,M,2.8,0000*79,37.23280945216667,137.0242355535,679568.0131452383,4122618.8981643035
1191,[2021-02-22 16:14:26.286] $GPGGA,71425.9,3713.96856619,N,13701.45412666,E,4,9.0,1.1,97.352,M,36.771,M,2.9,0000*7F,37.23280943649999,137.02423544433336,679568.0034972553,4122618.896218866
1193,[2021-02-22 16:14:26.396] $GPGGA,71426.0,3713.9685657,N,13701.45413294,E,4,9.0,1.1,97.345,M,36.771,M,3.0,0000*7F,37.23280942833333,137.024235549,679568.0128025551,4122618.8955113064
1195,[2021-02-22 16:14:26.490] $GPGGA,71426.1,3713.96856853,N,13701.45412985,E,4,9.0,1.1,97.351,M,36.771,M,3.1,0000*7C,37.232809475500005,137.0242354975,679568.0081216067,4122618.9006470367
1197,[2021-02-22 16:14:26.599] $GPGGA,71426.2,3713.96856774,N,13701.45413179,E,4,9.0,1.1,97.354,M,36.771,M,3.2,0000*79,37.23280946233333,137.02423552983336,679568.0110214337,4122618.899247457
1199,[2021-02-22 16:14:26.693] $GPGGA,71426.3,3713.96856548,N,13701.45412806,E,4,9.0,1.1,97.352,M,36.771,M,2.3,0000*73,37.23280942466666,137.0242354676667,679568.0055954448,4122618.8949501524
1201,[2021-02-22 16:14:26.802] $GPGGA,71426.4,3713.96856767,N,13701.45412973,E,4,9.0,1.1,97.349,M,36.771,M,2.4,0000*75,37.23280946116666,137.02423549550002,679568.0079781808,4122618.8990528667
1203,[2021-02-22 16:14:26.896] $GPGGA,71426.5,3713.96856503,N,13701.45412836,E,4,9.0,1.1,97.347,M,36.771,M,2.5,0000*7B,37.232809417166656,137.02423547266665,679568.0060568303,4122618.8941274667
1205,[2021-02-22 16:14:26.990] $GPGGA,71426.6,3713.96856749,N,13701.45413078,E,4,9.0,1.1,97.350,M,36.771,M,2.6,0000*72,37.23280945816667,137.02423551299998,679568.0095378796,4122618.898753202
1207,[2021-02-22 16:14:27.083] $GPGGA,71426.7,3713.96856555,N,13701.45413164,E,4,9.0,1.1,97.345,M,36.771,M,2.7,0000*75,37.23280942583334,137.02423552733333,679568.0108862409,4122618.895192808
1209,[2021-02-22 16:14:27.193] $GPGGA,71426.8,3713.96856746,N,13701.45412878,E,4,9.0,1.1,97.351,M,36.771,M,2.8,0000*75,37.23280945766667,137.02423547966666,679568.0065817654,4122618.8986344784
1211,[2021-02-22 16:14:27.286] $GPGGA,71426.9,3713.9685689,N,13701.45412925,E,4,9.0,1.1,97.355,M,36.771,M,2.9,0000*7C,37.23280948166666,137.02423548749996,679568.00721978,4122618.901312293
1213,[2021-02-22 16:14:27.396] $GPGGA,71427.0,3713.96856779,N,13701.45412899,E,4,9.0,1.1,97.351,M,36.771,M,3.0,0000*76,37.232809463166674,137.02423548316665,679568.0068792298,4122618.899251381
1215,[2021-02-22 16:14:27.489] $GPGGA,71427.1,3713.96856679,N,13701.45413103,E,4,9.0,1.1,97.349,M,36.771,M,3.1,0000*75,37.23280944649999,137.02423551716666,679568.0099352265,4122618.897466615
1217,[2021-02-22 16:14:27.599] $GPGGA,71427.2,3713.96856753,N,13701.45412954,E,4,9.0,1.1,97.351,M,36.771,M,3.2,0000*7E,37.23280945883334,137.02423549233333,679568.0077027719,4122618.8987879627
1219,[2021-02-22 16:14:27.693] $GPGGA,71427.3,3713.96856222,N,13701.45413135,E,4,9.0,1.1,97.374,M,36.771,M,2.3,0000*75,37.23280937033333,137.0242355225,679568.0105891256,4122618.88902556
1221,[2021-02-22 16:14:27.802] $GPGGA,71427.4,3713.9685588,N,13701.45412903,E,4,9.0,1.1,97.374,M,36.771,M,2.4,0000*78,37.232809313333334,137.02423548383334,679568.0072939083,4122618.882627688
1223,[2021-02-22 16:14:27.896] $GPGGA,71427.5,3713.96855894,N,13701.45413206,E,4,9.0,1.1,97.364,M,36.771,M,2.5,0000*73,37.23280931566667,137.02423553433331,679568.0117686809,4122618.8829823993
1225,[2021-02-22 16:14:27.989] $GPGGA,71427.6,3713.96856085,N,13701.45412838,E,4,9.0,1.1,97.366,M,36.771,M,2.6,0000*7C,37.2328093475,137.02423547300003,679568.0062517166,4122618.886398142
1227,[2021-02-22 16:14:28.083] $GPGGA,71427.7,3713.96856105,N,13701.45412835,E,4,9.0,1.1,97.378,M,36.771,M,2.7,0000*77,37.232809350833335,137.02423547249998,679568.0061994423,4122618.886767048
1229,[2021-02-22 16:14:28.193] $GPGGA,71427.8,3713.96855946,N,13701.45413084,E,4,9.0,1.1,97.359,M,36.771,M,2.8,0000*7B,37.23280932433334,137.024235514,679568.0099441648,4122618.883905443
1231,[2021-02-22 16:14:28.286] $GPGGA,71427.9,3713.96855826,N,13701.4541281,E,4,9.0,1.1,97.375,M,36.771,M,2.9,0000*76,37.23280930433334,137.02423546833333,679568.0059401178,4122618.8815996735
1233,[2021-02-22 16:14:28.396] $GPGGA,71428.0,3713.96855648,N,13701.45412776,E,4,9.0,1.1,97.364,M,36.771,M,3.0,0000*71,37.23280927466667,137.02423546266664,679568.0055077695,4122618.878297218
1235,[2021-02-22 16:14:28.489] $GPGGA,71428.1,3713.96855804,N,13701.4541254,E,4,9.0,1.1,97.366,M,36.771,M,3.1,0000*72,37.232809300666666,137.02423542333332,679568.001956463,4122618.8811074556
1237,[2021-02-22 16:14:28.599] $GPGGA,71428.2,3713.96855669,N,13701.45412717,E,4,9.0,1.1,97.375,M,36.771,M,3.2,0000*75,37.23280927816666,137.02423545283335,679568.0046270654,4122618.8786669075
1239,[2021-02-22 16:14:28.693] $GPGGA,71428.3,3713.96855796,N,13701.45412444,E,4,9.0,1.1,97.370,M,36.771,M,2.3,0000*75,37.23280929933333,137.02423540733332,679568.0005401226,4122618.880929157
1241,[2021-02-22 16:14:28.802] $GPGGA,71428.4,3713.9685582,N,13701.45412799,E,4,9.0,1.1,97.374,M,36.771,M,2.4,0000*70,37.23280930333333,137.02423546650002,679568.0057798423,4122618.881485238
1243,[2021-02-22 16:14:28.896] $GPGGA,71428.5,3713.9685571,N,13701.45412883,E,4,9.0,1.1,97.364,M,36.771,M,2.5,0000*79,37.232809285,137.02423548049998,679568.0070654072,4122618.879477601
1245,[2021-02-22 16:14:28.989] $GPGGA,71428.6,3713.96855764,N,13701.45412482,E,4,9.0,1.1,97.378,M,36.771,M,2.6,0000*7A,37.232809294000006,137.02423541366667,679568.0011146663,4122618.8803494065
1247,[2021-02-22 16:14:29.083] $GPGGA,71428.7,3713.96856043,N,13701.45412373,E,4,9.0,1.1,97.371,M,36.771,M,2.7,0000*7B,37.2328093405,137.0242353955,679567.9993925984,4122618.885474408
1249,[2021-02-22 16:14:29.193] $GPGGA,71428.8,3713.96855746,N,13701.45412227,E,4,9.0,1.1,97.368,M,36.771,M,2.8,0000*72,37.232809291,137.0242353711667,679567.9973512266,4122618.8799359035
1251,[2021-02-22 16:14:29.286] $GPGGA,71428.9,3713.96855971,N,13701.45412509,E,4,9.0,1.1,97.366,M,36.771,M,2.9,0000*7D,37.2328093285,137.02423541816668,679568.0014320393,4122618.8841859372
1253,[2021-02-22 16:14:29.396] $GPGGA,71429.0,3713.96855958,N,13701.45412829,E,4,9.0,1.1,97.377,M,36.771,M,3.0,0000*79,37.23280932633334,137.02423547150002,679568.006168863,4122618.8840467217
1255,[2021-02-22 16:14:29.489] $GPGGA,71429.1,3713.96855977,N,13701.45412711,E,4,9.0,1.1,97.371,M,36.771,M,3.1,0000*76,37.2328093295,137.02423545183333,679568.0044165393,4122618.8843607693
1257,[2021-02-22 16:14:29.599] $GPGGA,71429.2,3713.96856073,N,13701.45413057,E,4,9.0,1.1,97.375,M,36.771,M,3.2,0000*78,37.232809345499994,137.0242355095,679568.0094947016,4122618.88624548
1259,[2021-02-22 16:14:29.692] $GPGGA,71429.3,3713.96856127,N,13701.45412762,E,4,9.0,1.1,97.367,M,36.771,M,2.3,0000*7A,37.2328093545,137.02423546033333,679568.0051113296,4122618.887150804
1261,[2021-02-22 16:14:29.802] $GPGGA,71429.4,3713.96856429,N,13701.45412647,E,4,9.0,1.1,97.366,M,36.771,M,2.4,0000*76,37.23280940483333,137.02423544116667,679568.0032914496,4122618.8926992416
1263,[2021-02-22 16:14:29.896] $GPGGA,71429.5,3713.96856579,N,13701.45412596,E,4,9.0,1.1,97.370,M,36.771,M,2.5,0000*7A,37.23280942983334,137.02423543266664,679568.0024780151,4122618.8954570238
1265,[2021-02-22 16:14:29.989] $GPGGA,71429.6,3713.96856289,N,13701.45413128,E,4,9.0,1.1,97.363,M,36.771,M,2.6,0000*70,37.232809381500005,137.0242355213333,679568.0104591222,4122618.8902623593
1267,[2021-02-22 16:14:30.083] $GPGGA,71429.7,3713.96856481,N,13701.45412848,E,4,9.0,1.1,97.372,M,36.771,M,2.7,0000*70,37.2328094135,137.02423547466668,679568.0062429741,4122618.8937244224
1269,[2021-02-22 16:14:30.192] $GPGGA,71429.8,3713.968566,N,13701.45412942,E,4,9.0,1.1,97.369,M,36.771,M,2.8,0000*7A,37.23280943333333,137.02423549033333,679568.0075858403,4122618.89595478
1271,[2021-02-22 16:14:30.286] $GPGGA,71429.9,3713.96856466,N,13701.4541296,E,4,9.0,1.1,97.364,M,36.771,M,2.9,0000*75,37.232809411,137.02423549333335,679568.0079049931,4122618.8934824467
1273,[2021-02-22 16:14:30.396] $GPGGA,71430.0,3713.96856831,N,13701.45412732,E,4,9.0,1.1,97.373,M,36.771,M,3.0,0000*7D,37.23280947183333,137.02423545533333,679568.0043893208,4122618.9001601934
1275,[2021-02-22 16:14:30.489] $GPGGA,71430.1,3713.9685675,N,13701.45412752,E,4,9.0,1.1,97.362,M,36.771,M,3.1,0000*73,37.232809458333335,137.02423545866668,679568.0047170855,4122618.8986686077
1277,[2021-02-22 16:14:30.599] $GPGGA,71430.2,3713.96856996,N,13701.4541292,E,4,9.0,1.1,97.379,M,36.771,M,3.2,0000*76,37.232809499333335,137.02423548666664,679568.0071039298,4122618.9032709426
1279,[2021-02-22 16:14:30.692] $GPGGA,71430.3,3713.96856759,N,13701.4541327,E,4,8.0,1.2,97.385,M,36.771,M,2.3,0000*74,37.23280945983333,137.02423554500004,679568.0123729376,4122618.8989988407
1281,[2021-02-22 16:14:30.802] $GPGGA,71430.4,3713.96856973,N,13701.45412886,E,4,8.0,1.2,97.379,M,36.771,M,2.4,0000*73,37.23280949550001,137.02423548099998,679568.0066102833,4122618.9028348583
1283,[2021-02-22 16:14:30.896] $GPGGA,71430.5,3713.96856769,N,13701.45412897,E,4,8.0,1.2,97.373,M,36.771,M,2.5,0000*7C,37.232809461500004,137.02423548283332,679568.0068536126,4122618.8990658214
1285,[2021-02-22 16:14:30.989] $GPGGA,71430.6,3713.96856567,N,13701.45413489,E,4,8.0,1.2,97.383,M,36.771,M,2.6,0000*7D,37.232809427833324,137.0242355815,679568.01568711,4122618.895517488
1287,[2021-02-22 16:14:31.099] $GPGGA,71430.7,3713.96856982,N,13701.45412946,E,4,8.0,1.2,97.385,M,36.771,M,2.7,0000*73,37.232809497,137.024235491,679568.0074939184,4122618.9030202655
1289,[2021-02-22 16:14:31.192] $GPGGA,71430.8,3713.96857067,N,13701.45412786,E,4,8.0,1.2,97.378,M,36.771,M,2.8,0000*70,37.232809511166664,137.02423546433334,679568.005094463,4122618.9045415516
1291,[2021-02-22 16:14:31.286] $GPGGA,71430.9,3713.96856557,N,13701.45413457,E,4,8.0,1.2,97.372,M,36.771,M,2.9,0000*73,37.23280942616667,137.02423557616666,679568.0152178967,4122618.8953224435
1293,[2021-02-22 16:14:31.396] $GPGGA,71431.0,3713.96856929,N,13701.454126,E,4,8.0,1.2,97.378,M,36.771,M,3.0,0000*7D,37.23280948816666,137.02423543333336,679568.0023987484,4122618.9019307396
1295,[2021-02-22 16:14:31.489] $GPGGA,71431.1,3713.96856927,N,13701.45412414,E,4,8.0,1.2,97.386,M,36.771,M,3.1,0000*75,37.23280948783333,137.02423540233332,679567.9996492472,4122618.9018349396
1297,[2021-02-22 16:14:31.599] $GPGGA,71431.2,3713.96856366,N,13701.45412836,E,4,8.0,1.2,97.371,M,36.771,M,3.2,0000*7E,37.23280939433333,137.02423547266665,679568.00611101,4122618.8915939643
1299,[2021-02-22 16:14:31.692] $GPGGA,71431.3,3713.96856533,N,13701.45412536,E,4,9.0,1.1,97.380,M,36.771,M,2.3,0000*78,37.23280942216667,137.02423542266664,679568.001609015,4122618.8945873855
1301,[2021-02-22 16:14:31.802] $GPGGA,71431.4,3713.96856802,N,13701.4541192,E,4,9.0,1.1,97.372,M,36.771,M,2.4,0000*72,37.232809467,137.02423532,679567.9923941499,4122618.8993671387
1303,[2021-02-22 16:14:31.895] $GPGGA,71431.5,3713.96856249,N,13701.4541252,E,4,9.0,1.1,97.366,M,36.771,M,2.5,0000*7D,37.23280937483333,137.02423541999997,679568.001484744,4122618.889330392
1305,[2021-02-22 16:14:31.989] $GPGGA,71431.6,3713.96856518,N,13701.45412407,E,4,9.0,1.1,97.371,M,36.771,M,2.6,0000*7C,37.232809419666665,137.02423540116666,679567.9997074911,4122618.894269202
