,Format,Time,Latitude,LatType,Longitude,LonType,Status,Satellite,LevelAccuracy,Altitude(sea),M(sea),Altitude(geoid),M(geoid),DGPS use,checksum,Lat,Lon,UTM_X,UTM_Y
652,[2021-02-22 16:26:50.679] $GNGGA,72650.1,3713.988005025,N,13701.478255986001,E,4,12.0,1.0,94.61399999999999,M,37.566,M,123.1,2006*51,37.23313341708333,137.0246375997667,679602.9134277841,4122655.6069984525
653,[2021-02-22 16:26:50.788] $GNGGA,72650.2,3713.988007245,N,13701.478255499,E,4,12.0,1.0,94.615,M,37.566,M,123.2,2006*55,37.23313345408333,137.02463759165002,679602.9126198707,4122655.611088434
654,[2021-02-22 16:26:50.882] $GNGGA,72650.3,3713.988007986,N,13701.478255846001,E,4,12.0,1.0,94.61399999999999,M,37.566,M,123.3,2006*5E,37.23313346643333,137.02463759743335,679602.9131036482,4122655.612469719
655,[2021-02-22 16:26:50.976] $GNGGA,72650.4,3713.988007218,N,13701.478258473,E,4,12.0,1.0,94.617,M,37.566,M,123.4,2006*56,37.23313345363333,137.02463764121666,679602.9170184231,4122655.6111325645
656,[2021-02-22 16:26:51.085] $GNGGA,72650.5,3713.9880079520003,N,13701.478261273,E,4,12.0,1.0,94.615,M,37.566,M,123.5,2006*5D,37.23313346586667,137.0246376878833,679602.9211295918,4122655.6125784903
657,[2021-02-22 16:26:51.194] $GNGGA,72650.6,3713.9880095179997,N,13701.478262601999,E,4,12.0,1.0,94.616,M,37.566,M,123.6,2006*53,37.23313349196666,137.0246377100333,679602.9230327655,4122655.6155164815
658,[2021-02-22 16:26:51.272] $GNGGA,72650.7,3713.988010436,N,13701.478264858,E,4,12.0,1.0,94.613,M,37.566,M,123.7,2006*54,37.23313350726667,137.02463774763334,679602.9263322777,4122655.617285468
659,[2021-02-22 16:26:51.382] $GNGGA,72650.8,3713.988011973,N,13701.478265856002,E,4,12.0,1.0,94.615,M,37.566,M,123.8,2006*50,37.233133532883336,137.0246377642667,679602.9277471725,4122655.620159364
660,[2021-02-22 16:26:51.476] $GNGGA,72650.9,3713.988010337,N,13701.478265648999,E,4,12.0,1.0,94.61200000000001,M,37.566,M,123.9,2006*5C,37.23313350561667,137.02463776081663,679602.9275057982,4122655.6171274073
661,[2021-02-22 16:26:51.601] $GNGGA,72651.0,3713.9880105190005,N,13701.478265068,E,4,12.0,1.0,94.609,M,37.566,M,124.0,2006*5F,37.233133508650006,137.02463775113335,679602.9266395108,4122655.6174455998
662,[2021-02-22 16:26:51.679] $GNGGA,72651.1,3713.988011682,N,13701.478264151001,E,4,12.0,1.0,94.613,M,37.566,M,124.1,2006*5E,37.233133528033335,137.02463773585,679602.9252375915,4122655.6195673
663,[2021-02-22 16:26:51.772] $GNGGA,72651.2,3713.9880121740002,N,13701.47826509,E,4,12.0,1.0,94.60799999999999,M,37.566,M,124.2,2006*54,37.23313353623333,137.0246377515,679602.9266065757,4122655.620506841
664,[2021-02-22 16:26:51.882] $GNGGA,72651.3,3713.9880109620003,N,13701.478265093001,E,4,12.0,1.0,94.61399999999999,M,37.566,M,124.3,2006*57,37.233133516033334,137.02463775155002,679602.9266589548,4122655.618265618
665,[2021-02-22 16:26:51.976] $GNGGA,72651.4,3713.988009564,N,13701.478266449,E,4,12.0,1.0,94.61399999999999,M,37.566,M,124.4,2006*55,37.23313349273334,137.02463777414997,679602.9287192906,4122655.6157232225
666,[2021-02-22 16:26:52.101] $GNGGA,72651.5,3713.988007159,N,13701.478265993,E,4,12.0,1.0,94.61200000000001,M,37.566,M,124.5,2006*5E,37.23313345265,137.02463776655,679602.9281401621,4122655.6112612984
667,[2021-02-22 16:26:52.179] $GNGGA,72651.6,3713.988007608,N,13701.478266295,E,4,12.0,1.0,94.61200000000001,M,37.566,M,124.6,2006*53,37.23313346013333,137.02463777158334,679602.9285689531,4122655.612101173
668,[2021-02-22 16:26:52.272] $GNGGA,72651.7,3713.988007717,N,13701.478265671001,E,4,12.0,1.0,94.61,M,37.566,M,124.7,2006*53,37.23313346195,137.02463776118339,679602.9276419715,4122655.612283008
669,[2021-02-22 16:26:52.382] $GNGGA,72651.8,3713.988008421,N,13701.478263197,E,4,12.0,1.0,94.611,M,37.566,M,124.8,2006*52,37.23313347368333,137.02463771994996,679602.9239559508,4122655.6135066496
670,[2021-02-22 16:26:52.476] $GNGGA,72651.9,3713.988007701,N,13701.478264376,E,4,12.0,1.0,94.61399999999999,M,37.566,M,124.9,2006*53,37.23313346168333,137.02463773960002,679602.9257277568,4122655.6122124624
671,[2021-02-22 16:26:52.600] $GNGGA,72652.0,3713.988007555,N,13701.478265206999,E,4,12.0,1.0,94.611,M,37.566,M,125.0,2006*51,37.23313345924999,137.02463775344998,679602.9269622823,4122655.611968751
672,[2021-02-22 16:26:52.679] $GNGGA,72652.1,3713.9880081829997,N,13701.478267755,E,4,12.0,1.0,94.61,M,37.566,M,125.1,2006*50,37.23313346971667,137.02463779591665,679602.9307050266,4122655.6132106823
673,[2021-02-22 16:26:52.772] $GNGGA,72652.2,3713.988009915,N,13701.478270423,E,4,12.0,1.0,94.61,M,37.566,M,125.2,2006*52,37.23313349858333,137.02463784038335,679602.9345815422,4122655.6164980046
674,[2021-02-22 16:26:52.882] $GNGGA,72652.3,3713.988011698,N,13701.478271071,E,4,12.0,1.0,94.61200000000001,M,37.566,M,125.3,2006*51,37.233133528299994,137.02463785118331,679602.9354691734,4122655.6198157524
675,[2021-02-22 16:26:52.976] $GNGGA,72652.4,3713.988012515,N,13701.478269443,E,4,12.0,1.0,94.61399999999999,M,37.566,M,125.4,2006*5E,37.233133541916665,137.02463782404996,679602.9330296213,4122655.621275118
676,[2021-02-22 16:26:53.100] $GNGGA,72652.5,3713.98801226,N,13701.478266106002,E,4,12.0,1.0,94.62,M,37.566,M,125.5,2006*57,37.23313353766666,137.02463776843337,679602.92810548,4122655.620698011
677,[2021-02-22 16:26:53.179] $GNGGA,72652.6,3713.9880122070003,N,13701.478263009,E,4,12.0,1.0,94.613,M,37.566,M,125.6,2006*5D,37.23313353678334,137.02463771681667,679602.9235282114,4122655.62050205
678,[2021-02-22 16:26:53.272] $GNGGA,72652.7,3713.988011396,N,13701.478261071,E,4,12.0,1.0,94.613,M,37.566,M,125.7,2006*5A,37.23313352326666,137.02463768451668,679602.92069468,4122655.6189409937
679,[2021-02-22 16:26:53.382] $GNGGA,72652.8,3713.988010345,N,13701.478263043,E,4,12.0,1.0,94.61,M,37.566,M,125.8,2006*55,37.23313350575,137.02463771738334,679602.9236521381,4122655.617059779
680,[2021-02-22 16:26:53.475] $GNGGA,72652.9,3713.9880078740002,N,13701.478266741002,E,4,12.0,1.0,94.60700000000001,M,37.566,M,125.9,2006*5C,37.23313346456666,137.02463777901673,679602.9292179116,4122655.6126071857
681,[2021-02-22 16:26:53.600] $GNGGA,72653.0,3713.988006796,N,13701.478269304,E,4,12.0,1.0,94.609,M,37.566,M,126.0,2006*58,37.2331334466,137.0246378217333,679602.9330503095,4122655.6106947316
682,[2021-02-22 16:26:53.679] $GNGGA,72653.1,3713.988006135,N,13701.47826789,E,4,12.0,1.0,94.61200000000001,M,37.566,M,126.1,2006*55,37.23313343558333,137.02463779816665,679602.9309856531,4122655.609427642
683,[2021-02-22 16:26:53.772] $GNGGA,72653.2,3713.988006626,N,13701.478267764,E,4,12.0,1.0,94.61399999999999,M,37.566,M,126.2,2006*52,37.23313344376666,137.02463779606666,679602.930779924,4122655.610331649
684,[2021-02-22 16:26:53.882] $GNGGA,72653.3,3713.988008291,N,13701.478266353999,E,4,12.0,1.0,94.61399999999999,M,37.566,M,126.3,2006*52,37.23313347151666,137.02463777256665,679602.9286291738,4122655.613366092
685,[2021-02-22 16:26:53.975] $GNGGA,72653.4,3713.9880108909997,N,13701.478264549,E,4,12.0,1.0,94.613,M,37.566,M,126.4,2006*5E,37.233133514849996,137.02463774248332,679602.9258573786,4122655.6181171127
686,[2021-02-22 16:26:54.100] $GNGGA,72653.5,3713.988010051,N,13701.478261236001,E,4,12.0,1.0,94.61399999999999,M,37.566,M,126.5,2006*57,37.233133500849995,137.0246376872667,679602.9209918614,4122655.6164589403
687,[2021-02-22 16:26:54.179] $GNGGA,72653.6,3713.988011534,N,13701.478257417,E,4,12.0,1.0,94.615,M,37.566,M,126.6,2006*51,37.233133525566664,137.02463762361666,679602.9152862543,4122655.619080625
688,[2021-02-22 16:26:54.272] $GNGGA,72653.7,3713.988012425,N,13701.478255056001,E,4,12.0,1.0,94.61200000000001,M,37.566,M,126.7,2006*57,37.23313354041667,137.02463758426666,679602.9117599315,4122655.6206536544
689,[2021-02-22 16:26:54.382] $GNGGA,72653.8,3713.9880099459997,N,13701.478250039,E,4,12.0,1.0,94.613,M,37.566,M,126.8,2006*58,37.23313349909999,137.02463750065,679602.9044396302,4122655.6159106307
690,[2021-02-22 16:26:54.475] $GNGGA,72653.9,3713.988011423,N,13701.478249102,E,4,12.0,1.0,94.615,M,37.566,M,126.9,2006*58,37.233133523716674,137.0246374850333,679602.9029957165,4122655.6186123723
691,[2021-02-22 16:26:54.600] $GNGGA,72654.0,3713.988013235,N,13701.478249426002,E,4,12.0,1.0,94.61399999999999,M,37.566,M,127.0,2006*5F,37.233133553916666,137.02463749043335,679602.903403127,4122655.6219735006
692,[2021-02-22 16:26:54.679] $GNGGA,72654.1,3713.988011441,N,13701.478247131,E,4,12.0,1.0,94.61200000000001,M,37.566,M,127.1,2006*53,37.233133524016665,137.02463745218336,679602.9000806023,4122655.6185833197
693,[2021-02-22 16:26:54.772] $GNGGA,72654.2,3713.9880083109997,N,13701.478245023998,E,4,12.0,1.0,94.61399999999999,M,37.566,M,127.2,2006*58,37.23313347185,137.02463741706663,679602.8970889015,4122655.6127284584
694,[2021-02-22 16:26:54.882] $GNGGA,72654.3,3713.9880057040004,N,13701.478245196999,E,4,12.0,1.0,94.609,M,37.566,M,127.3,2006*50,37.2331334284,137.02463741994995,679602.8974478261,4122655.607912876
695,[2021-02-22 16:26:54.991] $GNGGA,72654.4,3713.988004708,N,13701.478247183,E,4,12.0,1.0,94.609,M,37.566,M,127.4,2006*5A,37.2331334118,137.02463745305002,679602.900423818,4122655.606133814
696,[2021-02-22 16:26:55.069] $GNGGA,72654.5,3713.988004593,N,13701.478245418999,E,4,12.0,1.0,94.61200000000001,M,37.566,M,127.5,2006*54,37.23313340988333,137.02463742365,679602.8978200359,4122655.605865355
697,[2021-02-22 16:26:55.178] $GNGGA,72654.6,3713.988004532,N,13701.478244023001,E,4,12.0,1.0,94.61,M,37.566,M,127.6,2006*51,37.233133408866664,137.02463740038337,679602.8957582655,4122655.605708397
698,[2021-02-22 16:26:55.272] $GNGGA,72654.7,3713.988004193,N,13701.478240418,E,4,12.0,1.0,94.61,M,37.566,M,127.7,2006*56,37.23313340321666,137.02463734030002,679602.8904411611,4122655.6049674754
699,[2021-02-22 16:26:55.397] $GNGGA,72654.8,3713.98800275,N,13701.478237345,E,4,12.0,1.0,94.616,M,37.566,M,127.8,2006*50,37.23313337916667,137.02463728908333,679602.885954363,4122655.6022017845
700,[2021-02-22 16:26:55.475] $GNGGA,72654.9,3713.9880022690004,N,13701.478236923,E,4,12.0,1.0,94.615,M,37.566,M,127.9,2006*57,37.233133371150004,137.02463728205,679602.885349402,4122655.6012989366
701,[2021-02-22 16:26:55.569] $GNGGA,72655.0,3713.9880046159997,N,13701.478238121,E,4,12.0,1.0,94.609,M,37.566,M,128.0,2006*5A,37.23313341026666,137.02463730201669,679602.8870279825,4122655.6056770687
702,[2021-02-22 16:26:55.678] $GNGGA,72655.1,3713.988005206,N,13701.478237608999,E,4,12.0,1.0,94.615,M,37.566,M,128.1,2006*51,37.2331334201,137.0246372934833,679602.8862475752,4122655.6067519477
703,[2021-02-22 16:26:55.803] $GNGGA,72655.2,3713.988005715,N,13701.478235533,E,4,12.0,1.0,94.615,M,37.566,M,128.2,2006*5E,37.233133428583336,137.02463725888333,679602.8831577776,4122655.607627568
704,[2021-02-22 16:26:55.881] $GNGGA,72655.3,3713.988004988,N,13701.478233926999,E,4,12.0,1.0,94.61399999999999,M,37.566,M,128.3,2006*5B,37.233133416466664,137.02463723211667,679602.8808118327,4122655.606232352
705,[2021-02-22 16:26:55.975] $GNGGA,72655.4,3713.988004099,N,13701.478233666001,E,4,12.0,1.0,94.61200000000001,M,37.566,M,128.4,2006*5E,37.23313340165,137.02463722776668,679602.880461073,4122655.6045800936
706,[2021-02-22 16:26:56.085] $GNGGA,72655.5,3713.988003322,N,13701.478233121,E,4,12.0,1.0,94.615,M,37.566,M,128.5,2006*59,37.233133388700004,137.02463721868332,679602.8796859442,4122655.603125973
707,[2021-02-22 16:26:56.194] $GNGGA,72655.6,3713.98800279,N,13701.478234657,E,4,12.0,1.0,94.60799999999999,M,37.566,M,128.6,2006*58,37.23313337983333,137.02463724428333,679602.8819781856,4122655.60219074
708,[2021-02-22 16:26:56.272] $GNGGA,72655.7,3713.988002693,N,13701.478235768998,E,4,12.0,1.0,94.611,M,37.566,M,128.7,2006*5F,37.23313337821667,137.02463726281667,679602.8836262759,4122655.602046531
709,[2021-02-22 16:26:56.382] $GNGGA,72655.8,3713.988004017,N,13701.478236686002,E,4,12.0,1.0,94.61200000000001,M,37.566,M,128.8,2006*53,37.23313340028333,137.02463727810002,679602.8849298209,4122655.6045239693
710,[2021-02-22 16:26:56.475] $GNGGA,72655.9,3713.98800577,N,13701.478237042,E,4,12.0,1.0,94.60799999999999,M,37.566,M,128.9,2006*50,37.23313342950001,137.02463728403333,679602.8853868779,4122655.607777005
711,[2021-02-22 16:26:56.585] $GNGGA,72656.0,3713.988008643,N,13701.478238877,E,4,12.0,1.0,94.605,M,37.566,M,129.0,2006*52,37.233133477383326,137.02463731461665,679602.8879865464,4122655.6131479996
712,[2021-02-22 16:26:56.694] $GNGGA,72656.1,3713.988010575,N,13701.478238673999,E,4,12.0,1.0,94.60799999999999,M,37.566,M,129.1,2006*5D,37.233133509583325,137.02463731123333,679602.8876099616,4122655.6167143737
713,[2021-02-22 16:26:56.772] $GNGGA,72656.2,3713.988010117,N,13701.478237583999,E,4,12.0,1.0,94.609,M,37.566,M,129.2,2006*5F,37.23313350195,137.02463729306663,679602.8860163513,4122655.6158329337
714,[2021-02-22 16:26:56.881] $GNGGA,72656.3,3713.9880099190004,N,13701.478237486,E,4,12.0,1.0,94.609,M,37.566,M,129.3,2006*52,37.233133498650005,137.02463729143335,679602.885879281,4122655.6154636783
715,[2021-02-22 16:26:56.975] $GNGGA,72656.4,3713.988009817,N,13701.478238961,E,4,12.0,1.0,94.61399999999999,M,37.566,M,129.4,2006*5A,37.23313349695,137.0246373160167,679602.8880643193,4122655.6153217023
716,[2021-02-22 16:26:57.085] $GNGGA,72656.5,3713.9880108559996,N,13701.478238983998,E,4,12.0,1.0,94.616,M,37.566,M,129.5,2006*5E,37.233133514266655,137.02463731639997,679602.8880572221,4122655.617243822
717,[2021-02-22 16:26:57.194] $GNGGA,72656.6,3713.9880110229997,N,13701.47823853,E,4,12.0,1.0,94.615,M,37.566,M,129.6,2006*55,37.23313351704999,137.02463730883335,679602.8873793164,4122655.617538294
718,[2021-02-22 16:26:57.272] $GNGGA,72656.7,3713.9880105909997,N,13701.478238042,E,4,12.0,1.0,94.613,M,37.566,M,129.7,2006*5E,37.23313350984999,137.0246373007,679602.8866748231,4122655.616723973
719,[2021-02-22 16:26:57.381] $GNGGA,72656.8,3713.988010868,N,13701.478237178,E,4,12.0,1.0,94.617,M,37.566,M,129.8,2006*56,37.23313351446666,137.0246372863,679602.8853863177,4122655.6172088953
720,[2021-02-22 16:26:57.475] $GNGGA,72656.9,3713.988010483,N,13701.478238267,E,4,12.0,1.0,94.61200000000001,M,37.566,M,129.9,2006*58,37.233133508049995,137.02463730445,679602.8870117925,4122655.6165313674
721,[2021-02-22 16:26:57.585] $GNGGA,72657.0,3713.988009304,N,13701.478238293,E,4,12.0,1.0,94.617,M,37.566,M,130.0,2006*5F,37.2331334884,137.02463730488336,679602.887096874,4122655.614351898
722,[2021-02-22 16:26:57.694] $GNGGA,72657.1,3713.9880083020003,N,13701.47823842,E,4,12.0,1.0,94.615,M,37.566,M,130.1,2006*54,37.23313347170001,137.024637307,679602.8873242945,4122655.6125029447
723,[2021-02-22 16:26:57.772] $GNGGA,72657.2,3713.988007927,N,13701.478238773001,E,4,12.0,1.0,94.618,M,37.566,M,130.2,2006*5E,37.23313346545,137.02463731288336,679602.8878610919,4122655.611820632
724,[2021-02-22 16:26:57.881] $GNGGA,72657.3,3713.988010079,N,13701.47824018,E,4,12.0,1.0,94.619,M,37.566,M,130.3,2006*5E,37.23313350131667,137.02463733633334,679602.8898564188,4122655.6158447666
725,[2021-02-22 16:26:57.975] $GNGGA,72657.4,3713.988008872,N,13701.478240227,E,4,12.0,1.0,94.615,M,37.566,M,130.4,2006*56,37.2331334812,137.02463733711664,679602.8899736562,4122655.6136141806
726,[2021-02-22 16:26:58.085] $GNGGA,72657.5,3713.988009158,N,13701.478240621002,E,4,12.0,1.0,94.615,M,37.566,M,130.5,2006*54,37.23313348596666,137.02463734368334,679602.8905449321,4122655.614155534
727,[2021-02-22 16:26:58.194] $GNGGA,72657.6,3713.988009323,N,13701.478241077,E,4,12.0,1.0,94.617,M,37.566,M,130.6,2006*5C,37.23313348871666,137.02463735128336,679602.8912126694,4122655.614475086
728,[2021-02-22 16:26:58.272] $GNGGA,72657.7,3713.988010032,N,13701.478240342,E,4,12.0,1.0,94.617,M,37.566,M,130.7,2006*53,37.233133500533334,137.02463733903332,679602.890097817,4122655.615762973
729,[2021-02-22 16:26:58.381] $GNGGA,72657.8,3713.9880102109996,N,13701.478239548998,E,4,12.0,1.0,94.616,M,37.566,M,130.8,2006*52,37.23313350351666,137.02463732581666,679602.8889181706,4122655.616068913
730,[2021-02-22 16:26:58.475] $GNGGA,72657.9,3713.988010047,N,13701.478240188999,E,4,12.0,1.0,94.618,M,37.566,M,130.9,2006*5B,37.23313350078334,137.02463733648332,679602.8898709919,4122655.6157858744
731,[2021-02-22 16:26:58.584] $GNGGA,72658.0,3713.988008965,N,13701.47824101,E,4,12.0,1.0,94.61399999999999,M,37.566,M,131.0,2006*59,37.23313348275,137.02463735016667,679602.8911277576,4122655.6138109276
732,[2021-02-22 16:26:58.694] $GNGGA,72658.1,3713.988007685,N,13701.47824049,E,4,12.0,1.0,94.615,M,37.566,M,131.1,2006*5B,37.233133461416664,137.02463734149998,679602.8904094923,4122655.611427413
733,[2021-02-22 16:26:58.772] $GNGGA,72658.2,3713.9880090320003,N,13701.478240706001,E,4,12.0,1.0,94.619,M,37.566,M,131.2,2006*5F,37.23313348386667,137.02463734510002,679602.8906756011,4122655.613925216
734,[2021-02-22 16:26:58.881] $GNGGA,72658.3,3713.9880107020003,N,13701.478241283,E,4,12.0,1.0,94.617,M,37.566,M,131.3,2006*54,37.23313351170001,137.0246373547167,679602.891462722,4122655.61703175
735,[2021-02-22 16:26:58.975] $GNGGA,72658.4,3713.988012565,N,13701.478241928,E,4,12.0,1.0,94.613,M,37.566,M,131.4,2006*5B,37.233133542750004,137.02463736546667,679602.892342753,4122655.620497342
736,[2021-02-22 16:26:59.100] $GNGGA,72658.5,3713.988015402,N,13701.478241486999,E,4,12.0,1.0,94.615,M,37.566,M,131.5,2006*52,37.23313359003334,137.02463735811665,679602.8915784515,4122655.6257297816
737,[2021-02-22 16:26:59.178] $GNGGA,72658.6,3713.988017397,N,13701.478241351,E,4,12.0,1.0,94.615,M,37.566,M,131.6,2006*57,37.23313362328333,137.02463735585002,679602.891298445,4122655.629414778
738,[2021-02-22 16:26:59.272] $GNGGA,72658.7,3713.988016731,N,13701.478239134,E,4,12.0,1.0,94.613,M,37.566,M,131.7,2006*56,37.23313361218333,137.02463731889998,679602.8880466323,4122655.628113044
739,[2021-02-22 16:26:59.381] $GNGGA,72658.8,3713.988016282,N,13701.478238216001,E,4,12.0,1.0,94.613,M,37.566,M,131.8,2006*59,37.2331336047,137.0246373036,679602.886707,4122655.627253687
740,[2021-02-22 16:26:59.491] $GNGGA,72658.9,3713.988015982,N,13701.478239541999,E,4,12.0,1.0,94.618,M,37.566,M,131.9,2006*5D,37.233133599700004,137.02463732569998,679602.8886795461,4122655.626740843
741,[2021-02-22 16:26:59.569] $GNGGA,72659.0,3713.988015917,N,13701.478240915,E,4,12.0,1.0,94.61200000000001,M,37.566,M,132.0,2006*59,37.233133598616675,137.02463734858333,679602.8907122973,4122655.626664066
742,[2021-02-22 16:26:59.678] $GNGGA,72659.1,3713.988016027,N,13701.478241617,E,4,12.0,1.0,94.618,M,37.566,M,132.1,2006*56,37.233133600449996,137.02463736028332,679602.8917459535,4122655.626889686
743,[2021-02-22 16:26:59.772] $GNGGA,72659.2,3713.9880171090003,N,13701.478240151,E,4,12.0,1.0,94.617,M,37.566,M,132.2,2006*51,37.23313361848334,137.02463733584997,679602.8895354604,4122655.628844235
744,[2021-02-22 16:26:59.897] $GNGGA,72659.3,3713.988017824,N,13701.478239568001,E,4,12.0,1.0,94.613,M,37.566,M,132.3,2006*53,37.2331336304,137.02463732613336,679602.888645133,4122655.6301480243
745,[2021-02-22 16:26:59.975] $GNGGA,72659.4,3713.9880165520003,N,13701.478236673,E,4,12.0,1.0,94.611,M,37.566,M,132.4,2006*5A,37.23313360920001,137.02463727788333,679602.8844147697,4122655.6277041896
746,[2021-02-22 16:27:00.084] $GNGGA,72659.5,3713.988012195,N,13701.478234314,E,4,12.0,1.0,94.611,M,37.566,M,132.5,2006*57,37.23313353658333,137.02463723856664,679602.8810989909,4122655.6195722986
747,[2021-02-22 16:27:00.178] $GNGGA,72659.6,3713.98800659,N,13701.478233361999,E,4,12.0,1.0,94.611,M,37.566,M,132.6,2006*55,37.23313344316667,137.0246372227,679602.8799130297,4122655.609177018
748,[2021-02-22 16:27:00.303] $GNGGA,72659.7,3713.9880044879997,N,13701.478234985,E,4,12.0,1.0,94.61,M,37.566,M,132.7,2006*5A,37.23313340813333,137.02463724974996,679602.882396013,4122655.6053411774
749,[2021-02-22 16:27:00.381] $GNGGA,72659.8,3713.9880069170003,N,13701.478237386002,E,4,12.0,1.0,94.611,M,37.566,M,132.8,2006*58,37.23313344861668,137.0246372897667,679602.8858501646,4122655.6099089994
750,[2021-02-22 16:27:00.475] $GNGGA,72659.9,3713.988007311,N,13701.478235411001,E,4,12.0,1.0,94.61200000000001,M,37.566,M,132.9,2006*5D,37.233133455183335,137.02463725685004,679602.8829142564,4122655.610575147
751,[2021-02-22 16:27:00.584] $GNGGA,72700.0,3713.988006768,N,13701.478232772,E,4,12.0,1.0,94.615,M,37.566,M,133.0,2006*5C,37.23313344613334,137.02463721286668,679602.879033591,4122655.609487527
752,[2021-02-22 16:27:00.678] $GNGGA,72700.1,3713.9880066090004,N,13701.478230547,E,4,12.0,1.0,94.61399999999999,M,37.566,M,133.1,2006*5D,37.23313344348333,137.0246371757833,679602.8757498948,4122655.609123121
753,[2021-02-22 16:27:00.803] $GNGGA,72700.2,3713.988008665,N,13701.478232303001,E,4,12.0,1.0,94.618,M,37.566,M,133.2,2006*51,37.23313347775,137.02463720505,679602.8782650687,4122655.6129807634
754,[2021-02-22 16:27:00.881] $GNGGA,72700.3,3713.9880102720003,N,13701.478234134,E,4,12.0,1.0,94.616,M,37.566,M,133.3,2006*54,37.23313350453334,137.02463723556667,679602.8809089023,4122655.616010456
755,[2021-02-22 16:27:00.975] $GNGGA,72700.4,3713.988010814,N,13701.478232831001,E,4,12.0,1.0,94.613,M,37.566,M,133.4,2006*51,37.23313351356666,137.02463721385004,679602.8789607936,4122655.61697155
756,[2021-02-22 16:27:01.084] $GNGGA,72700.5,3713.98801256,N,13701.478233681999,E,4,12.0,1.0,94.615,M,37.566,M,133.5,2006*5C,37.23313354266667,137.02463722803333,679602.8801500499,4122655.620227295
757,[2021-02-22 16:27:01.178] $GNGGA,72700.6,3713.9880152090004,N,13701.47823506,E,4,12.0,1.0,94.615,M,37.566,M,133.6,2006*5F,37.23313358681667,137.024637251,679602.8820828407,4122655.625169601
758,[2021-02-22 16:27:01.303] $GNGGA,72700.7,3713.9880154690004,N,13701.478233821,E,4,12.0,1.0,94.615,M,37.566,M,133.7,2006*54,37.23313359115001,137.02463723035,679602.8802405167,4122655.6256112247
759,[2021-02-22 16:27:01.381] $GNGGA,72700.8,3713.988014132,N,13701.478233333999,E,4,12.0,1.0,94.611,M,37.566,M,133.8,2006*55,37.23313356886666,137.0246372222333,679602.8795732998,4122655.6231233426
760,[2021-02-22 16:27:01.475] $GNGGA,72700.9,3713.988015328,N,13701.478234492,E,4,12.0,1.0,94.617,M,37.566,M,133.9,2006*57,37.23313358880001,137.02463724153336,679602.881238265,4122655.6253716997
761,[2021-02-22 16:27:01.584] $GNGGA,72701.0,3713.988017053,N,13701.478235944,E,4,12.0,1.0,94.61200000000001,M,37.566,M,134.0,2006*5E,37.233133617549996,137.02463726573333,679602.883317021,4122655.6286076168
762,[2021-02-22 16:27:01.678] $GNGGA,72701.1,3713.9880190970002,N,13701.478234699,E,4,12.0,1.0,94.611,M,37.566,M,134.1,2006*55,37.233133651616676,137.02463724498332,679602.8813952586,4122655.6323481537
763,[2021-02-22 16:27:01.803] $GNGGA,72701.2,3713.9880207109995,N,13701.478234668999,E,4,12.0,1.0,94.619,M,37.566,M,134.2,2006*51,37.23313367851666,137.02463724448333,679602.8812870563,4122655.635331929
764,[2021-02-22 16:27:01.881] $GNGGA,72701.3,3713.988022552,N,13701.478235911001,E,4,12.0,1.0,94.61399999999999,M,37.566,M,134.3,2006*5A,37.233133709200004,137.02463726518334,679602.8830507121,4122655.638775724
765,[2021-02-22 16:27:01.975] $GNGGA,72701.4,3713.9880223890004,N,13701.47823576,E,4,12.0,1.0,94.619,M,37.566,M,134.4,2006*5F,37.233133706483336,137.02463726266663,679602.8828338806,4122655.6384695154
766,[2021-02-22 16:27:02.084] $GNGGA,72701.5,3713.98802081,N,13701.478235743001,E,4,12.0,1.0,94.619,M,37.566,M,134.5,2006*57,37.23313368016666,137.02463726238338,679602.8828712093,4122655.635548976
767,[2021-02-22 16:27:02.178] $GNGGA,72701.6,3713.988019145,N,13701.478234693,E,4,12.0,1.0,94.615,M,37.566,M,134.6,2006*55,37.233133652416676,137.02463724488337,679602.8813844906,4122655.6324367304
768,[2021-02-22 16:27:02.303] $GNGGA,72701.7,3713.9880171809996,N,13701.478233726999,E,4,12.0,1.0,94.62,M,37.566,M,134.7,2006*5C,37.23313361968333,137.02463722878332,679602.8800338033,4122655.628774205
769,[2021-02-22 16:27:02.381] $GNGGA,72701.8,3713.9880178209996,N,13701.478232945,E,4,12.0,1.0,94.618,M,37.566,M,134.8,2006*5F,37.23313363035,137.02463721575003,679602.8788521931,4122655.6299330075
770,[2021-02-22 16:27:02.475] $GNGGA,72701.9,3713.988018214,N,13701.478233953001,E,4,12.0,1.0,94.62200000000001,M,37.566,M,134.9,2006*53,37.23313363689999,137.02463723255,679602.8803271162,4122655.630691651
771,[2021-02-22 16:27:02.584] $GNGGA,72702.0,3713.9880173240003,N,13701.478233229,E,4,12.0,1.0,94.619,M,37.566,M,135.0,2006*52,37.23313362206667,137.02463722048333,679602.879291782,4122655.6290229
772,[2021-02-22 16:27:02.678] $GNGGA,72702.1,3713.988017387,N,13701.478233106001,E,4,12.0,1.0,94.62,M,37.566,M,135.1,2006*5F,37.23313362311667,137.02463721843336,679602.8791074206,4122655.629135516
773,[2021-02-22 16:27:02.803] $GNGGA,72702.2,3713.9880200459997,N,13701.4782349,E,4,12.0,1.0,94.618,M,37.566,M,135.2,2006*57,37.23313366743333,137.02463724833333,679602.8816549294,4122655.634109469
774,[2021-02-22 16:27:02.881] $GNGGA,72702.3,3713.988019289,N,13701.478232583,E,4,12.0,1.0,94.617,M,37.566,M,135.3,2006*52,37.23313365481666,137.02463720971667,679602.8782588544,4122655.6326362886
775,[2021-02-22 16:27:02.975] $GNGGA,72702.4,3713.9880174090003,N,13701.478232648,E,4,12.0,1.0,94.616,M,37.566,M,135.4,2006*57,37.23313362348334,137.0246372108,679602.8784293293,4122655.629161714
776,[2021-02-22 16:27:03.084] $GNGGA,72702.5,3713.988015792,N,13701.478231988998,E,4,12.0,1.0,94.618,M,37.566,M,135.5,2006*5B,37.23313359653334,137.02463719981662,679602.8775188605,4122655.626150598
777,[2021-02-22 16:27:03.178] $GNGGA,72702.6,3713.9880154370003,N,13701.478232538999,E,4,12.0,1.0,94.618,M,37.566,M,135.6,2006*53,37.233133590616674,137.02463720898334,679602.8783461612,4122655.6255115
778,[2021-02-22 16:27:03.303] $GNGGA,72702.7,3713.9880171090003,N,13701.478232619,E,4,12.0,1.0,94.62200000000001,M,37.566,M,135.7,2006*51,37.23313361848334,137.02463721031666,679602.8783983144,4122655.628606016
779,[2021-02-22 16:27:03.381] $GNGGA,72702.8,3713.988018495,N,13701.478231876,E,4,12.0,1.0,94.62299999999999,M,37.566,M,135.8,2006*5B,37.23313364158332,137.02463719793334,679602.8772448588,4122655.6311456054
780,[2021-02-22 16:27:03.475] $GNGGA,72702.9,3713.9880159609997,N,13701.478229859,E,4,12.0,1.0,94.62,M,37.566,M,135.9,2006*57,37.23313359934999,137.0246371643167,679602.8743626679,4122655.626395755
781,[2021-02-22 16:27:03.584] $GNGGA,72703.0,3713.988014092,N,13701.478229765,E,4,12.0,1.0,94.619,M,37.566,M,136.0,2006*5B,37.233133568199996,137.02463716274997,679602.8742976001,4122655.622936493
782,[2021-02-22 16:27:03.693] $GNGGA,72703.1,3713.988014459,N,13701.478228494,E,4,12.0,1.0,94.62100000000001,M,37.566,M,136.1,2006*5F,37.23313357431667,137.02463714156667,679602.872403731,4122655.6235749777
783,[2021-02-22 16:27:03.772] $GNGGA,72703.2,3713.988016332,N,13701.478230727,E,4,12.0,1.0,94.62200000000001,M,37.566,M,136.2,2006*56,37.23313360553333,137.02463717878334,679602.8756314557,4122655.6271092896
784,[2021-02-22 16:27:03.881] $GNGGA,72703.3,3713.988018907,N,13701.478233088,E,4,12.0,1.0,94.619,M,37.566,M,136.3,2006*5D,37.23313364845,137.02463721813334,679602.8790206795,4122655.6319458387
785,[2021-02-22 16:27:03.975] $GNGGA,72703.4,3713.988018213,N,13701.478232643998,E,4,12.0,1.0,94.62,M,37.566,M,136.4,2006*5E,37.23313363688333,137.02463721073332,679602.8783916102,4122655.630648401
786,[2021-02-22 16:27:04.100] $GNGGA,72703.5,3713.988017402,N,13701.478231979,E,4,12.0,1.0,94.62200000000001,M,37.566,M,136.5,2006*57,37.23313362336667,137.02463719965,679602.8774403927,4122655.62912761
787,[2021-02-22 16:27:04.178] $GNGGA,72703.6,3713.9880155809997,N,13701.478233218999,E,4,12.0,1.0,94.62,M,37.566,M,136.6,2006*52,37.23313359301666,137.02463722031663,679602.8793459389,4122655.6257993015
788,[2021-02-22 16:27:04.272] $GNGGA,72703.7,3713.988016747,N,13701.478232452,E,4,12.0,1.0,94.615,M,37.566,M,136.7,2006*57,37.233133612450004,137.02463720753335,679602.8781657015,4122655.6279312964
789,[2021-02-22 16:27:04.381] $GNGGA,72703.8,3713.9880160879998,N,13701.478231638,E,4,12.0,1.0,94.62,M,37.566,M,136.8,2006*58,37.23313360146666,137.02463719396667,679602.8769881519,4122655.62668688
790,[2021-02-22 16:27:04.490] $GNGGA,72703.9,3713.98801478,N,13701.478231481002,E,4,12.0,1.0,94.619,M,37.566,M,136.9,2006*5F,37.233133579666664,137.02463719135002,679602.8768077444,4122655.6242630663
791,[2021-02-22 16:27:04.568] $GNGGA,72704.0,3713.988008801,N,13701.478230822,E,4,12.0,1.0,94.619,M,37.566,M,137.0,2006*56,37.23313348001667,137.02463718036665,679602.8760698163,4122655.6131854234
792,[2021-02-22 16:27:04.678] $GNGGA,72704.1,3713.988004887,N,13701.478229553,E,4,12.0,1.0,94.62100000000001,M,37.566,M,137.1,2006*5C,37.23313341478333,137.0246371592167,679602.8743482411,4122655.6059072353
793,[2021-02-22 16:27:04.772] $GNGGA,72704.2,3713.988006527,N,13701.478232855,E,4,12.0,1.0,94.62200000000001,M,37.566,M,137.2,2006*5B,37.23313344211667,137.02463721425002,679602.8791658517,4122655.609044478
794,[2021-02-22 16:27:04.896] $GNGGA,72704.3,3713.988008593,N,13701.478233677,E,4,12.0,1.0,94.625,M,37.566,M,137.3,2006*52,37.23313347655,137.02463722795,679602.8802995733,4122655.612891073
795,[2021-02-22 16:27:04.975] $GNGGA,72704.4,3713.988009007,N,13701.478232828998,E,4,12.0,1.0,94.626,M,37.566,M,137.4,2006*5C,37.233133483450004,137.02463721381665,679602.8790293064,4122655.613629851
796,[2021-02-22 16:27:05.084] $GNGGA,72704.5,3713.988011436,N,13701.478234516999,E,4,12.0,1.0,94.62299999999999,M,37.566,M,137.5,2006*50,37.233133523933326,137.02463724194996,679602.8814291772,4122655.61817512
797,[2021-02-22 16:27:05.178] $GNGGA,72704.6,3713.988014629,N,13701.478234557,E,4,12.0,1.0,94.624,M,37.566,M,137.6,2006*5A,37.23313357715001,137.02463724261668,679602.881362025,4122655.6240811134
798,[2021-02-22 16:27:05.272] $GNGGA,72704.7,3713.9880166440003,N,13701.478236689,E,4,12.0,1.0,94.62799999999999,M,37.566,M,137.7,2006*5D,37.23313361073333,137.02463727814998,679602.8844347881,4122655.6278748275
799,[2021-02-22 16:27:05.397] $GNGGA,72704.8,3713.988013142,N,13701.478238487,E,4,12.0,1.0,94.62799999999999,M,37.566,M,137.8,2006*5B,37.23313355236667,137.02463730811664,679602.8872319121,4122655.6214555423
800,[2021-02-22 16:27:05.475] $GNGGA,72704.9,3713.98801192,N,13701.478239502,E,4,12.0,1.0,94.625,M,37.566,M,137.9,2006*55,37.233133532000004,137.02463732503335,679602.8887810786,4122655.6192278336
801,[2021-02-22 16:27:05.584] $GNGGA,72705.0,3713.9880109490005,N,13701.478239046,E,4,12.0,1.0,94.62299999999999,M,37.566,M,138.0,2006*56,37.23313351581668,137.02463731743333,679602.888145223,4122655.6174177686
802,[2021-02-22 16:27:05.678] $GNGGA,72705.1,3713.988009949,N,13701.478238589,E,4,12.0,1.0,94.62299999999999,M,37.566,M,138.1,2006*59,37.23313349915,137.02463730981665,679602.887509036,4122655.615554042
803,[2021-02-22 16:27:05.771] $GNGGA,72705.2,3713.988009363,N,13701.478236767,E,4,12.0,1.0,94.619,M,37.566,M,138.2,2006*5E,37.23313348938333,137.02463727945,679602.8848381261,4122655.614412741
804,[2021-02-22 16:27:05.896] $GNGGA,72705.3,3713.988009483,N,13701.478237048,E,4,12.0,1.0,94.62200000000001,M,37.566,M,138.3,2006*54,37.23313349138333,137.02463728413338,679602.8852488825,4122655.6146435416
805,[2021-02-22 16:27:05.975] $GNGGA,72705.4,3713.988011492,N,13701.478236131,E,4,12.0,1.0,94.62299999999999,M,37.566,M,138.4,2006*52,37.23313352486667,137.02463726885003,679602.8838134994,4122655.618329728
806,[2021-02-22 16:27:06.084] $GNGGA,72705.5,3713.9880104759995,N,13701.478236183,E,4,12.0,1.0,94.624,M,37.566,M,138.5,2006*57,37.233133507933324,137.0246372697167,679602.8839305768,4122655.616452511
807,[2021-02-22 16:27:06.178] $GNGGA,72705.6,3713.9880109909996,N,13701.478237473999,E,4,12.0,1.0,94.62200000000001,M,37.566,M,138.6,2006*59,37.23313351651666,137.0246372912333,679602.8858191278,4122655.617445718
808,[2021-02-22 16:27:06.271] $GNGGA,72705.7,3713.98801102,N,13701.478239538,E,4,12.0,1.0,94.62200000000001,M,37.566,M,138.7,2006*5C,37.233133517000006,137.02463732563334,679602.8888699079,4122655.617564628
809,[2021-02-22 16:27:06.396] $GNGGA,72705.8,3713.988011763,N,13701.478242067,E,4,12.0,1.0,94.62,M,37.566,M,138.8,2006*5D,37.23313352938333,137.02463736778333,679602.8925800079,4122655.6190186217
810,[2021-02-22 16:27:06.475] $GNGGA,72705.9,3713.9880112409996,N,13701.478242605,E,4,12.0,1.0,94.62,M,37.566,M,138.9,2006*5A,37.23313352068333,137.02463737675,679602.8933961667,4122655.618070317
811,[2021-02-22 16:27:06.568] $GNGGA,72706.0,3713.988011032,N,13701.478243526,E,4,12.0,1.0,94.62100000000001,M,37.566,M,139.0,2006*5C,37.2331335172,137.0246373921,679602.8947662667,4122655.6177129503
812,[2021-02-22 16:27:06.678] $GNGGA,72706.1,3713.9880116140002,N,13701.478243869,E,4,12.0,1.0,94.624,M,37.566,M,139.1,2006*5D,37.23313352690001,137.02463739781666,679602.8952504192,4122655.6188000753
813,[2021-02-22 16:27:06.771] $GNGGA,72706.2,3713.988011468,N,13701.478244798,E,4,12.0,1.0,94.62100000000001,M,37.566,M,139.2,2006*57,37.23313352446666,137.02463741329998,679602.8966298538,4122655.618559462
814,[2021-02-22 16:27:06.896] $GNGGA,72706.3,3713.9880116629997,N,13701.478243398999,E,4,12.0,1.0,94.62200000000001,M,37.566,M,139.3,2006*5F,37.23313352771666,137.0246373899833,679602.8945535144,4122655.618875823
815,[2021-02-22 16:27:06.975] $GNGGA,72706.4,3713.988011136,N,13701.478241003,E,4,12.0,1.0,94.626,M,37.566,M,139.4,2006*5E,37.233133518933336,137.02463735005,679602.8910315327,4122655.6178254774
816,[2021-02-22 16:27:07.068] $GNGGA,72706.5,3713.988009829,N,13701.478240588998,E,4,12.0,1.0,94.625,M,37.566,M,139.5,2006*55,37.23313349715,137.02463734314995,679602.8904710687,4122655.6153953834
817,[2021-02-22 16:27:07.178] $GNGGA,72706.6,3713.9880107890003,N,13701.478239879,E,4,12.0,1.0,94.624,M,37.566,M,139.6,2006*55,37.23313351315,137.02463733131668,679602.8893832641,4122655.6171482303
818,[2021-02-22 16:27:07.271] $GNGGA,72706.7,3713.98801133,N,13701.478240953998,E,4,12.0,1.0,94.62200000000001,M,37.566,M,139.7,2006*54,37.23313352216667,137.0246373492333,679602.8909514033,4122655.6181826866
819,[2021-02-22 16:27:07.396] $GNGGA,72706.8,3713.988012365,N,13701.4782432,E,4,12.0,1.0,94.62200000000001,M,37.566,M,139.8,2006*5E,37.23313353941667,137.02463738666668,679602.8942315017,4122655.6201677197
820,[2021-02-22 16:27:07.474] $GNGGA,72706.9,3713.9880131940004,N,13701.478245606999,E,4,12.0,1.0,94.62299999999999,M,37.566,M,139.9,2006*57,37.23313355323334,137.0246374267833,679602.8977578023,4122655.621776895
821,[2021-02-22 16:27:07.584] $GNGGA,72707.0,3713.9880156090003,N,13701.478246456001,E,4,12.0,1.0,94.62100000000001,M,37.566,M,140.0,2006*5A,37.23313359348334,137.02463744093333,679602.8989176478,4122655.6262697396
822,[2021-02-22 16:27:07.678] $GNGGA,72707.1,3713.988016487,N,13701.478246706001,E,4,12.0,1.0,94.618,M,37.566,M,140.1,2006*51,37.23313360811667,137.0246374451,679602.8992525804,4122655.627901308
823,[2021-02-22 16:27:07.803] $GNGGA,72707.2,3713.988016242,N,13701.478247613999,E,4,12.0,1.0,94.617,M,37.566,M,140.2,2006*52,37.233133604033334,137.02463746023332,679602.9006048781,4122655.627476953
824,[2021-02-22 16:27:07.881] $GNGGA,72707.3,3713.988015006,N,13701.478247901001,E,4,12.0,1.0,94.62200000000001,M,37.566,M,140.3,2006*5E,37.233133583433336,137.0246374650167,679602.9010781433,4122655.6252003303
825,[2021-02-22 16:27:07.974] $GNGGA,72707.4,3713.9880141090002,N,13701.478247725,E,4,12.0,1.0,94.618,M,37.566,M,140.4,2006*50,37.23313356848334,137.0246374620833,679602.900853376,4122655.6235359665
826,[2021-02-22 16:27:08.084] $GNGGA,72707.5,3713.9880133829997,N,13701.478247303,E,4,12.0,1.0,94.624,M,37.566,M,140.5,2006*58,37.23313355638333,137.02463745505003,679602.9002581128,4122655.622180047
827,[2021-02-22 16:27:08.193] $GNGGA,72707.6,3713.988014016,N,13701.478248613,E,4,12.0,1.0,94.624,M,37.566,M,140.6,2006*5B,37.233133566933326,137.02463747688333,679602.902170094,4122655.623392069
828,[2021-02-22 16:27:08.271] $GNGGA,72707.7,3713.988013637,N,13701.478252778,E,4,12.0,1.0,94.624,M,37.566,M,140.7,2006*5E,37.23313356061667,137.0246375463,679602.9083436392,4122655.6228229245
829,[2021-02-22 16:27:08.381] $GNGGA,72707.8,3713.9880131620002,N,13701.47825649,E,4,12.0,1.0,94.62200000000001,M,37.566,M,140.8,2006*5E,37.233133552700004,137.02463760816667,679602.9138511558,4122655.6220619227
830,[2021-02-22 16:27:08.474] $GNGGA,72707.9,3713.9880131679997,N,13701.478264858999,E,4,12.0,1.0,94.62299999999999,M,37.566,M,140.9,2006*5D,37.23313355279999,137.02463774765,679602.926225691,4122655.622337711
831,[2021-02-22 16:27:08.599] $GNGGA,72708.0,3713.9880115,N,13701.47827248,E,4,12.0,1.0,94.62200000000001,M,37.566,M,141.0,2006*55,37.23313352500001,137.02463787466667,679602.9375604172,4122655.6194941616
832,[2021-02-22 16:27:08.678] $GNGGA,72708.1,3713.988007719,N,13701.478275768999,E,4,12.0,1.0,94.618,M,37.566,M,141.1,2006*52,37.233133461983336,137.02463792948333,679602.942573236,4122655.612606086
833,[2021-02-22 16:27:08.771] $GNGGA,72708.2,3713.988006642,N,13701.478275813999,E,4,12.0,1.0,94.618,M,37.566,M,141.2,2006*59,37.23313344403333,137.02463793023333,679602.9426823762,4122655.610615841
834,[2021-02-22 16:27:08.881] $GNGGA,72708.3,3713.988008333,N,13701.478273646,E,4,12.0,1.0,94.61200000000001,M,37.566,M,141.3,2006*51,37.233133472216664,137.0246378941,679602.9394097892,4122655.6136743915
835,[2021-02-22 16:27:08.990] $GNGGA,72708.4,3713.98800923,N,13701.478272669,E,4,12.0,1.0,94.611,M,37.566,M,141.4,2006*5D,37.23313348716666,137.02463787781664,679602.9379296692,4122655.615302289
836,[2021-02-22 16:27:09.068] $GNGGA,72708.5,3713.988010095,N,13701.478273388999,E,4,12.0,1.0,94.611,M,37.566,M,141.5,2006*52,37.23313350158334,137.02463788981666,679602.93896008,4122655.6169246826
837,[2021-02-22 16:27:09.178] $GNGGA,72708.6,3713.988011665,N,13701.478272535,E,4,12.0,1.0,94.613,M,37.566,M,141.6,2006*58,37.233133527750006,137.02463787558332,679602.9376352155,4122655.6198010305
838,[2021-02-22 16:27:09.271] $GNGGA,72708.7,3713.988012479,N,13701.478272112,E,4,12.0,1.0,94.617,M,37.566,M,141.7,2006*51,37.233133541316676,137.02463786853332,679602.9369775493,4122655.6212929594
839,[2021-02-22 16:27:09.381] $GNGGA,72708.8,3713.9880148479997,N,13701.478271813,E,4,12.0,1.0,94.616,M,37.566,M,141.8,2006*53,37.23313358079999,137.02463786355003,679602.9364417315,4122655.6256644274
840,[2021-02-22 16:27:09.490] $GNGGA,72708.9,3713.9880164779997,N,13701.478272112,E,4,12.0,1.0,94.619,M,37.566,M,141.9,2006*5A,37.23313360796666,137.02463786853332,679602.9368193672,4122655.628688198
841,[2021-02-22 16:27:09.568] $GNGGA,72709.0,3713.988017852,N,13701.478273331,E,4,12.0,1.0,94.618,M,37.566,M,142.0,2006*5E,37.23313363086667,137.02463788885,679602.9385674879,4122655.6312676547
842,[2021-02-22 16:27:09.677] $GNGGA,72709.1,3713.9880193040003,N,13701.478273899,E,4,12.0,1.0,94.619,M,37.566,M,142.1,2006*50,37.233133655066666,137.02463789831666,679602.9393499221,4122655.633970762
843,[2021-02-22 16:27:09.771] $GNGGA,72709.2,3713.9880204409997,N,13701.478275016001,E,4,12.0,1.0,94.62200000000001,M,37.566,M,142.2,2006*5D,37.23313367401666,137.02463791693336,679602.9409565963,4122655.6361087128
844,[2021-02-22 16:27:09.881] $GNGGA,72709.3,3713.9880207,N,13701.478275324,E,4,12.0,1.0,94.625,M,37.566,M,142.3,2006*5E,37.23313367833334,137.02463792206663,679602.9414017675,4122655.636597416
845,[2021-02-22 16:27:09.990] $GNGGA,72709.4,3713.9880197109997,N,13701.478275643998,E,4,12.0,1.0,94.618,M,37.566,M,142.4,2006*59,37.23313366184999,137.02463792739997,679602.941914054,4122655.634778605
846,[2021-02-22 16:27:10.068] $GNGGA,72709.5,3713.988019064,N,13701.478275567,E,4,12.0,1.0,94.62,M,37.566,M,142.5,2006*55,37.233133651066666,137.0246379261167,679602.9418257969,4122655.633579692
847,[2021-02-22 16:27:10.177] $GNGGA,72709.6,3713.9880189190003,N,13701.478273264,E,4,12.0,1.0,94.62100000000001,M,37.566,M,142.6,2006*54,37.23313364865,137.02463788773332,679602.938426212,4122655.6332387086
848,[2021-02-22 16:27:10.271] $GNGGA,72709.7,3713.9880190559998,N,13701.478269571999,E,4,12.0,1.0,94.616,M,37.566,M,142.7,2006*58,37.23313365093333,137.02463782619998,679602.9329616369,4122655.6333752894
849,[2021-02-22 16:27:10.381] $GNGGA,72709.8,3713.988018092,N,13701.478267228998,E,4,12.0,1.0,94.62200000000001,M,37.566,M,142.8,2006*51,37.23313363486667,137.02463778714997,679602.9295353042,4122655.631518487
850,[2021-02-22 16:27:10.490] $GNGGA,72709.9,3713.988016695,N,13701.478265527,E,4,12.0,1.0,94.617,M,37.566,M,142.9,2006*53,37.233133611583334,137.0246377587833,679602.9270739118,4122655.628881222
851,[2021-02-22 16:27:10.568] $GNGGA,72710.0,3713.988016315,N,13701.478262906001,E,4,12.0,1.0,94.619,M,37.566,M,143.0,2006*51,37.23313360525,137.02463771510003,679602.9232134203,4122655.628095603
852,[2021-02-22 16:27:10.677] $GNGGA,72710.1,3713.988017331,N,13701.478261578999,E,4,12.0,1.0,94.617,M,37.566,M,143.1,2006*5F,37.23313362218333,137.0246376929833,679602.9212110671,4122655.629932492
853,[2021-02-22 16:27:10.771] $GNGGA,72710.2,3713.988016318,N,13701.478258017,E,4,12.0,1.0,94.61399999999999,M,37.566,M,143.2,2006*51,37.233133605300004,137.02463763361666,679602.9159842072,4122655.6279465216
854,[2021-02-22 16:27:10.881] $GNGGA,72710.3,3713.9880165490003,N,13701.478255589,E,4,12.0,1.0,94.618,M,37.566,M,143.3,2006*50,37.23313360915001,137.02463759315,679602.9123849228,4122655.628296913
855,[2021-02-22 16:27:10.990] $GNGGA,72710.4,3713.9880178840003,N,13701.478255238,E,4,12.0,1.0,94.619,M,37.566,M,143.4,2006*51,37.2331336314,137.02463758730002,679602.9118131138,4122655.6307545886
856,[2021-02-22 16:27:11.068] $GNGGA,72710.5,3713.988018298,N,13701.478254411,E,4,12.0,1.0,94.619,M,37.566,M,143.5,2006*55,37.233133638300004,137.02463757351669,679602.9105738996,4122655.6314940327
857,[2021-02-22 16:27:11.177] $GNGGA,72710.6,3713.988018477,N,13701.478254518,E,4,12.0,1.0,94.62299999999999,M,37.566,M,143.6,2006*53,37.23313364128333,137.0246375753,679602.9107250334,4122655.631828435
858,[2021-02-22 16:27:11.271] $GNGGA,72710.7,3713.988019436,N,13701.478255083,E,4,12.0,1.0,94.619,M,37.566,M,143.7,2006*58,37.23313365726666,137.0246375847167,679602.9115225349,4122655.633619757
859,[2021-02-22 16:27:11.380] $GNGGA,72710.8,3713.988019552,N,13701.478253819,E,4,12.0,1.0,94.619,M,37.566,M,143.8,2006*56,37.2331336592,137.02463756364997,679602.9096489353,4122655.6337942956
860,[2021-02-22 16:27:11.490] $GNGGA,72710.9,3713.988019781,N,13701.478253658,E,4,12.0,1.0,94.618,M,37.566,M,143.9,2006*50,37.233133663016666,137.02463756096668,679602.9094018189,4122655.6342126876
861,[2021-02-22 16:27:11.568] $GNGGA,72711.0,3713.988020758,N,13701.478254896001,E,4,12.0,1.0,94.615,M,37.566,M,144.0,2006*5E,37.233133679299996,137.0246375816,679602.9111937319,4122655.63605858
862,[2021-02-22 16:27:11.677] $GNGGA,72711.1,3713.988021415,N,13701.478256425,E,4,12.0,1.0,94.618,M,37.566,M,144.1,2006*5E,37.23313369024999,137.02463760708332,679602.9134285918,4122655.6373219113
863,[2021-02-22 16:27:11.771] $GNGGA,72711.2,3713.988021933,N,13701.478257355,E,4,12.0,1.0,94.619,M,37.566,M,144.2,2006*57,37.23313369888333,137.02463762258336,679602.9147832446,4122655.6383092483
864,[2021-02-22 16:27:11.880] $GNGGA,72711.3,3713.988022131,N,13701.478259103,E,4,12.0,1.0,94.62,M,37.566,M,144.3,2006*5B,37.23313370218334,137.02463765171663,679602.917360077,4122655.638730691
865,[2021-02-22 16:27:11.990] $GNGGA,72711.4,3713.988024057,N,13701.478258443998,E,4,12.0,1.0,94.62100000000001,M,37.566,M,144.4,2006*5A,37.233133734283335,137.02463764073332,679602.9163094679,4122655.642271546
866,[2021-02-22 16:27:12.084] $GNGGA,72711.5,3713.988023422,N,13701.478258632,E,4,12.0,1.0,94.62100000000001,M,37.566,M,144.5,2006*58,37.2331337237,137.02463764386667,679602.9166125726,4122655.641103204
867,[2021-02-22 16:27:12.177] $GNGGA,72711.6,3713.988023122,N,13701.47825771,E,4,12.0,1.0,94.62,M,37.566,M,144.6,2006*52,37.233133718699996,137.0246376285,679602.9152611278,4122655.6405192623
868,[2021-02-22 16:27:12.271] $GNGGA,72711.7,3713.988022799,N,13701.478255245,E,4,12.0,1.0,94.62,M,37.566,M,144.7,2006*52,37.233133713316676,137.02463758741663,679602.9116290446,4122655.6398439854
869,[2021-02-22 16:27:12.396] $GNGGA,72711.8,3713.988022384,N,13701.478255778999,E,4,12.0,1.0,94.619,M,37.566,M,144.8,2006*5A,37.233133706400004,137.02463759631667,679602.9124350589,4122655.639093425
870,[2021-02-22 16:27:12.474] $GNGGA,72711.9,3713.988022517,N,13701.478254498,E,4,12.0,1.0,94.62100000000001,M,37.566,M,144.9,2006*50,37.23313370861667,137.02463757496665,679602.910535653,4122655.639298863
871,[2021-02-22 16:27:12.583] $GNGGA,72712.0,3713.988021438,N,13701.478254095,E,4,12.0,1.0,94.617,M,37.566,M,145.0,2006*51,37.23313369063333,137.02463756825,679602.9099824417,4122655.637290753
872,[2021-02-22 16:27:12.677] $GNGGA,72712.1,3713.9880211390005,N,13701.478254433001,E,4,12.0,1.0,94.62,M,37.566,M,145.1,2006*59,37.23313368565001,137.02463757388335,679602.9104940516,4122655.6367485113
873,[2021-02-22 16:27:12.802] $GNGGA,72712.2,3713.9880215559997,N,13701.478256125,E,4,12.0,1.0,94.618,M,37.566,M,145.2,2006*5F,37.2331336926,137.02463760208335,679602.9129794226,4122655.6375731705
874,[2021-02-22 16:27:12.880] $GNGGA,72712.3,3713.9880213590004,N,13701.478257272,E,4,12.0,1.0,94.62100000000001,M,37.566,M,145.3,2006*5C,37.233133689316674,137.02463762120001,679602.9146832215,4122655.6372451424
875,[2021-02-22 16:27:12.974] $GNGGA,72712.4,3713.988020672,N,13701.478258221001,E,4,12.0,1.0,94.62299999999999,M,37.566,M,145.4,2006*5A,37.23313367786667,137.0246376370167,679602.9161136297,4122655.636004707
876,[2021-02-22 16:27:13.083] $GNGGA,72712.5,3713.988019602,N,13701.478258594,E,4,12.0,1.0,94.62100000000001,M,37.566,M,145.5,2006*5C,37.23313366003334,137.02463764323332,679602.9167074854,4122655.6340377824
877,[2021-02-22 16:27:13.193] $GNGGA,72712.6,3713.9880198009996,N,13701.478258583998,E,4,12.0,1.0,94.62,M,37.566,M,145.6,2006*51,37.233133663349996,137.02463764306663,679602.9166848236,4122655.6344054714
878,[2021-02-22 16:27:13.271] $GNGGA,72712.7,3713.988018428,N,13701.478257483,E,4,12.0,1.0,94.625,M,37.566,M,145.7,2006*5B,37.23313364046667,137.0246376247167,679602.9151111533,4122655.6318315985
879,[2021-02-22 16:27:13.380] $GNGGA,72712.8,3713.988018486,N,13701.478256642,E,4,12.0,1.0,94.624,M,37.566,M,145.8,2006*50,37.23313364143333,137.02463761069998,679602.9138653136,4122655.631912256
880,[2021-02-22 16:27:13.474] $GNGGA,72712.9,3713.9880170720003,N,13701.478256791,E,4,12.0,1.0,94.62200000000001,M,37.566,M,145.9,2006*59,37.23313361786668,137.02463761318333,679602.9141415646,4122655.629302099
881,[2021-02-22 16:27:13.599] $GNGGA,72713.0,3713.9880162440004,N,13701.478255648,E,4,12.0,1.0,94.625,M,37.566,M,146.0,2006*5C,37.233133604066666,137.02463759413337,679602.912484231,4122655.627734749
882,[2021-02-22 16:27:13.677] $GNGGA,72713.1,3713.9880161540004,N,13701.478253871,E,4,12.0,1.0,94.625,M,37.566,M,146.1,2006*5C,37.233133602566674,137.02463756451667,679602.9098602361,4122655.627512114
883,[2021-02-22 16:27:13.771] $GNGGA,72713.2,3713.98801632,N,13701.478253661002,E,4,12.0,1.0,94.625,M,37.566,M,146.2,2006*52,37.23313360533333,137.0246375610167,679602.9095431583,4122655.627812449
884,[2021-02-22 16:27:13.880] $GNGGA,72713.3,3713.9880159890004,N,13701.478254535,E,4,12.0,1.0,94.624,M,37.566,M,146.3,2006*5C,37.233133599816675,137.02463757558337,679602.9108485857,4122655.627227984
885,[2021-02-22 16:27:13.974] $GNGGA,72713.4,3713.9880145320003,N,13701.478253873998,E,4,12.0,1.0,94.625,M,37.566,M,146.4,2006*5F,37.233133575533344,137.02463756456663,679602.9099288285,4122655.6245126883
886,[2021-02-22 16:27:14.099] $GNGGA,72713.5,3713.988014435,N,13701.478253771002,E,4,12.0,1.0,94.62200000000001,M,37.566,M,146.5,2006*54,37.23313357391667,137.02463756285002,679602.9097803702,4122655.624330051
887,[2021-02-22 16:27:14.177] $GNGGA,72713.6,3713.9880148190005,N,13701.47825269,E,4,12.0,1.0,94.62200000000001,M,37.566,M,146.6,2006*59,37.23313358031667,137.02463754483335,679602.9081667662,4122655.6250059814
888,[2021-02-22 16:27:14.271] $GNGGA,72713.7,3713.9880149809997,N,13701.478253345,E,4,12.0,1.0,94.62,M,37.566,M,146.7,2006*57,37.23313358301666,137.02463755575,679602.9091288669,4122655.625326279
889,[2021-02-22 16:27:14.380] $GNGGA,72713.8,3713.988015317,N,13701.478253387,E,4,12.0,1.0,94.62200000000001,M,37.566,M,146.8,2006*5F,37.233133588616674,137.02463755645002,679602.9091776817,4122655.6259489655
890,[2021-02-22 16:27:14.474] $GNGGA,72713.9,3713.9880169740004,N,13701.478253594,E,4,12.0,1.0,94.62200000000001,M,37.566,M,146.9,2006*57,37.23313361623334,137.0246375599,679602.9094182142,4122655.6290197563
891,[2021-02-22 16:27:14.599] $GNGGA,72714.0,3713.9880176340002,N,13701.478253608,E,4,12.0,1.0,94.62,M,37.566,M,147.0,2006*5F,37.233133627233336,137.02463756013333,679602.9094128102,4122655.630240717
892,[2021-02-22 16:27:14.677] $GNGGA,72714.1,3713.988018575,N,13701.478251263,E,4,12.0,1.0,94.62200000000001,M,37.566,M,147.1,2006*5F,37.23313364291667,137.02463752105,679602.9059081695,4122655.631906716
893,[2021-02-22 16:27:14.771] $GNGGA,72714.2,3713.988018405,N,13701.478251367,E,4,12.0,1.0,94.62100000000001,M,37.566,M,147.2,2006*5F,37.23313364008333,137.0246375227833,679602.9060686699,4122655.631595629
894,[2021-02-22 16:27:14.880] $GNGGA,72714.3,3713.9880185459997,N,13701.478251193,E,4,12.0,1.0,94.62200000000001,M,37.566,M,147.3,2006*53,37.23313364243332,137.02463751988336,679602.9058058127,4122655.6318508717
895,[2021-02-22 16:27:14.974] $GNGGA,72714.4,3713.988018365,N,13701.478251739,E,4,12.0,1.0,94.62299999999999,M,37.566,M,147.4,2006*53,37.233133639416664,137.0246375289833,679602.9066203074,4122655.631533423
896,[2021-02-22 16:27:15.099] $GNGGA,72714.5,3713.988019375,N,13701.478250953998,E,4,12.0,1.0,94.619,M,37.566,M,147.5,2006*5E,37.233133656250004,137.02463751589994,679602.905419619,4122655.6333763613
897,[2021-02-22 16:27:15.177] $GNGGA,72714.6,3713.9880184020003,N,13701.478250994,E,4,12.0,1.0,94.62299999999999,M,37.566,M,147.6,2006*5D,37.23313364003334,137.02463751656668,679602.905517257,4122655.6315782834
898,[2021-02-22 16:27:15.271] $GNGGA,72714.7,3713.988019606,N,13701.478252883,E,4,12.0,1.0,94.62100000000001,M,37.566,M,147.7,2006*5D,37.233133660099995,137.02463754805,679602.908262792,4122655.633864552
899,[2021-02-22 16:27:15.380] $GNGGA,72714.8,3713.9880186940004,N,13701.478254053998,E,4,12.0,1.0,94.626,M,37.566,M,147.8,2006*54,37.23313364490001,137.02463756756663,679602.9100303549,4122655.6322150533
900,[2021-02-22 16:27:15.474] $GNGGA,72714.9,3713.9880179909997,N,13701.478258706002,E,4,12.0,1.0,94.62100000000001,M,37.566,M,147.9,2006*5A,37.23313363318332,137.02463764510003,679602.916936821,4122655.6310621453
901,[2021-02-22 16:27:15.599] $GNGGA,72715.0,3713.9880188609995,N,13701.478262531002,E,4,12.0,1.0,94.62200000000001,M,37.566,M,148.0,2006*59,37.233133647683324,137.02463770885,679602.9225582189,4122655.632791989
902,[2021-02-22 16:27:15.677] $GNGGA,72715.1,3713.988019373,N,13701.478264768,E,4,12.0,1.0,94.619,M,37.566,M,148.1,2006*50,37.233133656216665,137.02463774613332,679602.925845693,4122655.633809569
903,[2021-02-22 16:27:15.771] $GNGGA,72715.2,3713.9880189859996,N,13701.478267179,E,4,12.0,1.0,94.62299999999999,M,37.566,M,148.2,2006*5D,37.23313364976666,137.02463778631665,679602.9294260097,4122655.6331701535
904,[2021-02-22 16:27:15.880] $GNGGA,72715.3,3713.98801935,N,13701.478272675,E,4,12.0,1.0,94.619,M,37.566,M,148.3,2006*5B,37.23313365583333,137.0246378779167,679602.9375382443,4122655.634017116
905,[2021-02-22 16:27:15.974] $GNGGA,72715.4,3713.9880208309996,N,13701.478275923999,E,4,12.0,1.0,94.618,M,37.566,M,148.4,2006*50,37.23313368051666,137.02463793206664,679602.9422837743,4122655.636858647
906,[2021-02-22 16:27:16.099] $GNGGA,72715.5,3713.9880222879997,N,13701.478277683,E,4,12.0,1.0,94.615,M,37.566,M,148.5,2006*57,37.23313370479999,137.02463796138335,679602.9448270799,4122655.6396086696
907,[2021-02-22 16:27:16.177] $GNGGA,72715.6,3713.9880227340004,N,13701.478280566002,E,4,12.0,1.0,94.616,M,37.566,M,148.6,2006*56,37.23313371223333,137.02463800943337,679602.9490723705,4122655.64052463
908,[2021-02-22 16:27:16.271] $GNGGA,72715.7,3713.988022585,N,13701.478282901002,E,4,12.0,1.0,94.61399999999999,M,37.566,M,148.7,2006*53,37.23313370975,137.02463804835003,679602.9525308975,4122655.640322938
909,[2021-02-22 16:27:16.380] $GNGGA,72715.8,3713.9880232,N,13701.478286985,E,4,12.0,1.0,94.613,M,37.566,M,148.8,2006*57,37.233133720000005,137.02463811641667,679602.9585453515,4122655.6415894087
910,[2021-02-22 16:27:16.489] $GNGGA,72715.9,3713.988024765,N,13701.478293115,E,4,12.0,1.0,94.613,M,37.566,M,148.9,2006*53,37.23313374608333,137.02463821858333,679602.9675475361,4122655.6446773983
911,[2021-02-22 16:27:16.583] $GNGGA,72716.0,3713.98802566,N,13701.478296411002,E,4,12.0,1.0,94.615,M,37.566,M,149.0,2006*56,37.233133761000005,137.0246382735167,679602.9723857485,4122655.646436743
912,[2021-02-22 16:27:16.677] $GNGGA,72716.1,3713.988025326,N,13701.478298177,E,4,12.0,1.0,94.61399999999999,M,37.566,M,149.1,2006*5B,37.23313375543333,137.02463830295,679602.9750102414,4122655.645874939
913,[2021-02-22 16:27:16.771] $GNGGA,72716.2,3713.988026119,N,13701.47829991,E,4,12.0,1.0,94.617,M,37.566,M,149.2,2006*5D,37.23313376865,137.02463833183336,679602.9775413685,4122655.6473962246
914,[2021-02-22 16:27:16.896] $GNGGA,72716.3,3713.988026849,N,13701.478299218,E,4,12.0,1.0,94.62,M,37.566,M,149.3,2006*56,37.23313378081667,137.02463832030003,679602.9764892694,4122655.6487243073
915,[2021-02-22 16:27:16.974] $GNGGA,72716.4,3713.988027635,N,13701.478297926002,E,4,12.0,1.0,94.619,M,37.566,M,149.4,2006*50,37.233133793916664,137.0246382987667,679602.9745477716,4122655.6501369714
916,[2021-02-22 16:27:17.083] $GNGGA,72716.5,3713.988029185,N,13701.478297706999,E,4,12.0,1.0,94.62,M,37.566,M,149.5,2006*55,37.233133819749995,137.02463829511663,679602.9741626328,4122655.6529964167
917,[2021-02-22 16:27:17.177] $GNGGA,72716.6,3713.988029462,N,13701.47829726,E,4,12.0,1.0,94.62299999999999,M,37.566,M,149.6,2006*5E,37.23313382436667,137.0246382876667,679602.9734907283,4122655.6534945285
918,[2021-02-22 16:27:17.302] $GNGGA,72716.7,3713.988029119,N,13701.478297172,E,4,12.0,1.0,94.625,M,37.566,M,149.7,2006*51,37.23313381865,137.0246382862,679602.9733741705,4122655.6528574433
919,[2021-02-22 16:27:17.380] $GNGGA,72716.8,3713.988029798,N,13701.478296229,E,4,12.0,1.0,94.624,M,37.566,M,149.8,2006*53,37.23313382996667,137.0246382704833,679602.9719529503,4122655.6540832752
920,[2021-02-22 16:27:17.474] $GNGGA,72716.9,3713.988029618,N,13701.478298155,E,4,12.0,1.0,94.62200000000001,M,37.566,M,149.9,2006*5A,37.23313382696666,137.0246383025833,679602.9748079381,4122655.65381132
921,[2021-02-22 16:27:17.583] $GNGGA,72717.0,3713.9880287220003,N,13701.47829758,E,4,12.0,1.0,94.624,M,37.566,M,150.0,2006*5F,37.23313381203334,137.02463829300004,679602.9739931654,4122655.652136188
922,[2021-02-22 16:27:17.692] $GNGGA,72717.1,3713.988027753,N,13701.478296416999,E,4,12.0,1.0,94.62299999999999,M,37.566,M,150.1,2006*5F,37.23313379588334,137.02463827361666,679602.972311826,4122655.65030746
923,[2021-02-22 16:27:17.771] $GNGGA,72717.2,3713.988026258,N,13701.478293796,E,4,12.0,1.0,94.62100000000001,M,37.566,M,150.2,2006*5D,37.23313377096667,137.02463822993334,679602.9684954366,4122655.6474599014
924,[2021-02-22 16:27:17.880] $GNGGA,72717.3,3713.988028862,N,13701.478293422,E,4,12.0,1.0,94.62200000000001,M,37.566,M,150.3,2006*5F,37.23313381436667,137.02463822369998,679602.9678394196,4122655.6522635766
925,[2021-02-22 16:27:17.974] $GNGGA,72717.4,3713.9880306590003,N,13701.478292692,E,4,12.0,1.0,94.619,M,37.566,M,150.4,2006*50,37.23313384431667,137.02463821153333,679602.9666889306,4122655.655563632
926,[2021-02-22 16:27:18.083] $GNGGA,72717.5,3713.98802973,N,13701.478291661,E,4,12.0,1.0,94.62100000000001,M,37.566,M,150.5,2006*52,37.23313382883334,137.02463819435,679602.9652011949,4122655.65381305
927,[2021-02-22 16:27:18.192] $GNGGA,72717.6,3713.9880304129997,N,13701.478291466,E,4,12.0,1.0,94.62,M,37.566,M,150.6,2006*5C,37.23313384021666,137.0246381911,679602.9648858436,4122655.6550699347
928,[2021-02-22 16:27:18.271] $GNGGA,72717.7,3713.988030352,N,13701.478290554,E,4,12.0,1.0,94.62,M,37.566,M,150.7,2006*5F,37.2331338392,137.02463817589998,679602.9635397309,4122655.6549282838
929,[2021-02-22 16:27:18.380] $GNGGA,72717.8,3713.988030228,N,13701.478289113998,E,4,12.0,1.0,94.619,M,37.566,M,150.8,2006*51,37.23313383713333,137.02463815189998,679602.9614153875,4122655.654653431
930,[2021-02-22 16:27:18.474] $GNGGA,72717.9,3713.98803068,N,13701.478288578,E,4,12.0,1.0,94.61399999999999,M,37.566,M,150.9,2006*55,37.23313384466667,137.02463814296667,679602.960604957,4122655.6554723503
931,[2021-02-22 16:27:18.583] $GNGGA,72718.0,3713.9880304209996,N,13701.478286851001,E,4,12.0,1.0,94.616,M,37.566,M,151.0,2006*58,37.23313384034999,137.02463811418332,679602.9580615835,4122655.6549387653
932,[2021-02-22 16:27:18.692] $GNGGA,72718.1,3713.9880307579997,N,13701.478287271,E,4,12.0,1.0,94.61399999999999,M,37.566,M,151.1,2006*5E,37.23313384596667,137.02463812118336,679602.9586692854,4122655.6555752563
933,[2021-02-22 16:27:18.771] $GNGGA,72718.2,3713.988030598,N,13701.478287026,E,4,12.0,1.0,94.615,M,37.566,M,151.2,2006*51,37.2331338433,137.0246381171,679602.9583133452,4122655.655271623
934,[2021-02-22 16:27:18.880] $GNGGA,72718.3,3713.98803066,N,13701.478287132,E,4,12.0,1.0,94.618,M,37.566,M,151.3,2006*5C,37.23313384433333,137.02463811886665,679602.9584676282,4122655.6553896293
935,[2021-02-22 16:27:18.974] $GNGGA,72718.4,3713.988030603,N,13701.478288003998,E,4,12.0,1.0,94.616,M,37.566,M,151.4,2006*5C,37.233133843383335,137.02463813339995,679602.9597592555,4122655.6553118005
936,[2021-02-22 16:27:19.083] $GNGGA,72718.5,3713.988031487,N,13701.478288421002,E,4,12.0,1.0,94.618,M,37.566,M,151.5,2006*5E,37.233133858116666,137.02463814035002,679602.9603408918,4122655.656959746
937,[2021-02-22 16:27:19.192] $GNGGA,72718.6,3713.9880326859998,N,13701.478290818999,E,4,12.0,1.0,94.62,M,37.566,M,151.6,2006*5B,37.23313387809999,137.02463818031666,679602.9638392497,4122655.6592528676
938,[2021-02-22 16:27:19.271] $GNGGA,72718.7,3713.988032323,N,13701.4782902,E,4,12.0,1.0,94.62100000000001,M,37.566,M,151.7,2006*52,37.233133872050004,137.02463817,679602.9629383289,4122655.6585620046
939,[2021-02-22 16:27:19.380] $GNGGA,72718.8,3713.988032357,N,13701.478290828001,E,4,12.0,1.0,94.618,M,37.566,M,151.8,2006*5B,37.23313387261666,137.0246381804667,679602.9638655751,4122655.6586447414
940,[2021-02-22 16:27:19.474] $GNGGA,72718.9,3713.98803251,N,13701.478291303001,E,4,12.0,1.0,94.619,M,37.566,M,151.9,2006*5C,37.23313387516666,137.02463818838336,679602.9645618781,4122655.6589427036
941,[2021-02-22 16:27:19.583] $GNGGA,72719.0,3713.988032968,N,13701.478288753999,E,4,12.0,1.0,94.617,M,37.566,M,152.0,2006*5D,37.2331338828,137.02463814589996,679602.9607746913,4122655.659709051
942,[2021-02-22 16:27:19.692] $GNGGA,72719.1,3713.988031622,N,13701.478288861,E,4,12.0,1.0,94.617,M,37.566,M,152.1,2006*56,37.23313386036667,137.02463814768333,679602.9609861515,4122655.657223315
943,[2021-02-22 16:27:19.771] $GNGGA,72719.2,3713.9880322970002,N,13701.478289923001,E,4,12.0,1.0,94.616,M,37.566,M,152.2,2006*58,37.233133871616666,137.02463816538332,679602.9625297708,4122655.6585051627
944,[2021-02-22 16:27:19.880] $GNGGA,72719.3,3713.988031046,N,13701.478290007,E,4,12.0,1.0,94.618,M,37.566,M,152.3,2006*5C,37.23313385076667,137.02463816678335,679602.9627034634,4122655.65619438
945,[2021-02-22 16:27:19.974] $GNGGA,72719.4,3713.988032675,N,13701.478290476001,E,4,12.0,1.0,94.615,M,37.566,M,152.4,2006*56,37.23313387791666,137.02463817460003,679602.9633325132,4122655.659221676
946,[2021-02-22 16:27:20.083] $GNGGA,72719.5,3713.9880326909997,N,13701.478289573,E,4,12.0,1.0,94.616,M,37.566,M,152.5,2006*53,37.233133878183324,137.02463815955002,679602.9619966644,4122655.6592227053
947,[2021-02-22 16:27:20.192] $GNGGA,72719.6,3713.988034058,N,13701.478289576002,E,4,12.0,1.0,94.615,M,37.566,M,152.6,2006*50,37.23313390096666,137.02463815960004,679602.9619470302,4122655.6617507557
948,[2021-02-22 16:27:20.270] $GNGGA,72719.7,3713.9880334609998,N,13701.478288856,E,4,12.0,1.0,94.618,M,37.566,M,152.7,2006*5A,37.233133891016664,137.0246381476,679602.9609060161,4122655.6606239686
