,Format,Time,Latitude,LatType,Longitude,LonType,Status,Satellite,LevelAccuracy,Altitude(sea),M(sea),Altitude(geoid),M(geoid),DGPS use,checksum,Lat,Lon,UTM_X,UTM_Y
390,[2021-02-22 16:22:34.797] $GNGGA,72234.2,3713.988001398,N,13701.478262167,E,4,12,0.99,94.494,M,37.566,M,62.2,2006*6A,37.23313335663333,137.02463770278334,679602.9227107489,4122655.600486633
391,[2021-02-22 16:22:34.875] $GNGGA,72234.3,3713.9880004509996,N,13701.478261696,E,4,12,0.99,94.49600000000001,M,37.566,M,62.3,2006*61,37.233133340849996,137.02463769493332,679602.922051765,4122655.5987204746
392,[2021-02-22 16:22:34.984] $GNGGA,72234.4,3713.988000461,N,13701.478261365,E,4,12,0.99,94.494,M,37.566,M,62.4,2006*69,37.23313334101667,137.02463768941666,679602.921561939,4122655.598728499
393,[2021-02-22 16:22:35.078] $GNGGA,72234.5,3713.987998903,N,13701.478260154,E,4,12,0.99,94.49600000000001,M,37.566,M,62.5,2006*64,37.23313331505,137.02463766923333,679602.9198329273,4122655.595809031
394,[2021-02-22 16:22:35.203] $GNGGA,72234.6,3713.9879982559996,N,13701.478259532,E,4,12,0.99,94.49700000000001,M,37.566,M,62.6,2006*60,37.23313330426666,137.02463765886665,679602.9189388023,4122655.594592878
395,[2021-02-22 16:22:35.281] $GNGGA,72234.7,3713.9879979190005,N,13701.478259613,E,4,12,0.99,94.494,M,37.566,M,62.7,2006*6C,37.23313329865001,137.02463766021668,679602.9190719054,4122655.5939722373
396,[2021-02-22 16:22:35.375] $GNGGA,72234.8,3713.9879975540002,N,13701.478258851,E,4,12,0.99,94.494,M,37.566,M,62.8,2006*60,37.23313329256668,137.02463764751667,679602.9179596158,4122655.5932731526
397,[2021-02-22 16:22:35.484] $GNGGA,72234.9,3713.987996739,N,13701.478259076,E,4,12,0.99,94.494,M,37.566,M,62.9,2006*64,37.23313327898334,137.0246376512667,679602.9183245507,4122655.591773112
398,[2021-02-22 16:22:35.594] $GNGGA,72235.0,3713.9879966840003,N,13701.478259943999,E,4,12,0.99,94.49600000000001,M,37.566,M,63.0,2006*69,37.233133278066674,137.02463766573334,679602.919610187,4122655.5916988547
399,[2021-02-22 16:22:35.672] $GNGGA,72235.1,3713.987995974,N,13701.47826159,E,4,12,0.99,94.495,M,37.566,M,63.1,2006*67,37.23313326623333,137.02463769316668,679602.9220721214,4122655.5904379296
400,[2021-02-22 16:22:35.781] $GNGGA,72235.2,3713.987996367,N,13701.478261386,E,4,12,0.99,94.491,M,37.566,M,63.2,2006*69,37.23313327278333,137.02463768976668,679602.9217549314,4122655.5911582406
401,[2021-02-22 16:22:35.875] $GNGGA,72235.3,3713.987995398,N,13701.478261335,E,4,12,0.99,94.49700000000001,M,37.566,M,63.3,2006*64,37.23313325663333,137.02463768891667,679602.9217178501,4122655.5893646833
402,[2021-02-22 16:22:35.984] $GNGGA,72235.4,3713.987995825,N,13701.478260085,E,4,12,0.99,94.494,M,37.566,M,63.4,2006*63,37.23313326375,137.02463766808333,679602.9198526536,4122655.5901147886
403,[2021-02-22 16:22:36.093] $GNGGA,72235.5,3713.9879956890004,N,13701.478259982,E,4,12,0.99,94.494,M,37.566,M,63.5,2006*6F,37.233133261483346,137.02463766636666,679602.9197057312,4122655.5898600304
404,[2021-02-22 16:22:36.172] $GNGGA,72235.6,3713.987995432,N,13701.478258808998,E,4,12,0.99,94.495,M,37.566,M,63.6,2006*6F,37.2331332572,137.02463764681664,679602.917981447,4122655.5893476685
405,[2021-02-22 16:22:36.281] $GNGGA,72235.7,3713.987995537,N,13701.478258401,E,4,12,0.99,94.495,M,37.566,M,63.7,2006*6F,37.23313325895,137.0246376400167,679602.9173740114,4122655.589528936
406,[2021-02-22 16:22:36.375] $GNGGA,72235.8,3713.987996166,N,13701.478259198,E,4,12,0.99,94.495,M,37.566,M,63.8,2006*68,37.23313326943333,137.0246376533,679602.9185276091,4122655.5907173366
407,[2021-02-22 16:22:36.484] $GNGGA,72235.9,3713.987996208,N,13701.478260515,E,4,12,0.99,94.493,M,37.566,M,63.9,2006*6E,37.23313327013334,137.02463767525,679602.9204733222,4122655.5908366595
408,[2021-02-22 16:22:36.593] $GNGGA,72236.0,3713.9879965190003,N,13701.478261553999,E,4,12,0.99,94.49700000000001,M,37.566,M,64.0,2006*6D,37.233133275316675,137.02463769256664,679602.9219973274,4122655.5914446455
409,[2021-02-22 16:22:36.672] $GNGGA,72236.1,3713.987996967,N,13701.478261246999,E,4,12,0.99,94.494,M,37.566,M,64.1,2006*6E,37.23313328278333,137.02463768744997,679602.9215256623,4122655.5922634075
410,[2021-02-22 16:22:36.781] $GNGGA,72236.2,3713.987995576,N,13701.478261146001,E,4,12,0.99,94.49600000000001,M,37.566,M,64.2,2006*61,37.23313325959999,137.0246376857667,679602.9214313459,4122655.589687875
411,[2021-02-22 16:22:36.875] $GNGGA,72236.3,3713.987996238,N,13701.478260288,E,4,12,0.99,94.495,M,37.566,M,64.3,2006*6C,37.23313327063333,137.0246376714667,679602.9201364855,4122655.5908849575
412,[2021-02-22 16:22:36.984] $GNGGA,72236.4,3713.987996012,N,13701.47826046,E,4,12,0.99,94.49700000000001,M,37.566,M,64.4,2006*64,37.233133266866666,137.02463767433335,679602.92039975,4122655.590472463
413,[2021-02-22 16:22:37.093] $GNGGA,72236.5,3713.987995525,N,13701.478261601002,E,4,12,0.99,94.49799999999999,M,37.566,M,64.5,2006*6D,37.233133258749994,137.02463769335003,679602.9221061463,4122655.589607954
414,[2021-02-22 16:22:37.172] $GNGGA,72236.6,3713.9879945879998,N,13701.478262018001,E,4,12,0.99,94.49700000000001,M,37.566,M,64.6,2006*69,37.23313324313333,137.0246377003,679602.9227598016,4122655.587888375
415,[2021-02-22 16:22:37.281] $GNGGA,72236.7,3713.987994119,N,13701.478260498001,E,4,12,0.99,94.5,M,37.566,M,64.7,2006*64,37.23313323531667,137.0246376749667,679602.9205308174,4122655.586972992
416,[2021-02-22 16:22:37.375] $GNGGA,72236.8,3713.9879949540004,N,13701.478260111999,E,4,12,0.99,94.49700000000001,M,37.566,M,64.8,2006*6D,37.23313324923334,137.0246376685333,679602.9199270261,4122655.5885049263
417,[2021-02-22 16:22:37.484] $GNGGA,72236.9,3713.987996705,N,13701.478261053999,E,4,12,0.99,94.493,M,37.566,M,64.9,2006*63,37.233133278416666,137.0246376842333,679602.9212506481,4122655.591772796
418,[2021-02-22 16:22:37.593] $GNGGA,72237.0,3713.987997565,N,13701.478261052,E,4,12,0.99,94.495,M,37.566,M,65.0,2006*66,37.233133292750004,137.0246376842,679602.9212136755,4122655.593363107
419,[2021-02-22 16:22:37.672] $GNGGA,72237.1,3713.987998545,N,13701.478260193,E,4,12,0.99,94.49600000000001,M,37.566,M,65.1,2006*65,37.233133309083335,137.02463766988333,679602.9199047557,4122655.5951482253
420,[2021-02-22 16:22:37.781] $GNGGA,72237.2,3713.988000153,N,13701.478261565,E,4,12,0.99,94.491,M,37.566,M,65.2,2006*6A,37.23313333588334,137.02463769275002,679602.9218698521,4122655.5981652495
421,[2021-02-22 16:22:37.875] $GNGGA,72237.3,3713.9879999940003,N,13701.478261172,E,4,12,0.99,94.49600000000001,M,37.566,M,65.3,2006*6A,37.23313333323335,137.02463768619998,679602.9212950312,4122655.5978587857
422,[2021-02-22 16:22:37.984] $GNGGA,72237.4,3713.988000885,N,13701.478261245,E,4,12,0.99,94.494,M,37.566,M,65.4,2006*68,37.233133348083335,137.02463768741669,679602.9213677315,4122655.5995087945
423,[2021-02-22 16:22:38.093] $GNGGA,72237.5,3713.9880008090004,N,13701.478261495,E,4,12,0.99,94.494,M,37.566,M,65.5,2006*67,37.23313334681667,137.02463769158334,679602.9217403976,4122655.5993761583
424,[2021-02-22 16:22:38.171] $GNGGA,72237.6,3713.988001684,N,13701.478261925,E,4,12,0.99,94.49700000000001,M,37.566,M,65.6,2006*68,37.23313336140001,137.02463769875,679602.9223416048,4122655.601007871
425,[2021-02-22 16:22:38.281] $GNGGA,72237.7,3713.9880020809996,N,13701.478263908,E,4,12,0.99,94.49600000000001,M,37.566,M,65.7,2006*64,37.23313336801666,137.02463773180003,679602.9252580535,4122655.6018047486
426,[2021-02-22 16:22:38.375] $GNGGA,72237.8,3713.988003707,N,13701.478264791001,E,4,12,0.99,94.49700000000001,M,37.566,M,65.8,2006*64,37.23313339511667,137.02463774651667,679602.9264993782,4122655.604839594
427,[2021-02-22 16:22:38.500] $GNGGA,72237.9,3713.988005008,N,13701.478265468999,E,4,12,0.99,94.495,M,37.566,M,65.9,2006*6D,37.2331334168,137.02463775781663,679602.927450433,4122655.6072669416
428,[2021-02-22 16:22:38.578] $GNGGA,72238.0,3713.988004912,N,13701.478266603,E,4,12,0.99,94.494,M,37.566,M,66.0,2006*6E,37.2331334152,137.0246377767167,679602.9291310196,4122655.607125277
429,[2021-02-22 16:22:38.671] $GNGGA,72238.1,3713.988005373,N,13701.478266207,E,4,12,0.99,94.493,M,37.566,M,66.1,2006*65,37.23313342288333,137.02463777011664,679602.9285272363,4122655.607965266
430,[2021-02-22 16:22:38.781] $GNGGA,72238.2,3713.9880051890004,N,13701.478266451,E,4,12,0.99,94.494,M,37.566,M,66.2,2006*60,37.233133419816674,137.02463777418333,679602.9288953051,4122655.6076327194
431,[2021-02-22 16:22:38.890] $GNGGA,72238.3,3713.988005638,N,13701.478266662,E,4,12,0.99,94.492,M,37.566,M,66.3,2006*69,37.233133427300004,137.02463777769998,679602.9291895372,4122655.6084697153
432,[2021-02-22 16:22:38.984] $GNGGA,72238.4,3713.988005645,N,13701.478267812,E,4,12,0.99,94.492,M,37.566,M,66.4,2006*6B,37.233133427416675,137.02463779686664,679602.9308897004,4122655.608519032
433,[2021-02-22 16:22:39.078] $GNGGA,72238.5,3713.988005909,N,13701.478266543001,E,4,12,0.99,94.493,M,37.566,M,66.5,2006*65,37.233133431816675,137.02463777571668,679602.9290028627,4122655.608967105
434,[2021-02-22 16:22:39.171] $GNGGA,72238.6,3713.988005751,N,13701.478266053,E,4,12,0.99,94.492,M,37.566,M,66.6,2006*63,37.23313342918333,137.02463776755,679602.9282845741,4122655.6086594216
435,[2021-02-22 16:22:39.296] $GNGGA,72238.7,3713.988005595,N,13701.478265723,E,4,12,0.99,94.493,M,37.566,M,66.7,2006*6B,37.23313342658332,137.02463776205,679602.9278027928,4122655.6083604963
436,[2021-02-22 16:22:39.375] $GNGGA,72238.8,3713.9880052159997,N,13701.4782663,E,4,12,0.99,94.49600000000001,M,37.566,M,66.8,2006*64,37.23313342026666,137.02463777166668,679602.9286709626,4122655.6076778714
437,[2021-02-22 16:22:39.484] $GNGGA,72238.9,3713.988005093,N,13701.478265621,E,4,12,0.99,94.49700000000001,M,37.566,M,66.9,2006*6F,37.233133418216674,137.02463776035,679602.9276718284,4122655.607428937
438,[2021-02-22 16:22:39.578] $GNGGA,72239.0,3713.988005375,N,13701.478265538999,E,4,12,0.99,94.492,M,37.566,M,67.0,2006*6B,37.233133422916666,137.0246377589833,679602.9275394201,4122655.6079478376
439,[2021-02-22 16:22:39.703] $GNGGA,72239.1,3713.98800549,N,13701.478265776,E,4,12,0.99,94.493,M,37.566,M,67.1,2006*6F,37.233133424833326,137.02463776293334,679602.9278853139,4122655.608168
440,[2021-02-22 16:22:39.781] $GNGGA,72239.2,3713.988005609,N,13701.478266469,E,4,12,0.99,94.492,M,37.566,M,67.2,2006*62,37.233133426816664,137.02463777448332,679602.9289053066,4122655.6084099817
441,[2021-02-22 16:22:39.874] $GNGGA,72239.3,3713.9880049709996,N,13701.47826604,E,4,12,0.99,94.492,M,37.566,M,67.3,2006*6C,37.23313341618332,137.0246377673333,679602.9282962034,4122655.607216576
442,[2021-02-22 16:22:39.984] $GNGGA,72239.4,3713.988004912,N,13701.478265782,E,4,12,0.99,94.493,M,37.566,M,67.4,2006*62,37.2331334152,137.02463776303335,679602.9279170507,4122655.6070993114
443,[2021-02-22 16:22:40.078] $GNGGA,72239.5,3713.9880048120003,N,13701.478265884,E,4,12,0.99,94.491,M,37.566,M,67.5,2006*68,37.233133413533345,137.02463776473334,679602.9280718274,4122655.6069176104
444,[2021-02-22 16:22:40.203] $GNGGA,72239.6,3713.988004869,N,13701.478267268001,E,4,12,0.99,94.48700000000001,M,37.566,M,67.6,2006*69,37.23313341448334,137.02463778780003,679602.9301160175,4122655.6070667906
445,[2021-02-22 16:22:40.281] $GNGGA,72239.7,3713.9880048890004,N,13701.47826772,E,4,12,0.99,94.48899999999999,M,37.566,M,67.7,2006*60,37.23313341481668,137.02463779533335,679602.9307835735,4122655.607118073
446,[2021-02-22 16:22:40.374] $GNGGA,72239.8,3713.9880043579997,N,13701.478268214,E,4,12,0.99,94.49,M,37.566,M,67.8,2006*62,37.23313340596667,137.02463780356663,679602.9315350235,4122655.606151732
447,[2021-02-22 16:22:40.484] $GNGGA,72239.9,3713.988003901,N,13701.478268301002,E,4,12,0.99,94.48899999999999,M,37.566,M,67.9,2006*6E,37.233133398350006,137.0246378050167,679602.9316817471,4122655.605309367
448,[2021-02-22 16:22:40.578] $GNGGA,72240.0,3713.988003848,N,13701.478268223998,E,4,12,0.99,94.486,M,37.566,M,68.0,2006*6A,37.233133397466666,137.02463780373333,679602.931569985,4122655.6052089203
449,[2021-02-22 16:22:40.703] $GNGGA,72240.1,3713.988003709,N,13701.478267906,E,4,12,0.99,94.486,M,37.566,M,68.1,2006*64,37.233133395150006,137.02463779843333,679602.9311052744,4122655.6049418133
450,[2021-02-22 16:22:40.781] $GNGGA,72240.2,3713.988003732,N,13701.478266989,E,4,12,0.99,94.488,M,37.566,M,68.2,2006*64,37.23313339553333,137.02463778314998,679602.9297484461,4122655.604955344
451,[2021-02-22 16:22:40.874] $GNGGA,72240.3,3713.9880038109995,N,13701.478267038001,E,4,12,0.99,94.48899999999999,M,37.566,M,68.3,2006*69,37.233133396849986,137.02463778396668,679602.9298177792,4122655.6051029847
452,[2021-02-22 16:22:40.984] $GNGGA,72240.4,3713.9880040690005,N,13701.478267657,E,4,12,0.99,94.488,M,37.566,M,68.4,2006*67,37.233133401150006,137.02463779428334,679602.9307228532,4122655.605599676
453,[2021-02-22 16:22:41.078] $GNGGA,72240.5,3713.988004233,N,13701.478266778999,E,4,12,0.99,94.48899999999999,M,37.566,M,68.5,2006*67,37.23313340388333,137.02463777964996,679602.9294181127,4122655.6058751866
454,[2021-02-22 16:22:41.202] $GNGGA,72240.6,3713.98800461,N,13701.478268453999,E,4,12,0.99,94.486,M,37.566,M,68.6,2006*6F,37.23313341016667,137.02463780756665,679602.9318799295,4122655.606625341
455,[2021-02-22 16:22:41.281] $GNGGA,72240.7,3713.9880048640002,N,13701.478268345,E,4,12,0.99,94.48700000000001,M,37.566,M,68.7,2006*64,37.2331334144,137.02463780575,679602.9317087112,4122655.6070916057
456,[2021-02-22 16:22:41.374] $GNGGA,72240.8,3713.988005268,N,13701.478268465,E,4,12,0.99,94.486,M,37.566,M,68.8,2006*67,37.23313342113333,137.02463780774997,679602.9318701667,4122655.6078425082
457,[2021-02-22 16:22:41.484] $GNGGA,72240.9,3713.9880044359998,N,13701.478267401,E,4,12,0.99,94.485,M,37.566,M,68.9,2006*65,37.23313340726666,137.02463779001667,679602.9303298026,4122655.606270262
458,[2021-02-22 16:22:41.577] $GNGGA,72241.0,3713.9880044909996,N,13701.478266906,E,4,12,0.99,94.485,M,37.566,M,69.0,2006*63,37.23313340818332,137.02463778176667,679602.9295956979,4122655.606356315
459,[2021-02-22 16:22:41.702] $GNGGA,72241.1,3713.988004032,N,13701.478267327,E,4,12,0.99,94.48700000000001,M,37.566,M,69.1,2006*64,37.23313340053333,137.0246377887833,679602.93023636,4122655.605520815
460,[2021-02-22 16:22:41.781] $GNGGA,72241.2,3713.988003925,N,13701.478268457,E,4,12,0.99,94.48700000000001,M,37.566,M,69.2,2006*63,37.233133398750006,137.02463780761667,679602.9319114632,4122655.605358683
461,[2021-02-22 16:22:41.874] $GNGGA,72241.3,3713.988003915,N,13701.47826896,E,4,12,0.99,94.49,M,37.566,M,69.3,2006*6F,37.233133398583334,137.024637816,679602.9326556164,4122655.605356099
462,[2021-02-22 16:22:41.984] $GNGGA,72241.4,3713.9880031440002,N,13701.478268638999,E,4,12,0.99,94.48700000000001,M,37.566,M,69.4,2006*66,37.23313338573333,137.02463781064998,679602.9322114668,4122655.6039201557
463,[2021-02-22 16:22:42.077] $GNGGA,72241.5,3713.98800344,N,13701.478268183,E,4,12,0.99,94.486,M,37.566,M,69.5,2006*60,37.233133390666666,137.02463780305,679602.9315255012,4122655.6044531204
464,[2021-02-22 16:22:42.202] $GNGGA,72241.6,3713.988003778,N,13701.478269298,E,4,12,0.99,94.48700000000001,M,37.566,M,69.6,2006*61,37.23313339629999,137.02463782163338,679602.9331608209,4122655.605113438
465,[2021-02-22 16:22:42.281] $GNGGA,72241.7,3713.98800313,N,13701.478268591001,E,4,12,0.99,94.48700000000001,M,37.566,M,69.7,2006*64,37.233133385500004,137.02463780985002,679602.9321410502,4122655.60389275
466,[2021-02-22 16:22:42.374] $GNGGA,72241.8,3713.988004062,N,13701.478268187,E,4,12,0.99,94.48700000000001,M,37.566,M,69.8,2006*66,37.233133401033335,137.02463780311666,679602.9315068099,4122655.605603494
467,[2021-02-22 16:22:42.484] $GNGGA,72241.9,3713.988002944,N,13701.478267403001,E,4,12,0.99,94.49,M,37.566,M,69.9,2006*6D,37.2331333824,137.02463779005004,679602.9303917787,4122655.603511211
468,[2021-02-22 16:22:42.593] $GNGGA,72242.0,3713.988002351,N,13701.478267205,E,4,12,0.99,94.492,M,37.566,M,70.0,2006*6A,37.23313337251667,137.02463778675002,679602.9301224621,4122655.60240833
469,[2021-02-22 16:22:42.671] $GNGGA,72242.1,3713.988002329,N,13701.478267782,E,4,12,0.99,94.48899999999999,M,37.566,M,70.1,2006*65,37.23313337215001,137.02463779636665,679602.9309765084,4122655.6023858967
470,[2021-02-22 16:22:42.781] $GNGGA,72242.2,3713.9880021309996,N,13701.478268002,E,4,12,0.99,94.493,M,37.566,M,70.2,2006*65,37.23313336885,137.02463780003333,679602.9313096425,4122655.6020266972
471,[2021-02-22 16:22:42.874] $GNGGA,72242.3,3713.988001784,N,13701.478268351999,E,4,12,0.99,94.491,M,37.566,M,70.3,2006*6A,37.23313336306666,137.02463780586666,679602.9318408943,4122655.601396069
472,[2021-02-22 16:22:42.999] $GNGGA,72242.4,3713.9880003740004,N,13701.478268628998,E,4,12,0.99,94.492,M,37.566,M,70.4,2006*6A,37.23313333956667,137.02463781048328,679602.9323062472,4122655.598797356
473,[2021-02-22 16:22:43.077] $GNGGA,72242.5,3713.988000524,N,13701.478269275,E,4,12,0.99,94.493,M,37.566,M,70.5,2006*64,37.23313334206667,137.02463782125,679602.9332555219,4122655.59909518
474,[2021-02-22 16:22:43.171] $GNGGA,72242.6,3713.988000963,N,13701.478268853001,E,4,12,0.99,94.49,M,37.566,M,70.6,2006*67,37.23313334938333,137.02463781421667,679602.9326141699,4122655.5998936626
475,[2021-02-22 16:22:43.281] $GNGGA,72242.7,3713.9880009959998,N,13701.478268833998,E,4,12,0.99,94.495,M,37.566,M,70.7,2006*69,37.233133349933325,137.02463781389997,679602.9325847669,4122655.599954087
476,[2021-02-22 16:22:43.390] $GNGGA,72242.8,3713.988002602,N,13701.478268083001,E,4,12,0.99,94.491,M,37.566,M,70.8,2006*69,37.2331333767,137.02463780138336,679602.9314107848,4122655.602900266
477,[2021-02-22 16:22:43.484] $GNGGA,72242.9,3713.9880032940005,N,13701.478267813001,E,4,12,0.99,94.493,M,37.566,M,70.9,2006*6F,37.23313338823334,137.02463779688335,679602.9309841783,4122655.604171424
478,[2021-02-22 16:22:43.577] $GNGGA,72243.0,3713.988003334,N,13701.478268251001,E,4,12,0.99,94.494,M,37.566,M,71.0,2006*60,37.2331333889,137.02463780418333,679602.9316302385,4122655.604259248
479,[2021-02-22 16:22:43.671] $GNGGA,72243.1,3713.988003956,N,13701.478268676,E,4,12,0.99,94.49,M,37.566,M,71.1,2006*6B,37.23313339926666,137.0246378112667,679602.9322340626,4122655.605422936
480,[2021-02-22 16:22:43.796] $GNGGA,72243.2,3713.9880039359996,N,13701.47826959,E,4,12,0.99,94.49,M,37.566,M,71.2,2006*67,37.233133398933326,137.02463782649997,679602.9335863297,4122655.6054148576
481,[2021-02-22 16:22:43.874] $GNGGA,72243.3,3713.9880046820003,N,13701.478269691,E,4,12,0.99,94.48899999999999,M,37.566,M,71.3,2006*6A,37.23313341136667,137.02463782818333,679602.9337061662,4122655.6067976113
482,[2021-02-22 16:22:43.984] $GNGGA,72243.4,3713.988005217,N,13701.478269926001,E,4,12,0.99,94.48899999999999,M,37.566,M,71.4,2006*60,37.23313342028333,137.02463783210004,679602.9340324895,4122655.607794404
483,[2021-02-22 16:22:44.077] $GNGGA,72243.5,3713.988004896,N,13701.478270038999,E,4,12,0.99,94.485,M,37.566,M,71.5,2006*61,37.233133414933334,137.02463783398332,679602.9342122702,4122655.607204362
484,[2021-02-22 16:22:44.202] $GNGGA,72243.6,3713.9880052309995,N,13701.478269858999,E,4,12,0.99,94.48700000000001,M,37.566,M,71.6,2006*63,37.233133420516666,137.0246378309833,679602.9339328608,4122655.6078181746
485,[2021-02-22 16:22:44.280] $GNGGA,72243.7,3713.988005482,N,13701.478269833,E,4,12,0.99,94.48899999999999,M,37.566,M,71.7,2006*6F,37.23313342469999,137.02463783055,679602.9338844912,4122655.608281519
486,[2021-02-22 16:22:44.374] $GNGGA,72243.8,3713.98800597,N,13701.47827005,E,4,12,0.99,94.48700000000001,M,37.566,M,71.8,2006*64,37.23313343283333,137.02463783416667,679602.9341860522,4122655.609190828
487,[2021-02-22 16:22:44.484] $GNGGA,72243.9,3713.988006358,N,13701.478269801,E,4,12,0.99,94.48899999999999,M,37.566,M,71.9,2006*6D,37.233133439300005,137.02463783001667,679602.9338025234,4122655.6099004704
488,[2021-02-22 16:22:44.577] $GNGGA,72244.0,3713.9880062,N,13701.478270128999,E,4,12,0.99,94.48700000000001,M,37.566,M,72.0,2006*60,37.23313343666667,137.0246378354833,679602.9342937657,4122655.60961866
489,[2021-02-22 16:22:44.702] $GNGGA,72244.1,3713.9880057779997,N,13701.478270708001,E,4,12,0.99,94.48899999999999,M,37.566,M,72.1,2006*62,37.23313342963333,137.02463784513333,679602.935166596,4122655.608856579
490,[2021-02-22 16:22:44.780] $GNGGA,72244.2,3713.988005769,N,13701.478271923,E,4,12,0.99,94.485,M,37.566,M,72.2,2006*68,37.23313342948333,137.02463786538334,679602.9369635051,4122655.608878363
491,[2021-02-22 16:22:44.874] $GNGGA,72244.3,3713.98800635,N,13701.478271853,E,4,12,0.99,94.48700000000001,M,37.566,M,72.3,2006*61,37.23313343916667,137.02463786421666,679602.9368370173,4122655.6099505764
492,[2021-02-22 16:22:44.984] $GNGGA,72244.4,3713.9880066459996,N,13701.478272805,E,4,12,0.99,94.484,M,37.566,M,72.4,2006*60,37.23313344409999,137.02463788008333,679602.9382329783,4122655.6105280695
493,[2021-02-22 16:22:45.077] $GNGGA,72244.5,3713.988006253,N,13701.478273118999,E,4,12,0.99,94.49,M,37.566,M,72.5,2006*60,37.23313343755001,137.02463788531665,679602.9387128158,4122655.6098112385
494,[2021-02-22 16:22:45.202] $GNGGA,72244.6,3713.988006785,N,13701.478271771999,E,4,12,0.99,94.49,M,37.566,M,72.6,2006*67,37.233133446416666,137.02463786286663,679602.9367000378,4122655.610752448
495,[2021-02-22 16:22:45.280] $GNGGA,72244.7,3713.9880065209995,N,13701.478272301001,E,4,12,0.99,94.491,M,37.566,M,72.7,2006*69,37.23313344201666,137.02463787168332,679602.9374926862,4122655.6102809696
496,[2021-02-22 16:22:45.374] $GNGGA,72244.8,3713.98800623,N,13701.478272406,E,4,12,0.99,94.48899999999999,M,37.566,M,72.8,2006*67,37.23313343716667,137.02463787343336,679602.937659456,4122655.609746155
497,[2021-02-22 16:22:45.483] $GNGGA,72244.9,3713.9880066,N,13701.478271811999,E,4,12,0.99,94.49,M,37.566,M,72.9,2006*62,37.23313344333334,137.02463786353331,679602.9367665015,4122655.610411599
498,[2021-02-22 16:22:45.577] $GNGGA,72245.0,3713.988006159,N,13701.478273118999,E,4,12,0.99,94.493,M,37.566,M,73.0,2006*6A,37.23313343598333,137.02463788531665,679602.938716534,4122655.609637407
499,[2021-02-22 16:22:45.702] $GNGGA,72245.1,3713.988006374,N,13701.478272516,E,4,12,0.99,94.492,M,37.566,M,73.1,2006*6C,37.23313343956667,137.02463787526665,679602.9378164076,4122655.610015929
500,[2021-02-22 16:22:45.780] $GNGGA,72245.2,3713.988006214,N,13701.478273005,E,4,12,0.99,94.493,M,37.566,M,73.2,2006*6C,37.233133436900005,137.02463788341666,679602.9385457941,4122655.6097355112
501,[2021-02-22 16:22:45.874] $GNGGA,72245.3,3713.98800654,N,13701.478272945,E,4,12,0.99,94.49799999999999,M,37.566,M,73.3,2006*6D,37.23313344233333,137.02463788241664,679602.9384441788,4122655.6103364755
502,[2021-02-22 16:22:45.983] $GNGGA,72245.4,3713.9880063640003,N,13701.478272008,E,4,12,0.99,94.491,M,37.566,M,73.4,2006*64,37.2331334394,137.02463786680002,679602.9370656547,4122655.6099813683
503,[2021-02-22 16:22:46.077] $GNGGA,72245.5,3713.988006361,N,13701.478272213999,E,4,12,0.99,94.493,M,37.566,M,73.5,2006*6C,37.23313343935,137.0246378702333,679602.9373703706,4122655.6099823364
504,[2021-02-22 16:22:46.202] $GNGGA,72245.6,3713.988006526,N,13701.478272308,E,4,12,0.99,94.494,M,37.566,M,73.6,2006*62,37.233133442100005,137.0246378718,679602.9375028387,4122655.6102904393
505,[2021-02-22 16:22:46.280] $GNGGA,72245.7,3713.988006867,N,13701.478272073,E,4,12,0.99,94.493,M,37.566,M,73.7,2006*62,37.23313344778334,137.02463786788334,679602.9371418692,4122655.6109136078
506,[2021-02-22 16:22:46.374] $GNGGA,72245.8,3713.988006743,N,13701.47827158,E,4,12,0.99,94.49700000000001,M,37.566,M,73.8,2006*65,37.23313344571667,137.02463785966663,679602.9364177976,4122655.610668707
507,[2021-02-22 16:22:46.483] $GNGGA,72245.9,3713.9880072640003,N,13701.478271291999,E,4,12,0.99,94.495,M,37.566,M,73.9,2006*62,37.233133454400004,137.02463785486663,679602.9359713405,4122655.6116230674
508,[2021-02-22 16:22:46.577] $GNGGA,72246.0,3713.988007011,N,13701.478271134,E,4,12,0.99,94.495,M,37.566,M,74.0,2006*69,37.233133450183324,137.02463785223333,679602.9357477257,4122655.611150205
509,[2021-02-22 16:22:46.702] $GNGGA,72246.1,3713.988008049,N,13701.478270704,E,4,12,0.99,94.49600000000001,M,37.566,M,74.1,2006*6C,37.233133467483334,137.02463784506665,679602.9350708488,4122655.6130561503
510,[2021-02-22 16:22:46.780] $GNGGA,72246.2,3713.9880086209996,N,13701.478270225,E,4,12,0.99,94.49600000000001,M,37.566,M,74.2,2006*62,37.233133477016665,137.0246378370833,679602.9343399516,4122655.6140987836
511,[2021-02-22 16:22:46.874] $GNGGA,72246.3,3713.988007035,N,13701.478270058999,E,4,12,0.99,94.49799999999999,M,37.566,M,74.3,2006*69,37.23313345058334,137.02463783431665,679602.934157233,4122655.611160589
512,[2021-02-22 16:22:46.983] $GNGGA,72246.4,3713.9880063590003,N,13701.478270218999,E,4,12,0.99,94.501,M,37.566,M,74.4,2006*66,37.233133439316674,137.02463783698332,679602.9344205544,4122655.6099155406
513,[2021-02-22 16:22:47.093] $GNGGA,72246.5,3713.988006764,N,13701.478271708,E,4,12,0.99,94.49700000000001,M,37.566,M,74.5,2006*66,37.23313344606667,137.02463786180002,679602.9366062384,4122655.6107115904
514,[2021-02-22 16:22:47.171] $GNGGA,72246.6,3713.988007794,N,13701.478271673,E,4,12,0.99,94.495,M,37.566,M,74.6,2006*67,37.23313346323333,137.02463786121666,679602.9365137432,4122655.612615234
515,[2021-02-22 16:22:47.280] $GNGGA,72246.7,3713.9880069009996,N,13701.478271615,E,4,12,0.99,94.499,M,37.566,M,74.7,2006*68,37.233133448349996,137.02463786024998,679602.9364633032,4122655.610961997
516,[2021-02-22 16:22:47.374] $GNGGA,72246.8,3713.988006607,N,13701.478270213998,E,4,12,0.99,94.49799999999999,M,37.566,M,74.8,2006*64,37.23313344345,137.02463783689998,679602.9344033517,4122655.6103740023
517,[2021-02-22 16:22:47.499] $GNGGA,72246.9,3713.9880066490005,N,13701.47826932,E,4,12,0.99,94.49600000000001,M,37.566,M,74.9,2006*6E,37.23313344415001,137.02463782200002,679602.9330797862,4122655.610423397
518,[2021-02-22 16:22:47.577] $GNGGA,72247.0,3713.988007081,N,13701.478269139,E,4,12,0.99,94.495,M,37.566,M,75.0,2006*64,37.23313345135,137.02463781898334,679602.9327950614,4122655.6112165567
519,[2021-02-22 16:22:47.671] $GNGGA,72247.1,3713.988006415,N,13701.478270627,E,4,12,0.99,94.495,M,37.566,M,75.1,2006*6C,37.23313344025,137.02463784378335,679602.9350216307,4122655.6100320043
520,[2021-02-22 16:22:47.780] $GNGGA,72247.2,3713.988006932,N,13701.478270525,E,4,12,0.99,94.491,M,37.566,M,75.2,2006*61,37.23313344886667,137.02463784208337,679602.9348503593,4122655.6109848507
521,[2021-02-22 16:22:47.890] $GNGGA,72247.3,3713.988006587,N,13701.478268092,E,4,12,0.99,94.495,M,37.566,M,75.3,2006*67,37.23313344311667,137.02463780153334,679602.9312664637,4122655.610269903
522,[2021-02-22 16:22:47.983] $GNGGA,72247.4,3713.988005129,N,13701.478269243999,E,4,12,0.99,94.49700000000001,M,37.566,M,75.4,2006*6E,37.233133418816664,137.0246378207333,679602.9330275282,4122655.607610097
523,[2021-02-22 16:22:48.077] $GNGGA,72247.5,3713.9880036540003,N,13701.478269288998,E,4,12,0.99,94.5,M,37.566,M,75.5,2006*6B,37.23313339423334,137.0246378214833,679602.9331524138,4122655.6048838464
524,[2021-02-22 16:22:48.171] $GNGGA,72247.6,3713.98800468,N,13701.478270234,E,4,12,0.99,94.49799999999999,M,37.566,M,75.6,2006*6B,37.233133411333334,137.02463783723334,679602.9345091514,4122655.6068110866
525,[2021-02-22 16:22:48.296] $GNGGA,72247.7,3713.988004747,N,13701.478271646001,E,4,12,0.99,94.49700000000001,M,37.566,M,75.7,2006*6E,37.23313341245,137.0246378607667,679602.9365943465,4122655.606979646
526,[2021-02-22 16:22:48.374] $GNGGA,72247.8,3713.9880032509996,N,13701.478270658,E,4,12,0.99,94.49799999999999,M,37.566,M,75.8,2006*6A,37.23313338751665,137.0246378443,679602.9351926205,4122655.6041818843
527,[2021-02-22 16:22:48.483] $GNGGA,72247.9,3713.9880044879997,N,13701.478270665,E,4,12,0.99,94.494,M,37.566,M,75.9,2006*6D,37.23313340813333,137.02463784441667,679602.9351540406,4122655.606469657
528,[2021-02-22 16:22:48.577] $GNGGA,72248.0,3713.9880043870003,N,13701.478269288,E,4,12,0.99,94.49600000000001,M,37.566,M,76.0,2006*64,37.23313340645,137.02463782146668,679602.9331219434,4122655.60623933
529,[2021-02-22 16:22:48.702] $GNGGA,72248.1,3713.9880046040003,N,13701.478268873001,E,4,12,0.99,94.495,M,37.566,M,76.1,2006*66,37.23313341006668,137.02463781455,679602.9324997228,4122655.606627498
530,[2021-02-22 16:22:48.780] $GNGGA,72248.2,3713.9880053829997,N,13701.478269275,E,4,12,0.99,94.499,M,37.566,M,76.2,2006*6C,37.23313342305,137.02463782125,679602.9330633222,4122655.608080794
531,[2021-02-22 16:22:48.874] $GNGGA,72248.3,3713.988005662,N,13701.478269326,E,4,12,0.99,94.501,M,37.566,M,76.3,2006*61,37.233133427700004,137.0246378221,679602.933127699,4122655.6085983543
532,[2021-02-22 16:22:48.983] $GNGGA,72248.4,3713.988004883,N,13701.478269678999,E,4,12,0.99,94.50399999999999,M,37.566,M,76.4,2006*6B,37.23313341471667,137.0246378279833,679602.9336804701,4122655.607168935
533,[2021-02-22 16:22:49.077] $GNGGA,72248.5,3713.988004713,N,13701.478269956999,E,4,12,0.99,94.505,M,37.566,M,76.5,2006*6F,37.23313341188333,137.02463783261666,679602.9340982595,4122655.6068633506
534,[2021-02-22 16:22:49.202] $GNGGA,72248.6,3713.988005188,N,13701.478270416,E,4,12,0.99,94.506,M,37.566,M,76.6,2006*69,37.2331334198,137.02463784026668,679602.9347581705,4122655.607756272
535,[2021-02-22 16:22:49.280] $GNGGA,72248.7,3713.988004673,N,13701.4782706,E,4,12,0.99,94.50200000000001,M,37.566,M,76.7,2006*6A,37.23313341121666,137.02463784333335,679602.935050612,4122655.606809717
536,[2021-02-22 16:22:49.374] $GNGGA,72248.8,3713.988004952,N,13701.478270641,E,4,12,0.99,94.50399999999999,M,37.566,M,76.8,2006*65,37.23313341586667,137.0246378440167,679602.9351002006,4122655.60732696
537,[2021-02-22 16:22:49.483] $GNGGA,72248.9,3713.988004787,N,13701.478270308999,E,4,12,0.99,94.501,M,37.566,M,76.9,2006*6F,37.23313341311667,137.02463783848333,679602.9346158159,4122655.6070113303
538,[2021-02-22 16:22:49.577] $GNGGA,72249.0,3713.988003871,N,13701.478271794,E,4,12,0.99,94.5,M,37.566,M,77.0,2006*6E,37.23313339785,137.02463786323332,679602.9368478337,4122655.6053643627
539,[2021-02-22 16:22:49.702] $GNGGA,72249.1,3713.988004409,N,13701.47827157,E,4,12,0.99,94.501,M,37.566,M,77.1,2006*63,37.23313340681666,137.0246378595,679602.9364953362,4122655.606352187
540,[2021-02-22 16:22:49.780] $GNGGA,72249.2,3713.9880049020003,N,13701.478269903999,E,4,12,0.99,94.499,M,37.566,M,77.2,2006*63,37.233133415033336,137.02463783173332,679602.9340124136,4122655.607211188
541,[2021-02-22 16:22:49.874] $GNGGA,72249.3,3713.98800312,N,13701.478269911999,E,4,12,0.99,94.49799999999999,M,37.566,M,77.3,2006*6A,37.23313338533333,137.02463783186664,679602.9340947301,4122655.6039160364
542,[2021-02-22 16:22:49.983] $GNGGA,72249.4,3713.988003252,N,13701.478270556001,E,4,12,0.99,94.499,M,37.566,M,77.4,2006*69,37.23313338753333,137.02463784260001,679602.9350417597,4122655.6041805083
543,[2021-02-22 16:22:50.077] $GNGGA,72249.5,3713.988002925,N,13701.478271923,E,4,12,0.99,94.5,M,37.566,M,77.5,2006*6D,37.23313338208334,137.02463786538334,679602.9370760007,4122655.603619033
544,[2021-02-22 16:22:50.202] $GNGGA,72249.6,3713.988002587,N,13701.478271808,E,4,12,0.99,94.501,M,37.566,M,77.6,2006*60,37.23313337645,137.02463786346667,679602.9369193254,4122655.6029903414
545,[2021-02-22 16:22:50.280] $GNGGA,72249.7,3713.9880028909997,N,13701.478271586,E,4,12,0.99,94.499,M,37.566,M,77.7,2006*61,37.233133381516666,137.02463785976667,679602.9365790413,4122655.603545498
546,[2021-02-22 16:22:50.374] $GNGGA,72249.8,3713.9880030070003,N,13701.478270513999,E,4,12,0.99,94.495,M,37.566,M,77.8,2006*61,37.23313338345,137.0246378419,679602.9349893454,4122655.60372611
547,[2021-02-22 16:22:50.483] $GNGGA,72249.9,3713.988003302,N,13701.4782704,E,4,12,0.99,94.494,M,37.566,M,77.9,2006*62,37.23313338836667,137.02463784,679602.9348091122,4122655.6042680405
548,[2021-02-22 16:22:50.577] $GNGGA,72250.0,3713.988003755,N,13701.478270917,E,4,12,0.99,94.495,M,37.566,M,78.0,2006*69,37.23313339591667,137.02463784861666,679602.9355556518,4122655.6051221117
549,[2021-02-22 16:22:50.702] $GNGGA,72250.1,3713.988005008,N,13701.478270268,E,4,12,0.99,94.494,M,37.566,M,78.1,2006*62,37.2331334168,137.02463783780001,679602.9345464517,4122655.6074187234
550,[2021-02-22 16:22:50.780] $GNGGA,72250.2,3713.9880056159996,N,13701.47826995,E,4,12,0.99,94.493,M,37.566,M,78.2,2006*64,37.23313342693333,137.0246378325,679602.934052191,4122655.608533023
551,[2021-02-22 16:22:50.874] $GNGGA,72250.3,3713.988005312,N,13701.478269473,E,4,12,0.99,94.492,M,37.566,M,78.3,2006*68,37.23313342186667,137.02463782455,679602.9333589035,4122655.607955758
552,[2021-02-22 16:22:50.983] $GNGGA,72250.4,3713.9880066990004,N,13701.47826918,E,4,12,0.99,94.493,M,37.566,M,78.4,2006*65,37.23313344498334,137.02463781966662,679602.9328707916,4122655.610511431
553,[2021-02-22 16:22:51.077] $GNGGA,72250.5,3713.9880064520003,N,13701.478269259,E,4,12,0.99,94.495,M,37.566,M,78.5,2006*61,37.233133440866666,137.02463782098332,679602.9329973776,4122655.6100571593
554,[2021-02-22 16:22:51.202] $GNGGA,72250.6,3713.9880060890005,N,13701.478270803998,E,4,12,0.99,94.494,M,37.566,M,78.6,2006*68,37.23313343481668,137.0246378467333,679602.9352962414,4122655.60943474
555,[2021-02-22 16:22:51.280] $GNGGA,72250.7,3713.988006672,N,13701.47827169,E,4,12,0.99,94.493,M,37.566,M,78.7,2006*6F,37.23313344453334,137.02463786150003,679602.9365832628,4122655.610540888
556,[2021-02-22 16:22:51.374] $GNGGA,72250.8,3713.98800761,N,13701.47826942,E,4,12,0.99,94.493,M,37.566,M,78.8,2006*6A,37.23313346016666,137.02463782366667,679602.9331896352,4122655.6122037093
557,[2021-02-22 16:22:51.483] $GNGGA,72250.9,3713.988006814,N,13701.478268956002,E,4,12,0.99,94.494,M,37.566,M,78.9,2006*6B,37.233133446900005,137.02463781593335,679602.9325350332,4122655.6107170144
558,[2021-02-22 16:22:51.592] $GNGGA,72251.0,3713.988005336,N,13701.478270608999,E,4,12,0.99,94.493,M,37.566,M,79.0,2006*68,37.23313342226666,137.0246378434833,679602.9350376895,4122655.6080360687
559,[2021-02-22 16:22:51.671] $GNGGA,72251.1,3713.988006263,N,13701.478271361,E,4,12,0.99,94.494,M,37.566,M,79.1,2006*67,37.23313343771667,137.02463785601668,679602.9361129676,4122655.609774129
560,[2021-02-22 16:22:51.780] $GNGGA,72251.2,3713.9880059609995,N,13701.478271386999,E,4,12,0.99,94.492,M,37.566,M,79.2,2006*63,37.233133432683324,137.02463785644997,679602.9361633545,4122655.60921647
561,[2021-02-22 16:22:51.874] $GNGGA,72251.3,3713.9880042809996,N,13701.478272656,E,4,12,0.99,94.491,M,37.566,M,79.3,2006*6E,37.23313340468333,137.02463787760001,679602.9381062095,4122655.6061498285
562,[2021-02-22 16:22:51.999] $GNGGA,72251.4,3713.988003313,N,13701.478270638001,E,4,12,0.99,94.493,M,37.566,M,79.4,2006*6B,37.233133388549994,137.02463784396667,679602.9351605938,4122655.604295908
563,[2021-02-22 16:22:52.077] $GNGGA,72251.5,3713.9880024520003,N,13701.478271263999,E,4,12,0.99,94.49600000000001,M,37.566,M,79.5,2006*61,37.23313337420001,137.0246378544,679602.9361202829,4122655.6027234844
564,[2021-02-22 16:22:52.171] $GNGGA,72251.6,3713.9880025109996,N,13701.478271556001,E,4,12,0.99,94.494,M,37.566,M,79.6,2006*63,37.23313337518333,137.0246378592667,679602.9365497169,4122655.602841825
565,[2021-02-22 16:22:52.280] $GNGGA,72251.7,3713.988003792,N,13701.478271508,E,4,12,0.99,94.495,M,37.566,M,79.7,2006*61,37.23313339653333,137.02463785846666,679602.9364280669,4122655.6052092267
566,[2021-02-22 16:22:52.389] $GNGGA,72251.8,3713.988005304,N,13701.478269801999,E,4,12,0.99,94.494,M,37.566,M,79.8,2006*63,37.233133421733335,137.0246378300333,679602.9338456888,4122655.607951369
567,[2021-02-22 16:22:52.483] $GNGGA,72251.9,3713.98800354,N,13701.478269676001,E,4,12,0.99,94.494,M,37.566,M,79.9,2006*6E,37.23313339233334,137.02463782793336,679602.9337291617,4122655.6046852693
568,[2021-02-22 16:22:52.577] $GNGGA,72252.0,3713.98800354,N,13701.478269656001,E,4,12,0.99,94.494,M,37.566,M,80.0,2006*69,37.23313339233334,137.02463782760003,679602.9336995898,4122655.6046846365
569,[2021-02-22 16:22:52.686] $GNGGA,72252.1,3713.988004105,N,13701.478270501999,E,4,12,0.99,94.494,M,37.566,M,80.1,2006*61,37.233133401749996,137.02463784169998,679602.9349281704,4122655.60575623
570,[2021-02-22 16:22:52.795] $GNGGA,72252.2,3713.988003577,N,13701.478271248001,E,4,12,0.99,94.495,M,37.566,M,80.2,2006*6E,37.23313339295001,137.02463785413335,679602.9360521254,4122655.60480341
571,[2021-02-22 16:22:52.874] $GNGGA,72252.3,3713.988003226,N,13701.478269432,E,4,12,0.99,94.495,M,37.566,M,80.3,2006*6F,37.23313338709999,137.02463782386664,679602.9333807894,4122655.6040968774
572,[2021-02-22 16:22:52.983] $GNGGA,72252.4,3713.988002233,N,13701.478268743,E,4,12,0.99,94.49799999999999,M,37.566,M,80.4,2006*63,37.23313337054999,137.02463781238333,679602.9324012825,4122655.602238759
573,[2021-02-22 16:22:53.077] $GNGGA,72252.5,3713.988003034,N,13701.47826746,E,4,12,0.99,94.49600000000001,M,37.566,M,80.5,2006*64,37.233133383900004,137.02463779099998,679602.9304724963,4122655.603679449
574,[2021-02-22 16:22:53.186] $GNGGA,72252.6,3713.988002236,N,13701.478268239,E,4,12,0.99,94.49600000000001,M,37.566,M,80.6,2006*60,37.233133370599994,137.02463780398335,679602.9316559295,4122655.602228367
575,[2021-02-22 16:22:53.295] $GNGGA,72252.7,3713.9880021890003,N,13701.47826736,E,4,12,0.99,94.49600000000001,M,37.566,M,80.7,2006*65,37.23313336981667,137.02463778933333,679602.930358059,4122655.6021136506
576,[2021-02-22 16:22:53.374] $GNGGA,72252.8,3713.988001557,N,13701.478267456001,E,4,12,0.99,94.49600000000001,M,37.566,M,80.8,2006*63,37.233133359283336,137.02463779093338,679602.9305250121,4122655.6009479472
577,[2021-02-22 16:22:53.483] $GNGGA,72252.9,3713.988001537,N,13701.478268054,E,4,12,0.99,94.49799999999999,M,37.566,M,80.9,2006*62,37.23313335894999,137.02463780089997,679602.9314100253,4122655.600929874
578,[2021-02-22 16:22:53.577] $GNGGA,72253.0,3713.988002313,N,13701.478267793998,E,4,12,0.99,94.49600000000001,M,37.566,M,81.0,2006*6B,37.233133371883326,137.02463779656665,679602.9309948845,4122655.602356686
579,[2021-02-22 16:22:53.686] $GNGGA,72253.1,3713.988002525,N,13701.478267251001,E,4,12,0.99,94.495,M,37.566,M,81.1,2006*67,37.23313337541667,137.0246377875167,679602.9301835992,4122655.602731559
580,[2021-02-22 16:22:53.795] $GNGGA,72253.2,3713.988002652,N,13701.478266021999,E,4,12,0.99,94.495,M,37.566,M,81.2,2006*63,37.23313337753333,137.0246377670333,679602.9283613177,4122655.6029275456
581,[2021-02-22 16:22:53.874] $GNGGA,72253.3,3713.9880018070003,N,13701.47826586,E,4,12,0.99,94.494,M,37.566,M,81.3,2006*62,37.23313336345,137.0246377643333,679602.9281552007,4122655.6013597874
582,[2021-02-22 16:22:53.983] $GNGGA,72253.4,3713.9880020709998,N,13701.478267793,E,4,12,0.99,94.493,M,37.566,M,81.4,2006*6E,37.233133367849994,137.02463779654997,679602.931002976,4122655.6019091303
583,[2021-02-22 16:22:54.077] $GNGGA,72253.5,3713.988002196,N,13701.47826855,E,4,12,0.99,94.492,M,37.566,M,81.5,2006*65,37.23313336993333,137.02463780916665,679602.9321173682,4122655.6021642312
584,[2021-02-22 16:22:54.186] $GNGGA,72253.6,3713.9880022029997,N,13701.478268799,E,4,12,0.99,94.494,M,37.566,M,81.6,2006*6B,37.23313337005,137.02463781331664,679602.9324852726,4122655.6021850524
585,[2021-02-22 16:22:54.295] $GNGGA,72253.7,3713.988002007,N,13701.478268531,E,4,12,0.99,94.493,M,37.566,M,81.7,2006*6A,37.233133366783335,137.02463780885,679602.9320967508,4122655.601814119
586,[2021-02-22 16:22:54.373] $GNGGA,72253.8,3713.9880016909997,N,13701.47826903,E,4,12,0.99,94.491,M,37.566,M,81.8,2006*67,37.233133361516664,137.02463781716665,679602.9328470916,4122655.60124553
587,[2021-02-22 16:22:54.483] $GNGGA,72253.9,3713.988003147,N,13701.478266835,E,4,12,0.99,94.491,M,37.566,M,81.9,2006*6B,37.23313338578333,137.02463778058333,679602.929543878,4122655.603868649
588,[2021-02-22 16:22:54.577] $GNGGA,72254.0,3713.988003743,N,13701.478266842,E,4,12,0.99,94.48899999999999,M,37.566,M,82.0,2006*64,37.23313339571666,137.0246377807,679602.9295306532,4122655.604971036
589,[2021-02-22 16:22:54.686] $GNGGA,72254.1,3713.9880034390003,N,13701.478266623,E,4,12,0.99,94.49,M,37.566,M,82.1,2006*6B,37.23313339065,137.02463777704997,679602.9292188522,4122655.604401932
590,[2021-02-22 16:22:54.795] $GNGGA,72254.2,3713.988003916,N,13701.478267475,E,4,12,0.99,94.48700000000001,M,37.566,M,82.2,2006*6D,37.233133398599996,137.02463779125,679602.9304597919,4122655.6053109807
591,[2021-02-22 16:22:54.873] $GNGGA,72254.3,3713.988004497,N,13701.478267978,E,4,12,0.99,94.486,M,37.566,M,82.3,2006*6F,37.23313340828333,137.02463779963335,679602.931180568,4122655.6064013164
592,[2021-02-22 16:22:54.983] $GNGGA,72254.4,3713.98800468,N,13701.478269166,E,4,12,0.99,94.488,M,37.566,M,82.4,2006*6C,37.233133411333334,137.02463781943334,679602.9329299583,4122655.606777308
593,[2021-02-22 16:22:55.077] $GNGGA,72254.5,3713.988004847,N,13701.478269463001,E,4,12,0.99,94.48899999999999,M,37.566,M,82.5,2006*68,37.233133414116665,137.02463782438335,679602.9333625109,4122655.6070955293
594,[2021-02-22 16:22:55.186] $GNGGA,72254.6,3713.988004943,N,13701.478268781,E,4,12,0.99,94.48899999999999,M,37.566,M,82.6,2006*63,37.233133415716665,137.02463781301665,679602.932350276,4122655.6072514895
595,[2021-02-22 16:22:55.295] $GNGGA,72254.7,3713.988006084,N,13701.478268882,E,4,12,0.99,94.48700000000001,M,37.566,M,82.7,2006*61,37.23313343473333,137.0246378147,679602.9324544859,4122655.6093647038
596,[2021-02-22 16:22:55.373] $GNGGA,72254.8,3713.9880057620003,N,13701.478268688,E,4,12,0.99,94.48899999999999,M,37.566,M,82.8,2006*67,37.233133429366674,137.02463781146668,679602.9321803686,4122655.608763103
597,[2021-02-22 16:22:55.483] $GNGGA,72254.9,3713.988005723,N,13701.478268349,E,4,12,0.99,94.492,M,37.566,M,82.9,2006*60,37.233133428716656,137.02463780581664,679602.9316806474,4122655.6086802585
598,[2021-02-22 16:22:55.577] $GNGGA,72255.0,3713.9880068820003,N,13701.478267919,E,4,12,0.99,94.48899999999999,M,37.566,M,83.0,2006*6D,37.23313344803334,137.02463779865002,679602.9309989889,4122655.610809967
599,[2021-02-22 16:22:55.702] $GNGGA,72255.1,3713.988007313,N,13701.478267978,E,4,12,0.99,94.48899999999999,M,37.566,M,83.1,2006*68,37.23313345521667,137.02463779963335,679602.9310691799,4122655.6116088685
600,[2021-02-22 16:22:55.780] $GNGGA,72255.2,3713.9880070540003,N,13701.478269533001,E,4,12,0.99,94.49,M,37.566,M,83.2,2006*6D,37.233133450900006,137.02463782555003,679602.9333787182,4122655.611179089
601,[2021-02-22 16:22:55.873] $GNGGA,72255.3,3713.988007826,N,13701.478268983,E,4,12,0.99,94.488,M,37.566,M,83.3,2006*6F,37.23313346376666,137.02463781638335,679602.9325349252,4122655.61258933
602,[2021-02-22 16:22:55.983] $GNGGA,72255.4,3713.9880075759997,N,13701.478268978999,E,4,12,0.99,94.486,M,37.566,M,83.4,2006*6C,37.2331334596,137.02463781631667,679602.9325388996,4122655.6121268873
603,[2021-02-22 16:22:56.092] $GNGGA,72255.5,3713.988006898,N,13701.478269998,E,4,12,0.99,94.48700000000001,M,37.566,M,83.5,2006*6F,37.233133448299995,137.0246378333,679602.9340724556,4122655.6109053073
604,[2021-02-22 16:22:56.170] $GNGGA,72255.6,3713.9880078509996,N,13701.478269587,E,4,12,0.99,94.486,M,37.566,M,83.6,2006*68,37.233133464183325,137.02463782645,679602.9334270367,4122655.6126546655
605,[2021-02-22 16:22:56.280] $GNGGA,72255.7,3713.98800779,N,13701.478269135,E,4,12,0.99,94.488,M,37.566,M,83.7,2006*69,37.23313346316667,137.02463781891663,679602.9327610999,4122655.612527565
606,[2021-02-22 16:22:56.373] $GNGGA,72255.8,3713.988007431,N,13701.478267128,E,4,12,0.99,94.48899999999999,M,37.566,M,83.8,2006*62,37.233133457183335,137.0246377854667,679602.9298076665,4122655.6118001984
607,[2021-02-22 16:22:56.498] $GNGGA,72255.9,3713.988007718,N,13701.478266375,E,4,12,0.99,94.48700000000001,M,37.566,M,83.9,2006*6F,37.23313346196667,137.02463777291666,679602.9286828918,4122655.612307126
608,[2021-02-22 16:22:56.576] $GNGGA,72256.0,3713.98800639,N,13701.47826769,E,4,12,0.99,94.488,M,37.566,M,84.0,2006*6E,37.23313343983334,137.0246377948333,679602.9306798363,4122655.6098928815
609,[2021-02-22 16:22:56.670] $GNGGA,72256.1,3713.988006701,N,13701.478269828,E,4,12,0.99,94.48700000000001,M,37.566,M,84.1,2006*6E,37.23313344501666,137.02463783046665,679602.933828878,4122655.6105356235
610,[2021-02-22 16:22:56.780] $GNGGA,72256.2,3713.988007476,N,13701.478270635,E,4,12,0.99,94.488,M,37.566,M,84.2,2006*69,37.233133457933334,137.02463784391665,679602.9349914889,4122655.611994335
611,[2021-02-22 16:22:56.889] $GNGGA,72256.3,3713.98800597,N,13701.4782706,E,4,12,0.99,94.486,M,37.566,M,84.3,2006*68,37.23313343283333,137.02463784333335,679602.9349993085,4122655.609208224
612,[2021-02-22 16:22:56.983] $GNGGA,72256.4,3713.988006675,N,13701.478270081001,E,4,12,0.99,94.48899999999999,M,37.566,M,84.4,2006*61,37.23313344458334,137.02463783468335,679602.9342040044,4122655.610495546
613,[2021-02-22 16:22:57.076] $GNGGA,72256.5,3713.988006101,N,13701.478270568,E,4,12,0.99,94.48700000000001,M,37.566,M,84.5,2006*69,37.23313343501666,137.02463784280002,679602.9349468095,4122655.6094494653
614,[2021-02-22 16:22:57.186] $GNGGA,72256.6,3713.988005918,N,13701.478270848,E,4,12,0.99,94.488,M,37.566,M,84.6,2006*6A,37.23313343196667,137.02463784746666,679602.935368068,4122655.6091199056
615,[2021-02-22 16:22:57.295] $GNGGA,72256.7,3713.9880060240002,N,13701.478270636999,E,4,12,0.99,94.48899999999999,M,37.566,M,84.7,2006*68,37.233133433733336,137.02463784395,679602.9350518805,4122655.609309254
616,[2021-02-22 16:22:57.373] $GNGGA,72256.8,3713.988005536,N,13701.478271032,E,4,12,0.99,94.484,M,37.566,M,84.8,2006*62,37.2331334256,137.0246378505333,679602.9356552465,4122655.608419304
617,[2021-02-22 16:22:57.483] $GNGGA,72256.9,3713.9880051040004,N,13701.478270925,E,4,12,0.99,94.48200000000001,M,37.566,M,84.9,2006*6F,37.2331334184,137.02463784875,679602.9355141203,4122655.607617033
618,[2021-02-22 16:22:57.576] $GNGGA,72257.0,3713.988005614,N,13701.478270139,E,4,12,0.99,94.48100000000001,M,37.566,M,85.0,2006*6F,37.233133426900004,137.02463783565,679602.9343317334,4122655.6085353023
619,[2021-02-22 16:22:57.686] $GNGGA,72257.1,3713.9880073040003,N,13701.478269923,E,4,12,0.99,94.48100000000001,M,37.566,M,85.1,2006*62,37.23313345506667,137.02463783205002,679602.9339454992,4122655.611653741
620,[2021-02-22 16:22:57.795] $GNGGA,72257.2,3713.988008149,N,13701.478268087,E,4,12,0.99,94.48200000000001,M,37.566,M,85.2,2006*63,37.23313346915,137.02463780144998,679602.9311972806,4122655.613158307
621,[2021-02-22 16:22:57.873] $GNGGA,72257.3,3713.9880084540005,N,13701.478267696999,E,4,12,0.99,94.48299999999999,M,37.566,M,85.3,2006*63,37.23313347423334,137.02463779494997,679602.930608544,4122655.613710001
622,[2021-02-22 16:22:57.983] $GNGGA,72257.4,3713.988009578,N,13701.478268662,E,4,12,0.99,94.48100000000001,M,37.566,M,85.4,2006*6A,37.233133492966665,137.02463781103336,679602.9319909816,4122655.6158191045
623,[2021-02-22 16:22:58.076] $GNGGA,72257.5,3713.9880095179997,N,13701.478269342,E,4,12,0.99,94.48100000000001,M,37.566,M,85.5,2006*6A,37.23313349196666,137.02463782236666,679602.9329988286,4122655.6157296533
624,[2021-02-22 16:22:58.186] $GNGGA,72257.6,3713.988008846,N,13701.478270168998,E,4,12,0.99,94.48299999999999,M,37.566,M,85.6,2006*6C,37.23313348076666,137.02463783615,679602.9342482503,4122655.6145130997
625,[2021-02-22 16:22:58.295] $GNGGA,72257.7,3713.988008685,N,13701.478270666,E,4,12,0.99,94.48100000000001,M,37.566,M,85.7,2006*67,37.23313347808333,137.02463784443336,679602.9349895073,4122655.614231085
626,[2021-02-22 16:22:58.373] $GNGGA,72257.8,3713.988009597,N,13701.478270657,E,4,12,0.99,94.479,M,37.566,M,85.8,2006*63,37.23313349328333,137.02463784428335,679602.9349401231,4122655.615917337
627,[2021-02-22 16:22:58.483] $GNGGA,72257.9,3713.988009427,N,13701.478271361999,E,4,12,0.99,94.48100000000001,M,37.566,M,85.9,2006*6C,37.23313349045001,137.0246378560333,679602.9359892883,4122655.6156252604
628,[2021-02-22 16:22:58.576] $GNGGA,72258.0,3713.9880101759995,N,13701.478271044,E,4,12,0.99,94.48,M,37.566,M,86.0,2006*6F,37.23313350293332,137.0246378507333,679602.9354894524,4122655.617000304
629,[2021-02-22 16:22:58.686] $GNGGA,72258.1,3713.988010997,N,13701.47827046,E,4,12,0.99,94.48100000000001,M,37.566,M,86.1,2006*6A,37.23313351661667,137.02463784100001,679602.9345934534,4122655.618500087
630,[2021-02-22 16:22:58.795] $GNGGA,72258.2,3713.988010916,N,13701.478270628,E,4,12,0.99,94.48,M,37.566,M,86.2,2006*6C,37.23313351526666,137.02463784380004,679602.9348450704,4122655.6183556095
631,[2021-02-22 16:22:58.873] $GNGGA,72258.3,3713.9880118359997,N,13701.47827005,E,4,12,0.99,94.48100000000001,M,37.566,M,86.3,2006*66,37.23313353059999,137.02463783416667,679602.93395402,4122655.62003866
632,[2021-02-22 16:22:58.983] $GNGGA,72258.4,3713.988011048,N,13701.478271483998,E,4,12,0.99,94.478,M,37.566,M,86.4,2006*6D,37.23313351746667,137.02463785806663,679602.9361055619,4122655.6186267873
633,[2021-02-22 16:22:59.076] $GNGGA,72258.5,3713.98800986,N,13701.478271825,E,4,12,0.99,94.475,M,37.566,M,86.5,2006*6C,37.23313349766667,137.02463786375003,679602.9366567794,4122655.616440638
634,[2021-02-22 16:22:59.186] $GNGGA,72258.6,3713.9880098020003,N,13701.478271868998,E,4,12,0.99,94.476,M,37.566,M,86.6,2006*63,37.2331334967,137.0246378644833,679602.9367241273,4122655.616334771
635,[2021-02-22 16:22:59.295] $GNGGA,72258.7,3713.9880101390004,N,13701.47827197,E,4,12,0.99,94.475,M,37.566,M,86.7,2006*60,37.233133502316676,137.02463786616667,679602.936860144,4122655.616961171
636,[2021-02-22 16:22:59.373] $GNGGA,72258.8,3713.988009855,N,13701.478270937,E,4,12,0.99,94.47399999999999,M,37.566,M,86.8,2006*68,37.23313349758334,137.02463784895,679602.9353439377,4122655.6164033054
637,[2021-02-22 16:22:59.483] $GNGGA,72258.9,3713.98800827,N,13701.478269968,E,4,12,0.99,94.476,M,37.566,M,86.9,2006*64,37.233133471166674,137.0246378328,679602.9339738277,4122655.613441562
638,[2021-02-22 16:22:59.576] $GNGGA,72259.0,3713.988007901,N,13701.478269645,E,4,12,0.99,94.476,M,37.566,M,87.0,2006*66,37.233133465016664,137.02463782741665,679602.9335108196,4122655.6127489633
639,[2021-02-22 16:22:59.686] $GNGGA,72259.1,3713.988008095,N,13701.478270751,E,4,12,0.99,94.475,M,37.566,M,87.1,2006*62,37.23313346825,137.02463784584998,679602.9351385254,4122655.613142703
640,[2021-02-22 16:22:59.795] $GNGGA,72259.2,3713.988006547,N,13701.478271117,E,4,12,0.99,94.476,M,37.566,M,87.2,2006*60,37.233133442450004,137.02463785195,679602.935740941,4122655.610291606
641,[2021-02-22 16:22:59.873] $GNGGA,72259.3,3713.9880068420002,N,13701.478271258999,E,4,12,0.99,94.475,M,37.566,M,87.3,2006*62,37.233133447366676,137.02463785431664,679602.9359392392,4122655.610841633
642,[2021-02-22 16:22:59.982] $GNGGA,72259.4,3713.988006753,N,13701.478271666001,E,4,12,0.99,94.471,M,37.566,M,87.4,2006*61,37.23313344588333,137.02463786110005,679602.9365445748,4122655.6106899185
643,[2021-02-22 16:23:00.076] $GNGGA,72259.5,3713.988005621,N,13701.478271967,E,4,12,0.99,94.476,M,37.566,M,87.5,2006*6F,37.23313342701666,137.02463786611665,679602.9370344174,4122655.6086060614
644,[2021-02-22 16:23:00.201] $GNGGA,72259.6,3713.9880059879997,N,13701.478272876,E,4,12,0.99,94.478,M,37.566,M,87.6,2006*6F,37.23313343313333,137.02463788126667,679602.9383639905,4122655.6093134945
645,[2021-02-22 16:23:00.279] $GNGGA,72259.7,3713.988006557,N,13701.478272575,E,4,12,0.99,94.476,M,37.566,M,87.7,2006*62,37.23313344261666,137.02463787624998,679602.9378964085,4122655.61035621
646,[2021-02-22 16:23:00.373] $GNGGA,72259.8,3713.988005954,N,13701.478271638998,E,4,12,0.99,94.479,M,37.566,M,87.8,2006*69,37.23313343256666,137.02463786065,679602.9365362508,4122655.609211496
647,[2021-02-22 16:23:00.482] $GNGGA,72259.9,3713.98800697,N,13701.478271082,E,4,12,0.99,94.47399999999999,M,37.566,M,87.9,2006*67,37.233133449499995,137.02463785136663,679602.9356724559,4122655.6110727405
648,[2021-02-22 16:23:00.592] $GNGGA,72300.0,3713.988006948,N,13701.478271261001,E,4,12,0.99,94.477,M,37.566,M,88.0,2006*62,37.233133449133334,137.02463785435003,679602.9359380081,4122655.611037718
649,[2021-02-22 16:23:00.670] $GNGGA,72300.1,3713.988007279,N,13701.478270603,E,4,12,0.99,94.479,M,37.566,M,88.1,2006*65,37.23313345465,137.02463784338332,679602.9349519641,4122655.6116290158
650,[2021-02-22 16:23:00.779] $GNGGA,72300.2,3713.9880078,N,13701.478273264,E,4,12,0.99,94.477,M,37.566,M,88.2,2006*69,37.23313346333334,137.02463788773332,679602.9388660287,4122655.6126766484
651,[2021-02-22 16:23:00.873] $GNGGA,72300.3,3713.988008036,N,13701.47827488,E,4,12,0.99,94.476,M,37.566,M,88.3,2006*6D,37.23313346726667,137.02463791466667,679602.9412461836,4122655.6131641874
652,[2021-02-22 16:23:00.998] $GNGGA,72300.4,3713.98800896,N,13701.478276513999,E,4,12,0.99,94.47399999999999,M,37.566,M,88.4,2006*67,37.233133482666666,137.02463794189998,679602.9436257366,4122655.6149245943
653,[2021-02-22 16:23:01.076] $GNGGA,72300.5,3713.9880088759996,N,13701.478275671001,E,4,12,0.99,94.478,M,37.566,M,88.5,2006*6E,37.233133481266655,137.02463792785002,679602.9423825659,4122655.614742593
654,[2021-02-22 16:23:01.170] $GNGGA,72300.6,3713.988006798,N,13701.478275337,E,4,12,0.99,94.47399999999999,M,37.566,M,88.6,2006*64,37.233133446633325,137.02463792228335,679602.9419708934,4122655.61088924
655,[2021-02-22 16:23:01.279] $GNGGA,72300.7,3713.988004377,N,13701.478274998,E,4,12,0.99,94.478,M,37.566,M,88.7,2006*61,37.23313340628333,137.02463791663337,679602.9415654,4122655.6064014314
656,[2021-02-22 16:23:01.404] $GNGGA,72300.8,3713.988005278,N,13701.478275372,E,4,12,0.99,94.477,M,37.566,M,88.8,2006*6E,37.2331334213,137.02463792286667,679602.9420827708,4122655.608079456
657,[2021-02-22 16:23:01.482] $GNGGA,72300.9,3713.988007295,N,13701.478275835,E,4,12,0.99,94.478,M,37.566,M,88.9,2006*68,37.23313345491667,137.0246379305833,679602.942687597,4122655.6118240817
658,[2021-02-22 16:23:01.576] $GNGGA,72301.0,3713.988006863,N,13701.47827516,E,4,12,0.99,94.478,M,37.566,M,89.0,2006*63,37.23313344771667,137.02463791933332,679602.9417065998,4122655.611003846
659,[2021-02-22 16:23:01.685] $GNGGA,72301.1,3713.988006008,N,13701.4782741,E,4,12,0.99,94.476,M,37.566,M,89.1,2006*6F,37.23313343346667,137.02463790166667,679602.9401730576,4122655.6093891924
660,[2021-02-22 16:23:01.795] $GNGGA,72301.2,3713.988008954,N,13701.478273495,E,4,12,0.99,94.478,M,37.566,M,89.2,2006*61,37.233133482566664,137.02463789158335,679602.9391619506,4122655.614818015
661,[2021-02-22 16:23:01.873] $GNGGA,72301.3,3713.9880111290004,N,13701.478273053,E,4,12,0.99,94.477,M,37.566,M,89.3,2006*6A,37.23313351881667,137.0246378842167,679602.9384223585,4122655.6188262035
662,[2021-02-22 16:23:01.982] $GNGGA,72301.4,3713.9880105079997,N,13701.47827356,E,4,12,0.99,94.479,M,37.566,M,89.4,2006*67,37.23313350846666,137.02463789266665,679602.9391965901,4122655.617693839
663,[2021-02-22 16:23:02.076] $GNGGA,72301.5,3713.988011511,N,13701.478276253001,E,4,12,0.99,94.478,M,37.566,M,89.5,2006*6D,37.23313352518334,137.02463793755004,679602.9431389086,4122655.6196338353
664,[2021-02-22 16:23:02.185] $GNGGA,72301.6,3713.988009711,N,13701.47827555,E,4,12,0.99,94.48100000000001,M,37.566,M,89.6,2006*67,37.23313349518334,137.02463792583333,679602.9421706181,4122655.6162829106
665,[2021-02-22 16:23:02.295] $GNGGA,72301.7,3713.988010123,N,13701.478274182,E,4,12,0.99,94.48100000000001,M,37.566,M,89.7,2006*62,37.233133502049995,137.02463790303332,679602.9401315363,4122655.6170015414
666,[2021-02-22 16:23:02.373] $GNGGA,72301.8,3713.988008712,N,13701.478273836,E,4,12,0.99,94.477,M,37.566,M,89.8,2006*67,37.23313347853333,137.02463789726667,679602.9396757395,4122655.614381276
667,[2021-02-22 16:23:02.482] $GNGGA,72301.9,3713.988005755,N,13701.478273145,E,4,12,0.99,94.48,M,37.566,M,89.9,2006*6C,37.23313342925,137.02463788575,679602.9387709601,4122655.6088911225
668,[2021-02-22 16:23:02.576] $GNGGA,72302.0,3713.988005496,N,13701.47827206,E,4,12,0.99,94.48200000000001,M,37.566,M,90.0,2006*6E,37.233133424933335,137.02463786766668,679602.937176878,4122655.608377846
669,[2021-02-22 16:23:02.685] $GNGGA,72302.1,3713.988005522,N,13701.478273779,E,4,12,0.99,94.478,M,37.566,M,90.1,2006*6B,37.233133425366674,137.02463789631668,679602.9397176392,4122655.608480295
670,[2021-02-22 16:23:02.795] $GNGGA,72302.2,3713.988007159,N,13701.478274648001,E,4,12,0.99,94.476,M,37.566,M,90.2,2006*6B,37.23313345265,137.02463791080004,679602.9409378308,4122655.611535038
671,[2021-02-22 16:23:02.873] $GNGGA,72302.3,3713.9880076390004,N,13701.478275301,E,4,12,0.99,94.477,M,37.566,M,90.3,2006*62,37.23313346065001,137.02463792168334,679602.9418843957,4122655.612443342
672,[2021-02-22 16:23:02.982] $GNGGA,72302.4,3713.988007109,N,13701.478277083,E,4,12,0.99,94.478,M,37.566,M,90.4,2006*62,37.23313345181668,137.02463795138334,679602.9445403034,4122655.611519589
673,[2021-02-22 16:23:03.076] $GNGGA,72302.5,3713.988006825,N,13701.478278453,E,4,12,0.99,94.476,M,37.566,M,90.5,2006*6C,37.23313344708333,137.02463797421663,679602.9465772772,4122655.611037724
674,[2021-02-22 16:23:03.185] $GNGGA,72302.6,3713.988009614,N,13701.478279858999,E,4,12,0.99,94.47399999999999,M,37.566,M,90.6,2006*6A,37.23313349356666,137.02463799764996,679602.9485459308,4122655.616239813
675,[2021-02-22 16:23:03.295] $GNGGA,72302.7,3713.988008887,N,13701.478279295,E,4,12,0.99,94.476,M,37.566,M,90.7,2006*67,37.233133481450004,137.02463798825,679602.9477407355,4122655.6148775546
676,[2021-02-22 16:23:03.373] $GNGGA,72302.8,3713.98801041,N,13701.478275961,E,4,12,0.99,94.475,M,37.566,M,90.8,2006*63,37.23313350683333,137.02463793268333,679602.9427506916,4122655.61758855
677,[2021-02-22 16:23:03.482] $GNGGA,72302.9,3713.988011483,N,13701.478272916002,E,4,12,0.99,94.475,M,37.566,M,90.9,2006*6F,37.23313352471666,137.02463788193333,679602.9382057771,4122655.6194765116
678,[2021-02-22 16:23:03.576] $GNGGA,72303.0,3713.988012628,N,13701.478271333,E,4,12,0.99,94.47200000000001,M,37.566,M,91.0,2006*66,37.233133543799994,137.02463785555,679602.9358197921,4122655.621543862
679,[2021-02-22 16:23:03.685] $GNGGA,72303.1,3713.988014621,N,13701.478270618001,E,4,12,0.99,94.471,M,37.566,M,91.1,2006*67,37.23313357701666,137.02463784363334,679602.9346837292,4122655.6252068477
680,[2021-02-22 16:23:03.795] $GNGGA,72303.2,3713.988013573,N,13701.478273822,E,4,12,0.99,94.471,M,37.566,M,91.2,2006*60,37.233133559550005,137.02463789703333,679602.9394627581,4122655.623370147
681,[2021-02-22 16:23:03.873] $GNGGA,72303.3,3713.9880104490003,N,13701.478276136999,E,4,12,0.99,94.47200000000001,M,37.566,M,91.3,2006*60,37.23313350748334,137.02463793561665,679602.9430093905,4122655.617666239
682,[2021-02-22 16:23:03.982] $GNGGA,72303.4,3713.9880081290003,N,13701.478278171002,E,4,12,0.99,94.47399999999999,M,37.566,M,91.4,2006*60,37.23313346881667,137.02463796951668,679602.9461087219,4122655.6134402566
683,[2021-02-22 16:23:04.076] $GNGGA,72303.5,3713.988006337,N,13701.478279153998,E,4,12,0.99,94.473,M,37.566,M,91.5,2006*62,37.23313343895,137.02463798589994,679602.9476331065,4122655.61015745
684,[2021-02-22 16:23:04.201] $GNGGA,72303.6,3713.988005135,N,13701.478279513001,E,4,12,0.99,94.476,M,37.566,M,91.6,2006*63,37.233133418916665,137.02463799188334,679602.9482114923,4122655.607945979
685,[2021-02-22 16:23:04.279] $GNGGA,72303.7,3713.988003207,N,13701.478280878,E,4,12,0.99,94.47399999999999,M,37.566,M,91.7,2006*63,37.23313338678334,137.02463801463335,679602.9503061044,4122655.6044237544
686,[2021-02-22 16:23:04.373] $GNGGA,72303.8,3713.988002871,N,13701.478281448,E,4,12,0.99,94.473,M,37.566,M,91.8,2006*60,37.23313338118333,137.02463802413337,679602.9511622255,4122655.603820426
687,[2021-02-22 16:23:04.482] $GNGGA,72303.9,3713.9880026190003,N,13701.478279673,E,4,12,0.99,94.475,M,37.566,M,91.9,2006*6B,37.233133376983346,137.02463799455,679602.9485475956,4122655.6032982725
688,[2021-02-22 16:23:04.592] $GNGGA,72304.0,3713.988003228,N,13701.478277679,E,4,12,0.99,94.473,M,37.566,M,92.0,2006*6A,37.23313338713333,137.02463796131664,679602.9455750876,4122655.6043614107
689,[2021-02-22 16:23:04.670] $GNGGA,72304.1,3713.988004023,N,13701.478275383,E,4,12,0.99,94.47399999999999,M,37.566,M,92.1,2006*61,37.23313340038333,137.02463792305,679602.9421486751,4122655.6057589664
