,Format,Time,Latitude,LatType,Longitude,LonType,Status,Satellite,LevelAccuracy,Altitude(sea),M(sea),Altitude(geoid),M(geoid),DGPS use,checksum,Lat,Lon,UTM_X,UTM_Y
810,[2021-02-22 16:23:28.012] $GPGGA,72327.6,3713.9879997000003,N,13701.4782553,E,4,12,1.0,94.5827,M,37.55,M,5.0,0000*6A,37.23313332833334,137.02463758833335,679602.9126240648,4122655.597129381
811,[2021-02-22 16:23:28.105] $GPGGA,72327.7,3713.9879997000003,N,13701.478256,E,4,12,1.0,94.5798,M,37.55,M,5.0,0000*60,37.23313332833334,137.02463760000003,679602.9136591171,4122655.5971515193
812,[2021-02-22 16:23:28.215] $GPGGA,72327.8,3713.9880001,N,13701.4782551,E,4,12,1.0,94.5795,M,37.55,M,5.0,0000*60,37.233133335000005,137.024637585,679602.9123125125,4122655.597862764
813,[2021-02-22 16:23:28.324] $GPGGA,72327.9,3713.9879996,N,13701.4782542,E,4,12,1.0,94.5795,M,37.55,M,5.0,0000*62,37.23313332666666,137.02463757,679602.9110015122,4122655.596909662
814,[2021-02-22 16:23:28.402] $GPGGA,72328.0,3713.9879991999996,N,13701.4782542,E,4,12,1.0,94.5792,M,37.55,M,6.0,0000*64,37.23313331999999,137.02463757,679602.9110173343,4122655.596169952
815,[2021-02-22 16:23:28.512] $GPGGA,72328.1,3713.9879986,N,13701.478254499998,E,4,12,1.0,94.5793,M,37.55,M,6.0,0000*66,37.23313331000001,137.02463757499996,679602.911484655,4122655.595069879
816,[2021-02-22 16:23:28.621] $GPGGA,72328.2,3713.9879990000004,N,13701.478255000002,E,4,12,1.0,94.5808,M,37.55,M,1.0,0000*6C,37.233133316666674,137.02463758333334,679602.9122081595,4122655.595825401
817,[2021-02-22 16:23:28.730] $GPGGA,72328.3,3713.9879994000003,N,13701.4782558,E,4,12,1.0,94.5823,M,37.55,M,1.0,0000*68,37.23313332333334,137.02463759666668,679602.9133752534,4122655.5965904137
818,[2021-02-22 16:23:28.824] $GPGGA,72328.4,3713.9879996,N,13701.4782549,E,4,12,1.0,94.5827,M,37.55,M,1.0,0000*69,37.23313332666666,137.02463758166664,679602.91203656,4122655.5969318002
819,[2021-02-22 16:23:28.934] $GPGGA,72328.5,3713.9880005000005,N,13701.4782546,E,4,12,1.0,94.5834,M,37.55,M,1.0,0000*60,37.23313334166667,137.02463757666666,679602.9115573682,4122655.59858666
820,[2021-02-22 16:23:29.027] $GPGGA,72328.6,3713.9880015,N,13701.4782556,E,4,12,1.0,94.5852,M,37.55,M,1.0,0000*63,37.233133358333326,137.02463759333332,679602.912996457,4122655.600467558
821,[2021-02-22 16:23:29.121] $GPGGA,72328.7,3713.9880016999996,N,13701.4782568,E,4,12,1.0,94.5862,M,37.55,M,1.0,0000*6E,37.23313336166666,137.0246376133333,679602.9147629179,4122655.600875366
822,[2021-02-22 16:23:29.230] $GPGGA,72328.8,3713.9880013,N,13701.4782558,E,4,12,1.0,94.5882,M,37.55,M,1.0,0000*68,37.23313335500001,137.02463759666668,679602.9133000982,4122655.6001040307
823,[2021-02-22 16:23:29.309] $GPGGA,72328.9,3713.9879993,N,13701.4782549,E,4,12,1.0,94.5877,M,37.55,M,1.0,0000*64,37.23313332166667,137.02463758166664,679602.9120484266,4122655.5963770202
824,[2021-02-22 16:23:29.433] $GPGGA,72329.0,3713.9879973000006,N,13701.4782551,E,4,12,1.0,94.5871,M,37.55,M,2.0,0000*6E,37.23313328833334,137.024637585,679602.9124232676,4122655.592684801
825,[2021-02-22 16:23:29.527] $GPGGA,72329.1,3713.9879971,N,13701.478254700001,E,4,12,1.0,94.5869,M,37.55,M,2.0,0000*63,37.233133285,137.02463757833334,679602.9118397229,4122655.592302296
826,[2021-02-22 16:23:29.637] $GPGGA,72329.2,3713.9879983,N,13701.478255200002,E,4,12,1.0,94.5872,M,37.55,M,2.0,0000*63,37.233133305,137.0246375866667,679602.9125315807,4122655.594537237
827,[2021-02-22 16:23:29.715] $GPGGA,72329.3,3713.9879984,N,13701.478256,E,4,12,1.0,94.5866,M,37.55,M,2.0,0000*61,37.23313330666666,137.02463760000003,679602.9137105391,4122655.5947474637
828,[2021-02-22 16:23:29.824] $GPGGA,72329.4,3713.9879997000003,N,13701.4782562,E,4,12,1.0,94.5857,M,37.55,M,2.0,0000*64,37.23313332833334,137.02463760333333,679602.9139548427,4122655.597157845
829,[2021-02-22 16:23:29.902] $GPGGA,72329.5,3713.9880008,N,13701.4782562,E,4,12,1.0,94.5874,M,37.55,M,2.0,0000*6D,37.23313334666666,137.02463760333333,679602.9139113317,4122655.5991920438
830,[2021-02-22 16:23:30.027] $GPGGA,72329.6,3713.9880016,N,13701.4782574,E,4,12,1.0,94.5875,M,37.55,M,2.0,0000*67,37.23313336,137.02463762333335,679602.9156540618,4122655.6007094155
831,[2021-02-22 16:23:30.105] $GPGGA,72329.7,3713.9880020000005,N,13701.4782588,E,4,12,1.0,94.5888,M,37.55,M,2.0,0000*62,37.23313336666668,137.02463764666666,679602.9177083395,4122655.601493405
832,[2021-02-22 16:23:30.230] $GPGGA,72329.8,3713.9880018,N,13701.4782586,E,4,12,1.0,94.5907,M,37.55,M,2.0,0000*6E,37.23313336333333,137.02463764333334,679602.9174205227,4122655.6011172235
833,[2021-02-22 16:23:30.324] $GPGGA,72329.9,3713.9880023,N,13701.4782583,E,4,12,1.0,94.5914,M,37.55,M,2.0,0000*60,37.233133371666675,137.02463763833333,679602.916957153,4122655.6020323727
834,[2021-02-22 16:23:30.433] $GPGGA,72330.0,3713.9880016,N,13701.4782572,E,4,12,1.0,94.5897,M,37.55,M,3.0,0000*62,37.23313336,137.02463762,679602.9153583315,4122655.6007030895
835,[2021-02-22 16:23:30.527] $GPGGA,72330.1,3713.9880011,N,13701.4782568,E,4,12,1.0,94.5894,M,37.55,M,3.0,0000*6C,37.23313335166667,137.0246376133333,679602.9147866511,4122655.5997658046
836,[2021-02-22 16:23:30.637] $GPGGA,72330.2,3713.9879997000003,N,13701.4782565,E,4,12,1.0,94.5893,M,37.55,M,3.0,0000*64,37.23313332833334,137.02463760833336,679602.9143984391,4122655.5971673345
837,[2021-02-22 16:23:30.730] $GPGGA,72330.3,3713.9879991,N,13701.4782579,E,4,12,1.0,94.5893,M,37.55,M,3.0,0000*6E,37.23313331833334,137.02463763166668,679602.9164922724,4122655.596102049
838,[2021-02-22 16:23:30.808] $GPGGA,72330.4,3713.9879988000007,N,13701.478258200003,E,4,12,1.0,94.5912,M,37.55,M,3.0,0000*6D,37.23313331333334,137.02463763666674,679602.9169477377,4122655.595556756
839,[2021-02-22 16:23:30.933] $GPGGA,72330.5,3713.9879991999996,N,13701.4782574,E,4,12,1.0,94.5901,M,37.55,M,3.0,0000*6C,37.23313331999999,137.02463762333335,679602.9157489948,4122655.5962711605
840,[2021-02-22 16:23:31.012] $GPGGA,72330.6,3713.9880001,N,13701.4782558,E,4,12,1.0,94.5917,M,37.55,M,3.0,0000*63,37.233133335000005,137.02463759666668,679602.9133475648,4122655.597884903
841,[2021-02-22 16:23:31.137] $GPGGA,72330.7,3713.9880009000003,N,13701.4782555,E,4,12,1.0,94.5925,M,37.55,M,3.0,0000*66,37.23313334833334,137.02463759166668,679602.9128723261,4122655.5993548334
842,[2021-02-22 16:23:31.215] $GPGGA,72330.8,3713.9880011999994,N,13701.478255700002,E,4,12,1.0,94.5911,M,37.55,M,3.0,0000*66,37.23313335333332,137.02463759500003,679602.913156192,4122655.5999159385
843,[2021-02-22 16:23:31.324] $GPGGA,72330.9,3713.9880018,N,13701.4782561,E,4,12,1.0,94.5898,M,37.55,M,3.0,0000*68,37.23313336333333,137.02463760166668,679602.9137239145,4122655.6010381547
844,[2021-02-22 16:23:31.402] $GPGGA,72331.0,3713.9880023,N,13701.478256400002,E,4,12,1.0,94.5893,M,37.55,M,4.0,0000*61,37.233133371666675,137.02463760666672,679602.9141477332,4122655.601972281
845,[2021-02-22 16:23:31.511] $GPGGA,72331.1,3713.9880018,N,13701.4782565,E,4,12,1.0,94.5894,M,37.55,M,4.0,0000*6E,37.23313336333333,137.02463760833336,679602.9143153727,4122655.6010508053
846,[2021-02-22 16:23:31.621] $GPGGA,72331.2,3713.9880006999997,N,13701.4782576,E,4,12,1.0,94.5898,M,37.55,M,4.0,0000*6D,37.23313334499999,137.02463762666665,679602.9159853873,4122655.5990513954
847,[2021-02-22 16:23:31.730] $GPGGA,72331.3,3713.9880006999997,N,13701.478259,E,4,12,1.0,94.591,M,37.55,M,4.0,0000*65,37.23313334499999,137.02463764999996,679602.9180554873,4122655.599095674
848,[2021-02-22 16:23:31.808] $GPGGA,72331.4,3713.9880009000003,N,13701.4782606,E,4,12,1.0,94.5934,M,37.55,M,4.0,0000*66,37.23313334833334,137.02463767666669,679602.9204134131,4122655.599516135
849,[2021-02-22 16:23:31.933] $GPGGA,72331.5,3713.9880001,N,13701.4782627,E,4,12,1.0,94.5934,M,37.55,M,4.0,0000*6C,37.233133335000005,137.02463771166668,679602.9235502097,4122655.5981031354
850,[2021-02-22 16:23:32.011] $GPGGA,72331.6,3713.9879986999995,N,13701.478264,E,4,12,1.0,94.5939,M,37.55,M,4.0,0000*62,37.233133311666656,137.02463773333332,679602.9255278234,4122655.5955552678
851,[2021-02-22 16:23:32.121] $GPGGA,72331.7,3713.9879979999996,N,13701.478264899999,E,4,12,1.0,94.5941,M,37.55,M,4.0,0000*62,37.23313329999999,137.0246377483333,679602.9268862901,4122655.5942892423
852,[2021-02-22 16:23:32.215] $GPGGA,72331.8,3713.9879974,N,13701.478266,E,4,12,1.0,94.5946,M,37.55,M,4.0,0000*6A,37.233133290000005,137.02463776666667,679602.9285365336,4122655.593214471
853,[2021-02-22 16:23:32.324] $GPGGA,72331.9,3713.9879971,N,13701.4782675,E,4,12,1.0,94.5943,M,37.55,M,4.0,0000*6F,37.233133285,137.02463779166666,679602.9307663665,4122655.592707131
854,[2021-02-22 16:23:32.402] $GPGGA,72332.0,3713.9879966,N,13701.4782683,E,4,12,1.0,94.5914,M,37.55,M,5.0,0000*69,37.233133276666656,137.024637805,679602.9319690604,4122655.591807797
855,[2021-02-22 16:23:32.511] $GPGGA,72332.1,3713.9879963,N,13701.478269100002,E,4,12,1.0,94.5914,M,37.55,M,5.0,0000*6E,37.23313327166667,137.02463781833336,679602.9331638434,4122655.591278317
856,[2021-02-22 16:23:32.636] $GPGGA,72332.2,3713.9879968,N,13701.4782687,E,4,12,1.0,94.5907,M,37.55,M,5.0,0000*63,37.233133280000004,137.02463781166668,679602.9325526075,4122655.5921903034
857,[2021-02-22 16:23:32.715] $GPGGA,72332.3,3713.9879969000003,N,13701.4782682,E,4,12,1.0,94.5897,M,37.55,M,5.0,0000*6E,37.233133281666674,137.02463780333335,679602.9318093299,4122655.5923594176
858,[2021-02-22 16:23:32.824] $GPGGA,72332.4,3713.9879966,N,13701.478267700002,E,4,12,1.0,94.5881,M,37.55,M,5.0,0000*6B,37.233133276666656,137.02463779500005,679602.9310818766,4122655.5917888195
859,[2021-02-22 16:23:32.902] $GPGGA,72332.5,3713.9879973000006,N,13701.4782682,E,4,12,1.0,94.5879,M,37.55,M,5.0,0000*63,37.23313328833334,137.02463780333335,679602.9317935077,4122655.593099126
860,[2021-02-22 16:23:33.027] $GPGGA,72332.6,3713.9879976999996,N,13701.478267299997,E,4,12,1.0,94.5872,M,37.55,M,5.0,0000*61,37.23313329499999,137.0246377883333,679602.9304469031,4122655.5938103674
861,[2021-02-22 16:23:33.105] $GPGGA,72332.7,3713.9879969999997,N,13701.478264,E,4,12,1.0,94.5897,M,37.55,M,5.0,0000*6C,37.23313328333332,137.02463773333332,679602.9255950676,4122655.5924115055
862,[2021-02-22 16:23:33.230] $GPGGA,72332.8,3713.9879965000005,N,13701.478261000002,E,4,12,1.0,94.5894,M,37.55,M,5.0,0000*61,37.23313327500001,137.02463768333337,679602.9211789151,4122655.591391988
863,[2021-02-22 16:23:33.308] $GPGGA,72332.9,3713.9879969999997,N,13701.478259,E,4,12,1.0,94.5914,M,37.55,M,5.0,0000*66,37.23313328333332,137.02463764999996,679602.9182018423,4122655.5922533665
864,[2021-02-22 16:23:33.433] $GPGGA,72333.0,3713.9879979999996,N,13701.4782595,E,4,12,1.0,94.5905,M,37.55,M,6.0,0000*67,37.23313329999999,137.02463765833332,679602.9189016114,4122655.5941184526
865,[2021-02-22 16:23:33.527] $GPGGA,72333.1,3713.9879986999995,N,13701.478260799999,E,4,12,1.0,94.5897,M,37.55,M,6.0,0000*6C,37.233133311666656,137.02463767999998,679602.9207961608,4122655.595454059
866,[2021-02-22 16:23:33.621] $GPGGA,72333.2,3713.9879985,N,13701.47826,E,4,12,1.0,94.5927,M,37.55,M,1.0,0000*68,37.233133308333336,137.02463766666665,679602.9196211556,4122655.5950589045
867,[2021-02-22 16:23:33.714] $GPGGA,72333.3,3713.9879994999997,N,13701.478258500001,E,4,12,1.0,94.5948,M,37.55,M,1.0,0000*6F,37.23313332499999,137.0246376416667,679602.9173636385,4122655.5968607333
868,[2021-02-22 16:23:33.824] $GPGGA,72333.4,3713.9880004,N,13701.478258000001,E,4,12,1.0,94.5962,M,37.55,M,1.0,0000*62,37.233133339999995,137.02463763333333,679602.9165887143,4122655.598509264
869,[2021-02-22 16:23:33.902] $GPGGA,72333.5,3713.9880019,N,13701.4782595,E,4,12,1.0,94.5965,M,37.55,M,1.0,0000*6C,37.23313336500001,137.02463765833332,679602.9187473451,4122655.601330617
870,[2021-02-22 16:23:34.027] $GPGGA,72333.6,3713.9880024000004,N,13701.478259399999,E,4,12,1.0,94.5975,M,37.55,M,1.0,0000*61,37.233133373333345,137.02463765666667,679602.9185797056,4122655.6022520903
871,[2021-02-22 16:23:34.105] $GPGGA,72333.7,3713.9880024999998,N,13701.478259099998,E,4,12,1.0,94.5993,M,37.55,M,1.0,0000*6C,37.233133374999994,137.0246376516666,679602.9181321515,4122655.6024275282
872,[2021-02-22 16:23:34.230] $GPGGA,72333.8,3713.9880024999998,N,13701.478259099998,E,4,12,1.0,94.6006,M,37.55,M,1.0,0000*65,37.233133374999994,137.0246376516666,679602.9181321515,4122655.6024275282
873,[2021-02-22 16:23:34.324] $GPGGA,72333.9,3713.9880028000007,N,13701.4782595,E,4,12,1.0,94.6004,M,37.55,M,1.0,0000*6F,37.23313338000001,137.02463765833332,679602.9187117452,4122655.6029949617
874,[2021-02-22 16:23:34.402] $GPGGA,72334.0,3713.988003,N,13701.4782602,E,4,12,1.0,94.5993,M,37.55,M,2.0,0000*62,37.23313338333333,137.02463767,679602.9197388886,4122655.6033869544
875,[2021-02-22 16:23:34.511] $GPGGA,72334.1,3713.9880036,N,13701.4782609,E,4,12,1.0,94.5996,M,37.55,M,2.0,0000*6B,37.23313339333333,137.0246376816667,679602.9207502076,4122655.6045186585
876,[2021-02-22 16:23:34.605] $GPGGA,72334.2,3713.9880036,N,13701.478260499998,E,4,12,1.0,94.6017,M,37.55,M,2.0,0000*67,37.23313339333333,137.02463767499998,679602.920158745,4122655.6045060074
877,[2021-02-22 16:23:34.730] $GPGGA,72334.3,3713.9880031,N,13701.478260299999,E,4,12,1.0,94.601,M,37.55,M,2.0,0000*60,37.233133384999995,137.02463767166665,679602.9198827948,4122655.603575045
878,[2021-02-22 16:23:34.808] $GPGGA,72334.4,3713.9880024999998,N,13701.4782595,E,4,12,1.0,94.6027,M,37.55,M,2.0,0000*6A,37.233133374999994,137.02463765833332,679602.9187236119,4122655.602440179
879,[2021-02-22 16:23:34.933] $GPGGA,72334.5,3713.9880022,N,13701.4782601,E,4,12,1.0,94.6036,M,37.55,M,2.0,0000*62,37.23313337,137.02463766833336,679602.919622669,4122655.6019043745
880,[2021-02-22 16:23:35.011] $GPGGA,72334.6,3713.9880018,N,13701.478261000002,E,4,12,1.0,94.6029,M,37.55,M,2.0,0000*66,37.23313336333333,137.02463768333337,679602.9209692713,4122655.601193131
881,[2021-02-22 16:23:35.136] $GPGGA,72334.7,3713.9880018,N,13701.4782602,E,4,12,1.0,94.6028,M,37.55,M,2.0,0000*65,37.23313336333333,137.02463767,679602.9197863551,4122655.6011678283
882,[2021-02-22 16:23:35.214] $GPGGA,72334.8,3713.9880014,N,13701.4782597,E,4,12,1.0,94.6033,M,37.55,M,2.0,0000*63,37.23313335666666,137.02463766166665,679602.919062853,4122655.6004123054
883,[2021-02-22 16:23:35.324] $GPGGA,72334.9,3713.9880005000005,N,13701.478259200001,E,4,12,1.0,94.605,M,37.55,M,2.0,0000*62,37.23313334166667,137.02463765333337,679602.9183591353,4122655.598732148
884,[2021-02-22 16:23:35.402] $GPGGA,72335.0,3713.9879984,N,13701.478258500001,E,4,12,1.0,94.6032,M,37.55,M,3.0,0000*6F,37.23313330666666,137.0246376416667,679602.9174071494,4122655.594826534
885,[2021-02-22 16:23:35.511] $GPGGA,72335.1,3713.9879979,N,13701.478257799998,E,4,12,1.0,94.6034,M,37.55,M,3.0,0000*68,37.233133298333335,137.02463762999994,679602.9163918681,4122655.5938797584
886,[2021-02-22 16:23:35.621] $GPGGA,72335.2,3713.9879981,N,13701.4782586,E,4,12,1.0,94.6021,M,37.55,M,3.0,0000*69,37.23313330166667,137.02463764333334,679602.9175668778,4122655.5942749158
887,[2021-02-22 16:23:35.730] $GPGGA,72335.3,3713.9879985,N,13701.478259399999,E,4,12,1.0,94.6029,M,37.55,M,3.0,0000*67,37.233133308333336,137.02463765666667,679602.9187339719,4122655.5950399274
888,[2021-02-22 16:23:35.808] $GPGGA,72335.4,3713.9879986999995,N,13701.4782597,E,4,12,1.0,94.6048,M,37.55,M,3.0,0000*66,37.233133311666656,137.02463766166665,679602.9191696527,4122655.5954192677
889,[2021-02-22 16:23:35.933] $GPGGA,72335.5,3713.9879985,N,13701.478259600002,E,4,12,1.0,94.6046,M,37.55,M,3.0,0000*6A,37.233133308333336,137.02463766000005,679602.9190297043,4122655.595046253
890,[2021-02-22 16:23:36.027] $GPGGA,72335.6,3713.9879979,N,13701.478259,E,4,12,1.0,94.6036,M,37.55,M,3.0,0000*6B,37.233133298333335,137.02463764999996,679602.9181662425,4122655.5939177116
891,[2021-02-22 16:23:36.105] $GPGGA,72335.7,3713.9879975000003,N,13701.478258500001,E,4,12,1.0,94.604,M,37.55,M,3.0,0000*63,37.233133291666675,137.0246376416667,679602.9174427494,4122655.593162191
892,[2021-02-22 16:23:36.230] $GPGGA,72335.8,3713.9879967,N,13701.478258399999,E,4,12,1.0,94.6054,M,37.55,M,3.0,0000*6B,37.233133278333334,137.02463763999998,679602.9173265252,4122655.591679608
893,[2021-02-22 16:23:36.308] $GPGGA,72335.9,3713.9879960000003,N,13701.4782583,E,4,12,1.0,94.6049,M,37.55,M,3.0,0000*66,37.23313326666667,137.02463763833333,679602.9172063523,4122655.590381956
894,[2021-02-22 16:23:36.433] $GPGGA,72336.0,3713.9879961999995,N,13701.478258899999,E,4,12,1.0,94.6058,M,37.55,M,4.0,0000*63,37.23313326999999,137.0246376483333,679602.9180856249,4122655.5907707866
895,[2021-02-22 16:23:36.527] $GPGGA,72336.1,3713.9879965000005,N,13701.478258399999,E,4,12,1.0,94.6085,M,37.55,M,4.0,0000*68,37.23313327500001,137.02463763999998,679602.9173344362,4122655.591309756
896,[2021-02-22 16:23:36.621] $GPGGA,72336.2,3713.9879968,N,13701.4782586,E,4,12,1.0,94.6104,M,37.55,M,4.0,0000*6C,37.233133280000004,137.02463764333334,679602.9176182998,4122655.5918708616
897,[2021-02-22 16:23:36.714] $GPGGA,72336.3,3713.9879967,N,13701.4782586,E,4,12,1.0,94.6135,M,37.55,M,4.0,0000*60,37.233133278333334,137.02463764333334,679602.9176222554,4122655.591685933
898,[2021-02-22 16:23:36.824] $GPGGA,72336.4,3713.9879969999997,N,13701.4782588,E,4,12,1.0,94.6136,M,37.55,M,4.0,0000*6C,37.23313328333332,137.02463764666666,679602.9179061167,4122655.592247041
899,[2021-02-22 16:23:36.902] $GPGGA,72336.5,3713.9879969000003,N,13701.478257799998,E,4,12,1.0,94.6134,M,37.55,M,4.0,0000*68,37.233133281666674,137.02463762999994,679602.9164314235,4122655.592030487
900,[2021-02-22 16:23:37.027] $GPGGA,72336.6,3713.9879966,N,13701.478258500001,E,4,12,1.0,94.6122,M,37.55,M,4.0,0000*61,37.233133276666656,137.0246376416667,679602.9174783493,4122655.591497844
901,[2021-02-22 16:23:37.105] $GPGGA,72336.7,3713.9879966,N,13701.478258899999,E,4,12,1.0,94.611,M,37.55,M,4.0,0000*6D,37.233133276666656,137.0246376483333,679602.9180698028,4122655.591510496
902,[2021-02-22 16:23:37.230] $GPGGA,72336.8,3713.9879963,N,13701.4782593,E,4,12,1.0,94.6123,M,37.55,M,4.0,0000*6C,37.23313327166667,137.02463765500002,679602.9186731298,4122655.590968365
903,[2021-02-22 16:23:37.308] $GPGGA,72336.9,3713.9879956,N,13701.478259200001,E,4,12,1.0,94.6113,M,37.55,M,4.0,0000*69,37.23313326,137.02463765333337,679602.9185529569,4122655.589670712
904,[2021-02-22 16:23:37.433] $GPGGA,72337.0,3713.9879956999994,N,13701.478259,E,4,12,1.0,94.6091,M,37.55,M,5.0,0000*68,37.23313326166665,137.02463764999996,679602.9182532644,4122655.589849312
905,[2021-02-22 16:23:37.527] $GPGGA,72337.1,3713.9879964,N,13701.478258399999,E,4,12,1.0,94.6081,M,37.55,M,5.0,0000*6D,37.23313327333334,137.02463763999998,679602.9173383918,4122655.5911248275
906,[2021-02-22 16:23:37.620] $GPGGA,72337.2,3713.9879961999995,N,13701.4782581,E,4,12,1.0,94.6092,M,37.55,M,5.0,0000*6F,37.23313326999999,137.02463763499998,679602.9169027088,4122655.5907454835
907,[2021-02-22 16:23:37.714] $GPGGA,72337.3,3713.9879959,N,13701.478257299997,E,4,12,1.0,94.6099,M,37.55,M,5.0,0000*60,37.233133265,137.0246376216666,679602.9157316592,4122655.590165399
908,[2021-02-22 16:23:37.824] $GPGGA,72337.4,3713.9879965000005,N,13701.4782581,E,4,12,1.0,94.6081,M,37.55,M,5.0,0000*6C,37.23313327500001,137.02463763499998,679602.9168908421,4122655.5913002673
909,[2021-02-22 16:23:37.933] $GPGGA,72337.5,3713.9879975000003,N,13701.4782587,E,4,12,1.0,94.6076,M,37.55,M,5.0,0000*62,37.233133291666675,137.024637645,679602.9177384772,4122655.5931685157
910,[2021-02-22 16:23:38.011] $GPGGA,72337.6,3713.9879982,N,13701.4782587,E,4,12,1.0,94.6096,M,37.55,M,5.0,0000*67,37.23313330333334,137.024637645,679602.9177107884,4122655.5944630066
911,[2021-02-22 16:23:38.136] $GPGGA,72337.7,3713.9879988000007,N,13701.478258899999,E,4,12,1.0,94.6104,M,37.55,M,5.0,0000*68,37.23313331333334,137.0246376483333,679602.9179827808,4122655.5955788954
912,[2021-02-22 16:23:38.214] $GPGGA,72337.8,3713.9879984,N,13701.478259799998,E,4,12,1.0,94.6094,M,37.55,M,5.0,0000*63,37.23313330666666,137.0246376633333,679602.919329381,4122655.594867651
913,[2021-02-22 16:23:38.324] $GPGGA,72337.9,3713.9879974,N,13701.478259600002,E,4,12,1.0,94.6098,M,37.55,M,5.0,0000*6F,37.233133290000005,137.02463766000005,679602.9190732152,4122655.5930120535
914,[2021-02-22 16:23:38.417] $GPGGA,72338.0,3713.9879961999995,N,13701.478259799998,E,4,12,1.0,94.6085,M,37.55,M,6.0,0000*6F,37.23313326999999,137.0246376633333,679602.9194164029,4122655.5907992506
915,[2021-02-22 16:23:38.511] $GPGGA,72338.1,3713.9879960000003,N,13701.4782607,E,4,12,1.0,94.6078,M,37.55,M,6.0,0000*6B,37.23313326666667,137.02463767833333,679602.9207550987,4122655.590457863
916,[2021-02-22 16:23:38.605] $GPGGA,72338.2,3713.9879939,N,13701.4782576,E,4,12,1.0,94.6068,M,37.55,M,1.0,0000*67,37.23313323166667,137.02463762666665,679602.9162543642,4122655.586476344
917,[2021-02-22 16:23:38.730] $GPGGA,72338.3,3713.9879943000005,N,13701.4782562,E,4,12,1.0,94.6062,M,37.55,M,1.0,0000*64,37.23313323833334,137.02463760333333,679602.9141684419,4122655.587171775
918,[2021-02-22 16:23:38.808] $GPGGA,72338.4,3713.9879949,N,13701.4782572,E,4,12,1.0,94.606,M,37.55,M,1.0,0000*6A,37.23313324833334,137.02463762,679602.9156233529,4122655.588312966
919,[2021-02-22 16:23:38.933] $GPGGA,72338.5,3713.9879954000003,N,13701.478257299997,E,4,12,1.0,94.604,M,37.55,M,1.0,0000*64,37.23313325666667,137.0246376216666,679602.9157514368,4122655.589240765
920,[2021-02-22 16:23:39.011] $GPGGA,72338.6,3713.9879952,N,13701.4782569,E,4,12,1.0,94.605,M,37.55,M,1.0,0000*6B,37.233133253333335,137.02463761500002,679602.9151678943,4122655.588858258
921,[2021-02-22 16:23:39.120] $GPGGA,72338.7,3713.9879946,N,13701.4782572,E,4,12,1.0,94.6054,M,37.55,M,1.0,0000*61,37.233133243333334,137.02463762,679602.9156352195,4122655.587758184
922,[2021-02-22 16:23:39.214] $GPGGA,72338.8,3713.9879945000002,N,13701.478258000001,E,4,12,1.0,94.6043,M,37.55,M,1.0,0000*66,37.23313324166667,137.02463763333333,679602.9168220913,4122655.587598559
923,[2021-02-22 16:23:39.323] $GPGGA,72338.9,3713.9879952,N,13701.4782576,E,4,12,1.0,94.6028,M,37.55,M,1.0,0000*65,37.233133253333335,137.02463762666665,679602.9162029421,4122655.588880398
924,[2021-02-22 16:23:39.402] $GPGGA,72339.0,3713.9879963,N,13701.478257100001,E,4,12,1.0,94.6037,M,37.55,M,2.0,0000*65,37.23313327166667,137.02463761833334,679602.9154201136,4122655.590898785
925,[2021-02-22 16:23:39.511] $GPGGA,72339.1,3713.9879961999995,N,13701.4782568,E,4,12,1.0,94.604,M,37.55,M,2.0,0000*6D,37.23313326999999,137.0246376133333,679602.9149804728,4122655.590704368
926,[2021-02-22 16:23:39.636] $GPGGA,72339.2,3713.9879960999997,N,13701.4782565,E,4,12,1.0,94.6039,M,37.55,M,2.0,0000*6E,37.23313326833333,137.02463760833336,679602.9145408387,4122655.590509953
927,[2021-02-22 16:23:39.730] $GPGGA,72339.3,3713.9879951,N,13701.4782553,E,4,12,1.0,94.6035,M,37.55,M,2.0,0000*65,37.233133251666665,137.02463758833335,679602.9128060198,4122655.588622726
928,[2021-02-22 16:23:39.823] $GPGGA,72339.4,3713.9879952,N,13701.4782555,E,4,12,1.0,94.6054,M,37.55,M,2.0,0000*60,37.233133253333335,137.02463759166668,679602.9130977921,4122655.5888139796
929,[2021-02-22 16:23:39.917] $GPGGA,72339.5,3713.9879963,N,13701.478255700002,E,4,12,1.0,94.6057,M,37.55,M,2.0,0000*62,37.23313327166667,137.02463759500003,679602.9133500136,4122655.590854505
930,[2021-02-22 16:23:40.027] $GPGGA,72339.6,3713.9879960000003,N,13701.4782569,E,4,12,1.0,94.6056,M,37.55,M,2.0,0000*6E,37.23313326666667,137.02463761500002,679602.91513625,4122655.590337677
931,[2021-02-22 16:23:40.120] $GPGGA,72339.7,3713.9879966,N,13701.4782572,E,4,12,1.0,94.6031,M,37.55,M,2.0,0000*62,37.233133276666656,137.02463762,679602.9155561086,4122655.591456728
932,[2021-02-22 16:23:40.230] $GPGGA,72339.8,3713.9879969000003,N,13701.4782567,E,4,12,1.0,94.6034,M,37.55,M,2.0,0000*63,37.233133281666674,137.02463761166666,679602.91480492,4122655.5919956965
933,[2021-02-22 16:23:40.308] $GPGGA,72339.9,3713.9879965000005,N,13701.478257299997,E,4,12,1.0,94.6028,M,37.55,M,2.0,0000*66,37.23313327500001,137.0246376216666,679602.9157079259,4122655.5912749646
934,[2021-02-22 16:23:40.433] $GPGGA,72340.0,3713.9879967,N,13701.4782574,E,4,12,1.0,94.602,M,37.55,M,3.0,0000*6D,37.233133278333334,137.02463762333335,679602.9158478833,4122655.5916479807
935,[2021-02-22 16:23:40.527] $GPGGA,72340.1,3713.9879971,N,13701.478258500001,E,4,12,1.0,94.6022,M,37.55,M,3.0,0000*67,37.233133285,137.0246376416667,679602.9174585715,4122655.5924224816
936,[2021-02-22 16:23:40.636] $GPGGA,72340.2,3713.9879978,N,13701.478258399999,E,4,12,1.0,94.6036,M,37.55,M,3.0,0000*69,37.23313329666666,137.02463763999998,679602.9172830142,4122655.593713809
937,[2021-02-22 16:23:40.714] $GPGGA,72340.3,3713.9879981,N,13701.478258500001,E,4,12,1.0,94.6049,M,37.55,M,3.0,0000*67,37.23313330166667,137.0246376416667,679602.9174190161,4122655.5942717534
938,[2021-02-22 16:23:40.823] $GPGGA,72340.4,3713.9879983,N,13701.478258399999,E,4,12,1.0,94.6064,M,37.55,M,3.0,0000*6C,37.233133305,137.02463763999998,679602.9172632364,4122655.594638446
939,[2021-02-22 16:23:40.901] $GPGGA,72340.5,3713.9879982,N,13701.4782583,E,4,12,1.0,94.6071,M,37.55,M,3.0,0000*6F,37.23313330333334,137.02463763833333,679602.9171193303,4122655.5944503564
940,[2021-02-22 16:23:41.026] $GPGGA,72340.6,3713.9879981,N,13701.478258500001,E,4,12,1.0,94.6067,M,37.55,M,3.0,0000*6E,37.23313330166667,137.0246376416667,679602.9174190161,4122655.5942717534
941,[2021-02-22 16:23:41.105] $GPGGA,72340.7,3713.9879979,N,13701.478258399999,E,4,12,1.0,94.6088,M,37.55,M,3.0,0000*68,37.233133298333335,137.02463763999998,679602.9172790586,4122655.593898736
942,[2021-02-22 16:23:41.230] $GPGGA,72340.8,3713.9879975999997,N,13701.478257799998,E,4,12,1.0,94.6085,M,37.55,M,3.0,0000*66,37.233133293333324,137.02463762999994,679602.9164037348,4122655.593324976
943,[2021-02-22 16:23:41.308] $GPGGA,72340.9,3713.9879978,N,13701.478257700002,E,4,12,1.0,94.6079,M,37.55,M,3.0,0000*65,37.23313329666666,137.02463762833338,679602.9162479688,4122655.5936916694
944,[2021-02-22 16:23:41.433] $GPGGA,72341.0,3713.9879971999994,N,13701.478258500001,E,4,12,1.0,94.6066,M,37.55,M,4.0,0000*63,37.23313328666666,137.0246376416667,679602.917454616,4122655.592607408
945,[2021-02-22 16:23:41.526] $GPGGA,72341.1,3713.9879976999996,N,13701.4782583,E,4,12,1.0,94.6057,M,37.55,M,4.0,0000*63,37.23313329499999,137.02463763833333,679602.9171391081,4122655.593525717
946,[2021-02-22 16:23:41.605] $GPGGA,72341.2,3713.9879983,N,13701.478258200003,E,4,12,1.0,94.6049,M,37.55,M,4.0,0000*65,37.233133305,137.02463763666674,679602.9169675153,4122655.5946321203
947,[2021-02-22 16:23:41.730] $GPGGA,72341.3,3713.9879983,N,13701.478257799998,E,4,12,1.0,94.6065,M,37.55,M,4.0,0000*6F,37.233133305,137.02463762999994,679602.9163760459,4122655.5946194683
948,[2021-02-22 16:23:41.823] $GPGGA,72341.4,3713.9879988000007,N,13701.478257700002,E,4,12,1.0,94.6068,M,37.55,M,4.0,0000*61,37.23313331333334,137.02463762833338,679602.9162084133,4122655.5955409417
949,[2021-02-22 16:23:41.933] $GPGGA,72341.5,3713.9879994999997,N,13701.478257100001,E,4,12,1.0,94.6076,M,37.55,M,4.0,0000*65,37.23313332499999,137.02463761833334,679602.9152935363,4122655.5968164545
950,[2021-02-22 16:23:42.011] $GPGGA,72341.6,3713.9880001999995,N,13701.4782583,E,4,12,1.0,94.6075,M,37.55,M,4.0,0000*69,37.23313333666666,137.02463763833333,679602.9170402194,4122655.598148899
951,[2021-02-22 16:23:42.136] $GPGGA,72341.7,3713.9880020000005,N,13701.478259,E,4,12,1.0,94.6068,M,37.55,M,4.0,0000*66,37.23313336666668,137.02463764999996,679602.9180040652,4122655.601499731
952,[2021-02-22 16:23:42.214] $GPGGA,72341.8,3713.9880029,N,13701.4782595,E,4,12,1.0,94.6077,M,37.55,M,4.0,0000*6B,37.233133381666676,137.02463765833332,679602.9187077896,4122655.6031798897
953,[2021-02-22 16:23:42.323] $GPGGA,72341.9,3713.9880034000003,N,13701.4782614,E,4,12,1.0,94.6087,M,37.55,M,4.0,0000*63,37.23313339,137.02463768999996,679602.921497434,4122655.6041646176
954,[2021-02-22 16:23:42.401] $GPGGA,72342.0,3713.9880024000004,N,13701.478261000002,E,4,12,1.0,94.6073,M,37.55,M,5.0,0000*66,37.233133373333345,137.02463768333337,679602.920945538,4122655.602302696
955,[2021-02-22 16:23:42.511] $GPGGA,72342.1,3713.9880008,N,13701.478259900001,E,4,12,1.0,94.6071,M,37.55,M,5.0,0000*69,37.23313334666666,137.024637665,679602.9193823165,4122655.5993090672
956,[2021-02-22 16:23:42.604] $GPGGA,72342.2,3713.9879989,N,13701.478258899999,E,4,12,1.0,94.6081,M,37.55,M,5.0,0000*62,37.233133315,137.0246376483333,679602.9179788253,4122655.5957638235
957,[2021-02-22 16:23:42.729] $GPGGA,72342.3,3713.9879983,N,13701.478258500001,E,4,12,1.0,94.6082,M,37.55,M,5.0,0000*66,37.233133305,137.0246376416667,679602.917411105,4122655.594641608
958,[2021-02-22 16:23:42.808] $GPGGA,72342.4,3713.9879985,N,13701.4782583,E,4,12,1.0,94.6082,M,37.55,M,5.0,0000*61,37.233133308333336,137.02463763833333,679602.9171074637,4122655.5950051364
959,[2021-02-22 16:23:42.933] $GPGGA,72342.5,3713.9879964,N,13701.478257299997,E,4,12,1.0,94.6074,M,37.55,M,5.0,0000*69,37.23313327333334,137.0246376216666,679602.9157118815,4122655.591090036
960,[2021-02-22 16:23:43.011] $GPGGA,72342.6,3713.9879949,N,13701.478256299999,E,4,12,1.0,94.6088,M,37.55,M,5.0,0000*67,37.23313324833334,137.02463760499998,679602.9142925726,4122655.588284502
961,[2021-02-22 16:23:43.120] $GPGGA,72342.7,3713.9879948,N,13701.4782541,E,4,12,1.0,94.6101,M,37.55,M,5.0,0000*67,37.23313324666667,137.02463756833336,679602.9110435143,4122655.588029992
962,[2021-02-22 16:23:43.229] $GPGGA,72342.8,3713.9879946999995,N,13701.478253,E,4,12,1.0,94.6091,M,37.55,M,5.0,0000*69,37.233133245,137.02463755,679602.9094209594,4122655.5878102733
963,[2021-02-22 16:23:43.308] $GPGGA,72342.9,3713.9879945000002,N,13701.478251499999,E,4,12,1.0,94.6089,M,37.55,M,5.0,0000*64,37.23313324166667,137.02463752499997,679602.9072109021,4122655.587392979
964,[2021-02-22 16:23:43.433] $GPGGA,72343.0,3713.9879944,N,13701.478249700001,E,4,12,1.0,94.6079,M,37.55,M,6.0,0000*6A,37.23313324,137.02463749500004,679602.904553304,4122655.5871511213
965,[2021-02-22 16:23:43.526] $GPGGA,72343.1,3713.9879946999995,N,13701.4782472,E,4,12,1.0,94.6078,M,37.55,M,6.0,0000*62,37.233133245,137.02463745333336,679602.9008448248,4122655.5876268325
966,[2021-02-22 16:23:43.636] $GPGGA,72343.2,3713.9879998,N,13701.4782473,E,4,12,1.0,94.617,M,37.55,M,1.0,0000*6C,37.233133329999994,137.024637455,679602.9007909561,4122655.597061285
967,[2021-02-22 16:23:43.714] $GPGGA,72343.3,3713.9880034999996,N,13701.478248700001,E,4,12,1.0,94.6244,M,37.55,M,1.0,0000*6A,37.23313339166666,137.02463747833337,679602.9027147056,4122655.6039478714
968,[2021-02-22 16:23:43.823] $GPGGA,72343.4,3713.9880056,N,13701.478250799999,E,4,12,1.0,94.6294,M,37.55,M,1.0,0000*63,37.23313342666667,137.02463751333332,679602.9057367869,4122655.6078977613
969,[2021-02-22 16:23:43.901] $GPGGA,72343.5,3713.9880061,N,13701.4782528,E,4,12,1.0,94.6327,M,37.55,M,1.0,0000*6D,37.233133435,137.02463754666664,679602.9086742952,4122655.6088856533
970,[2021-02-22 16:23:44.026] $GPGGA,72343.6,3713.9880056,N,13701.478254,E,4,12,1.0,94.6354,M,37.55,M,1.0,0000*60,37.23313342666667,137.02463756666666,679602.9104684495,4122655.607998971
971,[2021-02-22 16:23:44.104] $GPGGA,72343.7,3713.9880049000003,N,13701.4782556,E,4,12,1.0,94.6363,M,37.55,M,1.0,0000*6C,37.23313341500001,137.02463759333332,679602.9128619684,4122655.6067550867
972,[2021-02-22 16:23:44.229] $GPGGA,72343.8,3713.9880049000003,N,13701.478258500001,E,4,12,1.0,94.6371,M,37.55,M,1.0,0000*6E,37.23313341500001,137.0246376416667,679602.9171500391,4122655.6068468075
973,[2021-02-22 16:23:44.307] $GPGGA,72343.9,3713.988004,N,13701.478260499998,E,4,12,1.0,94.6362,M,37.55,M,1.0,0000*6F,37.2331334,137.02463767499998,679602.9201429229,4122655.605245716
974,[2021-02-22 16:23:44.433] $GPGGA,72344.0,3713.9880034000003,N,13701.478259399999,E,4,12,1.0,94.637,M,37.55,M,2.0,0000*69,37.23313339,137.02463765666667,679602.9185401503,4122655.604101362
975,[2021-02-22 16:23:44.526] $GPGGA,72344.1,3713.9880024999998,N,13701.478260299999,E,4,12,1.0,94.636,M,37.55,M,2.0,0000*64,37.233133374999994,137.02463767166665,679602.919906528,4122655.602465481
976,[2021-02-22 16:23:44.620] $GPGGA,72344.2,3713.9880021,N,13701.4782616,E,4,12,1.0,94.6339,M,37.55,M,2.0,0000*6B,37.23313336833333,137.02463769333332,679602.9218445885,4122655.6017668885
977,[2021-02-22 16:23:44.714] $GPGGA,72344.3,3713.9880043000007,N,13701.478263699999,E,4,12,1.0,94.634,M,37.55,M,2.0,0000*63,37.23313340500001,137.02463772833332,679602.9248627188,4122655.605901708
978,[2021-02-22 16:23:44.823] $GPGGA,72344.4,3713.988007,N,13701.4782654,E,4,12,1.0,94.6342,M,37.55,M,2.0,0000*63,37.23313345,137.02463775666664,679602.9272696134,4122655.6109485095
979,[2021-02-22 16:23:44.901] $GPGGA,72344.5,3713.9880083000003,N,13701.4782661,E,4,12,1.0,94.6331,M,37.55,M,2.0,0000*6C,37.23313347166667,137.02463776833332,679602.9282532434,4122655.613374703
980,[2021-02-22 16:23:45.026] $GPGGA,72344.6,3713.9880077,N,13701.4782653,E,4,12,1.0,94.6319,M,37.55,M,2.0,0000*6F,37.23313346166667,137.024637755,679602.9270940606,4122655.612239837
981,[2021-02-22 16:23:45.136] $GPGGA,72344.7,3713.9880061999997,N,13701.478264899999,E,4,12,1.0,94.6311,M,37.55,M,2.0,0000*69,37.23313343666666,137.0246377483333,679602.9265619356,4122655.6094532777
982,[2021-02-22 16:23:45.214] $GPGGA,72344.8,3713.9880043000007,N,13701.478265099999,E,4,12,1.0,94.6298,M,37.55,M,2.0,0000*6C,37.23313340500001,137.02463775166666,679602.926932821,4122655.6059459876
983,[2021-02-22 16:23:45.323] $GPGGA,72344.9,3713.9880013,N,13701.478265099999,E,4,12,1.0,94.6287,M,37.55,M,2.0,0000*66,37.23313335500001,137.02463775166666,679602.9270514874,4122655.6003981684
984,[2021-02-22 16:23:45.401] $GPGGA,72345.0,3713.9879983,N,13701.478264500001,E,4,12,1.0,94.6261,M,37.55,M,3.0,0000*64,37.233133305,137.0246377416667,679602.9262829721,4122655.5948313754
985,[2021-02-22 16:23:45.511] $GPGGA,72345.1,3713.9879964,N,13701.4782636,E,4,12,1.0,94.6252,M,37.55,M,3.0,0000*68,37.23313327333334,137.02463772666667,679602.9250273426,4122655.591289292
986,[2021-02-22 16:23:45.604] $GPGGA,72345.2,3713.9879934,N,13701.478263699999,E,4,12,1.0,94.6223,M,37.55,M,3.0,0000*69,37.23313322333333,137.02463772833332,679602.925293873,4122655.5857446375
987,[2021-02-22 16:23:45.729] $GPGGA,72345.3,3713.9879892,N,13701.478265700001,E,4,12,1.0,94.6193,M,37.55,M,3.0,0000*6B,37.23313315333333,137.0246377616667,679602.9284172986,4122655.578040948
988,[2021-02-22 16:23:45.807] $GPGGA,72345.4,3713.9879856,N,13701.478267299997,E,4,12,1.0,94.6163,M,37.55,M,3.0,0000*6D,37.233133093333336,137.0246377883333,679602.9309255237,4122655.5714341723
989,[2021-02-22 16:23:45.932] $GPGGA,72345.5,3713.9879859,N,13701.478269,E,4,12,1.0,94.6138,M,37.55,M,3.0,0000*60,37.233133098333326,137.02463781666668,679602.9334273558,4122655.5720427204
990,[2021-02-22 16:23:46.010] $GPGGA,72345.6,3713.9879867,N,13701.478270399999,E,4,12,1.0,94.613,M,37.55,M,3.0,0000*6A,37.23313311166666,137.02463784,679602.9354658114,4122655.5735664177
991,[2021-02-22 16:23:46.135] $GPGGA,72345.7,3713.9879875,N,13701.478269,E,4,12,1.0,94.6144,M,37.55,M,3.0,0000*67,37.233133124999995,137.02463781666668,679602.9333640671,4122655.575001557
992,[2021-02-22 16:23:46.214] $GPGGA,72345.8,3713.9879886,N,13701.478266400001,E,4,12,1.0,94.6155,M,37.55,M,3.0,0000*6F,37.233133143333326,137.02463777333338,679602.9294760841,4122655.576953524
993,[2021-02-22 16:23:46.323] $GPGGA,72345.9,3713.9879911,N,13701.478265099999,E,4,12,1.0,94.6177,M,37.55,M,3.0,0000*67,37.233133185,137.02463775166666,679602.9274549527,4122655.5815355885
994,[2021-02-22 16:23:46.401] $GPGGA,72346.0,3713.9879935999998,N,13701.478265099999,E,4,12,1.0,94.6174,M,37.55,M,4.0,0000*6C,37.233133226666666,137.02463775166666,679602.9273560641,4122655.5861587706
995,[2021-02-22 16:23:46.510] $GPGGA,72346.1,3713.9879965000005,N,13701.4782654,E,4,12,1.0,94.6186,M,37.55,M,4.0,0000*63,37.23313327500001,137.02463775666664,679602.9276849453,4122655.5915311496
996,[2021-02-22 16:23:46.620] $GPGGA,72346.2,3713.9879993,N,13701.4782662,E,4,12,1.0,94.6221,M,37.55,M,4.0,0000*62,37.23313332166667,137.02463776999997,679602.928757104,4122655.5967344143
997,[2021-02-22 16:23:46.729] $GPGGA,72346.3,3713.9880009000003,N,13701.478267899998,E,4,12,1.0,94.6239,M,37.55,M,4.0,0000*6C,37.23313334833334,137.0246377983333,679602.9312075095,4122655.599747019
998,[2021-02-22 16:23:46.823] $GPGGA,72346.4,3713.9880021,N,13701.478268599998,E,4,12,1.0,94.6253,M,37.55,M,4.0,0000*6D,37.23313336833333,137.02463780999997,679602.9321950952,4122655.601988283
999,[2021-02-22 16:23:46.917] $GPGGA,72346.5,3713.9880016999996,N,13701.4782689,E,4,12,1.0,94.6263,M,37.55,M,4.0,0000*65,37.23313336166666,137.02463781500003,679602.9326545161,4122655.6012580614
1000,[2021-02-22 16:23:47.026] $GPGGA,72346.6,3713.9880006999997,N,13701.4782692,E,4,12,1.0,94.6271,M,37.55,M,4.0,0000*6E,37.23313334499999,137.02463782,679602.9331376634,4122655.5994182783
1001,[2021-02-22 16:23:47.104] $GPGGA,72346.7,3713.988,N,13701.478269100002,E,4,12,1.0,94.6283,M,37.55,M,4.0,0000*66,37.23313333333333,137.02463781833336,679602.9330174882,4122655.598120624
1002,[2021-02-22 16:23:47.229] $GPGGA,72346.8,3713.9879990000004,N,13701.4782683,E,4,12,1.0,94.6276,M,37.55,M,4.0,0000*66,37.233133316666674,137.024637805,679602.9318741274,4122655.5962460516
1003,[2021-02-22 16:23:47.307] $GPGGA,72346.9,3713.9879984,N,13701.478267899998,E,4,12,1.0,94.6281,M,37.55,M,4.0,0000*6F,37.23313330666666,137.0246377983333,679602.931306398,4122655.595123835
1004,[2021-02-22 16:23:47.432] $GPGGA,72347.0,3713.9879983,N,13701.478266499998,E,4,12,1.0,94.6271,M,37.55,M,5.0,0000*63,37.233133305,137.02463777499997,679602.9292402536,4122655.59489463
1005,[2021-02-22 16:23:47.526] $GPGGA,72347.1,3713.9879981,N,13701.478265200001,E,4,12,1.0,94.6262,M,37.55,M,5.0,0000*66,37.23313330166667,137.02463775333334,679602.9273259309,4122655.5944836596
1006,[2021-02-22 16:23:47.635] $GPGGA,72347.2,3713.9879985,N,13701.4782633,E,4,12,1.0,94.6254,M,37.55,M,5.0,0000*63,37.233133308333336,137.02463772166664,679602.92450068,4122655.5951632755
1007,[2021-02-22 16:23:47.713] $GPGGA,72347.3,3713.9879969000003,N,13701.478261200002,E,4,12,1.0,94.6262,M,37.55,M,5.0,0000*66,37.233133281666674,137.02463768666667,679602.9214588185,4122655.592138022
1008,[2021-02-22 16:23:47.823] $GPGGA,72347.4,3713.9879950000004,N,13701.478261000002,E,4,12,1.0,94.6259,M,37.55,M,5.0,0000*61,37.23313325,137.02463768333337,679602.9212382482,4122655.5886180787
1009,[2021-02-22 16:23:47.901] $GPGGA,72347.5,3713.9879946999995,N,13701.4782622,E,4,12,1.0,94.6251,M,37.55,M,5.0,0000*6F,37.233133245,137.02463770333335,679602.923024487,4122655.588101249
1010,[2021-02-22 16:23:48.026] $GPGGA,72347.6,3713.9879946,N,13701.478262600001,E,4,12,1.0,94.6236,M,37.55,M,5.0,0000*68,37.233133243333334,137.02463771000004,679602.9236199029,4122655.587928975
1011,[2021-02-22 16:23:48.104] $GPGGA,72347.7,3713.9879946999995,N,13701.4782623,E,4,12,1.0,94.624,M,37.55,M,5.0,0000*6C,37.233133245,137.024637705,679602.9231723509,4122655.588104412
1012,[2021-02-22 16:23:48.229] $GPGGA,72347.8,3713.9879942000002,N,13701.4782602,E,4,12,1.0,94.6255,M,37.55,M,5.0,0000*61,37.23313323666667,137.02463767,679602.9200869764,4122655.587113359
1013,[2021-02-22 16:23:48.307] $GPGGA,72347.9,3713.9879956999994,N,13701.4782593,E,4,12,1.0,94.6258,M,37.55,M,5.0,0000*62,37.23313326166665,137.02463765500002,679602.9186968631,4122655.589858801
1014,[2021-02-22 16:23:48.432] $GPGGA,72348.0,3713.9879961999995,N,13701.478258200003,E,4,12,1.0,94.6264,M,37.55,M,6.0,0000*6E,37.23313326999999,137.02463763666674,679602.9170505818,4122655.5907486468
1015,[2021-02-22 16:23:48.526] $GPGGA,72348.1,3713.9879954999997,N,13701.478257299997,E,4,12,1.0,94.6254,M,37.55,M,6.0,0000*66,37.23313325833333,137.0246376216666,679602.9157474814,4122655.589425691
1016,[2021-02-22 16:23:48.620] $GPGGA,72348.2,3713.9879960999997,N,13701.478259600002,E,4,12,1.0,94.6254,M,37.55,M,1.0,0000*6E,37.23313326833333,137.02463766000005,679602.9191246373,4122655.5906079994
1017,[2021-02-22 16:23:48.729] $GPGGA,72348.3,3713.9879968,N,13701.478260299999,E,4,12,1.0,94.6248,M,37.55,M,1.0,0000*64,37.233133280000004,137.02463767166665,679602.920131994,4122655.5919246296
1018,[2021-02-22 16:23:48.807] $GPGGA,72348.4,3713.9879967,N,13701.478261899998,E,4,12,1.0,94.6258,M,37.55,M,1.0,0000*66,37.233133278333334,137.02463769833332,679602.9225017797,4122655.591790306
1019,[2021-02-22 16:23:48.932] $GPGGA,72348.5,3713.9879954000003,N,13701.4782625,E,4,12,1.0,94.6245,M,37.55,M,1.0,0000*64,37.23313325666667,137.02463770833336,679602.9234403924,4122655.58940523
1020,[2021-02-22 16:23:49.026] $GPGGA,72348.6,3713.9879945000002,N,13701.478261700002,E,4,12,1.0,94.6237,M,37.55,M,1.0,0000*63,37.23313324166667,137.02463769500002,679602.922293076,4122655.587715582
1021,[2021-02-22 16:23:49.135] $GPGGA,72348.7,3713.9879945000002,N,13701.4782616,E,4,12,1.0,94.6234,M,37.55,M,1.0,0000*60,37.23313324166667,137.02463769333332,679602.9221452097,4122655.5877124197
1022,[2021-02-22 16:23:49.213] $GPGGA,72348.8,3713.9879959,N,13701.4782614,E,4,12,1.0,94.6235,M,37.55,M,1.0,0000*61,37.233133265,137.02463768999996,679602.9217940997,4122655.590295074
1023,[2021-02-22 16:23:49.323] $GPGGA,72348.9,3713.9879971,N,13701.4782618,E,4,12,1.0,94.6221,M,37.55,M,1.0,0000*63,37.233133285,137.02463769666667,679602.9223380957,4122655.5925268526
1024,[2021-02-22 16:23:49.401] $GPGGA,72349.0,3713.9879983,N,13701.4782613,E,4,12,1.0,94.621,M,37.55,M,2.0,0000*6C,37.233133305,137.0246376883333,679602.921551305,4122655.5947301653
1025,[2021-02-22 16:23:49.510] $GPGGA,72349.1,3713.9879997000003,N,13701.478262,E,4,12,1.0,94.6219,M,37.55,M,2.0,0000*61,37.23313332833334,137.0246377,679602.9225309796,4122655.5973412874
1026,[2021-02-22 16:23:49.604] $GPGGA,72349.2,3713.9880011999994,N,13701.4782634,E,4,12,1.0,94.6232,M,37.55,M,2.0,0000*6C,37.23313335333332,137.02463772333334,679602.9245417487,4122655.600159472
1027,[2021-02-22 16:23:49.729] $GPGGA,72349.3,3713.9880016,N,13701.478263699999,E,4,12,1.0,94.623,M,37.55,M,2.0,0000*68,37.23313336,137.02463772833332,679602.9249695184,4122655.600908671
1028,[2021-02-22 16:23:49.823] $GPGGA,72349.4,3713.988,N,13701.478264399999,E,4,12,1.0,94.6235,M,37.55,M,2.0,0000*69,37.23313333333333,137.02463773999997,679602.9260678572,4122655.5979719744
1029,[2021-02-22 16:23:49.932] $GPGGA,72349.5,3713.9879982,N,13701.478265,E,4,12,1.0,94.6254,M,37.55,M,2.0,0000*6F,37.23313330333334,137.02463775,679602.9270262474,4122655.594662262
1030,[2021-02-22 16:23:50.010] $GPGGA,72349.6,3713.9879966,N,13701.478265099999,E,4,12,1.0,94.6236,M,37.55,M,2.0,0000*63,37.233133276666656,137.02463775166666,679602.9272373979,4122655.591706588
1031,[2021-02-22 16:23:50.120] $GPGGA,72349.7,3713.9879960000003,N,13701.478264,E,4,12,1.0,94.6224,M,37.55,M,2.0,0000*67,37.23313326666667,137.02463773333332,679602.9256346229,4122655.5905622346
1032,[2021-02-22 16:23:50.213] $GPGGA,72349.8,3713.9879965000005,N,13701.478264,E,4,12,1.0,94.6223,M,37.55,M,2.0,0000*6A,37.23313327500001,137.02463773333332,679602.9256148452,4122655.5914868712
1033,[2021-02-22 16:23:50.323] $GPGGA,72349.9,3713.9879967,N,13701.4782636,E,4,12,1.0,94.6222,M,37.55,M,2.0,0000*69,37.233133278333334,137.02463772666667,679602.9250154761,4122655.591844073
1034,[2021-02-22 16:23:50.432] $GPGGA,72350.0,3713.9879967,N,13701.4782623,E,4,12,1.0,94.6206,M,37.55,M,3.0,0000*6B,37.233133278333334,137.024637705,679602.9230932401,4122655.591802957
1035,[2021-02-22 16:23:50.526] $GPGGA,72350.1,3713.9879975000003,N,13701.4782613,E,4,12,1.0,94.6205,M,37.55,M,3.0,0000*69,37.233133291666675,137.0246376883333,679602.9215829493,4122655.593250748
1036,[2021-02-22 16:23:50.635] $GPGGA,72350.2,3713.9879979,N,13701.4782607,E,4,12,1.0,94.6197,M,37.55,M,3.0,0000*6B,37.233133298333335,137.02463767833333,679602.9206799433,4122655.5939714797
1037,[2021-02-22 16:23:50.713] $GPGGA,72350.3,3713.9879978,N,13701.478259900001,E,4,12,1.0,94.62,M,37.55,M,3.0,0000*62,37.23313329666666,137.024637665,679602.9195009827,4122655.5937612494
1038,[2021-02-22 16:23:50.823] $GPGGA,72350.4,3713.9879975999997,N,13701.47826,E,4,12,1.0,94.6219,M,37.55,M,3.0,0000*60,37.233133293333324,137.02463766666665,679602.9196567555,4122655.593394557
1039,[2021-02-22 16:23:50.916] $GPGGA,72350.5,3713.9879975999997,N,13701.4782615,E,4,12,1.0,94.6211,M,37.55,M,3.0,0000*6D,37.233133293333324,137.02463769166667,679602.921874724,4122655.593441999
1040,[2021-02-22 16:23:51.026] $GPGGA,72350.6,3713.9879969999997,N,13701.4782629,E,4,12,1.0,94.6219,M,37.55,M,3.0,0000*6F,37.23313328333332,137.02463771499998,679602.9239685573,4122655.592376715
1041,[2021-02-22 16:23:51.104] $GPGGA,72350.7,3713.9879973000006,N,13701.478264,E,4,12,1.0,94.6217,M,37.55,M,3.0,0000*6C,37.23313328833334,137.02463773333332,679602.9255832009,4122655.5929662893
1042,[2021-02-22 16:23:51.229] $GPGGA,72350.8,3713.9879973000006,N,13701.478264200003,E,4,12,1.0,94.6234,M,37.55,M,3.0,0000*60,37.23313328833334,137.0246377366667,679602.9258789334,4122655.592972615
1043,[2021-02-22 16:23:51.307] $GPGGA,72350.9,3713.9879973000006,N,13701.4782632,E,4,12,1.0,94.6252,M,37.55,M,3.0,0000*66,37.23313328833334,137.02463772,679602.9244002847,4122655.592940987
1044,[2021-02-22 16:23:51.432] $GPGGA,72351.0,3713.9879973000006,N,13701.4782614,E,4,12,1.0,94.6267,M,37.55,M,4.0,0000*6B,37.23313328833334,137.02463768999996,679602.9217387221,4122655.5928840567
1045,[2021-02-22 16:23:51.526] $GPGGA,72351.1,3713.9879976999996,N,13701.478259200001,E,4,12,1.0,94.6287,M,37.55,M,4.0,0000*6D,37.23313329499999,137.02463765333337,679602.9184698906,4122655.5935541815
1046,[2021-02-22 16:23:51.619] $GPGGA,72351.2,3713.9879988000007,N,13701.478258200003,E,4,12,1.0,94.6299,M,37.55,M,4.0,0000*60,37.23313331333334,137.02463763666674,679602.9169477377,4122655.595556756
1047,[2021-02-22 16:23:51.713] $GPGGA,72351.3,3713.9880001999995,N,13701.4782595,E,4,12,1.0,94.6306,M,37.55,M,4.0,0000*6D,37.23313333666666,137.02463765833332,679602.9188145893,4122655.5981868533
1048,[2021-02-22 16:23:51.823] $GPGGA,72351.4,3713.9880015,N,13701.4782607,E,4,12,1.0,94.6315,M,37.55,M,4.0,0000*66,37.233133358333326,137.02463767833333,679602.9205375438,4122655.60062886
1049,[2021-02-22 16:23:51.901] $GPGGA,72351.5,3713.9880021,N,13701.4782616,E,4,12,1.0,94.6309,M,37.55,M,4.0,0000*6D,37.23313336833333,137.02463769333332,679602.9218445885,4122655.6017668885
1050,[2021-02-22 16:23:52.026] $GPGGA,72351.6,3713.9880023,N,13701.478261700002,E,4,12,1.0,94.6327,M,37.55,M,4.0,0000*61,37.233133371666675,137.02463769500002,679602.9219845437,4122655.602139908
1051,[2021-02-22 16:23:52.135] $GPGGA,72351.7,3713.9880024000004,N,13701.4782632,E,4,12,1.0,94.6315,M,37.55,M,4.0,0000*61,37.233133373333345,137.02463772,679602.924198552,4122655.602372277
1052,[2021-02-22 16:23:52.213] $GPGGA,72351.8,3713.9880034999996,N,13701.4782636,E,4,12,1.0,94.6334,M,37.55,M,4.0,0000*69,37.23313339166666,137.02463772666667,679602.9247464992,4122655.604419126
1053,[2021-02-22 16:23:52.338] $GPGGA,72351.9,3713.9880033,N,13701.478264200003,E,4,12,1.0,94.6329,M,37.55,M,4.0,0000*61,37.23313338833333,137.0246377366667,679602.9256416009,4122655.6040682467
1054,[2021-02-22 16:23:52.416] $GPGGA,72352.0,3713.9880022,N,13701.478263799998,E,4,12,1.0,94.6321,M,37.55,M,5.0,0000*6F,37.23313337,137.02463772999997,679602.9250936469,4122655.602021397
1055,[2021-02-22 16:23:52.526] $GPGGA,72352.1,3713.9880013,N,13701.4782632,E,4,12,1.0,94.6311,M,37.55,M,5.0,0000*65,37.23313335500001,137.02463772,679602.924242063,4122655.6003380762
1056,[2021-02-22 16:23:52.604] $GPGGA,72352.2,3713.9879999,N,13701.4782633,E,4,12,1.0,94.6306,M,37.55,M,5.0,0000*6C,37.23313333166667,137.02463772166664,679602.9244453023,4122655.5977522577
1057,[2021-02-22 16:23:52.729] $GPGGA,72352.3,3713.9879988000007,N,13701.4782634,E,4,12,1.0,94.6311,M,37.55,M,5.0,0000*6C,37.23313331333334,137.02463772333334,679602.9246366817,4122655.595721221
1058,[2021-02-22 16:23:52.807] $GPGGA,72352.4,3713.9879986,N,13701.478264500001,E,4,12,1.0,94.6307,M,37.55,M,5.0,0000*64,37.23313331000001,137.0246377416667,679602.9262711054,4122655.5953861577
1059,[2021-02-22 16:23:52.932] $GPGGA,72352.5,3713.9879994000003,N,13701.478264899999,E,4,12,1.0,94.6319,M,37.55,M,5.0,0000*65,37.23313332333334,137.0246377483333,679602.9268309125,4122655.5968782264
1060,[2021-02-22 16:23:53.010] $GPGGA,72352.6,3713.988,N,13701.478265,E,4,12,1.0,94.632,M,37.55,M,5.0,0000*66,37.23313333333333,137.02463775,679602.9269550478,4122655.5979909506
1061,[2021-02-22 16:23:53.135] $GPGGA,72352.7,3713.9880008,N,13701.478265799999,E,4,12,1.0,94.6324,M,37.55,M,5.0,0000*63,37.23313334666666,137.0246377633333,679602.9281063129,4122655.599495671
1062,[2021-02-22 16:23:53.213] $GPGGA,72352.8,3713.9880006999997,N,13701.478265200001,E,4,12,1.0,94.6339,M,37.55,M,5.0,0000*65,37.23313334499999,137.02463775333334,679602.9272230868,4122655.5992917665
1063,[2021-02-22 16:23:53.322] $GPGGA,72352.9,3713.9880005000005,N,13701.478265200001,E,4,12,1.0,94.6333,M,37.55,M,5.0,0000*6C,37.23313334166667,137.02463775333334,679602.9272309978,4122655.598921914
1064,[2021-02-22 16:23:53.401] $GPGGA,72353.0,3713.988,N,13701.4782654,E,4,12,1.0,94.6336,M,37.55,M,6.0,0000*61,37.23313333333333,137.02463775666664,679602.9275465013,4122655.5980036017
1065,[2021-02-22 16:23:53.510] $GPGGA,72353.1,3713.9879979999996,N,13701.478266499998,E,4,12,1.0,94.6341,M,37.55,M,6.0,0000*65,37.23313329999999,137.02463777499997,679602.9292521203,4122655.594339846
1066,[2021-02-22 16:23:53.619] $GPGGA,72353.2,3713.9879986999995,N,13701.4782687,E,4,12,1.0,94.6298,M,37.55,M,1.0,0000*6F,37.233133311666656,137.02463781166668,679602.9324774521,4122655.595703919
1067,[2021-02-22 16:23:53.729] $GPGGA,72353.3,3713.9879979,N,13701.4782683,E,4,12,1.0,94.6275,M,37.55,M,1.0,0000*68,37.233133298333335,137.024637805,679602.9319176384,4122655.594211851
1068,[2021-02-22 16:23:53.807] $GPGGA,72353.4,3713.9879978,N,13701.478266600001,E,4,12,1.0,94.6262,M,37.55,M,1.0,0000*63,37.23313329666666,137.02463777666668,679602.9294078997,4122655.593973156
1069,[2021-02-22 16:23:53.932] $GPGGA,72353.5,3713.9879978,N,13701.478263699999,E,4,12,1.0,94.6235,M,37.55,M,1.0,0000*64,37.23313329666666,137.02463772833332,679602.9251198291,4122655.5938814357
1070,[2021-02-22 16:23:54.026] $GPGGA,72353.6,3713.9879969999997,N,13701.478262600001,E,4,12,1.0,94.6214,M,37.55,M,1.0,0000*6C,37.23313328333332,137.02463771000004,679602.9235249698,4122655.592367227
1071,[2021-02-22 16:23:54.104] $GPGGA,72353.7,3713.9879974,N,13701.478263100002,E,4,12,1.0,94.622,M,37.55,M,1.0,0000*68,37.233133290000005,137.02463771833334,679602.9242484652,4122655.593122752
1072,[2021-02-22 16:23:54.229] $GPGGA,72353.8,3713.9879988000007,N,13701.4782641,E,4,12,1.0,94.6227,M,37.55,M,1.0,0000*64,37.23313331333334,137.02463773500003,679602.925671734,4122655.5957433605
1073,[2021-02-22 16:23:54.307] $GPGGA,72353.9,3713.9879994000003,N,13701.478265,E,4,12,1.0,94.6232,M,37.55,M,1.0,0000*6C,37.23313332333334,137.02463775,679602.926978781,4122655.596881388
1074,[2021-02-22 16:23:54.432] $GPGGA,72354.0,3713.9880005000005,N,13701.4782634,E,4,12,1.0,94.6227,M,37.55,M,2.0,0000*60,37.23313334166667,137.02463772333334,679602.9245694375,4122655.5988649847
1075,[2021-02-22 16:23:54.526] $GPGGA,72354.1,3713.9880009999997,N,13701.478264200003,E,4,12,1.0,94.6245,M,37.55,M,2.0,0000*60,37.233133349999996,137.0246377366667,679602.9257325784,4122655.5998149216
1076,[2021-02-22 16:23:54.635] $GPGGA,72354.2,3713.9880011,N,13701.478264899999,E,4,12,1.0,94.626,M,37.55,M,2.0,0000*6E,37.23313335166667,137.0246377483333,679602.9267636682,4122655.600021989
1077,[2021-02-22 16:23:54.713] $GPGGA,72354.3,3713.9880001,N,13701.478266499998,E,4,12,1.0,94.626,M,37.55,M,2.0,0000*60,37.233133335000005,137.02463777499997,679602.9291690539,4122655.5982233207
1078,[2021-02-22 16:23:54.822] $GPGGA,72354.4,3713.9880004,N,13701.478266799999,E,4,12,1.0,94.6283,M,37.55,M,2.0,0000*62,37.233133339999995,137.02463777999998,679602.9296007814,4122655.598787589
1079,[2021-02-22 16:23:54.901] $GPGGA,72354.5,3713.9880021,N,13701.478265900001,E,4,12,1.0,94.6292,M,37.55,M,2.0,0000*66,37.23313336833333,137.02463776500002,679602.9282027615,4122655.601902888
1080,[2021-02-22 16:23:55.026] $GPGGA,72354.6,3713.9880026999995,N,13701.4782653,E,4,12,1.0,94.6301,M,37.55,M,2.0,0000*62,37.23313337833333,137.024637755,679602.9272918376,4122655.602993475
1081,[2021-02-22 16:23:55.119] $GPGGA,72354.7,3713.988004,N,13701.478265,E,4,12,1.0,94.6311,M,37.55,M,2.0,0000*60,37.2331334,137.02463775,679602.926796826,4122655.6053880407
1082,[2021-02-22 16:23:55.229] $GPGGA,72354.8,3713.9880059,N,13701.478266299999,E,4,12,1.0,94.6317,M,37.55,M,2.0,0000*61,37.233133431666666,137.02463777166662,679602.9286439022,4122655.6089427746
1083,[2021-02-22 16:23:55.307] $GPGGA,72354.9,3713.988008,N,13701.4782683,E,4,12,1.0,94.6325,M,37.55,M,2.0,0000*6B,37.233133466666665,137.024637805,679602.9315181286,4122655.6128895027
1084,[2021-02-22 16:23:55.432] $GPGGA,72355.0,3713.988009,N,13701.47827,E,4,12,1.0,94.6333,M,37.55,M,3.0,0000*6E,37.23313348333333,137.02463783333332,679602.933992265,4122655.614792542
1085,[2021-02-22 16:23:55.525] $GPGGA,72355.1,3713.98801,N,13701.478271,E,4,12,1.0,94.6337,M,37.55,M,3.0,0000*62,37.2331335,137.02463784999998,679602.9354313537,4122655.616673443
1086,[2021-02-22 16:23:55.619] $GPGGA,72355.2,3713.9880094000005,N,13701.4782728,E,4,12,1.0,94.6346,M,37.55,M,3.0,0000*60,37.23313349000001,137.02463788,679602.9381166496,4122655.6156208096
1087,[2021-02-22 16:23:55.729] $GPGGA,72355.3,3713.9880064000004,N,13701.4782754,E,4,12,1.0,94.6332,M,37.55,M,3.0,0000*66,37.23313344,137.02463792333336,679602.9420797925,4122655.6101552234
1088,[2021-02-22 16:23:55.807] $GPGGA,72355.4,3713.9880034999996,N,13701.478277899998,E,4,12,1.0,94.6328,M,37.55,M,3.0,0000*61,37.23313339166666,137.02463796499995,679602.9458911069,4122655.6048714025
1089,[2021-02-22 16:23:55.932] $GPGGA,72355.5,3713.9880011999994,N,13701.4782783,E,4,12,1.0,94.6331,M,37.55,M,3.0,0000*68,37.23313335333332,137.02463797166664,679602.9465735448,4122655.600630727
1090,[2021-02-22 16:23:56.010] $GPGGA,72355.6,3713.9879986,N,13701.4782774,E,4,12,1.0,94.6303,M,37.55,M,3.0,0000*60,37.23313331000001,137.02463795666665,679602.9453456108,4122655.595794156
1091,[2021-02-22 16:23:56.104] $GPGGA,72355.7,3713.9879967,N,13701.4782764,E,4,12,1.0,94.63,M,37.55,M,3.0,0000*6C,37.233133278333334,137.02463794,679602.943942122,4122655.5922489082
1092,[2021-02-22 16:23:56.229] $GPGGA,72355.8,3713.9879958000006,N,13701.478274399999,E,4,12,1.0,94.6289,M,37.55,M,3.0,0000*6D,37.23313326333335,137.0246379066666,679602.941020429,4122655.5905213105
1093,[2021-02-22 16:23:56.322] $GPGGA,72355.9,3713.9879956,N,13701.4782734,E,4,12,1.0,94.6285,M,37.55,M,3.0,0000*69,37.23313326,137.02463788999998,679602.9395496983,4122655.5901198266
1094,[2021-02-22 16:23:56.400] $GPGGA,72356.0,3713.9879960000003,N,13701.4782714,E,4,12,1.0,94.6287,M,37.55,M,4.0,0000*61,37.23313326666667,137.0246378566667,679602.9365765923,4122655.5907962793
1095,[2021-02-22 16:23:56.510] $GPGGA,72356.1,3713.9879965000005,N,13701.478272499999,E,4,12,1.0,94.6286,M,37.55,M,4.0,0000*66,37.23313327500001,137.02463787499997,679602.9381833181,4122655.5917557077
1096,[2021-02-22 16:23:56.619] $GPGGA,72356.2,3713.9879963,N,13701.4782728,E,4,12,1.0,94.6307,M,37.55,M,4.0,0000*66,37.23313327166667,137.02463788,679602.9386348258,4122655.59139534
1097,[2021-02-22 16:23:56.728] $GPGGA,72356.3,3713.9879959,N,13701.478272999999,E,4,12,1.0,94.6306,M,37.55,M,4.0,0000*66,37.233133265,137.0246378833333,679602.9389463735,4122655.5906619555
1098,[2021-02-22 16:23:56.807] $GPGGA,72356.4,3713.9879948,N,13701.478271700002,E,4,12,1.0,94.6287,M,37.55,M,4.0,0000*6C,37.23313324666667,137.02463786166666,679602.9370676485,4122655.5885866405
1099,[2021-02-22 16:23:56.916] $GPGGA,72356.5,3713.9879929,N,13701.4782713,E,4,12,1.0,94.6292,M,37.55,M,4.0,0000*6A,37.233133214999995,137.02463785500004,679602.9365513502,4122655.5850603716
1100,[2021-02-22 16:23:57.010] $GPGGA,72356.6,3713.9879909,N,13701.478270700001,E,4,12,1.0,94.6276,M,37.55,M,4.0,0000*64,37.233133181666666,137.02463784500003,679602.9357432751,4122655.5813428503
1101,[2021-02-22 16:23:57.119] $GPGGA,72356.7,3713.9879891,N,13701.478270399999,E,4,12,1.0,94.6274,M,37.55,M,4.0,0000*64,37.233133151666664,137.02463784,679602.9353708784,4122655.578004672
1102,[2021-02-22 16:23:57.197] $GPGGA,72356.8,3713.9879892999998,N,13701.478268599998,E,4,12,1.0,94.6272,M,37.55,M,4.0,0000*64,37.233133155,137.02463780999997,679602.9327014047,4122655.5783175956
1103,[2021-02-22 16:23:57.322] $GPGGA,72356.9,3713.9879894,N,13701.4782667,E,4,12,1.0,94.6273,M,37.55,M,4.0,0000*6C,37.233133156666675,137.02463777833333,679602.929888027,4122655.5784424315
1104,[2021-02-22 16:23:57.400] $GPGGA,72357.0,3713.9879891,N,13701.478265099999,E,4,12,1.0,94.6252,M,37.55,M,5.0,0000*66,37.233133151666664,137.02463775166666,679602.9275340636,4122655.5778370444
1105,[2021-02-22 16:23:57.525] $GPGGA,72357.1,3713.9879877999997,N,13701.4782629,E,4,12,1.0,94.6251,M,37.55,M,5.0,0000*6C,37.23313312999999,137.02463771499998,679602.9243324671,4122655.575363408
1106,[2021-02-22 16:23:57.619] $GPGGA,72357.2,3713.9879797,N,13701.4782572,E,4,12,1.0,94.6166,M,37.55,M,5.0,0000*6B,37.233132995,137.02463762,679602.9162245953,4122655.560204025
1107,[2021-02-22 16:23:57.713] $GPGGA,72357.3,3713.987975,N,13701.4782541,E,4,12,1.0,94.61,M,37.55,M,5.0,0000*61,37.23313291666666,137.02463756833336,679602.9118267116,4122655.551414398
1108,[2021-02-22 16:23:57.822] $GPGGA,72357.4,3713.9879745,N,13701.478254499998,E,4,12,1.0,94.6044,M,37.55,M,5.0,0000*67,37.23313290833334,137.02463757499996,679602.9124379407,4122655.5505024134
1109,[2021-02-22 16:23:57.900] $GPGGA,72357.5,3713.9879743,N,13701.478256299999,E,4,12,1.0,94.5997,M,37.55,M,5.0,0000*60,37.233132905000005,137.02463760499998,679602.9151074144,4122655.5501894895
1110,[2021-02-22 16:23:58.025] $GPGGA,72357.6,3713.9879754,N,13701.478256299999,E,4,12,1.0,94.5972,M,37.55,M,5.0,0000*6E,37.23313292333333,137.02463760499998,679602.9150639034,4122655.5522236875
1111,[2021-02-22 16:23:58.103] $GPGGA,72357.7,3713.9879772,N,13701.478255899998,E,4,12,1.0,94.5949,M,37.55,M,5.0,0000*6A,37.23313295333333,137.02463759833327,679602.914401241,4122655.555539726
1112,[2021-02-22 16:23:58.228] $GPGGA,72357.8,3713.9879775,N,13701.4782554,E,4,12,1.0,94.5933,M,37.55,M,5.0,0000*62,37.23313295833333,137.02463759,679602.9136500591,4122655.5560786943
1113,[2021-02-22 16:23:58.307] $GPGGA,72357.9,3713.987978,N,13701.478255000002,E,4,12,1.0,94.5897,M,37.55,M,5.0,0000*62,37.233132966666666,137.02463758333334,679602.9130388233,4122655.5569906803
1114,[2021-02-22 16:23:58.432] $GPGGA,72358.0,3713.9879785,N,13701.478255200002,E,4,12,1.0,94.5881,M,37.55,M,6.0,0000*67,37.233132975,137.0246375866667,679602.913314778,4122655.557921642
1115,[2021-02-22 16:23:58.525] $GPGGA,72358.1,3713.9879791000003,N,13701.478255899998,E,4,12,1.0,94.5887,M,37.55,M,6.0,0000*6E,37.23313298500001,137.02463759833327,679602.9143260857,4122655.559053345
1116,[2021-02-22 16:23:58.619] $GPGGA,72358.2,3713.9879785999997,N,13701.478256,E,4,12,1.0,94.5904,M,37.55,M,1.0,0000*6C,37.23313297666666,137.02463760000003,679602.9144937365,4122655.5581318703
1117,[2021-02-22 16:23:58.697] $GPGGA,72358.3,3713.9879782,N,13701.4782565,E,4,12,1.0,94.5931,M,37.55,M,1.0,0000*6A,37.23313297,137.02463760833336,679602.9152488806,4122655.5574079757
1118,[2021-02-22 16:23:58.822] $GPGGA,72358.4,3713.9879785999997,N,13701.478257100001,E,4,12,1.0,94.5948,M,37.55,M,1.0,0000*62,37.23313297666666,137.02463761833334,679602.9161202447,4122655.5581666613
1119,[2021-02-22 16:23:58.916] $GPGGA,72358.5,3713.9879791999997,N,13701.478255200002,E,4,12,1.0,94.5957,M,37.55,M,1.0,0000*69,37.23313298666666,137.0246375866667,679602.9132870893,4122655.5592161324
1120,[2021-02-22 16:23:59.025] $GPGGA,72358.6,3713.9879824,N,13701.4782539,E,4,12,1.0,94.5982,M,37.55,M,1.0,0000*6D,37.23313304,137.024637565,679602.9112382713,4122655.5650926875
