,Format,Time,Latitude,LatType,Longitude,LonType,Status,Satellite,LevelAccuracy,Altitude(sea),M(sea),Altitude(geoid),M(geoid),DGPS use,checksum,Lat,Lon,UTM_X,UTM_Y
929,[2021-02-22 16:27:28.707] $GPGGA,72728.3,3713.9879904,N,13701.4782294,E,4,10,1.6,94.5449,M,37.55,M,1.0,0000*66,37.23313317333333,137.02463715666664,679602.8746950419,4122655.5791119863
930,[2021-02-22 16:27:28.817] $GPGGA,72728.4,3713.9879894,N,13701.478228400001,E,4,10,1.6,94.5486,M,37.55,M,1.0,0000*6B,37.233133156666675,137.02463714,679602.8732559576,4122655.5772310873
931,[2021-02-22 16:27:28.895] $GPGGA,72728.5,3713.9879891,N,13701.4782285,E,4,10,1.6,94.5509,M,37.55,M,1.0,0000*68,37.233133151666664,137.02463714166666,679602.873415686,4122655.5766794677
932,[2021-02-22 16:27:29.020] $GPGGA,72728.6,3713.9879892,N,13701.478228,E,4,10,1.6,94.5545,M,37.55,M,1.0,0000*65,37.23313315333333,137.02463713333333,679602.8726724084,4122655.5768485805
933,[2021-02-22 16:27:29.098] $GPGGA,72728.7,3713.987989,N,13701.4782255,E,4,10,1.6,94.5595,M,37.55,M,1.0,0000*63,37.23313315000001,137.02463709166668,679602.8689837113,4122655.576399657
934,[2021-02-22 16:27:29.223] $GPGGA,72728.8,3713.9879899000002,N,13701.4782257,E,4,10,1.6,94.5623,M,37.55,M,1.0,0000*69,37.233133165,137.024637095,679602.8692438395,4122655.578070328
935,[2021-02-22 16:27:29.301] $GPGGA,72728.9,3713.9879892999998,N,13701.478225600002,E,4,10,1.6,94.5624,M,37.55,M,1.0,0000*64,37.233133155,137.02463709333335,679602.869119711,4122655.5769576016
936,[2021-02-22 16:27:29.426] $GPGGA,72729.0,3713.9879895999998,N,13701.478225,E,4,10,1.6,94.5651,M,37.55,M,2.0,0000*6E,37.233133159999994,137.02463708333332,679602.8682206539,4122655.577493406
937,[2021-02-22 16:27:29.520] $GPGGA,72729.1,3713.9879901,N,13701.4782246,E,4,10,1.6,94.5657,M,37.55,M,2.0,0000*61,37.23313316833333,137.02463707666664,679602.867609418,4122655.578405393
938,[2021-02-22 16:27:29.614] $GPGGA,72729.2,3713.9879895999998,N,13701.478225100002,E,4,10,1.6,94.566,M,37.55,M,2.0,0000*6F,37.233133159999994,137.02463708500002,679602.8683685223,4122655.577496569
939,[2021-02-22 16:27:29.707] $GPGGA,72729.3,3713.9879894,N,13701.478224899998,E,4,10,1.6,94.5665,M,37.55,M,2.0,0000*60,37.233133156666675,137.02463708166664,679602.8680806987,4122655.57712039
940,[2021-02-22 16:27:29.817] $GPGGA,72729.4,3713.9879888000005,N,13701.478226899999,E,4,10,1.6,94.5667,M,37.55,M,2.0,0000*6A,37.233133146666674,137.024637115,679602.8710617225,4122655.5760740824
941,[2021-02-22 16:27:29.926] $GPGGA,72729.5,3713.9879898000004,N,13701.4782282,E,4,10,1.6,94.5679,M,37.55,M,2.0,0000*60,37.23313316333334,137.02463713666666,679602.8729444053,4122655.577964471
942,[2021-02-22 16:27:30.004] $GPGGA,72729.6,3713.9879895999998,N,13701.478226299998,E,4,10,1.6,94.5702,M,37.55,M,2.0,0000*6F,37.233133159999994,137.02463710499995,679602.8701428876,4122655.577534522
943,[2021-02-22 16:27:30.114] $GPGGA,72729.7,3713.9879895999998,N,13701.4782245,E,4,10,1.6,94.5711,M,37.55,M,2.0,0000*68,37.233133159999994,137.024637075,679602.8674813317,4122655.577477592
944,[2021-02-22 16:27:30.192] $GPGGA,72729.8,3713.9879895000004,N,13701.4782238,E,4,10,1.6,94.5719,M,37.55,M,2.0,0000*66,37.233133158333345,137.02463706333336,679602.8664502394,4122655.577270528
945,[2021-02-22 16:27:30.317] $GPGGA,72729.9,3713.9879886,N,13701.4782246,E,4,10,1.6,94.5692,M,37.55,M,2.0,0000*6E,37.233133143333326,137.02463707666664,679602.8676687512,4122655.575631483
946,[2021-02-22 16:27:30.395] $GPGGA,72730.0,3713.9879879,N,13701.478223700002,E,4,10,1.6,94.5671,M,37.55,M,3.0,0000*65,37.23313313166666,137.0246370616667,679602.8663656664,4122655.574308527
947,[2021-02-22 16:27:30.504] $GPGGA,72730.1,3713.9879874,N,13701.478222799999,E,4,10,1.6,94.5672,M,37.55,M,3.0,0000*64,37.23313312333334,137.0246370466666,679602.8650546549,4122655.573355427
948,[2021-02-22 16:27:30.598] $GPGGA,72730.2,3713.9879877,N,13701.478223500002,E,4,10,1.6,94.569,M,37.55,M,3.0,0000*64,37.23313312833333,137.02463705833335,679602.8660778451,4122655.573932347
949,[2021-02-22 16:27:30.723] $GPGGA,72730.3,3713.9879877999997,N,13701.4782241,E,4,10,1.6,94.5696,M,37.55,M,3.0,0000*6F,37.23313312999999,137.02463706833333,679602.8669610757,4122655.5741362497
950,[2021-02-22 16:27:30.801] $GPGGA,72730.4,3713.9879877,N,13701.478224899998,E,4,10,1.6,94.5709,M,37.55,M,3.0,0000*68,37.23313312833333,137.02463708166664,679602.8681479428,4122655.573976626
951,[2021-02-22 16:27:30.910] $GPGGA,72730.5,3713.9879869999995,N,13701.478225600002,E,4,10,1.6,94.5705,M,37.55,M,3.0,0000*6C,37.23313311666666,137.02463709333335,679602.8692106884,4122655.572704274
952,[2021-02-22 16:27:31.004] $GPGGA,72730.6,3713.9879867,N,13701.4782257,E,4,10,1.6,94.5708,M,37.55,M,3.0,0000*65,37.23313311166666,137.024637095,679602.8693704167,4122655.572152655
953,[2021-02-22 16:27:31.113] $GPGGA,72730.7,3713.9879865999997,N,13701.4782252,E,4,10,1.6,94.5729,M,37.55,M,3.0,0000*63,37.23313310999999,137.02463708666667,679602.8686350503,4122655.5719519136
954,[2021-02-22 16:27:31.192] $GPGGA,72730.8,3713.9879865999997,N,13701.4782253,E,4,10,1.6,94.5727,M,37.55,M,3.0,0000*63,37.23313310999999,137.02463708833332,679602.8687829142,4122655.5719550764
955,[2021-02-22 16:27:31.317] $GPGGA,72730.9,3713.9879868000003,N,13701.4782253,E,4,10,1.6,94.5735,M,37.55,M,3.0,0000*6F,37.23313311333334,137.02463708833332,679602.8687750031,4122655.572324932
956,[2021-02-22 16:27:31.395] $GPGGA,72731.0,3713.9879865999997,N,13701.4782226,E,4,10,1.6,94.5719,M,37.55,M,4.0,0000*62,37.23313310999999,137.0246370433333,679602.8647905736,4122655.571869681
957,[2021-02-22 16:27:31.504] $GPGGA,72731.1,3713.9879875,N,13701.4782211,E,4,10,1.6,94.5739,M,37.55,M,4.0,0000*67,37.233133124999995,137.02463701833335,679602.8625370098,4122655.5734865847
958,[2021-02-22 16:27:31.598] $GPGGA,72731.2,3713.9879871,N,13701.4782211,E,4,10,1.6,94.5719,M,37.55,M,4.0,0000*62,37.23313311833333,137.02463701833335,679602.862552832,4122655.5727468766
959,[2021-02-22 16:27:31.692] $GPGGA,72731.3,3713.9879854999995,N,13701.4782201,E,4,10,1.6,94.5725,M,37.55,M,4.0,0000*6B,37.23313309166666,137.02463700166666,679602.8611374742,4122655.5697564124
960,[2021-02-22 16:27:31.817] $GPGGA,72731.4,3713.9879846,N,13701.478219,E,4,10,1.6,94.5722,M,37.55,M,4.0,0000*62,37.23313307666667,137.02463698333335,679602.8595465682,4122655.568057278
961,[2021-02-22 16:27:31.895] $GPGGA,72731.5,3713.9879840000003,N,13701.4782179,E,4,10,1.6,94.5723,M,37.55,M,4.0,0000*63,37.233133066666674,137.024636965,679602.8579437933,4122655.5669129253
962,[2021-02-22 16:27:32.020] $GPGGA,72731.6,3713.9879839,N,13701.478217500002,E,4,10,1.6,94.5712,M,37.55,M,4.0,0000*60,37.233133065000004,137.02463695833336,679602.857356293,4122655.566715346
963,[2021-02-22 16:27:32.098] $GPGGA,72731.7,3713.9879833000005,N,13701.478216,E,4,10,1.6,94.5723,M,37.55,M,4.0,0000*6D,37.233133055,137.0246369333333,679602.8551620556,4122655.565558341
964,[2021-02-22 16:27:32.223] $GPGGA,72731.8,3713.9879846,N,13701.4782187,E,4,10,1.6,94.5711,M,37.55,M,4.0,0000*68,37.23313307666667,137.02463697833335,679602.8591029741,4122655.56804779
965,[2021-02-22 16:27:32.301] $GPGGA,72731.9,3713.9879850999996,N,13701.4782194,E,4,10,1.6,94.5723,M,37.55,M,4.0,0000*6C,37.23313308499999,137.02463698999998,679602.8601182442,4122655.5689945645
966,[2021-02-22 16:27:32.426] $GPGGA,72732.0,3713.9879854999995,N,13701.4782194,E,4,10,1.6,94.5726,M,37.55,M,5.0,0000*66,37.23313309166666,137.02463698999998,679602.860102422,4122655.5697342725
967,[2021-02-22 16:27:32.520] $GPGGA,72732.1,3713.9879850999996,N,13701.478219,E,4,10,1.6,94.5725,M,37.55,M,5.0,0000*64,37.23313308499999,137.02463698333335,679602.8595267906,4122655.5689819125
968,[2021-02-22 16:27:32.613] $GPGGA,72732.2,3713.9879854,N,13701.4782194,E,4,10,1.6,94.5721,M,37.55,M,5.0,0000*62,37.23313309,137.02463698999998,679602.8601063774,4122655.5695493473
969,[2021-02-22 16:27:32.691] $GPGGA,72732.3,3713.9879856,N,13701.478219499999,E,4,10,1.6,94.5741,M,37.55,M,5.0,0000*66,37.233133093333336,137.02463699166663,679602.8602463304,4122655.5699223643
970,[2021-02-22 16:27:32.816] $GPGGA,72732.4,3713.9879857,N,13701.478220299998,E,4,10,1.6,94.5733,M,37.55,M,5.0,0000*69,37.23313309500001,137.02463700499996,679602.861425291,4122655.5701325946
971,[2021-02-22 16:27:32.895] $GPGGA,72732.5,3713.9879854,N,13701.4782213,E,4,10,1.6,94.5715,M,37.55,M,5.0,0000*6E,37.23313309,137.02463702166665,679602.8629158018,4122655.5696094404
972,[2021-02-22 16:27:33.020] $GPGGA,72732.6,3713.9879856,N,13701.478221200001,E,4,10,1.6,94.5698,M,37.55,M,5.0,0000*6A,37.233133093333336,137.02463702,679602.8627600289,4122655.5699761314
973,[2021-02-22 16:27:33.098] $GPGGA,72732.7,3713.9879858000004,N,13701.4782218,E,4,10,1.6,94.5721,M,37.55,M,5.0,0000*6C,37.23313309666667,137.02463702999998,679602.8636393017,4122655.570364963
974,[2021-02-22 16:27:33.223] $GPGGA,72732.8,3713.9879858000004,N,13701.478222,E,4,10,1.6,94.5726,M,37.55,M,5.0,0000*6F,37.23313309666667,137.02463703333333,679602.8639350341,4122655.570371289
975,[2021-02-22 16:27:33.301] $GPGGA,72732.9,3713.9879858000004,N,13701.478222299998,E,4,10,1.6,94.5744,M,37.55,M,5.0,0000*69,37.23313309666667,137.02463703833334,679602.864378626,4122655.570380777
976,[2021-02-22 16:27:33.426] $GPGGA,72733.0,3713.9879861,N,13701.4782218,E,4,10,1.6,94.5751,M,37.55,M,6.0,0000*64,37.23313310166666,137.02463702999998,679602.8636274352,4122655.5709197433
977,[2021-02-22 16:27:33.504] $GPGGA,72733.1,3713.9879854,N,13701.478222100002,E,4,10,1.6,94.5766,M,37.55,M,6.0,0000*6D,37.23313309,137.02463703500004,679602.8640987226,4122655.5696347435
978,[2021-02-22 16:27:33.598] $GPGGA,72733.2,3713.9879864,N,13701.4782241,E,4,10,1.6,94.5787,M,37.55,M,1.0,0000*63,37.23313310666667,137.02463706833333,679602.8670164531,4122655.5715472703
979,[2021-02-22 16:27:33.723] $GPGGA,72733.3,3713.9879882,N,13701.478223600001,E,4,10,1.6,94.5843,M,37.55,M,1.0,0000*6D,37.23313313666667,137.02463706,679602.8662059313,4122655.5748601477
980,[2021-02-22 16:27:33.801] $GPGGA,72733.4,3713.9879892,N,13701.478222799999,E,4,10,1.6,94.5872,M,37.55,M,1.0,0000*66,37.23313315333333,137.0246370466666,679602.8649834553,4122655.5766841164
981,[2021-02-22 16:27:33.910] $GPGGA,72733.5,3713.9879907,N,13701.4782218,E,4,10,1.6,94.5898,M,37.55,M,1.0,0000*6D,37.23313317833333,137.02463702999998,679602.8634454802,4122655.5794263976
982,[2021-02-22 16:27:34.004] $GPGGA,72733.6,3713.9879911,N,13701.478222100002,E,4,10,1.6,94.5904,M,37.55,M,1.0,0000*67,37.233133185,137.02463703500004,679602.8638732567,4122655.580175595
983,[2021-02-22 16:27:34.113] $GPGGA,72733.7,3713.9879909,N,13701.4782238,E,4,10,1.6,94.5888,M,37.55,M,1.0,0000*62,37.233133181666666,137.02463706333336,679602.866394862,4122655.5798595077
984,[2021-02-22 16:27:34.191] $GPGGA,72733.8,3713.9879899000002,N,13701.4782241,E,4,10,1.6,94.5868,M,37.55,M,1.0,0000*65,37.233133165,137.02463706833333,679602.8668780092,4122655.5780197233
985,[2021-02-22 16:27:34.316] $GPGGA,72733.9,3713.9879895000004,N,13701.4782231,E,4,10,1.6,94.5909,M,37.55,M,1.0,0000*69,37.233133158333345,137.02463705166667,679602.8654151872,4122655.5772483884
986,[2021-02-22 16:27:34.394] $GPGGA,72734.0,3713.9879895999998,N,13701.4782239,E,4,10,1.6,94.5906,M,37.55,M,2.0,0000*60,37.233133159999994,137.024637065,679602.866594148,4122655.5774586154
987,[2021-02-22 16:27:34.504] $GPGGA,72734.1,3713.9879899999996,N,13701.4782226,E,4,10,1.6,94.5891,M,37.55,M,2.0,0000*6E,37.23313316666666,137.0246370433333,679602.8646560853,4122655.578157208
988,[2021-02-22 16:27:34.598] $GPGGA,72734.2,3713.9879892,N,13701.478222,E,4,10,1.6,94.591,M,37.55,M,2.0,0000*69,37.23313315333333,137.02463703333333,679602.8638005458,4122655.5766588147
989,[2021-02-22 16:27:34.723] $GPGGA,72734.3,3713.9879877,N,13701.4782211,E,4,10,1.6,94.5901,M,37.55,M,2.0,0000*61,37.23313312833333,137.02463701833335,679602.8625290988,4122655.5738564404
990,[2021-02-22 16:27:34.801] $GPGGA,72734.4,3713.9879875,N,13701.4782204,E,4,10,1.6,94.5884,M,37.55,M,2.0,0000*6C,37.233133124999995,137.02463700666667,679602.8615019575,4122655.5734644462
991,[2021-02-22 16:27:34.910] $GPGGA,72734.5,3713.9879877999997,N,13701.4782201,E,4,10,1.6,94.589,M,37.55,M,2.0,0000*60,37.23313312999999,137.02463700166666,679602.8610464968,4122655.574009739
992,[2021-02-22 16:27:35.004] $GPGGA,72734.6,3713.9879897,N,13701.478219999999,E,4,10,1.6,94.5871,M,37.55,M,2.0,0000*6C,37.233133161666665,137.02463699999998,679602.8608234775,4122655.5775201945
993,[2021-02-22 16:27:35.113] $GPGGA,72734.7,3713.9879912,N,13701.478220299998,E,4,10,1.6,94.589,M,37.55,M,2.0,0000*6D,37.23313318666666,137.02463700499996,679602.8612077363,4122655.5803035917
994,[2021-02-22 16:27:35.223] $GPGGA,72734.8,3713.9879912,N,13701.4782199,E,4,10,1.6,94.5871,M,37.55,M,2.0,0000*6D,37.23313318666666,137.02463699833334,679602.8606162805,4122655.5802909397
995,[2021-02-22 16:27:35.301] $GPGGA,72734.9,3713.9879912,N,13701.4782199,E,4,10,1.6,94.5863,M,37.55,M,2.0,0000*6F,37.23313318666666,137.02463699833334,679602.8606162805,4122655.5802909397
996,[2021-02-22 16:27:35.426] $GPGGA,72735.0,3713.9879891,N,13701.478221700001,E,4,10,1.6,94.5858,M,37.55,M,3.0,0000*61,37.233133151666664,137.02463702833333,679602.8633609072,4122655.5764643988
997,[2021-02-22 16:27:35.519] $GPGGA,72735.1,3713.9879865000003,N,13701.478221399999,E,4,10,1.6,94.5881,M,37.55,M,3.0,0000*6C,37.23313310833334,137.0246370233333,679602.8630201548,4122655.5716468026
998,[2021-02-22 16:27:35.613] $GPGGA,72735.2,3713.9879852,N,13701.478220200002,E,4,10,1.6,94.5869,M,37.55,M,3.0,0000*6A,37.23313308666667,137.02463700333337,679602.8612972093,4122655.5692047956
999,[2021-02-22 16:27:35.691] $GPGGA,72735.3,3713.9879852,N,13701.4782201,E,4,10,1.6,94.5885,M,37.55,M,3.0,0000*6A,37.23313308666667,137.02463700166666,679602.8611493409,4122655.569201633
1000,[2021-02-22 16:27:35.816] $GPGGA,72735.4,3713.9879850999996,N,13701.4782194,E,4,10,1.6,94.5893,M,37.55,M,3.0,0000*66,37.23313308499999,137.02463698999998,679602.8601182442,4122655.5689945645
1001,[2021-02-22 16:27:35.894] $GPGGA,72735.5,3713.9879854999995,N,13701.4782199,E,4,10,1.6,94.5891,M,37.55,M,3.0,0000*6C,37.23313309166666,137.02463699833334,679602.8608417462,4122655.569750087
1002,[2021-02-22 16:27:36.019] $GPGGA,72735.6,3713.987986,N,13701.478219499999,E,4,10,1.6,94.5882,M,37.55,M,3.0,0000*67,37.2331331,137.02463699166663,679602.8602305081,4122655.5706620743
1003,[2021-02-22 16:27:36.097] $GPGGA,72735.7,3713.9879865000003,N,13701.4782197,E,4,10,1.6,94.5875,M,37.55,M,3.0,0000*69,37.23313310833334,137.02463699500004,679602.8605064652,4122655.571593036
1004,[2021-02-22 16:27:36.222] $GPGGA,72735.8,3713.9879883000003,N,13701.478219999999,E,4,10,1.6,94.5874,M,37.55,M,3.0,0000*62,37.23313313833334,137.02463699999998,679602.8608788551,4122655.574931214
1005,[2021-02-22 16:27:36.301] $GPGGA,72735.9,3713.9879877,N,13701.478218200002,E,4,10,1.6,94.5889,M,37.55,M,3.0,0000*63,37.23313312833333,137.02463697000002,679602.8582410325,4122655.573764719
1006,[2021-02-22 16:27:36.426] $GPGGA,72736.0,3713.9879880999997,N,13701.478218200002,E,4,10,1.6,94.5905,M,37.55,M,4.0,0000*62,37.233133134999996,137.02463697000002,679602.8582252103,4122655.574504429
1007,[2021-02-22 16:27:36.519] $GPGGA,72736.1,3713.9879868000003,N,13701.4782178,E,4,10,1.6,94.5906,M,37.55,M,4.0,0000*62,37.23313311333334,137.02463696333336,679602.8576851742,4122655.5720877247
1008,[2021-02-22 16:27:36.613] $GPGGA,72736.2,3713.9879873000004,N,13701.478217200001,E,4,10,1.6,94.5914,M,37.55,M,4.0,0000*62,37.233133121666675,137.02463695333338,679602.8567782128,4122655.572993385
1009,[2021-02-22 16:27:36.691] $GPGGA,72736.3,3713.9879868000003,N,13701.478217299999,E,4,10,1.6,94.5897,M,37.55,M,4.0,0000*62,37.23313311333334,137.02463695499998,679602.8569458476,4122655.5720719104
1010,[2021-02-22 16:27:36.816] $GPGGA,72736.4,3713.9879869,N,13701.478217299999,E,4,10,1.6,94.5895,M,37.55,M,4.0,0000*66,37.233133114999994,137.02463695499998,679602.8569418922,4122655.572256836
1011,[2021-02-22 16:27:36.894] $GPGGA,72736.5,3713.9879859,N,13701.478218,E,4,10,1.6,94.5892,M,37.55,M,4.0,0000*6F,37.233133098333326,137.02463696666666,679602.8580164998,4122655.5704297028
1012,[2021-02-22 16:27:37.019] $GPGGA,72736.6,3713.9879853,N,13701.4782199,E,4,10,1.6,94.591,M,37.55,M,4.0,0000*65,37.23313308833334,137.02463699833334,679602.8608496573,4122655.5693802345
1013,[2021-02-22 16:27:37.113] $GPGGA,72736.7,3713.9879854999995,N,13701.478221000001,E,4,10,1.6,94.5928,M,37.55,M,4.0,0000*6B,37.23313309166666,137.0246370166667,679602.862468259,4122655.5697848774
1014,[2021-02-22 16:27:37.191] $GPGGA,72736.8,3713.9879850999996,N,13701.478222400001,E,4,10,1.6,94.5912,M,37.55,M,4.0,0000*6E,37.23313308499999,137.02463704000002,679602.8645541811,4122655.569089447
1015,[2021-02-22 16:27:37.316] $GPGGA,72736.9,3713.9879845,N,13701.478222299998,E,4,10,1.6,94.592,M,37.55,M,4.0,0000*6C,37.233133075000005,137.02463703833334,679602.864430048,4122655.567976723
1016,[2021-02-22 16:27:37.394] $GPGGA,72737.0,3713.9879857,N,13701.478221399999,E,4,10,1.6,94.5922,M,37.55,M,5.0,0000*60,37.23313309500001,137.0246370233333,679602.8630517991,4122655.5701673864
1017,[2021-02-22 16:27:37.504] $GPGGA,72737.1,3713.987985,N,13701.4782192,E,4,10,1.6,94.5921,M,37.55,M,5.0,0000*68,37.233133083333335,137.02463698666668,679602.859826474,4122655.5688033123
1018,[2021-02-22 16:27:37.597] $GPGGA,72737.2,3713.9879827,N,13701.4782165,E,4,10,1.6,94.5911,M,37.55,M,5.0,0000*60,37.233133045,137.02463694166664,679602.8559251085,4122655.564464592
1019,[2021-02-22 16:27:37.722] $GPGGA,72737.3,3713.9879806999998,N,13701.478216799998,E,4,10,1.6,94.5941,M,37.55,M,5.0,0000*6B,37.233133011666666,137.02463694666665,679602.8564478136,4122655.5607755342
1020,[2021-02-22 16:27:37.800] $GPGGA,72737.4,3713.9879798,N,13701.4782167,E,4,10,1.6,94.5961,M,37.55,M,5.0,0000*68,37.23313299666667,137.024636945,679602.8563355517,4122655.5591080263
1021,[2021-02-22 16:27:37.910] $GPGGA,72737.5,3713.9879823,N,13701.4782174,E,4,10,1.6,94.5973,M,37.55,M,5.0,0000*67,37.233133038333335,137.02463695666668,679602.8572717155,4122655.5637533474
1022,[2021-02-22 16:27:38.004] $GPGGA,72737.6,3713.9879825999997,N,13701.4782167,E,4,10,1.6,94.5962,M,37.55,M,5.0,0000*63,37.23313304333333,137.024636945,679602.8562247965,4122655.564285989
1023,[2021-02-22 16:27:38.113] $GPGGA,72737.7,3713.9879829000006,N,13701.478216999998,E,4,10,1.6,94.5958,M,37.55,M,5.0,0000*62,37.23313304833335,137.02463694999997,679602.8566565196,4122655.5648502614
1024,[2021-02-22 16:27:38.191] $GPGGA,72737.8,3713.987981,N,13701.4782174,E,4,10,1.6,94.5961,M,37.55,M,5.0,0000*69,37.23313301666667,137.02463695666668,679602.8573231375,4122655.5613492928
1025,[2021-02-22 16:27:38.316] $GPGGA,72737.9,3713.987981,N,13701.478218,E,4,10,1.6,94.5955,M,37.55,M,5.0,0000*64,37.23313301666667,137.02463696666666,679602.8582103213,4122655.5613682694
1026,[2021-02-22 16:27:38.394] $GPGGA,72738.0,3713.9879806999998,N,13701.478217299999,E,4,10,1.6,94.5953,M,37.55,M,6.0,0000*6D,37.233133011666666,137.02463695499998,679602.8571871356,4122655.5607913476
1027,[2021-02-22 16:27:38.504] $GPGGA,72738.1,3713.9879809,N,13701.4782164,E,4,10,1.6,94.5959,M,37.55,M,6.0,0000*6E,37.233133015,137.02463694,679602.8558484466,4122655.5611327365
1028,[2021-02-22 16:27:38.613] $GPGGA,72738.2,3713.9879806999998,N,13701.4782148,E,4,10,1.6,94.5983,M,37.55,M,1.0,0000*6D,37.233133011666666,137.02463691333332,679602.8534905275,4122655.560712279
1029,[2021-02-22 16:27:38.722] $GPGGA,72738.3,3713.9879800999997,N,13701.478215600002,E,4,10,1.6,94.6031,M,37.55,M,1.0,0000*66,37.233133001666666,137.02463692666672,679602.8546971815,4122655.5596280177
1030,[2021-02-22 16:27:38.816] $GPGGA,72738.4,3713.9879802,N,13701.4782152,E,4,10,1.6,94.605,M,37.55,M,1.0,0000*61,37.233133003333336,137.02463692,679602.8541017633,4122655.559800294
1031,[2021-02-22 16:27:38.894] $GPGGA,72738.5,3713.98798,N,13701.4782144,E,4,10,1.6,94.6075,M,37.55,M,1.0,0000*62,37.233132999999995,137.02463690666667,679602.8529267582,4122655.559405137
1032,[2021-02-22 16:27:39.019] $GPGGA,72738.6,3713.9879797,N,13701.4782132,E,4,10,1.6,94.6093,M,37.55,M,1.0,0000*69,37.233132995,137.02463688666666,679602.8511642505,4122655.5588124017
1033,[2021-02-22 16:27:39.097] $GPGGA,72738.7,3713.9879793000005,N,13701.4782132,E,4,10,1.6,94.6067,M,37.55,M,1.0,0000*67,37.233132988333345,137.02463688666666,679602.8511800726,4122655.5580726946
1034,[2021-02-22 16:27:39.222] $GPGGA,72738.8,3713.9879785,N,13701.4782125,E,4,10,1.6,94.6066,M,37.55,M,1.0,0000*68,37.233132975,137.02463687500003,679602.8501766692,4122655.556571134
1035,[2021-02-22 16:27:39.300] $GPGGA,72738.9,3713.9879787,N,13701.478211200001,E,4,10,1.6,94.604,M,37.55,M,1.0,0000*6B,37.23313297833333,137.02463685333333,679602.8482465199,4122655.556899874
1036,[2021-02-22 16:27:39.425] $GPGGA,72739.0,3713.9879785,N,13701.4782104,E,4,10,1.6,94.6044,M,37.55,M,2.0,0000*61,37.233132975,137.02463684,679602.8470715147,4122655.5565047157
1037,[2021-02-22 16:27:39.519] $GPGGA,72739.1,3713.987978,N,13701.4782097,E,4,10,1.6,94.6054,M,37.55,M,2.0,0000*6F,37.233132966666666,137.0246368283333,679602.8460562401,4122655.5555579425
1038,[2021-02-22 16:27:39.613] $GPGGA,72739.2,3713.9879783,N,13701.478207799997,E,4,10,1.6,94.6075,M,37.55,M,2.0,0000*6D,37.23313297166666,137.0246367966666,679602.843234947,4122655.55605263
1039,[2021-02-22 16:27:39.707] $GPGGA,72739.3,3713.9879779,N,13701.4782071,E,4,10,1.6,94.6062,M,37.55,M,2.0,0000*66,37.233132964999996,137.024636785,679602.8422157236,4122655.555290782
1040,[2021-02-22 16:27:39.816] $GPGGA,72739.4,3713.9879763999998,N,13701.478206099999,E,4,10,1.6,94.6088,M,37.55,M,2.0,0000*68,37.23313294,137.0246367683333,679602.8407964081,4122655.552485245
1041,[2021-02-22 16:27:39.894] $GPGGA,72739.5,3713.9879768,N,13701.478206400001,E,4,10,1.6,94.6098,M,37.55,M,2.0,0000*61,37.233132946666665,137.02463677333333,679602.8412241824,4122655.5532344426
1042,[2021-02-22 16:27:40.019] $GPGGA,72739.6,3713.9879770999996,N,13701.4782086,E,4,10,1.6,94.6127,M,37.55,M,2.0,0000*63,37.23313295166666,137.02463681,679602.8444653342,4122655.5538588054
1043,[2021-02-22 16:27:40.097] $GPGGA,72739.7,3713.9879759000005,N,13701.478207299999,E,4,10,1.6,94.6136,M,37.55,M,2.0,0000*62,37.233132931666674,137.0246367883333,679602.8425905601,4122655.551598564
1044,[2021-02-22 16:27:40.222] $GPGGA,72739.8,3713.9879766999998,N,13701.4782092,E,4,10,1.6,94.6129,M,37.55,M,2.0,0000*61,37.233132944999994,137.02463682000004,679602.8453683447,4122655.553138073
1045,[2021-02-22 16:27:40.300] $GPGGA,72739.9,3713.9879770999996,N,13701.4782099,E,4,10,1.6,94.6116,M,37.55,M,2.0,0000*60,37.23313295166666,137.02463683166667,679602.8463875703,4122655.5538999215
1046,[2021-02-22 16:27:40.425] $GPGGA,72740.0,3713.9879776000002,N,13701.478210199999,E,4,10,1.6,94.6095,M,37.55,M,3.0,0000*68,37.23313296,137.02463683666667,679602.8468113866,4122655.554834047
1047,[2021-02-22 16:27:40.519] $GPGGA,72740.1,3713.9879774000005,N,13701.478209399998,E,4,10,1.6,94.6093,M,37.55,M,3.0,0000*63,37.23313295666668,137.02463682333334,679602.8456363815,4122655.5544388914
1048,[2021-02-22 16:27:40.613] $GPGGA,72740.2,3713.9879778000004,N,13701.4782105,E,4,10,1.6,94.6107,M,37.55,M,3.0,0000*69,37.23313296333333,137.02463684166665,679602.8472470675,4122655.5552133895
1049,[2021-02-22 16:27:40.722] $GPGGA,72740.3,3713.9879799,N,13701.4782104,E,4,10,1.6,94.6101,M,37.55,M,3.0,0000*60,37.23313299833333,137.02463684,679602.8470161371,4122655.5590936993
1050,[2021-02-22 16:27:40.800] $GPGGA,72740.4,3713.9879782,N,13701.478207700002,E,4,10,1.6,94.6131,M,37.55,M,3.0,0000*6B,37.23313297,137.02463679500002,679602.8430910453,4122655.55586454
1051,[2021-02-22 16:27:40.925] $GPGGA,72740.5,3713.9879755,N,13701.4782063,E,4,10,1.6,94.6113,M,37.55,M,3.0,0000*65,37.23313292500001,137.02463677166668,679602.8411277403,4122655.550827227
1052,[2021-02-22 16:27:41.003] $GPGGA,72740.6,3713.9879736999997,N,13701.4782097,E,4,10,1.6,94.6095,M,37.55,M,3.0,0000*66,37.23313289499999,137.0246368283333,679602.8462263284,4122655.5476060687
1053,[2021-02-22 16:27:41.113] $GPGGA,72740.7,3713.987974,N,13701.478212900001,E,4,10,1.6,94.6083,M,37.55,M,3.0,0000*64,37.233132899999994,137.0246368816667,679602.8509461291,4122655.54826206
1054,[2021-02-22 16:27:41.191] $GPGGA,72740.8,3713.9879733000002,N,13701.478213799997,E,4,10,1.6,94.6085,M,37.55,M,3.0,0000*69,37.23313288833334,137.02463689666664,679602.8523045911,4122655.546996035
1055,[2021-02-22 16:27:41.316] $GPGGA,72740.9,3713.9879740999995,N,13701.478211200001,E,4,10,1.6,94.6058,M,37.55,M,3.0,0000*65,37.23313290166666,137.02463685333333,679602.8484284747,4122655.5483932197
1056,[2021-02-22 16:27:41.394] $GPGGA,72741.0,3713.9879765,N,13701.4782092,E,4,10,1.6,94.6054,M,37.55,M,4.0,0000*69,37.233132941666675,137.02463682000004,679602.8453762557,4122655.5527682197
1057,[2021-02-22 16:27:41.503] $GPGGA,72741.1,3713.9879774000005,N,13701.478209,E,4,10,1.6,94.6035,M,37.55,M,4.0,0000*6D,37.23313295666668,137.02463681666669,679602.8450449257,4122655.554426241
1058,[2021-02-22 16:27:41.597] $GPGGA,72741.2,3713.9879769,N,13701.4782072,E,4,10,1.6,94.603,M,37.55,M,4.0,0000*6B,37.23313294833333,137.02463678666666,679602.8424031431,4122655.5534446714
1059,[2021-02-22 16:27:41.722] $GPGGA,72741.3,3713.9879745,N,13701.478206200001,E,4,10,1.6,94.6054,M,37.55,M,4.0,0000*67,37.23313290833334,137.02463677000003,679602.8410194342,4122655.5489747925
1060,[2021-02-22 16:27:41.800] $GPGGA,72741.4,3713.9879710999994,N,13701.478205000001,E,4,10,1.6,94.6041,M,37.55,M,4.0,0000*64,37.23313285166665,137.02463675,679602.8393795481,4122655.54264931
1061,[2021-02-22 16:27:41.910] $GPGGA,72741.5,3713.9879693999997,N,13701.4782053,E,4,10,1.6,94.6058,M,37.55,M,4.0,0000*62,37.23313282333332,137.02463675500002,679602.8398903864,4122655.539515035
1062,[2021-02-22 16:27:42.003] $GPGGA,72741.6,3713.9879696999997,N,13701.478204899999,E,4,10,1.6,94.6038,M,37.55,M,4.0,0000*6F,37.23313282833333,137.0246367483333,679602.8392870573,4122655.5400571674
1063,[2021-02-22 16:27:42.113] $GPGGA,72741.7,3713.9879702,N,13701.4782018,E,4,10,1.6,94.6076,M,37.55,M,4.0,0000*6D,37.23313283666667,137.02463669666668,679602.8346834853,4122655.540883758
1064,[2021-02-22 16:27:42.191] $GPGGA,72741.8,3713.9879703,N,13701.4782,E,4,10,1.6,94.6081,M,37.55,M,4.0,0000*62,37.23313283833333,137.02463666666665,679602.8320179695,4122655.541011755
1065,[2021-02-22 16:27:42.316] $GPGGA,72741.9,3713.9879715,N,13701.4782007,E,4,10,1.6,94.6079,M,37.55,M,4.0,0000*64,37.233132858333335,137.02463667833334,679602.8330055552,4122655.5432530204
1066,[2021-02-22 16:27:42.425] $GPGGA,72742.0,3713.9879719000005,N,13701.4782014,E,4,10,1.6,94.607,M,37.55,M,5.0,0000*68,37.23313286500001,137.02463669,679602.834024783,4122655.5440148707
1067,[2021-02-22 16:27:42.519] $GPGGA,72742.1,3713.9879721,N,13701.4782014,E,4,10,1.6,94.61,M,37.55,M,5.0,0000*64,37.233132868333335,137.02463669,679602.834016872,4122655.5443847235
1068,[2021-02-22 16:27:42.613] $GPGGA,72742.2,3713.9879723000004,N,13701.4782021,E,4,10,1.6,94.6109,M,37.55,M,5.0,0000*6A,37.233132871666676,137.02463670166668,679602.8350440131,4122655.5447767186
1069,[2021-02-22 16:27:42.691] $GPGGA,72742.3,3713.9879721999996,N,13701.478202899998,E,4,10,1.6,94.61,M,37.55,M,5.0,0000*6B,37.23313286999999,137.02463671499996,679602.8362308781,4122655.5446170922
1070,[2021-02-22 16:27:42.816] $GPGGA,72742.4,3713.987972,N,13701.4782044,E,4,10,1.6,94.6116,M,37.55,M,5.0,0000*62,37.23313286666666,137.02463674000003,679602.8384567623,4122655.5442946786
1071,[2021-02-22 16:27:42.894] $GPGGA,72742.5,3713.9879715,N,13701.4782044,E,4,10,1.6,94.6116,M,37.55,M,5.0,0000*65,37.233132858333335,137.02463674000003,679602.8384765399,4122655.5433700434
1072,[2021-02-22 16:27:43.019] $GPGGA,72742.6,3713.9879708000003,N,13701.478204199999,E,4,10,1.6,94.6141,M,37.55,M,5.0,0000*6E,37.23313284666667,137.02463673666662,679602.838208494,4122655.542069227
1073,[2021-02-22 16:27:43.097] $GPGGA,72742.7,3713.987969,N,13701.4782037,E,4,10,1.6,94.6136,M,37.55,M,5.0,0000*6D,37.23313281666667,137.02463672833335,679602.8375403761,4122655.538724723
1074,[2021-02-22 16:27:43.222] $GPGGA,72742.8,3713.9879676,N,13701.4782026,E,4,10,1.6,94.6126,M,37.55,M,5.0,0000*6B,37.23313279333333,137.02463671,679602.8359692456,4122655.5361009515
1075,[2021-02-22 16:27:43.300] $GPGGA,72742.9,3713.9879668000003,N,13701.478200799998,E,4,10,1.6,94.6138,M,37.55,M,5.0,0000*66,37.23313278000001,137.02463668,679602.8333393274,4122655.534564604
1076,[2021-02-22 16:27:43.425] $GPGGA,72743.0,3713.9879670999994,N,13701.4782019,E,4,10,1.6,94.6146,M,37.55,M,6.0,0000*6C,37.233132784999995,137.02463669833332,679602.8349539711,4122655.5351541745
1077,[2021-02-22 16:27:43.519] $GPGGA,72743.1,3713.9879659000003,N,13701.4782012,E,4,10,1.6,94.6163,M,37.55,M,6.0,0000*6B,37.233132765,137.02463668666664,679602.8339663852,4122655.532912909
1078,[2021-02-22 16:27:43.613] $GPGGA,72743.2,3713.9879636999995,N,13701.478199599998,E,4,10,1.6,94.6202,M,37.55,M,1.0,0000*65,37.233132728333324,137.02463665999997,679602.8316875747,4122655.528793905
1079,[2021-02-22 16:27:43.691] $GPGGA,72743.3,3713.9879629,N,13701.4781991,E,4,10,1.6,94.6228,M,37.55,M,1.0,0000*64,37.233132714999996,137.02463665166667,679602.8309798993,4122655.527298673
1080,[2021-02-22 16:27:43.816] $GPGGA,72743.4,3713.9879646,N,13701.478199399999,E,4,10,1.6,94.6253,M,37.55,M,1.0,0000*63,37.23313274333333,137.02463665666662,679602.8313562446,4122655.5304519245
1081,[2021-02-22 16:27:43.894] $GPGGA,72743.5,3713.9879651,N,13701.4781986,E,4,10,1.6,94.6274,M,37.55,M,1.0,0000*62,37.233132751666666,137.02463664333334,679602.8301535575,4122655.531351259
1082,[2021-02-22 16:27:44.019] $GPGGA,72743.6,3713.9879644000002,N,13701.478198800001,E,4,10,1.6,94.6267,M,37.55,M,1.0,0000*69,37.23313274000001,137.0246366466667,679602.8304769765,4122655.5300630946
1083,[2021-02-22 16:27:44.113] $GPGGA,72743.7,3713.9879641999996,N,13701.478199599998,E,4,10,1.6,94.6297,M,37.55,M,1.0,0000*6E,37.23313273666666,137.02463665999997,679602.831667797,4122655.529718542
1084,[2021-02-22 16:27:44.191] $GPGGA,72743.8,3713.9879645000005,N,13701.478200100002,E,4,10,1.6,94.6299,M,37.55,M,1.0,0000*6C,37.23313274166668,137.02463666833336,679602.832395257,4122655.5302891387
1085,[2021-02-22 16:27:44.316] $GPGGA,72743.9,3713.9879643,N,13701.478197499999,E,4,10,1.6,94.6298,M,37.55,M,1.0,0000*63,37.23313273833333,137.02463662499997,679602.8285586892,4122655.52983705
1086,[2021-02-22 16:27:44.394] $GPGGA,72744.0,3713.9879651999995,N,13701.478198100001,E,4,10,1.6,94.627,M,37.55,M,2.0,0000*63,37.23313275333333,137.02463663500004,679602.8294102822,4122655.531520373
1087,[2021-02-22 16:27:44.503] $GPGGA,72744.1,3713.9879654,N,13701.478199500001,E,4,10,1.6,94.6273,M,37.55,M,2.0,0000*62,37.23313275666666,137.02463665833338,679602.8314724733,4122655.5319345067
1088,[2021-02-22 16:27:44.597] $GPGGA,72744.2,3713.9879659999997,N,13701.4782006,E,4,10,1.6,94.6259,M,37.55,M,2.0,0000*6E,37.233132766666664,137.0246366766667,679602.8330752461,4122655.5330788596
1089,[2021-02-22 16:27:44.722] $GPGGA,72744.3,3713.9879654,N,13701.4782018,E,4,10,1.6,94.6255,M,37.55,M,2.0,0000*6B,37.23313275666666,137.02463669666668,679602.8348733513,4122655.5320072505
1090,[2021-02-22 16:27:44.800] $GPGGA,72744.4,3713.9879655,N,13701.478203400002,E,4,10,1.6,94.6287,M,37.55,M,2.0,0000*6C,37.23313275833333,137.02463672333334,679602.837235226,4122655.5322427806
1091,[2021-02-22 16:27:44.925] $GPGGA,72744.5,3713.9879664000005,N,13701.478201700002,E,4,10,1.6,94.6279,M,37.55,M,2.0,0000*6F,37.233132773333345,137.02463669500003,679602.8346859341,4122655.5338533605
1092,[2021-02-22 16:27:45.003] $GPGGA,72744.6,3713.9879666,N,13701.478200900001,E,4,10,1.6,94.6268,M,37.55,M,2.0,0000*61,37.233132776666665,137.0246366816667,679602.8334951068,4122655.534197911
1093,[2021-02-22 16:27:45.112] $GPGGA,72744.7,3713.9879669,N,13701.478199700001,E,4,10,1.6,94.6267,M,37.55,M,2.0,0000*6D,37.23313278166667,137.02463666166668,679602.8317088659,4122655.5347147407
1094,[2021-02-22 16:27:45.191] $GPGGA,72744.8,3713.9879669,N,13701.478200900001,E,4,10,1.6,94.6251,M,37.55,M,2.0,0000*6A,37.23313278166667,137.0246366816667,679602.8334832402,4122655.5347526935
1095,[2021-02-22 16:27:45.316] $GPGGA,72744.9,3713.9879671999997,N,13701.478200900001,E,4,10,1.6,94.6265,M,37.55,M,2.0,0000*66,37.233132786666665,137.0246366816667,679602.8334713737,4122655.5353074744
1096,[2021-02-22 16:27:45.394] $GPGGA,72745.0,3713.9879674999997,N,13701.4782005,E,4,10,1.6,94.6243,M,37.55,M,3.0,0000*60,37.23313279166666,137.024636675,679602.8328680489,4122655.5358496048
1097,[2021-02-22 16:27:45.503] $GPGGA,72745.1,3713.987968,N,13701.478199599998,E,4,10,1.6,94.6245,M,37.55,M,3.0,0000*6D,37.2331328,137.02463665999997,679602.8315174866,4122655.5367457774
1098,[2021-02-22 16:27:45.612] $GPGGA,72745.2,3713.9879678,N,13701.478199500001,E,4,10,1.6,94.6251,M,37.55,M,3.0,0000*6F,37.233132796666666,137.02463665833338,679602.8313775404,4122655.5363727603
1099,[2021-02-22 16:27:45.722] $GPGGA,72745.3,3713.9879665,N,13701.4781992,E,4,10,1.6,94.6227,M,37.55,M,3.0,0000*64,37.233132774999994,137.02463665333332,679602.8309853638,4122655.533959217
1100,[2021-02-22 16:27:45.800] $GPGGA,72745.4,3713.9879655,N,13701.478198800001,E,4,10,1.6,94.6264,M,37.55,M,3.0,0000*6C,37.23313275833333,137.0246366466667,679602.8304334655,4122655.532097294
1101,[2021-02-22 16:27:45.909] $GPGGA,72745.5,3713.9879654,N,13701.4781979,E,4,10,1.6,94.6242,M,37.55,M,3.0,0000*66,37.23313275666666,137.02463663166665,679602.8291066363,4122655.531883901
1102,[2021-02-22 16:27:46.019] $GPGGA,72745.6,3713.9879655999994,N,13701.478196099999,E,4,10,1.6,94.6243,M,37.55,M,3.0,0000*6F,37.23313275999998,137.02463660166663,679602.826437165,4122655.5321968235
1103,[2021-02-22 16:27:46.097] $GPGGA,72745.7,3713.9879651,N,13701.4781931,E,4,10,1.6,94.6243,M,37.55,M,3.0,0000*6C,37.233132751666666,137.02463655166665,679602.8220210101,4122655.5311773065
1104,[2021-02-22 16:27:46.222] $GPGGA,72745.8,3713.9879666,N,13701.478191299999,E,4,10,1.6,94.6245,M,37.55,M,3.0,0000*61,37.233132776666665,137.02463652166662,679602.8193001166,4122655.5338942846
1105,[2021-02-22 16:27:46.300] $GPGGA,72745.9,3713.9879669,N,13701.4781903,E,4,10,1.6,94.6286,M,37.55,M,3.0,0000*61,37.23313278166667,137.024636505,679602.8178096082,4122655.5344174393
1106,[2021-02-22 16:27:46.425] $GPGGA,72746.0,3713.9879666999996,N,13701.4781889,E,4,10,1.6,94.6266,M,37.55,M,4.0,0000*6F,37.23313277833333,137.02463648166668,679602.8157474193,4122655.5340033057
1107,[2021-02-22 16:27:46.519] $GPGGA,72746.1,3713.9879659999997,N,13701.478188799998,E,4,10,1.6,94.6271,M,37.55,M,4.0,0000*6E,37.233132766666664,137.02463647999997,679602.8156272395,4122655.532705651
1108,[2021-02-22 16:27:46.612] $GPGGA,72746.2,3713.9879645000005,N,13701.4781885,E,4,10,1.6,94.6251,M,37.55,M,4.0,0000*65,37.23313274166668,137.024636475,679602.8152429829,4122655.5299222562
1109,[2021-02-22 16:27:46.691] $GPGGA,72746.3,3713.9879645000005,N,13701.478189200003,E,4,10,1.6,94.6246,M,37.55,M,4.0,0000*64,37.23313274166668,137.0246364866667,679602.8162780375,4122655.5299443956
1110,[2021-02-22 16:27:46.815] $GPGGA,72746.4,3713.9879634999998,N,13701.478189500001,E,4,10,1.6,94.6255,M,37.55,M,4.0,0000*61,37.233132725,137.0246364916667,679602.816761187,4122655.52810461
1111,[2021-02-22 16:27:46.894] $GPGGA,72746.5,3713.9879628,N,13701.478189,E,4,10,1.6,94.6239,M,37.55,M,4.0,0000*63,37.233132713333326,137.02463648333332,679602.8160495493,4122655.5267943055
1112,[2021-02-22 16:27:47.019] $GPGGA,72746.6,3713.9879634000004,N,13701.4781889,E,4,10,1.6,94.6246,M,37.55,M,4.0,0000*6D,37.23313272333334,137.02463648166668,679602.815877952,4122655.527900708
1113,[2021-02-22 16:27:47.097] $GPGGA,72746.7,3713.9879647,N,13701.4781878,E,4,10,1.6,94.6246,M,37.55,M,4.0,0000*66,37.233132745,137.02463646333334,679602.814200022,4122655.5302699693
1114,[2021-02-22 16:27:47.222] $GPGGA,72746.8,3713.987965,N,13701.478186800001,E,4,10,1.6,94.622,M,37.55,M,4.0,0000*6E,37.233132749999996,137.02463644666668,679602.8127095111,4122655.5307931243
1115,[2021-02-22 16:27:47.300] $GPGGA,72746.9,3713.9879646,N,13701.478186200002,E,4,10,1.6,94.6231,M,37.55,M,4.0,0000*62,37.23313274333333,137.02463643666667,679602.8118381451,4122655.5300344382
1116,[2021-02-22 16:27:47.425] $GPGGA,72747.0,3713.9879638,N,13701.478187,E,4,10,1.6,94.6195,M,37.55,M,5.0,0000*6C,37.23313273000001,137.02463645,679602.8130527055,4122655.5285803243
1117,[2021-02-22 16:27:47.519] $GPGGA,72747.1,3713.9879633,N,13701.4781865,E,4,10,1.6,94.6193,M,37.55,M,5.0,0000*64,37.233132721666664,137.02463644166667,679602.8123331612,4122655.5276398733
1118,[2021-02-22 16:27:47.612] $GPGGA,72747.2,3713.9879621,N,13701.4781856,E,4,10,1.6,94.6191,M,37.55,M,5.0,0000*66,37.23313270166666,137.0246364266667,679602.8110498497,4122655.525392282
1119,[2021-02-22 16:27:47.722] $GPGGA,72747.3,3713.9879616,N,13701.4781864,E,4,10,1.6,94.6179,M,37.55,M,5.0,0000*64,37.23313269333334,137.02463643999997,679602.8122525369,4122655.524492947
1120,[2021-02-22 16:27:47.800] $GPGGA,72747.4,3713.9879615,N,13701.478187399998,E,4,10,1.6,94.6178,M,37.55,M,5.0,0000*60,37.23313269166666,137.02463645666666,679602.8137351389,4122655.524339647
1121,[2021-02-22 16:27:47.925] $GPGGA,72747.5,3713.9879611,N,13701.478186100001,E,4,10,1.6,94.6171,M,37.55,M,5.0,0000*68,37.233132684999994,137.02463643500002,679602.8118287273,4122655.5235588206
1122,[2021-02-22 16:27:48.003] $GPGGA,72747.6,3713.9879608,N,13701.478184900001,E,4,10,1.6,94.616,M,37.55,M,5.0,0000*69,37.233132680000004,137.024636415,679602.8100662195,4122655.5229660883
1123,[2021-02-22 16:27:48.112] $GPGGA,72747.7,3713.9879608,N,13701.4781859,E,4,10,1.6,94.6175,M,37.55,M,5.0,0000*6D,37.233132680000004,137.02463643166664,679602.8115448614,4122655.5229977155
1124,[2021-02-22 16:27:48.206] $GPGGA,72747.8,3713.987961,N,13701.4781864,E,4,10,1.6,94.6173,M,37.55,M,5.0,0000*63,37.23313268333334,137.02463643999997,679602.8122762702,4122655.5233833836
1125,[2021-02-22 16:27:48.315] $GPGGA,72747.9,3713.9879606,N,13701.478186200002,E,4,10,1.6,94.6141,M,37.55,M,5.0,0000*62,37.23313267666667,137.02463643666667,679602.8119963666,4122655.5226373486
1126,[2021-02-22 16:27:48.394] $GPGGA,72748.0,3713.9879611999995,N,13701.4781864,E,4,10,1.6,94.6126,M,37.55,M,6.0,0000*65,37.23313268666666,137.02463643999997,679602.8122683591,4122655.5237532365
1127,[2021-02-22 16:27:48.503] $GPGGA,72748.1,3713.9879621,N,13701.478186200002,E,4,10,1.6,94.6143,M,37.55,M,6.0,0000*61,37.23313270166666,137.02463643666667,679602.8119370334,4122655.5254112575
1128,[2021-02-22 16:27:48.597] $GPGGA,72748.2,3713.9879608,N,13701.4781856,E,4,10,1.6,94.6133,M,37.55,M,1.0,0000*6E,37.233132680000004,137.0246364266667,679602.8111012718,4122655.5229882277
1129,[2021-02-22 16:27:48.722] $GPGGA,72748.3,3713.9879603,N,13701.478185,E,4,10,1.6,94.6114,M,37.55,M,1.0,0000*67,37.23313267166666,137.02463641666665,679602.8102338589,4122655.5220446126
1130,[2021-02-22 16:27:48.800] $GPGGA,72748.4,3713.9879608,N,13701.4781857,E,4,10,1.6,94.611,M,37.55,M,1.0,0000*68,37.233132680000004,137.02463642833334,679602.8112491358,4122655.522991391
1131,[2021-02-22 16:27:48.925] $GPGGA,72748.5,3713.9879601999996,N,13701.478186800001,E,4,10,1.6,94.611,M,37.55,M,1.0,0000*6F,37.23313266999999,137.02463644666668,679602.8128993772,4122655.521916616
1132,[2021-02-22 16:27:49.003] $GPGGA,72748.6,3713.9879596999995,N,13701.478187600002,E,4,10,1.6,94.6138,M,37.55,M,1.0,0000*66,37.23313266166666,137.02463646000004,679602.8141020732,4122655.521017282
1133,[2021-02-22 16:27:49.112] $GPGGA,72748.7,3713.9879594999998,N,13701.4781879,E,4,10,1.6,94.6142,M,37.55,M,1.0,0000*67,37.233132658333325,137.024636465,679602.8145535717,4122655.5206569154
1134,[2021-02-22 16:27:49.190] $GPGGA,72748.8,3713.9879604999996,N,13701.4781877,E,4,10,1.6,94.6157,M,37.55,M,1.0,0000*68,37.23313267499999,137.0246364616667,679602.8142182906,4122655.5224998635
1135,[2021-02-22 16:27:49.315] $GPGGA,72748.9,3713.98796,N,13701.4781873,E,4,10,1.6,94.6159,M,37.55,M,1.0,0000*66,37.23313266666667,137.024636455,679602.8136466101,4122655.5215625768
1136,[2021-02-22 16:27:49.393] $GPGGA,72749.0,3713.9879604999996,N,13701.4781871,E,4,10,1.6,94.6139,M,37.55,M,2.0,0000*6C,37.23313267499999,137.02463645166665,679602.8133311024,4122655.522480887
1137,[2021-02-22 16:27:49.503] $GPGGA,72749.1,3713.9879599,N,13701.4781863,E,4,10,1.6,94.6142,M,37.55,M,2.0,0000*64,37.23313266500001,137.02463643833332,679602.8121719194,4122655.5213460214
1138,[2021-02-22 16:27:49.612] $GPGGA,72749.2,3713.9879606,N,13701.478186000002,E,4,10,1.6,94.6139,M,37.55,M,2.0,0000*6D,37.23313267666667,137.02463643333337,679602.811700641,4122655.522631023
1139,[2021-02-22 16:27:49.706] $GPGGA,72749.3,3713.9879619000003,N,13701.4781847,E,4,10,1.6,94.6151,M,37.55,M,2.0,0000*69,37.23313269833334,137.02463641166665,679602.8097269784,4122655.5249939617
1140,[2021-02-22 16:27:49.815] $GPGGA,72749.4,3713.9879611,N,13701.4781829,E,4,10,1.6,94.614,M,37.55,M,2.0,0000*6E,37.233132684999994,137.02463638166668,679602.8070970646,4122655.5234576124
1141,[2021-02-22 16:27:49.893] $GPGGA,72749.5,3713.9879598000007,N,13701.4781824,E,4,10,1.6,94.6117,M,37.55,M,2.0,0000*62,37.23313266333334,137.02463637333335,679602.8064091644,4122655.521037747
1142,[2021-02-22 16:27:50.018] $GPGGA,72749.6,3713.9879586999996,N,13701.478180700002,E,4,10,1.6,94.6108,M,37.55,M,2.0,0000*60,37.23313264499999,137.02463634500003,679602.8039389836,4122655.5189497774
1143,[2021-02-22 16:27:50.096] $GPGGA,72749.7,3713.9879575000004,N,13701.478178,E,4,10,1.6,94.611,M,37.55,M,2.0,0000*65,37.233132625,137.0246363,679602.7999941072,4122655.5166452574
1144,[2021-02-22 16:27:50.221] $GPGGA,72749.8,3713.9879562,N,13701.4781752,E,4,10,1.6,94.6098,M,37.55,M,2.0,0000*62,37.23313260333334,137.02463625333334,679602.7959053268,4122655.5141526447
1145,[2021-02-22 16:27:50.300] $GPGGA,72749.9,3713.9879564999997,N,13701.478174099999,E,4,10,1.6,94.6069,M,37.55,M,2.0,0000*68,37.23313260833332,137.02463623499997,679602.7942669478,4122655.5146726347
1146,[2021-02-22 16:27:50.425] $GPGGA,72750.0,3713.9879560000004,N,13701.478173399999,E,4,10,1.6,94.606,M,37.55,M,3.0,0000*66,37.233132600000005,137.02463622333332,679602.7932516753,4122655.5137258605
1147,[2021-02-22 16:27:50.518] $GPGGA,72750.1,3713.9879549999996,N,13701.4781732,E,4,10,1.6,94.6047,M,37.55,M,3.0,0000*67,37.23313258333333,137.02463622,679602.7929955028,4122655.5118702617
1148,[2021-02-22 16:27:50.612] $GPGGA,72750.2,3713.9879545999997,N,13701.4781739,E,4,10,1.6,94.6039,M,37.55,M,3.0,0000*61,37.23313257666666,137.02463623166668,679602.7940463773,4122655.5111526917
1149,[2021-02-22 16:27:50.690] $GPGGA,72750.3,3713.9879545999997,N,13701.478174700002,E,4,10,1.6,94.6029,M,37.55,M,3.0,0000*68,37.23313257666666,137.02463624500004,679602.7952292957,4122655.511177994
1150,[2021-02-22 16:27:50.815] $GPGGA,72750.4,3713.9879548,N,13701.4781748,E,4,10,1.6,94.6054,M,37.55,M,3.0,0000*64,37.233132579999996,137.0246362466667,679602.7953692463,4122655.5115510114
1151,[2021-02-22 16:27:50.893] $GPGGA,72750.5,3713.9879543000006,N,13701.478174000002,E,4,10,1.6,94.6063,M,37.55,M,3.0,0000*62,37.23313257166668,137.02463623333335,679602.7942061101,4122655.5106010754
1152,[2021-02-22 16:27:51.018] $GPGGA,72750.6,3713.9879547,N,13701.4781736,E,4,10,1.6,94.6087,M,37.55,M,3.0,0000*6E,37.23313257833333,137.02463622666667,679602.7935988276,4122655.5113281324
1153,[2021-02-22 16:27:51.096] $GPGGA,72750.7,3713.9879541,N,13701.4781744,E,4,10,1.6,94.6082,M,37.55,M,3.0,0000*69,37.23313256833333,137.02463624,679602.794805477,4122655.5102438703
1154,[2021-02-22 16:27:51.221] $GPGGA,72750.8,3713.9879541,N,13701.4781752,E,4,10,1.6,94.6077,M,37.55,M,3.0,0000*6B,37.23313256833333,137.02463625333334,679602.7959883932,4122655.5102691725
1155,[2021-02-22 16:27:51.315] $GPGGA,72750.9,3713.9879537,N,13701.478175299999,E,4,10,1.6,94.6062,M,37.55,M,3.0,0000*6E,37.233132561666665,137.024636255,679602.7961520771,4122655.5095326263
1156,[2021-02-22 16:27:51.393] $GPGGA,72751.0,3713.9879541999994,N,13701.4781764,E,4,10,1.6,94.604,M,37.55,M,4.0,0000*67,37.233132569999995,137.02463627333333,679602.7977588075,4122655.510492052
1157,[2021-02-22 16:27:51.503] $GPGGA,72751.1,3713.9879559,N,13701.478177500001,E,4,10,1.6,94.6058,M,37.55,M,4.0,0000*65,37.233132598333334,137.0246362916667,679602.799318076,4122655.513670607
1158,[2021-02-22 16:27:51.612] $GPGGA,72751.2,3713.9879569,N,13701.4781771,E,4,10,1.6,94.6068,M,37.55,M,4.0,0000*62,37.233132615,137.024636285,679602.7986870625,4122655.515507229
1159,[2021-02-22 16:27:51.721] $GPGGA,72751.3,3713.9879576,N,13701.478178,E,4,10,1.6,94.6086,M,37.55,M,4.0,0000*63,37.23313262666667,137.0246363,679602.7999901517,4122655.5168301845
1160,[2021-02-22 16:27:51.799] $GPGGA,72751.4,3713.9879576,N,13701.478178600002,E,4,10,1.6,94.6112,M,37.55,M,4.0,0000*6E,37.23313262666667,137.02463631000003,679602.80087734,4122655.5168491607
1161,[2021-02-22 16:27:51.924] $GPGGA,72751.5,3713.9879576,N,13701.478179499998,E,4,10,1.6,94.6138,M,37.55,M,4.0,0000*65,37.23313262666667,137.02463632499996,679602.8022081134,4122655.5168776247
1162,[2021-02-22 16:27:52.003] $GPGGA,72751.6,3713.9879588,N,13701.478181,E,4,10,1.6,94.6137,M,37.55,M,4.0,0000*6A,37.23313264666667,137.02463635000004,679602.8043786199,4122655.5191441947
1163,[2021-02-22 16:27:52.112] $GPGGA,72751.7,3713.9879594999998,N,13701.478182299998,E,4,10,1.6,94.6139,M,37.55,M,4.0,0000*69,37.233132658333325,137.02463637166662,679602.8062731626,4122655.5204798
1164,[2021-02-22 16:27:52.190] $GPGGA,72751.8,3713.9879596999995,N,13701.4781815,E,4,10,1.6,94.6141,M,37.55,M,4.0,0000*6E,37.23313266166666,137.0246363583333,679602.8050823376,4122655.5208243527
1165,[2021-02-22 16:27:52.315] $GPGGA,72751.9,3713.9879598000007,N,13701.4781812,E,4,10,1.6,94.6143,M,37.55,M,4.0,0000*65,37.23313266333334,137.02463635333334,679602.8046347902,4122655.520999794
1166,[2021-02-22 16:27:52.393] $GPGGA,72752.0,3713.9879608,N,13701.4781826,E,4,10,1.6,94.6144,M,37.55,M,5.0,0000*64,37.233132680000004,137.02463637666665,679602.8066653349,4122655.5228933445
1167,[2021-02-22 16:27:52.503] $GPGGA,72752.1,3713.9879608,N,13701.478183500001,E,4,10,1.6,94.6177,M,37.55,M,5.0,0000*67,37.233132680000004,137.0246363916667,679602.8079961195,4122655.522921809
1168,[2021-02-22 16:27:52.596] $GPGGA,72752.2,3713.98796,N,13701.4781826,E,4,10,1.6,94.619,M,37.55,M,5.0,0000*67,37.23313266666667,137.02463637666665,679602.8066969791,4122655.521413926
1169,[2021-02-22 16:27:52.721] $GPGGA,72752.3,3713.9879601999996,N,13701.4781836,E,4,10,1.6,94.6173,M,37.55,M,5.0,0000*68,37.23313266999999,137.02463639333334,679602.8081677145,4122655.5218154066
1170,[2021-02-22 16:27:52.799] $GPGGA,72752.4,3713.9879596,N,13701.4781829,E,4,10,1.6,94.6172,M,37.55,M,5.0,0000*6E,37.23313266,137.02463638166668,679602.8071563977,4122655.5206837053
1171,[2021-02-22 16:27:52.909] $GPGGA,72752.5,3713.9879594999998,N,13701.4781836,E,4,10,1.6,94.6155,M,37.55,M,5.0,0000*67,37.233132658333325,137.02463639333334,679602.8081954032,4122655.5205209153
1172,[2021-02-22 16:27:53.003] $GPGGA,72752.6,3713.9879591,N,13701.478183000001,E,4,10,1.6,94.6141,M,37.55,M,5.0,0000*63,37.23313265166666,137.02463638333333,679602.8073240393,4122655.51976223
1173,[2021-02-22 16:27:53.112] $GPGGA,72752.7,3713.9879599,N,13701.478183000001,E,4,10,1.6,94.6155,M,37.55,M,5.0,0000*6F,37.23313266500001,137.02463638333333,679602.807292395,4122655.521241651
1174,[2021-02-22 16:27:53.221] $GPGGA,72752.8,3713.98796,N,13701.478184600002,E,4,10,1.6,94.6136,M,37.55,M,5.0,0000*67,37.23313266666667,137.02463641000006,679602.8096542741,4122655.5214771815
1175,[2021-02-22 16:27:53.299] $GPGGA,72752.9,3713.9879613000007,N,13701.478182799998,E,4,10,1.6,94.6149,M,37.55,M,5.0,0000*64,37.23313268833334,137.02463637999995,679602.8069412827,4122655.5238243057
1176,[2021-02-22 16:27:53.424] $GPGGA,72753.0,3713.9879608,N,13701.478182299998,E,4,10,1.6,94.6116,M,37.55,M,6.0,0000*64,37.233132680000004,137.02463637166662,679602.8062217407,4122655.5228838557
1177,[2021-02-22 16:27:53.518] $GPGGA,72753.1,3713.9879607000003,N,13701.4781836,E,4,10,1.6,94.6128,M,37.55,M,6.0,0000*63,37.23313267833334,137.02463639333334,679602.8081479367,4122655.5227400446
1178,[2021-02-22 16:27:53.612] $GPGGA,72753.2,3713.9879601,N,13701.478184099999,E,4,10,1.6,94.6101,M,37.55,M,1.0,0000*6A,37.233132668333326,137.0246364016666,679602.8089109876,4122655.521646293
1179,[2021-02-22 16:27:53.690] $GPGGA,72753.3,3713.9879598000007,N,13701.478184399999,E,4,10,1.6,94.6059,M,37.55,M,1.0,0000*61,37.23313266333334,137.02463640666667,679602.8093664527,4122655.521101003
1180,[2021-02-22 16:27:53.815] $GPGGA,72753.4,3713.9879593,N,13701.478184399999,E,4,10,1.6,94.6031,M,37.55,M,1.0,0000*63,37.233132655000006,137.02463640666667,679602.8093862305,4122655.5201763664
1181,[2021-02-22 16:27:53.893] $GPGGA,72753.5,3713.9879586999996,N,13701.478184399999,E,4,10,1.6,94.5984,M,37.55,M,1.0,0000*63,37.23313264499999,137.02463640666667,679602.8094099638,4122655.5190668004
1182,[2021-02-22 16:27:54.018] $GPGGA,72753.6,3713.9879576,N,13701.4781831,E,4,10,1.6,94.5989,M,37.55,M,1.0,0000*61,37.23313262666667,137.02463638499998,679602.8075312341,4122655.5169914844
1183,[2021-02-22 16:27:54.096] $GPGGA,72753.7,3713.9879573,N,13701.4781824,E,4,10,1.6,94.5983,M,37.55,M,1.0,0000*6B,37.23313262166667,137.02463637333335,679602.806508053,4122655.516414565
1184,[2021-02-22 16:27:54.221] $GPGGA,72753.8,3713.9879560000004,N,13701.478182100002,E,4,10,1.6,94.5962,M,37.55,M,1.0,0000*6C,37.233132600000005,137.02463636833335,679602.806115883,4122655.5140010226
1185,[2021-02-22 16:27:54.299] $GPGGA,72753.9,3713.9879564000003,N,13701.4781829,E,4,10,1.6,94.5954,M,37.55,M,1.0,0000*64,37.23313260666667,137.02463638166668,679602.807282975,4122655.5147660333
1186,[2021-02-22 16:27:54.424] $GPGGA,72754.0,3713.9879585,N,13701.478183500001,E,4,10,1.6,94.5961,M,37.55,M,2.0,0000*6D,37.23313264166666,137.0246363916667,679602.808087097,4122655.518668481
1187,[2021-02-22 16:27:54.518] $GPGGA,72754.1,3713.9879583000006,N,13701.4781843,E,4,10,1.6,94.5947,M,37.55,M,2.0,0000*6F,37.23313263833335,137.02463640500002,679602.8092779241,4122655.5183239314
1188,[2021-02-22 16:27:54.612] $GPGGA,72754.2,3713.9879549,N,13701.478184200001,E,4,10,1.6,94.5955,M,37.55,M,2.0,0000*68,37.233132581666666,137.02463640333337,679602.8092645486,4122655.512033241
1189,[2021-02-22 16:27:54.690] $GPGGA,72754.3,3713.9879549,N,13701.478186899998,E,4,10,1.6,94.5984,M,37.55,M,2.0,0000*6C,37.233132581666666,137.02463644833333,679602.8132568824,4122655.5121186357
1190,[2021-02-22 16:27:54.815] $GPGGA,72754.4,3713.987957,N,13701.478191799999,E,4,10,1.6,94.6006,M,37.55,M,2.0,0000*66,37.233132616666666,137.02463652999998,679602.820419173,4122655.5161570823
1191,[2021-02-22 16:27:54.924] $GPGGA,72754.5,3713.9879603,N,13701.478194100002,E,4,10,1.6,94.6027,M,37.55,M,2.0,0000*6F,37.23313267166666,137.02463656833336,679602.823689527,4122655.5223324257
1192,[2021-02-22 16:27:55.002] $GPGGA,72754.6,3713.9879629,N,13701.478193599998,E,4,10,1.6,94.6027,M,37.55,M,2.0,0000*64,37.233132714999996,137.02463655999998,679602.8228473541,4122655.52712472
1193,[2021-02-22 16:27:55.112] $GPGGA,72754.7,3713.9879655999994,N,13701.4781939,E,4,10,1.6,94.6027,M,37.55,M,2.0,0000*62,37.23313275999998,137.02463656500004,679602.8231841533,4122655.532127243
1194,[2021-02-22 16:27:55.205] $GPGGA,72754.8,3713.9879662,N,13701.4781932,E,4,10,1.6,94.6008,M,37.55,M,2.0,0000*6C,37.23313277,137.02463655333335,679602.8221253678,4122655.5332146683
1195,[2021-02-22 16:27:55.315] $GPGGA,72754.9,3713.9879659000003,N,13701.478191799999,E,4,10,1.6,94.5992,M,37.55,M,2.0,0000*64,37.233132765,137.02463652999998,679602.8200671298,4122655.532615609
1196,[2021-02-22 16:27:55.393] $GPGGA,72755.0,3713.9879659000003,N,13701.4781914,E,4,10,1.6,94.5976,M,37.55,M,3.0,0000*6B,37.233132765,137.02463652333333,679602.819475674,4122655.5326029574
1197,[2021-02-22 16:27:55.502] $GPGGA,72755.1,3713.9879644000002,N,13701.478191499999,E,4,10,1.6,94.597,M,37.55,M,3.0,0000*61,37.23313274000001,137.02463652499998,679602.8196828688,4122655.5298322123
1198,[2021-02-22 16:27:55.596] $GPGGA,72755.2,3713.9879638,N,13701.478191600001,E,4,10,1.6,94.5963,M,37.55,M,3.0,0000*68,37.23313273000001,137.02463652666668,679602.8198544704,4122655.528725812
1199,[2021-02-22 16:27:55.721] $GPGGA,72755.3,3713.9879626999996,N,13701.478190900001,E,4,10,1.6,94.5974,M,37.55,M,3.0,0000*6F,37.23313271166666,137.02463651500003,679602.8188629315,4122655.526669471
1200,[2021-02-22 16:27:55.799] $GPGGA,72755.4,3713.9879606,N,13701.478190600003,E,4,10,1.6,94.5945,M,37.55,M,3.0,0000*66,37.23313267666667,137.02463651000005,679602.8185024059,4122655.5227765115
1201,[2021-02-22 16:27:55.924] $GPGGA,72755.5,3713.9879598000007,N,13701.478190600003,E,4,10,1.6,94.5959,M,37.55,M,3.0,0000*6E,37.23313266333334,137.02463651000005,679602.8185340501,4122655.521297095
1202,[2021-02-22 16:27:56.002] $GPGGA,72755.6,3713.9879592,N,13701.4781933,E,4,10,1.6,94.5955,M,37.55,M,3.0,0000*6D,37.233132653333335,137.024636555,679602.8225501195,4122655.520272924
1203,[2021-02-22 16:27:56.112] $GPGGA,72755.7,3713.9879588,N,13701.478193500001,E,4,10,1.6,94.595,M,37.55,M,3.0,0000*64,37.23313264666667,137.02463655833333,679602.8228616696,4122655.519539541
1204,[2021-02-22 16:27:56.190] $GPGGA,72755.8,3713.9879593,N,13701.478194100002,E,4,10,1.6,94.5952,M,37.55,M,3.0,0000*60,37.233132655000006,137.02463656833336,679602.8237290824,4122655.5204831553
1205,[2021-02-22 16:27:56.315] $GPGGA,72755.9,3713.9879604000002,N,13701.4781951,E,4,10,1.6,94.5916,M,37.55,M,3.0,0000*6D,37.23313267333334,137.024636585,679602.8251642111,4122655.5225489815
1206,[2021-02-22 16:27:56.393] $GPGGA,72756.0,3713.9879609,N,13701.478194799998,E,4,10,1.6,94.5911,M,37.55,M,4.0,0000*62,37.23313268166666,137.02463657999996,679602.824700837,4122655.523464129
1207,[2021-02-22 16:27:56.518] $GPGGA,72756.1,3713.9879601,N,13701.4781958,E,4,10,1.6,94.5963,M,37.55,M,4.0,0000*6F,37.233132668333326,137.02463659666668,679602.82621113,4122655.5220163385
1208,[2021-02-22 16:27:56.596] $GPGGA,72756.2,3713.9879590000005,N,13701.4781978,E,4,10,1.6,94.5957,M,37.55,M,4.0,0000*62,37.23313265000001,137.02463663,679602.8292119292,4122655.5200453955
1209,[2021-02-22 16:27:56.721] $GPGGA,72756.3,3713.9879589,N,13701.478199899999,E,4,10,1.6,94.5942,M,37.55,M,4.0,0000*60,37.23313264833334,137.02463666499997,679602.8323210347,4122655.5199268875
1210,[2021-02-22 16:27:56.815] $GPGGA,72756.4,3713.9879585,N,13701.478199700001,E,4,10,1.6,94.5946,M,37.55,M,4.0,0000*61,37.23313264166666,137.02463666166668,679602.8320411313,4122655.5191808515
1211,[2021-02-22 16:27:56.893] $GPGGA,72756.5,3713.9879586999996,N,13701.4781984,E,4,10,1.6,94.5962,M,37.55,M,4.0,0000*66,37.23313264499999,137.02463663999998,679602.8301109796,4122655.5195095893
1212,[2021-02-22 16:27:57.018] $GPGGA,72756.6,3713.9879596999995,N,13701.478196200002,E,4,10,1.6,94.5957,M,37.55,M,4.0,0000*6A,37.23313266166666,137.0246366033334,679602.8268184148,4122655.521289281
1213,[2021-02-22 16:27:57.096] $GPGGA,72756.7,3713.9879618,N,13701.478194799998,E,4,10,1.6,94.5955,M,37.55,M,4.0,0000*65,37.23313269666667,137.02463657999996,679602.8246652372,4122655.5251284745
1214,[2021-02-22 16:27:57.221] $GPGGA,72756.8,3713.9879619000003,N,13701.4781965,E,4,10,1.6,94.5932,M,37.55,M,4.0,0000*65,37.23313269833334,137.02463660833334,679602.8271749803,4122655.525367169
1215,[2021-02-22 16:27:57.299] $GPGGA,72756.9,3713.9879603,N,13701.4781959,E,4,10,1.6,94.5915,M,37.55,M,4.0,0000*65,37.23313267166666,137.02463659833333,679602.8263510829,4122655.522389355
1216,[2021-02-22 16:27:57.424] $GPGGA,72757.0,3713.9879616999997,N,13701.478196099999,E,4,10,1.6,94.5936,M,37.55,M,5.0,0000*63,37.233132694999995,137.02463660166663,679602.826591431,4122655.524984663
1217,[2021-02-22 16:27:57.518] $GPGGA,72757.1,3713.9879618,N,13701.4781954,E,4,10,1.6,94.5919,M,37.55,M,5.0,0000*66,37.23313269666667,137.02463659,679602.8255524277,4122655.5251474506
1218,[2021-02-22 16:27:57.612] $GPGGA,72757.2,3713.9879626,N,13701.478190600003,E,4,10,1.6,94.5856,M,37.55,M,5.0,0000*65,37.23313271000001,137.02463651000005,679602.818423295,4122655.5264750575
1219,[2021-02-22 16:27:57.690] $GPGGA,72757.3,3713.9879611999995,N,13701.478186899998,E,4,10,1.6,94.5791,M,37.55,M,5.0,0000*6F,37.23313268666666,137.02463644833333,679602.8130076834,4122655.523769051
1220,[2021-02-22 16:27:57.815] $GPGGA,72757.4,3713.9879601,N,13701.478185499998,E,4,10,1.6,94.5757,M,37.55,M,5.0,0000*6F,37.233132668333326,137.02463642499998,679602.810981092,4122655.5216905726
1221,[2021-02-22 16:27:57.893] $GPGGA,72757.5,3713.9879581,N,13701.478186100001,E,4,10,1.6,94.5718,M,37.55,M,5.0,0000*69,37.233132635000004,137.02463643500002,679602.8119473935,4122655.518011005
1222,[2021-02-22 16:27:58.018] $GPGGA,72757.6,3713.9879561,N,13701.478186000002,E,4,10,1.6,94.5688,M,37.55,M,5.0,0000*6D,37.23313260166667,137.02463643333337,679602.8118786403,4122655.514309297
1223,[2021-02-22 16:27:58.096] $GPGGA,72757.7,3713.9879534,N,13701.478186700002,E,4,10,1.6,94.5658,M,37.55,M,5.0,0000*66,37.23313255666667,137.02463644500003,679602.8130204899,4122655.5093384013
1224,[2021-02-22 16:27:58.221] $GPGGA,72757.8,3713.9879526999994,N,13701.478189399999,E,4,10,1.6,94.5655,M,37.55,M,5.0,0000*6A,37.23313254499998,137.02463648999998,679602.8170405148,4122655.5081293033
1225,[2021-02-22 16:27:58.299] $GPGGA,72757.9,3713.9879526999994,N,13701.4781912,E,4,10,1.6,94.5639,M,37.55,M,5.0,0000*6E,37.23313254499998,137.02463651999997,679602.8197020729,4122655.5081862337
1226,[2021-02-22 16:27:58.424] $GPGGA,72758.0,3713.9879533,N,13701.4781924,E,4,10,1.6,94.562,M,37.55,M,6.0,0000*63,37.233132555,137.02463654000002,679602.8214527185,4122655.509333752
1227,[2021-02-22 16:27:58.502] $GPGGA,72758.1,3713.9879539000003,N,13701.4781942,E,4,10,1.6,94.5623,M,37.55,M,6.0,0000*6B,37.23313256500001,137.02463657,679602.8240905432,4122655.5105002467
1228,[2021-02-22 16:27:58.596] $GPGGA,72758.2,3713.9879551,N,13701.478195299998,E,4,10,1.6,94.5636,M,37.55,M,1.0,0000*65,37.233132585,137.0246365883333,679602.8256695804,4122655.5127541632
1229,[2021-02-22 16:27:58.721] $GPGGA,72758.3,3713.9879574,N,13701.478196200002,E,4,10,1.6,94.5641,M,37.55,M,1.0,0000*61,37.23313262333333,137.0246366033334,679602.8269093921,4122655.517035955
1230,[2021-02-22 16:27:58.799] $GPGGA,72758.4,3713.9879599,N,13701.478197999999,E,4,10,1.6,94.5651,M,37.55,M,1.0,0000*68,37.23313266500001,137.0246366333333,679602.8294720551,4122655.521716067
1231,[2021-02-22 16:27:58.924] $GPGGA,72758.5,3713.9879615,N,13701.478200900001,E,4,10,1.6,94.5665,M,37.55,M,1.0,0000*62,37.23313269166666,137.0246366816667,679602.8336968395,4122655.524766621
1232,[2021-02-22 16:27:59.002] $GPGGA,72758.6,3713.9879631,N,13701.478203600002,E,4,10,1.6,94.5668,M,37.55,M,1.0,0000*66,37.23313271833333,137.0246367266667,679602.8376258914,4122655.527810853
1233,[2021-02-22 16:27:59.112] $GPGGA,72758.7,3713.987964,N,13701.478206,E,4,10,1.6,94.5695,M,37.55,M,1.0,0000*60,37.23313273333333,137.02463676666665,679602.8411390312,4122655.5295511037
1234,[2021-02-22 16:27:59.190] $GPGGA,72758.8,3713.9879644000002,N,13701.4782067,E,4,10,1.6,94.5714,M,37.55,M,1.0,0000*64,37.23313274000001,137.02463677833333,679602.8421582635,4122655.5303129535
1235,[2021-02-22 16:27:59.315] $GPGGA,72758.9,3713.9879634000004,N,13701.478205700001,E,4,10,1.6,94.5729,M,37.55,M,1.0,0000*6F,37.23313272333334,137.0246367616667,679602.840719177,4122655.528432054
1236,[2021-02-22 16:27:59.393] $GPGGA,72759.0,3713.9879624,N,13701.478204,E,4,10,1.6,94.5745,M,37.55,M,2.0,0000*69,37.23313270666667,137.02463673333332,679602.8382450338,4122655.526529015
1237,[2021-02-22 16:27:59.502] $GPGGA,72759.1,3713.9879624,N,13701.478203400002,E,4,10,1.6,94.5799,M,37.55,M,2.0,0000*6A,37.23313270666667,137.02463672333334,679602.8373578477,4122655.5265100375
1238,[2021-02-22 16:27:59.596] $GPGGA,72759.2,3713.9879622000003,N,13701.478204799998,E,4,10,1.6,94.5792,M,37.55,M,2.0,0000*6F,37.23313270333334,137.02463674666663,679602.8394358566,4122655.526184461
