,Format,Time,Latitude,LatType,Longitude,LonType,Status,Satellite,LevelAccuracy,Altitude(sea),M(sea),Altitude(geoid),M(geoid),DGPS use,checksum,Lat,Lon,UTM_X,UTM_Y
344,[2021-02-22 16:22:39.421] $GNGGA,72239.0,3713.98806532,N,13701.47788929,E,4,9.0,1.1,95.404,M,36.771,M,1.0,0196*65,37.23313442199999,137.02463148816665,679602.3688298882,4122655.706902567
345,[2021-02-22 16:22:39.500] $GNGGA,72239.1,3713.9880657,N,13701.47788879,E,4,9.0,1.1,95.40100000000001,M,36.771,M,1.1,0196*62,37.23313442833333,137.0246314798333,679602.3680755328,4122655.7075894764
346,[2021-02-22 16:22:39.624] $GNGGA,72239.2,3713.98806527,N,13701.47789084,E,4,9.0,1.1,95.402,M,36.771,M,1.2,0196*68,37.23313442116667,137.024631514,679602.3711237663,4122655.7068591267
347,[2021-02-22 16:22:39.703] $GNGGA,72239.3,3713.98806735,N,13701.47788792,E,4,9.0,1.1,95.399,M,36.771,M,1.3,0196*6D,37.23313445583334,137.02463146533336,679602.3667238533,4122655.71061326
348,[2021-02-22 16:22:39.812] $GNGGA,72239.4,3713.98806795,N,13701.47788681,E,4,9.0,1.1,95.4,M,36.771,M,1.4,0196*63,37.23313446583334,137.02463144683333,679602.3650588215,4122655.711687717
349,[2021-02-22 16:22:39.906] $GNGGA,72239.5,3713.98806501,N,13701.47789033,E,4,9.0,1.1,95.40100000000001,M,36.771,M,1.5,0196*63,37.23313441683333,137.0246315055,679602.3703799427,4122655.7063621855
350,[2021-02-22 16:22:40.015] $GNGGA,72239.6,3713.98806543,N,13701.47788888,E,4,9.0,1.1,95.402,M,36.771,M,1.6,0196*6F,37.233134423833334,137.0246314813333,679602.3682192931,4122655.70709302
351,[2021-02-22 16:22:40.109] $GNGGA,72239.7,3713.98806493,N,13701.47789042,E,4,9.0,1.1,95.395,M,36.771,M,1.7,0196*65,37.2331344155,137.024631507,679602.3705161852,4122655.7062170906
352,[2021-02-22 16:22:40.218] $GNGGA,72239.8,3713.98806568,N,13701.47788944,E,4,9.0,1.1,95.397,M,36.771,M,1.8,0196*6C,37.23313442800001,137.02463149066665,679602.3690374464,4122655.70757305
353,[2021-02-22 16:22:40.312] $GNGGA,72239.9,3713.98806456,N,13701.47788782,E,4,9.0,1.1,95.405,M,36.771,M,1.9,0196*68,37.23313440933334,137.02463146366665,679602.3666863441,4122655.705450629
354,[2021-02-22 16:22:40.421] $GNGGA,72240.0,3713.98806229,N,13701.47788919,E,4,9.0,1.1,95.404,M,36.771,M,1.0,0196*65,37.2331343715,137.0246314865,679602.368801879,4122655.70129611
355,[2021-02-22 16:22:40.499] $GNGGA,72240.1,3713.98806485,N,13701.47789006,E,4,9.0,1.1,95.4,M,36.771,M,1.1,0196*67,37.23313441416666,137.024631501,679602.3699870375,4122655.706057763
356,[2021-02-22 16:22:40.609] $GNGGA,72240.2,3713.98806323,N,13701.47788687,E,4,9.0,1.1,95.405,M,36.771,M,1.2,0196*67,37.233134387166665,137.02463144783334,679602.3653342428,4122655.7029610486
357,[2021-02-22 16:22:40.703] $GNGGA,72240.3,3713.98806486,N,13701.47788922,E,4,9.0,1.1,95.398,M,36.771,M,1.3,0196*6C,37.23313441433333,137.02463148699997,679602.3687445775,4122655.7060496868
358,[2021-02-22 16:22:40.812] $GNGGA,72240.4,3713.98806327,N,13701.47788774,E,4,9.0,1.1,95.4,M,36.771,M,1.4,0196*6B,37.23313438783333,137.02463146233333,679602.3666190807,4122655.7030625367
359,[2021-02-22 16:22:40.906] $GNGGA,72240.5,3713.98806396,N,13701.47788698,E,4,9.0,1.1,95.404,M,36.771,M,1.5,0196*66,37.23313439933334,137.02463144966663,679602.3654680151,4122655.704314497
360,[2021-02-22 16:22:41.015] $GNGGA,72240.6,3713.98806434,N,13701.47788918,E,4,9.0,1.1,95.397,M,36.771,M,1.6,0196*63,37.233134405666675,137.02463148633333,679602.3687060047,4122655.705086802
361,[2021-02-22 16:22:41.109] $GNGGA,72240.7,3713.98806372,N,13701.47788975,E,4,9.0,1.1,95.40100000000001,M,36.771,M,1.7,0196*65,37.23313439533334,137.02463149583335,679602.3695733572,4122655.70395828
362,[2021-02-22 16:22:41.218] $GNGGA,72240.8,3713.98806157,N,13701.47788839,E,4,9.0,1.1,95.4,M,36.771,M,1.8,0196*68,37.2331343595,137.02463147316666,679602.3676474427,4122655.699939331
363,[2021-02-22 16:22:41.312] $GNGGA,72240.9,3713.98806376,N,13701.47788837,E,4,9.0,1.1,95.39299999999999,M,36.771,M,1.9,0196*6A,37.233134396000004,137.0246314728333,679602.3675312424,4122655.703988605
364,[2021-02-22 16:22:41.421] $GNGGA,72241.0,3713.98806115,N,13701.47788564,E,4,9.0,1.1,95.405,M,36.771,M,1.0,0196*6F,37.233134352499995,137.02463142733333,679602.3635977857,4122655.69907566
365,[2021-02-22 16:22:41.499] $GNGGA,72241.1,3713.98806173,N,13701.47788838,E,4,9.0,1.1,95.398,M,36.771,M,1.1,0196*68,37.233134362166666,137.024631473,679602.3676263278,4122655.7002348984
366,[2021-02-22 16:22:41.609] $GNGGA,72241.2,3713.98806182,N,13701.47788924,E,4,9.0,1.1,95.40100000000001,M,36.771,M,1.2,0196*6D,37.23313436366667,137.02463148733335,679602.3688944043,4122655.7004285334
367,[2021-02-22 16:22:41.702] $GNGGA,72241.3,3713.9880615,N,13701.47789054,E,4,9.0,1.1,95.4,M,36.771,M,1.3,0196*6C,37.23313435833334,137.024631509,679602.3708292956,4122655.6998778824
368,[2021-02-22 16:22:41.812] $GNGGA,72241.4,3713.98806046,N,13701.47789105,E,4,9.0,1.1,95.40299999999999,M,36.771,M,1.4,0196*6C,37.23313434099999,137.0246315175,679602.3716245436,4122655.6979707666
369,[2021-02-22 16:22:41.906] $GNGGA,72241.5,3713.98806057,N,13701.47788915,E,4,9.0,1.1,95.402,M,36.771,M,1.5,0196*65,37.23313434283333,137.0246314858333,679602.3688107659,4122655.698114095
370,[2021-02-22 16:22:42.015] $GNGGA,72241.6,3713.98806263,N,13701.47788631,E,4,9.0,1.1,95.4,M,36.771,M,1.6,0196*6B,37.233134377166664,137.0246314385,679602.3645299338,4122655.701833773
371,[2021-02-22 16:22:42.109] $GNGGA,72241.7,3713.9880619,N,13701.4778868,E,4,9.0,1.1,95.405,M,36.771,M,1.7,0196*6B,37.233134365000005,137.0246314466667,679602.3652833474,4122655.700499303
372,[2021-02-22 16:22:42.218] $GNGGA,72241.8,3713.98805746,N,13701.47788921,E,4,9.0,1.1,95.406,M,36.771,M,1.8,0196*62,37.233134291,137.02463148683333,679602.369022503,4122655.692364756
373,[2021-02-22 16:22:42.312] $GNGGA,72241.9,3713.98806083,N,13701.4778871,E,4,9.0,1.1,95.40100000000001,M,36.771,M,1.9,0196*64,37.23313434716666,137.02463145166666,679602.3657692636,4122655.6985300686
374,[2021-02-22 16:22:42.406] $GNGGA,72242.0,3713.98806188,N,13701.47788554,E,4,9.0,1.1,95.411,M,36.771,M,1.0,0196*6E,37.23313436466667,137.02463142566668,679602.3634210463,4122655.7004224677
375,[2021-02-22 16:22:42.484] $GNGGA,72242.1,3713.98806181,N,13701.47788927,E,4,9.0,1.1,95.397,M,36.771,M,1.1,0196*66,37.2331343635,137.02463148783335,679602.3689391576,4122655.700410988
376,[2021-02-22 16:22:42.609] $GNGGA,72242.2,3713.98806261,N,13701.47788815,E,4,9.0,1.1,95.397,M,36.771,M,1.2,0196*6B,37.23313437683333,137.02463146916668,679602.3672514334,4122655.701854984
377,[2021-02-22 16:22:42.702] $GNGGA,72242.3,3713.98806257,N,13701.47788833,E,4,9.0,1.1,95.402,M,36.771,M,1.3,0196*61,37.23313437616666,137.02463147216667,679602.3675191695,4122655.7017867053
378,[2021-02-22 16:22:42.812] $GNGGA,72242.4,3713.98806116,N,13701.47788728,E,4,9.0,1.1,95.406,M,36.771,M,1.4,0196*66,37.23313435266667,137.0246314546667,679602.3660223685,4122655.6991460216
379,[2021-02-22 16:22:42.906] $GNGGA,72242.5,3713.988059,N,13701.47788937,E,4,9.0,1.1,95.404,M,36.771,M,1.5,0196*68,37.233134316666664,137.0246314895,679602.369198172,4122655.6952176965
380,[2021-02-22 16:22:43.015] $GNGGA,72242.6,3713.98806167,N,13701.47788952,E,4,9.0,1.1,95.4,M,36.771,M,1.6,0196*65,37.23313436116668,137.02463149200003,679602.3693143575,4122655.7001599995
381,[2021-02-22 16:22:43.109] $GNGGA,72242.7,3713.98806119,N,13701.47788766,E,4,9.0,1.1,95.396,M,36.771,M,1.7,0196*6D,37.23313435316666,137.02463146099998,679602.3665830637,4122655.699213519
382,[2021-02-22 16:22:43.218] $GNGGA,72242.8,3713.98806264,N,13701.4778882,E,4,9.0,1.1,95.4,M,36.771,M,1.8,0196*61,37.233134377333336,137.02463147,679602.3673241765,4122655.7019120436
383,[2021-02-22 16:22:43.312] $GNGGA,72242.9,3713.98806527,N,13701.4778885,E,4,9.0,1.1,95.40100000000001,M,36.771,M,0.9,0196*66,37.23313442116667,137.024631475,679602.3676637402,4122655.706785118
384,[2021-02-22 16:22:43.421] $GNGGA,72243.0,3713.98806429,N,13701.4778865,E,4,9.0,1.1,95.397,M,36.771,M,1.0,0196*6F,37.23313440483333,137.02463144166668,679602.3647452161,4122655.7049095742
385,[2021-02-22 16:22:43.499] $GNGGA,72243.1,3713.98806391,N,13701.47788855,E,4,9.0,1.1,95.399,M,36.771,M,1.1,0196*6E,37.2331343985,137.02463147583333,679602.3677914673,4122655.7042716886
386,[2021-02-22 16:22:43.609] $GNGGA,72243.2,3713.98806581,N,13701.47788949,E,4,9.0,1.1,95.39399999999999,M,36.771,M,1.2,0196*68,37.233134430166665,137.02463149149997,679602.3691062363,4122655.7078150366
387,[2021-02-22 16:22:43.702] $GNGGA,72243.3,3713.9880666,N,13701.47788765,E,4,9.0,1.1,95.399,M,36.771,M,1.3,0196*69,37.23313444333333,137.02463146083335,679602.3663542857,4122655.709217766
388,[2021-02-22 16:22:43.812] $GNGGA,72243.4,3713.98806621,N,13701.47789004,E,4,9.0,1.1,95.39,M,36.771,M,1.4,0196*64,37.23313443683333,137.02463150066666,679602.3699036682,4122655.708572141
389,[2021-02-22 16:22:43.905] $GNGGA,72243.5,3713.98806702,N,13701.47789056,E,4,9.0,1.1,95.402,M,36.771,M,1.5,0196*6F,37.23313445033333,137.02463150933332,679602.3706405247,4122655.710086498
390,[2021-02-22 16:22:44.015] $GNGGA,72243.6,3713.98806475,N,13701.47789017,E,4,9.0,1.1,95.39399999999999,M,36.771,M,1.6,0196*61,37.2331344125,137.02463150283333,679602.370153643,4122655.705876315
391,[2021-02-22 16:22:44.109] $GNGGA,72243.7,3713.98806633,N,13701.47788924,E,4,9.0,1.1,95.40100000000001,M,36.771,M,1.7,0196*62,37.23313443883333,137.02463148733335,679602.3687160099,4122655.708768751
392,[2021-02-22 16:22:44.218] $GNGGA,72243.8,3713.98806622,N,13701.47788885,E,4,9.0,1.1,95.395,M,36.771,M,1.8,0196*62,37.233134437,137.02463148083336,679602.3681436911,4122655.7085529957
393,[2021-02-22 16:22:44.312] $GNGGA,72243.9,3713.98806798,N,13701.47788786,E,4,9.0,1.1,95.398,M,36.771,M,1.9,0196*63,37.23313446633333,137.02463146433334,679602.3666102132,4122655.711776405
394,[2021-02-22 16:22:44.421] $GNGGA,72244.0,3713.98806709,N,13701.47788887,E,4,9.0,1.1,95.39399999999999,M,36.771,M,2.0,0196*6D,37.2331344515,137.02463148116667,679602.3681388475,4122655.7101624957
395,[2021-02-22 16:22:44.499] $GNGGA,72244.1,3713.98806566,N,13701.47788674,E,4,9.0,1.1,95.405,M,36.771,M,1.1,0196*68,37.23313442766666,137.02463144566667,679602.3650458994,4122655.707450669
396,[2021-02-22 16:22:44.609] $GNGGA,72244.2,3713.9880645,N,13701.47788987,E,4,9.0,1.1,95.40100000000001,M,36.771,M,1.2,0196*6B,37.23313440833333,137.02463149783333,679602.36971994,4122655.705404508
397,[2021-02-22 16:22:44.702] $GNGGA,72244.3,3713.98806592,N,13701.47788821,E,4,9.0,1.1,95.398,M,36.771,M,1.3,0196*6E,37.23313443199999,137.02463147016664,679602.3672092188,4122655.707977973
398,[2021-02-22 16:22:44.812] $GNGGA,72244.4,3713.98806499,N,13701.47788972,E,4,9.0,1.1,95.396,M,36.771,M,1.4,0196*6D,37.2331344165,137.02463149533332,679602.3694787596,4122655.706305907
399,[2021-02-22 16:22:44.905] $GNGGA,72244.5,3713.98806529,N,13701.47789045,E,4,9.0,1.1,95.398,M,36.771,M,1.5,0196*65,37.233134421500004,137.02463150749998,679602.3705463031,4122655.706883779
400,[2021-02-22 16:22:45.015] $GNGGA,72244.6,3713.98806591,N,13701.47788881,E,4,9.0,1.1,95.402,M,36.771,M,1.6,0196*63,37.233134431833335,137.02463148016668,679602.368096805,4122655.7079784567
401,[2021-02-22 16:22:45.108] $GNGGA,72244.7,3713.98806386,N,13701.47788743,E,4,9.0,1.1,95.406,M,36.771,M,1.7,0196*66,37.23313439766666,137.02463145716666,679602.366137363,4122655.7041438012
402,[2021-02-22 16:22:45.218] $GNGGA,72244.8,3713.98806291,N,13701.47789061,E,4,9.0,1.1,95.399,M,36.771,M,1.8,0196*66,37.23313438183333,137.02463151016664,679602.3708770266,4122655.7024875693
403,[2021-02-22 16:22:45.312] $GNGGA,72244.9,3713.98806503,N,13701.47788814,E,4,9.0,1.1,95.399,M,36.771,M,1.9,0196*61,37.23313441716667,137.02463146899998,679602.3671409192,4122655.706329906
404,[2021-02-22 16:22:45.421] $GNGGA,72245.0,3713.98806625,N,13701.47788907,E,4,9.0,1.1,95.406,M,36.771,M,2.0,0196*66,37.2331344375,137.0246314845,679602.3684678018,4122655.708615433
405,[2021-02-22 16:22:45.499] $GNGGA,72245.1,3713.98806435,N,13701.47788929,E,4,9.0,1.1,95.399,M,36.771,M,2.1,0196*68,37.23313440583333,137.02463148816665,679602.3688682568,4122655.705108773
406,[2021-02-22 16:22:45.608] $GNGGA,72245.2,3713.98806393,N,13701.47788817,E,4,9.0,1.1,95.397,M,36.771,M,1.2,0196*62,37.233134398833336,137.0246314695,679602.3672287923,4122655.7042966564
407,[2021-02-22 16:22:45.702] $GNGGA,72245.3,3713.98806404,N,13701.47788637,E,4,9.0,1.1,95.405,M,36.771,M,1.3,0196*6B,37.23313440066667,137.0246314395,679602.364562881,4122655.7044431465
408,[2021-02-22 16:22:45.812] $GNGGA,72245.4,3713.98806393,N,13701.4778874,E,4,9.0,1.1,95.40100000000001,M,36.771,M,1.4,0196*67,37.233134398833336,137.02463145666667,679602.3660902362,4122655.704272303
409,[2021-02-22 16:22:45.905] $GNGGA,72245.5,3713.98806425,N,13701.47788891,E,4,9.0,1.1,95.40100000000001,M,36.771,M,1.5,0196*6E,37.23313440416667,137.02463148183332,679602.3683103283,4122655.7049118276
410,[2021-02-22 16:22:46.015] $GNGGA,72245.6,3713.98806442,N,13701.4778889,E,4,9.0,1.1,95.40299999999999,M,36.771,M,1.6,0196*6C,37.233134406999994,137.0246314816667,679602.3682888204,4122655.7052258872
411,[2021-02-22 16:22:46.108] $GNGGA,72245.7,3713.98806415,N,13701.47788939,E,4,9.0,1.1,95.4,M,36.771,M,1.7,0196*6F,37.2331344025,137.02463148983333,679602.369024034,4122655.7047420824
412,[2021-02-22 16:22:46.218] $GNGGA,72245.8,3713.98806352,N,13701.47788889,E,4,9.0,1.1,95.40700000000001,M,36.771,M,1.8,0196*66,37.233134392000004,137.0246314815,679602.3683096318,4122655.7035612264
413,[2021-02-22 16:22:46.312] $GNGGA,72245.9,3713.98806447,N,13701.4778884,E,4,9.0,1.1,95.40299999999999,M,36.771,M,1.9,0196*64,37.23313440783333,137.02463147333336,679602.3675475226,4122655.705302538
414,[2021-02-22 16:22:46.421] $GNGGA,72246.0,3713.98806554,N,13701.47788811,E,4,9.0,1.1,95.402,M,36.771,M,1.0,0196*61,37.23313442566666,137.0246314685,679602.3670763881,4122655.7072720854
415,[2021-02-22 16:22:46.499] $GNGGA,72246.1,3713.98806508,N,13701.47788675,E,4,9.0,1.1,95.40799999999999,M,36.771,M,1.1,0196*6E,37.233134418000006,137.02463144583336,679602.3650836318,4122655.706378409
416,[2021-02-22 16:22:46.608] $GNGGA,72246.2,3713.98806722,N,13701.47788396,E,4,9.0,1.1,95.404,M,36.771,M,1.2,0196*60,37.233134453666665,137.02463139933334,679602.3608735627,4122655.7102476098
417,[2021-02-22 16:22:46.702] $GNGGA,72246.3,3713.98806336,N,13701.47788525,E,4,9.0,1.1,95.40799999999999,M,36.771,M,1.3,0196*63,37.23313438933334,137.02463142083334,679602.3629336986,4122655.7031502184
418,[2021-02-22 16:22:46.812] $GNGGA,72246.4,3713.98806477,N,13701.47788602,E,4,9.0,1.1,95.40100000000001,M,36.771,M,1.4,0196*6E,37.23313441283334,137.02463143366668,679602.3640164817,4122655.705782046
419,[2021-02-22 16:22:46.905] $GNGGA,72246.5,3713.98806361,N,13701.47788698,E,4,9.0,1.1,95.411,M,36.771,M,1.5,0196*6C,37.2331343935,137.02463144966663,679602.3654818594,4122655.703667252
420,[2021-02-22 16:22:47.015] $GNGGA,72246.6,3713.98806565,N,13701.47788906,E,4,9.0,1.1,95.40700000000001,M,36.771,M,1.6,0196*61,37.2331344275,137.0246314843333,679602.368476747,4122655.707505553
421,[2021-02-22 16:22:47.108] $GNGGA,72246.7,3713.98806496,N,13701.47788607,E,4,9.0,1.1,95.405,M,36.771,M,1.7,0196*60,37.233134416000006,137.0246314345,679602.3640828981,4122655.7061349894
422,[2021-02-22 16:22:47.218] $GNGGA,72246.8,3713.98806348,N,13701.47788731,E,4,9.0,1.1,95.406,M,36.771,M,1.8,0196*63,37.23313439133334,137.02463145516666,679602.3659749558,4122655.703437284
423,[2021-02-22 16:22:47.311] $GNGGA,72246.9,3713.98806424,N,13701.47788402,E,4,9.0,1.1,95.40700000000001,M,36.771,M,1.9,0196*6C,37.233134404000005,137.02463140033333,679602.3610801555,4122655.7047386765
424,[2021-02-22 16:22:47.421] $GNGGA,72247.0,3713.98806413,N,13701.47788639,E,4,9.0,1.1,95.40799999999999,M,36.771,M,2.0,0196*6F,37.23313440216667,137.02463143983334,679602.3645888951,4122655.7046102136
425,[2021-02-22 16:22:47.499] $GNGGA,72247.1,3713.98806117,N,13701.4778899,E,4,9.0,1.1,95.402,M,36.771,M,1.1,0196*6B,37.23313435283333,137.02463149833332,679602.3698960169,4122655.6992473807
426,[2021-02-22 16:22:47.608] $GNGGA,72247.2,3713.98806218,N,13701.47788909,E,4,9.0,1.1,95.412,M,36.771,M,1.2,0196*66,37.23313436966666,137.02463148483335,679602.3686583661,4122655.701089525
427,[2021-02-22 16:22:47.702] $GNGGA,72247.3,3713.98806205,N,13701.47788708,E,4,9.0,1.1,95.402,M,36.771,M,1.3,0196*64,37.2331343675,137.02463145133333,679602.3656914341,4122655.700785551
428,[2021-02-22 16:22:47.811] $GNGGA,72247.4,3713.98806062,N,13701.47788512,E,4,9.0,1.1,95.40299999999999,M,36.771,M,1.4,0196*6F,37.23313434366667,137.0246314186667,679602.3628498584,4122655.6980791003
429,[2021-02-22 16:22:47.905] $GNGGA,72247.5,3713.98806029,N,13701.47788907,E,4,9.0,1.1,95.402,M,36.771,M,1.5,0196*69,37.233134338166664,137.0246314845,679602.3687035516,4122655.6975937686
430,[2021-02-22 16:22:48.015] $GNGGA,72247.6,3713.98805984,N,13701.47788845,E,4,9.0,1.1,95.405,M,36.771,M,1.6,0196*64,37.233134330666665,137.02463147416668,679602.3678045936,4122655.696741988
431,[2021-02-22 16:22:48.108] $GNGGA,72247.7,3713.98806166,N,13701.47788629,E,4,9.0,1.1,95.404,M,36.771,M,1.7,0196*66,37.23313436099999,137.0246314381667,679602.3645387328,4122655.7000393462
432,[2021-02-22 16:22:48.218] $GNGGA,72247.8,3713.98805966,N,13701.47788595,E,4,9.0,1.1,95.40899999999999,M,36.771,M,1.8,0196*64,37.23313432766667,137.02463143250003,679602.3641151055,4122655.6963300495
433,[2021-02-22 16:22:48.311] $GNGGA,72247.9,3713.9880598,N,13701.47788833,E,4,9.0,1.1,95.40299999999999,M,36.771,M,1.9,0196*67,37.23313433,137.02463147216667,679602.3676287376,4122655.6966642207
434,[2021-02-22 16:22:48.421] $GNGGA,72248.0,3713.98806145,N,13701.47788726,E,4,9.0,1.1,95.41,M,36.771,M,2.0,0196*60,37.2331343575,137.02463145433333,679602.3659813211,4122655.6996816783
435,[2021-02-22 16:22:48.499] $GNGGA,72248.1,3713.98806159,N,13701.47788517,E,4,9.0,1.1,95.40700000000001,M,36.771,M,1.1,0196*68,37.23313435983334,137.02463141949997,679602.3628854149,4122655.699874476
436,[2021-02-22 16:22:48.608] $GNGGA,72248.2,3713.98806267,N,13701.47788546,E,4,9.0,1.1,95.405,M,36.771,M,1.2,0196*60,37.23313437783333,137.02463142433334,679602.3632715056,4122655.701880862
437,[2021-02-22 16:22:48.702] $GNGGA,72248.3,3713.98806272,N,13701.47788711,E,4,9.0,1.1,95.40799999999999,M,36.771,M,1.3,0196*69,37.23313437866667,137.02463145183336,679602.3657092922,4122655.7020255113
438,[2021-02-22 16:22:48.811] $GNGGA,72248.4,3713.98806264,N,13701.47788619,E,4,9.0,1.1,95.40299999999999,M,36.771,M,1.4,0196*6C,37.233134377333336,137.0246314365,679602.3643521001,4122655.701848472
439,[2021-02-22 16:22:48.905] $GNGGA,72248.5,3713.98806358,N,13701.47788636,E,4,9.0,1.1,95.404,M,36.771,M,1.5,0196*68,37.23313439299999,137.02463143933335,679602.3645662905,4122655.703592163
440,[2021-02-22 16:22:49.014] $GNGGA,72248.6,3713.98806277,N,13701.4778871,E,4,9.0,1.1,95.404,M,36.771,M,1.6,0196*61,37.2331343795,137.02463145166666,679602.3656925263,4122655.7021176573
441,[2021-02-22 16:22:49.108] $GNGGA,72248.7,3713.98806165,N,13701.47788742,E,4,9.0,1.1,95.404,M,36.771,M,1.7,0196*66,37.23313436083333,137.024631457,679602.3662099942,4122655.7000565934
442,[2021-02-22 16:22:49.218] $GNGGA,72248.8,3713.9880624,N,13701.47788851,E,4,9.0,1.1,95.406,M,36.771,M,1.8,0196*6D,37.233134373333336,137.0246314751667,679602.3677920521,4122655.701478022
443,[2021-02-22 16:22:49.311] $GNGGA,72248.9,3713.98806087,N,13701.47788709,E,4,9.0,1.1,95.40799999999999,M,36.771,M,1.9,0196*68,37.23313434783333,137.02463145150003,679602.3657528976,4122655.698603724
444,[2021-02-22 16:22:49.421] $GNGGA,72249.0,3713.98806006,N,13701.47788647,E,4,9.0,1.1,95.404,M,36.771,M,2.0,0196*64,37.233134334333336,137.02463144116666,679602.364868175,4122655.6970862052
445,[2021-02-22 16:22:49.514] $GNGGA,72249.1,3713.9880619,N,13701.47789007,E,4,9.0,1.1,95.405,M,36.771,M,2.1,0196*68,37.233134365000005,137.02463150116668,679602.3701185139,4122655.700602726
446,[2021-02-22 16:22:49.624] $GNGGA,72249.2,3713.98806142,N,13701.47788519,E,4,9.0,1.1,95.41799999999999,M,36.771,M,1.2,0196*63,37.233134357000004,137.02463141983333,679602.3629217156,4122655.6995607316
447,[2021-02-22 16:22:49.702] $GNGGA,72249.3,3713.98805957,N,13701.47788624,E,4,9.0,1.1,95.40700000000001,M,36.771,M,1.3,0196*6F,37.23313432616666,137.0246314373333,679602.3645474669,4122655.6961727864
448,[2021-02-22 16:22:49.811] $GNGGA,72249.4,3713.98805955,N,13701.47788762,E,4,9.0,1.1,95.40799999999999,M,36.771,M,1.4,0196*61,37.233134325833326,137.02463146033335,679602.3665887906,4122655.6961794454
449,[2021-02-22 16:22:49.905] $GNGGA,72249.5,3713.98805978,N,13701.47788589,E,4,9.0,1.1,95.413,M,36.771,M,1.5,0196*63,37.23313432966667,137.0246314315,679602.3640216386,4122655.6965500647
450,[2021-02-22 16:22:50.014] $GNGGA,72249.6,3713.98806081,N,13701.47788532,E,4,9.0,1.1,95.40799999999999,M,36.771,M,1.6,0196*65,37.23313434683333,137.024631422,679602.3631380685,4122655.6984367874
451,[2021-02-22 16:22:50.108] $GNGGA,72249.7,3713.98806205,N,13701.47788734,E,4,9.0,1.1,95.40799999999999,M,36.771,M,1.7,0196*6F,37.2331343675,137.02463145566665,679602.36607588,4122655.700793773
452,[2021-02-22 16:22:50.218] $GNGGA,72249.8,3713.98805992,N,13701.47788435,E,4,9.0,1.1,95.417,M,36.771,M,1.8,0196*65,37.233134332,137.02463140583336,679602.3617389909,4122655.6967602554
453,[2021-02-22 16:22:50.311] $GNGGA,72249.9,3713.98806148,N,13701.47788548,E,4,9.0,1.1,95.40700000000001,M,36.771,M,1.9,0196*63,37.233134358,137.02463142466667,679602.3633481483,4122655.699680861
454,[2021-02-22 16:22:50.421] $GNGGA,72250.0,3713.9880596,N,13701.47788612,E,4,9.0,1.1,95.40899999999999,M,36.771,M,2.0,0196*6B,37.233134326666665,137.02463143533333,679602.3643688443,4122655.6962244683
455,[2021-02-22 16:22:50.514] $GNGGA,72250.1,3713.98806135,N,13701.47788498,E,4,9.0,1.1,95.413,M,36.771,M,2.1,0196*6B,37.23313435583333,137.02463141633334,679602.3626139684,4122655.6994246393
456,[2021-02-22 16:22:50.608] $GNGGA,72250.2,3713.98806228,N,13701.47788422,E,4,9.0,1.1,95.396,M,36.771,M,1.2,0196*6C,37.233134371333335,137.02463140366666,679602.3614534119,4122655.701120428
457,[2021-02-22 16:22:50.702] $GNGGA,72250.3,3713.98806152,N,13701.47788565,E,4,9.0,1.1,95.404,M,36.771,M,1.3,0196*6C,37.23313435866667,137.02463142749997,679602.3635979339,4122655.699760207
458,[2021-02-22 16:22:50.811] $GNGGA,72250.4,3713.98806151,N,13701.47788454,E,4,9.0,1.1,95.40100000000001,M,36.771,M,1.4,0196*69,37.233134358499996,137.024631409,679602.3619570355,4122655.699706607
459,[2021-02-22 16:22:50.905] $GNGGA,72250.5,3713.98806256,N,13701.47788471,E,4,9.0,1.1,95.402,M,36.771,M,1.5,0196*69,37.233134376,137.02463141183335,679602.3621668747,4122655.7016537217
460,[2021-02-22 16:22:51.014] $GNGGA,72250.6,3713.98806121,N,13701.47788713,E,4,9.0,1.1,95.40299999999999,M,36.771,M,1.6,0196*6C,37.2331343535,137.02463145216666,679602.3657985904,4122655.699233742
461,[2021-02-22 16:22:51.108] $GNGGA,72250.7,3713.98806064,N,13701.47788684,E,4,9.0,1.1,95.40299999999999,M,36.771,M,1.7,0196*63,37.233134344,137.02463144733335,679602.3653923331,4122655.698170485
462,[2021-02-22 16:22:51.217] $GNGGA,72250.8,3713.98806399,N,13701.47788452,E,4,9.0,1.1,95.399,M,36.771,M,1.8,0196*6F,37.23313439983333,137.02463140866666,679602.3618293663,4122655.7042921707
463,[2021-02-22 16:22:51.311] $GNGGA,72250.9,3713.98806285,N,13701.47788415,E,4,9.0,1.1,95.402,M,36.771,M,1.9,0196*65,37.233134380833334,137.0246314025,679602.3613273614,4122655.702172298
464,[2021-02-22 16:22:51.421] $GNGGA,72251.0,3713.98806289,N,13701.47788451,E,4,9.0,1.1,95.399,M,36.771,M,2.0,0196*6E,37.2331343815,137.02463140850003,679602.3618580935,4122655.7022576565
465,[2021-02-22 16:22:51.499] $GNGGA,72251.1,3713.98806058,N,13701.47788472,E,4,9.0,1.1,95.405,M,36.771,M,2.1,0196*63,37.233134343,137.02463141200002,679602.3622599802,4122655.697992479
466,[2021-02-22 16:22:51.608] $GNGGA,72251.2,3713.98806312,N,13701.47788629,E,4,9.0,1.1,95.398,M,36.771,M,2.2,0196*61,37.23313438533334,137.0246314381667,679602.364480982,4122655.7027392853
467,[2021-02-22 16:22:51.702] $GNGGA,72251.3,3713.98806063,N,13701.47788546,E,4,9.0,1.1,95.40100000000001,M,36.771,M,1.3,0196*6A,37.23313434383333,137.02463142433334,679602.3633521984,4122655.6981083443
468,[2021-02-22 16:22:51.811] $GNGGA,72251.4,3713.98805789,N,13701.47788408,E,4,9.0,1.1,95.41,M,36.771,M,1.4,0196*61,37.233134298166675,137.02463140133335,679602.3614200519,4122655.6929976945
469,[2021-02-22 16:22:51.905] $GNGGA,72251.5,3713.98806146,N,13701.47788439,E,4,9.0,1.1,95.399,M,36.771,M,1.5,0196*63,37.23313435766667,137.0246314065,679602.3617372173,4122655.699609401
470,[2021-02-22 16:22:52.014] $GNGGA,72251.6,3713.98806019,N,13701.47788282,E,4,9.0,1.1,95.406,M,36.771,M,1.6,0196*6F,37.233134336499994,137.02463138033335,679602.3594659824,4122655.697211168
471,[2021-02-22 16:22:52.108] $GNGGA,72251.7,3713.98806371,N,13701.47788298,E,4,9.0,1.1,95.4,M,36.771,M,1.7,0196*6F,37.233134395166665,137.024631383,679602.3595633319,4122655.703725669
472,[2021-02-22 16:22:52.217] $GNGGA,72251.8,3713.98806347,N,13701.47788311,E,4,9.0,1.1,95.4,M,36.771,M,1.8,0196*6A,37.233134391166665,137.02463138516666,679602.359765047,4122655.703285955
473,[2021-02-22 16:22:52.311] $GNGGA,72251.9,3713.98806059,N,13701.4778823,E,4,9.0,1.1,95.40100000000001,M,36.771,M,1.9,0196*65,37.23313434316666,137.02463137166666,679602.3586812641,4122655.6979344306
474,[2021-02-22 16:22:52.405] $GNGGA,72252.0,3713.98806132,N,13701.4778841,E,4,9.0,1.1,95.402,M,36.771,M,1.0,0196*6D,37.233134355333334,137.02463140166668,679602.3613139513,4122655.69934133
475,[2021-02-22 16:22:52.483] $GNGGA,72252.1,3713.98806227,N,13701.47788354,E,4,9.0,1.1,95.399,M,36.771,M,1.1,0196*68,37.23313437116666,137.02463139233333,679602.3604483316,4122655.7010804266
476,[2021-02-22 16:22:52.608] $GNGGA,72252.2,3713.98806104,N,13701.47788458,E,4,9.0,1.1,95.40100000000001,M,36.771,M,1.2,0196*67,37.23313435066667,137.02463140966663,679602.3620347702,4122655.698838716
477,[2021-02-22 16:22:52.702] $GNGGA,72252.3,3713.9880602,N,13701.47788468,E,4,9.0,1.1,95.40100000000001,M,36.771,M,1.3,0196*63,37.233134336666666,137.02463141133333,679602.3622158652,4122655.6972884904
478,[2021-02-22 16:22:52.811] $GNGGA,72252.4,3713.98805853,N,13701.4778839,E,4,9.0,1.1,95.40100000000001,M,36.771,M,1.4,0196*6C,37.23313430883334,137.02463139833333,679602.3611285782,4122655.6941755353
479,[2021-02-22 16:22:52.905] $GNGGA,72252.5,3713.98806106,N,13701.47788184,E,4,9.0,1.1,95.398,M,36.771,M,1.5,0196*66,37.23313435099999,137.02463136400002,679602.3579824994,4122655.6987890406
480,[2021-02-22 16:22:53.014] $GNGGA,72252.6,3713.98805938,N,13701.47788102,E,4,9.0,1.1,95.399,M,36.771,M,1.6,0196*6F,37.233134323,137.02463135033332,679602.3568364619,4122655.695656329
481,[2021-02-22 16:22:53.108] $GNGGA,72252.7,3713.98805828,N,13701.4778826,E,4,9.0,1.1,95.398,M,36.771,M,1.7,0196*69,37.23313430466667,137.02463137666666,679602.359216231,4122655.6936721
482,[2021-02-22 16:22:53.217] $GNGGA,72252.8,3713.98805895,N,13701.47788199,E,4,9.0,1.1,95.4,M,36.771,M,1.8,0196*6C,37.233134315833325,137.02463136650002,679602.358287757,4122655.6948918197
483,[2021-02-22 16:22:53.311] $GNGGA,72252.9,3713.98805831,N,13701.47787909,E,4,9.0,1.1,95.40299999999999,M,36.771,M,1.9,0196*6F,37.23313430516666,137.02463131816668,679602.354025004,4122655.693616564
484,[2021-02-22 16:22:53.420] $GNGGA,72253.0,3713.98805876,N,13701.47788227,E,4,9.0,1.1,95.397,M,36.771,M,2.0,0196*6C,37.23313431266667,137.02463137116663,679602.358709288,4122655.694549314
485,[2021-02-22 16:22:53.514] $GNGGA,72253.1,3713.98805862,N,13701.4778807,E,4,9.0,1.1,95.402,M,36.771,M,1.1,0196*61,37.233134310333334,137.024631345,679602.3563933579,4122655.69424076
486,[2021-02-22 16:22:53.608] $GNGGA,72253.2,3713.9880615,N,13701.47788095,E,4,9.0,1.1,95.398,M,36.771,M,1.2,0196*65,37.23313435833334,137.02463134916667,679602.3566491008,4122655.699574573
487,[2021-02-22 16:22:53.702] $GNGGA,72253.3,3713.98805974,N,13701.47788018,E,4,9.0,1.1,95.397,M,36.771,M,1.3,0196*62,37.233134329,137.02463133633333,679602.3555801598,4122655.6962955
488,[2021-02-22 16:22:53.811] $GNGGA,72253.4,3713.98806085,N,13701.47788052,E,4,9.0,1.1,95.402,M,36.771,M,1.4,0196*63,37.2331343475,137.024631342,679602.3560389936,4122655.698358945
489,[2021-02-22 16:22:53.905] $GNGGA,72253.5,3713.9880601,N,13701.47788308,E,4,9.0,1.1,95.39299999999999,M,36.771,M,1.5,0196*6C,37.233134335,137.02463138466666,679602.3598539883,4122655.697052957
490,[2021-02-22 16:22:54.014] $GNGGA,72253.6,3713.98805922,N,13701.47788458,E,4,9.0,1.1,95.398,M,36.771,M,1.6,0196*6E,37.233134320333335,137.02463140966663,679602.3621067608,4122655.6954730395
491,[2021-02-22 16:22:54.108] $GNGGA,72253.7,3713.9880593,N,13701.47788187,E,4,9.0,1.1,95.398,M,36.771,M,1.7,0196*6A,37.23313432166667,137.02463136449998,679602.3580964722,4122655.69553527
492,[2021-02-22 16:22:54.217] $GNGGA,72253.8,3713.98805929,N,13701.47788271,E,4,9.0,1.1,95.39200000000001,M,36.771,M,1.8,0196*62,37.233134321499996,137.0246313785,679602.3593389323,4122655.695543344
493,[2021-02-22 16:22:54.311] $GNGGA,72253.9,3713.98806224,N,13701.47788266,E,4,9.0,1.1,95.391,M,36.771,M,1.9,0196*62,37.23313437066667,137.02463137766668,679602.3591483121,4122655.7009971174
494,[2021-02-22 16:22:54.420] $GNGGA,72254.0,3713.98806154,N,13701.47788099,E,4,9.0,1.1,95.39,M,36.771,M,2.0,0196*61,37.233134359000005,137.02463134983336,679602.3567066647,4122655.699649808
495,[2021-02-22 16:22:54.514] $GNGGA,72254.1,3713.9880605,N,13701.47787962,E,4,9.0,1.1,95.39,M,36.771,M,1.1,0196*65,37.23313434166667,137.024631327,679602.35472206,4122655.6976832356
496,[2021-02-22 16:22:54.608] $GNGGA,72254.2,3713.98805985,N,13701.4778797,E,4,9.0,1.1,95.398,M,36.771,M,1.2,0196*6C,37.23313433083333,137.02463132833333,679602.3548660607,4122655.696483738
497,[2021-02-22 16:22:54.702] $GNGGA,72254.3,3713.98806231,N,13701.47788204,E,4,9.0,1.1,95.387,M,36.771,M,1.3,0196*62,37.23313437183333,137.02463136733334,679602.3582287831,4122655.701106956
498,[2021-02-22 16:22:54.811] $GNGGA,72254.4,3713.98806102,N,13701.477881,E,4,9.0,1.1,95.39,M,36.771,M,1.4,0196*60,37.23313435033332,137.02463135,679602.3567420171,4122655.698688501
499,[2021-02-22 16:22:54.905] $GNGGA,72254.5,3713.98806393,N,13701.47788263,E,4,9.0,1.1,95.38799999999999,M,36.771,M,1.5,0196*65,37.233134398833336,137.02463137716668,679602.3590371036,4122655.7041214383
500,[2021-02-22 16:22:55.014] $GNGGA,72254.6,3713.98806121,N,13701.47787956,E,4,9.0,1.1,95.391,M,36.771,M,1.6,0196*64,37.2331343535,137.024631326,679602.3546052555,4122655.6989943204
501,[2021-02-22 16:22:55.108] $GNGGA,72254.7,3713.98806208,N,13701.4778819,E,4,9.0,1.1,95.39,M,36.771,M,1.7,0196*60,37.233134368,137.02463136500003,679602.3580308731,4122655.7006771974
502,[2021-02-22 16:22:55.217] $GNGGA,72254.8,3713.98806198,N,13701.47787996,E,4,9.0,1.1,95.39200000000001,M,36.771,M,1.8,0196*69,37.23313436633334,137.02463133266667,679602.3551662561,4122655.7004309106
503,[2021-02-22 16:22:55.311] $GNGGA,72254.9,3713.98806319,N,13701.47787954,E,4,9.0,1.1,95.387,M,36.771,M,1.9,0196*68,37.2331343865,137.02463132566666,679602.3544973619,4122655.702655248
504,[2021-02-22 16:22:55.420] $GNGGA,72255.0,3713.98806241,N,13701.47788053,E,4,9.0,1.1,95.389,M,36.771,M,2.0,0196*69,37.2331343735,137.02463134216663,679602.3559920709,4122655.7012441265
505,[2021-02-22 16:22:55.498] $GNGGA,72255.1,3713.98806294,N,13701.47788238,E,4,9.0,1.1,95.39399999999999,M,36.771,M,1.1,0196*61,37.233134382333326,137.02463137300003,679602.3587066035,4122655.7022827514
506,[2021-02-22 16:22:55.608] $GNGGA,72255.2,3713.98806248,N,13701.47788368,E,4,9.0,1.1,95.39399999999999,M,36.771,M,1.2,0196*64,37.23313437466667,137.02463139466664,679602.3606470326,4122655.701473202
507,[2021-02-22 16:22:55.702] $GNGGA,72255.3,3713.98806479,N,13701.47788285,E,4,9.0,1.1,95.39,M,36.771,M,1.3,0196*66,37.23313441316667,137.02463138083334,679602.3593283881,4122655.705718771
508,[2021-02-22 16:22:55.811] $GNGGA,72255.4,3713.98806172,N,13701.47788156,E,4,9.0,1.1,95.40100000000001,M,36.771,M,1.4,0196*6A,37.233134362,137.02463135933334,679602.3575423706,4122655.7000007057
509,[2021-02-22 16:22:55.905] $GNGGA,72255.5,3713.98806237,N,13701.477886,E,4,9.0,1.1,95.39,M,36.771,M,1.5,0196*63,37.233134372833334,137.02463143333335,679602.3640818426,4122655.701343158
510,[2021-02-22 16:22:56.014] $GNGGA,72255.6,3713.98806238,N,13701.47788204,E,4,9.0,1.1,95.398,M,36.771,M,1.6,0196*64,37.23313437299999,137.02463136733334,679602.3582260143,4122655.7012364045
511,[2021-02-22 16:22:56.108] $GNGGA,72255.7,3713.98806203,N,13701.47788179,E,4,9.0,1.1,95.39299999999999,M,36.771,M,1.7,0196*6E,37.23313436716666,137.0246313631667,679602.3578701987,4122655.7005812535
512,[2021-02-22 16:22:56.217] $GNGGA,72255.8,3713.98806103,N,13701.47787952,E,4,9.0,1.1,95.4,M,36.771,M,1.8,0196*6E,37.23313435050001,137.0246313253333,679602.3545532272,4122655.698660187
513,[2021-02-22 16:22:56.311] $GNGGA,72255.9,3713.98806179,N,13701.47788036,E,4,9.0,1.1,95.391,M,36.771,M,1.9,0196*68,37.23313436316666,137.02463133933333,679602.3557652275,4122655.7000921997
514,[2021-02-22 16:22:56.420] $GNGGA,72256.0,3713.98806178,N,13701.47787946,E,4,9.0,1.1,95.395,M,36.771,M,2.0,0196*6C,37.233134363000005,137.02463132433334,679602.354434845,4122655.7000452434
515,[2021-02-22 16:22:56.514] $GNGGA,72256.1,3713.98806119,N,13701.47788546,E,4,9.0,1.1,95.39399999999999,M,36.771,M,1.1,0196*6A,37.23313435316666,137.02463142433334,679602.3633300475,4122655.699143938
516,[2021-02-22 16:22:56.608] $GNGGA,72256.2,3713.98806222,N,13701.47788346,E,4,9.0,1.1,95.398,M,36.771,M,1.2,0196*6B,37.233134370333325,137.024631391,679602.3603320172,4122655.700985433
517,[2021-02-22 16:22:56.701] $GNGGA,72256.3,3713.98805874,N,13701.47788264,E,4,9.0,1.1,95.397,M,36.771,M,1.3,0196*6F,37.233134312333334,137.02463137733335,679602.3592571816,4122655.69452403
518,[2021-02-22 16:22:56.811] $GNGGA,72256.4,3713.98806043,N,13701.47788243,E,4,9.0,1.1,95.396,M,36.771,M,1.4,0196*64,37.23313434050001,137.0246313738333,679602.3588798147,4122655.69764266
519,[2021-02-22 16:22:56.905] $GNGGA,72256.5,3713.98806003,N,13701.47788306,E,4,9.0,1.1,95.39299999999999,M,36.771,M,1.5,0196*65,37.23313433383333,137.02463138433333,679602.3598271853,4122655.6969228755
520,[2021-02-22 16:22:57.014] $GNGGA,72256.6,3713.98806024,N,13701.47788157,E,4,9.0,1.1,95.404,M,36.771,M,1.6,0196*6F,37.23313433733333,137.0246313595,679602.3576156984,4122655.697264097
521,[2021-02-22 16:22:57.108] $GNGGA,72256.7,3713.9880618,N,13701.47788736,E,4,9.0,1.1,95.39399999999999,M,36.771,M,1.7,0196*6F,37.233134363333335,137.02463145599998,679602.3661153407,4122655.7003320875
522,[2021-02-22 16:22:57.217] $GNGGA,72256.8,3713.98805861,N,13701.47788372,E,4,9.0,1.1,95.399,M,36.771,M,1.8,0196*63,37.23313431016666,137.02463139533333,679602.3608592578,4122655.694317783
523,[2021-02-22 16:22:57.311] $GNGGA,72256.9,3713.98806004,N,13701.4778843,E,4,9.0,1.1,95.38799999999999,M,36.771,M,1.9,0196*6A,37.233134334000006,137.02463140500004,679602.3616603123,4122655.6969805877
524,[2021-02-22 16:22:57.420] $GNGGA,72257.0,3713.98805856,N,13701.47788267,E,4,9.0,1.1,95.39200000000001,M,36.771,M,2.0,0196*6B,37.23313430933333,137.02463137783332,679602.3593086593,4122655.69419211
525,[2021-02-22 16:22:57.514] $GNGGA,72257.1,3713.98806124,N,13701.47788144,E,4,9.0,1.1,95.40299999999999,M,36.771,M,1.1,0196*6A,37.233134354,137.0246313573333,679602.3573839169,4122655.699109259
526,[2021-02-22 16:22:57.608] $GNGGA,72257.2,3713.9880608,N,13701.47788161,E,4,9.0,1.1,95.398,M,36.771,M,1.2,0196*67,37.23313434666667,137.02463136016667,679602.3576526934,4122655.698300956
527,[2021-02-22 16:22:57.701] $GNGGA,72257.3,3713.98806481,N,13701.47787847,E,4,9.0,1.1,95.39299999999999,M,36.771,M,1.3,0196*6B,37.233134413500004,137.02463130783332,679602.3528511322,4122655.7056172267
528,[2021-02-22 16:22:57.811] $GNGGA,72257.4,3713.98806432,N,13701.47788154,E,4,9.0,1.1,95.395,M,36.771,M,1.4,0196*61,37.23313440533334,137.024631359,679602.3574099549,4122655.704808182
529,[2021-02-22 16:22:57.904] $GNGGA,72257.5,3713.98806278,N,13701.47788408,E,4,9.0,1.1,95.391,M,36.771,M,1.5,0196*61,37.23313437966666,137.02463140133335,679602.3612266264,4122655.702040634
530,[2021-02-22 16:22:58.014] $GNGGA,72257.6,3713.98806477,N,13701.47788173,E,4,9.0,1.1,95.385,M,36.771,M,1.6,0196*64,37.23313441283334,137.02463136216667,679602.357673097,4122655.7056463626
531,[2021-02-22 16:22:58.108] $GNGGA,72257.7,3713.98806232,N,13701.47788503,E,4,9.0,1.1,95.39399999999999,M,36.771,M,1.7,0196*60,37.233134372,137.0246314171667,679602.362649534,4122655.7012200174
532,[2021-02-22 16:22:58.217] $GNGGA,72257.8,3713.98806225,N,13701.47788399,E,4,9.0,1.1,95.395,M,36.771,M,1.8,0196*62,37.23313437083333,137.02463139983334,679602.3611145128,4122655.701057674
533,[2021-02-22 16:22:58.311] $GNGGA,72257.9,3713.98806171,N,13701.47788384,E,4,9.0,1.1,95.396,M,36.771,M,1.9,0196*6F,37.23313436183333,137.0246313973333,679602.3609140721,4122655.700054323
534,[2021-02-22 16:22:58.420] $GNGGA,72258.0,3713.98806489,N,13701.4778828,E,4,9.0,1.1,95.391,M,36.771,M,2.0,0196*63,37.23313441483333,137.02463138000002,679602.3592505006,4122655.705902116
535,[2021-02-22 16:22:58.514] $GNGGA,72258.1,3713.98806442,N,13701.47788318,E,4,9.0,1.1,95.397,M,36.771,M,2.1,0196*62,37.233134406999994,137.0246313863333,679602.3598309733,4122655.705044976
536,[2021-02-22 16:22:58.608] $GNGGA,72258.2,3713.98806545,N,13701.47788221,E,4,9.0,1.1,95.389,M,36.771,M,2.2,0196*60,37.233134424166664,137.02463137016667,679602.3583559496,4122655.706919048
537,[2021-02-22 16:22:58.701] $GNGGA,72258.3,3713.98806718,N,13701.47788057,E,4,9.0,1.1,95.395,M,36.771,M,1.3,0196*67,37.233134453,137.02463134283337,679602.3558625448,4122655.710066421
538,[2021-02-22 16:22:58.811] $GNGGA,72258.4,3713.9880681,N,13701.47788224,E,4,9.0,1.1,95.39299999999999,M,36.771,M,1.4,0196*60,37.23313446833333,137.02463137066664,679602.3582954836,4122655.7118205694
539,[2021-02-22 16:22:58.904] $GNGGA,72258.5,3713.98806519,N,13701.47788366,E,4,9.0,1.1,95.39200000000001,M,36.771,M,1.5,0196*62,37.233134419833334,137.0246313943333,679602.3605102636,4122655.7064840975
540,[2021-02-22 16:22:59.014] $GNGGA,72258.6,3713.98806482,N,13701.47788257,E,4,9.0,1.1,95.396,M,36.771,M,1.6,0196*66,37.23313441366666,137.02463137616667,679602.3589131793,4122655.7057653926
541,[2021-02-22 16:22:59.107] $GNGGA,72258.7,3713.98806594,N,13701.47788148,E,4,9.0,1.1,95.389,M,36.771,M,1.7,0196*63,37.23313443233333,137.024631358,679602.3572571552,4122655.7078021043
542,[2021-02-22 16:22:59.217] $GNGGA,72258.8,3713.98806544,N,13701.47787996,E,4,9.0,1.1,95.39200000000001,M,36.771,M,1.8,0196*60,37.233134424000006,137.02463133266667,679602.3550293947,4122655.706829394
543,[2021-02-22 16:22:59.311] $GNGGA,72258.9,3713.98806311,N,13701.47788139,E,4,9.0,1.1,95.39,M,36.771,M,1.9,0196*66,37.233134385166665,137.02463135649998,679602.3572360186,4122655.702565817
544,[2021-02-22 16:22:59.420] $GNGGA,72259.0,3713.98806395,N,13701.47788111,E,4,9.0,1.1,95.39399999999999,M,36.771,M,1.0,0196*65,37.233134399166666,137.02463135183334,679602.3567887723,4122655.70411035
545,[2021-02-22 16:22:59.514] $GNGGA,72259.1,3713.98806471,N,13701.47788269,E,4,9.0,1.1,95.396,M,36.771,M,1.1,0196*66,37.23313441183333,137.02463137816667,679602.3590949684,4122655.705565769
546,[2021-02-22 16:22:59.623] $GNGGA,72259.2,3713.98806386,N,13701.47788617,E,4,9.0,1.1,95.391,M,36.771,M,1.2,0196*63,37.23313439766666,137.02463143616666,679602.3642742707,4122655.7041039513
547,[2021-02-22 16:22:59.701] $GNGGA,72259.3,3713.98806333,N,13701.47788308,E,4,9.0,1.1,95.39,M,36.771,M,1.3,0196*67,37.233134388833335,137.02463138466666,679602.3597262246,4122655.7030261084
548,[2021-02-22 16:22:59.811] $GNGGA,72259.4,3713.98806384,N,13701.47788426,E,4,9.0,1.1,95.38799999999999,M,36.771,M,1.4,0196*69,37.23313439733334,137.02463140433335,679602.3614508539,4122655.704006558
549,[2021-02-22 16:22:59.904] $GNGGA,72259.5,3713.9880635,N,13701.47788413,E,4,9.0,1.1,95.39200000000001,M,36.771,M,1.5,0196*6D,37.23313439166666,137.02463140216668,679602.3612720786,4122655.7033736925
550,[2021-02-22 16:23:00.014] $GNGGA,72259.6,3713.98806229,N,13701.47788577,E,4,9.0,1.1,95.396,M,36.771,M,1.6,0196*65,37.2331343715,137.0246314295,679602.3637449166,4122655.7011879426
551,[2021-02-22 16:23:00.107] $GNGGA,72259.7,3713.9880619,N,13701.47788315,E,4,9.0,1.1,95.395,M,36.771,M,1.7,0196*65,37.233134365000005,137.02463138583332,679602.3598862926,4122655.700383862
552,[2021-02-22 16:23:00.217] $GNGGA,72259.8,3713.9880633,N,13701.47788186,E,4,9.0,1.1,95.389,M,36.771,M,1.8,0196*68,37.233134388333326,137.02463136433335,679602.3579234674,4122655.702932043
553,[2021-02-22 16:23:00.311] $GNGGA,72259.9,3713.98806318,N,13701.47788578,E,4,9.0,1.1,95.38600000000001,M,36.771,M,1.9,0196*68,37.23313438633334,137.02463142966667,679602.3637244983,4122655.702834111
554,[2021-02-22 16:23:00.420] $GNGGA,72300.0,3713.9880609,N,13701.47788251,E,4,9.0,1.1,95.402,M,36.771,M,2.0,0196*62,37.23313434833334,137.02463137516665,679602.3589795157,4122655.698514348
555,[2021-02-22 16:23:00.514] $GNGGA,72300.1,3713.98806286,N,13701.47788372,E,4,9.0,1.1,95.387,M,36.771,M,2.1,0196*6D,37.23313438099999,137.02463139533333,679602.3606911477,4122655.7021771898
556,[2021-02-22 16:23:00.607] $GNGGA,72300.2,3713.98806502,N,13701.47788373,E,4,9.0,1.1,95.39299999999999,M,36.771,M,1.2,0196*61,37.233134416999995,137.02463139550002,679602.3606204987,4122655.7061719354
557,[2021-02-22 16:23:00.701] $GNGGA,72300.3,3713.98806416,N,13701.47788647,E,4,9.0,1.1,95.395,M,36.771,M,1.3,0196*61,37.23313440266667,137.02463144116666,679602.3647059982,4122655.7046682225
558,[2021-02-22 16:23:00.811] $GNGGA,72300.4,3713.98806345,N,13701.47788572,E,4,9.0,1.1,95.397,M,36.771,M,1.4,0196*67,37.233134390833335,137.02463142866665,679602.3636250983,4122655.703331517
559,[2021-02-22 16:23:00.904] $GNGGA,72300.5,3713.98806609,N,13701.47788717,E,4,9.0,1.1,95.39399999999999,M,36.771,M,1.5,0196*68,37.23313443483333,137.02463145283335,679602.3656647088,4122655.7082594563
560,[2021-02-22 16:23:01.014] $GNGGA,72300.6,3713.98806262,N,13701.47788721,E,4,9.0,1.1,95.391,M,36.771,M,1.6,0196*61,37.233134377000006,137.0246314535,679602.3658611117,4122655.7018437474
561,[2021-02-22 16:23:01.107] $GNGGA,72300.7,3713.98805919,N,13701.47788534,E,4,9.0,1.1,95.395,M,36.771,M,1.7,0196*67,37.23313431983334,137.02463142233333,679602.3632317199,4122655.695441599
562,[2021-02-22 16:23:01.217] $GNGGA,72300.8,3713.98805932,N,13701.47788507,E,4,9.0,1.1,95.395,M,36.771,M,1.8,0196*6E,37.233134322,137.02463141783332,679602.3628273436,4122655.695673464
563,[2021-02-22 16:23:01.310] $GNGGA,72300.9,3713.98806194,N,13701.47788787,E,4,9.0,1.1,95.398,M,36.771,M,1.9,0196*6E,37.23313436566667,137.02463146449998,679602.3668639109,4122655.700607116
564,[2021-02-22 16:23:01.420] $GNGGA,72301.0,3713.9880631,N,13701.47788692,E,4,9.0,1.1,95.395,M,36.771,M,2.0,0196*6A,37.23313438500001,137.02463144866667,679602.3654133169,4122655.7027222263
565,[2021-02-22 16:23:01.514] $GNGGA,72301.1,3713.98806039,N,13701.4778849,E,4,9.0,1.1,95.39,M,36.771,M,2.1,0196*67,37.23313433983334,137.02463141499996,679602.3625336471,4122655.69764681
566,[2021-02-22 16:23:01.607] $GNGGA,72301.2,3713.98806331,N,13701.47788445,E,4,9.0,1.1,95.39,M,36.771,M,1.2,0196*67,37.2331343885,137.0246314075,679602.3617527601,4122655.7030324517
567,[2021-02-22 16:23:01.701] $GNGGA,72301.3,3713.98806725,N,13701.47788397,E,4,9.0,1.1,95.389,M,36.771,M,1.3,0196*66,37.23313445416667,137.0246313995,679602.360887162,4122655.710303404
568,[2021-02-22 16:23:01.810] $GNGGA,72301.4,3713.98806657,N,13701.47788479,E,4,9.0,1.1,95.39,M,36.771,M,1.4,0196*6D,37.23313444283333,137.02463141316667,679602.3621265477,4122655.7090718346
569,[2021-02-22 16:23:01.904] $GNGGA,72301.5,3713.98806934,N,13701.47788819,E,4,9.0,1.1,95.384,M,36.771,M,1.5,0196*68,37.233134489,137.02463146983337,679602.3670443723,4122655.714301852
570,[2021-02-22 16:23:02.014] $GNGGA,72301.6,3713.98806503,N,13701.47788827,E,4,9.0,1.1,95.391,M,36.771,M,1.6,0196*69,37.23313441716667,137.02463147116666,679602.3673331431,4122655.706334018
571,[2021-02-22 16:23:02.107] $GNGGA,72301.7,3713.98806637,N,13701.47788564,E,4,9.0,1.1,95.39399999999999,M,36.771,M,1.7,0196*62,37.2331344395,137.02463142733333,679602.363391307,4122655.708728863
572,[2021-02-22 16:23:02.217] $GNGGA,72301.8,3713.98806307,N,13701.47788608,E,4,9.0,1.1,95.389,M,36.771,M,1.8,0196*61,37.2331343845,137.02463143466665,679602.3641724414,4122655.7026401795
573,[2021-02-22 16:23:02.310] $GNGGA,72301.9,3713.98806396,N,13701.47788391,E,4,9.0,1.1,95.39200000000001,M,36.771,M,1.9,0196*66,37.23313439933334,137.0246313985,679602.3609285788,4122655.7042174
574,[2021-02-22 16:23:02.404] $GNGGA,72302.0,3713.98806199,N,13701.4778838,E,4,9.0,1.1,95.391,M,36.771,M,2.0,0196*68,37.233134366499996,137.02463139666668,679602.3608438552,4122655.7005708534
575,[2021-02-22 16:23:02.514] $GNGGA,72302.1,3713.9880604,N,13701.47788496,E,4,9.0,1.1,95.404,M,36.771,M,1.1,0196*65,37.23313434,137.02463141600003,679602.3626219763,4122655.6976671983
576,[2021-02-22 16:23:02.607] $GNGGA,72302.2,3713.98806249,N,13701.47788665,E,4,9.0,1.1,95.40299999999999,M,36.771,M,1.2,0196*67,37.233134374833334,137.02463144416666,679602.3650382117,4122655.70158563
577,[2021-02-22 16:23:02.701] $GNGGA,72302.3,3713.98806209,N,13701.47788933,E,4,9.0,1.1,95.406,M,36.771,M,1.3,0196*6A,37.23313436816667,137.02463148883336,679602.3690168024,4122655.7009306834
578,[2021-02-22 16:23:02.810] $GNGGA,72302.4,3713.9880636,N,13701.4778877,E,4,9.0,1.1,95.40299999999999,M,36.771,M,1.4,0196*68,37.23313439333334,137.02463146166667,679602.3665468814,4122655.703671531
579,[2021-02-22 16:23:02.904] $GNGGA,72302.5,3713.98805947,N,13701.47789026,E,4,9.0,1.1,95.40899999999999,M,36.771,M,1.5,0196*6B,37.23313432449999,137.02463150433334,679602.3704955752,4122655.696115001
580,[2021-02-22 16:23:03.013] $GNGGA,72302.6,3713.98806152,N,13701.47789345,E,4,9.0,1.1,95.402,M,36.771,M,1.6,0196*69,37.23313435866667,137.0246315575,679602.375131359,4122655.700006903
581,[2021-02-22 16:23:03.107] $GNGGA,72302.7,3713.98806516,N,13701.4778913,E,4,9.0,1.1,95.40100000000001,M,36.771,M,1.7,0196*6E,37.23313441933334,137.02463152166663,679602.3718082912,4122655.7066702573
582,[2021-02-22 16:23:03.217] $GNGGA,72302.8,3713.98806409,N,13701.47788634,E,4,9.0,1.1,95.41,M,36.771,M,1.8,0196*63,37.2331344015,137.02463143900002,679602.3645165453,4122655.704534662
583,[2021-02-22 16:23:03.310] $GNGGA,72302.9,3713.98806584,N,13701.47788305,E,4,9.0,1.1,95.4,M,36.771,M,1.9,0196*61,37.233134430666674,137.02463138416667,679602.359582583,4122655.7076668334
584,[2021-02-22 16:23:03.404] $GNGGA,72303.0,3713.98806209,N,13701.47788198,E,4,9.0,1.1,95.40799999999999,M,36.771,M,2.0,0196*6F,37.23313436816667,137.02463136633332,679602.358148765,4122655.7006982192
585,[2021-02-22 16:23:03.482] $GNGGA,72303.1,3713.98806915,N,13701.47788284,E,4,9.0,1.1,95.396,M,36.771,M,1.1,0196*64,37.233134485833325,137.02463138066665,679602.3591411366,4122655.713781282
586,[2021-02-22 16:23:03.607] $GNGGA,72303.2,3713.98806556,N,13701.47788307,E,4,9.0,1.1,95.40299999999999,M,36.771,M,1.2,0196*6E,37.23313442600001,137.02463138450003,679602.3596232326,4122655.70714967
587,[2021-02-22 16:23:03.701] $GNGGA,72303.3,3713.98806357,N,13701.47788699,E,4,9.0,1.1,95.396,M,36.771,M,1.3,0196*60,37.233134392833335,137.02463144983332,679602.3654982299,4122655.7035935977
588,[2021-02-22 16:23:03.810] $GNGGA,72303.4,3713.98805972,N,13701.47788864,E,4,9.0,1.1,95.402,M,36.771,M,1.4,0196*68,37.233134328666665,137.02463147733332,679602.3680902799,4122655.696526084
589,[2021-02-22 16:23:03.904] $GNGGA,72303.5,3713.98805849,N,13701.47788869,E,4,9.0,1.1,95.40700000000001,M,36.771,M,1.5,0196*69,37.23313430816666,137.02463147816664,679602.368212865,4122655.6942530586
590,[2021-02-22 16:23:04.013] $GNGGA,72303.6,3713.98805704,N,13701.47789068,E,4,9.0,1.1,95.40100000000001,M,36.771,M,1.6,0196*61,37.233134284,137.02463151133333,679602.3712127223,4122655.6916345544
591,[2021-02-22 16:23:04.107] $GNGGA,72303.7,3713.98805693,N,13701.47788997,E,4,9.0,1.1,95.4,M,36.771,M,1.7,0196*67,37.23313428216666,137.02463149949998,679602.3701672353,4122655.6914086775
592,[2021-02-22 16:23:04.216] $GNGGA,72303.8,3713.98805415,N,13701.47788974,E,4,9.0,1.1,95.40299999999999,M,36.771,M,1.8,0196*65,37.23313423583333,137.02463149566665,679602.3699371133,4122655.686260427
593,[2021-02-22 16:23:04.310] $GNGGA,72303.9,3713.98805503,N,13701.4778897,E,4,9.0,1.1,95.40299999999999,M,36.771,M,1.9,0196*67,37.2331342505,137.02463149499997,679602.3698431563,4122655.687886521
594,[2021-02-22 16:23:04.420] $GNGGA,72304.0,3713.98805554,N,13701.47789153,E,4,9.0,1.1,95.4,M,36.771,M,2.0,0196*6A,37.233134258999996,137.02463152549998,679602.3725289035,4122655.688887529
595,[2021-02-22 16:23:04.513] $GNGGA,72304.1,3713.9880564,N,13701.47789135,E,4,9.0,1.1,95.387,M,36.771,M,1.1,0196*67,37.233134273333334,137.02463152249996,679602.3722287277,4122655.6904722108
596,[2021-02-22 16:23:04.607] $GNGGA,72304.2,3713.98805671,N,13701.47788716,E,4,9.0,1.1,95.39200000000001,M,36.771,M,1.2,0196*67,37.2331342785,137.02463145266665,679602.3660209493,4122655.6909129648
597,[2021-02-22 16:23:04.701] $GNGGA,72304.3,3713.98805756,N,13701.47788769,E,4,9.0,1.1,95.39299999999999,M,36.771,M,1.3,0196*6A,37.23313429266667,137.0246314615,679602.3667710094,4122655.69250161
598,[2021-02-22 16:23:04.810] $GNGGA,72304.4,3713.98806068,N,13701.47788583,E,4,9.0,1.1,95.395,M,36.771,M,1.4,0196*63,37.233134344666674,137.0246314305,679602.3638973186,4122655.6982125123
599,[2021-02-22 16:23:04.904] $GNGGA,72304.5,3713.98805991,N,13701.47788528,E,4,9.0,1.1,95.395,M,36.771,M,1.5,0196*6E,37.23313433183334,137.0246314213333,679602.36311452,4122655.696771177
600,[2021-02-22 16:23:05.013] $GNGGA,72304.6,3713.98806164,N,13701.47788456,E,4,9.0,1.1,95.389,M,36.771,M,1.6,0196*6A,37.23313436066667,137.02463140933335,679602.3619814697,4122655.6999476464
601,[2021-02-22 16:23:05.107] $GNGGA,72304.7,3713.98806296,N,13701.4778846,E,4,9.0,1.1,95.39399999999999,M,36.771,M,1.7,0196*6D,37.23313438266667,137.02463141,679602.3619884005,4122655.702389952
602,[2021-02-22 16:23:05.216] $GNGGA,72304.8,3713.98806322,N,13701.47788508,E,4,9.0,1.1,95.39399999999999,M,36.771,M,1.8,0196*6C,37.23313438700001,137.02463141799998,679602.362687864,4122655.7028859435
603,[2021-02-22 16:23:05.310] $GNGGA,72304.9,3713.98806308,N,13701.47788518,E,4,9.0,1.1,95.396,M,36.771,M,1.9,0196*67,37.23313438466667,137.02463141966666,679602.362841268,4122655.702630208
604,[2021-02-22 16:23:05.420] $GNGGA,72305.0,3713.9880631,N,13701.47788362,E,4,9.0,1.1,95.391,M,36.771,M,1.0,0196*63,37.23313438500001,137.02463139366668,679602.3605337928,4122655.702617855
605,[2021-02-22 16:23:05.513] $GNGGA,72305.1,3713.98806282,N,13701.47788661,E,4,9.0,1.1,95.4,M,36.771,M,1.1,0196*60,37.233134380333325,137.02463144350003,679602.3649660146,4122655.7021946236
606,[2021-02-22 16:23:05.607] $GNGGA,72305.2,3713.98806183,N,13701.47788639,E,4,9.0,1.1,95.39200000000001,M,36.771,M,1.2,0196*63,37.23313436383333,137.02463143983334,679602.3646798723,4122655.7003568863
607,[2021-02-22 16:23:05.701] $GNGGA,72305.3,3713.98806264,N,13701.47788241,E,4,9.0,1.1,95.39200000000001,M,36.771,M,1.3,0196*62,37.233134377333336,137.0246313735,679602.3587628279,4122655.7017289195
608,[2021-02-22 16:23:05.810] $GNGGA,72305.4,3713.98806223,N,13701.47788581,E,4,9.0,1.1,95.39399999999999,M,36.771,M,1.4,0196*6C,37.23313437050001,137.02463143016664,679602.3638064315,4122655.701078253
609,[2021-02-22 16:23:05.904] $GNGGA,72305.5,3713.98806376,N,13701.47788456,E,4,9.0,1.1,95.39200000000001,M,36.771,M,1.5,0196*60,37.233134396000004,137.02463140933335,679602.3618976125,4122655.7038681037
610,[2021-02-22 16:23:06.013] $GNGGA,72305.6,3713.98806216,N,13701.47788463,E,4,9.0,1.1,95.39399999999999,M,36.771,M,1.6,0196*67,37.233134369333335,137.0246314105,679602.3620644048,4122655.7009114814
611,[2021-02-22 16:23:06.107] $GNGGA,72305.7,3713.9880645,N,13701.4778852,E,4,9.0,1.1,95.39299999999999,M,36.771,M,1.7,0196*62,37.23313440833333,137.02463142000002,679602.3628146736,4122655.7052568067
612,[2021-02-22 16:23:06.216] $GNGGA,72305.8,3713.98806478,N,13701.47788548,E,4,9.0,1.1,95.39299999999999,M,36.771,M,1.8,0196*66,37.233134412999995,137.02463142466667,679602.3632176159,4122655.7057834575
613,[2021-02-22 16:23:06.310] $GNGGA,72305.9,3713.98806314,N,13701.47788498,E,4,9.0,1.1,95.39399999999999,M,36.771,M,1.9,0196*60,37.23313438566667,137.02463141633334,679602.3625431644,4122655.702734839
614,[2021-02-22 16:23:06.420] $GNGGA,72306.0,3713.98806337,N,13701.47788638,E,4,9.0,1.1,95.405,M,36.771,M,1.0,0196*65,37.2331343895,137.02463143966665,679602.3646041667,4122655.70320445
615,[2021-02-22 16:23:06.513] $GNGGA,72306.1,3713.98806425,N,13701.47788805,E,4,9.0,1.1,95.399,M,36.771,M,1.1,0196*63,37.23313440416667,137.02463146749997,679602.3670386942,4122655.7048846283
616,[2021-02-22 16:23:06.607] $GNGGA,72306.2,3713.98806477,N,13701.47788878,E,4,9.0,1.1,95.4,M,36.771,M,1.2,0196*69,37.23313441283334,137.02463147966665,679602.3680975356,4122655.7058693385
617,[2021-02-22 16:23:06.701] $GNGGA,72306.3,3713.98806294,N,13701.47788766,E,4,9.0,1.1,95.39299999999999,M,36.771,M,1.3,0196*6F,37.233134382333326,137.02463146099998,679602.3665138418,4122655.7024497455
618,[2021-02-22 16:23:06.810] $GNGGA,72306.4,3713.98806448,N,13701.47788671,E,4,9.0,1.1,95.40100000000001,M,36.771,M,1.4,0196*63,37.233134408000005,137.02463144516668,679602.3650482168,4122655.7052675798
619,[2021-02-22 16:23:06.904] $GNGGA,72306.5,3713.98806584,N,13701.47788688,E,4,9.0,1.1,95.398,M,36.771,M,1.5,0196*63,37.233134430666674,137.02463144799998,679602.3652457871,4122655.707787968
620,[2021-02-22 16:23:07.013] $GNGGA,72306.6,3713.98806412,N,13701.47788635,E,4,9.0,1.1,95.40299999999999,M,36.771,M,1.6,0196*6E,37.233134402000005,137.02463143916665,679602.3645301423,4122655.7045904556
621,[2021-02-22 16:23:07.107] $GNGGA,72306.7,3713.98806508,N,13701.47788758,E,4,9.0,1.1,95.40100000000001,M,36.771,M,1.7,0196*6C,37.233134418000006,137.02463145966667,679602.3663109015,4122655.7064046594
622,[2021-02-22 16:23:07.216] $GNGGA,72306.8,3713.98806227,N,13701.47788558,E,4,9.0,1.1,95.4,M,36.771,M,1.8,0196*65,37.23313437116666,137.02463142633331,679602.3634647636,4122655.701144948
623,[2021-02-22 16:23:07.310] $GNGGA,72306.9,3713.98806335,N,13701.47788377,E,4,9.0,1.1,95.397,M,36.771,M,1.9,0196*65,37.233134389166665,137.02463139616665,679602.3607456976,4122655.7030849154
624,[2021-02-22 16:23:07.419] $GNGGA,72307.0,3713.98806431,N,13701.47788189,E,4,9.0,1.1,95.40100000000001,M,36.771,M,2.0,0196*6F,37.233134405166666,137.02463136483334,679602.3579278766,4122655.7048007566
625,[2021-02-22 16:23:07.513] $GNGGA,72307.1,3713.98806539,N,13701.47788344,E,4,9.0,1.1,95.398,M,36.771,M,2.1,0196*62,37.23313442316667,137.02463139066668,679602.360177055,4122655.7068469953
626,[2021-02-22 16:23:07.607] $GNGGA,72307.2,3713.98806306,N,13701.47788298,E,4,9.0,1.1,95.404,M,36.771,M,2.2,0196*6A,37.23313438433334,137.024631383,679602.3595890428,4122655.702523642
627,[2021-02-22 16:23:07.716] $GNGGA,72307.3,3713.98806224,N,13701.47788589,E,4,9.0,1.1,95.39399999999999,M,36.771,M,1.3,0196*61,37.23313437066667,137.0246314315,679602.3639243325,4122655.7010992747
628,[2021-02-22 16:23:07.810] $GNGGA,72307.4,3713.98805884,N,13701.47788405,E,4,9.0,1.1,95.396,M,36.771,M,1.4,0196*65,37.233134314000004,137.02463140083336,679602.3613381165,4122655.6947535546
629,[2021-02-22 16:23:07.904] $GNGGA,72307.5,3713.9880597,N,13701.4778816,E,4,9.0,1.1,95.39200000000001,M,36.771,M,1.5,0196*6D,37.233134328333335,137.02463135999997,679602.3576814161,4122655.6962664397
630,[2021-02-22 16:23:08.013] $GNGGA,72307.6,3713.98805856,N,13701.47788041,E,4,9.0,1.1,95.396,M,36.771,M,1.6,0196*6E,37.23313430933333,137.0246313401667,679602.3559669276,4122655.6941206325
631,[2021-02-22 16:23:08.107] $GNGGA,72307.7,3713.98806034,N,13701.47788279,E,4,9.0,1.1,95.395,M,36.771,M,1.7,0196*6B,37.233134339,137.02463137983335,679602.3594156912,4122655.697487611
632,[2021-02-22 16:23:08.216] $GNGGA,72307.8,3713.98805957,N,13701.47788383,E,4,9.0,1.1,95.396,M,36.771,M,1.8,0196*63,37.23313432616666,137.02463139716667,679602.3609839368,4122655.696096564
633,[2021-02-22 16:23:08.310] $GNGGA,72307.9,3713.98805908,N,13701.47788239,E,4,9.0,1.1,95.398,M,36.771,M,1.9,0196*67,37.233134318,137.02463137316667,679602.3588740707,4122655.695144877
634,[2021-02-22 16:23:08.419] $GNGGA,72308.0,3713.9880655,N,13701.47788552,E,4,9.0,1.1,95.404,M,36.771,M,1.0,0196*62,37.233134424999996,137.02463142533335,679602.3632482842,4122655.7071162
635,[2021-02-22 16:23:08.513] $GNGGA,72308.1,3713.98806185,N,13701.47788286,E,4,9.0,1.1,95.40799999999999,M,36.771,M,1.1,0196*6C,37.233134364166666,137.02463138099998,679602.3594594644,4122655.700282227
636,[2021-02-22 16:23:08.607] $GNGGA,72308.2,3713.98806271,N,13701.47788515,E,4,9.0,1.1,95.40299999999999,M,36.771,M,1.2,0196*62,37.2331343785,137.02463141916664,679602.3628115411,4122655.701945027
637,[2021-02-22 16:23:08.701] $GNGGA,72308.3,3713.98806283,N,13701.47788508,E,4,9.0,1.1,95.405,M,36.771,M,1.3,0196*65,37.23313438050001,137.02463141799998,679602.3627032905,4122655.702164728
638,[2021-02-22 16:23:08.810] $GNGGA,72308.4,3713.98805986,N,13701.47788475,E,4,9.0,1.1,95.411,M,36.771,M,1.4,0196*66,37.233134331,137.02463141249999,679602.3623328179,4122655.696661951
639,[2021-02-22 16:23:08.904] $GNGGA,72308.5,3713.98806276,N,13701.47788274,E,4,9.0,1.1,95.405,M,36.771,M,1.5,0196*63,37.233134379333336,137.024631379,679602.3592460332,4122655.701961269
640,[2021-02-22 16:23:09.013] $GNGGA,72308.6,3713.98806243,N,13701.47788255,E,4,9.0,1.1,95.405,M,36.771,M,1.6,0196*66,37.23313437383333,137.02463137583334,679602.3589781445,4122655.701345
641,[2021-02-22 16:23:09.107] $GNGGA,72308.7,3713.98806414,N,13701.4778806,E,4,9.0,1.1,95.40100000000001,M,36.771,M,1.7,0196*62,37.23313440233333,137.0246313433333,679602.3560271463,4122655.7044455805
642,[2021-02-22 16:23:09.216] $GNGGA,72308.8,3713.98806203,N,13701.47787962,E,4,9.0,1.1,95.41,M,36.771,M,1.8,0196*66,37.23313436716666,137.024631327,679602.3546615405,4122655.7005126206
643,[2021-02-22 16:23:09.310] $GNGGA,72308.9,3713.98806191,N,13701.47787997,E,4,9.0,1.1,95.404,M,36.771,M,1.9,0196*61,37.23313436516666,137.02463133283334,679602.3551838109,4122655.700301778
644,[2021-02-22 16:23:09.419] $GNGGA,72309.0,3713.9880615,N,13701.47787765,E,4,9.0,1.1,95.402,M,36.771,M,2.0,0196*6B,37.23313435833334,137.02463129416668,679602.3517695765,4122655.699470201
645,[2021-02-22 16:23:09.513] $GNGGA,72309.1,3713.98806099,N,13701.47787853,E,4,9.0,1.1,95.40799999999999,M,36.771,M,1.1,0196*6C,37.23313434983334,137.02463130883334,679602.3530909534,4122655.6985549037
646,[2021-02-22 16:23:09.622] $GNGGA,72309.2,3713.98806311,N,13701.47787943,E,4,9.0,1.1,95.406,M,36.771,M,1.2,0196*61,37.233134385166665,137.02463132383335,679602.3543378786,4122655.7025038265
647,[2021-02-22 16:23:09.700] $GNGGA,72309.3,3713.98806186,N,13701.47787928,E,4,9.0,1.1,95.40100000000001,M,36.771,M,1.3,0196*67,37.23313436433334,137.02463132133335,679602.3541655246,4122655.700187493
648,[2021-02-22 16:23:09.810] $GNGGA,72309.4,3713.98806516,N,13701.47787628,E,4,9.0,1.1,95.40299999999999,M,36.771,M,1.4,0196*67,37.23313441933334,137.02463127133333,679602.3495990598,4122655.7061952087
649,[2021-02-22 16:23:09.904] $GNGGA,72309.5,3713.98806529,N,13701.47787442,E,4,9.0,1.1,95.406,M,36.771,M,1.5,0196*60,37.233134421500004,137.02463124033332,679602.3468436371,4122655.706376786
650,[2021-02-22 16:23:10.013] $GNGGA,72309.6,3713.9880614,N,13701.47787227,E,4,9.0,1.1,95.405,M,36.771,M,1.6,0196*6D,37.23313435666667,137.02463120449997,679602.3438184207,4122655.699115117
651,[2021-02-22 16:23:10.107] $GNGGA,72309.7,3713.98805911,N,13701.47787859,E,4,9.0,1.1,95.398,M,36.771,M,1.7,0196*62,37.23313431850001,137.02463130983335,679602.3532540377,4122655.69508017
652,[2021-02-22 16:23:10.216] $GNGGA,72309.8,3713.98805841,N,13701.47787929,E,4,9.0,1.1,95.40799999999999,M,36.771,M,1.8,0196*6E,37.23313430683333,137.02463132149998,679602.354316774,4122655.6938078175
