,Format,Time,Latitude,LatType,Longitude,LonType,Status,Satellite,LevelAccuracy,Altitude(sea),M(sea),Altitude(geoid),M(geoid),DGPS use,checksum,Lat,Lon,UTM_X,UTM_Y
690,[2021-02-22 16:26:25.587] $GPGGA,72625.2,3713.98820533,N,13701.47756496,E,4,6.0,2.5,95.334,M,36.771,M,2.2,0000*7C,37.2331367555,137.02462608266663,679601.8837231069,4122655.9555614023
692,[2021-02-22 16:26:25.681] $GPGGA,72625.3,3713.98820259,N,13701.47756881,E,4,6.0,2.5,95.329,M,36.771,M,2.3,0000*71,37.23313670983333,137.02462614683333,679601.8895242708,4122655.950616164
694,[2021-02-22 16:26:25.790] $GPGGA,72625.4,3713.98819633,N,13701.47756651,E,4,6.0,2.5,95.332,M,36.771,M,2.4,0000*7A,37.2331366055,137.02462610850003,679601.8863710086,4122655.9389669746
696,[2021-02-22 16:26:25.884] $GPGGA,72625.5,3713.98819439,N,13701.4775643,E,4,6.0,2.5,95.333,M,36.771,M,2.5,0000*76,37.23313657316667,137.0246260716667,679601.8831799413,4122655.9353094893
698,[2021-02-22 16:26:25.993] $GPGGA,72625.6,3713.98818956,N,13701.4775591,E,4,6.0,2.5,95.334,M,36.771,M,2.6,0000*78,37.23313649266667,137.02462598499997,679601.8756820379,4122655.9262130396
700,[2021-02-22 16:26:26.087] $GPGGA,72625.7,3713.98818916,N,13701.47756103,E,4,6.0,2.5,95.319,M,36.771,M,2.7,0000*7A,37.233136486,137.02462601716667,679601.8785516466,4122655.9255343713
702,[2021-02-22 16:26:26.196] $GPGGA,72625.8,3713.98819211,N,13701.47756211,E,4,6.0,2.5,95.324,M,36.771,M,2.8,0000*79,37.233136535166665,137.02462603516668,679601.8800318949,4122655.931023883
704,[2021-02-22 16:26:26.290] $GPGGA,72625.9,3713.98819246,N,13701.47756438,E,4,6.0,2.5,95.336,M,36.771,M,2.9,0000*75,37.23313654099999,137.02462607299998,679601.8833745705,4122655.931742924
706,[2021-02-22 16:26:26.399] $GPGGA,72626.0,3713.98818801,N,13701.47755955,E,4,6.0,2.5,95.324,M,36.771,M,3.0,0000*79,37.23313646683333,137.0246259925,679601.8764087431,4122655.9233608996
708,[2021-02-22 16:26:26.477] $GPGGA,72626.1,3713.9881864,N,13701.47755768,E,4,6.0,2.5,95.323,M,36.771,M,3.1,0000*75,37.233136439999996,137.02462596133333,679601.8737073606,4122655.9203244275
710,[2021-02-22 16:26:26.587] $GPGGA,72626.2,3713.98818596,N,13701.47755648,E,4,6.0,2.5,95.322,M,36.771,M,3.2,0000*7F,37.23313643266667,137.02462594133334,679601.8719503928,4122655.9194727945
712,[2021-02-22 16:26:26.680] $GPGGA,72626.3,3713.98818047,N,13701.47755854,E,4,6.0,2.5,95.323,M,36.771,M,3.3,0000*74,37.23313634116666,137.02462597566668,679601.8752135593,4122655.9093854427
714,[2021-02-22 16:26:26.790] $GPGGA,72626.4,3713.98817676,N,13701.47755862,E,4,6.0,2.5,95.326,M,36.771,M,3.4,0000*7F,37.23313627933334,137.02462597699997,679601.8754785967,4122655.9025271717
716,[2021-02-22 16:26:26.884] $GPGGA,72626.5,3713.98817454,N,13701.47755878,E,4,6.0,2.5,95.327,M,36.771,M,3.5,0000*77,37.23313624233333,137.02462597966664,679601.875802991,4122655.898426847
718,[2021-02-22 16:26:26.993] $GPGGA,72626.6,3713.98817642,N,13701.47756943,E,4,6.0,2.5,95.321,M,36.771,M,3.6,0000*7E,37.233136273666666,137.02462615716667,679601.8914761905,4122655.9022403136
720,[2021-02-22 16:26:27.087] $GPGGA,72626.7,3713.98817931,N,13701.47757607,E,4,6.0,2.5,95.327,M,36.771,M,3.7,0000*7D,37.23313632183333,137.02462626783333,679601.9011800725,4122655.907794718
722,[2021-02-22 16:26:27.196] $GPGGA,72626.8,3713.98817792,N,13701.4775902,E,4,6.0,2.5,95.331,M,36.771,M,3.8,0000*70,37.23313629866667,137.02462650333334,679601.9221282954,4122655.905671128
724,[2021-02-22 16:26:27.290] $GPGGA,72626.9,3713.98817843,N,13701.47759876,E,4,6.0,2.5,95.340,M,36.771,M,3.9,0000*7E,37.23313630716667,137.02462664600003,679601.9347653193,4122655.906884989
726,[2021-02-22 16:26:27.399] $GPGGA,72627.0,3713.98818275,N,13701.47759104,E,4,6.0,2.5,95.323,M,36.771,M,4.0,0000*71,37.233136379166666,137.02462651733333,679601.9231793038,4122655.9146296806
728,[2021-02-22 16:26:27.493] $GPGGA,72627.1,3713.98818259,N,13701.47759476,E,4,6.0,2.5,95.317,M,36.771,M,4.1,0000*78,37.233136376500006,137.0246265793333,679601.9286861867,4122655.9144514515
730,[2021-02-22 16:26:27.587] $GPGGA,72627.2,3713.98818623,N,13701.47760006,E,4,7.0,1.9,95.331,M,36.771,M,2.2,0000*74,37.23313643716667,137.02462666766667,679601.9363790224,4122655.9213504293
732,[2021-02-22 16:26:27.680] $GPGGA,72627.3,3713.98818862,N,13701.47760024,E,4,7.0,1.9,95.323,M,36.771,M,2.3,0000*7C,37.233136477,137.02462667066666,679601.9365506415,4122655.925775884
734,[2021-02-22 16:26:27.790] $GPGGA,72627.4,3713.98818732,N,13701.47759753,E,4,7.0,1.9,95.316,M,36.771,M,2.4,0000*7D,37.23313645533334,137.02462662550002,679601.9325949393,4122655.923286119
736,[2021-02-22 16:26:27.883] $GPGGA,72627.5,3713.98819156,N,13701.47759836,E,4,7.0,1.9,95.330,M,36.771,M,2.5,0000*70,37.233136526,137.02462663933335,679601.9336544991,4122655.9311532844
738,[2021-02-22 16:26:27.993] $GPGGA,72627.6,3713.98819119,N,13701.47760172,E,4,7.0,1.9,95.325,M,36.771,M,2.6,0000*7C,37.233136519833344,137.02462669533335,679601.9386373789,4122655.930575324
740,[2021-02-22 16:26:28.087] $GPGGA,72627.7,3713.98819186,N,13701.47760054,E,4,7.0,1.9,95.331,M,36.771,M,2.7,0000*7A,37.23313653099999,137.02462667566667,679601.9368660768,4122655.931777014
742,[2021-02-22 16:26:28.196] $GPGGA,72627.8,3713.98819315,N,13701.47760153,E,4,7.0,1.9,95.319,M,36.771,M,2.8,0000*7E,37.2331365525,137.02462669216663,679601.9382789042,4122655.9341938877
744,[2021-02-22 16:26:28.290] $GPGGA,72627.9,3713.98819199,N,13701.47759778,E,4,7.0,1.9,95.327,M,36.771,M,2.9,0000*70,37.233136533166665,137.0246266296667,679601.9327798786,4122655.9319301266
746,[2021-02-22 16:26:28.399] $GPGGA,72628.0,3713.98819389,N,13701.47759799,E,4,7.0,1.9,95.328,M,36.771,M,3.0,0000*7D,37.23313656483333,137.0246266331667,679601.9330152376,4122655.9354503867
748,[2021-02-22 16:26:28.477] $GPGGA,72628.1,3713.98819354,N,13701.47760014,E,4,7.0,1.9,95.323,M,36.771,M,3.1,0000*7E,37.233136558999995,137.024626669,679601.936208166,4122655.9348711404
750,[2021-02-22 16:26:28.587] $GPGGA,72628.2,3713.98819258,N,13701.47759946,E,4,8.0,1.2,95.333,M,36.771,M,2.2,0000*73,37.23313654299999,137.02462665766666,679601.9352406609,4122655.9330743314
752,[2021-02-22 16:26:28.680] $GPGGA,72628.3,3713.98819199,N,13701.47760222,E,4,8.0,1.2,95.338,M,36.771,M,2.3,0000*75,37.233136533166665,137.02462670366668,679601.9393450568,4122655.9320705533
754,[2021-02-22 16:26:28.790] $GPGGA,72628.4,3713.98819046,N,13701.47759836,E,4,8.0,1.2,95.327,M,36.771,M,2.4,0000*7D,37.23313650766667,137.02462663933335,679601.9336980099,4122655.929119086
756,[2021-02-22 16:26:28.883] $GPGGA,72628.5,3713.98818801,N,13701.47759878,E,4,8.0,1.2,95.333,M,36.771,M,2.5,0000*78,37.23313646683333,137.02462664633333,679601.9344159502,4122655.9246016517
758,[2021-02-22 16:26:29.305] $GPGGA,72628.6,3713.98818826,N,13701.47759926,E,4,8.0,1.2,95.335,M,36.771,M,2.6,0000*71,37.233136471,137.02462665433333,679601.9351158092,4122655.9250791515
760,[2021-02-22 16:26:29.305] $GPGGA,72628.7,3713.98818818,N,13701.47759819,E,4,8.0,1.2,95.330,M,36.771,M,2.7,0000*74,37.23313646966667,137.02462663650002,679601.933536828,4122655.9248973685
762,[2021-02-22 16:26:29.305] $GPGGA,72628.8,3713.9881888,N,13701.4775998,E,4,8.0,1.2,95.330,M,36.771,M,2.8,0000*74,37.23313648,137.02462666333335,679601.9358929198,4122655.926094836
764,[2021-02-22 16:26:29.305] $GPGGA,72628.9,3713.98818921,N,13701.47760126,E,4,8.0,1.2,95.335,M,36.771,M,2.9,0000*75,37.23313648683333,137.02462668766668,679601.9380355221,4122655.9268992143
766,[2021-02-22 16:26:29.399] $GPGGA,72629.0,3713.9881873,N,13701.47759761,E,4,8.0,1.2,95.333,M,36.771,M,3.0,0000*72,37.233136455,137.02462662683334,679601.9327140201,4122655.923251663
768,[2021-02-22 16:26:29.493] $GPGGA,72629.1,3713.98818989,N,13701.47759971,E,4,8.0,1.2,95.337,M,36.771,M,3.1,0000*75,37.233136498166665,137.02462666183334,679601.9357167266,4122655.9281076966
770,[2021-02-22 16:26:29.586] $GPGGA,72629.2,3713.98818865,N,13701.47759275,E,4,8.0,1.2,95.331,M,36.771,M,3.2,0000*7F,37.2331364775,137.0246265458333,679601.925474408,4122655.9255944705
772,[2021-02-22 16:26:29.680] $GPGGA,72629.3,3713.98818959,N,13701.47759727,E,4,8.0,1.2,95.330,M,36.771,M,3.3,0000*72,37.23313649316666,137.0246266211667,679601.9321207032,4122655.9274757425
774,[2021-02-22 16:26:29.790] $GPGGA,72629.4,3713.98819237,N,13701.47759874,E,4,8.0,1.2,95.326,M,36.771,M,3.4,0000*7E,37.2331365395,137.0246266456667,679601.9341843456,4122655.9326632144
776,[2021-02-22 16:26:29.883] $GPGGA,72629.5,3713.9881942,N,13701.47759893,E,4,8.0,1.2,95.328,M,36.771,M,3.5,0000*79,37.233136570000006,137.02462664883333,679601.9343928993,4122655.936053391
778,[2021-02-22 16:26:29.993] $GPGGA,72629.6,3713.988195,N,13701.47759838,E,4,8.0,1.2,95.336,M,36.771,M,3.6,0000*74,37.23313658333333,137.02462663966662,679601.9335479967,4122655.937515413
780,[2021-02-22 16:26:30.086] $GPGGA,72629.7,3713.98819309,N,13701.47760191,E,4,8.0,1.2,95.325,M,36.771,M,3.7,0000*79,37.2331365515,137.0246266985,679601.9388431637,4122655.9340949506
782,[2021-02-22 16:26:30.196] $GPGGA,72629.8,3713.98819342,N,13701.47759813,E,4,8.0,1.2,95.330,M,36.771,M,3.8,0000*7B,37.233136556999995,137.0246266355,679601.9332408385,4122655.934585656
784,[2021-02-22 16:26:30.290] $GPGGA,72629.9,3713.98819101,N,13701.47759864,E,4,8.0,1.2,95.337,M,36.771,M,3.9,0000*79,37.23313651683333,137.024626644,679601.9340902746,4122655.9301450397
786,[2021-02-22 16:26:30.399] $GPGGA,72630.0,3713.98819081,N,13701.47759941,E,4,8.0,1.2,95.331,M,36.771,M,4.0,0000*7F,37.2331365135,137.02462665683333,679601.9352367417,4122655.9297995395
788,[2021-02-22 16:26:30.477] $GPGGA,72630.1,3713.98818821,N,13701.47759612,E,4,8.0,1.2,95.330,M,36.771,M,4.1,0000*74,37.23313647016666,137.024626602,679601.930474847,4122655.924887376
790,[2021-02-22 16:26:30.586] $GPGGA,72630.2,3713.98818307,N,13701.47759444,E,4,11.0,1.1,95.326,M,36.771,M,2.2,0000*70,37.2331363845,137.02462657400002,679601.9281940386,4122655.915328981
792,[2021-02-22 16:26:30.680] $GPGGA,72630.3,3713.98818472,N,13701.47760206,E,4,11.0,1.1,95.329,M,36.771,M,2.3,0000*70,37.233136412,137.02462670100002,679601.9393960412,4122655.9186212844
794,[2021-02-22 16:26:30.789] $GPGGA,72630.4,3713.9881822,N,13701.47759984,E,4,11.0,1.1,95.332,M,36.771,M,2.4,0000*70,37.23313637,137.024626664,679601.9362131301,4122655.9138909033
796,[2021-02-22 16:26:30.883] $GPGGA,72630.5,3713.98817998,N,13701.4776022,E,4,11.0,1.1,95.328,M,36.771,M,2.5,0000*73,37.233136333000004,137.02462670333335,679601.9397905429,4122655.9098601607
798,[2021-02-22 16:26:30.993] $GPGGA,72630.6,3713.9881787,N,13701.47759954,E,4,11.0,1.1,95.324,M,36.771,M,2.6,0000*7A,37.23313631166667,137.02462665899998,679601.9359079769,4122655.907408963
800,[2021-02-22 16:26:31.086] $GPGGA,72630.7,3713.98818023,N,13701.47759989,E,4,11.0,1.1,95.335,M,36.771,M,2.7,0000*7B,37.23313633716667,137.02462666483333,679601.9363649837,4122655.9102494186
802,[2021-02-22 16:26:31.196] $GPGGA,72630.8,3713.98818057,N,13701.47760262,E,4,11.0,1.1,95.323,M,36.771,M,2.8,0000*7B,37.23313634283333,137.02462671033334,679601.9403882354,4122655.910964514
804,[2021-02-22 16:26:31.290] $GPGGA,72630.9,3713.98818598,N,13701.47760972,E,4,11.0,1.1,95.329,M,36.771,M,2.9,0000*7D,37.233136433,137.02462682866664,679601.950672612,4122655.921193634
806,[2021-02-22 16:26:31.399] $GPGGA,72631.0,3713.98819094,N,13701.47761044,E,4,11.0,1.1,95.327,M,36.771,M,3.0,0000*76,37.23313651566667,137.02462684066666,679601.9515410421,4122655.930388797
808,[2021-02-22 16:26:31.493] $GPGGA,72631.1,3713.98819202,N,13701.47761616,E,4,11.0,1.1,95.335,M,36.771,M,3.1,0000*79,37.23313653366666,137.024626936,679601.9599561692,4122655.93256692
810,[2021-02-22 16:26:31.586] $GPGGA,72631.2,3713.98819416,N,13701.47761576,E,4,11.0,1.1,95.334,M,36.771,M,2.2,0000*7F,37.23313656933334,137.02462692933335,679601.9592800629,4122655.9365117145
812,[2021-02-22 16:26:31.680] $GPGGA,72631.3,3713.9881958,N,13701.47762301,E,4,11.0,1.1,95.343,M,36.771,M,2.3,0000*74,37.233136596666675,137.02462705016663,679601.9699353585,4122655.9397738227
814,[2021-02-22 16:26:31.789] $GPGGA,72631.4,3713.98819861,N,13701.47762327,E,4,11.0,1.1,95.337,M,36.771,M,2.4,0000*71,37.2331366435,137.0246270545,679601.9702086588,4122655.9449784993
816,[2021-02-22 16:26:31.883] $GPGGA,72631.5,3713.98820118,N,13701.47762669,E,4,11.0,1.1,95.347,M,36.771,M,2.5,0000*74,37.23313668633333,137.02462711150002,679601.9751639663,4122655.949839296
818,[2021-02-22 16:26:31.993] $GPGGA,72631.6,3713.98820408,N,13701.47762456,E,4,11.0,1.1,95.339,M,36.771,M,2.6,0000*77,37.23313673466666,137.02462707600003,679601.9718997463,4122655.955134818
820,[2021-02-22 16:26:32.086] $GPGGA,72631.7,3713.98820918,N,13701.47762739,E,4,11.0,1.1,95.339,M,36.771,M,2.7,0000*71,37.23313681966666,137.02462712316665,679601.9758825722,4122655.964655614
822,[2021-02-22 16:26:32.196] $GPGGA,72631.8,3713.98821322,N,13701.47762882,E,4,11.0,1.1,95.334,M,36.771,M,2.8,0000*71,37.233136887,137.02462714699996,679601.9778372291,4122655.9721719017
824,[2021-02-22 16:26:32.289] $GPGGA,72631.9,3713.9882157,N,13701.47762196,E,4,11.0,1.1,95.352,M,36.771,M,2.9,0000*7C,37.23313692833334,137.02462703266667,679601.9675956359,4122655.9765411327
826,[2021-02-22 16:26:32.399] $GPGGA,72632.0,3713.98821511,N,13701.47761723,E,4,11.0,1.1,95.339,M,36.771,M,3.0,0000*7F,37.23313691850001,137.02462695383335,679601.9606249895,4122655.9753004643
828,[2021-02-22 16:26:32.492] $GPGGA,72632.1,3713.98820831,N,13701.47761418,E,4,11.0,1.1,95.336,M,36.771,M,3.1,0000*75,37.233136805166666,137.02462690299998,679601.9563840963,4122655.962628947
830,[2021-02-22 16:26:32.586] $GPGGA,72632.2,3713.98820735,N,13701.47761129,E,4,11.0,1.1,95.339,M,36.771,M,2.2,0000*77,37.233136789166664,137.02462685483331,679601.9521487892,4122655.9607622405
832,[2021-02-22 16:26:32.680] $GPGGA,72632.3,3713.9882113,N,13701.4776153,E,4,11.0,1.1,95.349,M,36.771,M,2.3,0000*7E,37.233136855,137.02462692166668,679601.9579219106,4122655.968193694
834,[2021-02-22 16:26:32.789] $GPGGA,72632.4,3713.98821103,N,13701.47762087,E,4,11.0,1.1,95.341,M,36.771,M,2.4,0000*7C,37.2331368505,137.0246270145,679601.9661686367,4122655.967870556
836,[2021-02-22 16:26:32.883] $GPGGA,72632.5,3713.98821313,N,13701.47761628,E,4,11.0,1.1,95.342,M,36.771,M,2.5,0000*7C,37.233136885499995,137.02462693800004,679601.959298599,4122655.971608858
838,[2021-02-22 16:26:32.993] $GPGGA,72632.6,3713.98821455,N,13701.47761219,E,4,11.0,1.1,95.331,M,36.771,M,2.6,0000*7B,37.233136909166674,137.0246268698333,679601.9531947694,4122655.9741054685
840,[2021-02-22 16:26:33.086] $GPGGA,72632.7,3713.9882127,N,13701.47760968,E,4,11.0,1.1,95.345,M,36.771,M,2.7,0000*75,37.23313687833333,137.024626828,679601.9495565528,4122655.9706049277
842,[2021-02-22 16:26:33.196] $GPGGA,72632.8,3713.98820565,N,13701.47760247,E,4,11.0,1.1,95.338,M,36.771,M,2.8,0000*7B,37.23313676083333,137.02462670783336,679601.9391743947,4122655.957339522
844,[2021-02-22 16:26:33.289] $GPGGA,72632.9,3713.98820969,N,13701.4776077,E,4,11.0,1.1,95.343,M,36.771,M,2.9,0000*76,37.23313682816667,137.024626795,679601.9467478977,4122655.964975997
846,[2021-02-22 16:26:33.399] $GPGGA,72633.0,3713.98820885,N,13701.4776063,E,4,11.0,1.1,95.335,M,36.771,M,3.0,0000*71,37.23313681416667,137.02462677166668,679601.9447110242,4122655.9633783284
848,[2021-02-22 16:26:33.492] $GPGGA,72633.1,3713.9882074,N,13701.47760472,E,4,11.0,1.1,95.345,M,36.771,M,3.1,0000*74,37.233136789999996,137.02462674533334,679601.9424321211,4122655.960646911
850,[2021-02-22 16:26:33.586] $GPGGA,72633.2,3713.98820926,N,13701.47760036,E,4,11.0,1.1,95.349,M,36.771,M,2.2,0000*73,37.23313682100001,137.02462667266664,679601.9359116578,4122655.963948662
852,[2021-02-22 16:26:33.680] $GPGGA,72633.3,3713.98821145,N,13701.47759802,E,4,11.0,1.1,95.337,M,36.771,M,2.3,0000*73,37.23313685750001,137.02462663366666,679601.9323650058,4122655.96792456
854,[2021-02-22 16:26:33.789] $GPGGA,72633.4,3713.98821128,N,13701.47759642,E,4,11.0,1.1,95.339,M,36.771,M,2.4,0000*7C,37.23313685466667,137.024626607,679601.930005898,4122655.9675595798
856,[2021-02-22 16:26:33.883] $GPGGA,72633.5,3713.98820844,N,13701.47759927,E,4,11.0,1.1,95.344,M,36.771,M,2.5,0000*78,37.23313680733333,137.02462665450003,679601.9343323755,4122655.962397784
858,[2021-02-22 16:26:33.992] $GPGGA,72633.6,3713.98820216,N,13701.47760254,E,4,11.0,1.1,95.336,M,36.771,M,2.6,0000*75,37.23313670266667,137.02462670900002,679601.9394159463,4122655.9508877764
860,[2021-02-22 16:26:34.086] $GPGGA,72633.7,3713.98820363,N,13701.47760508,E,4,11.0,1.1,95.342,M,36.771,M,2.7,0000*7B,37.233136727166666,137.0246267513333,679601.9431135517,4122655.9536865405
862,[2021-02-22 16:26:34.524] $GPGGA,72633.8,3713.98820349,N,13701.47761367,E,4,11.0,1.1,95.342,M,36.771,M,2.8,0000*7D,37.233136724833344,137.0246268945,679601.9558206444,4122655.953699325
864,[2021-02-22 16:26:34.524] $GPGGA,72633.9,3713.9882028,N,13701.47760966,E,4,11.0,1.1,95.334,M,36.771,M,2.9,0000*72,37.23313671333334,137.02462682766668,679601.9499185774,4122655.9522964996
866,[2021-02-22 16:26:34.524] $GPGGA,72634.0,3713.98820008,N,13701.47761236,E,4,11.0,1.1,95.336,M,36.771,M,3.0,0000*7B,37.233136668,137.02462687266666,679601.9540185058,4122655.947351873
868,[2021-02-22 16:26:34.524] $GPGGA,72634.1,3713.98820096,N,13701.47761346,E,4,11.0,1.1,95.328,M,36.771,M,3.1,0000*75,37.23313668266667,137.024626891,679601.9556102052,4122655.949014023
870,[2021-02-22 16:26:34.586] $GPGGA,72634.2,3713.98819783,N,13701.47761034,E,4,11.0,1.1,95.334,M,36.771,M,2.2,0000*76,37.23313663049999,137.024626839,679601.951120645,4122655.943127122
872,[2021-02-22 16:26:34.680] $GPGGA,72634.3,3713.98819931,N,13701.47760754,E,4,11.0,1.1,95.329,M,36.771,M,2.3,0000*7D,37.23313665516666,137.02462679233332,679601.9469218968,4122655.945775486
874,[2021-02-22 16:26:34.789] $GPGGA,72634.4,3713.98819924,N,13701.47760682,E,4,11.0,1.1,95.334,M,36.771,M,2.4,0000*7F,37.233136654,137.02462678033334,679601.9458600438,4122655.945623266
876,[2021-02-22 16:26:34.883] $GPGGA,72634.5,3713.98819992,N,13701.47760998,E,4,11.0,1.1,95.327,M,36.771,M,2.5,0000*74,37.23313666533333,137.024626833,679601.9505056626,4122655.9469807143
878,[2021-02-22 16:26:34.992] $GPGGA,72634.6,3713.98819829,N,13701.4776112,E,4,11.0,1.1,95.325,M,36.771,M,2.6,0000*7D,37.23313663816667,137.02462685333333,679601.9523740815,4122655.9440049874
880,[2021-02-22 16:26:35.086] $GPGGA,72634.7,3713.98819886,N,13701.47761336,E,4,11.0,1.1,95.328,M,36.771,M,2.7,0000*70,37.23313664766667,137.02462688933335,679601.9555454073,4122655.9451273875
882,[2021-02-22 16:26:35.195] $GPGGA,72634.8,3713.98820099,N,13701.47761179,E,4,11.0,1.1,95.335,M,36.771,M,2.8,0000*79,37.23313668316666,137.02462686316667,679601.9531396846,4122655.9490166823
884,[2021-02-22 16:26:35.289] $GPGGA,72634.9,3713.98820243,N,13701.47761267,E,4,11.0,1.1,95.335,M,36.771,M,2.9,0000*70,37.233136707166665,137.0246268778333,679601.9543839266,4122655.951707467
886,[2021-02-22 16:26:35.399] $GPGGA,72635.0,3713.98820831,N,13701.47760877,E,4,11.0,1.1,95.328,M,36.771,M,3.0,0000*79,37.233136805166666,137.02462681283333,679601.9483846341,4122655.9624578417
888,[2021-02-22 16:26:35.492] $GPGGA,72635.1,3713.98820727,N,13701.47761082,E,4,11.0,1.1,95.330,M,36.771,M,3.1,0000*7B,37.23313678783334,137.024626847,679601.9514569917,4122655.9605994355
890,[2021-02-22 16:26:35.586] $GPGGA,72635.2,3713.98820577,N,13701.47760053,E,4,11.0,1.1,95.332,M,36.771,M,2.2,0000*72,37.23313676283333,137.02462667549997,679601.9363010734,4122655.957500077
892,[2021-02-22 16:26:35.680] $GPGGA,72635.3,3713.98820269,N,13701.47760392,E,4,11.0,1.1,95.334,M,36.771,M,2.3,0000*72,37.233136711499995,137.024626732,679601.9414355101,4122655.951911536
894,[2021-02-22 16:26:35.789] $GPGGA,72635.4,3713.98820398,N,13701.47760588,E,4,11.0,1.1,95.328,M,36.771,M,2.4,0000*7D,37.233136733,137.0246267646667,679601.9442826281,4122655.954359089
896,[2021-02-22 16:26:35.883] $GPGGA,72635.5,3713.98819925,N,13701.47761106,E,4,11.0,1.1,95.318,M,36.771,M,2.5,0000*7B,37.23313665416667,137.024626851,679601.9521290984,4122655.94577586
898,[2021-02-22 16:26:35.992] $GPGGA,72635.6,3713.98820296,N,13701.47760378,E,4,11.0,1.1,95.333,M,36.771,M,2.6,0000*71,37.23313671599999,137.02462672966666,679601.94121782,4122655.95240641
900,[2021-02-22 16:26:36.086] $GPGGA,72635.7,3713.98820337,N,13701.47760266,E,4,11.0,1.1,95.328,M,36.771,M,2.7,0000*7F,37.23313672283333,137.024626711,679601.9395455203,4122655.9531291896
902,[2021-02-22 16:26:36.195] $GPGGA,72635.8,3713.98819935,N,13701.4776043,E,4,11.0,1.1,95.322,M,36.771,M,2.8,0000*72,37.23313665583333,137.02462673833335,679601.9421295106,4122655.9457469843
904,[2021-02-22 16:26:36.289] $GPGGA,72635.9,3713.9881958,N,13701.47760543,E,4,11.0,1.1,95.332,M,36.771,M,2.9,0000*74,37.233136596666675,137.02462675716666,679601.9439407975,4122655.9392178073
906,[2021-02-22 16:26:36.399] $GPGGA,72636.0,3713.98819317,N,13701.47760882,E,4,11.0,1.1,95.317,M,36.771,M,3.0,0000*79,37.23313655283334,137.02462681366666,679601.949057432,4122655.9344614386
908,[2021-02-22 16:26:36.492] $GPGGA,72636.1,3713.98819332,N,13701.47760871,E,4,11.0,1.1,95.323,M,36.771,M,3.1,0000*75,37.23313655533334,137.02462681183331,679601.9488888466,4122655.934735351
910,[2021-02-22 16:26:36.586] $GPGGA,72636.2,3713.98819523,N,13701.47761215,E,4,11.0,1.1,95.320,M,36.771,M,2.2,0000*78,37.23313658716667,137.02462686916667,679601.9538998326,4122655.938376258
912,[2021-02-22 16:26:36.680] $GPGGA,72636.3,3713.98819626,N,13701.47760865,E,4,11.0,1.1,95.322,M,36.771,M,2.3,0000*70,37.23313660433333,137.02462681083335,679601.9486838387,4122655.9401703128
914,[2021-02-22 16:26:36.789] $GPGGA,72636.4,3713.98819542,N,13701.47761099,E,4,11.0,1.1,95.326,M,36.771,M,2.4,0000*7F,37.23313659033333,137.02462684983334,679601.952177091,4122655.938690932
916,[2021-02-22 16:26:36.883] $GPGGA,72636.5,3713.98819453,N,13701.47761294,E,4,11.0,1.1,95.320,M,36.771,M,2.5,0000*77,37.2331365755,137.0246268823333,679601.9550956492,4122655.9371067537
918,[2021-02-22 16:26:36.992] $GPGGA,72636.6,3713.98819022,N,13701.47761288,E,4,11.0,1.1,95.315,M,36.771,M,2.6,0000*7E,37.23313650366667,137.02462688133335,679601.9551774164,4122655.9291344928
920,[2021-02-22 16:26:37.336] $GPGGA,72636.7,3713.98819079,N,13701.47760866,E,4,11.0,1.1,95.323,M,36.771,M,2.7,0000*7E,37.23313651316666,137.024626811,679601.9489149894,4122655.93005511
922,[2021-02-22 16:26:37.336] $GPGGA,72636.8,3713.98818838,N,13701.4776079,E,4,11.0,1.1,95.320,M,36.771,M,2.8,0000*77,37.233136473,137.02462679833334,679601.9478865494,4122655.925574326
924,[2021-02-22 16:26:37.336] $GPGGA,72636.9,3713.98819048,N,13701.47760667,E,4,11.0,1.1,95.330,M,36.771,M,2.9,0000*71,37.233136508,137.02462677783333,679601.9459847515,4122655.929418896
926,[2021-02-22 16:26:37.398] $GPGGA,72637.0,3713.98819076,N,13701.47760487,E,4,11.0,1.1,95.314,M,36.771,M,3.0,0000*76,37.23313651266667,137.02462674783337,679601.9433121181,4122655.9298797627
928,[2021-02-22 16:26:37.492] $GPGGA,72637.1,3713.9881912,N,13701.47760612,E,4,11.0,1.1,95.325,M,36.771,M,3.1,0000*78,37.23313652,137.02462676866665,679601.9451430154,4122655.9307329776
930,[2021-02-22 16:26:37.586] $GPGGA,72637.2,3713.98819207,N,13701.47760487,E,4,11.0,1.1,95.327,M,36.771,M,2.2,0000*73,37.2331365345,137.02462674783337,679601.9432603007,4122655.9323023087
932,[2021-02-22 16:26:37.680] $GPGGA,72637.3,3713.9881919,N,13701.47760366,E,4,11.0,1.1,95.318,M,36.771,M,2.3,0000*7A,37.23313653166666,137.02462672766663,679601.9414778603,4122655.931949663
934,[2021-02-22 16:26:37.789] $GPGGA,72637.4,3713.98818946,N,13701.47760164,E,4,11.0,1.1,95.324,M,36.771,M,2.4,0000*77,37.23313649099999,137.02462669399998,679601.9385875151,4122655.9273735494
936,[2021-02-22 16:26:37.883] $GPGGA,72637.5,3713.98819029,N,13701.47760091,E,4,11.0,1.1,95.325,M,36.771,M,2.5,0000*7C,37.23313650483333,137.02462668183335,679601.9374752787,4122655.9288853593
938,[2021-02-22 16:26:37.992] $GPGGA,72637.6,3713.98819413,N,13701.47760274,E,4,11.0,1.1,95.325,M,36.771,M,2.6,0000*78,37.23313656883333,137.02462671233332,679601.9400293003,4122655.9360444434
940,[2021-02-22 16:26:38.086] $GPGGA,72637.7,3713.98819269,N,13701.47760062,E,4,11.0,1.1,95.327,M,36.771,M,2.7,0000*74,37.23313654483333,137.02462667700001,679601.9369515381,4122655.933314441
942,[2021-02-22 16:26:38.195] $GPGGA,72637.8,3713.98819221,N,13701.47760159,E,4,11.0,1.1,95.328,M,36.771,M,2.8,0000*7E,37.23313653683333,137.02462669316665,679601.9384048063,4122655.932457468
944,[2021-02-22 16:26:38.289] $GPGGA,72637.9,3713.98819308,N,13701.47760213,E,4,11.0,1.1,95.315,M,36.771,M,2.9,0000*77,37.23313655133334,137.02462670216667,679601.9391688635,4122655.9340834157
946,[2021-02-22 16:26:38.398] $GPGGA,72638.0,3713.98819136,N,13701.47759887,E,4,11.0,1.1,95.324,M,36.771,M,3.0,0000*79,37.23313652266667,137.02462664783332,679601.934416516,4122655.93079956
948,[2021-02-22 16:26:38.492] $GPGGA,72638.1,3713.98818985,N,13701.47759882,E,4,11.0,1.1,95.321,M,36.771,M,3.1,0000*78,37.2331364975,137.024626647,679601.9344023124,4122655.928005578
950,[2021-02-22 16:26:38.586] $GPGGA,72638.2,3713.98819326,N,13701.47759599,E,4,11.0,1.1,95.328,M,36.771,M,2.2,0000*75,37.23313655433333,137.0246265998333,679601.9300828669,4122655.9342220896
952,[2021-02-22 16:26:38.680] $GPGGA,72638.3,3713.98819653,N,13701.47759843,E,4,11.0,1.1,95.320,M,36.771,M,2.3,0000*70,37.233136608833334,137.0246266405,679601.9335614135,4122655.940346382
954,[2021-02-22 16:26:38.789] $GPGGA,72638.4,3713.98819667,N,13701.47759664,E,4,11.0,1.1,95.328,M,36.771,M,2.4,0000*74,37.23313661116667,137.02462661066664,679601.9309091016,4122655.9405486677
956,[2021-02-22 16:26:38.883] $GPGGA,72638.5,3713.98819766,N,13701.47759566,E,4,11.0,1.1,95.328,M,36.771,M,2.5,0000*75,37.23313662766667,137.02462659433334,679601.9294208742,4122655.942348452
958,[2021-02-22 16:26:38.992] $GPGGA,72638.6,3713.98819731,N,13701.47759536,E,4,11.0,1.1,95.328,M,36.771,M,2.6,0000*72,37.23313662183334,137.02462658933334,679601.9289911245,4122655.941691719
960,[2021-02-22 16:26:39.086] $GPGGA,72638.7,3713.98819831,N,13701.47759991,E,4,11.0,1.1,95.329,M,36.771,M,2.7,0000*7D,37.23313663849999,137.0246266651667,679601.9356794019,4122655.943684895
962,[2021-02-22 16:26:39.195] $GPGGA,72638.8,3713.98819761,N,13701.47759857,E,4,11.0,1.1,95.327,M,36.771,M,2.8,0000*72,37.233136626833335,137.02462664283334,679601.9337257063,4122655.942348025
964,[2021-02-22 16:26:39.289] $GPGGA,72638.9,3713.98820095,N,13701.47759903,E,4,11.0,1.1,95.327,M,36.771,M,2.9,0000*74,37.233136682499996,137.02462665049998,679601.9342737657,4122655.9485391425
966,[2021-02-22 16:26:39.398] $GPGGA,72639.0,3713.98819875,N,13701.47760379,E,4,11.0,1.1,95.321,M,36.771,M,3.0,0000*73,37.233136645833326,137.02462672983333,679601.9413991335,4122655.9446212905
968,[2021-02-22 16:26:39.492] $GPGGA,72639.1,3713.98820167,N,13701.47760371,E,4,11.0,1.1,95.330,M,36.771,M,3.1,0000*7B,37.2331366945,137.0246267285,679601.9411653425,4122655.950018636
970,[2021-02-22 16:26:39.586] $GPGGA,72639.2,3713.98820014,N,13701.477604,E,4,11.0,1.1,95.332,M,36.771,M,2.2,0000*7C,37.233136669000004,137.02462673333332,679601.9416546655,4122655.947198422
972,[2021-02-22 16:26:39.680] $GPGGA,72639.3,3713.98819951,N,13701.47760911,E,4,11.0,1.1,95.328,M,36.771,M,2.3,0000*78,37.233136658499994,137.0246268185,679601.9492354579,4122655.9461949966
974,[2021-02-22 16:26:39.789] $GPGGA,72639.4,3713.98820197,N,13701.47760896,E,4,11.0,1.1,95.323,M,36.771,M,2.4,0000*75,37.233136699499994,137.024626816,679601.9489163561,4122655.9507394633
976,[2021-02-22 16:26:39.883] $GPGGA,72639.5,3713.98820132,N,13701.47760996,E,4,11.0,1.1,95.329,M,36.771,M,2.5,0000*71,37.23313668866667,137.02462683266666,679601.9504207111,4122655.9495690647
978,[2021-02-22 16:26:39.992] $GPGGA,72639.6,3713.98820491,N,13701.4776054,E,4,11.0,1.1,95.323,M,36.771,M,2.6,0000*70,37.2331367485,137.02462675666663,679601.9435360872,4122655.95606373
980,[2021-02-22 16:26:40.086] $GPGGA,72639.7,3713.98820607,N,13701.47760642,E,4,11.0,1.1,95.328,M,36.771,M,2.7,0000*77,37.23313676783334,137.02462677366665,679601.9449984236,4122655.9582411465
982,[2021-02-22 16:26:40.195] $GPGGA,72639.8,3713.98820872,N,13701.47760704,E,4,11.0,1.1,95.331,M,36.771,M,2.8,0000*70,37.233136812,137.024626784,679601.9458103601,4122655.9631613274
984,[2021-02-22 16:26:40.289] $GPGGA,72639.9,3713.98821087,N,13701.47761002,E,4,11.0,1.1,95.328,M,36.771,M,2.9,0000*7B,37.233136847833336,137.02462683366667,679601.950131679,4122655.9672315135
986,[2021-02-22 16:26:40.398] $GPGGA,72640.0,3713.98821284,N,13701.47760775,E,4,11.0,1.1,95.327,M,36.771,M,3.0,0000*7C,37.23313688066666,137.0246267958333,679601.9466972308,4122655.9708027844
988,[2021-02-22 16:26:40.492] $GPGGA,72640.1,3713.98821069,N,13701.47761086,E,4,11.0,1.1,95.323,M,36.771,M,3.1,0000*73,37.233136844833325,137.02462684766664,679601.9513808567,4122655.9669252103
990,[2021-02-22 16:26:40.586] $GPGGA,72640.2,3713.9882125,N,13701.47761137,E,4,11.0,1.1,95.328,M,36.771,M,2.2,0000*7A,37.233136875,137.0246268561667,679601.9520633741,4122655.9702885244
992,[2021-02-22 16:26:40.679] $GPGGA,72640.3,3713.98821271,N,13701.47761207,E,4,11.0,1.1,95.337,M,36.771,M,2.3,0000*77,37.233136878500005,137.02462686783338,679601.9530901198,4122655.970699011
994,[2021-02-22 16:26:40.789] $GPGGA,72640.4,3713.98821329,N,13701.47760789,E,4,11.0,1.1,95.327,M,36.771,M,2.4,0000*78,37.23313688816666,137.02462679816665,679601.946886441,4122655.9716393854
996,[2021-02-22 16:26:40.883] $GPGGA,72640.5,3713.9882137,N,13701.47760753,E,4,11.0,1.1,95.328,M,36.771,M,2.5,0000*7C,37.233136895,137.02462679216669,679601.9463379134,4122655.972386201
998,[2021-02-22 16:26:40.992] $GPGGA,72640.6,3713.9882142,N,13701.47760717,E,4,11.0,1.1,95.332,M,36.771,M,2.6,0000*75,37.23313690333334,137.02462678616666,679601.9457858215,4122655.9732994516
1000,[2021-02-22 16:26:41.086] $GPGGA,72640.7,3713.98821251,N,13701.47760578,E,4,11.0,1.1,95.331,M,36.771,M,2.7,0000*7D,37.23313687516667,137.02462676300004,679601.9437973604,4122655.970130219
1002,[2021-02-22 16:26:41.195] $GPGGA,72640.8,3713.9882156,N,13701.47760204,E,4,11.0,1.1,95.334,M,36.771,M,2.8,0000*71,37.23313692666667,137.0246267006667,679601.9381450021,4122655.975726184
1004,[2021-02-22 16:26:41.289] $GPGGA,72640.9,3713.98821377,N,13701.47760197,E,4,11.0,1.1,95.331,M,36.771,M,2.9,0000*7D,37.23313689616666,137.0246266995,679601.9381138821,4122655.972339801
1006,[2021-02-22 16:26:41.398] $GPGGA,72641.0,3713.98821749,N,13701.47760302,E,4,11.0,1.1,95.327,M,36.771,M,3.0,0000*7D,37.23313695816667,137.02462671699996,679601.9395193105,4122655.979252303
1008,[2021-02-22 16:26:41.492] $GPGGA,72641.1,3713.98821582,N,13701.47759921,E,4,11.0,1.1,95.337,M,36.771,M,3.1,0000*78,37.23313693033332,137.0246266535,679601.9339517379,4122655.976043517
1010,[2021-02-22 16:26:41.586] $GPGGA,72641.2,3713.98821552,N,13701.47760026,E,4,11.0,1.1,95.331,M,36.771,M,2.2,0000*76,37.23313692533333,137.024626671,679601.9355161783,4122655.9755219445
1012,[2021-02-22 16:26:41.679] $GPGGA,72641.3,3713.98821611,N,13701.47759988,E,4,11.0,1.1,95.322,M,36.771,M,2.3,0000*77,37.23313693516666,137.02462666466664,679601.9349309545,4122655.976600996
1014,[2021-02-22 16:26:41.789] $GPGGA,72641.4,3713.9882164,N,13701.4776026,E,4,11.0,1.1,95.326,M,36.771,M,2.4,0000*70,37.23313694,137.02462670999998,679601.9389413956,4122655.977223313
1016,[2021-02-22 16:26:41.883] $GPGGA,72641.5,3713.98821404,N,13701.4776028,E,4,11.0,1.1,95.329,M,36.771,M,2.5,0000*73,37.233136900666665,137.02462671333333,679601.9393304761,4122655.9728653547
1018,[2021-02-22 16:26:41.992] $GPGGA,72641.6,3713.98821478,N,13701.47760577,E,4,11.0,1.1,95.332,M,36.771,M,2.6,0000*7D,37.233136913,137.02462676283335,679601.9436927796,4122655.9743277524
1020,[2021-02-22 16:26:42.086] $GPGGA,72641.7,3713.98821136,N,13701.47760482,E,4,11.0,1.1,95.331,M,36.771,M,2.7,0000*7A,37.233136856,137.02462674699999,679601.9424233441,4122655.9679731936
1022,[2021-02-22 16:26:42.195] $GPGGA,72641.8,3713.98821561,N,13701.47760112,E,4,11.0,1.1,95.335,M,36.771,M,2.8,0000*74,37.23313692683333,137.02462668533332,679601.9367842523,4122655.9757155776
1024,[2021-02-22 16:26:42.289] $GPGGA,72641.9,3713.98821594,N,13701.47760121,E,4,11.0,1.1,95.326,M,36.771,M,2.9,0000*7C,37.23313693233334,137.0246266868333,679601.9369042749,4122655.9763286854
1026,[2021-02-22 16:26:42.398] $GPGGA,72642.0,3713.98821706,N,13701.47759882,E,4,11.0,1.1,95.332,M,36.771,M,3.0,0000*78,37.23313695099999,137.024626647,679601.933326015,4122655.978324279
1028,[2021-02-22 16:26:42.492] $GPGGA,72642.1,3713.988215,N,13701.47759883,E,4,11.0,1.1,95.324,M,36.771,M,3.1,0000*7A,37.233136916666666,137.02462664716668,679601.9334222892,4122655.9745150954
1030,[2021-02-22 16:26:42.586] $GPGGA,72642.2,3713.98821636,N,13701.47760452,E,4,11.0,1.1,95.329,M,36.771,M,2.2,0000*7A,37.233136939333335,137.02462674199998,679601.9417819763,4122655.977210067
1032,[2021-02-22 16:26:42.679] $GPGGA,72642.3,3713.98821342,N,13701.47760044,E,4,11.0,1.1,95.333,M,36.771,M,2.3,0000*74,37.233136890333334,137.02462667400002,679601.9358654025,4122655.971644166
1034,[2021-02-22 16:26:42.789] $GPGGA,72642.4,3713.98821751,N,13701.47759733,E,4,11.0,1.1,95.322,M,36.771,M,2.4,0000*7F,37.2331369585,137.02462662216666,679601.9311050372,4122655.979109328
1036,[2021-02-22 16:26:42.882] $GPGGA,72642.5,3713.98821842,N,13701.4775977,E,4,11.0,1.1,95.329,M,36.771,M,2.5,0000*7E,37.23313697366666,137.02462662833332,679601.9316161401,4122655.980803867
1038,[2021-02-22 16:26:42.992] $GPGGA,72642.6,3713.98821968,N,13701.47759971,E,4,11.0,1.1,95.330,M,36.771,M,2.6,0000*70,37.23313699466667,137.02462666183334,679601.9345383768,4122655.983197524
1040,[2021-02-22 16:26:43.086] $GPGGA,72642.7,3713.98821961,N,13701.47760149,E,4,11.0,1.1,95.332,M,36.771,M,2.7,0000*72,37.233136993500004,137.0246266915,679601.9371731317,4122655.9831243716
1042,[2021-02-22 16:26:43.195] $GPGGA,72642.8,3713.98821927,N,13701.47760239,E,4,11.0,1.1,95.328,M,36.771,M,2.8,0000*7F,37.23313698783333,137.0246267065,679601.9385173584,4122655.982524084
1044,[2021-02-22 16:26:43.289] $GPGGA,72642.9,3713.98822166,N,13701.47760188,E,4,11.0,1.1,95.332,M,36.771,M,2.9,0000*73,37.233137027666665,137.02462669800002,679601.9376687156,4122655.9869277137
1046,[2021-02-22 16:26:43.398] $GPGGA,72643.0,3713.98822084,N,13701.47760045,E,4,11.0,1.1,95.327,M,36.771,M,3.0,0000*7A,37.23313701399999,137.02462667416665,679601.9355866865,4122655.985366082
1048,[2021-02-22 16:26:43.492] $GPGGA,72643.1,3713.98821675,N,13701.47759919,E,4,11.0,1.1,95.323,M,36.771,M,3.1,0000*7F,37.23313694583333,137.02462665316665,679601.9338853752,4122655.9777627075
1050,[2021-02-22 16:26:43.586] $GPGGA,72643.2,3713.98821484,N,13701.47759614,E,4,11.0,1.1,95.340,M,36.771,M,2.2,0000*75,37.233136914000006,137.02462660233334,679601.9294510636,4122655.9741341327
1052,[2021-02-22 16:26:43.679] $GPGGA,72643.3,3713.98821927,N,13701.47759391,E,4,11.0,1.1,95.329,M,36.771,M,2.3,0000*76,37.23313698783333,137.02462656516664,679601.9259784557,4122655.9822558807
1054,[2021-02-22 16:26:43.789] $GPGGA,72643.4,3713.98821647,N,13701.47759177,E,4,11.0,1.1,95.345,M,36.771,M,2.4,0000*7F,37.23313694116668,137.0246265295,679601.9229249143,4122655.9770102357
1056,[2021-02-22 16:26:43.882] $GPGGA,72643.5,3713.98821652,N,13701.47759054,E,4,11.0,1.1,95.328,M,36.771,M,2.5,0000*70,37.233136942,137.024626509,679601.9211042045,4122655.9770637965
1058,[2021-02-22 16:26:43.992] $GPGGA,72643.6,3713.98821839,N,13701.47759297,E,4,11.0,1.1,95.328,M,36.771,M,2.6,0000*7E,37.233136973166665,137.02462654950003,679601.9246233427,4122655.98059879
1060,[2021-02-22 16:26:44.085] $GPGGA,72643.7,3713.9882156,N,13701.47759054,E,4,11.0,1.1,95.343,M,36.771,M,2.7,0000*7F,37.23313692666667,137.024626509,679601.9211405953,4122655.975362466
1062,[2021-02-22 16:26:44.195] $GPGGA,72643.8,3713.98821601,N,13701.4775873,E,4,11.0,1.1,95.337,M,36.771,M,2.8,0000*7C,37.2331369335,137.02462645499998,679601.9163335671,4122655.9760181936
1064,[2021-02-22 16:26:44.289] $GPGGA,72643.9,3713.9882166,N,13701.47758438,E,4,11.0,1.1,95.337,M,36.771,M,2.9,0000*70,37.233136943333335,137.02462640633334,679601.9119925916,4122655.9770169114
1066,[2021-02-22 16:26:44.398] $GPGGA,72644.0,3713.98821777,N,13701.47758046,E,4,11.0,1.1,95.335,M,36.771,M,3.0,0000*7E,37.233136962833335,137.024626341,679601.9061500255,4122655.979056581
1068,[2021-02-22 16:26:44.492] $GPGGA,72644.1,3713.98821761,N,13701.47757938,E,4,11.0,1.1,95.340,M,36.771,M,3.1,0000*74,37.23313696016667,137.024626323,679601.9045594205,4122655.9787265393
1070,[2021-02-22 16:26:44.585] $GPGGA,72644.2,3713.98822084,N,13701.47757908,E,4,11.0,1.1,95.339,M,36.771,M,2.2,0000*77,37.23313701399999,137.024626318,679601.9039880631,4122655.9846901996
1072,[2021-02-22 16:26:44.679] $GPGGA,72644.3,3713.98821978,N,13701.47758152,E,4,11.0,1.1,95.343,M,36.771,M,2.3,0000*7B,37.23313699633333,137.02462635866664,679601.9076378817,4122655.982807142
1074,[2021-02-22 16:26:44.789] $GPGGA,72644.4,3713.98821641,N,13701.47758489,E,4,11.0,1.1,95.333,M,36.771,M,2.4,0000*7A,37.233136940166666,137.02462641483334,679601.9127542151,4122655.976681681
1076,[2021-02-22 16:26:44.882] $GPGGA,72644.5,3713.98821475,N,13701.47758617,E,4,11.0,1.1,95.338,M,36.771,M,2.5,0000*71,37.23313691250001,137.02462643616667,679601.9147125408,4122655.9736523717
1078,[2021-02-22 16:26:44.992] $GPGGA,72644.6,3713.98821332,N,13701.47758968,E,4,11.0,1.1,95.341,M,36.771,M,2.6,0000*7C,37.233136888666664,137.02462649466665,679601.9199591449,4122655.9711189247
1080,[2021-02-22 16:26:45.085] $GPGGA,72644.7,3713.98821252,N,13701.47758642,E,4,11.0,1.1,95.328,M,36.771,M,2.7,0000*73,37.23313687533334,137.02462644033335,679601.915170411,4122655.969536401
1082,[2021-02-22 16:26:45.195] $GPGGA,72644.8,3713.98820955,N,13701.47758815,E,4,11.0,1.1,95.351,M,36.771,M,2.8,0000*7C,37.233136825833334,137.0246264691667,679601.9178459464,4122655.964098777
1084,[2021-02-22 16:26:45.289] $GPGGA,72644.9,3713.98821416,N,13701.47759126,E,4,11.0,1.1,95.340,M,36.771,M,2.9,0000*7F,37.233136902666665,137.024626521,679601.9222621766,4122655.972722285
1086,[2021-02-22 16:26:45.398] $GPGGA,72645.0,3713.98820976,N,13701.47759327,E,4,11.0,1.1,95.327,M,36.771,M,3.0,0000*77,37.23313682933333,137.02462655449997,679601.9254082937,4122655.964649058
1088,[2021-02-22 16:26:45.492] $GPGGA,72645.1,3713.9882116,N,13701.47759499,E,4,11.0,1.1,95.342,M,36.771,M,3.1,0000*78,37.233136859999995,137.02462658316665,679601.9278787803,4122655.968106118
1090,[2021-02-22 16:26:45.585] $GPGGA,72645.2,3713.98820792,N,13701.47759545,E,4,11.0,1.1,95.339,M,36.771,M,2.2,0000*7F,37.23313679866666,137.02462659083335,679601.9287045216,4122655.9613153446
1092,[2021-02-22 16:26:45.679] $GPGGA,72645.3,3713.98821231,N,13701.4775936,E,4,11.0,1.1,95.326,M,36.771,M,2.3,0000*7D,37.23313687183334,137.02462656,679601.9257953821,4122655.969375141
1094,[2021-02-22 16:26:45.788] $GPGGA,72645.4,3713.98820758,N,13701.47759533,E,4,11.0,1.1,95.338,M,36.771,M,2.4,0000*79,37.23313679300001,137.0246265888333,679601.9285405301,4122655.9606827977
1096,[2021-02-22 16:26:45.882] $GPGGA,72645.5,3713.98821053,N,13701.47759415,E,4,11.0,1.1,95.334,M,36.771,M,2.5,0000*7D,37.23313684216666,137.02462656916668,679601.9266790467,4122655.96610083
1098,[2021-02-22 16:26:45.992] $GPGGA,72645.6,3713.9882091,N,13701.47759152,E,4,11.0,1.1,95.340,M,36.771,M,2.6,0000*77,37.23313681833333,137.02462652533333,679601.9228467741,4122655.963373189
1100,[2021-02-22 16:26:46.085] $GPGGA,72645.7,3713.9882082,N,13701.47758946,E,4,11.0,1.1,95.334,M,36.771,M,2.7,0000*7A,37.23313680333333,137.02462649100002,679601.91983637,4122655.961643692
1102,[2021-02-22 16:26:46.195] $GPGGA,72645.8,3713.98820941,N,13701.47759149,E,4,11.0,1.1,95.331,M,36.771,M,2.8,0000*7F,37.23313682349999,137.02462652483337,679601.9227901566,4122655.963945514
1104,[2021-02-22 16:26:46.288] $GPGGA,72645.9,3713.98820897,N,13701.4775886,E,4,11.0,1.1,95.333,M,36.771,M,2.9,0000*74,37.23313681616667,137.02462647666667,679601.9185342761,4122655.963040432
1106,[2021-02-22 16:26:46.398] $GPGGA,72646.0,3713.98820567,N,13701.4775899,E,4,11.0,1.1,95.335,M,36.771,M,3.0,0000*7C,37.23313676116666,137.02462649833333,679601.9205870443,4122655.9569789483
1108,[2021-02-22 16:26:46.492] $GPGGA,72646.1,3713.98820525,N,13701.47758819,E,4,11.0,1.1,95.333,M,36.771,M,3.1,0000*7C,37.233136754166665,137.02462646983332,679601.9180751753,4122655.956148171
1110,[2021-02-22 16:26:46.585] $GPGGA,72646.2,3713.98820332,N,13701.47758709,E,4,11.0,1.1,95.333,M,36.771,M,2.2,0000*73,37.233136722000005,137.02462645149998,679601.9165250089,4122655.9525442855
1112,[2021-02-22 16:26:46.679] $GPGGA,72646.3,3713.98820319,N,13701.47758806,E,4,11.0,1.1,95.339,M,36.771,M,2.3,0000*70,37.23313671983333,137.02462646766665,679601.917964435,4122655.952334559
1114,[2021-02-22 16:26:46.788] $GPGGA,72646.4,3713.98820338,N,13701.4775865,E,4,11.0,1.1,95.330,M,36.771,M,2.4,0000*77,37.233136723,137.02462644166664,679601.9156502355,4122655.9526365823
1116,[2021-02-22 16:26:46.882] $GPGGA,72646.5,3713.98820298,N,13701.47758617,E,4,11.0,1.1,95.345,M,36.771,M,2.5,0000*7D,37.233136716333334,137.02462643616667,679601.9151781056,4122655.951886436
1118,[2021-02-22 16:26:46.992] $GPGGA,72646.6,3713.98820594,N,13701.4775855,E,4,11.0,1.1,95.344,M,36.771,M,2.6,0000*77,37.23313676566667,137.024626425,679601.9140703323,4122655.9573390917
1120,[2021-02-22 16:26:47.085] $GPGGA,72646.7,3713.98820156,N,13701.47758404,E,4,11.0,1.1,95.337,M,36.771,M,2.7,0000*79,37.23313669266667,137.02462640066668,679601.912084764,4122655.949193102
1122,[2021-02-22 16:26:47.195] $GPGGA,72646.8,3713.9882006,N,13701.47758543,E,4,11.0,1.1,95.343,M,36.771,M,2.8,0000*7C,37.23313667666667,137.02462642383335,679601.9141780531,4122655.947461762
1124,[2021-02-22 16:26:47.288] $GPGGA,72646.9,3713.98820289,N,13701.4775845,E,4,11.0,1.1,95.339,M,36.771,M,2.9,0000*77,37.23313671483334,137.02462640833335,679601.9127123315,4122655.951667183
1126,[2021-02-22 16:26:47.398] $GPGGA,72647.0,3713.98820501,N,13701.47758466,E,4,11.0,1.1,95.335,M,36.771,M,3.0,0000*79,37.233136750166665,137.024626411,679601.9128650586,4122655.9555927003
1128,[2021-02-22 16:26:47.492] $GPGGA,72647.1,3713.9882058,N,13701.47758407,E,4,11.0,1.1,95.338,M,36.771,M,3.1,0000*7A,37.23313676333333,137.02462640116667,679601.9119614077,4122655.9570349646
1130,[2021-02-22 16:26:47.585] $GPGGA,72647.2,3713.98820268,N,13701.47758446,E,4,11.0,1.1,95.334,M,36.771,M,2.2,0000*73,37.23313671133334,137.02462640766666,679601.9126614899,4122655.9512775703
1132,[2021-02-22 16:26:47.679] $GPGGA,72647.3,3713.98820277,N,13701.47758004,E,4,11.0,1.1,95.335,M,36.771,M,2.3,0000*7E,37.23313671283333,137.024626334,679601.9061223259,4122655.9513042103
1134,[2021-02-22 16:26:47.788] $GPGGA,72647.4,3713.98820224,N,13701.4775802,E,4,11.0,1.1,95.335,M,36.771,M,2.4,0000*7E,37.233136704,137.02462633666667,679601.906379872,4122655.950329157
1136,[2021-02-22 16:26:47.882] $GPGGA,72647.5,3713.98820315,N,13701.47758663,E,4,11.0,1.1,95.334,M,36.771,M,2.5,0000*7D,37.233136719166666,137.02462644383334,679601.9158515594,4122655.952215361
1138,[2021-02-22 16:26:47.991] $GPGGA,72647.6,3713.98820436,N,13701.47758464,E,4,11.0,1.1,95.337,M,36.771,M,2.6,0000*7D,37.23313673933334,137.02462641066666,679601.9128611931,4122655.9543900415
1140,[2021-02-22 16:26:48.085] $GPGGA,72647.7,3713.98820823,N,13701.4775855,E,4,11.0,1.1,95.332,M,36.771,M,2.7,0000*76,37.23313680383333,137.024626425,679601.9139797508,4122655.961573925
1142,[2021-02-22 16:26:48.195] $GPGGA,72647.8,3713.98820596,N,13701.47758437,E,4,11.0,1.1,95.334,M,36.771,M,2.8,0000*73,37.233136765999994,137.0246264061667,679601.9123986755,4122655.957340336
1144,[2021-02-22 16:26:48.288] $GPGGA,72647.9,3713.98821006,N,13701.47758365,E,4,11.0,1.1,95.328,M,36.771,M,2.9,0000*73,37.23313683433333,137.0246263941667,679601.9111718748,4122655.9648995814
1146,[2021-02-22 16:26:48.398] $GPGGA,72648.0,3713.98820562,N,13701.47757648,E,4,11.0,1.1,95.332,M,36.771,M,3.0,0000*75,37.23313676033334,137.02462627466664,679601.9007456169,4122655.9564620424
1148,[2021-02-22 16:26:48.491] $GPGGA,72648.1,3713.9882045,N,13701.47757481,E,4,11.0,1.1,95.341,M,36.771,M,3.1,0000*76,37.23313674166667,137.02462624683332,679601.8983205848,4122655.95433804
1150,[2021-02-22 16:26:48.585] $GPGGA,72648.2,3713.98820461,N,13701.47758041,E,4,11.0,1.1,95.332,M,36.771,M,2.2,0000*76,37.2331367435,137.02462634016666,679601.9065966401,4122655.9547185744
1152,[2021-02-22 16:26:48.679] $GPGGA,72648.3,3713.98820358,N,13701.47757971,E,4,11.0,1.1,95.339,M,36.771,M,2.3,0000*75,37.233136726333335,137.02462632849998,679601.9056023298,4122655.952791684
1154,[2021-02-22 16:26:48.788] $GPGGA,72648.4,3713.98820738,N,13701.47757817,E,4,11.0,1.1,95.339,M,36.771,M,2.4,0000*76,37.23313678966667,137.02462630283333,679601.90317491,4122655.9597702143
1156,[2021-02-22 16:26:48.882] $GPGGA,72648.5,3713.98820463,N,13701.47757579,E,4,11.0,1.1,95.343,M,36.771,M,2.5,0000*73,37.233136743833334,137.02462626316665,679601.8997645125,4122655.95460944
1158,[2021-02-22 16:26:48.991] $GPGGA,72648.6,3713.98819981,N,13701.47757877,E,4,11.0,1.1,95.341,M,36.771,M,2.6,0000*79,37.233136663500005,137.0246263128333,679601.9043615267,4122655.9457901972
1160,[2021-02-22 16:26:49.085] $GPGGA,72648.7,3713.98820054,N,13701.47757661,E,4,11.0,1.1,95.346,M,36.771,M,2.7,0000*7C,37.233136675666664,137.02462627683335,679601.9011387837,4122655.9470718494
1162,[2021-02-22 16:26:49.195] $GPGGA,72648.8,3713.98819742,N,13701.47756913,E,4,11.0,1.1,95.338,M,36.771,M,2.8,0000*74,37.23313662366666,137.02462615216666,679601.8902019372,4122655.9410655457
1164,[2021-02-22 16:26:49.288] $GPGGA,72648.9,3713.9881981,N,13701.47757253,E,4,11.0,1.1,95.329,M,36.771,M,2.9,0000*72,37.233136635,137.02462620883335,679601.8952024322,4122655.942430586
1166,[2021-02-22 16:26:49.398] $GPGGA,72649.0,3713.98819329,N,13701.47757133,E,4,11.0,1.1,95.332,M,36.771,M,3.0,0000*7C,37.23313655483333,137.02462618883334,679601.8936183185,4122655.933497631
1168,[2021-02-22 16:26:49.491] $GPGGA,72649.1,3713.98819212,N,13701.47757114,E,4,11.0,1.1,95.321,M,36.771,M,3.1,0000*72,37.23313653533334,137.02462618566668,679601.893383656,4122655.9313279735
1170,[2021-02-22 16:26:49.585] $GPGGA,72649.2,3713.98818871,N,13701.47757346,E,4,11.0,1.1,95.327,M,36.771,M,2.2,0000*7E,37.23313647850001,137.02462622433333,679601.8969489912,4122655.9250953305
1172,[2021-02-22 16:26:49.679] $GPGGA,72649.3,3713.98819082,N,13701.47756735,E,4,11.0,1.1,95.322,M,36.771,M,2.3,0000*7F,37.23313651366667,137.0246261225,679601.8878310154,4122655.928804052
1174,[2021-02-22 16:26:49.788] $GPGGA,72649.4,3713.98819181,N,13701.47756195,E,4,11.0,1.1,95.330,M,36.771,M,2.4,0000*72,37.23313653016667,137.0246260325,679601.8798071772,4122655.9304640414
1176,[2021-02-22 16:26:49.882] $GPGGA,72649.5,3713.98819163,N,13701.47756689,E,4,11.0,1.1,95.330,M,36.771,M,2.5,0000*74,37.233136527166664,137.02462611483332,679601.8871187997,4122655.930287413
1178,[2021-02-22 16:26:49.991] $GPGGA,72649.6,3713.98819146,N,13701.47756182,E,4,11.0,1.1,95.316,M,36.771,M,2.6,0000*7B,37.23313652433334,137.0246260303333,679601.8796287953,4122655.9298126847
1180,[2021-02-22 16:26:50.085] $GPGGA,72649.7,3713.9881843,N,13701.47756684,E,4,11.0,1.1,95.319,M,36.771,M,2.7,0000*70,37.233136404999996,137.024626114,679601.8873348073,4122655.916730664
1182,[2021-02-22 16:26:50.194] $GPGGA,72649.8,3713.98818172,N,13701.47756202,E,4,11.0,1.1,95.327,M,36.771,M,2.8,0000*74,37.233136361999996,137.02462603366666,679601.8803097955,4122655.9118070966
1184,[2021-02-22 16:26:50.288] $GPGGA,72649.9,3713.98818773,N,13701.47756444,E,4,11.0,1.1,95.315,M,36.771,M,2.9,0000*76,37.23313646216666,137.024626074,679601.8836503868,4122655.922997762
1186,[2021-02-22 16:26:50.398] $GPGGA,72650.0,3713.98818755,N,13701.47755902,E,4,11.0,1.1,95.320,M,36.771,M,3.0,0000*71,37.23313645916667,137.02462598366668,679601.8756432564,4122655.9224934727
1188,[2021-02-22 16:26:50.491] $GPGGA,72650.1,3713.98818792,N,13701.47755702,E,4,11.0,1.1,95.327,M,36.771,M,3.1,0000*73,37.23313646533334,137.0246259503333,679601.8726713283,4122655.9231144483
1190,[2021-02-22 16:26:50.585] $GPGGA,72650.2,3713.9881888,N,13701.47755871,E,4,11.0,1.1,95.333,M,36.771,M,2.2,0000*70,37.23313648,137.02462597849998,679601.8751354301,4122655.9247952574
1192,[2021-02-22 16:26:50.679] $GPGGA,72650.3,3713.98819168,N,13701.47755564,E,4,11.0,1.1,95.331,M,36.771,M,2.3,0000*75,37.233136528,137.02462592733332,679601.8704820749,4122655.930024066
1194,[2021-02-22 16:26:50.788] $GPGGA,72650.4,3713.98819077,N,13701.47756544,E,4,11.0,1.1,95.330,M,36.771,M,2.4,0000*7A,37.23313651283333,137.0246260906667,679601.8850087853,4122655.9286511783
1196,[2021-02-22 16:26:50.882] $GPGGA,72650.5,3713.98819052,N,13701.47756846,E,4,11.0,1.1,95.323,M,36.771,M,2.5,0000*70,37.23313650866667,137.02462614100003,679601.8894841783,4122655.928284376
1198,[2021-02-22 16:26:50.991] $GPGGA,72650.6,3713.98819147,N,13701.47757011,E,4,11.0,1.1,95.325,M,36.771,M,2.6,0000*78,37.2331365245,137.02462616850002,679601.8918863651,4122655.93009337
1200,[2021-02-22 16:26:51.085] $GPGGA,72650.7,3713.98819139,N,13701.47757298,E,4,11.0,1.1,95.320,M,36.771,M,2.7,0000*77,37.233136523166664,137.02462621633333,679601.8961332354,4122655.930036199
1202,[2021-02-22 16:26:51.194] $GPGGA,72650.8,3713.98819297,N,13701.47757367,E,4,11.0,1.1,95.333,M,36.771,M,2.8,0000*73,37.2331365495,137.02462622783332,679601.8970910022,4122655.932979874
1204,[2021-02-22 16:26:51.288] $GPGGA,72650.9,3713.98819432,N,13701.47756778,E,4,11.0,1.1,95.332,M,36.771,M,2.9,0000*70,37.23313657199999,137.02462612966667,679601.8883283904,4122655.9352901033
1206,[2021-02-22 16:26:51.397] $GPGGA,72651.0,3713.98819007,N,13701.47757378,E,4,11.0,1.1,95.333,M,36.771,M,3.0,0000*76,37.233136501166676,137.02462622966667,679601.8973683644,4122655.9276204626
1208,[2021-02-22 16:26:51.491] $GPGGA,72651.1,3713.98819382,N,13701.47757334,E,4,11.0,1.1,95.318,M,36.771,M,3.1,0000*79,37.23313656366666,137.02462622233332,679601.8965694283,4122655.9345413167
1210,[2021-02-22 16:26:51.585] $GPGGA,72651.2,3713.98819672,N,13701.47757367,E,4,11.0,1.1,95.335,M,36.771,M,2.2,0000*7B,37.233136611999996,137.02462622783332,679601.8969426702,4122655.9399146438
1212,[2021-02-22 16:26:51.679] $GPGGA,72651.3,3713.98819625,N,13701.47757642,E,4,11.0,1.1,95.331,M,36.771,M,2.3,0000*7F,37.23313660416667,137.02462627366668,679601.9010275335,4122655.939132463
1214,[2021-02-22 16:26:51.788] $GPGGA,72651.4,3713.98819393,N,13701.47757797,E,4,11.0,1.1,95.338,M,36.771,M,2.4,0000*77,37.2331365655,137.02462629949997,679601.9034111974,4122655.934891172
1216,[2021-02-22 16:26:51.882] $GPGGA,72651.5,3713.98819222,N,13701.47757776,E,4,11.0,1.1,95.334,M,36.771,M,2.5,0000*7F,37.23313653700001,137.02462629599998,679601.9031683207,4122655.9317222764
1218,[2021-02-22 16:26:51.991] $GPGGA,72651.6,3713.98819489,N,13701.47757459,E,4,11.0,1.1,95.325,M,36.771,M,2.6,0000*76,37.233136581500005,137.0246262431667,679601.8983754105,4122655.9365595737
1220,[2021-02-22 16:26:52.085] $GPGGA,72651.7,3713.9881941,N,13701.47757682,E,4,11.0,1.1,95.335,M,36.771,M,2.7,0000*73,37.23313656833333,137.02462628033334,679601.9017040352,4122655.9351691776
1222,[2021-02-22 16:26:52.194] $GPGGA,72651.8,3713.98819556,N,13701.47757689,E,4,11.0,1.1,95.331,M,36.771,M,2.8,0000*7F,37.23313659266666,137.0246262815,679601.9017497886,4122655.9378713286
1224,[2021-02-22 16:26:52.288] $GPGGA,72651.9,3713.9881949,N,13701.47757284,E,4,11.0,1.1,95.333,M,36.771,M,2.9,0000*7F,37.23313658166666,137.024626214,679601.8957873867,4122655.936522716
1226,[2021-02-22 16:26:52.397] $GPGGA,72652.0,3713.98819234,N,13701.47757616,E,4,11.0,1.1,95.323,M,36.771,M,3.0,0000*7B,37.23313653899999,137.0246262693333,679601.9007977439,4122655.931893584
1228,[2021-02-22 16:26:52.491] $GPGGA,72652.1,3713.98819232,N,13701.47757795,E,4,11.0,1.1,95.330,M,36.771,M,3.1,0000*75,37.23313653866667,137.02462629916664,679601.9034453072,4122655.931913212
1230,[2021-02-22 16:26:52.585] $GPGGA,72652.2,3713.98819723,N,13701.47759056,E,4,11.0,1.1,95.333,M,36.771,M,2.2,0000*74,37.233136620500005,137.02462650933333,679601.9218967964,4122655.941391964
1232,[2021-02-22 16:26:52.679] $GPGGA,72652.3,3713.98820242,N,13701.47759192,E,4,11.0,1.1,95.331,M,36.771,M,2.3,0000*77,37.233136707,137.02462653199998,679601.9237024587,4122655.951032701
1234,[2021-02-22 16:26:52.788] $GPGGA,72652.4,3713.98820035,N,13701.47758797,E,4,11.0,1.1,95.341,M,36.771,M,2.4,0000*70,37.233136672499995,137.02462646616664,679601.9179436937,4122655.947079778
1236,[2021-02-22 16:26:52.882] $GPGGA,72652.5,3713.98819985,N,13701.4775828,E,4,11.0,1.1,95.332,M,36.771,M,2.5,0000*7F,37.23313666416667,137.02462638000003,679601.9103188853,4122655.9459916283
1238,[2021-02-22 16:26:52.991] $GPGGA,72652.6,3713.98820068,N,13701.47757843,E,4,11.0,1.1,95.337,M,36.771,M,2.6,0000*70,37.233136678,137.0246263071667,679601.9038243802,4122655.9473883105
1240,[2021-02-22 16:26:53.085] $GPGGA,72652.7,3713.98819997,N,13701.47757918,E,4,11.0,1.1,95.332,M,36.771,M,2.7,0000*79,37.23313666616667,137.02462631966665,679601.9049614441,4122655.946099049
1242,[2021-02-22 16:26:53.194] $GPGGA,72652.8,3713.98819565,N,13701.47758245,E,4,11.0,1.1,95.331,M,36.771,M,2.8,0000*77,37.233136594166666,137.02462637416664,679601.909967489,4122655.9382136133
1244,[2021-02-22 16:26:53.288] $GPGGA,72652.9,3713.98819545,N,13701.47758287,E,4,11.0,1.1,95.326,M,36.771,M,2.9,0000*7D,37.23313659083333,137.02462638116668,679601.9105964322,4122655.9378570425
1246,[2021-02-22 16:26:53.397] $GPGGA,72653.0,3713.98819469,N,13701.47758896,E,4,11.0,1.1,95.331,M,36.771,M,3.0,0000*7E,37.233136578166665,137.02462648266666,679601.9196314366,4122655.9366442077
1248,[2021-02-22 16:26:53.491] $GPGGA,72653.1,3713.9881935,N,13701.47758825,E,4,11.0,1.1,95.332,M,36.771,M,3.1,0000*78,37.23313655833333,137.02462647083334,679601.9186286691,4122655.9344211174
1250,[2021-02-22 16:26:53.585] $GPGGA,72653.2,3713.98819632,N,13701.4775816,E,4,11.0,1.1,95.327,M,36.771,M,2.2,0000*74,37.23313660533333,137.02462635999998,679601.9086841388,4122655.9394257427
1252,[2021-02-22 16:26:53.679] $GPGGA,72653.3,3713.98819897,N,13701.47757973,E,4,11.0,1.1,95.331,M,36.771,M,2.3,0000*77,37.233136649500004,137.02462632883336,679601.9058142578,4122655.9442671705
1254,[2021-02-22 16:26:53.788] $GPGGA,72653.4,3713.98820019,N,13701.47757915,E,4,11.0,1.1,95.341,M,36.771,M,2.4,0000*74,37.23313666983333,137.02462631916666,679601.9049083819,4122655.9465049384
1256,[2021-02-22 16:26:53.882] $GPGGA,72653.5,3713.98819833,N,13701.47757822,E,4,11.0,1.1,95.334,M,36.771,M,2.5,0000*79,37.23313663883334,137.02462630366665,679601.9036068167,4122655.9430358796
1258,[2021-02-22 16:26:53.991] $GPGGA,72653.6,3713.98819886,N,13701.47757475,E,4,11.0,1.1,95.335,M,36.771,M,2.6,0000*78,37.23313664766667,137.02462624583336,679601.8984549604,4122655.943906246
1260,[2021-02-22 16:26:54.085] $GPGGA,72653.7,3713.98820232,N,13701.47756885,E,4,11.0,1.1,95.339,M,36.771,M,2.7,0000*79,37.23313670533332,137.02462614749996,679601.8895940923,4122655.9501181245
1262,[2021-02-22 16:26:54.194] $GPGGA,72653.8,3713.98819762,N,13701.47756621,E,4,11.0,1.1,95.335,M,36.771,M,2.8,0000*7F,37.233136627,137.0246261035,679601.885876386,4122655.9413430486
1264,[2021-02-22 16:26:54.288] $GPGGA,72653.9,3713.98820016,N,13701.47756561,E,4,11.0,1.1,95.332,M,36.771,M,2.9,0000*71,37.233136669333334,137.0246260935,679601.8848887276,4122655.946021223
1266,[2021-02-22 16:26:54.397] $GPGGA,72654.0,3713.98820358,N,13701.47756169,E,4,11.0,1.1,95.340,M,36.771,M,3.0,0000*77,37.233136726333335,137.0246260281667,679601.8789571667,4122655.952221755
1268,[2021-02-22 16:26:54.491] $GPGGA,72654.1,3713.98819818,N,13701.47756221,E,4,11.0,1.1,95.350,M,36.771,M,3.1,0000*7C,37.233136636333334,137.02462603683335,679601.879939661,4122655.9422521302
1270,[2021-02-22 16:26:54.585] $GPGGA,72654.2,3713.98819621,N,13701.47755646,E,4,11.0,1.1,95.344,M,36.771,M,2.2,0000*7A,37.2331366035,137.024625941,679601.8715153802,4122655.9384272043
1272,[2021-02-22 16:26:54.679] $GPGGA,72654.3,3713.98819307,N,13701.47755467,E,4,11.0,1.1,95.348,M,36.771,M,2.3,0000*76,37.233136551166666,137.02462591116668,679601.8689928092,4122655.9325638753
1274,[2021-02-22 16:26:54.788] $GPGGA,72654.4,3713.98819189,N,13701.47755504,E,4,11.0,1.1,95.347,M,36.771,M,2.4,0000*79,37.2331365315,137.02462591733334,679601.8695865823,4122655.930393437
1276,[2021-02-22 16:26:54.882] $GPGGA,72654.5,3713.98819447,N,13701.47755777,E,4,11.0,1.1,95.341,M,36.771,M,2.5,0000*7E,37.2331365745,137.0246259628333,679601.873521226,4122655.935250902
1278,[2021-02-22 16:26:54.991] $GPGGA,72654.6,3713.98819206,N,13701.47755698,E,4,11.0,1.1,95.348,M,36.771,M,2.6,0000*74,37.23313653433334,137.02462594966667,679601.8724484282,4122655.9307691706
1280,[2021-02-22 16:26:55.085] $GPGGA,72654.7,3713.98818972,N,13701.47755265,E,4,11.0,1.1,95.351,M,36.771,M,2.7,0000*73,37.23313649533333,137.02462587749997,679601.8661384545,4122655.926304925
1282,[2021-02-22 16:26:55.194] $GPGGA,72654.8,3713.98819082,N,13701.47754744,E,4,11.0,1.1,95.341,M,36.771,M,2.8,0000*72,37.23313651366667,137.02462579066665,679601.8583912096,4122655.928174346
1284,[2021-02-22 16:26:55.288] $GPGGA,72654.9,3713.98818917,N,13701.47754671,E,4,11.0,1.1,95.346,M,36.771,M,2.9,0000*76,37.233136486166664,137.02462577850002,679601.8573770702,4122655.925099957
1286,[2021-02-22 16:26:55.397] $GPGGA,72655.0,3713.98819087,N,13701.477546,E,4,11.0,1.1,95.349,M,36.771,M,3.0,0000*7E,37.233136514499996,137.02462576666667,679601.856259986,4122655.9282212644
1288,[2021-02-22 16:26:55.491] $GPGGA,72655.1,3713.98819564,N,13701.47754983,E,4,11.0,1.1,95.352,M,36.771,M,3.1,0000*78,37.233136593999994,137.02462583049999,679601.8617345139,4122655.937163428
1290,[2021-02-22 16:26:55.585] $GPGGA,72655.2,3713.98819354,N,13701.47755111,E,4,11.0,1.1,95.346,M,36.771,M,2.2,0000*7B,37.233136558999995,137.02462585183332,679601.8637102438,4122655.9333204385
1292,[2021-02-22 16:26:55.678] $GPGGA,72655.3,3713.98819152,N,13701.47754307,E,4,11.0,1.1,95.354,M,36.771,M,2.3,0000*78,37.233136525333336,137.02462571783332,679601.8519018467,4122655.9293306237
1294,[2021-02-22 16:26:55.788] $GPGGA,72655.4,3713.98819253,N,13701.47754447,E,4,11.0,1.1,95.347,M,36.771,M,2.4,0000*7B,37.23313654216667,137.0246257411667,679601.8539320003,4122655.931242667
1296,[2021-02-22 16:26:55.881] $GPGGA,72655.5,3713.98819303,N,13701.47754402,E,4,11.0,1.1,95.348,M,36.771,M,2.5,0000*71,37.2331365505,137.02462573366665,679601.8532468305,4122655.9321530703
1298,[2021-02-22 16:26:55.991] $GPGGA,72655.6,3713.98819012,N,13701.47754693,E,4,11.0,1.1,95.351,M,36.771,M,2.6,0000*70,37.233136502,137.02462578216665,679601.8576647904,4122655.9268637234
1300,[2021-02-22 16:26:56.085] $GPGGA,72655.7,3713.98819192,N,13701.47754828,E,4,11.0,1.1,95.338,M,36.771,M,2.7,0000*78,37.233136532,137.02462580466664,679601.8595897588,4122655.930235113
1302,[2021-02-22 16:26:56.194] $GPGGA,72655.8,3713.98819161,N,13701.47754668,E,4,11.0,1.1,95.347,M,36.771,M,2.8,0000*76,37.23313652683333,137.02462577799997,679601.8572361909,4122655.9296112326
1304,[2021-02-22 16:26:56.288] $GPGGA,72655.9,3713.98819806,N,13701.47754847,E,4,11.0,1.1,95.344,M,36.771,M,2.9,0000*7E,37.23313663433333,137.02462580783336,679601.8596278365,4122655.9415956535
1306,[2021-02-22 16:26:56.397] $GPGGA,72656.0,3713.98819829,N,13701.47755009,E,4,11.0,1.1,95.347,M,36.771,M,3.0,0000*71,37.23313663816667,137.0246258348333,679601.8620141385,4122655.9420722234
1308,[2021-02-22 16:26:56.491] $GPGGA,72656.1,3713.988199,N,13701.477549,E,4,11.0,1.1,95.347,M,36.771,M,3.1,0000*7A,37.23313665,137.02462581666668,679601.8603743367,4122655.9433507323
1310,[2021-02-22 16:26:56.585] $GPGGA,72656.2,3713.9881981,N,13701.47755161,E,4,11.0,1.1,95.337,M,36.771,M,2.2,0000*72,37.233136635,137.02462586016668,679601.8642691964,4122655.9417689363
1312,[2021-02-22 16:26:56.678] $GPGGA,72656.3,3713.98819868,N,13701.47755056,E,4,11.0,1.1,95.340,M,36.771,M,2.3,0000*78,37.233136644666665,137.02462584266667,679601.8626936761,4122655.9428083044
1314,[2021-02-22 16:26:56.788] $GPGGA,72656.4,3713.98819814,N,13701.47755286,E,4,11.0,1.1,95.350,M,36.771,M,2.4,0000*7D,37.23313663566667,137.02462588100002,679601.8661159205,4122655.9418824418
