,Format,Time,Latitude,LatType,Longitude,LonType,Status,Satellite,LevelAccuracy,Altitude(sea),M(sea),Altitude(geoid),M(geoid),DGPS use,checksum,Lat,Lon,UTM_X,UTM_Y
1449,[2021-02-22 16:35:05.674] $GNGGA,73505.1,3713.974629931,N,13701.560317698999,E,4,9,1.31,94.23,M,37.565,M,3.1,7006*55,37.232910498849996,137.02600529498332,679724.7829292575,4122633.469108813
1450,[2021-02-22 16:35:05.768] $GNGGA,73505.2,3713.974628274,N,13701.560317046002,E,4,9,1.31,94.221,M,37.565,M,3.2,7006*5A,37.23291047123333,137.02600528410005,679724.7820292925,4122633.466023901
1451,[2021-02-22 16:35:05.877] $GNGGA,73505.3,3713.974627755,N,13701.560317045,E,4,9,1.31,94.204,M,37.565,M,3.3,7006*57,37.23291046258333,137.0260052840833,679724.7820483502,4122633.4650640963
1452,[2021-02-22 16:35:06.002] $GNGGA,73505.4,3713.9746258659998,N,13701.560315131,E,4,9,1.31,94.199,M,37.565,M,3.4,7006*5D,37.232910431099995,137.02600525218335,679724.7792929914,4122633.461510244
1453,[2021-02-22 16:35:06.080] $GNGGA,73505.5,3713.9746219529998,N,13701.560316725,E,4,9,1.31,94.198,M,37.565,M,3.5,7006*5F,37.23291036588333,137.02600527874998,679724.7818048373,4122633.454324488
1454,[2021-02-22 16:35:06.174] $GNGGA,73505.6,3713.974620346,N,13701.560317541001,E,4,9,1.31,94.19200000000001,M,37.565,M,3.6,7006*5B,37.2329103391,137.02600529235002,679724.7830750275,4122633.4513785336
1455,[2021-02-22 16:35:06.283] $GNGGA,73505.7,3713.974618827,N,13701.560320301001,E,4,9,1.31,94.177,M,37.565,M,3.7,7006*51,37.232910313783336,137.02600533835002,679724.787216224,4122633.44865684
1456,[2021-02-22 16:35:06.393] $GNGGA,73505.8,3713.974631483,N,13701.560296538999,E,4,9,1.31,94.15799999999999,M,37.565,M,3.8,7006*54,37.232910524716665,137.02600494231666,679724.7515796159,4122633.4713091888
1457,[2021-02-22 16:35:06.471] $GNGGA,73505.9,3713.97462963,N,13701.56029964,E,4,9,1.31,94.14299999999999,M,37.565,M,3.9,7006*5F,37.23291049383333,137.02600499399998,679724.7562382508,4122633.4679806307
1458,[2021-02-22 16:35:06.580] $GNGGA,73506.0,3713.97462508,N,13701.560302275,E,4,9,1.31,94.116,M,37.565,M,4.0,7006*5B,37.232910418,137.0260050379167,679724.760314593,4122633.4596498357
1459,[2021-02-22 16:35:06.674] $GNGGA,73506.1,3713.9746109929997,N,13701.56033278,E,4,9,1.31,94.12299999999999,M,37.565,M,4.1,7006*5C,37.23291018321666,137.02600554633332,679724.8059783647,4122633.4345645844
1460,[2021-02-22 16:35:06.799] $GNGGA,73506.2,3713.974606623,N,13701.560334704,E,4,9,1.31,94.113,M,37.565,M,4.2,7006*56,37.23291011038334,137.02600557839997,679724.8089962575,4122633.4265441573
1461,[2021-02-22 16:35:06.877] $GNGGA,73506.3,3713.97460574,N,13701.560335195,E,4,9,1.31,94.101,M,37.565,M,4.3,7006*5D,37.23291009566666,137.02600558658335,679724.8097572277,4122633.424926788
1462,[2021-02-22 16:35:06.971] $GNGGA,73506.4,3713.974602652,N,13701.560340607,E,4,9,1.31,94.081,M,37.565,M,4.4,7006*5F,37.232910044200004,137.02600567678334,679724.8178819042,4122633.419387519
1463,[2021-02-22 16:35:07.080] $GNGGA,73506.5,3713.9746021009996,N,13701.560340578,E,4,9,1.31,94.064,M,37.565,M,4.5,7006*5E,37.232910035016666,137.02600567630003,679724.8178608345,4122633.4183676513
1464,[2021-02-22 16:35:07.189] $GNGGA,73506.6,3713.9746023290004,N,13701.560339628999,E,4,9,1.31,94.05799999999999,M,37.565,M,4.6,7006*50,37.23291003881667,137.0260056604833,679724.8164485673,4122633.418759252
1465,[2021-02-22 16:35:07.268] $GNGGA,73506.7,3713.974601657,N,13701.560336606999,E,4,9,1.31,94.056,M,37.565,M,4.7,7006*52,37.23291002761667,137.02600561011667,679724.8120066929,4122633.4174208967
1466,[2021-02-22 16:35:07.377] $GNGGA,73506.8,3713.9746029159996,N,13701.56033434,E,4,9,1.31,94.045,M,37.565,M,4.8,7006*5D,37.23291004859999,137.0260055723333,679724.8086047597,4122633.419677382
1467,[2021-02-22 16:35:07.471] $GNGGA,73506.9,3713.9746028890004,N,13701.560334746,E,4,9,1.31,94.039,M,37.565,M,4.9,7006*53,37.23291004815,137.0260055791,679724.8092061623,4122633.419640302
1468,[2021-02-22 16:35:07.596] $GNGGA,73507.0,3713.974534029,N,13701.560348108,E,4,9,1.31,93.59700000000001,M,37.565,M,5.0,7006*56,37.23290890048333,137.0260058018,679724.8316894835,4122633.292722272
1469,[2021-02-22 16:35:07.674] $GNGGA,73507.1,3713.974534645,N,13701.560344665,E,4,8,1.35,93.609,M,37.565,M,5.1,7006*5B,37.23290891075,137.02600574441666,679724.8265741123,4122633.293752456
1470,[2021-02-22 16:35:07.767] $GNGGA,73507.2,3713.9745973659997,N,13701.560323841,E,4,9,1.31,94.01700000000001,M,37.565,M,5.2,7006*54,37.232909956099995,137.02600539735,679724.7933001054,4122633.4090816337
1471,[2021-02-22 16:35:07.877] $GNGGA,73507.3,3713.974595608,N,13701.560323628999,E,4,9,1.31,94.014,M,37.565,M,5.3,7006*58,37.2329099268,137.02600539381666,679724.7930562184,4122633.405823903
1472,[2021-02-22 16:35:07.986] $GNGGA,73507.4,3713.97459916,N,13701.560318861,E,4,9,1.31,93.994,M,37.565,M,5.4,7006*51,37.23290998599999,137.02600531435002,679724.7858654276,4122633.412241615
1473,[2021-02-22 16:35:08.080] $GNGGA,73507.5,3713.974595865,N,13701.560327106,E,4,9,1.31,93.992,M,37.565,M,5.5,7006*53,37.23290993108334,137.02600545176668,679724.7981873091,4122633.4064092105
1474,[2021-02-22 16:35:08.174] $GNGGA,73507.6,3713.9745962770003,N,13701.560325338998,E,4,9,1.31,93.988,M,37.565,M,5.6,7006*5E,37.23290993795,137.02600542231662,679724.795558224,4122633.407115186
1475,[2021-02-22 16:35:08.283] $GNGGA,73507.7,3713.974533603,N,13701.560340676999,E,4,8,1.35,93.6,M,37.565,M,5.7,7006*50,37.23290889338334,137.02600567795,679724.8207185044,4122633.2916992996
1476,[2021-02-22 16:35:08.377] $GNGGA,73507.8,3713.974592307,N,13701.560319936001,E,4,9,1.31,93.99799999999999,M,37.565,M,5.8,7006*57,37.232909871783335,137.0260053322667,679724.787726231,4122633.3996025734
1477,[2021-02-22 16:35:08.486] $GNGGA,73507.9,3713.9745281040005,N,13701.5603347,E,4,9,1.31,93.615,M,37.565,M,5.9,7006*59,37.232908801733345,137.02600557833333,679724.8120982803,4122633.281340981
1478,[2021-02-22 16:35:08.580] $GNGGA,73508.0,3713.974527527,N,13701.560329334,E,4,8,1.35,93.603,M,37.565,M,6.0,7006*52,37.23290879211667,137.02600548889995,679724.8041866871,4122633.2801041207
1479,[2021-02-22 16:35:08.674] $GNGGA,73508.1,3713.9745273609997,N,13701.560329937,E,4,7,1.39,93.611,M,37.565,M,1.1,7006*58,37.23290878934999,137.02600549894998,679724.8050848846,4122633.279816225
1480,[2021-02-22 16:35:08.783] $GNGGA,73508.2,3713.974586776,N,13701.560311918001,E,4,8,1.33,93.978,M,37.565,M,1.2,7006*52,37.2329097796,137.02600519863336,679724.7760893512,4122633.3891204833
1481,[2021-02-22 16:35:08.877] $GNGGA,73508.3,3713.9745312729997,N,13701.560329945,E,4,6,3.9,93.611,M,37.565,M,1.3,7006*58,37.23290885455,137.0260054990833,679724.8049418688,4122633.287050834
1482,[2021-02-22 16:35:08.986] $GNGGA,73508.4,3713.974528756,N,13701.560330443,E,4,9,1.22,93.62200000000001,M,37.565,M,1.4,7006*55,37.232908812599995,137.02600550738336,679724.8057778683,4122633.2824119753
1483,[2021-02-22 16:35:09.080] $GNGGA,73508.5,3713.97453356,N,13701.560337101,E,4,10,1.17,93.655,M,37.565,M,1.5,7006*52,37.232908892666664,137.02600561835,679724.8154325597,4122633.2915066015
1484,[2021-02-22 16:35:09.174] $GNGGA,73508.6,3713.974533786,N,13701.560332868,E,4,10,1.17,93.596,M,37.565,M,1.6,7006*57,37.23290889643333,137.02600554780003,679724.8091644937,4122633.2917905664
1485,[2021-02-22 16:35:09.283] $GNGGA,73508.7,3713.9745535340003,N,13701.560327973999,E,4,10,1.17,93.714,M,37.565,M,1.7,7006*5A,37.23290922556667,137.02600546623333,679724.8011463205,4122633.328155116
1486,[2021-02-22 16:35:09.377] $GNGGA,73508.8,3713.974553833,N,13701.560331702,E,4,10,1.17,93.712,M,37.565,M,1.8,7006*5E,37.23290923054999,137.02600552836668,679724.8066468885,4122633.328826035
1487,[2021-02-22 16:35:09.502] $GNGGA,73508.9,3713.974548517,N,13701.560332531999,E,4,11,1.15,93.664,M,37.565,M,1.9,7006*5E,37.23290914195,137.0260055422,679724.8080845842,4122633.3190215696
1488,[2021-02-22 16:35:09.580] $GNGGA,73509.0,3713.974536013,N,13701.560345546,E,4,10,1.54,93.633,M,37.565,M,2.0,7006*51,37.23290893355,137.0260057591,679724.8278226552,4122633.296310145
1489,[2021-02-22 16:35:09.674] $GNGGA,73509.1,3713.974531263,N,13701.560334623,E,4,10,1.54,93.59899999999999,M,37.565,M,2.1,7006*56,37.23290885438333,137.02600557705,679724.8118593863,4122633.287180395
1490,[2021-02-22 16:35:09.783] $GNGGA,73509.2,3713.97453051,N,13701.560335281001,E,4,11,1.15,93.605,M,37.565,M,2.2,7006*5B,37.232908841833336,137.0260055880167,679724.8128621437,4122633.2858087188
1491,[2021-02-22 16:35:09.877] $GNGGA,73509.3,3713.974529108,N,13701.560330516,E,4,11,1.15,93.613,M,37.565,M,2.3,7006*55,37.23290881846666,137.0260055086,679724.8058718755,4122633.28306523
1492,[2021-02-22 16:35:10.002] $GNGGA,73509.4,3713.9745264129997,N,13701.560328315,E,4,11,1.15,93.63,M,37.565,M,2.4,7006*58,37.23290877355,137.02600547191668,679724.8027240436,4122633.2780117816
1493,[2021-02-22 16:35:10.080] $GNGGA,73509.5,3713.974526573,N,13701.560331526001,E,4,10,1.54,93.645,M,37.565,M,2.5,7006*57,37.23290877621667,137.02600552543336,679724.8074656529,4122633.2784092887
1494,[2021-02-22 16:35:10.174] $GNGGA,73509.6,3713.974526884,N,13701.560328872,E,4,9,1.57,93.655,M,37.565,M,2.6,7006*5C,37.232908781400006,137.0260054812,679724.8035290074,4122633.278900417
1495,[2021-02-22 16:35:10.283] $GNGGA,73509.7,3713.974525105,N,13701.5603329,E,4,9,1.57,93.65799999999999,M,37.565,M,2.7,7006*5D,37.23290875175,137.02600554833336,679724.8095554223,4122633.2757380437
1496,[2021-02-22 16:35:10.392] $GNGGA,73509.8,3713.974521762,N,13701.560334611999,E,4,9,1.57,93.666,M,37.565,M,2.8,7006*59,37.23290869603334,137.02600557686662,679724.8122191856,4122633.269610108
1497,[2021-02-22 16:35:10.470] $GNGGA,73509.9,3713.974525066,N,13701.560335544,E,4,9,1.57,93.65700000000001,M,37.565,M,2.9,7006*5D,37.2329087511,137.0260055924,679724.8134665109,4122633.2757496024
1498,[2021-02-22 16:35:10.580] $GNGGA,73510.0,3713.974526728,N,13701.560338368,E,4,9,1.57,93.647,M,37.565,M,3.0,7006*5E,37.232908778799995,137.02600563946666,679724.8175764298,4122633.2789124697
1499,[2021-02-22 16:35:10.674] $GNGGA,73510.1,3713.9745262190004,N,13701.560338472,E,4,9,1.57,93.64299999999999,M,37.565,M,3.1,7006*51,37.232908770316676,137.02600564120002,679724.817750358,4122633.2779744826
1500,[2021-02-22 16:35:10.798] $GNGGA,73510.2,3713.974527248,N,13701.560338647,E,4,9,1.57,93.63600000000001,M,37.565,M,3.2,7006*52,37.23290878746666,137.02600564411665,679724.81796839,4122633.2798829204
1501,[2021-02-22 16:35:10.877] $GNGGA,73510.3,3713.974527636,N,13701.560343344,E,4,9,1.57,93.63,M,37.565,M,3.3,7006*53,37.23290879393334,137.0260057224,679724.8248982474,4122633.2807490956
1502,[2021-02-22 16:35:10.970] $GNGGA,73510.4,3713.97452725,N,13701.560344405,E,4,9,1.31,93.61399999999999,M,37.565,M,3.4,7006*54,37.2329087875,137.02600574008332,679724.8264823717,4122633.2800688557
1503,[2021-02-22 16:35:11.080] $GNGGA,73510.5,3713.97455586,N,13701.560323303,E,4,9,1.31,93.845,M,37.565,M,3.5,7006*52,37.23290926433333,137.0260053883833,679724.7941474813,4122633.33230869
1504,[2021-02-22 16:35:11.189] $GNGGA,73510.6,3713.9745546840004,N,13701.5603259,E,4,9,1.31,93.852,M,37.565,M,3.6,7006*5E,37.23290924473334,137.02600543166665,679724.7980340804,4122633.330216139
1505,[2021-02-22 16:35:11.267] $GNGGA,73510.7,3713.97455505,N,13701.560329499,E,4,9,1.31,93.852,M,37.565,M,3.7,7006*51,37.23290925083334,137.02600549165,679724.8033412548,4122633.3310068785
1506,[2021-02-22 16:35:11.377] $GNGGA,73510.8,3713.974532985,N,13701.560367827,E,4,9,1.31,93.59700000000001,M,37.564,M,3.8,7006*57,37.23290888308333,137.02600613044999,679724.8608882823,4122633.291415721
1507,[2021-02-22 16:35:11.470] $GNGGA,73510.9,3713.974556592,N,13701.560335176999,E,4,9,1.31,93.835,M,37.565,M,3.9,7006*50,37.232909276533334,137.0260055862833,679724.8116759834,4122633.3340381607
1508,[2021-02-22 16:35:11.595] $GNGGA,73511.0,3713.97453157,N,13701.560366278998,E,4,9,1.31,93.60799999999999,M,37.564,M,4.0,7006*51,37.23290885950001,137.02600610464995,679724.85865534,4122633.2887500077
1509,[2021-02-22 16:35:11.673] $GNGGA,73511.1,3713.974531165,N,13701.560364948999,E,4,8,2.26,93.62,M,37.564,M,4.1,7006*55,37.23290885274999,137.0260060824833,679724.8567047685,4122633.2879589563
1510,[2021-02-22 16:35:11.767] $GNGGA,73511.2,3713.974532947,N,13701.560365658,E,4,8,2.26,93.62299999999999,M,37.564,M,4.2,7006*53,37.232908882450005,137.0260060943,679724.8576825985,4122633.2912768023
1511,[2021-02-22 16:35:11.877] $GNGGA,73511.3,3713.974533928,N,13701.560365615,E,4,8,2.26,93.62700000000001,M,37.564,M,4.3,7006*56,37.2329088988,137.02600609358333,679724.8575801866,4122633.2930895775
1512,[2021-02-22 16:35:12.002] $GNGGA,73511.4,3713.974535166,N,13701.560367656,E,4,8,2.26,93.625,M,37.564,M,4.4,7006*55,37.23290891943333,137.0260061276,679724.8605491067,4122633.2954435716
1513,[2021-02-22 16:35:12.080] $GNGGA,73511.5,3713.974536376,N,13701.560366361002,E,4,8,2.26,93.626,M,37.564,M,4.5,7006*56,37.2329089396,137.0260061060167,679724.8585863656,4122633.2976402077
1514,[2021-02-22 16:35:12.173] $GNGGA,73511.6,3713.974539933,N,13701.560372597,E,4,8,2.26,93.635,M,37.564,M,4.6,7006*5A,37.232908998883325,137.02600620994997,679724.8676664218,4122633.304415434
1515,[2021-02-22 16:35:12.283] $GNGGA,73511.7,3713.974538019,N,13701.560363532,E,4,8,2.26,93.605,M,37.564,M,4.7,7006*56,37.23290896698333,137.02600605886664,679724.8543382307,4122633.300589027
1516,[2021-02-22 16:35:12.392] $GNGGA,73511.8,3713.9745386490004,N,13701.560363736002,E,4,8,2.26,93.605,M,37.564,M,4.8,7006*53,37.23290897748334,137.0260060622667,679724.8546149418,4122633.301760527
1517,[2021-02-22 16:35:12.470] $GNGGA,73511.9,3713.974542622,N,13701.560371321999,E,4,8,2.26,93.605,M,37.564,M,4.9,7006*51,37.232909043700005,137.0260061887,679724.8656747108,4122633.3093477776
1518,[2021-02-22 16:35:12.580] $GNGGA,73512.0,3713.9745440109996,N,13701.560367556001,E,4,8,2.26,93.59899999999999,M,37.564,M,5.0,7006*57,37.23290906685,137.02600612593335,679724.8600511418,4122633.311797226
1519,[2021-02-22 16:35:12.673] $GNGGA,73512.1,3713.9745446190004,N,13701.560361503998,E,4,8,2.26,93.602,M,37.565,M,5.1,7006*58,37.23290907698334,137.02600602506666,679724.8510782911,4122633.3127300437
1520,[2021-02-22 16:35:12.783] $GNGGA,73512.2,3713.9745422509995,N,13701.560361336002,E,4,8,2.26,93.604,M,37.565,M,5.2,7006*57,37.23290903751666,137.0260060222667,679724.8509236098,4122633.3083456485
1521,[2021-02-22 16:35:12.892] $GNGGA,73512.3,3713.974540987,N,13701.560360086001,E,4,8,2.26,93.609,M,37.565,M,5.3,7006*51,37.23290901645,137.02600600143333,679724.8491253292,4122633.3059686064
1522,[2021-02-22 16:35:12.970] $GNGGA,73512.4,3713.974537782,N,13701.560362778,E,4,8,2.26,93.61,M,37.564,M,5.4,7006*57,37.23290896303333,137.02600604629998,679724.8532327095,4122633.3001268855
1523,[2021-02-22 16:35:13.080] $GNGGA,73512.5,3713.9745367,N,13701.560362332,E,4,8,2.26,93.618,M,37.564,M,5.5,7006*5E,37.232908945000005,137.02600603886668,679724.8526160638,4122633.2981118583
1524,[2021-02-22 16:35:13.173] $GNGGA,73512.6,3713.9745364490004,N,13701.560359972,E,4,8,2.26,93.6,M,37.564,M,5.6,7006*5F,37.23290894081667,137.02600599953334,679724.8491363851,4122633.2975729983
1525,[2021-02-22 16:35:13.283] $GNGGA,73512.7,3713.974533753,N,13701.560354852,E,4,7,3.07,93.60600000000001,M,37.564,M,5.7,7006*57,37.232908895883334,137.0260059142,679724.8416724151,4122633.292425315
1526,[2021-02-22 16:35:13.392] $GNGGA,73512.8,3713.974532995,N,13701.560352793,E,4,8,1.33,93.617,M,37.565,M,5.8,7006*5D,37.232908883250005,137.02600587988334,679724.8386578809,4122633.2909584004
1527,[2021-02-22 16:35:13.470] $GNGGA,73512.9,3713.9745336779997,N,13701.560350923,E,4,8,1.33,93.624,M,37.565,M,5.9,7006*57,37.232908894633326,137.02600584871666,679724.8358657735,4122633.29216227
1528,[2021-02-22 16:35:13.580] $GNGGA,73513.0,3713.974534598,N,13701.560350521,E,4,8,1.33,93.624,M,37.565,M,6.0,7006*51,37.232908909966675,137.02600584201667,679724.8352349408,4122633.29385088
1529,[2021-02-22 16:35:13.673] $GNGGA,73513.1,3713.974535592,N,13701.560350591,E,4,9,1.31,93.625,M,37.565,M,6.1,7006*53,37.232908926533334,137.02600584318336,679724.8352991027,4122633.2956912722
1530,[2021-02-22 16:35:13.783] $GNGGA,73513.2,3713.974535518,N,13701.560354173998,E,4,8,2.26,93.625,M,37.565,M,6.2,7006*5E,37.232908925299995,137.02600590289995,679724.8406000265,4122633.295667822
1531,[2021-02-22 16:35:13.892] $GNGGA,73513.3,3713.974537595,N,13701.560354481,E,4,8,2.26,93.613,M,37.565,M,6.3,7006*53,37.232908959916664,137.02600590801669,679724.8409717651,4122633.299518479
1532,[2021-02-22 16:35:13.970] $GNGGA,73513.4,3713.9745377790005,N,13701.56035604,E,4,8,2.26,93.603,M,37.565,M,6.4,7006*59,37.232908962983345,137.02600593399998,679724.8432696926,4122633.2999080876
1533,[2021-02-22 16:35:14.080] $GNGGA,73513.5,3713.9745387420003,N,13701.560360042,E,4,8,2.26,93.605,M,37.564,M,6.5,7006*5E,37.23290897903333,137.02600600070002,679724.8491491324,4122633.3018155964
1534,[2021-02-22 16:35:14.173] $GNGGA,73513.6,3713.97454126,N,13701.560361138001,E,4,8,2.26,93.59200000000001,M,37.565,M,6.6,7006*54,37.232909021,137.02600601896668,679724.8506700615,4122633.306506752
1535,[2021-02-22 16:35:14.283] $GNGGA,73513.7,3713.9745423920003,N,13701.560359433,E,4,7,3.07,93.57799999999999,M,37.565,M,6.7,7006*57,37.232909039866676,137.02600599055,679724.8481041573,4122633.308546169
1536,[2021-02-22 16:35:14.392] $GNGGA,73513.8,3713.974543062,N,13701.560361238999,E,4,7,3.07,93.569,M,37.565,M,6.8,7006*5D,37.23290905103334,137.02600602064996,679724.8507480733,4122633.3098423393
1537,[2021-02-22 16:35:14.470] $GNGGA,73513.9,3713.974544585,N,13701.560362883001,E,4,7,3.07,93.56,M,37.565,M,6.9,7006*57,37.23290907641666,137.02600604805002,679724.8531186952,4122633.3127108123
1538,[2021-02-22 16:35:14.580] $GNGGA,73514.0,3713.974544568,N,13701.560359492,E,4,7,3.07,93.561,M,37.565,M,7.0,7006*57,37.23290907613333,137.0260059915333,679724.8481052666,4122633.312572052
1539,[2021-02-22 16:35:14.673] $GNGGA,73514.1,3713.974543149,N,13701.560360657,E,4,7,3.07,93.56200000000001,M,37.565,M,2.1,7006*50,37.23290905248333,137.02600601095003,679724.8498840624,4122633.309984805
1540,[2021-02-22 16:35:14.798] $GNGGA,73514.2,3713.974545642,N,13701.560363442,E,4,7,3.07,93.557,M,37.565,M,2.2,7006*59,37.23290909403334,137.0260060573667,679724.853903421,4122633.3146831864
1541,[2021-02-22 16:35:14.876] $GNGGA,73514.3,3713.9745448959998,N,13701.560358225,E,4,7,3.07,93.56,M,37.565,M,2.3,7006*54,37.2329090816,137.0260059704167,679724.8462188398,4122633.313138514
1542,[2021-02-22 16:35:14.970] $GNGGA,73514.4,3713.974546338,N,13701.560364586001,E,4,7,3.07,93.557,M,37.565,M,2.4,7006*5C,37.23290910563334,137.02600607643336,679724.8555674481,4122633.316006487
1543,[2021-02-22 16:35:15.079] $GNGGA,73514.5,3713.9745447309997,N,13701.560355049,E,4,7,3.07,93.564,M,37.565,M,2.5,7006*57,37.23290907885,137.02600591748333,679724.8415291796,4122633.3127328665
1544,[2021-02-22 16:35:15.189] $GNGGA,73514.6,3713.9745424790003,N,13701.560353788,E,4,7,3.07,93.569,M,37.565,M,2.6,7006*5F,37.23290904131667,137.02600589646667,679724.8397537413,4122633.308528395
1545,[2021-02-22 16:35:15.267] $GNGGA,73514.7,3713.97454379,N,13701.560358863,E,4,7,3.07,93.568,M,37.565,M,2.7,7006*5A,37.23290906316667,137.02600598105,679724.8472059908,4122633.311113412
1546,[2021-02-22 16:35:15.376] $GNGGA,73514.8,3713.9745373190003,N,13701.560347553,E,4,7,3.07,93.54,M,37.565,M,2.8,7006*56,37.232908955316674,137.02600579255002,679724.8307386113,4122633.298788816
1547,[2021-02-22 16:35:15.470] $GNGGA,73514.9,3713.9745406290003,N,13701.560354835,E,4,7,3.07,93.58200000000001,M,37.565,M,2.9,7006*51,37.23290901048334,137.0260059139167,679724.8413751156,4122633.305140378
1548,[2021-02-22 16:35:15.595] $GNGGA,73515.0,3713.974539773,N,13701.560353432,E,4,8,2.26,93.59200000000001,M,37.565,M,3.0,7006*51,37.23290899621666,137.02600589053336,679724.8393344531,4122633.303512994
1549,[2021-02-22 16:35:15.673] $GNGGA,73515.1,3713.974540028,N,13701.560355951002,E,4,8,2.26,93.588,M,37.565,M,3.1,7006*53,37.23290900046666,137.0260059325167,679724.8430490775,4122633.304064284
1550,[2021-02-22 16:35:15.783] $GNGGA,73515.2,3713.974540063,N,13701.560355794,E,4,8,2.26,93.586,M,37.565,M,3.2,7006*55,37.23290900105,137.02600592989998,679724.8428155385,4122633.30412404
1551,[2021-02-22 16:35:15.876] $GNGGA,73515.3,3713.9745405020003,N,13701.5603503,E,4,8,2.26,93.588,M,37.565,M,3.3,7006*55,37.23290900836667,137.02600583833333,679724.834674467,4122633.3047619895
1552,[2021-02-22 16:35:16.001] $GNGGA,73515.4,3713.974540172,N,13701.560345133,E,4,8,2.26,93.59899999999999,M,37.565,M,3.4,7006*50,37.23290900286666,137.0260057522167,679724.827047352,4122633.303988199
1553,[2021-02-22 16:35:16.079] $GNGGA,73515.5,3713.974540671,N,13701.560345634,E,4,8,2.26,93.602,M,37.565,M,3.5,7006*55,37.23290901118333,137.02600576056665,679724.8277684012,4122633.3049268425
1554,[2021-02-22 16:35:16.173] $GNGGA,73515.6,3713.974542022,N,13701.560346622,E,4,8,2.26,93.601,M,37.565,M,3.6,7006*50,37.232909033700004,137.02600577703333,679724.8291758318,4122633.307456481
1555,[2021-02-22 16:35:16.283] $GNGGA,73515.7,3713.974542401,N,13701.560349361001,E,4,8,2.26,93.601,M,37.565,M,3.7,7006*58,37.23290904001666,137.02600582268335,679724.8332108511,4122633.30824404
1556,[2021-02-22 16:35:16.392] $GNGGA,73515.8,3713.97454234,N,13701.560353563998,E,4,8,2.26,93.59200000000001,M,37.565,M,3.8,7006*5B,37.232909039,137.02600589273334,679724.8394280258,4122633.3082642565
1557,[2021-02-22 16:35:16.470] $GNGGA,73515.9,3713.9745429540003,N,13701.560356256,E,4,8,2.26,93.586,M,37.565,M,3.9,7006*52,37.232909049233335,137.02600593760002,679724.8433842468,4122633.3094849093
1558,[2021-02-22 16:35:16.579] $GNGGA,73516.0,3713.97454357,N,13701.560360398,E,4,8,2.26,93.583,M,37.565,M,4.0,7006*5E,37.2329090595,137.02600600663334,679724.8494844277,4122633.310755152
1559,[2021-02-22 16:35:16.673] $GNGGA,73516.1,3713.974544868,N,13701.560364518999,E,4,8,2.26,93.579,M,37.565,M,4.1,7006*53,37.232909081133336,137.02600607531667,679724.8555265607,4122633.3132859343
1560,[2021-02-22 16:35:16.798] $GNGGA,73516.2,3713.974547385,N,13701.560366299,E,4,7,3.07,93.564,M,37.565,M,4.2,7006*54,37.23290912308333,137.02600610498334,679724.8580589298,4122633.317996889
1561,[2021-02-22 16:35:16.876] $GNGGA,73516.3,3713.974548907,N,13701.560366455,E,4,7,3.07,93.56700000000001,M,37.565,M,4.3,7006*5E,37.232909148450005,137.0260061075833,679724.8582293519,4122633.3208164214
1562,[2021-02-22 16:35:16.970] $GNGGA,73516.4,3713.9745469890004,N,13701.560367168999,E,4,7,3.07,93.556,M,37.565,M,4.4,7006*5F,37.232909116483334,137.0260061194833,679724.8593610239,4122633.3172921124
1563,[2021-02-22 16:35:17.079] $GNGGA,73516.5,3713.9745524040004,N,13701.560373837,E,4,7,3.07,93.554,M,37.564,M,4.5,7006*56,37.23290920673334,137.02600623061667,679724.8690063233,4122633.327516961
1564,[2021-02-22 16:35:17.173] $GNGGA,73516.6,3713.974549258,N,13701.560367881999,E,4,7,3.07,93.544,M,37.565,M,4.6,7006*58,37.232909154299996,137.02600613136664,679724.8603254897,4122633.3215106777
1565,[2021-02-22 16:35:17.298] $GNGGA,73516.7,3713.97454827,N,13701.560367566999,E,4,7,3.07,93.546,M,37.565,M,4.7,7006*57,37.23290913783333,137.02600612611664,679724.8598988223,4122633.319673626
1566,[2021-02-22 16:35:17.376] $GNGGA,73516.8,3713.9745511329997,N,13701.560381263998,E,4,8,1.68,93.566,M,37.564,M,4.8,7006*50,37.23290918555,137.02600635439998,679724.880038554,4122633.325401593
1567,[2021-02-22 16:35:17.470] $GNGGA,73516.9,3713.9745490540004,N,13701.56036195,E,4,9,1.64,93.555,M,37.565,M,4.9,7006*57,37.2329091509,137.02600603249996,679724.8515622183,4122633.320945682
1568,[2021-02-22 16:35:17.579] $GNGGA,73517.0,3713.9745446109996,N,13701.560354031,E,4,9,1.64,93.56299999999999,M,37.565,M,5.0,7006*50,37.23290907685,137.02600590051665,679724.8400286634,4122633.312478735
1569,[2021-02-22 16:35:17.673] $GNGGA,73517.1,3713.974543371,N,13701.560355602,E,4,9,1.64,93.568,M,37.565,M,5.1,7006*58,37.23290905618333,137.02600592669998,679724.8424007013,4122633.3102353564
1570,[2021-02-22 16:35:17.798] $GNGGA,73517.2,3713.9745396659996,N,13701.560360852,E,4,9,1.64,93.565,M,37.564,M,5.2,7006*57,37.23290899443333,137.0260060142,679724.8503102601,4122633.3035499593
1571,[2021-02-22 16:35:17.876] $GNGGA,73517.3,3713.974537037,N,13701.560364207,E,4,8,2.96,93.57,M,37.564,M,5.3,7006*5E,37.23290895061667,137.02600607011667,679724.8553751886,4122633.298794403
1572,[2021-02-22 16:35:17.970] $GNGGA,73517.4,3713.974534516,N,13701.560364986,E,4,8,2.96,93.583,M,37.564,M,5.4,7006*55,37.2329089086,137.0260060831,679724.8566268419,4122633.2941570417
1573,[2021-02-22 16:35:18.079] $GNGGA,73517.5,3713.974534786,N,13701.560381976002,E,4,8,2.96,93.6,M,37.564,M,5.5,7006*52,37.2329089131,137.02600636626673,679724.8817384063,4122633.2951940647
1574,[2021-02-22 16:35:18.173] $GNGGA,73517.6,3713.974534403,N,13701.560375243,E,4,8,2.96,93.59,M,37.564,M,5.6,7006*50,37.23290890671666,137.02600625405,679724.871797817,4122633.294272699
1575,[2021-02-22 16:35:18.298] $GNGGA,73517.7,3713.974538337,N,13701.560390606,E,4,8,2.96,93.59100000000001,M,37.564,M,5.7,7006*53,37.23290897228333,137.0260065101,679724.894358584,4122633.302033965
1576,[2021-02-22 16:35:18.376] $GNGGA,73517.8,3713.974535676,N,13701.560383404,E,4,8,2.96,93.59100000000001,M,37.564,M,5.8,7006*5C,37.23290892793334,137.02600639006667,679724.8838146834,4122633.2968851128
1577,[2021-02-22 16:35:18.470] $GNGGA,73517.9,3713.97454148,N,13701.560397484,E,4,8,2.96,93.601,M,37.564,M,5.9,7006*53,37.23290902466666,137.02600662473333,679724.9044043262,4122633.30806391
1578,[2021-02-22 16:35:18.579] $GNGGA,73518.0,3713.974541247,N,13701.560398161,E,4,8,2.96,93.59,M,37.564,M,6.0,7006*58,37.23290902078333,137.0260066360167,679724.9054145965,4122633.3076544576
1579,[2021-02-22 16:35:18.673] $GNGGA,73518.1,3713.974541648,N,13701.560383873,E,4,8,2.96,93.58200000000001,M,37.564,M,1.1,7006*57,37.23290902746666,137.02600639788335,679724.8842717877,4122633.307943812
1580,[2021-02-22 16:35:18.798] $GNGGA,73518.2,3713.974543737,N,13701.560386493999,E,4,8,2.96,93.583,M,37.564,M,1.2,7006*5D,37.23290906228334,137.02600644156664,679724.8880646358,4122633.311889896
1581,[2021-02-22 16:35:18.876] $GNGGA,73518.3,3713.974544085,N,13701.560400413,E,4,8,2.96,93.601,M,37.564,M,1.3,7006*5B,37.23290906808333,137.02600667355003,679724.9086321811,4122633.312973967
1582,[2021-02-22 16:35:18.970] $GNGGA,73518.4,3713.9745438990003,N,13701.560403656002,E,4,8,2.97,93.603,M,37.564,M,1.4,7006*5A,37.23290906498334,137.02600672760002,679724.9134348008,4122633.312732641
1583,[2021-02-22 16:35:19.079] $GNGGA,73518.5,3713.974546173,N,13701.560388915,E,4,8,2.97,93.58200000000001,M,37.564,M,1.5,7006*54,37.23290910288333,137.02600648191668,679724.8915480269,4122633.316471347
1584,[2021-02-22 16:35:19.189] $GNGGA,73518.6,3713.974544278,N,13701.560403923,E,4,8,2.97,93.601,M,37.564,M,1.6,7006*57,37.23290907129999,137.02600673205,679724.9138145966,4122633.3134419653
1585,[2021-02-22 16:35:19.267] $GNGGA,73518.7,3713.974542415,N,13701.560399088,E,4,8,2.97,93.60799999999999,M,37.564,M,1.7,7006*59,37.23290904025,137.02600665146667,679724.9067390691,4122633.3098437474
1586,[2021-02-22 16:35:19.376] $GNGGA,73518.8,3713.97454209,N,13701.560396023,E,4,8,2.97,93.611,M,37.564,M,1.8,7006*56,37.232909034833334,137.02600660038334,679724.9022198755,4122633.3091457277
1587,[2021-02-22 16:35:19.470] $GNGGA,73518.9,3713.974541079,N,13701.560396848,E,4,9,1.64,93.613,M,37.564,M,1.9,7006*5B,37.23290901798333,137.02600661413334,679724.9034797779,4122633.307302225
1588,[2021-02-22 16:35:19.595] $GNGGA,73519.0,3713.974537755,N,13701.560387088999,E,4,9,1.64,93.62799999999999,M,37.564,M,2.0,7006*5C,37.23290896258333,137.02600645148334,679724.8891812133,4122633.3008463774
1589,[2021-02-22 16:35:19.673] $GNGGA,73519.1,3713.974537202,N,13701.560385215,E,4,9,1.64,93.633,M,37.564,M,2.1,7006*54,37.23290895336667,137.02600642025,679724.8864321148,4122633.2997644194
1590,[2021-02-22 16:35:19.782] $GNGGA,73519.2,3713.974537507,N,13701.560384613998,E,4,10,1.54,93.63,M,37.564,M,2.2,7006*5A,37.23290895845,137.0260064102333,679724.8855313703,4122633.300309426
1591,[2021-02-22 16:35:19.876] $GNGGA,73519.3,3713.97453453,N,13701.560379545,E,4,9,2.24,93.62,M,37.564,M,2.3,7006*55,37.23290890883333,137.02600632575002,679724.8781539404,4122633.2946437118
1592,[2021-02-22 16:35:20.001] $GNGGA,73519.4,3713.9745350340004,N,13701.560381788999,E,4,9,2.24,93.617,M,37.564,M,2.4,7006*54,37.232908917233345,137.02600636315,679724.8814520783,4122633.2956467676
1593,[2021-02-22 16:35:20.079] $GNGGA,73519.5,3713.974535637,N,13701.56038334,E,4,9,2.24,93.616,M,37.564,M,2.5,7006*53,37.23290892728333,137.026006389,679724.8837215945,4122633.296810966
1594,[2021-02-22 16:35:20.173] $GNGGA,73519.6,3713.974538815,N,13701.560383343998,E,4,9,2.24,93.613,M,37.564,M,2.6,7006*51,37.232908980249995,137.02600638906662,679724.8836017129,4122633.3026880804
1595,[2021-02-22 16:35:20.282] $GNGGA,73519.7,3713.974536007,N,13701.560381158,E,4,9,2.24,93.61200000000001,M,37.564,M,2.7,7006*58,37.232908933450005,137.02600635263335,679724.8804805374,4122633.297426138
1596,[2021-02-22 16:35:20.392] $GNGGA,73519.8,3713.9745350059998,N,13701.560379348999,E,4,9,2.24,93.619,M,37.564,M,2.8,7006*54,37.23290891676666,137.0260063224833,679724.8778452805,4122633.2955177617
1597,[2021-02-22 16:35:20.470] $GNGGA,73519.9,3713.974536425,N,13701.560377741002,E,4,9,2.24,93.626,M,37.564,M,2.9,7006*5C,37.23290894041667,137.02600629568335,679724.8754114492,4122633.29809099
1598,[2021-02-22 16:35:20.579] $GNGGA,73520.0,3713.974535818,N,13701.560375175,E,4,10,1.54,93.626,M,37.564,M,3.0,7006*59,37.2329089303,137.0260062529167,679724.8716412636,4122633.2968872692
1599,[2021-02-22 16:35:20.673] $GNGGA,73520.1,3713.974537495,N,13701.560376133999,E,4,10,1.54,93.631,M,37.564,M,3.1,7006*52,37.23290895824999,137.0260062689,679724.8729929064,4122633.300018849
1600,[2021-02-22 16:35:20.798] $GNGGA,73520.2,3713.97453952,N,13701.560374741,E,4,10,1.54,93.625,M,37.564,M,3.2,7006*50,37.23290899199999,137.02600624568336,679724.8708529966,4122633.3037195397
1601,[2021-02-22 16:35:20.876] $GNGGA,73520.3,3713.974539445,N,13701.560369219,E,4,10,1.54,93.634,M,37.564,M,3.3,7006*56,37.232908990750005,137.02600615364997,679724.8626908626,4122633.3034060793
1602,[2021-02-22 16:35:20.970] $GNGGA,73520.4,3713.9745382640003,N,13701.560361007,E,4,10,1.54,93.62799999999999,M,37.564,M,3.4,7006*5A,37.23290897106667,137.02600601678333,679724.850594946,4122633.300962186
1603,[2021-02-22 16:35:21.079] $GNGGA,73520.5,3713.974541738,N,13701.560366468999,E,4,10,1.54,93.62700000000001,M,37.564,M,3.5,7006*5C,37.23290902896667,137.02600610781664,679724.8585338156,4122633.307559425
1604,[2021-02-22 16:35:21.188] $GNGGA,73520.6,3713.974541867,N,13701.5603685,E,4,10,1.54,93.62100000000001,M,37.564,M,3.6,7006*5F,37.23290903111667,137.02600614166667,679724.8615318484,4122633.3078622627
1605,[2021-02-22 16:35:21.267] $GNGGA,73520.7,3713.974541424,N,13701.560361331001,E,4,10,1.54,93.61200000000001,M,37.565,M,3.7,7006*58,37.23290902373334,137.02600602218337,679724.8509489511,4122633.306816144
1606,[2021-02-22 16:35:21.376] $GNGGA,73520.8,3713.974542306,N,13701.560369418,E,4,10,1.54,93.618,M,37.564,M,3.8,7006*53,37.232909038433334,137.0260061569667,679724.8628718734,4122633.308703147
1607,[2021-02-22 16:35:21.470] $GNGGA,73520.9,3713.974538327,N,13701.560367885,E,4,10,1.54,93.61,M,37.564,M,3.9,7006*53,37.232908972116675,137.02600613141666,679724.8607625986,4122633.301296372
1608,[2021-02-22 16:35:21.579] $GNGGA,73521.0,3713.974538428,N,13701.560369149,E,4,10,1.54,93.59899999999999,M,37.564,M,4.0,7006*58,37.232908973799994,137.02600615248332,679724.8626276134,4122633.3015231523
1609,[2021-02-22 16:35:21.704] $GNGGA,73521.1,3713.974538499,N,13701.560369683999,E,4,10,1.54,93.595,M,37.564,M,4.1,7006*58,37.23290897498333,137.0260061614,679724.8634158807,4122633.301671383
1610,[2021-02-22 16:35:21.767] $GNGGA,73521.2,3713.9745385740002,N,13701.560370883999,E,4,10,1.54,93.594,M,37.564,M,4.2,7006*5D,37.23290897623333,137.0260061814,679724.8651872898,4122633.3018480577
1611,[2021-02-22 16:35:21.876] $GNGGA,73521.3,3713.974539694,N,13701.560374003999,E,4,10,1.54,93.59100000000001,M,37.564,M,4.3,7006*50,37.2329089949,137.02600623339995,679724.8697563387,4122633.304017989
1612,[2021-02-22 16:35:21.970] $GNGGA,73521.4,3713.974542942,N,13701.56038142,E,4,10,1.54,93.59,M,37.564,M,4.4,7006*51,37.23290904903334,137.026006357,679724.8805934405,4122633.3102591373
1613,[2021-02-22 16:35:22.079] $GNGGA,73521.5,3713.974551762,N,13701.560405935,E,4,9,2.24,93.646,M,37.564,M,4.5,7006*59,37.23290919603333,137.02600676558336,679724.916493408,4122633.327345601
1614,[2021-02-22 16:35:22.188] $GNGGA,73521.6,3713.9745507390003,N,13701.560405746,E,4,9,2.24,93.645,M,37.564,M,4.6,7006*5F,37.23290917898334,137.02600676243333,679724.9162544339,4122633.3254478145
1615,[2021-02-22 16:35:22.266] $GNGGA,73521.7,3713.974548209,N,13701.560406176,E,4,9,2.24,93.647,M,37.564,M,4.7,7006*54,37.232909136816666,137.0260067696,679724.9169903942,4122633.3207827634
1616,[2021-02-22 16:35:22.376] $GNGGA,73521.8,3713.974546735,N,13701.560406995,E,4,9,2.24,93.656,M,37.564,M,4.8,7006*55,37.23290911224999,137.02600678325,679724.9182597538,4122633.318082854
1617,[2021-02-22 16:35:22.470] $GNGGA,73521.9,3713.9745359740004,N,13701.560378922,E,4,8,2.97,93.603,M,37.564,M,4.9,7006*51,37.23290893290001,137.02600631536666,679724.8771755829,4122633.2972943448
1618,[2021-02-22 16:35:22.579] $GNGGA,73522.0,3713.9745368040003,N,13701.560381853,E,4,8,2.97,93.60600000000001,M,37.564,M,5.0,7006*52,37.23290894673334,137.02600636421667,679724.8814766507,4122633.2989220056
1619,[2021-02-22 16:35:22.688] $GNGGA,73522.1,3713.974537445,N,13701.56038119,E,4,8,2.97,93.603,M,37.564,M,5.1,7006*59,37.23290895741667,137.02600635316668,679724.880470936,4122633.300086405
1620,[2021-02-22 16:35:22.766] $GNGGA,73522.2,3713.974537398,N,13701.560381081,E,4,8,2.97,93.613,M,37.564,M,5.2,7006*5E,37.23290895663333,137.02600635135002,679724.8803116245,4122633.2999960384
1621,[2021-02-22 16:35:22.876] $GNGGA,73522.3,3713.974538194,N,13701.5603824,E,4,9,2.24,93.611,M,37.564,M,5.3,7006*5A,37.2329089699,137.02600637333336,679724.8822304549,4122633.301509806
1622,[2021-02-22 16:35:22.970] $GNGGA,73522.4,3713.974536463,N,13701.560379354,E,4,9,2.24,93.60700000000001,M,37.564,M,5.4,7006*5C,37.23290894104999,137.02600632256664,679724.8777950025,4122633.29821231
1623,[2021-02-22 16:35:23.079] $GNGGA,73522.5,3713.97453612,N,13701.560380545,E,4,9,2.24,93.6,M,37.564,M,5.5,7006*59,37.232908935333334,137.02600634241665,679724.8795696495,4122633.2976157046
1624,[2021-02-22 16:35:23.188] $GNGGA,73522.6,3713.974536607,N,13701.560383076001,E,4,9,2.24,93.595,M,37.564,M,5.6,7006*52,37.232908943450006,137.0260063846,679724.8832928363,4122633.2985964054
1625,[2021-02-22 16:35:23.266] $GNGGA,73522.7,3713.9745364540004,N,13701.56038013,E,4,9,2.24,93.6,M,37.564,M,5.7,7006*59,37.23290894090001,137.02600633550003,679724.8789427946,4122633.298220228
1626,[2021-02-22 16:35:23.376] $GNGGA,73522.8,3713.974544628,N,13701.560401851999,E,4,9,2.24,93.654,M,37.564,M,5.8,7006*57,37.23290907713333,137.0260066975333,679724.9107384556,4122633.3140236647
1627,[2021-02-22 16:35:23.470] $GNGGA,73522.9,3713.974545302,N,13701.560403522,E,4,9,2.24,93.654,M,37.564,M,5.9,7006*53,37.23290908836666,137.02600672536667,679724.913181126,4122633.315322929
1628,[2021-02-22 16:35:23.595] $GNGGA,73523.0,3713.974546933,N,13701.560404195,E,4,9,2.24,93.65700000000001,M,37.564,M,6.0,7006*56,37.23290911555,137.0260067365833,679724.9141116943,4122633.318360393
1629,[2021-02-22 16:35:23.673] $GNGGA,73523.1,3713.974546298,N,13701.560403356001,E,4,9,2.24,93.65100000000001,M,37.564,M,1.1,7006*57,37.23290910496667,137.02600672260002,679724.912896248,4122633.3171595526
1630,[2021-02-22 16:35:23.782] $GNGGA,73523.2,3713.974545605,N,13701.560403658,E,4,9,2.24,93.64399999999999,M,37.564,M,1.2,7006*5B,37.232909093416666,137.02600672763336,679724.9133702312,4122633.3158875634
1631,[2021-02-22 16:35:23.876] $GNGGA,73523.3,3713.9745452409998,N,13701.560404825,E,4,9,2.24,93.64299999999999,M,37.564,M,1.3,7006*5B,37.232909087349995,137.02600674708333,679724.9151102185,4122633.315251362
1632,[2021-02-22 16:35:24.001] $GNGGA,73523.4,3713.9745458240004,N,13701.560403909,E,4,9,2.24,93.63799999999999,M,37.564,M,1.4,7006*56,37.23290909706668,137.02600673181666,679724.9137327002,4122633.3163004993
1633,[2021-02-22 16:35:24.079] $GNGGA,73523.5,3713.974547201,N,13701.560404123999,E,4,9,2.24,93.63,M,37.564,M,1.5,7006*51,37.232909120016664,137.02600673539996,679724.9139961036,4122633.3188537518
1634,[2021-02-22 16:35:24.173] $GNGGA,73523.6,3713.974550521,N,13701.56040412,E,4,9,2.24,93.624,M,37.564,M,1.6,7006*53,37.23290917535,137.0260067353333,679724.9138587769,4122633.324993211
1635,[2021-02-22 16:35:24.282] $GNGGA,73523.7,3713.974550126,N,13701.560403204,E,4,9,2.24,93.624,M,37.564,M,1.7,7006*52,37.23290916876667,137.02600672006665,679724.9125199699,4122633.3242337573
1636,[2021-02-22 16:35:24.391] $GNGGA,73523.8,3713.97454688,N,13701.5603967,E,4,7,3.02,93.619,M,37.564,M,1.8,7006*5F,37.23290911466667,137.02600661166667,679724.9030313232,4122633.3180251713
1637,[2021-02-22 16:35:24.469] $GNGGA,73523.9,3713.97454697,N,13701.560396775,E,4,7,3.02,93.62299999999999,M,37.564,M,1.9,7006*5A,37.232909116166674,137.02600661291666,679724.903138658,4122633.318193981
1638,[2021-02-22 16:35:24.579] $GNGGA,73524.0,3713.974547049,N,13701.560397198,E,4,8,1.69,93.626,M,37.564,M,2.0,7006*5D,37.23290911748333,137.02600661996667,679724.9037610011,4122633.3183534592
1639,[2021-02-22 16:35:24.673] $GNGGA,73524.1,3713.974541552,N,13701.560390869,E,4,8,1.69,93.579,M,37.564,M,2.1,7006*5D,37.232909025866675,137.02600651448333,679724.894620213,4122633.3079877007
1640,[2021-02-22 16:35:24.798] $GNGGA,73524.2,3713.9745425459996,N,13701.560390563,E,4,8,1.69,93.584,M,37.564,M,2.2,7006*5E,37.232909042433334,137.02600650938334,679724.8941284036,4122633.309816192
1641,[2021-02-22 16:35:24.876] $GNGGA,73524.3,3713.9745439470003,N,13701.560384391001,E,4,8,1.69,93.602,M,37.564,M,2.3,7006*51,37.23290906578334,137.0260064065167,679724.8849467301,4122633.312211685
1642,[2021-02-22 16:35:24.969] $GNGGA,73524.4,3713.974549325,N,13701.560396166002,E,4,8,1.69,93.645,M,37.564,M,2.4,7006*5F,37.23290915541667,137.0260066027667,679724.9021449485,4122633.322529743
1643,[2021-02-22 16:35:25.079] $GNGGA,73524.5,3713.97455009,N,13701.560398765,E,4,8,1.69,93.64399999999999,M,37.564,M,2.5,7006*50,37.232909168166664,137.02600664608332,679724.9059576718,4122633.324026693
1644,[2021-02-22 16:35:25.188] $GNGGA,73524.6,3713.974551076,N,13701.560399551001,E,4,8,1.69,93.65,M,37.564,M,2.6,7006*58,37.232909184600004,137.02600665918337,679724.907080868,4122633.325874953
1645,[2021-02-22 16:35:25.266] $GNGGA,73524.7,3713.974551967,N,13701.56039858,E,4,8,1.69,93.647,M,37.564,M,2.7,7006*5A,37.23290919945,137.026006643,679724.9056098287,4122633.3274919237
1646,[2021-02-22 16:35:25.376] $GNGGA,73524.8,3713.9745525340004,N,13701.560394359,E,4,8,1.69,93.65100000000001,M,37.564,M,2.8,7006*5A,37.232909208900004,137.02600657265,679724.8993460085,4122633.328406869
1647,[2021-02-22 16:35:25.469] $GNGGA,73524.9,3713.97455281,N,13701.560395908999,E,4,8,1.69,93.649,M,37.564,M,2.9,7006*56,37.2329092135,137.02600659848332,679724.9016269895,4122633.3289663247
1648,[2021-02-22 16:35:25.579] $GNGGA,73525.0,3713.974556142,N,13701.560406598,E,4,7,3.02,93.63,M,37.564,M,3.0,7006*5B,37.232909269033335,137.02600677663332,679724.9173003796,4122633.3354664
1649,[2021-02-22 16:35:25.688] $GNGGA,73525.1,3713.974555917,N,13701.560400725,E,4,7,3.02,93.634,M,37.564,M,3.1,7006*56,37.23290926528334,137.02600667875,679724.9086251834,4122633.3348644394
1650,[2021-02-22 16:35:25.766] $GNGGA,73525.2,3713.9745545359997,N,13701.560403528001,E,4,7,3.02,93.62899999999999,M,37.564,M,3.2,7006*58,37.232909242266665,137.0260067254667,679724.9128244997,4122633.332399304
1651,[2021-02-22 16:35:25.876] $GNGGA,73525.3,3713.974554449,N,13701.560403348001,E,4,7,3.02,93.633,M,37.564,M,3.3,7006*5A,37.232909240816674,137.02600672246666,679724.9125617841,4122633.332232721
1652,[2021-02-22 16:35:25.969] $GNGGA,73525.4,3713.9745558440004,N,13701.560402242,E,4,7,3.02,93.62700000000001,M,37.564,M,3.4,7006*55,37.23290926406668,137.02600670403334,679724.9108711823,4122633.3347774534
1653,[2021-02-22 16:35:26.079] $GNGGA,73525.5,3713.974558328,N,13701.560404982,E,4,7,3.02,93.62,M,37.564,M,3.5,7006*5F,37.23290930546667,137.02600674969997,679724.9148243557,4122633.3394577648
1654,[2021-02-22 16:35:26.188] $GNGGA,73525.6,3713.974561242,N,13701.560407727,E,4,7,3.02,93.618,M,37.564,M,3.6,7006*51,37.23290935403333,137.02600679545003,679724.9187679108,4122633.344933422
1655,[2021-02-22 16:35:26.266] $GNGGA,73525.7,3713.974562797,N,13701.560400856999,E,4,7,3.02,93.616,M,37.564,M,3.7,7006*5E,37.23290937995,137.02600668095,679724.9085480389,4122633.3475916116
1656,[2021-02-22 16:35:26.376] $GNGGA,73525.8,3713.974563042,N,13701.560403308999,E,4,7,3.02,93.605,M,37.564,M,3.8,7006*51,37.232909384033334,137.02600672181663,679724.9121639862,4122633.348122288
1657,[2021-02-22 16:35:26.469] $GNGGA,73525.9,3713.9745620609997,N,13701.560400121001,E,4,7,3.02,93.61399999999999,M,37.564,M,3.9,7006*5A,37.232909367683334,137.02600666868338,679724.9074888906,4122633.3462072527
1658,[2021-02-22 16:35:26.579] $GNGGA,73526.0,3713.97456066,N,13701.560398393998,E,4,7,3.03,93.60799999999999,M,37.564,M,4.0,7006*5D,37.232909344333336,137.02600663989995,679724.9049907094,4122633.3435617653
1659,[2021-02-22 16:35:26.688] $GNGGA,73526.1,3713.974556637,N,13701.560400223001,E,4,7,3.03,93.62299999999999,M,37.564,M,4.1,7006*58,37.23290927728334,137.02600667038337,679724.9078544049,4122633.336180027
1660,[2021-02-22 16:35:26.766] $GNGGA,73526.2,3713.974554218,N,13701.56040287,E,4,7,3.03,93.632,M,37.564,M,4.2,7006*5D,37.23290923696667,137.02600671450003,679724.9118641369,4122633.3317904095
1661,[2021-02-22 16:35:26.876] $GNGGA,73526.3,3713.974551535,N,13701.560406406,E,4,7,3.03,93.64200000000001,M,37.564,M,4.3,7006*5E,37.23290919225,137.02600677343332,679724.9171988338,4122633.3269407223
1662,[2021-02-22 16:35:26.969] $GNGGA,73526.4,3713.974550028,N,13701.56041013,E,4,7,3.03,93.65299999999999,M,37.564,M,4.4,7006*51,37.232909167133336,137.0260068355,679724.9227649723,4122633.3242717297
1663,[2021-02-22 16:35:27.079] $GNGGA,73526.5,3713.974547883,N,13701.560410413998,E,4,7,3.03,93.65700000000001,M,37.564,M,4.5,7006*59,37.23290913138334,137.0260068402333,679724.9232698091,4122633.3203140283
1664,[2021-02-22 16:35:27.188] $GNGGA,73526.6,3713.974545557,N,13701.560412886001,E,4,7,3.03,93.65899999999999,M,37.564,M,4.6,7006*54,37.232909092616666,137.02600688143337,679724.927017105,4122633.316090856
1665,[2021-02-22 16:35:27.266] $GNGGA,73526.7,3713.9745454520003,N,13701.560415173999,E,4,7,3.03,93.662,M,37.564,M,4.7,7006*5B,37.23290909086667,137.02600691956664,679724.9304044023,4122633.315969098
1666,[2021-02-22 16:35:27.376] $GNGGA,73526.8,3713.974546333,N,13701.560414863001,E,4,7,3.03,93.666,M,37.564,M,4.8,7006*52,37.23290910555,137.02600691438337,679724.9299096771,4122633.3175884634
1667,[2021-02-22 16:35:27.469] $GNGGA,73526.9,3713.974545034,N,13701.560414196001,E,4,7,3.03,93.675,M,37.564,M,4.9,7006*54,37.232909083900005,137.02600690326668,679724.9289748324,4122633.315165148
1668,[2021-02-22 16:35:27.579] $GNGGA,73527.0,3713.9745448940002,N,13701.560414242,E,4,7,3.03,93.677,M,37.564,M,5.0,7006*5F,37.232909081566675,137.02600690403332,679724.9290483894,4122633.314907706
1669,[2021-02-22 16:35:27.688] $GNGGA,73527.1,3713.974545424,N,13701.560414257,E,4,7,3.03,93.667,M,37.564,M,5.1,7006*5C,37.2329090904,137.02600690428332,679724.9290495922,4122633.315888295
1670,[2021-02-22 16:35:27.782] $GNGGA,73527.2,3713.974545554,N,13701.560411425,E,4,7,3.03,93.67399999999999,M,37.564,M,5.2,7006*5E,37.23290909256667,137.02600685708336,679724.9248569158,4122633.3160390686
1671,[2021-02-22 16:35:27.875] $GNGGA,73527.3,3713.97454558,N,13701.560410566,E,4,7,3.03,93.67200000000001,M,37.564,M,5.3,7006*56,37.232909092999996,137.02600684276666,679724.9235857249,4122633.316059964
1672,[2021-02-22 16:35:27.969] $GNGGA,73527.4,3713.974545753,N,13701.560411013,E,4,7,3.03,93.676,M,37.564,M,5.4,7006*58,37.23290909588333,137.02600685021667,679724.9242398336,4122633.3163940352
1673,[2021-02-22 16:35:28.094] $GNGGA,73527.5,3713.97454659,N,13701.560410437,E,4,7,3.03,93.675,M,37.564,M,5.5,7006*56,37.23290910983333,137.02600684061667,679724.923355001,4122633.3179236464
1674,[2021-02-22 16:35:28.172] $GNGGA,73527.6,3713.974548079,N,13701.560410565,E,4,7,3.03,93.67399999999999,M,37.564,M,5.6,7006*5D,37.23290913465001,137.02600684275,679724.9234853309,4122633.320681267
1675,[2021-02-22 16:35:28.282] $GNGGA,73527.7,3713.9745471240003,N,13701.560412688,E,4,7,3.03,93.67399999999999,M,37.564,M,5.7,7006*59,37.23290911873334,137.02600687813336,679724.9266623061,4122633.3189824005
1676,[2021-02-22 16:35:28.375] $GNGGA,73527.8,3713.974544265,N,13701.560409631002,E,4,7,3.03,93.675,M,37.564,M,5.8,7006*55,37.23290907108334,137.02600682718338,679724.922255242,4122633.3135985793
1677,[2021-02-22 16:35:28.500] $GNGGA,73527.9,3713.974543343,N,13701.560410719,E,4,7,3.03,93.676,M,37.564,M,5.9,7006*57,37.23290905571667,137.02600684531666,679724.9239005023,4122633.3119279826
1678,[2021-02-22 16:35:28.579] $GNGGA,73528.0,3713.974542391,N,13701.560413661002,E,4,7,3.03,93.67399999999999,M,37.564,M,6.0,7006*5A,37.23290903985,137.02600689435005,679724.9282883744,4122633.310260587
1679,[2021-02-22 16:35:28.672] $GNGGA,73528.1,3713.974540998,N,13701.560408566002,E,4,7,3.03,93.68299999999999,M,37.564,M,1.1,7006*5A,37.232909016633336,137.02600680943337,679724.9208097942,4122633.307523297
1680,[2021-02-22 16:35:28.782] $GNGGA,73528.2,3713.9745419270002,N,13701.560408403,E,4,7,3.03,93.68299999999999,M,37.564,M,1.2,7006*5D,37.232909032116666,137.02600680671668,679724.9205320018,4122633.309236114
1681,[2021-02-22 16:35:28.891] $GNGGA,73528.3,3713.974542032,N,13701.560411111,E,4,7,3.03,93.68799999999999,M,37.564,M,1.3,7006*56,37.23290903386666,137.02600685185,679724.9245320256,4122633.309515992
1682,[2021-02-22 16:35:28.969] $GNGGA,73528.4,3713.974540872,N,13701.56040963,E,4,7,3.03,93.68700000000001,M,37.564,M,1.4,7006*5A,37.23290901453334,137.02600682716667,679724.9223880607,4122633.307323965
1683,[2021-02-22 16:35:29.079] $GNGGA,73528.5,3713.974540451,N,13701.560406829,E,4,8,1.69,93.68799999999999,M,37.564,M,1.5,7006*50,37.23290900751667,137.02600678048333,679724.9182630284,4122633.3064567717
1684,[2021-02-22 16:35:29.172] $GNGGA,73528.6,3713.974533612,N,13701.560393328999,E,4,8,1.69,93.63799999999999,M,37.564,M,1.6,7006*5A,37.232908893533335,137.0260065554833,679724.8985719676,4122633.293382332
1685,[2021-02-22 16:35:29.297] $GNGGA,73528.7,3713.9745338870002,N,13701.560393021002,E,4,8,1.69,93.633,M,37.564,M,1.7,7006*58,37.23290889811667,137.02600655035002,679724.8981056628,4122633.2938811337
1686,[2021-02-22 16:35:29.375] $GNGGA,73528.8,3713.974540748,N,13701.560402608999,E,4,8,1.69,93.678,M,37.564,M,1.8,7006*5C,37.23290901246666,137.02600671014997,679724.912011374,4122633.3068724447
1687,[2021-02-22 16:35:29.469] $GNGGA,73528.9,3713.9745398679997,N,13701.560404608,E,4,8,1.69,93.676,M,37.564,M,1.9,7006*56,37.232908997799996,137.02600674346667,679724.9150020275,4122633.305308353
1688,[2021-02-22 16:35:29.578] $GNGGA,73529.0,3713.974534155,N,13701.560393492,E,4,8,1.69,93.619,M,37.564,M,2.0,7006*5F,37.23290890258334,137.02600655819998,679724.8987914954,4122633.294391645
1689,[2021-02-22 16:35:29.688] $GNGGA,73529.1,3713.9745406429997,N,13701.560401403998,E,4,7,3.03,93.67200000000001,M,37.564,M,2.1,7006*53,37.23290901071666,137.02600669006662,679724.9102337548,4122633.3066401347
1690,[2021-02-22 16:35:29.766] $GNGGA,73529.2,3713.974533745,N,13701.560388068001,E,4,8,1.69,93.619,M,37.564,M,2.2,7006*54,37.23290889575,137.02600646780002,679724.8907875355,4122633.2934617777
1691,[2021-02-22 16:35:29.875] $GNGGA,73529.3,3713.9745360879997,N,13701.560387418998,E,4,8,1.69,93.61399999999999,M,37.564,M,2.3,7006*57,37.2329089348,137.0260064569833,679724.8897351478,4122633.297774084
1692,[2021-02-22 16:35:29.969] $GNGGA,73529.4,3713.974536432,N,13701.560385091001,E,4,8,1.69,93.61200000000001,M,37.564,M,2.4,7006*52,37.232908940533335,137.02600641818333,679724.8862792398,4122633.298336555
1693,[2021-02-22 16:35:30.078] $GNGGA,73529.5,3713.974533241,N,13701.560366303998,E,4,8,1.69,93.62700000000001,M,37.564,M,2.5,7006*51,37.23290888735,137.02600610506667,679724.8586261704,4122633.2918409333
1694,[2021-02-22 16:35:30.188] $GNGGA,73529.6,3713.974536488,N,13701.560381207,E,4,8,1.69,93.605,M,37.564,M,2.6,7006*5C,37.23290894146667,137.02600635345,679724.8805339497,4122633.298317189
1695,[2021-02-22 16:35:30.266] $GNGGA,73529.7,3713.974535807,N,13701.560363723,E,4,8,1.69,93.61399999999999,M,37.564,M,2.7,7006*5B,37.23290893011667,137.02600606205,679724.8547082074,4122633.2965044817
1696,[2021-02-22 16:35:30.375] $GNGGA,73529.8,3713.9745373359997,N,13701.560377975,E,4,8,1.69,93.603,M,37.564,M,2.8,7006*5E,37.2329089556,137.02600629958332,679724.8757213914,4122633.2997830827
1697,[2021-02-22 16:35:30.469] $GNGGA,73529.9,3713.974539065,N,13701.560381448999,E,4,8,1.69,93.59299999999999,M,37.564,M,2.9,7006*54,37.23290898441667,137.0260063574833,679724.8807897792,4122633.3030904233
1698,[2021-02-22 16:35:30.578] $GNGGA,73530.0,3713.97454598,N,13701.56038811,E,4,7,3.03,93.65,M,37.564,M,3.0,7006*59,37.23290909966667,137.0260064685,679724.890365351,4122633.3160889605
1699,[2021-02-22 16:35:30.688] $GNGGA,73530.1,3713.9745466570002,N,13701.560387608,E,4,7,3.03,93.64200000000001,M,37.564,M,3.1,7006*5D,37.23290911095001,137.02600646013335,679724.8895962746,4122633.3173250314
1700,[2021-02-22 16:35:30.766] $GNGGA,73530.2,3713.974547014,N,13701.560385125,E,4,7,3.03,93.64299999999999,M,37.564,M,3.2,7006*56,37.2329091169,137.02600641875,679724.8859106578,4122633.317906634
1701,[2021-02-22 16:35:30.875] $GNGGA,73530.3,3713.9745463390004,N,13701.560383755,E,4,7,3.03,93.634,M,37.564,M,3.3,7006*5C,37.23290910565001,137.02600639591668,679724.883911627,4122633.3166150185
1702,[2021-02-22 16:35:30.969] $GNGGA,73530.4,3713.9745444220002,N,13701.560387726002,E,4,8,2.97,93.63799999999999,M,37.564,M,3.4,7006*5C,37.23290907370001,137.02600646210004,679724.8898592241,4122633.31319564
1703,[2021-02-22 16:35:31.078] $GNGGA,73530.5,3713.97453863,N,13701.560377598,E,4,8,2.97,93.581,M,37.564,M,3.5,7006*5F,37.232908977166666,137.0260062933,679724.8751127223,4122633.3021641085
1704,[2021-02-22 16:35:31.188] $GNGGA,73530.6,3713.974538902,N,13701.56037899,E,4,8,2.97,93.573,M,37.564,M,3.6,7006*57,37.2329089817,137.02600631649997,679724.8771602339,4122633.3027111674
1705,[2021-02-22 16:35:31.266] $GNGGA,73530.7,3713.9745380709996,N,13701.560379694,E,4,8,2.97,93.581,M,37.564,M,3.7,7006*5D,37.232908967849994,137.0260063282333,679724.8782340942,4122633.3011967014
1706,[2021-02-22 16:35:31.375] $GNGGA,73530.8,3713.97453748,N,13701.560378089,E,4,8,2.97,93.579,M,37.564,M,3.8,7006*54,37.232908958,137.0260063014833,679724.8758842563,4122633.3000529865
1707,[2021-02-22 16:35:31.469] $GNGGA,73530.9,3713.974536933,N,13701.560379559,E,4,8,2.97,93.584,M,37.564,M,3.9,7006*5B,37.232908948883335,137.0260063259833,679724.8780795209,4122633.2990879565
1708,[2021-02-22 16:35:31.578] $GNGGA,73531.0,3713.974537825,N,13701.560377691001,E,4,8,2.97,93.59200000000001,M,37.564,M,4.0,7006*54,37.23290896375,137.02600629485002,679724.8752821024,4122633.3006783877
1709,[2021-02-22 16:35:31.688] $GNGGA,73531.1,3713.974542386,N,13701.560386111001,E,4,8,2.97,93.637,M,37.564,M,4.1,7006*59,37.23290903976667,137.02600643518335,679724.8875517917,4122633.309379407
1710,[2021-02-22 16:35:31.781] $GNGGA,73531.2,3713.974541728,N,13701.5603821,E,4,8,2.97,93.64,M,37.564,M,4.2,7006*5E,37.23290902880001,137.02600636833336,679724.8816469766,4122633.308035642
1711,[2021-02-22 16:35:31.875] $GNGGA,73531.3,3713.974539824,N,13701.560379843,E,4,8,2.97,93.64200000000001,M,37.564,M,4.3,7006*5A,37.23290899706667,137.02600633071665,679724.8783850272,4122633.304443194
1712,[2021-02-22 16:35:31.969] $GNGGA,73531.4,3713.97453572,N,13701.56037171,E,4,8,2.97,93.604,M,37.564,M,4.4,7006*5E,37.23290892866667,137.02600619516664,679724.8665216203,4122633.2965963753
1713,[2021-02-22 16:35:32.094] $GNGGA,73531.5,3713.9745370540004,N,13701.560370091001,E,4,8,2.97,93.6,M,37.564,M,4.5,7006*53,37.23290895090001,137.02600616818336,679724.8640748891,4122633.299012066
1714,[2021-02-22 16:35:32.172] $GNGGA,73531.6,3713.974534764,N,13701.560368795,E,4,8,2.97,93.60600000000001,M,37.564,M,4.6,7006*58,37.232908912733336,137.02600614658334,679724.8622492017,4122633.2947362135
1715,[2021-02-22 16:35:32.281] $GNGGA,73531.7,3713.974535797,N,13701.560368212,E,4,8,2.97,93.605,M,37.564,M,4.7,7006*5C,37.23290892995,137.02600613686667,679724.861346261,4122633.2966280608
1716,[2021-02-22 16:35:32.375] $GNGGA,73531.8,3713.974537519,N,13701.560368386,E,4,8,2.97,93.6,M,37.564,M,4.8,7006*53,37.23290895865001,137.02600613976668,679724.8615353861,4122633.2998180166
1717,[2021-02-22 16:35:32.500] $GNGGA,73531.9,3713.9745386309996,N,13701.560369592,E,4,8,2.98,93.601,M,37.564,M,4.9,7006*59,37.23290897718333,137.02600615986665,679724.8632746179,4122633.3019125755
1718,[2021-02-22 16:35:32.578] $GNGGA,73532.0,3713.974539348,N,13701.560369595,E,4,8,2.98,93.594,M,37.564,M,5.0,7006*59,37.23290898913333,137.02600615991668,679724.8632506757,4122633.3032385986
1719,[2021-02-22 16:35:32.672] $GNGGA,73532.1,3713.974541168,N,13701.560373318998,E,4,9,1.64,93.584,M,37.564,M,5.1,7006*5F,37.232909019466675,137.0260062219833,679724.8686851205,4122633.306722138
1720,[2021-02-22 16:35:32.781] $GNGGA,73532.2,3713.974541115,N,13701.560367249,E,4,9,1.64,93.586,M,37.564,M,5.2,7006*56,37.232909018583335,137.02600612081665,679724.8597118232,4122633.306432015
1721,[2021-02-22 16:35:32.906] $GNGGA,73532.3,3713.974544625,N,13701.56037133,E,4,9,1.64,93.56700000000001,M,37.564,M,5.3,7006*50,37.23290907708333,137.02600618883335,679724.8656072593,4122633.3130521215
1722,[2021-02-22 16:35:32.969] $GNGGA,73532.4,3713.97454506,N,13701.56036439,E,4,9,1.64,93.575,M,37.565,M,5.4,7006*5A,37.23290908433333,137.02600607316666,679724.8553282149,4122633.313636911
1723,[2021-02-22 16:35:33.078] $GNGGA,73532.5,3713.97454722,N,13701.560377145,E,4,9,1.64,93.557,M,37.564,M,5.5,7006*57,37.23290912033334,137.02600628575001,679724.8741028872,4122633.318035025
1724,[2021-02-22 16:35:33.172] $GNGGA,73532.6,3713.974544878,N,13701.560365158999,E,4,9,1.64,93.565,M,37.564,M,5.6,7006*5C,37.232909081299994,137.02600608598334,679724.8564725023,4122633.3133246815
1725,[2021-02-22 16:35:33.297] $GNGGA,73532.7,3713.974545366,N,13701.560369638999,E,4,9,1.64,93.559,M,37.564,M,5.7,7006*5B,37.23290908943333,137.02600616065,679724.8630775319,4122633.3143689153
1726,[2021-02-22 16:35:33.375] $GNGGA,73532.8,3713.9745462359997,N,13701.560386166,E,4,9,1.64,93.55,M,37.564,M,5.8,7006*59,37.23290910393333,137.0260064361,679724.8874807263,4122633.3165008477
1727,[2021-02-22 16:35:33.469] $GNGGA,73532.9,3713.9745428809997,N,13701.560387597,E,4,8,1.69,93.557,M,37.564,M,5.9,7006*5B,37.23290904801666,137.02600645994997,679724.8897294671,4122633.3103418266
1728,[2021-02-22 16:35:33.578] $GNGGA,73533.0,3713.9745421929997,N,13701.560388647,E,4,7,3.03,93.553,M,37.564,M,6.0,7006*57,37.23290903654999,137.02600647744998,679724.8913092829,4122633.3091027588
1729,[2021-02-22 16:35:33.688] $GNGGA,73533.1,3713.974540331,N,13701.56038747,E,4,7,3.03,93.56,M,37.564,M,1.1,7006*51,37.23290900551667,137.02600645783332,679724.8896426145,4122633.3056221623
1730,[2021-02-22 16:35:33.781] $GNGGA,73533.2,3713.974536153,N,13701.560389241002,E,4,7,3.03,93.568,M,37.564,M,1.2,7006*54,37.23290893588333,137.02600648735003,679724.8924266798,4122633.297951951
1731,[2021-02-22 16:35:33.875] $GNGGA,73533.3,3713.9745340179998,N,13701.560389302,E,4,7,3.03,93.571,M,37.564,M,1.3,7006*56,37.232908900299996,137.02600648836668,679724.8926013821,4122633.294005684
1732,[2021-02-22 16:35:33.969] $GNGGA,73533.4,3713.974534218,N,13701.560388942,E,4,7,3.03,93.571,M,37.564,M,1.4,7006*5B,37.23290890363333,137.02600648236665,679724.8920611496,4122633.2943641446
1733,[2021-02-22 16:35:34.094] $GNGGA,73533.5,3713.9745343990003,N,13701.560389392,E,4,8,2.98,93.579,M,37.564,M,1.5,7006*51,37.23290890665,137.02600648986666,679724.8927193796,4122633.294713106
1734,[2021-02-22 16:35:34.172] $GNGGA,73533.6,3713.9745326290004,N,13701.560388823,E,4,8,2.98,93.584,M,37.564,M,1.6,7006*5B,37.23290887715001,137.02600648038333,679724.8919480875,4122633.291421885
1735,[2021-02-22 16:35:34.281] $GNGGA,73533.7,3713.97453159,N,13701.560388635,E,4,8,2.98,93.586,M,37.564,M,1.7,7006*52,37.23290885983334,137.02600647724998,679724.8917112253,4122633.289494541
1736,[2021-02-22 16:35:34.375] $GNGGA,73533.8,3713.974530608,N,13701.560392189,E,4,8,2.98,93.59100000000001,M,37.564,M,1.8,7006*5C,37.23290884346667,137.02600653648335,679724.8970052169,4122633.2877910356
1737,[2021-02-22 16:35:34.484] $GNGGA,73533.9,3713.9745299759998,N,13701.560396103001,E,4,8,2.98,93.59299999999999,M,37.564,M,1.9,7006*56,37.232908832933326,137.02600660171672,679724.9028176665,4122633.2867461685
1738,[2021-02-22 16:35:34.594] $GNGGA,73534.0,3713.97452838,N,13701.560400116,E,4,8,2.98,93.60600000000001,M,37.564,M,2.0,7006*53,37.23290880633333,137.0260066686,679724.9088146521,4122633.2839217377
1739,[2021-02-22 16:35:34.672] $GNGGA,73534.1,3713.974528588,N,13701.560402374,E,4,8,2.98,93.61200000000001,M,37.564,M,2.1,7006*5C,37.232908809799994,137.02600670623332,679724.912145209,4122633.2843778497
1740,[2021-02-22 16:35:34.781] $GNGGA,73534.2,3713.9745286059997,N,13701.560408006,E,4,8,2.98,93.61399999999999,M,37.564,M,2.2,7006*53,37.2329088101,137.0260068001,679724.9204722471,4122633.284589386
1741,[2021-02-22 16:35:34.875] $GNGGA,73534.3,3713.9745281279997,N,13701.560406885,E,4,8,2.98,93.62100000000001,M,37.564,M,2.3,7006*53,37.23290880213333,137.02600678141667,679724.9188336034,4122633.283669955
1742,[2021-02-22 16:35:34.969] $GNGGA,73534.4,3713.974529912,N,13701.560408938001,E,4,7,3.03,93.62100000000001,M,37.564,M,2.4,7006*56,37.232908831866666,137.02600681563337,679724.9217986572,4122633.287034033
1743,[2021-02-22 16:35:35.094] $GNGGA,73534.5,3713.974531487,N,13701.560404958998,E,4,7,3.03,93.62100000000001,M,37.564,M,2.5,7006*55,37.232908858116666,137.02600674931665,679724.9158527683,4122633.2898207055
1744,[2021-02-22 16:35:35.172] $GNGGA,73534.6,3713.974531776,N,13701.56040419,E,4,7,3.03,93.619,M,37.564,M,2.6,7006*5E,37.23290886293333,137.02600673650002,679724.9147042502,4122633.2903308077
1745,[2021-02-22 16:35:35.281] $GNGGA,73534.7,3713.9745306940004,N,13701.560405546,E,4,7,3.03,93.617,M,37.564,M,2.7,7006*52,37.2329088449,137.02600675910003,679724.9167521262,4122633.288372811
1746,[2021-02-22 16:35:35.375] $GNGGA,73534.8,3713.974531946,N,13701.560403389,E,4,7,3.03,93.615,M,37.564,M,2.8,7006*52,37.23290886576666,137.02600672314998,679724.9135131205,4122633.290619833
1747,[2021-02-22 16:35:35.469] $GNGGA,73534.9,3713.974533252,N,13701.560400988,E,4,7,3.03,93.613,M,37.564,M,2.9,7006*50,37.232908887533334,137.02600668313335,679724.9099111946,4122633.2929589944
1748,[2021-02-22 16:35:35.594] $GNGGA,73535.0,3713.9745348109996,N,13701.560397614,E,4,7,3.03,93.611,M,37.564,M,3.0,7006*5B,37.23290891351666,137.0260066269,679724.9048605232,4122633.2957352246
1749,[2021-02-22 16:35:35.672] $GNGGA,73535.1,3713.9745365340004,N,13701.560398678,E,4,7,3.03,93.604,M,37.564,M,3.1,7006*52,37.232908942233344,137.02600664463336,679724.906365607,4122633.2989551984
1750,[2021-02-22 16:35:35.781] $GNGGA,73535.2,3713.974536838,N,13701.560396084,E,4,7,3.03,93.60799999999999,M,37.564,M,3.2,7006*54,37.2329089473,137.02600660139998,679724.9025179548,4122633.299435278
1751,[2021-02-22 16:35:35.875] $GNGGA,73535.3,3713.974535552,N,13701.560393816,E,4,7,3.03,93.609,M,37.564,M,3.3,7006*51,37.23290892586667,137.02600656360002,679724.8992152858,4122633.296985334
