,Format,Time,Latitude,LatType,Longitude,LonType,Status,Satellite,LevelAccuracy,Altitude(sea),M(sea),Altitude(geoid),M(geoid),DGPS use,checksum,Lat,Lon,UTM_X,UTM_Y
1202,[2021-02-22 16:41:02.868] $GNGGA,74102.3,3713.974027535,N,13701.558831363998,E,4,9,2.17,98.027,M,37.565,M,5.3,3006*5F,37.23290045891667,137.02598052273333,679722.6090054216,4122632.3080733996
1203,[2021-02-22 16:41:02.993] $GNGGA,74102.4,3713.9742667590003,N,13701.559421502,E,4,9,2.17,96.959,M,37.565,M,5.4,3006*54,37.232904445983344,137.02599035836667,679723.4721435369,4122632.769140988
1204,[2021-02-22 16:41:03.071] $GNGGA,74102.5,3713.9742684959997,N,13701.559424535,E,4,9,2.17,96.95,M,37.565,M,5.5,3006*52,37.23290447493333,137.02599040891667,679723.4765595242,4122632.7724491637
1205,[2021-02-22 16:41:03.181] $GNGGA,74102.6,3713.974269985,N,13701.559430386002,E,4,9,2.17,96.93700000000001,M,37.565,M,5.6,3006*56,37.23290449974999,137.02599050643335,679723.4851521649,4122632.7753879097
1206,[2021-02-22 16:41:03.274] $GNGGA,74102.7,3713.9742685590004,N,13701.559437343001,E,4,9,2.17,96.928,M,37.565,M,5.7,3006*5A,37.23290447598333,137.02599062238338,679723.4954955712,4122632.7729710285
1207,[2021-02-22 16:41:03.399] $GNGGA,74102.8,3713.9742668070003,N,13701.559436737,E,4,9,2.17,96.931,M,37.565,M,5.8,3006*5C,37.23290444678333,137.02599061228332,679723.4946688534,4122632.7697119224
1208,[2021-02-22 16:41:03.478] $GNGGA,74102.9,3713.97426497,N,13701.55943825,E,4,9,2.17,96.931,M,37.565,M,5.9,3006*55,37.232904416166676,137.02599063750003,679723.4969787623,4122632.766362695
1209,[2021-02-22 16:41:03.571] $GNGGA,74103.0,3713.9742623690004,N,13701.559437938999,E,4,9,2.17,96.94,M,37.565,M,6.0,3006*5E,37.23290437281668,137.02599063231665,679723.4966218518,4122632.761542893
1210,[2021-02-22 16:41:03.681] $GNGGA,74103.1,3713.974260895,N,13701.559437053998,E,4,9,2.17,96.946,M,37.565,M,1.1,3006*57,37.23290434825,137.02599061756663,679723.4953715897,4122632.7587890546
1211,[2021-02-22 16:41:03.790] $GNGGA,74103.2,3713.974263689,N,13701.559437971999,E,4,9,2.17,96.932,M,37.565,M,1.2,3006*59,37.232904394816664,137.02599063286667,679723.4966184001,4122632.763984977
1212,[2021-02-22 16:41:03.868] $GNGGA,74103.3,3713.9742627940004,N,13701.559438693,E,4,10,1.3,96.931,M,37.565,M,1.3,3006*57,37.232904379900006,137.02599064488336,679723.4977199341,4122632.762352698
1213,[2021-02-22 16:41:03.977] $GNGGA,74103.4,3713.97426263,N,13701.559436123,E,4,10,1.3,96.934,M,37.565,M,1.4,3006*5F,37.23290437716666,137.02599060205,679723.4939262944,4122632.761968078
1214,[2021-02-22 16:41:04.071] $GNGGA,74103.5,3713.974264355,N,13701.559434273999,E,4,10,1.3,96.93299999999999,M,37.565,M,1.5,3006*5B,37.23290440591667,137.02599057123328,679723.4911239911,4122632.7650995557
1215,[2021-02-22 16:41:04.196] $GNGGA,74103.6,3713.974265239,N,13701.559434396,E,4,10,1.3,96.92399999999999,M,37.565,M,1.6,3006*5A,37.232904420649994,137.02599057326668,679723.4912694013,4122632.766738173
1216,[2021-02-22 16:41:04.274] $GNGGA,74103.7,3713.974265243,N,13701.559432338001,E,4,10,1.3,96.92200000000001,M,37.565,M,1.7,3006*53,37.23290442071667,137.02599053896668,679723.488226184,4122632.766680438
1217,[2021-02-22 16:41:04.368] $GNGGA,74103.8,3713.9742673279998,N,13701.559431313999,E,4,9,2.17,96.90799999999999,M,37.565,M,1.8,3006*56,37.23290445546666,137.02599052189998,679723.4866295165,4122632.7705037603
1218,[2021-02-22 16:41:04.477] $GNGGA,74103.9,3713.9742408,N,13701.559589593,E,4,9,2.17,97.39200000000001,M,37.565,M,1.9,3006*51,37.23290401333334,137.02599315988334,679723.7217186245,4122632.72645561
1219,[2021-02-22 16:41:04.587] $GNGGA,74104.0,3713.974241109,N,13701.559583961001,E,4,9,2.17,97.38799999999999,M,37.565,M,2.0,3006*54,37.23290401848333,137.02599306601667,679723.7133786427,4122632.7268487876
1220,[2021-02-22 16:41:04.665] $GNGGA,74104.1,3713.974210025,N,13701.559249622,E,4,9,2.17,97.241,M,37.565,M,2.1,3006*52,37.232903500416676,137.0259874937,679723.2202389723,4122632.658784542
1221,[2021-02-22 16:41:04.774] $GNGGA,74104.2,3713.974218672,N,13701.55928094,E,4,9,2.17,97.177,M,37.565,M,2.2,3006*56,37.23290364453333,137.02598801566668,679723.2662050407,4122632.6757663796
1222,[2021-02-22 16:41:04.868] $GNGGA,74104.3,3713.9742156459997,N,13701.55927002,E,4,9,2.17,97.19,M,37.565,M,2.3,3006*55,37.232903594099994,137.02598783366665,679723.2501779641,4122632.669824875
1223,[2021-02-22 16:41:04.977] $GNGGA,74104.4,3713.974269142,N,13701.559429362,E,4,9,2.17,96.87799999999999,M,37.565,M,2.4,3006*5C,37.232904485700004,137.02599048936665,679723.4836713924,4122632.7737965654
1224,[2021-02-22 16:41:05.087] $GNGGA,74104.5,3713.974267299,N,13701.55942944,E,4,9,2.17,96.875,M,37.565,M,2.5,3006*5D,37.23290445498334,137.02599049066666,679723.4838596766,4122632.770390824
1225,[2021-02-22 16:41:05.165] $GNGGA,74104.6,3713.974268204,N,13701.559431193999,E,4,9,2.17,96.87200000000001,M,37.565,M,2.6,3006*54,37.23290447006667,137.02599051989998,679723.4864174041,4122632.772119927
1226,[2021-02-22 16:41:05.274] $GNGGA,74104.7,3713.974266535,N,13701.559432668999,E,4,9,2.17,96.875,M,37.565,M,2.7,3006*5E,37.232904442249996,137.0259905444833,679723.4886644722,4122632.7690801728
1227,[2021-02-22 16:41:05.368] $GNGGA,74104.8,3713.9742652990003,N,13701.559430828,E,4,9,2.17,96.874,M,37.565,M,2.8,3006*54,37.232904421650005,137.02599051379997,679723.4859912035,4122632.7667362066
1228,[2021-02-22 16:41:05.477] $GNGGA,74104.9,3713.9742646840004,N,13701.559430095,E,4,9,2.17,96.87799999999999,M,37.565,M,2.9,3006*5F,37.23290441140001,137.02599050158332,679723.4849316969,4122632.7655757065
1229,[2021-02-22 16:41:05.587] $GNGGA,74105.0,3713.974263433,N,13701.559432967,E,4,9,2.17,96.875,M,37.565,M,3.0,3006*5D,37.23290439055,137.02599054945,679723.4892278952,4122632.7633531597
1230,[2021-02-22 16:41:05.665] $GNGGA,74105.1,3713.974263278,N,13701.559432978,E,4,9,2.17,96.882,M,37.565,M,3.1,3006*52,37.23290438796666,137.02599054963332,679723.489250295,4122632.7630668697
1231,[2021-02-22 16:41:05.774] $GNGGA,74105.2,3713.974262103,N,13701.559430245,E,4,9,2.17,96.89,M,37.565,M,3.2,3006*58,37.23290436838334,137.02599050408335,679723.4852556583,4122632.7608074797
1232,[2021-02-22 16:41:05.868] $GNGGA,74105.3,3713.9742619309995,N,13701.559430956999,E,4,9,2.17,96.896,M,37.565,M,3.3,3006*5C,37.23290436551667,137.02599051594999,679723.4863152608,4122632.760511939
1233,[2021-02-22 16:41:05.977] $GNGGA,74105.4,3713.974263608,N,13701.559427056001,E,4,9,2.17,96.905,M,37.565,M,3.4,3006*5E,37.23290439346667,137.02599045093334,679723.4804806745,4122632.763489706
1234,[2021-02-22 16:41:06.087] $GNGGA,74105.5,3713.974263467,N,13701.559429185,E,4,9,2.17,96.902,M,37.565,M,3.5,3006*53,37.23290439111667,137.02599048641665,679723.4836342973,4122632.7632963397
1235,[2021-02-22 16:41:06.165] $GNGGA,74105.6,3713.9742630059995,N,13701.559427269,E,4,9,2.17,96.906,M,37.565,M,3.6,3006*5B,37.23290438343333,137.02599045448335,679723.4808194557,4122632.7623831844
1236,[2021-02-22 16:41:06.274] $GNGGA,74105.7,3713.9742636990004,N,13701.5594264,E,4,9,2.17,96.90299999999999,M,37.565,M,3.7,3006*56,37.23290439498334,137.02599044,679723.4795070776,4122632.76363723
1237,[2021-02-22 16:41:06.368] $GNGGA,74105.8,3713.9742632640005,N,13701.559426423999,E,4,9,2.17,96.90299999999999,M,37.565,M,3.8,3006*56,37.23290438773335,137.02599044039997,679723.479559782,4122632.7628335566
1238,[2021-02-22 16:41:06.477] $GNGGA,74105.9,3713.97426228,N,13701.559429123,E,4,9,2.17,96.897,M,37.565,M,3.9,3006*5C,37.23290437133333,137.02599048538335,679723.4835896075,4122632.761099291
1239,[2021-02-22 16:41:06.587] $GNGGA,74106.0,3713.9742624279997,N,13701.559426996999,E,4,9,2.17,96.898,M,37.565,M,4.0,3006*5B,37.2329043738,137.02599044995,679723.4804401414,4122632.7613056963
1240,[2021-02-22 16:41:06.680] $GNGGA,74106.1,3713.9742639829997,N,13701.559425368001,E,4,9,2.17,96.898,M,37.565,M,4.1,3006*5F,37.23290439971666,137.02599042280002,679723.4779698745,4122632.764129761
1241,[2021-02-22 16:41:06.774] $GNGGA,74106.2,3713.9742649170003,N,13701.559426058,E,4,9,2.17,96.896,M,37.565,M,4.2,3006*58,37.232904415283336,137.0259904343,679723.4789531704,4122632.76587882
1242,[2021-02-22 16:41:06.868] $GNGGA,74106.3,3713.9742666190004,N,13701.559427625,E,4,9,2.17,96.895,M,37.565,M,4.3,3006*55,37.23290444365001,137.02599046041666,679723.4812028442,4122632.769075876
1243,[2021-02-22 16:41:06.993] $GNGGA,74106.4,3713.9742663609995,N,13701.559428615,E,4,9,2.17,96.89299999999999,M,37.565,M,4.4,3006*55,37.23290443934999,137.0259904769167,679723.4826769215,4122632.7686300934
1244,[2021-02-22 16:41:07.071] $GNGGA,74106.5,3713.974266163,N,13701.559429281,E,4,9,2.17,96.89,M,37.565,M,4.5,3006*5E,37.23290443604999,137.02599048801665,679723.4836695351,4122632.7682850165
1245,[2021-02-22 16:41:07.180] $GNGGA,74106.6,3713.9742648879997,N,13701.559429932,E,4,9,2.17,96.89399999999999,M,37.565,M,4.6,3006*57,37.23290441479999,137.0259904988667,679723.4846826061,4122632.7659477973
1246,[2021-02-22 16:41:07.274] $GNGGA,74106.7,3713.974263746,N,13701.559427613998,E,4,9,2.17,96.90299999999999,M,37.565,M,4.7,3006*57,37.23290439576666,137.0259904602333,679723.4813002934,4122632.763762566
1247,[2021-02-22 16:41:07.399] $GNGGA,74106.8,3713.9742635340003,N,13701.559426623999,E,4,9,2.17,96.89299999999999,M,37.565,M,4.8,3006*5A,37.232904392233344,137.02599044373332,679723.4798448262,4122632.7633391893
1248,[2021-02-22 16:41:07.477] $GNGGA,74106.9,3713.9742615809996,N,13701.559424553001,E,4,9,2.17,96.9,M,37.565,M,4.9,3006*5C,37.232904359683324,137.02599040921666,679723.4768598485,4122632.759662013
1249,[2021-02-22 16:41:07.571] $GNGGA,74107.0,3713.9742592979997,N,13701.559427474,E,4,9,2.17,96.906,M,37.565,M,5.0,3006*59,37.232904321633335,137.0259904579,679723.4812693463,4122632.755532571
1250,[2021-02-22 16:41:07.680] $GNGGA,74107.1,3713.974258681,N,13701.55942967,E,4,9,2.17,96.90100000000001,M,37.565,M,5.1,3006*5B,37.232904311350005,137.02599049449998,679723.4845408807,4122632.7544610705
1251,[2021-02-22 16:41:07.790] $GNGGA,74107.2,3713.9742583340003,N,13701.559427311999,E,4,9,2.17,96.89399999999999,M,37.565,M,5.2,3006*52,37.23290430556667,137.02599045519995,679723.4810679564,4122632.7537447438
1252,[2021-02-22 16:41:07.868] $GNGGA,74107.3,3713.974260015,N,13701.559424354,E,4,9,2.17,96.891,M,37.565,M,5.3,3006*5D,37.232904333583335,137.0259904059,679723.4766275808,4122632.7567597544
1253,[2021-02-22 16:41:07.977] $GNGGA,74107.4,3713.974260199,N,13701.559417601002,E,4,9,2.17,96.902,M,37.565,M,5.4,3006*56,37.23290433665,137.02599029335002,679723.4666349826,4122632.756886296
1254,[2021-02-22 16:41:08.071] $GNGGA,74107.5,3713.974260677,N,13701.559412748999,E,4,9,2.17,96.906,M,37.565,M,5.5,3006*5D,37.232904344616664,137.0259902124833,679723.4594416528,4122632.757616687
1255,[2021-02-22 16:41:08.196] $GNGGA,74107.6,3713.974262564,N,13701.559410368998,E,4,9,2.17,96.895,M,37.565,M,5.6,3006*51,37.23290437606667,137.02599017281662,679723.4558477785,4122632.7610309417
1256,[2021-02-22 16:41:08.274] $GNGGA,74107.7,3713.974261943,N,13701.559412266999,E,4,9,2.17,96.889,M,37.565,M,5.7,3006*5B,37.23290436571666,137.02599020444998,679723.4586788372,4122632.759942611
1257,[2021-02-22 16:41:08.368] $GNGGA,74107.8,3713.974263226,N,13701.559409538999,E,4,9,2.17,96.889,M,37.565,M,5.8,3006*57,37.23290438710001,137.02599015898332,679723.4545942997,4122632.7622288903
1258,[2021-02-22 16:41:08.477] $GNGGA,74107.9,3713.9742638820003,N,13701.559412392,E,4,9,2.17,96.883,M,37.565,M,5.9,3006*54,37.23290439803334,137.02599020653335,679723.4587869223,4122632.7635323093
1259,[2021-02-22 16:41:08.587] $GNGGA,74108.0,3713.974266273,N,13701.559413586001,E,4,9,2.17,96.87799999999999,M,37.565,M,6.0,3006*5F,37.232904437883334,137.02599022643332,679723.4604577865,4122632.767991707
1260,[2021-02-22 16:41:08.665] $GNGGA,74108.1,3713.9742678,N,13701.559416471999,E,4,9,2.17,96.87,M,37.565,M,1.1,3006*50,37.23290446333333,137.02599027453334,679723.4646647273,4122632.7709068856
1261,[2021-02-22 16:41:08.774] $GNGGA,74108.2,3713.974269261,N,13701.559418716,E,4,9,2.17,96.867,M,37.565,M,1.2,3006*5A,37.232904487683335,137.02599031193333,679723.4679249859,4122632.773679694
1262,[2021-02-22 16:41:08.868] $GNGGA,74108.3,3713.974269643,N,13701.559421343001,E,4,9,2.17,96.867,M,37.565,M,1.3,3006*50,37.23290449405,137.0259903557167,679723.4717942793,4122632.774469258
1263,[2021-02-22 16:41:08.993] $GNGGA,74108.4,3713.9742679990004,N,13701.55942264,E,4,9,2.17,96.863,M,37.565,M,1.4,3006*57,37.23290446665001,137.02599037733333,679723.4737771557,4122632.771470102
1264,[2021-02-22 16:41:09.071] $GNGGA,74108.5,3713.9742667309997,N,13701.559424508001,E,4,9,2.17,96.861,M,37.565,M,1.5,3006*51,37.23290444551666,137.0259904084667,679723.4765894659,4122632.7691843435
1265,[2021-02-22 16:41:09.180] $GNGGA,74108.6,3713.974265352,N,13701.55942351,E,4,9,2.17,96.86200000000001,M,37.565,M,1.6,3006*5E,37.23290442253334,137.02599039183332,679723.4751683527,4122632.7666026107
1266,[2021-02-22 16:41:09.274] $GNGGA,74108.7,3713.974264877,N,13701.559425065,E,4,9,2.17,96.866,M,37.565,M,1.7,3006*56,37.23290441461667,137.02599041775,679723.4774864549,4122632.765773421
1267,[2021-02-22 16:41:09.368] $GNGGA,74108.8,3713.974264123,N,13701.559425768999,E,4,9,2.17,96.868,M,37.565,M,1.8,3006*5B,37.23290440205,137.02599042948333,679723.4785572672,4122632.76440135
1268,[2021-02-22 16:41:09.493] $GNGGA,74108.9,3713.974263939,N,13701.559423711002,E,4,9,2.17,96.87,M,37.565,M,1.9,3006*5F,37.23290439898334,137.02599039518336,679723.4755214936,4122632.7639959515
1269,[2021-02-22 16:41:09.571] $GNGGA,74109.0,3713.974264015,N,13701.559425703,E,4,9,2.17,96.868,M,37.565,M,2.0,3006*51,37.23290440024999,137.02599042838335,679723.4784639545,4122632.7641995386
1270,[2021-02-22 16:41:09.680] $GNGGA,74109.1,3713.97426146,N,13701.559424985,E,4,9,2.17,96.87299999999999,M,37.565,M,2.1,3006*59,37.23290435766667,137.02599041641668,679723.4775034152,4122632.7594519244
1271,[2021-02-22 16:41:09.774] $GNGGA,74109.2,3713.97425804,N,13701.559422986002,E,4,9,2.17,96.883,M,37.565,M,2.2,3006*5F,37.232904300666675,137.02599038310004,679723.4746829675,4122632.753064146
1272,[2021-02-22 16:41:09.868] $GNGGA,74109.3,3713.974257431,N,13701.55942449,E,4,9,2.17,96.88,M,37.565,M,2.3,3006*5D,37.232904290516665,137.02599040816668,679723.4769309585,4122632.751985538
1273,[2021-02-22 16:41:09.993] $GNGGA,74109.4,3713.974257688,N,13701.55942025,E,4,8,2.19,96.88799999999999,M,37.565,M,2.4,3006*54,37.232904294799994,137.02599033749996,679723.4706513104,4122632.7523266086
1274,[2021-02-22 16:41:10.071] $GNGGA,74109.5,3713.9742595740004,N,13701.559422148,E,4,8,2.19,96.87799999999999,M,37.565,M,2.5,3006*5D,37.23290432623334,137.02599036913332,679723.4733831356,4122632.7558744075
1275,[2021-02-22 16:41:10.180] $GNGGA,74109.6,3713.974262384,N,13701.559423331999,E,4,8,2.19,96.87200000000001,M,37.565,M,2.6,3006*58,37.23290437306667,137.02599038886666,679723.4750226337,4122632.7611083374
1276,[2021-02-22 16:41:10.274] $GNGGA,74109.7,3713.974267052,N,13701.559421688,E,4,8,2.19,96.863,M,37.565,M,2.7,3006*53,37.23290445086667,137.02599036146668,679723.4724069678,4122632.7696887115
1277,[2021-02-22 16:41:10.368] $GNGGA,74109.8,3713.974268513,N,13701.559415701999,E,4,8,2.19,96.87100000000001,M,37.565,M,2.8,3006*5B,37.23290447521667,137.02599026169997,679723.4634979435,4122632.772201048
1278,[2021-02-22 16:41:10.493] $GNGGA,74109.9,3713.9742693579997,N,13701.559416846001,E,4,8,2.19,96.86399999999999,M,37.565,M,2.9,3006*5B,37.2329044893,137.02599028076668,679723.4651560755,4122632.7737998907
1279,[2021-02-22 16:41:10.571] $GNGGA,74110.0,3713.974220425,N,13701.559259353999,E,4,8,2.19,97.147,M,37.565,M,3.0,3006*5E,37.232903673749995,137.0259876559,679723.2342175351,4122632.6783249835
1280,[2021-02-22 16:41:10.680] $GNGGA,74110.1,3713.9742226609997,N,13701.559264088,E,4,8,2.19,97.139,M,37.565,M,3.1,3006*5B,37.23290371101666,137.02598773480003,679723.2411289568,4122632.6826097835
1281,[2021-02-22 16:41:10.774] $GNGGA,74110.2,3713.974225093,N,13701.559263291001,E,4,8,2.19,97.13,M,37.565,M,3.2,3006*53,37.23290375155,137.02598772151666,679723.2398542077,4122632.68708199
1282,[2021-02-22 16:41:10.868] $GNGGA,74110.3,3713.9742261909996,N,13701.559262538001,E,4,8,2.19,97.132,M,37.565,M,3.3,3006*54,37.23290376984999,137.02598770896668,679723.238697328,4122632.68908866
1283,[2021-02-22 16:41:10.993] $GNGGA,74110.4,3713.974226412,N,13701.559260915,E,4,8,2.19,97.139,M,37.565,M,3.4,3006*50,37.23290377353334,137.0259876819167,679723.2362887325,4122632.6894459845
1284,[2021-02-22 16:41:11.071] $GNGGA,74110.5,3713.974226177,N,13701.559259591,E,4,9,2.17,97.14,M,37.565,M,3.5,3006*5D,37.23290376961667,137.02598765985,679723.234340301,4122632.688969502
1285,[2021-02-22 16:41:11.180] $GNGGA,74110.6,3713.974221247,N,13701.559242163,E,4,9,2.17,97.171,M,37.565,M,3.6,3006*5B,37.23290368745,137.02598736938333,679723.2087655428,4122632.67930101
1286,[2021-02-22 16:41:11.274] $GNGGA,74110.7,3713.974225593,N,13701.559258057,E,4,10,1.25,97.15,M,37.565,M,3.7,3006*55,37.232903759883335,137.02598763428333,679723.2320951686,4122632.687840977
1287,[2021-02-22 16:41:11.399] $GNGGA,74110.8,3713.9742188279997,N,13701.559242623,E,4,10,1.25,97.182,M,37.565,M,3.8,3006*57,37.23290364713333,137.02598737705,679723.2095414713,4122632.674842179
1288,[2021-02-22 16:41:11.477] $GNGGA,74110.9,3713.974274178,N,13701.559420438998,E,4,10,1.25,96.853,M,37.565,M,3.9,3006*5E,37.23290456963333,137.02599034064994,679723.4702780707,4122632.7828270993
1289,[2021-02-22 16:41:11.571] $GNGGA,74111.0,3713.9742730659996,N,13701.559423989,E,4,10,1.25,96.866,M,37.565,M,4.0,3006*52,37.23290455109999,137.02599039981666,679723.4755712936,4122632.78088306
1290,[2021-02-22 16:41:11.680] $GNGGA,74111.1,3713.974215607,N,13701.559244363001,E,4,9,2.17,97.20100000000001,M,37.565,M,4.1,3006*5A,37.23290359345,137.02598740605,679723.2122418123,4122632.668940741
1291,[2021-02-22 16:41:11.789] $GNGGA,74111.2,3713.974271581,N,13701.55941957,E,4,9,2.17,96.87700000000001,M,37.565,M,4.2,3006*55,37.232904526350005,137.02599032616666,679723.4690959231,4122632.777997036
1292,[2021-02-22 16:41:11.868] $GNGGA,74111.3,3713.97427234,N,13701.559421191001,E,4,9,2.17,96.868,M,37.565,M,4.3,3006*53,37.232904538999996,137.02599035318335,679723.4714627713,4122632.779451935
1293,[2021-02-22 16:41:11.977] $GNGGA,74111.4,3713.974272964,N,13701.55942009,E,4,9,2.17,96.869,M,37.565,M,4.4,3006*5F,37.23290454940001,137.0259903348333,679723.4698100758,4122632.7805710384
1294,[2021-02-22 16:41:12.071] $GNGGA,74111.5,3713.974272003,N,13701.559419942,E,4,9,2.17,96.876,M,37.565,M,4.5,3006*55,37.23290453338333,137.02599033236663,679723.4696292743,4122632.7787892013
1295,[2021-02-22 16:41:12.196] $GNGGA,74111.6,3713.974271055,N,13701.559422256001,E,4,9,2.17,96.883,M,37.565,M,4.6,3006*59,37.23290451758333,137.02599037093339,679723.4730883985,4122632.7771093254
1296,[2021-02-22 16:41:12.274] $GNGGA,74111.7,3713.974270009,N,13701.559424588,E,4,9,2.17,96.883,M,37.565,M,4.7,3006*53,37.232904500150006,137.02599040980002,679723.4765780072,4122632.775248794
1297,[2021-02-22 16:41:12.367] $GNGGA,74111.8,3713.974268856,N,13701.559424495,E,4,9,2.17,96.883,M,37.565,M,4.8,3006*55,37.23290448093333,137.02599040824998,679723.4764861285,4122632.7731136368
1298,[2021-02-22 16:41:12.477] $GNGGA,74111.9,3713.9742682829997,N,13701.559424048999,E,4,9,2.17,96.89,M,37.565,M,4.9,3006*50,37.23290447138333,137.02599040081668,679723.4758493332,4122632.772039888
1299,[2021-02-22 16:41:12.586] $GNGGA,74112.0,3713.974267437,N,13701.559424911002,E,4,9,2.17,96.887,M,37.565,M,5.0,3006*56,37.23290445728333,137.02599041518337,679723.477157417,4122632.7705026856
1300,[2021-02-22 16:41:12.680] $GNGGA,74112.1,3713.9742630270002,N,13701.559422696,E,4,8,2.19,96.896,M,37.565,M,5.1,3006*5E,37.232904383783335,137.02599037826664,679723.4740567596,4122632.7622772893
1301,[2021-02-22 16:41:12.774] $GNGGA,74112.2,3713.9742608690003,N,13701.559421789,E,4,8,2.19,96.902,M,37.565,M,5.2,3006*5F,37.232904347816664,137.02599036315,679723.4728010421,4122632.7582578524
1302,[2021-02-22 16:41:12.867] $GNGGA,74112.3,3713.974261957,N,13701.559419872,E,4,8,2.19,96.9,M,37.565,M,5.3,3006*50,37.23290436595,137.02599033119998,679723.4699234077,4122632.760209192
1303,[2021-02-22 16:41:12.992] $GNGGA,74112.4,3713.97426017,N,13701.55941992,E,4,8,2.19,96.90700000000001,M,37.565,M,5.4,3006*5D,37.23290433616667,137.025990332,679723.4700651151,4122632.756906061
1304,[2021-02-22 16:41:13.071] $GNGGA,74112.5,3713.974259795,N,13701.559420926002,E,4,8,2.19,96.914,M,37.565,M,5.5,3006*54,37.232904329916664,137.02599034876673,679723.4715674856,4122632.7562444233
1305,[2021-02-22 16:41:13.180] $GNGGA,74112.6,3713.97425936,N,13701.559418295,E,4,8,2.19,96.916,M,37.565,M,5.6,3006*50,37.23290432266666,137.02599030491666,679723.4676943735,4122632.7553567183
1306,[2021-02-22 16:41:13.274] $GNGGA,74112.7,3713.97426001,N,13701.55941734,E,4,8,2.19,96.915,M,37.565,M,5.7,3006*5B,37.2329043335,137.02599028900002,679723.4662565378,4122632.756528523
1307,[2021-02-22 16:41:13.399] $GNGGA,74112.8,3713.9742602109995,N,13701.559416153,E,4,8,2.19,96.915,M,37.565,M,5.8,3006*59,37.23290433685,137.02599026921666,679723.4644934237,4122632.7568626595
1308,[2021-02-22 16:41:13.477] $GNGGA,74112.9,3713.974259459,N,13701.559412963,E,4,8,2.19,96.91799999999999,M,37.565,M,5.9,3006*5B,37.23290432431667,137.02599021605002,679723.4598062993,4122632.755371047
1309,[2021-02-22 16:41:13.571] $GNGGA,74113.0,3713.974258973,N,13701.559409911999,E,4,8,2.19,96.92299999999999,M,37.565,M,6.0,3006*59,37.23290431621666,137.0259901652,679723.455314176,4122632.7543757386
1310,[2021-02-22 16:41:13.680] $GNGGA,74113.1,3713.974258683,N,13701.559410501,E,4,8,2.19,96.92299999999999,M,37.565,M,6.1,3006*5F,37.23290431138333,137.02599017501666,679723.4561965792,4122632.753858092
1311,[2021-02-22 16:41:13.774] $GNGGA,74113.2,3713.9742587940004,N,13701.559412926,E,4,8,2.19,96.92,M,37.565,M,6.2,3006*50,37.23290431323334,137.02599021543332,679723.4597779084,4122632.7541401093
1312,[2021-02-22 16:41:13.899] $GNGGA,74113.3,3713.974258676,N,13701.559413132,E,4,8,2.19,96.92399999999999,M,37.565,M,6.3,3006*55,37.232904311266665,137.02599021886667,679723.4600871818,4122632.753928414
1313,[2021-02-22 16:41:13.977] $GNGGA,74113.4,3713.97425921,N,13701.559411971999,E,4,8,2.19,96.92399999999999,M,37.565,M,6.4,3006*5E,37.23290432016667,137.0259901995333,679723.4583508113,4122632.754879213
1314,[2021-02-22 16:41:14.071] $GNGGA,74113.5,3713.9742609570003,N,13701.559412346001,E,4,8,2.19,96.921,M,37.565,M,6.5,3006*57,37.23290434928333,137.02599020576667,679723.4588346786,4122632.7581217294
1315,[2021-02-22 16:41:14.180] $GNGGA,74113.6,3713.97426034,N,13701.559410861999,E,4,8,2.19,96.926,M,37.565,M,6.6,3006*53,37.232904339,137.0259901810333,679723.4566647824,4122632.7569337618
1316,[2021-02-22 16:41:14.274] $GNGGA,74113.7,3713.974259218,N,13701.559410515,E,4,8,2.19,96.927,M,37.565,M,6.7,3006*59,37.2329043203,137.02599017525,679723.4561961056,4122632.754847896
1317,[2021-02-22 16:41:14.399] $GNGGA,74113.8,3713.97425927,N,13701.559411903001,E,4,8,2.19,96.921,M,37.565,M,6.8,3006*5B,37.23290432116667,137.02599019838334,679723.4582464132,4122632.754987987
1318,[2021-02-22 16:41:14.477] $GNGGA,74113.9,3713.974258323,N,13701.559411162,E,4,8,2.19,96.928,M,37.565,M,6.9,3006*5B,37.232904305383336,137.02599018603334,679723.4571882165,4122632.7532132734
1319,[2021-02-22 16:41:14.570] $GNGGA,74114.0,3713.9742575759997,N,13701.559409294,E,4,8,2.19,96.92399999999999,M,37.565,M,7.0,3006*5B,37.23290429293333,137.02599015489997,679723.4544556657,4122632.751772745
1320,[2021-02-22 16:41:14.680] $GNGGA,74114.1,3713.974255979,N,13701.559406475,E,4,8,2.19,96.926,M,37.565,M,2.1,3006*5B,37.232904266316666,137.02599010791664,679723.4503505662,4122632.74873024
1321,[2021-02-22 16:41:14.774] $GNGGA,74114.2,3713.9742565190004,N,13701.559408452,E,4,8,2.19,96.927,M,37.565,M,2.2,3006*58,37.23290427531668,137.02599014086664,679723.45325248,4122632.7497914173
1322,[2021-02-22 16:41:14.899] $GNGGA,74114.3,3713.9741970890004,N,13701.55922131,E,4,9,1.3,97.26700000000001,M,37.565,M,2.3,3006*51,37.23290328481668,137.02598702183334,679723.1788874901,4122632.6339663076
1323,[2021-02-22 16:41:14.977] $GNGGA,74114.4,3713.974197956,N,13701.559223448001,E,4,9,1.3,97.26700000000001,M,37.565,M,2.4,3006*52,37.23290329926667,137.0259870574667,679723.1820145266,4122632.6356372912
1324,[2021-02-22 16:41:15.070] $GNGGA,74114.5,3713.974256908,N,13701.559399618,E,4,9,1.3,96.931,M,37.565,M,2.5,3006*59,37.232904281799996,137.02598999363335,679723.4401747009,4122632.750231196
1325,[2021-02-22 16:41:15.180] $GNGGA,74114.6,3713.9742568459997,N,13701.559403661002,E,4,9,1.3,96.92299999999999,M,37.565,M,2.6,3006*5B,37.232904280766654,137.0259900610167,679723.446155335,4122632.750244498
1326,[2021-02-22 16:41:15.274] $GNGGA,74114.7,3713.9742563570003,N,13701.559401981001,E,4,9,1.3,96.928,M,37.565,M,2.7,3006*58,37.23290427261667,137.02599003301668,679723.4436905578,4122632.7492870353
1327,[2021-02-22 16:41:15.399] $GNGGA,74114.8,3713.9742588709996,N,13701.559411976,E,4,9,1.3,96.89399999999999,M,37.565,M,2.8,3006*56,37.23290431451665,137.02599019960002,679723.4583701484,4122632.7542524347
1328,[2021-02-22 16:41:15.477] $GNGGA,74114.9,3713.974255504,N,13701.559401633,E,4,9,1.3,96.93700000000001,M,37.565,M,2.9,3006*53,37.232904258400005,137.02599002721666,679723.4432097505,4122632.747698591
1329,[2021-02-22 16:41:15.570] $GNGGA,74115.0,3713.9742543009997,N,13701.55940135,E,4,9,1.3,96.939,M,37.565,M,3.0,3006*5F,37.23290423834999,137.0259900225,679723.4428389102,4122632.7454649573
1330,[2021-02-22 16:41:15.680] $GNGGA,74115.1,3713.9742566570003,N,13701.559414382,E,4,9,1.3,96.90100000000001,M,37.565,M,3.1,3006*5B,37.23290427761667,137.0259902397,679723.4620154096,4122632.7502342933
1331,[2021-02-22 16:41:15.789] $GNGGA,74115.2,3713.974252343,N,13701.559396625,E,4,9,1.3,96.958,M,37.565,M,3.2,3006*56,37.23290420571667,137.02598994375,679723.4359297946,4122632.7416945426
1332,[2021-02-22 16:41:15.867] $GNGGA,74115.3,3713.9742568240003,N,13701.559411444,E,4,9,1.3,96.90100000000001,M,37.565,M,3.3,3006*59,37.23290428040001,137.0259901907333,679723.4576645256,4122632.750450139
1333,[2021-02-22 16:41:15.977] $GNGGA,74115.4,3713.974254225,N,13701.559410798998,E,4,9,1.3,96.90299999999999,M,37.565,M,3.4,3006*50,37.23290423708333,137.0259901799833,679723.456813668,4122632.7456234638
1334,[2021-02-22 16:41:16.070] $GNGGA,74115.5,3713.9742528190004,N,13701.559399868,E,4,10,1.19,96.939,M,37.565,M,3.5,3006*5E,37.23290421365001,137.0259899978,679723.4407062114,4122632.742677434
1335,[2021-02-22 16:41:16.195] $GNGGA,74115.6,3713.974256307,N,13701.559409229,E,4,10,1.19,96.911,M,37.565,M,3.6,3006*55,37.23290427178333,137.02599015381668,679723.4544097859,4122632.749423961
1336,[2021-02-22 16:41:16.273] $GNGGA,74115.7,3713.974257452,N,13701.559409786001,E,4,10,1.19,96.91,M,37.565,M,3.7,3006*52,37.232904290866664,137.0259901631,679723.4551880718,4122632.7515590074
1337,[2021-02-22 16:41:16.367] $GNGGA,74115.8,3713.974258705,N,13701.559408178,E,4,10,1.19,96.913,M,37.565,M,3.8,3006*59,37.232904311750005,137.02599013629998,679723.452760807,4122632.753825255
1338,[2021-02-22 16:41:16.477] $GNGGA,74115.9,3713.974259122,N,13701.559411065,E,4,10,1.19,96.914,M,37.565,M,3.9,3006*59,37.2329043187,137.02599018441666,679723.4570131598,4122632.754687772
1339,[2021-02-22 16:41:16.586] $GNGGA,74116.0,3713.9742587309997,N,13701.559410726,E,4,10,1.19,96.92,M,37.565,M,4.0,3006*5E,37.23290431218333,137.02599017876668,679723.4565273775,4122632.753953976
1340,[2021-02-22 16:41:16.680] $GNGGA,74116.1,3713.97425997,N,13701.559410345,E,4,10,1.19,96.919,M,37.565,M,4.1,3006*5F,37.232904332833336,137.0259901724167,679723.4559149714,4122632.7562331683
1341,[2021-02-22 16:41:16.773] $GNGGA,74116.2,3713.974260065,N,13701.559411938,E,4,10,1.19,96.90899999999999,M,37.565,M,4.2,3006*58,37.23290433441667,137.0259901989667,679723.4582666989,4122632.756459266
1342,[2021-02-22 16:41:16.867] $GNGGA,74116.3,3713.974262047,N,13701.559414667,E,4,10,1.19,96.905,M,37.565,M,4.3,3006*56,37.232904367450004,137.02599024444999,679723.4622234786,4122632.7602108936
1343,[2021-02-22 16:41:16.992] $GNGGA,74116.4,3713.97426774,N,13701.559395899,E,4,10,1.19,96.84899999999999,M,37.565,M,4.4,3006*5B,37.23290446233334,137.02598993165,679723.4342468565,4122632.770144818
1344,[2021-02-22 16:41:17.070] $GNGGA,74116.5,3713.974265091,N,13701.559417237,E,4,10,1.19,96.899,M,37.565,M,4.5,3006*5C,37.232904418183324,137.02599028728335,679723.4659031209,4122632.765921416
1345,[2021-02-22 16:41:17.180] $GNGGA,74116.6,3713.974266062,N,13701.559419926001,E,4,10,1.19,96.876,M,37.565,M,4.6,3006*57,37.23290443436667,137.02599033210004,679723.4698407761,4122632.7678021654
1346,[2021-02-22 16:41:17.273] $GNGGA,74116.7,3713.974265522,N,13701.559418785,E,4,10,1.19,96.895,M,37.565,M,4.7,3006*5E,37.23290442536668,137.02599031308335,679723.4681750119,4122632.766767448
1347,[2021-02-22 16:41:17.398] $GNGGA,74116.8,3713.974266472,N,13701.559416981001,E,4,10,1.19,96.89399999999999,M,37.565,M,4.8,3006*5C,37.232904441200006,137.02599028301668,679723.4654699259,4122632.7684671623
1348,[2021-02-22 16:41:17.477] $GNGGA,74116.9,3713.974266949,N,13701.559418972,E,4,10,1.19,96.89399999999999,M,37.565,M,4.9,3006*5B,37.232904449150006,137.0259903162,679723.4683950336,4122632.769412279
1349,[2021-02-22 16:41:17.570] $GNGGA,74117.0,3713.97426546,N,13701.559417253,E,4,10,1.19,96.899,M,37.565,M,5.0,3006*54,37.232904424333334,137.02599028755,679723.4659121728,4122632.7666043052
1350,[2021-02-22 16:41:17.680] $GNGGA,74117.1,3713.97426712,N,13701.559420454,E,4,10,1.19,96.891,M,37.565,M,5.1,3006*5A,37.23290445200001,137.02599034089997,679723.4705796194,4122632.769775408
1351,[2021-02-22 16:41:17.789] $GNGGA,74117.2,3713.9742667620003,N,13701.559423446999,E,4,10,1.19,96.89200000000001,M,37.565,M,5.2,3006*59,37.232904446033345,137.02599039078333,679723.4750193885,4122632.7692080927
1352,[2021-02-22 16:41:17.867] $GNGGA,74117.3,3713.9742687659996,N,13701.559426697,E,4,10,1.19,96.881,M,37.565,M,5.3,3006*5B,37.23290447943333,137.02599044495,679723.4797456771,4122632.7730168942
1353,[2021-02-22 16:41:17.976] $GNGGA,74117.4,3713.974267756,N,13701.559423798,E,4,10,1.19,96.88600000000001,M,37.565,M,5.4,3006*5B,37.232904462600004,137.02599039663332,679723.4754990507,4122632.771057378
1354,[2021-02-22 16:41:18.070] $GNGGA,74117.5,3713.9742669340003,N,13701.55942872,E,4,9,1.3,96.88600000000001,M,37.565,M,5.5,3006*5B,37.2329044489,137.02599047866667,679723.4828094987,4122632.769693052
1355,[2021-02-22 16:41:18.180] $GNGGA,74117.6,3713.974266721,N,13701.559430463001,E,4,9,1.3,96.874,M,37.565,M,5.6,3006*51,37.23290444535,137.0259905077167,679723.4853952162,4122632.7693543206
1356,[2021-02-22 16:41:18.289] $GNGGA,74117.7,3713.974266784,N,13701.559429186002,E,4,9,1.3,96.87899999999999,M,37.565,M,5.7,3006*55,37.232904446400006,137.0259904864334,679723.4835044902,4122632.76943041
1357,[2021-02-22 16:41:18.367] $GNGGA,74117.8,3713.974264432,N,13701.559427843998,E,4,9,1.3,96.889,M,37.565,M,5.8,3006*5F,37.2329044072,137.02599046406664,679723.4816132316,4122632.7650384465
1358,[2021-02-22 16:41:18.476] $GNGGA,74117.9,3713.974264405,N,13701.559427435,E,4,9,1.3,96.89,M,37.565,M,5.9,3006*59,37.23290440675,137.02599045725,679723.4810095351,4122632.7649755725
1359,[2021-02-22 16:41:18.570] $GNGGA,74118.0,3713.974262865,N,13701.559430686999,E,4,9,1.3,96.891,M,37.565,M,6.0,3006*55,37.23290438108333,137.02599051144998,679723.485879056,4122632.7622306133
1360,[2021-02-22 16:41:18.680] $GNGGA,74118.1,3713.974262602,N,13701.559433536,E,4,9,1.3,96.89200000000001,M,37.565,M,1.1,3006*54,37.232904376700006,137.02599055893333,679723.4901021377,4122632.761834424
1361,[2021-02-22 16:41:18.789] $GNGGA,74118.2,3713.9742640140003,N,13701.559435816001,E,4,9,1.3,96.891,M,37.565,M,1.2,3006*59,37.23290440023333,137.02599059693333,679723.4934175676,4122632.764517755
1362,[2021-02-22 16:41:18.867] $GNGGA,74118.3,3713.97426405,N,13701.559440423998,E,4,9,1.3,96.891,M,37.565,M,1.3,3006*56,37.23290440083333,137.0259906737333,679723.5002297562,4122632.7647301666
1363,[2021-02-22 16:41:18.976] $GNGGA,74118.4,3713.97426471,N,13701.559441161002,E,4,9,1.3,96.89399999999999,M,37.565,M,1.4,3006*55,37.23290441183333,137.02599068601668,679723.5012934007,4122632.765974012
1364,[2021-02-22 16:41:19.070] $GNGGA,74118.5,3713.9742628709996,N,13701.559435913001,E,4,8,2.19,96.914,M,37.565,M,1.5,3006*55,37.232904381183324,137.02599059855,679723.4936062404,4122632.762407106
1365,[2021-02-22 16:41:19.180] $GNGGA,74118.6,3713.974264112,N,13701.559436303001,E,4,9,1.56,96.919,M,37.565,M,1.6,3006*53,37.23290440186667,137.02599060505,679723.4941337913,4122632.7647143984
1366,[2021-02-22 16:41:19.289] $GNGGA,74118.7,3713.9742641129997,N,13701.559433995,E,4,8,2.19,96.925,M,37.565,M,1.7,3006*54,37.23290440188333,137.02599056658335,679723.4907210317,4122632.7646432
1367,[2021-02-22 16:41:19.367] $GNGGA,74118.8,3713.9742647470002,N,13701.559432406999,E,4,8,2.19,96.926,M,37.565,M,1.8,3006*57,37.232904412450004,137.02599054011662,679723.4883478377,4122632.765765382
1368,[2021-02-22 16:41:19.476] $GNGGA,74118.9,3713.974263899,N,13701.559431413001,E,4,8,2.19,96.93700000000001,M,37.565,M,1.9,3006*5A,37.23290439831667,137.02599052355,679723.48691163,4122632.7641657395
1369,[2021-02-22 16:41:19.570] $GNGGA,74119.0,3713.974261959,N,13701.559432126001,E,4,9,2.17,96.945,M,37.565,M,2.0,3006*5D,37.23290436598334,137.02599053543335,679723.4880426959,4122632.7606007163
1370,[2021-02-22 16:41:19.680] $GNGGA,74119.1,3713.974261062,N,13701.559431134,E,4,9,2.17,96.956,M,37.565,M,2.1,3006*5E,37.23290435103334,137.02599051889996,679723.486611376,4122632.7589105223
1371,[2021-02-22 16:41:19.789] $GNGGA,74119.2,3713.974259344,N,13701.559435058001,E,4,9,2.17,96.958,M,37.565,M,2.2,3006*53,37.232904322399996,137.02599058430002,679723.4924816019,4122632.755857662
1372,[2021-02-22 16:41:19.867] $GNGGA,74119.3,3713.974258215,N,13701.559436251999,E,4,9,2.17,96.964,M,37.565,M,2.3,3006*53,37.23290430358333,137.02599060419996,679723.4942917913,4122632.7538076215
1373,[2021-02-22 16:41:19.976] $GNGGA,74119.4,3713.974256403,N,13701.559435075,E,4,9,2.17,96.97200000000001,M,37.565,M,2.4,3006*5F,37.23290427338333,137.02599058458335,679723.4926231478,4122632.750419488
1374,[2021-02-22 16:41:20.070] $GNGGA,74119.5,3713.9742550359997,N,13701.559434238,E,4,9,2.17,96.971,M,37.565,M,2.5,3006*57,37.232904250599994,137.02599057063335,679723.4914396277,4122632.7478650417
1375,[2021-02-22 16:41:20.195] $GNGGA,74119.6,3713.974255066,N,13701.559431548001,E,4,9,2.17,96.96799999999999,M,37.565,M,2.6,3006*5F,37.232904251099995,137.0259905258,679723.4874608729,4122632.7478353856
1376,[2021-02-22 16:41:20.273] $GNGGA,74119.7,3713.974256513,N,13701.559430133,E,4,9,2.17,96.955,M,37.565,M,2.7,3006*5C,37.23290427521667,137.02599050221667,679723.48531131,4122632.7504665004
1377,[2021-02-22 16:41:20.367] $GNGGA,74119.8,3713.9742580409998,N,13701.559426673,E,4,9,2.17,96.947,M,37.565,M,2.8,3006*57,37.23290430068334,137.02599044455002,679723.4801347042,4122632.7531826836
1378,[2021-02-22 16:41:20.476] $GNGGA,74119.9,3713.974259044,N,13701.559421161,E,4,9,2.17,96.941,M,37.565,M,2.9,3006*56,37.2329043174,137.02599035268332,679723.471944689,4122632.7548630554
1379,[2021-02-22 16:41:20.586] $GNGGA,74120.0,3713.974259429,N,13701.559419288,E,4,9,2.17,96.944,M,37.565,M,3.0,3006*58,37.23290432381666,137.02599032146668,679723.4691599411,4122632.7555157463
1380,[2021-02-22 16:41:20.679] $GNGGA,74120.1,3713.974259106,N,13701.55941737,E,4,9,2.17,96.947,M,37.565,M,3.1,3006*5B,37.232904318433334,137.02599028949996,679723.4663366731,4122632.754857729
1381,[2021-02-22 16:41:20.773] $GNGGA,74120.2,3713.974259132,N,13701.55941599,E,4,9,2.17,96.947,M,37.565,M,3.2,3006*5A,37.232904318866666,137.02599026649997,679723.4642951093,4122632.7548621353
1382,[2021-02-22 16:41:20.867] $GNGGA,74120.3,3713.9742593829997,N,13701.559417591001,E,4,9,2.17,96.945,M,37.565,M,3.3,3006*5F,37.232904323049986,137.02599029318333,679723.466652493,4122632.755376972
1383,[2021-02-22 16:41:20.992] $GNGGA,74120.4,3713.974259904,N,13701.559417246,E,4,9,2.17,96.944,M,37.565,M,3.4,3006*56,37.23290433173333,137.02599028743333,679723.4661217384,4122632.7563295243
1384,[2021-02-22 16:41:21.070] $GNGGA,74120.5,3713.974258267,N,13701.559417206001,E,4,9,2.17,96.947,M,37.565,M,3.5,3006*5E,37.23290430445,137.0259902867667,679723.4661273897,4122632.753301
1385,[2021-02-22 16:41:21.179] $GNGGA,74120.6,3713.9742557940003,N,13701.559417937,E,4,9,2.17,96.95,M,37.565,M,3.6,3006*55,37.23290426323334,137.02599029895,679723.467306165,4122632.7487508827
1386,[2021-02-22 16:41:21.273] $GNGGA,74120.7,3713.974253974,N,13701.559419738,E,4,9,2.17,96.95299999999999,M,37.565,M,3.7,3006*5F,37.2329042329,137.02599032896663,679723.4700412469,4122632.7454422056
1387,[2021-02-22 16:41:21.398] $GNGGA,74120.8,3713.974253905,N,13701.559419554,E,4,9,2.17,96.946,M,37.565,M,3.8,3006*55,37.23290423175,137.02599032589998,679723.469771909,4122632.745308784
1388,[2021-02-22 16:41:21.476] $GNGGA,74120.9,3713.974253685,N,13701.559418543,E,4,9,2.17,96.954,M,37.565,M,3.9,3006*56,37.232904228083335,137.02599030904997,679723.4682857011,4122632.7448699456
1389,[2021-02-22 16:41:21.570] $GNGGA,74121.0,3713.974253965,N,13701.559419999,E,4,9,2.17,96.95700000000001,M,37.565,M,4.0,3006*58,37.23290423275,137.02599033331668,679723.4704275355,4122632.7454338227
1390,[2021-02-22 16:41:21.679] $GNGGA,74121.1,3713.9742534029997,N,13701.559421593998,E,4,9,2.17,96.958,M,37.565,M,4.1,3006*50,37.23290422338333,137.02599035989996,679723.4728082208,4122632.744445011
1391,[2021-02-22 16:41:21.789] $GNGGA,74121.2,3713.974255864,N,13701.559423394,E,4,9,2.17,96.954,M,37.565,M,4.2,3006*53,37.232904264400005,137.0259903899,679723.4753723815,4122632.7490530415
1392,[2021-02-22 16:41:21.867] $GNGGA,74121.3,3713.9742590409996,N,13701.559422264,E,4,8,2.19,96.959,M,37.565,M,4.3,3006*5D,37.23290431734999,137.02599037106668,679723.4735757592,4122632.754892415
1393,[2021-02-22 16:41:21.976] $GNGGA,74121.4,3713.974261978,N,13701.559405418999,E,4,9,1.3,96.90700000000001,M,37.565,M,4.4,3006*5E,37.232904366300005,137.02599009031664,679723.4485516609,4122632.759790607
1394,[2021-02-22 16:41:22.070] $GNGGA,74121.5,3713.974259859,N,13701.559421215,E,4,9,1.56,96.954,M,37.565,M,4.5,3006*5D,37.23290433098334,137.02599035358335,679723.4719922788,4122632.756371923
1395,[2021-02-22 16:41:22.195] $GNGGA,74121.6,3713.974265578,N,13701.559412916002,E,4,10,1.19,96.87,M,37.565,M,4.6,3006*50,37.232904426299996,137.0259902152667,679723.4594946026,4122632.766685259
1396,[2021-02-22 16:41:22.273] $GNGGA,74121.7,3713.974265767,N,13701.55941407,E,4,10,1.19,96.85700000000001,M,37.565,M,4.7,3006*56,37.232904429449995,137.02599023449997,679723.4611934795,4122632.767071293
1397,[2021-02-22 16:41:22.367] $GNGGA,74121.8,3713.974265097,N,13701.559412986999,E,4,11,1.14,96.86399999999999,M,37.565,M,4.8,3006*55,37.23290441828333,137.02599021644997,679723.459618622,4122632.7657980053
1398,[2021-02-22 16:41:22.476] $GNGGA,74121.9,3713.974264013,N,13701.559432585,E,4,11,1.14,96.90899999999999,M,37.565,M,4.9,3006*5E,37.23290440021666,137.02599054308334,679723.4886400949,4122632.7644136483
1399,[2021-02-22 16:41:22.570] $GNGGA,74122.0,3713.974266644,N,13701.559415001,E,4,10,1.19,96.851,M,37.565,M,5.0,3006*56,37.23290444406667,137.02599025001666,679723.4625353897,4122632.768722572
1400,[2021-02-22 16:41:22.695] $GNGGA,74122.1,3713.974262129,N,13701.55942907,E,4,10,1.19,96.92200000000001,M,37.565,M,5.1,3006*52,37.232904368816676,137.0259904845,679723.4835172141,4122632.7608183734
1401,[2021-02-22 16:41:22.773] $GNGGA,74122.2,3713.97426246,N,13701.559426865,E,4,10,1.19,96.928,M,37.565,M,5.2,3006*53,37.23290437433333,137.02599044775002,679723.4802436928,4122632.761360696
1402,[2021-02-22 16:41:22.867] $GNGGA,74122.3,3713.9742613709996,N,13701.55942638,E,4,10,1.19,96.934,M,37.565,M,5.3,3006*5A,37.23290435618333,137.02599043966663,679723.4795696472,4122632.7593314894
1403,[2021-02-22 16:41:22.976] $GNGGA,74122.4,3713.9742623479997,N,13701.559428041,E,4,10,1.19,96.935,M,37.565,M,5.4,3006*52,37.23290437246666,137.02599046735,679723.4819870152,4122632.761190796
1404,[2021-02-22 16:41:23.070] $GNGGA,74122.5,3713.974262023,N,13701.559427438999,E,4,10,1.19,96.944,M,37.565,M,5.5,3006*5E,37.232904367050004,137.02599045731665,679723.4811097331,4122632.760570731
1405,[2021-02-22 16:41:23.195] $GNGGA,74122.6,3713.974260974,N,13701.559423705,E,4,9,1.56,96.95,M,37.565,M,5.6,3006*59,37.232904349566674,137.02599039508334,679723.4756299794,4122632.758512668
1406,[2021-02-22 16:41:23.273] $GNGGA,74122.7,3713.974259979,N,13701.559421769,E,4,9,1.56,96.963,M,37.565,M,5.7,3006*56,37.23290433298334,137.02599036281666,679723.4728066978,4122632.7566113677
1407,[2021-02-22 16:41:23.367] $GNGGA,74122.8,3713.974247599,N,13701.559379547,E,4,9,1.56,96.96600000000001,M,37.565,M,5.8,3006*5A,37.232904126650006,137.02598965911665,679723.4108652001,4122632.7323810933
1408,[2021-02-22 16:41:23.476] $GNGGA,74122.9,3713.974258328,N,13701.559418501001,E,4,9,1.56,96.976,M,37.565,M,5.9,3006*5B,37.23290430546666,137.02599030835,679723.4680398244,4122632.7534547895
1409,[2021-02-22 16:41:23.570] $GNGGA,74123.0,3713.97425876,N,13701.559415531001,E,4,9,1.56,96.98200000000001,M,37.565,M,6.0,3006*54,37.23290431266666,137.02599025885,679723.4636311363,4122632.7541596773
1410,[2021-02-22 16:41:23.695] $GNGGA,74123.1,3713.974250322,N,13701.55936691,E,4,9,1.56,96.988,M,37.565,M,1.1,3006*5F,37.23290417203333,137.02598944849998,679723.3920717326,4122632.737016715
1411,[2021-02-22 16:41:23.773] $GNGGA,74123.2,3713.9742508090003,N,13701.559365878,E,4,9,1.56,96.984,M,37.565,M,1.2,3006*5D,37.23290418015,137.02598943130002,679723.3905264942,4122632.73788465
1412,[2021-02-22 16:41:23.867] $GNGGA,74123.3,3713.974251087,N,13701.559366705,E,4,9,1.56,96.984,M,37.565,M,1.3,3006*54,37.23290418478334,137.0259894450833,679723.3917383283,4122632.7384249214
1413,[2021-02-22 16:41:23.976] $GNGGA,74123.4,3713.974261425,N,13701.559405242,E,4,9,1.56,96.98100000000001,M,37.565,M,1.4,3006*5A,37.23290435708333,137.02599008736667,679723.448311833,4122632.758762355
1414,[2021-02-22 16:41:24.070] $GNGGA,74123.5,3713.974261404,N,13701.559406363998,E,4,9,1.56,96.98299999999999,M,37.565,M,1.5,3006*5D,37.232904356733336,137.02599010606664,679723.4499717044,4122632.758759031
1415,[2021-02-22 16:41:24.195] $GNGGA,74123.6,3713.974261224,N,13701.559405311002,E,4,9,1.56,96.98,M,37.565,M,1.6,3006*5B,37.23290435373333,137.0259900885167,679723.4484218166,4122632.7583928355
1416,[2021-02-22 16:41:24.273] $GNGGA,74123.7,3713.9742606520003,N,13701.559404897,E,4,9,1.56,96.979,M,37.565,M,1.7,3006*5D,37.2329043442,137.02599008161667,679723.4478322947,4122632.757321949
1417,[2021-02-22 16:41:24.367] $GNGGA,74123.8,3713.9742597629997,N,13701.559406084,E,4,9,1.56,96.984,M,37.565,M,1.8,3006*5E,37.23290432938333,137.02599010139997,679723.4496226367,4122632.7557155127
1418,[2021-02-22 16:41:24.476] $GNGGA,74123.9,3713.974259138,N,13701.559406007,E,4,9,1.56,96.98700000000001,M,37.565,M,1.9,3006*5E,37.23290431896667,137.02599010011664,679723.4495335207,4122632.75455728
1419,[2021-02-22 16:41:24.601] $GNGGA,74124.0,3713.9742581309997,N,13701.559409189,E,4,9,1.56,96.991,M,37.565,M,2.0,3006*5D,37.23290430218333,137.02599015315,679723.4542784404,4122632.7527957694
1420,[2021-02-22 16:41:24.679] $GNGGA,74124.1,3713.974257498,N,13701.55941374,E,4,9,1.56,96.98899999999999,M,37.565,M,2.1,3006*55,37.23290429163333,137.025990229,679723.461032829,4122632.7517692135
1421,[2021-02-22 16:41:24.773] $GNGGA,74124.2,3713.974256431,N,13701.559419897,E,4,11,1.14,96.98,M,37.565,M,2.2,3006*5E,37.23290427385,137.02599033161667,679723.4701791032,4122632.7499909014
1422,[2021-02-22 16:41:24.882] $GNGGA,74124.3,3713.974256937,N,13701.559413363,E,4,11,1.14,96.99799999999999,M,37.565,M,2.3,3006*56,37.232904282283336,137.02599022271667,679723.4604975843,4122632.750719841
1423,[2021-02-22 16:41:24.992] $GNGGA,74124.4,3713.974261681,N,13701.559420747,E,4,11,1.14,96.97200000000001,M,37.565,M,2.4,3006*56,37.232904361349995,137.02599034578333,679723.4712281518,4122632.759726484
1424,[2021-02-22 16:41:25.070] $GNGGA,74124.5,3713.974262721,N,13701.559424203,E,4,11,1.14,96.96700000000001,M,37.565,M,2.5,3006*5B,37.23290437868333,137.02599040338333,679723.4762971975,4122632.7617591065
1425,[2021-02-22 16:41:25.179] $GNGGA,74124.6,3713.97426341,N,13701.559422656,E,4,11,1.14,96.973,M,37.565,M,2.6,3006*5C,37.23290439016666,137.0259903776,679723.4739824559,4122632.7629842935
1426,[2021-02-22 16:41:25.273] $GNGGA,74124.7,3713.974263075,N,13701.559423661001,E,4,11,1.14,96.977,M,37.565,M,2.7,3006*5A,37.232904384583335,137.02599039435003,679723.4754817599,4122632.762396596
1427,[2021-02-22 16:41:25.398] $GNGGA,74124.8,3713.974257409,N,13701.559415943,E,4,10,1.52,97.007,M,37.565,M,2.8,3006*54,37.23290429015,137.02599026571667,679723.4642938143,4122632.7516743504
1428,[2021-02-22 16:41:25.476] $GNGGA,74124.9,3713.974256587,N,13701.559414538999,E,4,10,1.52,97.007,M,37.565,M,2.9,3006*52,37.23290427645,137.02599024231665,679723.462250327,4122632.7501098146
1429,[2021-02-22 16:41:25.570] $GNGGA,74125.0,3713.9742569679997,N,13701.559413862,E,4,10,1.52,97.006,M,37.565,M,3.0,3006*5A,37.23290428279999,137.02599023103335,679723.4612342031,4122632.7507929597
1430,[2021-02-22 16:41:25.679] $GNGGA,74125.1,3713.974259017,N,13701.559413457,E,4,10,1.52,96.99799999999999,M,37.565,M,3.1,3006*51,37.232904316950005,137.02599022428333,679723.4605542452,4122632.754569302
1431,[2021-02-22 16:41:25.788] $GNGGA,74125.2,3713.97425924,N,13701.559413368,E,4,10,1.52,96.99799999999999,M,37.565,M,3.2,3006*5A,37.23290432066666,137.0259902228,679723.4604138207,4122632.754978873
1432,[2021-02-22 16:41:25.867] $GNGGA,74125.3,3713.9742598529997,N,13701.559418226001,E,4,10,1.52,96.98200000000001,M,37.565,M,3.3,3006*59,37.23290433088333,137.02599030376666,679723.4675728318,4122632.7562662284
1433,[2021-02-22 16:41:25.976] $GNGGA,74125.4,3713.9742621570003,N,13701.559418039,E,4,10,1.52,96.97,M,37.565,M,3.4,3006*5D,37.23290436928333,137.02599030065,679723.4672051285,4122632.7605210333
1434,[2021-02-22 16:41:26.070] $GNGGA,74125.5,3713.974261001,N,13701.559416246,E,4,9,2.17,96.979,M,37.565,M,3.5,3006*5B,37.23290435001666,137.02599027076664,679723.4645996662,4122632.7583265277
1435,[2021-02-22 16:41:26.195] $GNGGA,74125.6,3713.974258987,N,13701.559411847,E,4,9,2.17,96.98299999999999,M,37.565,M,3.6,3006*5F,37.23290431645,137.02599019745,679723.4581748085,4122632.754462871
1436,[2021-02-22 16:41:26.273] $GNGGA,74125.7,3713.9742566709997,N,13701.559409808999,E,4,9,2.17,96.98200000000001,M,37.565,M,3.7,3006*55,37.23290427785,137.02599016348333,679723.4552529928,4122632.7501154533
1437,[2021-02-22 16:41:26.367] $GNGGA,74125.8,3713.9742556009996,N,13701.559409074,E,4,9,2.17,96.98,M,37.565,M,3.8,3006*51,37.23290426001667,137.02599015123332,679723.4542085364,4122632.748113469
1438,[2021-02-22 16:41:26.476] $GNGGA,74125.9,3713.974254815,N,13701.559409722,E,4,9,2.17,96.986,M,37.565,M,3.9,3006*59,37.232904246916675,137.02599016203334,679723.4551978138,4122632.74668045
1439,[2021-02-22 16:41:26.585] $GNGGA,74126.0,3713.9742542,N,13701.559408506999,E,4,9,2.17,96.992,M,37.565,M,4.0,3006*52,37.23290423666667,137.0259901417833,679723.4534255951,4122632.745504693
1440,[2021-02-22 16:41:26.679] $GNGGA,74126.1,3713.974255185,N,13701.559407779,E,4,10,1.52,96.995,M,37.565,M,4.1,3006*54,37.23290425308333,137.02599012964998,679723.452310153,4122632.747303186
1441,[2021-02-22 16:41:26.773] $GNGGA,74126.2,3713.974257847,N,13701.55940954,E,4,10,1.52,96.995,M,37.565,M,4.2,3006*57,37.23290429745,137.02599015899997,679723.4548086857,4122632.752281684
1442,[2021-02-22 16:41:26.867] $GNGGA,74126.3,3713.974258905,N,13701.559412188,E,4,10,1.52,96.98899999999999,M,37.565,M,4.3,3006*58,37.23290431508334,137.02599020313335,679723.4586822747,4122632.754322022
1443,[2021-02-22 16:41:26.976] $GNGGA,74126.4,3713.9742588629997,N,13701.559416395,E,4,10,1.52,96.99799999999999,M,37.565,M,4.4,3006*53,37.23290431438333,137.02599027325,679723.464904612,4122632.7543774997
1444,[2021-02-22 16:41:27.085] $GNGGA,74126.5,3713.974260507,N,13701.559418133998,E,4,10,1.52,96.98700000000001,M,37.565,M,4.5,3006*5E,37.23290434178333,137.0259903022333,679723.4674109097,4122632.7574727414
1445,[2021-02-22 16:41:27.179] $GNGGA,74126.6,3713.974260167,N,13701.559423227,E,4,10,1.52,96.988,M,37.565,M,4.6,3006*5A,37.23290433611667,137.02599038711665,679723.4749551265,4122632.7570051765
1446,[2021-02-22 16:41:27.273] $GNGGA,74126.7,3713.974259417,N,13701.55942346,E,4,10,1.52,96.993,M,37.565,M,4.7,3006*5D,37.23290432361667,137.025990391,679723.4753293376,4122632.7556255963
1447,[2021-02-22 16:41:27.366] $GNGGA,74126.8,3713.97426037,N,13701.559422245,E,4,11,1.14,96.991,M,37.565,M,4.8,3006*50,37.2329043395,137.02599037075,679723.4734950595,4122632.7573494995
1448,[2021-02-22 16:41:27.476] $GNGGA,74126.9,3713.9742491109996,N,13701.559390532,E,4,11,1.14,97.04700000000001,M,37.565,M,4.9,3006*54,37.23290415185,137.0259898422,679723.4270483145,4122632.735524855
1449,[2021-02-22 16:41:27.585] $GNGGA,74127.0,3713.9742604259995,N,13701.559425037,E,4,10,1.25,96.978,M,37.565,M,5.0,3006*50,37.23290434043332,137.0259904172833,679723.4776212277,4122632.7575414204
1450,[2021-02-22 16:41:27.679] $GNGGA,74127.1,3713.9742600659997,N,13701.559421091999,E,4,10,1.25,96.985,M,37.565,M,5.1,3006*59,37.232904334433336,137.02599035153332,679723.4718022087,4122632.756750829
1451,[2021-02-22 16:41:27.773] $GNGGA,74127.2,3713.974259388,N,13701.559413326999,E,4,10,1.25,97.001,M,37.565,M,5.2,3006*58,37.23290432313333,137.02599022211663,679723.4603473332,4122632.755251268
1452,[2021-02-22 16:41:27.866] $GNGGA,74127.3,3713.9742614009997,N,13701.559411205,E,4,10,1.25,96.99600000000001,M,37.565,M,5.3,3006*50,37.23290435668333,137.02599018675,679723.4571299661,4122632.758906695
1453,[2021-02-22 16:41:27.976] $GNGGA,74127.4,3713.9742589529997,N,13701.559398433,E,4,9,2.17,97.01899999999999,M,37.565,M,5.4,3006*50,37.232904315883324,137.02598997388333,679723.4383415554,4122632.7539754547
1454,[2021-02-22 16:41:28.085] $GNGGA,74127.5,3713.974257408,N,13701.559394973001,E,4,9,2.17,97.01799999999999,M,37.565,M,5.5,3006*58,37.23290429013334,137.02598991621667,679723.4332865861,4122632.751008826
1455,[2021-02-22 16:41:28.179] $GNGGA,74127.6,3713.974255945,N,13701.559394267,E,4,9,2.17,97.01899999999999,M,37.565,M,5.6,3006*51,37.23290426575,137.02598990445,679723.4323005668,4122632.748280994
1456,[2021-02-22 16:41:28.273] $GNGGA,74127.7,3713.974256963,N,13701.559392857,E,4,9,2.17,97.01,M,37.565,M,5.7,3006*50,37.23290428271666,137.02598988094996,679723.4301753755,4122632.7501189285
1457,[2021-02-22 16:41:28.366] $GNGGA,74127.8,3713.9742565770002,N,13701.559389278,E,4,9,2.17,97.01100000000001,M,37.565,M,5.8,3006*55,37.232904276283335,137.02598982130002,679723.4248985733,4122632.749291839
1458,[2021-02-22 16:41:28.476] $GNGGA,74127.9,3713.974257515,N,13701.559389798998,E,4,9,2.17,97.01,M,37.565,M,5.9,3006*5B,37.23290429191666,137.0259898299833,679723.4256318163,4122632.751042945
1459,[2021-02-22 16:41:28.601] $GNGGA,74128.0,3713.974256934,N,13701.559390585,E,4,10,1.52,97.007,M,37.565,M,6.0,3006*52,37.232904282233335,137.02598984308335,679723.4268170374,4122632.7499933946
1460,[2021-02-22 16:41:28.679] $GNGGA,74128.1,3713.974257735,N,13701.559400555,E,4,11,1.14,96.986,M,37.565,M,1.1,3006*5A,37.23290429558333,137.02599000924997,679723.4415274573,4122632.7517902
1461,[2021-02-22 16:41:28.773] $GNGGA,74128.2,3713.974259026,N,13701.559400044,E,4,11,1.14,96.98100000000001,M,37.565,M,1.2,3006*53,37.2329043171,137.02599000073332,679723.4407207705,4122632.7541614394
1462,[2021-02-22 16:41:28.882] $GNGGA,74128.3,3713.974244674,N,13701.559341848,E,4,11,1.14,97.075,M,37.565,M,1.3,3006*5B,37.2329040779,137.0259890308,679723.3552373903,4122632.72577884
1463,[2021-02-22 16:41:28.991] $GNGGA,74128.4,3713.974259993,N,13701.559403593,E,4,11,1.14,96.976,M,37.565,M,1.4,3006*50,37.23290433321667,137.02599005988336,679723.4459302223,4122632.756062009
1464,[2021-02-22 16:41:29.069] $GNGGA,74128.5,3713.9742455729997,N,13701.559345188001,E,4,11,1.14,97.06700000000001,M,37.565,M,1.5,3006*5C,37.232904092883324,137.0259890864667,679723.3601404973,4122632.727547041
1465,[2021-02-22 16:41:29.179] $GNGGA,74128.6,3713.974260528,N,13701.55940484,E,4,11,1.14,96.98,M,37.565,M,1.6,3006*5B,37.23290434213333,137.02599008066667,679723.4477529203,4122632.7570908344
1466,[2021-02-22 16:41:29.273] $GNGGA,74128.7,3713.9742485770003,N,13701.559351265,E,4,11,1.14,97.06,M,37.565,M,1.7,3006*57,37.23290414295,137.02598918774999,679723.3690073399,4122632.733294588
1467,[2021-02-22 16:41:29.398] $GNGGA,74128.8,3713.974248663,N,13701.559352904,E,4,11,1.14,97.059,M,37.565,M,1.8,3006*54,37.23290414438333,137.02598921506666,679723.3714274415,4122632.733505498
1468,[2021-02-22 16:41:29.476] $GNGGA,74128.9,3713.9742518790003,N,13701.559354103001,E,4,11,1.14,97.051,M,37.565,M,1.9,3006*58,37.23290419798334,137.02598923505,679723.3730730461,4122632.739490707
1469,[2021-02-22 16:41:29.569] $GNGGA,74129.0,3713.974252476,N,13701.559353835,E,4,11,1.14,97.04700000000001,M,37.565,M,2.0,3006*56,37.23290420793334,137.02598923058335,679723.3726531422,4122632.740586241
1470,[2021-02-22 16:41:29.679] $GNGGA,74129.1,3713.9742670040005,N,13701.559405885,E,4,11,1.14,96.958,M,37.565,M,2.1,3006*58,37.23290445006668,137.02599009808335,679723.44904178,4122632.7690998
1471,[2021-02-22 16:41:29.788] $GNGGA,74129.2,3713.974271592,N,13701.559407708999,E,4,11,1.14,96.946,M,37.565,M,2.2,3006*53,37.23290452653333,137.0259901284833,679723.4515572301,4122632.7776419907
1472,[2021-02-22 16:41:29.866] $GNGGA,74129.3,3713.974271209,N,13701.559406098999,E,4,11,1.14,96.948,M,37.565,M,2.3,3006*57,37.232904520149994,137.02599010165,679723.4491917661,4122632.7768827616
1473,[2021-02-22 16:41:29.976] $GNGGA,74129.4,3713.9742722540004,N,13701.55940593,E,4,11,1.14,96.948,M,37.565,M,2.4,3006*55,37.232904537566675,137.02599009883335,679723.4489005131,4122632.778809906
1474,[2021-02-22 16:41:30.069] $GNGGA,74129.5,3713.97427035,N,13701.559405312,E,4,11,1.14,96.956,M,37.565,M,2.5,3006*57,37.23290450583333,137.02599008853332,679723.4480620706,4122632.7752693305
1475,[2021-02-22 16:41:30.194] $GNGGA,74129.6,3713.974270182,N,13701.559405077,E,4,11,1.14,96.964,M,37.565,M,2.6,3006*5B,37.23290450303333,137.02599008461667,679723.4477212382,4122632.7749512154
1476,[2021-02-22 16:41:30.273] $GNGGA,74129.7,3713.974270628,N,13701.559405381999,E,4,11,1.14,96.965,M,37.565,M,2.7,3006*54,37.23290451046666,137.0259900897,679723.4481545734,4122632.775785643
1477,[2021-02-22 16:41:30.366] $GNGGA,74129.8,3713.974271925,N,13701.559402698998,E,4,11,1.14,96.96799999999999,M,37.565,M,2.8,3006*52,37.232904532083325,137.0259900449833,679723.4441360165,4122632.7780992356
1478,[2021-02-22 16:41:30.476] $GNGGA,74129.9,3713.974271759,N,13701.559402036999,E,4,11,1.14,96.97200000000001,M,37.565,M,2.9,3006*5E,37.23290452931667,137.02599003395,679723.4431637248,4122632.7777713058
1479,[2021-02-22 16:41:30.585] $GNGGA,74130.0,3713.974270953,N,13701.559398701002,E,4,11,1.14,96.98299999999999,M,37.565,M,3.0,3006*5A,37.23290451588333,137.02598997835003,679723.438262858,4122632.7761752107
1480,[2021-02-22 16:41:30.679] $GNGGA,74130.1,3713.974270505,N,13701.559399255,E,4,11,1.14,96.976,M,37.565,M,3.1,3006*5A,37.23290450841666,137.02598998758336,679723.4390997617,4122632.775364269
1481,[2021-02-22 16:41:30.772] $GNGGA,74130.2,3713.9742693709995,N,13701.559400881999,E,4,11,1.14,96.977,M,37.565,M,3.2,3006*51,37.23290448951666,137.02599001469997,679723.441550405,4122632.773318688
1482,[2021-02-22 16:41:30.882] $GNGGA,74130.3,3713.974269482,N,13701.559401092,E,4,11,1.14,96.96700000000001,M,37.565,M,3.3,3006*53,37.23290449136667,137.02599001819996,679723.4418565264,4122632.7735306034
1483,[2021-02-22 16:41:30.991] $GNGGA,74130.4,3713.974262007,N,13701.559394277,E,4,10,1.52,97.005,M,37.565,M,3.4,3006*5C,37.23290436678334,137.02598990461664,679723.4320754065,4122632.759491603
1484,[2021-02-22 16:41:31.069] $GNGGA,74130.5,3713.97426297,N,13701.559394373999,E,4,9,1.56,97.007,M,37.565,M,3.5,3006*59,37.23290438283334,137.02598990623332,679723.4321807203,4122632.7612755224
1485,[2021-02-22 16:41:31.179] $GNGGA,74130.6,3713.9742635509997,N,13701.559395253998,E,4,10,1.19,97.001,M,37.565,M,3.6,3006*50,37.23290439251666,137.02598992089995,679723.4334589314,4122632.7623778
1486,[2021-02-22 16:41:31.272] $GNGGA,74130.7,3713.974264037,N,13701.559403073,E,4,10,1.19,96.97399999999999,M,37.565,M,3.7,3006*57,37.23290440061667,137.02599005121667,679723.4450012554,4122632.7635240103
1487,[2021-02-22 16:41:31.382] $GNGGA,74130.8,3713.974264119,N,13701.559402903,E,4,10,1.19,96.971,M,37.565,M,3.8,3006*50,37.232904401983326,137.02599004838336,679723.444746641,4122632.7636702685
1488,[2021-02-22 16:41:31.491] $GNGGA,74130.9,3713.974265126,N,13701.5594024,E,4,10,1.19,96.97200000000001,M,37.565,M,3.9,3006*50,37.232904418766665,137.02599003999998,679723.4439630174,4122632.7655165675
1489,[2021-02-22 16:41:31.569] $GNGGA,74131.0,3713.9742649120003,N,13701.559405218,E,4,10,1.19,96.96700000000001,M,37.565,M,4.0,3006*54,37.232904415200004,137.0259900869667,679723.4481383252,4122632.765210011
1490,[2021-02-22 16:41:31.679] $GNGGA,74131.1,3713.9742651029997,N,13701.559405467,E,4,10,1.19,96.971,M,37.565,M,4.1,3006*54,37.23290441838333,137.02599009111668,679723.4484989475,4122632.7655711016
1491,[2021-02-22 16:41:31.772] $GNGGA,74131.2,3713.9742663879997,N,13701.559405881999,E,4,10,1.19,96.965,M,37.565,M,4.2,3006*54,37.2329044398,137.02599009803333,679723.4490617242,4122632.7679605526
1492,[2021-02-22 16:41:31.882] $GNGGA,74131.3,3713.9742670859996,N,13701.559408185,E,4,10,1.19,96.961,M,37.565,M,4.3,3006*5F,37.23290445143333,137.02599013641665,679723.4524394233,4122632.76932423
1493,[2021-02-22 16:41:31.991] $GNGGA,74131.4,3713.974267135,N,13701.559406964,E,4,10,1.19,96.964,M,37.565,M,4.4,3006*5A,37.23290445225,137.02599011606668,679723.4506320553,4122632.7693762025
1494,[2021-02-22 16:41:32.069] $GNGGA,74131.5,3713.974266524,N,13701.559403931002,E,4,10,1.19,96.96,M,37.565,M,4.5,3006*5E,37.23290444206667,137.0259900655167,679723.4461714991,4122632.7681503054
1495,[2021-02-22 16:41:32.179] $GNGGA,74131.6,3713.974266163,N,13701.559406626002,E,4,10,1.19,96.96600000000001,M,37.565,M,4.6,3006*53,37.23290443604999,137.02599011043336,679723.4501707463,4122632.7675680113
1496,[2021-02-22 16:41:32.272] $GNGGA,74131.7,3713.974271425,N,13701.559412203,E,4,10,1.19,96.93799999999999,M,37.565,M,4.7,3006*5F,37.232904523749994,137.02599020338332,679723.458208889,4122632.77747539
1497,[2021-02-22 16:41:32.382] $GNGGA,74131.8,3713.974272171,N,13701.559402874,E,4,10,1.19,96.959,M,37.565,M,4.8,3006*54,37.232904536183334,137.0259900479,679723.4443850454,4122632.778559697
1498,[2021-02-22 16:41:32.491] $GNGGA,74131.9,3713.974273319,N,13701.559404688998,E,4,10,1.19,96.959,M,37.565,M,4.9,3006*53,37.232904555316665,137.02599007815,679723.4470233538,4122632.780740103
1499,[2021-02-22 16:41:32.569] $GNGGA,74132.0,3713.974275781,N,13701.559406411001,E,4,10,1.19,96.955,M,37.565,M,5.0,3006*5F,37.23290459635,137.02599010685003,679723.4494721419,4122632.785347513
1500,[2021-02-22 16:41:32.679] $GNGGA,74132.1,3713.974278955,N,13701.559405937,E,4,10,1.19,96.95200000000001,M,37.565,M,5.1,3006*58,37.232904649249996,137.02599009895,679723.4486456267,4122632.7912021033
1501,[2021-02-22 16:41:32.772] $GNGGA,74132.2,3713.974278909,N,13701.559406982,E,4,10,1.19,96.95,M,37.565,M,5.2,3006*5E,37.232904648483334,137.02599011636667,679723.4501926354,4122632.79115011
1502,[2021-02-22 16:41:32.882] $GNGGA,74132.3,3713.974279032,N,13701.55940757,E,4,10,1.19,96.946,M,37.565,M,5.3,3006*59,37.232904650533335,137.02599012616665,679723.4510572104,4122632.79139618
