,Format,Time,Latitude,LatType,Longitude,LonType,Status,Satellite,LevelAccuracy,Altitude(sea),M(sea),Altitude(geoid),M(geoid),DGPS use,checksum,Lat,Lon,UTM_X,UTM_Y
4228,[2021-02-22 16:36:24.590] $GPGGA,73624.2,3713.97476162,N,13701.55974569,E,4,6.0,2.3,94.415,M,36.771,M,2.2,0000*73,37.23291269366668,137.02599576149998,679723.9319163117,4122633.6945341644
4230,[2021-02-22 16:36:24.684] $GPGGA,73624.3,3713.97476239,N,13701.55974376,E,4,6.0,2.3,94.424,M,36.771,M,2.3,0000*74,37.2329127065,137.02599572933335,679723.9290320426,4122633.6958970213
4232,[2021-02-22 16:36:24.793] $GPGGA,73624.4,3713.97476166,N,13701.55974337,E,4,6.0,2.3,94.431,M,36.771,M,2.4,0000*7C,37.23291269433333,137.02599572283336,679723.9284842657,4122633.694534709
4234,[2021-02-22 16:36:24.887] $GPGGA,73624.5,3713.9747638,N,13701.5597502,E,4,6.0,2.3,94.404,M,36.771,M,2.5,0000*74,37.232912729999995,137.02599583666665,679723.938498729,4122633.6987083144
4236,[2021-02-22 16:36:24.981] $GPGGA,73624.6,3713.97476196,N,13701.55974557,E,4,6.0,2.3,94.421,M,36.771,M,2.6,0000*72,37.23291269933333,137.0259957595,679723.9317254175,4122633.6951591196
4238,[2021-02-22 16:36:25.075] $GPGGA,73624.7,3713.97476108,N,13701.55974961,E,4,6.0,2.3,94.416,M,36.771,M,2.7,0000*78,37.232912684666665,137.0259958268333,679723.9377339887,4122633.693659621
4240,[2021-02-22 16:36:25.184] $GPGGA,73624.8,3713.97475741,N,13701.55973421,E,4,6.0,2.3,94.447,M,36.771,M,2.8,0000*7A,37.2329126235,137.0259955701667,679723.9151080664,4122633.6863853955
4242,[2021-02-22 16:36:25.278] $GPGGA,73624.9,3713.97476242,N,13701.55975008,E,4,6.0,2.3,94.421,M,36.771,M,2.9,0000*76,37.232912707,137.02599583466667,679723.9383759154,4122633.696152521
4244,[2021-02-22 16:36:25.387] $GPGGA,73625.0,3713.97476033,N,13701.5597464,E,4,6.0,2.3,94.424,M,36.771,M,3.0,0000*7C,37.23291267216667,137.02599577333334,679723.9330172137,4122633.6921710726
4246,[2021-02-22 16:36:25.481] $GPGGA,73625.1,3713.97476137,N,13701.5597415,E,4,6.0,2.3,94.429,M,36.771,M,3.1,0000*72,37.232912689500004,137.02599569166668,679723.9257306714,4122633.693939238
4248,[2021-02-22 16:36:25.590] $GPGGA,73625.2,3713.97476089,N,13701.55973473,E,4,6.0,2.3,94.440,M,36.771,M,2.2,0000*7B,37.232912681500004,137.02599557883335,679723.9157392159,4122633.692837323
4250,[2021-02-22 16:36:25.684] $GPGGA,73625.3,3713.9747603,N,13701.55973948,E,4,6.0,2.3,94.438,M,36.771,M,2.3,0000*73,37.232912671666675,137.02599565800003,679723.9227861543,4122633.6918965853
4252,[2021-02-22 16:36:25.793] $GPGGA,73625.4,3713.97476468,N,13701.5597442,E,4,6.0,2.3,94.419,M,36.771,M,2.4,0000*7D,37.23291274466667,137.02599573666666,679723.9295920043,4122633.700145782
4254,[2021-02-22 16:36:25.887] $GPGGA,73625.5,3713.97476295,N,13701.55973866,E,4,6.0,2.3,94.430,M,36.771,M,2.5,0000*7B,37.232912715833336,137.02599564433334,679723.9214687685,4122633.6967712045
4256,[2021-02-22 16:36:25.981] $GPGGA,73625.6,3713.9747632,N,13701.55973429,E,4,6.0,2.3,94.437,M,36.771,M,2.6,0000*74,37.232912719999995,137.0259955715,679723.9149971758,4122633.697095216
4258,[2021-02-22 16:36:26.075] $GPGGA,73625.7,3713.97476213,N,13701.55973314,E,4,6.0,2.3,94.445,M,36.771,M,2.7,0000*79,37.23291270216666,137.02599555233337,679723.9133390852,4122633.695080098
4260,[2021-02-22 16:36:26.184] $GPGGA,73625.8,3713.97476313,N,13701.5597307,E,4,6.0,2.3,94.435,M,36.771,M,2.8,0000*7E,37.23291271883334,137.02599551166668,679723.9096915995,4122633.6968521494
4262,[2021-02-22 16:36:26.278] $GPGGA,73625.9,3713.97476521,N,13701.55973092,E,4,6.0,2.3,94.431,M,36.771,M,2.9,0000*71,37.232912753499996,137.0259955153333,679723.9099345681,4122633.7007055976
4264,[2021-02-22 16:36:26.387] $GPGGA,73626.0,3713.97476487,N,13701.55972801,E,4,6.0,2.3,94.432,M,36.771,M,3.0,0000*7E,37.23291274783334,137.02599546683334,679723.9056451602,4122633.699984748
4266,[2021-02-22 16:36:26.481] $GPGGA,73626.1,3713.97475962,N,13701.55972613,E,4,6.0,2.3,94.440,M,36.771,M,3.1,0000*73,37.23291266033334,137.0259954355,679723.9030731034,4122633.6902165664
4268,[2021-02-22 16:36:26.590] $GPGGA,73626.2,3713.9747518,N,13701.55971201,E,4,6.0,2.3,94.469,M,36.771,M,2.2,0000*79,37.23291253,137.02599520016665,679723.882504111,4122633.675308368
4270,[2021-02-22 16:36:26.684] $GPGGA,73626.3,3713.97475746,N,13701.55971182,E,4,6.0,2.3,94.458,M,36.771,M,2.3,0000*7F,37.23291262433334,137.025995197,679723.8819991354,4122633.6857692394
4272,[2021-02-22 16:36:26.793] $GPGGA,73626.4,3713.97475266,N,13701.55970999,E,4,6.0,2.3,94.485,M,36.771,M,2.4,0000*7B,37.23291254433333,137.0259951665,679723.8794832012,4122633.6768348115
4274,[2021-02-22 16:36:26.887] $GPGGA,73626.5,3713.97475415,N,13701.5597075,E,4,6.0,2.3,94.482,M,36.771,M,2.5,0000*75,37.232912569166665,137.02599512500004,679723.8757423928,4122633.6795114223
4276,[2021-02-22 16:36:26.981] $GPGGA,73626.6,3713.97475268,N,13701.55970149,E,4,6.0,2.3,94.488,M,36.771,M,2.6,0000*7D,37.23291254466667,137.0259950248333,679723.8669138926,4122633.6766027813
4278,[2021-02-22 16:36:27.074] $GPGGA,73626.7,3713.9747476,N,13701.55969885,E,4,6.0,2.3,94.491,M,36.771,M,2.7,0000*78,37.232912459999994,137.02599498083333,679723.8632113376,4122633.6671249224
4280,[2021-02-22 16:36:27.184] $GPGGA,73626.8,3713.97474834,N,13701.55969959,E,4,6.0,2.3,94.486,M,36.771,M,2.8,0000*70,37.23291247233333,137.02599499316665,679723.8642762465,4122633.6685168045
4282,[2021-02-22 16:36:27.278] $GPGGA,73626.9,3713.97474907,N,13701.55970112,E,4,6.0,2.3,94.480,M,36.771,M,2.9,0000*78,37.232912484500005,137.0259950186667,679723.8665096875,4122633.669915198
4284,[2021-02-22 16:36:27.387] $GPGGA,73627.0,3713.97474888,N,13701.55970043,E,4,6.0,2.3,94.485,M,36.771,M,3.0,0000*7E,37.23291248133333,137.02599500716664,679723.8654969363,4122633.669541997
4286,[2021-02-22 16:36:27.481] $GPGGA,73627.1,3713.97475162,N,13701.55970581,E,4,6.0,2.3,94.478,M,36.771,M,3.1,0000*7B,37.232912527,137.0259950968333,679723.873343612,4122633.6747792764
4288,[2021-02-22 16:36:27.590] $GPGGA,73627.2,3713.97475336,N,13701.55971086,E,4,6.0,2.3,94.475,M,36.771,M,2.2,0000*77,37.232912556,137.02599518099998,679723.880741918,4122633.678156837
4290,[2021-02-22 16:36:27.684] $GPGGA,73627.3,3713.97475587,N,13701.5597131,E,4,6.0,2.3,94.460,M,36.771,M,2.3,0000*73,37.232912597833334,137.02599521833332,679723.8839547405,4122633.6828694064
4292,[2021-02-22 16:36:27.793] $GPGGA,73627.4,3713.97475623,N,13701.5597109,E,4,6.0,2.3,94.466,M,36.771,M,2.4,0000*73,37.232912603833334,137.02599518166667,679723.8806874668,4122633.6834655176
4294,[2021-02-22 16:36:27.887] $GPGGA,73627.5,3713.97475568,N,13701.55971651,E,4,6.0,2.3,94.460,M,36.771,M,2.5,0000*72,37.23291259466666,137.0259952751667,679723.8890044579,4122633.682625966
4296,[2021-02-22 16:36:27.996] $GPGGA,73627.6,3713.97475383,N,13701.55970649,E,4,6.0,2.3,94.473,M,36.771,M,2.6,0000*7B,37.23291256383333,137.02599510816665,679723.8742616198,4122633.67888769
4298,[2021-02-22 16:36:28.074] $GPGGA,73627.7,3713.97475334,N,13701.55971117,E,4,6.0,2.3,94.470,M,36.771,M,2.7,0000*79,37.232912555666665,137.02599518616668,679723.8812010936,4122633.678129663
4300,[2021-02-22 16:36:28.184] $GPGGA,73627.8,3713.97475853,N,13701.55971897,E,4,6.0,2.3,94.451,M,36.771,M,2.8,0000*71,37.23291264216667,137.02599531616667,679723.8925291233,4122633.687974252
4302,[2021-02-22 16:36:28.278] $GPGGA,73627.9,3713.97475595,N,13701.55970831,E,4,6.0,2.3,94.477,M,36.771,M,2.9,0000*7F,37.23291259916667,137.0259951385,679723.8768688494,4122633.68286575
4304,[2021-02-22 16:36:28.387] $GPGGA,73628.0,3713.97475851,N,13701.55971977,E,4,6.0,2.3,94.460,M,36.771,M,3.0,0000*70,37.23291264183333,137.0259953295,679723.8937128349,4122633.6879625847
4306,[2021-02-22 16:36:28.481] $GPGGA,73628.1,3713.97475986,N,13701.55971934,E,4,6.0,2.3,94.459,M,36.771,M,3.1,0000*76,37.23291266433334,137.02599532233333,679723.8930235793,4122633.6904454944
4308,[2021-02-22 16:36:28.590] $GPGGA,73628.2,3713.97476049,N,13701.55972479,E,4,6.0,2.3,94.453,M,36.771,M,3.2,0000*72,37.23291267483334,137.0259954131667,679723.9010572811,4122633.6917830235
4310,[2021-02-22 16:36:28.684] $GPGGA,73628.3,3713.97475965,N,13701.55972323,E,4,6.0,2.3,94.456,M,36.771,M,3.3,0000*7B,37.232912660833335,137.02599538716666,679723.8987838363,4122633.6901802616
4312,[2021-02-22 16:36:28.793] $GPGGA,73628.4,3713.97475892,N,13701.55972604,E,4,6.0,2.3,94.449,M,36.771,M,3.4,0000*7C,37.23291264866666,137.025995434,679723.9029677345,4122633.6889192252
4314,[2021-02-22 16:36:28.887] $GPGGA,73628.5,3713.97476019,N,13701.55972217,E,4,6.0,2.3,94.450,M,36.771,M,3.5,0000*7A,37.23291266983333,137.0259953695,679723.897195095,4122633.691145321
4316,[2021-02-22 16:36:28.996] $GPGGA,73628.6,3713.97476009,N,13701.55971976,E,4,6.0,2.3,94.455,M,36.771,M,3.6,0000*71,37.23291266816667,137.0259953293333,679723.8936355076,4122633.69088412
4318,[2021-02-22 16:36:29.074] $GPGGA,73628.7,3713.97475961,N,13701.55972546,E,4,6.0,2.3,94.444,M,36.771,M,3.7,0000*79,37.23291266016667,137.02599542433336,679723.9020828085,4122633.6901768674
4320,[2021-02-22 16:36:29.184] $GPGGA,73628.8,3713.97476026,N,13701.55972685,E,4,6.0,2.3,94.442,M,36.771,M,3.8,0000*7A,37.23291267100001,137.02599544750004,679723.904112403,4122633.691422888
4322,[2021-02-22 16:36:29.277] $GPGGA,73628.9,3713.97476337,N,13701.5597266,E,4,6.0,2.3,94.436,M,36.771,M,3.9,0000*71,37.232912722833326,137.02599544333336,679723.9036196405,4122633.6971662114
4324,[2021-02-22 16:36:29.387] $GPGGA,73629.0,3713.97475997,N,13701.5597258,E,4,6.0,2.3,94.446,M,36.771,M,4.0,0000*7E,37.23291266616667,137.02599542999997,679723.902571294,4122633.690853366
4326,[2021-02-22 16:36:29.481] $GPGGA,73629.1,3713.97476083,N,13701.55972134,E,4,6.0,2.3,94.453,M,36.771,M,4.1,0000*7E,37.2329126805,137.02599535566665,679723.8959424825,4122633.6923025856
4328,[2021-02-22 16:36:29.590] $GPGGA,73629.2,3713.97476043,N,13701.55972165,E,4,6.0,2.3,94.442,M,36.771,M,4.2,0000*76,37.23291267383333,137.02599536083332,679723.8964166968,4122633.6915726885
4330,[2021-02-22 16:36:29.684] $GPGGA,73629.3,3713.97476225,N,13701.55972835,E,4,6.0,2.3,94.441,M,36.771,M,4.3,0000*7B,37.23291270416666,137.0259954725,679723.9062516062,4122633.6951504117
4332,[2021-02-22 16:36:29.793] $GPGGA,73629.4,3713.97475967,N,13701.55971892,E,4,6.0,2.3,94.456,M,36.771,M,4.4,0000*7D,37.232912661166665,137.02599531533335,679723.8924100678,4122633.690080839
4334,[2021-02-22 16:36:29.887] $GPGGA,73629.5,3713.97476366,N,13701.55972027,E,4,6.0,2.3,94.454,M,36.771,M,4.5,0000*72,37.232912727666665,137.0259953378333,679723.894248311,4122633.6975021637
4336,[2021-02-22 16:36:29.996] $GPGGA,73629.6,3713.97476207,N,13701.55972424,E,4,6.0,2.3,94.454,M,36.771,M,4.6,0000*73,37.23291270116667,137.02599540399999,679723.9001814809,4122633.694687467
4338,[2021-02-22 16:36:30.074] $GPGGA,73629.7,3713.97475926,N,13701.55972446,E,4,6.0,2.3,94.453,M,36.771,M,4.7,0000*7B,37.23291265433334,137.02599540766667,679723.900618011,4122633.6894979742
4340,[2021-02-22 16:36:30.184] $GPGGA,73629.8,3713.97476523,N,13701.55972472,E,4,6.0,2.3,94.454,M,36.771,M,2.8,0000*77,37.232912753833325,137.025995412,679723.9007661549,4122633.70054636
4342,[2021-02-22 16:36:30.277] $GPGGA,73629.9,3713.97476037,N,13701.55972128,E,4,6.0,2.3,94.443,M,36.771,M,2.9,0000*7B,37.23291267283332,137.02599535466666,679723.8958719721,4122633.6914500208
4344,[2021-02-22 16:36:30.387] $GPGGA,73630.0,3713.97475974,N,13701.55972299,E,4,6.0,2.3,94.444,M,36.771,M,3.0,0000*71,37.23291266233334,137.02599538316665,679723.8984253965,4122633.690339101
4346,[2021-02-22 16:36:30.481] $GPGGA,73630.1,3713.97475913,N,13701.55971867,E,4,6.0,2.3,94.442,M,36.771,M,3.1,0000*7E,37.23291265216667,137.02599531116667,679723.8920617788,4122633.6890743203
4348,[2021-02-22 16:36:30.590] $GPGGA,73630.2,3713.97475991,N,13701.55972798,E,4,6.0,2.3,94.428,M,36.771,M,3.2,0000*74,37.232912665166666,137.02599546633334,679723.9057971279,4122633.6908114045
4350,[2021-02-22 16:36:30.684] $GPGGA,73630.3,3713.97475794,N,13701.55971705,E,4,6.0,2.3,94.443,M,36.771,M,3.3,0000*75,37.23291263233334,137.02599528416667,679723.8897134714,4122633.686822415
4352,[2021-02-22 16:36:30.793] $GPGGA,73630.4,3713.97475971,N,13701.55971434,E,4,6.0,2.3,94.448,M,36.771,M,3.4,0000*7A,37.23291266183333,137.02599523899997,679723.8856362703,4122633.690009859
4354,[2021-02-22 16:36:30.887] $GPGGA,73630.5,3713.97476033,N,13701.5597195,E,4,6.0,2.3,94.435,M,36.771,M,3.5,0000*73,37.23291267216667,137.025995325,679723.8932415608,4122633.6913197157
4356,[2021-02-22 16:36:30.996] $GPGGA,73630.6,3713.97475995,N,13701.55970711,E,4,6.0,2.3,94.459,M,36.771,M,2.6,0000*74,37.23291266583333,137.0259951185,679723.8749361424,4122633.6902248613
4358,[2021-02-22 16:36:31.090] $GPGGA,73630.7,3713.9747627,N,13701.55971292,E,4,6.0,2.3,94.451,M,36.771,M,2.7,0000*70,37.232912711666664,137.02599521533332,679723.8834182424,4122633.695494243
4360,[2021-02-22 16:36:31.184] $GPGGA,73630.8,3713.97475559,N,13701.55970018,E,4,6.0,2.3,94.473,M,36.771,M,2.8,0000*7E,37.23291259316667,137.025995003,679723.8648616815,4122633.6819427046
4362,[2021-02-22 16:36:31.277] $GPGGA,73630.9,3713.97475902,N,13701.55970349,E,4,6.0,2.3,94.461,M,36.771,M,2.9,0000*78,37.23291265033334,137.02599505816667,679723.869620244,4122633.688390469
4364,[2021-02-22 16:36:31.387] $GPGGA,73631.0,3713.97476086,N,13701.55971018,E,4,6.0,2.3,94.458,M,36.771,M,3.0,0000*72,37.23291268100001,137.02599516966663,679723.8794395713,4122633.6920048627
4366,[2021-02-22 16:36:31.480] $GPGGA,73631.1,3713.97476291,N,13701.55971229,E,4,6.0,2.3,94.450,M,36.771,M,3.1,0000*7E,37.23291271516667,137.02599520483335,679723.8824783834,4122633.6958626513
4368,[2021-02-22 16:36:31.590] $GPGGA,73631.2,3713.97476641,N,13701.55971899,E,4,6.0,2.3,94.439,M,36.771,M,3.2,0000*79,37.2329127735,137.0259953165,679723.8922467933,4122633.702547152
4370,[2021-02-22 16:36:31.684] $GPGGA,73631.3,3713.97476234,N,13701.55971935,E,4,6.0,2.3,94.446,M,36.771,M,2.3,0000*71,37.232912705666664,137.02599532249997,679723.8929402002,4122633.695032007
4372,[2021-02-22 16:36:31.793] $GPGGA,73631.4,3713.97476184,N,13701.55971591,E,4,6.0,2.3,94.451,M,36.771,M,2.4,0000*7D,37.23291269733333,137.02599526516667,679723.8878734431,4122633.6939984984
4374,[2021-02-22 16:36:31.887] $GPGGA,73631.5,3713.97476009,N,13701.55971724,E,4,6.0,2.3,94.444,M,36.771,M,2.5,0000*71,37.23291266816667,137.02599528733333,679723.8899093134,4122633.6908043646
4376,[2021-02-22 16:36:31.996] $GPGGA,73631.6,3713.97476067,N,13701.55971999,E,4,6.0,2.3,94.446,M,36.771,M,2.6,0000*73,37.23291267783333,137.0259953331667,679723.8939526414,4122633.691963976
4378,[2021-02-22 16:36:32.074] $GPGGA,73631.7,3713.9747625,N,13701.55972008,E,4,6.0,2.3,94.440,M,36.771,M,2.7,0000*71,37.23291270833333,137.0259953346667,679723.8940132875,4122633.695350995
4380,[2021-02-22 16:36:32.183] $GPGGA,73631.8,3713.97476161,N,13701.55972138,E,4,6.0,2.3,94.433,M,36.771,M,2.8,0000*76,37.23291269349999,137.0259953563333,679723.8959707528,4122633.6937462846
4382,[2021-02-22 16:36:32.277] $GPGGA,73631.9,3713.97476284,N,13701.55972237,E,4,6.0,2.3,94.441,M,36.771,M,2.9,0000*77,37.232912714,137.02599537283336,679723.8973859345,4122633.696052223
4384,[2021-02-22 16:36:32.402] $GPGGA,73632.0,3713.97476237,N,13701.55972128,E,4,6.0,2.3,94.443,M,36.771,M,3.0,0000*72,37.23291270616667,137.02599535466666,679723.8957928084,4122633.6951485686
4386,[2021-02-22 16:36:32.480] $GPGGA,73632.1,3713.97476176,N,13701.55971676,E,4,6.0,2.3,94.447,M,36.771,M,3.1,0000*7F,37.232912696,137.02599527933336,679723.8891334618,4122633.6938774576
4388,[2021-02-22 16:36:32.590] $GPGGA,73632.2,3713.97476792,N,13701.55973043,E,4,6.0,2.3,94.417,M,36.771,M,2.2,0000*75,37.23291279866667,137.02599550716667,679723.9091027653,4122633.70570162
4390,[2021-02-22 16:36:32.683] $GPGGA,73632.3,3713.97476352,N,13701.55971962,E,4,6.0,2.3,94.436,M,36.771,M,2.3,0000*76,37.232912725333335,137.02599532699998,679723.8932927289,4122633.6972226934
4392,[2021-02-22 16:36:32.793] $GPGGA,73632.4,3713.97476413,N,13701.55972514,E,4,6.0,2.3,94.431,M,36.771,M,2.4,0000*7D,37.232912735499994,137.02599541899997,679723.9014307267,4122633.6985254525
4394,[2021-02-22 16:36:32.887] $GPGGA,73632.5,3713.9747618,N,13701.55971646,E,4,6.0,2.3,94.439,M,36.771,M,2.5,0000*7D,37.232912696666666,137.02599527433333,679723.888688283,4122633.6939419345
4396,[2021-02-22 16:36:32.996] $GPGGA,73632.6,3713.97476239,N,13701.55972075,E,4,6.0,2.3,94.441,M,36.771,M,2.6,0000*76,37.2329127065,137.02599534583334,679723.8950083322,4122633.6951687797
4398,[2021-02-22 16:36:33.074] $GPGGA,73632.7,3713.97476267,N,13701.55971729,E,4,6.0,2.3,94.443,M,36.771,M,2.7,0000*72,37.23291271116667,137.02599528816665,679723.8898811247,4122633.6955770706
4400,[2021-02-22 16:36:33.183] $GPGGA,73632.8,3713.97476339,N,13701.55972027,E,4,6.0,2.3,94.443,M,36.771,M,2.8,0000*72,37.23291272316667,137.0259953378333,679723.894258998,4122633.6970028603
4402,[2021-02-22 16:36:33.277] $GPGGA,73632.9,3713.97476112,N,13701.55971375,E,4,6.0,2.3,94.454,M,36.771,M,2.9,0000*78,37.23291268533333,137.02599522916668,679723.8847080618,4122633.6925986614
4404,[2021-02-22 16:36:33.387] $GPGGA,73633.0,3713.97476228,N,13701.55971811,E,4,6.0,2.3,94.447,M,36.771,M,3.0,0000*79,37.23291270466667,137.02599530183332,679723.8911090535,4122633.694881806
4406,[2021-02-22 16:36:33.480] $GPGGA,73633.1,3713.97476478,N,13701.55972096,E,4,6.0,2.3,94.438,M,36.771,M,3.1,0000*76,37.232912746333334,137.02599534933333,679723.8952242488,4122633.6995951873
4408,[2021-02-22 16:36:33.590] $GPGGA,73633.2,3713.97476366,N,13701.55972051,E,4,6.0,2.3,94.446,M,36.771,M,3.2,0000*7C,37.232912727666665,137.02599534183332,679723.8946031881,4122633.697509759
4410,[2021-02-22 16:36:33.683] $GPGGA,73633.3,3713.97475871,N,13701.55971353,E,4,6.0,2.3,94.438,M,36.771,M,2.3,0000*78,37.23291264516667,137.0259952255,679723.8844781485,4122633.6881349487
4412,[2021-02-22 16:36:33.793] $GPGGA,73633.4,3713.97475818,N,13701.55971424,E,4,6.0,2.3,94.442,M,36.771,M,2.4,0000*7D,37.23291263633334,137.02599523733332,679723.885548966,4122633.687177306
4414,[2021-02-22 16:36:33.887] $GPGGA,73633.5,3713.97475644,N,13701.55970505,E,4,6.0,2.3,94.462,M,36.771,M,2.5,0000*7B,37.232912607333326,137.02599508416665,679723.8720290563,4122633.6836687177
4416,[2021-02-22 16:36:33.996] $GPGGA,73633.6,3713.97475934,N,13701.55971283,E,4,6.0,2.3,94.434,M,36.771,M,2.6,0000*78,37.232912655666674,137.0259952138333,679723.8834181565,4122633.6892778375
4418,[2021-02-22 16:36:34.074] $GPGGA,73633.7,3713.97475847,N,13701.5597073,E,4,6.0,2.3,94.448,M,36.771,M,2.7,0000*7A,37.23291264116666,137.02599512166668,679723.8752756686,4122633.6874939506
4420,[2021-02-22 16:36:34.183] $GPGGA,73633.8,3713.97475987,N,13701.5597131,E,4,6.0,2.3,94.431,M,36.771,M,2.8,0000*7E,37.2329126645,137.02599521833332,679723.8837964134,4122633.6902664965
4422,[2021-02-22 16:36:34.277] $GPGGA,73633.9,3713.97475962,N,13701.55970936,E,4,6.0,2.3,94.441,M,36.771,M,2.9,0000*7D,37.23291266033334,137.02599515600002,679723.8782761652,4122633.6896858136
4424,[2021-02-22 16:36:34.386] $GPGGA,73634.0,3713.97475723,N,13701.55970326,E,4,6.0,2.3,94.454,M,36.771,M,3.0,0000*7F,37.232912620499995,137.02599505433332,679723.8693510063,4122633.6850729906
4426,[2021-02-22 16:36:34.480] $GPGGA,73634.1,3713.97475672,N,13701.55969732,E,4,6.0,2.3,94.458,M,36.771,M,3.1,0000*7F,37.23291261200001,137.02599495533337,679723.860588023,4122633.683941869
4428,[2021-02-22 16:36:34.590] $GPGGA,73634.2,3713.97476036,N,13701.55971098,E,4,6.0,2.3,94.455,M,36.771,M,2.2,0000*78,37.232912672666664,137.02599518300002,679723.8806422866,4122633.6911055446
4430,[2021-02-22 16:36:34.683] $GPGGA,73634.3,3713.97475895,N,13701.55970418,E,4,6.0,2.3,94.465,M,36.771,M,2.3,0000*74,37.232912649166664,137.02599506966666,679723.870643282,4122633.6882828576
4432,[2021-02-22 16:36:34.793] $GPGGA,73634.4,3713.97476048,N,13701.55969855,E,4,6.0,2.3,94.477,M,36.771,M,2.4,0000*71,37.232912674666665,137.02599497583333,679723.8622579288,4122633.690934061
4434,[2021-02-22 16:36:34.886] $GPGGA,73634.5,3713.97475751,N,13701.55969174,E,4,6.0,2.3,94.486,M,36.771,M,2.5,0000*79,37.23291262516667,137.0259948623333,679723.852305888,4122633.685226192
4436,[2021-02-22 16:36:34.996] $GPGGA,73634.6,3713.97475925,N,13701.55970383,E,4,6.0,2.3,94.462,M,36.771,M,2.6,0000*7C,37.23291265416667,137.02599506383334,679723.8701138819,4122633.688826563
4438,[2021-02-22 16:36:35.090] $GPGGA,73634.7,3713.97475848,N,13701.55969934,E,4,6.0,2.3,94.482,M,36.771,M,2.7,0000*76,37.23291264133334,137.02599498899997,679723.863505224,4122633.68726052
4440,[2021-02-22 16:36:35.183] $GPGGA,73634.8,3713.97475946,N,13701.55969246,E,4,6.0,2.3,94.482,M,36.771,M,2.8,0000*77,37.23291265766666,137.02599487433335,679723.8532933333,4122633.688855061
4442,[2021-02-22 16:36:35.277] $GPGGA,73634.9,3713.97475865,N,13701.55969535,E,4,6.0,2.3,94.471,M,36.771,M,2.9,0000*78,37.23291264416667,137.0259949225,679723.8575986882,4122633.687448616
4444,[2021-02-22 16:36:35.386] $GPGGA,73635.0,3713.97475855,N,13701.55969392,E,4,6.0,2.3,94.479,M,36.771,M,3.0,0000*78,37.2329126425,137.02599489866668,679723.8554881797,4122633.6872184295
4446,[2021-02-22 16:36:35.480] $GPGGA,73635.1,3713.97475978,N,13701.55970129,E,4,6.0,2.3,94.467,M,36.771,M,3.1,0000*73,37.23291266300001,137.0259950215,679723.8663371353,4122633.6897262884
4448,[2021-02-22 16:36:35.590] $GPGGA,73635.2,3713.97475868,N,13701.55969232,E,4,6.0,2.3,94.480,M,36.771,M,3.2,0000*7B,37.23291264466666,137.02599487199996,679723.8531171919,4122633.6874081967
4450,[2021-02-22 16:36:35.683] $GPGGA,73635.3,3713.97476217,N,13701.55970865,E,4,6.0,2.3,94.450,M,36.771,M,2.3,0000*76,37.232912702833325,137.02599514416667,679723.8771253903,4122633.694378986
4452,[2021-02-22 16:36:35.793] $GPGGA,73635.4,3713.97475749,N,13701.55970298,E,4,6.0,2.3,94.464,M,36.771,M,2.4,0000*74,37.23291262483333,137.02599504966668,679723.8689266937,4122633.685544941
4454,[2021-02-22 16:36:35.886] $GPGGA,73635.5,3713.97476033,N,13701.55970581,E,4,6.0,2.3,94.456,M,36.771,M,2.5,0000*73,37.23291267216667,137.0259950968333,679723.8729988547,4122633.690886442
4456,[2021-02-22 16:36:35.996] $GPGGA,73635.6,3713.97475976,N,13701.55970045,E,4,6.0,2.3,94.468,M,36.771,M,2.6,0000*78,37.23291266266666,137.0259950075,679723.8650958608,4122633.689662718
4458,[2021-02-22 16:36:36.089] $GPGGA,73635.7,3713.97476084,N,13701.55970668,E,4,6.0,2.3,94.458,M,36.771,M,2.7,0000*75,37.232912680666665,137.02599511133334,679723.8742650966,4122633.691857105
4460,[2021-02-22 16:36:36.183] $GPGGA,73635.8,3713.97475572,N,13701.55969899,E,4,6.0,2.3,94.467,M,36.771,M,2.8,0000*7E,37.232912595333325,137.0259949831667,679723.8630969465,4122633.682145448
4462,[2021-02-22 16:36:36.277] $GPGGA,73635.9,3713.97476087,N,13701.55970571,E,4,6.0,2.3,94.465,M,36.771,M,2.9,0000*73,37.23291268116667,137.02599509516665,679723.8728296161,4122633.691881884
4464,[2021-02-22 16:36:36.386] $GPGGA,73636.0,3713.97476087,N,13701.55970356,E,4,6.0,2.3,94.463,M,36.771,M,3.0,0000*74,37.23291268116667,137.02599505933333,679723.8696505241,4122633.691813839
4466,[2021-02-22 16:36:36.480] $GPGGA,73636.1,3713.97475893,N,13701.55969479,E,4,6.0,2.3,94.472,M,36.771,M,3.1,0000*78,37.232912648833334,137.02599491316667,679723.8567595627,4122633.687948689
4468,[2021-02-22 16:36:36.589] $GPGGA,73636.2,3713.97476276,N,13701.55969813,E,4,6.0,2.3,94.464,M,36.771,M,2.2,0000*7C,37.23291271266667,137.02599496883334,679723.8615466526,4122633.6951371105
4470,[2021-02-22 16:36:36.683] $GPGGA,73636.3,3713.97476133,N,13701.5596964,E,4,6.0,2.3,94.462,M,36.771,M,2.3,0000*70,37.23291268883334,137.02599494,679723.85904519,4122633.6924378984
4472,[2021-02-22 16:36:36.793] $GPGGA,73636.4,3713.97476051,N,13701.55969501,E,4,6.0,2.3,94.458,M,36.771,M,2.4,0000*7A,37.232912675166666,137.02599491683335,679723.8570223267,4122633.6908775023
4474,[2021-02-22 16:36:36.886] $GPGGA,73636.5,3713.97476601,N,13701.55970441,E,4,6.0,2.3,94.443,M,36.771,M,2.5,0000*7E,37.23291276683333,137.02599507349998,679723.8707039237,4122633.701346003
4476,[2021-02-22 16:36:36.996] $GPGGA,73636.6,3713.97476242,N,13701.55969511,E,4,6.0,2.3,94.456,M,36.771,M,2.6,0000*75,37.232912707,137.0259949185,679723.8570945899,4122633.694412778
4478,[2021-02-22 16:36:37.089] $GPGGA,73636.7,3713.97476026,N,13701.55969888,E,4,6.0,2.3,94.450,M,36.771,M,2.7,0000*7E,37.23291267100001,137.02599498133335,679723.8627545948,4122633.690537667
4480,[2021-02-22 16:36:37.183] $GPGGA,73636.8,3713.97476212,N,13701.55969403,E,4,6.0,2.3,94.458,M,36.771,M,2.8,0000*7C,37.232912702,137.02599490050002,679723.8555095254,4122633.693823816
4482,[2021-02-22 16:36:37.277] $GPGGA,73636.9,3713.97476057,N,13701.55969346,E,4,6.0,2.3,94.458,M,36.771,M,2.9,0000*79,37.23291267616667,137.025994891,679723.8547280463,4122633.690939403
4484,[2021-02-22 16:36:37.386] $GPGGA,73637.0,3713.97476123,N,13701.55969971,E,4,6.0,2.3,94.444,M,36.771,M,3.0,0000*78,37.23291268716667,137.02599499516668,679723.8639434783,4122633.6923577283
4486,[2021-02-22 16:36:37.480] $GPGGA,73637.1,3713.97476167,N,13701.55969196,E,4,6.0,2.3,94.458,M,36.771,M,3.1,0000*74,37.2329126945,137.025994866,679723.8524665309,4122633.69292613
4488,[2021-02-22 16:36:37.589] $GPGGA,73637.2,3713.97476246,N,13701.55969328,E,4,6.0,2.3,94.457,M,36.771,M,3.2,0000*7C,37.232912707666664,137.025994888,679723.85438708,4122633.694428831
4490,[2021-02-22 16:36:37.683] $GPGGA,73637.3,3713.97476321,N,13701.55969862,E,4,6.0,2.3,94.443,M,36.771,M,2.3,0000*7D,37.232912720166674,137.02599497699998,679723.8622533748,4122633.6959847915
4492,[2021-02-22 16:36:37.792] $GPGGA,73637.4,3713.97476057,N,13701.55969628,E,4,6.0,2.3,94.438,M,36.771,M,2.4,0000*73,37.23291267616667,137.025994938,679723.8588978335,4122633.691028653
4494,[2021-02-22 16:36:37.886] $GPGGA,73637.5,3713.9747638,N,13701.55969764,E,4,6.0,2.3,94.443,M,36.771,M,2.5,0000*7F,37.232912729999995,137.02599496066665,679723.860780947,4122633.697044846
4496,[2021-02-22 16:36:37.996] $GPGGA,73637.6,3713.97476321,N,13701.55969455,E,4,6.0,2.3,94.445,M,36.771,M,2.6,0000*73,37.232912720166674,137.02599490916666,679723.8562352754,4122633.695855981
4498,[2021-02-22 16:36:38.089] $GPGGA,73637.7,3713.97476501,N,13701.55970035,E,4,6.0,2.3,94.435,M,36.771,M,2.7,0000*7A,37.23291275016666,137.02599500583335,679723.8647401943,4122633.699368235
4500,[2021-02-22 16:36:38.183] $GPGGA,73637.8,3713.97476193,N,13701.55970077,E,4,6.0,2.3,94.435,M,36.771,M,2.8,0000*73,37.23291269883334,137.02599501283333,679723.8654831359,4122633.6936857677
4502,[2021-02-22 16:36:38.277] $GPGGA,73637.9,3713.97476539,N,13701.55969871,E,4,6.0,2.3,94.439,M,36.771,M,2.9,0000*7D,37.232912756500006,137.0259949785,679723.8623001672,4122633.7000190555
4504,[2021-02-22 16:36:38.386] $GPGGA,73638.0,3713.97476566,N,13701.55970242,E,4,6.0,2.3,94.417,M,36.771,M,3.0,0000*77,37.232912761,137.02599504033333,679723.867775268,4122633.700635776
4506,[2021-02-22 16:36:38.480] $GPGGA,73638.1,3713.97476359,N,13701.55970098,E,4,6.0,2.3,94.424,M,36.771,M,3.1,0000*78,37.232912726500004,137.02599501633333,679723.8657279473,4122633.6967622074
4508,[2021-02-22 16:36:38.589] $GPGGA,73638.2,3713.97476798,N,13701.55970512,E,4,6.0,2.3,94.413,M,36.771,M,2.2,0000*73,37.23291279966666,137.0259950853333,679723.8716757868,4122633.70501154
4510,[2021-02-22 16:36:38.683] $GPGGA,73638.3,3713.97476799,N,13701.55971435,E,4,6.0,2.3,94.411,M,36.771,M,2.3,0000*75,37.23291279983334,137.02599523916666,679723.8853233214,4122633.7053221534
4512,[2021-02-22 16:36:38.792] $GPGGA,73638.4,3713.97476655,N,13701.55971205,E,4,6.0,2.3,94.406,M,36.771,M,2.4,0000*77,37.23291277583333,137.02599520083336,679723.8819794308,4122633.702586407
4514,[2021-02-22 16:36:38.886] $GPGGA,73638.5,3713.97476633,N,13701.55970917,E,4,6.0,2.3,94.416,M,36.771,M,2.5,0000*7F,37.232912772166664,137.0259951528333,679723.8777296242,4122633.7020884175
4516,[2021-02-22 16:36:38.995] $GPGGA,73638.6,3713.97476701,N,13701.55971532,E,4,6.0,2.3,94.411,M,36.771,M,2.6,0000*72,37.2329127835,137.02599525533333,679723.8867964002,4122633.7035405645
4518,[2021-02-22 16:36:39.089] $GPGGA,73638.7,3713.97476101,N,13701.5597133,E,4,6.0,2.3,94.425,M,36.771,M,2.7,0000*77,37.23291268349999,137.02599522166668,679723.8840470235,4122633.6923809974
4520,[2021-02-22 16:36:39.183] $GPGGA,73638.8,3713.97476289,N,13701.55970712,E,4,6.0,2.3,94.427,M,36.771,M,2.8,0000*73,37.232912714833326,137.02599511866669,679723.8748345602,4122633.6956620393
4522,[2021-02-22 16:36:39.277] $GPGGA,73638.9,3713.97476448,N,13701.55970939,E,4,6.0,2.3,94.424,M,36.771,M,2.9,0000*7C,37.23291274133333,137.0259951565,679723.8781281558,4122633.6986742266
4524,[2021-02-22 16:36:39.386] $GPGGA,73639.0,3713.97476567,N,13701.55971202,E,4,6.0,2.3,94.414,M,36.771,M,3.0,0000*71,37.23291276116667,137.02599520033334,679723.8819699001,4122633.700958099
4526,[2021-02-22 16:36:39.480] $GPGGA,73639.1,3713.97476339,N,13701.55970261,E,4,6.0,2.3,94.429,M,36.771,M,3.1,0000*76,37.23291272316667,137.02599504350002,679723.8681460638,4122633.69644394
4528,[2021-02-22 16:36:39.589] $GPGGA,73639.2,3713.97476373,N,13701.55971217,E,4,6.0,2.3,94.418,M,36.771,M,3.2,0000*7A,37.23291272883334,137.02599520283331,679723.8822684854,4122633.697375257
4530,[2021-02-22 16:36:39.683] $GPGGA,73639.3,3713.97476519,N,13701.55971113,E,4,6.0,2.3,94.412,M,36.771,M,2.3,0000*7C,37.23291275316667,137.0259951855,679723.880672901,4122633.7000422804
4532,[2021-02-22 16:36:39.792] $GPGGA,73639.4,3713.97476404,N,13701.5597054,E,4,6.0,2.3,94.415,M,36.771,M,2.4,0000*75,37.232912734,137.02599509,679723.8722457648,4122633.6977342684
4534,[2021-02-22 16:36:39.886] $GPGGA,73639.5,3713.97476573,N,13701.55971055,E,4,6.0,2.3,94.412,M,36.771,M,2.5,0000*73,37.23291276216666,137.02599517583334,679723.8797939123,4122633.70102253
4536,[2021-02-22 16:36:39.995] $GPGGA,73639.6,3713.97476891,N,13701.55971709,E,4,6.0,2.3,94.408,M,36.771,M,2.6,0000*77,37.232912815166664,137.02599528483336,679723.8893384079,4122633.7071102024
4538,[2021-02-22 16:36:40.089] $GPGGA,73639.7,3713.97476671,N,13701.5597057,E,4,6.0,2.3,94.418,M,36.771,M,2.7,0000*7B,37.23291277850001,137.025995095,679723.8725836747,4122633.702681321
4540,[2021-02-22 16:36:40.183] $GPGGA,73639.8,3713.97476786,N,13701.55971151,E,4,6.0,2.3,94.412,M,36.771,M,2.8,0000*7E,37.23291279766667,137.02599519183335,679723.8811291057,4122633.7049918654
4542,[2021-02-22 16:36:40.277] $GPGGA,73639.9,3713.9747676,N,13701.55971413,E,4,6.0,2.3,94.405,M,36.771,M,2.9,0000*73,37.232912793333334,137.02599523549998,679723.8850134553,4122633.704593974
4544,[2021-02-22 16:36:40.386] $GPGGA,73640.0,3713.97476613,N,13701.55970721,E,4,6.0,2.3,94.413,M,36.771,M,3.0,0000*7D,37.23291276883333,137.02599512016667,679723.8748393914,4122633.701656533
4546,[2021-02-22 16:36:40.480] $GPGGA,73640.1,3713.97476697,N,13701.55970644,E,4,6.0,2.3,94.416,M,36.771,M,3.1,0000*76,37.23291278283333,137.02599510733333,679723.8736675831,4122633.703185551
4548,[2021-02-22 16:36:40.589] $GPGGA,73640.2,3713.97476248,N,13701.55969907,E,4,6.0,2.3,94.442,M,36.771,M,2.2,0000*70,37.232912708,137.02599498450002,679723.8629476661,4122633.6946490654
4550,[2021-02-22 16:36:40.683] $GPGGA,73640.3,3713.97476779,N,13701.55970335,E,4,6.0,2.3,94.425,M,36.771,M,2.3,0000*75,37.232912796499996,137.02599505583333,679723.8690661011,4122633.7046041605
4552,[2021-02-22 16:36:40.792] $GPGGA,73640.4,3713.97476729,N,13701.55970945,E,4,6.0,2.3,94.412,M,36.771,M,2.4,0000*79,37.232912788166665,137.0259951575,679723.8781056516,4122633.7038725815
4554,[2021-02-22 16:36:40.886] $GPGGA,73640.5,3713.97476283,N,13701.55969267,E,4,6.0,2.3,94.440,M,36.771,M,2.5,0000*78,37.232912713833336,137.02599487783334,679723.8534704575,4122633.695093758
4556,[2021-02-22 16:36:40.995] $GPGGA,73640.6,3713.9747638,N,13701.55970015,E,4,6.0,2.3,94.427,M,36.771,M,2.6,0000*74,37.232912729999995,137.0259950025,679723.8644923572,4122633.697124284
4558,[2021-02-22 16:36:41.089] $GPGGA,73640.7,3713.97476541,N,13701.55970303,E,4,6.0,2.3,94.438,M,36.771,M,2.7,0000*75,37.23291275683333,137.0259950505,679723.8686871383,4122633.7001927635
4560,[2021-02-22 16:36:41.183] $GPGGA,73640.8,3713.97476586,N,13701.55970052,E,4,6.0,2.3,94.429,M,36.771,M,2.8,0000*79,37.232912764333335,137.02599500866665,679723.8649579163,4122633.700945498
4562,[2021-02-22 16:36:41.277] $GPGGA,73640.9,3713.97476414,N,13701.5597001,E,4,6.0,2.3,94.431,M,36.771,M,2.9,0000*7C,37.232912735666666,137.02599500166667,679723.8644049672,4122633.697751456
4564,[2021-02-22 16:36:41.386] $GPGGA,73641.0,3713.97476712,N,13701.55970781,E,4,6.0,2.3,94.427,M,36.771,M,3.0,0000*71,37.23291278533333,137.02599513016668,679723.8756873965,4122633.7035063016
4566,[2021-02-22 16:36:41.480] $GPGGA,73641.1,3713.97476461,N,13701.55970332,E,4,6.0,2.3,94.433,M,36.771,M,3.1,0000*7F,37.232912743499995,137.0259950553333,679723.869147611,4122633.6987225222
4568,[2021-02-22 16:36:41.589] $GPGGA,73641.2,3713.97476376,N,13701.55970826,E,4,6.0,2.3,94.424,M,36.771,M,3.2,0000*76,37.23291272933333,137.02599513766668,679723.8764857835,4122633.6973069874
4570,[2021-02-22 16:36:41.683] $GPGGA,73641.3,3713.97476549,N,13701.55970579,E,4,6.0,2.3,94.434,M,36.771,M,2.3,0000*7B,37.23291275816666,137.02599509649997,679723.8727650407,4122633.700428056
4572,[2021-02-22 16:36:41.792] $GPGGA,73641.4,3713.9747636,N,13701.55970104,E,4,6.0,2.3,94.441,M,36.771,M,2.4,0000*7A,37.23291272666667,137.02599501733334,679723.8658162719,4122633.6967825987
4574,[2021-02-22 16:36:41.886] $GPGGA,73641.5,3713.97476817,N,13701.55971046,E,4,6.0,2.3,94.434,M,36.771,M,2.5,0000*75,37.23291280283333,137.02599517433333,679723.8795642543,4122633.7055319077
4576,[2021-02-22 16:36:41.995] $GPGGA,73641.6,3713.97476636,N,13701.55970597,E,4,6.0,2.3,94.439,M,36.771,M,2.6,0000*7D,37.232912772666666,137.02599509949997,679723.8729967615,4122633.70204262
4578,[2021-02-22 16:36:42.089] $GPGGA,73641.7,3713.9747617,N,13701.55969489,E,4,6.0,2.3,94.444,M,36.771,M,2.7,0000*74,37.232912694999996,137.02599491483332,679723.8567977834,4122633.6930743377
4580,[2021-02-22 16:36:42.183] $GPGGA,73641.8,3713.97476437,N,13701.55969925,E,4,6.0,2.3,94.443,M,36.771,M,2.8,0000*7E,37.232912739499994,137.0259949875,679723.8631390112,4122633.6981498855
4582,[2021-02-22 16:36:42.277] $GPGGA,73641.9,3713.9747635,N,13701.55970352,E,4,6.0,2.3,94.430,M,36.771,M,2.9,0000*7E,37.232912725,137.0259950586667,679723.8694872801,4122633.6966761597
4584,[2021-02-22 16:36:42.402] $GPGGA,73642.0,3713.9747613,N,13701.55970287,E,4,6.0,2.3,94.425,M,36.771,M,3.0,0000*75,37.23291268833333,137.02599504783333,679723.8686132367,4122633.6925871875
4586,[2021-02-22 16:36:42.480] $GPGGA,73642.1,3713.97476352,N,13701.55969839,E,4,6.0,2.3,94.440,M,36.771,M,3.1,0000*77,37.232912725333335,137.02599497316666,679723.8619010176,4122633.6965507865
4588,[2021-02-22 16:36:42.589] $GPGGA,73642.2,3713.97476365,N,13701.55970613,E,4,6.0,2.3,94.430,M,36.771,M,2.2,0000*7B,37.23291272750001,137.02599510216663,679723.8733406106,4122633.697036156
4590,[2021-02-22 16:36:42.683] $GPGGA,73642.3,3713.97475899,N,13701.5597,E,4,6.0,2.3,94.433,M,36.771,M,2.3,0000*77,37.23291264983333,137.02599499999997,679723.8644609444,4122633.688224536
4592,[2021-02-22 16:36:42.792] $GPGGA,73642.4,3713.97475857,N,13701.55969267,E,4,6.0,2.3,94.442,M,36.771,M,2.4,0000*78,37.232912642833334,137.02599487783334,679723.8536390759,4122633.687215856
4594,[2021-02-22 16:36:42.886] $GPGGA,73642.5,3713.97475946,N,13701.55969507,E,4,6.0,2.3,94.437,M,36.771,M,2.5,0000*7A,37.23291265766666,137.02599491783334,679723.8571526057,4122633.688937664
4596,[2021-02-22 16:36:42.995] $GPGGA,73642.6,3713.97476287,N,13701.55969692,E,4,6.0,2.3,94.438,M,36.771,M,2.6,0000*7F,37.2329127145,137.02599494866666,679723.8597531328,4122633.695302237
4598,[2021-02-22 16:36:43.089] $GPGGA,73642.7,3713.97475811,N,13701.55968804,E,4,6.0,2.3,94.456,M,36.771,M,2.7,0000*71,37.23291263516667,137.0259948006667,679723.8468111416,4122633.6862186543
4600,[2021-02-22 16:36:43.183] $GPGGA,73642.8,3713.97475694,N,13701.55969315,E,4,6.0,2.3,94.450,M,36.771,M,2.8,0000*7E,37.23291261566667,137.02599488583334,679723.8544133466,4122633.6842167317
4602,[2021-02-22 16:36:43.276] $GPGGA,73642.9,3713.97475792,N,13701.55969191,E,4,6.0,2.3,94.448,M,36.771,M,2.9,0000*7E,37.232912631999994,137.02599486516667,679723.8525410304,4122633.685989774
4604,[2021-02-22 16:36:43.386] $GPGGA,73643.0,3713.97476088,N,13701.55969924,E,4,6.0,2.3,94.442,M,36.771,M,3.0,0000*7D,37.23291268133333,137.02599498733332,679723.8632623635,4122633.6916956077
4606,[2021-02-22 16:36:43.480] $GPGGA,73643.1,3713.97476453,N,13701.55969391,E,4,6.0,2.3,94.442,M,36.771,M,3.1,0000*7B,37.23291274216666,137.0259948985,679723.8552366925,4122633.6982767642
4608,[2021-02-22 16:36:43.589] $GPGGA,73643.2,3713.97476306,N,13701.55969631,E,4,6.0,2.3,94.450,M,36.771,M,3.2,0000*70,37.232912717666665,137.0259949385,679723.8588436352,4122633.695634291
4610,[2021-02-22 16:36:43.683] $GPGGA,73643.3,3713.97476336,N,13701.5597053,E,4,6.0,2.3,94.428,M,36.771,M,2.3,0000*77,37.23291272266667,137.02599508833333,679723.8721248138,4122633.696473597
4612,[2021-02-22 16:36:43.792] $GPGGA,73643.4,3713.97475595,N,13701.55969891,E,4,6.0,2.3,94.443,M,36.771,M,2.4,0000*78,37.23291259916667,137.02599498183335,679723.8629695503,4122633.682568249
4614,[2021-02-22 16:36:43.886] $GPGGA,73643.5,3713.97475453,N,13701.55970522,E,4,6.0,2.3,94.432,M,36.771,M,2.5,0000*78,37.23291257550001,137.02599508699996,679723.8723560262,4122633.6801419877
4616,[2021-02-22 16:36:43.995] $GPGGA,73643.6,3713.97475394,N,13701.55970336,E,4,6.0,2.3,94.441,M,36.771,M,2.6,0000*73,37.232912565666666,137.02599505600003,679723.8696290993,4122633.6789920493
4618,[2021-02-22 16:36:44.089] $GPGGA,73643.7,3713.97475182,N,13701.55971534,E,4,6.0,2.3,94.435,M,36.771,M,2.7,0000*70,37.23291253033334,137.02599525566666,679723.8874272216,4122633.675450746
4620,[2021-02-22 16:36:44.183] $GPGGA,73643.8,3713.97475179,N,13701.5597325,E,4,6.0,2.3,94.441,M,36.771,M,2.8,0000*70,37.23291252983333,137.02599554166665,679723.9128020213,4122633.6759383623
4622,[2021-02-22 16:36:44.276] $GPGGA,73643.9,3713.97475024,N,13701.55974135,E,4,6.0,2.3,94.436,M,36.771,M,2.9,0000*7E,37.232912504,137.02599568916665,679723.9259494154,4122633.6733520837
4624,[2021-02-22 16:36:44.386] $GPGGA,73644.0,3713.97475023,N,13701.55975406,E,4,6.0,2.3,94.440,M,36.771,M,3.0,0000*7A,37.23291250383334,137.025995901,679723.9447434384,4122633.67373585
4626,[2021-02-22 16:36:44.480] $GPGGA,73644.1,3713.9747474,N,13701.5597581,E,4,6.0,2.3,94.459,M,36.771,M,3.1,0000*7A,37.232912456666675,137.02599596833335,679723.9508291986,4122633.6686302694
4628,[2021-02-22 16:36:44.589] $GPGGA,73644.2,3713.97475288,N,13701.5597581,E,4,6.0,2.3,94.450,M,36.771,M,2.2,0000*72,37.232912548,137.02599596833335,679723.9506122903,4122633.6787642855
4630,[2021-02-22 16:36:44.683] $GPGGA,73644.3,3713.97475059,N,13701.55975455,E,4,6.0,2.3,94.461,M,36.771,M,2.3,0000*73,37.23291250983333,137.02599590916668,679723.9454537296,4122633.6744170953
4632,[2021-02-22 16:36:44.792] $GPGGA,73644.4,3713.97475396,N,13701.55976089,E,4,6.0,2.3,94.457,M,36.771,M,2.4,0000*70,37.23291256599999,137.02599601483334,679723.9546949713,4122633.680849797
4634,[2021-02-22 16:36:44.886] $GPGGA,73644.5,3713.97475349,N,13701.55976345,E,4,6.0,2.3,94.462,M,36.771,M,2.5,0000*77,37.23291255816666,137.0259960575,679723.9584989172,4122633.6800616607
4636,[2021-02-22 16:36:44.995] $GPGGA,73644.6,3713.97475035,N,13701.55976262,E,4,6.0,2.3,94.472,M,36.771,M,2.6,0000*7A,37.232912505833326,137.02599604366665,679723.9573959216,4122633.6742286757
4638,[2021-02-22 16:36:45.089] $GPGGA,73644.7,3713.97474742,N,13701.55973413,E,4,6.0,2.3,94.516,M,36.771,M,2.7,0000*7A,37.232912457,137.02599556883334,679723.9153851938,4122633.6679086275
4640,[2021-02-22 16:36:45.183] $GPGGA,73644.8,3713.97475103,N,13701.55975945,E,4,6.0,2.3,94.462,M,36.771,M,2.8,0000*72,37.23291251716666,137.02599599083334,679723.9526816909,4122633.6753858537
4642,[2021-02-22 16:36:45.276] $GPGGA,73644.9,3713.97475454,N,13701.55976278,E,4,6.0,2.3,94.456,M,36.771,M,2.9,0000*74,37.23291257566667,137.02599604633332,679723.9574666587,4122633.681982194
4644,[2021-02-22 16:36:45.386] $GPGGA,73645.0,3713.97475312,N,13701.55976473,E,4,6.0,2.3,94.447,M,36.771,M,3.0,0000*7C,37.232912552,137.02599607883334,679723.9604062325,4122633.6794179427
4646,[2021-02-22 16:36:45.479] $GPGGA,73645.1,3713.9747497,N,13701.55975708,E,4,6.0,2.3,94.466,M,36.771,M,3.1,0000*7C,37.232912495,137.02599595133333,679723.9492299374,4122633.672851314
4648,[2021-02-22 16:36:45.589] $GPGGA,73645.2,3713.97474997,N,13701.55976107,E,4,6.0,2.3,94.456,M,36.771,M,3.2,0000*7C,37.2329124995,137.02599601783336,679723.9551190617,4122633.6734768976
4650,[2021-02-22 16:36:45.683] $GPGGA,73645.3,3713.97475096,N,13701.55976194,E,4,6.0,2.3,94.457,M,36.771,M,2.3,0000*7F,37.232912516,137.0259960323333,679723.9563662955,4122633.675335212
4652,[2021-02-22 16:36:45.792] $GPGGA,73645.4,3713.97475007,N,13701.55975575,E,4,6.0,2.3,94.462,M,36.771,M,2.4,0000*79,37.23291250116666,137.02599592916667,679723.9472486898,4122633.6734934514
4654,[2021-02-22 16:36:45.886] $GPGGA,73645.5,3713.97475582,N,13701.55976391,E,4,6.0,2.3,94.443,M,36.771,M,2.5,0000*7D,37.232912597,137.02599606516668,679723.9590868697,4122633.6843850263
4656,[2021-02-22 16:36:45.995] $GPGGA,73645.6,3713.97475054,N,13701.55976102,E,4,6.0,2.3,94.461,M,36.771,M,2.6,0000*7B,37.232912509,137.02599601699998,679723.9550225635,4122633.6745294
4658,[2021-02-22 16:36:46.089] $GPGGA,73645.7,3713.97475293,N,13701.55976644,E,4,6.0,2.3,94.458,M,36.771,M,2.7,0000*7D,37.232912548833326,137.02599610733333,679723.9629422411,4122633.679120699
4660,[2021-02-22 16:36:46.183] $GPGGA,73645.8,3713.97475087,N,13701.55976145,E,4,6.0,2.3,94.460,M,36.771,M,2.8,0000*77,37.23291251450001,137.02599602416666,679723.9556453216,4122633.6751532704
4662,[2021-02-22 16:36:46.276] $GPGGA,73645.9,3713.97475351,N,13701.55976257,E,4,6.0,2.3,94.463,M,36.771,M,2.9,0000*7C,37.2329125585,137.02599604283333,679723.9571969132,4122633.680070795
4664,[2021-02-22 16:36:46.386] $GPGGA,73646.0,3713.97475289,N,13701.55975961,E,4,6.0,2.3,94.464,M,36.771,M,3.0,0000*70,37.232912548166674,137.0259959935,679723.9528446537,4122633.6788305673
4666,[2021-02-22 16:36:46.479] $GPGGA,73646.1,3713.97474978,N,13701.55975794,E,4,6.0,2.3,94.462,M,36.771,M,3.1,0000*76,37.232912496333334,137.02599596566668,679723.9504984112,4122633.6730264747
4668,[2021-02-22 16:36:46.589] $GPGGA,73646.2,3713.97475557,N,13701.55976584,E,4,6.0,2.3,94.444,M,36.771,M,2.2,0000*73,37.23291259283333,137.02599609733332,679723.961950554,4122633.6839837907
4670,[2021-02-22 16:36:46.682] $GPGGA,73646.3,3713.97475289,N,13701.55976385,E,4,6.0,2.3,94.456,M,36.771,M,2.3,0000*73,37.232912548166674,137.02599606416666,679723.959114124,4122633.6789647583
4672,[2021-02-22 16:36:46.792] $GPGGA,73646.4,3713.97475272,N,13701.55976111,E,4,6.0,2.3,94.449,M,36.771,M,2.4,0000*76,37.232912545333335,137.0259960185,679723.9550693558,4122633.678563664
4674,[2021-02-22 16:36:46.886] $GPGGA,73646.5,3713.97474851,N,13701.55975406,E,4,6.0,2.3,94.457,M,36.771,M,2.5,0000*73,37.23291247516667,137.025995901,679723.9448115191,4122633.6705551
4676,[2021-02-22 16:36:46.995] $GPGGA,73646.6,3713.97475295,N,13701.55976705,E,4,6.0,2.3,94.444,M,36.771,M,2.6,0000*71,37.23291254916666,137.0259961175,679723.9638434243,4122633.6791769904
4678,[2021-02-22 16:36:47.089] $GPGGA,73646.7,3713.97475207,N,13701.55976738,E,4,6.0,2.3,94.437,M,36.771,M,2.7,0000*70,37.232912534499995,137.02599612300003,679723.9643662143,4122633.6775600747
4680,[2021-02-22 16:36:47.182] $GPGGA,73646.8,3713.97475207,N,13701.55976484,E,4,6.0,2.3,94.443,M,36.771,M,2.8,0000*77,37.232912534499995,137.02599608066666,679723.9606104438,4122633.677479686
4682,[2021-02-22 16:36:47.276] $GPGGA,73646.9,3713.97475346,N,13701.55976903,E,4,6.0,2.3,94.439,M,36.771,M,2.9,0000*7C,37.232912557666666,137.02599615050002,679723.9667509655,4122633.6801827853
4684,[2021-02-22 16:36:47.386] $GPGGA,73647.0,3713.97475205,N,13701.55977159,E,4,6.0,2.3,94.433,M,36.771,M,3.0,0000*76,37.23291253416667,137.0259961931667,679723.970592116,4122633.6776563325
4686,[2021-02-22 16:36:47.479] $GPGGA,73647.1,3713.97475012,N,13701.55976818,E,4,6.0,2.3,94.439,M,36.771,M,3.1,0000*75,37.232912502,137.02599613633336,679723.9656263165,4122633.6739793113
4688,[2021-02-22 16:36:47.589] $GPGGA,73647.2,3713.97475224,N,13701.55977196,E,4,6.0,2.3,94.439,M,36.771,M,3.2,0000*7C,37.232912537333334,137.0259961993333,679723.9711316907,4122633.6780194044
4690,[2021-02-22 16:36:47.682] $GPGGA,73647.3,3713.97474958,N,13701.55977063,E,4,6.0,2.3,94.448,M,36.771,M,2.3,0000*71,37.232912493,137.02599617716663,679723.969270376,4122633.673058246
4692,[2021-02-22 16:36:47.792] $GPGGA,73647.4,3713.97473954,N,13701.5597627,E,4,6.0,2.3,94.471,M,36.771,M,2.4,0000*71,37.23291232566667,137.025996045,679723.9579420954,4122633.6542405705
4694,[2021-02-22 16:36:47.886] $GPGGA,73647.5,3713.97474981,N,13701.55977041,E,4,6.0,2.3,94.434,M,36.771,M,2.5,0000*7E,37.232912496833336,137.0259961735,679723.9689359736,4122633.673476616
4696,[2021-02-22 16:36:47.995] $GPGGA,73647.6,3713.97474809,N,13701.55976762,E,4,6.0,2.3,94.445,M,36.771,M,2.6,0000*7E,37.23291246816667,137.025996127,679723.9648786249,4122633.670207566
4698,[2021-02-22 16:36:48.089] $GPGGA,73647.7,3713.97474852,N,13701.55976722,E,4,6.0,2.3,94.437,M,36.771,M,2.7,0000*71,37.23291247533333,137.0259961203333,679723.9642701403,4122633.6709900917
4700,[2021-02-22 16:36:48.182] $GPGGA,73647.8,3713.97474886,N,13701.55976673,E,4,6.0,2.3,94.458,M,36.771,M,2.8,0000*74,37.232912481,137.02599611216667,679723.9635321463,4122633.6716033374
4702,[2021-02-22 16:36:48.276] $GPGGA,73647.9,3713.97474819,N,13701.55976202,E,4,6.0,2.3,94.456,M,36.771,M,2.9,0000*7E,37.23291246983334,137.02599603366667,679723.9565942317,4122633.6702152584
4704,[2021-02-22 16:36:48.386] $GPGGA,73648.0,3713.97474238,N,13701.55976058,E,4,6.0,2.3,94.482,M,36.771,M,3.0,0000*7D,37.232912373000005,137.02599600966667,679723.9546949469,4122633.6594254095
4706,[2021-02-22 16:36:48.479] $GPGGA,73648.1,3713.97473934,N,13701.55975794,E,4,6.0,2.3,94.487,M,36.771,M,3.1,0000*7C,37.232912322333334,137.02599596566668,679723.9509116452,4122633.653720066
4708,[2021-02-22 16:36:48.589] $GPGGA,73648.2,3713.97474162,N,13701.55976146,E,4,6.0,2.3,94.477,M,36.771,M,2.2,0000*74,37.23291236033332,137.0259960243333,679723.956026237,4122633.658047811
4710,[2021-02-22 16:36:48.682] $GPGGA,73648.3,3713.97473746,N,13701.55975478,E,4,6.0,2.3,94.484,M,36.771,M,2.3,0000*74,37.232912291,137.02599591300003,679723.94631353,4122633.6501434227
4712,[2021-02-22 16:36:48.792] $GPGGA,73648.4,3713.97474111,N,13701.55975858,E,4,6.0,2.3,94.486,M,36.771,M,2.4,0000*7B,37.23291235183334,137.02599597633335,679723.9517879204,4122633.6570135355
4714,[2021-02-22 16:36:48.885] $GPGGA,73648.5,3713.9747431,N,13701.55976259,E,4,6.0,2.3,94.467,M,36.771,M,2.5,0000*7F,37.232912385000006,137.02599604316666,679723.9576385316,4122633.660820501
4716,[2021-02-22 16:36:48.995] $GPGGA,73648.6,3713.97474738,N,13701.55976647,E,4,6.0,2.3,94.458,M,36.771,M,2.6,0000*76,37.23291245633333,137.02599610783335,679723.9632062803,4122633.668858184
4718,[2021-02-22 16:36:49.089] $GPGGA,73648.7,3713.9747396,N,13701.55976539,E,4,6.0,2.3,94.468,M,36.771,M,2.7,0000*7B,37.232912326666664,137.02599608983337,679723.9619172877,4122633.6544366633
4720,[2021-02-22 16:36:49.182] $GPGGA,73648.8,3713.97474088,N,13701.55976767,E,4,6.0,2.3,94.462,M,36.771,M,2.8,0000*70,37.232912348,137.02599612783334,679723.9652379396,4122633.6568758907
4722,[2021-02-22 16:36:49.276] $GPGGA,73648.9,3713.97474089,N,13701.55977003,E,4,6.0,2.3,94.467,M,36.771,M,2.9,0000*70,37.232912348166664,137.02599616716665,679723.9687271551,4122633.6569690746
4724,[2021-02-22 16:36:49.385] $GPGGA,73649.0,3713.97474545,N,13701.55976869,E,4,6.0,2.3,94.450,M,36.771,M,3.0,0000*74,37.23291242416666,137.02599614483336,679723.9665652761,4122633.665359349
4726,[2021-02-22 16:36:49.479] $GPGGA,73649.1,3713.97474702,N,13701.55976941,E,4,6.0,2.3,94.443,M,36.771,M,3.1,0000*7C,37.23291245033333,137.02599615683332,679723.9675677556,4122633.668285494
4728,[2021-02-22 16:36:49.589] $GPGGA,73649.2,3713.97474241,N,13701.55976284,E,4,6.0,2.3,94.452,M,36.771,M,3.2,0000*7C,37.2329123735,137.02599604733334,679723.9580355063,4122633.6595524126
4730,[2021-02-22 16:36:49.682] $GPGGA,73649.3,3713.97474299,N,13701.55977177,E,4,6.0,2.3,94.439,M,36.771,M,2.3,0000*7B,37.23291238316666,137.02599619616666,679723.9712168816,4122633.660907617
4732,[2021-02-22 16:36:49.792] $GPGGA,73649.4,3713.97474556,N,13701.55976941,E,4,6.0,2.3,94.442,M,36.771,M,2.4,0000*7F,37.232912426000006,137.02599615683332,679723.9676255451,4122633.665585557
4734,[2021-02-22 16:36:49.885] $GPGGA,73649.5,3713.97474506,N,13701.55976209,E,4,6.0,2.3,94.439,M,36.771,M,2.5,0000*71,37.23291241766666,137.02599603483333,679723.9568216269,4122633.6644292492
4736,[2021-02-22 16:36:49.995] $GPGGA,73649.6,3713.97474603,N,13701.55976517,E,4,6.0,2.3,94.448,M,36.771,M,2.6,0000*79,37.232912433833334,137.02599608616669,679723.9613374736,4122633.666320523
4738,[2021-02-22 16:36:50.088] $GPGGA,73649.7,3713.97474776,N,13701.55976367,E,4,6.0,2.3,94.442,M,36.771,M,2.7,0000*71,37.23291246266666,137.02599606116667,679723.9590510216,4122633.669472291
4740,[2021-02-22 16:36:50.182] $GPGGA,73649.8,3713.97474829,N,13701.55976436,E,4,6.0,2.3,94.455,M,36.771,M,2.8,0000*71,37.2329124715,137.02599607266666,679723.9600503106,4122633.670474244
4742,[2021-02-22 16:36:50.276] $GPGGA,73649.9,3713.974749,N,13701.55976435,E,4,6.0,2.3,94.447,M,36.771,M,2.9,0000*7B,37.23291248333333,137.0259960725,679723.9600074214,4122633.671786911
4744,[2021-02-22 16:36:50.385] $GPGGA,73650.0,3713.97474679,N,13701.55976121,E,4,6.0,2.3,94.456,M,36.771,M,3.0,0000*73,37.2329124465,137.02599602016664,679723.955451938,4122633.6676006406
4746,[2021-02-22 16:36:50.479] $GPGGA,73650.1,3713.97475009,N,13701.55976455,E,4,6.0,2.3,94.453,M,36.771,M,3.1,0000*70,37.2329125015,137.02599607583335,679723.9602600085,4122633.6738089495
4748,[2021-02-22 16:36:50.588] $GPGGA,73650.2,3713.97475242,N,13701.55975809,E,4,6.0,2.3,94.423,M,36.771,M,2.2,0000*7D,37.23291254033334,137.02599596816665,679723.9506157096,4122633.6779133026
4750,[2021-02-22 16:36:50.682] $GPGGA,73650.3,3713.97475098,N,13701.55975317,E,4,6.0,2.3,94.436,M,36.771,M,2.3,0000*78,37.232912516333336,137.02599588616667,679723.943397756,4122633.6750946357
4752,[2021-02-22 16:36:50.792] $GPGGA,73650.4,3713.97474979,N,13701.55975172,E,4,6.0,2.3,94.437,M,36.771,M,2.4,0000*7F,37.23291249649999,137.025995862,679723.9413008173,4122633.6728481096
4754,[2021-02-22 16:36:50.885] $GPGGA,73650.5,3713.97475198,N,13701.55975369,E,4,6.0,2.3,94.424,M,36.771,M,2.5,0000*73,37.232912533,137.02599589483333,679723.9441270705,4122633.6769603654
4756,[2021-02-22 16:36:50.995] $GPGGA,73650.6,3713.97474839,N,13701.55974356,E,4,6.0,2.3,94.442,M,36.771,M,2.6,0000*7D,37.23291247316667,137.025995726,679723.9292904565,4122633.6700008735
4758,[2021-02-22 16:36:51.088] $GPGGA,73650.7,3713.97475027,N,13701.55974775,E,4,6.0,2.3,94.451,M,36.771,M,2.7,0000*7C,37.23291250450001,137.02599579583332,679723.9354115808,4122633.6736101154
4760,[2021-02-22 16:36:51.182] $GPGGA,73650.8,3713.97475111,N,13701.55974846,E,4,6.0,2.3,94.443,M,36.771,M,2.8,0000*74,37.232912518499994,137.02599580766665,679723.9364281715,4122633.675185974
4762,[2021-02-22 16:36:51.276] $GPGGA,73650.9,3713.97475103,N,13701.55975227,E,4,6.0,2.3,94.421,M,36.771,M,2.9,0000*7F,37.23291251716666,137.02599587116669,679723.9420649948,4122633.675158615
4764,[2021-02-22 16:36:51.385] $GPGGA,73651.0,3713.97475207,N,13701.55975154,E,4,6.0,2.3,94.433,M,36.771,M,3.0,0000*7C,37.232912534499995,137.025995859,679723.9409444139,4122633.6770587545
4766,[2021-02-22 16:36:51.479] $GPGGA,73651.1,3713.97475035,N,13701.55974913,E,4,6.0,2.3,94.439,M,36.771,M,3.1,0000*7F,37.232912505833326,137.0259958188333,679723.9374489489,4122633.6738017313
4768,[2021-02-22 16:36:51.588] $GPGGA,73651.2,3713.97475382,N,13701.55975146,E,4,6.0,2.3,94.434,M,36.771,M,3.2,0000*74,37.232912563666666,137.02599585766666,679723.9407568533,4122633.6802924504
4770,[2021-02-22 16:36:51.682] $GPGGA,73651.3,3713.97475009,N,13701.55975853,E,4,6.0,2.3,94.450,M,36.771,M,2.3,0000*7A,37.2329125015,137.02599597550002,679723.9513585437,4122633.6736184224
4772,[2021-02-22 16:36:51.792] $GPGGA,73651.4,3713.97475321,N,13701.55975837,E,4,6.0,2.3,94.433,M,36.771,M,2.4,0000*74,37.23291255350001,137.02599597283336,679723.9509984637,4122633.67938309
4774,[2021-02-22 16:36:51.885] $GPGGA,73651.5,3713.97475036,N,13701.55975462,E,4,6.0,2.3,94.434,M,36.771,M,2.5,0000*7A,37.232912506,137.02599591033336,679723.9455663399,4122633.6739939773
4776,[2021-02-22 16:36:51.995] $GPGGA,73651.6,3713.97474778,N,13701.55975813,E,4,6.0,2.3,94.435,M,36.771,M,2.6,0000*7D,37.232912463,137.02599596883334,679723.9508585155,4122633.669333941
4778,[2021-02-22 16:36:52.088] $GPGGA,73651.7,3713.97474317,N,13701.55974747,E,4,6.0,2.3,94.445,M,36.771,M,2.7,0000*78,37.23291238616666,137.02599579116668,679723.9352785924,4122633.6604714156
4780,[2021-02-22 16:36:52.182] $GPGGA,73651.8,3713.97474694,N,13701.55975609,E,4,6.0,2.3,94.440,M,36.771,M,2.8,0000*79,37.232912449,137.02599593483333,679723.9478753203,4122633.667715988
4782,[2021-02-22 16:36:52.276] $GPGGA,73651.9,3713.97474468,N,13701.55975432,E,4,6.0,2.3,94.432,M,36.771,M,2.9,0000*77,37.23291241133334,137.0259959053333,679723.9453475644,4122633.663480614
4784,[2021-02-22 16:36:52.401] $GPGGA,73652.0,3713.9747477,N,13701.5597604,E,4,6.0,2.3,94.432,M,36.771,M,3.0,0000*7D,37.232912461666665,137.02599600666665,679723.9542182125,4122633.6692578425
4786,[2021-02-22 16:36:52.479] $GPGGA,73652.1,3713.97474741,N,13701.55975641,E,4,6.0,2.3,94.442,M,36.771,M,3.1,0000*7C,37.23291245683333,137.02599594016667,679723.9483298844,4122633.668595275
4788,[2021-02-22 16:36:52.588] $GPGGA,73652.2,3713.97474482,N,13701.55974514,E,4,6.0,2.3,94.470,M,36.771,M,2.2,0000*72,37.23291241366666,137.02599575233333,679723.9317680291,4122633.663448973
4790,[2021-02-22 16:36:52.682] $GPGGA,73652.3,3713.97474065,N,13701.55974366,E,4,6.0,2.3,94.479,M,36.771,M,2.3,0000*75,37.232912344166664,137.02599572766664,679723.929744684,4122633.6556906654
4792,[2021-02-22 16:36:52.791] $GPGGA,73652.4,3713.97474447,N,13701.55975069,E,4,6.0,2.3,94.466,M,36.771,M,2.4,0000*72,37.23291240783333,137.02599584483335,679723.9399883857,4122633.662977381
4794,[2021-02-22 16:36:52.885] $GPGGA,73652.5,3713.97474024,N,13701.55974123,E,4,6.0,2.3,94.489,M,36.771,M,2.5,0000*7C,37.23291233733333,137.02599568716667,679723.926167797,4122633.6548555573
4796,[2021-02-22 16:36:52.995] $GPGGA,73652.6,3713.9747438,N,13701.55974713,E,4,6.0,2.3,94.474,M,36.771,M,2.6,0000*76,37.23291239666667,137.0259957855,679723.934750912,4122633.6616256977
4798,[2021-02-22 16:36:53.088] $GPGGA,73652.7,3713.97475092,N,13701.55975361,E,4,6.0,2.3,94.428,M,36.771,M,2.7,0000*7E,37.23291251533333,137.02599589349998,679723.9440507349,4122633.6749976054
4800,[2021-02-22 16:36:53.182] $GPGGA,73652.8,3713.97473822,N,13701.55974417,E,4,6.0,2.3,94.483,M,36.771,M,2.8,0000*7D,37.232912303666666,137.02599573616664,679723.9305949782,4122633.6512130746
4802,[2021-02-22 16:36:53.276] $GPGGA,73652.9,3713.97473983,N,13701.55973974,E,4,6.0,2.3,94.488,M,36.771,M,2.9,0000*73,37.23291233050001,137.02599566233334,679723.9239808405,4122633.6540502
4804,[2021-02-22 16:36:53.385] $GPGGA,73653.0,3713.97474264,N,13701.55974212,E,4,6.0,2.3,94.479,M,36.771,M,3.0,0000*74,37.232912377333335,137.025995702,679723.9273887968,4122633.6593219806
4806,[2021-02-22 16:36:53.479] $GPGGA,73653.1,3713.97474019,N,13701.5597388,E,4,6.0,2.3,94.490,M,36.771,M,3.1,0000*7D,37.23291233649999,137.02599564666667,679723.9225766605,4122633.654686186
4808,[2021-02-22 16:36:53.588] $GPGGA,73653.2,3713.97474096,N,13701.55974198,E,4,6.0,2.3,94.480,M,36.771,M,3.2,0000*7C,37.23291234933333,137.02599569966668,679723.9272482859,4122633.6562107713
4810,[2021-02-22 16:36:53.682] $GPGGA,73653.3,3713.97473615,N,13701.55973841,E,4,6.0,2.3,94.478,M,36.771,M,2.3,0000*7A,37.23291226916667,137.02599564016668,679723.9221598993,4122633.6472027814
4812,[2021-02-22 16:36:53.791] $GPGGA,73653.4,3713.97472981,N,13701.55973953,E,4,6.0,2.3,94.507,M,36.771,M,2.4,0000*72,37.232912163499996,137.02599565883335,679723.9240669329,4122633.635513839
4814,[2021-02-22 16:36:53.885] $GPGGA,73653.5,3713.97474229,N,13701.55974594,E,4,6.0,2.3,94.460,M,36.771,M,2.5,0000*7D,37.2329123715,137.02599576566666,679723.933051091,4122633.6587956343
4816,[2021-02-22 16:36:53.994] $GPGGA,73653.6,3713.9747379,N,13701.55973894,E,4,6.0,2.3,94.473,M,36.771,M,2.6,0000*75,37.23291229833333,137.025995649,679723.9228743134,4122633.650455782
4818,[2021-02-22 16:36:54.088] $GPGGA,73653.7,3713.97473833,N,13701.55973839,E,4,6.0,2.3,94.478,M,36.771,M,2.7,0000*7F,37.232912305499994,137.02599563983333,679723.9220440345,4122633.6512335623
4820,[2021-02-22 16:36:54.182] $GPGGA,73653.8,3713.974741,N,13701.55974403,E,4,6.0,2.3,94.459,M,36.771,M,2.8,0000*70,37.23291235,137.02599573383335,679723.9302779345,4122633.6563496212
4822,[2021-02-22 16:36:54.276] $GPGGA,73653.9,3713.97474294,N,13701.55973567,E,4,6.0,2.3,94.471,M,36.771,M,2.9,0000*70,37.232912382333325,137.0259955945,679723.9178396373,4122633.6596726244
4824,[2021-02-22 16:36:54.385] $GPGGA,73654.0,3713.97474174,N,13701.55973122,E,4,6.0,2.3,94.476,M,36.771,M,3.0,0000*79,37.23291236233334,137.02599552033337,679723.9113071526,4122633.6573126605
4826,[2021-02-22 16:36:54.479] $GPGGA,73654.1,3713.97474478,N,13701.55973622,E,4,6.0,2.3,94.449,M,36.771,M,3.1,0000*7B,37.232912412999994,137.02599560366667,679723.9185800657,4122633.6630926947
4828,[2021-02-22 16:36:54.588] $GPGGA,73654.2,3713.97474437,N,13701.5597318,E,4,6.0,2.3,94.456,M,36.771,M,2.2,0000*70,37.23291240616666,137.02599553000002,679723.9120606671,4122633.662194604
4830,[2021-02-22 16:36:54.682] $GPGGA,73654.3,3713.97474362,N,13701.55972715,E,4,6.0,2.3,94.460,M,36.771,M,2.3,0000*79,37.23291239366666,137.02599545249998,679723.905214635,4122633.6606604815
4832,[2021-02-22 16:36:54.791] $GPGGA,73654.4,3713.97474526,N,13701.5597324,E,4,6.0,2.3,94.445,M,36.771,M,2.4,0000*7C,37.232912420999995,137.02599554,679723.9129126281,4122633.663859447
4834,[2021-02-22 16:36:54.885] $GPGGA,73654.5,3713.9747431,N,13701.55971944,E,4,6.0,2.3,94.473,M,36.771,M,2.5,0000*77,37.232912385000006,137.02599532399998,679723.8938348343,4122633.6594548486
4836,[2021-02-22 16:36:54.994] $GPGGA,73654.6,3713.97474954,N,13701.55972628,E,4,6.0,2.3,94.457,M,36.771,M,2.6,0000*7D,37.232912492333334,137.02599543800002,679723.9036938889,4122633.671580643
4838,[2021-02-22 16:36:55.088] $GPGGA,73654.7,3713.97474727,N,13701.559723,E,4,6.0,2.3,94.460,M,36.771,M,2.7,0000*7C,37.2329124545,137.02599538333334,679723.8989337696,4122633.6672789846
4840,[2021-02-22 16:36:55.182] $GPGGA,73654.8,3713.97474079,N,13701.55971663,E,4,6.0,2.3,94.465,M,36.771,M,2.8,0000*76,37.232912346499994,137.02599527716663,679723.8897712625,4122633.655094093
4842,[2021-02-22 16:36:55.276] $GPGGA,73654.9,3713.97474333,N,13701.55971938,E,4,6.0,2.3,94.460,M,36.771,M,2.9,0000*7F,37.232912388833334,137.02599532300002,679723.8937370146,4122633.659878281
4844,[2021-02-22 16:36:55.385] $GPGGA,73655.0,3713.97474511,N,13701.55972798,E,4,6.0,2.3,94.458,M,36.771,M,3.0,0000*75,37.2329124185,137.02599546633334,679723.9063829381,4122633.6634421675
4846,[2021-02-22 16:36:55.479] $GPGGA,73655.1,3713.97474189,N,13701.55972191,E,4,6.0,2.3,94.461,M,36.771,M,3.1,0000*75,37.23291236483333,137.02599536516664,679723.8975349901,4122633.657295399
4848,[2021-02-22 16:36:55.588] $GPGGA,73655.2,3713.97474304,N,13701.55973274,E,4,6.0,2.3,94.450,M,36.771,M,3.2,0000*79,37.232912384,137.02599554566666,679723.9135032392,4122633.6597648216
4850,[2021-02-22 16:36:55.682] $GPGGA,73655.3,3713.97474344,N,13701.55973827,E,4,6.0,2.3,94.438,M,36.771,M,2.3,0000*7E,37.23291239066667,137.02599563783335,679723.9216643351,4122633.6606795513
4852,[2021-02-22 16:36:55.791] $GPGGA,73655.4,3713.97475192,N,13701.55974236,E,4,6.0,2.3,94.425,M,36.771,M,2.4,0000*77,37.232912532,137.02599570599997,679723.927376353,4122633.6764908275
