
[2021-02-23 09:29:34.722] $GPGGA,,,,,,,,,,M,,M,,*56
[2021-02-23 09:29:34.754] $GPGGA,,,,,,,,,,M,,M,,*56
[2021-02-23 09:29:34.754] $GPGGA,,,,,,,,,,M,,M,,*56
[2021-02-23 09:29:34.754] $GPGGA,,,,,,,,,,M,,M,,*56
[2021-02-23 09:29:34.754] $GPGGA,,,,,,,,,,M,,M,,*56
[2021-02-23 09:29:34.754] $GPGGA,,,,,,,,,,M,,M,,*56
[2021-02-23 09:29:34.754] $GPGGA,,,,,,,,,,M,,M,,*56
[2021-02-23 09:29:34.754] $GPGGA,,,,,,,,,,M,,M,,*56
[2021-02-23 09:29:34.754] $GPGGA,,,,,,,,,,M,,M,,*56
[2021-02-23 09:29:34.754] $GPGGA,,,,,,,,,,M,,M,,*56
[2021-02-23 09:29:34.754] $GPGGA,,,,,,,,,,M,,M,,*56
[2021-02-23 09:29:34.754] $GPGGA,,,,,,,,,,M,,M,,*56
[2021-02-23 09:29:34.754] $GPGGA,,,,,,,,,,M,,M,,*56
[2021-02-23 09:29:34.754] $GPGGA,,,,,,,,,,M,,M,,*56
[2021-02-23 09:29:34.754] $GPGGA,,,,,,,,,,M,,M,,*56
[2021-02-23 09:29:34.754] $GPGGA,,,,,,,,,,M,,M,,*56
[2021-02-23 09:29:34.754] $GPGGA,,,,,,,,,,M,,M,,*56
[2021-02-23 09:29:34.754] $GPGGA,,,,,,,,,,M,,M,,*56
[2021-02-23 09:29:34.754] $GPGGA,,,,,,,,,,M,,M,,*56
[2021-02-23 09:29:34.754] $GPGGA,,,,,,,,,,M,,M,,*56
[2021-02-23 09:29:34.754] $GPGGA,,,,,,,,,,M,,M,,*56
[2021-02-23 09:29:34.754] $GPGGA,,,,,,,,,,M,,M,,*56
[2021-02-23 09:29:34.754] $GPGGA,,,,,,,,,,M,,M,,*56
[2021-02-23 09:29:34.754] $GPGGA,,,,,,,,,,M,,M,,*56
[2021-02-23 09:29:34.754] $GPGGA,,,,,,,,,,M,,M,,*56
[2021-02-23 09:29:34.754] $GPGGA,,,,,,,,,,M,,M,,*56
[2021-02-23 09:29:34.754] $GPGGA,,,,,,,,,,M,,M,,*56
[2021-02-23 09:29:34.754] $GPGGA,,,,,,,,,,M,,M,,*56
[2021-02-23 09:29:34.754] $GPGGA,,,,,,,,,,M,,M,,*56
[2021-02-23 09:29:34.754] $GPGGA,,,,,,,,,,M,,M,,*56
[2021-02-23 09:29:34.754] $GPGGA,,,,,,,,,,M,,M,,*56
[2021-02-23 09:29:34.754] $GPGGA,,,,,,,,,,M,,M,,*56
[2021-02-23 09:29:34.754] $GPGGA,,,,,,,,,,M,,M,,*56
[2021-02-23 09:29:34.754] $GPGGA,,,,,,,,,,M,,M,,*56
[2021-02-23 09:29:34.754] $GPGGA,,,,,,,,,,M,,M,,*56
[2021-02-23 09:29:34.754] $GPGGA,,,,,,,,,,M,,M,,*56
[2021-02-23 09:29:34.754] $GPGGA,,,,,,,,,,M,,M,,*56
[2021-02-23 09:29:34.754] $GPGGA,,,,,,,,,,M,,M,,*56
[2021-02-23 09:29:34.754] $GPGGA,,,,,,,,,,M,,M,,*56
[2021-02-23 09:29:34.769] $GPGGA,,,,,,,,,,M,,M,,*56
[2021-02-23 09:29:34.769] $GPGGA,,,,,,,,,,M,,M,,*56
[2021-02-23 09:29:34.769] $GPGGA,,,,,,,,,,M,,M,,*56
[2021-02-23 09:29:34.769] $GPGGA,,,,,,,,,,M,,M,,*56
[2021-02-23 09:29:34.769] $GPGGA,,,,,,,,,,M,,M,,*56
[2021-02-23 09:29:34.769] $GPGGA,,,,,,,,,,M,,M,,*56
[2021-02-23 09:29:34.769] $GPGGA,,,,,,,,,,M,,M,,*56
[2021-02-23 09:29:34.769] $GPGGA,,,,,,,,,,M,,M,,*56
[2021-02-23 09:29:34.769] $GPGGA,,,,,,,,,,M,,M,,*56
[2021-02-23 09:29:34.769] $GPGGA,,,,,,,,,,M,,M,,*56
[2021-02-23 09:29:34.769] $GPGGA,,,,,,,,,,M,,M,,*56
[2021-02-23 09:29:34.769] $GPGGA,,,,,,,,,,M,,M,,*56
[2021-02-23 09:29:34.769] $GPGGA,,,,,,,,,,M,,M,,*56
[2021-02-23 09:29:34.769] $GPGGA,,,,,,,,,,M,,M,,*56
[2021-02-23 09:29:34.769] $GPGGA,,,,,,,,,,M,,M,,*56
[2021-02-23 09:29:34.769] $GPGGA,,,,,,,,,,M,,M,,*56
[2021-02-23 09:29:34.769] $GPGGA,,,,,,,,,,M,,M,,*56
[2021-02-23 09:29:34.769] $GPGGA,,,,,,,,,,M,,M,,*56
[2021-02-23 09:29:34.769] $GPGGA,,,,,,,,,,M,,M,,*56
[2021-02-23 09:29:34.769] $GPGGA,,,,,,,,,,M,,M,,*56
[2021-02-23 09:29:34.769] $GPGGA,,,,,,,,,,M,,M,,*56
[2021-02-23 09:29:34.769] $GPGGA,,,,,,,,,,M,,M,,*56
[2021-02-23 09:29:34.769] $GPGGA,,,,,,,,,,M,,M,,*56
[2021-02-23 09:29:34.769] $GPGGA,,,,,,,,,,M,,M,,*56
[2021-02-23 09:29:34.769] $GPGGA,,,,,,,,,,M,,M,,*56
[2021-02-23 09:29:34.769] $GPGGA,,,,,,,,,,M,,M,,*56
[2021-02-23 09:29:34.769] $GPGGA,,,,,,,,,,M,,M,,*56
[2021-02-23 09:29:34.769] $GPGGA,,,,,,,,,,M,,M,,*56
[2021-02-23 09:29:34.769] $GPGGA,,,,,,,,,,M,,M,,*56
[2021-02-23 09:29:34.769] $GPGGA,,,,,,,,,,M,,M,,*56
[2021-02-23 09:29:34.769] $GPGGA,,,,,,,,,,M,,M,,*56
[2021-02-23 09:29:34.769] $GPGGA,,,,,,,,,,M,,M,,*56
[2021-02-23 09:29:34.769] $GPGGA,,,,,,,,,,M,,M,,*56
[2021-02-23 09:29:34.769] $GPGGA,,,,,,,,,,M,,M,,*56
[2021-02-23 09:29:34.769] $GPGGA,,,,,,,,,,M,,M,,*56
[2021-02-23 09:29:34.769] $GPGGA,,,,,,,,,,M,,M,,*56
[2021-02-23 09:29:34.769] $GPGGA,,,,,,,,,,M,,M,,*56
[2021-02-23 09:29:34.769] $GPGGA,,,,,,,,,,M,,M,,*56
[2021-02-23 09:29:34.785] $GPGGA,,,,,,,,,,M,,M,,*56
[2021-02-23 09:29:34.785] $GPGGA,,,,,,,,,,M,,M,,*56
[2021-02-23 09:29:34.785] $GPGGA,,,,,,,,,,M,,M,,*56
[2021-02-23 09:29:34.785] $GPGGA,,,,,,,,,,M,,M,,*56
[2021-02-23 09:29:34.785] $GPGGA,,,,,,,,,,M,,M,,*56
[2021-02-23 09:29:34.785] $GPGGA,,,,,,,,,,M,,M,,*56
[2021-02-23 09:29:34.785] $GPGGA,,,,,,,,,,M,,M,,*56
[2021-02-23 09:29:34.785] $GPGGA,,,,,,,,,,M,,M,,*56
[2021-02-23 09:29:34.785] $GPGGA,,,,,,,,,,M,,M,,*56
[2021-02-23 09:29:34.785] $GPGGA,,,,,,,,,,M,,M,,*56
[2021-02-23 09:29:34.785] $GPGGA,,,,,,,,,,M,,M,,*56
[2021-02-23 09:29:34.785] $GPGGA,,,,,,,,,,M,,M,,*56
[2021-02-23 09:29:34.785] $GPGGA,,,,,,,,,,M,,M,,*56
[2021-02-23 09:29:34.785] $GPGGA,,,,,,,,,,M,,M,,*56
[2021-02-23 09:29:34.785] $GPGGA,,,,,,,,,,M,,M,,*56
[2021-02-23 09:29:34.785] $GPGGA,,,,,,,,,,M,,M,,*56
[2021-02-23 09:29:34.785] $GPGGA,,,,,,,,,,M,,M,,*56
[2021-02-23 09:29:34.785] $GPGGA,,,,,,,,,,M,,M,,*56
[2021-02-23 09:29:34.785] $GPGGA,,,,,,,,,,M,,M,,*56
[2021-02-23 09:29:34.785] $GPGGA,,,,,,,,,,M,,M,,*56
[2021-02-23 09:29:34.785] $GPGGA,,,,,,,,,,M,,M,,*56
[2021-02-23 09:29:34.785] $GPGGA,,,,,,,,,,M,,M,,*56
[2021-02-23 09:29:34.785] $GPGGA,,,,,,,,,,M,,M,,*56
[2021-02-23 09:29:34.785] $GPGGA,,,,,,,,,,M,,M,,*56
[2021-02-23 09:29:34.785] $GPGGA,,,,,,,,,,M,,M,,*56
[2021-02-23 09:29:34.785] $GPGGA,,,,,,,,,,M,,M,,*56
[2021-02-23 09:29:34.785] $GPGGA,,,,,,,,,,M,,M,,*56
[2021-02-23 09:29:34.785] $GPGGA,,,,,,,,,,M,,M,,*56
[2021-02-23 09:29:34.785] $GPGGA,,,,,,,,,,M,,M,,*56
[2021-02-23 09:29:34.785] $GPGGA,,,,,,,,,,M,,M,,*56
[2021-02-23 09:29:34.785] $GPGGA,,,,,,,,,,M,,M,,*56
[2021-02-23 09:29:34.785] $GPGGA,,,,,,,,,,M,,M,,*56
[2021-02-23 09:29:34.785] $GPGGA,,,,,,,,,,M,,M,,*56
[2021-02-23 09:29:34.785] $GPGGA,,,,,,,,,,M,,M,,*56
[2021-02-23 09:29:34.785] $GPGGA,,,,,,,,,,M,,M,,*56
[2021-02-23 09:29:34.785] $GPGGA,,,,,,,,,,M,,M,,*56
[2021-02-23 09:29:34.785] $GPGGA,,,,,,,,,,M,,M,,*56
[2021-02-23 09:29:34.816] $GPGGA,,,,,,,,,,M,,M,,*56
[2021-02-23 09:29:34.816] $GPGGA,,,,,,,,,,M,,M,,*56
[2021-02-23 09:29:34.816] $GPGGA,,,,,,,,,,M,,M,,*56
[2021-02-23 09:29:34.816] $GPGGA,,,,,,,,,,M,,M,,*56
[2021-02-23 09:29:34.816] $GPGGA,,,,,,,,,,M,,M,,*56
[2021-02-23 09:29:34.816] $GPGGA,,,,,,,,,,M,,M,,*56
[2021-02-23 09:29:34.816] $GPGGA,,,,,,,,,,M,,M,,*56
[2021-02-23 09:29:34.816] $GPGGA,,,,,,,,,,M,,M,,*56
[2021-02-23 09:29:34.816] $GPGGA,,,,,,,,,,M,,M,,*56
[2021-02-23 09:29:34.816] $GPGGA,,,,,,,,,,M,,M,,*56
[2021-02-23 09:29:34.816] $GPGGA,,,,,,,,,,M,,M,,*56
[2021-02-23 09:29:34.816] $GPGGA,,,,,,,,,,M,,M,,*56
[2021-02-23 09:29:34.816] $GPGGA,,,,,,,,,,M,,M,,*56
[2021-02-23 09:29:34.816] $GPGGA,,,,,,,,,,M,,M,,*56
[2021-02-23 09:29:34.816] $GPGGA,,,,,,,,,,M,,M,,*56
[2021-02-23 09:29:34.816] $GPGGA,,,,,,,,,,M,,M,,*56
[2021-02-23 09:29:34.816] $GPGGA,,,,,,,,,,M,,M,,*56
[2021-02-23 09:29:34.816] $GPGGA,,,,,,,,,,M,,M,,*56
[2021-02-23 09:29:34.816] $GPGGA,,,,,,,,,,M,,M,,*56
[2021-02-23 09:29:34.816] $GPGGA,,,,,,,,,,M,,M,,*56
[2021-02-23 09:29:34.816] $GPGGA,,,,,,,,,,M,,M,,*56
[2021-02-23 09:29:34.816] $GPGGA,,,,,,,,,,M,,M,,*56
[2021-02-23 09:29:34.816] $GPGGA,,,,,,,,,,M,,M,,*56
[2021-02-23 09:29:34.816] $GPGGA,,,,,,,,,,M,,M,,*56
[2021-02-23 09:29:34.816] $GPGGA,,,,,,,,,,M,,M,,*56
[2021-02-23 09:29:34.816] $GPGGA,,,,,,,,,,M,,M,,*56
[2021-02-23 09:29:34.816] $GPGGA,,,,,,,,,,M,,M,,*56
[2021-02-23 09:29:34.816] $GPGGA,,,,,,,,,,M,,M,,*56
[2021-02-23 09:29:34.816] $GPGGA,,,,,,,,,,M,,M,,*56
[2021-02-23 09:29:34.816] $GPGGA,,,,,,,,,,M,,M,,*56
[2021-02-23 09:29:34.816] $GPGGA,,,,,,,,,,M,,M,,*56
[2021-02-23 09:29:34.816] $GPGGA,,,,,,,,,,M,,M,,*56
[2021-02-23 09:29:34.816] $GPGGA,,,,,,,,,,M,,M,,*56
[2021-02-23 09:29:34.816] $GPGGA,,,,,,,,,,M,,M,,*56
[2021-02-23 09:29:34.816] $GPGGA,,,,,,,,,,M,,M,,*56
[2021-02-23 09:29:34.816] $GPGGA,,,,,,,,,,M,,M,,*56
[2021-02-23 09:29:34.816] $GPGGA,,,,,,,,,,M,,M,,*56
[2021-02-23 09:29:34.816] $GPGGA,,,,,,,,,,M,,M,,*56
[2021-02-23 09:29:34.832] $GPGGA,,,,,,,,,,M,,M,,*56
[2021-02-23 09:29:34.832] $GPGGA,,,,,,,,,,M,,M,,*56
[2021-02-23 09:29:34.832] $GPGGA,,,,,,,,,,M,,M,,*56
[2021-02-23 09:29:34.832] $GPGGA,,,,,,,,,,M,,M,,*56
[2021-02-23 09:29:34.832] $GPGGA,,,,,,,,,,M,,M,,*56
[2021-02-23 09:29:34.832] $GPGGA,,,,,,,,,,M,,M,,*56
[2021-02-23 09:29:34.832] $GPGGA,,,,,,,,,,M,,M,,*56
[2021-02-23 09:29:34.832] $GPGGA,,,,,,,,,,M,,M,,*56
[2021-02-23 09:29:34.832] $GPGGA,,,,,,,,,,M,,M,,*56
[2021-02-23 09:29:34.832] $GPGGA,,,,,,,,,,M,,M,,*56
[2021-02-23 09:29:34.832] $GPGGA,,,,,,,,,,M,,M,,*56
[2021-02-23 09:29:34.832] $GPGGA,,,,,,,,,,M,,M,,*56
[2021-02-23 09:29:34.832] $GPGGA,,,,,,,,,,M,,M,,*56
[2021-02-23 09:29:34.832] $GPGGA,,,,,,,,,,M,,M,,*56
[2021-02-23 09:29:34.832] $GPGGA,,,,,,,,,,M,,M,,*56
[2021-02-23 09:29:34.832] $GPGGA,,,,,,,,,,M,,M,,*56
[2021-02-23 09:29:34.832] $GPGGA,,,,,,,,,,M,,M,,*56
[2021-02-23 09:29:34.832] $GPGGA,,,,,,,,,,M,,M,,*56
[2021-02-23 09:29:34.832] $GPGGA,,,,,,,,,,M,,M,,*56
[2021-02-23 09:29:34.832] $GPGGA,,,,,,,,,,M,,M,,*56
[2021-02-23 09:29:34.832] $GPGGA,,,,,,,,,,M,,M,,*56
[2021-02-23 09:29:34.832] $GPGGA,,,,,,,,,,M,,M,,*56
[2021-02-23 09:29:34.832] $GPGGA,,,,,,,,,,M,,M,,*56
[2021-02-23 09:29:34.832] $GPGGA,,,,,,,,,,M,,M,,*56
[2021-02-23 09:29:34.832] $GPGGA,,,,,,,,,,M,,M,,*56
[2021-02-23 09:29:34.832] $GPGGA,,,,,,,,,,M,,M,,*56
[2021-02-23 09:29:34.832] $GPGGA,,,,,,,,,,M,,M,,*56
[2021-02-23 09:29:34.832] $GPGGA,,,,,,,,,,M,,M,,*56
[2021-02-23 09:29:34.832] $GPGGA,,,,,,,,,,M,,M,,*56
[2021-02-23 09:29:34.832] $GPGGA,,,,,,,,,,M,,M,,*56
[2021-02-23 09:29:34.832] $GPGGA,,,,,,,,,,M,,M,,*56
[2021-02-23 09:29:34.832] $GPGGA,,,,,,,,,,M,,M,,*56
[2021-02-23 09:29:34.832] $GPGGA,,,,,,,,,,M,,M,,*56
[2021-02-23 09:29:34.832] $GPGGA,,,,,,,,,,M,,M,,*56
[2021-02-23 09:29:34.832] $GPGGA,,,,,,,,,,M,,M,,*56
[2021-02-23 09:29:34.832] $GPGGA,,,,,,,,,,M,,M,,*56
[2021-02-23 09:29:34.832] $GPGGA,,,,,,,,,,M,,M,,*56
[2021-02-23 09:29:34.832] $GPGGA,,,,,,,,,,M,,M,,*56
[2021-02-23 09:29:34.832] $GPGGA,,,,,,,,,,M,,M,,*56
[2021-02-23 09:29:34.832] $GPGGA,,,,,,,,,,M,,M,,*56
[2021-02-23 09:29:34.832] $GPGGA,,,,,,,,,,M,,M,,*56
[2021-02-23 09:29:34.832] $GPGGA,,,,,,,,,,M,,M,,*56
[2021-02-23 09:29:35.019] $GPGGA,,,,,,,,,,M,,M,,*56
[2021-02-23 09:29:35.222] $GPGGA,,,,,,,,,,M,,M,,*56
[2021-02-23 09:29:35.426] $GPGGA,,,,,,,,,,M,,M,,*56
[2021-02-23 09:29:35.629] $GPGGA,,,,,,,,,,M,,M,,*56
[2021-02-23 09:29:35.816] $GPGGA,,,,,,,,,,M,,M,,*56
[2021-02-23 09:29:36.019] $GPGGA,,,,,,,,,,M,,M,,*56
[2021-02-23 09:29:36.222] $GPGGA,,,,,,,,,,M,,M,,*56
[2021-02-23 09:29:36.425] $GPGGA,,,,,,,,,,M,,M,,*56
[2021-02-23 09:29:36.613] $GPGGA,,,,,,,,,,M,,M,,*56
[2021-02-23 09:29:36.816] $GPGGA,,,,,,,,,,M,,M,,*56
[2021-02-23 09:29:37.019] $GPGGA,,,,,,,,,,M,,M,,*56
[2021-02-23 09:29:37.222] $GPGGA,,,,,,,,,,M,,M,,*56
[2021-02-23 09:29:37.425] $GPGGA,,,,,,,,,,M,,M,,*56
[2021-02-23 09:29:37.613] $GPGGA,,,,,,,,,,M,,M,,*56
[2021-02-23 09:29:37.816] $GPGGA,,,,,,,,,,M,,M,,*56
[2021-02-23 09:29:38.019] $GPGGA,,,,,,,,,,M,,M,,*56
[2021-02-23 09:29:38.222] $GPGGA,,,,,,,,,,M,,M,,*56
[2021-02-23 09:29:38.425] $GPGGA,,,,,,,,,,M,,M,,*56
[2021-02-23 09:29:38.628] $GPGGA,,,,,,,,,,M,,M,,*56
[2021-02-23 09:29:38.816] $GPGGA,,,,,,,,,,M,,M,,*56
[2021-02-23 09:29:39.019] $GPGGA,,,,,,,,,,M,,M,,*56
[2021-02-23 09:29:39.222] $GPGGA,,,,,,,,,,M,,M,,*56
[2021-02-23 09:29:39.425] $GPGGA,,,,,,,,,,M,,M,,*56
[2021-02-23 09:29:39.628] $GPGGA,,,,,,,,,,M,,M,,*56
[2021-02-23 09:29:39.816] $GPGGA,,,,,,,,,,M,,M,,*56
[2021-02-23 09:29:40.019] $GPGGA,,,,,,,,,,M,,M,,*56
[2021-02-23 09:29:40.222] $GPGGA,,,,,,,,,,M,,M,,*56
[2021-02-23 09:29:40.425] $GPGGA,,,,,,,,,,M,,M,,*56
[2021-02-23 09:29:40.628] $GPGGA,,,,,,,,,,M,,M,,*56
[2021-02-23 09:29:40.816] $GPGGA,,,,,,,,,,M,,M,,*56
[2021-02-23 09:29:41.019] $GPGGA,,,,,,,,,,M,,M,,*56
[2021-02-23 09:29:41.222] $GPGGA,,,,,,,,,,M,,M,,*56
[2021-02-23 09:29:41.425] $GPGGA,,,,,,,,,,M,,M,,*56
[2021-02-23 09:29:41.628] $GPGGA,,,,,,,,,,M,,M,,*56
[2021-02-23 09:29:41.816] $GPGGA,,,,,,,,,,M,,M,,*56
[2021-02-23 09:29:42.019] $GPGGA,,,,,,,,,,M,,M,,*56
[2021-02-23 09:29:42.222] $GPGGA,,,,,,,,,,M,,M,,*56
[2021-02-23 09:29:42.425] $GPGGA,,,,,,,,,,M,,M,,*56
[2021-02-23 09:29:42.628] $GPGGA,,,,,,,,,,M,,M,,*56
[2021-02-23 09:29:42.816] $GPGGA,,,,,,,,,,M,,M,,*56
[2021-02-23 09:29:43.019] $GPGGA,,,,,,,,,,M,,M,,*56
[2021-02-23 09:29:43.222] $GPGGA,,,,,,,,,,M,,M,,*56
[2021-02-23 09:29:43.425] $GPGGA,,,,,,,,,,M,,M,,*56
[2021-02-23 09:29:43.628] $GPGGA,,,,,,,,,,M,,M,,*56
[2021-02-23 09:29:43.816] $GPGGA,,,,,,,,,,M,,M,,*56
[2021-02-23 09:29:44.019] $GPGGA,,,,,,,,,,M,,M,,*56
[2021-02-23 09:29:44.222] $GPGGA,,,,,,,,,,M,,M,,*56
[2021-02-23 09:29:44.425] $GPGGA,,,,,,,,,,M,,M,,*56
[2021-02-23 09:29:44.628] $GPGGA,,,,,,,,,,M,,M,,*56
[2021-02-23 09:29:44.816] $GPGGA,,,,,,,,,,M,,M,,*56
[2021-02-23 09:29:45.019] $GPGGA,,,,,,,,,,M,,M,,*56
[2021-02-23 09:29:45.222] $GPGGA,,,,,,,,,,M,,M,,*56
[2021-02-23 09:29:45.425] $GPGGA,,,,,,,,,,M,,M,,*56
[2021-02-23 09:29:45.628] $GPGGA,,,,,,,,,,M,,M,,*56
[2021-02-23 09:29:45.815] $GPGGA,,,,,,,,,,M,,M,,*56
[2021-02-23 09:29:46.019] $GPGGA,,,,,,,,,,M,,M,,*56
[2021-02-23 09:29:46.222] $GPGGA,,,,,,,,,,M,,M,,*56
[2021-02-23 09:29:46.425] $GPGGA,,,,,,,,,,M,,M,,*56
[2021-02-23 09:29:46.628] $GPGGA,,,,,,,,,,M,,M,,*56
[2021-02-23 09:29:46.815] $GPGGA,,,,,,,,,,M,,M,,*56
[2021-02-23 09:29:47.018] $GPGGA,,,,,,,,,,M,,M,,*56
[2021-02-23 09:29:47.222] $GPGGA,,,,,,,,,,M,,M,,*56
[2021-02-23 09:29:47.425] $GPGGA,,,,,,,,,,M,,M,,*56
[2021-02-23 09:29:47.628] $GPGGA,,,,,,,,,,M,,M,,*56
[2021-02-23 09:29:47.831] $GPGGA,,,,,,,,,,M,,M,,*56
[2021-02-23 09:29:48.018] $GPGGA,,,,,,,,,,M,,M,,*56
[2021-02-23 09:29:48.222] $GPGGA,,,,,,,,,,M,,M,,*56
[2021-02-23 09:29:48.425] $GPGGA,,,,,,,,,,M,,M,,*56
[2021-02-23 09:29:48.628] $GPGGA,,,,,,,,,,M,,M,,*56
[2021-02-23 09:29:48.815] $GPGGA,,,,,,,,,,M,,M,,*56
[2021-02-23 09:29:49.018] $GPGGA,,,,,,,,,,M,,M,,*56
[2021-02-23 09:29:49.221] $GPGGA,,,,,,,,,,M,,M,,*56
[2021-02-23 09:29:49.425] $GPGGA,,,,,,,,,,M,,M,,*56
[2021-02-23 09:29:49.628] $GPGGA,,,,,,,,,,M,,M,,*56
[2021-02-23 09:29:49.831] $GPGGA,,,,,,,,,,M,,M,,*56
[2021-02-23 09:29:50.018] $GPGGA,,,,,,,,,,M,,M,,*56
[2021-02-23 09:29:50.221] $GPGGA,,,,,,,,,,M,,M,,*56
[2021-02-23 09:29:50.424] $GPGGA,,,,,,,,,,M,,M,,*56
[2021-02-23 09:29:50.628] $GPGGA,,,,,,,,,,M,,M,,*56
[2021-02-23 09:29:50.815] $GPGGA,,,,,,,,,,M,,M,,*56
[2021-02-23 09:29:51.018] $GPGGA,,,,,,,,,,M,,M,,*56
[2021-02-23 09:29:51.221] $GPGGA,,,,,,,,,,M,,M,,*56
[2021-02-23 09:29:51.424] $GPGGA,,,,,,,,,,M,,M,,*56
[2021-02-23 09:29:51.628] $GPGGA,,,,,,,,,,M,,M,,*56
[2021-02-23 09:29:51.831] $GPGGA,,,,,,,,,,M,,M,,*56
[2021-02-23 09:29:52.018] $GPGGA,,,,,,,,,,M,,M,,*56
[2021-02-23 09:29:52.221] $GPGGA,002951.60,3714.00634414,N,13701.48891743,E,2,03,2.2,103.959,M,36.772,M,1.6,0439*4B
[2021-02-23 09:29:52.315] $GPGGA,002951.70,3714.00634394,N,13701.48891528,E,2,03,2.2,103.959,M,36.772,M,1.7,0439*4B
[2021-02-23 09:29:52.424] $GPGGA,002951.80,3714.00655956,N,13701.48905962,E,2,03,2.2,103.955,M,36.772,M,1.8,0439*4A
[2021-02-23 09:29:52.518] $GPGGA,002951.90,3714.00655755,N,13701.48906050,E,2,03,2.2,103.955,M,36.772,M,1.9,0439*4C
[2021-02-23 09:29:52.627] $GNGGA,002952.00,3714.00701661,N,13701.48914647,E,1,05,1.9,100.620,M,36.772,M,,*76
[2021-02-23 09:29:52.721] $GNGGA,002952.10,3714.00701718,N,13701.48914768,E,1,05,1.9,100.613,M,36.772,M,,*74
[2021-02-23 09:29:52.831] $GNGGA,002952.20,3714.00605828,N,13701.48878443,E,2,07,1.5,102.290,M,36.772,M,1.2,0439*5C
[2021-02-23 09:29:52.924] $GNGGA,002952.30,3714.00605767,N,13701.48878387,E,2,07,1.5,102.288,M,36.772,M,1.3,0439*5E
[2021-02-23 09:29:53.018] $GNGGA,002952.40,3714.00603078,N,13701.48884368,E,2,07,1.5,101.941,M,36.772,M,1.4,0439*5E
[2021-02-23 09:29:53.112] $GNGGA,002952.50,3714.00603065,N,13701.48884435,E,2,07,1.5,101.941,M,36.772,M,1.5,0439*5D
[2021-02-23 09:29:53.221] $GNGGA,002952.60,3714.00602122,N,13701.48880981,E,2,08,1.4,101.825,M,36.772,M,1.6,0439*55
[2021-02-23 09:29:53.315] $GNGGA,002952.70,3714.00602029,N,13701.48881051,E,2,07,1.4,101.827,M,36.772,M,1.7,0439*57
[2021-02-23 09:29:53.424] $GNGGA,002952.80,3714.00601029,N,13701.48884915,E,2,09,1.0,101.470,M,36.772,M,1.8,0439*5C
[2021-02-23 09:29:53.518] $GNGGA,002952.90,3714.00600971,N,13701.48884822,E,2,09,1.0,101.464,M,36.772,M,1.9,0439*59
[2021-02-23 09:29:53.627] $GNGGA,002953.00,3714.00597863,N,13701.48883635,E,2,10,1.0,101.563,M,36.772,M,1.0,0439*56
[2021-02-23 09:29:53.721] $GNGGA,002953.10,3714.00597857,N,13701.48883366,E,2,10,1.0,101.554,M,36.772,M,1.1,0439*56
[2021-02-23 09:29:53.830] $GNGGA,002953.20,3714.00593888,N,13701.48878997,E,2,10,1.0,101.543,M,36.772,M,1.2,0439*56
[2021-02-23 09:29:53.924] $GNGGA,002953.30,3714.00593897,N,13701.48878796,E,2,10,1.0,101.536,M,36.772,M,1.3,0439*55
[2021-02-23 09:29:54.018] $GNGGA,002953.40,3714.00593775,N,13701.48881496,E,2,11,0.9,101.531,M,36.772,M,1.4,0439*5D
[2021-02-23 09:29:54.112] $GNGGA,002953.50,3714.00593805,N,13701.48881416,E,2,11,0.9,101.525,M,36.772,M,1.5,0439*58
[2021-02-23 09:29:54.221] $GNGGA,002953.60,3714.00593497,N,13701.48884155,E,2,11,0.9,101.501,M,36.772,M,1.6,0439*5E
[2021-02-23 09:29:54.315] $GNGGA,002953.70,3714.00593497,N,13701.48884131,E,2,11,0.9,101.497,M,36.772,M,1.7,0439*52
[2021-02-23 09:29:54.424] $GNGGA,002953.80,3714.00592110,N,13701.48885711,E,2,11,0.9,101.421,M,36.772,M,1.8,0439*51
[2021-02-23 09:29:54.518] $GNGGA,002953.90,3714.00592088,N,13701.48885798,E,2,11,0.9,101.421,M,36.772,M,1.9,0439*50
[2021-02-23 09:29:54.627] $GNGGA,002954.00,3714.00591241,N,13701.48888686,E,2,11,0.9,101.367,M,36.772,M,2.0,0439*56
[2021-02-23 09:29:54.721] $GNGGA,002954.10,3714.00591151,N,13701.48888857,E,2,11,0.9,101.369,M,36.772,M,1.1,0439*5B
[2021-02-23 09:29:54.830] $GNGGA,002954.20,3714.00591779,N,13701.48896128,E,2,11,0.9,101.420,M,36.772,M,1.2,0439*53
[2021-02-23 09:29:54.924] $GNGGA,002954.30,3714.00591793,N,13701.48896341,E,2,11,0.9,101.424,M,36.772,M,1.3,0439*5E
[2021-02-23 09:29:55.033] $GNGGA,002954.40,3714.00590612,N,13701.48898075,E,2,11,0.9,101.397,M,36.772,M,1.4,0439*52
[2021-02-23 09:29:55.112] $GNGGA,002954.50,3714.00590590,N,13701.48898347,E,2,11,0.9,101.402,M,36.772,M,1.5,0439*52
[2021-02-23 09:29:55.221] $GNGGA,002954.60,3714.00588277,N,13701.48900726,E,2,11,0.9,101.362,M,36.772,M,1.6,0439*57
[2021-02-23 09:29:55.315] $GNGGA,002954.70,3714.00588213,N,13701.48900962,E,2,11,0.9,101.371,M,36.772,M,1.7,0439*59
[2021-02-23 09:29:55.424] $GNGGA,002954.80,3714.00586702,N,13701.48900687,E,2,11,0.9,101.280,M,36.772,M,1.8,0439*59
[2021-02-23 09:29:55.518] $GNGGA,002954.90,3714.00586774,N,13701.48901033,E,2,11,0.9,101.295,M,36.772,M,1.9,0439*54
[2021-02-23 09:29:55.627] $GNGGA,002955.00,3714.00585870,N,13701.48900810,E,2,11,0.9,101.222,M,36.772,M,2.0,0439*5A
[2021-02-23 09:29:55.721] $GNGGA,002955.10,3714.00585869,N,13701.48900949,E,2,11,0.9,101.223,M,36.772,M,1.1,0439*5D
[2021-02-23 09:29:55.830] $GNGGA,002955.20,3714.00585555,N,13701.48900150,E,2,11,0.9,101.157,M,36.772,M,1.2,0439*5F
[2021-02-23 09:29:55.924] $GNGGA,002955.30,3714.00585618,N,13701.48900205,E,2,10,0.9,101.161,M,36.772,M,1.3,0439*52
[2021-02-23 09:29:56.033] $GNGGA,002955.40,3714.00585467,N,13701.48898617,E,2,11,0.9,101.116,M,36.772,M,1.4,0439*5E
[2021-02-23 09:29:56.112] $GNGGA,002955.50,3714.00585484,N,13701.48898709,E,2,11,0.9,101.117,M,36.772,M,1.5,0439*5C
[2021-02-23 09:29:56.221] $GNGGA,002955.60,3714.00586278,N,13701.48893270,E,2,11,0.9,101.004,M,36.772,M,1.6,0439*59
[2021-02-23 09:29:56.315] $GNGGA,002955.70,3714.00586380,N,13701.48893337,E,2,11,0.9,101.005,M,36.772,M,1.7,0439*5C
[2021-02-23 09:29:56.424] $GNGGA,002955.80,3714.00587255,N,13701.48890493,E,2,11,0.9,100.923,M,36.772,M,1.8,0439*52
[2021-02-23 09:29:56.518] $GNGGA,002955.90,3714.00587361,N,13701.48890424,E,2,11,0.9,100.925,M,36.772,M,1.9,0439*5E
[2021-02-23 09:29:56.627] $GNGGA,002956.00,3714.00588850,N,13701.48888659,E,2,11,0.9,100.874,M,36.772,M,1.0,0439*5F
[2021-02-23 09:29:56.721] $GNGGA,002956.10,3714.00588857,N,13701.48888713,E,2,11,0.9,100.876,M,36.772,M,1.1,0439*55
[2021-02-23 09:29:56.830] $GNGGA,002956.20,3714.00589350,N,13701.48887174,E,2,11,0.9,100.839,M,36.772,M,1.2,0439*5B
[2021-02-23 09:29:56.924] $GNGGA,002956.30,3714.00589404,N,13701.48887276,E,2,11,0.9,100.838,M,36.772,M,1.3,0439*5D
[2021-02-23 09:29:57.033] $GNGGA,002956.40,3714.00589500,N,13701.48886432,E,2,11,0.9,100.808,M,36.772,M,1.4,0439*5C
[2021-02-23 09:29:57.112] $GNGGA,002956.50,3714.00589482,N,13701.48886553,E,2,11,0.9,100.811,M,36.772,M,1.5,0439*59
[2021-02-23 09:29:57.221] $GNGGA,002956.60,3714.00589476,N,13701.48886228,E,2,11,0.9,100.793,M,36.772,M,1.6,0439*5C
[2021-02-23 09:29:57.315] $GNGGA,002956.70,3714.00589548,N,13701.48886431,E,2,11,0.9,100.793,M,36.772,M,1.7,0439*5E
[2021-02-23 09:29:57.424] $GNGGA,002956.80,3714.00589406,N,13701.48886764,E,2,11,0.9,100.780,M,36.772,M,1.8,0439*54
[2021-02-23 09:29:57.518] $GNGGA,002956.90,3714.00589435,N,13701.48886788,E,2,12,0.9,100.779,M,36.772,M,0.9,0439*52
[2021-02-23 09:29:57.627] $GNGGA,002957.00,3714.00596883,N,13701.48868594,E,5,07,1.9,100.101,M,36.772,M,1.0,0439*59
[2021-02-23 09:29:57.721] $GNGGA,002957.10,3714.00596969,N,13701.48868659,E,5,07,1.9,100.095,M,36.772,M,1.1,0439*52
[2021-02-23 09:29:57.830] $GNGGA,002957.20,3714.00596893,N,13701.48868806,E,5,07,1.9,100.094,M,36.772,M,1.2,0439*53
[2021-02-23 09:29:57.924] $GNGGA,002957.30,3714.00596907,N,13701.48868716,E,5,07,1.9,100.094,M,36.772,M,1.3,0439*51
[2021-02-23 09:29:58.033] $GNGGA,002957.40,3714.00596685,N,13701.48868747,E,5,07,1.9,100.096,M,36.772,M,1.4,0439*52
[2021-02-23 09:29:58.127] $GNGGA,002957.50,3714.00596966,N,13701.48868803,E,5,07,1.9,100.102,M,36.772,M,1.5,0439*53
[2021-02-23 09:29:58.221] $GNGGA,002957.60,3714.00596561,N,13701.48869082,E,5,07,1.9,100.090,M,36.772,M,1.6,0439*52
[2021-02-23 09:29:58.315] $GNGGA,002957.70,3714.00596692,N,13701.48868718,E,5,07,1.9,100.098,M,36.772,M,1.7,0439*50
[2021-02-23 09:29:58.424] $GNGGA,002957.80,3714.00596567,N,13701.48868727,E,5,07,1.9,100.094,M,36.772,M,1.8,0439*59
[2021-02-23 09:29:58.518] $GNGGA,002957.90,3714.00596593,N,13701.48868780,E,5,07,1.9,100.102,M,36.772,M,1.9,0439*51
[2021-02-23 09:29:58.627] $GNGGA,002958.00,3714.00596579,N,13701.48869158,E,4,07,1.9,100.105,M,36.772,M,1.0,0439*5E
[2021-02-23 09:29:58.721] $GNGGA,002958.10,3714.00596474,N,13701.48869007,E,4,07,1.9,100.112,M,36.772,M,1.1,0439*5F
[2021-02-23 09:29:58.830] $GNGGA,002958.20,3714.00596552,N,13701.48868986,E,4,07,1.9,100.104,M,36.772,M,1.2,0439*5C
[2021-02-23 09:29:58.924] $GNGGA,002958.30,3714.00596406,N,13701.48868921,E,4,07,1.9,100.112,M,36.772,M,1.3,0439*56
[2021-02-23 09:29:59.033] $GNGGA,002958.40,3714.00596479,N,13701.48869297,E,4,07,1.9,100.113,M,36.772,M,1.4,0439*58
[2021-02-23 09:29:59.127] $GNGGA,002958.50,3714.00596293,N,13701.48869043,E,4,07,1.9,100.112,M,36.772,M,1.5,0439*50
[2021-02-23 09:29:59.221] $GNGGA,002958.60,3714.00596376,N,13701.48868998,E,4,07,1.9,100.112,M,36.772,M,1.6,0439*54
[2021-02-23 09:29:59.314] $GNGGA,002958.70,3714.00596419,N,13701.48869292,E,4,07,1.9,100.117,M,36.772,M,1.7,0439*5F
[2021-02-23 09:29:59.424] $GNGGA,002958.80,3714.00596274,N,13701.48869537,E,4,07,1.9,100.106,M,36.772,M,1.8,0439*5A
[2021-02-23 09:29:59.518] $GNGGA,002958.90,3714.00596681,N,13701.48869745,E,4,07,1.9,100.127,M,36.772,M,0.9,0439*51
[2021-02-23 09:29:59.627] $GNGGA,002959.00,3714.00596623,N,13701.48869864,E,4,07,1.9,100.128,M,36.772,M,1.0,0439*5A
[2021-02-23 09:29:59.721] $GNGGA,002959.10,3714.00596863,N,13701.48869810,E,4,07,1.9,100.128,M,36.772,M,1.1,0439*53
[2021-02-23 09:29:59.830] $GNGGA,002959.20,3714.00596772,N,13701.48869821,E,4,07,1.9,100.122,M,36.772,M,1.2,0439*54
[2021-02-23 09:29:59.924] $GNGGA,002959.30,3714.00596605,N,13701.48870027,E,4,07,1.9,100.124,M,36.772,M,1.3,0439*55
[2021-02-23 09:30:00.033] $GNGGA,002959.40,3714.00596608,N,13701.48869977,E,4,07,1.9,100.126,M,36.772,M,1.4,0439*5E
[2021-02-23 09:30:00.127] $GNGGA,002959.50,3714.00596568,N,13701.48869974,E,4,07,1.9,100.121,M,36.772,M,1.5,0439*5F
[2021-02-23 09:30:00.221] $GNGGA,002959.60,3714.00596720,N,13701.48870151,E,4,07,1.9,100.125,M,36.772,M,1.6,0439*52
[2021-02-23 09:30:00.314] $GNGGA,002959.70,3714.00596514,N,13701.48870319,E,4,07,1.9,100.122,M,36.772,M,1.7,0439*5E
[2021-02-23 09:30:00.424] $GNGGA,002959.80,3714.00596489,N,13701.48870072,E,4,07,1.9,100.126,M,36.772,M,1.8,0439*51
[2021-02-23 09:30:00.518] $GNGGA,002959.90,3714.00596605,N,13701.48869968,E,4,07,1.9,100.121,M,36.772,M,1.9,0439*5A
[2021-02-23 09:30:00.627] $GNGGA,003000.00,3714.00596135,N,13701.48870503,E,4,08,1.5,100.030,M,36.772,M,1.0,0439*51
[2021-02-23 09:30:00.721] $GNGGA,003000.10,3714.00596227,N,13701.48870262,E,4,08,1.5,100.023,M,36.772,M,1.1,0439*53
[2021-02-23 09:30:00.830] $GNGGA,003000.20,3714.00596414,N,13701.48870294,E,4,08,1.5,100.019,M,36.772,M,1.2,0439*55
[2021-02-23 09:30:00.924] $GNGGA,003000.30,3714.00596343,N,13701.48870010,E,4,08,1.5,100.020,M,36.772,M,1.3,0439*54
[2021-02-23 09:30:01.033] $GNGGA,003000.40,3714.00596498,N,13701.48869941,E,4,08,1.5,100.021,M,36.772,M,1.4,0439*51
[2021-02-23 09:30:01.127] $GNGGA,003000.50,3714.00596606,N,13701.48869834,E,4,08,1.5,100.024,M,36.772,M,1.5,0439*52
[2021-02-23 09:30:01.221] $GNGGA,003000.60,3714.00596653,N,13701.48869646,E,4,08,1.5,100.021,M,36.772,M,1.6,0439*5C
[2021-02-23 09:30:01.314] $GNGGA,003000.70,3714.00596595,N,13701.48869729,E,4,08,1.5,100.016,M,36.772,M,1.7,0439*59
[2021-02-23 09:30:01.424] $GNGGA,003000.80,3714.00596667,N,13701.48869690,E,4,08,1.5,100.024,M,36.772,M,1.8,0439*55
[2021-02-23 09:30:01.517] $GNGGA,003000.90,3714.00596805,N,13701.48869607,E,4,08,1.5,100.017,M,36.772,M,1.9,0439*51
[2021-02-23 09:30:01.627] $GNGGA,003001.00,3714.00596809,N,13701.48869512,E,4,08,1.5,100.022,M,36.772,M,2.0,0439*5E
[2021-02-23 09:30:01.721] $GNGGA,003001.10,3714.00596759,N,13701.48869597,E,4,08,1.5,100.021,M,36.772,M,2.1,0439*5A
[2021-02-23 09:30:01.830] $GNGGA,003001.20,3714.00596629,N,13701.48869502,E,4,10,1.1,100.016,M,36.772,M,1.2,0439*5A
[2021-02-23 09:30:01.924] $GNGGA,003001.30,3714.00596743,N,13701.48869444,E,4,10,1.1,100.021,M,36.772,M,1.3,0439*50
[2021-02-23 09:30:02.033] $GNGGA,003001.40,3714.00596713,N,13701.48869430,E,4,10,1.1,100.019,M,36.772,M,1.4,0439*5D
[2021-02-23 09:30:02.127] $GNGGA,003001.50,3714.00596807,N,13701.48869141,E,4,10,1.1,100.017,M,36.772,M,1.5,0439*5A
[2021-02-23 09:30:02.221] $GNGGA,003001.60,3714.00596827,N,13701.48869266,E,4,10,1.1,100.021,M,36.772,M,1.6,0439*5B
[2021-02-23 09:30:02.314] $GNGGA,003001.70,3714.00596912,N,13701.48869522,E,4,10,1.1,100.023,M,36.772,M,1.7,0439*59
[2021-02-23 09:30:02.424] $GNGGA,003001.80,3714.00596882,N,13701.48869560,E,4,10,1.1,100.016,M,36.772,M,1.8,0439*51
[2021-02-23 09:30:02.517] $GNGGA,003001.90,3714.00596982,N,13701.48869462,E,4,10,1.1,100.014,M,36.772,M,1.9,0439*51
[2021-02-23 09:30:02.642] $GNGGA,003002.00,3714.00596952,N,13701.48869666,E,4,10,1.1,100.020,M,36.772,M,2.0,0439*5D
[2021-02-23 09:30:02.721] $GNGGA,003002.10,3714.00596794,N,13701.48869504,E,4,11,1.1,100.041,M,36.772,M,1.1,0439*5B
[2021-02-23 09:30:02.830] $GNGGA,003002.20,3714.00597106,N,13701.48869738,E,4,11,1.1,100.050,M,36.772,M,1.2,0439*5A
[2021-02-23 09:30:02.924] $GNGGA,003002.30,3714.00596901,N,13701.48869603,E,4,11,1.1,100.047,M,36.772,M,1.3,0439*5B
[2021-02-23 09:30:03.033] $GNGGA,003002.40,3714.00597118,N,13701.48869422,E,4,11,1.1,100.037,M,36.772,M,1.4,0439*5C
[2021-02-23 09:30:03.127] $GNGGA,003002.50,3714.00596901,N,13701.48869532,E,4,11,1.1,100.046,M,36.772,M,1.5,0439*5B
[2021-02-23 09:30:03.236] $GNGGA,003002.60,3714.00596912,N,13701.48869598,E,4,11,1.1,100.037,M,36.772,M,1.6,0439*5F
[2021-02-23 09:30:03.314] $GNGGA,003002.70,3714.00596969,N,13701.48869303,E,4,11,1.1,100.042,M,36.772,M,1.7,0439*55
[2021-02-23 09:30:03.424] $GNGGA,003002.80,3714.00597129,N,13701.48869102,E,4,11,1.1,100.035,M,36.772,M,1.8,0439*5B
[2021-02-23 09:30:03.517] $GNGGA,003002.90,3714.00597081,N,13701.48869220,E,4,11,1.1,100.035,M,36.772,M,1.9,0439*5B
[2021-02-23 09:30:03.627] $GNGGA,003003.00,3714.00597191,N,13701.48869351,E,4,11,1.1,100.035,M,36.772,M,1.0,0439*5D
[2021-02-23 09:30:03.720] $GNGGA,003003.10,3714.00597051,N,13701.48869448,E,4,11,1.1,100.035,M,36.772,M,1.1,0439*5F
[2021-02-23 09:30:03.830] $GNGGA,003003.20,3714.00597128,N,13701.48869515,E,4,11,1.1,100.026,M,36.772,M,1.2,0439*5B
[2021-02-23 09:30:03.924] $GNGGA,003003.30,3714.00597059,N,13701.48869456,E,4,11,1.1,100.027,M,36.772,M,1.3,0439*5B
[2021-02-23 09:30:04.033] $GNGGA,003003.40,3714.00597124,N,13701.48869484,E,4,11,1.1,100.025,M,36.772,M,1.4,0439*5D
[2021-02-23 09:30:04.127] $GNGGA,003003.50,3714.00597094,N,13701.48869558,E,4,11,1.1,100.029,M,36.772,M,1.5,0439*5B
[2021-02-23 09:30:04.236] $GNGGA,003003.60,3714.00597076,N,13701.48869483,E,4,11,1.1,100.028,M,36.772,M,1.6,0439*51
[2021-02-23 09:30:04.314] $GNGGA,003003.70,3714.00597258,N,13701.48869392,E,4,11,1.1,100.031,M,36.772,M,1.7,0439*50
[2021-02-23 09:30:04.424] $GNGGA,003003.80,3714.00597072,N,13701.48869489,E,4,11,1.1,100.029,M,36.772,M,1.8,0439*5E
[2021-02-23 09:30:04.517] $GNGGA,003003.90,3714.00597145,N,13701.48869624,E,4,11,1.1,100.031,M,36.772,M,1.9,0439*57
[2021-02-23 09:30:04.627] $GNGGA,003004.00,3714.00597053,N,13701.48869368,E,4,12,0.9,100.040,M,36.772,M,1.0,0439*57
[2021-02-23 09:30:04.720] $GNGGA,003004.10,3714.00597101,N,13701.48869366,E,4,12,0.9,100.038,M,36.772,M,1.1,0439*50
[2021-02-23 09:30:04.830] $GNGGA,003004.20,3714.00597023,N,13701.48869716,E,4,12,0.9,100.035,M,36.772,M,1.2,0439*5F
[2021-02-23 09:30:04.923] $GNGGA,003004.30,3714.00596951,N,13701.48869663,E,4,12,0.9,100.045,M,36.772,M,1.3,0439*56
[2021-02-23 09:30:05.033] $GNGGA,003004.40,3714.00596876,N,13701.48869684,E,4,12,0.9,100.035,M,36.772,M,1.4,0439*5C
[2021-02-23 09:30:05.127] $GNGGA,003004.50,3714.00597004,N,13701.48869893,E,4,12,0.9,100.039,M,36.772,M,1.5,0439*54
[2021-02-23 09:30:05.236] $GNGGA,003004.60,3714.00596873,N,13701.48870031,E,4,12,0.9,100.035,M,36.772,M,1.6,0439*59
[2021-02-23 09:30:05.314] $GNGGA,003004.70,3714.00597084,N,13701.48870023,E,4,12,0.9,100.032,M,36.772,M,1.7,0439*5C
[2021-02-23 09:30:05.423] $GNGGA,003004.80,3714.00596941,N,13701.48870043,E,4,12,0.9,100.036,M,36.772,M,1.8,0439*5F
[2021-02-23 09:30:05.517] $GNGGA,003004.90,3714.00596966,N,13701.48870115,E,4,12,0.9,100.029,M,36.772,M,1.9,0439*56
[2021-02-23 09:30:05.627] $GNGGA,003005.00,3714.00596982,N,13701.48869682,E,4,12,0.9,100.038,M,36.772,M,1.0,0439*5C
[2021-02-23 09:30:05.720] $GNGGA,003005.10,3714.00596996,N,13701.48869755,E,4,12,0.9,100.035,M,36.772,M,1.1,0439*5F
[2021-02-23 09:30:05.830] $GNGGA,003005.20,3714.00597109,N,13701.48869702,E,4,12,0.9,100.036,M,36.772,M,1.2,0439*51
[2021-02-23 09:30:05.923] $GNGGA,003005.30,3714.00596941,N,13701.48869791,E,4,12,0.9,100.033,M,36.772,M,1.3,0439*5B
[2021-02-23 09:30:06.033] $GNGGA,003005.40,3714.00596957,N,13701.48869946,E,4,12,0.9,100.034,M,36.772,M,1.4,0439*5F
[2021-02-23 09:30:06.126] $GNGGA,003005.50,3714.00596951,N,13701.48870120,E,4,12,0.9,100.032,M,36.772,M,1.5,0439*5F
[2021-02-23 09:30:06.236] $GNGGA,003005.60,3714.00597022,N,13701.48870109,E,4,12,0.9,100.035,M,36.772,M,1.6,0439*5F
[2021-02-23 09:30:06.314] $GNGGA,003005.70,3714.00596909,N,13701.48870334,E,4,12,0.9,100.035,M,36.772,M,1.7,0439*52
[2021-02-23 09:30:06.423] $GNGGA,003005.80,3714.00596990,N,13701.48870102,E,4,12,0.9,100.032,M,36.772,M,1.8,0439*52
[2021-02-23 09:30:06.517] $GNGGA,003005.90,3714.00597093,N,13701.48870121,E,4,12,0.9,100.031,M,36.772,M,1.9,0439*5B
[2021-02-23 09:30:06.626] $GNGGA,003006.00,3714.00596794,N,13701.48869882,E,4,12,0.9,100.035,M,36.772,M,1.0,0439*55
[2021-02-23 09:30:06.720] $GNGGA,003006.10,3714.00596790,N,13701.48869608,E,4,12,0.9,100.033,M,36.772,M,1.1,0439*5B
[2021-02-23 09:30:06.830] $GNGGA,003006.20,3714.00596992,N,13701.48869736,E,4,12,0.9,100.035,M,36.772,M,1.2,0439*5D
[2021-02-23 09:30:06.923] $GNGGA,003006.30,3714.00596985,N,13701.48870074,E,4,12,0.9,100.038,M,36.772,M,1.3,0439*5F
[2021-02-23 09:30:07.033] $GNGGA,003006.40,3714.00597098,N,13701.48870247,E,4,12,0.9,100.025,M,36.772,M,1.4,0439*55
[2021-02-23 09:30:07.126] $GNGGA,003006.50,3714.00597589,N,13701.48870255,E,4,12,0.9,100.035,M,36.772,M,1.5,0439*52
[2021-02-23 09:30:07.236] $GNGGA,003006.60,3714.00597492,N,13701.48870071,E,4,12,0.9,100.037,M,36.772,M,1.6,0439*5F
[2021-02-23 09:30:07.314] $GNGGA,003006.70,3714.00597481,N,13701.48869920,E,4,12,0.9,100.039,M,36.772,M,1.7,0439*56
[2021-02-23 09:30:07.423] $GNGGA,003006.80,3714.00597522,N,13701.48869810,E,4,12,0.9,100.034,M,36.772,M,1.8,0439*51
[2021-02-23 09:30:07.517] $GNGGA,003006.90,3714.00597645,N,13701.48870120,E,4,12,0.9,100.038,M,36.772,M,1.9,0439*5D
[2021-02-23 09:30:07.626] $GNGGA,003007.00,3714.00597633,N,13701.48870224,E,4,12,0.9,100.041,M,36.772,M,1.0,0439*54
[2021-02-23 09:30:07.720] $GNGGA,003007.10,3714.00597486,N,13701.48870596,E,4,12,0.9,100.039,M,36.772,M,1.1,0439*59
[2021-02-23 09:30:07.830] $GNGGA,003007.20,3714.00597135,N,13701.48870551,E,4,12,0.9,100.038,M,36.772,M,1.2,0439*5E
[2021-02-23 09:30:07.923] $GNGGA,003007.30,3714.00596833,N,13701.48870519,E,4,12,0.9,100.038,M,36.772,M,1.3,0439*5C
[2021-02-23 09:30:08.033] $GNGGA,003007.40,3714.00596873,N,13701.48869957,E,4,12,0.9,100.030,M,36.772,M,1.4,0439*5E
[2021-02-23 09:30:08.126] $GNGGA,003007.50,3714.00596784,N,13701.48869665,E,4,12,0.9,100.038,M,36.772,M,1.5,0439*5F
[2021-02-23 09:30:08.236] $GNGGA,003007.60,3714.00596723,N,13701.48869500,E,4,12,0.9,100.031,M,36.772,M,1.6,0439*5B
[2021-02-23 09:30:08.314] $GNGGA,003007.70,3714.00596598,N,13701.48869430,E,4,12,0.9,100.037,M,36.772,M,1.7,0439*5D
[2021-02-23 09:30:08.423] $GNGGA,003007.80,3714.00596567,N,13701.48869281,E,4,12,0.9,100.033,M,36.772,M,1.8,0439*55
[2021-02-23 09:30:08.517] $GNGGA,003007.90,3714.00596563,N,13701.48868373,E,4,12,0.9,100.034,M,36.772,M,1.9,0439*5B
[2021-02-23 09:30:08.626] $GNGGA,003008.00,3714.00596326,N,13701.48867881,E,4,12,0.9,100.042,M,36.772,M,2.0,0439*58
[2021-02-23 09:30:08.720] $GNGGA,003008.10,3714.00596178,N,13701.48867670,E,4,12,0.9,100.029,M,36.772,M,2.1,0439*5C
[2021-02-23 09:30:08.829] $GNGGA,003008.20,3714.00595741,N,13701.48867168,E,4,12,0.9,100.044,M,36.772,M,1.2,0439*55
[2021-02-23 09:30:08.923] $GNGGA,003008.30,3714.00595682,N,13701.48867449,E,4,12,0.9,100.032,M,36.772,M,1.3,0439*5C
[2021-02-23 09:30:09.033] $GNGGA,003008.40,3714.00595910,N,13701.48867148,E,4,12,0.9,100.039,M,36.772,M,1.4,0439*57
[2021-02-23 09:30:09.126] $GNGGA,003008.50,3714.00596044,N,13701.48867072,E,4,12,0.9,100.042,M,36.772,M,1.5,0439*58
[2021-02-23 09:30:09.236] $GNGGA,003008.60,3714.00596094,N,13701.48866711,E,4,12,0.9,100.038,M,36.772,M,1.6,0439*5B
[2021-02-23 09:30:09.314] $GNGGA,003008.70,3714.00596463,N,13701.48866228,E,4,12,0.9,100.038,M,36.772,M,1.7,0439*58
[2021-02-23 09:30:09.423] $GNGGA,003008.80,3714.00597036,N,13701.48864394,E,4,12,0.9,100.045,M,36.772,M,1.8,0439*53
[2021-02-23 09:30:09.517] $GNGGA,003008.90,3714.00597706,N,13701.48863147,E,4,12,0.9,100.048,M,36.772,M,1.9,0439*51
[2021-02-23 09:30:09.626] $GNGGA,003009.00,3714.00598760,N,13701.48861694,E,4,12,0.9,100.037,M,36.772,M,1.0,0439*5C
[2021-02-23 09:30:09.720] $GNGGA,003009.10,3714.00599718,N,13701.48859924,E,4,12,0.9,100.061,M,36.772,M,1.1,0439*5E
[2021-02-23 09:30:09.829] $GNGGA,003009.20,3714.00600527,N,13701.48857944,E,4,12,0.9,100.080,M,36.772,M,1.2,0439*54
[2021-02-23 09:30:09.923] $GNGGA,003009.30,3714.00600631,N,13701.48856287,E,4,12,0.9,100.113,M,36.772,M,1.3,0439*5E
[2021-02-23 09:30:10.033] $GNGGA,003009.40,3714.00600420,N,13701.48854802,E,4,12,0.9,100.152,M,36.772,M,1.4,0439*5C
[2021-02-23 09:30:10.126] $GNGGA,003009.50,3714.00600252,N,13701.48853382,E,4,12,0.9,100.167,M,36.772,M,1.5,0439*5D
[2021-02-23 09:30:10.236] $GNGGA,003009.60,3714.00600366,N,13701.48851961,E,4,12,0.9,100.173,M,36.772,M,1.6,0439*5B
[2021-02-23 09:30:10.329] $GNGGA,003009.70,3714.00600659,N,13701.48850322,E,4,12,0.9,100.173,M,36.772,M,1.7,0439*5E
[2021-02-23 09:30:10.423] $GNGGA,003009.80,3714.00601363,N,13701.48848689,E,4,12,0.9,100.167,M,36.772,M,1.8,0439*5B
[2021-02-23 09:30:10.517] $GNGGA,003009.90,3714.00602937,N,13701.48847160,E,4,12,0.9,100.186,M,36.772,M,1.9,0439*53
[2021-02-23 09:30:10.626] $GNGGA,003010.00,3714.00604842,N,13701.48846067,E,4,12,0.9,100.184,M,36.772,M,2.0,0439*58
[2021-02-23 09:30:10.720] $GNGGA,003010.10,3714.00607026,N,13701.48845084,E,4,12,0.9,100.197,M,36.772,M,1.1,0439*5E
[2021-02-23 09:30:10.829] $GNGGA,003010.20,3714.00609146,N,13701.48844198,E,4,12,0.9,100.209,M,36.772,M,1.2,0439*5E
[2021-02-23 09:30:10.923] $GNGGA,003010.30,3714.00610622,N,13701.48844093,E,4,12,0.9,100.207,M,36.772,M,1.3,0439*57
[2021-02-23 09:30:11.032] $GNGGA,003010.40,3714.00612253,N,13701.48844207,E,4,12,0.9,100.215,M,36.772,M,1.4,0439*5B
[2021-02-23 09:30:11.126] $GNGGA,003010.50,3714.00614477,N,13701.48843732,E,4,12,0.9,100.218,M,36.772,M,1.5,0439*54
[2021-02-23 09:30:11.235] $GNGGA,003010.60,3714.00616656,N,13701.48843187,E,4,13,0.9,100.221,M,36.772,M,1.6,0439*54
[2021-02-23 09:30:11.329] $GNGGA,003010.70,3714.00619258,N,13701.48842215,E,4,13,0.9,100.227,M,36.772,M,1.7,0439*5E
[2021-02-23 09:30:11.423] $GNGGA,003010.80,3714.00621539,N,13701.48841424,E,4,13,0.9,100.225,M,36.772,M,1.8,0439*50
[2021-02-23 09:30:11.517] $GNGGA,003010.90,3714.00623403,N,13701.48840752,E,4,13,0.9,100.234,M,36.772,M,1.9,0439*59
[2021-02-23 09:30:11.626] $GNGGA,003011.00,3714.00625203,N,13701.48840571,E,4,13,0.9,100.216,M,36.772,M,2.0,0439*58
[2021-02-23 09:30:11.720] $GNGGA,003011.10,3714.00626493,N,13701.48840123,E,4,13,0.9,100.209,M,36.772,M,1.1,0439*5A
[2021-02-23 09:30:11.829] $GNGGA,003011.20,3714.00627480,N,13701.48839195,E,4,13,0.9,100.210,M,36.772,M,1.2,0439*52
[2021-02-23 09:30:11.923] $GNGGA,003011.30,3714.00628158,N,13701.48838156,E,4,13,0.9,100.205,M,36.772,M,1.3,0439*57
[2021-02-23 09:30:12.032] $GNGGA,003011.40,3714.00628430,N,13701.48837262,E,4,13,0.9,100.211,M,36.772,M,1.4,0439*52
[2021-02-23 09:30:12.126] $GNGGA,003011.50,3714.00628998,N,13701.48836544,E,4,13,0.9,100.223,M,36.772,M,1.5,0439*5E
[2021-02-23 09:30:12.235] $GNGGA,003011.60,3714.00629059,N,13701.48835864,E,4,13,0.9,100.214,M,36.772,M,1.6,0439*53
[2021-02-23 09:30:12.314] $GNGGA,003011.70,3714.00628738,N,13701.48834424,E,4,13,0.9,100.222,M,36.772,M,1.7,0439*5E
[2021-02-23 09:30:12.423] $GNGGA,003011.80,3714.00627931,N,13701.48833666,E,4,13,0.9,100.217,M,36.772,M,1.8,0439*53
[2021-02-23 09:30:12.517] $GNGGA,003011.90,3714.00627668,N,13701.48832852,E,4,13,0.9,100.206,M,36.772,M,1.9,0439*58
[2021-02-23 09:30:12.642] $GNGGA,003012.00,3714.00628239,N,13701.48832113,E,4,13,0.9,100.220,M,36.772,M,2.0,0439*5F
[2021-02-23 09:30:12.720] $GNGGA,003012.10,3714.00628947,N,13701.48831233,E,4,11,0.9,100.228,M,36.772,M,1.1,0439*56
[2021-02-23 09:30:12.829] $GNGGA,003012.20,3714.00630775,N,13701.48831082,E,4,11,0.9,100.224,M,36.772,M,1.2,0439*54
[2021-02-23 09:30:12.923] $GNGGA,003012.30,3714.00633075,N,13701.48831889,E,4,11,0.9,100.221,M,36.772,M,1.3,0439*56
[2021-02-23 09:30:13.032] $GNGGA,003012.40,3714.00636348,N,13701.48833010,E,4,11,0.9,100.231,M,36.772,M,1.4,0439*55
[2021-02-23 09:30:13.126] $GNGGA,003012.50,3714.00638912,N,13701.48832415,E,4,11,0.9,100.243,M,36.772,M,1.5,0439*5B
[2021-02-23 09:30:13.235] $GNGGA,003012.60,3714.00642461,N,13701.48834161,E,4,11,0.9,100.231,M,36.772,M,1.6,0439*5A
[2021-02-23 09:30:13.329] $GNGGA,003012.70,3714.00645682,N,13701.48835270,E,4,11,0.9,100.236,M,36.772,M,1.7,0439*57
[2021-02-23 09:30:13.423] $GNGGA,003012.80,3714.00648489,N,13701.48835441,E,4,11,0.9,100.244,M,36.772,M,1.8,0439*52
[2021-02-23 09:30:13.517] $GNGGA,003012.90,3714.00651028,N,13701.48835920,E,4,11,0.9,100.239,M,36.772,M,1.9,0439*55
[2021-02-23 09:30:13.626] $GNGGA,003013.00,3714.00653274,N,13701.48836281,E,4,11,0.9,100.222,M,36.772,M,1.0,0439*54
[2021-02-23 09:30:13.720] $GNGGA,003013.10,3714.00654858,N,13701.48836468,E,4,11,0.9,100.226,M,36.772,M,1.1,0439*52
[2021-02-23 09:30:13.829] $GNGGA,003013.20,3714.00656086,N,13701.48836743,E,4,11,0.9,100.209,M,36.772,M,1.2,0439*5C
[2021-02-23 09:30:13.923] $GNGGA,003013.30,3714.00656168,N,13701.48836287,E,4,11,0.9,100.217,M,36.772,M,1.3,0439*5F
[2021-02-23 09:30:14.032] $GNGGA,003013.40,3714.00655014,N,13701.48835741,E,4,11,0.9,100.224,M,36.772,M,1.4,0439*5A
[2021-02-23 09:30:14.126] $GNGGA,003013.50,3714.00652498,N,13701.48835090,E,4,11,0.9,100.218,M,36.772,M,1.5,0439*59
[2021-02-23 09:30:14.235] $GNGGA,003013.60,3714.00649931,N,13701.48833139,E,4,11,0.9,100.226,M,36.772,M,1.6,0439*54
[2021-02-23 09:30:14.329] $GNGGA,003013.70,3714.00647023,N,13701.48830732,E,4,11,0.9,100.206,M,36.772,M,1.7,0439*5C
[2021-02-23 09:30:14.423] $GNGGA,003013.80,3714.00644315,N,13701.48828875,E,4,11,0.9,100.216,M,36.772,M,1.8,0439*5D
[2021-02-23 09:30:14.517] $GNGGA,003013.90,3714.00641407,N,13701.48827514,E,4,11,0.9,100.211,M,36.772,M,1.9,0439*5E
[2021-02-23 09:30:14.626] $GNGGA,003014.00,3714.00638528,N,13701.48827002,E,4,11,0.9,100.217,M,36.772,M,2.0,0439*5C
[2021-02-23 09:30:14.720] $GNGGA,003014.10,3714.00636603,N,13701.48827712,E,4,11,0.9,100.211,M,36.772,M,2.1,0439*58
[2021-02-23 09:30:14.829] $GNGGA,003014.20,3714.00635013,N,13701.48828570,E,4,11,0.9,100.204,M,36.772,M,2.2,0439*51
[2021-02-23 09:30:14.923] $GNGGA,003014.30,3714.00633932,N,13701.48829146,E,4,11,0.9,100.212,M,36.772,M,1.3,0439*59
[2021-02-23 09:30:15.032] $GNGGA,003014.40,3714.00634109,N,13701.48829501,E,4,11,0.9,100.223,M,36.772,M,1.4,0439*5B
[2021-02-23 09:30:15.126] $GNGGA,003014.50,3714.00634843,N,13701.48829856,E,4,11,0.9,100.223,M,36.772,M,1.5,0439*53
[2021-02-23 09:30:15.235] $GNGGA,003014.60,3714.00635805,N,13701.48829917,E,4,11,0.9,100.224,M,36.772,M,1.6,0439*53
[2021-02-23 09:30:15.329] $GNGGA,003014.70,3714.00636956,N,13701.48829772,E,4,11,0.9,100.229,M,36.772,M,1.7,0439*57
[2021-02-23 09:30:15.423] $GNGGA,003014.80,3714.00638574,N,13701.48829337,E,4,11,0.9,100.231,M,36.772,M,1.8,0439*59
[2021-02-23 09:30:15.516] $GNGGA,003014.90,3714.00640161,N,13701.48828858,E,4,11,0.9,100.229,M,36.772,M,1.9,0439*5C
[2021-02-23 09:30:15.626] $GNGGA,003015.00,3714.00641747,N,13701.48827678,E,4,12,0.9,100.230,M,36.772,M,1.0,0439*56
[2021-02-23 09:30:15.720] $GNGGA,003015.10,3714.00643354,N,13701.48826862,E,4,12,0.9,100.227,M,36.772,M,1.1,0439*50
[2021-02-23 09:30:15.829] $GNGGA,003015.20,3714.00644824,N,13701.48826409,E,4,12,0.9,100.217,M,36.772,M,1.2,0439*59
[2021-02-23 09:30:15.923] $GNGGA,003015.30,3714.00646239,N,13701.48826743,E,4,12,0.9,100.212,M,36.772,M,1.3,0439*55
[2021-02-23 09:30:16.032] $GNGGA,003015.40,3714.00646799,N,13701.48827600,E,4,12,0.9,100.202,M,36.772,M,1.4,0439*5C
[2021-02-23 09:30:16.126] $GNGGA,003015.50,3714.00646743,N,13701.48828460,E,4,12,0.9,100.208,M,36.772,M,1.5,0439*5A
[2021-02-23 09:30:16.235] $GNGGA,003015.60,3714.00646388,N,13701.48829274,E,4,12,0.9,100.221,M,36.772,M,1.6,0439*50
[2021-02-23 09:30:16.329] $GNGGA,003015.70,3714.00645905,N,13701.48830142,E,4,12,0.9,100.218,M,36.772,M,1.7,0439*58
[2021-02-23 09:30:16.423] $GNGGA,003015.80,3714.00645517,N,13701.48830705,E,4,12,0.9,100.230,M,36.772,M,1.8,0439*58
[2021-02-23 09:30:16.516] $GNGGA,003015.90,3714.00644715,N,13701.48830964,E,4,12,0.9,100.221,M,36.772,M,1.9,0439*50
[2021-02-23 09:30:16.626] $GNGGA,003016.00,3714.00643989,N,13701.48830943,E,4,12,0.9,100.232,M,36.772,M,2.0,0439*5B
[2021-02-23 09:30:16.720] $GNGGA,003016.10,3714.00643350,N,13701.48830684,E,4,12,0.9,100.223,M,36.772,M,2.1,0439*51
[2021-02-23 09:30:16.829] $GNGGA,003016.20,3714.00642401,N,13701.48829741,E,4,12,0.9,100.235,M,36.772,M,1.2,0439*57
[2021-02-23 09:30:16.923] $GNGGA,003016.30,3714.00641988,N,13701.48828167,E,4,12,0.9,100.221,M,36.772,M,1.3,0439*5E
[2021-02-23 09:30:17.032] $GNGGA,003016.40,3714.00641461,N,13701.48826421,E,4,12,0.9,100.231,M,36.772,M,1.4,0439*5C
[2021-02-23 09:30:17.126] $GNGGA,003016.50,3714.00640951,N,13701.48825211,E,4,12,0.9,100.219,M,36.772,M,1.5,0439*5F
[2021-02-23 09:30:17.235] $GNGGA,003016.60,3714.00640249,N,13701.48824306,E,4,12,0.9,100.208,M,36.772,M,1.6,0439*5B
[2021-02-23 09:30:17.313] $GNGGA,003016.70,3714.00639437,N,13701.48823524,E,4,12,0.9,100.216,M,36.772,M,1.7,0439*54
[2021-02-23 09:30:17.423] $GNGGA,003016.80,3714.00638716,N,13701.48823811,E,4,12,0.9,100.217,M,36.772,M,1.8,0439*5F
[2021-02-23 09:30:17.516] $GNGGA,003016.90,3714.00638278,N,13701.48824691,E,4,12,0.9,100.215,M,36.772,M,1.9,0439*51
[2021-02-23 09:30:17.626] $GNGGA,003017.00,3714.00638137,N,13701.48825606,E,4,12,0.9,100.219,M,36.772,M,2.0,0439*58
[2021-02-23 09:30:17.719] $GNGGA,003017.10,3714.00637469,N,13701.48826121,E,4,12,0.9,100.219,M,36.772,M,2.1,0439*58
[2021-02-23 09:30:17.829] $GNGGA,003017.20,3714.00637099,N,13701.48826427,E,4,12,0.9,100.208,M,36.772,M,1.2,0439*53
[2021-02-23 09:30:17.923] $GNGGA,003017.30,3714.00637101,N,13701.48826148,E,4,12,0.9,100.217,M,36.772,M,1.3,0439*51
[2021-02-23 09:30:18.032] $GNGGA,003017.40,3714.00636769,N,13701.48825772,E,4,12,0.9,100.210,M,36.772,M,1.4,0439*53
[2021-02-23 09:30:18.126] $GNGGA,003017.50,3714.00636660,N,13701.48825116,E,4,12,0.9,100.206,M,36.772,M,1.5,0439*58
[2021-02-23 09:30:18.235] $GNGGA,003017.60,3714.00636285,N,13701.48823853,E,4,12,0.9,100.193,M,36.772,M,1.6,0439*56
[2021-02-23 09:30:18.329] $GNGGA,003017.70,3714.00635782,N,13701.48822808,E,4,12,0.9,100.194,M,36.772,M,1.7,0439*5F
[2021-02-23 09:30:18.423] $GNGGA,003017.80,3714.00635530,N,13701.48822468,E,4,12,0.9,100.178,M,36.772,M,1.8,0439*5C
[2021-02-23 09:30:18.516] $GNGGA,003017.90,3714.00634879,N,13701.48822493,E,4,12,0.9,100.166,M,36.772,M,1.9,0439*56
[2021-02-23 09:30:18.626] $GNGGA,003018.00,3714.00633798,N,13701.48822355,E,4,12,0.9,100.158,M,36.772,M,2.0,0439*5D
[2021-02-23 09:30:18.719] $GNGGA,003018.10,3714.00632582,N,13701.48822167,E,4,12,0.9,100.148,M,36.772,M,2.1,0439*57
[2021-02-23 09:30:18.829] $GNGGA,003018.20,3714.00631114,N,13701.48821408,E,4,12,0.9,100.129,M,36.772,M,1.2,0439*54
[2021-02-23 09:30:18.922] $GNGGA,003018.30,3714.00630069,N,13701.48820167,E,4,12,0.9,100.119,M,36.772,M,1.3,0439*50
[2021-02-23 09:30:19.032] $GNGGA,003018.40,3714.00629499,N,13701.48818858,E,4,12,0.9,100.097,M,36.772,M,1.4,0439*5A
[2021-02-23 09:30:19.126] $GNGGA,003018.50,3714.00629550,N,13701.48817763,E,4,12,0.9,100.083,M,36.772,M,1.5,0439*53
[2021-02-23 09:30:19.235] $GNGGA,003018.60,3714.00629973,N,13701.48817243,E,4,12,0.9,100.073,M,36.772,M,1.6,0439*56
[2021-02-23 09:30:19.329] $GNGGA,003018.70,3714.00630659,N,13701.48817116,E,4,12,0.9,100.083,M,36.772,M,1.7,0439*55
[2021-02-23 09:30:19.422] $GNGGA,003018.80,3714.00631236,N,13701.48817878,E,4,12,0.9,100.093,M,36.772,M,1.8,0439*59
[2021-02-23 09:30:19.516] $GNGGA,003018.90,3714.00632098,N,13701.48818981,E,4,12,0.9,100.105,M,36.772,M,1.9,0439*5A
[2021-02-23 09:30:19.626] $GNGGA,003019.00,3714.00632337,N,13701.48819896,E,4,12,0.9,100.118,M,36.772,M,2.0,0439*54
[2021-02-23 09:30:19.719] $GNGGA,003019.10,3714.00632936,N,13701.48821081,E,4,12,0.9,100.114,M,36.772,M,1.1,0439*55
[2021-02-23 09:30:19.829] $GNGGA,003019.20,3714.00633398,N,13701.48822445,E,4,12,0.9,100.120,M,36.772,M,1.2,0439*52
[2021-02-23 09:30:19.922] $GNGGA,003019.30,3714.00633348,N,13701.48822978,E,4,12,0.9,100.133,M,36.772,M,1.3,0439*5E
[2021-02-23 09:30:20.032] $GNGGA,003019.40,3714.00633418,N,13701.48823845,E,4,12,0.9,100.141,M,36.772,M,1.4,0439*57
[2021-02-23 09:30:20.126] $GNGGA,003019.50,3714.00633491,N,13701.48824641,E,4,12,0.9,100.143,M,36.772,M,1.5,0439*59
[2021-02-23 09:30:20.235] $GNGGA,003019.60,3714.00633694,N,13701.48825470,E,4,12,0.9,100.142,M,36.772,M,1.6,0439*5E
[2021-02-23 09:30:20.329] $GNGGA,003019.70,3714.00634119,N,13701.48826296,E,4,12,0.9,100.148,M,36.772,M,1.7,0439*5C
[2021-02-23 09:30:20.422] $GNGGA,003019.80,3714.00634927,N,13701.48827106,E,4,12,0.9,100.148,M,36.772,M,1.8,0439*52
[2021-02-23 09:30:20.516] $GNGGA,003019.90,3714.00635539,N,13701.48828311,E,4,12,0.9,100.147,M,36.772,M,1.9,0439*54
[2021-02-23 09:30:20.626] $GNGGA,003020.00,3714.00635856,N,13701.48829216,E,4,12,0.9,100.143,M,36.772,M,2.0,0439*5A
[2021-02-23 09:30:20.719] $GNGGA,003020.10,3714.00635837,N,13701.48829915,E,4,12,0.9,100.164,M,36.772,M,1.1,0439*53
[2021-02-23 09:30:20.829] $GNGGA,003020.20,3714.00635994,N,13701.48831109,E,4,12,0.9,100.163,M,36.772,M,1.2,0439*50
[2021-02-23 09:30:20.922] $GNGGA,003020.30,3714.00636083,N,13701.48832055,E,4,12,0.9,100.162,M,36.772,M,1.3,0439*56
[2021-02-23 09:30:21.032] $GNGGA,003020.40,3714.00635978,N,13701.48832519,E,4,12,0.9,100.164,M,36.772,M,1.4,0439*53
[2021-02-23 09:30:21.125] $GNGGA,003020.50,3714.00635268,N,13701.48832516,E,4,12,0.9,100.163,M,36.772,M,1.5,0439*51
[2021-02-23 09:30:21.235] $GNGGA,003020.60,3714.00634648,N,13701.48832551,E,4,12,0.9,100.167,M,36.772,M,1.6,0439*51
[2021-02-23 09:30:21.329] $GNGGA,003020.70,3714.00633730,N,13701.48832364,E,4,12,0.9,100.163,M,36.772,M,1.7,0439*5C
[2021-02-23 09:30:21.422] $GNGGA,003020.80,3714.00632746,N,13701.48831621,E,4,12,0.9,100.154,M,36.772,M,1.8,0439*5F
[2021-02-23 09:30:21.516] $GNGGA,003020.90,3714.00631959,N,13701.48831492,E,4,12,0.9,100.149,M,36.772,M,1.9,0439*5A
[2021-02-23 09:30:21.625] $GNGGA,003021.00,3714.00631516,N,13701.48830722,E,4,12,0.9,100.143,M,36.772,M,1.0,0439*5F
[2021-02-23 09:30:21.719] $GNGGA,003021.10,3714.00631058,N,13701.48830012,E,4,12,0.9,100.137,M,36.772,M,1.1,0439*57
[2021-02-23 09:30:21.829] $GNGGA,003021.20,3714.00631192,N,13701.48829692,E,4,12,0.9,100.133,M,36.772,M,1.2,0439*52
[2021-02-23 09:30:21.922] $GNGGA,003021.30,3714.00631841,N,13701.48829745,E,4,12,0.9,100.130,M,36.772,M,1.3,0439*5D
[2021-02-23 09:30:22.032] $GNGGA,003021.40,3714.00632475,N,13701.48829389,E,4,12,0.9,100.141,M,36.772,M,1.4,0439*57
[2021-02-23 09:30:22.125] $GNGGA,003021.50,3714.00632955,N,13701.48830206,E,4,12,0.9,100.130,M,36.772,M,1.5,0439*50
[2021-02-23 09:30:22.235] $GNGGA,003021.60,3714.00633346,N,13701.48830589,E,4,12,0.9,100.142,M,36.772,M,1.6,0439*5C
[2021-02-23 09:30:22.328] $GNGGA,003021.70,3714.00633670,N,13701.48831784,E,4,12,0.9,100.146,M,36.772,M,1.7,0439*56
[2021-02-23 09:30:22.422] $GNGGA,003021.80,3714.00633893,N,13701.48832966,E,4,12,0.9,100.153,M,36.772,M,1.8,0439*50
[2021-02-23 09:30:22.516] $GNGGA,003021.90,3714.00633850,N,13701.48834354,E,4,12,0.9,100.160,M,36.772,M,1.9,0439*52
[2021-02-23 09:30:22.641] $GNGGA,003022.00,3714.00633958,N,13701.48836349,E,4,11,0.9,100.168,M,36.772,M,1.0,0439*5D
[2021-02-23 09:30:22.719] $GNGGA,003022.10,3714.00633240,N,13701.48837983,E,4,11,0.9,100.175,M,36.772,M,1.1,0439*5E
[2021-02-23 09:30:22.828] $GNGGA,003022.20,3714.00632523,N,13701.48839637,E,4,11,0.9,100.171,M,36.772,M,1.2,0439*57
[2021-02-23 09:30:22.922] $GNGGA,003022.30,3714.00631842,N,13701.48841037,E,4,11,0.9,100.175,M,36.772,M,1.3,0439*53
[2021-02-23 09:30:23.032] $GNGGA,003022.40,3714.00630701,N,13701.48842946,E,4,11,0.9,100.167,M,36.772,M,1.4,0439*55
[2021-02-23 09:30:23.125] $GNGGA,003022.50,3714.00629124,N,13701.48844428,E,4,11,0.9,100.169,M,36.772,M,1.5,0439*51
[2021-02-23 09:30:23.235] $GNGGA,003022.60,3714.00627252,N,13701.48846710,E,4,11,0.9,100.154,M,36.772,M,1.6,0439*59
[2021-02-23 09:30:23.328] $GNGGA,003022.70,3714.00625306,N,13701.48848353,E,4,11,0.9,100.130,M,36.772,M,1.7,0439*54
[2021-02-23 09:30:23.422] $GNGGA,003022.80,3714.00623461,N,13701.48850286,E,4,11,0.9,100.124,M,36.772,M,1.8,0439*51
[2021-02-23 09:30:23.516] $GNGGA,003022.90,3714.00622507,N,13701.48851945,E,4,12,0.9,100.107,M,36.772,M,0.9,0439*57
[2021-02-23 09:30:23.625] $GNGGA,003023.00,3714.00622399,N,13701.48853087,E,4,12,0.9,100.095,M,36.772,M,1.0,0439*59
[2021-02-23 09:30:23.719] $GNGGA,003023.10,3714.00622594,N,13701.48852761,E,4,12,0.9,100.103,M,36.772,M,1.1,0439*52
[2021-02-23 09:30:23.828] $GNGGA,003023.20,3714.00623677,N,13701.48850812,E,4,12,0.9,100.111,M,36.772,M,1.2,0439*57
[2021-02-23 09:30:23.922] $GNGGA,003023.30,3714.00625558,N,13701.48848722,E,4,12,0.9,100.114,M,36.772,M,1.3,0439*5F
[2021-02-23 09:30:24.032] $GNGGA,003023.40,3714.00627845,N,13701.48846530,E,4,12,0.9,100.127,M,36.772,M,1.4,0439*53
[2021-02-23 09:30:24.125] $GNGGA,003023.50,3714.00629850,N,13701.48844466,E,4,12,0.9,100.151,M,36.772,M,1.5,0439*58
[2021-02-23 09:30:24.235] $GNGGA,003023.60,3714.00631439,N,13701.48841797,E,4,12,0.9,100.141,M,36.772,M,1.6,0439*5B
[2021-02-23 09:30:24.328] $GNGGA,003023.70,3714.00632149,N,13701.48837826,E,4,12,0.9,100.159,M,36.772,M,1.7,0439*57
[2021-02-23 09:30:24.422] $GNGGA,003023.80,3714.00632943,N,13701.48835007,E,4,12,0.9,100.174,M,36.772,M,1.8,0439*53
[2021-02-23 09:30:24.516] $GNGGA,003023.90,3714.00633583,N,13701.48833274,E,4,12,0.9,100.156,M,36.772,M,1.9,0439*52
[2021-02-23 09:30:24.625] $GNGGA,003024.00,3714.00633188,N,13701.48831820,E,4,12,0.9,100.160,M,36.772,M,2.0,0439*55
[2021-02-23 09:30:24.719] $GNGGA,003024.10,3714.00632436,N,13701.48830777,E,4,12,0.9,100.172,M,36.772,M,2.1,0439*5B
[2021-02-23 09:30:24.828] $GNGGA,003024.20,3714.00631104,N,13701.48830185,E,4,11,0.9,100.188,M,36.772,M,1.2,0439*52
[2021-02-23 09:30:24.922] $GNGGA,003024.30,3714.00628885,N,13701.48829969,E,4,11,0.9,100.191,M,36.772,M,1.3,0439*50
[2021-02-23 09:30:25.031] $GNGGA,003024.40,3714.00626134,N,13701.48830721,E,4,11,0.9,100.210,M,36.772,M,1.4,0439*5D
[2021-02-23 09:30:25.125] $GNGGA,003024.50,3714.00622717,N,13701.48832366,E,4,11,0.9,100.209,M,36.772,M,1.5,0439*53
[2021-02-23 09:30:25.235] $GNGGA,003024.60,3714.00619530,N,13701.48835041,E,4,11,0.9,100.208,M,36.772,M,1.6,0439*5C
[2021-02-23 09:30:25.328] $GNGGA,003024.70,3714.00616132,N,13701.48837988,E,4,11,0.9,100.202,M,36.772,M,1.7,0439*51
[2021-02-23 09:30:25.422] $GNGGA,003024.80,3714.00612873,N,13701.48839305,E,4,11,0.9,100.202,M,36.772,M,1.8,0439*58
[2021-02-23 09:30:25.531] $GNGGA,003024.90,3714.00610334,N,13701.48840701,E,4,11,0.9,100.218,M,36.772,M,1.9,0439*57
[2021-02-23 09:30:25.625] $GNGGA,003025.00,3714.00607742,N,13701.48840900,E,4,12,0.9,100.244,M,36.772,M,1.0,0439*50
[2021-02-23 09:30:25.719] $GNGGA,003025.10,3714.00604784,N,13701.48841258,E,4,12,0.9,100.249,M,36.772,M,1.1,0439*53
[2021-02-23 09:30:25.828] $GNGGA,003025.20,3714.00601476,N,13701.48841655,E,4,12,0.9,100.228,M,36.772,M,1.2,0439*56
[2021-02-23 09:30:25.922] $GNGGA,003025.30,3714.00597379,N,13701.48841723,E,4,12,0.9,100.230,M,36.772,M,1.3,0439*5B
[2021-02-23 09:30:26.031] $GNGGA,003025.40,3714.00592834,N,13701.48841442,E,4,12,0.9,100.191,M,36.772,M,1.4,0439*50
[2021-02-23 09:30:26.125] $GNGGA,003025.50,3714.00587060,N,13701.48840621,E,4,12,0.9,100.195,M,36.772,M,1.5,0439*5F
[2021-02-23 09:30:26.234] $GNGGA,003025.60,3714.00581551,N,13701.48839998,E,4,12,0.9,100.192,M,36.772,M,1.6,0439*5A
[2021-02-23 09:30:26.328] $GNGGA,003025.70,3714.00576514,N,13701.48840192,E,4,12,0.9,100.177,M,36.772,M,1.7,0439*54
[2021-02-23 09:30:26.422] $GNGGA,003025.80,3714.00571676,N,13701.48840060,E,4,12,0.9,100.187,M,36.772,M,1.8,0439*57
[2021-02-23 09:30:26.516] $GNGGA,003025.90,3714.00567928,N,13701.48840628,E,4,12,0.9,100.182,M,36.772,M,1.9,0439*5B
[2021-02-23 09:30:26.625] $GNGGA,003026.00,3714.00564703,N,13701.48840615,E,4,12,0.9,100.182,M,36.772,M,2.0,0439*51
[2021-02-23 09:30:26.719] $GNGGA,003026.10,3714.00562137,N,13701.48841233,E,4,12,0.9,100.178,M,36.772,M,2.1,0439*52
[2021-02-23 09:30:26.828] $GNGGA,003026.20,3714.00559951,N,13701.48841280,E,4,12,0.9,100.177,M,36.772,M,1.2,0439*56
[2021-02-23 09:30:26.922] $GNGGA,003026.30,3714.00557517,N,13701.48841627,E,4,12,0.9,100.162,M,36.772,M,1.3,0439*5B
[2021-02-23 09:30:27.031] $GNGGA,003026.40,3714.00554713,N,13701.48841645,E,4,12,0.9,100.179,M,36.772,M,1.4,0439*50
[2021-02-23 09:30:27.125] $GNGGA,003026.50,3714.00550607,N,13701.48841869,E,4,12,0.9,100.143,M,36.772,M,1.5,0439*59
[2021-02-23 09:30:27.234] $GNGGA,003026.60,3714.00547081,N,13701.48843245,E,4,12,0.9,100.153,M,36.772,M,1.6,0439*50
[2021-02-23 09:30:27.328] $GNGGA,003026.70,3714.00542887,N,13701.48844824,E,4,12,0.9,100.150,M,36.772,M,1.7,0439*52
[2021-02-23 09:30:27.422] $GNGGA,003026.80,3714.00539551,N,13701.48846383,E,4,12,0.9,100.148,M,36.772,M,1.8,0439*55
[2021-02-23 09:30:27.516] $GNGGA,003026.90,3714.00536288,N,13701.48846867,E,4,12,0.9,100.173,M,36.772,M,1.9,0439*50
[2021-02-23 09:30:27.625] $GNGGA,003027.00,3714.00533246,N,13701.48846927,E,4,12,0.9,100.162,M,36.772,M,2.0,0439*50
[2021-02-23 09:30:27.719] $GNGGA,003027.10,3714.00529754,N,13701.48845853,E,4,12,0.9,100.178,M,36.772,M,1.1,0439*54
[2021-02-23 09:30:27.828] $GNGGA,003027.20,3714.00526475,N,13701.48843634,E,4,12,0.9,100.178,M,36.772,M,1.2,0439*52
[2021-02-23 09:30:27.922] $GNGGA,003027.30,3714.00523136,N,13701.48842029,E,4,12,0.9,100.171,M,36.772,M,1.3,0439*57
[2021-02-23 09:30:28.031] $GNGGA,003027.40,3714.00520272,N,13701.48840819,E,4,12,0.9,100.184,M,36.772,M,1.4,0439*54
[2021-02-23 09:30:28.125] $GNGGA,003027.50,3714.00517675,N,13701.48839480,E,4,12,0.9,100.181,M,36.772,M,1.5,0439*54
[2021-02-23 09:30:28.234] $GNGGA,003027.60,3714.00515487,N,13701.48836882,E,4,12,0.9,100.194,M,36.772,M,1.6,0439*5C
[2021-02-23 09:30:28.328] $GNGGA,003027.70,3714.00513298,N,13701.48834347,E,4,12,0.9,100.189,M,36.772,M,1.7,0439*5E
[2021-02-23 09:30:28.422] $GNGGA,003027.80,3714.00511600,N,13701.48831103,E,4,12,0.9,100.186,M,36.772,M,1.8,0439*51
[2021-02-23 09:30:28.516] $GNGGA,003027.90,3714.00510095,N,13701.48826827,E,4,12,0.9,100.170,M,36.772,M,1.9,0439*5A
[2021-02-23 09:30:28.625] $GNGGA,003028.00,3714.00507607,N,13701.48824187,E,4,12,0.9,100.162,M,36.772,M,2.0,0439*5F
[2021-02-23 09:30:28.719] $GNGGA,003028.10,3714.00504735,N,13701.48820653,E,4,11,0.9,100.183,M,36.772,M,1.1,0439*59
[2021-02-23 09:30:28.828] $GNGGA,003028.20,3714.00501347,N,13701.48818482,E,4,11,0.9,100.201,M,36.772,M,1.2,0439*51
[2021-02-23 09:30:28.922] $GNGGA,003028.30,3714.00498923,N,13701.48816760,E,4,11,0.9,100.205,M,36.772,M,1.3,0439*5D
[2021-02-23 09:30:29.031] $GNGGA,003028.40,3714.00497168,N,13701.48815671,E,4,11,0.9,100.229,M,36.772,M,1.4,0439*59
[2021-02-23 09:30:29.125] $GNGGA,003028.50,3714.00495830,N,13701.48813898,E,4,11,0.9,100.236,M,36.772,M,1.5,0439*5E
[2021-02-23 09:30:29.234] $GNGGA,003028.60,3714.00494443,N,13701.48812812,E,4,11,0.9,100.237,M,36.772,M,1.6,0439*55
[2021-02-23 09:30:29.328] $GNGGA,003028.70,3714.00492094,N,13701.48811212,E,4,11,0.9,100.233,M,36.772,M,1.7,0439*50
[2021-02-23 09:30:29.422] $GNGGA,003028.80,3714.00489296,N,13701.48811315,E,4,11,0.9,100.249,M,36.772,M,1.8,0439*51
[2021-02-23 09:30:29.516] $GNGGA,003028.90,3714.00487003,N,13701.48810570,E,4,11,0.9,100.277,M,36.772,M,1.9,0439*58
[2021-02-23 09:30:29.625] $GNGGA,003029.00,3714.00485400,N,13701.48811519,E,4,11,0.9,100.268,M,36.772,M,1.0,0439*5C
[2021-02-23 09:30:29.719] $GNGGA,003029.10,3714.00483308,N,13701.48810469,E,4,11,0.9,100.263,M,36.772,M,1.1,0439*59
[2021-02-23 09:30:29.828] $GNGGA,003029.20,3714.00480803,N,13701.48810202,E,4,11,0.9,100.235,M,36.772,M,1.2,0439*52
[2021-02-23 09:30:29.922] $GNGGA,003029.30,3714.00476851,N,13701.48809919,E,4,11,0.9,100.233,M,36.772,M,1.3,0439*53
[2021-02-23 09:30:30.031] $GNGGA,003029.40,3714.00472197,N,13701.48810922,E,4,11,0.9,100.227,M,36.772,M,1.4,0439*51
[2021-02-23 09:30:30.125] $GNGGA,003029.50,3714.00466781,N,13701.48811745,E,4,11,0.9,100.209,M,36.772,M,1.5,0439*57
[2021-02-23 09:30:30.234] $GNGGA,003029.60,3714.00460888,N,13701.48812539,E,4,11,0.9,100.234,M,36.772,M,1.6,0439*53
[2021-02-23 09:30:30.328] $GNGGA,003029.70,3714.00456406,N,13701.48813812,E,4,11,0.9,100.234,M,36.772,M,1.7,0439*59
[2021-02-23 09:30:30.422] $GNGGA,003029.80,3714.00451995,N,13701.48814548,E,4,11,0.9,100.236,M,36.772,M,1.8,0439*5E
[2021-02-23 09:30:30.515] $GNGGA,003029.90,3714.00448460,N,13701.48814586,E,4,11,0.9,100.252,M,36.772,M,1.9,0439*51
[2021-02-23 09:30:30.625] $GNGGA,003030.00,3714.00444646,N,13701.48813151,E,4,11,0.9,100.222,M,36.772,M,1.0,0439*5D
[2021-02-23 09:30:30.719] $GNGGA,003030.10,3714.00441135,N,13701.48811497,E,4,11,0.9,100.209,M,36.772,M,1.1,0439*5F
[2021-02-23 09:30:30.828] $GNGGA,003030.20,3714.00437475,N,13701.48809858,E,4,11,0.9,100.209,M,36.772,M,1.2,0439*59
[2021-02-23 09:30:30.922] $GNGGA,003030.30,3714.00434974,N,13701.48808388,E,4,11,0.9,100.230,M,36.772,M,1.3,0439*5B
[2021-02-23 09:30:31.031] $GNGGA,003030.40,3714.00433103,N,13701.48807729,E,4,11,0.9,100.239,M,36.772,M,1.4,0439*5D
[2021-02-23 09:30:31.125] $GNGGA,003030.50,3714.00431151,N,13701.48806893,E,4,11,0.9,100.248,M,36.772,M,1.5,0439*51
[2021-02-23 09:30:31.234] $GNGGA,003030.60,3714.00429667,N,13701.48805521,E,4,11,0.9,100.249,M,36.772,M,1.6,0439*5C
