
[2021-02-23 09:49:23.303] $GPGGA,004912.80,3714.00646822,N,13701.48833273,E,4,11,0.9,100.057,M,36.772,M,1.8,0453*4C
[2021-02-23 09:49:23.319] $GPGGA,004912.90,3714.00646947,N,13701.48833693,E,4,11,0.9,100.057,M,36.772,M,0.9,0453*45
[2021-02-23 09:49:23.319] $GPGGA,004913.00,3714.00646906,N,13701.48833991,E,4,11,0.9,100.046,M,36.772,M,1.0,0453*4D
[2021-02-23 09:49:23.319] $GPGGA,004913.10,3714.00647081,N,13701.48833612,E,4,11,0.9,100.053,M,36.772,M,1.1,0453*4A
[2021-02-23 09:49:23.319] $GPGGA,004913.20,3714.00647066,N,13701.48833596,E,4,11,0.9,100.052,M,36.772,M,1.2,0453*4D
[2021-02-23 09:49:23.319] $GPGGA,004913.30,3714.00646867,N,13701.48834208,E,4,11,0.9,100.036,M,36.772,M,1.3,0453*40
[2021-02-23 09:49:23.319] $GPGGA,004913.40,3714.00646766,N,13701.48834168,E,4,11,0.9,100.027,M,36.772,M,1.4,0453*4B
[2021-02-23 09:49:23.319] $GPGGA,004913.50,3714.00646837,N,13701.48834239,E,4,11,0.9,100.030,M,36.772,M,1.5,0453*41
[2021-02-23 09:49:23.319] $GPGGA,004913.60,3714.00646818,N,13701.48834002,E,4,11,0.9,100.044,M,36.772,M,1.6,0453*45
[2021-02-23 09:49:23.319] $GPGGA,004913.70,3714.00646834,N,13701.48833519,E,4,11,0.9,100.045,M,36.772,M,1.7,0453*42
[2021-02-23 09:49:23.319] $GPGGA,004913.80,3714.00647001,N,13701.48834101,E,4,11,0.9,100.033,M,36.772,M,1.8,0453*46
[2021-02-23 09:49:23.319] $GPGGA,004913.90,3714.00646602,N,13701.48833049,E,4,11,0.9,100.048,M,36.772,M,1.9,0453*44
[2021-02-23 09:49:23.319] $GPGGA,004914.00,3714.00646727,N,13701.48833309,E,4,11,0.9,100.050,M,36.772,M,1.0,0453*4B
[2021-02-23 09:49:23.335] $GPGGA,004914.10,3714.00646506,N,13701.48833335,E,4,11,0.9,100.052,M,36.772,M,1.1,0453*47
[2021-02-23 09:49:23.335] $GPGGA,004914.20,3714.00646619,N,13701.48833025,E,4,11,0.9,100.060,M,36.772,M,1.2,0453*49
[2021-02-23 09:49:23.335] $GPGGA,004914.30,3714.00646377,N,13701.48833284,E,4,11,0.9,100.054,M,36.772,M,1.3,0453*4A
[2021-02-23 09:49:23.335] $GPGGA,004914.40,3714.00646455,N,13701.48833497,E,4,11,0.9,100.052,M,36.772,M,1.4,0453*4F
[2021-02-23 09:49:23.335] $GPGGA,004914.50,3714.00646623,N,13701.48832978,E,4,11,0.9,100.058,M,36.772,M,1.5,0453*4B
[2021-02-23 09:49:23.335] $GPGGA,004914.60,3714.00646567,N,13701.48833469,E,4,11,0.9,100.056,M,36.772,M,1.6,0453*4A
[2021-02-23 09:49:23.335] $GPGGA,004914.70,3714.00646583,N,13701.48833555,E,4,11,0.9,100.044,M,36.772,M,1.7,0453*4D
[2021-02-23 09:49:23.335] $GPGGA,004914.80,3714.00646530,N,13701.48833380,E,4,11,0.9,100.056,M,36.772,M,1.8,0453*48
[2021-02-23 09:49:23.335] $GPGGA,004914.90,3714.00646548,N,13701.48833557,E,4,11,0.9,100.052,M,36.772,M,1.9,0453*4F
[2021-02-23 09:49:23.335] $GPGGA,004915.00,3714.00646702,N,13701.48833953,E,4,11,0.9,100.059,M,36.772,M,1.0,0453*41
[2021-02-23 09:49:23.335] $GPGGA,004915.10,3714.00646402,N,13701.48833804,E,4,11,0.9,100.061,M,36.772,M,1.1,0453*4A
[2021-02-23 09:49:23.350] $GPGGA,004915.20,3714.00646785,N,13701.48833725,E,4,11,0.9,100.062,M,36.772,M,1.2,0453*49
[2021-02-23 09:49:23.350] $GPGGA,004915.30,3714.00646749,N,13701.48834095,E,4,11,0.9,100.051,M,36.772,M,1.3,0453*42
[2021-02-23 09:49:23.350] $GPGGA,004915.40,3714.00646693,N,13701.48833856,E,4,11,0.9,100.059,M,36.772,M,1.4,0453*4C
[2021-02-23 09:49:23.350] $GPGGA,004915.50,3714.00646806,N,13701.48834076,E,4,11,0.9,100.056,M,36.772,M,1.5,0453*4C
[2021-02-23 09:49:23.350] $GPGGA,004915.60,3714.00646708,N,13701.48834200,E,4,11,0.9,100.062,M,36.772,M,1.6,0453*49
[2021-02-23 09:49:23.350] $GPGGA,004915.70,3714.00646849,N,13701.48834226,E,4,11,0.9,100.061,M,36.772,M,1.7,0453*44
[2021-02-23 09:49:23.350] $GPGGA,004915.80,3714.00646765,N,13701.48834164,E,4,11,0.9,100.061,M,36.772,M,1.8,0453*40
[2021-02-23 09:49:23.350] $GPGGA,004915.90,3714.00646958,N,13701.48834381,E,4,11,0.9,100.059,M,36.772,M,1.9,0453*42
[2021-02-23 09:49:23.350] $GPGGA,004916.00,3714.00646665,N,13701.48834507,E,4,11,0.9,100.050,M,36.772,M,1.0,0453*41
[2021-02-23 09:49:23.350] $GPGGA,004916.10,3714.00646833,N,13701.48834620,E,4,11,0.9,100.047,M,36.772,M,1.1,0453*4C
[2021-02-23 09:49:23.350] $GPGGA,004916.20,3714.00646659,N,13701.48834849,E,4,11,0.9,100.048,M,36.772,M,1.2,0453*40
[2021-02-23 09:49:23.366] $GPGGA,004916.30,3714.00646808,N,13701.48834588,E,4,11,0.9,100.046,M,36.772,M,1.3,0453*44
[2021-02-23 09:49:23.366] $GPGGA,004916.40,3714.00646825,N,13701.48834681,E,4,11,0.9,100.046,M,36.772,M,1.4,0453*41
[2021-02-23 09:49:23.366] $GPGGA,004916.50,3714.00646880,N,13701.48834350,E,4,11,0.9,100.046,M,36.772,M,1.5,0453*47
[2021-02-23 09:49:23.366] $GPGGA,004916.60,3714.00646538,N,13701.48834654,E,4,11,0.9,100.047,M,36.772,M,1.6,0453*49
[2021-02-23 09:49:23.366] $GPGGA,004916.70,3714.00646603,N,13701.48834420,E,4,11,0.9,100.054,M,36.772,M,1.7,0453*41
[2021-02-23 09:49:23.366] $GPGGA,004916.80,3714.00646510,N,13701.48834415,E,4,11,0.9,100.052,M,36.772,M,1.8,0453*40
[2021-02-23 09:49:23.366] $GPGGA,004916.90,3714.00646423,N,13701.48834628,E,4,11,0.9,100.048,M,36.772,M,1.9,0453*46
[2021-02-23 09:49:23.366] $GPGGA,004917.00,3714.00646622,N,13701.48834242,E,4,11,0.9,100.058,M,36.772,M,1.0,0453*4D
[2021-02-23 09:49:23.366] $GPGGA,004917.10,3714.00646515,N,13701.48834287,E,4,11,0.9,100.054,M,36.772,M,1.1,0453*4F
[2021-02-23 09:49:23.366] $GPGGA,004917.20,3714.00646420,N,13701.48834338,E,4,11,0.9,100.047,M,36.772,M,1.2,0453*4F
[2021-02-23 09:49:23.366] $GPGGA,004917.30,3714.00646352,N,13701.48834236,E,4,11,0.9,100.062,M,36.772,M,1.3,0453*45
[2021-02-23 09:49:23.381] $GPGGA,004917.40,3714.00646203,N,13701.48834094,E,4,11,0.9,100.056,M,36.772,M,1.4,0453*4D
[2021-02-23 09:49:23.381] $GPGGA,004917.50,3714.00646102,N,13701.48834133,E,4,11,0.9,100.053,M,36.772,M,1.5,0453*46
[2021-02-23 09:49:23.381] $GPGGA,004917.60,3714.00645835,N,13701.48834172,E,4,11,0.9,100.053,M,36.772,M,1.6,0453*4D
[2021-02-23 09:49:23.381] $GPGGA,004917.70,3714.00645926,N,13701.48834007,E,4,11,0.9,100.054,M,36.772,M,1.7,0453*4A
[2021-02-23 09:49:23.381] $GPGGA,004917.80,3714.00645846,N,13701.48833962,E,4,11,0.9,100.050,M,36.772,M,1.8,0453*44
[2021-02-23 09:49:23.381] $GPGGA,004917.90,3714.00645856,N,13701.48834004,E,4,11,0.9,100.055,M,36.772,M,1.9,0453*4E
[2021-02-23 09:49:23.381] $GPGGA,004918.00,3714.00645856,N,13701.48834104,E,4,11,0.9,100.052,M,36.772,M,1.0,0453*47
[2021-02-23 09:49:23.381] $GPGGA,004918.10,3714.00645829,N,13701.48834011,E,4,11,0.9,100.052,M,36.772,M,1.1,0453*4A
[2021-02-23 09:49:23.381] $GPGGA,004918.20,3714.00645821,N,13701.48833886,E,4,11,0.9,100.057,M,36.772,M,1.2,0453*46
[2021-02-23 09:49:23.381] $GPGGA,004918.30,3714.00645859,N,13701.48833984,E,4,11,0.9,100.048,M,36.772,M,1.3,0453*44
[2021-02-23 09:49:23.381] $GPGGA,004918.40,3714.00645897,N,13701.48833911,E,4,11,0.9,100.054,M,36.772,M,1.4,0453*47
[2021-02-23 09:49:23.397] $GPGGA,004918.50,3714.00646146,N,13701.48834152,E,4,11,0.9,100.052,M,36.772,M,1.5,0453*4F
[2021-02-23 09:49:23.397] $GPGGA,004918.60,3714.00646064,N,13701.48834072,E,4,11,0.9,100.055,M,36.772,M,1.6,0453*4A
[2021-02-23 09:49:23.397] $GPGGA,004918.70,3714.00645845,N,13701.48834270,E,4,11,0.9,100.056,M,36.772,M,1.7,0453*41
[2021-02-23 09:49:23.397] $GPGGA,004918.80,3714.00645935,N,13701.48834609,E,4,11,0.9,100.050,M,36.772,M,1.8,0453*4B
[2021-02-23 09:49:23.397] $GPGGA,004918.90,3714.00645890,N,13701.48834505,E,4,11,0.9,100.057,M,36.772,M,1.9,0453*4D
[2021-02-23 09:49:23.397] $GPGGA,004919.00,3714.00646082,N,13701.48834730,E,4,11,0.9,100.043,M,36.772,M,1.0,0453*45
[2021-02-23 09:49:23.397] $GPGGA,004919.10,3714.00646013,N,13701.48834333,E,4,11,0.9,100.053,M,36.772,M,1.1,0453*4B
[2021-02-23 09:49:23.397] $GPGGA,004919.20,3714.00646099,N,13701.48834691,E,4,11,0.9,100.047,M,36.772,M,1.2,0453*41
[2021-02-23 09:49:23.397] $GPGGA,004919.30,3714.00646203,N,13701.48834820,E,4,11,0.9,100.051,M,36.772,M,1.3,0453*43
[2021-02-23 09:49:23.397] $GPGGA,004919.40,3714.00646097,N,13701.48834871,E,4,11,0.9,100.048,M,36.772,M,1.4,0453*40
[2021-02-23 09:49:23.397] $GPGGA,004919.50,3714.00646158,N,13701.48835001,E,4,11,0.9,100.048,M,36.772,M,1.5,0453*4C
[2021-02-23 09:49:23.413] $GPGGA,004919.60,3714.00646341,N,13701.48834937,E,4,11,0.9,100.053,M,36.772,M,1.6,0453*41
[2021-02-23 09:49:23.413] $GPGGA,004919.70,3714.00646647,N,13701.48834837,E,4,11,0.9,100.052,M,36.772,M,1.7,0453*42
[2021-02-23 09:49:23.413] $GPGGA,004919.80,3714.00646434,N,13701.48835174,E,4,11,0.9,100.046,M,36.772,M,1.8,0453*4E
[2021-02-23 09:49:23.413] $GPGGA,004919.90,3714.00646464,N,13701.48835502,E,4,11,0.9,100.044,M,36.772,M,1.9,0453*4C
[2021-02-23 09:49:23.413] $GPGGA,004920.00,3714.00646621,N,13701.48834974,E,4,11,0.9,100.064,M,36.772,M,1.0,0453*4B
[2021-02-23 09:49:23.413] $GPGGA,004920.10,3714.00646768,N,13701.48835215,E,4,11,0.9,100.059,M,36.772,M,1.1,0453*44
[2021-02-23 09:49:23.413] $GPGGA,004920.20,3714.00646679,N,13701.48835242,E,4,11,0.9,100.059,M,36.772,M,1.2,0453*47
[2021-02-23 09:49:23.413] $GPGGA,004920.30,3714.00646808,N,13701.48835464,E,4,11,0.9,100.062,M,36.772,M,1.3,0453*45
[2021-02-23 09:49:23.413] $GPGGA,004920.40,3714.00647039,N,13701.48835422,E,4,11,0.9,100.060,M,36.772,M,1.4,0453*4E
[2021-02-23 09:49:23.413] $GPGGA,004920.50,3714.00647144,N,13701.48835586,E,4,11,0.9,100.061,M,36.772,M,1.5,0453*4B
[2021-02-23 09:49:23.413] $GPGGA,004920.60,3714.00647298,N,13701.48835728,E,4,11,0.9,100.061,M,36.772,M,1.6,0453*4F
[2021-02-23 09:49:23.428] $GPGGA,004920.70,3714.00647079,N,13701.48836079,E,4,11,0.9,100.059,M,36.772,M,1.7,0453*49
[2021-02-23 09:49:23.428] $GPGGA,004920.80,3714.00647114,N,13701.48835864,E,4,11,0.9,100.061,M,36.772,M,1.8,0453*4F
[2021-02-23 09:49:23.428] $GPGGA,004920.90,3714.00647139,N,13701.48835778,E,4,11,0.9,100.063,M,36.772,M,1.9,0453*40
[2021-02-23 09:49:23.428] $GPGGA,004921.00,3714.00647251,N,13701.48835906,E,4,11,0.9,100.051,M,36.772,M,1.0,0453*4A
[2021-02-23 09:49:23.428] $GPGGA,004921.10,3714.00647697,N,13701.48835810,E,4,11,0.9,100.049,M,36.772,M,1.1,0453*4B
[2021-02-23 09:49:23.428] $GPGGA,004921.20,3714.00647323,N,13701.48835829,E,4,11,0.9,100.061,M,36.772,M,1.2,0453*41
[2021-02-23 09:49:23.428] $GPGGA,004921.30,3714.00647612,N,13701.48836227,E,4,11,0.9,100.046,M,36.772,M,1.3,0453*44
[2021-02-23 09:49:23.428] $GPGGA,004921.40,3714.00647502,N,13701.48836149,E,4,11,0.9,100.050,M,36.772,M,1.4,0453*4A
[2021-02-23 09:49:23.428] $GPGGA,004921.50,3714.00647380,N,13701.48835896,E,4,11,0.9,100.061,M,36.772,M,1.5,0453*4C
[2021-02-23 09:49:23.428] $GPGGA,004921.60,3714.00647486,N,13701.48835687,E,4,11,0.9,100.063,M,36.772,M,1.6,0453*41
[2021-02-23 09:49:23.428] $GPGGA,004921.70,3714.00647843,N,13701.48836077,E,4,11,0.9,100.035,M,36.772,M,1.7,0453*4D
[2021-02-23 09:49:23.428] $GPGGA,004921.80,3714.00647619,N,13701.48836037,E,4,11,0.9,100.059,M,36.772,M,1.8,0453*42
[2021-02-23 09:49:23.444] $GPGGA,004921.90,3714.00647718,N,13701.48835803,E,4,11,0.9,100.056,M,36.772,M,1.9,0453*41
[2021-02-23 09:49:23.444] $GPGGA,004922.00,3714.00647772,N,13701.48835294,E,4,11,0.9,100.057,M,36.772,M,1.0,0453*4B
[2021-02-23 09:49:23.444] $GPGGA,004922.10,3714.00647544,N,13701.48835349,E,4,11,0.9,100.055,M,36.772,M,1.1,0453*4F
[2021-02-23 09:49:23.444] $GPGGA,004922.20,3714.00647722,N,13701.48835362,E,4,11,0.9,100.054,M,36.77
[2021-02-23 09:49:23.444] $GPGGA,004922.70,3714.00647373,N,13701.48835456,E,4,11,0.9,100.057,M,36.772,M,1.7,0453*46
[2021-02-23 09:49:23.444] $GPGGA,004922.80,3714.00647318,N,13701.48835515,E,4,11,0.9,100.060,M,36.772,M,1.8,0453*49
[2021-02-23 09:49:23.538] $GPGGA,004922.90,3714.00647899,N,13701.48835840,E,4,11,0.9,100.051,M,36.772,M,0.9,0453*45
[2021-02-23 09:49:23.647] $GPGGA,004923.00,3714.00647757,N,13701.48836072,E,4,11,0.9,100.050,M,36.772,M,1.0,0453*43
[2021-02-23 09:49:23.741] $GPGGA,004923.10,3714.00647780,N,13701.48835985,E,4,11,0.9,100.059,M,36.772,M,1.1,0453*42
[2021-02-23 09:49:23.850] $GPGGA,004923.20,3714.00647726,N,13701.48836333,E,4,11,0.9,100.050,M,36.772,M,1.2,0453*43
[2021-02-23 09:49:23.944] $GPGGA,004923.30,3714.00647853,N,13701.48836296,E,4,11,0.9,100.060,M,36.772,M,1.3,0453*43
[2021-02-23 09:49:24.053] $GPGGA,004923.40,3714.00647698,N,13701.48836751,E,4,11,0.9,100.051,M,36.772,M,1.4,0453*46
[2021-02-23 09:49:24.147] $GPGGA,004923.50,3714.00647605,N,13701.48837249,E,4,11,0.9,100.052,M,36.772,M,1.5,0453*4C
[2021-02-23 09:49:24.256] $GPGGA,004923.60,3714.00647422,N,13701.48837600,E,4,11,0.9,100.048,M,36.772,M,1.6,0453*49
[2021-02-23 09:49:24.334] $GPGGA,004923.70,3714.00647354,N,13701.48837539,E,4,11,0.9,100.051,M,36.772,M,1.7,0453*4E
[2021-02-23 09:49:24.444] $GPGGA,004923.80,3714.00647506,N,13701.48837118,E,4,11,0.9,100.054,M,36.772,M,1.8,0453*4D
[2021-02-23 09:49:24.538] $GPGGA,004923.90,3714.00647544,N,13701.48837059,E,4,11,0.9,100.049,M,36.772,M,1.9,0453*43
[2021-02-23 09:49:24.647] $GPGGA,004924.00,3714.00647416,N,13701.48837245,E,4,11,0.9,100.051,M,36.772,M,1.0,0453*44
[2021-02-23 09:49:24.741] $GPGGA,004924.10,3714.00647323,N,13701.48836813,E,4,11,0.9,100.054,M,36.772,M,1.1,0453*48
[2021-02-23 09:49:24.850] $GPGGA,004924.20,3714.00647029,N,13701.48836652,E,4,11,0.9,100.052,M,36.772,M,1.2,0453*4C
[2021-02-23 09:49:24.944] $GPGGA,004924.30,3714.00647176,N,13701.48836130,E,4,11,0.9,100.059,M,36.772,M,1.3,0453*4F
[2021-02-23 09:49:25.053] $GPGGA,004924.40,3714.00647307,N,13701.48836503,E,4,11,0.9,100.055,M,36.772,M,1.4,0453*43
[2021-02-23 09:49:25.147] $GPGGA,004924.50,3714.00647343,N,13701.48836107,E,4,11,0.9,100.056,M,36.772,M,1.5,0453*40
[2021-02-23 09:49:25.256] $GPGGA,004924.60,3714.00647251,N,13701.48836340,E,4,11,0.9,100.058,M,36.772,M,1.6,0453*4D
[2021-02-23 09:49:25.334] $GPGGA,004924.70,3714.00647348,N,13701.48836488,E,4,11,0.9,100.058,M,36.772,M,1.7,0453*47
[2021-02-23 09:49:25.459] $GPGGA,004924.80,3714.00646930,N,13701.48836358,E,4,11,0.9,100.048,M,36.772,M,1.8,0453*48
[2021-02-23 09:49:25.538] $GPGGA,004924.90,3714.00646406,N,13701.48835972,E,4,11,0.9,100.058,M,36.772,M,1.9,0453*40
[2021-02-23 09:49:25.647] $GPGGA,004925.00,3714.00646539,N,13701.48836005,E,4,11,0.9,100.060,M,36.772,M,1.0,0453*4D
[2021-02-23 09:49:25.741] $GPGGA,004925.10,3714.00646632,N,13701.48836059,E,4,11,0.9,100.057,M,36.772,M,1.1,0453*48
[2021-02-23 09:49:25.850] $GPGGA,004925.20,3714.00646703,N,13701.48835449,E,4,11,0.9,100.059,M,36.772,M,1.2,0453*43
[2021-02-23 09:49:25.944] $GPGGA,004925.30,3714.00646469,N,13701.48835851,E,4,11,0.9,100.061,M,36.772,M,1.3,0453*42
[2021-02-23 09:49:26.053] $GPGGA,004925.40,3714.00646396,N,13701.48835923,E,4,11,0.9,100.057,M,36.772,M,1.4,0453*44
[2021-02-23 09:49:26.147] $GPGGA,004925.50,3714.00646393,N,13701.48835474,E,4,11,0.9,100.070,M,36.772,M,1.5,0453*4B
[2021-02-23 09:49:26.256] $GPGGA,004925.60,3714.00646734,N,13701.48835402,E,4,11,0.9,100.057,M,36.772,M,1.6,0453*46
[2021-02-23 09:49:26.334] $GPGGA,004925.70,3714.00646853,N,13701.48835288,E,4,11,0.9,100.065,M,36.772,M,1.7,0453*4D
[2021-02-23 09:49:26.444] $GPGGA,004925.80,3714.00647372,N,13701.48835305,E,4,11,0.9,100.060,M,36.772,M,1.8,0453*45
[2021-02-23 09:49:26.537] $GPGGA,004925.90,3714.00647471,N,13701.48835260,E,4,11,0.9,100.067,M,36.772,M,1.9,0453*44
[2021-02-23 09:49:26.647] $GPGGA,004926.00,3714.00647632,N,13701.48835613,E,4,11,0.9,100.047,M,36.772,M,1.0,0453*40
[2021-02-23 09:49:26.741] $GPGGA,004926.10,3714.00646477,N,13701.48835675,E,4,11,0.9,100.059,M,36.772,M,1.1,0453*4D
[2021-02-23 09:49:26.850] $GPGGA,004926.20,3714.00645460,N,13701.48836346,E,4,11,0.9,100.083,M,36.772,M,1.2,0453*49
[2021-02-23 09:49:26.944] $GPGGA,004926.30,3714.00644917,N,13701.48836886,E,4,11,0.9,100.109,M,36.772,M,1.3,0453*41
[2021-02-23 09:49:27.053] $GPGGA,004926.40,3714.00643324,N,13701.48836473,E,4,11,0.9,100.134,M,36.772,M,1.4,0453*44
[2021-02-23 09:49:27.147] $GPGGA,004926.50,3714.00642184,N,13701.48838043,E,4,11,0.9,100.131,M,36.772,M,1.5,0453*41
[2021-02-23 09:49:27.256] $GPGGA,004926.60,3714.00640577,N,13701.48839582,E,4,11,0.9,100.141,M,36.772,M,1.6,0453*45
[2021-02-23 09:49:27.334] $GPGGA,004926.70,3714.00638358,N,13701.48841215,E,4,11,0.9,100.149,M,36.772,M,1.7,0453*4F
[2021-02-23 09:49:27.444] $GPGGA,004926.80,3714.00635706,N,13701.48844481,E,4,11,0.9,100.154,M,36.772,M,1.8,0453*4F
[2021-02-23 09:49:27.537] $GPGGA,004926.90,3714.00633160,N,13701.48847820,E,4,11,0.9,100.151,M,36.772,M,1.9,0453*4E
[2021-02-23 09:49:27.647] $GPGGA,004927.00,3714.00630375,N,13701.48851371,E,4,11,0.9,100.164,M,36.772,M,1.0,0453*44
[2021-02-23 09:49:27.741] $GPGGA,004927.10,3714.00626885,N,13701.48853997,E,4,11,0.9,100.167,M,36.772,M,1.1,0453*44
[2021-02-23 09:49:27.850] $GPGGA,004927.20,3714.00623958,N,13701.48856211,E,4,11,0.9,100.173,M,36.772,M,1.2,0453*45
[2021-02-23 09:49:27.944] $GPGGA,004927.30,3714.00621006,N,13701.48857887,E,4,11,0.9,100.177,M,36.772,M,1.3,0453*45
[2021-02-23 09:49:28.053] $GPGGA,004927.40,3714.00619359,N,13701.48859309,E,4,11,0.9,100.181,M,36.772,M,1.4,0453*4D
[2021-02-23 09:49:28.147] $GPGGA,004927.50,3714.00617828,N,13701.48861139,E,4,11,0.9,100.175,M,36.772,M,1.5,0453*4F
[2021-02-23 09:49:28.256] $GPGGA,004927.60,3714.00617115,N,13701.48863205,E,4,11,0.9,100.186,M,36.772,M,1.6,0453*4A
[2021-02-23 09:49:28.350] $GPGGA,004927.70,3714.00616498,N,13701.48864955,E,4,11,0.9,100.177,M,36.772,M,1.7,0453*4C
[2021-02-23 09:49:28.444] $GPGGA,004927.80,3714.00616955,N,13701.48867208,E,4,11,0.9,100.182,M,36.772,M,1.8,0453*4A
[2021-02-23 09:49:28.537] $GPGGA,004927.90,3714.00617341,N,13701.48870100,E,4,11,0.9,100.189,M,36.772,M,1.9,0453*42
[2021-02-23 09:49:28.647] $GPGGA,004928.00,3714.00617550,N,13701.48873070,E,4,11,0.9,100.162,M,36.772,M,1.0,0453*4B
[2021-02-23 09:49:28.740] $GPGGA,004928.10,3714.00617436,N,13701.48876971,E,4,11,0.9,100.148,M,36.772,M,1.1,0453*4F
[2021-02-23 09:49:28.850] $GPGGA,004928.20,3714.00617875,N,13701.48879372,E,4,11,0.9,100.140,M,36.772,M,1.2,0453*4A
[2021-02-23 09:49:28.944] $GPGGA,004928.30,3714.00618639,N,13701.48881984,E,4,11,0.9,100.130,M,36.772,M,1.3,0453*40
[2021-02-23 09:49:29.053] $GPGGA,004928.40,3714.00618711,N,13701.48883383,E,4,11,0.9,100.143,M,36.772,M,1.4,0453*40
[2021-02-23 09:49:29.147] $GPGGA,004928.50,3714.00619247,N,13701.48885237,E,4,11,0.9,100.142,M,36.772,M,1.5,0453*4E
[2021-02-23 09:49:29.256] $GPGGA,004928.60,3714.00619323,N,13701.48886989,E,4,11,0.9,100.132,M,36.772,M,1.6,0453*47
[2021-02-23 09:49:29.350] $GPGGA,004928.70,3714.00618644,N,13701.48888179,E,4,11,0.9,100.114,M,36.772,M,1.7,0453*4F
[2021-02-23 09:49:29.443] $GPGGA,004928.80,3714.00617424,N,13701.48889126,E,4,11,0.9,100.101,M,36.772,M,1.8,0453*4B
[2021-02-23 09:49:29.537] $GPGGA,004928.90,3714.00615426,N,13701.48890481,E,4,11,0.9,100.105,M,36.772,M,1.9,0453*4F
[2021-02-23 09:49:29.647] $GPGGA,004929.00,3714.00613653,N,13701.48891283,E,4,11,0.9,100.130,M,36.772,M,1.0,0453*4B
[2021-02-23 09:49:29.740] $GPGGA,004929.10,3714.00612773,N,13701.48891214,E,4,11,0.9,100.118,M,36.772,M,1.1,0453*4D
[2021-02-23 09:49:29.850] $GPGGA,004929.20,3714.00612725,N,13701.48888711,E,4,11,0.9,100.129,M,36.772,M,1.2,0453*44
[2021-02-23 09:49:29.944] $GPGGA,004929.30,3714.00613676,N,13701.48887910,E,4,11,0.9,100.155,M,36.772,M,1.3,0453*49
[2021-02-23 09:49:30.053] $GPGGA,004929.40,3714.00614142,N,13701.48887674,E,4,11,0.9,100.154,M,36.772,M,1.4,0453*42
[2021-02-23 09:49:30.147] $GPGGA,004929.50,3714.00615044,N,13701.48888278,E,4,11,0.9,100.149,M,36.772,M,1.5,0453*4F
[2021-02-23 09:49:30.256] $GPGGA,004929.60,3714.00615596,N,13701.48890336,E,4,11,0.9,100.144,M,36.772,M,1.6,0453*4A
[2021-02-23 09:49:30.350] $GPGGA,004929.70,3714.00615894,N,13701.48893127,E,4,11,0.9,100.131,M,36.772,M,1.7,0453*46
[2021-02-23 09:49:30.443] $GPGGA,004929.80,3714.00615517,N,13701.48895842,E,4,11,0.9,100.152,M,36.772,M,1.8,0453*49
[2021-02-23 09:49:30.537] $GPGGA,004929.90,3714.00614677,N,13701.48897433,E,4,11,0.9,100.168,M,36.772,M,1.9,0453*4C
[2021-02-23 09:49:30.647] $GPGGA,004930.00,3714.00613853,N,13701.48898366,E,4,11,0.9,100.147,M,36.772,M,1.0,0453*4E
[2021-02-23 09:49:30.740] $GPGGA,004930.10,3714.00612358,N,13701.48898862,E,4,11,0.9,100.145,M,36.772,M,1.1,0453*42
[2021-02-23 09:49:30.850] $GPGGA,004930.20,3714.00610241,N,13701.48899983,E,4,11,0.9,100.140,M,36.772,M,1.2,0453*43
[2021-02-23 09:49:30.943] $GPGGA,004930.30,3714.00608044,N,13701.48901647,E,4,11,0.9,100.138,M,36.772,M,1.3,0453*45
[2021-02-23 09:49:31.053] $GPGGA,004930.40,3714.00605948,N,13701.48903039,E,4,11,0.9,100.144,M,36.772,M,1.4,0453*4B
[2021-02-23 09:49:31.147] $GPGGA,004930.50,3714.00603334,N,13701.48904291,E,4,11,0.9,100.140,M,36.772,M,1.5,0453*4F
[2021-02-23 09:49:31.256] $GPGGA,004930.60,3714.00602112,N,13701.48904538,E,4,11,0.9,100.153,M,36.772,M,1.6,0453*4E
[2021-02-23 09:49:31.334] $GPGGA,004930.70,3714.00601433,N,13701.48904624,E,4,11,0.9,100.147,M,36.772,M,1.7,0453*40
[2021-02-23 09:49:31.443] $GPGGA,004930.80,3714.00601030,N,13701.48904990,E,4,11,0.9,100.145,M,36.772,M,1.8,0453*45
[2021-02-23 09:49:31.537] $GPGGA,004930.90,3714.00600794,N,13701.48904694,E,4,11,0.9,100.148,M,36.772,M,1.9,0453*4B
[2021-02-23 09:49:31.646] $GPGGA,004931.00,3714.00600769,N,13701.48904820,E,4,11,0.9,100.148,M,36.772,M,1.0,0453*49
[2021-02-23 09:49:31.740] $GPGGA,004931.10,3714.00601008,N,13701.48905442,E,4,11,0.9,100.154,M,36.772,M,1.1,0453*4C
[2021-02-23 09:49:31.850] $GPGGA,004931.20,3714.00600982,N,13701.48906156,E,4,11,0.9,100.152,M,36.772,M,1.2,0453*43
[2021-02-23 09:49:31.943] $GPGGA,004931.30,3714.00601336,N,13701.48907777,E,4,11,0.9,100.152,M,36.772,M,1.3,0453*43
[2021-02-23 09:49:32.053] $GPGGA,004931.40,3714.00601895,N,13701.48909297,E,4,11,0.9,100.154,M,36.772,M,1.4,0453*42
[2021-02-23 09:49:32.146] $GPGGA,004931.50,3714.00601472,N,13701.48912128,E,4,11,0.9,100.152,M,36.772,M,1.5,0453*4C
[2021-02-23 09:49:32.256] $GPGGA,004931.60,3714.00600050,N,13701.48914145,E,4,11,0.9,100.150,M,36.772,M,1.6,0453*46
[2021-02-23 09:49:32.334] $GPGGA,004931.70,3714.00598569,N,13701.48916893,E,4,11,0.9,100.138,M,36.772,M,1.7,0453*45
[2021-02-23 09:49:32.443] $GPGGA,004931.80,3714.00597371,N,13701.48919498,E,4,11,0.9,100.144,M,36.772,M,1.8,0453*46
[2021-02-23 09:49:32.537] $GPGGA,004931.90,3714.00596969,N,13701.48923011,E,4,11,0.9,100.149,M,36.772,M,1.9,0453*45
[2021-02-23 09:49:32.631] $GPGGA,004932.00,3714.00596612,N,13701.48926743,E,4,11,0.9,100.148,M,36.772,M,1.0,0453*41
[2021-02-23 09:49:32.725] $GPGGA,004932.10,3714.00596748,N,13701.48930921,E,4,11,0.9,100.123,M,36.772,M,1.1,0453*4F
[2021-02-23 09:49:32.850] $GPGGA,004932.20,3714.00596663,N,13701.48935135,E,4,11,0.9,100.115,M,36.772,M,1.2,0453*4A
[2021-02-23 09:49:32.943] $GPGGA,004932.30,3714.00596722,N,13701.48938368,E,4,11,0.9,100.124,M,36.772,M,1.3,0453*4B
[2021-02-23 09:49:33.053] $GPGGA,004932.40,3714.00596856,N,13701.48940756,E,4,11,0.9,100.143,M,36.772,M,1.4,0453*40
[2021-02-23 09:49:33.146] $GPGGA,004932.50,3714.00596811,N,13701.48943126,E,4,11,0.9,100.146,M,36.772,M,1.5,0453*44
[2021-02-23 09:49:33.256] $GPGGA,004932.60,3714.00596743,N,13701.48945293,E,4,11,0.9,100.138,M,36.772,M,1.6,0453*4E
[2021-02-23 09:49:33.334] $GPGGA,004932.70,3714.00596301,N,13701.48949107,E,4,11,0.9,100.135,M,36.772,M,1.7,0453*43
[2021-02-23 09:49:33.443] $GPGGA,004932.80,3714.00595336,N,13701.48952535,E,4,11,0.9,100.118,M,36.772,M,1.8,0453*44
[2021-02-23 09:49:33.537] $GPGGA,004932.90,3714.00593797,N,13701.48956413,E,4,11,0.9,100.122,M,36.772,M,0.9,0453*44
[2021-02-23 09:49:33.646] $GPGGA,004933.00,3714.00592775,N,13701.48960590,E,4,11,0.9,100.131,M,36.772,M,1.0,0453*44
[2021-02-23 09:49:33.740] $GPGGA,004933.10,3714.00591194,N,13701.48965351,E,4,11,0.9,100.145,M,36.772,M,1.1,0453*43
[2021-02-23 09:49:33.849] $GPGGA,004933.20,3714.00591572,N,13701.48967028,E,4,11,0.9,100.181,M,36.772,M,1.2,0453*48
[2021-02-23 09:49:33.943] $GPGGA,004933.30,3714.00590666,N,13701.48969381,E,4,11,0.9,100.179,M,36.772,M,1.3,0453*46
[2021-02-23 09:49:34.053] $GPGGA,004933.40,3714.00590706,N,13701.48972000,E,4,11,0.9,100.171,M,36.772,M,1.4,0453*49
[2021-02-23 09:49:34.146] $GPGGA,004933.50,3714.00590699,N,13701.48975030,E,4,11,0.9,100.164,M,36.772,M,1.5,0453*4E
[2021-02-23 09:49:34.256] $GPGGA,004933.60,3714.00590735,N,13701.48977799,E,4,11,0.9,100.154,M,36.772,M,1.6,0453*4C
[2021-02-23 09:49:34.334] $GPGGA,004933.70,3714.00590074,N,13701.48980670,E,4,11,0.9,100.148,M,36.772,M,1.7,0453*4D
[2021-02-23 09:49:34.443] $GPGGA,004933.80,3714.00589862,N,13701.48981462,E,4,11,0.9,100.145,M,36.772,M,1.8,0453*47
[2021-02-23 09:49:34.537] $GPGGA,004933.90,3714.00589299,N,13701.48981363,E,4,11,0.9,100.155,M,36.772,M,1.9,0453*4E
[2021-02-23 09:49:34.646] $GPGGA,004934.00,3714.00587582,N,13701.48980555,E,4,11,0.9,100.150,M,36.772,M,1.0,0453*4D
[2021-02-23 09:49:34.740] $GPGGA,004934.10,3714.00586210,N,13701.48979268,E,4,11,0.9,100.150,M,36.772,M,1.1,0453*4F
[2021-02-23 09:49:34.849] $GPGGA,004934.20,3714.00584217,N,13701.48978841,E,4,11,0.9,100.153,M,36.772,M,1.2,0453*49
[2021-02-23 09:49:34.943] $GPGGA,004934.30,3714.00582665,N,13701.48978745,E,4,11,0.9,100.158,M,36.772,M,1.3,0453*4E
[2021-02-23 09:49:35.053] $GPGGA,004934.40,3714.00581541,N,13701.48979290,E,4,11,0.9,100.157,M,36.772,M,1.4,0453*4B
[2021-02-23 09:49:35.146] $GPGGA,004934.50,3714.00580887,N,13701.48979502,E,4,11,0.9,100.163,M,36.772,M,1.5,0453*46
[2021-02-23 09:49:35.256] $GPGGA,004934.60,3714.00580526,N,13701.48980019,E,4,11,0.9,100.168,M,36.772,M,1.6,0453*42
[2021-02-23 09:49:35.334] $GPGGA,004934.70,3714.00580405,N,13701.48981007,E,4,11,0.9,100.174,M,36.772,M,1.7,0453*41
[2021-02-23 09:49:35.443] $GPGGA,004934.80,3714.00580003,N,13701.48981765,E,4,11,0.9,100.176,M,36.772,M,1.8,0453*42
[2021-02-23 09:49:35.537] $GPGGA,004934.90,3714.00579177,N,13701.48982794,E,4,11,0.9,100.175,M,36.772,M,1.9,0453*48
[2021-02-23 09:49:35.646] $GPGGA,004935.00,3714.00578797,N,13701.48982199,E,4,11,0.9,100.189,M,36.772,M,1.0,0453*48
[2021-02-23 09:49:35.740] $GPGGA,004935.10,3714.00578069,N,13701.48982211,E,4,11,0.9,100.179,M,36.772,M,1.1,0453*42
[2021-02-23 09:49:35.849] $GPGGA,004935.20,3714.00577452,N,13701.48982117,E,4,11,0.9,100.178,M,36.772,M,1.2,0453*45
[2021-02-23 09:49:35.943] $GPGGA,004935.30,3714.00576933,N,13701.48982199,E,4,11,0.9,100.171,M,36.772,M,1.3,0453*41
[2021-02-23 09:49:36.052] $GPGGA,004935.40,3714.00576474,N,13701.48981814,E,4,11,0.9,100.178,M,36.772,M,1.4,0453*49
[2021-02-23 09:49:36.146] $GPGGA,004935.50,3714.00576253,N,13701.48982076,E,4,11,0.9,100.170,M,36.772,M,1.5,0453*4D
[2021-02-23 09:49:36.256] $GPGGA,004935.60,3714.00575958,N,13701.48982184,E,4,11,0.9,100.174,M,36.772,M,1.6,0453*46
[2021-02-23 09:49:36.334] $GPGGA,004935.70,3714.00576353,N,13701.48981680,E,4,11,0.9,100.171,M,36.772,M,1.7,0453*41
[2021-02-23 09:49:36.443] $GPGGA,004935.80,3714.00576734,N,13701.48980894,E,4,11,0.9,100.165,M,36.772,M,1.8,0453*4B
[2021-02-23 09:49:36.537] $GPGGA,004935.90,3714.00577238,N,13701.48980083,E,4,11,0.9,100.172,M,36.772,M,1.9,0453*4B
[2021-02-23 09:49:36.646] $GPGGA,004936.00,3714.00577365,N,13701.48978993,E,4,11,0.9,100.177,M,36.772,M,1.0,0453*4B
[2021-02-23 09:49:36.740] $GPGGA,004936.10,3714.00577288,N,13701.48976901,E,4,11,0.9,100.192,M,36.772,M,1.1,0453*47
[2021-02-23 09:49:36.849] $GPGGA,004936.20,3714.00578709,N,13701.48974563,E,4,11,0.9,100.192,M,36.772,M,1.2,0453*4E
[2021-02-23 09:49:36.943] $GPGGA,004936.30,3714.00580582,N,13701.48971817,E,4,11,0.9,100.189,M,36.772,M,1.3,0453*49
[2021-02-23 09:49:37.052] $GPGGA,004936.40,3714.00582978,N,13701.48968101,E,4,11,0.9,100.157,M,36.772,M,1.4,0453*47
[2021-02-23 09:49:37.146] $GPGGA,004936.50,3714.00584579,N,13701.48962977,E,4,11,0.9,100.116,M,36.772,M,1.5,0453*4A
[2021-02-23 09:49:37.255] $GPGGA,004936.60,3714.00585080,N,13701.48957714,E,4,11,0.9,100.121,M,36.772,M,1.6,0453*41
[2021-02-23 09:49:37.334] $GPGGA,004936.70,3714.00585615,N,13701.48951177,E,4,11,0.9,100.121,M,36.772,M,1.7,0453*4E
[2021-02-23 09:49:37.443] $GPGGA,004936.80,3714.00586063,N,13701.48946964,E,4,11,0.9,100.134,M,36.772,M,1.8,0453*42
[2021-02-23 09:49:37.537] $GPGGA,004936.90,3714.00586999,N,13701.48943269,E,4,11,0.9,100.139,M,36.772,M,1.9,0453*40
[2021-02-23 09:49:37.662] $GPGGA,004937.00,3714.00588592,N,13701.48939905,E,4,11,0.9,100.150,M,36.772,M,1.0,0453*4B
[2021-02-23 09:49:37.740] $GPGGA,004937.10,3714.00589816,N,13701.48936822,E,4,11,0.9,100.141,M,36.772,M,1.1,0453*40
[2021-02-23 09:49:37.849] $GPGGA,004937.20,3714.00592420,N,13701.48933676,E,4,11,0.9,100.147,M,36.772,M,1.2,0453*4F
[2021-02-23 09:49:37.943] $GPGGA,004937.30,3714.00595211,N,13701.48931205,E,4,11,0.9,100.136,M,36.772,M,1.3,0453*48
[2021-02-23 09:49:38.052] $GPGGA,004937.40,3714.00598588,N,13701.48928207,E,4,11,0.9,100.143,M,36.772,M,1.4,0453*4A
[2021-02-23 09:49:38.146] $GPGGA,004937.50,3714.00601341,N,13701.48925474,E,4,11,0.9,100.175,M,36.772,M,1.5,0453*40
[2021-02-23 09:49:38.255] $GPGGA,004937.60,3714.00603746,N,13701.48924256,E,4,11,0.9,100.151,M,36.772,M,1.6,0453*40
[2021-02-23 09:49:38.349] $GPGGA,004937.70,3714.00605764,N,13701.48921737,E,4,11,0.9,100.165,M,36.772,M,1.7,0453*46
[2021-02-23 09:49:38.443] $GPGGA,004937.80,3714.00608265,N,13701.48918504,E,4,11,0.9,100.164,M,36.772,M,1.8,0453*46
[2021-02-23 09:49:38.537] $GPGGA,004937.90,3714.00610570,N,13701.48914660,E,4,11,0.9,100.156,M,36.772,M,1.9,0453*40
[2021-02-23 09:49:38.662] $GPGGA,004938.00,3714.00612360,N,13701.48911390,E,4,11,0.9,100.155,M,36.772,M,2.0,0453*45
[2021-02-23 09:49:38.740] $GPGGA,004938.10,3714.00614096,N,13701.48907813,E,4,11,0.9,100.162,M,36.772,M,1.1,0453*49
[2021-02-23 09:49:38.849] $GPGGA,004938.20,3714.00615365,N,13701.48904351,E,4,11,0.9,100.163,M,36.772,M,1.2,0453*48
[2021-02-23 09:49:38.943] $GPGGA,004938.30,3714.00616547,N,13701.48902059,E,4,11,0.9,100.168,M,36.772,M,1.3,0453*4B
[2021-02-23 09:49:39.052] $GPGGA,004938.40,3714.00617517,N,13701.48899753,E,4,11,0.9,100.164,M,36.772,M,1.4,0453*4D
[2021-02-23 09:49:39.146] $GPGGA,004938.50,3714.00619019,N,13701.48897634,E,4,11,0.9,100.158,M,36.772,M,1.5,0453*49
[2021-02-23 09:49:39.255] $GPGGA,004938.60,3714.00620892,N,13701.48896008,E,4,11,0.9,100.149,M,36.772,M,1.6,0453*40
[2021-02-23 09:49:39.349] $GPGGA,004938.70,3714.00622256,N,13701.48895103,E,4,11,0.9,100.143,M,36.772,M,1.7,0453*43
[2021-02-23 09:49:39.443] $GPGGA,004938.80,3714.00623655,N,13701.48894358,E,4,11,0.9,100.160,M,36.772,M,1.8,0453*49
[2021-02-23 09:49:39.537] $GPGGA,004938.90,3714.00625478,N,13701.48893155,E,4,11,0.9,100.173,M,36.772,M,1.9,0453*48
[2021-02-23 09:49:39.646] $GPGGA,004939.00,3714.00626876,N,13701.48892139,E,4,11,0.9,100.170,M,36.772,M,2.0,0453*43
[2021-02-23 09:49:39.740] $GPGGA,004939.10,3714.00628303,N,13701.48890854,E,4,11,0.9,100.172,M,36.772,M,2.1,0453*46
[2021-02-23 09:49:39.849] $GPGGA,004939.20,3714.00630165,N,13701.48890939,E,4,11,0.9,100.166,M,36.772,M,1.2,0453*41
[2021-02-23 09:49:39.943] $GPGGA,004939.30,3714.00631721,N,13701.48891555,E,4,11,0.9,100.150,M,36.772,M,1.3,0453*44
[2021-02-23 09:49:40.052] $GPGGA,004939.40,3714.00633234,N,13701.48891644,E,4,11,0.9,100.130,M,36.772,M,1.4,0453*42
[2021-02-23 09:49:40.146] $GPGGA,004939.50,3714.00634175,N,13701.48891853,E,4,11,0.9,100.148,M,36.772,M,1.5,0453*44
[2021-02-23 09:49:40.255] $GPGGA,004939.60,3714.00634784,N,13701.48892236,E,4,11,0.9,100.150,M,36.772,M,1.6,0453*4F
[2021-02-23 09:49:40.333] $GPGGA,004939.70,3714.00635026,N,13701.48892036,E,4,11,0.9,100.146,M,36.772,M,1.7,0453*44
[2021-02-23 09:49:40.443] $GPGGA,004939.80,3714.00635340,N,13701.48892254,E,4,11,0.9,100.154,M,36.772,M,1.8,0453*42
[2021-02-23 09:49:40.536] $GPGGA,004939.90,3714.00635436,N,13701.48892464,E,4,11,0.9,100.159,M,36.772,M,1.9,0453*4C
[2021-02-23 09:49:40.646] $GPGGA,004940.00,3714.00635196,N,13701.48892319,E,4,11,0.9,100.164,M,36.772,M,2.0,0453*4D
[2021-02-23 09:49:40.740] $GPGGA,004940.10,3714.00634927,N,13701.48891896,E,4,11,0.9,100.169,M,36.772,M,2.1,0453*4C
[2021-02-23 09:49:40.849] $GPGGA,004940.20,3714.00634858,N,13701.48891455,E,4,11,0.9,100.170,M,36.772,M,2.2,0453*4E
[2021-02-23 09:49:40.943] $GPGGA,004940.30,3714.00634639,N,13701.48890785,E,4,11,0.9,100.165,M,36.772,M,1.3,0453*4F
[2021-02-23 09:49:41.052] $GPGGA,004940.40,3714.00634238,N,13701.48890703,E,4,11,0.9,100.168,M,36.772,M,1.4,0453*49
[2021-02-23 09:49:41.146] $GPGGA,004940.50,3714.00634000,N,13701.48890303,E,4,11,0.9,100.162,M,36.772,M,1.5,0453*4E
[2021-02-23 09:49:41.255] $GPGGA,004940.60,3714.00633685,N,13701.48889809,E,4,11,0.9,100.164,M,36.772,M,1.6,0453*4D
[2021-02-23 09:49:41.349] $GPGGA,004940.70,3714.00633604,N,13701.48889413,E,4,11,0.9,100.157,M,36.772,M,1.7,0453*43
[2021-02-23 09:49:41.443] $GPGGA,004940.80,3714.00633637,N,13701.48888896,E,4,11,0.9,100.156,M,36.772,M,1.8,0453*42
[2021-02-23 09:49:41.536] $GPGGA,004940.90,3714.00633733,N,13701.48888343,E,4,11,0.9,100.154,M,36.772,M,1.9,0453*46
[2021-02-23 09:49:41.646] $GPGGA,004941.00,3714.00633605,N,13701.48887920,E,4,11,0.9,100.152,M,36.772,M,1.0,0453*45
[2021-02-23 09:49:41.740] $GPGGA,004941.10,3714.00633948,N,13701.48887832,E,4,11,0.9,100.153,M,36.772,M,1.1,0453*40
[2021-02-23 09:49:41.849] $GPGGA,004941.20,3714.00634088,N,13701.48887660,E,4,11,0.9,100.151,M,36.772,M,1.2,0453*49
[2021-02-23 09:49:41.943] $GPGGA,004941.30,3714.00634240,N,13701.48888241,E,4,11,0.9,100.154,M,36.772,M,1.3,0453*42
[2021-02-23 09:49:42.052] $GPGGA,004941.40,3714.00633799,N,13701.48889328,E,4,11,0.9,100.158,M,36.772,M,1.4,0453*47
[2021-02-23 09:49:42.146] $GPGGA,004941.50,3714.00633313,N,13701.48891395,E,4,11,0.9,100.157,M,36.772,M,1.5,0453*41
[2021-02-23 09:49:42.255] $GPGGA,004941.60,3714.00632167,N,13701.48893450,E,4,11,0.9,100.162,M,36.772,M,1.6,0453*4B
[2021-02-23 09:49:42.333] $GPGGA,004941.70,3714.00630639,N,13701.48895962,E,4,11,0.9,100.163,M,36.772,M,1.7,0453*4E
[2021-02-23 09:49:42.443] $GPGGA,004941.80,3714.00628878,N,13701.48898402,E,4,11,0.9,100.157,M,36.772,M,1.8,0453*4D
[2021-02-23 09:49:42.536] $GPGGA,004941.90,3714.00627024,N,13701.48901119,E,4,11,0.9,100.163,M,36.772,M,1.9,0453*4A
[2021-02-23 09:49:42.646] $GPGGA,004942.00,3714.00624781,N,13701.48904424,E,4,11,0.9,100.155,M,36.772,M,1.0,0453*49
[2021-02-23 09:49:42.724] $GPGGA,004942.10,3714.00622228,N,13701.48907273,E,4,11,0.9,100.158,M,36.772,M,1.1,0453*43
[2021-02-23 09:49:42.849] $GPGGA,004942.20,3714.00619573,N,13701.48909478,E,4,11,0.9,100.154,M,36.772,M,1.2,0453*4D
[2021-02-23 09:49:42.943] $GPGGA,004942.30,3714.00616664,N,13701.48912655,E,4,11,0.9,100.141,M,36.772,M,1.3,0453*44
[2021-02-23 09:49:43.052] $GPGGA,004942.40,3714.00613143,N,13701.48915323,E,4,11,0.9,100.139,M,36.772,M,1.4,0453*4F
[2021-02-23 09:49:43.146] $GPGGA,004942.50,3714.00609487,N,13701.48918291,E,4,11,0.9,100.134,M,36.772,M,1.5,0453*41
[2021-02-23 09:49:43.255] $GPGGA,004942.60,3714.00606342,N,13701.48921240,E,4,11,0.9,100.147,M,36.772,M,1.6,0453*42
[2021-02-23 09:49:43.333] $GPGGA,004942.70,3714.00603987,N,13701.48923172,E,4,11,0.9,100.145,M,36.772,M,1.7,0453*46
[2021-02-23 09:49:43.443] $GPGGA,004942.80,3714.00602419,N,13701.48924813,E,4,11,0.9,100.140,M,36.772,M,1.8,0453*41
[2021-02-23 09:49:43.536] $GPGGA,004942.90,3714.00601552,N,13701.48927251,E,4,11,0.9,100.141,M,36.772,M,0.9,0453*43
[2021-02-23 09:49:43.646] $GPGGA,004943.00,3714.00600783,N,13701.48930823,E,4,11,0.9,100.137,M,36.772,M,1.0,0453*44
[2021-02-23 09:49:43.739] $GPGGA,004943.10,3714.00599888,N,13701.48933917,E,4,11,0.9,100.127,M,36.772,M,1.1,0453*47
[2021-02-23 09:49:43.849] $GPGGA,004943.20,3714.00599177,N,13701.48936327,E,4,11,0.9,100.107,M,36.772,M,1.2,0453*40
[2021-02-23 09:49:43.943] $GPGGA,004943.30,3714.00598209,N,13701.48939609,E,4,11,0.9,100.111,M,36.772,M,1.3,0453*4A
[2021-02-23 09:49:44.052] $GPGGA,004943.40,3714.00597344,N,13701.48942211,E,4,11,0.9,100.121,M,36.772,M,1.4,0453*4F
[2021-02-23 09:49:44.146] $GPGGA,004943.50,3714.00597399,N,13701.48944291,E,4,11,0.9,100.116,M,36.772,M,1.5,0453*45
[2021-02-23 09:49:44.255] $GPGGA,004943.60,3714.00597184,N,13701.48946160,E,4,11,0.9,100.128,M,36.772,M,1.6,0453*49
[2021-02-23 09:49:44.349] $GPGGA,004943.70,3714.00596822,N,13701.48946682,E,4,11,0.9,100.135,M,36.772,M,1.7,0453*4A
[2021-02-23 09:49:44.442] $GPGGA,004943.80,3714.00595818,N,13701.48946469,E,4,11,0.9,100.124,M,36.772,M,1.8,0453*47
[2021-02-23 09:49:44.536] $GPGGA,004943.90,3714.00594748,N,13701.48946319,E,4,11,0.9,100.121,M,36.772,M,1.9,0453*49
[2021-02-23 09:49:44.646] $GPGGA,004944.00,3714.00593308,N,13701.48947546,E,4,11,0.9,100.124,M,36.772,M,1.0,0453*41
[2021-02-23 09:49:44.739] $GPGGA,004944.10,3714.00592194,N,13701.48948030,E,4,11,0.9,100.124,M,36.772,M,1.1,0453*4C
[2021-02-23 09:49:44.849] $GPGGA,004944.20,3714.00590651,N,13701.48948356,E,4,11,0.9,100.119,M,36.772,M,1.2,0453*4D
[2021-02-23 09:49:44.942] $GPGGA,004944.30,3714.00589123,N,13701.48948298,E,4,11,0.9,100.114,M,36.772,M,1.3,0453*49
[2021-02-23 09:49:45.052] $GPGGA,004944.40,3714.00587240,N,13701.48948598,E,4,11,0.9,100.115,M,36.772,M,1.4,0453*47
[2021-02-23 09:49:45.146] $GPGGA,004944.50,3714.00585836,N,13701.48949741,E,4,11,0.9,100.128,M,36.772,M,1.5,0453*47
[2021-02-23 09:49:45.255] $GPGGA,004944.60,3714.00584374,N,13701.48950683,E,4,11,0.9,100.131,M,36.772,M,1.6,0453*44
[2021-02-23 09:49:45.333] $GPGGA,004944.70,3714.00583589,N,13701.48951566,E,4,11,0.9,100.123,M,36.772,M,1.7,0453*4D
[2021-02-23 09:49:45.442] $GPGGA,004944.80,3714.00583821,N,13701.48953179,E,4,11,0.9,100.120,M,36.772,M,1.8,0453*49
[2021-02-23 09:49:45.536] $GPGGA,004944.90,3714.00584430,N,13701.48954774,E,4,11,0.9,100.122,M,36.772,M,1.9,0453*4C
[2021-02-23 09:49:45.645] $GPGGA,004945.00,3714.00585553,N,13701.48956084,E,4,11,0.9,100.119,M,36.772,M,1.0,0453*4A
[2021-02-23 09:49:45.739] $GPGGA,004945.10,3714.00585826,N,13701.48957259,E,4,11,0.9,100.123,M,36.772,M,1.1,0453*4F
[2021-02-23 09:49:45.849] $GPGGA,004945.20,3714.00585364,N,13701.48958743,E,4,11,0.9,100.111,M,36.772,M,1.2,0453*42
[2021-02-23 09:49:45.942] $GPGGA,004945.30,3714.00584941,N,13701.48959174,E,4,11,0.9,100.115,M,36.772,M,1.3,0453*49
[2021-02-23 09:49:46.052] $GPGGA,004945.40,3714.00584056,N,13701.48961057,E,4,11,0.9,100.090,M,36.772,M,1.4,0453*41
[2021-02-23 09:49:46.146] $GPGGA,004945.50,3714.00583244,N,13701.48961982,E,4,11,0.9,100.107,M,36.772,M,1.5,0453*49
[2021-02-23 09:49:46.255] $GPGGA,004945.60,3714.00582579,N,13701.48964091,E,4,11,0.9,100.108,M,36.772,M,1.6,0453*40
[2021-02-23 09:49:46.333] $GPGGA,004945.70,3714.00581592,N,13701.48966503,E,4,11,0.9,100.113,M,36.772,M,1.7,0453*40
[2021-02-23 09:49:46.442] $GPGGA,004945.80,3714.00579648,N,13701.48968804,E,4,11,0.9,100.123,M,36.772,M,1.8,0453*44
[2021-02-23 09:49:46.536] $GPGGA,004945.90,3714.00577407,N,13701.48971181,E,4,11,0.9,100.129,M,36.772,M,1.9,0453*45
[2021-02-23 09:49:46.645] $GPGGA,004946.00,3714.00575375,N,13701.48974133,E,4,11,0.9,100.137,M,36.772,M,1.0,0453*45
[2021-02-23 09:49:46.739] $GPGGA,004946.10,3714.00572539,N,13701.48978256,E,4,11,0.9,100.147,M,36.772,M,1.1,0453*47
[2021-02-23 09:49:46.849] $GPGGA,004946.20,3714.00570215,N,13701.48982314,E,4,11,0.9,100.148,M,36.772,M,1.2,0453*41
[2021-02-23 09:49:46.942] $GPGGA,004946.30,3714.00568607,N,13701.48986448,E,4,11,0.9,100.145,M,36.772,M,1.3,0453*48
[2021-02-23 09:49:47.052] $GPGGA,004946.40,3714.00567846,N,13701.48990573,E,4,11,0.9,100.171,M,36.772,M,1.4,0453*45
[2021-02-23 09:49:47.145] $GPGGA,004946.50,3714.00566451,N,13701.48994813,E,4,11,0.9,100.172,M,36.772,M,1.5,0453*42
[2021-02-23 09:49:47.255] $GPGGA,004946.60,3714.00565715,N,13701.48999323,E,4,11,0.9,100.164,M,36.772,M,1.6,0453*40
[2021-02-23 09:49:47.349] $GPGGA,004946.70,3714.00563840,N,13701.49006043,E,4,11,0.9,100.155,M,36.772,M,1.7,0453*40
[2021-02-23 09:49:47.442] $GPGGA,004946.80,3714.00562179,N,13701.49011753,E,4,11,0.9,100.154,M,36.772,M,1.8,0453*43
[2021-02-23 09:49:47.536] $GPGGA,004946.90,3714.00560668,N,13701.49017593,E,4,11,0.9,100.159,M,36.772,M,1.9,0453*43
[2021-02-23 09:49:47.645] $GPGGA,004947.00,3714.00559375,N,13701.49022981,E,4,12,0.8,100.171,M,36.772,M,1.0,0453*40
[2021-02-23 09:49:47.739] $GPGGA,004947.10,3714.00557696,N,13701.49027097,E,4,12,0.8,100.179,M,36.772,M,1.1,0453*45
[2021-02-23 09:49:47.849] $GPGGA,004947.20,3714.00555794,N,13701.49030885,E,4,12,0.8,100.150,M,36.772,M,1.2,0453*42
[2021-02-23 09:49:47.942] $GPGGA,004947.30,3714.00553257,N,13701.49034632,E,4,12,0.8,100.113,M,36.772,M,1.3,0453*4F
[2021-02-23 09:49:48.052] $GPGGA,004947.40,3714.00550766,N,13701.49038909,E,4,12,0.8,100.114,M,36.772,M,1.4,0453*47
[2021-02-23 09:49:48.145] $GPGGA,004947.50,3714.00547826,N,13701.49043717,E,4,12,0.8,100.117,M,36.772,M,1.5,0453*44
[2021-02-23 09:49:48.255] $GPGGA,004947.60,3714.00545926,N,13701.49046271,E,4,12,0.8,100.113,M,36.772,M,1.6,0453*43
[2021-02-23 09:49:48.348] $GPGGA,004947.70,3714.00543705,N,13701.49050449,E,4,12,0.8,100.143,M,36.772,M,1.7,0453*45
[2021-02-23 09:49:48.458] $GPGGA,004947.80,3714.00542121,N,13701.49054259,E,4,12,0.8,100.136,M,36.772,M,1.8,0453*45
[2021-02-23 09:49:48.552] $GPGGA,004947.90,3714.00540505,N,13701.49059243,E,4,12,0.8,100.111,M,36.772,M,1.9,0453*46
[2021-02-23 09:49:48.645] $GPGGA,004948.00,3714.00539144,N,13701.49065340,E,4,12,0.8,100.112,M,36.772,M,1.0,0453*48
[2021-02-23 09:49:48.739] $GPGGA,004948.10,3714.00536442,N,13701.49070556,E,4,12,0.8,100.147,M,36.772,M,1.1,0453*41
[2021-02-23 09:49:48.848] $GPGGA,004948.20,3714.00533600,N,13701.49076484,E,4,12,0.8,100.139,M,36.772,M,1.2,0453*41
[2021-02-23 09:49:48.942] $GPGGA,004948.30,3714.00530485,N,13701.49081639,E,4,12,0.8,100.127,M,36.772,M,1.3,0453*4E
[2021-02-23 09:49:49.052] $GPGGA,004948.40,3714.00527022,N,13701.49087107,E,4,12,0.8,100.135,M,36.772,M,1.4,0453*4E
[2021-02-23 09:49:49.145] $GPGGA,004948.50,3714.00523287,N,13701.49092230,E,4,12,0.8,100.111,M,36.772,M,1.5,0453*42
[2021-02-23 09:49:49.255] $GPGGA,004948.60,3714.00518590,N,13701.49097477,E,4,12,0.8,100.124,M,36.772,M,1.6,0453*4D
[2021-02-23 09:49:49.348] $GPGGA,004948.70,3714.00514357,N,13701.49102377,E,4,12,0.8,100.115,M,36.772,M,1.7,0453*44
[2021-02-23 09:49:49.442] $GPGGA,004948.80,3714.00510254,N,13701.49107826,E,4,12,0.8,100.149,M,36.772,M,1.8,0453*41
[2021-02-23 09:49:49.536] $GPGGA,004948.90,3714.00507069,N,13701.49113103,E,4,12,0.8,100.141,M,36.772,M,1.9,0453*48
[2021-02-23 09:49:49.645] $GPGGA,004949.00,3714.00503527,N,13701.49120497,E,4,11,0.9,100.125,M,36.772,M,1.0,0453*4A
[2021-02-23 09:49:49.739] $GPGGA,004949.10,3714.00500686,N,13701.49127023,E,4,11,0.9,100.113,M,36.772,M,1.1,0453*48
[2021-02-23 09:49:49.848] $GPGGA,004949.20,3714.00497198,N,13701.49133986,E,4,11,0.9,100.082,M,36.772,M,1.2,0453*45
[2021-02-23 09:49:49.942] $GPGGA,004949.30,3714.00494145,N,13701.49140196,E,4,11,0.9,100.105,M,36.772,M,1.3,0453*45
[2021-02-23 09:49:50.051] $GPGGA,004949.40,3714.00491515,N,13701.49145207,E,4,11,0.9,100.126,M,36.772,M,1.4,0453*4E
[2021-02-23 09:49:50.145] $GPGGA,004949.50,3714.00488889,N,13701.49150789,E,4,11,0.9,100.111,M,36.772,M,1.5,0453*4D
[2021-02-23 09:49:50.255] $GPGGA,004949.60,3714.00485777,N,13701.49155159,E,4,11,0.9,100.111,M,36.772,M,1.6,0453*40
[2021-02-23 09:49:50.348] $GPGGA,004949.70,3714.00482182,N,13701.49159928,E,4,11,0.9,100.095,M,36.772,M,1.7,0453*44
[2021-02-23 09:49:50.442] $GPGGA,004949.80,3714.00478697,N,13701.49164348,E,4,11,0.9,100.115,M,36.772,M,1.8,0453*49
[2021-02-23 09:49:50.536] $GPGGA,004949.90,3714.00474328,N,13701.49168743,E,4,11,0.9,100.134,M,36.772,M,1.9,0453*44
[2021-02-23 09:49:50.645] $GPGGA,004950.00,3714.00471540,N,13701.49173482,E,4,12,0.8,100.137,M,36.772,M,1.0,0453*44
[2021-02-23 09:49:50.739] $GPGGA,004950.10,3714.00468074,N,13701.49179456,E,4,12,0.8,100.148,M,36.772,M,1.1,0453*45
[2021-02-23 09:49:50.848] $GPGGA,004950.20,3714.00464943,N,13701.49185791,E,4,12,0.8,100.122,M,36.772,M,1.2,0453*43
[2021-02-23 09:49:50.942] $GPGGA,004950.30,3714.00461906,N,13701.49194230,E,4,12,0.8,100.108,M,36.772,M,1.3,0453*41
[2021-02-23 09:49:51.051] $GPGGA,004950.40,3714.00458687,N,13701.49202038,E,4,12,0.8,100.096,M,36.772,M,1.4,0453*4D
[2021-02-23 09:49:51.145] $GPGGA,004950.50,3714.00456184,N,13701.49207774,E,4,12,0.8,100.128,M,36.772,M,1.5,0453*49
[2021-02-23 09:49:51.254] $GPGGA,004950.60,3714.00453905,N,13701.49212914,E,4,12,0.8,100.125,M,36.772,M,1.6,0453*4C
[2021-02-23 09:49:51.348] $GPGGA,004950.70,3714.00451262,N,13701.49219230,E,4,12,0.8,100.130,M,36.772,M,1.7,0453*46
[2021-02-23 09:49:51.442] $GPGGA,004950.80,3714.00449176,N,13701.49223187,E,4,12,0.8,100.100,M,36.772,M,1.8,0453*4C
[2021-02-23 09:49:51.536] $GPGGA,004950.90,3714.00446700,N,13701.49226523,E,4,12,0.8,100.070,M,36.772,M,1.9,0453*4D
[2021-02-23 09:49:51.645] $GPGGA,004951.00,3714.00444706,N,13701.49230566,E,4,12,0.8,100.074,M,36.772,M,1.0,0453*4A
[2021-02-23 09:49:51.739] $GPGGA,004951.10,3714.00443633,N,13701.49233719,E,4,12,0.8,100.091,M,36.772,M,1.1,0453*48
[2021-02-23 09:49:51.848] $GPGGA,004951.20,3714.00442460,N,13701.49237510,E,4,12,0.8,100.100,M,36.772,M,1.2,0453*4B
[2021-02-23 09:49:51.942] $GPGGA,004951.30,3714.00441622,N,13701.49241664,E,4,12,0.8,100.091,M,36.772,M,1.3,0453*44
[2021-02-23 09:49:52.051] $GPGGA,004951.40,3714.00439771,N,13701.49246840,E,4,12,0.8,100.077,M,36.772,M,1.4,0453*4B
[2021-02-23 09:49:52.145] $GPGGA,004951.50,3714.00437376,N,13701.49252207,E,4,12,0.8,100.028,M,36.772,M,1.5,0453*40
[2021-02-23 09:49:52.254] $GPGGA,004951.60,3714.00434096,N,13701.49258476,E,4,12,0.8,100.061,M,36.772,M,1.6,0453*49
[2021-02-23 09:49:52.348] $GPGGA,004951.70,3714.00430688,N,13701.49266145,E,4,12,0.8,100.053,M,36.772,M,1.7,0453*4D
[2021-02-23 09:49:52.458] $GPGGA,004951.80,3714.00427576,N,13701.49272722,E,4,12,0.8,100.068,M,36.772,M,1.8,0453*43
[2021-02-23 09:49:52.551] $GPGGA,004951.90,3714.00425269,N,13701.49279795,E,4,12,0.8,100.071,M,36.772,M,1.9,0453*47
[2021-02-23 09:49:52.645] $GPGGA,004952.00,3714.00421806,N,13701.49287650,E,4,12,0.8,100.040,M,36.772,M,1.0,0453*48
[2021-02-23 09:49:52.723] $GPGGA,004952.10,3714.00417882,N,13701.49295030,E,4,12,0.8,100.008,M,36.772,M,1.1,0453*4E
[2021-02-23 09:49:52.848] $GPGGA,004952.20,3714.00415281,N,13701.49301039,E,4,12,0.8,100.016,M,36.772,M,1.2,0453*4F
[2021-02-23 09:49:52.942] $GPGGA,004952.30,3714.00413023,N,13701.49306770,E,4,12,0.8,100.030,M,36.772,M,1.3,0453*4A
[2021-02-23 09:49:53.051] $GPGGA,004952.40,3714.00411003,N,13701.49313805,E,4,12,0.8,100.043,M,36.772,M,1.4,0453*47
[2021-02-23 09:49:53.145] $GPGGA,004952.50,3714.00408827,N,13701.49321481,E,4,12,0.8,100.013,M,36.772,M,1.5,0453*45
[2021-02-23 09:49:53.254] $GPGGA,004952.60,3714.00406747,N,13701.49328870,E,4,12,0.8,99.991,M,36.772,M,1.6,0453*7B
[2021-02-23 09:49:53.348] $GPGGA,004952.70,3714.00404100,N,13701.49336993,E,4,12,0.8,99.992,M,36.772,M,1.7,0453*7C
[2021-02-23 09:49:53.442] $GPGGA,004952.80,3714.00401300,N,13701.49342611,E,4,12,0.8,100.012,M,36.772,M,1.8,0453*4D
[2021-02-23 09:49:53.536] $GPGGA,004952.90,3714.00397687,N,13701.49347584,E,4,12,0.8,100.000,M,36.772,M,0.9,0453*47
[2021-02-23 09:49:53.645] $GPGGA,004953.00,3714.00395566,N,13701.49353435,E,4,12,0.8,99.994,M,36.772,M,1.0,0453*72
[2021-02-23 09:49:53.739] $GPGGA,004953.10,3714.00392794,N,13701.49358939,E,4,12,0.8,99.980,M,36.772,M,1.1,0453*75
[2021-02-23 09:49:53.848] $GPGGA,004953.20,3714.00389693,N,13701.49364121,E,4,12,0.8,99.968,M,36.772,M,1.2,0453*71
[2021-02-23 09:49:53.942] $GPGGA,004953.30,3714.00387050,N,13701.49368304,E,4,12,0.8,99.961,M,36.772,M,1.3,0453*76
[2021-02-23 09:49:54.051] $GPGGA,004953.40,3714.00383822,N,13701.49373520,E,4,12,0.8,99.989,M,36.772,M,1.4,0453*73
[2021-02-23 09:49:54.145] $GPGGA,004953.50,3714.00381719,N,13701.49378811,E,4,12,0.8,99.993,M,36.772,M,1.5,0453*79
[2021-02-23 09:49:54.254] $GPGGA,004953.60,3714.00378937,N,13701.49385224,E,4,12,0.8,99.977,M,36.772,M,1.6,0453*79
[2021-02-23 09:49:54.348] $GPGGA,004953.70,3714.00376100,N,13701.49391423,E,4,12,0.8,99.979,M,36.772,M,1.7,0453*71
[2021-02-23 09:49:54.457] $GPGGA,004953.80,3714.00373615,N,13701.49397787,E,4,12,0.8,99.950,M,36.772,M,1.8,0453*77
[2021-02-23 09:49:54.535] $GPGGA,004953.90,3714.00370931,N,13701.49404014,E,4,12,0.8,99.938,M,36.772,M,1.9,0453*73
[2021-02-23 09:49:54.645] $GPGGA,004954.00,3714.00368044,N,13701.49411603,E,4,12,0.8,99.942,M,36.772,M,1.0,0453*7F
[2021-02-23 09:49:54.739] $GPGGA,004954.10,3714.00365384,N,13701.49416743,E,4,12,0.8,99.967,M,36.772,M,1.1,0453*78
[2021-02-23 09:49:54.848] $GPGGA,004954.20,3714.00363025,N,13701.49422369,E,4,12,0.8,99.948,M,36.772,M,1.2,0453*70
[2021-02-23 09:49:54.942] $GPGGA,004954.30,3714.00361257,N,13701.49429453,E,4,12,0.8,99.933,M,36.772,M,1.3,0453*7C
[2021-02-23 09:49:55.051] $GPGGA,004954.40,3714.00358977,N,13701.49435478,E,4,12,0.8,99.935,M,36.772,M,1.4,0453*7D
[2021-02-23 09:49:55.145] $GPGGA,004954.50,3714.00356666,N,13701.49442252,E,4,12,0.8,99.950,M,36.772,M,1.5,0453*71
[2021-02-23 09:49:55.254] $GPGGA,004954.60,3714.00355041,N,13701.49449152,E,4,12,0.8,99.943,M,36.772,M,1.6,0453*7B
[2021-02-23 09:49:55.348] $GPGGA,004954.70,3714.00353570,N,13701.49456564,E,4,12,0.8,99.938,M,36.772,M,1.7,0453*79
[2021-02-23 09:49:55.457] $GPGGA,004954.80,3714.00352448,N,13701.49465504,E,4,12,0.8,99.901,M,36.772,M,1.8,0453*7E
[2021-02-23 09:49:55.535] $GPGGA,004954.90,3714.00351366,N,13701.49475010,E,4,12,0.8,99.860,M,36.772,M,1.9,0453*71
[2021-02-23 09:49:55.645] $GPGGA,004955.00,3714.00350762,N,13701.49483966,E,4,12,0.8,99.848,M,36.772,M,1.0,0453*7A
[2021-02-23 09:49:55.739] $GPGGA,004955.10,3714.00349198,N,13701.49492964,E,4,12,0.8,99.844,M,36.772,M,1.1,0453*7F
[2021-02-23 09:49:55.848] $GPGGA,004955.20,3714.00347593,N,13701.49500867,E,4,12,0.8,99.857,M,36.772,M,1.2,0453*74
[2021-02-23 09:49:55.942] $GPGGA,004955.30,3714.00346962,N,13701.49508719,E,4,12,0.8,99.838,M,36.772,M,1.3,0453*70
[2021-02-23 09:49:56.051] $GPGGA,004955.40,3714.00346068,N,13701.49515956,E,4,12,0.8,99.807,M,36.772,M,1.4,0453*76
[2021-02-23 09:49:56.145] $GPGGA,004955.50,3714.00345453,N,13701.49522748,E,4,12,0.8,99.810,M,36.772,M,1.5,0453*7A
[2021-02-23 09:49:56.254] $GPGGA,004955.60,3714.00345065,N,13701.49530072,E,4,12,0.8,99.815,M,36.772,M,1.6,0453*73
[2021-02-23 09:49:56.348] $GPGGA,004955.70,3714.00344818,N,13701.49537991,E,4,12,0.8,99.824,M,36.772,M,1.7,0453*71
[2021-02-23 09:49:56.457] $GPGGA,004955.80,3714.00344072,N,13701.49546339,E,4,12,0.8,99.802,M,36.772,M,1.8,0453*7F
[2021-02-23 09:49:56.535] $GPGGA,004955.90,3714.00343988,N,13701.49554867,E,4,12,0.8,99.757,M,36.772,M,1.9,0453*78
[2021-02-23 09:49:56.645] $GPGGA,004956.00,3714.00343577,N,13701.49564944,E,4,12,0.8,99.739,M,36.772,M,1.0,0453*7C
[2021-02-23 09:49:56.738] $GPGGA,004956.10,3714.00342796,N,13701.49573559,E,4,12,0.8,99.760,M,36.772,M,1.1,0453*7A
[2021-02-23 09:49:56.848] $GPGGA,004956.20,3714.00341626,N,13701.49581686,E,4,12,0.8,99.772,M,36.772,M,1.2,0453*7C
[2021-02-23 09:49:56.942] $GPGGA,004956.30,3714.00340130,N,13701.49590269,E,4,12,0.8,99.747,M,36.772,M,1.3,0453*7E
[2021-02-23 09:49:57.051] $GPGGA,004956.40,3714.00338915,N,13701.49597752,E,4,12,0.8,99.732,M,36.772,M,1.4,0453*76
[2021-02-23 09:49:57.145] $GPGGA,004956.50,3714.00336933,N,13701.49605333,E,4,12,0.8,99.715,M,36.772,M,1.5,0453*72
[2021-02-23 09:49:57.254] $GPGGA,004956.60,3714.00335405,N,13701.49612747,E,4,12,0.8,99.728,M,36.772,M,1.6,0453*76
[2021-02-23 09:49:57.348] $GPGGA,004956.70,3714.00333520,N,13701.49619766,E,4,12,0.8,99.753,M,36.772,M,1.7,0453*72
[2021-02-23 09:49:57.457] $GPGGA,004956.80,3714.00332104,N,13701.49627178,E,4,12,0.8,99.715,M,36.772,M,1.8,0453*77
[2021-02-23 09:49:57.535] $GPGGA,004956.90,3714.00331298,N,13701.49635342,E,4,12,0.8,99.717,M,36.772,M,1.9,0453*78
[2021-02-23 09:49:57.645] $GPGGA,004957.00,3714.00329473,N,13701.49642879,E,4,12,0.8,99.676,M,36.772,M,1.0,0453*76
[2021-02-23 09:49:57.738] $GPGGA,004957.10,3714.00327854,N,13701.49649333,E,4,12,0.8,99.671,M,36.772,M,1.1,0453*78
[2021-02-23 09:49:57.848] $GPGGA,004957.20,3714.00325405,N,13701.49655299,E,4,12,0.8,99.688,M,36.772,M,1.2,0453*78
[2021-02-23 09:49:57.942] $GPGGA,004957.30,3714.00323868,N,13701.49660461,E,4,12,0.8,99.681,M,36.772,M,1.3,0453*77
[2021-02-23 09:49:58.051] $GPGGA,004957.40,3714.00321624,N,13701.49665738,E,4,12,0.8,99.662,M,36.772,M,1.4,0453*74
[2021-02-23 09:49:58.145] $GPGGA,004957.50,3714.00319073,N,13701.49670956,E,4,12,0.8,99.645,M,36.772,M,1.5,0453*7C
[2021-02-23 09:49:58.254] $GPGGA,004957.60,3714.00316353,N,13701.49675261,E,4,12,0.8,99.647,M,36.772,M,1.6,0453*7A
[2021-02-23 09:49:58.348] $GPGGA,004957.70,3714.00313405,N,13701.49680032,E,4,12,0.8,99.657,M,36.772,M,1.7,0453*74
[2021-02-23 09:49:58.457] $GPGGA,004957.80,3714.00311141,N,13701.49685038,E,4,12,0.8,99.668,M,36.772,M,1.8,0453*70
[2021-02-23 09:49:58.535] $GPGGA,004957.90,3714.00309784,N,13701.49690815,E,4,12,0.8,99.644,M,36.772,M,1.9,0453*7B
[2021-02-23 09:49:58.645] $GPGGA,004958.00,3714.00308409,N,13701.49696406,E,4,12,0.8,99.602,M,36.772,M,1.0,0453*79
[2021-02-23 09:49:58.738] $GPGGA,004958.10,3714.00306768,N,13701.49703611,E,4,12,0.8,99.580,M,36.772,M,1.1,0453*73
[2021-02-23 09:49:58.848] $GPGGA,004958.20,3714.00304544,N,13701.49710314,E,4,12,0.8,99.587,M,36.772,M,1.2,0453*78
[2021-02-23 09:49:58.941] $GPGGA,004958.30,3714.00301827,N,13701.49716775,E,4,12,0.8,99.590,M,36.772,M,1.3,0453*76
[2021-02-23 09:49:59.051] $GPGGA,004958.40,3714.00299421,N,13701.49721423,E,4,12,0.8,99.599,M,36.772,M,1.4,0453*71
[2021-02-23 09:49:59.145] $GPGGA,004958.50,3714.00297020,N,13701.49725599,E,4,12,0.8,99.590,M,36.772,M,1.5,0453*77
[2021-02-23 09:49:59.254] $GPGGA,004958.60,3714.00294261,N,13701.49729323,E,4,12,0.8,99.562,M,36.772,M,1.6,0453*75
[2021-02-23 09:49:59.348] $GPGGA,004958.70,3714.00291131,N,13701.49734228,E,4,12,0.8,99.578,M,36.772,M,1.7,0453*7B
[2021-02-23 09:49:59.457] $GPGGA,004958.80,3714.00288429,N,13701.49737814,E,4,12,0.8,99.600,M,36.772,M,1.8,0453*75
[2021-02-23 09:49:59.535] $GPGGA,004958.90,3714.00286230,N,13701.49743032,E,4,12,0.8,99.588,M,36.772,M,1.9,0453*79
[2021-02-23 09:49:59.645] $GPGGA,004959.00,3714.00284575,N,13701.49748246,E,4,12,0.8,99.588,M,36.772,M,1.0,0453*76
[2021-02-23 09:49:59.738] $GPGGA,004959.10,3714.00282727,N,13701.49754677,E,4,12,0.8,99.549,M,36.772,M,1.1,0453*73
[2021-02-23 09:49:59.848] $GPGGA,004959.20,3714.00280650,N,13701.49761387,E,4,12,0.8,99.538,M,36.772,M,1.2,0453*7A
[2021-02-23 09:49:59.941] $GPGGA,004959.30,3714.00278175,N,13701.49767244,E,4,12,0.8,99.552,M,36.772,M,1.3,0453*79
[2021-02-23 09:50:00.051] $GPGGA,004959.40,3714.00275461,N,13701.49773107,E,4,12,0.8,99.556,M,36.772,M,1.4,0453*71
[2021-02-23 09:50:00.145] $GPGGA,004959.50,3714.00273336,N,13701.49777401,E,4,12,0.8,99.546,M,36.772,M,1.5,0453*74
[2021-02-23 09:50:00.254] $GPGGA,004959.60,3714.00270380,N,13701.49782345,E,4,12,0.8,99.534,M,36.772,M,1.6,0453*72
[2021-02-23 09:50:00.348] $GPGGA,004959.70,3714.00266997,N,13701.49787384,E,4,12,0.8,99.524,M,36.772,M,1.7,0453*70
[2021-02-23 09:50:00.457] $GPGGA,004959.80,3714.00263762,N,13701.49792078,E,4,12,0.8,99.526,M,36.772,M,1.8,0453*77
[2021-02-23 09:50:00.535] $GPGGA,004959.90,3714.00261953,N,13701.49796858,E,4,12,0.8,99.544,M,36.772,M,1.9,0453*73
[2021-02-23 09:50:00.660] $GPGGA,005000.00,3714.00260315,N,13701.49801935,E,4,12,0.8,99.531,M,36.772,M,1.0,0453*77
[2021-02-23 09:50:00.738] $GPGGA,005000.10,3714.00257667,N,13701.49806683,E,4,12,0.8,99.516,M,36.772,M,1.1,0453*73
[2021-02-23 09:50:00.848] $GPGGA,005000.20,3714.00254949,N,13701.49812493,E,4,12,0.8,99.486,M,36.772,M,1.2,0453*7D
[2021-02-23 09:50:00.941] $GPGGA,005000.30,3714.00251638,N,13701.49818065,E,4,12,0.8,99.463,M,36.772,M,1.3,0453*7D
[2021-02-23 09:50:01.051] $GPGGA,005000.40,3714.00247927,N,13701.49822635,E,4,12,0.8,99.489,M,36.772,M,1.4,0453*75
[2021-02-23 09:50:01.144] $GPGGA,005000.50,3714.00244361,N,13701.49826661,E,4,12,0.8,99.509,M,36.772,M,1.5,0453*72
[2021-02-23 09:50:01.254] $GPGGA,005000.60,3714.00241454,N,13701.49829787,E,4,12,0.8,99.466,M,36.772,M,1.6,0453*78
[2021-02-23 09:50:01.348] $GPGGA,005000.70,3714.00237947,N,13701.49831161,E,4,12,0.8,99.466,M,36.772,M,1.7,0453*71
[2021-02-23 09:50:01.457] $GPGGA,005000.80,3714.00234958,N,13701.49834549,E,4,12,0.8,99.449,M,36.772,M,1.8,0453*7A
[2021-02-23 09:50:01.535] $GPGGA,005000.90,3714.00232097,N,13701.49837489,E,4,12,0.8,99.482,M,36.772,M,1.9,0453*7F
[2021-02-23 09:50:01.644] $GPGGA,005001.00,3714.00231054,N,13701.49841704,E,4,12,0.8,99.453,M,36.772,M,1.0,0453*79
[2021-02-23 09:50:01.738] $GPGGA,005001.10,3714.00230332,N,13701.49847121,E,4,12,0.8,99.440,M,36.772,M,1.1,0453*7E
[2021-02-23 09:50:01.847] $GPGGA,005001.20,3714.00228454,N,13701.49852685,E,4,12,0.8,99.426,M,36.772,M,1.2,0453*7D
[2021-02-23 09:50:01.941] $GPGGA,005001.30,3714.00227240,N,13701.49858158,E,4,12,0.8,99.416,M,36.772,M,1.3,0453*7F
[2021-02-23 09:50:02.051] $GPGGA,005001.40,3714.00225161,N,13701.49863745,E,4,12,0.8,99.419,M,36.772,M,1.4,0453*70
[2021-02-23 09:50:02.144] $GPGGA,005001.50,3714.00223980,N,13701.49869346,E,4,12,0.8,99.429,M,36.772,M,1.5,0453*7F
[2021-02-23 09:50:02.254] $GPGGA,005001.60,3714.00223164,N,13701.49874182,E,4,12,0.8,99.435,M,36.772,M,1.6,0453*76
[2021-02-23 09:50:02.347] $GPGGA,005001.70,3714.00222139,N,13701.49878575,E,4,12,0.8,99.409,M,36.772,M,1.7,0453*70
[2021-02-23 09:50:02.441] $GPGGA,005001.80,3714.00220175,N,13701.49883210,E,4,12,0.8,99.410,M,36.772,M,1.8,0453*72
[2021-02-23 09:50:02.535] $GPGGA,005001.90,3714.00218233,N,13701.49888132,E,4,12,0.8,99.401,M,36.772,M,1.9,0453*70
[2021-02-23 09:50:02.644] $GPGGA,005002.00,3714.00216787,N,13701.49892955,E,4,12,0.8,99.416,M,36.772,M,1.0,0453*73
[2021-02-23 09:50:02.722] $GPGGA,005002.10,3714.00215483,N,13701.49898039,E,4,12,0.8,99.394,M,36.772,M,1.1,0453*73
[2021-02-23 09:50:02.847] $GPGGA,005002.20,3714.00214421,N,13701.49902964,E,4,12,0.8,99.394,M,36.772,M,1.2,0453*79
[2021-02-23 09:50:02.941] $GPGGA,005002.30,3714.00213286,N,13701.49909316,E,4,12,0.8,99.360,M,36.772,M,1.3,0453*7A
[2021-02-23 09:50:03.051] $GPGGA,005002.40,3714.00212158,N,13701.49914375,E,4,12,0.8,99.339,M,36.772,M,1.4,0453*7E
[2021-02-23 09:50:03.144] $GPGGA,005002.50,3714.00210145,N,13701.49919941,E,4,12,0.8,99.344,M,36.772,M,1.5,0453*7A
[2021-02-23 09:50:03.254] $GPGGA,005002.60,3714.00208570,N,13701.49926135,E,4,12,0.8,99.322,M,36.772,M,1.6,0453*76
[2021-02-23 09:50:03.347] $GPGGA,005002.70,3714.00207114,N,13701.49930719,E,4,12,0.8,99.332,M,36.772,M,1.7,0453*71
[2021-02-23 09:50:03.457] $GPGGA,005002.80,3714.00205434,N,13701.49935110,E,4,12,0.8,99.311,M,36.772,M,1.8,0453*7F
[2021-02-23 09:50:03.535] $GPGGA,005002.90,3714.00203634,N,13701.49938417,E,4,12,0.8,99.275,M,36.772,M,1.9,0453*77
[2021-02-23 09:50:03.660] $GPGGA,005003.00,3714.00201189,N,13701.49941825,E,4,12,0.8,99.250,M,36.772,M,2.0,0453*72
[2021-02-23 09:50:03.738] $GPGGA,005003.10,3714.00198422,N,13701.49945924,E,4,12,0.8,99.235,M,36.772,M,1.1,0453*71
[2021-02-23 09:50:03.847] $GPGGA,005003.20,3714.00196362,N,13701.49949839,E,4,12,0.8,99.247,M,36.772,M,1.2,0453*78
[2021-02-23 09:50:03.941] $GPGGA,005003.30,3714.00195928,N,13701.49954145,E,4,12,0.8,99.244,M,36.772,M,1.3,0453*72
[2021-02-23 09:50:04.050] $GPGGA,005003.40,3714.00195274,N,13701.49959005,E,4,12,0.8,99.188,M,36.772,M,1.4,0453*7B
[2021-02-23 09:50:04.144] $GPGGA,005003.50,3714.00194706,N,13701.49963824,E,4,12,0.8,99.131,M,36.772,M,1.5,0453*7A
[2021-02-23 09:50:04.254] $GPGGA,005003.60,3714.00193521,N,13701.49967980,E,4,12,0.8,99.113,M,36.772,M,1.6,0453*71
[2021-02-23 09:50:04.347] $GPGGA,005003.70,3714.00193220,N,13701.49972212,E,4,12,0.8,99.102,M,36.772,M,1.7,0453*73
[2021-02-23 09:50:04.457] $GPGGA,005003.80,3714.00192884,N,13701.49975692,E,4,12,0.8,99.117,M,36.772,M,1.8,0453*79
[2021-02-23 09:50:04.535] $GPGGA,005003.90,3714.00192421,N,13701.49979186,E,4,12,0.8,99.103,M,36.772,M,1.9,0453*71
[2021-02-23 09:50:04.660] $GPGGA,005004.00,3714.00191855,N,13701.49983646,E,4,12,0.8,99.095,M,36.772,M,2.0,0453*79
[2021-02-23 09:50:04.738] $GPGGA,005004.10,3714.00191151,N,13701.49987361,E,4,12,0.8,99.073,M,36.772,M,1.1,0453*7B
[2021-02-23 09:50:04.847] $GPGGA,005004.20,3714.00189694,N,13701.49990734,E,4,12,0.8,99.016,M,36.772,M,1.2,0453*7D
[2021-02-23 09:50:04.941] $GPGGA,005004.30,3714.00188585,N,13701.49994650,E,4,12,0.8,99.008,M,36.772,M,1.3,0453*77
[2021-02-23 09:50:05.050] $GPGGA,005004.40,3714.00187890,N,13701.49998285,E,4,12,0.8,99.003,M,36.772,M,1.4,0453*7A
[2021-02-23 09:50:05.144] $GPGGA,005004.50,3714.00187580,N,13701.50002435,E,4,12,0.8,99.002,M,36.772,M,1.5,0453*78
[2021-02-23 09:50:05.254] $GPGGA,005004.60,3714.00188247,N,13701.50005887,E,4,12,0.8,98.966,M,36.772,M,1.6,0453*73
[2021-02-23 09:50:05.347] $GPGGA,005004.70,3714.00189140,N,13701.50009580,E,4,12,0.8,98.965,M,36.772,M,1.7,0453*73
[2021-02-23 09:50:05.457] $GPGGA,005004.80,3714.00189945,N,13701.50013034,E,4,12,0.8,98.913,M,36.772,M,1.8,0453*7E
[2021-02-23 09:50:05.535] $GPGGA,005004.90,3714.00190431,N,13701.50016648,E,4,12,0.8,98.918,M,36.772,M,1.9,0453*7B
