
[2021-02-23 10:01:47.232] $GPGGA,010136.80,3714.00184791,N,13701.48597820,E,2,12,0.9,99.409,M,36.772,M,19.8,0469*4D
[2021-02-23 10:01:47.264] $GPGGA,010136.90,3714.00184803,N,13701.48597822,E,2,12,0.9,99.407,M,36.772,M,19.8,0469*44
[2021-02-23 10:01:47.264] $GPGGA,010137.00,3714.00184914,N,13701.48597827,E,2,12,0.9,99.405,M,36.772,M,20.0,0469*4E
[2021-02-23 10:01:47.264] $GPGGA,010137.10,3714.00184920,N,13701.48597759,E,2,12,0.9,99.403,M,36.772,M,20.0,0469*48
[2021-02-23 10:01:47.264] $GPGGA,010137.20,3714.00184922,N,13701.48597901,E,2,12,0.9,99.405,M,36.772,M,20.2,0469*4E
[2021-02-23 10:01:47.264] $GPGGA,010137.30,3714.00184931,N,13701.48597770,E,2,12,0.9,99.405,M,36.772,M,20.2,0469*45
[2021-02-23 10:01:47.264] $GPGGA,010137.40,3714.00184843,N,13701.48597897,E,2,12,0.9,99.406,M,36.772,M,20.4,0469*45
[2021-02-23 10:01:47.264] $GPGGA,010137.50,3714.00184883,N,13701.48597880,E,2,12,0.9,99.405,M,36.772,M,20.4,0469*4D
[2021-02-23 10:01:47.264] $GPGGA,010137.60,3714.00184921,N,13701.48597877,E,2,12,0.9,99.402,M,36.772,M,20.6,0469*4A
[2021-02-23 10:01:47.264] $GPGGA,010137.70,3714.00184968,N,13701.48597947,E,2,12,0.9,99.405,M,36.772,M,20.6,0469*43
[2021-02-23 10:01:47.264] $GPGGA,010137.80,3714.00185017,N,13701.48598098,E,2,12,0.9,99.403,M,36.772,M,20.8,0469*40
[2021-02-23 10:01:47.264] $GPGGA,010137.90,3714.00185004,N,13701.48597981,E,2,12,0.9,99.401,M,36.772,M,20.8,0469*4F
[2021-02-23 10:01:47.264] $GPGGA,010138.00,3714.00184841,N,13701.48598177,E,2,12,0.9,99.406,M,36.772,M,21.0,0469*41
[2021-02-23 10:01:47.279] $GPGGA,010138.10,3714.00184887,N,13701.48598032,E,2,12,0.9,99.403,M,36.772,M,21.0,0469*4F
[2021-02-23 10:01:47.279] $GPGGA,010138.20,3714.00184995,N,13701.48598017,E,2,12,0.9,99.401,M,36.772,M,21.2,0469*49
[2021-02-23 10:01:47.279] $GPGGA,010138.30,3714.00185007,N,13701.48598100,E,2,12,0.9,99.400,M,36.772,M,21.2,0469*4D
[2021-02-23 10:01:47.279] $GPGGA,010138.40,3714.00184809,N,13701.48598292,E,2,12,0.9,99.398,M,36.772,M,21.4,0469*45
[2021-02-23 10:01:47.279] $GPGGA,010138.50,3714.00184683,N,13701.48598210,E,2,12,0.9,99.400,M,36.772,M,21.4,0469*44
[2021-02-23 10:01:47.279] $GPGGA,010138.60,3714.00184795,N,13701.48598303,E,2,12,0.9,99.397,M,36.772,M,21.6,0469*49
[2021-02-23 10:01:47.279] $GPGGA,010138.70,3714.00184858,N,13701.48598311,E,2,12,0.9,99.398,M,36.772,M,21.6,0469*4A
[2021-02-23 10:01:47.279] $GPGGA,010138.80,3714.00184815,N,13701.48598318,E,2,12,0.9,99.397,M,36.772,M,21.8,0469*44
[2021-02-23 10:01:47.279] $GPGGA,010138.90,3714.00184910,N,13701.48598361,E,2,12,0.9,99.395,M,36.772,M,21.8,0469*4D
[2021-02-23 10:01:47.279] $GPGGA,010139.00,3714.00184923,N,13701.48598467,E,2,12,0.9,99.395,M,36.772,M,22.0,0469*4F
[2021-02-23 10:01:47.279] $GPGGA,010139.10,3714.00184903,N,13701.48598573,E,2,12,0.9,99.395,M,36.772,M,22.0,0469*48
[2021-02-23 10:01:47.295] $GPGGA,010139.20,3714.00184695,N,13701.48598638,E,2,12,0.9,99.395,M,36.772,M,22.2,0469*45
[2021-02-23 10:01:47.295] $GPGGA,010139.30,3714.00184822,N,13701.48598675,E,2,12,0.9,99.391,M,36.772,M,22.2,0469*4B
[2021-02-23 10:01:47.295] $GPGGA,010139.40,3714.00184777,N,13701.48598558,E,2,12,0.9,99.390,M,36.772,M,22.4,0469*48
[2021-02-23 10:01:47.295] $GPGGA,010139.50,3714.00184854,N,13701.48598796,E,2,12,0.9,99.387,M,36.772,M,22.4,0469*41
[2021-02-23 10:01:47.295] $GPGGA,010139.60,3714.00184849,N,13701.48598812,E,2,12,0.9,99.391,M,36.772,M,22.6,0469*48
[2021-02-23 10:01:47.295] $GPGGA,010139.70,3714.00184957,N,13701.48598730,E,2,12,0.9,99.385,M,36.772,M,22.6,0469*4D
[2021-02-23 10:01:47.295] $GPGGA,010139.80,3714.00185106,N,13701.48598819,E,2,12,0.9,99.388,M,36.772,M,22.8,0469*48
[2021-02-23 10:01:47.295] $GPGGA,010139.90,3714.00185225,N,13701.48598865,E,2,12,0.9,99.388,M,36.772,M,22.8,0469*40
[2021-02-23 10:01:47.295] $GPGGA,010140.00,3714.00185262,N,13701.48599101,E,2,12,0.9,99.390,M,36.772,M,23.0,0469*4E
[2021-02-23 10:01:47.295] $GPGGA,010140.10,3714.00185224,N,13701.48599157,E,2,12,0.9,99.388,M,36.772,M,23.0,0469*47
[2021-02-23 10:01:47.295] $GPGGA,010140.20,3714.00185109,N,13701.48599375,E,2,12,0.9,99.391,M,36.772,M,23.2,0469*40
[2021-02-23 10:01:47.311] $GPGGA,010140.30,3714.00185222,N,13701.48599357,E,2,12,0.9,99.388,M,36.772,M,23.2,0469*43
[2021-02-23 10:01:47.311] $GPGGA,010140.40,3714.00185139,N,13701.48599499,E,2,12,0.9,99.391,M,36.772,M,23.4,0469*46
[2021-02-23 10:01:47.311] $GPGGA,010140.50,3714.00185136,N,13701.48599378,E,2,12,0.9,99.393,M,36.772,M,23.4,0469*42
[2021-02-23 10:01:47.311] $GPGGA,010140.60,3714.00185218,N,13701.48599441,E,2,12,0.9,99.389,M,36.772,M,23.6,0469*4A
[2021-02-23 10:01:47.311] $GPGGA,010140.70,3714.00185278,N,13701.48599500,E,2,12,0.9,99.389,M,36.772,M,23.6,0469*49
[2021-02-23 10:01:47.311] $GPGGA,010140.80,3714.00185312,N,13701.48599486,E,2,12,0.9,99.387,M,36.772,M,23.8,0469*44
[2021-02-23 10:01:47.311] $GPGGA,010140.90,3714.00185332,N,13701.48599508,E,2,12,0.9,99.387,M,36.772,M,23.8,0469*40
[2021-02-23 10:01:47.311] $GPGGA,010141.00,3714.00185466,N,13701.48599456,E,2,12,0.9,99.384,M,36.772,M,24.0,0469*48
[2021-02-23 10:01:47.311] $GPGGA,010141.10,3714.00185422,N,13701.48599462,E,2,12,0.9,99.391,M,36.772,M,24.0,0469*4A
[2021-02-23 10:01:47.311] $GPGGA,010141.20,3714.00185375,N,13701.48599606,E,2,12,0.9,99.391,M,36.772,M,24.2,0469*4E
[2021-02-23 10:01:47.311] $GPGGA,010141.30,3714.00185476,N,13701.48599689,E,2,12,0.9,99.389,M,36.772,M,24.2,0469*45
[2021-02-23 10:01:47.326] $GPGGA,010141.40,3714.00185314,N,13701.48599691,E,2,12,0.9,99.393,M,36.772,M,24.4,0469*45
[2021-02-23 10:01:47.326] $GPGGA,010141.50,3714.00185431,N,13701.48599837,E,2,12,0.9,99.390,M,36.772,M,24.4,0469*45
[2021-02-23 10:01:47.326] $GPGGA,010141.60,3714.00185384,N,13701.48599896,E,2,12,0.9,99.390,M,36.772,M,24.6,0469*46
[2021-02-23 10:01:47.326] $GPGGA,010141.70,3714.00185393,N,13701.48599744,E,2,12,0.9,99.389,M,36.772,M,24.6,0469*49
[2021-02-23 10:01:47.326] $GPGGA,010141.80,3714.00185356,N,13701.48599761,E,2,12,0.9,99.389,M,36.772,M,24.8,0469*46
[2021-02-23 10:01:47.326] $GPGGA,010141.90,3714.00185407,N,13701.48599650,E,2,12,0.9,99.386,M,36.772,M,24.8,0469*48
[2021-02-23 10:01:47.326] $GPGGA,010142.00,3714.00185417,N,13701.48599661,E,2,12,0.9,99.387,M,36.772,M,25.0,0469*49
[2021-02-23 10:01:47.326] $GPGGA,010142.10,3714.00185433,N,13701.48599627,E,2,12,0.9,99.385,M,36.772,M,25.0,0469*4E
[2021-02-23 10:01:47.326] $GPGGA,010142.20,3714.00185393,N,13701.48599578,E,2,12,0.9,99.388,M,36.772,M,25.2,0469*46
[2021-02-23 10:01:47.326] $GPGGA,010142.30,3714.00185355,N,13701.48599623,E,2,12,0.9,99.387,M,36.772,M,25.2,0469*4F
[2021-02-23 10:01:47.326] $GPGGA,010142.40,3714.00185289,N,13701.48599654,E,2,12,0.9,99.388,M,36.772,M,25.4,0469*41
[2021-02-23 10:01:47.357] $GPGGA,010142.50,3714.00185237,N,13701.48599764,E,2,12,0.9,99.386,M,36.772,M,25.4,0469*49
[2021-02-23 10:01:47.357] $GPGGA,010142.60,3714.00185153,N,13701.48599791,E,2,12,0.9,99.389,M,36.772,M,25.6,0469*4C
[2021-02-23 10:01:47.357] $GPGGA,010142.70,3714.00185192,N,13701.48599991,E,2,12,0.9,99.386,M,36.772,M,25.6,0469*41
[2021-02-23 10:01:47.357] $GPGGA,010142.80,3714.00185308,N,13701.48600101,E,2,12,0.9,99.384,M,36.772,M,25.8,0469*41
[2021-02-23 10:01:47.357] $GPGGA,010142.90,3714.00185341,N,13701.48600065,E,2,12,0.9,99.383,M,36.772,M,25.8,0469*49
[2021-02-23 10:01:47.357] $GPGGA,010143.00,3714.00185309,N,13701.48600169,E,2,12,0.9,99.382,M,36.772,M,26.0,0469*4A
[2021-02-23 10:01:47.357] $GPGGA,010143.10,3714.00185216,N,13701.48600214,E,2,12,0.9,99.383,M,36.772,M,26.0,0469*4C
[2021-02-23 10:01:47.357] $GPGGA,010143.20,3714.00185204,N,13701.48600366,E,2,12,0.9,99.384,M,36.772,M,26.2,0469*4D
[2021-02-23 10:01:47.357] $GPGGA,010143.30,3714.00185099,N,13701.48600359,E,2,12,0.9,99.382,M,36.772,M,26.2,0469*40
[2021-02-23 10:01:47.357] $GPGGA,010143.40,3714.00185191,N,13701.48600452,E,2,12,0.9,99.385,M,36.772,M,26.4,0469*43
[2021-02-23 10:01:47.357] $GPGGA,010143.50,3714.00185248,N,13701.48600380,E,2,12,0.9,99.385,M,36.772,M,26.4,0469*4D
[2021-02-23 10:01:47.373] $GPGGA,010143.60,3714.00185376,N,13701.48600369,E,2,12,0.9,99.386,M,36.772,M,26.6,0469*44
[2021-02-23 10:01:47.373] $GPGGA,010143.70,3714.00185462,N,13701.48600268,E,2,12,0.9,99.381,M,36.772,M,26.6,0469*40
[2021-02-23 10:01:47.373] $GPGGA,010143.80,3714.00185516,N,13701.48600238,E,2,12,0.9,99.381,M,36.772,M,26.8,0469*46
[2021-02-23 10:01:47.373] $GPGGA,010143.90,3714.00185735,N,13701.48600342,E,2,12,0.9,99.382,M,36.772,M,26.8,0469*4B
[2021-02-23 10:01:47.373] $GPGGA,010144.00,3714.00185736,N,13701.48600126,E,2,12,0.9,99.383,M,36.772,M,27.0,0469*4E
[2021-02-23 10:01:47.373] $GPGGA,010144.10,3714.00185785,N,13701.48600193,E,2,12,0.9,99.382,M,36.772,M,27.0,0469*48
[2021-02-23 10:01:47.373] $GPGGA,010144.20,3714.00185685,N,13701.48600084,E,2,12,0.9,99.384,M,36.772,M,27.2,0469*49
[2021-02-23 10:01:47.373] $GPGGA,010144.30,3714.00185742,N,13701.48600103,E,2,12,0.9,99.382,M,36.772,M,27.2,0469*4A
[2021-02-23 10:01:47.373] $GPGGA,010144.40,3714.00185629,N,13701.48600277,E,2,12,0.9,99.380,M,36.772,M,27.4,0469*45
[2021-02-23 10:01:47.373] $GPGGA,010144.50,3714.00185727,N,13701.48600195,E,2,12,0.9,99.382,M,36.772,M,27.4,0469*46
[2021-02-23 10:01:47.373] $GPGGA,010144.60,3714.00185667,N,13701.48600206,E,2,12,0.9,99.381,M,36.772,M,27.6,0469*48
[2021-02-23 10:01:47.389] $GPGGA,010144.70,3714.00185653,N,13701.48600265,E,2,12,0.9,99.379,M,36.772,M,27.6,0469*4C
[2021-02-23 10:01:47.389] $GPGGA,010144.80,3714.00185477,N,13701.48600392,E,2,12,0.9,99.381,M,36.772,M,27.8,0469*47
[2021-02-23 10:01:47.389] $GPGGA,010144.90,3714.00185578,N,13701.48600383,E,2,12,0.9,99.380,M,36.772,M,27.8,0469*49
[2021-02-23 10:01:47.389] $GPGGA,010145.00,3714.00185652,N,13701.48600483,E,2,12,0.9,99.381,M,36.772,M,28.0,0469*4B
[2021-02-23 10:01:47.389] $GPGGA,010145.10,3714.00185705,N,13701.48600550,E,2,12,0.9,99.381,M,36.772,M,28.0,0469*46
[2021-02-23 10:01:47.389] $GPGGA,010145.20,3714.00185668,N,13701.48600647,E,2,12,0.9,99.383,M,36.772,M,28.2,0469*4A
[2021-02-23 10:01:47.389] $GPGGA,010145.30,3714.00185861,N,13701.48600626,E,2,12,0.9,99.379,M,36.772,M,28.2,0469*4E
[2021-02-23 10:01:47.389] $GPGGA,010145.40,3714.00185788,N,13701.48600504,E,2,12,0.9,99.378,M,36.772,M,28.4,0469*45
[2021-02-23 10:01:47.389] $GPGGA,010145.50,3714.00185848,N,13701.48600491,E,2,12,0.9,99.378,M,36.772,M,28.4,0469*4A
[2021-02-23 10:01:47.389] $GPGGA,010145.60,3714.00185826,N,13701.48600467,E,2,12,0.9,99.379,M,36.772,M,28.6,0469*4B
[2021-02-23 10:01:47.389] $GPGGA,010145.70,3714.00185856,N,13701.48600559,E,2,12,0.9,99.379,M,36.772,M,28.6,0469*41
[2021-02-23 10:01:47.389] $GPGGA,010145.80,3714.00185895,N,13701.48600779,E,2,12,0.9,99.379,M,36.772,M,28.8,0469*4F
[2021-02-23 10:01:47.389] $GPGGA,010145.90,3714.00185943,N,13701.48600655,E,2,12,0.9,99.376,M,36.772,M,28.8,0469*44
[2021-02-23 10:01:47.389] $GPGGA,010146.00,3714.00185938,N,13701.48600900,E,2,12,0.9,99.379,M,36.772,M,29.0,0469*4B
[2021-02-23 10:01:47.389] $GPGGA,010146.10,3714.00185954,N,13701.48600891,E,2,12,0.9,99.379,M,36.772,M,29.0,0469*49
[2021-02-23 10:01:47.389] $GPGGA,010146.20,3714.00185928,N,13701.48600860,E,2,12,0.9,99.379,M,36.772
[2021-02-23 10:01:47.389] $GPGGA,010146.70,3714.00186020,N,13701.48600564,E,2,12,0.9,99.378,M,36.772,M,29.6,0469*46
[2021-02-23 10:01:47.451] $GPGGA,010146.80,3714.00185901,N,13701.48600654,E,2,12,0.9,99.386,M,36.772,M,29.8,0469*4F
[2021-02-23 10:01:47.545] $GPGGA,010146.90,3714.00186022,N,13701.48600748,E,2,12,0.9,99.380,M,36.772,M,29.8,0469*4F
[2021-02-23 10:01:47.654] $GPGGA,010147.00,3714.00185995,N,13701.48600939,E,2,12,0.9,99.385,M,36.772,M,30.0,0469*4C
[2021-02-23 10:01:47.732] $GPGGA,010147.10,3714.00186040,N,13701.48600968,E,2,12,0.9,99.383,M,36.772,M,30.0,0469*4D
[2021-02-23 10:01:47.842] $GPGGA,010147.20,3714.00185960,N,13701.48601220,E,2,12,0.9,99.386,M,36.772,M,30.2,0469*47
[2021-02-23 10:01:47.936] $GPGGA,010147.30,3714.00186133,N,13701.48601225,E,2,12,0.9,99.382,M,36.772,M,30.2,0469*4A
[2021-02-23 10:01:48.045] $GPGGA,010147.40,3714.00186207,N,13701.48601128,E,2,12,0.9,99.384,M,36.772,M,30.4,0469*47
[2021-02-23 10:01:48.139] $GPGGA,010147.50,3714.00186220,N,13701.48601008,E,2,12,0.9,99.384,M,36.772,M,30.4,0469*40
[2021-02-23 10:01:48.248] $GPGGA,010147.60,3714.00186324,N,13701.48601072,E,2,12,0.9,99.379,M,36.772,M,30.6,0469*4B
[2021-02-23 10:01:48.342] $GPGGA,010147.70,3714.00186192,N,13701.48601154,E,2,12,0.9,99.383,M,36.772,M,30.6,0469*45
[2021-02-23 10:01:48.451] $GPGGA,010147.80,3714.00186078,N,13701.48601179,E,2,12,0.9,99.382,M,36.772,M,30.8,0469*4F
[2021-02-23 10:01:48.529] $GPGGA,010147.90,3714.00186081,N,13701.48601227,E,2,12,0.9,99.381,M,36.772,M,30.8,0469*43
[2021-02-23 10:01:48.639] $GPGGA,010148.00,3714.00185937,N,13701.48601361,E,2,12,0.9,99.385,M,36.772,M,31.0,0469*4C
[2021-02-23 10:01:48.732] $GPGGA,010148.10,3714.00186032,N,13701.48601018,E,2,12,0.9,99.386,M,36.772,M,31.0,0469*4C
[2021-02-23 10:01:48.842] $GPGGA,010148.20,3714.00186061,N,13701.48601184,E,2,12,0.9,99.384,M,36.772,M,31.2,0469*4D
[2021-02-23 10:01:48.935] $GPGGA,010148.30,3714.00186241,N,13701.48601051,E,2,12,0.9,99.383,M,36.772,M,31.2,0469*42
[2021-02-23 10:01:49.045] $GPGGA,010148.40,3714.00186322,N,13701.48601043,E,2,12,0.9,99.384,M,36.772,M,31.4,0469*43
[2021-02-23 10:01:49.139] $GPGGA,010148.50,3714.00186355,N,13701.48600914,E,2,12,0.9,99.384,M,36.772,M,31.4,0469*48
[2021-02-23 10:01:49.248] $GPGGA,010148.60,3714.00186479,N,13701.48600947,E,2,12,0.9,99.385,M,36.772,M,31.6,0469*47
[2021-02-23 10:01:49.342] $GPGGA,010148.70,3714.00186486,N,13701.48600764,E,2,12,0.9,99.387,M,36.772,M,31.6,0469*4B
[2021-02-23 10:01:49.451] $GPGGA,010148.80,3714.00186602,N,13701.48600762,E,2,12,0.9,99.390,M,36.772,M,31.8,0469*44
[2021-02-23 10:01:49.529] $GPGGA,010148.90,3714.00186754,N,13701.48601048,E,2,12,0.9,99.387,M,36.772,M,31.8,0469*4F
[2021-02-23 10:01:49.639] $GPGGA,010149.00,3714.00186853,N,13701.48601245,E,2,12,0.9,99.388,M,36.772,M,32.0,0469*44
[2021-02-23 10:01:49.732] $GPGGA,010149.10,3714.00186818,N,13701.48601280,E,2,12,0.9,99.383,M,36.772,M,32.0,0469*48
[2021-02-23 10:01:49.842] $GPGGA,010149.20,3714.00186746,N,13701.48601431,E,2,12,0.9,99.384,M,36.772,M,32.2,0469*46
[2021-02-23 10:01:49.935] $GPGGA,010149.30,3714.00186758,N,13701.48601359,E,2,12,0.9,99.383,M,36.772,M,32.2,0469*46
[2021-02-23 10:01:50.045] $GPGGA,010149.40,3714.00186701,N,13701.48601368,E,2,12,0.9,99.383,M,36.772,M,32.4,0469*49
[2021-02-23 10:01:50.138] $GPGGA,010149.50,3714.00186582,N,13701.48601176,E,2,12,0.9,99.387,M,36.772,M,32.4,0469*48
[2021-02-23 10:01:50.248] $GPGGA,010149.60,3714.00186660,N,13701.48601175,E,2,12,0.9,99.385,M,36.772,M,32.6,0469*47
[2021-02-23 10:01:50.342] $GPGGA,010149.70,3714.00186613,N,13701.48601155,E,2,12,0.9,99.384,M,36.772,M,32.6,0469*41
[2021-02-23 10:01:50.451] $GPGGA,010149.80,3714.00186547,N,13701.48601467,E,2,12,0.9,99.389,M,36.772,M,32.8,0469*4B
[2021-02-23 10:01:50.529] $GPGGA,010149.90,3714.00186558,N,13701.48601231,E,2,12,0.9,99.391,M,36.772,M,32.8,0469*48
[2021-02-23 10:01:50.638] $GPGGA,010150.00,3714.00186677,N,13701.48601287,E,2,12,0.9,99.394,M,36.772,M,33.0,0469*46
[2021-02-23 10:01:50.732] $GPGGA,010150.10,3714.00186719,N,13701.48601279,E,2,12,0.9,99.392,M,36.772,M,33.0,0469*49
[2021-02-23 10:01:50.842] $GPGGA,010150.20,3714.00186943,N,13701.48600979,E,2,12,0.9,99.397,M,36.772,M,33.2,0469*46
[2021-02-23 10:01:50.935] $GPGGA,010150.30,3714.00186884,N,13701.48600946,E,2,12,0.9,99.399,M,36.772,M,33.2,0469*4F
[2021-02-23 10:01:51.045] $GPGGA,010150.40,3714.00187087,N,13701.48600937,E,2,12,0.9,99.400,M,36.772,M,33.4,0469*45
[2021-02-23 10:01:51.138] $GPGGA,010150.50,3714.00187042,N,13701.48600824,E,2,12,0.9,99.401,M,36.772,M,33.4,0469*4F
[2021-02-23 10:01:51.248] $GPGGA,010150.60,3714.00187171,N,13701.48601061,E,2,12,0.9,99.402,M,36.772,M,33.6,0469*44
[2021-02-23 10:01:51.342] $GPGGA,010150.70,3714.00187173,N,13701.48600990,E,2,12,0.9,99.402,M,36.772,M,33.6,0469*41
[2021-02-23 10:01:51.451] $GPGGA,010150.80,3714.00187138,N,13701.48600943,E,2,12,0.9,99.404,M,36.772,M,33.8,0469*47
[2021-02-23 10:01:51.529] $GPGGA,010150.90,3714.00187187,N,13701.48601152,E,2,12,0.9,99.407,M,36.772,M,33.8,0469*48
[2021-02-23 10:01:51.638] $GPGGA,010151.00,3714.00188151,N,13701.48600184,E,2,11,0.9,99.412,M,36.772,M,30.0,0469*42
[2021-02-23 10:01:51.732] $GPGGA,010151.10,3714.00188106,N,13701.48600348,E,2,11,0.9,99.415,M,36.772,M,30.0,0469*44
[2021-02-23 10:01:51.841] $GPGGA,010151.20,3714.00185262,N,13701.48601216,E,2,11,0.9,99.369,M,36.772,M,22.2,0469*4D
[2021-02-23 10:01:51.935] $GPGGA,010151.30,3714.00185286,N,13701.48601313,E,2,11,0.9,99.370,M,36.772,M,22.2,0469*4A
[2021-02-23 10:01:52.045] $GPGGA,010151.40,3714.00184036,N,13701.48602426,E,2,11,0.9,99.364,M,36.772,M,14.4,0469*41
[2021-02-23 10:01:52.138] $GPGGA,010151.50,3714.00183992,N,13701.48602608,E,2,11,0.9,99.366,M,36.772,M,14.4,0469*4C
[2021-02-23 10:01:52.248] $GPGGA,010151.60,3714.00182638,N,13701.48601572,E,2,11,0.9,99.355,M,36.772,M,9.6,0469*72
[2021-02-23 10:01:52.326] $GPGGA,010151.70,3714.00184663,N,13701.48604314,E,4,12,0.8,99.345,M,36.772,M,8.7,0469*7D
[2021-02-23 10:01:52.451] $GPGGA,010151.80,3714.00184880,N,13701.48604271,E,4,12,0.8,99.348,M,36.772,M,6.8,0469*7F
[2021-02-23 10:01:52.545] $GPGGA,010151.90,3714.00184743,N,13701.48604132,E,4,12,0.9,99.350,M,36.772,M,3.9,0469*76
[2021-02-23 10:01:52.638] $GPGGA,010152.00,3714.00184858,N,13701.48604317,E,4,12,0.9,99.353,M,36.772,M,4.0,0469*71
[2021-02-23 10:01:52.732] $GPGGA,010152.10,3714.00184529,N,13701.48604309,E,4,12,0.9,99.338,M,36.772,M,1.1,0469*7D
[2021-02-23 10:01:52.841] $GPGGA,010152.20,3714.00184367,N,13701.48604424,E,4,12,0.9,99.346,M,36.772,M,1.2,0469*70
[2021-02-23 10:01:52.935] $GPGGA,010152.30,3714.00184351,N,13701.48604191,E,4,12,0.9,99.343,M,36.772,M,1.3,0469*7B
[2021-02-23 10:01:53.045] $GPGGA,010152.40,3714.00184482,N,13701.48603846,E,4,12,0.9,99.340,M,36.772,M,1.4,0469*75
[2021-02-23 10:01:53.138] $GPGGA,010152.50,3714.00184723,N,13701.48603635,E,4,12,0.9,99.344,M,36.772,M,1.5,0469*73
[2021-02-23 10:01:53.248] $GPGGA,010152.60,3714.00184370,N,13701.48603425,E,4,12,0.9,99.338,M,36.772,M,1.6,0469*79
[2021-02-23 10:01:53.341] $GPGGA,010152.70,3714.00184736,N,13701.48603470,E,4,12,0.9,99.345,M,36.772,M,1.7,0469*75
[2021-02-23 10:01:53.451] $GPGGA,010152.80,3714.00185933,N,13701.48604018,E,4,12,0.9,99.341,M,36.772,M,1.8,0469*76
[2021-02-23 10:01:53.545] $GPGGA,010152.90,3714.00185609,N,13701.48602881,E,4,12,0.9,99.343,M,36.772,M,1.9,0469*7C
[2021-02-23 10:01:53.654] $GPGGA,010153.00,3714.00185813,N,13701.48602535,E,4,12,0.9,99.348,M,36.772,M,1.0,0469*71
[2021-02-23 10:01:53.748] $GPGGA,010153.10,3714.00186042,N,13701.48602363,E,4,12,0.9,99.342,M,36.772,M,1.1,0469*71
[2021-02-23 10:01:53.841] $GPGGA,010153.20,3714.00185632,N,13701.48601954,E,4,12,0.9,99.348,M,36.772,M,1.2,0469*74
[2021-02-23 10:01:53.935] $GPGGA,010153.30,3714.00185421,N,13701.48601800,E,4,12,0.9,99.348,M,36.772,M,1.3,0469*74
[2021-02-23 10:01:54.044] $GPGGA,010153.40,3714.00184466,N,13701.48601525,E,4,12,0.9,99.347,M,36.772,M,1.4,0469*73
[2021-02-23 10:01:54.138] $GPGGA,010153.50,3714.00184156,N,13701.48601576,E,4,12,0.9,99.348,M,36.772,M,1.5,0469*7C
[2021-02-23 10:01:54.248] $GPGGA,010153.60,3714.00183904,N,13701.48602054,E,4,12,0.9,99.346,M,36.772,M,1.6,0469*7C
[2021-02-23 10:01:54.341] $GPGGA,010153.70,3714.00184431,N,13701.48602451,E,4,12,0.9,99.351,M,36.772,M,1.7,0469*77
[2021-02-23 10:01:54.451] $GPGGA,010153.80,3714.00183959,N,13701.48601748,E,4,12,0.9,99.350,M,36.772,M,1.8,0469*7A
[2021-02-23 10:01:54.544] $GPGGA,010153.90,3714.00183817,N,13701.48602063,E,4,12,0.9,99.351,M,36.772,M,1.9,0469*7D
[2021-02-23 10:01:54.654] $GPGGA,010154.00,3714.00183115,N,13701.48602862,E,4,12,0.8,99.344,M,36.772,M,1.0,0469*7D
[2021-02-23 10:01:54.748] $GPGGA,010154.10,3714.00182751,N,13701.48602866,E,4,12,0.8,99.343,M,36.772,M,1.1,0469*79
[2021-02-23 10:01:54.841] $GPGGA,010154.20,3714.00182942,N,13701.48602645,E,4,12,0.8,99.344,M,36.772,M,1.2,0469*7D
[2021-02-23 10:01:54.935] $GPGGA,010154.30,3714.00183402,N,13701.48602826,E,4,12,0.8,99.346,M,36.772,M,1.3,0469*7C
[2021-02-23 10:01:55.044] $GPGGA,010154.40,3714.00183802,N,13701.48602877,E,4,12,0.8,99.344,M,36.772,M,1.4,0469*76
[2021-02-23 10:01:55.138] $GPGGA,010154.50,3714.00183823,N,13701.48602909,E,4,12,0.8,99.349,M,36.772,M,1.5,0469*70
[2021-02-23 10:01:55.248] $GPGGA,010154.60,3714.00183794,N,13701.48603179,E,4,12,0.8,99.353,M,36.772,M,1.6,0469*76
[2021-02-23 10:01:55.341] $GPGGA,010154.70,3714.00183956,N,13701.48603462,E,4,12,0.8,99.342,M,36.772,M,1.7,0469*79
[2021-02-23 10:01:55.451] $GPGGA,010154.80,3714.00184131,N,13701.48603257,E,4,12,0.8,99.344,M,36.772,M,1.8,0469*71
[2021-02-23 10:01:55.544] $GPGGA,010154.90,3714.00183929,N,13701.48603619,E,4,12,0.8,99.345,M,36.772,M,1.9,0469*78
[2021-02-23 10:01:55.654] $GPGGA,010155.00,3714.00184292,N,13701.48604015,E,4,12,0.8,99.342,M,36.772,M,2.0,0469*7C
[2021-02-23 10:01:55.732] $GPGGA,010155.10,3714.00184314,N,13701.48603881,E,4,12,0.8,99.347,M,36.772,M,2.1,0469*74
[2021-02-23 10:01:55.841] $GPGGA,010155.20,3714.00184444,N,13701.48604096,E,4,12,0.8,99.342,M,36.772,M,2.2,0469*7A
[2021-02-23 10:01:55.935] $GPGGA,010155.30,3714.00184321,N,13701.48604082,E,4,12,0.8,99.343,M,36.772,M,2.3,0469*7A
[2021-02-23 10:01:56.044] $GPGGA,010155.40,3714.00184320,N,13701.48604015,E,4,12,0.8,99.343,M,36.772,M,2.4,0469*75
[2021-02-23 10:01:56.138] $GPGGA,010155.50,3714.00184301,N,13701.48603901,E,4,12,0.8,99.344,M,36.772,M,2.5,0469*7A
[2021-02-23 10:01:56.247] $GPGGA,010155.60,3714.00184250,N,13701.48604035,E,4,12,0.8,99.343,M,36.772,M,2.6,0469*71
[2021-02-23 10:01:56.341] $GPGGA,010155.70,3714.00184366,N,13701.48603861,E,4,12,0.8,99.347,M,36.772,M,2.7,0469*7F
[2021-02-23 10:01:56.451] $GPGGA,010155.80,3714.00184194,N,13701.48603975,E,4,12,0.8,99.345,M,36.772,M,2.8,0469*76
[2021-02-23 10:01:56.544] $GPGGA,010155.90,3714.00184286,N,13701.48603832,E,4,12,0.8,99.347,M,36.772,M,2.9,0469*76
[2021-02-23 10:01:56.654] $GPGGA,010156.00,3714.00184294,N,13701.48603784,E,4,12,0.8,99.345,M,36.772,M,3.0,0469*77
[2021-02-23 10:01:56.747] $GPGGA,010156.10,3714.00184104,N,13701.48604152,E,4,12,0.8,99.346,M,36.772,M,3.1,0469*74
[2021-02-23 10:01:56.841] $GPGGA,010156.20,3714.00184207,N,13701.48603920,E,4,12,0.8,99.345,M,36.772,M,3.2,0469*7D
[2021-02-23 10:01:56.935] $GPGGA,010156.30,3714.00184040,N,13701.48603856,E,4,12,0.8,99.347,M,36.772,M,3.3,0469*7E
[2021-02-23 10:01:57.044] $GPGGA,010156.40,3714.00184147,N,13701.48603874,E,4,12,0.8,99.347,M,36.772,M,3.4,0469*78
[2021-02-23 10:01:57.138] $GPGGA,010156.50,3714.00184086,N,13701.48604045,E,4,12,0.8,99.345,M,36.772,M,3.5,0469*7B
[2021-02-23 10:01:57.247] $GPGGA,010156.60,3714.00184175,N,13701.48603751,E,4,12,0.8,99.346,M,36.772,M,3.6,0469*70
[2021-02-23 10:01:57.341] $GPGGA,010156.70,3714.00184154,N,13701.48604564,E,4,12,0.8,99.340,M,36.772,M,2.7,0469*77
[2021-02-23 10:01:57.450] $GPGGA,010156.80,3714.00183990,N,13701.48604497,E,4,12,0.9,99.342,M,36.772,M,1.8,0469*7D
[2021-02-23 10:01:57.544] $GPGGA,010156.90,3714.00184075,N,13701.48604749,E,4,12,0.9,99.345,M,36.772,M,1.9,0469*7F
[2021-02-23 10:01:57.654] $GPGGA,010157.00,3714.00183830,N,13701.48604990,E,4,12,0.9,99.340,M,36.772,M,1.0,0469*7F
[2021-02-23 10:01:57.747] $GPGGA,010157.10,3714.00183841,N,13701.48604903,E,4,12,0.9,99.343,M,36.772,M,1.1,0469*70
[2021-02-23 10:01:57.841] $GPGGA,010157.20,3714.00184031,N,13701.48604893,E,4,12,0.9,99.343,M,36.772,M,1.2,0469*70
[2021-02-23 10:01:57.935] $GPGGA,010157.30,3714.00183844,N,13701.48604856,E,4,12,0.9,99.350,M,36.772,M,1.3,0469*76
[2021-02-23 10:01:58.044] $GPGGA,010157.40,3714.00183952,N,13701.48604844,E,4,12,0.9,99.342,M,36.772,M,1.4,0469*70
[2021-02-23 10:01:58.138] $GPGGA,010157.50,3714.00184090,N,13701.48604589,E,4,12,0.9,99.343,M,36.772,M,1.5,0469*7D
[2021-02-23 10:01:58.247] $GPGGA,010157.60,3714.00183864,N,13701.48604294,E,4,12,0.9,99.346,M,36.772,M,1.6,0469*77
[2021-02-23 10:01:58.341] $GPGGA,010157.70,3714.00183968,N,13701.48604131,E,4,12,0.9,99.345,M,36.772,M,1.7,0469*75
[2021-02-23 10:01:58.450] $GPGGA,010157.80,3714.00184623,N,13701.48604495,E,4,12,0.9,99.350,M,36.772,M,1.8,0469*7D
[2021-02-23 10:01:58.544] $GPGGA,010157.90,3714.00184505,N,13701.48604888,E,4,12,0.9,99.341,M,36.772,M,1.9,0469*7A
[2021-02-23 10:01:58.654] $GPGGA,010158.00,3714.00184040,N,13701.48604555,E,4,12,0.9,99.345,M,36.772,M,2.0,0469*7B
[2021-02-23 10:01:58.747] $GPGGA,010158.10,3714.00183840,N,13701.48604491,E,4,12,0.8,99.348,M,36.772,M,1.1,0469*72
[2021-02-23 10:01:58.841] $GPGGA,010158.20,3714.00183761,N,13701.48604179,E,4,12,0.8,99.346,M,36.772,M,1.2,0469*73
[2021-02-23 10:01:58.935] $GPGGA,010158.30,3714.00183657,N,13701.48603773,E,4,12,0.8,99.343,M,36.772,M,1.3,0469*79
[2021-02-23 10:01:59.044] $GPGGA,010158.40,3714.00184086,N,13701.48604142,E,4,12,0.8,99.347,M,36.772,M,1.4,0469*73
[2021-02-23 10:01:59.138] $GPGGA,010158.50,3714.00183940,N,13701.48604274,E,4,12,0.8,99.347,M,36.772,M,1.5,0469*71
[2021-02-23 10:01:59.247] $GPGGA,010158.60,3714.00184000,N,13701.48604547,E,4,12,0.8,99.349,M,36.772,M,1.6,0469*72
[2021-02-23 10:01:59.341] $GPGGA,010158.70,3714.00184066,N,13701.48604357,E,4,12,0.8,99.346,M,36.772,M,1.7,0469*7A
[2021-02-23 10:01:59.450] $GPGGA,010158.80,3714.00183830,N,13701.48604141,E,4,12,0.8,99.349,M,36.772,M,1.8,0469*7C
[2021-02-23 10:01:59.544] $GPGGA,010158.90,3714.00183968,N,13701.48604219,E,4,12,0.8,99.342,M,36.772,M,1.9,0469*75
[2021-02-23 10:01:59.654] $GPGGA,010159.00,3714.00184144,N,13701.48603842,E,4,12,0.8,99.342,M,36.772,M,1.0,0469*76
[2021-02-23 10:01:59.747] $GPGGA,010159.10,3714.00184088,N,13701.48603783,E,4,12,0.8,99.343,M,36.772,M,1.1,0469*74
[2021-02-23 10:01:59.841] $GPGGA,010159.20,3714.00184094,N,13701.48604123,E,4,12,0.8,99.346,M,36.772,M,1.2,0469*77
[2021-02-23 10:01:59.935] $GPGGA,010159.30,3714.00184197,N,13701.48603883,E,4,12,0.8,99.343,M,36.772,M,1.3,0469*74
[2021-02-23 10:02:00.044] $GPGGA,010159.40,3714.00184328,N,13701.48604175,E,4,12,0.8,99.342,M,36.772,M,1.4,0469*74
[2021-02-23 10:02:00.150] $GPGGA,010159.50,3714.00184342,N,13701.48604441,E,4,12,0.8,99.342,M,36.772,M,1.5,0469*7A
[2021-02-23 10:02:00.248] $GPGGA,010159.60,3714.00184393,N,13701.48604164,E,4,12,0.8,99.345,M,36.772,M,1.6,0469*73
[2021-02-23 10:02:00.336] $GPGGA,010159.70,3714.00184404,N,13701.48604298,E,4,12,0.8,99.344,M,36.772,M,1.7,0469*7B
[2021-02-23 10:02:00.445] $GPGGA,010159.80,3714.00184470,N,13701.48604343,E,4,12,0.8,99.345,M,36.772,M,1.8,0469*7E
[2021-02-23 10:02:00.539] $GPGGA,010159.90,3714.00184455,N,13701.48604503,E,4,12,0.8,99.346,M,36.772,M,1.9,0469*78
[2021-02-23 10:02:00.648] $GPGGA,010200.00,3714.00184037,N,13701.48604657,E,4,12,0.9,99.353,M,36.772,M,1.0,0469*70
[2021-02-23 10:02:00.742] $GPGGA,010200.10,3714.00184015,N,13701.48604726,E,4,12,0.9,99.350,M,36.772,M,1.1,0469*74
[2021-02-23 10:02:00.851] $GPGGA,010200.20,3714.00184032,N,13701.48604654,E,4,12,0.9,99.350,M,36.772,M,1.2,0469*75
[2021-02-23 10:02:00.945] $GPGGA,010200.30,3714.00184017,N,13701.48604639,E,4,12,0.9,99.358,M,36.772,M,1.3,0469*71
[2021-02-23 10:02:01.039] $GPGGA,010200.40,3714.00184082,N,13701.48604777,E,4,12,0.9,99.354,M,36.772,M,1.4,0469*7A
[2021-02-23 10:02:01.133] $GPGGA,010200.50,3714.00184077,N,13701.48604693,E,4,12,0.9,99.351,M,36.772,M,1.5,0469*7E
[2021-02-23 10:02:01.242] $GPGGA,010200.60,3714.00184157,N,13701.48604855,E,4,12,0.9,99.355,M,36.772,M,1.6,0469*7D
[2021-02-23 10:02:01.336] $GPGGA,010200.70,3714.00184060,N,13701.48605022,E,4,12,0.9,99.351,M,36.772,M,1.7,0469*75
[2021-02-23 10:02:01.445] $GPGGA,010200.80,3714.00183958,N,13701.48604869,E,4,12,0.9,99.351,M,36.772,M,1.8,0469*76
[2021-02-23 10:02:01.539] $GPGGA,010200.90,3714.00183883,N,13701.48604837,E,4,12,0.9,99.352,M,36.772,M,1.9,0469*79
[2021-02-23 10:02:01.648] $GPGGA,010201.00,3714.00184058,N,13701.48604671,E,4,12,0.8,99.343,M,36.772,M,1.0,0469*7C
[2021-02-23 10:02:01.742] $GPGGA,010201.10,3714.00183934,N,13701.48604576,E,4,12,0.8,99.344,M,36.772,M,1.1,0469*7B
[2021-02-23 10:02:01.851] $GPGGA,010201.20,3714.00184040,N,13701.48604388,E,4,12,0.8,99.346,M,36.772,M,1.2,0469*73
[2021-02-23 10:02:01.945] $GPGGA,010201.30,3714.00184023,N,13701.48604645,E,4,12,0.8,99.342,M,36.772,M,1.3,0469*76
[2021-02-23 10:02:02.054] $GPGGA,010201.40,3714.00183933,N,13701.48604656,E,4,12,0.8,99.348,M,36.772,M,1.4,0469*71
[2021-02-23 10:02:02.133] $GPGGA,010201.50,3714.00183903,N,13701.48604487,E,4,12,0.8,99.348,M,36.772,M,1.5,0469*7C
[2021-02-23 10:02:02.242] $GPGGA,010201.60,3714.00183766,N,13701.48604652,E,4,12,0.8,99.348,M,36.772,M,1.6,0469*7B
[2021-02-23 10:02:02.336] $GPGGA,010201.70,3714.00183874,N,13701.48604469,E,4,12,0.8,99.348,M,36.772,M,1.7,0469*7D
[2021-02-23 10:02:02.445] $GPGGA,010201.80,3714.00183789,N,13701.48604470,E,4,12,0.8,99.342,M,36.772,M,1.8,0469*72
[2021-02-23 10:02:02.539] $GPGGA,010201.90,3714.00183733,N,13701.48604236,E,4,12,0.8,99.347,M,36.772,M,1.9,0469*72
[2021-02-23 10:02:02.633] $GPGGA,010202.00,3714.00183559,N,13701.48604308,E,4,12,0.9,99.349,M,36.772,M,1.0,0469*7C
[2021-02-23 10:02:02.726] $GPGGA,010202.10,3714.00183570,N,13701.48604189,E,4,12,0.9,99.360,M,36.772,M,1.1,0469*77
[2021-02-23 10:02:02.851] $GPGGA,010202.20,3714.00183528,N,13701.48604035,E,4,12,0.9,99.348,M,36.772,M,1.2,0469*76
[2021-02-23 10:02:02.945] $GPGGA,010202.30,3714.00183479,N,13701.48604254,E,4,12,0.9,99.351,M,36.772,M,1.3,0469*7E
[2021-02-23 10:02:03.054] $GPGGA,010202.40,3714.00183554,N,13701.48604248,E,4,12,0.9,99.357,M,36.772,M,1.4,0469*7B
[2021-02-23 10:02:03.133] $GPGGA,010202.50,3714.00183446,N,13701.48604282,E,4,12,0.9,99.351,M,36.772,M,1.5,0469*79
[2021-02-23 10:02:03.242] $GPGGA,010202.60,3714.00183497,N,13701.48604141,E,4,12,0.9,99.354,M,36.772,M,1.6,0469*7C
[2021-02-23 10:02:03.336] $GPGGA,010202.70,3714.00183271,N,13701.48604539,E,4,12,0.9,99.352,M,36.772,M,1.7,0469*7F
[2021-02-23 10:02:03.445] $GPGGA,010202.80,3714.00183517,N,13701.48604368,E,4,12,0.9,99.350,M,36.772,M,1.8,0469*78
[2021-02-23 10:02:03.539] $GPGGA,010202.90,3714.00183461,N,13701.48604547,E,4,12,0.9,99.351,M,36.772,M,1.9,0469*72
[2021-02-23 10:02:03.664] $GPGGA,010203.00,3714.00183503,N,13701.48604342,E,4,12,0.9,99.353,M,36.772,M,2.0,0469*74
[2021-02-23 10:02:03.726] $GPGGA,010203.10,3714.00183412,N,13701.48604729,E,4,12,0.9,99.356,M,36.772,M,1.1,0469*7A
[2021-02-23 10:02:03.851] $GPGGA,010203.20,3714.00183296,N,13701.48604695,E,4,12,0.9,99.362,M,36.772,M,1.2,0469*71
[2021-02-23 10:02:03.945] $GPGGA,010203.30,3714.00183544,N,13701.48604637,E,4,12,0.9,99.355,M,36.772,M,1.3,0469*75
[2021-02-23 10:02:05.507] $GPGGA,010203.40,3714.00183346,N,13701.48604925,E,4,12,0.9,99.363,M,36.772,M,1.4,0469*78
[2021-02-23 10:02:05.539] $GPGGA,010203.50,3714.00183416,N,13701.48604816,E,4,12,0.9,99.355,M,36.772,M,1.5,0469*7E
[2021-02-23 10:02:05.539] $GPGGA,010203.60,3714.00183449,N,13701.48604917,E,4,12,0.9,99.357,M,36.772,M,1.6,0469*76
[2021-02-23 10:02:05.539] $GPGGA,010203.70,3714.00183422,N,13701.48604851,E,4,12,0.9,99.358,M,36.772,M,1.7,0469*77
[2021-02-23 10:02:05.539] $GPGGA,010203.80,3714.00183388,N,13701.48604902,E,4,12,0.9,99.362,M,36.772,M,1.8,0469*7E
[2021-02-23 10:02:05.539] $GPGGA,010203.90,3714.00183432,N,13701.48604998,E,4,12,0.9,99.358,M,36.772,M,1.9,0469*72
[2021-02-23 10:02:05.539] $GPGGA,010204.00,3714.00183793,N,13701.48604928,E,4,12,0.9,99.351,M,36.772,M,1.0,0469*7F
[2021-02-23 10:02:05.539] $GPGGA,010204.10,3714.00183845,N,13701.48604925,E,4,12,0.9,99.349,M,36.772,M,1.1,0469*7F
[2021-02-23 10:02:05.539] $GPGGA,010204.20,3714.00183788,N,13701.48604951,E,4,12,0.9,99.351,M,36.772,M,1.2,0469*7B
[2021-02-23 10:02:05.539] $GPGGA,010204.30,3714.00183674,N,13701.48605100,E,4,12,0.9,99.354,M,36.772,M,1.3,0469*71
[2021-02-23 10:02:05.539] $GPGGA,010204.40,3714.00183595,N,13701.48605002,E,4,12,0.9,99.349,M,36.772,M,1.4,0469*72
[2021-02-23 10:02:05.539] $GPGGA,010204.50,3714.00183579,N,13701.48604897,E,4,12,0.9,99.356,M,36.772,M,1.5,0469*7B
[2021-02-23 10:02:05.539] $GPGGA,010204.60,3714.00183378,N,13701.48604943,E,4,12,0.9,99.351,M,36.772,M,1.6,0469*73
[2021-02-23 10:02:05.539] $GPGGA,010204.70,3714.00183860,N,13701.48604681,E,4,12,0.9,99.352,M,36.772,M,1.7,0469*73
[2021-02-23 10:02:05.539] $GPGGA,010204.80,3714.00183783,N,13701.48604306,E,4,12,0.9,99.352,M,36.772,M,1.8,0469*7B
[2021-02-23 10:02:05.539] $GPGGA,010204.90,3714.00183406,N,13701.48604299,E,4,12,0.9,99.360,M,36.772,M,1.9,0469*73
[2021-02-23 10:02:05.648] $GPGGA,010205.00,3714.00183712,N,13701.48604259,E,4,12,0.9,99.359,M,36.772,M,1.0,0469*72
[2021-02-23 10:02:05.742] $GPGGA,010205.10,3714.00183566,N,13701.48604368,E,4,12,0.9,99.360,M,36.772,M,1.1,0469*7A
[2021-02-23 10:02:05.851] $GPGGA,010205.20,3714.00183234,N,13701.48604219,E,4,12,0.9,99.357,M,36.772,M,1.2,0469*79
[2021-02-23 10:02:05.945] $GPGGA,010205.30,3714.00183121,N,13701.48604320,E,4,12,0.9,99.359,M,36.772,M,1.3,0469*7B
[2021-02-23 10:02:06.054] $GPGGA,010205.40,3714.00183092,N,13701.48604163,E,4,12,0.9,99.362,M,36.772,M,1.4,0469*7F
[2021-02-23 10:02:06.132] $GPGGA,010205.50,3714.00183097,N,13701.48604251,E,4,12,0.9,99.367,M,36.772,M,1.5,0469*7D
[2021-02-23 10:02:06.242] $GPGGA,010205.60,3714.00183330,N,13701.48604189,E,4,12,0.9,99.363,M,36.772,M,1.6,0469*71
[2021-02-23 10:02:06.335] $GPGGA,010205.70,3714.00183429,N,13701.48604537,E,4,12,0.9,99.366,M,36.772,M,1.7,0469*7A
[2021-02-23 10:02:06.445] $GPGGA,010205.80,3714.00183354,N,13701.48604903,E,4,12,0.9,99.363,M,36.772,M,1.8,0469*79
[2021-02-23 10:02:06.539] $GPGGA,010205.90,3714.00183441,N,13701.48604796,E,4,12,0.9,99.363,M,36.772,M,1.9,0469*78
[2021-02-23 10:02:06.648] $GPGGA,010206.00,3714.00183734,N,13701.48605060,E,4,12,0.9,99.356,M,36.772,M,1.0,0469*73
[2021-02-23 10:02:06.742] $GPGGA,010206.10,3714.00183660,N,13701.48604524,E,4,12,0.9,99.362,M,36.772,M,1.1,0469*70
[2021-02-23 10:02:06.851] $GPGGA,010206.20,3714.00183422,N,13701.48604596,E,4,12,0.9,99.358,M,36.772,M,1.2,0469*74
[2021-02-23 10:02:06.945] $GPGGA,010206.30,3714.00183613,N,13701.48604699,E,4,12,0.9,99.357,M,36.772,M,1.3,0469*77
[2021-02-23 10:02:07.054] $GPGGA,010206.40,3714.00183475,N,13701.48604545,E,4,12,0.9,99.357,M,36.772,M,1.4,0469*77
[2021-02-23 10:02:07.132] $GPGGA,010206.50,3714.00183588,N,13701.48604178,E,4,12,0.9,99.355,M,36.772,M,1.5,0469*7C
[2021-02-23 10:02:07.242] $GPGGA,010206.60,3714.00183454,N,13701.48604243,E,4,12,0.9,99.351,M,36.772,M,1.6,0469*73
[2021-02-23 10:02:07.335] $GPGGA,010206.70,3714.00183529,N,13701.48604192,E,4,12,0.9,99.361,M,36.772,M,1.7,0469*74
[2021-02-23 10:02:07.445] $GPGGA,010206.80,3714.00183514,N,13701.48604148,E,4,12,0.9,99.356,M,36.772,M,1.8,0469*79
[2021-02-23 10:02:07.538] $GPGGA,010206.90,3714.00183534,N,13701.48603980,E,4,12,0.9,99.356,M,36.772,M,1.9,0469*70
[2021-02-23 10:02:07.648] $GPGGA,010207.00,3714.00183394,N,13701.48604198,E,4,12,0.9,99.355,M,36.772,M,2.0,0469*7B
[2021-02-23 10:02:07.742] $GPGGA,010207.10,3714.00183270,N,13701.48604031,E,4,12,0.9,99.353,M,36.772,M,2.1,0469*74
[2021-02-23 10:02:07.851] $GPGGA,010207.20,3714.00183490,N,13701.48604493,E,4,12,0.8,99.346,M,36.772,M,1.2,0469*76
[2021-02-23 10:02:07.945] $GPGGA,010207.30,3714.00183503,N,13701.48604297,E,4,12,0.8,99.347,M,36.772,M,1.3,0469*7E
[2021-02-23 10:02:08.054] $GPGGA,010207.40,3714.00183707,N,13701.48604346,E,4,12,0.8,99.348,M,36.772,M,1.4,0469*7A
[2021-02-23 10:02:08.132] $GPGGA,010207.50,3714.00183737,N,13701.48604370,E,4,12,0.8,99.345,M,36.772,M,1.5,0469*71
[2021-02-23 10:02:08.242] $GPGGA,010207.60,3714.00183984,N,13701.48604663,E,4,12,0.8,99.348,M,36.772,M,1.6,0469*7D
[2021-02-23 10:02:08.351] $GPGGA,010207.70,3714.00183923,N,13701.48604814,E,4,12,0.8,99.348,M,36.772,M,1.7,0469*7E
