
[2021-02-23 10:04:08.060] $GPGGA,010359.20,3714.00162440,N,13701.48575047,E,4,12,0.8,99.254,M,36.772,M,8.2,0469*7D
[2021-02-23 10:04:08.075] $GPGGA,010359.30,3714.00162490,N,13701.48574926,E,4,12,0.8,99.258,M,36.772,M,8.3,0469*73
[2021-02-23 10:04:08.075] $GPGGA,010359.40,3714.00162347,N,13701.48575014,E,4,12,0.8,99.253,M,36.772,M,8.4,0469*7C
[2021-02-23 10:04:08.075] $GPGGA,010359.50,3714.00162415,N,13701.48575344,E,4,12,0.8,99.250,M,36.772,M,8.5,0469*79
[2021-02-23 10:04:08.075] $GPGGA,010359.60,3714.00162354,N,13701.48574992,E,4,12,0.8,99.251,M,36.772,M,8.6,0469*7A
[2021-02-23 10:04:08.075] $GPGGA,010359.70,3714.00162191,N,13701.48574977,E,4,12,0.8,99.256,M,36.772,M,8.7,0469*7D
[2021-02-23 10:04:08.075] $GPGGA,010359.80,3714.00162531,N,13701.48575109,E,4,12,0.8,99.251,M,36.772,M,8.8,0469*74
[2021-02-23 10:04:08.075] $GPGGA,010359.90,3714.00162467,N,13701.48574664,E,4,12,0.8,99.248,M,36.772,M,8.9,0469*73
[2021-02-23 10:04:08.075] $GPGGA,010400.00,3714.00162400,N,13701.48575045,E,4,12,0.8,99.257,M,36.772,M,9.0,0469*72
[2021-02-23 10:04:08.075] $GPGGA,010400.10,3714.00162499,N,13701.48574739,E,4,12,0.8,99.256,M,36.772,M,9.1,0469*7E
[2021-02-23 10:04:08.075] $GPGGA,010400.20,3714.00162406,N,13701.48574582,E,4,12,0.8,99.257,M,36.772,M,9.2,0469*7B
[2021-02-23 10:04:08.075] $GPGGA,010400.30,3714.00162336,N,13701.48574659,E,4,12,0.8,99.254,M,36.772,M,9.3,0469*79
[2021-02-23 10:04:08.075] $GPGGA,010400.40,3714.00162438,N,13701.48574693,E,4,12,0.8,99.251,M,36.772,M,9.4,0469*73
[2021-02-23 10:04:08.091] $GPGGA,010400.50,3714.00162449,N,13701.48574590,E,4,12,0.8,99.255,M,36.772,M,9.5,0469*71
[2021-02-23 10:04:08.091] $GPGGA,010400.60,3714.00162420,N,13701.48574694,E,4,12,0.8,99.256,M,36.772,M,9.6,0469*7A
[2021-02-23 10:04:08.091] $GPGGA,010400.70,3714.00162414,N,13701.48574843,E,4,12,0.8,99.257,M,36.772,M,9.7,0469*78
[2021-02-23 10:04:08.091] $GPGGA,010400.80,3714.00162080,N,13701.48574847,E,4,12,0.8,99.257,M,36.772,M,9.8,0469*75
[2021-02-23 10:04:08.091] $GPGGA,010400.90,3714.00162439,N,13701.48575229,E,4,12,0.8,99.254,M,36.772,M,9.9,0469*73
[2021-02-23 10:04:08.091] $GPGGA,010401.00,3714.00162143,N,13701.48575048,E,4,12,0.8,99.258,M,36.772,M,10.0,0469*4B
[2021-02-23 10:04:08.091] $GPGGA,010401.10,3714.00166088,N,13701.48578204,E,2,11,0.9,99.157,M,36.772,M,9.0,0469*7F
[2021-02-23 10:04:08.091] $GPGGA,010401.20,3714.00166081,N,13701.48578186,E,2,11,0.9,99.157,M,36.772,M,9.2,0469*7E
[2021-02-23 10:04:08.091] $GPGGA,010401.30,3714.00166075,N,13701.48578168,E,2,11,0.9,99.157,M,36.772,M,9.2,0469*74
[2021-02-23 10:04:08.091] $GPGGA,010401.40,3714.00166068,N,13701.48578150,E,2,11,0.9,99.157,M,36.772,M,9.4,0469*72
[2021-02-23 10:04:08.091] $GPGGA,010401.50,3714.00166061,N,13701.48578131,E,2,11,0.9,99.157,M,36.772,M,9.4,0469*7D
[2021-02-23 10:04:08.107] $GPGGA,010401.60,3714.00166055,N,13701.48578112,E,2,11,0.9,99.157,M,36.772,M,9.6,0469*7A
[2021-02-23 10:04:08.107] $GPGGA,010401.70,3714.00166048,N,13701.48578094,E,2,11,0.9,99.156,M,36.772,M,9.6,0469*79
[2021-02-23 10:04:08.107] $GPGGA,010401.80,3714.00166042,N,13701.48578075,E,2,11,0.9,99.156,M,36.772,M,9.8,0469*7D
[2021-02-23 10:04:08.107] $GPGGA,010401.90,3714.00166035,N,13701.48578057,E,2,11,0.9,99.156,M,36.772,M,9.8,0469*7C
[2021-02-23 10:04:08.107] $GPGGA,010402.00,3714.00166028,N,13701.48578039,E,2,11,0.9,99.156,M,36.772,M,10.0,0469*42
[2021-02-23 10:04:08.107] $GPGGA,010402.10,3714.00166021,N,13701.48578021,E,2,11,0.9,99.156,M,36.772,M,10.0,0469*43
[2021-02-23 10:04:08.107] $GPGGA,010402.20,3714.00166014,N,13701.48578003,E,2,11,0.9,99.156,M,36.772,M,10.2,0469*44
[2021-02-23 10:04:08.107] $GPGGA,010402.30,3714.00166007,N,13701.48577985,E,2,11,0.9,99.156,M,36.772,M,10.2,0469*4F
[2021-02-23 10:04:08.107] $GPGGA,010402.40,3714.00166000,N,13701.48577967,E,2,11,0.9,99.156,M,36.772,M,10.4,0469*45
[2021-02-23 10:04:08.107] $GPGGA,010402.50,3714.00165993,N,13701.48577948,E,2,11,0.9,99.155,M,36.772,M,10.4,0469*4A
[2021-02-23 10:04:08.107] $GPGGA,010402.60,3714.00165987,N,13701.48577931,E,2,11,0.9,99.155,M,36.772,M,10.6,0469*40
[2021-02-23 10:04:08.122] $GPGGA,010402.70,3714.00165980,N,13701.48577913,E,2,11,0.9,99.155,M,36.772,M,10.6,0469*46
[2021-02-23 10:04:08.122] $GPGGA,010402.80,3714.00165974,N,13701.48577895,E,2,11,0.9,99.155,M,36.772,M,10.8,0469*43
[2021-02-23 10:04:08.122] $GPGGA,010402.90,3714.00165967,N,13701.48577878,E,2,11,0.9,99.155,M,36.772,M,10.8,0469*43
[2021-02-23 10:04:08.122] $GPGGA,010403.00,3714.00165961,N,13701.48577861,E,2,11,0.9,99.155,M,36.772,M,11.0,0469*4C
[2021-02-23 10:04:08.122] $GPGGA,010403.10,3714.00165954,N,13701.48577843,E,2,11,0.9,99.155,M,36.772,M,11.0,0469*4B
[2021-02-23 10:04:08.122] $GPGGA,010403.20,3714.00165948,N,13701.48577825,E,2,11,0.9,99.155,M,36.772,M,11.2,0469*47
[2021-02-23 10:04:08.122] $GPGGA,010403.30,3714.00165941,N,13701.48577808,E,2,11,0.9,99.155,M,36.772,M,11.2,0469*40
[2021-02-23 10:04:08.122] $GPGGA,010403.40,3714.00165935,N,13701.48577790,E,2,11,0.9,99.155,M,36.772,M,11.4,0469*4C
[2021-02-23 10:04:08.122] $GPGGA,010403.50,3714.00165928,N,13701.48577773,E,2,11,0.9,99.154,M,36.772,M,11.4,0469*4D
[2021-02-23 10:04:08.122] $GPGGA,010403.60,3714.00165921,N,13701.48577755,E,2,11,0.9,99.154,M,36.772,M,11.6,0469*41
[2021-02-23 10:04:08.122] $GPGGA,010403.70,3714.00165915,N,13701.48577737,E,2,11,0.9,99.154,M,36.772,M,11.6,0469*43
[2021-02-23 10:04:08.138] $GPGGA,010403.80,3714.00165908,N,13701.48577719,E,2,11,0.9,99.154,M,36.772,M,11.8,0469*42
[2021-02-23 10:04:08.138] $GPGGA,010403.90,3714.00165902,N,13701.48577702,E,2,11,0.9,99.154,M,36.772,M,11.8,0469*43
[2021-02-23 10:04:08.138] $GPGGA,010404.00,3714.00165896,N,13701.48577684,E,2,11,0.9,99.154,M,36.772,M,12.0,0469*45
[2021-02-23 10:04:08.138] $GPGGA,010404.10,3714.00165889,N,13701.48577667,E,2,11,0.9,99.154,M,36.772,M,12.0,0469*47
[2021-02-23 10:04:08.138] $GPGGA,010404.20,3714.00165883,N,13701.48577650,E,2,11,0.9,99.154,M,36.772,M,12.2,0469*48
[2021-02-23 10:04:08.138] $GPGGA,010404.30,3714.00165877,N,13701.48577633,E,2,11,0.9,99.154,M,36.772,M,12.2,0469*47
[2021-02-23 10:04:08.138] $GPGGA,010404.40,3714.00165871,N,13701.48577616,E,2,11,0.9,99.153,M,36.772,M,12.4,0469*40
[2021-02-23 10:04:08.138] $GPGGA,010404.50,3714.00165865,N,13701.48577600,E,2,11,0.9,99.153,M,36.772,M,12.4,0469*43
[2021-02-23 10:04:08.138] $GPGGA,010404.60,3714.00165858,N,13701.48577583,E,2,11,0.9,99.153,M,36.772,M,12.6,0469*44
[2021-02-23 10:04:08.138] $GPGGA,010404.70,3714.00165853,N,13701.48577567,E,2,11,0.9,99.153,M,36.772,M,12.6,0469*44
[2021-02-23 10:04:08.138] $GPGGA,010404.80,3714.00165847,N,13701.48577550,E,2,11,0.9,99.153,M,36.772,M,12.8,0469*44
[2021-02-23 10:04:08.154] $GPGGA,010404.90,3714.00165841,N,13701.48577534,E,2,11,0.9,99.153,M,36.772,M,12.8,0469*41
[2021-02-23 10:04:08.154] $GPGGA,010405.00,3714.00165835,N,13701.48577518,E,2,11,0.9,99.153,M,36.772,M,13.0,0469*4D
[2021-02-23 10:04:08.154] $GPGGA,010405.10,3714.00165830,N,13701.48577501,E,2,11,0.9,99.153,M,36.772,M,13.0,0469*41
[2021-02-23 10:04:08.154] $GPGGA,010405.20,3714.00165824,N,13701.48577485,E,2,11,0.9,99.153,M,36.772,M,13.2,0469*48
[2021-02-23 10:04:08.154] $GPGGA,010405.30,3714.00165818,N,13701.48577469,E,2,11,0.9,99.153,M,36.772,M,13.2,0469*44
[2021-02-23 10:04:08.154] $GPGGA,010405.40,3714.00165813,N,13701.48577452,E,2,11,0.9,99.152,M,36.772,M,13.4,0469*47
[2021-02-23 10:04:08.154] $GPGGA,010405.50,3714.00165807,N,13701.48577436,E,2,11,0.9,99.152,M,36.772,M,13.4,0469*41
[2021-02-23 10:04:08.154] $GPGGA,010405.60,3714.00165802,N,13701.48577420,E,2,11,0.9,99.152,M,36.772,M,13.6,0469*42
[2021-02-23 10:04:08.154] $GPGGA,010405.70,3714.00165796,N,13701.48577403,E,2,11,0.9,99.152,M,36.772,M,13.6,0469*40
[2021-02-23 10:04:08.154] $GPGGA,010405.80,3714.00165791,N,13701.48577387,E,2,11,0.9,99.152,M,36.772,M,13.8,0469*4D
[2021-02-23 10:04:08.154] $GPGGA,010405.90,3714.00165786,N,13701.48577371,E,2,11,0.9,99.152,M,36.772,M,13.8,0469*43
[2021-02-23 10:04:08.154] $GPGGA,010406.00,3714.00165781,N,13701.48577354,E,2,11,0.9,99.152,M,36.772,M,14.0,0469*46
[2021-02-23 10:04:08.169] $GPGGA,010406.10,3714.00165776,N,13701.48577337,E,2,11,0.9,99.152,M,36.772,M,14.0,0469*4A
[2021-02-23 10:04:08.169] $GPGGA,010406.20,3714.00165771,N,13701.48577320,E,2,11,0.9,99.152,M,36.772,M,14.2,0469*4A
[2021-02-23 10:04:08.169] $GPGGA,010406.30,3714.00165766,N,13701.48577303,E,2,11,0.9,99.151,M,36.772,M,14.2,0469*4F
[2021-02-23 10:04:08.169] $GPGGA,010406.40,3714.00165761,N,13701.48577286,E,2,11,0.9,99.151,M,36.772,M,14.4,0469*45
[2021-02-23 10:04:08.169] $GPGGA,010406.50,3714.00165756,N,13701.48577269,E,2,11,0.9,99.151,M,36.772,M,14.4,0469*41
[2021-02-23 10:04:08.169] $GPGGA,010406.60,3714.00165751,N,13701.48577252,E,2,11,0.9,99.151,M,36.772,M,14.6,0469*4F
[2021-02-23 10:04:08.169] $GPGGA,010406.70,3714.00165746,N,13701.48577235,E,2,11,0.9,99.151,M,36.772,M,14.6,0469*49
[2021-02-23 10:04:08.169] $GPGGA,010406.80,3714.00165741,N,13701.48577218,E,2,11,0.9,99.151,M,36.772,M,14.8,0469*40
[2021-02-23 10:04:08.169] $GPGGA,010406.90,3714.00165736,N,13701.48577200,E,2,11,0.9,99.151,M,36.772,M,14.8,0469*48
[2021-02-23 10:04:08.169] $GPGGA,010407.00,3714.00165731,N,13701.48577183,E,2,11,0.9,99.151,M,36.772,M,15.0,0469*46
[2021-02-23 10:04:08.169] $GPGGA,010407.10,3714.00165727,N,13701.48577166,E,2,11,0.9,99.151,M,36.772,M,15.0,0469*4B
[2021-02-23 10:04:08.169] $GPGGA,010407.20,3714.00165722,N,13701.48577149,E,2,11,0.9,99.151,M,36.772,M,15.2,0469*42
[2021-02-23 10:04:08.169] $GPGGA,010407.30,3714.00165717,N,13701.48577132,E,2,11,0.9,99.150,M,36.772,M,15.2,0469*48
[2021-02-23 10:04:08.169] $GPGGA,010407.40,3714.00165712,N,13701.48577115,E,2,11,0.9,99.150,M,36.772,M,15.4,0469*49
[2021-02-23 10:04:08.169] $GPGGA,010407.50,3714.00165707,N,13701.48577098,E,2,11,0.9,99.150,M,36.772,M,15.4,0469*48
[2021-02-23 10:04:08.247] $GPGGA,010407.60,3714.00165702,N,13701.48577081,E,2,11,0.9,99.150,M,36.772,M,15.6,0469*44
[2021-02-23 10:04:08.341] $GPGGA,010407.70,3714.00165697,N,13701.48577064,E,2,11,0.9,99.150,M,36.772,M,15.6,0469*43
[2021-02-23 10:04:08.450] $GPGGA,010407.80,3714.00165692,N,13701.48577047,E,2,11,0.9,99.150,M,36.772,M,15.8,0469*46
[2021-02-23 10:04:08.544] $GPGGA,010407.90,3714.00165687,N,13701.48577030,E,2,11,0.9,99.150,M,36.772,M,15.8,0469*43
[2021-02-23 10:04:08.638] $GPGGA,010408.00,3714.00165683,N,13701.48577014,E,2,11,0.9,99.150,M,36.772,M,16.0,0469*4C
[2021-02-23 10:04:08.732] $GPGGA,010408.10,3714.00165678,N,13701.48576997,E,2,11,0.9,99.150,M,36.772,M,16.0,0469*4A
[2021-02-23 10:04:08.841] $GPGGA,010408.20,3714.00165673,N,13701.48576981,E,2,11,0.9,99.149,M,36.772,M,16.2,0469*4F
[2021-02-23 10:04:08.935] $GPGGA,010408.30,3714.00165669,N,13701.48576964,E,2,11,0.9,99.149,M,36.772,M,16.2,0469*4E
[2021-02-23 10:04:09.044] $GPGGA,010408.40,3714.00165664,N,13701.48576948,E,2,11,0.9,99.149,M,36.772,M,16.4,0469*4C
[2021-02-23 10:04:09.138] $GPGGA,010408.50,3714.00165660,N,13701.48576932,E,2,11,0.9,99.149,M,36.772,M,16.4,0469*44
[2021-02-23 10:04:09.247] $GPGGA,010408.60,3714.00165655,N,13701.48576916,E,2,11,0.9,99.149,M,36.772,M,16.6,0469*45
[2021-02-23 10:04:09.341] $GPGGA,010408.70,3714.00165651,N,13701.48576900,E,2,11,0.9,99.149,M,36.772,M,16.6,0469*47
[2021-02-23 10:04:09.450] $GPGGA,010408.80,3714.00165646,N,13701.48576883,E,2,11,0.9,99.149,M,36.772,M,16.8,0469*4A
[2021-02-23 10:04:09.528] $GPGGA,010408.90,3714.00165641,N,13701.48576868,E,2,11,0.9,99.149,M,36.772,M,16.8,0469*49
[2021-02-23 10:04:09.638] $GPGGA,010409.00,3714.00165637,N,13701.48576852,E,2,11,0.9,99.149,M,36.772,M,17.0,0469*40
[2021-02-23 10:04:09.732] $GPGGA,010409.10,3714.00165632,N,13701.48576837,E,2,11,0.9,99.149,M,36.772,M,17.0,0469*47
[2021-02-23 10:04:09.841] $GPGGA,010409.20,3714.00165626,N,13701.48576821,E,2,11,0.9,99.148,M,36.772,M,17.2,0469*45
[2021-02-23 10:04:09.935] $GPGGA,010409.30,3714.00165621,N,13701.48576806,E,2,11,0.9,99.148,M,36.772,M,17.2,0469*46
[2021-02-23 10:04:10.044] $GPGGA,010409.40,3714.00165616,N,13701.48576791,E,2,11,0.9,99.148,M,36.772,M,17.4,0469*42
[2021-02-23 10:04:10.138] $GPGGA,010409.50,3714.00165611,N,13701.48576775,E,2,11,0.9,99.148,M,36.772,M,17.4,0469*4E
[2021-02-23 10:04:10.247] $GPGGA,010409.60,3714.00165605,N,13701.48576760,E,2,11,0.9,99.148,M,36.772,M,17.6,0469*4E
[2021-02-23 10:04:10.341] $GPGGA,010409.70,3714.00165600,N,13701.48576745,E,2,11,0.9,99.148,M,36.772,M,17.6,0469*4D
[2021-02-23 10:04:10.450] $GPGGA,010409.80,3714.00165594,N,13701.48576730,E,2,11,0.9,99.148,M,36.772,M,17.8,0469*40
[2021-02-23 10:04:10.528] $GPGGA,010409.90,3714.00165589,N,13701.48576715,E,2,11,0.9,99.148,M,36.772,M,17.8,0469*4A
[2021-02-23 10:04:10.653] $GPGGA,010410.00,3714.00165584,N,13701.48576701,E,2,11,0.9,99.148,M,36.772,M,18.0,0469*44
[2021-02-23 10:04:10.731] $GPGGA,010410.10,3714.00165579,N,13701.48576687,E,2,11,0.9,99.147,M,36.772,M,18.0,0469*47
[2021-02-23 10:04:10.841] $GPGGA,010410.20,3714.00165574,N,13701.48576672,E,2,11,0.9,99.147,M,36.772,M,18.2,0469*41
[2021-02-23 10:04:10.935] $GPGGA,010410.30,3714.00165569,N,13701.48576658,E,2,11,0.9,99.147,M,36.772,M,18.2,0469*44
[2021-02-23 10:04:11.044] $GPGGA,010410.40,3714.00165564,N,13701.48576644,E,2,11,0.9,99.147,M,36.772,M,18.4,0469*45
[2021-02-23 10:04:11.138] $GPGGA,010410.50,3714.00165559,N,13701.48576630,E,2,11,0.9,99.147,M,36.772,M,18.4,0469*49
[2021-02-23 10:04:11.247] $GPGGA,010410.60,3714.00165554,N,13701.48576616,E,2,11,0.9,99.147,M,36.772,M,18.6,0469*41
[2021-02-23 10:04:11.341] $GPGGA,010410.70,3714.00165549,N,13701.48576602,E,2,11,0.9,99.147,M,36.772,M,18.6,0469*49
[2021-02-23 10:04:11.450] $GPGGA,010410.80,3714.00165545,N,13701.48576588,E,2,11,0.9,99.147,M,36.772,M,18.8,0469*45
[2021-02-23 10:04:11.544] $GPGGA,010410.90,3714.00165540,N,13701.48576574,E,2,11,0.9,99.147,M,36.772,M,18.8,0469*42
[2021-02-23 10:04:11.653] $GPGGA,010411.00,3714.00165536,N,13701.48576561,E,2,11,0.9,99.147,M,36.772,M,19.0,0469*46
[2021-02-23 10:04:11.731] $GPGGA,010411.10,3714.00165532,N,13701.48576548,E,2,11,0.9,99.146,M,36.772,M,19.0,0469*49
[2021-02-23 10:04:11.841] $GPGGA,010411.20,3714.00165527,N,13701.48576536,E,2,11,0.9,99.146,M,36.772,M,19.2,0469*45
[2021-02-23 10:04:11.934] $GPGGA,010411.30,3714.00165523,N,13701.48576524,E,2,11,0.9,99.146,M,36.772,M,19.2,0469*43
[2021-02-23 10:04:12.044] $GPGGA,010411.40,3714.00165519,N,13701.48576511,E,2,11,0.9,99.146,M,36.772,M,19.4,0469*4D
[2021-02-23 10:04:12.138] $GPGGA,010411.50,3714.00165516,N,13701.48576499,E,2,11,0.9,99.146,M,36.772,M,19.4,0469*42
[2021-02-23 10:04:12.247] $GPGGA,010411.60,3714.00165512,N,13701.48576487,E,2,11,0.9,99.146,M,36.772,M,19.6,0469*48
[2021-02-23 10:04:12.341] $GPGGA,010411.70,3714.00165508,N,13701.48576475,E,2,11,0.9,99.146,M,36.772,M,19.6,0469*4F
[2021-02-23 10:04:12.450] $GPGGA,010411.80,3714.00165504,N,13701.48576463,E,2,11,0.9,99.146,M,36.772,M,19.8,0469*45
[2021-02-23 10:04:12.544] $GPGGA,010411.90,3714.00165500,N,13701.48576451,E,2,11,0.9,99.146,M,36.772,M,19.8,0469*41
[2021-02-23 10:04:12.638] $GPGGA,010412.00,3714.00165496,N,13701.48576438,E,2,11,0.9,99.146,M,36.772,M,20.0,0469*48
[2021-02-23 10:04:12.716] $GPGGA,010412.10,3714.00165492,N,13701.48576426,E,2,11,0.9,99.145,M,36.772,M,20.0,0469*41
[2021-02-23 10:04:12.841] $GPGGA,010412.20,3714.00165489,N,13701.48576414,E,2,11,0.9,99.145,M,36.772,M,20.2,0469*4B
[2021-02-23 10:04:12.934] $GPGGA,010412.30,3714.00165485,N,13701.48576402,E,2,11,0.9,99.145,M,36.772,M,20.2,0469*41
[2021-02-23 10:04:13.044] $GPGGA,010412.40,3714.00165481,N,13701.48576390,E,2,11,0.9,99.145,M,36.772,M,20.4,0469*48
[2021-02-23 10:04:13.138] $GPGGA,010412.50,3714.00165478,N,13701.48576377,E,2,11,0.9,99.145,M,36.772,M,20.4,0469*46
[2021-02-23 10:04:13.247] $GPGGA,010412.60,3714.00165474,N,13701.48576366,E,2,11,0.9,99.145,M,36.772,M,20.6,0469*4B
[2021-02-23 10:04:13.341] $GPGGA,010412.70,3714.00165471,N,13701.48576354,E,2,11,0.9,99.145,M,36.772,M,20.6,0469*4E
[2021-02-23 10:04:13.450] $GPGGA,010412.80,3714.00165468,N,13701.48576341,E,2,11,0.9,99.145,M,36.772,M,20.8,0469*43
[2021-02-23 10:04:13.544] $GPGGA,010412.90,3714.00165464,N,13701.48576329,E,2,11,0.9,99.145,M,36.772,M,20.8,0469*40
[2021-02-23 10:04:13.637] $GPGGA,010413.00,3714.00165461,N,13701.48576317,E,2,11,0.9,99.145,M,36.772,M,21.0,0469*49
[2021-02-23 10:04:13.731] $GPGGA,010413.10,3714.00165458,N,13701.48576305,E,2,11,0.9,99.144,M,36.772,M,21.0,0469*40
[2021-02-23 10:04:13.841] $GPGGA,010413.20,3714.00165455,N,13701.48576292,E,2,11,0.9,99.144,M,36.772,M,21.2,0469*43
[2021-02-23 10:04:13.934] $GPGGA,010413.30,3714.00165452,N,13701.48576280,E,2,11,0.9,99.144,M,36.772,M,21.2,0469*46
[2021-02-23 10:04:14.044] $GPGGA,010413.40,3714.00165449,N,13701.48576267,E,2,11,0.9,99.144,M,36.772,M,21.4,0469*44
[2021-02-23 10:04:14.137] $GPGGA,010413.50,3714.00165447,N,13701.48576255,E,2,11,0.9,99.144,M,36.772,M,21.4,0469*4A
[2021-02-23 10:04:14.247] $GPGGA,010413.60,3714.00165444,N,13701.48576242,E,2,11,0.9,99.144,M,36.772,M,21.6,0469*4E
[2021-02-23 10:04:14.341] $GPGGA,010413.70,3714.00165442,N,13701.48576229,E,2,11,0.9,99.144,M,36.772,M,21.6,0469*44
[2021-02-23 10:04:14.450] $GPGGA,010413.80,3714.00165440,N,13701.48576217,E,2,11,0.9,99.144,M,36.772,M,21.8,0469*4A
[2021-02-23 10:04:14.544] $GPGGA,010413.90,3714.00165438,N,13701.48576204,E,2,11,0.9,99.144,M,36.772,M,21.8,0469*46
[2021-02-23 10:04:14.637] $GPGGA,010414.00,3714.00165436,N,13701.48576192,E,2,11,0.9,99.144,M,36.772,M,22.0,0469*41
[2021-02-23 10:04:14.731] $GPGGA,010414.10,3714.00165434,N,13701.48576180,E,2,11,0.9,99.143,M,36.772,M,22.0,0469*46
[2021-02-23 10:04:14.841] $GPGGA,010414.20,3714.00165432,N,13701.48576167,E,2,11,0.9,99.143,M,36.772,M,22.2,0469*48
[2021-02-23 10:04:14.934] $GPGGA,010414.30,3714.00165430,N,13701.48576155,E,2,11,0.9,99.143,M,36.772,M,22.2,0469*4A
[2021-02-23 10:04:15.044] $GPGGA,010414.40,3714.00165429,N,13701.48576143,E,2,11,0.9,99.143,M,36.772,M,22.4,0469*44
[2021-02-23 10:04:15.137] $GPGGA,010414.50,3714.00165427,N,13701.48576130,E,2,11,0.9,99.143,M,36.772,M,22.4,0469*4F
[2021-02-23 10:04:15.247] $GPGGA,010414.60,3714.00165425,N,13701.48576118,E,2,11,0.9,99.143,M,36.772,M,22.6,0469*46
[2021-02-23 10:04:15.341] $GPGGA,010414.70,3714.00165424,N,13701.48576106,E,2,11,0.9,99.143,M,36.772,M,22.6,0469*49
[2021-02-23 10:04:15.450] $GPGGA,010414.80,3714.00165422,N,13701.48576093,E,2,11,0.9,99.143,M,36.772,M,22.8,0469*43
[2021-02-23 10:04:15.544] $GPGGA,010414.90,3714.00165421,N,13701.48576081,E,2,11,0.9,99.143,M,36.772,M,22.8,0469*42
[2021-02-23 10:04:15.653] $GPGGA,010415.00,3714.00165419,N,13701.48576069,E,2,11,0.9,99.143,M,36.772,M,23.0,0469*4E
[2021-02-23 10:04:15.731] $GPGGA,010415.10,3714.00165418,N,13701.48576056,E,2,11,0.9,99.143,M,36.772,M,23.0,0469*42
[2021-02-23 10:04:15.840] $GPGGA,010415.20,3714.00165416,N,13701.48576044,E,2,11,0.9,99.143,M,36.772,M,23.2,0469*4E
[2021-02-23 10:04:15.934] $GPGGA,010415.30,3714.00165415,N,13701.48576032,E,2,11,0.9,99.142,M,36.772,M,23.2,0469*4C
[2021-02-23 10:04:16.044] $GPGGA,010415.40,3714.00165414,N,13701.48576019,E,2,11,0.9,99.142,M,36.772,M,23.4,0469*45
[2021-02-23 10:04:16.137] $GPGGA,010415.50,3714.00165412,N,13701.48576006,E,2,11,0.9,99.142,M,36.772,M,23.4,0469*4C
[2021-02-23 10:04:16.247] $GPGGA,010415.60,3714.00165411,N,13701.48575993,E,2,11,0.9,99.142,M,36.772,M,23.6,0469*48
[2021-02-23 10:04:16.340] $GPGGA,010415.70,3714.00165409,N,13701.48575981,E,2,11,0.9,99.142,M,36.772,M,23.6,0469*43
[2021-02-23 10:04:16.450] $GPGGA,010415.80,3714.00165408,N,13701.48575968,E,2,11,0.9,99.142,M,36.772,M,23.8,0469*44
[2021-02-23 10:04:16.544] $GPGGA,010415.90,3714.00165406,N,13701.48575955,E,2,11,0.9,99.142,M,36.772,M,23.8,0469*45
[2021-02-23 10:04:16.653] $GPGGA,010416.00,3714.00165405,N,13701.48575943,E,2,11,0.9,99.142,M,36.772,M,24.0,0469*44
[2021-02-23 10:04:16.731] $GPGGA,010416.10,3714.00165403,N,13701.48575930,E,2,11,0.9,99.142,M,36.772,M,24.0,0469*47
[2021-02-23 10:04:16.840] $GPGGA,010416.20,3714.00165402,N,13701.48575918,E,2,11,0.9,99.142,M,36.772,M,24.2,0469*4D
[2021-02-23 10:04:16.934] $GPGGA,010416.30,3714.00165400,N,13701.48575905,E,2,11,0.9,99.142,M,36.772,M,24.2,0469*42
[2021-02-23 10:04:17.043] $GPGGA,010416.40,3714.00165399,N,13701.48575893,E,2,11,0.9,99.142,M,36.772,M,24.4,0469*4A
[2021-02-23 10:04:17.137] $GPGGA,010416.50,3714.00165398,N,13701.48575881,E,2,11,0.9,99.142,M,36.772,M,24.4,0469*49
[2021-02-23 10:04:17.247] $GPGGA,010416.60,3714.00165397,N,13701.48575869,E,2,11,0.9,99.142,M,36.772,M,24.6,0469*41
[2021-02-23 10:04:17.340] $GPGGA,010416.70,3714.00165396,N,13701.48575857,E,2,11,0.9,99.141,M,36.772,M,24.6,0469*4F
[2021-02-23 10:04:17.450] $GPGGA,010416.80,3714.00165394,N,13701.48575844,E,2,11,0.9,99.141,M,36.772,M,24.8,0469*4E
[2021-02-23 10:04:17.543] $GPGGA,010416.90,3714.00165393,N,13701.48575832,E,2,11,0.9,99.141,M,36.772,M,24.8,0469*49
[2021-02-23 10:04:17.653] $GPGGA,010417.00,3714.00165392,N,13701.48575820,E,2,11,0.9,99.141,M,36.772,M,25.0,0469*4A
[2021-02-23 10:04:17.731] $GPGGA,010417.10,3714.00165391,N,13701.48575808,E,2,11,0.9,99.141,M,36.772,M,25.0,0469*42
[2021-02-23 10:04:17.840] $GPGGA,010417.20,3714.00165390,N,13701.48575795,E,2,11,0.9,99.141,M,36.772,M,25.2,0469*49
[2021-02-23 10:04:17.934] $GPGGA,010417.30,3714.00165388,N,13701.48575783,E,2,11,0.9,99.141,M,36.772,M,25.2,0469*46
[2021-02-23 10:04:18.043] $GPGGA,010417.40,3714.00165387,N,13701.48575771,E,2,11,0.9,99.141,M,36.772,M,25.4,0469*45
[2021-02-23 10:04:18.137] $GPGGA,010417.50,3714.00165386,N,13701.48575758,E,2,11,0.9,99.141,M,36.772,M,25.4,0469*4E
[2021-02-23 10:04:18.247] $GPGGA,010417.60,3714.00165386,N,13701.48575746,E,2,11,0.9,99.141,M,36.772,M,25.6,0469*40
[2021-02-23 10:04:18.340] $GPGGA,010417.70,3714.00165385,N,13701.48575734,E,2,11,0.9,99.141,M,36.772,M,25.6,0469*47
[2021-02-23 10:04:18.450] $GPGGA,010417.80,3714.00165385,N,13701.48575722,E,2,11,0.9,99.141,M,36.772,M,25.8,0469*41
[2021-02-23 10:04:18.543] $GPGGA,010417.90,3714.00165384,N,13701.48575710,E,2,11,0.9,99.141,M,36.772,M,25.8,0469*40
[2021-02-23 10:04:18.653] $GPGGA,010418.00,3714.00165384,N,13701.48575699,E,2,11,0.9,99.141,M,36.772,M,26.0,0469*4D
[2021-02-23 10:04:18.731] $GPGGA,010418.10,3714.00165383,N,13701.48575687,E,2,11,0.9,99.141,M,36.772,M,26.0,0469*44
[2021-02-23 10:04:18.840] $GPGGA,010418.20,3714.00165383,N,13701.48575675,E,2,11,0.9,99.141,M,36.772,M,26.2,0469*48
[2021-02-23 10:04:18.934] $GPGGA,010418.30,3714.00165382,N,13701.48575663,E,2,11,0.9,99.141,M,36.772,M,26.2,0469*4F
[2021-02-23 10:04:19.043] $GPGGA,010418.40,3714.00165382,N,13701.48575652,E,2,11,0.9,99.141,M,36.772,M,26.4,0469*4C
[2021-02-23 10:04:19.137] $GPGGA,010418.50,3714.00165381,N,13701.48575641,E,2,11,0.9,99.141,M,36.772,M,26.4,0469*4C
[2021-02-23 10:04:19.246] $GPGGA,010418.60,3714.00165381,N,13701.48575629,E,2,11,0.9,99.141,M,36.772,M,26.6,0469*43
[2021-02-23 10:04:19.340] $GPGGA,010418.70,3714.00165380,N,13701.48575617,E,2,11,0.9,99.141,M,36.772,M,26.6,0469*4E
[2021-02-23 10:04:19.450] $GPGGA,010418.80,3714.00165379,N,13701.48575605,E,2,11,0.9,99.141,M,36.772,M,26.8,0469*4A
[2021-02-23 10:04:19.543] $GPGGA,010418.90,3714.00165379,N,13701.48575594,E,2,11,0.9,99.141,M,36.772,M,26.8,0469*40
[2021-02-23 10:04:19.653] $GPGGA,010419.00,3714.00165378,N,13701.48575582,E,2,11,0.9,99.141,M,36.772,M,27.0,0469*47
[2021-02-23 10:04:19.731] $GPGGA,010419.10,3714.00165377,N,13701.48575570,E,2,11,0.9,99.141,M,36.772,M,27.0,0469*44
[2021-02-23 10:04:19.840] $GPGGA,010419.20,3714.00165376,N,13701.48575558,E,2,11,0.9,99.140,M,36.772,M,27.2,0469*4F
[2021-02-23 10:04:19.934] $GPGGA,010419.30,3714.00165375,N,13701.48575546,E,2,11,0.9,99.140,M,36.772,M,27.2,0469*42
[2021-02-23 10:04:20.043] $GPGGA,010419.40,3714.00165374,N,13701.48575535,E,2,11,0.9,99.140,M,36.772,M,27.4,0469*46
[2021-02-23 10:04:20.137] $GPGGA,010419.50,3714.00165373,N,13701.48575523,E,2,11,0.9,99.140,M,36.772,M,27.4,0469*47
[2021-02-23 10:04:20.246] $GPGGA,010419.60,3714.00165372,N,13701.48575511,E,2,11,0.9,99.140,M,36.772,M,27.6,0469*46
[2021-02-23 10:04:20.340] $GPGGA,010419.70,3714.00165370,N,13701.48575500,E,2,11,0.9,99.140,M,36.772,M,27.6,0469*45
[2021-02-23 10:04:20.450] $GPGGA,010419.80,3714.00165369,N,13701.48575488,E,2,11,0.9,99.140,M,36.772,M,27.8,0469*4D
[2021-02-23 10:04:20.543] $GPGGA,010419.90,3714.00165368,N,13701.48575476,E,2,11,0.9,99.140,M,36.772,M,27.8,0469*4C
[2021-02-23 10:04:20.653] $GPGGA,010420.00,3714.00165367,N,13701.48575465,E,2,11,0.9,99.140,M,36.772,M,28.0,0469*45
[2021-02-23 10:04:20.731] $GPGGA,010420.10,3714.00165366,N,13701.48575453,E,2,11,0.9,99.140,M,36.772,M,28.0,0469*40
[2021-02-23 10:04:20.840] $GPGGA,010420.20,3714.00165365,N,13701.48575442,E,2,11,0.9,99.140,M,36.772,M,28.2,0469*42
[2021-02-23 10:04:20.934] $GPGGA,010420.30,3714.00165364,N,13701.48575431,E,2,11,0.9,99.140,M,36.772,M,28.2,0469*46
[2021-02-23 10:04:21.043] $GPGGA,010420.40,3714.00165364,N,13701.48575420,E,2,11,0.9,99.140,M,36.772,M,28.4,0469*47
[2021-02-23 10:04:21.137] $GPGGA,010420.50,3714.00165363,N,13701.48575409,E,2,11,0.9,99.140,M,36.772,M,28.4,0469*4A
[2021-02-23 10:04:21.246] $GPGGA,010420.60,3714.00165362,N,13701.48575397,E,2,11,0.9,99.140,M,36.772,M,28.6,0469*4A
[2021-02-23 10:04:21.340] $GPGGA,010420.70,3714.00165361,N,13701.48575387,E,2,11,0.9,99.140,M,36.772,M,28.6,0469*49
[2021-02-23 10:04:21.449] $GPGGA,010420.80,3714.00165360,N,13701.48575375,E,2,11,0.9,99.140,M,36.772,M,28.8,0469*44
[2021-02-23 10:04:21.543] $GPGGA,010420.90,3714.00165359,N,13701.48575364,E,2,11,0.9,99.140,M,36.772,M,28.8,0469*4F
[2021-02-23 10:04:21.653] $GPGGA,010421.00,3714.00165358,N,13701.48575353,E,2,11,0.9,99.140,M,36.772,M,29.0,0469*4B
[2021-02-23 10:04:21.731] $GPGGA,010421.10,3714.00165357,N,13701.48575342,E,2,11,0.9,99.140,M,36.772,M,29.0,0469*45
[2021-02-23 10:04:21.840] $GPGGA,010421.20,3714.00165356,N,13701.48575332,E,2,11,0.9,99.140,M,36.772,M,29.2,0469*42
[2021-02-23 10:04:21.934] $GPGGA,010421.30,3714.00165355,N,13701.48575321,E,2,11,0.9,99.140,M,36.772,M,29.2,0469*42
[2021-02-23 10:04:22.043] $GPGGA,010421.40,3714.00165354,N,13701.48575310,E,2,11,0.9,99.140,M,36.772,M,29.4,0469*40
[2021-02-23 10:04:22.137] $GPGGA,010421.50,3714.00165353,N,13701.48575299,E,2,11,0.9,99.140,M,36.772,M,29.4,0469*46
[2021-02-23 10:04:22.246] $GPGGA,010421.60,3714.00165352,N,13701.48575288,E,2,11,0.9,99.140,M,36.772,M,29.6,0469*46
[2021-02-23 10:04:22.340] $GPGGA,010421.70,3714.00165351,N,13701.48575277,E,2,11,0.9,99.140,M,36.772,M,29.6,0469*44
[2021-02-23 10:04:22.449] $GPGGA,010421.80,3714.00165351,N,13701.48575266,E,2,11,0.9,99.140,M,36.772,M,29.8,0469*45
[2021-02-23 10:04:22.543] $GPGGA,010421.90,3714.00165350,N,13701.48575256,E,2,11,0.9,99.140,M,36.772,M,29.8,0469*46
[2021-02-23 10:04:22.637] $GPGGA,010422.00,3714.00165349,N,13701.48575245,E,2,11,0.9,99.140,M,36.772,M,30.0,0469*46
[2021-02-23 10:04:22.715] $GPGGA,010422.10,3714.00165348,N,13701.48575235,E,2,11,0.9,99.140,M,36.772,M,30.0,0469*41
[2021-02-23 10:04:22.840] $GPGGA,010422.20,3714.00165348,N,13701.48575224,E,2,11,0.9,99.140,M,36.772,M,30.2,0469*40
[2021-02-23 10:04:22.934] $GPGGA,010422.30,3714.00165347,N,13701.48575213,E,2,11,0.9,99.140,M,36.772,M,30.2,0469*4A
[2021-02-23 10:04:23.043] $GPGGA,010422.40,3714.00165346,N,13701.48575203,E,2,11,0.9,99.140,M,36.772,M,30.4,0469*4B
[2021-02-23 10:04:23.137] $GPGGA,010422.50,3714.00165345,N,13701.48575192,E,2,11,0.9,99.140,M,36.772,M,30.4,0469*42
[2021-02-23 10:04:23.246] $GPGGA,010422.60,3714.00165344,N,13701.48575182,E,2,11,0.9,99.140,M,36.772,M,30.6,0469*43
[2021-02-23 10:04:23.340] $GPGGA,010422.70,3714.00165343,N,13701.48575171,E,2,11,0.9,99.140,M,36.772,M,30.6,0469*49
[2021-02-23 10:04:23.449] $GPGGA,010422.80,3714.00165342,N,13701.48575160,E,2,11,0.9,99.140,M,36.772,M,30.8,0469*49
[2021-02-23 10:04:23.543] $GPGGA,010422.90,3714.00165341,N,13701.48575149,E,2,11,0.9,99.140,M,36.772,M,30.8,0469*40
[2021-02-23 10:04:23.652] $GPGGA,010423.00,3714.00165340,N,13701.48575138,E,2,11,0.9,99.140,M,36.772,M,31.0,0469*46
[2021-02-23 10:04:23.731] $GPGGA,010423.10,3714.00165339,N,13701.48575128,E,2,11,0.9,99.140,M,36.772,M,31.0,0469*48
[2021-02-23 10:04:23.840] $GPGGA,010423.20,3714.00165338,N,13701.48575117,E,2,11,0.9,99.140,M,36.772,M,31.2,0469*44
[2021-02-23 10:04:23.934] $GPGGA,010423.30,3714.00165337,N,13701.48575106,E,2,11,0.9,99.140,M,36.772,M,31.2,0469*4A
[2021-02-23 10:04:24.043] $GPGGA,010423.40,3714.00165335,N,13701.48575095,E,2,11,0.9,99.140,M,36.772,M,31.4,0469*42
[2021-02-23 10:04:24.137] $GPGGA,010423.50,3714.00165334,N,13701.48575084,E,2,11,0.9,99.140,M,36.772,M,31.4,0469*42
[2021-02-23 10:04:24.246] $GPGGA,010423.60,3714.00165333,N,13701.48575074,E,2,11,0.9,99.140,M,36.772,M,31.6,0469*4B
[2021-02-23 10:04:24.340] $GPGGA,010423.70,3714.00165332,N,13701.48575063,E,2,11,0.9,99.140,M,36.772,M,31.6,0469*4D
[2021-02-23 10:04:24.449] $GPGGA,010423.80,3714.00165331,N,13701.48575052,E,2,11,0.9,99.140,M,36.772,M,31.8,0469*4D
[2021-02-23 10:04:24.543] $GPGGA,010423.90,3714.00165330,N,13701.48575042,E,2,11,0.9,99.140,M,36.772,M,31.8,0469*4C
[2021-02-23 10:04:24.652] $GPGGA,010424.00,3714.00165329,N,13701.48575031,E,2,11,0.9,99.140,M,36.772,M,32.0,0469*45
[2021-02-23 10:04:24.730] $GPGGA,010424.10,3714.00165328,N,13701.48575021,E,2,11,0.9,99.140,M,36.772,M,32.0,0469*44
[2021-02-23 10:04:24.840] $GPGGA,010424.20,3714.00165327,N,13701.48575010,E,2,11,0.9,99.140,M,36.772,M,32.2,0469*48
[2021-02-23 10:04:24.934] $GPGGA,010424.30,3714.00165326,N,13701.48575000,E,2,11,0.9,99.140,M,36.772,M,32.2,0469*49
[2021-02-23 10:04:25.043] $GPGGA,010424.40,3714.00165324,N,13701.48574989,E,2,11,0.9,99.140,M,36.772,M,32.4,0469*43
[2021-02-23 10:04:25.137] $GPGGA,010424.50,3714.00165323,N,13701.48574979,E,2,11,0.9,99.140,M,36.772,M,32.4,0469*4A
[2021-02-23 10:04:25.246] $GPGGA,010424.60,3714.00165322,N,13701.48574969,E,2,11,0.9,99.140,M,36.772,M,32.6,0469*4B
[2021-02-23 10:04:25.340] $GPGGA,010424.70,3714.00165321,N,13701.48574959,E,2,11,0.9,99.140,M,36.772,M,32.6,0469*4A
[2021-02-23 10:04:25.449] $GPGGA,010424.80,3714.00165320,N,13701.48574949,E,2,11,0.9,99.140,M,36.772,M,32.8,0469*4B
[2021-02-23 10:04:25.543] $GPGGA,010424.90,3714.00165319,N,13701.48574938,E,2,11,0.9,99.140,M,36.772,M,32.8,0469*46
[2021-02-23 10:04:25.652] $GPGGA,010425.00,3714.00165318,N,13701.48574928,E,2,11,0.9,99.140,M,36.772,M,33.0,0469*47
[2021-02-23 10:04:25.730] $GPGGA,010425.10,3714.00165317,N,13701.48574918,E,2,11,0.9,99.140,M,36.772,M,33.0,0469*4A
[2021-02-23 10:04:25.840] $GPGGA,010425.20,3714.00165315,N,13701.48574908,E,2,11,0.9,99.140,M,36.772,M,33.2,0469*48
[2021-02-23 10:04:25.934] $GPGGA,010425.30,3714.00165314,N,13701.48574898,E,2,11,0.9,99.140,M,36.772,M,33.2,0469*40
[2021-02-23 10:04:26.043] $GPGGA,010425.40,3714.00165313,N,13701.48574888,E,2,11,0.9,99.140,M,36.772,M,33.4,0469*47
[2021-02-23 10:04:26.137] $GPGGA,010425.50,3714.00165312,N,13701.48574879,E,2,11,0.9,99.141,M,36.772,M,33.4,0469*48
[2021-02-23 10:04:26.246] $GPGGA,010425.60,3714.00165310,N,13701.48574869,E,2,11,0.9,99.141,M,36.772,M,33.6,0469*4A
[2021-02-23 10:04:26.340] $GPGGA,010425.70,3714.00165309,N,13701.48574859,E,2,11,0.9,99.141,M,36.772,M,33.6,0469*40
[2021-02-23 10:04:26.449] $GPGGA,010425.80,3714.00165308,N,13701.48574849,E,2,11,0.9,99.141,M,36.772,M,33.8,0469*41
[2021-02-23 10:04:26.543] $GPGGA,010425.90,3714.00165306,N,13701.48574839,E,2,11,0.9,99.141,M,36.772,M,33.8,0469*49
[2021-02-23 10:04:26.652] $GPGGA,010426.00,3714.00165305,N,13701.48574829,E,2,11,0.9,99.141,M,36.772,M,34.0,0469*4E
[2021-02-23 10:04:26.730] $GPGGA,010426.10,3714.00165304,N,13701.48574820,E,2,11,0.9,99.141,M,36.772,M,34.0,0469*47
[2021-02-23 10:04:26.840] $GPGGA,010426.20,3714.00165302,N,13701.48574810,E,2,11,0.9,99.141,M,36.772,M,34.2,0469*43
[2021-02-23 10:04:26.933] $GPGGA,010426.30,3714.00165301,N,13701.48574800,E,2,11,0.9,99.141,M,36.772,M,34.2,0469*40
[2021-02-23 10:04:27.043] $GPGGA,010426.40,3714.00165300,N,13701.48574790,E,2,11,0.9,99.141,M,36.772,M,34.4,0469*46
[2021-02-23 10:04:27.137] $GPGGA,010426.50,3714.00165298,N,13701.48574781,E,2,11,0.9,99.141,M,36.772,M,34.4,0469*47
[2021-02-23 10:04:27.246] $GPGGA,010426.60,3714.00165297,N,13701.48574771,E,2,11,0.9,99.141,M,36.772,M,34.6,0469*46
[2021-02-23 10:04:27.340] $GPGGA,010426.70,3714.00165296,N,13701.48574761,E,2,11,0.9,99.141,M,36.772,M,34.6,0469*47
[2021-02-23 10:04:27.449] $GPGGA,010426.80,3714.00165295,N,13701.48574751,E,2,11,0.9,99.141,M,36.772,M,34.8,0469*46
[2021-02-23 10:04:27.543] $GPGGA,010426.90,3714.00165293,N,13701.48574742,E,2,11,0.9,99.141,M,36.772,M,34.8,0469*43
[2021-02-23 10:04:27.652] $GPGGA,010427.00,3714.00165292,N,13701.48574732,E,2,11,0.9,99.141,M,36.772,M,35.0,0469*44
[2021-02-23 10:04:27.730] $GPGGA,010427.10,3714.00165291,N,13701.48574722,E,2,11,0.9,99.141,M,36.772,M,35.0,0469*47
[2021-02-23 10:04:27.840] $GPGGA,010427.20,3714.00165290,N,13701.48574712,E,2,11,0.9,99.141,M,36.772,M,35.2,0469*44
[2021-02-23 10:04:27.933] $GPGGA,010427.30,3714.00165288,N,13701.48574702,E,2,11,0.9,99.141,M,36.772,M,35.2,0469*4D
[2021-02-23 10:04:28.043] $GPGGA,010427.40,3714.00165287,N,13701.48574693,E,2,11,0.9,99.141,M,36.772,M,35.4,0469*4A
[2021-02-23 10:04:28.137] $GPGGA,010427.50,3714.00165285,N,13701.48574683,E,2,11,0.9,99.141,M,36.772,M,35.4,0469*48
[2021-02-23 10:04:28.246] $GPGGA,010427.60,3714.00165284,N,13701.48574673,E,2,11,0.9,99.141,M,36.772,M,35.6,0469*47
[2021-02-23 10:04:28.340] $GPGGA,010427.70,3714.00165282,N,13701.48574664,E,2,11,0.9,99.141,M,36.772,M,35.6,0469*46
[2021-02-23 10:04:28.449] $GPGGA,010427.80,3714.00165281,N,13701.48574654,E,2,11,0.9,99.141,M,36.772,M,35.8,0469*47
[2021-02-23 10:04:28.543] $GPGGA,010427.90,3714.00165280,N,13701.48574644,E,2,11,0.9,99.141,M,36.772,M,35.8,0469*46
[2021-02-23 10:04:28.652] $GPGGA,010428.00,3714.00165278,N,13701.48574634,E,2,11,0.9,99.141,M,36.772,M,36.0,0469*4B
[2021-02-23 10:04:28.730] $GPGGA,010428.10,3714.00165277,N,13701.48574625,E,2,11,0.9,99.141,M,36.772,M,36.0,0469*45
[2021-02-23 10:04:28.840] $GPGGA,010428.20,3714.00165275,N,13701.48574615,E,2,11,0.9,99.141,M,36.772,M,36.2,0469*45
[2021-02-23 10:04:28.933] $GPGGA,010428.30,3714.00165274,N,13701.48574606,E,2,11,0.9,99.141,M,36.772,M,36.2,0469*47
[2021-02-23 10:04:29.043] $GPGGA,010428.40,3714.00165273,N,13701.48574596,E,2,11,0.9,99.141,M,36.772,M,36.4,0469*4B
[2021-02-23 10:04:29.136] $GPGGA,010428.50,3714.00165272,N,13701.48574587,E,2,11,0.9,99.140,M,36.772,M,36.4,0469*4A
[2021-02-23 10:04:29.246] $GPGGA,010428.60,3714.00165270,N,13701.48574577,E,2,11,0.9,99.140,M,36.772,M,36.6,0469*46
[2021-02-23 10:04:29.340] $GPGGA,010428.70,3714.00165269,N,13701.48574568,E,2,11,0.9,99.140,M,36.772,M,36.6,0469*41
[2021-02-23 10:04:29.449] $GPGGA,010428.80,3714.00165268,N,13701.48574559,E,2,11,0.9,99.140,M,36.772,M,36.8,0469*43
[2021-02-23 10:04:29.543] $GPGGA,010428.90,3714.00165266,N,13701.48574549,E,2,11,0.9,99.140,M,36.772,M,36.8,0469*4D
[2021-02-23 10:04:29.652] $GPGGA,010429.00,3714.00165265,N,13701.48574540,E,2,11,0.9,99.140,M,36.772,M,37.0,0469*46
[2021-02-23 10:04:29.730] $GPGGA,010429.10,3714.00165264,N,13701.48574530,E,2,11,0.9,99.140,M,36.772,M,37.0,0469*41
[2021-02-23 10:04:29.839] $GPGGA,010429.20,3714.00165262,N,13701.48574521,E,2,11,0.9,99.140,M,36.772,M,37.2,0469*46
[2021-02-23 10:04:29.933] $GPGGA,010429.30,3714.00165261,N,13701.48574512,E,2,11,0.9,99.140,M,36.772,M,37.2,0469*44
[2021-02-23 10:04:30.043] $GPGGA,010429.40,3714.00165260,N,13701.48574503,E,2,11,0.9,99.140,M,36.772,M,37.4,0469*44
[2021-02-23 10:04:30.136] $GPGGA,010429.50,3714.00165258,N,13701.48574494,E,2,11,0.9,99.140,M,36.772,M,37.4,0469*41
[2021-02-23 10:04:30.246] $GPGGA,010429.60,3714.00165257,N,13701.48574485,E,2,11,0.9,99.140,M,36.772,M,37.6,0469*4F
[2021-02-23 10:04:30.340] $GPGGA,010429.70,3714.00165256,N,13701.48574476,E,2,11,0.9,99.140,M,36.772,M,37.6,0469*43
[2021-02-23 10:04:30.449] $GPGGA,010429.80,3714.00165255,N,13701.48574468,E,2,11,0.9,99.140,M,36.772,M,37.8,0469*4E
[2021-02-23 10:04:30.543] $GPGGA,010429.90,3714.00165253,N,13701.48574459,E,2,11,0.9,99.140,M,36.772,M,37.8,0469*4B
[2021-02-23 10:04:30.652] $GPGGA,010430.00,3714.00165252,N,13701.48574450,E,2,11,0.9,99.140,M,36.772,M,38.0,0469*45
[2021-02-23 10:04:30.730] $GPGGA,010430.10,3714.00165251,N,13701.48574442,E,2,11,0.9,99.140,M,36.772,M,38.0,0469*44
[2021-02-23 10:04:30.839] $GPGGA,010430.20,3714.00165249,N,13701.48574434,E,2,11,0.9,99.140,M,36.772,M,38.2,0469*4D
[2021-02-23 10:04:30.933] $GPGGA,010430.30,3714.00165248,N,13701.48574426,E,2,11,0.9,99.140,M,36.772,M,38.2,0469*4E
[2021-02-23 10:04:31.043] $GPGGA,010430.40,3714.00165246,N,13701.48574418,E,2,11,0.9,99.140,M,36.772,M,38.4,0469*4C
[2021-02-23 10:04:31.136] $GPGGA,010430.50,3714.00165244,N,13701.48574410,E,2,11,0.9,99.140,M,36.772,M,38.4,0469*47
[2021-02-23 10:04:31.246] $GPGGA,010430.60,3714.00165242,N,13701.48574402,E,2,11,0.9,99.140,M,36.772,M,38.6,0469*43
[2021-02-23 10:04:31.339] $GPGGA,010430.70,3714.00165241,N,13701.48574394,E,2,11,0.9,99.140,M,36.772,M,38.6,0469*49
[2021-02-23 10:04:31.449] $GPGGA,010430.80,3714.00165239,N,13701.48574386,E,2,11,0.9,99.141,M,36.772,M,38.8,0469*45
[2021-02-23 10:04:31.543] $GPGGA,010430.90,3714.00165237,N,13701.48574378,E,2,11,0.9,99.141,M,36.772,M,38.8,0469*4B
[2021-02-23 10:04:31.652] $GPGGA,010431.00,3714.00165236,N,13701.48574370,E,2,11,0.9,99.141,M,36.772,M,39.0,0469*43
[2021-02-23 10:04:31.730] $GPGGA,010431.10,3714.00165234,N,13701.48574361,E,2,11,0.9,99.141,M,36.772,M,39.0,0469*40
[2021-02-23 10:04:31.839] $GPGGA,010431.20,3714.00165232,N,13701.48574353,E,2,11,0.9,99.141,M,36.772,M,39.2,0469*46
[2021-02-23 10:04:31.933] $GPGGA,010431.30,3714.00165231,N,13701.48574345,E,2,11,0.9,99.141,M,36.772,M,39.2,0469*43
[2021-02-23 10:04:32.042] $GPGGA,010431.40,3714.00165229,N,13701.48574337,E,2,11,0.9,99.141,M,36.772,M,39.4,0469*4E
[2021-02-23 10:04:32.136] $GPGGA,010431.50,3714.00165227,N,13701.48574329,E,2,11,0.9,99.141,M,36.772,M,39.4,0469*4E
[2021-02-23 10:04:32.246] $GPGGA,010431.60,3714.00165226,N,13701.48574321,E,2,11,0.9,99.141,M,36.772,M,39.6,0469*46
[2021-02-23 10:04:32.339] $GPGGA,010431.70,3714.00165224,N,13701.48574313,E,2,11,0.9,99.141,M,36.772,M,39.6,0469*44
[2021-02-23 10:04:32.449] $GPGGA,010431.80,3714.00165223,N,13701.48574304,E,2,11,0.9,99.141,M,36.772,M,39.8,0469*44
[2021-02-23 10:04:32.542] $GPGGA,010431.90,3714.00165221,N,13701.48574296,E,2,11,0.9,99.141,M,36.772,M,39.8,0469*4D
[2021-02-23 10:04:32.636] $GPGGA,010432.00,3714.00165219,N,13701.48574288,E,2,11,0.9,99.141,M,36.772,M,40.0,0469*45
[2021-02-23 10:04:32.730] $GPGGA,010432.10,3714.00165218,N,13701.48574280,E,2,11,0.9,99.141,M,36.772,M,40.0,0469*4D
[2021-02-23 10:04:32.839] $GPGGA,010432.20,3714.00165216,N,13701.48574272,E,2,11,0.9,99.141,M,36.772,M,40.2,0469*4F
[2021-02-23 10:04:32.933] $GPGGA,010432.30,3714.00165214,N,13701.48574264,E,2,11,0.9,99.141,M,36.772,M,40.2,0469*4B
[2021-02-23 10:04:33.042] $GPGGA,010432.40,3714.00165212,N,13701.48574255,E,2,11,0.9,99.141,M,36.772,M,40.4,0469*4E
[2021-02-23 10:04:33.136] $GPGGA,010432.50,3714.00165210,N,13701.48574247,E,2,11,0.9,99.141,M,36.772,M,40.4,0469*4E
[2021-02-23 10:04:33.246] $GPGGA,010432.60,3714.00165209,N,13701.48574239,E,2,11,0.9,99.141,M,36.772,M,40.6,0469*4E
[2021-02-23 10:04:33.339] $GPGGA,010432.70,3714.00165207,N,13701.48574231,E,2,11,0.9,99.141,M,36.772,M,40.6,0469*49
[2021-02-23 10:04:33.449] $GPGGA,010432.80,3714.00165205,N,13701.48574222,E,2,11,0.9,99.141,M,36.772,M,40.8,0469*48
[2021-02-23 10:04:33.542] $GPGGA,010432.90,3714.00165203,N,13701.48574214,E,2,11,0.9,99.141,M,36.772,M,40.8,0469*4A
[2021-02-23 10:04:33.636] $GPGGA,010433.00,3714.00165201,N,13701.48574206,E,2,11,0.9,99.141,M,36.772,M,41.0,0469*4A
[2021-02-23 10:04:33.730] $GPGGA,010433.10,3714.00165200,N,13701.48574197,E,2,12,0.9,99.141,M,36.772,M,41.0,0469*42
[2021-02-23 10:04:33.839] $GPGGA,010433.20,3714.00165198,N,13701.48574190,E,2,12,0.9,99.141,M,36.772,M,37.2,0469*47
[2021-02-23 10:04:33.933] $GPGGA,010433.30,3714.00165195,N,13701.48574183,E,2,11,0.9,99.141,M,36.772,M,37.2,0469*4A
[2021-02-23 10:04:34.042] $GPGGA,010433.40,3714.00165192,N,13701.48574177,E,2,11,0.9,99.141,M,36.772,M,31.4,0469*41
[2021-02-23 10:04:34.136] $GPGGA,010433.50,3714.00165188,N,13701.48574172,E,2,11,0.9,99.141,M,36.772,M,31.4,0469*4E
[2021-02-23 10:04:34.245] $GPGGA,010433.60,3714.00165185,N,13701.48574166,E,2,11,0.9,99.141,M,36.772,M,25.6,0469*42
[2021-02-23 10:04:34.339] $GPGGA,010433.70,3714.00165180,N,13701.48574160,E,2,11,0.9,99.141,M,36.772,M,25.6,0469*40
[2021-02-23 10:04:34.449] $GPGGA,010433.80,3714.00165176,N,13701.48574155,E,2,11,0.9,99.141,M,36.772,M,25.8,0469*4E
[2021-02-23 10:04:34.542] $GPGGA,010433.90,3714.00165172,N,13701.48574149,E,2,11,0.9,99.141,M,36.772,M,25.8,0469*46
[2021-02-23 10:04:34.652] $GPGGA,010434.00,3714.00165168,N,13701.48574144,E,2,11,0.9,99.141,M,36.772,M,26.0,0469*45
[2021-02-23 10:04:34.730] $GPGGA,010434.10,3714.00165164,N,13701.48574139,E,2,11,0.9,99.141,M,36.772,M,26.0,0469*42
[2021-02-23 10:04:34.839] $GPGGA,010434.20,3714.00165160,N,13701.48574134,E,2,11,0.9,99.141,M,36.772,M,26.2,0469*4A
[2021-02-23 10:04:34.933] $GPGGA,010434.30,3714.00165156,N,13701.48574130,E,2,11,0.9,99.141,M,36.772,M,26.2,0469*4A
[2021-02-23 10:04:35.042] $GPGGA,010434.40,3714.00165152,N,13701.48574125,E,2,11,0.9,99.140,M,36.772,M,26.4,0469*4A
[2021-02-23 10:04:35.136] $GPGGA,010434.50,3714.00165148,N,13701.48574121,E,2,11,0.9,99.140,M,36.772,M,26.4,0469*44
[2021-02-23 10:04:35.245] $GPGGA,010434.60,3714.00165145,N,13701.48574117,E,2,11,0.9,99.140,M,36.772,M,26.6,0469*4D
[2021-02-23 10:04:35.339] $GPGGA,010434.70,3714.00165141,N,13701.48574113,E,2,11,0.9,99.140,M,36.772,M,26.6,0469*4C
[2021-02-23 10:04:35.449] $GPGGA,010434.80,3714.00165137,N,13701.48574109,E,2,11,0.9,99.140,M,36.772,M,26.8,0469*47
[2021-02-23 10:04:35.542] $GPGGA,010434.90,3714.00165133,N,13701.48574105,E,2,11,0.9,99.140,M,36.772,M,26.8,0469*4E
[2021-02-23 10:04:35.652] $GPGGA,010435.00,3714.00165130,N,13701.48574101,E,2,11,0.9,99.140,M,36.772,M,27.0,0469*48
[2021-02-23 10:04:35.730] $GPGGA,010435.10,3714.00165126,N,13701.48574097,E,2,11,0.9,99.140,M,36.772,M,27.0,0469*40
[2021-02-23 10:04:35.839] $GPGGA,010435.20,3714.00165123,N,13701.48574094,E,2,11,0.9,99.140,M,36.772,M,27.2,0469*47
[2021-02-23 10:04:35.933] $GPGGA,010435.30,3714.00165119,N,13701.48574090,E,2,11,0.9,99.140,M,36.772,M,27.2,0469*4B
[2021-02-23 10:04:36.042] $GPGGA,010435.40,3714.00165116,N,13701.48574087,E,2,11,0.9,99.140,M,36.772,M,27.4,0469*43
[2021-02-23 10:04:36.136] $GPGGA,010435.50,3714.00165113,N,13701.48574083,E,2,11,0.9,99.140,M,36.772,M,27.4,0469*43
[2021-02-23 10:04:36.245] $GPGGA,010435.60,3714.00165109,N,13701.48574080,E,2,11,0.9,99.140,M,36.772,M,27.6,0469*4A
[2021-02-23 10:04:36.339] $GPGGA,010435.70,3714.00165106,N,13701.48574076,E,2,11,0.9,99.140,M,36.772,M,27.6,0469*4D
[2021-02-23 10:04:36.448] $GPGGA,010435.80,3714.00165103,N,13701.48574073,E,2,11,0.9,99.140,M,36.772,M,27.8,0469*4C
[2021-02-23 10:04:36.542] $GPGGA,010435.90,3714.00165100,N,13701.48574069,E,2,11,0.9,99.140,M,36.772,M,27.8,0469*45
[2021-02-23 10:04:36.652] $GPGGA,010436.00,3714.00165097,N,13701.48574065,E,2,11,0.9,99.140,M,36.772,M,28.0,0469*4B
[2021-02-23 10:04:36.745] $GPGGA,010436.10,3714.00165094,N,13701.48574062,E,2,11,0.9,99.140,M,36.772,M,28.0,0469*4E
[2021-02-23 10:04:36.839] $GPGGA,010436.20,3714.00165090,N,13701.48574058,E,2,11,0.9,99.140,M,36.772,M,28.2,0469*42
[2021-02-23 10:04:36.933] $GPGGA,010436.30,3714.00165087,N,13701.48574054,E,2,11,0.9,99.140,M,36.772,M,28.2,0469*49
[2021-02-23 10:04:37.042] $GPGGA,010436.40,3714.00165084,N,13701.48574050,E,2,11,0.9,99.140,M,36.772,M,28.4,0469*4F
[2021-02-23 10:04:37.136] $GPGGA,010436.50,3714.00165081,N,13701.48574046,E,2,11,0.9,99.139,M,36.772,M,28.4,0469*42
[2021-02-23 10:04:37.245] $GPGGA,010436.60,3714.00165078,N,13701.48574043,E,2,11,0.9,99.139,M,36.772,M,28.6,0469*40
[2021-02-23 10:04:37.339] $GPGGA,010436.70,3714.00165075,N,13701.48574039,E,2,11,0.9,99.139,M,36.772,M,28.6,0469*41
[2021-02-23 10:04:37.448] $GPGGA,010436.80,3714.00165072,N,13701.48574035,E,2,11,0.9,99.139,M,36.772,M,28.8,0469*4B
[2021-02-23 10:04:37.542] $GPGGA,010436.90,3714.00165069,N,13701.48574031,E,2,11,0.9,99.139,M,36.772,M,28.8,0469*44
[2021-02-23 10:04:37.651] $GPGGA,010437.00,3714.00165066,N,13701.48574027,E,2,11,0.9,99.139,M,36.772,M,29.0,0469*4D
[2021-02-23 10:04:37.730] $GPGGA,010437.10,3714.00165063,N,13701.48574024,E,2,11,0.9,99.139,M,36.772,M,29.0,0469*4A
[2021-02-23 10:04:37.839] $GPGGA,010437.20,3714.00165061,N,13701.48574020,E,2,11,0.9,99.139,M,36.772,M,29.2,0469*4D
[2021-02-23 10:04:37.933] $GPGGA,010437.30,3714.00165058,N,13701.48574016,E,2,11,0.9,99.139,M,36.772,M,29.2,0469*43
[2021-02-23 10:04:38.042] $GPGGA,010437.40,3714.00165056,N,13701.48574013,E,2,11,0.9,99.139,M,36.772,M,29.4,0469*49
[2021-02-23 10:04:38.136] $GPGGA,010437.50,3714.00165053,N,13701.48574009,E,2,11,0.9,99.139,M,36.772,M,29.4,0469*46
[2021-02-23 10:04:38.245] $GPGGA,010437.60,3714.00165051,N,13701.48574005,E,2,11,0.9,99.139,M,36.772,M,29.6,0469*49
[2021-02-23 10:04:38.339] $GPGGA,010437.70,3714.00165049,N,13701.48574002,E,2,11,0.9,99.139,M,36.772,M,29.6,0469*46
[2021-02-23 10:04:38.448] $GPGGA,010437.80,3714.00165046,N,13701.48573998,E,2,11,0.9,99.139,M,36.772,M,29.8,0469*45
[2021-02-23 10:04:38.542] $GPGGA,010437.90,3714.00165044,N,13701.48573995,E,2,11,0.9,99.139,M,36.772,M,29.8,0469*4B
[2021-02-23 10:04:38.651] $GPGGA,010438.00,3714.00165042,N,13701.48573991,E,2,11,0.9,99.139,M,36.772,M,30.0,0469*4F
[2021-02-23 10:04:38.729] $GPGGA,010438.10,3714.00165040,N,13701.48573988,E,2,11,0.9,99.139,M,36.772,M,30.0,0469*44
[2021-02-23 10:04:38.839] $GPGGA,010438.20,3714.00165038,N,13701.48573984,E,2,11,0.9,99.139,M,36.772,M,30.2,0469*46
[2021-02-23 10:04:38.933] $GPGGA,010438.30,3714.00165036,N,13701.48573981,E,2,11,0.9,99.139,M,36.772,M,30.2,0469*4C
[2021-02-23 10:04:39.042] $GPGGA,010438.40,3714.00165034,N,13701.48573978,E,2,11,0.9,99.139,M,36.772,M,30.4,0469*49
[2021-02-23 10:04:39.136] $GPGGA,010438.50,3714.00165032,N,13701.48573974,E,2,11,0.9,99.139,M,36.772,M,30.4,0469*42
[2021-02-23 10:04:39.245] $GPGGA,010438.60,3714.00165031,N,13701.48573971,E,2,11,0.9,99.139,M,36.772,M,30.6,0469*45
[2021-02-23 10:04:39.339] $GPGGA,010438.70,3714.00165029,N,13701.48573967,E,2,11,0.9,99.139,M,36.772,M,30.6,0469*4A
[2021-02-23 10:04:39.448] $GPGGA,010438.80,3714.00165027,N,13701.48573963,E,2,11,0.9,99.138,M,36.772,M,30.8,0469*40
[2021-02-23 10:04:39.542] $GPGGA,010438.90,3714.00165026,N,13701.48573960,E,2,11,0.9,99.138,M,36.772,M,30.8,0469*43
[2021-02-23 10:04:39.651] $GPGGA,010439.00,3714.00165024,N,13701.48573956,E,2,11,0.9,99.138,M,36.772,M,31.0,0469*45
[2021-02-23 10:04:39.729] $GPGGA,010439.10,3714.00165022,N,13701.48573952,E,2,11,0.9,99.138,M,36.772,M,31.0,0469*46
[2021-02-23 10:04:39.839] $GPGGA,010439.20,3714.00165021,N,13701.48573948,E,2,11,0.9,99.138,M,36.772,M,31.2,0469*4F
[2021-02-23 10:04:39.933] $GPGGA,010439.30,3714.00165019,N,13701.48573944,E,2,11,0.9,99.138,M,36.772,M,31.2,0469*49
[2021-02-23 10:04:40.042] $GPGGA,010439.40,3714.00165016,N,13701.48573940,E,2,11,0.9,99.138,M,36.772,M,31.4,0469*43
[2021-02-23 10:04:40.136] $GPGGA,010439.50,3714.00165014,N,13701.48573935,E,2,11,0.9,99.138,M,36.772,M,31.4,0469*42
[2021-02-23 10:04:40.245] $GPGGA,010439.60,3714.00165013,N,13701.48573930,E,2,11,0.9,99.138,M,36.772,M,31.6,0469*41
[2021-02-23 10:04:40.339] $GPGGA,010439.70,3714.00165011,N,13701.48573925,E,2,11,0.9,99.138,M,36.772,M,31.6,0469*46
[2021-02-23 10:04:40.448] $GPGGA,010439.80,3714.00165009,N,13701.48573920,E,2,11,0.9,99.138,M,36.772,M,31.8,0469*4B
[2021-02-23 10:04:40.542] $GPGGA,010439.90,3714.00165007,N,13701.48573915,E,2,11,0.9,99.138,M,36.772,M,31.8,0469*42
[2021-02-23 10:04:40.651] $GPGGA,010440.00,3714.00165005,N,13701.48573909,E,2,11,0.9,99.138,M,36.772,M,32.0,0469*41
[2021-02-23 10:04:40.729] $GPGGA,010440.10,3714.00165003,N,13701.48573904,E,2,11,0.9,99.138,M,36.772,M,32.0,0469*4B
[2021-02-23 10:04:40.839] $GPGGA,010440.20,3714.00165001,N,13701.48573898,E,2,11,0.9,99.138,M,36.772,M,32.2,0469*4C
[2021-02-23 10:04:40.932] $GPGGA,010440.30,3714.00165000,N,13701.48573893,E,2,11,0.9,99.138,M,36.772,M,32.2,0469*47
[2021-02-23 10:04:41.042] $GPGGA,010440.40,3714.00164999,N,13701.48573888,E,2,11,0.9,99.138,M,36.772,M,32.4,0469*44
[2021-02-23 10:04:41.136] $GPGGA,010440.50,3714.00164998,N,13701.48573883,E,2,11,0.9,99.138,M,36.772,M,32.4,0469*4F
[2021-02-23 10:04:41.245] $GPGGA,010440.60,3714.00164996,N,13701.48573878,E,2,11,0.9,99.138,M,36.772,M,32.6,0469*44
[2021-02-23 10:04:41.339] $GPGGA,010440.70,3714.00164996,N,13701.48573874,E,2,11,0.9,99.138,M,36.772,M,32.6,0469*49
[2021-02-23 10:04:41.448] $GPGGA,010440.80,3714.00164995,N,13701.48573869,E,2,11,0.9,99.138,M,36.772,M,32.8,0469*47
[2021-02-23 10:04:41.542] $GPGGA,010440.90,3714.00164994,N,13701.48573864,E,2,11,0.9,99.138,M,36.772,M,32.8,0469*4A
[2021-02-23 10:04:41.651] $GPGGA,010441.00,3714.00164994,N,13701.48573859,E,2,11,0.9,99.138,M,36.772,M,33.0,0469*45
[2021-02-23 10:04:41.729] $GPGGA,010441.10,3714.00164993,N,13701.48573854,E,2,11,0.9,99.138,M,36.772,M,33.0,0469*4E
[2021-02-23 10:04:41.839] $GPGGA,010441.20,3714.00164993,N,13701.48573849,E,2,11,0.9,99.138,M,36.772,M,33.2,0469*43
[2021-02-23 10:04:41.932] $GPGGA,010441.30,3714.00164992,N,13701.48573844,E,2,11,0.9,99.138,M,36.772,M,33.2,0469*4E
[2021-02-23 10:04:42.042] $GPGGA,010441.40,3714.00164992,N,13701.48573839,E,2,11,0.9,99.138,M,36.772,M,33.4,0469*45
[2021-02-23 10:04:42.136] $GPGGA,010441.50,3714.00164991,N,13701.48573834,E,2,11,0.9,99.138,M,36.772,M,33.4,0469*4A
[2021-02-23 10:04:42.245] $GPGGA,010441.60,3714.00164991,N,13701.48573829,E,2,11,0.9,99.138,M,36.772,M,33.6,0469*47
[2021-02-23 10:04:42.339] $GPGGA,010441.70,3714.00164991,N,13701.48573824,E,2,11,0.9,99.138,M,36.772,M,33.6,0469*4B
[2021-02-23 10:04:42.448] $GPGGA,010441.80,3714.00164990,N,13701.48573818,E,2,11,0.9,99.137,M,36.772,M,33.8,0469*4B
[2021-02-23 10:04:42.542] $GPGGA,010441.90,3714.00164990,N,13701.48573813,E,2,11,0.9,99.137,M,36.772,M,33.8,0469*41
[2021-02-23 10:04:42.636] $GPGGA,010442.00,3714.00164990,N,13701.48573808,E,2,11,0.9,99.137,M,36.772,M,34.0,0469*4E
[2021-02-23 10:04:42.714] $GPGGA,010442.10,3714.00164990,N,13701.48573803,E,2,11,0.9,99.137,M,36.772,M,34.0,0469*44
[2021-02-23 10:04:42.839] $GPGGA,010442.20,3714.00164990,N,13701.48573798,E,2,11,0.9,99.137,M,36.772,M,34.2,0469*48
[2021-02-23 10:04:42.932] $GPGGA,010442.30,3714.00164991,N,13701.48573793,E,2,11,0.9,99.137,M,36.772,M,34.2,0469*43
[2021-02-23 10:04:43.042] $GPGGA,010442.40,3714.00164991,N,13701.48573788,E,2,11,0.9,99.137,M,36.772,M,34.4,0469*48
[2021-02-23 10:04:43.135] $GPGGA,010442.50,3714.00164992,N,13701.48573783,E,2,11,0.9,99.137,M,36.772,M,34.4,0469*41
[2021-02-23 10:04:43.245] $GPGGA,010442.60,3714.00164993,N,13701.48573778,E,2,11,0.9,99.137,M,36.772,M,34.6,0469*45
[2021-02-23 10:04:43.339] $GPGGA,010442.70,3714.00164994,N,13701.48573773,E,2,11,0.9,99.137,M,36.772,M,34.6,0469*48
[2021-02-23 10:04:43.448] $GPGGA,010442.80,3714.00164995,N,13701.48573767,E,2,11,0.9,99.137,M,36.772,M,34.8,0469*4D
[2021-02-23 10:04:43.542] $GPGGA,010442.90,3714.00164995,N,13701.48573762,E,2,11,0.9,99.137,M,36.772,M,34.8,0469*49
[2021-02-23 10:04:43.651] $GPGGA,010443.00,3714.00164996,N,13701.48573757,E,2,11,0.9,99.137,M,36.772,M,35.0,0469*4D
[2021-02-23 10:04:43.729] $GPGGA,010443.10,3714.00164997,N,13701.48573751,E,2,11,0.9,99.137,M,36.772,M,35.0,0469*4B
[2021-02-23 10:04:43.839] $GPGGA,010443.20,3714.00164998,N,13701.48573746,E,2,11,0.9,99.137,M,36.772,M,35.2,0469*43
[2021-02-23 10:04:43.932] $GPGGA,010443.30,3714.00164999,N,13701.48573741,E,2,11,0.9,99.138,M,36.772,M,35.2,0469*4B
[2021-02-23 10:04:44.042] $GPGGA,010443.40,3714.00165000,N,13701.48573735,E,2,11,0.9,99.138,M,36.772,M,35.4,0469*41
[2021-02-23 10:04:44.135] $GPGGA,010443.50,3714.00165001,N,13701.48573730,E,2,11,0.9,99.138,M,36.772,M,35.4,0469*44
[2021-02-23 10:04:44.245] $GPGGA,010443.60,3714.00165002,N,13701.48573724,E,2,11,0.9,99.138,M,36.772,M,35.6,0469*43
[2021-02-23 10:04:44.338] $GPGGA,010443.70,3714.00165003,N,13701.48573718,E,2,11,0.9,99.138,M,36.772,M,35.6,0469*4C
[2021-02-23 10:04:44.448] $GPGGA,010443.80,3714.00165005,N,13701.48573713,E,2,11,0.9,99.138,M,36.772,M,35.8,0469*40
[2021-02-23 10:04:44.542] $GPGGA,010443.90,3714.00165006,N,13701.48573707,E,2,11,0.9,99.138,M,36.772,M,35.8,0469*47
[2021-02-23 10:04:44.651] $GPGGA,010444.00,3714.00165008,N,13701.48573701,E,2,11,0.9,99.138,M,36.772,M,36.0,0469*4A
[2021-02-23 10:04:44.729] $GPGGA,010444.10,3714.00165010,N,13701.48573695,E,2,11,0.9,99.138,M,36.772,M,36.0,0469*4E
[2021-02-23 10:04:44.838] $GPGGA,010444.20,3714.00165012,N,13701.48573689,E,2,11,0.9,99.138,M,36.772,M,36.2,0469*40
[2021-02-23 10:04:44.932] $GPGGA,010444.30,3714.00165013,N,13701.48573683,E,2,11,0.9,99.138,M,36.772,M,36.2,0469*4A
[2021-02-23 10:04:45.042] $GPGGA,010444.40,3714.00165015,N,13701.48573677,E,2,11,0.9,99.138,M,36.772,M,36.4,0469*46
[2021-02-23 10:04:45.135] $GPGGA,010444.50,3714.00165018,N,13701.48573671,E,2,11,0.9,99.138,M,36.772,M,36.4,0469*4C
[2021-02-23 10:04:45.245] $GPGGA,010444.60,3714.00165020,N,13701.48573665,E,2,11,0.9,99.138,M,36.772,M,36.6,0469*43
[2021-02-23 10:04:45.338] $GPGGA,010444.70,3714.00165022,N,13701.48573659,E,2,11,0.9,99.138,M,36.772,M,36.6,0469*4F
[2021-02-23 10:04:45.448] $GPGGA,010444.80,3714.00165024,N,13701.48573653,E,2,11,0.9,99.138,M,36.772,M,36.8,0469*42
[2021-02-23 10:04:46.666] $GPGGA,010444.90,3714.00165027,N,13701.48573647,E,2,11,0.9,99.138,M,36.772,M,36.8,0469*45
[2021-02-23 10:04:46.666] $GPGGA,010445.00,3714.00165029,N,13701.48573640,E,2,11,0.9,99.138,M,36.772,M,37.0,0469*4D
[2021-02-23 10:04:46.666] $GPGGA,010445.10,3714.00165031,N,13701.48573634,E,2,11,0.9,99.138,M,36.772,M,37.0,0469*46
[2021-02-23 10:04:46.666] $GPGGA,010445.20,3714.00165033,N,13701.48573628,E,2,11,0.9,99.138,M,36.772,M,37.2,0469*48
[2021-02-23 10:04:46.666] $GPGGA,010445.30,3714.00165036,N,13701.48573622,E,2,11,0.9,99.138,M,36.772,M,37.2,0469*46
[2021-02-23 10:04:46.666] $GPGGA,010445.40,3714.00165038,N,13701.48573616,E,2,11,0.9,99.138,M,36.772,M,37.4,0469*4E
[2021-02-23 10:04:46.666] $GPGGA,010445.50,3714.00165040,N,13701.48573610,E,2,11,0.9,99.138,M,36.772,M,37.4,0469*46
[2021-02-23 10:04:46.666] $GPGGA,010445.60,3714.00165043,N,13701.48573604,E,2,11,0.9,99.138,M,36.772,M,37.6,0469*41
[2021-02-23 10:04:46.666] $GPGGA,010445.70,3714.00165045,N,13701.48573598,E,2,11,0.9,99.138,M,36.772,M,37.6,0469*40
[2021-02-23 10:04:46.666] $GPGGA,010445.80,3714.00165047,N,13701.48573591,E,2,11,0.9,99.138,M,36.772,M,37.8,0469*4A
[2021-02-23 10:04:46.666] $GPGGA,010445.90,3714.00165050,N,13701.48573585,E,2,11,0.9,99.138,M,36.772,M,37.8,0469*48
[2021-02-23 10:04:46.666] $GPGGA,010446.00,3714.00165052,N,13701.48573579,E,2,11,0.9,99.138,M,36.772,M,38.0,0469*44
[2021-02-23 10:04:46.729] $GPGGA,010446.10,3714.00165055,N,13701.48573572,E,2,11,0.9,99.138,M,36.772,M,38.0,0469*49
[2021-02-23 10:04:46.838] $GPGGA,010446.20,3714.00165057,N,13701.48573566,E,2,11,0.9,99.138,M,36.772,M,38.2,0469*4F
[2021-02-23 10:04:46.932] $GPGGA,010446.30,3714.00165060,N,13701.48573560,E,2,11,0.9,99.138,M,36.772,M,38.2,0469*4C
[2021-02-23 10:04:47.041] $GPGGA,010446.40,3714.00165063,N,13701.48573554,E,2,11,0.9,99.138,M,36.772,M,38.4,0469*49
[2021-02-23 10:04:47.135] $GPGGA,010446.50,3714.00165065,N,13701.48573547,E,2,11,0.9,99.138,M,36.772,M,38.4,0469*4C
[2021-02-23 10:04:47.245] $GPGGA,010446.60,3714.00165068,N,13701.48573541,E,2,11,0.9,99.139,M,36.772,M,38.6,0469*47
[2021-02-23 10:04:47.338] $GPGGA,010446.70,3714.00165071,N,13701.48573535,E,2,11,0.9,99.139,M,36.772,M,38.6,0469*4D
[2021-02-23 10:04:47.448] $GPGGA,010446.80,3714.00165074,N,13701.48573528,E,2,11,0.9,99.139,M,36.772,M,38.8,0469*45
[2021-02-23 10:04:47.541] $GPGGA,010446.90,3714.00165076,N,13701.48573522,E,2,11,0.9,99.139,M,36.772,M,38.8,0469*4C
[2021-02-23 10:04:47.651] $GPGGA,010447.00,3714.00165079,N,13701.48573515,E,2,11,0.9,99.139,M,36.772,M,39.0,0469*46
[2021-02-23 10:04:47.729] $GPGGA,010447.10,3714.00165082,N,13701.48573509,E,2,11,0.9,99.139,M,36.772,M,39.0,0469*4E
[2021-02-23 10:04:47.838] $GPGGA,010447.20,3714.00165084,N,13701.48573502,E,2,11,0.9,99.139,M,36.772,M,39.2,0469*42
