
[2021-02-23 10:05:13.774] $GPGGA,010504.90,3714.00165032,N,13701.48572076,E,2,11,0.9,99.140,M,36.772,M,53.8,0469*4D
[2021-02-23 10:05:13.805] $GPGGA,010505.00,3714.00165031,N,13701.48572070,E,2,11,0.9,99.140,M,36.772,M,54.0,0469*4F
[2021-02-23 10:05:13.805] $GPGGA,010505.10,3714.00165030,N,13701.48572065,E,2,11,0.9,99.140,M,36.772,M,54.0,0469*4B
[2021-02-23 10:05:13.805] $GPGGA,010505.20,3714.00165029,N,13701.48572060,E,2,11,0.9,99.140,M,36.772,M,54.2,0469*47
[2021-02-23 10:05:13.805] $GPGGA,010505.30,3714.00165029,N,13701.48572054,E,2,11,0.9,99.140,M,36.772,M,54.2,0469*41
[2021-02-23 10:05:13.805] $GPGGA,010505.40,3714.00165028,N,13701.48572049,E,2,11,0.9,99.140,M,36.772,M,54.4,0469*4D
[2021-02-23 10:05:13.805] $GPGGA,010505.50,3714.00165027,N,13701.48572043,E,2,11,0.9,99.140,M,36.772,M,54.4,0469*49
[2021-02-23 10:05:13.805] $GPGGA,010505.60,3714.00165026,N,13701.48572038,E,2,11,0.9,99.139,M,36.772,M,54.6,0469*4B
[2021-02-23 10:05:13.805] $GPGGA,010505.70,3714.00165025,N,13701.48572032,E,2,11,0.9,99.139,M,36.772,M,54.6,0469*43
[2021-02-23 10:05:13.805] $GPGGA,010505.80,3714.00165024,N,13701.48572027,E,2,11,0.9,99.139,M,36.772,M,54.8,0469*47
[2021-02-23 10:05:13.805] $GPGGA,010505.90,3714.00165023,N,13701.48572022,E,2,11,0.9,99.139,M,36.772,M,54.8,0469*44
[2021-02-23 10:05:13.805] $GPGGA,010506.00,3714.00165022,N,13701.48572017,E,2,11,0.9,99.139,M,36.772,M,55.0,0469*40
[2021-02-23 10:05:13.805] $GPGGA,010506.10,3714.00165021,N,13701.48572011,E,2,11,0.9,99.139,M,36.772,M,55.0,0469*44
[2021-02-23 10:05:13.821] $GPGGA,010506.20,3714.00165020,N,13701.48572006,E,2,11,0.9,99.139,M,36.772,M,55.2,0469*42
[2021-02-23 10:05:13.821] $GPGGA,010506.30,3714.00165020,N,13701.48572001,E,2,11,0.9,99.139,M,36.772,M,55.2,0469*44
[2021-02-23 10:05:13.821] $GPGGA,010506.40,3714.00165019,N,13701.48571996,E,2,11,0.9,99.139,M,36.772,M,55.4,0469*4B
[2021-02-23 10:05:13.821] $GPGGA,010506.50,3714.00165018,N,13701.48571991,E,2,11,0.9,99.139,M,36.772,M,55.4,0469*4C
[2021-02-23 10:05:13.821] $GPGGA,010506.60,3714.00165017,N,13701.48571986,E,2,11,0.9,99.139,M,36.772,M,55.6,0469*44
[2021-02-23 10:05:13.821] $GPGGA,010506.70,3714.00165016,N,13701.48571980,E,2,11,0.9,99.139,M,36.772,M,55.6,0469*42
[2021-02-23 10:05:13.821] $GPGGA,010506.80,3714.00165016,N,13701.48571975,E,2,11,0.9,99.139,M,36.772,M,55.8,0469*49
[2021-02-23 10:05:13.821] $GPGGA,010506.90,3714.00165015,N,13701.48571970,E,2,11,0.9,99.139,M,36.772,M,55.8,0469*4E
[2021-02-23 10:05:13.821] $GPGGA,010507.00,3714.00165013,N,13701.48571958,E,2,11,0.9,99.139,M,36.772,M,56.0,0469*41
[2021-02-23 10:05:13.821] $GPGGA,010507.10,3714.00165011,N,13701.48571940,E,2,11,0.9,99.139,M,36.772,M,56.0,0469*4B
[2021-02-23 10:05:13.821] $GPGGA,010507.20,3714.00165009,N,13701.48571921,E,2,11,0.9,99.139,M,36.772,M,56.2,0469*44
[2021-02-23 10:05:13.836] $GPGGA,010507.30,3714.00165006,N,13701.48571902,E,2,11,0.9,99.139,M,36.772,M,56.2,0469*4B
[2021-02-23 10:05:13.836] $GPGGA,010507.40,3714.00165005,N,13701.48571890,E,2,11,0.9,99.139,M,36.772,M,56.4,0469*43
[2021-02-23 10:05:13.836] $GPGGA,010507.50,3714.00165004,N,13701.48571885,E,2,11,0.9,99.139,M,36.772,M,56.4,0469*47
[2021-02-23 10:05:13.836] $GPGGA,010507.60,3714.00165003,N,13701.48571880,E,2,11,0.9,99.139,M,36.772,M,56.6,0469*44
[2021-02-23 10:05:13.836] $GPGGA,010507.70,3714.00165002,N,13701.48571875,E,2,11,0.9,99.139,M,36.772,M,56.6,0469*4E
[2021-02-23 10:05:13.836] $GPGGA,010507.80,3714.00165001,N,13701.48571870,E,2,11,0.9,99.139,M,36.772,M,56.8,0469*49
[2021-02-23 10:05:13.836] $GPGGA,010507.90,3714.00165001,N,13701.48571866,E,2,11,0.9,99.139,M,36.772,M,56.8,0469*4F
[2021-02-23 10:05:13.836] $GPGGA,010508.00,3714.00165000,N,13701.48571861,E,2,11,0.9,99.138,M,36.772,M,57.0,0469*47
[2021-02-23 10:05:13.836] $GPGGA,010508.10,3714.00164999,N,13701.48571856,E,2,11,0.9,99.138,M,36.772,M,57.0,0469*4A
[2021-02-23 10:05:13.836] $GPGGA,010508.20,3714.00164998,N,13701.48571852,E,2,11,0.9,99.138,M,36.772,M,57.2,0469*4E
[2021-02-23 10:05:13.836] $GPGGA,010508.30,3714.00164998,N,13701.48571847,E,2,11,0.9,99.138,M,36.772,M,57.2,0469*4B
[2021-02-23 10:05:13.852] $GPGGA,010508.40,3714.00164997,N,13701.48571842,E,2,11,0.9,99.138,M,36.772,M,57.4,0469*40
[2021-02-23 10:05:13.852] $GPGGA,010508.50,3714.00164996,N,13701.48571838,E,2,11,0.9,99.138,M,36.772,M,57.4,0469*4D
[2021-02-23 10:05:13.852] $GPGGA,010508.60,3714.00164995,N,13701.48571827,E,2,11,0.9,99.138,M,36.772,M,57.6,0469*41
[2021-02-23 10:05:13.852] $GPGGA,010508.70,3714.00164993,N,13701.48571809,E,2,11,0.9,99.138,M,36.772,M,57.6,0469*4A
[2021-02-23 10:05:13.852] $GPGGA,010508.80,3714.00164991,N,13701.48571791,E,2,11,0.9,99.138,M,36.772,M,57.8,0469*47
[2021-02-23 10:05:13.852] $GPGGA,010508.90,3714.00164989,N,13701.48571773,E,2,11,0.9,99.138,M,36.772,M,57.8,0469*43
[2021-02-23 10:05:13.852] $GPGGA,010509.00,3714.00164987,N,13701.48571755,E,2,11,0.9,99.138,M,36.772,M,58.0,0469*46
[2021-02-23 10:05:13.852] $GPGGA,010509.10,3714.00164986,N,13701.48571736,E,2,11,0.9,99.138,M,36.772,M,58.0,0469*43
[2021-02-23 10:05:13.852] $GPGGA,010509.20,3714.00164984,N,13701.48571717,E,2,11,0.9,99.138,M,36.772,M,58.2,0469*43
[2021-02-23 10:05:13.852] $GPGGA,010509.30,3714.00164982,N,13701.48571697,E,2,11,0.9,99.138,M,36.772,M,58.2,0469*4D
[2021-02-23 10:05:13.852] $GPGGA,010509.40,3714.00164981,N,13701.48571676,E,2,11,0.9,99.137,M,36.772,M,58.4,0469*4F
[2021-02-23 10:05:13.868] $GPGGA,010509.50,3714.00164979,N,13701.48571655,E,2,11,0.9,99.137,M,36.772,M,58.4,0469*48
[2021-02-23 10:05:13.868] $GPGGA,010509.60,3714.00164978,N,13701.48571634,E,2,11,0.9,99.137,M,36.772,M,58.6,0469*4F
[2021-02-23 10:05:13.868] $GPGGA,010509.70,3714.00164976,N,13701.48571612,E,2,11,0.9,99.137,M,36.772,M,58.6,0469*44
[2021-02-23 10:05:13.868] $GPGGA,010509.80,3714.00164974,N,13701.48571590,E,2,11,0.9,99.137,M,36.772,M,58.8,0469*4E
[2021-02-23 10:05:13.868] $GPGGA,010509.90,3714.00164973,N,13701.48571567,E,2,11,0.9,99.137,M,36.772,M,58.8,0469*40
[2021-02-23 10:05:13.868] $GPGGA,010510.00,3714.00164971,N,13701.48571544,E,2,11,0.9,99.137,M,36.772,M,59.0,0469*4B
[2021-02-23 10:05:13.868] $GPGGA,010510.10,3714.00164969,N,13701.48571521,E,2,11,0.9,99.137,M,36.772,M,59.0,0469*40
[2021-02-23 10:05:13.868] $GPGGA,010510.20,3714.00164967,N,13701.48571497,E,2,11,0.9,99.137,M,36.772,M,59.2,0469*43
[2021-02-23 10:05:13.868] $GPGGA,010510.30,3714.00164965,N,13701.48571472,E,2,11,0.9,99.136,M,36.772,M,59.2,0469*4A
[2021-02-23 10:05:13.868] $GPGGA,010510.40,3714.00164963,N,13701.48571446,E,2,11,0.9,99.136,M,36.772,M,59.4,0469*4A
[2021-02-23 10:05:13.868] $GPGGA,010510.50,3714.00164962,N,13701.48571420,E,2,11,0.9,99.136,M,36.772,M,59.4,0469*4A
[2021-02-23 10:05:13.883] $GPGGA,010510.60,3714.00164960,N,13701.48571394,E,2,11,0.9,99.136,M,36.772,M,59.6,0469*41
[2021-02-23 10:05:13.883] $GPGGA,010510.70,3714.00164957,N,13701.48571367,E,2,11,0.9,99.136,M,36.772,M,59.6,0469*48
[2021-02-23 10:05:13.883] $GPGGA,010510.80,3714.00164955,N,13701.48571340,E,2,11,0.9,99.136,M,36.772,M,59.8,0469*4E
[2021-02-23 10:05:13.883] $GPGGA,010510.90,3714.00164953,N,13701.48571312,E,2,11,0.9,99.136,M,36.772,M,59.8,0469*4E
[2021-02-23 10:05:13.883] $GPGGA,010511.00,3714.00164532,N,13701.48565720,E,2,09,1.1,99.138,M,36.772,M,7.0,0137*7E
[2021-02-23 10:05:13.883] $GPGGA,010511.10,3714.00165045,N,13701.48571154,E,2,09,1.1,99.134,M,36.772,M,7.0,0137*77
[2021-02-23 10:05:13.883] $GPGGA,010511.20,3714.00165627,N,13701.48577815,E,2,09,1.1,99.206,M,36.772,M,7.2,0137*7C
[2021-02-23 10:05:13.883] $GPGGA,010511.30,3714.00165597,N,13701.48577641,E,2,09,1.1,99.204,M,36.772,M,7.2,0137*78
[2021-02-23 10:05:13.883] $GPGGA,010511.40,3714.00166160,N,13701.48583820,E,2,09,1.1,99.258,M,36.772,M,7.4,0137*7D
[2021-02-23 10:05:13.883] $GPGGA,010511.50,3714.00166177,N,13701.48583863,E,2,09,1.1,99.259,M,36.772,M,7.4,0137*7C
[2021-02-23 10:05:13.883] $GPGGA,010511.60,3714.00166592,N,13701.48589254,E,2,09,1.1,99.302,M,36.772,M,6.6,0137*78
[2021-02-23 10:05:13.899] $GPGGA,010511.70,3714.00166680,N,13701.48589564,E,2,09,1.1,99.294,M,36.772,M,6.6,0137*73
[2021-02-23 10:05:13.899] $GPGGA,010511.80,3714.00167030,N,13701.48594478,E,2,09,1.1,99.327,M,36.772,M,6.8,0137*77
[2021-02-23 10:05:13.899] $GPGGA,010511.90,3714.00167141,N,13701.48594555,E,2,09,1.1,99.326,M,36.772,M,6.8,0137*7E
[2021-02-23 10:05:13.899] $GPGGA,010512.00,3714.00167523,N,13701.48599070,E,2,09,1.1,99.344,M,36.772,M,7.0,0137*76
[2021-02-23 10:05:13.899] $GPGGA,010512.10,3714.00167433,N,13701.48599115,E,2,09,1.1,99.344,M,36.772,M,7.0,0137*75
[2021-02-23 10:05:13.899] $GPGGA,010512.20,3714.00167658,N,13701.48603008,E,2,09,1.1,99.358,M,36.772,M,7.2,0137*7B
[2021-02-23 10:05:13.899] $GPGGA,010512.30,3714.00167673,N,13701.48603181,E,2,09,1.1,99.358,M,36.772,M,7.2,0137*73
[2021-02-23 10:05:13.899] $GPGGA,010512.40,3714.00167671,N,13701.48606627,E,2,09,1.1,99.371,M,36.772,M,7.4,0137*75
[2021-02-23 10:05:13.899] $GPGGA,010512.50,3714.00167648,N,13701.48606480,E,2,09,1.1,99.368,M,36.772,M,7.4,0137*79
[2021-02-23 10:05:13.899] $GPGGA,010512.60,3714.00167672,N,13701.48609751,E,2,09,1.1,99.375,M,36.772,M,3.6,0137*79
[2021-02-23 10:05:13.899] $GPGGA,010512.70,3714.00167655,N,13701.48609647,E,2,09,1.1,99.373,M,36.772,M,3.6,0137*7D
[2021-02-23 10:05:13.899] $GPGGA,010512.80,3714.00167640,N,13701.48612423,E,2,09,1.1,99.374,M,36.772,M,3.8,0137*75
[2021-02-23 10:05:13.899] $GPGGA,010512.90,3714.00167737,N,13701.48612374,E,2,09,1.1,99.372,M,36.772,M,3.8,0137*76
[2021-02-23 10:05:13.899] $GPGGA,010513.00,3714.00167813,N,13701.48614874,E,2,09,1.1,99.371,M,36.772,M,4.0,0137*76
[2021-02-23 10:05:13.899] $GPGGA,010513.10,3714.00167798,N,13701.48614717,E,2,09,1.1,99.367,M,36.772,M,4.0,0137*76
[2021-02-23 10:05:13.899] $GPGGA,010513.20,3714.00167706,N,13701.48616792,E,2,09,1.1,99.363,M,36.772,M,4.2,0137*7B
[2021-02-23 10:05:13.930] $GPGGA,010513.30,3714.00167569,N,13701.48617033,E,2,09,1.1,99.364,M,36.772,M,4.2,0137*7B
[2021-02-23 10:05:14.040] $GPGGA,010513.40,3714.00167404,N,13701.48618897,E,2,09,1.1,99.357,M,36.772,M,4.4,0137*79
[2021-02-23 10:05:14.133] $GPGGA,010513.50,3714.00167115,N,13701.48618727,E,2,09,1.1,99.354,M,36.772,M,4.4,0137*7A
[2021-02-23 10:05:14.243] $GPGGA,010513.60,3714.00166751,N,13701.48620549,E,2,09,1.1,99.346,M,36.772,M,4.6,0137*7E
[2021-02-23 10:05:14.336] $GPGGA,010513.70,3714.00166719,N,13701.48620329,E,2,09,1.1,99.349,M,36.772,M,4.6,0137*7C
[2021-02-23 10:05:14.446] $GPGGA,010513.80,3714.00166631,N,13701.48621834,E,2,09,1.1,99.337,M,36.772,M,4.8,0137*79
[2021-02-23 10:05:14.540] $GPGGA,010513.90,3714.00166482,N,13701.48621492,E,2,09,1.1,99.336,M,36.772,M,4.8,0137*73
[2021-02-23 10:05:14.649] $GPGGA,010514.00,3714.00166368,N,13701.48622704,E,2,09,1.1,99.329,M,36.772,M,5.0,0137*76
[2021-02-23 10:05:14.727] $GPGGA,010514.10,3714.00166293,N,13701.48622639,E,2,09,1.1,99.327,M,36.772,M,5.0,0137*73
[2021-02-23 10:05:14.852] $GPGGA,010514.20,3714.00166243,N,13701.48623784,E,2,09,1.1,99.316,M,36.772,M,5.2,0137*7B
[2021-02-23 10:05:14.930] $GPGGA,010514.30,3714.00166072,N,13701.48623752,E,2,09,1.1,99.312,M,36.772,M,5.2,0137*75
[2021-02-23 10:05:15.039] $GPGGA,010514.40,3714.00166039,N,13701.48624879,E,2,09,1.1,99.301,M,36.772,M,5.4,0137*78
[2021-02-23 10:05:15.133] $GPGGA,010514.50,3714.00165948,N,13701.48624582,E,2,09,1.1,99.299,M,36.772,M,5.4,0137*7C
[2021-02-23 10:05:15.243] $GPGGA,010514.60,3714.00166066,N,13701.48625480,E,2,09,1.1,99.285,M,36.772,M,5.6,0137*74
[2021-02-23 10:05:15.336] $GPGGA,010514.70,3714.00166056,N,13701.48625464,E,2,09,1.1,99.286,M,36.772,M,5.6,0137*7F
[2021-02-23 10:05:15.446] $GPGGA,010514.80,3714.00166238,N,13701.48626323,E,2,09,1.1,99.270,M,36.772,M,5.8,0137*7A
[2021-02-23 10:05:15.539] $GPGGA,010514.90,3714.00166082,N,13701.48626031,E,2,09,1.1,99.279,M,36.772,M,5.8,0137*71
[2021-02-23 10:05:15.649] $GPGGA,010515.00,3714.00166113,N,13701.48627150,E,2,09,1.1,99.266,M,36.772,M,6.0,0137*72
[2021-02-23 10:05:15.743] $GPGGA,010515.10,3714.00166251,N,13701.48627199,E,2,09,1.1,99.267,M,36.772,M,6.0,0137*72
[2021-02-23 10:05:15.836] $GPGGA,010515.20,3714.00166351,N,13701.48627896,E,2,09,1.1,99.256,M,36.772,M,6.2,0137*76
[2021-02-23 10:05:15.930] $GPGGA,010515.30,3714.00166343,N,13701.48627542,E,2,09,1.1,99.251,M,36.772,M,6.2,0137*77
[2021-02-23 10:05:16.039] $GPGGA,010515.40,3714.00166399,N,13701.48628054,E,2,09,1.1,99.242,M,36.772,M,6.4,0137*7E
[2021-02-23 10:05:16.133] $GPGGA,010515.50,3714.00166541,N,13701.48627755,E,2,09,1.1,99.240,M,36.772,M,6.4,0137*77
[2021-02-23 10:05:16.243] $GPGGA,010515.60,3714.00166635,N,13701.48627993,E,2,09,1.1,99.228,M,36.772,M,6.6,0137*7C
[2021-02-23 10:05:16.336] $GPGGA,010515.70,3714.00166662,N,13701.48627851,E,2,09,1.1,99.222,M,36.772,M,6.6,0137*7A
[2021-02-23 10:05:16.446] $GPGGA,010515.80,3714.00166709,N,13701.48628414,E,2,09,1.1,99.215,M,36.772,M,6.8,0137*71
[2021-02-23 10:05:16.539] $GPGGA,010515.90,3714.00166717,N,13701.48628350,E,2,09,1.1,99.210,M,36.772,M,6.8,0137*7D
[2021-02-23 10:05:16.649] $GPGGA,010516.00,3714.00166874,N,13701.48628765,E,2,09,1.1,99.199,M,36.772,M,7.0,0137*74
[2021-02-23 10:05:16.743] $GPGGA,010516.10,3714.00166791,N,13701.48628746,E,2,09,1.1,99.201,M,36.772,M,7.0,0137*72
[2021-02-23 10:05:16.852] $GPGGA,010516.20,3714.00167018,N,13701.48629217,E,2,09,1.1,99.184,M,36.772,M,7.2,0137*7A
[2021-02-23 10:05:16.930] $GPGGA,010516.30,3714.00167013,N,13701.48628967,E,2,09,1.1,99.183,M,36.772,M,7.2,0137*7A
[2021-02-23 10:05:17.039] $GPGGA,010516.40,3714.00167167,N,13701.48629105,E,2,09,1.1,99.171,M,36.772,M,7.4,0137*79
[2021-02-23 10:05:17.133] $GPGGA,010516.50,3714.00167223,N,13701.48629005,E,2,09,1.1,99.170,M,36.772,M,7.4,0137*7B
[2021-02-23 10:05:17.242] $GPGGA,010516.60,3714.00167350,N,13701.48629071,E,2,09,1.1,99.159,M,36.772,M,6.6,0137*76
[2021-02-23 10:05:17.336] $GPGGA,010516.70,3714.00167366,N,13701.48629223,E,2,09,1.1,99.157,M,36.772,M,6.6,0137*79
[2021-02-23 10:05:17.446] $GPGGA,010516.80,3714.00167460,N,13701.48629434,E,2,09,1.1,99.149,M,36.772,M,6.8,0137*76
[2021-02-23 10:05:17.539] $GPGGA,010516.90,3714.00167643,N,13701.48629376,E,2,09,1.1,99.145,M,36.772,M,6.8,0137*79
[2021-02-23 10:05:17.649] $GPGGA,010517.00,3714.00167613,N,13701.48629681,E,2,09,1.1,99.135,M,36.772,M,7.0,0137*77
[2021-02-23 10:05:17.742] $GPGGA,010517.10,3714.00167755,N,13701.48629677,E,2,09,1.1,99.134,M,36.772,M,7.0,0137*7D
[2021-02-23 10:05:17.836] $GPGGA,010517.20,3714.00167789,N,13701.48629914,E,2,09,1.1,99.124,M,36.772,M,7.2,0137*76
[2021-02-23 10:05:17.930] $GPGGA,010517.30,3714.00167840,N,13701.48629842,E,2,09,1.1,99.123,M,36.772,M,7.2,0137*78
[2021-02-23 10:05:18.039] $GPGGA,010517.40,3714.00167961,N,13701.48629973,E,2,09,1.1,99.112,M,36.772,M,7.4,0137*7A
[2021-02-23 10:05:18.133] $GPGGA,010517.50,3714.00167983,N,13701.48630105,E,2,09,1.1,99.107,M,36.772,M,7.4,0137*72
[2021-02-23 10:05:18.242] $GPGGA,010517.60,3714.00168169,N,13701.48630150,E,2,09,1.1,99.099,M,36.772,M,6.6,0137*77
[2021-02-23 10:05:18.336] $GPGGA,010517.70,3714.00168076,N,13701.48630221,E,2,09,1.1,99.098,M,36.772,M,6.6,0137*7D
[2021-02-23 10:05:18.446] $GPGGA,010517.80,3714.00168235,N,13701.48630246,E,2,09,1.1,99.089,M,36.772,M,6.8,0137*78
[2021-02-23 10:05:18.539] $GPGGA,010517.90,3714.00168237,N,13701.48630303,E,2,09,1.1,99.085,M,36.772,M,6.8,0137*77
[2021-02-23 10:05:18.649] $GPGGA,010518.00,3714.00168356,N,13701.48630467,E,2,09,1.1,99.072,M,36.772,M,7.0,0137*73
[2021-02-23 10:05:18.742] $GPGGA,010518.10,3714.00168319,N,13701.48630442,E,2,09,1.1,99.073,M,36.772,M,7.0,0137*7F
[2021-02-23 10:05:18.852] $GPGGA,010518.20,3714.00168529,N,13701.48630786,E,2,09,1.1,99.062,M,36.772,M,7.2,0137*70
[2021-02-23 10:05:18.930] $GPGGA,010518.30,3714.00168561,N,13701.48630597,E,2,09,1.1,99.059,M,36.772,M,7.2,0137*77
[2021-02-23 10:05:19.039] $GPGGA,010518.40,3714.00168713,N,13701.48630768,E,2,09,1.1,99.051,M,36.772,M,7.4,0137*7B
[2021-02-23 10:05:19.133] $GPGGA,010518.50,3714.00168958,N,13701.48630939,E,2,09,1.1,99.048,M,36.772,M,7.4,0137*79
[2021-02-23 10:05:19.242] $GPGGA,010518.60,3714.00169211,N,13701.48630729,E,2,09,1.1,99.041,M,36.772,M,3.6,0137*7D
[2021-02-23 10:05:19.336] $GPGGA,010518.70,3714.00169222,N,13701.48630785,E,2,09,1.1,99.044,M,36.772,M,3.6,0137*7F
[2021-02-23 10:05:19.445] $GPGGA,010518.80,3714.00169491,N,13701.48630749,E,2,09,1.1,99.031,M,36.772,M,3.8,0137*72
[2021-02-23 10:05:19.539] $GPGGA,010518.90,3714.00169570,N,13701.48630639,E,2,09,1.1,99.027,M,36.772,M,3.8,0137*7C
[2021-02-23 10:05:19.649] $GPGGA,010519.00,3714.00169794,N,13701.48630548,E,2,09,1.1,99.019,M,36.772,M,4.0,0137*7B
[2021-02-23 10:05:19.742] $GPGGA,010519.10,3714.00169849,N,13701.48630399,E,2,09,1.1,99.014,M,36.772,M,4.0,0137*72
[2021-02-23 10:05:19.836] $GPGGA,010519.20,3714.00170008,N,13701.48630106,E,2,09,1.1,99.003,M,36.772,M,4.2,0137*74
[2021-02-23 10:05:19.945] $GPGGA,010519.30,3714.00170121,N,13701.48630145,E,2,09,1.1,98.999,M,36.772,M,4.2,0137*73
[2021-02-23 10:05:20.039] $GPGGA,010519.40,3714.00170292,N,13701.48629925,E,2,09,1.1,98.988,M,36.772,M,4.4,0137*7F
[2021-02-23 10:05:20.133] $GPGGA,010519.50,3714.00170224,N,13701.48629866,E,2,09,1.1,98.989,M,36.772,M,4.4,0137*74
[2021-02-23 10:05:20.242] $GPGGA,010519.60,3714.00170554,N,13701.48629671,E,2,09,1.1,98.980,M,36.772,M,4.6,0137*74
[2021-02-23 10:05:20.336] $GPGGA,010519.70,3714.00170759,N,13701.48629466,E,2,09,1.1,98.980,M,36.772,M,4.6,0137*7E
[2021-02-23 10:05:20.445] $GPGGA,010519.80,3714.00171076,N,13701.48629294,E,2,09,1.1,98.975,M,36.772,M,4.8,0137*75
[2021-02-23 10:05:20.539] $GPGGA,010519.90,3714.00170900,N,13701.48629291,E,2,09,1.1,98.971,M,36.772,M,4.8,0137*7C
[2021-02-23 10:05:20.648] $GPGGA,010520.00,3714.00171270,N,13701.48629151,E,2,09,1.1,98.969,M,36.772,M,5.0,0137*7D
[2021-02-23 10:05:20.742] $GPGGA,010520.10,3714.00171519,N,13701.48629199,E,2,09,1.1,98.963,M,36.772,M,5.0,0137*7A
[2021-02-23 10:05:20.852] $GPGGA,010520.20,3714.00171962,N,13701.48628899,E,2,09,1.1,98.960,M,36.772,M,5.2,0137*70
[2021-02-23 10:05:20.930] $GPGGA,010520.30,3714.00172074,N,13701.48629064,E,2,09,1.1,98.956,M,36.772,M,5.2,0137*72
[2021-02-23 10:05:21.039] $GPGGA,010520.40,3714.00172429,N,13701.48628907,E,2,09,1.1,98.953,M,36.772,M,5.4,0137*77
[2021-02-23 10:05:21.133] $GPGGA,010520.50,3714.00172443,N,13701.48629219,E,2,09,1.1,98.948,M,36.772,M,5.4,0137*75
[2021-02-23 10:05:21.242] $GPGGA,010520.60,3714.00172695,N,13701.48629436,E,2,09,1.1,98.943,M,36.772,M,5.6,0137*7D
[2021-02-23 10:05:21.336] $GPGGA,010520.70,3714.00172837,N,13701.48629124,E,2,09,1.1,98.939,M,36.772,M,5.6,0137*71
[2021-02-23 10:05:21.445] $GPGGA,010520.80,3714.00172929,N,13701.48629112,E,2,09,1.1,98.934,M,36.772,M,5.8,0137*76
[2021-02-23 10:05:21.539] $GPGGA,010520.90,3714.00173070,N,13701.48629189,E,2,09,1.1,98.935,M,36.772,M,5.8,0137*70
[2021-02-23 10:05:21.648] $GPGGA,010521.00,3714.00173405,N,13701.48628819,E,2,09,1.1,98.925,M,36.772,M,6.0,0137*75
[2021-02-23 10:05:21.742] $GPGGA,010521.10,3714.00173508,N,13701.48628879,E,2,09,1.1,98.928,M,36.772,M,6.0,0137*73
[2021-02-23 10:05:21.852] $GPGGA,010521.20,3714.00173709,N,13701.48628578,E,2,09,1.1,98.919,M,36.772,M,6.2,0137*7F
[2021-02-23 10:05:21.930] $GPGGA,010521.30,3714.00173776,N,13701.48628739,E,2,09,1.1,98.917,M,36.772,M,6.2,0137*7F
[2021-02-23 10:05:22.039] $GPGGA,010521.40,3714.00173928,N,13701.48628594,E,2,09,1.1,98.913,M,36.772,M,6.4,0137*7A
[2021-02-23 10:05:22.133] $GPGGA,010521.50,3714.00174014,N,13701.48628507,E,2,09,1.1,98.911,M,36.772,M,6.4,0137*72
[2021-02-23 10:05:22.242] $GPGGA,010521.60,3714.00174209,N,13701.48628323,E,2,09,1.1,98.903,M,36.772,M,6.6,0137*7E
[2021-02-23 10:05:22.336] $GPGGA,010521.70,3714.00174163,N,13701.48628628,E,2,09,1.1,98.901,M,36.772,M,6.6,0137*7C
[2021-02-23 10:05:22.445] $GPGGA,010521.80,3714.00174290,N,13701.48628828,E,2,09,1.1,98.893,M,36.772,M,6.8,0137*76
[2021-02-23 10:05:22.539] $GPGGA,010521.90,3714.00174470,N,13701.48628990,E,2,09,1.1,98.897,M,36.772,M,6.8,0137*79
[2021-02-23 10:05:22.633] $GPGGA,010522.00,3714.00174537,N,13701.48628978,E,2,09,1.1,98.890,M,36.772,M,7.0,0137*79
[2021-02-23 10:05:22.711] $GPGGA,010522.10,3714.00174569,N,13701.48628720,E,2,09,1.1,98.890,M,36.772,M,7.0,0137*70
[2021-02-23 10:05:22.851] $GPGGA,010522.20,3714.00174689,N,13701.48628543,E,2,09,1.1,98.887,M,36.772,M,7.2,0137*7D
[2021-02-23 10:05:22.930] $GPGGA,010522.30,3714.00174798,N,13701.48628545,E,2,09,1.1,98.877,M,36.772,M,7.2,0137*74
[2021-02-23 10:05:23.039] $GPGGA,010522.40,3714.00174915,N,13701.48628223,E,2,09,1.1,98.871,M,36.772,M,7.4,0137*7F
[2021-02-23 10:05:23.133] $GPGGA,010522.50,3714.00174941,N,13701.48628258,E,2,08,1.1,98.877,M,36.772,M,7.4,0137*74
[2021-02-23 10:05:23.242] $GPGGA,010522.60,3714.00175144,N,13701.48628107,E,2,08,1.1,98.865,M,36.772,M,6.6,0137*72
[2021-02-23 10:05:23.336] $GPGGA,010522.70,3714.00175210,N,13701.48628134,E,2,08,1.1,98.866,M,36.772,M,6.6,0137*72
[2021-02-23 10:05:23.445] $GPGGA,010522.80,3714.00175306,N,13701.48628045,E,2,08,1.1,98.858,M,36.772,M,6.8,0137*7F
[2021-02-23 10:05:23.539] $GPGGA,010522.90,3714.00175354,N,13701.48628181,E,2,08,1.1,98.860,M,36.772,M,6.8,0137*7B
[2021-02-23 10:05:23.648] $GPGGA,010523.00,3714.00175577,N,13701.48627995,E,2,08,1.1,98.853,M,36.772,M,7.0,0137*7F
[2021-02-23 10:05:23.742] $GPGGA,010523.10,3714.00175615,N,13701.48627912,E,2,08,1.1,98.847,M,36.772,M,7.0,0137*73
[2021-02-23 10:05:23.851] $GPGGA,010523.20,3714.00175768,N,13701.48627706,E,2,08,1.1,98.843,M,36.772,M,7.2,0137*76
[2021-02-23 10:05:23.929] $GPGGA,010523.30,3714.00175737,N,13701.48627807,E,2,08,1.1,98.843,M,36.772,M,7.2,0137*73
[2021-02-23 10:05:24.039] $GPGGA,010523.40,3714.00175839,N,13701.48627722,E,2,08,1.1,98.840,M,36.772,M,7.4,0137*78
[2021-02-23 10:05:24.133] $GPGGA,010523.50,3714.00175853,N,13701.48627736,E,2,08,1.1,98.836,M,36.772,M,7.4,0137*71
[2021-02-23 10:05:24.242] $GPGGA,010523.60,3714.00175861,N,13701.48627597,E,2,08,1.1,98.830,M,36.772,M,6.6,0137*7F
[2021-02-23 10:05:24.336] $GPGGA,010523.70,3714.00175837,N,13701.48627535,E,2,08,1.1,98.832,M,36.772,M,6.6,0137*77
[2021-02-23 10:05:24.445] $GPGGA,010523.80,3714.00175925,N,13701.48627256,E,2,08,1.1,98.829,M,36.772,M,6.8,0137*7C
[2021-02-23 10:05:24.539] $GPGGA,010523.90,3714.00175952,N,13701.48627352,E,2,08,1.1,98.825,M,36.772,M,6.8,0137*74
[2021-02-23 10:05:24.648] $GPGGA,010524.00,3714.00175930,N,13701.48627132,E,2,08,1.1,98.819,M,36.772,M,7.0,0137*7C
[2021-02-23 10:05:24.742] $GPGGA,010524.10,3714.00175982,N,13701.48627114,E,2,08,1.1,98.819,M,36.772,M,7.0,0137*70
[2021-02-23 10:05:24.851] $GPGGA,010524.20,3714.00175980,N,13701.48626920,E,2,08,1.1,98.810,M,36.772,M,7.2,0137*74
[2021-02-23 10:05:24.929] $GPGGA,010524.30,3714.00176006,N,13701.48626911,E,2,08,1.1,98.810,M,36.772,M,7.2,0137*73
[2021-02-23 10:05:25.039] $GPGGA,010524.40,3714.00176109,N,13701.48626792,E,2,08,1.1,98.806,M,36.772,M,7.4,0137*7E
[2021-02-23 10:05:25.133] $GPGGA,010524.50,3714.00176041,N,13701.48626935,E,2,08,1.1,98.804,M,36.772,M,7.4,0137*73
[2021-02-23 10:05:25.242] $GPGGA,010524.60,3714.00176173,N,13701.48627050,E,2,08,1.1,98.802,M,36.772,M,3.6,0137*7B
[2021-02-23 10:05:25.336] $GPGGA,010524.70,3714.00176349,N,13701.48626947,E,2,08,1.1,98.802,M,36.772,M,3.6,0137*7F
[2021-02-23 10:05:25.445] $GPGGA,010524.80,3714.00176486,N,13701.48627043,E,2,08,1.1,98.795,M,36.772,M,3.8,0137*77
[2021-02-23 10:05:25.539] $GPGGA,010524.90,3714.00176638,N,13701.48627015,E,2,08,1.1,98.797,M,36.772,M,3.8,0137*70
[2021-02-23 10:05:25.648] $GPGGA,010525.00,3714.00176829,N,13701.48626849,E,2,08,1.1,98.789,M,36.772,M,4.0,0137*76
[2021-02-23 10:05:25.742] $GPGGA,010525.10,3714.00176913,N,13701.48626992,E,2,08,1.1,98.787,M,36.772,M,4.0,0137*76
[2021-02-23 10:05:25.851] $GPGGA,010525.20,3714.00177044,N,13701.48626924,E,2,08,1.1,98.785,M,36.772,M,4.2,0137*72
[2021-02-23 10:05:25.929] $GPGGA,010525.30,3714.00177155,N,13701.48627041,E,2,08,1.1,98.781,M,36.772,M,4.2,0137*7D
[2021-02-23 10:05:26.039] $GPGGA,010525.40,3714.00177330,N,13701.48626772,E,2,08,1.1,98.780,M,36.772,M,4.4,0137*7A
[2021-02-23 10:05:26.132] $GPGGA,010525.50,3714.00177341,N,13701.48626774,E,2,08,1.1,98.777,M,36.772,M,4.4,0137*73
[2021-02-23 10:05:26.242] $GPGGA,010525.60,3714.00177440,N,13701.48626498,E,2,08,1.1,98.770,M,36.772,M,4.6,0137*72
[2021-02-23 10:05:26.336] $GPGGA,010525.70,3714.00177492,N,13701.48626616,E,2,08,1.1,98.773,M,36.772,M,4.6,0137*7B
[2021-02-23 10:05:26.445] $GPGGA,010525.80,3714.00177534,N,13701.48626514,E,2,08,1.1,98.768,M,36.772,M,4.8,0137*7C
[2021-02-23 10:05:26.539] $GPGGA,010525.90,3714.00177659,N,13701.48626507,E,2,08,1.1,98.766,M,36.772,M,4.8,0137*79
[2021-02-23 10:05:26.648] $GPGGA,010526.00,3714.00177752,N,13701.48626394,E,2,08,1.1,98.765,M,36.772,M,5.0,0137*7F
[2021-02-23 10:05:26.742] $GPGGA,010526.10,3714.00177800,N,13701.48626727,E,2,08,1.1,98.766,M,36.772,M,5.0,0137*79
[2021-02-23 10:05:26.851] $GPGGA,010526.20,3714.00178011,N,13701.48626617,E,2,08,1.1,98.762,M,36.772,M,5.2,0137*79
[2021-02-23 10:05:26.929] $GPGGA,010526.30,3714.00178041,N,13701.48626570,E,2,08,1.1,98.758,M,36.772,M,5.2,0137*76
[2021-02-23 10:05:27.039] $GPGGA,010526.40,3714.00178101,N,13701.48626511,E,2,08,1.1,98.753,M,36.772,M,5.4,0137*7E
[2021-02-23 10:05:27.132] $GPGGA,010526.50,3714.00178183,N,13701.48626602,E,2,08,1.1,98.756,M,36.772,M,5.4,0137*71
[2021-02-23 10:05:27.242] $GPGGA,010526.60,3714.00178135,N,13701.48626375,E,2,08,1.1,98.752,M,36.772,M,5.6,0137*7C
[2021-02-23 10:05:27.335] $GPGGA,010526.70,3714.00178100,N,13701.48626348,E,2,08,1.1,98.752,M,36.772,M,5.6,0137*75
[2021-02-23 10:05:27.445] $GPGGA,010526.80,3714.00178103,N,13701.48626363,E,2,08,1.1,98.746,M,36.772,M,5.8,0137*7B
[2021-02-23 10:05:27.539] $GPGGA,010526.90,3714.00178087,N,13701.48626240,E,2,08,1.1,98.746,M,36.772,M,5.8,0137*77
[2021-02-23 10:05:27.648] $GPGGA,010527.00,3714.00178164,N,13701.48626136,E,2,08,1.1,98.741,M,36.772,M,6.0,0137*7D
[2021-02-23 10:05:27.742] $GPGGA,010527.10,3714.00178203,N,13701.48626277,E,2,08,1.1,98.739,M,36.772,M,6.0,0137*77
[2021-02-23 10:05:27.851] $GPGGA,010527.20,3714.00178448,N,13701.48626212,E,2,08,1.1,98.733,M,36.772,M,6.2,0137*76
[2021-02-23 10:05:27.929] $GPGGA,010527.30,3714.00178384,N,13701.48626221,E,2,08,1.1,98.736,M,36.772,M,6.2,0137*75
[2021-02-23 10:05:28.039] $GPGGA,010527.40,3714.00178470,N,13701.48626037,E,2,08,1.1,98.734,M,36.772,M,6.4,0137*7F
[2021-02-23 10:05:28.132] $GPGGA,010527.50,3714.00178557,N,13701.48626023,E,2,08,1.1,98.732,M,36.772,M,6.4,0137*79
[2021-02-23 10:05:28.242] $GPGGA,010527.60,3714.00178616,N,13701.48625807,E,2,08,1.1,98.731,M,36.772,M,6.6,0137*70
[2021-02-23 10:05:28.335] $GPGGA,010527.70,3714.00178703,N,13701.48625893,E,2,08,1.1,98.730,M,36.772,M,6.6,0137*78
[2021-02-23 10:05:28.445] $GPGGA,010527.80,3714.00178861,N,13701.48625836,E,2,08,1.1,98.725,M,36.772,M,6.8,0137*79
[2021-02-23 10:05:28.539] $GPGGA,010527.90,3714.00178736,N,13701.48625714,E,2,08,1.1,98.719,M,36.772,M,6.8,0137*75
[2021-02-23 10:05:28.648] $GPGGA,010528.00,3714.00178857,N,13701.48625553,E,2,08,1.1,98.719,M,36.772,M,7.0,0137*73
[2021-02-23 10:05:28.742] $GPGGA,010528.10,3714.00178985,N,13701.48625515,E,2,08,1.1,98.717,M,36.772,M,7.0,0137*70
[2021-02-23 10:05:28.851] $GPGGA,010528.20,3714.00178990,N,13701.48625388,E,2,08,1.1,98.716,M,36.772,M,7.2,0137*76
[2021-02-23 10:05:28.929] $GPGGA,010528.30,3714.00179077,N,13701.48625364,E,2,08,1.1,98.715,M,36.772,M,7.2,0137*77
[2021-02-23 10:05:29.038] $GPGGA,010528.40,3714.00179229,N,13701.48625381,E,2,08,1.1,98.714,M,36.772,M,7.4,0137*75
[2021-02-23 10:05:29.132] $GPGGA,010528.50,3714.00179266,N,13701.48625399,E,2,09,1.1,98.714,M,36.772,M,7.4,0137*77
[2021-02-23 10:05:29.242] $GPGGA,010528.60,3714.00179133,N,13701.48625413,E,2,09,1.1,98.715,M,36.772,M,6.6,0137*70
[2021-02-23 10:05:29.335] $GPGGA,010528.70,3714.00179112,N,13701.48625300,E,2,09,1.1,98.713,M,36.772,M,6.6,0137*71
[2021-02-23 10:05:29.445] $GPGGA,010528.80,3714.00178893,N,13701.48625243,E,2,09,1.1,98.714,M,36.772,M,6.8,0137*70
[2021-02-23 10:05:29.539] $GPGGA,010528.90,3714.00178880,N,13701.48625338,E,2,09,1.1,98.714,M,36.772,M,6.8,0137*7E
[2021-02-23 10:05:29.648] $GPGGA,010529.00,3714.00178906,N,13701.48625199,E,2,09,1.1,98.710,M,36.772,M,7.0,0137*7D
[2021-02-23 10:05:29.742] $GPGGA,010529.10,3714.00178772,N,13701.48625310,E,2,09,1.1,98.714,M,36.772,M,7.0,0137*76
[2021-02-23 10:05:29.851] $GPGGA,010529.20,3714.00178768,N,13701.48625339,E,2,09,1.1,98.711,M,36.772,M,7.2,0137*72
[2021-02-23 10:05:29.929] $GPGGA,010529.30,3714.00178875,N,13701.48625375,E,2,09,1.1,98.708,M,36.772,M,7.2,0137*70
[2021-02-23 10:05:30.038] $GPGGA,010529.40,3714.00178849,N,13701.48625218,E,2,09,1.1,98.705,M,36.772,M,7.4,0137*79
[2021-02-23 10:05:30.132] $GPGGA,010529.50,3714.00178984,N,13701.48625345,E,2,09,1.1,98.702,M,36.772,M,7.4,0137*76
[2021-02-23 10:05:30.242] $GPGGA,010529.60,3714.00178933,N,13701.48625204,E,2,09,1.1,98.695,M,36.772,M,6.6,0137*71
[2021-02-23 10:05:30.335] $GPGGA,010529.70,3714.00178775,N,13701.48625378,E,2,09,1.1,98.702,M,36.772,M,6.6,0137*79
[2021-02-23 10:05:30.445] $GPGGA,010529.80,3714.00178740,N,13701.48625278,E,2,09,1.1,98.700,M,36.772,M,6.8,0137*7D
[2021-02-23 10:05:30.538] $GPGGA,010529.90,3714.00178679,N,13701.48625341,E,2,09,1.1,98.697,M,36.772,M,6.8,0137*73
[2021-02-23 10:05:30.648] $GPGGA,010530.00,3714.00178444,N,13701.48625372,E,2,09,1.1,98.698,M,36.772,M,7.0,0137*78
[2021-02-23 10:05:30.742] $GPGGA,010530.10,3714.00178507,N,13701.48625365,E,2,09,1.1,98.691,M,36.772,M,7.0,0137*70
[2021-02-23 10:05:30.851] $GPGGA,010530.20,3714.00178462,N,13701.48625472,E,2,09,1.1,98.688,M,36.772,M,7.2,0137*7A
[2021-02-23 10:05:30.945] $GPGGA,010530.30,3714.00178565,N,13701.48625455,E,2,09,1.1,98.684,M,36.772,M,7.2,0137*74
[2021-02-23 10:05:31.038] $GPGGA,010530.40,3714.00178503,N,13701.48625409,E,2,09,1.1,98.679,M,36.772,M,7.4,0137*7E
[2021-02-23 10:05:31.132] $GPGGA,010530.50,3714.00178551,N,13701.48625501,E,2,09,1.1,98.679,M,36.772,M,7.4,0137*71
[2021-02-23 10:05:31.242] $GPGGA,010530.60,3714.00178604,N,13701.48625503,E,2,09,1.1,98.676,M,36.772,M,3.6,0137*7A
[2021-02-23 10:05:31.335] $GPGGA,010530.70,3714.00178646,N,13701.48625593,E,2,09,1.1,98.675,M,36.772,M,3.6,0137*77
[2021-02-23 10:05:31.445] $GPGGA,010530.80,3714.00178689,N,13701.48625709,E,2,09,1.1,98.675,M,36.772,M,3.8,0137*74
[2021-02-23 10:05:31.538] $GPGGA,010530.90,3714.00178755,N,13701.48625731,E,2,09,1.1,98.671,M,36.772,M,3.8,0137*7A
[2021-02-23 10:05:31.648] $GPGGA,010531.00,3714.00178872,N,13701.48625707,E,2,09,1.1,98.671,M,36.772,M,4.0,0137*72
[2021-02-23 10:05:31.741] $GPGGA,010531.10,3714.00178726,N,13701.48625730,E,2,09,1.1,98.669,M,36.772,M,4.0,0137*70
[2021-02-23 10:05:31.851] $GPGGA,010531.20,3714.00178673,N,13701.48625748,E,2,09,1.1,98.668,M,36.772,M,4.2,0137*7E
[2021-02-23 10:05:31.929] $GPGGA,010531.30,3714.00178835,N,13701.48625739,E,2,09,1.1,98.666,M,36.772,M,4.2,0137*7B
[2021-02-23 10:05:32.038] $GPGGA,010531.40,3714.00178769,N,13701.48625882,E,2,09,1.1,98.663,M,36.772,M,4.4,0137*76
[2021-02-23 10:05:32.132] $GPGGA,010531.50,3714.00178682,N,13701.48625772,E,2,09,1.1,98.667,M,36.772,M,4.4,0137*77
[2021-02-23 10:05:32.241] $GPGGA,010531.60,3714.00178741,N,13701.48625727,E,2,09,1.1,98.661,M,36.772,M,4.6,0137*7E
[2021-02-23 10:05:32.335] $GPGGA,010531.70,3714.00178837,N,13701.48625715,E,2,09,1.1,98.657,M,36.772,M,4.6,0137*75
[2021-02-23 10:05:32.445] $GPGGA,010531.80,3714.00178843,N,13701.48625661,E,2,09,1.1,98.655,M,36.772,M,4.8,0137*77
[2021-02-23 10:05:32.538] $GPGGA,010531.90,3714.00178762,N,13701.48625697,E,2,09,1.1,98.654,M,36.772,M,4.8,0137*72
[2021-02-23 10:05:32.632] $GPGGA,010532.00,3714.00178840,N,13701.48625612,E,2,09,1.1,98.649,M,36.772,M,5.0,0137*7F
[2021-02-23 10:05:32.710] $GPGGA,010532.10,3714.00178783,N,13701.48625613,E,2,09,1.1,98.650,M,36.772,M,5.0,0137*77
[2021-02-23 10:05:32.851] $GPGGA,010532.20,3714.00178802,N,13701.48625698,E,2,09,1.1,98.647,M,36.772,M,5.2,0137*75
[2021-02-23 10:05:32.929] $GPGGA,010532.30,3714.00178767,N,13701.48625726,E,2,09,1.1,98.646,M,36.772,M,5.2,0137*7D
[2021-02-23 10:05:33.038] $GPGGA,010532.40,3714.00178837,N,13701.48625651,E,2,09,1.1,98.641,M,36.772,M,5.4,0137*70
[2021-02-23 10:05:33.132] $GPGGA,010532.50,3714.00178893,N,13701.48625805,E,2,09,1.1,98.640,M,36.772,M,5.4,0137*71
[2021-02-23 10:05:33.241] $GPGGA,010532.60,3714.00179042,N,13701.48625974,E,2,09,1.1,98.638,M,36.772,M,5.6,0137*7D
[2021-02-23 10:05:33.335] $GPGGA,010532.70,3714.00179025,N,13701.48625991,E,2,09,1.1,98.635,M,36.772,M,5.6,0137*7B
[2021-02-23 10:05:33.444] $GPGGA,010532.80,3714.00179122,N,13701.48626077,E,2,09,1.1,98.636,M,36.772,M,5.8,0137*7D
[2021-02-23 10:05:33.538] $GPGGA,010532.90,3714.00179253,N,13701.48625990,E,2,09,1.1,98.633,M,36.772,M,5.8,0137*7F
[2021-02-23 10:05:33.648] $GPGGA,010533.00,3714.00179409,N,13701.48625938,E,2,09,1.1,98.633,M,36.772,M,6.0,0137*77
[2021-02-23 10:05:33.741] $GPGGA,010533.10,3714.00179513,N,13701.48626131,E,2,09,1.1,98.633,M,36.772,M,6.0,0137*7E
[2021-02-23 10:05:33.851] $GPGGA,010533.20,3714.00179699,N,13701.48626089,E,2,09,1.1,98.630,M,36.772,M,6.2,0137*7F
[2021-02-23 10:05:33.929] $GPGGA,010533.30,3714.00179744,N,13701.48626130,E,2,09,1.1,98.632,M,36.772,M,6.2,0137*7E
[2021-02-23 10:05:34.054] $GPGGA,010533.40,3714.00179842,N,13701.48626128,E,2,09,1.1,98.627,M,36.772,M,6.4,0137*7B
[2021-02-23 10:05:34.132] $GPGGA,010533.50,3714.00179937,N,13701.48626060,E,2,09,1.1,98.625,M,36.772,M,6.4,0137*76
[2021-02-23 10:05:34.241] $GPGGA,010533.60,3714.00180031,N,13701.48626077,E,2,09,1.1,98.625,M,36.772,M,6.6,0137*78
[2021-02-23 10:05:34.335] $GPGGA,010533.70,3714.00179968,N,13701.48625844,E,2,09,1.1,98.627,M,36.772,M,6.6,0137*73
[2021-02-23 10:05:34.444] $GPGGA,010533.80,3714.00180047,N,13701.48625956,E,2,09,1.1,98.626,M,36.772,M,6.8,0137*73
[2021-02-23 10:05:34.538] $GPGGA,010533.90,3714.00179888,N,13701.48625796,E,2,09,1.1,98.625,M,36.772,M,6.8,0137*7E
[2021-02-23 10:05:34.648] $GPGGA,010534.00,3714.00179853,N,13701.48625801,E,2,09,1.1,98.627,M,36.772,M,7.0,0137*7C
[2021-02-23 10:05:34.741] $GPGGA,010534.10,3714.00179782,N,13701.48625607,E,2,09,1.1,98.627,M,36.772,M,7.0,0137*76
[2021-02-23 10:05:34.851] $GPGGA,010534.20,3714.00179764,N,13701.48625583,E,2,09,1.1,98.628,M,36.772,M,7.2,0137*7F
[2021-02-23 10:05:34.929] $GPGGA,010534.30,3714.00179885,N,13701.48625396,E,2,09,1.1,98.621,M,36.772,M,7.2,0137*75
[2021-02-23 10:05:35.038] $GPGGA,010534.40,3714.00179785,N,13701.48625496,E,2,09,1.1,98.624,M,36.772,M,7.4,0137*79
[2021-02-23 10:05:35.132] $GPGGA,010534.50,3714.00179686,N,13701.48625220,E,2,09,1.1,98.627,M,36.772,M,7.4,0137*72
[2021-02-23 10:05:35.241] $GPGGA,010534.60,3714.00179759,N,13701.48625174,E,2,09,1.1,98.623,M,36.772,M,6.6,0137*77
[2021-02-23 10:05:35.335] $GPGGA,010534.70,3714.00179725,N,13701.48624963,E,2,09,1.1,98.621,M,36.772,M,6.6,0137*70
[2021-02-23 10:05:35.444] $GPGGA,010534.80,3714.00179760,N,13701.48624867,E,2,09,1.1,98.621,M,36.772,M,6.8,0137*75
[2021-02-23 10:05:35.538] $GPGGA,010534.90,3714.00179631,N,13701.48624823,E,2,09,1.1,98.621,M,36.772,M,6.8,0137*71
[2021-02-23 10:05:35.647] $GPGGA,010535.00,3714.00179599,N,13701.48624748,E,2,09,1.1,98.618,M,36.772,M,7.0,0137*79
[2021-02-23 10:05:35.741] $GPGGA,010535.10,3714.00179651,N,13701.48624859,E,2,09,1.1,98.617,M,36.772,M,7.0,0137*7F
[2021-02-23 10:05:35.851] $GPGGA,010535.20,3714.00179683,N,13701.48624767,E,2,09,1.1,98.615,M,36.772,M,7.2,0137*71
[2021-02-23 10:05:35.929] $GPGGA,010535.30,3714.00179677,N,13701.48624806,E,2,09,1.1,98.613,M,36.772,M,7.2,0137*75
[2021-02-23 10:05:36.038] $GPGGA,010535.40,3714.00179774,N,13701.48624959,E,2,09,1.1,98.615,M,36.772,M,7.4,0137*7B
[2021-02-23 10:05:36.132] $GPGGA,010535.50,3714.00179846,N,13701.48624792,E,2,09,1.1,98.610,M,36.772,M,7.4,0137*78
[2021-02-23 10:05:36.241] $GPGGA,010535.60,3714.00179883,N,13701.48624930,E,2,09,1.1,98.611,M,36.772,M,6.6,0137*76
[2021-02-23 10:05:36.335] $GPGGA,010535.70,3714.00179991,N,13701.48624852,E,2,09,1.1,98.607,M,36.772,M,6.6,0137*77
[2021-02-23 10:05:36.444] $GPGGA,010535.80,3714.00179977,N,13701.48624853,E,2,09,1.1,98.606,M,36.772,M,6.8,0137*7E
[2021-02-23 10:05:36.538] $GPGGA,010535.90,3714.00180026,N,13701.48624559,E,2,09,1.1,98.605,M,36.772,M,6.8,0137*70
[2021-02-23 10:05:36.647] $GPGGA,010536.00,3714.00180035,N,13701.48624680,E,2,09,1.1,98.603,M,36.772,M,7.0,0137*70
[2021-02-23 10:05:36.741] $GPGGA,010536.10,3714.00180107,N,13701.48624524,E,2,09,1.1,98.602,M,36.772,M,7.0,0137*7D
[2021-02-23 10:05:36.850] $GPGGA,010536.20,3714.00180068,N,13701.48624594,E,2,09,1.1,98.602,M,36.772,M,7.2,0137*7F
[2021-02-23 10:05:36.929] $GPGGA,010536.30,3714.00180033,N,13701.48624566,E,2,09,1.1,98.598,M,36.772,M,7.2,0137*7D
[2021-02-23 10:05:37.038] $GPGGA,010536.40,3714.00179952,N,13701.48624422,E,2,09,1.1,98.601,M,36.772,M,7.4,0137*76
[2021-02-23 10:05:39.085] $GPGGA,010536.50,3714.00179986,N,13701.48624260,E,2,09,1.1,98.601,M,36.772,M,7.4,0137*7E
[2021-02-23 10:05:39.100] $GPGGA,010536.60,3714.00179986,N,13701.48624074,E,2,09,1.1,98.598,M,36.772,M,3.6,0137*7F
[2021-02-23 10:05:39.100] $GPGGA,010536.70,3714.00180059,N,13701.48624108,E,2,09,1.1,98.597,M,36.772,M,3.6,0137*76
[2021-02-23 10:05:39.100] $GPGGA,010536.80,3714.00180210,N,13701.48623963,E,2,09,1.1,98.596,M,36.772,M,3.8,0137*7B
[2021-02-23 10:05:39.100] $GPGGA,010536.90,3714.00180283,N,13701.48623778,E,2,09,1.1,98.595,M,36.772,M,3.8,0137*77
[2021-02-23 10:05:39.100] $GPGGA,010537.00,3714.00180519,N,13701.48623657,E,2,09,1.1,98.592,M,36.772,M,4.0,0137*7F
[2021-02-23 10:05:39.100] $GPGGA,010537.10,3714.00180463,N,13701.48623619,E,2,09,1.1,98.593,M,36.772,M,4.0,0137*79
[2021-02-23 10:05:39.100] $GPGGA,010537.20,3714.00180545,N,13701.48623113,E,2,09,1.1,98.591,M,36.772,M,4.2,0137*72
[2021-02-23 10:05:39.100] $GPGGA,010537.30,3714.00180740,N,13701.48622949,E,2,09,1.1,98.588,M,36.772,M,4.2,0137*7A
[2021-02-23 10:05:39.100] $GPGGA,010537.40,3714.00180910,N,13701.48623033,E,2,09,1.1,98.587,M,36.772,M,4.4,0137*7A
[2021-02-23 10:05:39.100] $GPGGA,010537.50,3714.00180846,N,13701.48623129,E,2,09,1.1,98.588,M,36.772,M,4.4,0137*7C
[2021-02-23 10:05:39.100] $GPGGA,010537.60,3714.00180899,N,13701.48623297,E,2,09,1.1,98.589,M,36.772,M,4.6,0137*78
[2021-02-23 10:05:39.100] $GPGGA,010537.70,3714.00180985,N,13701.48623493,E,2,09,1.1,98.592,M,36.772,M,4.6,0137*7D
[2021-02-23 10:05:39.100] $GPGGA,010537.80,3714.00181224,N,13701.48623527,E,2,09,1.1,98.591,M,36.772,M,4.8,0137*70
[2021-02-23 10:05:39.100] $GPGGA,010537.90,3714.00181185,N,13701.48623420,E,2,09,1.1,98.587,M,36.772,M,4.8,0137*78
[2021-02-23 10:05:39.100] $GPGGA,010538.00,3714.00181273,N,13701.48623266,E,2,09,1.1,98.591,M,36.772,M,5.0,0137*7E
[2021-02-23 10:05:39.100] $GPGGA,010538.10,3714.00181338,N,13701.48623362,E,2,09,1.1,98.588,M,36.772,M,5.0,0137*7C
[2021-02-23 10:05:39.100] $GPGGA,010538.20,3714.00181286,N,13701.48623382,E,2,09,1.1,98.589,M,36.772,M,5.2,0137*76
[2021-02-23 10:05:39.100] $GPGGA,010538.30,3714.00181383,N,13701.48623350,E,2,09,1.1,98.586,M,36.772,M,5.2,0137*73
[2021-02-23 10:05:39.100] $GPGGA,010538.40,3714.00181437,N,13701.48623531,E,2,09,1.1,98.587,M,36.772,M,5.4,0137*7A
[2021-02-23 10:05:39.147] $GPGGA,010538.50,3714.00181521,N,13701.48623441,E,2,09,1.1,98.582,M,36.772,M,5.4,0137*7E
[2021-02-23 10:05:39.241] $GPGGA,010538.60,3714.00181439,N,13701.48623374,E,2,09,1.1,98.581,M,36.772,M,5.6,0137*75
[2021-02-23 10:05:39.335] $GPGGA,010538.70,3714.00181377,N,13701.48623005,E,2,09,1.1,98.581,M,36.772,M,5.6,0137*7C
[2021-02-23 10:05:39.444] $GPGGA,010538.80,3714.00181450,N,13701.48622930,E,2,09,1.1,98.575,M,36.772,M,5.8,0137*7A
[2021-02-23 10:05:39.538] $GPGGA,010538.90,3714.00181460,N,13701.48622872,E,2,09,1.1,98.580,M,36.772,M,5.8,0137*75
[2021-02-23 10:05:39.647] $GPGGA,010539.00,3714.00181515,N,13701.48622865,E,2,09,1.1,98.580,M,36.772,M,6.0,0137*73
[2021-02-23 10:05:39.741] $GPGGA,010539.10,3714.00181613,N,13701.48622956,E,2,09,1.1,98.579,M,36.772,M,6.0,0137*70
[2021-02-23 10:05:39.850] $GPGGA,010539.20,3714.00181601,N,13701.48622968,E,2,09,1.1,98.581,M,36.772,M,6.2,0137*78
[2021-02-23 10:05:39.944] $GPGGA,010539.30,3714.00181728,N,13701.48622898,E,2,09,1.1,98.581,M,36.772,M,6.2,0137*7D
[2021-02-23 10:05:40.038] $GPGGA,010539.40,3714.00181755,N,13701.48622787,E,2,09,1.1,98.581,M,36.772,M,6.4,0137*77
[2021-02-23 10:05:40.131] $GPGGA,010539.50,3714.00181850,N,13701.48622602,E,2,09,1.1,98.581,M,36.772,M,6.4,0137*70
[2021-02-23 10:05:40.241] $GPGGA,010539.60,3714.00181905,N,13701.48622530,E,2,09,1.1,98.581,M,36.772,M,6.6,0137*72
[2021-02-23 10:05:40.335] $GPGGA,010539.70,3714.00181957,N,13701.48622745,E,2,09,1.1,98.577,M,36.772,M,6.6,0137*7D
[2021-02-23 10:05:40.444] $GPGGA,010539.80,3714.00182112,N,13701.48622532,E,2,09,1.1,98.576,M,36.772,M,6.8,0137*75
