
[2021-02-23 10:01:35.280] $GNGGA,010112.30,3714.00183929,N,13701.48603769,E,4,12,0.9,99.373,M,36.772,M,1.3,0439*63
[2021-02-23 10:01:35.311] $GNGGA,010112.40,3714.00184120,N,13701.48604084,E,4,12,0.9,99.370,M,36.772,M,1.4,0439*65
[2021-02-23 10:01:35.311] $GNGGA,010112.50,3714.00183821,N,13701.48603838,E,4,12,0.9,99.374,M,36.772,M,1.5,0439*66
[2021-02-23 10:01:35.311] $GNGGA,010112.60,3714.00184030,N,13701.48603944,E,4,12,0.9,99.369,M,36.772,M,1.6,0439*6F
[2021-02-23 10:01:35.311] $GNGGA,010112.70,3714.00183840,N,13701.48604089,E,4,12,0.9,99.376,M,36.772,M,1.7,0439*66
[2021-02-23 10:01:35.311] $GNGGA,010112.80,3714.00184024,N,13701.48603879,E,4,12,0.9,99.372,M,36.772,M,1.8,0439*6F
[2021-02-23 10:01:35.311] $GNGGA,010112.90,3714.00184102,N,13701.48603940,E,4,12,0.9,99.373,M,36.772,M,1.9,0439*60
[2021-02-23 10:01:35.311] $GNGGA,010113.00,3714.00183828,N,13701.48603809,E,4,12,0.9,99.369,M,36.772,M,2.0,0439*63
[2021-02-23 10:01:35.311] $GNGGA,010113.10,3714.00184037,N,13701.48603886,E,4,12,0.9,99.375,M,36.772,M,2.1,0439*68
[2021-02-23 10:01:35.311] $GNGGA,010113.20,3714.00184087,N,13701.48603945,E,4,13,0.8,99.364,M,36.772,M,1.2,0439*6E
[2021-02-23 10:01:35.311] $GNGGA,010113.30,3714.00183790,N,13701.48604120,E,4,13,0.8,99.359,M,36.772,M,1.3,0439*6A
[2021-02-23 10:01:35.311] $GNGGA,010113.40,3714.00184206,N,13701.48603557,E,4,13,0.8,99.377,M,36.772,M,1.4,0439*68
[2021-02-23 10:01:35.311] $GNGGA,010113.50,3714.00183973,N,13701.48603945,E,4,13,0.8,99.374,M,36.772,M,1.5,0439*6A
[2021-02-23 10:01:35.327] $GNGGA,010113.60,3714.00183975,N,13701.48603899,E,4,13,0.8,99.364,M,36.772,M,1.6,0439*6D
[2021-02-23 10:01:35.327] $GNGGA,010113.70,3714.00184027,N,13701.48604222,E,4,13,0.8,99.366,M,36.772,M,1.7,0439*6B
[2021-02-23 10:01:35.327] $GNGGA,010113.80,3714.00184053,N,13701.48604226,E,4,13,0.8,99.365,M,36.772,M,1.8,0439*6F
[2021-02-23 10:01:35.327] $GNGGA,010113.90,3714.00184064,N,13701.48604132,E,4,13,0.8,99.368,M,36.772,M,1.9,0439*60
[2021-02-23 10:01:35.327] $GNGGA,010114.00,3714.00184216,N,13701.48604237,E,4,12,0.9,99.372,M,36.772,M,1.0,0439*6D
[2021-02-23 10:01:35.327] $GNGGA,010114.10,3714.00183983,N,13701.48604097,E,4,12,0.9,99.371,M,36.772,M,1.1,0439*66
[2021-02-23 10:01:35.327] $GNGGA,010114.20,3714.00183964,N,13701.48604204,E,4,12,0.9,99.372,M,36.772,M,1.2,0439*64
[2021-02-23 10:01:35.327] $GNGGA,010114.30,3714.00184096,N,13701.48604305,E,4,12,0.9,99.372,M,36.772,M,1.3,0439*67
[2021-02-23 10:01:35.327] $GNGGA,010114.40,3714.00184097,N,13701.48604127,E,4,12,0.9,99.370,M,36.772,M,1.4,0439*66
[2021-02-23 10:01:35.327] $GNGGA,010114.50,3714.00184166,N,13701.48604228,E,4,12,0.9,99.375,M,36.772,M,1.5,0439*60
[2021-02-23 10:01:35.327] $GNGGA,010114.60,3714.00184208,N,13701.48604071,E,4,12,0.9,99.371,M,36.772,M,1.6,0439*61
[2021-02-23 10:01:35.343] $GNGGA,010114.70,3714.00184211,N,13701.48604186,E,4,12,0.9,99.370,M,36.772,M,1.7,0439*61
[2021-02-23 10:01:35.343] $GNGGA,010114.80,3714.00184373,N,13701.48604216,E,4,12,0.9,99.377,M,36.772,M,1.8,0439*69
[2021-02-23 10:01:35.343] $GNGGA,010114.90,3714.00184126,N,13701.48604323,E,4,12,0.9,99.372,M,36.772,M,1.9,0439*69
[2021-02-23 10:01:35.343] $GNGGA,010115.00,3714.00184023,N,13701.48604252,E,4,12,0.9,99.370,M,36.772,M,2.0,0439*6A
[2021-02-23 10:01:35.343] $GNGGA,010115.10,3714.00183939,N,13701.48604356,E,4,12,0.9,99.366,M,36.772,M,2.1,0439*6D
[2021-02-23 10:01:35.343] $GNGGA,010115.20,3714.00183668,N,13701.48603982,E,4,12,0.9,99.369,M,36.772,M,1.2,0439*6E
[2021-02-23 10:01:35.343] $GNGGA,010115.30,3714.00183685,N,13701.48604074,E,4,12,0.9,99.374,M,36.772,M,1.3,0439*66
[2021-02-23 10:01:35.343] $GNGGA,010115.40,3714.00183529,N,13701.48604123,E,4,12,0.9,99.379,M,36.772,M,1.4,0439*6D
[2021-02-23 10:01:35.343] $GNGGA,010115.50,3714.00183520,N,13701.48603917,E,4,12,0.9,99.375,M,36.772,M,1.5,0439*60
[2021-02-23 10:01:35.343] $GNGGA,010115.60,3714.00183737,N,13701.48604079,E,4,12,0.9,99.375,M,36.772,M,1.6,0439*62
[2021-02-23 10:01:35.343] $GNGGA,010115.70,3714.00183785,N,13701.48604121,E,4,12,0.9,99.372,M,36.772,M,1.7,0439*60
[2021-02-23 10:01:35.358] $GNGGA,010115.80,3714.00183756,N,13701.48604179,E,4,12,0.9,99.373,M,36.772,M,1.8,0439*62
[2021-02-23 10:01:35.358] $GNGGA,010115.90,3714.00183784,N,13701.48604139,E,4,12,0.9,99.374,M,36.772,M,0.9,0439*6F
[2021-02-23 10:01:35.358] $GNGGA,010116.00,3714.00183700,N,13701.48604154,E,4,12,0.9,99.367,M,36.772,M,1.0,0439*68
[2021-02-23 10:01:35.358] $GNGGA,010116.10,3714.00183693,N,13701.48603900,E,4,12,0.9,99.375,M,36.772,M,1.1,0439*6E
[2021-02-23 10:01:35.358] $GNGGA,010116.20,3714.00183952,N,13701.48604162,E,4,12,0.9,99.367,M,36.772,M,1.2,0439*64
[2021-02-23 10:01:35.358] $GNGGA,010116.30,3714.00183723,N,13701.48603848,E,4,12,0.9,99.370,M,36.772,M,1.3,0439*6C
[2021-02-23 10:01:35.358] $GNGGA,010116.40,3714.00183859,N,13701.48604062,E,4,12,0.9,99.368,M,36.772,M,1.4,0439*60
[2021-02-23 10:01:35.358] $GNGGA,010116.50,3714.00183907,N,13701.48604099,E,4,12,0.9,99.369,M,36.772,M,1.5,0439*6F
[2021-02-23 10:01:35.358] $GNGGA,010116.60,3714.00183773,N,13701.48603759,E,4,12,0.9,99.367,M,36.772,M,1.6,0439*60
[2021-02-23 10:01:35.358] $GNGGA,010116.70,3714.00184024,N,13701.48603958,E,4,12,0.9,99.368,M,36.772,M,1.7,0439*62
[2021-02-23 10:01:35.358] $GNGGA,010116.80,3714.00183782,N,13701.48604063,E,4,12,0.9,99.372,M,36.772,M,1.8,0439*63
[2021-02-23 10:01:35.358] $GNGGA,010116.90,3714.00183759,N,13701.48603895,E,4,12,0.9,99.372,M,36.772,M,1.9,0439*63
[2021-02-23 10:01:35.374] $GNGGA,010117.00,3714.00183699,N,13701.48604125,E,4,12,0.9,99.371,M,36.772,M,2.0,0439*6A
[2021-02-23 10:01:35.374] $GNGGA,010117.10,3714.00183852,N,13701.48603622,E,4,12,0.9,99.373,M,36.772,M,1.1,0439*65
[2021-02-23 10:01:35.374] $GNGGA,010117.20,3714.00183880,N,13701.48603551,E,4,12,0.9,99.373,M,36.772,M,1.2,0439*6D
[2021-02-23 10:01:35.374] $GNGGA,010117.30,3714.00184032,N,13701.48603650,E,4,12,0.9,99.378,M,36.772,M,1.3,0439*62
[2021-02-23 10:01:35.374] $GNGGA,010117.40,3714.00183816,N,13701.48603722,E,4,12,0.9,99.374,M,36.772,M,1.4,0439*63
[2021-02-23 10:01:35.374] $GNGGA,010117.50,3714.00183952,N,13701.48603576,E,4,12,0.9,99.376,M,36.772,M,1.5,0439*63
[2021-02-23 10:01:35.374] $GNGGA,010117.60,3714.00183847,N,13701.48603915,E,4,12,0.9,99.375,M,36.772,M,1.6,0439*6C
[2021-02-23 10:01:35.374] $GNGGA,010117.70,3714.00183772,N,13701.48603611,E,4,12,0.9,99.378,M,36.772,M,1.7,0439*63
[2021-02-23 10:01:35.374] $GNGGA,010117.80,3714.00183749,N,13701.48603494,E,4,12,0.9,99.376,M,36.772,M,1.8,0439*6A
[2021-02-23 10:01:35.374] $GNGGA,010117.90,3714.00183690,N,13701.48603650,E,4,12,0.9,99.374,M,36.772,M,1.9,0439*67
[2021-02-23 10:01:35.374] $GNGGA,010118.00,3714.00183554,N,13701.48603624,E,4,12,0.9,99.376,M,36.772,M,2.0,0439*61
[2021-02-23 10:01:35.390] $GNGGA,010118.10,3714.00183931,N,13701.48604051,E,4,12,0.9,99.371,M,36.772,M,1.1,0439*69
[2021-02-23 10:01:35.390] $GNGGA,010118.20,3714.00183999,N,13701.48604150,E,4,12,0.9,99.377,M,36.772,M,1.2,0439*6D
[2021-02-23 10:01:35.390] $GNGGA,010118.30,3714.00184007,N,13701.48604479,E,4,12,0.9,99.372,M,36.772,M,1.3,0439*6F
[2021-02-23 10:01:35.390] $GNGGA,010118.40,3714.00184045,N,13701.48604202,E,4,12,0.9,99.374,M,36.772,M,1.4,0439*65
[2021-02-23 10:01:35.390] $GNGGA,010118.50,3714.00183939,N,13701.48604127,E,4,12,0.9,99.377,M,36.772,M,1.5,0439*67
[2021-02-23 10:01:35.390] $GNGGA,010118.60,3714.00183967,N,13701.48604102,E,4,12,0.9,99.369,M,36.772,M,1.6,0439*64
[2021-02-23 10:01:35.390] $GNGGA,010118.70,3714.00184029,N,13701.48604034,E,4,12,0.9,99.378,M,36.772,M,1.7,0439*64
[2021-02-23 10:01:35.390] $GNGGA,010118.80,3714.00183905,N,13701.48604095,E,4,12,0.9,99.376,M,36.772,M,1.8,0439*61
[2021-02-23 10:01:35.390] $GNGGA,010118.90,3714.00183874,N,13701.48604073,E,4,12,0.9,99.372,M,36.772,M,1.9,0439*6A
[2021-02-23 10:01:35.390] $GNGGA,010119.00,3714.00183787,N,13701.48603985,E,4,12,0.9,99.379,M,36.772,M,1.0,0439*64
[2021-02-23 10:01:35.390] $GNGGA,010119.10,3714.00183846,N,13701.48603823,E,4,12,0.9,99.372,M,36.772,M,1.1,0439*60
[2021-02-23 10:01:35.405] $GNGGA,010119.20,3714.00183810,N,13701.48603608,E,4,12,0.9,99.375,M,36.772,M,1.2,0439*63
[2021-02-23 10:01:35.405] $GNGGA,010119.30,3714.00183617,N,13701.48603792,E,4,12,0.9,99.370,M,36.772,M,1.3,0439*6D
[2021-02-23 10:01:35.405] $GNGGA,010119.40,3714.00183568,N,13701.48603583,E,4,12,0.9,99.374,M,36.772,M,1.4,0439*60
[2021-02-23 10:01:35.405] $GNGGA,010119.50,3714.00183666,N,13701.48603692,E,4,12,0.9,99.370,M,36.772,M,1.5,0439*6A
[2021-02-23 10:01:35.405] $GNGGA,010119.60,3714.00183619,N,13701.48603789,E,4,12,0.9,99.374,M,36.772,M,1.6,0439*6D
[2021-02-23 10:01:35.405] $GNGGA,010119.70,3714.00183530,N,13701.48603962,E,4,12,0.9,99.374,M,36.772,M,1.7,0439*6E
[2021-02-23 10:01:35.405] $GNGGA,010119.80,3714.00183216,N,13701.48604199,E,4,12,0.9,99.370,M,36.772,M,1.8,0439*62
[2021-02-23 10:01:35.405] $GNGGA,010119.90,3714.00183456,N,13701.48603994,E,4,12,0.9,99.375,M,36.772,M,1.9,0439*67
[2021-02-23 10:01:35.405] $GNGGA,010120.00,3714.00183564,N,13701.48603774,E,4,12,0.9,99.377,M,36.772,M,2.0,0439*6C
[2021-02-23 10:01:35.405] $GNGGA,010120.10,3714.00183576,N,13701.48603955,E,4,12,0.9,99.373,M,36.772,M,2.1,0439*66
[2021-02-23 10:01:35.405] $GNGGA,010120.20,3714.00183670,N,13701.48603880,E,4,12,0.9,99.374,M,36.772,M,1.2,0439*6E
[2021-02-23 10:01:35.421] $GNGGA,010120.30,3714.00183543,N,13701.48603982,E,4,12,0.9,99.369,M,36.772,M,1.3,0439*62
[2021-02-23 10:01:35.421] $GNGGA,010120.40,3714.00183523,N,13701.48604028,E,4,12,0.9,99.377,M,36.772,M,1.4,0439*65
[2021-02-23 10:01:35.421] $GNGGA,010120.50,3714.00183816,N,13701.48604158,E,4,12,0.9,99.372,M,36.772,M,1.5,0439*6D
[2021-02-23 10:01:35.421] $GNGGA,010120.60,3714.00183553,N,13701.48604107,E,4,12,0.9,99.368,M,36.772,M,1.6,0439*60
[2021-02-23 10:01:35.421] $GNGGA,010120.70,3714.00183449,N,13701.48604219,E,4,12,0.9,99.367,M,36.772,M,1.7,0439*69
[2021-02-23 10:01:35.421] $GNGGA,010120.80,3714.00183602,N,13701.48604075,E,4,12,0.9,99.378,M,36.772,M,1.8,0439*62
[2021-02-23 10:01:35.421] $GNGGA,010120.90,3714.00183744,N,13701.48604026,E,4,12,0.9,99.375,M,36.772,M,1.9,0439*6A
[2021-02-23 10:01:35.421] $GNGGA,010121.00,3714.00183692,N,13701.48603911,E,4,12,0.9,99.368,M,36.772,M,2.0,0439*64
[2021-02-23 10:01:35.421] $GNGGA,010121.10,3714.00183768,N,13701.48603796,E,4,12,0.9,99.368,M,36.772,M,2.1,0439*61
[2021-02-23 10:01:35.421] $GNGGA,010121.20,3714.00183979,N,13701.48604040,E,4,12,0.9,99.375,M,36.772,M,2.2,0439*68
[2021-02-23 10:01:35.421] $GNGGA,010121.30,3714.00183926,N,13701.48603811,E,4,12,0.9,99.368,M,36.772,M,2.3,0439*65
[2021-02-23 10:01:35.421] $GNGGA,010121.40,3714.00183735,N,13701.48603865,E,4,12,0.8,99.371,M,36.772,M,1.4,0439*60
[2021-02-23 10:01:35.421] $G$GNGGA,010134.70,3714.00184033,N,13701.48604123,E,4,12,0.9,99.380,M,36.772,M,1.7,0439*61
[2021-02-23 10:01:35.421] $GNGGA,010134.80,3714.00184036,N,13701.48603841,E,4,12,0.9,99.375,M,36.772,M,1.8,0439*64
[2021-02-23 10:01:35.515] $GNGGA,010134.90,3714.00184191,N,13701.48603877,E,4,12,0.9,99.374,M,36.772,M,1.9,0439*6C
[2021-02-23 10:01:35.624] $GNGGA,010135.00,3714.00184237,N,13701.48604115,E,4,12,0.9,99.377,M,36.772,M,2.0,0439*68
[2021-02-23 10:01:35.718] $GNGGA,010135.10,3714.00183902,N,13701.48604337,E,4,12,0.8,99.374,M,36.772,M,1.1,0439*61
[2021-02-23 10:01:35.827] $GNGGA,010135.20,3714.00183856,N,13701.48604582,E,4,12,0.8,99.374,M,36.772,M,1.2,0439*69
[2021-02-23 10:01:35.921] $GNGGA,010135.30,3714.00183591,N,13701.48604465,E,4,12,0.8,99.378,M,36.772,M,1.3,0439*6B
[2021-02-23 10:01:36.030] $GNGGA,010135.40,3714.00183825,N,13701.48604341,E,4,12,0.8,99.374,M,36.772,M,1.4,0439*64
[2021-02-23 10:01:36.124] $GNGGA,010135.50,3714.00183714,N,13701.48604372,E,4,12,0.8,99.375,M,36.772,M,1.5,0439*68
[2021-02-23 10:01:36.233] $GNGGA,010135.60,3714.00183720,N,13701.48604244,E,4,12,0.8,99.376,M,36.772,M,1.6,0439*68
[2021-02-23 10:01:36.311] $GNGGA,010135.70,3714.00183686,N,13701.48604470,E,4,12,0.8,99.376,M,36.772,M,1.7,0439*64
[2021-02-23 10:01:36.421] $GNGGA,010135.80,3714.00183838,N,13701.48604236,E,4,12,0.8,99.380,M,36.772,M,1.8,0439*62
[2021-02-23 10:01:36.514] $GNGGA,010135.90,3714.00183704,N,13701.48604394,E,4,12,0.8,99.377,M,36.772,M,1.9,0439*63
[2021-02-23 10:01:36.624] $GNGGA,010136.00,3714.00183715,N,13701.48604471,E,4,12,0.9,99.376,M,36.772,M,1.0,0439*6C
[2021-02-23 10:01:36.718] $GNGGA,010136.10,3714.00183636,N,13701.48604092,E,4,12,0.9,99.374,M,36.772,M,1.1,0439*67
[2021-02-23 10:01:36.827] $GNGGA,010136.20,3714.00183886,N,13701.48604455,E,4,12,0.9,99.373,M,36.772,M,1.2,0439*6A
[2021-02-23 10:01:36.921] $GNGGA,010136.30,3714.00183781,N,13701.48604751,E,4,12,0.9,99.377,M,36.772,M,1.3,0439*61
[2021-02-23 10:01:37.030] $GNGGA,010136.40,3714.00183752,N,13701.48604674,E,4,12,0.9,99.375,M,36.772,M,1.4,0439*6B
[2021-02-23 10:01:37.124] $GNGGA,010136.50,3714.00183763,N,13701.48604805,E,4,12,0.9,99.379,M,36.772,M,1.5,0439*6D
[2021-02-23 10:01:37.233] $GNGGA,010136.60,3714.00183714,N,13701.48604577,E,4,12,0.9,99.371,M,36.772,M,1.6,0439*6D
[2021-02-23 10:01:37.311] $GNGGA,010136.70,3714.00183813,N,13701.48604531,E,4,12,0.9,99.379,M,36.772,M,1.7,0439*6F
[2021-02-23 10:01:37.421] $GNGGA,010136.80,3714.00183754,N,13701.48604687,E,4,12,0.9,99.377,M,36.772,M,1.8,0439*63
[2021-02-23 10:01:37.514] $GNGGA,010136.90,3714.00183826,N,13701.48604625,E,4,12,0.9,99.372,M,36.772,M,1.9,0439*64
[2021-02-23 10:01:37.624] $GNGGA,010137.00,3714.00183873,N,13701.48604892,E,4,12,0.9,99.384,M,36.772,M,1.0,0439*6E
[2021-02-23 10:01:37.718] $GNGGA,010137.10,3714.00183779,N,13701.48604406,E,4,12,0.9,99.385,M,36.772,M,1.1,0439*6B
[2021-02-23 10:01:37.827] $GNGGA,010137.20,3714.00183997,N,13701.48604679,E,4,12,0.9,99.383,M,36.772,M,1.2,0439*69
[2021-02-23 10:01:37.921] $GNGGA,010137.30,3714.00183738,N,13701.48604700,E,4,12,0.9,99.381,M,36.772,M,1.3,0439*6F
[2021-02-23 10:01:38.030] $GNGGA,010137.40,3714.00183800,N,13701.48604655,E,4,12,0.9,99.384,M,36.772,M,1.4,0439*6F
[2021-02-23 10:01:38.124] $GNGGA,010137.50,3714.00183826,N,13701.48604481,E,4,12,0.9,99.384,M,36.772,M,1.5,0439*60
[2021-02-23 10:01:38.233] $GNGGA,010137.60,3714.00183793,N,13701.48604467,E,4,12,0.9,99.379,M,36.772,M,1.6,0439*6B
[2021-02-23 10:01:38.311] $GNGGA,010137.70,3714.00183858,N,13701.48604746,E,4,12,0.9,99.385,M,36.772,M,1.7,0439*60
[2021-02-23 10:01:38.421] $GNGGA,010137.80,3714.00183748,N,13701.48604720,E,4,12,0.9,99.382,M,36.772,M,1.8,0439*69
[2021-02-23 10:01:38.514] $GNGGA,010137.90,3714.00183770,N,13701.48604576,E,4,12,0.9,99.383,M,36.772,M,1.9,0439*62
[2021-02-23 10:01:38.624] $GNGGA,010138.00,3714.00183963,N,13701.48604967,E,4,12,0.8,99.377,M,36.772,M,1.0,0439*67
[2021-02-23 10:01:38.717] $GNGGA,010138.10,3714.00183745,N,13701.48604820,E,4,12,0.8,99.369,M,36.772,M,1.1,0439*60
[2021-02-23 10:01:38.827] $GNGGA,010138.20,3714.00183716,N,13701.48604857,E,4,12,0.8,99.367,M,36.772,M,1.2,0439*68
[2021-02-23 10:01:38.921] $GNGGA,010138.30,3714.00183613,N,13701.48604981,E,4,12,0.8,99.376,M,36.772,M,1.3,0439*66
[2021-02-23 10:01:39.030] $GNGGA,010138.40,3714.00183472,N,13701.48604960,E,4,12,0.8,99.362,M,36.772,M,1.4,0439*69
[2021-02-23 10:01:39.124] $GNGGA,010138.50,3714.00183482,N,13701.48605056,E,4,12,0.8,99.373,M,36.772,M,1.5,0439*6B
[2021-02-23 10:01:39.233] $GNGGA,010138.60,3714.00183677,N,13701.48605086,E,4,12,0.8,99.369,M,36.772,M,1.6,0439*65
[2021-02-23 10:01:39.311] $GNGGA,010138.70,3714.00183795,N,13701.48604917,E,4,12,0.8,99.369,M,36.772,M,1.7,0439*68
[2021-02-23 10:01:39.421] $GNGGA,010138.80,3714.00183842,N,13701.48604786,E,4,12,0.8,99.370,M,36.772,M,1.8,0439*63
[2021-02-23 10:01:39.514] $GNGGA,010138.90,3714.00183911,N,13701.48604918,E,4,12,0.8,99.369,M,36.772,M,1.9,0439*65
[2021-02-23 10:01:39.624] $GNGGA,010139.00,3714.00183777,N,13701.48604884,E,4,12,0.8,99.372,M,36.772,M,2.0,0439*67
[2021-02-23 10:01:39.717] $GNGGA,010139.10,3714.00183942,N,13701.48604960,E,4,12,0.8,99.373,M,36.772,M,2.1,0439*65
[2021-02-23 10:01:39.827] $GNGGA,010139.20,3714.00183808,N,13701.48604811,E,4,12,0.8,99.374,M,36.772,M,1.2,0439*69
[2021-02-23 10:01:39.921] $GNGGA,010139.30,3714.00183720,N,13701.48604574,E,4,12,0.8,99.376,M,36.772,M,1.3,0439*60
[2021-02-23 10:01:40.030] $GNGGA,010139.40,3714.00183899,N,13701.48604579,E,4,12,0.8,99.374,M,36.772,M,1.4,0439*62
[2021-02-23 10:01:40.124] $GNGGA,010139.50,3714.00183839,N,13701.48604740,E,4,12,0.8,99.373,M,36.772,M,1.5,0439*67
[2021-02-23 10:01:40.233] $GNGGA,010139.60,3714.00183923,N,13701.48604654,E,4,12,0.8,99.377,M,36.772,M,1.6,0439*6D
[2021-02-23 10:01:40.311] $GNGGA,010139.70,3714.00184012,N,13701.48604769,E,4,12,0.8,99.378,M,36.772,M,1.7,0439*61
[2021-02-23 10:01:40.420] $GNGGA,010139.80,3714.00184152,N,13701.48604743,E,4,12,0.8,99.380,M,36.772,M,1.8,0439*6B
[2021-02-23 10:01:40.514] $GNGGA,010139.90,3714.00184293,N,13701.48604477,E,4,12,0.8,99.375,M,36.772,M,1.9,0439*6B
[2021-02-23 10:01:40.624] $GNGGA,010140.00,3714.00183997,N,13701.48604887,E,4,12,0.9,99.375,M,36.772,M,1.0,0439*6F
[2021-02-23 10:01:40.717] $GNGGA,010140.10,3714.00183995,N,13701.48605189,E,4,12,0.9,99.373,M,36.772,M,1.1,0439*6D
[2021-02-23 10:01:40.827] $GNGGA,010140.20,3714.00183941,N,13701.48605185,E,4,12,0.9,99.376,M,36.772,M,1.2,0439*6D
[2021-02-23 10:01:40.920] $GNGGA,010140.30,3714.00184008,N,13701.48605352,E,4,12,0.9,99.370,M,36.772,M,1.3,0439*60
[2021-02-23 10:01:41.030] $GNGGA,010140.40,3714.00184022,N,13701.48605237,E,4,12,0.9,99.377,M,36.772,M,1.4,0439*6D
[2021-02-23 10:01:41.123] $GNGGA,010140.50,3714.00184002,N,13701.48604963,E,4,12,0.9,99.373,M,36.772,M,1.5,0439*60
[2021-02-23 10:01:41.233] $GNGGA,010140.60,3714.00184070,N,13701.48605156,E,4,12,0.9,99.375,M,36.772,M,1.6,0439*6C
[2021-02-23 10:01:41.311] $GNGGA,010140.70,3714.00184130,N,13701.48605415,E,4,12,0.9,99.381,M,36.772,M,1.7,0439*60
[2021-02-23 10:01:41.420] $GNGGA,010140.80,3714.00184211,N,13701.48605199,E,4,12,0.9,99.370,M,36.772,M,1.8,0439*6F
[2021-02-23 10:01:41.514] $GNGGA,010140.90,3714.00184131,N,13701.48604999,E,4,12,0.9,99.376,M,36.772,M,1.9,0439*61
[2021-02-23 10:01:41.624] $GNGGA,010141.00,3714.00184548,N,13701.48604935,E,4,12,0.8,99.373,M,36.772,M,1.0,0439*68
[2021-02-23 10:01:41.717] $GNGGA,010141.10,3714.00184453,N,13701.48605035,E,4,12,0.8,99.376,M,36.772,M,1.1,0439*6E
[2021-02-23 10:01:41.827] $GNGGA,010141.20,3714.00184269,N,13701.48604946,E,4,12,0.8,99.378,M,36.772,M,1.2,0439*63
[2021-02-23 10:01:41.920] $GNGGA,010141.30,3714.00184405,N,13701.48604998,E,4,12,0.8,99.376,M,36.772,M,1.3,0439*62
[2021-02-23 10:01:42.030] $GNGGA,010141.40,3714.00184184,N,13701.48604974,E,4,12,0.8,99.373,M,36.772,M,1.4,0439*69
[2021-02-23 10:01:42.123] $GNGGA,010141.50,3714.00184241,N,13701.48605344,E,4,12,0.8,99.375,M,36.772,M,1.5,0439*6D
[2021-02-23 10:01:42.233] $GNGGA,010141.60,3714.00184237,N,13701.48605258,E,4,12,0.8,99.376,M,36.772,M,1.6,0439*63
[2021-02-23 10:01:42.311] $GNGGA,010141.70,3714.00184234,N,13701.48604998,E,4,12,0.8,99.377,M,36.772,M,1.7,0439*67
[2021-02-23 10:01:42.420] $GNGGA,010141.80,3714.00184140,N,13701.48604944,E,4,12,0.8,99.380,M,36.772,M,1.8,0439*6E
[2021-02-23 10:01:42.514] $GNGGA,010141.90,3714.00184302,N,13701.48604998,E,4,12,0.8,99.374,M,36.772,M,1.9,0439*60
[2021-02-23 10:01:42.639] $GNGGA,010142.00,3714.00184200,N,13701.48604875,E,4,12,0.8,99.375,M,36.772,M,2.0,0439*60
[2021-02-23 10:01:42.717] $GNGGA,010142.10,3714.00184101,N,13701.48604752,E,4,12,0.9,99.375,M,36.772,M,1.1,0439*6A
[2021-02-23 10:01:42.826] $GNGGA,010142.20,3714.00183940,N,13701.48604638,E,4,12,0.9,99.372,M,36.772,M,1.2,0439*6A
[2021-02-23 10:01:42.920] $GNGGA,010142.30,3714.00184007,N,13701.48604481,E,4,12,0.9,99.372,M,36.772,M,1.3,0439*67
[2021-02-23 10:01:43.030] $GNGGA,010142.40,3714.00183800,N,13701.48604490,E,4,12,0.9,99.374,M,36.772,M,1.4,0439*69
[2021-02-23 10:01:43.123] $GNGGA,010142.50,3714.00183681,N,13701.48604537,E,4,12,0.9,99.371,M,36.772,M,1.5,0439*67
[2021-02-23 10:01:43.233] $GNGGA,010142.60,3714.00183762,N,13701.48604775,E,4,12,0.9,99.377,M,36.772,M,1.6,0439*69
[2021-02-23 10:01:43.311] $GNGGA,010142.70,3714.00183987,N,13701.48604788,E,4,12,0.9,99.371,M,36.772,M,1.7,0439*68
[2021-02-23 10:01:43.420] $GNGGA,010142.80,3714.00183944,N,13701.48604776,E,4,12,0.9,99.376,M,36.772,M,1.8,0439*61
[2021-02-23 10:01:43.514] $GNGGA,010142.90,3714.00183995,N,13701.48604659,E,4,12,0.9,99.374,M,36.772,M,1.9,0439*63
[2021-02-23 10:01:43.639] $GNGGA,010143.00,3714.00183911,N,13701.48604763,E,4,12,0.9,99.373,M,36.772,M,2.0,0439*62
[2021-02-23 10:01:43.717] $GNGGA,010143.10,3714.00184011,N,13701.48604430,E,4,12,0.9,99.371,M,36.772,M,1.1,0439*68
[2021-02-23 10:01:43.826] $GNGGA,010143.20,3714.00183836,N,13701.48604813,E,4,12,0.9,99.373,M,36.772,M,1.2,0439*6D
[2021-02-23 10:01:43.920] $GNGGA,010143.30,3714.00183867,N,13701.48604345,E,4,12,0.9,99.378,M,36.772,M,1.3,0439*6A
[2021-02-23 10:01:44.030] $GNGGA,010143.40,3714.00183875,N,13701.48604501,E,4,12,0.9,99.371,M,36.772,M,1.4,0439*66
[2021-02-23 10:01:44.123] $GNGGA,010143.50,3714.00183969,N,13701.48604460,E,4,12,0.9,99.375,M,36.772,M,1.5,0439*68
[2021-02-23 10:01:44.233] $GNGGA,010143.60,3714.00184038,N,13701.48604446,E,4,12,0.9,99.373,M,36.772,M,1.6,0439*60
[2021-02-23 10:01:44.311] $GNGGA,010143.70,3714.00184214,N,13701.48604529,E,4,12,0.9,99.372,M,36.772,M,1.7,0439*65
[2021-02-23 10:01:44.420] $GNGGA,010143.80,3714.00184143,N,13701.48604277,E,4,12,0.9,99.372,M,36.772,M,1.8,0439*68
[2021-02-23 10:01:44.514] $GNGGA,010143.90,3714.00184373,N,13701.48604463,E,4,12,0.9,99.372,M,36.772,M,1.9,0439*6A
[2021-02-23 10:01:44.623] $GNGGA,010144.00,3714.00184461,N,13701.48604282,E,4,12,0.8,99.381,M,36.772,M,1.0,0439*6D
[2021-02-23 10:01:44.717] $GNGGA,010144.10,3714.00184343,N,13701.48604186,E,4,12,0.8,99.379,M,36.772,M,1.1,0439*6A
[2021-02-23 10:01:44.826] $GNGGA,010144.20,3714.00184310,N,13701.48604138,E,4,12,0.8,99.380,M,36.772,M,1.2,0439*6F
[2021-02-23 10:01:44.920] $GNGGA,010144.30,3714.00184390,N,13701.48604550,E,4,12,0.8,99.372,M,36.772,M,1.3,0439*60
[2021-02-23 10:01:45.030] $GNGGA,010144.40,3714.00184230,N,13701.48604504,E,4,12,0.8,99.381,M,36.772,M,1.4,0439*66
[2021-02-23 10:01:45.123] $GNGGA,010144.50,3714.00184115,N,13701.48604261,E,4,12,0.8,99.377,M,36.772,M,1.5,0439*6F
[2021-02-23 10:01:45.233] $GNGGA,010144.60,3714.00184139,N,13701.48604429,E,4,12,0.8,99.378,M,36.772,M,1.6,0439*64
[2021-02-23 10:01:45.311] $GNGGA,010144.70,3714.00184165,N,13701.48604191,E,4,12,0.8,99.371,M,36.772,M,1.7,0439*62
[2021-02-23 10:01:45.420] $GNGGA,010144.80,3714.00183954,N,13701.48604284,E,4,12,0.8,99.378,M,36.772,M,1.8,0439*61
[2021-02-23 10:01:45.514] $GNGGA,010144.90,3714.00183990,N,13701.48604303,E,4,12,0.8,99.381,M,36.772,M,1.9,0439*61
[2021-02-23 10:01:45.623] $GNGGA,010145.00,3714.00184330,N,13701.48604298,E,4,12,0.8,99.374,M,36.772,M,1.0,0439*6E
[2021-02-23 10:01:45.717] $GNGGA,010145.10,3714.00184506,N,13701.48604463,E,4,12,0.8,99.369,M,36.772,M,1.1,0439*63
[2021-02-23 10:01:45.826] $GNGGA,010145.20,3714.00184546,N,13701.48604538,E,4,12,0.8,99.369,M,36.772,M,1.2,0439*68
[2021-02-23 10:01:45.920] $GNGGA,010145.30,3714.00184468,N,13701.48604265,E,4,12,0.8,99.370,M,36.772,M,1.3,0439*62
[2021-02-23 10:01:46.029] $GNGGA,010145.40,3714.00184516,N,13701.48604207,E,4,12,0.8,99.368,M,36.772,M,1.4,0439*67
[2021-02-23 10:01:46.123] $GNGGA,010145.50,3714.00184519,N,13701.48604312,E,4,12,0.8,99.381,M,36.772,M,1.5,0439*6A
[2021-02-23 10:01:46.233] $GNGGA,010145.60,3714.00184587,N,13701.48604413,E,4,12,0.8,99.369,M,36.772,M,1.6,0439*6D
[2021-02-23 10:01:46.311] $GNGGA,010145.70,3714.00184418,N,13701.48604233,E,4,12,0.8,99.371,M,36.772,M,1.7,0439*67
[2021-02-23 10:01:46.420] $GNGGA,010145.80,3714.00184697,N,13701.48604149,E,4,12,0.8,99.361,M,36.772,M,1.8,0439*6D
[2021-02-23 10:01:46.514] $GNGGA,010145.90,3714.00184534,N,13701.48604448,E,4,12,0.8,99.368,M,36.772,M,1.9,0439*6A
[2021-02-23 10:01:46.623] $GNGGA,010146.00,3714.00184366,N,13701.48604524,E,4,12,0.8,99.380,M,36.772,M,1.0,0439*65
[2021-02-23 10:01:46.717] $GNGGA,010146.10,3714.00184551,N,13701.48604301,E,4,12,0.8,99.376,M,36.772,M,1.1,0439*6F
[2021-02-23 10:01:46.826] $GNGGA,010146.20,3714.00184470,N,13701.48604323,E,4,12,0.8,99.377,M,36.772,M,1.2,0439*6C
[2021-02-23 10:01:46.920] $GNGGA,010146.30,3714.00184591,N,13701.48604459,E,4,12,0.8,99.373,M,36.772,M,1.3,0439*6C
[2021-02-23 10:01:47.029] $GNGGA,010146.40,3714.00184411,N,13701.48604080,E,4,12,0.8,99.370,M,36.772,M,1.4,0439*66
[2021-02-23 10:01:47.123] $GNGGA,010146.50,3714.00184425,N,13701.48604171,E,4,12,0.8,99.375,M,36.772,M,1.5,0439*6B
[2021-02-23 10:01:47.232] $GNGGA,010146.60,3714.00184358,N,13701.48604223,E,4,12,0.8,99.374,M,36.772,M,1.6,0439*63
[2021-02-23 10:01:47.311] $GNGGA,010146.70,3714.00184367,N,13701.48604065,E,4,12,0.8,99.370,M,36.772,M,1.7,0439*6B
[2021-02-23 10:01:47.420] $GNGGA,010146.80,3714.00184372,N,13701.48604139,E,4,12,0.8,99.377,M,36.772,M,1.8,0439*60
[2021-02-23 10:01:47.514] $GNGGA,010146.90,3714.00184397,N,13701.48604275,E,4,12,0.8,99.367,M,36.772,M,1.9,0439*61
[2021-02-23 10:01:47.639] $GNGGA,010147.00,3714.00184212,N,13701.48604478,E,4,12,0.8,99.377,M,36.772,M,2.0,0439*65
[2021-02-23 10:01:47.717] $GNGGA,010147.10,3714.00184432,N,13701.48604560,E,4,12,0.8,99.372,M,36.772,M,2.1,0439*6C
[2021-02-23 10:01:47.826] $GNGGA,010147.20,3714.00184117,N,13701.48604534,E,4,12,0.9,99.373,M,36.772,M,1.2,0439*6C
[2021-02-23 10:01:47.920] $GNGGA,010147.30,3714.00184246,N,13701.48604407,E,4,12,0.9,99.371,M,36.772,M,1.3,0439*68
[2021-02-23 10:01:48.029] $GNGGA,010147.40,3714.00184286,N,13701.48604338,E,4,12,0.9,99.372,M,36.772,M,1.4,0439*6C
[2021-02-23 10:01:48.123] $GNGGA,010147.50,3714.00184462,N,13701.48604254,E,4,12,0.9,99.375,M,36.772,M,1.5,0439*6C
[2021-02-23 10:01:48.232] $GNGGA,010147.60,3714.00184135,N,13701.48604099,E,4,12,0.9,99.375,M,36.772,M,1.6,0439*68
[2021-02-23 10:01:48.326] $GNGGA,010147.70,3714.00184194,N,13701.48604397,E,4,12,0.9,99.374,M,36.772,M,1.7,0439*6F
[2021-02-23 10:01:48.420] $GNGGA,010147.80,3714.00183945,N,13701.48604240,E,4,12,0.9,99.375,M,36.772,M,1.8,0439*66
[2021-02-23 10:01:48.514] $GNGGA,010147.90,3714.00183956,N,13701.48604135,E,4,12,0.9,99.372,M,36.772,M,1.9,0439*62
[2021-02-23 10:01:48.623] $GNGGA,010148.00,3714.00184046,N,13701.48604547,E,4,12,0.9,99.371,M,36.772,M,2.0,0439*63
[2021-02-23 10:01:48.732] $GNGGA,010148.10,3714.00184160,N,13701.48604291,E,4,12,0.9,99.368,M,36.772,M,2.1,0439*62
[2021-02-23 10:01:48.826] $GNGGA,010148.20,3714.00183909,N,13701.48604474,E,4,12,0.8,99.365,M,36.772,M,1.2,0439*60
[2021-02-23 10:01:48.920] $GNGGA,010148.30,3714.00183976,N,13701.48604333,E,4,12,0.8,99.370,M,36.772,M,1.3,0439*68
[2021-02-23 10:01:49.029] $GNGGA,010148.40,3714.00183903,N,13701.48604315,E,4,12,0.8,99.373,M,36.772,M,1.4,0439*6D
[2021-02-23 10:01:49.123] $GNGGA,010148.50,3714.00184110,N,13701.48604121,E,4,12,0.8,99.365,M,36.772,M,1.5,0439*62
[2021-02-23 10:01:49.232] $GNGGA,010148.60,3714.00184052,N,13701.48604072,E,4,12,0.8,99.369,M,36.772,M,1.6,0439*6E
[2021-02-23 10:01:49.326] $GNGGA,010148.70,3714.00184222,N,13701.48604015,E,4,12,0.8,99.367,M,36.772,M,1.7,0439*64
[2021-02-23 10:01:49.420] $GNGGA,010148.80,3714.00184097,N,13701.48603822,E,4,12,0.8,99.372,M,36.772,M,1.8,0439*67
[2021-02-23 10:01:49.514] $GNGGA,010148.90,3714.00184245,N,13701.48604244,E,4,12,0.8,99.373,M,36.772,M,1.9,0439*66
[2021-02-23 10:01:49.623] $GNGGA,010149.00,3714.00184268,N,13701.48604274,E,4,12,0.8,99.376,M,36.772,M,2.0,0439*6D
[2021-02-23 10:01:49.717] $GNGGA,010149.10,3714.00184251,N,13701.48604394,E,4,12,0.8,99.362,M,36.772,M,2.1,0439*6D
[2021-02-23 10:01:49.826] $GNGGA,010149.20,3714.00184302,N,13701.48604260,E,4,12,0.9,99.368,M,36.772,M,1.2,0439*68
[2021-02-23 10:01:49.920] $GNGGA,010149.30,3714.00184176,N,13701.48604246,E,4,12,0.9,99.371,M,36.772,M,1.3,0439*65
[2021-02-23 10:01:50.029] $GNGGA,010149.40,3714.00184144,N,13701.48604195,E,4,12,0.9,99.367,M,36.772,M,1.4,0439*6E
[2021-02-23 10:01:50.123] $GNGGA,010149.50,3714.00184273,N,13701.48603921,E,4,12,0.9,99.368,M,36.772,M,1.5,0439*66
[2021-02-23 10:01:50.232] $GNGGA,010149.60,3714.00184054,N,13701.48604111,E,4,12,0.9,99.372,M,36.772,M,1.6,0439*66
[2021-02-23 10:01:50.326] $GNGGA,010149.70,3714.00184121,N,13701.48604250,E,4,12,0.9,99.369,M,36.772,M,1.7,0439*69
[2021-02-23 10:01:50.420] $GNGGA,010149.80,3714.00184181,N,13701.48604256,E,4,12,0.9,99.367,M,36.772,M,1.8,0439*6B
[2021-02-23 10:01:50.514] $GNGGA,010149.90,3714.00184022,N,13701.48604241,E,4,12,0.9,99.371,M,36.772,M,1.9,0439*62
[2021-02-23 10:01:50.623] $GNGGA,010150.00,3714.00183991,N,13701.48604104,E,4,12,0.8,99.372,M,36.772,M,1.0,0439*6C
[2021-02-23 10:01:50.717] $GNGGA,010150.10,3714.00183885,N,13701.48604385,E,4,12,0.8,99.370,M,36.772,M,1.1,0439*61
[2021-02-23 10:01:50.826] $GNGGA,010150.20,3714.00184107,N,13701.48604099,E,4,12,0.8,99.367,M,36.772,M,1.2,0439*6D
[2021-02-23 10:01:50.920] $GNGGA,010150.30,3714.00184158,N,13701.48604091,E,4,12,0.8,99.372,M,36.772,M,1.3,0439*6B
[2021-02-23 10:01:51.029] $GNGGA,010150.40,3714.00184091,N,13701.48604103,E,4,12,0.8,99.369,M,36.772,M,1.4,0439*6F
[2021-02-23 10:01:51.123] $GNGGA,010150.50,3714.00184109,N,13701.48604120,E,4,12,0.8,99.373,M,36.772,M,1.5,0439*65
[2021-02-23 10:01:51.232] $GNGGA,010150.60,3714.00184299,N,13701.48604232,E,4,12,0.8,99.367,M,36.772,M,1.6,0439*6A
[2021-02-23 10:01:51.326] $GNGGA,010150.70,3714.00184267,N,13701.48604074,E,4,12,0.8,99.374,M,36.772,M,1.7,0439*69
[2021-02-23 10:01:51.420] $GNGGA,010150.80,3714.00184323,N,13701.48604193,E,4,12,0.8,99.368,M,36.772,M,1.8,0439*6D
[2021-02-23 10:01:51.513] $GNGGA,010150.90,3714.00184268,N,13701.48604524,E,4,12,0.9,99.367,M,36.772,M,0.9,0439*64
[2021-02-23 10:01:51.623] $GNGGA,010151.00,3714.00184486,N,13701.48604289,E,4,12,0.9,99.371,M,36.772,M,1.0,0439*65
[2021-02-23 10:01:51.716] $GNGGA,010151.10,3714.00184451,N,13701.48604557,E,4,12,0.9,99.374,M,36.772,M,1.1,0439*6E
[2021-02-23 10:01:51.826] $GNGGA,010151.20,3714.00184452,N,13701.48604629,E,4,12,0.9,99.374,M,36.772,M,1.2,0439*67
[2021-02-23 10:01:51.920] $GNGGA,010151.30,3714.00184318,N,13701.48604508,E,4,12,0.9,99.364,M,36.772,M,1.3,0439*6F
[2021-02-23 10:01:52.029] $GNGGA,010151.40,3714.00184510,N,13701.48604518,E,4,12,0.9,99.377,M,36.772,M,1.4,0439*62
[2021-02-23 10:01:52.123] $GNGGA,010151.50,3714.00184324,N,13701.48604609,E,4,12,0.9,99.372,M,36.772,M,1.5,0439*65
[2021-02-23 10:01:52.232] $GNGGA,010151.60,3714.00184277,N,13701.48604506,E,4,12,0.9,99.376,M,36.772,M,1.6,0439*6A
[2021-02-23 10:01:52.310] $GNGGA,010151.70,3714.00184620,N,13701.48604418,E,4,12,0.9,99.372,M,36.772,M,1.7,0439*66
[2021-02-23 10:01:52.420] $GNGGA,010151.80,3714.00184632,N,13701.48604334,E,4,12,0.9,99.376,M,36.772,M,1.8,0439*68
[2021-02-23 10:01:52.513] $GNGGA,010151.90,3714.00184537,N,13701.48604446,E,4,12,0.9,99.371,M,36.772,M,1.9,0439*6B
[2021-02-23 10:01:52.638] $GNGGA,010152.00,3714.00184555,N,13701.48604600,E,4,12,0.9,99.362,M,36.772,M,1.0,0439*6E
[2021-02-23 10:01:52.716] $GNGGA,010152.10,3714.00184306,N,13701.48604500,E,4,12,0.9,99.370,M,36.772,M,1.1,0439*6E
[2021-02-23 10:01:52.826] $GNGGA,010152.20,3714.00184372,N,13701.48604570,E,4,12,0.9,99.372,M,36.772,M,1.2,0439*68
[2021-02-23 10:01:52.920] $GNGGA,010152.30,3714.00184275,N,13701.48604416,E,4,12,0.9,99.376,M,36.772,M,1.3,0439*6B
[2021-02-23 10:01:53.029] $GNGGA,010152.40,3714.00184555,N,13701.48603931,E,4,12,0.9,99.363,M,36.772,M,1.4,0439*65
[2021-02-23 10:01:53.123] $GNGGA,010152.50,3714.00184593,N,13701.48603705,E,4,12,0.9,99.364,M,36.772,M,1.5,0439*61
[2021-02-23 10:01:53.232] $GNGGA,010152.60,3714.00184323,N,13701.48603538,E,4,12,0.9,99.364,M,36.772,M,1.6,0439*60
[2021-02-23 10:01:53.326] $GNGGA,010152.70,3714.00184931,N,13701.48603657,E,4,12,0.9,99.368,M,36.772,M,1.7,0439*6F
[2021-02-23 10:01:53.420] $GNGGA,010152.80,3714.00185640,N,13701.48603948,E,4,12,0.9,99.369,M,36.772,M,1.8,0439*67
[2021-02-23 10:01:53.513] $GNGGA,010152.90,3714.00185422,N,13701.48603061,E,4,12,0.9,99.381,M,36.772,M,0.9,0439*64
[2021-02-23 10:01:53.623] $GNGGA,010153.00,3714.00185968,N,13701.48602926,E,4,12,0.9,99.380,M,36.772,M,1.0,0439*6D
[2021-02-23 10:01:53.716] $GNGGA,010153.10,3714.00185708,N,13701.48602236,E,4,12,0.9,99.389,M,36.772,M,1.1,0439*66
[2021-02-23 10:01:53.826] $GNGGA,010153.20,3714.00185776,N,13701.48602189,E,4,12,0.9,99.380,M,36.772,M,1.2,0439*61
[2021-02-23 10:01:53.920] $GNGGA,010153.30,3714.00185008,N,13701.48601785,E,4,12,0.9,99.389,M,36.772,M,1.3,0439*6F
[2021-02-23 10:01:54.029] $GNGGA,010153.40,3714.00184558,N,13701.48601819,E,4,12,0.9,99.382,M,36.772,M,1.4,0439*6F
[2021-02-23 10:01:54.123] $GNGGA,010153.50,3714.00184081,N,13701.48601618,E,4,12,0.9,99.385,M,36.772,M,1.5,0439*66
[2021-02-23 10:01:54.232] $GNGGA,010153.60,3714.00184007,N,13701.48602438,E,4,12,0.9,99.379,M,36.772,M,1.6,0439*68
[2021-02-23 10:01:54.326] $GNGGA,010153.70,3714.00184235,N,13701.48602357,E,4,12,0.9,99.391,M,36.772,M,1.7,0439*63
[2021-02-23 10:01:54.419] $GNGGA,010153.80,3714.00183896,N,13701.48601972,E,4,12,0.9,99.382,M,36.772,M,1.8,0439*6B
[2021-02-23 10:01:54.513] $GNGGA,010153.90,3714.00183933,N,13701.48602215,E,4,12,0.9,99.377,M,36.772,M,1.9,0439*66
[2021-02-23 10:01:54.623] $GNGGA,010154.00,3714.00183059,N,13701.48602899,E,4,12,0.8,99.374,M,36.772,M,1.0,0439*68
[2021-02-23 10:01:54.716] $GNGGA,010154.10,3714.00182898,N,13701.48602928,E,4,12,0.8,99.368,M,36.772,M,1.1,0439*6A
[2021-02-23 10:01:54.826] $GNGGA,010154.20,3714.00183066,N,13701.48602643,E,4,12,0.8,99.369,M,36.772,M,1.2,0439*61
[2021-02-23 10:01:54.919] $GNGGA,010154.30,3714.00183389,N,13701.48602659,E,4,12,0.8,99.370,M,36.772,M,1.3,0439*60
[2021-02-23 10:01:55.029] $GNGGA,010154.40,3714.00184040,N,13701.48602880,E,4,12,0.8,99.367,M,36.772,M,1.4,0439*6D
[2021-02-23 10:01:55.123] $GNGGA,010154.50,3714.00183886,N,13701.48602891,E,4,12,0.8,99.376,M,36.772,M,1.5,0439*68
[2021-02-23 10:01:55.232] $GNGGA,010154.60,3714.00183899,N,13701.48603217,E,4,12,0.8,99.372,M,36.772,M,1.6,0439*67
[2021-02-23 10:01:55.326] $GNGGA,010154.70,3714.00184208,N,13701.48603484,E,4,12,0.8,99.367,M,36.772,M,1.7,0439*6A
[2021-02-23 10:01:55.419] $GNGGA,010154.80,3714.00184125,N,13701.48603450,E,4,12,0.8,99.374,M,36.772,M,1.8,0439*6D
[2021-02-23 10:01:55.513] $GNGGA,010154.90,3714.00183946,N,13701.48603568,E,4,12,0.8,99.372,M,36.772,M,1.9,0439*6B
[2021-02-23 10:01:55.623] $GNGGA,010155.00,3714.00184403,N,13701.48604069,E,4,12,0.8,99.366,M,36.772,M,2.0,0439*64
[2021-02-23 10:01:55.716] $GNGGA,010155.10,3714.00184447,N,13701.48603986,E,4,12,0.8,99.372,M,36.772,M,2.1,0439*6E
[2021-02-23 10:01:55.826] $GNGGA,010155.20,3714.00184433,N,13701.48604060,E,4,12,0.8,99.369,M,36.772,M,1.2,0439*62
[2021-02-23 10:01:55.919] $GNGGA,010155.30,3714.00184419,N,13701.48604244,E,4,12,0.8,99.365,M,36.772,M,1.3,0439*62
[2021-02-23 10:01:56.029] $GNGGA,010155.40,3714.00184419,N,13701.48604154,E,4,12,0.8,99.369,M,36.772,M,1.4,0439*6C
[2021-02-23 10:01:56.123] $GNGGA,010155.50,3714.00184351,N,13701.48604242,E,4,12,0.8,99.366,M,36.772,M,1.5,0439*6C
[2021-02-23 10:01:56.232] $GNGGA,010155.60,3714.00184276,N,13701.48603995,E,4,12,0.8,99.370,M,36.772,M,1.6,0439*69
[2021-02-23 10:01:56.326] $GNGGA,010155.70,3714.00184432,N,13701.48604012,E,4,12,0.8,99.371,M,36.772,M,1.7,0439*6F
[2021-02-23 10:01:56.419] $GNGGA,010155.80,3714.00184157,N,13701.48603832,E,4,12,0.8,99.372,M,36.772,M,1.8,0439*67
[2021-02-23 10:01:56.513] $GNGGA,010155.90,3714.00184493,N,13701.48604074,E,4,12,0.8,99.370,M,36.772,M,1.9,0439*65
[2021-02-23 10:01:56.622] $GNGGA,010156.00,3714.00184226,N,13701.48604268,E,4,12,0.9,99.371,M,36.772,M,1.0,0439*61
[2021-02-23 10:01:56.716] $GNGGA,010156.10,3714.00184097,N,13701.48604339,E,4,12,0.9,99.376,M,36.772,M,1.1,0439*6B
[2021-02-23 10:01:56.826] $GNGGA,010156.20,3714.00184159,N,13701.48604179,E,4,12,0.9,99.374,M,36.772,M,1.2,0439*6C
[2021-02-23 10:01:56.919] $GNGGA,010156.30,3714.00184057,N,13701.48604260,E,4,12,0.9,99.379,M,36.772,M,1.3,0439*65
[2021-02-23 10:01:57.029] $GNGGA,010156.40,3714.00184048,N,13701.48604157,E,4,12,0.9,99.377,M,36.772,M,1.4,0439*62
[2021-02-23 10:01:57.122] $GNGGA,010156.50,3714.00184193,N,13701.48604329,E,4,12,0.9,99.372,M,36.772,M,1.5,0439*6B
[2021-02-23 10:01:57.232] $GNGGA,010156.60,3714.00184113,N,13701.48604224,E,4,12,0.9,99.374,M,36.772,M,1.6,0439*69
[2021-02-23 10:01:57.325] $GNGGA,010156.70,3714.00183992,N,13701.48604562,E,4,12,0.9,99.372,M,36.772,M,1.7,0439*6C
[2021-02-23 10:01:57.419] $GNGGA,010156.80,3714.00183927,N,13701.48604655,E,4,12,0.9,99.372,M,36.772,M,1.8,0439*65
[2021-02-23 10:01:57.513] $GNGGA,010156.90,3714.00183993,N,13701.48604839,E,4,12,0.9,99.371,M,36.772,M,1.9,0439*6D
[2021-02-23 10:01:57.638] $GNGGA,010157.00,3714.00183920,N,13701.48604971,E,4,12,0.9,99.375,M,36.772,M,2.0,0439*6E
[2021-02-23 10:01:57.716] $GNGGA,010157.10,3714.00183897,N,13701.48604675,E,4,12,0.9,99.373,M,36.772,M,1.1,0439*6D
[2021-02-23 10:01:57.826] $GNGGA,010157.20,3714.00183992,N,13701.48604784,E,4,12,0.9,99.378,M,36.772,M,1.2,0439*6D
[2021-02-23 10:01:57.919] $GNGGA,010157.30,3714.00183959,N,13701.48604738,E,4,12,0.9,99.382,M,36.772,M,1.3,0439*68
[2021-02-23 10:01:58.029] $GNGGA,010157.40,3714.00184020,N,13701.48604645,E,4,12,0.9,99.371,M,36.772,M,1.4,0439*6F
[2021-02-23 10:01:58.122] $GNGGA,010157.50,3714.00184243,N,13701.48604474,E,4,12,0.9,99.371,M,36.772,M,1.5,0439*68
[2021-02-23 10:01:58.232] $GNGGA,010157.60,3714.00183975,N,13701.48604294,E,4,12,0.9,99.377,M,36.772,M,1.6,0439*6F
[2021-02-23 10:01:58.325] $GNGGA,010157.70,3714.00184313,N,13701.48604330,E,4,12,0.9,99.372,M,36.772,M,1.7,0439*68
[2021-02-23 10:01:58.419] $GNGGA,010157.80,3714.00184773,N,13701.48604303,E,4,12,0.9,99.382,M,36.772,M,1.8,0439*65
[2021-02-23 10:01:58.513] $GNGGA,010157.90,3714.00184397,N,13701.48604839,E,4,12,0.9,99.376,M,36.772,M,1.9,0439*62
[2021-02-23 10:01:58.622] $GNGGA,010158.00,3714.00184174,N,13701.48604309,E,4,12,0.9,99.375,M,36.772,M,2.0,0439*6A
[2021-02-23 10:01:58.716] $GNGGA,010158.10,3714.00183930,N,13701.48604442,E,4,12,0.8,99.372,M,36.772,M,1.1,0439*68
[2021-02-23 10:01:58.825] $GNGGA,010158.20,3714.00183864,N,13701.48604291,E,4,12,0.8,99.373,M,36.772,M,1.2,0439*61
[2021-02-23 10:01:58.919] $GNGGA,010158.30,3714.00183918,N,13701.48603975,E,4,12,0.8,99.367,M,36.772,M,1.3,0439*68
[2021-02-23 10:01:59.029] $GNGGA,010158.40,3714.00183935,N,13701.48604074,E,4,12,0.8,99.377,M,36.772,M,1.4,0439*69
[2021-02-23 10:01:59.122] $GNGGA,010158.50,3714.00183967,N,13701.48604393,E,4,12,0.8,99.369,M,36.772,M,1.5,0439*6B
[2021-02-23 10:01:59.232] $GNGGA,010158.60,3714.00183968,N,13701.48604447,E,4,12,0.8,99.373,M,36.772,M,1.6,0439*61
[2021-02-23 10:01:59.310] $GNGGA,010158.70,3714.00184109,N,13701.48604518,E,4,12,0.8,99.370,M,36.772,M,1.7,0439*61
[2021-02-23 10:01:59.419] $GNGGA,010158.80,3714.00183926,N,13701.48604234,E,4,12,0.8,99.370,M,36.772,M,1.8,0439*6A
[2021-02-23 10:01:59.513] $GNGGA,010158.90,3714.00183978,N,13701.48604491,E,4,12,0.8,99.365,M,36.772,M,1.9,0439*6C
[2021-02-23 10:01:59.622] $GNGGA,010159.00,3714.00184001,N,13701.48603919,E,4,12,0.8,99.370,M,36.772,M,2.0,0439*60
[2021-02-23 10:01:59.716] $GNGGA,010159.10,3714.00184161,N,13701.48604179,E,4,12,0.8,99.368,M,36.772,M,1.1,0439*64
[2021-02-23 10:01:59.825] $GNGGA,010159.20,3714.00184095,N,13701.48604344,E,4,12,0.8,99.368,M,36.772,M,1.2,0439*62
[2021-02-23 10:01:59.919] $GNGGA,010159.30,3714.00184235,N,13701.48604194,E,4,12,0.8,99.374,M,36.772,M,1.3,0439*68
[2021-02-23 10:02:00.028] $GNGGA,010159.40,3714.00184352,N,13701.48604366,E,4,12,0.8,99.367,M,36.772,M,1.4,0439*65
[2021-02-23 10:02:01.758] $GNGGA,010159.50,3714.00184260,N,13701.48604546,E,4,12,0.8,99.370,M,36.772,M,1.5,0439*67
[2021-02-23 10:02:01.773] $GNGGA,010159.60,3714.00184531,N,13701.48604217,E,4,12,0.8,99.373,M,36.772,M,1.6,0439*64
[2021-02-23 10:02:01.773] $GNGGA,010159.70,3714.00184309,N,13701.48604630,E,4,12,0.8,99.374,M,36.772,M,1.7,0439*6F
[2021-02-23 10:02:01.773] $GNGGA,010159.80,3714.00184482,N,13701.48604457,E,4,12,0.8,99.370,M,36.772,M,1.8,0439*6C
[2021-02-23 10:02:01.773] $GNGGA,010159.90,3714.00184356,N,13701.48604585,E,4,12,0.8,99.371,M,36.772,M,1.9,0439*6D
[2021-02-23 10:02:01.773] $GNGGA,010200.00,3714.00184016,N,13701.48604758,E,4,12,0.9,99.383,M,36.772,M,1.0,0439*6B
[2021-02-23 10:02:01.773] $GNGGA,010200.10,3714.00183879,N,13701.48604707,E,4,12,0.9,99.382,M,36.772,M,1.1,0439*66
[2021-02-23 10:02:01.773] $GNGGA,010200.20,3714.00183937,N,13701.48604708,E,4,12,0.9,99.377,M,36.772,M,1.2,0439*68
[2021-02-23 10:02:01.773] $GNGGA,010200.30,3714.00184075,N,13701.48604987,E,4,12,0.9,99.381,M,36.772,M,1.3,0439*60
[2021-02-23 10:02:01.773] $GNGGA,010200.40,3714.00183952,N,13701.48604917,E,4,12,0.9,99.380,M,36.772,M,1.4,0439*63
[2021-02-23 10:02:01.773] $GNGGA,010200.50,3714.00183901,N,13701.48604591,E,4,12,0.9,99.381,M,36.772,M,1.5,0439*66
[2021-02-23 10:02:01.773] $GNGGA,010200.60,3714.00183978,N,13701.48604761,E,4,12,0.9,99.381,M,36.772,M,1.6,0439*65
[2021-02-23 10:02:01.773] $GNGGA,010200.70,3714.00183793,N,13701.48604984,E,4,12,0.9,99.376,M,36.772,M,1.7,0439*63
[2021-02-23 10:02:01.773] $GNGGA,010200.80,3714.00183836,N,13701.48605002,E,4,12,0.9,99.384,M,36.772,M,1.8,0439*68
[2021-02-23 10:02:01.773] $GNGGA,010200.90,3714.00183815,N,13701.48604754,E,4,12,0.9,99.377,M,36.772,M,1.9,0439*60
[2021-02-23 10:02:01.773] $GNGGA,010201.00,3714.00183731,N,13701.48604685,E,4,12,0.8,99.377,M,36.772,M,1.0,0439*64
[2021-02-23 10:02:01.773] $GNGGA,010201.10,3714.00183824,N,13701.48604604,E,4,12,0.8,99.373,M,36.772,M,1.1,0439*62
[2021-02-23 10:02:01.820] $GNGGA,010201.20,3714.00184012,N,13701.48604513,E,4,12,0.8,99.373,M,36.772,M,1.2,0439*6D
[2021-02-23 10:02:01.929] $GNGGA,010201.30,3714.00183698,N,13701.48604725,E,4,12,0.8,99.377,M,36.772,M,1.3,0439*6D
[2021-02-23 10:02:02.039] $GNGGA,010201.40,3714.00183842,N,13701.48604897,E,4,12,0.8,99.377,M,36.772,M,1.4,0439*62
[2021-02-23 10:02:02.117] $GNGGA,010201.50,3714.00183617,N,13701.48604506,E,4,12,0.8,99.379,M,36.772,M,1.5,0439*67
[2021-02-23 10:02:02.226] $GNGGA,010201.60,3714.00183611,N,13701.48604534,E,4,12,0.8,99.374,M,36.772,M,1.6,0439*6D
[2021-02-23 10:02:02.320] $GNGGA,010201.70,3714.00183599,N,13701.48604486,E,4,12,0.8,99.383,M,36.772,M,1.7,0439*6E
[2021-02-23 10:02:02.430] $GNGGA,010201.80,3714.00183641,N,13701.48604458,E,4,12,0.8,99.373,M,36.772,M,1.8,0439*64
[2021-02-23 10:02:02.523] $GNGGA,010201.90,3714.00183542,N,13701.48604484,E,4,12,0.8,99.382,M,36.772,M,1.9,0439*6B
[2021-02-23 10:02:02.633] $GNGGA,010202.00,3714.00183677,N,13701.48604458,E,4,12,0.9,99.379,M,36.772,M,1.0,0439*69
