
[2021-02-23 09:49:12.257] $GNGGA,004900.40,3714.00650253,N,13701.48838477,E,4,12,0.8,100.080,M,36.772,M,1.4,0439*57
[2021-02-23 09:49:12.288] $GNGGA,004900.50,3714.00650093,N,13701.48838435,E,4,12,0.8,100.070,M,36.772,M,1.5,0439*50
[2021-02-23 09:49:12.288] $GNGGA,004900.60,3714.00650090,N,13701.48837971,E,4,12,0.8,100.084,M,36.772,M,1.6,0439*5A
[2021-02-23 09:49:12.288] $GNGGA,004900.70,3714.00650170,N,13701.48838620,E,4,12,0.8,100.078,M,36.772,M,1.7,0439*52
[2021-02-23 09:49:12.288] $GNGGA,004900.80,3714.00650024,N,13701.48838269,E,4,12,0.8,100.073,M,36.772,M,1.8,0439*50
[2021-02-23 09:49:12.288] $GNGGA,004900.90,3714.00649575,N,13701.48838569,E,4,12,0.8,100.069,M,36.772,M,1.9,0439*55
[2021-02-23 09:49:12.288] $GNGGA,004901.00,3714.00650177,N,13701.48838104,E,4,12,0.8,100.072,M,36.772,M,1.0,0439*5F
[2021-02-23 09:49:12.288] $GNGGA,004901.10,3714.00650012,N,13701.48838434,E,4,12,0.8,100.065,M,36.772,M,1.1,0439*5D
[2021-02-23 09:49:12.288] $GNGGA,004901.20,3714.00650010,N,13701.48838127,E,4,12,0.8,100.078,M,36.772,M,1.2,0439*54
[2021-02-23 09:49:12.288] $GNGGA,004901.30,3714.00649826,N,13701.48838309,E,4,12,0.8,100.069,M,36.772,M,1.3,0439*5F
[2021-02-23 09:49:12.288] $GNGGA,004901.40,3714.00649731,N,13701.48837858,E,4,12,0.8,100.077,M,36.772,M,1.4,0439*59
[2021-02-23 09:49:12.288] $GNGGA,004901.50,3714.00649415,N,13701.48837870,E,4,12,0.8,100.079,M,36.772,M,1.5,0439*58
[2021-02-23 09:49:12.288] $GNGGA,004901.60,3714.00649434,N,13701.48838102,E,4,12,0.8,100.081,M,36.772,M,1.6,0439*5F
[2021-02-23 09:49:12.304] $GNGGA,004901.70,3714.00649266,N,13701.48838267,E,4,12,0.8,100.066,M,36.772,M,1.7,0439*57
[2021-02-23 09:49:12.304] $GNGGA,004901.80,3714.00649071,N,13701.48838105,E,4,12,0.8,100.072,M,36.772,M,1.8,0439*51
[2021-02-23 09:49:12.304] $GNGGA,004901.90,3714.00649194,N,13701.48838083,E,4,12,0.8,100.078,M,36.772,M,1.9,0439*5E
[2021-02-23 09:49:12.304] $GNGGA,004902.00,3714.00648772,N,13701.48837805,E,4,12,0.8,100.071,M,36.772,M,2.0,0439*51
[2021-02-23 09:49:12.304] $GNGGA,004902.10,3714.00648557,N,13701.48838080,E,4,12,0.8,100.072,M,36.772,M,2.1,0439*5D
[2021-02-23 09:49:12.304] $GNGGA,004902.20,3714.00648281,N,13701.48837746,E,4,12,0.8,100.077,M,36.772,M,1.2,0439*55
[2021-02-23 09:49:12.304] $GNGGA,004902.30,3714.00648344,N,13701.48837875,E,4,12,0.8,100.077,M,36.772,M,1.3,0439*52
[2021-02-23 09:49:12.304] $GNGGA,004902.40,3714.00648338,N,13701.48837400,E,4,12,0.8,100.083,M,36.772,M,1.4,0439*5C
[2021-02-23 09:49:12.304] $GNGGA,004902.50,3714.00648429,N,13701.48837125,E,4,12,0.8,100.082,M,36.772,M,1.5,0439*58
[2021-02-23 09:49:12.304] $GNGGA,004902.60,3714.00648381,N,13701.48837532,E,4,12,0.8,100.076,M,36.772,M,1.6,0439*54
[2021-02-23 09:49:12.304] $GNGGA,004902.70,3714.00648516,N,13701.48837478,E,4,12,0.8,100.079,M,36.772,M,1.7,0439*5C
[2021-02-23 09:49:12.320] $GNGGA,004902.80,3714.00648544,N,13701.48837476,E,4,12,0.8,100.084,M,36.772,M,1.8,0439*57
[2021-02-23 09:49:12.320] $GNGGA,004902.90,3714.00648297,N,13701.48837498,E,4,12,0.8,100.083,M,36.772,M,1.9,0439*59
[2021-02-23 09:49:12.320] $GNGGA,004903.00,3714.00648523,N,13701.48837612,E,4,12,0.8,100.079,M,36.772,M,2.0,0439*56
[2021-02-23 09:49:12.320] $GNGGA,004903.10,3714.00648403,N,13701.48837617,E,4,12,0.8,100.082,M,36.772,M,2.1,0439*54
[2021-02-23 09:49:12.320] $GNGGA,004903.20,3714.00648394,N,13701.48837938,E,4,12,0.8,100.075,M,36.772,M,1.2,0439*54
[2021-02-23 09:49:12.320] $GNGGA,004903.30,3714.00648229,N,13701.48837857,E,4,12,0.8,100.076,M,36.772,M,1.3,0439*58
[2021-02-23 09:49:12.320] $GNGGA,004903.40,3714.00648406,N,13701.48837675,E,4,12,0.8,100.079,M,36.772,M,1.4,0439*52
[2021-02-23 09:49:12.320] $GNGGA,004903.50,3714.00648467,N,13701.48837334,E,4,12,0.8,100.075,M,36.772,M,1.5,0439*59
[2021-02-23 09:49:12.320] $GNGGA,004903.60,3714.00648353,N,13701.48837724,E,4,12,0.8,100.081,M,36.772,M,1.6,0439*57
[2021-02-23 09:49:12.320] $GNGGA,004903.70,3714.00648326,N,13701.48837350,E,4,12,0.8,100.081,M,36.772,M,1.7,0439*52
[2021-02-23 09:49:12.320] $GNGGA,004903.80,3714.00648213,N,13701.48837090,E,4,12,0.8,100.078,M,36.772,M,1.8,0439*5C
[2021-02-23 09:49:12.335] $GNGGA,004903.90,3714.00648190,N,13701.48836979,E,4,12,0.8,100.077,M,36.772,M,1.9,0439*54
[2021-02-23 09:49:12.335] $GNGGA,004904.00,3714.00647813,N,13701.48836544,E,4,12,0.8,100.085,M,36.772,M,1.0,0439*51
[2021-02-23 09:49:12.335] $GNGGA,004904.10,3714.00648137,N,13701.48836245,E,4,12,0.8,100.068,M,36.772,M,1.1,0439*54
[2021-02-23 09:49:12.335] $GNGGA,004904.20,3714.00648200,N,13701.48836668,E,4,12,0.8,100.077,M,36.772,M,1.2,0439*56
[2021-02-23 09:49:12.335] $GNGGA,004904.30,3714.00648157,N,13701.48836367,E,4,12,0.8,100.079,M,36.772,M,1.3,0439*53
[2021-02-23 09:49:12.335] $GNGGA,004904.40,3714.00648290,N,13701.48836184,E,4,12,0.8,100.074,M,36.772,M,1.4,0439*59
[2021-02-23 09:49:12.335] $GNGGA,004904.50,3714.00648259,N,13701.48836096,E,4,12,0.8,100.073,M,36.772,M,1.5,0439*59
[2021-02-23 09:49:12.335] $GNGGA,004904.60,3714.00648230,N,13701.48836123,E,4,12,0.8,100.079,M,36.772,M,1.6,0439*53
[2021-02-23 09:49:12.335] $GNGGA,004904.70,3714.00648210,N,13701.48836093,E,4,12,0.8,100.077,M,36.772,M,1.7,0439*55
[2021-02-23 09:49:12.335] $GNGGA,004904.80,3714.00647948,N,13701.48835992,E,4,12,0.8,100.074,M,36.772,M,1.8,0439*54
[2021-02-23 09:49:12.335] $GNGGA,004904.90,3714.00648123,N,13701.48835764,E,4,12,0.8,100.073,M,36.772,M,1.9,0439*5E
[2021-02-23 09:49:12.351] $GNGGA,004905.00,3714.00648007,N,13701.48836182,E,4,12,0.8,100.077,M,36.772,M,2.0,0439*52
[2021-02-23 09:49:12.351] $GNGGA,004905.10,3714.00648434,N,13701.48835820,E,4,12,0.8,100.073,M,36.772,M,1.1,0439*53
[2021-02-23 09:49:12.351] $GNGGA,004905.20,3714.00648666,N,13701.48835659,E,4,12,0.8,100.081,M,36.772,M,1.2,0439*5B
[2021-02-23 09:49:12.351] $GNGGA,004905.30,3714.00648422,N,13701.48835767,E,4,12,0.8,100.081,M,36.772,M,1.3,0439*55
[2021-02-23 09:49:12.351] $GNGGA,004905.40,3714.00648676,N,13701.48836014,E,4,12,0.8,100.077,M,36.772,M,1.4,0439*5F
[2021-02-23 09:49:12.351] $GNGGA,004905.50,3714.00648706,N,13701.48836122,E,4,12,0.8,100.086,M,36.772,M,1.5,0439*53
[2021-02-23 09:49:12.351] $GNGGA,004905.60,3714.00648735,N,13701.48836037,E,4,12,0.8,100.073,M,36.772,M,1.6,0439*5C
[2021-02-23 09:49:12.351] $GNGGA,004905.70,3714.00648530,N,13701.48836550,E,4,12,0.8,100.079,M,36.772,M,1.7,0439*55
[2021-02-23 09:49:12.351] $GNGGA,004905.80,3714.00648424,N,13701.48836296,E,4,12,0.8,100.077,M,36.772,M,1.8,0439*52
[2021-02-23 09:49:12.351] $GNGGA,004905.90,3714.00648436,N,13701.48836646,E,4,12,0.8,100.081,M,36.772,M,1.9,0439*51
[2021-02-23 09:49:12.351] $GNGGA,004906.00,3714.00648611,N,13701.48836604,E,4,12,0.8,100.073,M,36.772,M,2.0,0439*5D
[2021-02-23 09:49:12.367] $GNGGA,004906.10,3714.00648745,N,13701.48836022,E,4,12,0.8,100.087,M,36.772,M,1.1,0439*57
[2021-02-23 09:49:12.367] $GNGGA,004906.20,3714.00649101,N,13701.48835978,E,4,12,0.8,100.079,M,36.772,M,1.2,0439*54
[2021-02-23 09:49:12.367] $GNGGA,004906.30,3714.00648980,N,13701.48835898,E,4,12,0.8,100.068,M,36.772,M,1.3,0439*5B
[2021-02-23 09:49:12.367] $GNGGA,004906.40,3714.00649134,N,13701.48835285,E,4,12,0.8,100.079,M,36.772,M,1.4,0439*5B
[2021-02-23 09:49:12.367] $GNGGA,004906.50,3714.00649043,N,13701.48835749,E,4,12,0.8,100.081,M,36.772,M,1.5,0439*58
[2021-02-23 09:49:12.367] $GNGGA,004906.60,3714.00648892,N,13701.48836047,E,4,12,0.8,100.074,M,36.772,M,1.6,0439*5D
[2021-02-23 09:49:12.367] $GNGGA,004906.70,3714.00649164,N,13701.48835721,E,4,12,0.8,100.085,M,36.772,M,1.7,0439*56
[2021-02-23 09:49:12.367] $GNGGA,004906.80,3714.00649099,N,13701.48835750,E,4,12,0.8,100.074,M,36.772,M,1.8,0439*5D
[2021-02-23 09:49:12.367] $GNGGA,004906.90,3714.00649124,N,13701.48836108,E,4,12,0.8,100.089,M,36.772,M,0.9,0439*51
[2021-02-23 09:49:12.367] $GNGGA,004907.00,3714.00649016,N,13701.48835922,E,4,12,0.8,100.081,M,36.772,M,1.0,0439*5A
[2021-02-23 09:49:12.367] $GNGGA,004907.10,3714.00648926,N,13701.48836097,E,4,12,0.8,100.102,M,36.772,M,1.1,0439*5F
[2021-02-23 09:49:12.382] $GNGGA,004907.20,3714.00649703,N,13701.48835003,E,4,12,0.8,100.089,M,36.772,M,1.2,0439*5B
[2021-02-23 09:49:12.382] $GNGGA,004907.30,3714.00649479,N,13701.48834925,E,4,12,0.8,100.081,M,36.772,M,1.3,0439*51
[2021-02-23 09:49:12.382] $GNGGA,004907.40,3714.00649617,N,13701.48834776,E,4,12,0.8,100.082,M,36.772,M,1.4,0439*50
[2021-02-23 09:49:12.382] $GNGGA,004907.50,3714.00649987,N,13701.48833602,E,4,12,0.8,100.084,M,36.772,M,1.5,0439*55
[2021-02-23 09:49:12.382] $GNGGA,004907.60,3714.00649729,N,13701.48833580,E,4,12,0.8,100.087,M,36.772,M,1.6,0439*55
[2021-02-23 09:49:12.382] $GNGGA,004907.70,3714.00649601,N,13701.48832734,E,4,12,0.8,100.082,M,36.772,M,1.7,0439*57
[2021-02-23 09:49:12.382] $GNGGA,004907.80,3714.00649802,N,13701.48832254,E,4,12,0.8,100.089,M,36.772,M,1.8,0439*52
[2021-02-23 09:49:12.382] $GNGGA,004907.90,3714.00650366,N,13701.48831503,E,4,12,0.8,100.078,M,36.772,M,1.9,0439*5B
[2021-02-23 09:49:12.382] $GNGGA,004908.00,3714.00650790,N,13701.48831554,E,4,11,0.9,100.077,M,36.772,M,1.0,0439*56
[2021-02-23 09:49:12.382] $GNGGA,004908.10,3714.00650839,N,13701.48831170,E,4,11,0.9,100.071,M,36.772,M,1.1,0439*5E
[2021-02-23 09:49:12.382] $GNGGA,004908.20,3714.00650813,N,13701.48830901,E,4,11,0.9,100.072,M,36.772,M,1.2,0439*5A
[2021-02-23 09:49:12.398] $GNGGA,004908.30,3714.00650806,N,13701.48830681,E,4,11,0.9,100.075,M,36.772,M,1.3,0439*5E
[2021-02-23 09:49:12.398] $GNGGA,004908.40,3714.00650790,N,13701.48830845,E,4,11,0.9,100.072,M,36.772,M,1.4,0439*5F
[2021-02-23 09:49:12.398] $GNGGA,004908.50,3714.00650752,N,13701.48831048,E,4,11,0.9,100.073,M,36.772,M,1.5,0439*54
[2021-02-23 09:49:12.398] $GNGGA,004908.60,3714.00650633,N,13701.48831287,E,4,11,0.9,100.072,M,36.772,M,1.6,0439*52
[2021-02-23 09:49:12.398] $GNGGA,004908.70,3714.00650733,N,13701.48831390,E,4,11,0.9,100.072,M,36.772,M,1.7,0439*54
[2021-02-23 09:49:12.398] $GNGGA,004908.80,3714.00650699,N,13701.48831228,E,4,11,0.9,100.083,M,36.772,M,1.8,0439*59
[2021-02-23 09:49:12.398] $GNGGA,004908.90,3714.00650582,N,13701.48832221,E,4,11,0.9,100.059,M,36.772,M,1.9,0439*5D
[2021-02-23 09:49:12.398] $GNGGA,004909.00,3714.00650037,N,13701.48831919,E,4,11,0.9,100.071,M,36.772,M,1.0,0439*5E
[2021-02-23 09:49:12.398] $GNGGA,004909.10,3714.00649979,N,13701.48832176,E,4,11,0.9,100.066,M,36.772,M,1.1,0439*51
[2021-02-23 09:49:12.398] $GNGGA,004909.20,3714.00649819,N,13701.48832327,E,4,11,0.9,100.076,M,36.772,M,1.2,0439*51
[2021-02-23 09:49:12.398] $GNGGA,004909.30,3714.00649957,N,13701.48832521,E,4,11,0.9,100.070,M,36.772,M,1.3,0439*5C
[2021-02-23 09:49:12.398] $GNGGA,004909.40,3714.00649808,N,13701.48832423,E,4,11,0.9,100.077,M,36.772,M,1.4,0439*53
[2021-02-23 09:49:12.398] $G$GNGGA,004911.70,3714.00646676,N,13701.48833488,E,4,11,0.9,100.073,M,36.772,M,1.7,0439*56
[2021-02-23 09:49:12.429] $GNGGA,004911.80,3714.00646890,N,13701.48833417,E,4,11,0.9,100.070,M,36.772,M,1.8,0439*55
[2021-02-23 09:49:12.523] $GNGGA,004911.90,3714.00646755,N,13701.48833407,E,4,11,0.9,100.075,M,36.772,M,1.9,0439*57
[2021-02-23 09:49:12.632] $GNGGA,004912.00,3714.00646605,N,13701.48833015,E,4,11,0.9,100.077,M,36.772,M,2.0,0439*56
[2021-02-23 09:49:12.726] $GNGGA,004912.10,3714.00646572,N,13701.48832981,E,4,11,0.9,100.084,M,36.772,M,2.1,0439*5C
[2021-02-23 09:49:12.835] $GNGGA,004912.20,3714.00646933,N,13701.48832971,E,4,11,0.9,100.077,M,36.772,M,1.2,0439*55
[2021-02-23 09:49:12.913] $GNGGA,004912.30,3714.00647151,N,13701.48833033,E,4,11,0.9,100.075,M,36.772,M,1.3,0439*54
[2021-02-23 09:49:13.023] $GNGGA,004912.40,3714.00647030,N,13701.48832969,E,4,11,0.9,100.085,M,36.772,M,1.4,0439*5A
[2021-02-23 09:49:13.117] $GNGGA,004912.50,3714.00647012,N,13701.48833092,E,4,11,0.9,100.077,M,36.772,M,1.5,0439*5B
[2021-02-23 09:49:13.226] $GNGGA,004912.60,3714.00647015,N,13701.48833109,E,4,11,0.9,100.081,M,36.772,M,1.6,0439*56
[2021-02-23 09:49:13.320] $GNGGA,004912.70,3714.00646996,N,13701.48833061,E,4,11,0.9,100.078,M,36.772,M,1.7,0439*5C
[2021-02-23 09:49:13.429] $GNGGA,004912.80,3714.00646893,N,13701.48832983,E,4,11,0.9,100.085,M,36.772,M,1.8,0439*5E
[2021-02-23 09:49:13.523] $GNGGA,004912.90,3714.00646882,N,13701.48833566,E,4,11,0.9,100.083,M,36.772,M,1.9,0439*5E
[2021-02-23 09:49:13.632] $GNGGA,004913.00,3714.00646680,N,13701.48833773,E,4,12,0.8,100.082,M,36.772,M,1.0,0439*56
[2021-02-23 09:49:13.726] $GNGGA,004913.10,3714.00646926,N,13701.48833694,E,4,12,0.8,100.088,M,36.772,M,1.1,0439*57
[2021-02-23 09:49:13.820] $GNGGA,004913.20,3714.00646989,N,13701.48833443,E,4,12,0.8,100.081,M,36.772,M,1.2,0439*53
[2021-02-23 09:49:13.913] $GNGGA,004913.30,3714.00646778,N,13701.48833507,E,4,12,0.8,100.086,M,36.772,M,1.3,0439*55
[2021-02-23 09:49:14.023] $GNGGA,004913.40,3714.00646818,N,13701.48833307,E,4,12,0.8,100.081,M,36.772,M,1.4,0439*5D
[2021-02-23 09:49:14.116] $GNGGA,004913.50,3714.00646754,N,13701.48833314,E,4,12,0.8,100.084,M,36.772,M,1.5,0439*5D
[2021-02-23 09:49:14.226] $GNGGA,004913.60,3714.00646712,N,13701.48833390,E,4,12,0.8,100.088,M,36.772,M,1.6,0439*5F
[2021-02-23 09:49:14.320] $GNGGA,004913.70,3714.00646826,N,13701.48833301,E,4,12,0.8,100.085,M,36.772,M,1.7,0439*52
[2021-02-23 09:49:14.429] $GNGGA,004913.80,3714.00646808,N,13701.48833273,E,4,12,0.8,100.087,M,36.772,M,1.8,0439*58
[2021-02-23 09:49:14.523] $GNGGA,004913.90,3714.00646735,N,13701.48833223,E,4,12,0.8,100.090,M,36.772,M,1.9,0439*5A
[2021-02-23 09:49:14.632] $GNGGA,004914.00,3714.00646824,N,13701.48833663,E,4,12,0.8,100.068,M,36.772,M,1.0,0439*55
[2021-02-23 09:49:14.726] $GNGGA,004914.10,3714.00646496,N,13701.48833690,E,4,12,0.8,100.075,M,36.772,M,1.1,0439*50
[2021-02-23 09:49:14.820] $GNGGA,004914.20,3714.00646677,N,13701.48833544,E,4,12,0.8,100.076,M,36.772,M,1.2,0439*54
[2021-02-23 09:49:14.913] $GNGGA,004914.30,3714.00646452,N,13701.48833732,E,4,12,0.8,100.074,M,36.772,M,1.3,0439*50
[2021-02-23 09:49:15.023] $GNGGA,004914.40,3714.00646502,N,13701.48833826,E,4,12,0.8,100.078,M,36.772,M,1.4,0439*52
[2021-02-23 09:49:15.116] $GNGGA,004914.50,3714.00646699,N,13701.48833740,E,4,12,0.8,100.073,M,36.772,M,1.5,0439*57
[2021-02-23 09:49:15.226] $GNGGA,004914.60,3714.00646653,N,13701.48833634,E,4,12,0.8,100.072,M,36.772,M,1.6,0439*52
[2021-02-23 09:49:15.320] $GNGGA,004914.70,3714.00646521,N,13701.48834277,E,4,12,0.8,100.070,M,36.772,M,1.7,0439*52
[2021-02-23 09:49:15.429] $GNGGA,004914.80,3714.00646616,N,13701.48833842,E,4,12,0.8,100.077,M,36.772,M,1.8,0439*59
[2021-02-23 09:49:15.523] $GNGGA,004914.90,3714.00646489,N,13701.48834020,E,4,12,0.8,100.072,M,36.772,M,1.9,0439*53
[2021-02-23 09:49:15.632] $GNGGA,004915.00,3714.00646341,N,13701.48833852,E,4,12,0.8,100.085,M,36.772,M,1.0,0439*53
[2021-02-23 09:49:15.726] $GNGGA,004915.10,3714.00646418,N,13701.48834208,E,4,12,0.8,100.077,M,36.772,M,1.1,0439*57
[2021-02-23 09:49:15.835] $GNGGA,004915.20,3714.00646632,N,13701.48834011,E,4,12,0.8,100.088,M,36.772,M,1.2,0439*57
[2021-02-23 09:49:15.913] $GNGGA,004915.30,3714.00646438,N,13701.48834226,E,4,12,0.8,100.074,M,36.772,M,1.3,0439*5A
[2021-02-23 09:49:16.023] $GNGGA,004915.40,3714.00646458,N,13701.48833961,E,4,12,0.8,100.084,M,36.772,M,1.4,0439*5C
[2021-02-23 09:49:16.116] $GNGGA,004915.50,3714.00646532,N,13701.48834074,E,4,12,0.8,100.086,M,36.772,M,1.5,0439*59
[2021-02-23 09:49:16.226] $GNGGA,004915.60,3714.00646583,N,13701.48834339,E,4,12,0.8,100.084,M,36.772,M,1.6,0439*5B
[2021-02-23 09:49:16.319] $GNGGA,004915.70,3714.00646651,N,13701.48834157,E,4,12,0.8,100.081,M,36.772,M,1.7,0439*58
[2021-02-23 09:49:16.429] $GNGGA,004915.80,3714.00646744,N,13701.48834715,E,4,12,0.8,100.074,M,36.772,M,1.8,0439*57
[2021-02-23 09:49:16.523] $GNGGA,004915.90,3714.00646624,N,13701.48834418,E,4,12,0.8,100.087,M,36.772,M,1.9,0439*52
[2021-02-23 09:49:16.632] $GNGGA,004916.00,3714.00646779,N,13701.48834433,E,4,12,0.8,100.079,M,36.772,M,1.0,0439*50
[2021-02-23 09:49:16.726] $GNGGA,004916.10,3714.00646804,N,13701.48834762,E,4,12,0.8,100.073,M,36.772,M,1.1,0439*58
[2021-02-23 09:49:16.819] $GNGGA,004916.20,3714.00646726,N,13701.48834599,E,4,12,0.8,100.076,M,36.772,M,1.2,0439*54
[2021-02-23 09:49:16.913] $GNGGA,004916.30,3714.00646929,N,13701.48834690,E,4,12,0.8,100.067,M,36.772,M,1.3,0439*5F
[2021-02-23 09:49:17.023] $GNGGA,004916.40,3714.00646758,N,13701.48834316,E,4,12,0.8,100.080,M,36.772,M,1.4,0439*55
[2021-02-23 09:49:17.132] $GNGGA,004916.50,3714.00646854,N,13701.48834379,E,4,12,0.8,100.080,M,36.772,M,1.5,0439*5F
[2021-02-23 09:49:17.226] $GNGGA,004916.60,3714.00646605,N,13701.48834627,E,4,12,0.8,100.074,M,36.772,M,1.6,0439*50
[2021-02-23 09:49:17.319] $GNGGA,004916.70,3714.00646499,N,13701.48834529,E,4,12,0.8,100.081,M,36.772,M,1.7,0439*50
[2021-02-23 09:49:17.429] $GNGGA,004916.80,3714.00646545,N,13701.48834509,E,4,12,0.8,100.079,M,36.772,M,1.8,0439*55
[2021-02-23 09:49:17.522] $GNGGA,004916.90,3714.00646471,N,13701.48834506,E,4,12,0.8,100.079,M,36.772,M,1.9,0439*5C
[2021-02-23 09:49:17.632] $GNGGA,004917.00,3714.00646558,N,13701.48834427,E,4,12,0.8,100.071,M,36.772,M,1.0,0439*5D
[2021-02-23 09:49:17.726] $GNGGA,004917.10,3714.00646418,N,13701.48834349,E,4,12,0.8,100.088,M,36.772,M,1.1,0439*51
[2021-02-23 09:49:17.819] $GNGGA,004917.20,3714.00646324,N,13701.48834310,E,4,12,0.8,100.084,M,36.772,M,1.2,0439*59
[2021-02-23 09:49:17.913] $GNGGA,004917.30,3714.00646150,N,13701.48834685,E,4,12,0.8,100.087,M,36.772,M,1.3,0439*52
[2021-02-23 09:49:18.022] $GNGGA,004917.40,3714.00646146,N,13701.48834633,E,4,12,0.8,100.074,M,36.772,M,1.4,0439*54
[2021-02-23 09:49:18.116] $GNGGA,004917.50,3714.00646064,N,13701.48834173,E,4,12,0.8,100.080,M,36.772,M,1.5,0439*5D
[2021-02-23 09:49:18.226] $GNGGA,004917.60,3714.00645710,N,13701.48834288,E,4,12,0.8,100.093,M,36.772,M,1.6,0439*5F
[2021-02-23 09:49:18.319] $GNGGA,004917.70,3714.00645865,N,13701.48834209,E,4,12,0.8,100.080,M,36.772,M,1.7,0439*59
[2021-02-23 09:49:18.429] $GNGGA,004917.80,3714.00645753,N,13701.48834250,E,4,12,0.8,100.078,M,36.772,M,1.8,0439*58
[2021-02-23 09:49:18.522] $GNGGA,004917.90,3714.00645631,N,13701.48833987,E,4,12,0.8,100.080,M,36.772,M,1.9,0439*5C
[2021-02-23 09:49:18.632] $GNGGA,004918.00,3714.00645646,N,13701.48834000,E,4,12,0.8,100.082,M,36.772,M,2.0,0439*53
[2021-02-23 09:49:18.725] $GNGGA,004918.10,3714.00645659,N,13701.48833986,E,4,12,0.8,100.080,M,36.772,M,2.1,0439*5F
[2021-02-23 09:49:18.819] $GNGGA,004918.20,3714.00645923,N,13701.48833722,E,4,12,0.8,100.078,M,36.772,M,1.2,0439*59
[2021-02-23 09:49:18.913] $GNGGA,004918.30,3714.00645776,N,13701.48833889,E,4,12,0.8,100.076,M,36.772,M,1.3,0439*57
[2021-02-23 09:49:19.022] $GNGGA,004918.40,3714.00645763,N,13701.48833847,E,4,12,0.8,100.083,M,36.772,M,1.4,0439*5B
[2021-02-23 09:49:19.116] $GNGGA,004918.50,3714.00646098,N,13701.48833652,E,4,12,0.8,100.078,M,36.772,M,1.5,0439*55
[2021-02-23 09:49:19.225] $GNGGA,004918.60,3714.00645864,N,13701.48834203,E,4,12,0.8,100.075,M,36.772,M,1.6,0439*57
[2021-02-23 09:49:19.319] $GNGGA,004918.70,3714.00645771,N,13701.48834071,E,4,12,0.8,100.082,M,36.772,M,1.7,0439*53
[2021-02-23 09:49:19.429] $GNGGA,004918.80,3714.00645650,N,13701.48834215,E,4,12,0.8,100.080,M,36.772,M,1.8,0439*53
[2021-02-23 09:49:19.522] $GNGGA,004918.90,3714.00645906,N,13701.48834285,E,4,12,0.8,100.077,M,36.772,M,1.9,0439*5E
[2021-02-23 09:49:19.632] $GNGGA,004919.00,3714.00646021,N,13701.48834496,E,4,12,0.8,100.077,M,36.772,M,1.0,0439*54
[2021-02-23 09:49:19.725] $GNGGA,004919.10,3714.00645967,N,13701.48834644,E,4,12,0.8,100.084,M,36.772,M,1.1,0439*5D
[2021-02-23 09:49:19.819] $GNGGA,004919.20,3714.00646095,N,13701.48834531,E,4,12,0.8,100.081,M,36.772,M,1.2,0439*5E
[2021-02-23 09:49:19.913] $GNGGA,004919.30,3714.00646110,N,13701.48834783,E,4,12,0.8,100.080,M,36.772,M,1.3,0439*58
[2021-02-23 09:49:20.022] $GNGGA,004919.40,3714.00645877,N,13701.48835002,E,4,12,0.8,100.083,M,36.772,M,1.4,0439*5F
[2021-02-23 09:49:20.116] $GNGGA,004919.50,3714.00646262,N,13701.48835124,E,4,12,0.8,100.081,M,36.772,M,1.5,0439*55
[2021-02-23 09:49:20.225] $GNGGA,004919.60,3714.00646269,N,13701.48834677,E,4,12,0.8,100.090,M,36.772,M,1.6,0439*5E
[2021-02-23 09:49:20.319] $GNGGA,004919.70,3714.00646563,N,13701.48835025,E,4,12,0.8,100.082,M,36.772,M,1.7,0439*50
[2021-02-23 09:49:20.429] $GNGGA,004919.80,3714.00646331,N,13701.48835130,E,4,12,0.8,100.082,M,36.772,M,1.8,0439*54
[2021-02-23 09:49:20.522] $GNGGA,004919.90,3714.00646403,N,13701.48835522,E,4,12,0.8,100.069,M,36.772,M,1.9,0439*50
[2021-02-23 09:49:20.632] $GNGGA,004920.00,3714.00646646,N,13701.48835315,E,4,12,0.8,100.091,M,36.772,M,1.0,0439*5C
[2021-02-23 09:49:20.725] $GNGGA,004920.10,3714.00646713,N,13701.48835394,E,4,12,0.8,100.090,M,36.772,M,1.1,0439*55
[2021-02-23 09:49:20.819] $GNGGA,004920.20,3714.00646656,N,13701.48835569,E,4,12,0.8,100.090,M,36.772,M,1.2,0439*51
[2021-02-23 09:49:20.913] $GNGGA,004920.30,3714.00646801,N,13701.48835512,E,4,12,0.8,100.089,M,36.772,M,1.3,0439*59
[2021-02-23 09:49:21.022] $GNGGA,004920.40,3714.00647096,N,13701.48835657,E,4,12,0.8,100.092,M,36.772,M,1.4,0439*56
[2021-02-23 09:49:21.116] $GNGGA,004920.50,3714.00647077,N,13701.48835676,E,4,12,0.8,100.089,M,36.772,M,1.5,0439*50
[2021-02-23 09:49:21.225] $GNGGA,004920.60,3714.00647030,N,13701.48836078,E,4,12,0.8,100.091,M,36.772,M,1.6,0439*51
[2021-02-23 09:49:21.319] $GNGGA,004920.70,3714.00647056,N,13701.48836071,E,4,12,0.8,100.095,M,36.772,M,1.7,0439*5C
[2021-02-23 09:49:21.428] $GNGGA,004920.80,3714.00647101,N,13701.48836000,E,4,12,0.8,100.084,M,36.772,M,1.8,0439*59
[2021-02-23 09:49:21.522] $GNGGA,004920.90,3714.00647004,N,13701.48835898,E,4,12,0.8,100.088,M,36.772,M,1.9,0439*5B
[2021-02-23 09:49:21.632] $GNGGA,004921.00,3714.00647113,N,13701.48836116,E,4,12,0.8,100.083,M,36.772,M,2.0,0439*59
[2021-02-23 09:49:21.725] $GNGGA,004921.10,3714.00647539,N,13701.48835489,E,4,12,0.8,100.096,M,36.772,M,1.1,0439*52
[2021-02-23 09:49:21.819] $GNGGA,004921.20,3714.00647412,N,13701.48835848,E,4,12,0.8,100.085,M,36.772,M,1.2,0439*59
[2021-02-23 09:49:21.913] $GNGGA,004921.30,3714.00647526,N,13701.48835720,E,4,12,0.8,100.088,M,36.772,M,1.3,0439*53
[2021-02-23 09:49:22.038] $GNGGA,004921.40,3714.00647543,N,13701.48836033,E,4,12,0.8,100.091,M,36.772,M,1.4,0439*5E
[2021-02-23 09:49:22.116] $GNGGA,004921.50,3714.00647450,N,13701.48836005,E,4,12,0.8,100.082,M,36.772,M,1.5,0439*5A
[2021-02-23 09:49:22.225] $GNGGA,004921.60,3714.00647612,N,13701.48836035,E,4,12,0.8,100.086,M,36.772,M,1.6,0439*59
[2021-02-23 09:49:22.319] $GNGGA,004921.70,3714.00647487,N,13701.48835722,E,4,12,0.8,100.083,M,36.772,M,1.7,0439*50
[2021-02-23 09:49:22.428] $GNGGA,004921.80,3714.00647634,N,13701.48836066,E,4,12,0.8,100.083,M,36.772,M,1.8,0439*5E
[2021-02-23 09:49:22.522] $GNGGA,004921.90,3714.00647613,N,13701.48836008,E,4,12,0.8,100.082,M,36.772,M,1.9,0439*52
[2021-02-23 09:49:22.632] $GNGGA,004922.00,3714.00647550,N,13701.48835684,E,4,12,0.8,100.076,M,36.772,M,1.0,0439*5F
[2021-02-23 09:49:22.725] $GNGGA,004922.10,3714.00647781,N,13701.48835612,E,4,12,0.8,100.079,M,36.772,M,1.1,0439*51
[2021-02-23 09:49:22.835] $GNGGA,004922.20,3714.00647693,N,13701.48835605,E,4,12,0.8,100.076,M,36.772,M,1.2,0439*5A
[2021-02-23 09:49:22.913] $GNGGA,004922.30,3714.00647688,N,13701.48836249,E,4,12,0.8,100.076,M,36.772,M,1.3,0439*5F
[2021-02-23 09:49:23.022] $GNGGA,004922.40,3714.00647738,N,13701.48835787,E,4,12,0.8,100.076,M,36.772,M,1.4,0439*51
[2021-02-23 09:49:23.116] $GNGGA,004922.50,3714.00647765,N,13701.48835919,E,4,12,0.8,100.075,M,36.772,M,1.5,0439*53
[2021-02-23 09:49:23.225] $GNGGA,004922.60,3714.00647581,N,13701.48835731,E,4,12,0.8,100.078,M,36.772,M,1.6,0439*52
[2021-02-23 09:49:23.319] $GNGGA,004922.70,3714.00647457,N,13701.48835983,E,4,12,0.8,100.076,M,36.772,M,1.7,0439*51
[2021-02-23 09:49:23.428] $GNGGA,004922.80,3714.00647367,N,13701.48836051,E,4,12,0.8,100.078,M,36.772,M,1.8,0439*5E
[2021-02-23 09:49:23.522] $GNGGA,004922.90,3714.00647626,N,13701.48835929,E,4,12,0.8,100.082,M,36.772,M,0.9,0439*5F
[2021-02-23 09:49:23.631] $GNGGA,004923.00,3714.00647621,N,13701.48836028,E,4,12,0.8,100.071,M,36.772,M,1.0,0439*5F
[2021-02-23 09:49:23.725] $GNGGA,004923.10,3714.00647659,N,13701.48835979,E,4,12,0.8,100.082,M,36.772,M,1.1,0439*52
[2021-02-23 09:49:23.834] $GNGGA,004923.20,3714.00647885,N,13701.48836281,E,4,12,0.8,100.084,M,36.772,M,1.2,0439*54
[2021-02-23 09:49:23.913] $GNGGA,004923.30,3714.00647652,N,13701.48836093,E,4,12,0.8,100.077,M,36.772,M,1.3,0439*5D
[2021-02-23 09:49:24.022] $GNGGA,004923.40,3714.00647647,N,13701.48836855,E,4,12,0.8,100.079,M,36.772,M,1.4,0439*55
[2021-02-23 09:49:24.116] $GNGGA,004923.50,3714.00647544,N,13701.48837315,E,4,12,0.8,100.083,M,36.772,M,1.5,0439*5E
[2021-02-23 09:49:24.225] $GNGGA,004923.60,3714.00647481,N,13701.48837799,E,4,12,0.8,100.068,M,36.772,M,1.6,0439*53
[2021-02-23 09:49:24.319] $GNGGA,004923.70,3714.00647349,N,13701.48837444,E,4,12,0.8,100.075,M,36.772,M,1.7,0439*5F
[2021-02-23 09:49:24.428] $GNGGA,004923.80,3714.00647440,N,13701.48837247,E,4,12,0.8,100.079,M,36.772,M,1.8,0439*58
[2021-02-23 09:49:24.522] $GNGGA,004923.90,3714.00647447,N,13701.48837154,E,4,12,0.8,100.081,M,36.772,M,1.9,0439*59
[2021-02-23 09:49:24.631] $GNGGA,004924.00,3714.00647497,N,13701.48837338,E,4,12,0.8,100.074,M,36.772,M,1.0,0439*51
[2021-02-23 09:49:24.725] $GNGGA,004924.10,3714.00647315,N,13701.48836948,E,4,12,0.8,100.085,M,36.772,M,1.1,0439*5E
[2021-02-23 09:49:24.834] $GNGGA,004924.20,3714.00647060,N,13701.48836853,E,4,12,0.8,100.075,M,36.772,M,1.2,0439*5B
[2021-02-23 09:49:24.913] $GNGGA,004924.30,3714.00647055,N,13701.48836331,E,4,12,0.8,100.077,M,36.772,M,1.3,0439*50
[2021-02-23 09:49:25.022] $GNGGA,004924.40,3714.00647429,N,13701.48836467,E,4,12,0.8,100.087,M,36.772,M,1.4,0439*54
[2021-02-23 09:49:25.116] $GNGGA,004924.50,3714.00647302,N,13701.48836182,E,4,12,0.8,100.078,M,36.772,M,1.5,0439*54
[2021-02-23 09:49:25.225] $GNGGA,004924.60,3714.00647417,N,13701.48836361,E,4,12,0.8,100.073,M,36.772,M,1.6,0439*53
[2021-02-23 09:49:25.319] $GNGGA,004924.70,3714.00647349,N,13701.48836629,E,4,12,0.8,100.077,M,36.772,M,1.7,0439*52
[2021-02-23 09:49:25.428] $GNGGA,004924.80,3714.00647055,N,13701.48836494,E,4,12,0.8,100.071,M,36.772,M,1.8,0439*5E
[2021-02-23 09:49:25.522] $GNGGA,004924.90,3714.00646792,N,13701.48836300,E,4,12,0.8,100.081,M,36.772,M,1.9,0439*56
[2021-02-23 09:49:25.631] $GNGGA,004925.00,3714.00646550,N,13701.48835952,E,4,12,0.8,100.093,M,36.772,M,1.0,0439*56
[2021-02-23 09:49:25.725] $GNGGA,004925.10,3714.00646487,N,13701.48836255,E,4,12,0.8,100.075,M,36.772,M,1.1,0439*5A
[2021-02-23 09:49:25.819] $GNGGA,004925.20,3714.00646566,N,13701.48835919,E,4,12,0.8,100.084,M,36.772,M,1.2,0439*5A
[2021-02-23 09:49:25.913] $GNGGA,004925.30,3714.00646411,N,13701.48835509,E,4,12,0.8,100.085,M,36.772,M,1.3,0439*57
[2021-02-23 09:49:26.022] $GNGGA,004925.40,3714.00646405,N,13701.48835751,E,4,12,0.8,100.093,M,36.772,M,1.4,0439*5A
[2021-02-23 09:49:26.116] $GNGGA,004925.50,3714.00646656,N,13701.48835479,E,4,12,0.8,100.085,M,36.772,M,1.5,0439*50
[2021-02-23 09:49:26.225] $GNGGA,004925.60,3714.00646353,N,13701.48835204,E,4,12,0.8,100.088,M,36.772,M,1.6,0439*51
[2021-02-23 09:49:26.319] $GNGGA,004925.70,3714.00646849,N,13701.48835466,E,4,12,0.8,100.083,M,36.772,M,1.7,0439*58
[2021-02-23 09:49:26.428] $GNGGA,004925.80,3714.00647188,N,13701.48835354,E,4,12,0.8,100.081,M,36.772,M,1.8,0439*59
[2021-02-23 09:49:26.522] $GNGGA,004925.90,3714.00647224,N,13701.48835385,E,4,12,0.8,100.086,M,36.772,M,1.9,0439*57
[2021-02-23 09:49:26.631] $GNGGA,004926.00,3714.00647512,N,13701.48835752,E,4,12,0.8,100.081,M,36.772,M,1.0,0439*5F
[2021-02-23 09:49:26.725] $GNGGA,004926.10,3714.00646498,N,13701.48836015,E,4,12,0.8,100.089,M,36.772,M,1.1,0439*52
[2021-02-23 09:49:26.819] $GNGGA,004926.20,3714.00645364,N,13701.48836278,E,4,12,0.8,100.116,M,36.772,M,1.2,0439*5B
[2021-02-23 09:49:26.912] $GNGGA,004926.30,3714.00644600,N,13701.48837511,E,4,12,0.8,100.125,M,36.772,M,1.3,0439*54
[2021-02-23 09:49:27.022] $GNGGA,004926.40,3714.00643378,N,13701.48836505,E,4,12,0.8,100.164,M,36.772,M,1.4,0439*58
[2021-02-23 09:49:27.131] $GNGGA,004926.50,3714.00641960,N,13701.48838349,E,4,12,0.8,100.152,M,36.772,M,1.5,0439*5C
[2021-02-23 09:49:27.225] $GNGGA,004926.60,3714.00640193,N,13701.48839894,E,4,12,0.8,100.163,M,36.772,M,1.6,0439*51
[2021-02-23 09:49:27.319] $GNGGA,004926.70,3714.00638448,N,13701.48841426,E,4,12,0.8,100.177,M,36.772,M,1.7,0439*52
[2021-02-23 09:49:27.428] $GNGGA,004926.80,3714.00635879,N,13701.48844634,E,4,12,0.8,100.182,M,36.772,M,1.8,0439*5F
[2021-02-23 09:49:27.522] $GNGGA,004926.90,3714.00633090,N,13701.48847906,E,4,12,0.8,100.181,M,36.772,M,1.9,0439*58
[2021-02-23 09:49:27.631] $GNGGA,004927.00,3714.00630032,N,13701.48851494,E,4,12,0.8,100.186,M,36.772,M,1.0,0439*54
[2021-02-23 09:49:27.725] $GNGGA,004927.10,3714.00626993,N,13701.48853837,E,4,12,0.8,100.199,M,36.772,M,1.1,0439*58
[2021-02-23 09:49:27.819] $GNGGA,004927.20,3714.00623533,N,13701.48856553,E,4,12,0.8,100.186,M,36.772,M,1.2,0439*5F
[2021-02-23 09:49:27.912] $GNGGA,004927.30,3714.00621273,N,13701.48857926,E,4,12,0.8,100.207,M,36.772,M,1.3,0439*5B
[2021-02-23 09:49:28.022] $GNGGA,004927.40,3714.00619197,N,13701.48859708,E,4,12,0.8,100.206,M,36.772,M,1.4,0439*54
[2021-02-23 09:49:28.116] $GNGGA,004927.50,3714.00617875,N,13701.48861288,E,4,12,0.8,100.205,M,36.772,M,1.5,0439*5A
[2021-02-23 09:49:28.225] $GNGGA,004927.60,3714.00616787,N,13701.48863442,E,4,12,0.8,100.203,M,36.772,M,1.6,0439*5D
[2021-02-23 09:49:28.319] $GNGGA,004927.70,3714.00616290,N,13701.48865049,E,4,12,0.8,100.209,M,36.772,M,1.7,0439*5D
[2021-02-23 09:49:28.428] $GNGGA,004927.80,3714.00616734,N,13701.48867549,E,4,12,0.8,100.208,M,36.772,M,1.8,0439*50
[2021-02-23 09:49:28.522] $GNGGA,004927.90,3714.00616862,N,13701.48870371,E,4,12,0.8,100.204,M,36.772,M,1.9,0439*5B
[2021-02-23 09:49:28.631] $GNGGA,004928.00,3714.00617389,N,13701.48873272,E,4,11,0.9,100.191,M,36.772,M,1.0,0439*57
[2021-02-23 09:49:28.725] $GNGGA,004928.10,3714.00617527,N,13701.48876793,E,4,11,0.9,100.188,M,36.772,M,1.1,0439*52
[2021-02-23 09:49:28.834] $GNGGA,004928.20,3714.00617924,N,13701.48879496,E,4,11,0.9,100.180,M,36.772,M,1.2,0439*5C
[2021-02-23 09:49:28.912] $GNGGA,004928.30,3714.00618453,N,13701.48881935,E,4,11,0.9,100.165,M,36.772,M,1.3,0439*56
[2021-02-23 09:49:29.022] $GNGGA,004928.40,3714.00619133,N,13701.48883476,E,4,11,0.9,100.174,M,36.772,M,1.4,0439*5C
[2021-02-23 09:49:29.115] $GNGGA,004928.50,3714.00619352,N,13701.48885080,E,4,11,0.9,100.166,M,36.772,M,1.5,0439*51
[2021-02-23 09:49:29.225] $GNGGA,004928.60,3714.00619325,N,13701.48887010,E,4,11,0.9,100.161,M,36.772,M,1.6,0439*5D
[2021-02-23 09:49:29.319] $GNGGA,004928.70,3714.00618679,N,13701.48888127,E,4,11,0.9,100.146,M,36.772,M,1.7,0439*5F
[2021-02-23 09:49:29.428] $GNGGA,004928.80,3714.00617351,N,13701.48889304,E,4,11,0.9,100.145,M,36.772,M,1.8,0439*5E
[2021-02-23 09:49:29.522] $GNGGA,004928.90,3714.00615496,N,13701.48890751,E,4,11,0.9,100.150,M,36.772,M,1.9,0439*58
[2021-02-23 09:49:29.631] $GNGGA,004929.00,3714.00613962,N,13701.48891379,E,4,11,0.9,100.161,M,36.772,M,1.0,0439*54
[2021-02-23 09:49:29.725] $GNGGA,004929.10,3714.00612927,N,13701.48890618,E,4,11,0.9,100.158,M,36.772,M,1.1,0439*5D
[2021-02-23 09:49:29.834] $GNGGA,004929.20,3714.00613064,N,13701.48889198,E,4,11,0.9,100.183,M,36.772,M,1.2,0439*53
[2021-02-23 09:49:29.912] $GNGGA,004929.30,3714.00613617,N,13701.48887999,E,4,11,0.9,100.187,M,36.772,M,1.3,0439*52
[2021-02-23 09:49:30.022] $GNGGA,004929.40,3714.00614456,N,13701.48887843,E,4,11,0.9,100.181,M,36.772,M,1.4,0439*52
[2021-02-23 09:49:30.115] $GNGGA,004929.50,3714.00615180,N,13701.48888485,E,4,11,0.9,100.182,M,36.772,M,1.5,0439*57
[2021-02-23 09:49:30.225] $GNGGA,004929.60,3714.00615522,N,13701.48890335,E,4,11,0.9,100.191,M,36.772,M,1.6,0439*5C
[2021-02-23 09:49:30.318] $GNGGA,004929.70,3714.00615984,N,13701.48893420,E,4,11,0.9,100.172,M,36.772,M,1.7,0439*51
[2021-02-23 09:49:30.428] $GNGGA,004929.80,3714.00615319,N,13701.48895368,E,4,11,0.9,100.195,M,36.772,M,1.8,0439*5B
[2021-02-23 09:49:30.522] $GNGGA,004929.90,3714.00614419,N,13701.48897187,E,4,11,0.9,100.188,M,36.772,M,1.9,0439*50
[2021-02-23 09:49:30.631] $GNGGA,004930.00,3714.00613527,N,13701.48898076,E,4,11,0.9,100.183,M,36.772,M,1.0,0439*58
[2021-02-23 09:49:30.725] $GNGGA,004930.10,3714.00612059,N,13701.48898699,E,4,11,0.9,100.180,M,36.772,M,1.1,0439*51
[2021-02-23 09:49:30.834] $GNGGA,004930.20,3714.00609993,N,13701.48900032,E,4,11,0.9,100.175,M,36.772,M,1.2,0439*59
[2021-02-23 09:49:30.912] $GNGGA,004930.30,3714.00607877,N,13701.48901400,E,4,11,0.9,100.173,M,36.772,M,1.3,0439*5E
[2021-02-23 09:49:31.022] $GNGGA,004930.40,3714.00605592,N,13701.48902672,E,4,11,0.9,100.179,M,36.772,M,1.4,0439*54
[2021-02-23 09:49:31.115] $GNGGA,004930.50,3714.00603432,N,13701.48903928,E,4,11,0.9,100.180,M,36.772,M,1.5,0439*5E
[2021-02-23 09:49:31.225] $GNGGA,004930.60,3714.00602221,N,13701.48904274,E,4,11,0.9,100.190,M,36.772,M,1.6,0439*5F
[2021-02-23 09:49:31.318] $GNGGA,004930.70,3714.00601149,N,13701.48904397,E,4,11,0.9,100.178,M,36.772,M,1.7,0439*5B
[2021-02-23 09:49:31.428] $GNGGA,004930.80,3714.00600775,N,13701.48904702,E,4,11,0.9,100.179,M,36.772,M,1.8,0439*5A
[2021-02-23 09:49:31.522] $GNGGA,004930.90,3714.00600584,N,13701.48905020,E,4,11,0.9,100.174,M,36.772,M,1.9,0439*5D
[2021-02-23 09:49:31.631] $GNGGA,004931.00,3714.00600839,N,13701.48904716,E,4,11,0.9,100.171,M,36.772,M,1.0,0439*51
[2021-02-23 09:49:31.725] $GNGGA,004931.10,3714.00601049,N,13701.48905287,E,4,11,0.9,100.169,M,36.772,M,1.1,0439*5A
[2021-02-23 09:49:31.834] $GNGGA,004931.20,3714.00601114,N,13701.48905988,E,4,11,0.9,100.177,M,36.772,M,1.2,0439*58
[2021-02-23 09:49:31.912] $GNGGA,004931.30,3714.00601442,N,13701.48907594,E,4,11,0.9,100.176,M,36.772,M,1.3,0439*5C
[2021-02-23 09:49:32.021] $GNGGA,004931.40,3714.00601889,N,13701.48909110,E,4,11,0.9,100.173,M,36.772,M,1.4,0439*54
[2021-02-23 09:49:32.115] $GNGGA,004931.50,3714.00601488,N,13701.48911727,E,4,11,0.9,100.165,M,36.772,M,1.5,0439*55
[2021-02-23 09:49:32.225] $GNGGA,004931.60,3714.00600182,N,13701.48914059,E,4,11,0.9,100.174,M,36.772,M,1.6,0439*50
[2021-02-23 09:49:32.318] $GNGGA,004931.70,3714.00598732,N,13701.48916784,E,4,11,0.9,100.171,M,36.772,M,1.7,0439*5F
[2021-02-23 09:49:32.428] $GNGGA,004931.80,3714.00597858,N,13701.48919148,E,4,11,0.9,100.174,M,36.772,M,1.8,0439*5F
[2021-02-23 09:49:32.521] $GNGGA,004931.90,3714.00597157,N,13701.48922901,E,4,11,0.9,100.171,M,36.772,M,1.9,0439*51
[2021-02-23 09:49:32.631] $GNGGA,004932.00,3714.00596550,N,13701.48926652,E,4,11,0.9,100.163,M,36.772,M,1.0,0439*5E
[2021-02-23 09:49:32.725] $GNGGA,004932.10,3714.00596755,N,13701.48930873,E,4,11,0.9,100.146,M,36.772,M,1.1,0439*54
[2021-02-23 09:49:32.834] $GNGGA,004932.20,3714.00596639,N,13701.48935154,E,4,11,0.9,100.157,M,36.772,M,1.2,0439*56
[2021-02-23 09:49:32.912] $GNGGA,004932.30,3714.00596819,N,13701.48938265,E,4,11,0.9,100.151,M,36.772,M,1.3,0439*50
[2021-02-23 09:49:33.021] $GNGGA,004932.40,3714.00596743,N,13701.48940887,E,4,11,0.9,100.167,M,36.772,M,1.4,0439*5C
[2021-02-23 09:49:33.115] $GNGGA,004932.50,3714.00596777,N,13701.48943032,E,4,11,0.9,100.161,M,36.772,M,1.5,0439*58
[2021-02-23 09:49:33.225] $GNGGA,004932.60,3714.00596466,N,13701.48945342,E,4,11,0.9,100.149,M,36.772,M,1.6,0439*53
[2021-02-23 09:49:33.318] $GNGGA,004932.70,3714.00596153,N,13701.48949214,E,4,11,0.9,100.166,M,36.772,M,1.7,0439*53
[2021-02-23 09:49:33.428] $GNGGA,004932.80,3714.00595089,N,13701.48952289,E,4,11,0.9,100.159,M,36.772,M,1.8,0439*54
[2021-02-23 09:49:33.521] $GNGGA,004932.90,3714.00593821,N,13701.48956689,E,4,11,0.9,100.160,M,36.772,M,0.9,0439*53
[2021-02-23 09:49:33.631] $GNGGA,004933.00,3714.00592369,N,13701.48960936,E,4,11,0.9,100.156,M,36.772,M,1.0,0439*5E
[2021-02-23 09:49:33.724] $GNGGA,004933.10,3714.00591597,N,13701.48964736,E,4,11,0.9,100.187,M,36.772,M,1.1,0439*5C
[2021-02-23 09:49:33.834] $GNGGA,004933.20,3714.00590617,N,13701.48967242,E,4,11,0.9,100.182,M,36.772,M,1.2,0439*56
[2021-02-23 09:49:33.912] $GNGGA,004933.30,3714.00590391,N,13701.48969546,E,4,11,0.9,100.186,M,36.772,M,1.3,0439*54
[2021-02-23 09:49:34.021] $GNGGA,004933.40,3714.00590227,N,13701.48972407,E,4,11,0.9,100.187,M,36.772,M,1.4,0439*57
[2021-02-23 09:49:34.115] $GNGGA,004933.50,3714.00590283,N,13701.48975316,E,4,11,0.9,100.185,M,36.772,M,1.5,0439*5B
[2021-02-23 09:49:34.224] $GNGGA,004933.60,3714.00590139,N,13701.48978275,E,4,11,0.9,100.178,M,36.772,M,1.6,0439*52
[2021-02-23 09:49:34.318] $GNGGA,004933.70,3714.00589632,N,13701.48980853,E,4,11,0.9,100.169,M,36.772,M,1.7,0439*5F
[2021-02-23 09:49:34.428] $GNGGA,004933.80,3714.00589327,N,13701.48981972,E,4,11,0.9,100.175,M,36.772,M,1.8,0439*50
[2021-02-23 09:49:34.521] $GNGGA,004933.90,3714.00589000,N,13701.48981381,E,4,11,0.9,100.174,M,36.772,M,1.9,0439*51
[2021-02-23 09:49:34.631] $GNGGA,004934.00,3714.00588210,N,13701.48980276,E,4,11,0.9,100.195,M,36.772,M,1.0,0439*53
[2021-02-23 09:49:34.724] $GNGGA,004934.10,3714.00587051,N,13701.48978884,E,4,11,0.9,100.190,M,36.772,M,1.1,0439*5E
[2021-02-23 09:49:34.834] $GNGGA,004934.20,3714.00585086,N,13701.48978251,E,4,11,0.9,100.193,M,36.772,M,1.2,0439*57
[2021-02-23 09:49:34.912] $GNGGA,004934.30,3714.00583705,N,13701.48978318,E,4,11,0.9,100.194,M,36.772,M,1.3,0439*56
[2021-02-23 09:49:35.021] $GNGGA,004934.40,3714.00582316,N,13701.48978773,E,4,11,0.9,100.195,M,36.772,M,1.4,0439*59
[2021-02-23 09:49:35.115] $GNGGA,004934.50,3714.00581647,N,13701.48979038,E,4,11,0.9,100.208,M,36.772,M,1.5,0439*55
[2021-02-23 09:49:35.224] $GNGGA,004934.60,3714.00581282,N,13701.48979643,E,4,11,0.9,100.207,M,36.772,M,1.6,0439*5D
[2021-02-23 09:49:35.318] $GNGGA,004934.70,3714.00581038,N,13701.48980545,E,4,11,0.9,100.213,M,36.772,M,1.7,0439*58
[2021-02-23 09:49:35.428] $GNGGA,004934.80,3714.00580435,N,13701.48981291,E,4,11,0.9,100.219,M,36.772,M,1.8,0439*55
[2021-02-23 09:49:35.521] $GNGGA,004934.90,3714.00579616,N,13701.48982051,E,4,11,0.9,100.207,M,36.772,M,0.9,0439*53
[2021-02-23 09:49:35.631] $GNGGA,004935.00,3714.00578868,N,13701.48982344,E,4,11,0.9,100.201,M,36.772,M,1.0,0439*54
[2021-02-23 09:49:35.724] $GNGGA,004935.10,3714.00578028,N,13701.48982474,E,4,11,0.9,100.196,M,36.772,M,1.1,0439*51
[2021-02-23 09:49:35.834] $GNGGA,004935.20,3714.00577480,N,13701.48982332,E,4,11,0.9,100.204,M,36.772,M,1.2,0439*55
[2021-02-23 09:49:35.912] $GNGGA,004935.30,3714.00576953,N,13701.48982392,E,4,11,0.9,100.197,M,36.772,M,1.3,0439*54
[2021-02-23 09:49:36.021] $GNGGA,004935.40,3714.00576477,N,13701.48982140,E,4,11,0.9,100.202,M,36.772,M,1.4,0439*5D
[2021-02-23 09:49:36.115] $GNGGA,004935.50,3714.00576237,N,13701.48982373,E,4,11,0.9,100.193,M,36.772,M,1.5,0439*56
[2021-02-23 09:49:36.224] $GNGGA,004935.60,3714.00576115,N,13701.48982272,E,4,11,0.9,100.195,M,36.772,M,1.6,0439*53
[2021-02-23 09:49:36.318] $GNGGA,004935.70,3714.00576280,N,13701.48981836,E,4,11,0.9,100.195,M,36.772,M,1.7,0439*55
[2021-02-23 09:49:36.427] $GNGGA,004935.80,3714.00576644,N,13701.48981226,E,4,11,0.9,100.194,M,36.772,M,1.8,0439*53
[2021-02-23 09:49:36.521] $GNGGA,004935.90,3714.00577124,N,13701.48980276,E,4,11,0.9,100.197,M,36.772,M,1.9,0439*54
[2021-02-23 09:49:36.631] $GNGGA,004936.00,3714.00577432,N,13701.48979342,E,4,11,0.9,100.207,M,36.772,M,2.0,0439*5C
[2021-02-23 09:49:36.724] $GNGGA,004936.10,3714.00577501,N,13701.48976736,E,4,11,0.9,100.207,M,36.772,M,1.1,0439*56
[2021-02-23 09:49:36.834] $GNGGA,004936.20,3714.00578911,N,13701.48975193,E,4,11,0.9,100.202,M,36.772,M,1.2,0439*5B
[2021-02-23 09:49:36.912] $GNGGA,004936.30,3714.00580920,N,13701.48972174,E,4,11,0.9,100.199,M,36.772,M,1.3,0439*51
[2021-02-23 09:49:37.021] $GNGGA,004936.40,3714.00583125,N,13701.48968025,E,4,11,0.9,100.177,M,36.772,M,1.4,0439*51
[2021-02-23 09:49:37.115] $GNGGA,004936.50,3714.00584634,N,13701.48963251,E,4,11,0.9,100.166,M,36.772,M,1.5,0439*5B
[2021-02-23 09:49:37.224] $GNGGA,004936.60,3714.00585424,N,13701.48957785,E,4,11,0.9,100.157,M,36.772,M,1.6,0439*50
[2021-02-23 09:49:37.318] $GNGGA,004936.70,3714.00585810,N,13701.48951886,E,4,11,0.9,100.147,M,36.772,M,1.7,0439*50
[2021-02-23 09:49:37.427] $GNGGA,004936.80,3714.00586575,N,13701.48946895,E,4,11,0.9,100.164,M,36.772,M,1.8,0439*58
[2021-02-23 09:49:37.521] $GNGGA,004936.90,3714.00587752,N,13701.48943080,E,4,11,0.9,100.166,M,36.772,M,1.9,0439*55
[2021-02-23 09:49:37.630] $GNGGA,004937.00,3714.00588699,N,13701.48940219,E,4,11,0.9,100.167,M,36.772,M,1.0,0439*5D
[2021-02-23 09:49:37.724] $GNGGA,004937.10,3714.00590083,N,13701.48937232,E,4,11,0.9,100.169,M,36.772,M,1.1,0439*5E
[2021-02-23 09:49:37.834] $GNGGA,004937.20,3714.00592547,N,13701.48934013,E,4,11,0.9,100.163,M,36.772,M,1.2,0439*59
[2021-02-23 09:49:37.912] $GNGGA,004937.30,3714.00595337,N,13701.48931140,E,4,11,0.9,100.173,M,36.772,M,1.3,0439*5C
[2021-02-23 09:49:38.021] $GNGGA,004937.40,3714.00598502,N,13701.48928530,E,4,11,0.9,100.167,M,36.772,M,1.4,0439*5F
[2021-02-23 09:49:38.115] $GNGGA,004937.50,3714.00601321,N,13701.48926010,E,4,11,0.9,100.191,M,36.772,M,1.5,0439*5B
[2021-02-23 09:49:38.224] $GNGGA,004937.60,3714.00603720,N,13701.48923992,E,4,11,0.9,100.179,M,36.772,M,1.6,0439*5C
[2021-02-23 09:49:38.318] $GNGGA,004937.70,3714.00605904,N,13701.48922080,E,4,11,0.9,100.191,M,36.772,M,1.7,0439*5F
[2021-02-23 09:49:38.427] $GNGGA,004937.80,3714.00608319,N,13701.48918849,E,4,11,0.9,100.174,M,36.772,M,1.8,0439*5B
[2021-02-23 09:49:38.521] $GNGGA,004937.90,3714.00610545,N,13701.48915111,E,4,11,0.9,100.178,M,36.772,M,1.9,0439*58
[2021-02-23 09:49:38.630] $GNGGA,004938.00,3714.00612805,N,13701.48911785,E,4,11,0.9,100.175,M,36.772,M,2.0,0439*5D
[2021-02-23 09:49:38.724] $GNGGA,004938.10,3714.00614239,N,13701.48907733,E,4,11,0.9,100.189,M,36.772,M,1.1,0439*54
[2021-02-23 09:49:38.833] $GNGGA,004938.20,3714.00615862,N,13701.48904244,E,4,11,0.9,100.184,M,36.772,M,1.2,0439*5A
[2021-02-23 09:49:38.912] $GNGGA,004938.30,3714.00617011,N,13701.48901713,E,4,11,0.9,100.187,M,36.772,M,1.3,0439*55
[2021-02-23 09:49:39.021] $GNGGA,004938.40,3714.00617955,N,13701.48899670,E,4,11,0.9,100.185,M,36.772,M,1.4,0439*5A
[2021-02-23 09:49:39.115] $GNGGA,004938.50,3714.00619565,N,13701.48897413,E,4,11,0.9,100.176,M,36.772,M,1.5,0439*5E
[2021-02-23 09:49:39.224] $GNGGA,004938.60,3714.00621212,N,13701.48895877,E,4,11,0.9,100.175,M,36.772,M,1.6,0439*5D
[2021-02-23 09:49:39.318] $GNGGA,004938.70,3714.00622631,N,13701.48894878,E,4,11,0.9,100.174,M,36.772,M,1.7,0439*54
[2021-02-23 09:49:39.427] $GNGGA,004938.80,3714.00624076,N,13701.48894083,E,4,11,0.9,100.179,M,36.772,M,1.8,0439*56
[2021-02-23 09:49:39.521] $GNGGA,004938.90,3714.00625656,N,13701.48893138,E,4,11,0.9,100.192,M,36.772,M,1.9,0439*50
[2021-02-23 09:49:39.630] $GNGGA,004939.00,3714.00627261,N,13701.48891850,E,4,11,0.9,100.187,M,36.772,M,2.0,0439*51
[2021-02-23 09:49:39.724] $GNGGA,004939.10,3714.00628354,N,13701.48891050,E,4,12,0.8,100.212,M,36.772,M,1.1,0439*5F
[2021-02-23 09:49:39.833] $GNGGA,004939.20,3714.00630036,N,13701.48890957,E,4,12,0.8,100.163,M,36.772,M,1.2,0439*5B
[2021-02-23 09:49:39.912] $GNGGA,004939.30,3714.00631701,N,13701.48891672,E,4,12,0.8,100.185,M,36.772,M,1.3,0439*58
[2021-02-23 09:49:40.021] $GNGGA,004939.40,3714.00633275,N,13701.48891739,E,4,12,0.8,100.181,M,36.772,M,1.4,0439*56
[2021-02-23 09:49:40.115] $GNGGA,004939.50,3714.00634036,N,13701.48892028,E,4,12,0.8,100.181,M,36.772,M,1.5,0439*50
[2021-02-23 09:49:40.224] $GNGGA,004939.60,3714.00634807,N,13701.48892030,E,4,12,0.8,100.178,M,36.772,M,1.6,0439*55
[2021-02-23 09:49:40.318] $GNGGA,004939.70,3714.00635006,N,13701.48892138,E,4,12,0.8,100.181,M,36.772,M,1.7,0439*52
[2021-02-23 09:49:40.427] $GNGGA,004939.80,3714.00635415,N,13701.48892270,E,4,12,0.8,100.186,M,36.772,M,1.8,0439*5C
[2021-02-23 09:49:40.521] $GNGGA,004939.90,3714.00635317,N,13701.48892428,E,4,12,0.8,100.195,M,36.772,M,1.9,0439*50
[2021-02-23 09:49:40.630] $GNGGA,004940.00,3714.00635395,N,13701.48892231,E,4,12,0.8,100.197,M,36.772,M,1.0,0439*58
[2021-02-23 09:49:40.724] $GNGGA,004940.10,3714.00635161,N,13701.48891808,E,4,12,0.8,100.198,M,36.772,M,1.1,0439*5D
[2021-02-23 09:49:40.833] $GNGGA,004940.20,3714.00634864,N,13701.48891450,E,4,12,0.8,100.199,M,36.772,M,1.2,0439*50
[2021-02-23 09:49:40.911] $GNGGA,004940.30,3714.00634617,N,13701.48891002,E,4,12,0.8,100.198,M,36.772,M,1.3,0439*58
[2021-02-23 09:49:41.021] $GNGGA,004940.40,3714.00634279,N,13701.48890532,E,4,12,0.8,100.203,M,36.772,M,1.4,0439*52
[2021-02-23 09:49:41.115] $GNGGA,004940.50,3714.00633929,N,13701.48890414,E,4,12,0.8,100.197,M,36.772,M,1.5,0439*50
[2021-02-23 09:49:41.224] $GNGGA,004940.60,3714.00633608,N,13701.48889815,E,4,12,0.8,100.194,M,36.772,M,1.6,0439*5A
[2021-02-23 09:49:41.318] $GNGGA,004940.70,3714.00633636,N,13701.48889330,E,4,12,0.8,100.193,M,36.772,M,1.7,0439*5C
[2021-02-23 09:49:41.427] $GNGGA,004940.80,3714.00633567,N,13701.48888823,E,4,12,0.8,100.187,M,36.772,M,1.8,0439*56
[2021-02-23 09:49:41.521] $GNGGA,004940.90,3714.00633680,N,13701.48888264,E,4,12,0.8,100.190,M,36.772,M,1.9,0439*53
[2021-02-23 09:49:41.630] $GNGGA,004941.00,3714.00633558,N,13701.48888030,E,4,12,0.8,100.182,M,36.772,M,1.0,0439*54
[2021-02-23 09:49:41.724] $GNGGA,004941.10,3714.00633718,N,13701.48887785,E,4,12,0.8,100.188,M,36.772,M,1.1,0439*5E
[2021-02-23 09:49:41.833] $GNGGA,004941.20,3714.00634078,N,13701.48887839,E,4,12,0.8,100.181,M,36.772,M,1.2,0439*59
[2021-02-23 09:49:41.927] $GNGGA,004941.30,3714.00634106,N,13701.48888222,E,4,12,0.8,100.185,M,36.772,M,1.3,0439*5A
[2021-02-23 09:49:42.021] $GNGGA,004941.40,3714.00633910,N,13701.48889422,E,4,12,0.8,100.189,M,36.772,M,1.4,0439*59
[2021-02-23 09:49:42.114] $GNGGA,004941.50,3714.00633269,N,13701.48891436,E,4,12,0.8,100.192,M,36.772,M,1.5,0439*5A
[2021-02-23 09:49:42.224] $GNGGA,004941.60,3714.00632167,N,13701.48893668,E,4,12,0.8,100.209,M,36.772,M,1.6,0439*5C
[2021-02-23 09:49:42.318] $GNGGA,004941.70,3714.00630544,N,13701.48896078,E,4,12,0.8,100.190,M,36.772,M,1.7,0439*5A
[2021-02-23 09:49:42.427] $GNGGA,004941.80,3714.00628690,N,13701.48898460,E,4,12,0.8,100.191,M,36.772,M,1.8,0439*5B
[2021-02-23 09:49:42.521] $GNGGA,004941.90,3714.00627075,N,13701.48901054,E,4,12,0.8,100.193,M,36.772,M,0.9,0439*58
[2021-02-23 09:49:42.630] $GNGGA,004942.00,3714.00624777,N,13701.48904440,E,4,12,0.8,100.186,M,36.772,M,1.0,0439*5C
[2021-02-23 09:49:42.724] $GNGGA,004942.10,3714.00622239,N,13701.48907112,E,4,12,0.8,100.187,M,36.772,M,1.1,0439*55
[2021-02-23 09:49:42.833] $GNGGA,004942.20,3714.00619472,N,13701.48909625,E,4,12,0.8,100.175,M,36.772,M,1.2,0439*54
[2021-02-23 09:49:42.911] $GNGGA,004942.30,3714.00616550,N,13701.48912466,E,4,12,0.8,100.175,M,36.772,M,1.3,0439*55
[2021-02-23 09:49:43.021] $GNGGA,004942.40,3714.00613158,N,13701.48915372,E,4,12,0.8,100.153,M,36.772,M,1.4,0439*5D
[2021-02-23 09:49:43.114] $GNGGA,004942.50,3714.00609505,N,13701.48918006,E,4,12,0.8,100.164,M,36.772,M,1.5,0439*53
[2021-02-23 09:49:43.224] $GNGGA,004942.60,3714.00606301,N,13701.48921037,E,4,12,0.8,100.170,M,36.772,M,1.6,0439*53
[2021-02-23 09:49:43.318] $GNGGA,004942.70,3714.00604209,N,13701.48923102,E,4,12,0.8,100.164,M,36.772,M,1.7,0439*58
[2021-02-23 09:49:43.427] $GNGGA,004942.80,3714.00602533,N,13701.48924849,E,4,12,0.8,100.166,M,36.772,M,1.8,0439*53
[2021-02-23 09:49:43.521] $GNGGA,004942.90,3714.00601578,N,13701.48927761,E,4,12,0.8,100.159,M,36.772,M,0.9,0439*54
[2021-02-23 09:49:43.630] $GNGGA,004943.00,3714.00600634,N,13701.48930837,E,4,12,0.8,100.168,M,36.772,M,1.0,0439*56
[2021-02-23 09:49:43.724] $GNGGA,004943.10,3714.00599846,N,13701.48933712,E,4,12,0.8,100.152,M,36.772,M,1.1,0439*5C
[2021-02-23 09:49:43.833] $GNGGA,004943.20,3714.00598989,N,13701.48936411,E,4,12,0.8,100.144,M,36.772,M,1.2,0439*5D
[2021-02-23 09:49:43.911] $GNGGA,004943.30,3714.00598075,N,13701.48939488,E,4,12,0.8,100.141,M,36.772,M,1.3,0439*5D
[2021-02-23 09:49:44.021] $GNGGA,004943.40,3714.00597388,N,13701.48942305,E,4,12,0.8,100.156,M,36.772,M,1.4,0439*5B
[2021-02-23 09:49:44.114] $GNGGA,004943.50,3714.00597318,N,13701.48944207,E,4,12,0.8,100.142,M,36.772,M,1.5,0439*52
[2021-02-23 09:49:44.224] $GNGGA,004943.60,3714.00597097,N,13701.48945842,E,4,12,0.8,100.153,M,36.772,M,1.6,0439*5C
[2021-02-23 09:49:44.317] $GNGGA,004943.70,3714.00596621,N,13701.48946564,E,4,12,0.8,100.168,M,36.772,M,1.7,0439*54
[2021-02-23 09:49:44.427] $GNGGA,004943.80,3714.00595700,N,13701.48946473,E,4,12,0.8,100.152,M,36.772,M,1.8,0439*5B
[2021-02-23 09:49:44.521] $GNGGA,004943.90,3714.00594831,N,13701.48946845,E,4,12,0.8,100.138,M,36.772,M,1.9,0439*52
[2021-02-23 09:49:44.630] $GNGGA,004944.00,3714.00593338,N,13701.48947574,E,4,12,0.8,100.155,M,36.772,M,1.0,0439*55
[2021-02-23 09:49:44.724] $GNGGA,004944.10,3714.00592213,N,13701.48947803,E,4,12,0.8,100.155,M,36.772,M,1.1,0439*51
[2021-02-23 09:49:44.833] $GNGGA,004944.20,3714.00590717,N,13701.48948071,E,4,12,0.8,100.151,M,36.772,M,1.2,0439*54
[2021-02-23 09:49:44.911] $GNGGA,004944.30,3714.00589225,N,13701.48948137,E,4,12,0.8,100.144,M,36.772,M,1.3,0439*5F
[2021-02-23 09:49:45.021] $GNGGA,004944.40,3714.00587436,N,13701.48948642,E,4,12,0.8,100.147,M,36.772,M,1.4,0439*53
[2021-02-23 09:49:45.114] $GNGGA,004944.50,3714.00585757,N,13701.48949415,E,4,12,0.8,100.153,M,36.772,M,1.5,0439*51
[2021-02-23 09:49:45.224] $GNGGA,004944.60,3714.00584722,N,13701.48950470,E,4,12,0.8,100.150,M,36.772,M,1.6,0439*5A
[2021-02-23 09:49:45.317] $GNGGA,004944.70,3714.00583908,N,13701.48951345,E,4,12,0.8,100.149,M,36.772,M,1.7,0439*53
[2021-02-23 09:49:45.427] $GNGGA,004944.80,3714.00583829,N,13701.48952844,E,4,12,0.8,100.143,M,36.772,M,1.8,0439*52
[2021-02-23 09:49:45.521] $GNGGA,004944.90,3714.00584564,N,13701.48954599,E,4,12,0.8,100.152,M,36.772,M,1.9,0439*5A
[2021-02-23 09:49:45.630] $GNGGA,004945.00,3714.00585433,N,13701.48956372,E,4,12,0.8,100.159,M,36.772,M,1.0,0439*53
[2021-02-23 09:49:45.724] $GNGGA,004945.10,3714.00585748,N,13701.48957869,E,4,12,0.8,100.143,M,36.772,M,1.1,0439*57
[2021-02-23 09:49:45.833] $GNGGA,004945.20,3714.00585245,N,13701.48959004,E,4,12,0.8,100.139,M,36.772,M,1.2,0439*5F
[2021-02-23 09:49:45.927] $GNGGA,004945.30,3714.00584674,N,13701.48960032,E,4,12,0.8,100.135,M,36.772,M,1.3,0439*5B
[2021-02-23 09:49:46.021] $GNGGA,004945.40,3714.00583890,N,13701.48961274,E,4,12,0.8,100.120,M,36.772,M,1.4,0439*5D
[2021-02-23 09:49:46.114] $GNGGA,004945.50,3714.00583199,N,13701.48962935,E,4,12,0.8,100.133,M,36.772,M,1.5,0439*52
[2021-02-23 09:49:46.224] $GNGGA,004945.60,3714.00582619,N,13701.48964290,E,4,12,0.8,100.144,M,36.772,M,1.6,0439*5E
[2021-02-23 09:49:46.317] $GNGGA,004945.70,3714.00581136,N,13701.48966701,E,4,12,0.8,100.147,M,36.772,M,1.7,0439*5B
[2021-02-23 09:49:46.427] $GNGGA,004945.80,3714.00579479,N,13701.48969001,E,4,12,0.8,100.160,M,36.772,M,1.8,0439*5F
[2021-02-23 09:49:46.520] $GNGGA,004945.90,3714.00577368,N,13701.48971557,E,4,12,0.8,100.147,M,36.772,M,1.9,0439*5C
[2021-02-23 09:49:46.630] $GNGGA,004946.00,3714.00575346,N,13701.48974306,E,4,12,0.8,100.154,M,36.772,M,1.0,0439*54
[2021-02-23 09:49:46.724] $GNGGA,004946.10,3714.00572590,N,13701.48978542,E,4,12,0.8,100.168,M,36.772,M,1.1,0439*5B
[2021-02-23 09:49:46.833] $GNGGA,004946.20,3714.00570492,N,13701.48982920,E,4,12,0.8,100.160,M,36.772,M,1.2,0439*5F
[2021-02-23 09:49:46.911] $GNGGA,004946.30,3714.00568883,N,13701.48986907,E,4,12,0.8,100.163,M,36.772,M,1.3,0439*58
[2021-02-23 09:49:47.020] $GNGGA,004946.40,3714.00567600,N,13701.48990921,E,4,12,0.8,100.184,M,36.772,M,1.4,0439*58
[2021-02-23 09:49:47.114] $GNGGA,004946.50,3714.00566454,N,13701.48995209,E,4,12,0.8,100.176,M,36.772,M,1.5,0439*53
[2021-02-23 09:49:47.224] $GNGGA,004946.60,3714.00565622,N,13701.48999719,E,4,12,0.8,100.183,M,36.772,M,1.6,0439*51
[2021-02-23 09:49:47.317] $GNGGA,004946.70,3714.00564207,N,13701.49006132,E,4,12,0.8,100.178,M,36.772,M,1.7,0439*56
[2021-02-23 09:49:47.427] $GNGGA,004946.80,3714.00562426,N,13701.49011930,E,4,12,0.8,100.170,M,36.772,M,1.8,0439*51
[2021-02-23 09:49:47.520] $GNGGA,004946.90,3714.00560948,N,13701.49017778,E,4,12,0.8,100.177,M,36.772,M,1.9,0439*55
[2021-02-23 09:49:47.630] $GNGGA,004947.00,3714.00559680,N,13701.49023213,E,4,12,0.8,100.205,M,36.772,M,1.0,0439*5C
[2021-02-23 09:49:47.724] $GNGGA,004947.10,3714.00558011,N,13701.49027264,E,4,12,0.8,100.194,M,36.772,M,1.1,0439*5C
[2021-02-23 09:49:47.833] $GNGGA,004947.20,3714.00555828,N,13701.49031236,E,4,12,0.8,100.167,M,36.772,M,1.2,0439*5F
[2021-02-23 09:49:47.927] $GNGGA,004947.30,3714.00553607,N,13701.49035744,E,4,12,0.8,100.151,M,36.772,M,1.3,0439*5B
[2021-02-23 09:49:48.020] $GNGGA,004947.40,3714.00550729,N,13701.49039196,E,4,12,0.8,100.143,M,36.772,M,1.4,0439*53
[2021-02-23 09:49:48.114] $GNGGA,004947.50,3714.00548210,N,13701.49044035,E,4,12,0.8,100.154,M,36.772,M,1.5,0439*51
[2021-02-23 09:49:48.223] $GNGGA,004947.60,3714.00545904,N,13701.49047266,E,4,12,0.8,100.144,M,36.772,M,1.6,0439*54
[2021-02-23 09:49:48.317] $GNGGA,004947.70,3714.00543730,N,13701.49050946,E,4,12,0.8,100.165,M,36.772,M,1.7,0439*57
[2021-02-23 09:49:48.427] $GNGGA,004947.80,3714.00542296,N,13701.49055882,E,4,12,0.8,100.149,M,36.772,M,1.8,0439*5D
[2021-02-23 09:49:48.520] $GNGGA,004947.90,3714.00540516,N,13701.49060814,E,4,12,0.8,100.135,M,36.772,M,1.9,0439*52
[2021-02-23 09:49:48.630] $GNGGA,004948.00,3714.00538586,N,13701.49066488,E,4,12,0.8,100.145,M,36.772,M,1.0,0439*53
[2021-02-23 09:49:48.723] $GNGGA,004948.10,3714.00535856,N,13701.49071857,E,4,12,0.8,100.190,M,36.772,M,1.1,0439*5E
[2021-02-23 09:49:48.833] $GNGGA,004948.20,3714.00532840,N,13701.49077394,E,4,12,0.8,100.168,M,36.772,M,1.2,0439*5B
[2021-02-23 09:49:48.927] $GNGGA,004948.30,3714.00529891,N,13701.49082606,E,4,12,0.8,100.167,M,36.772,M,1.3,0439*56
[2021-02-23 09:49:49.020] $GNGGA,004948.40,3714.00526365,N,13701.49087797,E,4,12,0.8,100.176,M,36.772,M,1.4,0439*55
[2021-02-23 09:49:49.114] $GNGGA,004948.50,3714.00522531,N,13701.49092885,E,4,12,0.8,100.158,M,36.772,M,1.5,0439*52
[2021-02-23 09:49:49.223] $GNGGA,004948.60,3714.00518044,N,13701.49098530,E,4,12,0.8,100.161,M,36.772,M,1.6,0439*5F
[2021-02-23 09:49:49.317] $GNGGA,004948.70,3714.00513529,N,13701.49104579,E,4,12,0.8,100.160,M,36.772,M,1.7,0439*52
[2021-02-23 09:49:49.426] $GNGGA,004948.80,3714.00509912,N,13701.49109372,E,4,12,0.8,100.164,M,36.772,M,1.8,0439*59
[2021-02-23 09:49:49.520] $GNGGA,004948.90,3714.00506902,N,13701.49113704,E,4,11,0.9,100.141,M,36.772,M,0.9,0439*5D
[2021-02-23 09:49:49.630] $GNGGA,004949.00,3714.00503659,N,13701.49121186,E,4,11,0.9,100.135,M,36.772,M,1.0,0439*57
[2021-02-23 09:49:49.723] $GNGGA,004949.10,3714.00500715,N,13701.49127598,E,4,11,0.9,100.111,M,36.772,M,1.1,0439*56
[2021-02-23 09:49:49.833] $GNGGA,004949.20,3714.00497708,N,13701.49134711,E,4,11,0.9,100.098,M,36.772,M,1.2,0439*54
[2021-02-23 09:49:49.926] $GNGGA,004949.30,3714.00494251,N,13701.49140586,E,4,11,0.9,100.130,M,36.772,M,1.3,0439*52
[2021-02-23 09:49:50.020] $GNGGA,004949.40,3714.00491584,N,13701.49145605,E,4,11,0.9,100.130,M,36.772,M,1.4,0439*55
[2021-02-23 09:49:50.114] $GNGGA,004949.50,3714.00488820,N,13701.49150277,E,4,11,0.9,100.130,M,36.772,M,1.5,0439*5B
[2021-02-23 09:49:50.223] $GNGGA,004949.60,3714.00485881,N,13701.49155995,E,4,11,0.9,100.108,M,36.772,M,1.6,0439*54
[2021-02-23 09:49:50.317] $GNGGA,004949.70,3714.00482092,N,13701.49160342,E,4,11,0.9,100.133,M,36.772,M,1.7,0439*57
[2021-02-23 09:49:50.426] $GNGGA,004949.80,3714.00478566,N,13701.49165011,E,4,11,0.9,100.134,M,36.772,M,1.8,0439*5B
[2021-02-23 09:49:50.520] $GNGGA,004949.90,3714.00474764,N,13701.49168738,E,4,11,0.9,100.166,M,36.772,M,0.9,0439*50
[2021-02-23 09:49:50.630] $GNGGA,004950.00,3714.00471804,N,13701.49173655,E,4,11,0.9,100.153,M,36.772,M,1.0,0439*53
[2021-02-23 09:49:50.723] $GNGGA,004950.10,3714.00468375,N,13701.49179571,E,4,11,0.9,100.155,M,36.772,M,1.1,0439*5F
[2021-02-23 09:49:50.833] $GNGGA,004950.20,3714.00465313,N,13701.49185996,E,4,11,0.9,100.130,M,36.772,M,1.2,0439*57
[2021-02-23 09:49:50.926] $GNGGA,004950.30,3714.00462228,N,13701.49193485,E,4,11,0.9,100.098,M,36.772,M,1.3,0439*52
[2021-02-23 09:49:51.020] $GNGGA,004950.40,3714.00459260,N,13701.49201510,E,4,11,0.9,100.094,M,36.772,M,1.4,0439*5F
[2021-02-23 09:49:51.114] $GNGGA,004950.50,3714.00456736,N,13701.49208278,E,4,11,0.9,100.140,M,36.772,M,1.5,0439*5E
[2021-02-23 09:49:51.223] $GNGGA,004950.60,3714.00454228,N,13701.49213280,E,4,11,0.9,100.137,M,36.772,M,1.6,0439*5B
[2021-02-23 09:49:51.317] $GNGGA,004950.70,3714.00451845,N,13701.49218727,E,4,11,0.9,100.128,M,36.772,M,1.7,0439*52
[2021-02-23 09:49:51.426] $GNGGA,004950.80,3714.00449435,N,13701.49223251,E,4,11,0.9,100.116,M,36.772,M,1.8,0439*51
[2021-02-23 09:49:51.520] $GNGGA,004950.90,3714.00446831,N,13701.49226749,E,4,11,0.9,100.115,M,36.772,M,0.9,0439*5D
[2021-02-23 09:49:51.629] $GNGGA,004951.00,3714.00444869,N,13701.49230198,E,4,11,0.9,100.104,M,36.772,M,1.0,0439*5F
[2021-02-23 09:49:51.723] $GNGGA,004951.10,3714.00443637,N,13701.49232973,E,4,11,0.9,100.113,M,36.772,M,1.1,0439*54
[2021-02-23 09:49:51.833] $GNGGA,004951.20,3714.00442389,N,13701.49237331,E,4,11,0.9,100.111,M,36.772,M,1.2,0439*5E
[2021-02-23 09:49:51.926] $GNGGA,004951.30,3714.00441511,N,13701.49241670,E,4,11,0.9,100.113,M,36.772,M,1.3,0439*59
[2021-02-23 09:49:52.020] $GNGGA,004951.40,3714.00439614,N,13701.49246574,E,4,11,0.9,100.104,M,36.772,M,1.4,0439*56
[2021-02-23 09:49:52.114] $GNGGA,004951.50,3714.00437352,N,13701.49252163,E,4,11,0.9,100.056,M,36.772,M,1.5,0439*5E
[2021-02-23 09:49:52.223] $GNGGA,004951.60,3714.00434653,N,13701.49258377,E,4,11,0.9,100.075,M,36.772,M,1.6,0439*55
[2021-02-23 09:49:52.317] $GNGGA,004951.70,3714.00430956,N,13701.49265935,E,4,11,0.9,100.097,M,36.772,M,1.7,0439*55
[2021-02-23 09:49:52.426] $GNGGA,004951.80,3714.00427723,N,13701.49272386,E,4,11,0.9,100.081,M,36.772,M,1.8,0439*5C
[2021-02-23 09:49:52.520] $GNGGA,004951.90,3714.00425200,N,13701.49280054,E,4,11,0.9,100.082,M,36.772,M,1.9,0439*58
[2021-02-23 09:49:52.629] $GNGGA,004952.00,3714.00421654,N,13701.49286783,E,4,12,0.8,100.048,M,36.772,M,1.0,0439*55
[2021-02-23 09:49:52.723] $GNGGA,004952.10,3714.00418100,N,13701.49294747,E,4,12,0.8,100.039,M,36.772,M,1.1,0439*54
[2021-02-23 09:49:52.832] $GNGGA,004952.20,3714.00415339,N,13701.49300563,E,4,12,0.8,100.047,M,36.772,M,1.2,0439*50
[2021-02-23 09:49:52.926] $GNGGA,004952.30,3714.00413140,N,13701.49306333,E,4,12,0.8,100.045,M,36.772,M,1.3,0439*5D
[2021-02-23 09:49:53.020] $GNGGA,004952.40,3714.00410833,N,13701.49313471,E,4,12,0.8,100.061,M,36.772,M,1.4,0439*50
[2021-02-23 09:49:53.114] $GNGGA,004952.50,3714.00408682,N,13701.49320229,E,4,12,0.8,100.033,M,36.772,M,1.5,0439*51
[2021-02-23 09:49:53.223] $GNGGA,004952.60,3714.00406762,N,13701.49328119,E,4,12,0.8,100.009,M,36.772,M,1.6,0439*51
[2021-02-23 09:49:53.317] $GNGGA,004952.70,3714.00404127,N,13701.49335100,E,4,12,0.8,100.024,M,36.772,M,1.7,0439*5F
[2021-02-23 09:49:53.426] $GNGGA,004952.80,3714.00400847,N,13701.49341584,E,4,12,0.8,100.040,M,36.772,M,0.8,0439*5C
[2021-02-23 09:49:53.520] $GNGGA,004952.90,3714.00397946,N,13701.49347690,E,4,12,0.8,100.016,M,36.772,M,0.9,0439*56
[2021-02-23 09:49:53.629] $GNGGA,004953.00,3714.00395198,N,13701.49353408,E,4,12,0.8,100.032,M,36.772,M,1.0,0439*5F
[2021-02-23 09:49:53.723] $GNGGA,004953.10,3714.00392517,N,13701.49358962,E,4,12,0.8,100.007,M,36.772,M,1.1,0439*57
[2021-02-23 09:49:53.832] $GNGGA,004953.20,3714.00389726,N,13701.49364257,E,4,12,0.8,100.026,M,36.772,M,1.2,0439*5C
[2021-02-23 09:49:53.926] $GNGGA,004953.30,3714.00386514,N,13701.49368871,E,4,12,0.8,100.025,M,36.772,M,1.3,0439*51
[2021-02-23 09:49:54.020] $GNGGA,004953.40,3714.00383732,N,13701.49373614,E,4,12,0.8,100.038,M,36.772,M,1.4,0439*59
[2021-02-23 09:49:54.114] $GNGGA,004953.50,3714.00381513,N,13701.49378807,E,4,12,0.8,100.032,M,36.772,M,1.5,0439*57
[2021-02-23 09:49:54.223] $GNGGA,004953.60,3714.00378639,N,13701.49384805,E,4,12,0.8,100.013,M,36.772,M,1.6,0439*58
[2021-02-23 09:49:54.317] $GNGGA,004953.70,3714.00376165,N,13701.49390927,E,4,12,0.8,100.017,M,36.772,M,1.7,0439*58
[2021-02-23 09:49:54.426] $GNGGA,004953.80,3714.00373456,N,13701.49396967,E,4,12,0.8,99.988,M,36.772,M,1.8,0439*64
[2021-02-23 09:49:54.520] $GNGGA,004953.90,3714.00370590,N,13701.49403984,E,4,12,0.8,99.991,M,36.772,M,1.9,0439*62
[2021-02-23 09:49:54.629] $GNGGA,004954.00,3714.00367975,N,13701.49410142,E,4,12,0.8,99.978,M,36.772,M,1.0,0439*63
[2021-02-23 09:49:54.723] $GNGGA,004954.10,3714.00365490,N,13701.49416149,E,4,12,0.8,99.984,M,36.772,M,1.1,0439*69
[2021-02-23 09:49:54.832] $GNGGA,004954.20,3714.00363284,N,13701.49422125,E,4,12,0.8,99.973,M,36.772,M,1.2,0439*69
