
[2021-02-23 10:03:23.860] $GNGGA,010315.10,3714.00167243,N,13701.48582684,E,4,12,0.9,99.311,M,36.772,M,1.1,0439*67
[2021-02-23 10:03:23.875] $GNGGA,010315.20,3714.00167185,N,13701.48582419,E,4,12,0.9,99.311,M,36.772,M,1.2,0439*68
[2021-02-23 10:03:23.875] $GNGGA,010315.30,3714.00167223,N,13701.48582698,E,4,12,0.9,99.313,M,36.772,M,1.3,0439*6E
[2021-02-23 10:03:23.875] $GNGGA,010315.40,3714.00167141,N,13701.48582574,E,4,12,0.9,99.316,M,36.772,M,1.4,0439*6D
[2021-02-23 10:03:23.875] $GNGGA,010315.50,3714.00167172,N,13701.48582615,E,4,12,0.9,99.315,M,36.772,M,1.5,0439*6A
[2021-02-23 10:03:23.875] $GNGGA,010315.60,3714.00167209,N,13701.48582529,E,4,12,0.9,99.314,M,36.772,M,1.6,0439*68
[2021-02-23 10:03:23.875] $GNGGA,010315.70,3714.00167138,N,13701.48582363,E,4,12,0.9,99.314,M,36.772,M,1.7,0439*61
[2021-02-23 10:03:23.875] $GNGGA,010315.80,3714.00167057,N,13701.48582644,E,4,12,0.9,99.310,M,36.772,M,1.8,0439*6D
[2021-02-23 10:03:23.875] $GNGGA,010315.90,3714.00166995,N,13701.48582519,E,4,12,0.9,99.308,M,36.772,M,1.9,0439*69
[2021-02-23 10:03:23.875] $GNGGA,010316.00,3714.00166875,N,13701.48582831,E,4,12,0.8,99.307,M,36.772,M,1.0,0439*6C
[2021-02-23 10:03:23.875] $GNGGA,010316.10,3714.00166845,N,13701.48582487,E,4,12,0.8,99.314,M,36.772,M,1.1,0439*6C
[2021-02-23 10:03:23.875] $GNGGA,010316.20,3714.00167004,N,13701.48582587,E,4,12,0.8,99.313,M,36.772,M,1.2,0439*66
[2021-02-23 10:03:23.875] $GNGGA,010316.30,3714.00166872,N,13701.48582752,E,4,12,0.8,99.308,M,36.772,M,1.3,0439*6E
[2021-02-23 10:03:23.891] $GNGGA,010316.40,3714.00167091,N,13701.48582659,E,4,12,0.8,99.306,M,36.772,M,1.4,0439*6E
[2021-02-23 10:03:23.891] $GNGGA,010316.50,3714.00166960,N,13701.48582555,E,4,12,0.8,99.311,M,36.772,M,1.5,0439*61
[2021-02-23 10:03:23.891] $GNGGA,010316.60,3714.00167201,N,13701.48582637,E,4,12,0.8,99.310,M,36.772,M,1.6,0439*6A
[2021-02-23 10:03:23.891] $GNGGA,010316.70,3714.00166954,N,13701.48582485,E,4,12,0.8,99.315,M,36.772,M,1.7,0439*6E
[2021-02-23 10:03:23.891] $GNGGA,010316.80,3714.00167291,N,13701.48582666,E,4,12,0.8,99.311,M,36.772,M,1.8,0439*66
[2021-02-23 10:03:23.891] $GNGGA,010316.90,3714.00167221,N,13701.48582639,E,4,12,0.8,99.313,M,36.772,M,1.9,0439*65
[2021-02-23 10:03:23.891] $GNGGA,010317.00,3714.00167299,N,13701.48583002,E,4,12,0.8,99.306,M,36.772,M,2.0,0439*6F
[2021-02-23 10:03:23.891] $GNGGA,010317.10,3714.00167230,N,13701.48582833,E,4,12,0.9,99.313,M,36.772,M,1.1,0439*61
[2021-02-23 10:03:23.891] $GNGGA,010317.20,3714.00167604,N,13701.48582944,E,4,12,0.9,99.311,M,36.772,M,1.2,0439*61
[2021-02-23 10:03:23.891] $GNGGA,010317.30,3714.00167433,N,13701.48583095,E,4,12,0.9,99.312,M,36.772,M,1.3,0439*60
[2021-02-23 10:03:23.891] $GNGGA,010317.40,3714.00167533,N,13701.48583287,E,4,12,0.9,99.314,M,36.772,M,1.4,0439*66
[2021-02-23 10:03:23.907] $GNGGA,010317.50,3714.00167473,N,13701.48583089,E,4,12,0.9,99.313,M,36.772,M,1.5,0439*68
[2021-02-23 10:03:23.907] $GNGGA,010317.60,3714.00167383,N,13701.48583015,E,4,12,0.9,99.311,M,36.772,M,1.6,0439*67
[2021-02-23 10:03:23.907] $GNGGA,010317.70,3714.00167565,N,13701.48583206,E,4,12,0.9,99.312,M,36.772,M,1.7,0439*6A
[2021-02-23 10:03:23.907] $GNGGA,010317.80,3714.00167551,N,13701.48583247,E,4,12,0.9,99.309,M,36.772,M,1.8,0439*62
[2021-02-23 10:03:23.907] $GNGGA,010317.90,3714.00167396,N,13701.48583159,E,4,12,0.9,99.316,M,36.772,M,1.9,0439*6D
[2021-02-23 10:03:23.907] $GNGGA,010318.00,3714.00167433,N,13701.48583281,E,4,12,0.9,99.309,M,36.772,M,1.0,0439*62
[2021-02-23 10:03:23.907] $GNGGA,010318.10,3714.00167549,N,13701.48583066,E,4,12,0.9,99.313,M,36.772,M,1.1,0439*6E
[2021-02-23 10:03:23.907] $GNGGA,010318.20,3714.00167535,N,13701.48583306,E,4,12,0.9,99.312,M,36.772,M,1.2,0439*61
[2021-02-23 10:03:23.907] $GNGGA,010318.30,3714.00167446,N,13701.48583297,E,4,12,0.9,99.317,M,36.772,M,1.3,0439*68
[2021-02-23 10:03:23.907] $GNGGA,010318.40,3714.00167649,N,13701.48583075,E,4,12,0.9,99.311,M,36.772,M,1.4,0439*6D
[2021-02-23 10:03:23.907] $GNGGA,010318.50,3714.00167411,N,13701.48583245,E,4,12,0.9,99.311,M,36.772,M,1.5,0439*63
[2021-02-23 10:03:23.922] $GNGGA,010318.60,3714.00167506,N,13701.48583167,E,4,12,0.9,99.310,M,36.772,M,1.6,0439*66
[2021-02-23 10:03:23.922] $GNGGA,010318.70,3714.00167644,N,13701.48583340,E,4,12,0.9,99.309,M,36.772,M,1.7,0439*6C
[2021-02-23 10:03:23.922] $GNGGA,010318.80,3714.00167787,N,13701.48583301,E,4,12,0.9,99.309,M,36.772,M,1.8,0439*67
[2021-02-23 10:03:23.922] $GNGGA,010318.90,3714.00167627,N,13701.48583279,E,4,12,0.9,99.314,M,36.772,M,1.9,0439*6E
[2021-02-23 10:03:23.922] $GNGGA,010319.00,3714.00167860,N,13701.48583216,E,4,12,0.9,99.308,M,36.772,M,2.0,0439*65
[2021-02-23 10:03:23.922] $GNGGA,010319.10,3714.00167801,N,13701.48583229,E,4,12,0.9,99.318,M,36.772,M,1.1,0439*6C
[2021-02-23 10:03:23.922] $GNGGA,010319.20,3714.00167973,N,13701.48583230,E,4,12,0.9,99.316,M,36.772,M,1.2,0439*6E
[2021-02-23 10:03:23.922] $GNGGA,010319.30,3714.00167901,N,13701.48583439,E,4,12,0.9,99.320,M,36.772,M,1.3,0439*61
[2021-02-23 10:03:23.922] $GNGGA,010319.40,3714.00168098,N,13701.48583563,E,4,12,0.9,99.312,M,36.772,M,1.4,0439*68
[2021-02-23 10:03:23.922] $GNGGA,010319.50,3714.00167944,N,13701.48583401,E,4,12,0.9,99.320,M,36.772,M,1.5,0439*6B
[2021-02-23 10:03:23.922] $GNGGA,010319.60,3714.00167812,N,13701.48583308,E,4,12,0.9,99.323,M,36.772,M,1.6,0439*64
[2021-02-23 10:03:23.922] $GNGGA,010319.70,3714.00168018,N,13701.48583396,E,4,12,0.9,99.317,M,36.772,M,1.7,0439*69
[2021-02-23 10:03:23.938] $GNGGA,010319.80,3714.00168048,N,13701.48583252,E,4,12,0.9,99.320,M,36.772,M,1.8,0439*61
[2021-02-23 10:03:23.938] $GNGGA,010319.90,3714.00168063,N,13701.48583186,E,4,12,0.9,99.316,M,36.772,M,1.9,0439*67
[2021-02-23 10:03:23.938] $GNGGA,010320.00,3714.00167783,N,13701.48583196,E,4,12,0.9,99.318,M,36.772,M,1.0,0439*64
[2021-02-23 10:03:23.938] $GNGGA,010320.10,3714.00167799,N,13701.48583239,E,4,12,0.9,99.317,M,36.772,M,1.1,0439*66
[2021-02-23 10:03:23.938] $GNGGA,010320.20,3714.00167641,N,13701.48583243,E,4,12,0.9,99.322,M,36.772,M,1.2,0439*69
[2021-02-23 10:03:23.938] $GNGGA,010320.30,3714.00167650,N,13701.48583120,E,4,12,0.9,99.324,M,36.772,M,1.3,0439*69
[2021-02-23 10:03:23.938] $GNGGA,010320.40,3714.00167792,N,13701.48583232,E,4,12,0.9,99.318,M,36.772,M,1.4,0439*69
[2021-02-23 10:03:23.938] $GNGGA,010320.50,3714.00167568,N,13701.48583218,E,4,12,0.9,99.323,M,36.772,M,1.5,0439*6E
[2021-02-23 10:03:23.938] $GNGGA,010320.60,3714.00167646,N,13701.48583084,E,4,12,0.9,99.319,M,36.772,M,1.6,0439*6F
[2021-02-23 10:03:23.938] $GNGGA,010320.70,3714.00167563,N,13701.48583142,E,4,12,0.9,99.321,M,36.772,M,1.7,0439*6B
[2021-02-23 10:03:23.938] $GNGGA,010320.80,3714.00167578,N,13701.48583262,E,4,12,0.9,99.317,M,36.772,M,1.8,0439*65
[2021-02-23 10:03:23.953] $GNGGA,010320.90,3714.00167586,N,13701.48583357,E,4,12,0.9,99.316,M,36.772,M,1.9,0439*62
[2021-02-23 10:03:23.953] $GNGGA,010321.00,3714.00167652,N,13701.48583254,E,4,12,0.8,99.322,M,36.772,M,1.0,0439*6D
[2021-02-23 10:03:23.953] $GNGGA,010321.10,3714.00167552,N,13701.48583143,E,4,12,0.8,99.325,M,36.772,M,1.1,0439*6C
[2021-02-23 10:03:23.953] $GNGGA,010321.20,3714.00167694,N,13701.48583363,E,4,12,0.8,99.315,M,36.772,M,1.2,0439*66
[2021-02-23 10:03:23.953] $GNGGA,010321.30,3714.00167559,N,13701.48583138,E,4,12,0.8,99.322,M,36.772,M,1.3,0439*6C
[2021-02-23 10:03:23.953] $GNGGA,010321.40,3714.00167685,N,13701.48583350,E,4,12,0.8,99.321,M,36.772,M,1.4,0439*61
[2021-02-23 10:03:23.953] $GNGGA,010321.50,3714.00167827,N,13701.48583389,E,4,12,0.8,99.318,M,36.772,M,1.5,0439*69
[2021-02-23 10:03:23.953] $GNGGA,010321.60,3714.00167595,N,13701.48583350,E,4,12,0.8,99.318,M,36.772,M,1.6,0439*69
[2021-02-23 10:03:23.953] $GNGGA,010321.70,3714.00167637,N,13701.48583361,E,4,12,0.8,99.318,M,36.772,M,1.7,0439*60
[2021-02-23 10:03:23.953] $GNGGA,010321.80,3714.00167659,N,13701.48583299,E,4,12,0.8,99.320,M,36.772,M,1.8,0439*65
[2021-02-23 10:03:23.953] $GNGGA,010321.90,3714.00167616,N,13701.48583399,E,4,12,0.8,99.311,M,36.772,M,0.9,0439*6C
[2021-02-23 10:03:23.969] $GNGGA,010322.00,3714.00167854,N,13701.48583366,E,4,12,0.8,99.306,M,36.772,M,1.0,0439*60
[2021-02-23 10:03:23.969] $GNGGA,010322.10,3714.00167581,N,13701.48583090,E,4,12,0.8,99.311,M,36.772,M,1.1,0439*69
[2021-02-23 10:03:23.969] $GNGGA,010322.20,3714.00167693,N,13701.48583330,E,4,12,0.8,99.305,M,36.772,M,1.2,0439*65
[2021-02-23 10:03:23.969] $GNGGA,010322.30,3714.00167592,N,13701.48583215,E,4,12,0.8,99.308,M,36.772,M,1.3,0439*6C
[2021-02-23 10:03:23.969] $GNGGA,010322.40,3714.00167776,N,13701.48583158,E,4,12,0.8,99.309,M,36.772,M,1.4,0439*6F
[2021-02-23 10:03:23.969] $GNGGA,010322.50,3714.00167662,N,13701.48583031,E,4,12,0.8,99.310,M,36.772,M,1.5,0439*6D
[2021-02-23 10:03:23.969] $GNGGA,010322.60,3714.00167783,N,13701.48583222,E,4,12,0.8,99.306,M,36.772,M,1.6,0439*64
[2021-02-23 10:03:23.969] $GNGGA,010322.70,3714.00167896,N,13701.48583347,E,4,12,0.8,99.308,M,36.772,M,1.7,0439*63
[2021-02-23 10:03:23.969] $GNGGA,010322.80,3714.00167649,N,13701.48583279,E,4,12,0.8,99.302,M,36.772,M,1.8,0439*69
[2021-02-23 10:03:23.969] $GNGGA,010322.90,3714.00167638,N,13701.48583264,E,4,12,0.8,99.311,M,36.772,M,1.9,0439*61
[2021-02-23 10:03:23.969] $GNGGA,010323.00,3714.00167781,N,13701.48583005,E,4,12,0.8,99.310,M,36.772,M,2.0,0439*64
[2021-02-23 10:03:23.969] $GNGGA,010323.10,3714.00167720,N,13701.48583151,E,4,12,0.8,99.310,M,36.772,M,2.1,0439*6F
[2021-02-23 10:03:23.969] $GNGGA,010323.20,3714.00167564,N,13701.48583350,E,4,12,0.9,99.328,M,36.772,M,1.2,0439*67
[2021-02-23 10:03:23.969] $GNGGA,010323.30,3714.00167690,N,13701.48583392,E,4,12,0.9,99.324,M,36.772,M,1.3,0439*6D
[2021-02-23 10:03:24.032] $GNGGA,010323.40,3714.00167736,N,13701.48583125,E,4,12,0.9,99.327,M,36.772,M,1.4,0439*6D
[2021-02-23 10:03:24.125] $GNGGA,010323.50,3714.00167710,N,13701.48583427,E,4,12,0.9,99.325,M,36.772,M,1.5,0439*6C
[2021-02-23 10:03:24.235] $GNGGA,010323.60,3714.00167657,N,13701.48583421,E,4,12,0.9,99.318,M,36.772,M,1.6,0439*66
[2021-02-23 10:03:24.313] $GNGGA,010323.70,3714.00167650,N,13701.48583551,E,4,12,0.9,99.325,M,36.772,M,1.7,0439*69
[2021-02-23 10:03:24.422] $GNGGA,010323.80,3714.00167684,N,13701.48583330,E,4,12,0.9,99.322,M,36.772,M,1.8,0439*66
[2021-02-23 10:03:24.516] $GNGGA,010323.90,3714.00167616,N,13701.48583392,E,4,12,0.9,99.325,M,36.772,M,1.9,0439*62
[2021-02-23 10:03:24.625] $GNGGA,010324.00,3714.00167923,N,13701.48583401,E,4,12,0.8,99.320,M,36.772,M,1.0,0439*65
[2021-02-23 10:03:24.719] $GNGGA,010324.10,3714.00167834,N,13701.48583246,E,4,12,0.8,99.317,M,36.772,M,1.1,0439*63
[2021-02-23 10:03:24.828] $GNGGA,010324.20,3714.00167815,N,13701.48583214,E,4,12,0.8,99.324,M,36.772,M,1.2,0439*67
[2021-02-23 10:03:24.922] $GNGGA,010324.30,3714.00167899,N,13701.48583224,E,4,12,0.8,99.319,M,36.772,M,1.3,0439*6E
[2021-02-23 10:03:25.031] $GNGGA,010324.40,3714.00167842,N,13701.48583034,E,4,12,0.8,99.328,M,36.772,M,1.4,0439*69
[2021-02-23 10:03:25.125] $GNGGA,010324.50,3714.00167800,N,13701.48583069,E,4,12,0.8,99.318,M,36.772,M,1.5,0439*64
[2021-02-23 10:03:25.219] $GNGGA,010324.60,3714.00167701,N,13701.48583153,E,4,12,0.8,99.323,M,36.772,M,1.6,0439*6A
[2021-02-23 10:03:25.313] $GNGGA,010324.70,3714.00167745,N,13701.48583348,E,4,12,0.8,99.320,M,36.772,M,1.7,0439*61
[2021-02-23 10:03:25.422] $GNGGA,010324.80,3714.00167562,N,13701.48583111,E,4,12,0.8,99.324,M,36.772,M,1.8,0439*6C
[2021-02-23 10:03:25.516] $GNGGA,010324.90,3714.00167572,N,13701.48583219,E,4,12,0.8,99.324,M,36.772,M,1.9,0439*66
[2021-02-23 10:03:25.625] $GNGGA,010325.00,3714.00167646,N,13701.48583548,E,4,12,0.8,99.322,M,36.772,M,2.0,0439*65
[2021-02-23 10:03:25.719] $GNGGA,010325.10,3714.00167805,N,13701.48583818,E,4,12,0.9,99.318,M,36.772,M,1.1,0439*6F
[2021-02-23 10:03:25.828] $GNGGA,010325.20,3714.00167544,N,13701.48583439,E,4,12,0.9,99.324,M,36.772,M,1.2,0439*67
[2021-02-23 10:03:25.922] $GNGGA,010325.30,3714.00167715,N,13701.48583467,E,4,12,0.9,99.327,M,36.772,M,1.3,0439*69
[2021-02-23 10:03:26.031] $GNGGA,010325.40,3714.00167773,N,13701.48583611,E,4,12,0.9,99.319,M,36.772,M,1.4,0439*67
[2021-02-23 10:03:26.125] $GNGGA,010325.50,3714.00167793,N,13701.48583511,E,4,12,0.9,99.322,M,36.772,M,1.5,0439*62
[2021-02-23 10:03:26.219] $GNGGA,010325.60,3714.00167687,N,13701.48583787,E,4,12,0.9,99.327,M,36.772,M,1.6,0439*6E
[2021-02-23 10:03:26.313] $GNGGA,010325.70,3714.00167607,N,13701.48583904,E,4,12,0.9,99.326,M,36.772,M,1.7,0439*62
[2021-02-23 10:03:26.422] $GNGGA,010325.80,3714.00167849,N,13701.48583772,E,4,12,0.9,99.325,M,36.772,M,1.8,0439*6A
[2021-02-23 10:03:26.516] $GNGGA,010325.90,3714.00167898,N,13701.48584027,E,4,12,0.9,99.326,M,36.772,M,1.9,0439*65
[2021-02-23 10:03:26.625] $GNGGA,010326.00,3714.00167868,N,13701.48583764,E,4,12,0.9,99.327,M,36.772,M,2.0,0439*6C
[2021-02-23 10:03:26.719] $GNGGA,010326.10,3714.00168053,N,13701.48583353,E,4,12,0.9,99.324,M,36.772,M,1.1,0439*63
[2021-02-23 10:03:26.828] $GNGGA,010326.20,3714.00168175,N,13701.48583442,E,4,12,0.9,99.330,M,36.772,M,1.2,0439*64
[2021-02-23 10:03:26.922] $GNGGA,010326.30,3714.00167896,N,13701.48583568,E,4,12,0.9,99.327,M,36.772,M,1.3,0439*60
[2021-02-23 10:03:27.031] $GNGGA,010326.40,3714.00168115,N,13701.48583568,E,4,12,0.9,99.330,M,36.772,M,1.4,0439*6B
[2021-02-23 10:03:27.125] $GNGGA,010326.50,3714.00168033,N,13701.48583433,E,4,12,0.9,99.325,M,36.772,M,1.5,0439*65
[2021-02-23 10:03:27.219] $GNGGA,010326.60,3714.00167787,N,13701.48583486,E,4,12,0.9,99.329,M,36.772,M,1.6,0439*60
[2021-02-23 10:03:27.313] $GNGGA,010326.70,3714.00167904,N,13701.48583468,E,4,12,0.9,99.328,M,36.772,M,1.7,0439*64
[2021-02-23 10:03:27.422] $GNGGA,010326.80,3714.00168038,N,13701.48583163,E,4,12,0.9,99.330,M,36.772,M,1.8,0439*6A
[2021-02-23 10:03:27.516] $GNGGA,010326.90,3714.00167965,N,13701.48583202,E,4,12,0.9,99.328,M,36.772,M,1.9,0439*69
[2021-02-23 10:03:27.625] $GNGGA,010327.00,3714.00168139,N,13701.48583952,E,4,12,0.8,99.322,M,36.772,M,1.0,0439*63
[2021-02-23 10:03:27.719] $GNGGA,010327.10,3714.00168297,N,13701.48583867,E,4,12,0.8,99.326,M,36.772,M,1.1,0439*67
[2021-02-23 10:03:27.828] $GNGGA,010327.20,3714.00168011,N,13701.48583760,E,4,12,0.8,99.326,M,36.772,M,1.2,0439*63
[2021-02-23 10:03:27.922] $GNGGA,010327.30,3714.00167890,N,13701.48583829,E,4,12,0.8,99.331,M,36.772,M,1.3,0439*69
[2021-02-23 10:03:28.031] $GNGGA,010327.40,3714.00167879,N,13701.48583770,E,4,12,0.8,99.328,M,36.772,M,1.4,0439*65
[2021-02-23 10:03:28.125] $GNGGA,010327.50,3714.00167854,N,13701.48583836,E,4,12,0.8,99.326,M,36.772,M,1.5,0439*69
[2021-02-23 10:03:28.219] $GNGGA,010327.60,3714.00168007,N,13701.48583805,E,4,12,0.8,99.323,M,36.772,M,1.6,0439*6D
[2021-02-23 10:03:28.313] $GNGGA,010327.70,3714.00167813,N,13701.48583545,E,4,12,0.8,99.324,M,36.772,M,1.7,0439*61
[2021-02-23 10:03:28.422] $GNGGA,010327.80,3714.00167907,N,13701.48583667,E,4,12,0.8,99.322,M,36.772,M,1.8,0439*60
[2021-02-23 10:03:28.516] $GNGGA,010327.90,3714.00167896,N,13701.48583964,E,4,12,0.8,99.327,M,36.772,M,1.9,0439*60
[2021-02-23 10:03:28.625] $GNGGA,010328.00,3714.00167898,N,13701.48583691,E,4,12,0.8,99.324,M,36.772,M,1.0,0439*67
[2021-02-23 10:03:28.719] $GNGGA,010328.10,3714.00167838,N,13701.48583787,E,4,12,0.8,99.326,M,36.772,M,1.1,0439*69
[2021-02-23 10:03:28.828] $GNGGA,010328.20,3714.00167775,N,13701.48584030,E,4,12,0.8,99.326,M,36.772,M,1.2,0439*63
[2021-02-23 10:03:28.922] $GNGGA,010328.30,3714.00167878,N,13701.48583940,E,4,12,0.8,99.324,M,36.772,M,1.3,0439*6A
[2021-02-23 10:03:29.031] $GNGGA,010328.40,3714.00168060,N,13701.48583899,E,4,12,0.8,99.326,M,36.772,M,1.4,0439*63
[2021-02-23 10:03:29.125] $GNGGA,010328.50,3714.00167852,N,13701.48583766,E,4,12,0.8,99.322,M,36.772,M,1.5,0439*6E
[2021-02-23 10:03:29.219] $GNGGA,010328.60,3714.00168025,N,13701.48583740,E,4,12,0.8,99.320,M,36.772,M,1.6,0439*6F
[2021-02-23 10:03:29.312] $GNGGA,010328.70,3714.00168034,N,13701.48583597,E,4,12,0.8,99.324,M,36.772,M,1.7,0439*63
[2021-02-23 10:03:29.422] $GNGGA,010328.80,3714.00168243,N,13701.48583678,E,4,12,0.8,99.321,M,36.772,M,1.8,0439*66
[2021-02-23 10:03:29.516] $GNGGA,010328.90,3714.00168096,N,13701.48584042,E,4,12,0.8,99.323,M,36.772,M,1.9,0439*66
[2021-02-23 10:03:29.625] $GNGGA,010329.00,3714.00167950,N,13701.48583657,E,4,12,0.9,99.328,M,36.772,M,1.0,0439*64
[2021-02-23 10:03:29.719] $GNGGA,010329.10,3714.00168068,N,13701.48583758,E,4,12,0.9,99.332,M,36.772,M,1.1,0439*6C
[2021-02-23 10:03:29.828] $GNGGA,010329.20,3714.00168158,N,13701.48583970,E,4,12,0.9,99.324,M,36.772,M,1.2,0439*6D
[2021-02-23 10:03:29.922] $GNGGA,010329.30,3714.00167971,N,13701.48583942,E,4,12,0.9,99.329,M,36.772,M,1.3,0439*6D
[2021-02-23 10:03:30.031] $GNGGA,010329.40,3714.00167915,N,13701.48583835,E,4,12,0.9,99.328,M,36.772,M,1.4,0439*6F
[2021-02-23 10:03:30.125] $GNGGA,010329.50,3714.00168076,N,13701.48583916,E,4,12,0.9,99.327,M,36.772,M,1.5,0439*63
[2021-02-23 10:03:30.219] $GNGGA,010329.60,3714.00167950,N,13701.48583953,E,4,12,0.9,99.331,M,36.772,M,1.6,0439*67
[2021-02-23 10:03:30.312] $GNGGA,010329.70,3714.00168328,N,13701.48583971,E,4,12,0.9,99.330,M,36.772,M,1.7,0439*6C
[2021-02-23 10:03:30.422] $GNGGA,010329.80,3714.00168308,N,13701.48583559,E,4,12,0.9,99.330,M,36.772,M,1.8,0439*68
[2021-02-23 10:03:30.516] $GNGGA,010329.90,3714.00168331,N,13701.48583972,E,4,12,0.8,99.329,M,36.772,M,0.9,0439*6F
[2021-02-23 10:03:30.625] $GNGGA,010330.00,3714.00168402,N,13701.48584037,E,4,12,0.8,99.336,M,36.772,M,1.0,0439*60
[2021-02-23 10:03:30.719] $GNGGA,010330.10,3714.00168648,N,13701.48584236,E,4,12,0.8,99.329,M,36.772,M,1.1,0439*61
[2021-02-23 10:03:30.828] $GNGGA,010330.20,3714.00168692,N,13701.48584552,E,4,12,0.8,99.329,M,36.772,M,1.2,0439*63
[2021-02-23 10:03:30.922] $GNGGA,010330.30,3714.00168786,N,13701.48584656,E,4,12,0.8,99.335,M,36.772,M,1.3,0439*6D
[2021-02-23 10:03:31.031] $GNGGA,010330.40,3714.00168908,N,13701.48584675,E,4,12,0.8,99.336,M,36.772,M,1.4,0439*67
[2021-02-23 10:03:31.125] $GNGGA,010330.50,3714.00168927,N,13701.48584666,E,4,12,0.8,99.333,M,36.772,M,1.5,0439*6D
[2021-02-23 10:03:31.219] $GNGGA,010330.60,3714.00168941,N,13701.48584867,E,4,12,0.8,99.330,M,36.772,M,1.6,0439*61
[2021-02-23 10:03:31.312] $GNGGA,010330.70,3714.00168790,N,13701.48584717,E,4,12,0.8,99.333,M,36.772,M,1.7,0439*68
[2021-02-23 10:03:31.422] $GNGGA,010330.80,3714.00168658,N,13701.48584663,E,4,12,0.8,99.333,M,36.772,M,1.8,0439*6F
[2021-02-23 10:03:31.515] $GNGGA,010330.90,3714.00168778,N,13701.48584459,E,4,12,0.8,99.332,M,36.772,M,1.9,0439*66
[2021-02-23 10:03:31.625] $GNGGA,010331.00,3714.00168748,N,13701.48584463,E,4,12,0.8,99.328,M,36.772,M,2.0,0439*65
[2021-02-23 10:03:31.719] $GNGGA,010331.10,3714.00168737,N,13701.48584528,E,4,12,0.8,99.332,M,36.772,M,2.1,0439*68
[2021-02-23 10:03:31.828] $GNGGA,010331.20,3714.00168879,N,13701.48584342,E,4,13,0.8,99.321,M,36.772,M,1.2,0439*67
[2021-02-23 10:03:31.922] $GNGGA,010331.30,3714.00168866,N,13701.48584730,E,4,13,0.8,99.323,M,36.772,M,1.3,0439*6A
[2021-02-23 10:03:32.031] $GNGGA,010331.40,3714.00168935,N,13701.48584855,E,4,13,0.8,99.319,M,36.772,M,1.4,0439*68
[2021-02-23 10:03:32.125] $GNGGA,010331.50,3714.00168889,N,13701.48584868,E,4,13,0.8,99.317,M,36.772,M,1.5,0439*6E
[2021-02-23 10:03:32.234] $GNGGA,010331.60,3714.00168832,N,13701.48584875,E,4,13,0.8,99.320,M,36.772,M,1.6,0439*66
[2021-02-23 10:03:32.312] $GNGGA,010331.70,3714.00168898,N,13701.48584862,E,4,13,0.8,99.321,M,36.772,M,1.7,0439*61
[2021-02-23 10:03:32.422] $GNGGA,010331.80,3714.00168690,N,13701.48584828,E,4,13,0.8,99.321,M,36.772,M,1.8,0439*69
[2021-02-23 10:03:32.515] $GNGGA,010331.90,3714.00168645,N,13701.48584734,E,4,13,0.8,99.318,M,36.772,M,1.9,0439*69
[2021-02-23 10:03:32.640] $GNGGA,010332.00,3714.00168381,N,13701.48584637,E,4,12,0.9,99.324,M,36.772,M,1.0,0439*6A
[2021-02-23 10:03:32.719] $GNGGA,010332.10,3714.00168387,N,13701.48584339,E,4,12,0.9,99.326,M,36.772,M,1.1,0439*65
[2021-02-23 10:03:32.828] $GNGGA,010332.20,3714.00168223,N,13701.48584343,E,4,12,0.9,99.324,M,36.772,M,1.2,0439*65
[2021-02-23 10:03:32.922] $GNGGA,010332.30,3714.00168384,N,13701.48584433,E,4,12,0.9,99.323,M,36.772,M,1.3,0439*6E
[2021-02-23 10:03:33.031] $GNGGA,010332.40,3714.00168435,N,13701.48584612,E,4,12,0.9,99.319,M,36.772,M,1.4,0439*6B
[2021-02-23 10:03:33.125] $GNGGA,010332.50,3714.00168569,N,13701.48584422,E,4,12,0.9,99.325,M,36.772,M,1.5,0439*6D
[2021-02-23 10:03:33.234] $GNGGA,010332.60,3714.00168287,N,13701.48584361,E,4,12,0.9,99.321,M,36.772,M,1.6,0439*6E
[2021-02-23 10:03:33.312] $GNGGA,010332.70,3714.00168545,N,13701.48584620,E,4,12,0.9,99.322,M,36.772,M,1.7,0439*64
[2021-02-23 10:03:33.437] $GNGGA,010332.80,3714.00168654,N,13701.48584603,E,4,12,0.9,99.324,M,36.772,M,1.8,0439*60
[2021-02-23 10:03:33.515] $GNGGA,010332.90,3714.00168630,N,13701.48584185,E,4,12,0.9,99.329,M,36.772,M,0.9,0439*67
[2021-02-23 10:03:33.625] $GNGGA,010333.00,3714.00168517,N,13701.48584284,E,4,12,0.9,99.330,M,36.772,M,1.0,0439*6B
[2021-02-23 10:03:33.718] $GNGGA,010333.10,3714.00168409,N,13701.48584038,E,4,12,0.9,99.331,M,36.772,M,1.1,0439*61
[2021-02-23 10:03:33.828] $GNGGA,010333.20,3714.00168532,N,13701.48584136,E,4,12,0.9,99.327,M,36.772,M,1.2,0439*60
[2021-02-23 10:03:33.922] $GNGGA,010333.30,3714.00168240,N,13701.48583860,E,4,12,0.9,99.329,M,36.772,M,1.3,0439*61
[2021-02-23 10:03:34.031] $GNGGA,010333.40,3714.00168247,N,13701.48584229,E,4,12,0.9,99.334,M,36.772,M,1.4,0439*6A
[2021-02-23 10:03:34.125] $GNGGA,010333.50,3714.00168327,N,13701.48583958,E,4,12,0.9,99.327,M,36.772,M,1.5,0439*65
[2021-02-23 10:03:34.234] $GNGGA,010333.60,3714.00168236,N,13701.48584199,E,4,12,0.9,99.327,M,36.772,M,1.6,0439*66
[2021-02-23 10:03:34.312] $GNGGA,010333.70,3714.00168166,N,13701.48583809,E,4,12,0.9,99.327,M,36.772,M,1.7,0439*67
[2021-02-23 10:03:34.422] $GNGGA,010333.80,3714.00168207,N,13701.48583747,E,4,12,0.9,99.331,M,36.772,M,1.8,0439*61
[2021-02-23 10:03:34.531] $GNGGA,010333.90,3714.00168554,N,13701.48584008,E,4,12,0.9,99.323,M,36.772,M,1.9,0439*68
[2021-02-23 10:03:34.625] $GNGGA,010334.00,3714.00168572,N,13701.48584391,E,4,12,0.9,99.316,M,36.772,M,1.0,0439*6E
[2021-02-23 10:03:34.718] $GNGGA,010334.10,3714.00168590,N,13701.48584218,E,4,12,0.9,99.311,M,36.772,M,1.1,0439*65
[2021-02-23 10:03:34.828] $GNGGA,010334.20,3714.00168536,N,13701.48584244,E,4,12,0.9,99.314,M,36.772,M,1.2,0439*65
[2021-02-23 10:03:34.921] $GNGGA,010334.30,3714.00168589,N,13701.48584328,E,4,12,0.9,99.315,M,36.772,M,1.3,0439*6B
[2021-02-23 10:03:35.031] $GNGGA,010334.40,3714.00168693,N,13701.48584255,E,4,12,0.9,99.310,M,36.772,M,1.4,0439*6D
[2021-02-23 10:03:35.125] $GNGGA,010334.50,3714.00168600,N,13701.48584250,E,4,12,0.9,99.318,M,36.772,M,1.5,0439*6A
[2021-02-23 10:03:35.234] $GNGGA,010334.60,3714.00168580,N,13701.48584371,E,4,12,0.9,99.310,M,36.772,M,1.6,0439*6B
[2021-02-23 10:03:35.312] $GNGGA,010334.70,3714.00168593,N,13701.48584312,E,4,12,0.9,99.313,M,36.772,M,1.7,0439*6F
[2021-02-23 10:03:35.421] $GNGGA,010334.80,3714.00168576,N,13701.48584147,E,4,12,0.9,99.314,M,36.772,M,1.8,0439*61
[2021-02-23 10:03:35.515] $GNGGA,010334.90,3714.00168673,N,13701.48584458,E,4,12,0.9,99.312,M,36.772,M,1.9,0439*6A
[2021-02-23 10:03:35.625] $GNGGA,010335.00,3714.00168495,N,13701.48584314,E,4,12,0.9,99.326,M,36.772,M,1.0,0439*69
[2021-02-23 10:03:35.718] $GNGGA,010335.10,3714.00168303,N,13701.48584189,E,4,12,0.9,99.327,M,36.772,M,1.1,0439*66
[2021-02-23 10:03:35.828] $GNGGA,010335.20,3714.00168329,N,13701.48584312,E,4,12,0.9,99.329,M,36.772,M,1.2,0439*60
[2021-02-23 10:03:35.921] $GNGGA,010335.30,3714.00168376,N,13701.48584373,E,4,12,0.9,99.324,M,36.772,M,1.3,0439*60
[2021-02-23 10:03:36.031] $GNGGA,010335.40,3714.00168541,N,13701.48584357,E,4,12,0.9,99.326,M,36.772,M,1.4,0439*66
[2021-02-23 10:03:36.124] $GNGGA,010335.50,3714.00168578,N,13701.48584353,E,4,12,0.9,99.327,M,36.772,M,1.5,0439*69
[2021-02-23 10:03:36.234] $GNGGA,010335.60,3714.00168435,N,13701.48584331,E,4,12,0.9,99.333,M,36.772,M,1.6,0439*60
[2021-02-23 10:03:36.312] $GNGGA,010335.70,3714.00168511,N,13701.48584624,E,4,12,0.9,99.330,M,36.772,M,1.7,0439*65
[2021-02-23 10:03:36.421] $GNGGA,010335.80,3714.00168656,N,13701.48584774,E,4,12,0.9,99.326,M,36.772,M,1.8,0439*66
[2021-02-23 10:03:36.515] $GNGGA,010335.90,3714.00168751,N,13701.48584509,E,4,12,0.9,99.328,M,36.772,M,1.9,0439*66
[2021-02-23 10:03:36.624] $GNGGA,010336.00,3714.00169048,N,13701.48584575,E,4,12,0.8,99.328,M,36.772,M,1.0,0439*61
[2021-02-23 10:03:36.718] $GNGGA,010336.10,3714.00169091,N,13701.48584639,E,4,12,0.8,99.324,M,36.772,M,1.1,0439*62
[2021-02-23 10:03:36.828] $GNGGA,010336.20,3714.00168959,N,13701.48584499,E,4,12,0.8,99.328,M,36.772,M,1.2,0439*6A
[2021-02-23 10:03:36.921] $GNGGA,010336.30,3714.00168947,N,13701.48584617,E,4,12,0.8,99.326,M,36.772,M,1.3,0439*6F
[2021-02-23 10:03:37.031] $GNGGA,010336.40,3714.00169184,N,13701.48584514,E,4,12,0.8,99.327,M,36.772,M,1.4,0439*68
[2021-02-23 10:03:37.124] $GNGGA,010336.50,3714.00169124,N,13701.48584630,E,4,12,0.8,99.326,M,36.772,M,1.5,0439*66
[2021-02-23 10:03:37.234] $GNGGA,010336.60,3714.00169188,N,13701.48584681,E,4,12,0.8,99.328,M,36.772,M,1.6,0439*64
[2021-02-23 10:03:37.312] $GNGGA,010336.70,3714.00169170,N,13701.48584798,E,4,12,0.8,99.334,M,36.772,M,1.7,0439*67
[2021-02-23 10:03:37.421] $GNGGA,010336.80,3714.00169246,N,13701.48584731,E,4,12,0.8,99.331,M,36.772,M,1.8,0439*67
[2021-02-23 10:03:39.077] $GNGGA,010336.90,3714.00169259,N,13701.48584767,E,4,12,0.8,99.331,M,36.772,M,1.9,0439*6A
[2021-02-23 10:03:39.093] $GNGGA,010337.00,3714.00169006,N,13701.48584678,E,4,12,0.9,99.321,M,36.772,M,1.0,0439*6C
[2021-02-23 10:03:39.093] $GNGGA,010337.10,3714.00169074,N,13701.48584905,E,4,12,0.9,99.324,M,36.772,M,1.1,0439*69
[2021-02-23 10:03:39.093] $GNGGA,010337.20,3714.00169248,N,13701.48585024,E,4,12,0.9,99.327,M,36.772,M,1.2,0439*6C
[2021-02-23 10:03:39.093] $GNGGA,010337.30,3714.00169464,N,13701.48584973,E,4,12,0.9,99.326,M,36.772,M,1.3,0439*6F
[2021-02-23 10:03:39.093] $GNGGA,010337.40,3714.00169464,N,13701.48584714,E,4,12,0.9,99.323,M,36.772,M,1.4,0439*65
[2021-02-23 10:03:39.093] $GNGGA,010337.50,3714.00169713,N,13701.48584845,E,4,12,0.9,99.321,M,36.772,M,1.5,0439*6F
[2021-02-23 10:03:39.093] $GNGGA,010337.60,3714.00169623,N,13701.48584762,E,4,12,0.9,99.326,M,36.772,M,1.6,0439*60
[2021-02-23 10:03:39.093] $GNGGA,010337.70,3714.00169785,N,13701.48584933,E,4,12,0.9,99.324,M,36.772,M,1.7,0439*65
[2021-02-23 10:03:39.093] $GNGGA,010337.80,3714.00169572,N,13701.48584871,E,4,12,0.9,99.325,M,36.772,M,1.8,0439*69
[2021-02-23 10:03:39.093] $GNGGA,010337.90,3714.00169771,N,13701.48584927,E,4,12,0.9,99.325,M,36.772,M,1.9,0439*6A
[2021-02-23 10:03:39.093] $GNGGA,010338.00,3714.00169711,N,13701.48584821,E,4,12,0.9,99.323,M,36.772,M,2.0,0439*61
[2021-02-23 10:03:39.093] $GNGGA,010338.10,3714.00169985,N,13701.48584930,E,4,12,0.9,99.325,M,36.772,M,2.1,0439*65
[2021-02-23 10:03:39.093] $GNGGA,010338.20,3714.00169820,N,13701.48584829,E,4,12,0.9,99.333,M,36.772,M,2.2,0439*65
[2021-02-23 10:03:39.093] $GNGGA,010338.30,3714.00169972,N,13701.48585189,E,4,12,0.9,99.327,M,36.772,M,1.3,0439*67
[2021-02-23 10:03:39.093] $GNGGA,010338.40,3714.00169729,N,13701.48584849,E,4,12,0.9,99.333,M,36.772,M,1.4,0439*66
[2021-02-23 10:03:39.124] $GNGGA,010338.50,3714.00169774,N,13701.48584847,E,4,12,0.9,99.329,M,36.772,M,1.5,0439*6B
[2021-02-23 10:03:39.234] $GNGGA,010338.60,3714.00169590,N,13701.48584908,E,4,12,0.9,99.331,M,36.772,M,1.6,0439*60
[2021-02-23 10:03:39.312] $GNGGA,010338.70,3714.00169564,N,13701.48584862,E,4,12,0.9,99.326,M,36.772,M,1.7,0439*60
[2021-02-23 10:03:39.421] $GNGGA,010338.80,3714.00169494,N,13701.48584646,E,4,12,0.9,99.326,M,36.772,M,1.8,0439*66
[2021-02-23 10:03:39.515] $GNGGA,010338.90,3714.00169376,N,13701.48584537,E,4,12,0.9,99.326,M,36.772,M,1.9,0439*68
[2021-02-23 10:03:39.624] $GNGGA,010339.00,3714.00169704,N,13701.48584904,E,4,12,0.9,99.325,M,36.772,M,1.0,0439*67
[2021-02-23 10:03:39.718] $GNGGA,010339.10,3714.00169658,N,13701.48584743,E,4,12,0.9,99.324,M,36.772,M,1.1,0439*63
[2021-02-23 10:03:39.827] $GNGGA,010339.20,3714.00169552,N,13701.48584802,E,4,12,0.9,99.326,M,36.772,M,1.2,0439*62
[2021-02-23 10:03:39.921] $GNGGA,010339.30,3714.00169515,N,13701.48584756,E,4,12,0.9,99.323,M,36.772,M,1.3,0439*6A
[2021-02-23 10:03:40.030] $GNGGA,010339.40,3714.00169705,N,13701.48584745,E,4,12,0.9,99.326,M,36.772,M,1.4,0439*6E
[2021-02-23 10:03:40.124] $GNGGA,010339.50,3714.00169649,N,13701.48585044,E,4,12,0.9,99.325,M,36.772,M,1.5,0439*63
[2021-02-23 10:03:40.234] $GNGGA,010339.60,3714.00169907,N,13701.48584872,E,4,12,0.9,99.327,M,36.772,M,1.6,0439*68
[2021-02-23 10:03:40.312] $GNGGA,010339.70,3714.00169727,N,13701.48584742,