
[2021-02-23 10:03:57.623] $GNGGA,010348.40,3714.00162815,N,13701.48576559,E,4,12,0.9,99.280,M,36.772,M,1.4,0439*62
[2021-02-23 10:03:57.654] $GNGGA,010348.50,3714.00162467,N,13701.48576342,E,4,12,0.9,99.288,M,36.772,M,1.5,0439*6F
[2021-02-23 10:03:57.654] $GNGGA,010348.60,3714.00162448,N,13701.48576284,E,4,12,0.9,99.288,M,36.772,M,1.6,0439*69
[2021-02-23 10:03:57.654] $GNGGA,010348.70,3714.00162342,N,13701.48576581,E,4,12,0.9,99.287,M,36.772,M,1.7,0439*69
[2021-02-23 10:03:57.654] $GNGGA,010348.80,3714.00162165,N,13701.48576149,E,4,12,0.9,99.292,M,36.772,M,1.8,0439*6A
[2021-02-23 10:03:57.654] $GNGGA,010348.90,3714.00162073,N,13701.48576181,E,4,12,0.9,99.290,M,36.772,M,1.9,0439*6A
[2021-02-23 10:03:57.654] $GNGGA,010349.00,3714.00162544,N,13701.48576524,E,4,12,0.9,99.285,M,36.772,M,1.0,0439*65
[2021-02-23 10:03:57.654] $GNGGA,010349.10,3714.00162498,N,13701.48576494,E,4,12,0.9,99.287,M,36.772,M,1.1,0439*6D
[2021-02-23 10:03:57.654] $GNGGA,010349.20,3714.00162309,N,13701.48576328,E,4,12,0.9,99.287,M,36.772,M,1.2,0439*62
[2021-02-23 10:03:57.654] $GNGGA,010349.30,3714.00162378,N,13701.48576358,E,4,12,0.9,99.283,M,36.772,M,1.3,0439*67
[2021-02-23 10:03:57.654] $GNGGA,010349.40,3714.00162614,N,13701.48576262,E,4,12,0.9,99.282,M,36.772,M,1.4,0439*61
[2021-02-23 10:03:57.654] $GNGGA,010349.50,3714.00162548,N,13701.48576055,E,4,12,0.9,99.281,M,36.772,M,1.5,0439*6E
[2021-02-23 10:03:57.701] $GNGGA,010349.60,3714.00162477,N,13701.48576147,E,4,12,0.9,99.284,M,36.772,M,1.6,0439*64
[2021-02-23 10:03:57.701] $GNGGA,010349.70,3714.00162550,N,13701.48576160,E,4,12,0.9,99.281,M,36.772,M,1.7,0439*60
[2021-02-23 10:03:57.701] $GNGGA,010349.80,3714.00162507,N,13701.48576209,E,4,12,0.9,99.282,M,36.772,M,1.8,0439*6D
[2021-02-23 10:03:57.701] $GNGGA,010349.90,3714.00162516,N,13701.48576077,E,4,12,0.9,99.281,M,36.772,M,1.9,0439*65
[2021-02-23 10:03:57.701] $GNGGA,010350.00,3714.00162561,N,13701.48575942,E,4,12,0.9,99.287,M,36.772,M,2.0,0439*64
[2021-02-23 10:03:57.701] $GNGGA,010350.10,3714.00162443,N,13701.48576026,E,4,12,0.8,99.282,M,36.772,M,1.1,0439*6A
[2021-02-23 10:03:57.701] $GNGGA,010350.20,3714.00162634,N,13701.48576029,E,4,12,0.8,99.283,M,36.772,M,1.2,0439*66
[2021-02-23 10:03:57.701] $GNGGA,010350.30,3714.00162312,N,13701.48575452,E,4,12,0.8,99.295,M,36.772,M,1.3,0439*6B
[2021-02-23 10:03:57.701] $GNGGA,010350.40,3714.00162483,N,13701.48575716,E,4,12,0.8,99.286,M,36.772,M,1.4,0439*65
[2021-02-23 10:03:57.701] $GNGGA,010350.50,3714.00162386,N,13701.48575902,E,4,12,0.8,99.285,M,36.772,M,1.5,0439*6F
[2021-02-23 10:03:57.701] $GNGGA,010350.60,3714.00162610,N,13701.48575923,E,4,12,0.8,99.281,M,36.772,M,1.6,0439*62
[2021-02-23 10:03:57.732] $GNGGA,010350.70,3714.00162551,N,13701.48576057,E,4,12,0.8,99.286,M,36.772,M,1.7,0439*6A
[2021-02-23 10:03:57.732] $GNGGA,010350.80,3714.00162580,N,13701.48575847,E,4,12,0.8,99.283,M,36.772,M,1.8,0439*69
[2021-02-23 10:03:57.732] $GNGGA,010350.90,3714.00162477,N,13701.48575803,E,4,13,0.8,99.282,M,36.772,M,0.9,0439*61
[2021-02-23 10:03:57.732] $GNGGA,010351.00,3714.00162481,N,13701.48575810,E,4,13,0.8,99.280,M,36.772,M,1.0,0439*68
[2021-02-23 10:03:57.732] $GNGGA,010351.10,3714.00162425,N,13701.48575917,E,4,13,0.8,99.289,M,36.772,M,1.1,0439*69
[2021-02-23 10:03:57.732] $GNGGA,010351.20,3714.00162285,N,13701.48576031,E,4,13,0.8,99.277,M,36.772,M,1.2,0439*6A
[2021-02-23 10:03:57.732] $GNGGA,010351.30,3714.00162558,N,13701.48575962,E,4,13,0.8,99.283,M,36.772,M,1.3,0439*6A
[2021-02-23 10:03:57.732] $GNGGA,010351.40,3714.00162307,N,13701.48575680,E,4,13,0.8,99.287,M,36.772,M,1.4,0439*61
[2021-02-23 10:03:57.732] $GNGGA,010351.50,3714.00162565,N,13701.48575769,E,4,13,0.8,99.282,M,36.772,M,1.5,0439*60
[2021-02-23 10:03:57.732] $GNGGA,010351.60,3714.00162329,N,13701.48575730,E,4,13,0.8,99.281,M,36.772,M,1.6,0439*61
[2021-02-23 10:03:57.732] $GNGGA,010351.70,3714.00162562,N,13701.48575766,E,4,13,0.8,99.288,M,36.772,M,1.7,0439*62
[2021-02-23 10:03:57.764] $GNGGA,010351.80,3714.00162183,N,13701.48575633,E,4,13,0.8,99.282,M,36.772,M,1.8,0439*62
[2021-02-23 10:03:57.764] $GNGGA,010351.90,3714.00162474,N,13701.48575972,E,4,13,0.8,99.276,M,36.772,M,1.9,0439*6E
[2021-02-23 10:03:57.764] $GNGGA,010352.00,3714.00162273,N,13701.48575727,E,4,12,0.8,99.287,M,36.772,M,1.0,0439*6D
[2021-02-23 10:03:57.764] $GNGGA,010352.10,3714.00162435,N,13701.48575589,E,4,12,0.8,99.286,M,36.772,M,1.1,0439*6E
[2021-02-23 10:03:57.764] $GNGGA,010352.20,3714.00162343,N,13701.48575733,E,4,12,0.8,99.287,M,36.772,M,1.2,0439*6A
[2021-02-23 10:03:57.764] $GNGGA,010352.30,3714.00162286,N,13701.48575641,E,4,12,0.8,99.287,M,36.772,M,1.3,0439*66
[2021-02-23 10:03:57.764] $GNGGA,010352.40,3714.00162580,N,13701.48575783,E,4,12,0.8,99.287,M,36.772,M,1.4,0439*68
[2021-02-23 10:03:57.764] $GNGGA,010352.50,3714.00162538,N,13701.48576116,E,4,12,0.8,99.291,M,36.772,M,1.5,0439*65
[2021-02-23 10:03:57.764] $GNGGA,010352.60,3714.00162587,N,13701.48575941,E,4,12,0.8,99.290,M,36.772,M,1.6,0439*69
[2021-02-23 10:03:57.764] $GNGGA,010352.70,3714.00162636,N,13701.48576080,E,4,12,0.8,99.287,M,36.772,M,1.7,0439*61
[2021-02-23 10:03:57.764] $GNGGA,010352.80,3714.00162540,N,13701.48576014,E,4,12,0.8,99.289,M,36.772,M,1.8,0439*60
[2021-02-23 10:03:57.764] $GNGGA,010352.90,3714.00162717,N,13701.48575688,E,4,12,0.9,99.293,M,36.772,M,0.9,0439*6B
[2021-02-23 10:03:57.795] $GNGGA,010353.00,3714.00162823,N,13701.48576015,E,4,12,0.9,99.283,M,36.772,M,1.0,0439*63
[2021-02-23 10:03:57.795] $GNGGA,010353.10,3714.00162827,N,13701.48575938,E,4,12,0.9,99.291,M,36.772,M,1.1,0439*61
[2021-02-23 10:03:57.795] $GNGGA,010353.20,3714.00163014,N,13701.48576326,E,4,12,0.9,99.282,M,36.772,M,1.2,0439*6C
[2021-02-23 10:03:57.795] $GNGGA,010353.30,3714.00163010,N,13701.48576152,E,4,12,0.9,99.283,M,36.772,M,1.3,0439*68
[2021-02-23 10:03:57.795] $GNGGA,010353.40,3714.00162787,N,13701.48576039,E,4,12,0.9,99.288,M,36.772,M,1.4,0439*67
[2021-02-23 10:03:57.795] $GNGGA,010353.50,3714.00162822,N,13701.48576116,E,4,12,0.9,99.291,M,36.772,M,1.5,0439*63
[2021-02-23 10:03:57.795] $GNGGA,010353.60,3714.00162676,N,13701.48576085,E,4,12,0.9,99.284,M,36.772,M,1.6,0439*63
[2021-02-23 10:03:57.795] $GNGGA,010353.70,3714.00162763,N,13701.48575913,E,4,12,0.9,99.286,M,36.772,M,1.7,0439*61
[2021-02-23 10:03:57.795] $GNGGA,010353.80,3714.00162629,N,13701.48575990,E,4,12,0.9,99.287,M,36.772,M,1.8,0439*64
[2021-02-23 10:03:57.795] $GNGGA,010353.90,3714.00162746,N,13701.48575803,E,4,12,0.9,99.281,M,36.772,M,1.9,0439*61
[2021-02-23 10:03:57.795] $GNGGA,010354.00,3714.00162783,N,13701.48575887,E,4,12,0.9,99.284,M,36.772,M,1.0,0439*66
[2021-02-23 10:03:57.826] $GNGGA,010354.10,3714.00162762,N,13701.48575868,E,4,12,0.9,99.286,M,36.772,M,1.1,0439*6A
[2021-02-23 10:03:57.826] $GNGGA,010354.20,3714.00162593,N,13701.48575848,E,4,12,0.9,99.286,M,36.772,M,1.2,0439*64
[2021-02-23 10:03:57.826] $GNGGA,010354.30,3714.00162498,N,13701.48575850,E,4,12,0.9,99.284,M,36.772,M,1.3,0439*65
[2021-02-23 10:03:57.826] $GNGGA,010354.40,3714.00162580,N,13701.48575792,E,4,12,0.9,99.286,M,36.772,M,1.4,0439*6E
[2021-02-23 10:03:57.826] $GNGGA,010354.50,3714.00162524,N,13701.48575898,E,4,12,0.9,99.283,M,36.772,M,1.5,0439*60
[2021-02-23 10:03:57.826] $GNGGA,010354.60,3714.00162662,N,13701.48575836,E,4,12,0.9,99.284,M,36.772,M,1.6,0439*62
[2021-02-23 10:03:57.826] $GNGGA,010354.70,3714.00162552,N,13701.48575754,E,4,12,0.9,99.282,M,36.772,M,1.7,0439*6F
[2021-02-23 10:03:57.826] $GNGGA,010354.80,3714.00162739,N,13701.48575937,E,4,12,0.9,99.283,M,36.772,M,1.8,0439*6A
[2021-02-23 10:03:57.826] $GNGGA,010354.90,3714.00162730,N,13701.48575942,E,4,12,0.9,99.282,M,36.772,M,1.9,0439*60
[2021-02-23 10:03:57.826] $GNGGA,010355.00,3714.00162615,N,13701.48575821,E,4,12,0.9,99.284,M,36.772,M,1.0,0439*65
[2021-02-23 10:03:57.826] $GNGGA,010355.10,3714.00162665,N,13701.48575867,E,4,12,0.9,99.288,M,36.772,M,1.1,0439*6C
[2021-02-23 10:03:57.857] $GNGGA,010355.20,3714.00162546,N,13701.48575901,E,4,12,0.9,99.287,M,36.772,M,1.2,0439*60
[2021-02-23 10:03:57.857] $GNGGA,010355.30,3714.00162576,N,13701.48575775,E,4,12,0.9,99.290,M,36.772,M,1.3,0439*68
[2021-02-23 10:03:57.857] $GNGGA,010355.40,3714.00162679,N,13701.48575797,E,4,12,0.9,99.286,M,36.772,M,1.4,0439*6F
[2021-02-23 10:03:57.857] $GNGGA,010355.50,3714.00162604,N,13701.48575619,E,4,12,0.9,99.289,M,36.772,M,1.5,0439*6D
[2021-02-23 10:03:57.857] $GNGGA,010355.60,3714.00162619,N,13701.48575472,E,4,12,0.9,99.286,M,36.772,M,1.6,0439*61
[2021-02-23 10:03:57.857] $GNGGA,010355.70,3714.00162615,N,13701.48575612,E,4,12,0.9,99.289,M,36.772,M,1.7,0439*66
[2021-02-23 10:03:57.857] $GNGGA,010355.80,3714.00162763,N,13701.48575553,E,4,12,0.9,99.285,M,36.772,M,1.8,0439*6C
[2021-02-23 10:03:57.857] $GNGGA,010355.90,3714.00162637,N,13701.48575487,E,4,12,0.9,99.288,M,36.772,M,1.9,0439*69
[2021-02-23 10:03:57.857] $GNGGA,010356.00,3714.00162785,N,13701.48575613,E,4,12,0.9,99.282,M,36.772,M,2.0,0439*64
[2021-02-23 10:03:57.857] $GNGGA,010356.10,3714.00162827,N,13701.48575542,E,4,12,0.9,99.289,M,36.772,M,2.1,0439*6F
[2021-02-23 10:03:57.857] $GNGGA,010356.20,3714.00162821,N,13701.48575407,E,4,12,0.9,99.289,M,36.772,M,1.2,0439*6A
[2021-02-23 10:03:57.873] $GNGGA,010356.30,3714.00162688,N,13701.48575528,E,4,12,0.9,99.295,M,36.772,M,1.3,0439*66
[2021-02-23 10:03:57.873] $GNGGA,010356.40,3714.00162829,N,13701.48575671,E,4,12,0.9,99.294,M,36.772,M,1.4,0439*6D
[2021-02-23 10:03:57.873] $GNGGA,010356.50,3714.00162888,N,13701.48575417,E,4,12,0.9,99.296,M,36.772,M,1.5,0439*66
[2021-02-23 10:03:57.873] $GNGGA,010356.60,3714.00162667,N,13701.48574999,E,4,12,0.9,99.303,M,36.772,M,1.6,0439*6E
[2021-02-23 10:03:57.873] $GNGGA,010356.70,3714.00162895,N,13701.48575640,E,4,12,0.9,99.296,M,36.772,M,1.7,0439*6A
[2021-02-23 10:03:57.873] $GNGGA,010356.80,3714.00162840,N,13701.48575417,E,4,12,0.9,99.301,M,36.772,M,1.8,0439*6D
[2021-02-23 10:03:57.873] $GNGGA,010356.90,3714.00163013,N,13701.48575670,E,4,12,0.9,99.293,M,36.772,M,1.9,0439*6B
[2021-02-23 10:03:57.873] $GNGGA,010357.00,3714.00162877,N,13701.48575239,E,4,12,0.9,99.295,M,36.772,M,2.0,0439*6D
[2021-02-23 10:03:57.873] $GNGGA,010357.10,3714.00163050,N,13701.48575246,E,4,12,0.9,99.291,M,36.772,M,1.1,0439*6E
[2021-02-23 10:03:57.873] $GNGGA,010357.20,3714.00162890,N,13701.48575246,E,4,12,0.9,99.295,M,36.772,M,1.2,0439*6F
[2021-02-23 10:03:57.920] $GNGGA,010357.30,3714.00162847,N,13701.48575064,E,4,12,0.9,99.295,M,36.772,M,1.3,0439*67
[2021-02-23 10:03:58.029] $GNGGA,010357.40,3714.00162988,N,13701.48575404,E,4,12,0.9,99.292,M,36.772,M,1.4,0439*60
[2021-02-23 10:03:58.123] $GNGGA,010357.50,3714.00162735,N,13701.48575167,E,4,12,0.9,99.296,M,36.772,M,1.5,0439*6C
[2021-02-23 10:03:58.232] $GNGGA,010357.60,3714.00163046,N,13701.48575727,E,4,12,0.9,99.295,M,36.772,M,1.6,0439*6F
[2021-02-23 10:03:58.326] $GNGGA,010357.70,3714.00163024,N,13701.48575675,E,4,12,0.9,99.299,M,36.772,M,1.7,0439*61
[2021-02-23 10:03:58.420] $GNGGA,010357.80,3714.00162898,N,13701.48575648,E,4,12,0.9,99.296,M,36.772,M,1.8,0439*6E
[2021-02-23 10:03:58.514] $GNGGA,010357.90,3714.00162897,N,13701.48575532,E,4,12,0.9,99.294,M,36.772,M,1.9,0439*6D
[2021-02-23 10:03:58.623] $GNGGA,010358.00,3714.00163019,N,13701.48575403,E,4,12,0.9,99.297,M,36.772,M,1.0,0439*6D
[2021-02-23 10:03:58.717] $GNGGA,010358.10,3714.00162956,N,13701.48575235,E,4,12,0.9,99.299,M,36.772,M,1.1,0439*63
[2021-02-23 10:03:58.826] $GNGGA,010358.20,3714.00162945,N,13701.48575389,E,4,12,0.9,99.294,M,36.772,M,1.2,0439*6A
[2021-02-23 10:03:58.920] $GNGGA,010358.30,3714.00162951,N,13701.48575287,E,4,12,0.9,99.293,M,36.772,M,1.3,0439*67
[2021-02-23 10:03:59.029] $GNGGA,010358.40,3714.00162957,N,13701.48575396,E,4,12,0.9,99.291,M,36.772,M,1.4,0439*62
[2021-02-23 10:03:59.123] $GNGGA,010358.50,3714.00162973,N,13701.48575222,E,4,12,0.9,99.297,M,36.772,M,1.5,0439*6C
[2021-02-23 10:03:59.232] $GNGGA,010358.60,3714.00162666,N,13701.48575110,E,4,12,0.9,99.298,M,36.772,M,1.6,0439*6A
[2021-02-23 10:03:59.326] $GNGGA,010358.70,3714.00162761,N,13701.48575217,E,4,12,0.9,99.290,M,36.772,M,1.7,0439*60
[2021-02-23 10:03:59.420] $GNGGA,010358.80,3714.00162693,N,13701.48574970,E,4,12,0.9,99.292,M,36.772,M,1.8,0439*65
[2021-02-23 10:03:59.514] $GNGGA,010358.90,3714.00162581,N,13701.48574700,E,4,12,0.9,99.295,M,36.772,M,1.9,0439*6B
[2021-02-23 10:03:59.623] $GNGGA,010359.00,3714.00162466,N,13701.48574673,E,4,12,0.9,99.292,M,36.772,M,2.0,0439*63
[2021-02-23 10:03:59.717] $GNGGA,010359.10,3714.00162538,N,13701.48574964,E,4,12,0.8,99.291,M,36.772,M,1.1,0439*61
[2021-02-23 10:03:59.826] $GNGGA,010359.20,3714.00162566,N,13701.48574676,E,4,12,0.8,99.289,M,36.772,M,1.2,0439*6F
[2021-02-23 10:03:59.920] $GNGGA,010359.30,3714.00162672,N,13701.48574628,E,4,12,0.8,99.294,M,36.772,M,1.3,0439*6E
[2021-02-23 10:04:00.029] $GNGGA,010359.40,3714.00162452,N,13701.48574631,E,4,12,0.8,99.289,M,36.772,M,1.4,0439*6A
[2021-02-23 10:04:00.123] $GNGGA,010359.50,3714.00162348,N,13701.48574602,E,4,12,0.8,99.294,M,36.772,M,1.5,0439*6A
[2021-02-23 10:04:00.232] $GNGGA,010359.60,3714.00162476,N,13701.48574609,E,4,12,0.8,99.289,M,36.772,M,1.6,0439*67
[2021-02-23 10:04:00.310] $GNGGA,010359.70,3714.00162431,N,13701.48574565,E,4,12,0.8,99.285,M,36.772,M,1.7,0439*61
[2021-02-23 10:04:00.420] $GNGGA,010359.80,3714.00162518,N,13701.48574573,E,4,12,0.8,99.294,M,36.772,M,1.8,0439*6C
[2021-02-23 10:04:00.513] $GNGGA,010359.90,3714.00162383,N,13701.48574769,E,4,12,0.8,99.292,M,36.772,M,1.9,0439*67
[2021-02-23 10:04:00.623] $GNGGA,010400.00,3714.00162813,N,13701.48575272,E,4,12,0.8,99.287,M,36.772,M,1.0,0439*64
[2021-02-23 10:04:00.717] $GNGGA,010400.10,3714.00162768,N,13701.48574900,E,4,12,0.8,99.286,M,36.772,M,1.1,0439*69
[2021-02-23 10:04:00.826] $GNGGA,010400.20,3714.00162749,N,13701.48574931,E,4,12,0.8,99.288,M,36.772,M,1.2,0439*66
[2021-02-23 10:04:00.920] $GNGGA,010400.30,3714.00162662,N,13701.48574780,E,4,12,0.8,99.279,M,36.772,M,1.3,0439*64
[2021-02-23 10:04:01.029] $GNGGA,010400.40,3714.00162675,N,13701.48575009,E,4,12,0.8,99.285,M,36.772,M,1.4,0439*66
[2021-02-23 10:04:01.123] $GNGGA,010400.50,3714.00162886,N,13701.48574929,E,4,12,0.8,99.289,M,36.772,M,1.5,0439*62
[2021-02-23 10:04:01.232] $GNGGA,010400.60,3714.00162847,N,13701.48574766,E,4,12,0.8,99.287,M,36.772,M,1.6,0439*64
[2021-02-23 10:04:01.326] $GNGGA,010400.70,3714.00162881,N,13701.48575110,E,4,12,0.8,99.285,M,36.772,M,1.7,0439*6A
[2021-02-23 10:04:01.435] $GNGGA,010400.80,3714.00162850,N,13701.48575406,E,4,12,0.8,99.279,M,36.772,M,1.8,0439*67
[2021-02-23 10:04:01.513] $GNGGA,010400.90,3714.00162679,N,13701.48575104,E,4,12,0.8,99.288,M,36.772,M,1.9,0439*6B
[2021-02-23 10:04:01.623] $GNGGA,010401.00,3714.00162866,N,13701.48575094,E,4,12,0.8,99.287,M,36.772,M,1.0,0439*6D
[2021-02-23 10:04:01.716] $GNGGA,010401.10,3714.00162723,N,13701.48575079,E,4,12,0.8,99.294,M,36.772,M,1.1,0439*62
[2021-02-23 10:04:01.826] $GNGGA,010401.20,3714.00162587,N,13701.48575098,E,4,12,0.8,99.279,M,36.772,M,1.2,0439*62
[2021-02-23 10:04:01.920] $GNGGA,010401.30,3714.00162539,N,13701.48574822,E,4,12,0.8,99.287,M,36.772,M,1.3,0439*6E
[2021-02-23 10:04:02.029] $GNGGA,010401.40,3714.00162555,N,13701.48574891,E,4,12,0.8,99.287,M,36.772,M,1.4,0439*6C
[2021-02-23 10:04:02.123] $GNGGA,010401.50,3714.00162803,N,13701.48574673,E,4,12,0.8,99.288,M,36.772,M,1.5,0439*6F
[2021-02-23 10:04:02.232] $GNGGA,010401.60,3714.00162758,N,13701.48574801,E,4,12,0.8,99.285,M,36.772,M,1.6,0439*68
[2021-02-23 10:04:02.310] $GNGGA,010401.70,3714.00162599,N,13701.48574984,E,4,12,0.8,99.293,M,36.772,M,1.7,0439*6C
[2021-02-23 10:04:02.435] $GNGGA,010401.80,3714.00162743,N,13701.48575060,E,4,12,0.8,99.287,M,36.772,M,1.8,0439*6E
[2021-02-23 10:04:02.513] $GNGGA,010401.90,3714.00162652,N,13701.48574905,E,4,12,0.8,99.287,M,36.772,M,1.9,0439*64
[2021-02-23 10:04:02.638] $GNGGA,010402.00,3714.00162511,N,13701.48574947,E,4,12,0.8,99.291,M,36.772,M,2.0,0439*61
[2021-02-23 10:04:02.716] $GNGGA,010402.10,3714.00162676,N,13701.48574974,E,4,12,0.8,99.282,M,36.772,M,2.1,0439*61
[2021-02-23 10:04:02.826] $GNGGA,010402.20,3714.00162360,N,13701.48575177,E,4,12,0.9,99.287,M,36.772,M,1.2,0439*6E
[2021-02-23 10:04:02.920] $GNGGA,010402.30,3714.00162558,N,13701.48575463,E,4,12,0.9,99.287,M,36.772,M,1.3,0439*63
[2021-02-23 10:04:03.029] $GNGGA,010402.40,3714.00162535,N,13701.48575244,E,4,12,0.9,99.285,M,36.772,M,1.4,0439*69
[2021-02-23 10:04:03.123] $GNGGA,010402.50,3714.00162556,N,13701.48575200,E,4,12,0.9,99.289,M,36.772,M,1.5,0439*60
[2021-02-23 10:04:03.232] $GNGGA,010402.60,3714.00162573,N,13701.48575388,E,4,12,0.9,99.284,M,36.772,M,1.6,0439*6B
[2021-02-23 10:04:03.326] $GNGGA,010402.70,3714.00162602,N,13701.48575447,E,4,12,0.9,99.287,M,36.772,M,1.7,0439*69
[2021-02-23 10:04:03.419] $GNGGA,010402.80,3714.00162746,N,13701.48575615,E,4,12,0.9,99.291,M,36.772,M,1.8,0439*6A
[2021-02-23 10:04:03.513] $GNGGA,010402.90,3714.00162543,N,13701.48575393,E,4,12,0.9,99.289,M,36.772,M,1.9,0439*6F
[2021-02-23 10:04:03.623] $GNGGA,010403.00,3714.00162664,N,13701.48575575,E,4,12,0.9,99.288,M,36.772,M,1.0,0439*67
[2021-02-23 10:04:03.716] $GNGGA,010403.10,3714.00162722,N,13701.48575565,E,4,12,0.9,99.287,M,36.772,M,1.1,0439*6A
[2021-02-23 10:04:03.826] $GNGGA,010403.20,3714.00162756,N,13701.48575666,E,4,12,0.9,99.288,M,36.772,M,1.2,0439*66
[2021-02-23 10:04:03.919] $GNGGA,010403.30,3714.00162661,N,13701.48575512,E,4,12,0.9,99.289,M,36.772,M,1.3,0439*62
[2021-02-23 10:04:04.029] $GNGGA,010403.40,3714.00162676,N,13701.48575467,E,4,12,0.9,99.285,M,36.772,M,1.4,0439*6B
[2021-02-23 10:04:04.123] $GNGGA,010403.50,3714.00162648,N,13701.48575472,E,4,12,0.9,99.289,M,36.772,M,1.5,0439*6E
[2021-02-23 10:04:04.232] $GNGGA,010403.60,3714.00162591,N,13701.48575401,E,4,12,0.9,99.287,M,36.772,M,1.6,0439*63
[2021-02-23 10:04:04.326] $GNGGA,010403.70,3714.00162760,N,13701.48575604,E,4,12,0.9,99.285,M,36.772,M,1.7,0439*6A
[2021-02-23 10:04:04.419] $GNGGA,010403.80,3714.00162710,N,13701.48575578,E,4,12,0.9,99.285,M,36.772,M,1.8,0439*65
[2021-02-23 10:04:04.513] $GNGGA,010403.90,3714.00162791,N,13701.48575441,E,4,12,0.9,99.286,M,36.772,M,1.9,0439*64
[2021-02-23 10:04:04.623] $GNGGA,010404.00,3714.00162958,N,13701.48575505,E,4,12,0.9,99.285,M,36.772,M,1.0,0439*6A
[2021-02-23 10:04:04.716] $GNGGA,010404.10,3714.00162789,N,13701.48575770,E,4,12,0.9,99.288,M,36.772,M,1.1,0439*65
[2021-02-23 10:04:04.826] $GNGGA,010404.20,3714.00162833,N,13701.48575675,E,4,12,0.9,99.289,M,36.772,M,1.2,0439*6E
[2021-02-23 10:04:04.919] $GNGGA,010404.30,3714.00162857,N,13701.48575765,E,4,12,0.9,99.288,M,36.772,M,1.3,0439*6D
[2021-02-23 10:04:05.029] $GNGGA,010404.40,3714.00162829,N,13701.48575809,E,4,12,0.9,99.291,M,36.772,M,1.4,0439*69
[2021-02-23 10:04:05.123] $GNGGA,010404.50,3714.00162775,N,13701.48575703,E,4,12,0.9,99.291,M,36.772,M,1.5,0439*6A
[2021-02-23 10:04:05.232] $GNGGA,010404.60,3714.00162855,N,13701.48576003,E,4,12,0.9,99.286,M,36.772,M,1.6,0439*65
[2021-02-23 10:04:05.310] $GNGGA,010404.70,3714.00162999,N,13701.48575799,E,4,12,0.9,99.292,M,36.772,M,1.7,0439*66
[2021-02-23 10:04:05.419] $GNGGA,010404.80,3714.00162866,N,13701.48575947,E,4,12,0.9,99.292,M,36.772,M,1.8,0439*6A
[2021-02-23 10:04:05.513] $GNGGA,010404.90,3714.00162844,N,13701.48575936,E,4,12,0.9,99.286,M,36.772,M,1.9,0439*69
[2021-02-23 10:04:05.622] $GNGGA,010405.00,3714.00162861,N,13701.48575871,E,4,12,0.9,99.292,M,36.772,M,2.0,0439*6B
[2021-02-23 10:04:05.716] $GNGGA,010405.10,3714.00162744,N,13701.48575525,E,4,12,0.9,99.296,M,36.772,M,2.1,0439*6B
[2021-02-23 10:04:05.826] $GNGGA,010405.20,3714.00162928,N,13701.48575954,E,4,12,0.9,99.278,M,36.772,M,1.2,0439*66
[2021-02-23 10:04:05.919] $GNGGA,010405.30,3714.00162917,N,13701.48576099,E,4,12,0.9,99.285,M,36.772,M,1.3,0439*63
[2021-02-23 10:04:06.029] $GNGGA,010405.40,3714.00162899,N,13701.48576153,E,4,12,0.9,99.279,M,36.772,M,1.4,0439*60
[2021-02-23 10:04:06.122] $GNGGA,010405.50,3714.00162899,N,13701.48575979,E,4,12,0.9,99.277,M,36.772,M,1.5,0439*6D
[2021-02-23 10:04:06.232] $GNGGA,010405.60,3714.00162977,N,13701.48575813,E,4,12,0.9,99.282,M,36.772,M,1.6,0439*6B
[2021-02-23 10:04:06.325] $GNGGA,010405.70,3714.00162979,N,13701.48575849,E,4,12,0.9,99.278,M,36.772,M,1.7,0439*6F
[2021-02-23 10:04:06.419] $GNGGA,010405.80,3714.00163012,N,13701.48576025,E,4,12,0.9,99.280,M,36.772,M,1.8,0439*6C
[2021-02-23 10:04:06.513] $GNGGA,010405.90,3714.00162834,N,13701.48575986,E,4,12,0.9,99.282,M,36.772,M,1.9,0439*60
[2021-02-23 10:04:06.638] $GNGGA,010406.00,3714.00163031,N,13701.48576079,E,4,12,0.9,99.277,M,36.772,M,1.0,0439*6F
[2021-02-23 10:04:06.716] $GNGGA,010406.10,3714.00162871,N,13701.48575640,E,4,12,0.9,99.286,M,36.772,M,1.1,0439*63
[2021-02-23 10:04:06.825] $GNGGA,010406.20,3714.00162891,N,13701.48575887,E,4,12,0.9,99.287,M,36.772,M,1.2,0439*69
[2021-02-23 10:04:06.919] $GNGGA,010406.30,3714.00162726,N,13701.48575600,E,4,12,0.9,99.282,M,36.772,M,1.3,0439*6E
[2021-02-23 10:04:07.029] $GNGGA,010406.40,3714.00162784,N,13701.48575792,E,4,12,0.9,99.288,M,36.772,M,1.4,0439*66
[2021-02-23 10:04:07.122] $GNGGA,010406.50,3714.00162848,N,13701.48575715,E,4,12,0.9,99.278,M,36.772,M,1.5,0439*69
[2021-02-23 10:04:07.232] $GNGGA,010406.60,3714.00162958,N,13701.48575678,E,4,12,0.9,99.281,M,36.772,M,1.6,0439*65
[2021-02-23 10:04:07.325] $GNGGA,010406.70,3714.00162685,N,13701.48575482,E,4,12,0.9,99.281,M,36.772,M,1.7,0439*6D
[2021-02-23 10:04:07.419] $GNGGA,010406.80,3714.00162984,N,13701.48575873,E,4,12,0.9,99.279,M,36.772,M,1.8,0439*66
[2021-02-23 10:04:07.513] $GNGGA,010406.90,3714.00162794,N,13701.48575472,E,4,12,0.9,99.281,M,36.772,M,1.9,0439*63
[2021-02-23 10:04:07.622] $GNGGA,010407.00,3714.00162994,N,13701.48575924,E,4,12,0.9,99.271,M,36.772,M,2.0,0439*6E
[2021-02-23 10:04:07.716] $GNGGA,010407.10,3714.00163141,N,13701.48575725,E,4,12,0.8,99.274,M,36.772,M,1.1,0439*67
[2021-02-23 10:04:07.825] $GNGGA,010407.20,3714.00162937,N,13701.48575961,E,4,12,0.8,99.277,M,36.772,M,1.2,0439*62
[2021-02-23 10:04:07.919] $GNGGA,010407.30,3714.00162783,N,13701.48575639,E,4,12,0.8,99.283,M,36.772,M,1.3,0439*6A
[2021-02-23 10:04:08.028] $GNGGA,010407.40,3714.00162791,N,13701.48575581,E,4,12,0.8,99.278,M,36.772,M,1.4,0439*6D
[2021-02-23 10:04:08.122] $GNGGA,010407.50,3714.00163002,N,13701.48575767,E,4,12,0.8,99.278,M,36.772,M,1.5,0439*6B
[2021-02-23 10:04:08.232] $GNGGA,010407.60,3714.00162869,N,13701.48575649,E,4,12,0.8,99.272,M,36.772,M,1.6,0439*68
[2021-02-23 10:04:08.325] $GNGGA,010407.70,3714.00162663,N,13701.48575820,E,4,12,0.8,99.278,M,36.772,M,1.7,0439*67
[2021-02-23 10:04:08.419] $GNGGA,010407.80,3714.00162819,N,13701.48575619,E,4,12,0.8,99.284,M,36.772,M,1.8,0439*63
[2021-02-23 10:04:08.513] $GNGGA,010407.90,3714.00162888,N,13701.48575666,E,4,12,0.8,99.274,M,36.772,M,1.9,0439*6C
[2021-02-23 10:04:08.638] $GNGGA,010408.00,3714.00162909,N,13701.48575880,E,4,12,0.8,99.271,M,36.772,M,1.0,0439*68
[2021-02-23 10:04:08.716] $GNGGA,010408.10,3714.00162951,N,13701.48575732,E,4,12,0.8,99.274,M,36.772,M,1.1,0439*66
[2021-02-23 10:04:08.825] $GNGGA,010408.20,3714.00163163,N,13701.48576066,E,4,12,0.8,99.270,M,36.772,M,1.2,0439*6F
[2021-02-23 10:04:08.919] $GNGGA,010408.30,3714.00163215,N,13701.48575732,E,4,12,0.8,99.275,M,36.772,M,1.3,0439*6D
[2021-02-23 10:04:09.028] $GNGGA,010408.40,3714.00163168,N,13701.48575886,E,4,12,0.8,99.274,M,36.772,M,1.4,0439*65
[2021-02-23 10:04:09.122] $GNGGA,010408.50,3714.00163315,N,13701.48576177,E,4,12,0.8,99.273,M,36.772,M,1.5,0439*6E
[2021-02-23 10:04:09.232] $GNGGA,010408.60,3714.00163156,N,13701.48575847,E,4,12,0.8,99.279,M,36.772,M,1.6,0439*68
[2021-02-23 10:04:09.325] $GNGGA,010408.70,3714.00163146,N,13701.48575939,E,4,12,0.8,99.270,M,36.772,M,1.7,0439*68
[2021-02-23 10:04:09.435] $GNGGA,010408.80,3714.00163211,N,13701.48576150,E,4,12,0.8,99.275,M,36.772,M,1.8,0439*68
[2021-02-23 10:04:09.513] $GNGGA,010408.90,3714.00163092,N,13701.48575874,E,4,12,0.8,99.278,M,36.772,M,1.9,0439*60
[2021-02-23 10:04:09.622] $GNGGA,010409.00,3714.00162694,N,13701.48575603,E,4,12,0.8,99.293,M,36.772,M,1.0,0439*6B
[2021-02-23 10:04:09.716] $GNGGA,010409.10,3714.00162807,N,13701.48575630,E,4,12,0.8,99.285,M,36.772,M,1.1,0439*68
[2021-02-23 10:04:09.825] $GNGGA,010409.20,3714.00162540,N,13701.48575559,E,4,12,0.8,99.291,M,36.772,M,1.2,0439*6F
[2021-02-23 10:04:09.919] $GNGGA,010409.30,3714.00162731,N,13701.48575588,E,4,12,0.8,99.287,M,36.772,M,1.3,0439*60
[2021-02-23 10:04:10.028] $GNGGA,010409.40,3714.00162524,N,13701.48575451,E,4,12,0.8,99.289,M,36.772,M,1.4,0439*6D
[2021-02-23 10:04:10.122] $GNGGA,010409.50,3714.00162331,N,13701.48575390,E,4,12,0.8,99.293,M,36.772,M,1.5,0439*6E
[2021-02-23 10:04:10.231] $GNGGA,010409.60,3714.00162291,N,13701.48575385,E,4,12,0.8,99.286,M,36.772,M,1.6,0439*65
[2021-02-23 10:04:10.325] $GNGGA,010409.70,3714.00162283,N,13701.48575624,E,4,12,0.8,99.289,M,36.772,M,1.7,0439*67
[2021-02-23 10:04:10.419] $GNGGA,010409.80,3714.00162150,N,13701.48575523,E,4,12,0.8,99.292,M,36.772,M,1.8,0439*64
[2021-02-23 10:04:10.513] $GNGGA,010409.90,3714.00162503,N,13701.48575745,E,4,12,0.8,99.290,M,36.772,M,1.9,0439*66
[2021-02-23 10:04:10.622] $GNGGA,010410.00,3714.00162386,N,13701.48576067,E,4,12,0.9,99.290,M,36.772,M,1.0,0439*60
[2021-02-23 10:04:10.716] $GNGGA,010410.10,3714.00162526,N,13701.48576092,E,4,12,0.9,99.288,M,36.772,M,1.1,0439*6F
[2021-02-23 10:04:10.825] $GNGGA,010410.20,3714.00162430,N,13701.48576308,E,4,12,0.9,99.286,M,36.772,M,1.2,0439*67
[2021-02-23 10:04:10.919] $GNGGA,010410.30,3714.00162469,N,13701.48575975,E,4,12,0.9,99.290,M,36.772,M,1.3,0439*6F
[2021-02-23 10:04:11.028] $GNGGA,010410.40,3714.00162583,N,13701.48576365,E,4,12,0.9,99.291,M,36.772,M,1.4,0439*63
[2021-02-23 10:04:11.122] $GNGGA,010410.50,3714.00162601,N,13701.48575969,E,4,12,0.9,99.289,M,36.772,M,1.5,0439*66
[2021-02-23 10:04:11.231] $GNGGA,010410.60,3714.00162565,N,13701.48576238,E,4,12,0.9,99.289,M,36.772,M,1.6,0439*6B
[2021-02-23 10:04:11.325] $GNGGA,010410.70,3714.00162576,N,13701.48576358,E,4,12,0.9,99.290,M,36.772,M,1.7,0439*66
[2021-02-23 10:04:11.419] $GNGGA,010410.80,3714.00162749,N,13701.48576323,E,4,12,0.9,99.291,M,36.772,M,1.8,0439*65
[2021-02-23 10:04:11.513] $GNGGA,010410.90,3714.00162831,N,13701.48576757,E,4,12,0.9,99.290,M,36.772,M,1.9,0439*63
[2021-02-23 10:04:11.622] $GNGGA,010411.00,3714.00162816,N,13701.48576606,E,4,12,0.9,99.292,M,36.772,M,2.0,0439*63
[2021-02-23 10:04:11.716] $GNGGA,010411.10,3714.00162898,N,13701.48576732,E,4,12,0.9,99.292,M,36.772,M,2.1,0439*63
[2021-02-23 10:04:11.825] $GNGGA,010411.20,3714.00163061,N,13701.48577198,E,4,12,0.8,99.295,M,36.772,M,1.2,0439*6E
[2021-02-23 10:04:11.919] $GNGGA,010411.30,3714.00163191,N,13701.48577104,E,4,12,0.8,99.294,M,36.772,M,1.3,0439*64
[2021-02-23 10:04:12.028] $GNGGA,010411.40,3714.00163114,N,13701.48576982,E,4,12,0.8,99.291,M,36.772,M,1.4,0439*6B
[2021-02-23 10:04:12.122] $GNGGA,010411.50,3714.00163090,N,13701.48576893,E,4,12,0.8,99.295,M,36.772,M,1.5,0439*63
[2021-02-23 10:04:12.231] $GNGGA,010411.60,3714.00163128,N,13701.48577079,E,4,12,0.8,99.292,M,36.772,M,1.6,0439*6B
[2021-02-23 10:04:12.325] $GNGGA,010411.70,3714.00163101,N,13701.48576901,E,4,12,0.8,99.292,M,36.772,M,1.7,0439*67
[2021-02-23 10:04:12.419] $GNGGA,010411.80,3714.00163019,N,13701.48576768,E,4,12,0.8,99.292,M,36.772,M,1.8,0439*6E
[2021-02-23 10:04:12.513] $GNGGA,010411.90,3714.00163110,N,13701.48577334,E,4,12,0.9,99.287,M,36.772,M,0.9,0439*6E
[2021-02-23 10:04:12.638] $GNGGA,010412.00,3714.00162940,N,13701.48577328,E,4,12,0.9,99.289,M,36.772,M,1.0,0439*63
[2021-02-23 10:04:12.716] $GNGGA,010412.10,3714.00162964,N,13701.48577303,E,4,12,0.9,99.289,M,36.772,M,1.1,0439*6C
[2021-02-23 10:04:12.825] $GNGGA,010412.20,3714.00163011,N,13701.48577335,E,4,12,0.9,99.286,M,36.772,M,1.2,0439*6C
[2021-02-23 10:04:12.919] $GNGGA,010412.30,3714.00163232,N,13701.48577530,E,4,12,0.9,99.285,M,36.772,M,1.3,0439*6F
[2021-02-23 10:04:13.028] $GNGGA,010412.40,3714.00163071,N,13701.48577176,E,4,12,0.9,99.286,M,36.772,M,1.4,0439*6F
[2021-02-23 10:04:13.122] $GNGGA,010412.50,3714.00163114,N,13701.48577301,E,4,12,0.9,99.287,M,36.772,M,1.5,0439*6E
[2021-02-23 10:04:13.231] $GNGGA,010412.60,3714.00163217,N,13701.48577495,E,4,12,0.9,99.282,M,36.772,M,1.6,0439*61
[2021-02-23 10:04:13.325] $GNGGA,010412.70,3714.00163178,N,13701.48577365,E,4,12,0.9,99.289,M,36.772,M,1.7,0439*68
[2021-02-23 10:04:13.419] $GNGGA,010412.80,3714.00162967,N,13701.48577303,E,4,12,0.9,99.287,M,36.772,M,1.8,0439*61
[2021-02-23 10:04:13.513] $GNGGA,010412.90,3714.00162858,N,13701.48577275,E,4,12,0.9,99.282,M,36.772,M,1.9,0439*69
[2021-02-23 10:04:13.622] $GNGGA,010413.00,3714.00162924,N,13701.48577276,E,4,12,0.9,99.284,M,36.772,M,2.0,0439*64
[2021-02-23 10:04:13.716] $GNGGA,010413.10,3714.00162896,N,13701.48576830,E,4,12,0.8,99.288,M,36.772,M,1.1,0439*6B
[2021-02-23 10:04:13.825] $GNGGA,010413.20,3714.00162828,N,13701.48576789,E,4,12,0.8,99.289,M,36.772,M,1.2,0439*62
[2021-02-23 10:04:13.919] $GNGGA,010413.30,3714.00162985,N,13701.48576842,E,4,12,0.8,99.289,M,36.772,M,1.3,0439*6C
[2021-02-23 10:04:14.028] $GNGGA,010413.40,3714.00163068,N,13701.48576869,E,4,12,0.8,99.282,M,36.772,M,1.4,0439*65
[2021-02-23 10:04:14.122] $GNGGA,010413.50,3714.00163197,N,13701.48576881,E,4,12,0.8,99.289,M,36.772,M,1.5,0439*69
[2021-02-23 10:04:14.231] $GNGGA,010413.60,3714.00163113,N,13701.48576649,E,4,12,0.8,99.288,M,36.772,M,1.6,0439*6E
[2021-02-23 10:04:14.325] $GNGGA,010413.70,3714.00162973,N,13701.48576837,E,4,12,0.8,99.289,M,36.772,M,1.7,0439*67
[2021-02-23 10:04:14.434] $GNGGA,010413.80,3714.00163139,N,13701.48576920,E,4,12,0.8,99.294,M,36.772,M,1.8,0439*6B
[2021-02-23 10:04:14.512] $GNGGA,010413.90,3714.00162952,N,13701.48577034,E,4,12,0.8,99.291,M,36.772,M,1.9,0439*67
[2021-02-23 10:04:14.622] $GNGGA,010414.00,3714.00163075,N,13701.48576964,E,4,12,0.8,99.287,M,36.772,M,2.0,0439*64
[2021-02-23 10:04:14.716] $GNGGA,010414.10,3714.00162750,N,13701.48576682,E,4,12,0.9,99.292,M,36.772,M,1.1,0439*64
[2021-02-23 10:04:14.825] $GNGGA,010414.20,3714.00163016,N,13701.48576996,E,4,12,0.9,99.289,M,36.772,M,1.2,0439*60
[2021-02-23 10:04:14.919] $GNGGA,010414.30,3714.00162973,N,13701.48576963,E,4,12,0.9,99.287,M,36.772,M,1.3,0439*6F
[2021-02-23 10:04:15.028] $GNGGA,010414.40,3714.00162972,N,13701.48577132,E,4,12,0.9,99.286,M,36.772,M,1.4,0439*62
[2021-02-23 10:04:15.122] $GNGGA,010414.50,3714.00163076,N,13701.48577051,E,4,12,0.9,99.289,M,36.772,M,1.5,0439*65
[2021-02-23 10:04:15.231] $GNGGA,010414.60,3714.00162961,N,13701.48576916,E,4,12,0.9,99.283,M,36.772,M,1.6,0439*6A
[2021-02-23 10:04:15.325] $GNGGA,010414.70,3714.00163078,N,13701.48576962,E,4,12,0.9,99.284,M,36.772,M,1.7,0439*6E
[2021-02-23 10:04:15.434] $GNGGA,010414.80,3714.00163148,N,13701.48576973,E,4,12,0.9,99.292,M,36.772,M,1.8,0439*6B
[2021-02-23 10:04:15.512] $GNGGA,010414.90,3714.00163088,N,13701.48576776,E,4,12,0.9,99.288,M,36.772,M,1.9,0439*66
[2021-02-23 10:04:15.622] $GNGGA,010415.00,3714.00162828,N,13701.48576827,E,4,12,0.9,99.298,M,36.772,M,1.0,0439*6E
[2021-02-23 10:04:15.716] $GNGGA,010415.10,3714.00162686,N,13701.48576744,E,4,12,0.9,99.298,M,36.772,M,1.1,0439*6E
[2021-02-23 10:04:15.825] $GNGGA,010415.20,3714.00162717,N,13701.48576919,E,4,12,0.9,99.291,M,36.772,M,1.2,0439*68
[2021-02-23 10:04:15.919] $GNGGA,010415.30,3714.00162844,N,13701.48577175,E,4,12,0.9,99.292,M,36.772,M,1.3,0439*61
[2021-02-23 10:04:16.028] $GNGGA,010415.40,3714.00162934,N,13701.48577133,E,4,12,0.9,99.285,M,36.772,M,1.4,0439*63
[2021-02-23 10:04:16.122] $GNGGA,010415.50,3714.00162569,N,13701.48576660,E,4,12,0.9,99.297,M,36.772,M,1.5,0439*64
[2021-02-23 10:04:16.231] $GNGGA,010415.60,3714.00162570,N,13701.48577013,E,4,12,0.9,99.290,M,36.772,M,1.6,0439*68
[2021-02-23 10:04:16.325] $GNGGA,010415.70,3714.00162554,N,13701.48576837,E,4,12,0.9,99.292,M,36.772,M,1.7,0439*63
[2021-02-23 10:04:16.434] $GNGGA,010415.80,3714.00162365,N,13701.48576947,E,4,12,0.9,99.296,M,36.772,M,1.8,0439*65
[2021-02-23 10:04:16.512] $GNGGA,010415.90,3714.00162566,N,13701.48576989,E,4,12,0.9,99.290,M,36.772,M,1.9,0439*64
[2021-02-23 10:04:16.622] $GNGGA,010416.00,3714.00162787,N,13701.48577456,E,4,12,0.9,99.280,M,36.772,M,1.0,0439*65
[2021-02-23 10:04:16.715] $GNGGA,010416.10,3714.00162534,N,13701.48577391,E,4,12,0.9,99.283,M,36.772,M,1.1,0439*60
[2021-02-23 10:04:16.825] $GNGGA,010416.20,3714.00162694,N,13701.48577144,E,4,12,0.9,99.283,M,36.772,M,1.2,0439*63
[2021-02-23 10:04:16.919] $GNGGA,010416.30,3714.00162752,N,13701.48577332,E,4,12,0.9,99.281,M,36.772,M,1.3,0439*69
[2021-02-23 10:04:17.028] $GNGGA,010416.40,3714.00162835,N,13701.48577400,E,4,12,0.9,99.281,M,36.772,M,1.4,0439*61
[2021-02-23 10:04:17.122] $GNGGA,010416.50,3714.00162851,N,13701.48577647,E,4,12,0.9,99.277,M,36.772,M,1.5,0439*6B
[2021-02-23 10:04:17.231] $GNGGA,010416.60,3714.00162820,N,13701.48577302,E,4,12,0.9,99.283,M,36.772,M,1.6,0439*62
[2021-02-23 10:04:17.325] $GNGGA,010416.70,3714.00162857,N,13701.48577720,E,4,12,0.9,99.276,M,36.772,M,1.7,0439*6C
[2021-02-23 10:04:17.434] $GNGGA,010416.80,3714.00162733,N,13701.48577417,E,4,12,0.9,99.286,M,36.772,M,1.8,0439*69
[2021-02-23 10:04:17.512] $GNGGA,010416.90,3714.00162631,N,13701.48577397,E,4,12,0.9,99.281,M,36.772,M,1.9,0439*62
[2021-02-23 10:04:17.622] $GNGGA,010417.00,3714.00162563,N,13701.48576961,E,4,12,0.9,99.288,M,36.772,M,1.0,0439*6C
[2021-02-23 10:04:17.715] $GNGGA,010417.10,3714.00162513,N,13701.48576969,E,4,12,0.9,99.286,M,36.772,M,1.1,0439*6D
[2021-02-23 10:04:17.825] $GNGGA,010417.20,3714.00162409,N,13701.48576916,E,4,12,0.9,99.287,M,36.772,M,1.2,0439*6E
[2021-02-23 10:04:17.918] $GNGGA,010417.30,3714.00162613,N,13701.48577032,E,4,12,0.9,99.280,M,36.772,M,1.3,0439*6E
[2021-02-23 10:04:18.028] $GNGGA,010417.40,3714.00162487,N,13701.48577132,E,4,12,0.9,99.291,M,36.772,M,1.4,0439*60
[2021-02-23 10:04:18.122] $GNGGA,010417.50,3714.00162680,N,13701.48577185,E,4,12,0.9,99.288,M,36.772,M,1.5,0439*61
[2021-02-23 10:04:18.231] $GNGGA,010417.60,3714.00162661,N,13701.48577377,E,4,12,0.9,99.291,M,36.772,M,1.6,0439*69
[2021-02-23 10:04:18.325] $GNGGA,010417.70,3714.00162833,N,13701.48577293,E,4,12,0.9,99.289,M,36.772,M,1.7,0439*62
[2021-02-23 10:04:18.434] $GNGGA,010417.80,3714.00162765,N,13701.48577342,E,4,12,0.9,99.289,M,36.772,M,1.8,0439*63
[2021-02-23 10:04:18.512] $GNGGA,010417.90,3714.00162749,N,13701.48577401,E,4,12,0.9,99.291,M,36.772,M,0.9,0439*65
[2021-02-23 10:04:18.622] $GNGGA,010418.00,3714.00162784,N,13701.48577435,E,4,12,0.9,99.295,M,36.772,M,1.0,0439*69
[2021-02-23 10:04:18.715] $GNGGA,010418.10,3714.00162742,N,13701.48577500,E,4,12,0.9,99.293,M,36.772,M,1.1,0439*62
[2021-02-23 10:04:18.825] $GNGGA,010418.20,3714.00162676,N,13701.48577350,E,4,12,0.9,99.295,M,36.772,M,1.2,0439*61
[2021-02-23 10:04:18.918] $GNGGA,010418.30,3714.00162762,N,13701.48577534,E,4,12,0.9,99.295,M,36.772,M,1.3,0439*61
[2021-02-23 10:04:19.028] $GNGGA,010418.40,3714.00162856,N,13701.48577478,E,4,12,0.9,99.294,M,36.772,M,1.4,0439*61
[2021-02-23 10:04:19.122] $GNGGA,010418.50,3714.00162662,N,13701.48577636,E,4,12,0.9,99.296,M,36.772,M,1.5,0439*62
[2021-02-23 10:04:19.231] $GNGGA,010418.60,3714.00162675,N,13701.48577303,E,4,12,0.9,99.298,M,36.772,M,1.6,0439*69
[2021-02-23 10:04:19.325] $GNGGA,010418.70,3714.00162696,N,13701.48577321,E,4,12,0.9,99.291,M,36.772,M,1.7,0439*6D
[2021-02-23 10:04:19.434] $GNGGA,010418.80,3714.00162772,N,13701.48577180,E,4,12,0.9,99.295,M,36.772,M,1.8,0439*6B
[2021-02-23 10:04:19.512] $GNGGA,010418.90,3714.00162534,N,13701.48577524,E,4,12,0.9,99.293,M,36.772,M,1.9,0439*67
[2021-02-23 10:04:19.621] $GNGGA,010419.00,3714.00162776,N,13701.48577316,E,4,12,0.9,99.293,M,36.772,M,1.0,0439*65
[2021-02-23 10:04:19.715] $GNGGA,010419.10,3714.00162549,N,13701.48577235,E,4,12,0.9,99.294,M,36.772,M,1.1,0439*6C
[2021-02-23 10:04:19.825] $GNGGA,010419.20,3714.00162746,N,13701.48577378,E,4,12,0.9,99.290,M,36.772,M,1.2,0439*6D
[2021-02-23 10:04:19.918] $GNGGA,010419.30,3714.00162731,N,13701.48577118,E,4,12,0.9,99.296,M,36.772,M,1.3,0439*6F
[2021-02-23 10:04:20.028] $GNGGA,010419.40,3714.00162513,N,13701.48577379,E,4,12,0.9,99.290,M,36.772,M,1.4,0439*6E
[2021-02-23 10:04:20.121] $GNGGA,010419.50,3714.00162813,N,13701.48577491,E,4,12,0.9,99.290,M,36.772,M,1.5,0439*62
[2021-02-23 10:04:20.231] $GNGGA,010419.60,3714.00162731,N,13701.48577178,E,4,12,0.9,99.295,M,36.772,M,1.6,0439*6A
[2021-02-23 10:04:20.325] $GNGGA,010419.70,3714.00162671,N,13701.48577450,E,4,12,0.9,99.294,M,36.772,M,1.7,0439*61
[2021-02-23 10:04:20.434] $GNGGA,010419.80,3714.00162905,N,13701.48577359,E,4,12,0.9,99.293,M,36.772,M,1.8,0439*64
[2021-02-23 10:04:20.512] $GNGGA,010419.90,3714.00162838,N,13701.48577293,E,4,12,0.9,99.294,M,36.772,M,1.9,0439*6B
[2021-02-23 10:04:20.637] $GNGGA,010420.00,3714.00162792,N,13701.48577191,E,4,12,0.9,99.293,M,36.772,M,2.0,0439*6B
[2021-02-23 10:04:20.715] $GNGGA,010420.10,3714.00162853,N,13701.48577543,E,4,12,0.9,99.299,M,36.772,M,2.1,0439*68
[2021-02-23 10:04:20.825] $GNGGA,010420.20,3714.00162734,N,13701.48577433,E,4,12,0.9,99.297,M,36.772,M,1.2,0439*6D
[2021-02-23 10:04:20.918] $GNGGA,010420.30,3714.00162628,N,13701.48577390,E,4,12,0.9,99.301,M,36.772,M,1.3,0439*61
[2021-02-23 10:04:21.028] $GNGGA,010420.40,3714.00162583,N,13701.48577375,E,4,12,0.9,99.301,M,36.772,M,1.4,0439*68
[2021-02-23 10:04:21.121] $GNGGA,010420.50,3714.00162724,N,13701.48577560,E,4,12,0.9,99.298,M,36.772,M,1.5,0439*64
[2021-02-23 10:04:21.231] $GNGGA,010420.60,3714.00162682,N,13701.48577546,E,4,12,0.9,99.298,M,36.772,M,1.6,0439*6D
[2021-02-23 10:04:21.324] $GNGGA,010420.70,3714.00162764,N,13701.48577608,E,4,12,0.9,99.299,M,36.772,M,1.7,0439*6C
[2021-02-23 10:04:21.434] $GNGGA,010420.80,3714.00162652,N,13701.48577650,E,4,12,0.9,99.294,M,36.772,M,1.8,0439*68
[2021-02-23 10:04:21.512] $GNGGA,010420.90,3714.00162603,N,13701.48577415,E,4,12,0.9,99.303,M,36.772,M,1.9,0439*60
[2021-02-23 10:04:21.621] $GNGGA,010421.00,3714.00162984,N,13701.48577691,E,4,12,0.9,99.287,M,36.772,M,1.0,0439*62
[2021-02-23 10:04:21.715] $GNGGA,010421.10,3714.00162844,N,13701.48577794,E,4,12,0.9,99.295,M,36.772,M,1.1,0439*68
[2021-02-23 10:04:21.824] $GNGGA,010421.20,3714.00162942,N,13701.48577896,E,4,12,0.9,99.286,M,36.772,M,1.2,0439*60
[2021-02-23 10:04:21.918] $GNGGA,010421.30,3714.00162935,N,13701.48577734,E,4,12,0.9,99.294,M,36.772,M,1.3,0439*64
[2021-02-23 10:04:22.028] $GNGGA,010421.40,3714.00162947,N,13701.48577795,E,4,12,0.9,99.295,M,36.772,M,1.4,0439*6B
[2021-02-23 10:04:22.121] $GNGGA,010421.50,3714.00162979,N,13701.48577797,E,4,12,0.9,99.293,M,36.772,M,1.5,0439*62
[2021-02-23 10:04:22.231] $GNGGA,010421.60,3714.00162905,N,13701.48577690,E,4,12,0.9,99.297,M,36.772,M,1.6,0439*6B
[2021-02-23 10:04:22.324] $GNGGA,010421.70,3714.00162958,N,13701.48577770,E,4,12,0.9,99.293,M,36.772,M,1.7,0439*68
[2021-02-23 10:04:22.434] $GNGGA,010421.80,3714.00162902,N,13701.48577526,E,4,12,0.9,99.297,M,36.772,M,1.8,0439*62
[2021-02-23 10:04:22.512] $GNGGA,010421.90,3714.00163187,N,13701.48578078,E,4,12,0.9,99.287,M,36.772,M,1.9,0439*66
[2021-02-23 10:04:22.637] $GNGGA,010422.00,3714.00162994,N,13701.48577842,E,4,12,0.9,99.294,M,36.772,M,2.0,0439*61
[2021-02-23 10:04:22.715] $GNGGA,010422.10,3714.00162863,N,13701.48577595,E,4,12,0.9,99.293,M,36.772,M,1.1,0439*6B
[2021-02-23 10:04:22.824] $GNGGA,010422.20,3714.00163120,N,13701.48577752,E,4,12,0.9,99.289,M,36.772,M,1.2,0439*66
[2021-02-23 10:04:22.918] $GNGGA,010422.30,3714.00162873,N,13701.48577618,E,4,12,0.9,99.292,M,36.772,M,1.3,0439*6D
[2021-02-23 10:04:23.028] $GNGGA,010422.40,3714.00162898,N,13701.48577675,E,4,12,0.9,99.290,M,36.772,M,1.4,0439*61
[2021-02-23 10:04:23.121] $GNGGA,010422.50,3714.00162983,N,13701.48577696,E,4,12,0.9,99.287,M,36.772,M,1.5,0439*61
[2021-02-23 10:04:23.231] $GNGGA,010422.60,3714.00162835,N,13701.48577494,E,4,12,0.9,99.289,M,36.772,M,1.6,0439*63
[2021-02-23 10:04:23.324] $GNGGA,010422.70,3714.00162695,N,13701.48577502,E,4,12,0.9,99.291,M,36.772,M,1.7,0439*60
[2021-02-23 10:04:23.434] $GNGGA,010422.80,3714.00162750,N,13701.48577317,E,4,12,0.9,99.288,M,36.772,M,1.8,0439*62
[2021-02-23 10:04:23.512] $GNGGA,010422.90,3714.00162772,N,13701.48577338,E,4,12,0.9,99.291,M,36.772,M,1.9,0439*67
[2021-02-23 10:04:23.637] $GNGGA,010423.00,3714.00162908,N,13701.48577642,E,4,12,0.8,99.285,M,36.772,M,1.0,0439*69
[2021-02-23 10:04:23.715] $GNGGA,010423.10,3714.00162681,N,13701.48577437,E,4,12,0.8,99.289,M,36.772,M,1.1,0439*6B
[2021-02-23 10:04:23.824] $GNGGA,010423.20,3714.00162731,N,13701.48577684,E,4,12,0.8,99.284,M,36.772,M,1.2,0439*66
[2021-02-23 10:04:23.918] $GNGGA,010423.30,3714.00162718,N,13701.48577656,E,4,12,0.8,99.286,M,36.772,M,1.3,0439*60
[2021-02-23 10:04:24.027] $GNGGA,010423.40,3714.00162637,N,13701.48577314,E,4,12,0.8,99.290,M,36.772,M,1.4,0439*68
[2021-02-23 10:04:24.121] $GNGGA,010423.50,3714.00162637,N,13701.48577411,E,4,12,0.8,99.290,M,36.772,M,1.5,0439*6A
[2021-02-23 10:04:24.231] $GNGGA,010423.60,3714.00162699,N,13701.48577365,E,4,12,0.8,99.286,M,36.772,M,1.6,0439*6D
[2021-02-23 10:04:24.324] $GNGGA,010423.70,3714.00162685,N,13701.48577387,E,4,12,0.8,99.293,M,36.772,M,1.7,0439*68
[2021-02-23 10:04:24.434] $GNGGA,010423.80,3714.00162938,N,13701.48577742,E,4,12,0.8,99.283,M,36.772,M,1.8,0439*6D
[2021-02-23 10:04:24.512] $GNGGA,010423.90,3714.00162722,N,13701.48577682,E,4,12,0.8,99.284,M,36.772,M,1.9,0439*62
[2021-02-23 10:04:24.637] $GNGGA,010424.00,3714.00162605,N,13701.48577393,E,4,12,0.8,99.292,M,36.772,M,1.0,0439*63
[2021-02-23 10:04:24.715] $GNGGA,010424.10,3714.00162732,N,13701.48577445,E,4,12,0.8,99.294,M,36.772,M,1.1,0439*6C
[2021-02-23 10:04:24.824] $GNGGA,010424.20,3714.00162595,N,13701.48577662,E,4,12,0.8,99.292,M,36.772,M,1.2,0439*62
[2021-02-23 10:04:24.918] $GNGGA,010424.30,3714.00162602,N,13701.48577420,E,4,12,0.8,99.299,M,36.772,M,1.3,0439*60
[2021-02-23 10:04:25.027] $GNGGA,010424.40,3714.00162712,N,13701.48577674,E,4,12,0.8,99.292,M,36.772,M,1.4,0439*68
[2021-02-23 10:04:25.121] $GNGGA,010424.50,3714.00162530,N,13701.48577517,E,4,12,0.8,99.297,M,36.772,M,1.5,0439*69
[2021-02-23 10:04:25.230] $GNGGA,010424.60,3714.00162589,N,13701.48577581,E,4,12,0.8,99.301,M,36.772,M,1.6,0439*6A
[2021-02-23 10:04:25.324] $GNGGA,010424.70,3714.00162586,N,13701.48577190,E,4,12,0.8,99.302,M,36.772,M,1.7,0439*62
[2021-02-23 10:04:25.434] $GNGGA,010424.80,3714.00162718,N,13701.48577564,E,4,12,0.8,99.295,M,36.772,M,1.8,0439*67
[2021-02-23 10:04:25.512] $GNGGA,010424.90,3714.00162844,N,13701.48577411,E,4,12,0.9,99.299,M,36.772,M,0.9,0439*6E
[2021-02-23 10:04:25.637] $GNGGA,010425.00,3714.00162799,N,13701.48577591,E,4,12,0.9,99.297,M,36.772,M,1.0,0439*66
[2021-02-23 10:04:25.715] $GNGGA,010425.10,3714.00162656,N,13701.48577629,E,4,12,0.9,99.299,M,36.772,M,1.1,0439*6A
[2021-02-23 10:04:25.824] $GNGGA,010425.20,3714.00162594,N,13701.48577608,E,4,12,0.9,99.298,M,36.772,M,1.2,0439*65
[2021-02-23 10:04:25.918] $GNGGA,010425.30,3714.00162577,N,13701.48577491,E,4,12,0.9,99.294,M,36.772,M,1.3,0439*66
[2021-02-23 10:04:26.027] $GNGGA,010425.40,3714.00162550,N,13701.48577520,E,4,12,0.9,99.302,M,36.772,M,1.4,0439*66
[2021-02-23 10:04:26.121] $GNGGA,010425.50,3714.00162533,N,13701.48577334,E,4,12,0.9,99.296,M,36.772,M,1.5,0439*6C
[2021-02-23 10:04:26.230] $GNGGA,010425.60,3714.00162351,N,13701.48577487,E,4,12,0.9,99.300,M,36.772,M,1.6,0439*6F
[2021-02-23 10:04:26.324] $GNGGA,010425.70,3714.00162397,N,13701.48577282,E,4,12,0.9,99.297,M,36.772,M,1.7,0439*69
[2021-02-23 10:04:26.418] $GNGGA,010425.80,3714.00162465,N,13701.48577507,E,4,12,0.9,99.296,M,36.772,M,1.8,0439*68
[2021-02-23 10:04:26.512] $GNGGA,010425.90,3714.00162516,N,13701.48577318,E,4,12,0.9,99.293,M,36.772,M,0.9,0439*61
[2021-02-23 10:04:26.637] $GNGGA,010426.00,3714.00162607,N,13701.48577467,E,4,12,0.9,99.292,M,36.772,M,1.0,0439*6E
[2021-02-23 10:04:26.715] $GNGGA,010426.10,3714.00162504,N,13701.48577346,E,4,12,0.9,99.296,M,36.772,M,1.1,0439*6E
[2021-02-23 10:04:26.824] $GNGGA,010426.20,3714.00162478,N,13701.48577629,E,4,12,0.9,99.292,M,36.772,M,1.2,0439*6C
[2021-02-23 10:04:26.918] $GNGGA,010426.30,3714.00162654,N,13701.48577406,E,4,12,0.9,99.298,M,36.772,M,1.3,0439*65
[2021-02-23 10:04:27.027] $GNGGA,010426.40,3714.00162621,N,13701.48577670,E,4,12,0.9,99.297,M,36.772,M,1.4,0439*6B
[2021-02-23 10:04:27.121] $GNGGA,010426.50,3714.00162713,N,13701.48577637,E,4,12,0.9,99.296,M,36.772,M,1.5,0439*69
[2021-02-23 10:04:27.230] $GNGGA,010426.60,3714.00162570,N,13701.48577473,E,4,12,0.9,99.299,M,36.772,M,1.6,0439*63
[2021-02-23 10:04:27.324] $GNGGA,010426.70,3714.00162543,N,13701.48577645,E,4,12,0.9,99.297,M,36.772,M,1.7,0439*6A
[2021-02-23 10:04:27.433] $GNGGA,010426.80,3714.00162589,N,13701.48577567,E,4,12,0.9,99.297,M,36.772,M,1.8,0439*6F
[2021-02-23 10:04:27.512] $GNGGA,010426.90,3714.00162569,N,13701.48577532,E,4,12,0.9,99.297,M,36.772,M,0.9,0439*60
[2021-02-23 10:04:27.637] $GNGGA,010427.00,3714.00162537,N,13701.48577438,E,4,12,0.9,99.296,M,36.772,M,1.0,0439*61
[2021-02-23 10:04:27.715] $GNGGA,010427.10,3714.00162600,N,13701.48577677,E,4,12,0.9,99.302,M,36.772,M,1.1,0439*63
[2021-02-23 10:04:27.824] $GNGGA,010427.20,3714.00162426,N,13701.48577507,E,4,12,0.9,99.298,M,36.772,M,1.2,0439*63
[2021-02-23 10:04:27.918] $GNGGA,010427.30,3714.00162430,N,13701.48577535,E,4,12,0.9,99.297,M,36.772,M,1.3,0439*6A
[2021-02-23 10:04:28.027] $GNGGA,010427.40,3714.00162343,N,13701.48577377,E,4,12,0.9,99.301,M,36.772,M,1.4,0439*67
[2021-02-23 10:04:28.121] $GNGGA,010427.50,3714.00162291,N,13701.48577183,E,4,12,0.9,99.295,M,36.772,M,1.5,0439*6C
[2021-02-23 10:04:28.230] $GNGGA,010427.60,3714.00162105,N,13701.48577269,E,4,12,0.9,99.298,M,36.772,M,1.6,0439*68
[2021-02-23 10:04:28.324] $GNGGA,010427.70,3714.00162455,N,13701.48577463,E,4,12,0.9,99.294,M,36.772,M,1.7,0439*68
[2021-02-23 10:04:28.433] $GNGGA,010427.80,3714.00162265,N,13701.48577529,E,4,12,0.9,99.297,M,36.772,M,1.8,0439*61
[2021-02-23 10:04:28.512] $GNGGA,010427.90,3714.00162120,N,13701.48577121,E,4,12,0.9,99.300,M,36.772,M,1.9,0439*60
[2021-02-23 10:04:28.636] $GNGGA,010428.00,3714.00162370,N,13701.48577485,E,4,12,0.9,99.290,M,36.772,M,2.0,0439*68
[2021-02-23 10:04:28.715] $GNGGA,010428.10,3714.00162303,N,13701.48577506,E,4,12,0.9,99.290,M,36.772,M,2.1,0439*66
[2021-02-23 10:04:28.824] $GNGGA,010428.20,3714.00162508,N,13701.48577427,E,4,12,0.8,99.301,M,36.772,M,1.2,0439*62
[2021-02-23 10:04:28.918] $GNGGA,010428.30,3714.00162537,N,13701.48577238,E,4,12,0.8,99.299,M,36.772,M,1.3,0439*66
[2021-02-23 10:04:29.027] $GNGGA,010428.40,3714.00162451,N,13701.48577327,E,4,12,0.8,99.302,M,36.772,M,1.4,0439*6B
[2021-02-23 10:04:29.121] $GNGGA,010428.50,3714.00162478,N,13701.48577267,E,4,12,0.8,99.294,M,36.772,M,1.5,0439*6B
[2021-02-23 10:04:29.230] $GNGGA,010428.60,3714.00162611,N,13701.48577125,E,4,12,0.8,99.295,M,36.772,M,1.6,0439*62
[2021-02-23 10:04:29.324] $GNGGA,010428.70,3714.00162425,N,13701.48577094,E,4,12,0.8,99.299,M,36.772,M,1.7,0439*60
[2021-02-23 10:04:29.433] $GNGGA,010428.80,3714.00162448,N,13701.48577409,E,4,12,0.8,99.299,M,36.772,M,1.8,0439*6B
[2021-02-23 10:04:29.511] $GNGGA,010428.90,3714.00162435,N,13701.48577408,E,4,12,0.8,99.301,M,36.772,M,1.9,0439*60
[2021-02-23 10:04:29.636] $GNGGA,010429.00,3714.00162504,N,13701.48577287,E,4,12,0.8,99.297,M,36.772,M,2.0,0439*6E
[2021-02-23 10:04:29.715] $GNGGA,010429.10,3714.00162597,N,13701.48577422,E,4,12,0.8,99.298,M,36.772,M,2.1,0439*62
[2021-02-23 10:04:29.824] $GNGGA,010429.20,3714.00162560,N,13701.48577367,E,4,12,0.9,99.302,M,36.772,M,1.2,0439*6C
[2021-02-23 10:04:29.918] $GNGGA,010429.30,3714.00162563,N,13701.48577816,E,4,12,0.9,99.298,M,36.772,M,1.3,0439*60
[2021-02-23 10:04:30.027] $GNGGA,010429.40,3714.00162449,N,13701.48577403,E,4,12,0.9,99.305,M,36.772,M,1.4,0439*64
[2021-02-23 10:04:30.121] $GNGGA,010429.50,3714.00162605,N,13701.48577695,E,4,12,0.9,99.302,M,36.772,M,1.5,0439*64
[2021-02-23 10:04:30.230] $GNGGA,010429.60,3714.00162457,N,13701.48577524,E,4,12,0.9,99.306,M,36.772,M,1.6,0439*6C
[2021-02-23 10:04:30.324] $GNGGA,010429.70,3714.00162591,N,13701.48577825,E,4,12,0.9,99.301,M,36.772,M,1.7,0439*6C
[2021-02-23 10:04:30.433] $GNGGA,010429.80,3714.00162568,N,13701.48577595,E,4,12,0.9,99.302,M,36.772,M,1.8,0439*6F
[2021-02-23 10:04:30.511] $GNGGA,010429.90,3714.00162402,N,13701.48577614,E,4,12,0.9,99.308,M,36.772,M,1.9,0439*62
[2021-02-23 10:04:30.636] $GNGGA,010430.00,3714.00162417,N,13701.48578084,E,4,12,0.8,99.298,M,36.772,M,1.0,0439*67
[2021-02-23 10:04:30.714] $GNGGA,010430.10,3714.00162323,N,13701.48578165,E,4,12,0.8,99.298,M,36.772,M,1.1,0439*69
[2021-02-23 10:04:30.824] $GNGGA,010430.20,3714.00162185,N,13701.48578349,E,4,12,0.8,99.297,M,36.772,M,1.2,0439*64
[2021-02-23 10:04:30.918] $GNGGA,010430.30,3714.00162007,N,13701.48578684,E,4,12,0.8,99.296,M,36.772,M,1.3,0439*6A
[2021-02-23 10:04:31.027] $GNGGA,010430.40,3714.00162210,N,13701.48578745,E,4,12,0.8,99.295,M,36.772,M,1.4,0439*61
[2021-02-23 10:04:31.121] $GNGGA,010430.50,3714.00162058,N,13701.48578452,E,4,12,0.8,99.294,M,36.772,M,1.5,0439*6B
[2021-02-23 10:04:31.230] $GNGGA,010430.60,3714.00162310,N,13701.48578445,E,4,12,0.8,99.297,M,36.772,M,1.6,0439*61
[2021-02-23 10:04:31.324] $GNGGA,010430.70,3714.00162295,N,13701.48578470,E,4,12,0.8,99.296,M,36.772,M,1.7,0439*6A
[2021-02-23 10:04:31.433] $GNGGA,010430.80,3714.00162305,N,13701.48578408,E,4,12,0.8,99.302,M,36.772,M,1.8,0439*61
[2021-02-23 10:04:31.511] $GNGGA,010430.90,3714.00162357,N,13701.48578654,E,4,12,0.8,99.292,M,36.772,M,1.9,0439*65
[2021-02-23 10:04:31.636] $GNGGA,010431.00,3714.00162336,N,13701.48578577,E,4,12,0.8,99.293,M,36.772,M,2.0,0439*63
[2021-02-23 10:04:31.714] $GNGGA,010431.10,3714.00162244,N,13701.48578437,E,4,12,0.9,99.306,M,36.772,M,1.1,0439*6D
[2021-02-23 10:04:31.824] $GNGGA,010431.20,3714.00162532,N,13701.48578467,E,4,12,0.9,99.299,M,36.772,M,1.2,0439*69
[2021-02-23 10:04:31.918] $GNGGA,010431.30,3714.00162483,N,13701.48578400,E,4,12,0.9,99.305,M,36.772,M,1.3,0439*67
[2021-02-23 10:04:32.027] $GNGGA,010431.40,3714.00162491,N,13701.48578467,E,4,12,0.9,99.302,M,36.772,M,1.4,0439*62
[2021-02-23 10:04:32.121] $GNGGA,010431.50,3714.00162208,N,13701.48577980,E,4,12,0.9,99.307,M,36.772,M,1.5,0439*6A
[2021-02-23 10:04:32.230] $GNGGA,010431.60,3714.00162486,N,13701.48577996,E,4,12,0.9,99.306,M,36.772,M,1.6,0439*6C
[2021-02-23 10:04:32.324] $GNGGA,010431.70,3714.00162563,N,13701.48578340,E,4,12,0.9,99.303,M,36.772,M,1.7,0439*6D
[2021-02-23 10:04:32.433] $GNGGA,010431.80,3714.00162507,N,13701.48577989,E,4,12,0.9,99.300,M,36.772,M,1.8,0439*6C
[2021-02-23 10:04:32.511] $GNGGA,010431.90,3714.00162388,N,13701.48578088,E,4,12,0.9,99.301,M,36.772,M,1.9,0439*6B
[2021-02-23 10:04:32.636] $GNGGA,010432.00,3714.00162347,N,13701.48578280,E,4,11,0.9,99.292,M,36.772,M,1.0,0439*69
[2021-02-23 10:04:32.714] $GNGGA,010432.10,3714.00162362,N,13701.48578062,E,4,11,0.9,99.291,M,36.772,M,1.1,0439*63
[2021-02-23 10:04:32.824] $GNGGA,010432.20,3714.00162395,N,13701.48578200,E,4,11,0.9,99.290,M,36.772,M,1.2,0439*6C
[2021-02-23 10:04:32.917] $GNGGA,010432.30,3714.00162225,N,13701.48578069,E,4,11,0.9,99.291,M,36.772,M,1.3,0439*6A
[2021-02-23 10:04:33.027] $GNGGA,010432.40,3714.00162275,N,13701.48578117,E,4,11,0.9,99.290,M,36.772,M,1.4,0439*66
[2021-02-23 10:04:33.121] $GNGGA,010432.50,3714.00162202,N,13701.48578039,E,4,11,0.9,99.286,M,36.772,M,1.5,0439*6C
[2021-02-23 10:04:33.230] $GNGGA,010432.60,3714.00161947,N,13701.48577706,E,4,11,0.9,99.296,M,36.772,M,1.6,0439*60
[2021-02-23 10:04:33.324] $GNGGA,010432.70,3714.00162045,N,13701.48577834,E,4,11,0.9,99.291,M,36.772,M,1.7,0439*61
[2021-02-23 10:04:33.433] $GNGGA,010432.80,3714.00161835,N,13701.48577598,E,4,12,0.8,99.299,M,36.772,M,0.8,0439*6D
[2021-02-23 10:04:33.511] $GNGGA,010432.90,3714.00161875,N,13701.48577668,E,4,12,0.8,99.296,M,36.772,M,0.9,0439*6A
[2021-02-23 10:04:33.636] $GNGGA,010433.00,3714.00161962,N,13701.48577637,E,4,12,0.8,99.299,M,36.772,M,1.0,0439*68
[2021-02-23 10:04:33.714] $GNGGA,010433.10,3714.00162075,N,13701.48577518,E,4,12,0.8,99.297,M,36.772,M,1.1,0439*64
[2021-02-23 10:04:33.824] $GNGGA,010433.20,3714.00161981,N,13701.48577390,E,4,12,0.8,99.299,M,36.772,M,1.2,0439*6D
[2021-02-23 10:04:33.917] $GNGGA,010433.30,3714.00161974,N,13701.48577454,E,4,12,0.8,99.294,M,36.772,M,1.3,0439*65
[2021-02-23 10:04:34.027] $GNGGA,010433.40,3714.00161843,N,13701.48577634,E,4,12,0.8,99.295,M,36.772,M,1.4,0439*65
[2021-02-23 10:04:34.120] $GNGGA,010433.50,3714.00161860,N,13701.48577677,E,4,12,0.8,99.298,M,36.772,M,1.5,0439*6E
[2021-02-23 10:04:34.230] $GNGGA,010433.60,3714.00161919,N,13701.48577534,E,4,12,0.8,99.298,M,36.772,M,1.6,0439*65
[2021-02-23 10:04:34.324] $GNGGA,010433.70,3714.00161890,N,13701.48577490,E,4,12,0.8,99.298,M,36.772,M,1.7,0439*6A
[2021-02-23 10:04:34.433] $GNGGA,010433.80,3714.00161897,N,13701.48577403,E,4,12,0.8,99.301,M,36.772,M,1.8,0439*66
[2021-02-23 10:04:34.511] $GNGGA,010433.90,3714.00162074,N,13701.48577515,E,4,12,0.8,99.297,M,36.772,M,1.9,0439*68
[2021-02-23 10:04:34.636] $GNGGA,010434.00,3714.00162028,N,13701.48577373,E,4,12,0.9,99.296,M,36.772,M,1.0,0439*60
[2021-02-23 10:04:34.714] $GNGGA,010434.10,3714.00162186,N,13701.48577410,E,4,12,0.9,99.300,M,36.772,M,1.1,0439*69
[2021-02-23 10:04:34.824] $GNGGA,010434.20,3714.00162160,N,13701.48577461,E,4,12,0.9,99.299,M,36.772,M,1.2,0439*66
[2021-02-23 10:04:34.917] $GNGGA,010434.30,3714.00161913,N,13701.48577126,E,4,12,0.9,99.303,M,36.772,M,1.3,0439*6D
[2021-02-23 10:04:35.027] $GNGGA,010434.40,3714.00162217,N,13701.48577240,E,4,12,0.9,99.301,M,36.772,M,1.4,0439*60
[2021-02-23 10:04:35.120] $GNGGA,010434.50,3714.00161779,N,13701.48577183,E,4,12,0.9,99.303,M,36.772,M,1.5,0439*60
[2021-02-23 10:04:35.230] $GNGGA,010434.60,3714.00161943,N,13701.48577318,E,4,12,0.9,99.303,M,36.772,M,1.6,0439*67
[2021-02-23 10:04:35.324] $GNGGA,010434.70,3714.00162134,N,13701.48577562,E,4,12,0.9,99.300,M,36.772,M,1.7,0439*64
[2021-02-23 10:04:35.433] $GNGGA,010434.80,3714.00162131,N,13701.48577393,E,4,12,0.9,99.301,M,36.772,M,1.8,0439*68
[2021-02-23 10:04:35.511] $GNGGA,010434.90,3714.00162192,N,13701.48577641,E,4,12,0.9,99.302,M,36.772,M,1.9,0439*68
[2021-02-23 10:04:35.636] $GNGGA,010435.00,3714.00162110,N,13701.48577483,E,4,12,0.9,99.303,M,36.772,M,2.0,0439*6D
[2021-02-23 10:04:35.714] $GNGGA,010435.10,3714.00162184,N,13701.48577582,E,4,12,0.9,99.299,M,36.772,M,2.1,0439*62
[2021-02-23 10:04:35.823] $GNGGA,010435.20,3714.00162202,N,13701.48577364,E,4,12,0.8,99.310,M,36.772,M,1.2,0439*63
[2021-02-23 10:04:35.917] $GNGGA,010435.30,3714.00162291,N,13701.48577459,E,4,12,0.8,99.301,M,36.772,M,1.3,0439*60
[2021-02-23 10:04:36.027] $GNGGA,010435.40,3714.00162341,N,13701.48577513,E,4,12,0.8,99.302,M,36.772,M,1.4,0439*60
[2021-02-23 10:04:36.120] $GNGGA,010435.50,3714.00162393,N,13701.48577431,E,4,12,0.8,99.303,M,36.772,M,1.5,0439*6F
[2021-02-23 10:04:36.230] $GNGGA,010435.60,3714.00162355,N,13701.48577339,E,4,12,0.8,99.304,M,36.772,M,1.6,0439*6D
[2021-02-23 10:04:36.323] $GNGGA,010435.70,3714.00162553,N,13701.48577821,E,4,12,0.8,99.299,M,36.772,M,1.7,0439*6A
[2021-02-23 10:04:36.433] $GNGGA,010435.80,3714.00162347,N,13701.48577270,E,4,12,0.8,99.305,M,36.772,M,1.8,0439*63
[2021-02-23 10:04:36.527] $GNGGA,010435.90,3714.00162403,N,13701.48577681,E,4,12,0.8,99.303,M,36.772,M,1.9,0439*68
[2021-02-23 10:04:36.636] $GNGGA,010436.00,3714.00162349,N,13701.48577489,E,4,12,0.8,99.296,M,36.772,M,1.0,0439*65
[2021-02-23 10:04:36.714] $GNGGA,010436.10,3714.00162384,N,13701.48577889,E,4,12,0.8,99.295,M,36.772,M,1.1,0439*6B
[2021-02-23 10:04:36.823] $GNGGA,010436.20,3714.00162305,N,13701.48577689,E,4,12,0.8,99.298,M,36.772,M,1.2,0439*61
[2021-02-23 10:04:36.917] $GNGGA,010436.30,3714.00162359,N,13701.48577642,E,4,12,0.8,99.292,M,36.772,M,1.3,0439*65
[2021-02-23 10:04:37.027] $GNGGA,010436.40,3714.00162422,N,13701.48577752,E,4,12,0.8,99.292,M,36.772,M,1.4,0439*6E
[2021-02-23 10:04:37.120] $GNGGA,010436.50,3714.00162270,N,13701.48577806,E,4,12,0.8,99.294,M,36.772,M,1.5,0439*67
[2021-02-23 10:04:37.230] $GNGGA,010436.60,3714.00162268,N,13701.48577669,E,4,12,0.8,99.293,M,36.772,M,1.6,0439*6E
[2021-02-23 10:04:37.323] $GNGGA,010436.70,3714.00162235,N,13701.48577489,E,4,12,0.8,99.295,M,36.772,M,1.7,0439*6C
[2021-02-23 10:04:37.433] $GNGGA,010436.80,3714.00162356,N,13701.48577907,E,4,12,0.8,99.293,M,36.772,M,1.8,0439*65
[2021-02-23 10:04:37.511] $GNGGA,010436.90,3714.00162278,N,13701.48577674,E,4,12,0.8,99.295,M,36.772,M,1.9,0439*65
[2021-02-23 10:04:37.636] $GNGGA,010437.00,3714.00162352,N,13701.48577753,E,4,12,0.9,99.287,M,36.772,M,1.0,0439*6B
[2021-02-23 10:04:37.714] $GNGGA,010437.10,3714.00162631,N,13701.48577964,E,4,12,0.9,99.283,M,36.772,M,1.1,0439*65
[2021-02-23 10:04:37.823] $GNGGA,010437.20,3714.00162417,N,13701.48577774,E,4,12,0.9,99.286,M,36.772,M,1.2,0439*69
[2021-02-23 10:04:37.917] $GNGGA,010437.30,3714.00162540,N,13701.48578034,E,4,12,0.9,99.284,M,36.772,M,1.3,0439*64
[2021-02-23 10:04:38.026] $GNGGA,010437.40,3714.00162599,N,13701.48578049,E,4,12,0.9,99.287,M,36.772,M,1.4,0439*69
[2021-02-23 10:04:38.120] $GNGGA,010437.50,3714.00162559,N,13701.48578119,E,4,12,0.9,99.288,M,36.772,M,1.5,0439*6E
[2021-02-23 10:04:38.230] $GNGGA,010437.60,3714.00162477,N,13701.48578157,E,4,12,0.9,99.290,M,36.772,M,1.6,0439*60
[2021-02-23 10:04:38.323] $GNGGA,010437.70,3714.00162610,N,13701.48578380,E,4,12,0.9,99.290,M,36.772,M,1.7,0439*6B
[2021-02-23 10:04:38.433] $GNGGA,010437.80,3714.00162491,N,13701.48577902,E,4,12,0.9,99.289,M,36.772,M,1.8,0439*67
[2021-02-23 10:04:38.526] $GNGGA,010437.90,3714.00162632,N,13701.48578246,E,4,12,0.9,99.295,M,36.772,M,1.9,0439*65
[2021-02-23 10:04:38.636] $GNGGA,010438.00,3714.00162758,N,13701.48578277,E,4,12,0.9,99.288,M,36.772,M,2.0,0439*6A
[2021-02-23 10:04:38.714] $GNGGA,010438.10,3714.00162466,N,13701.48578195,E,4,12,0.8,99.303,M,36.772,M,1.1,0439*6B
[2021-02-23 10:04:38.823] $GNGGA,010438.20,3714.00162652,N,13701.48578373,E,4,12,0.8,99.298,M,36.772,M,1.2,0439*67
[2021-02-23 10:04:38.917] $GNGGA,010438.30,3714.00162456,N,13701.48578334,E,4,12,0.8,99.307,M,36.772,M,1.3,0439*65
[2021-02-23 10:04:39.026] $GNGGA,010438.40,3714.00162583,N,13701.48578398,E,4,12,0.8,99.299,M,36.772,M,1.4,0439*6C
[2021-02-23 10:04:39.120] $GNGGA,010438.50,3714.00162552,N,13701.48578308,E,4,12,0.8,99.298,M,36.772,M,1.5,0439*68
[2021-02-23 10:04:39.230] $GNGGA,010438.60,3714.00162735,N,13701.48578409,E,4,12,0.8,99.299,M,36.772,M,1.6,0439*6C
[2021-02-23 10:04:39.323] $GNGGA,010438.70,3714.00162641,N,13701.48578167,E,4,12,0.8,99.300,M,36.772,M,1.7,0439*62
[2021-02-23 10:04:39.433] $GNGGA,010438.80,3714.00162361,N,13701.48578207,E,4,12,0.8,99.305,M,36.772,M,1.8,0439*65
[2021-02-23 10:04:39.511] $GNGGA,010438.90,3714.00162424,N,13701.48578422,E,4,12,0.8,99.301,M,36.772,M,1.9,0439*66
[2021-02-23 10:04:39.636] $GNGGA,010439.00,3714.00162522,N,13701.48577878,E,4,12,0.8,99.302,M,36.772,M,1.0,0439*6F
[2021-02-23 10:04:39.714] $GNGGA,010439.10,3714.00162233,N,13701.48578124,E,4,12,0.8,99.297,M,36.772,M,1.1,0439*6A
[2021-02-23 10:04:39.823] $GNGGA,010439.20,3714.00162023,N,13701.48577890,E,4,12,0.8,99.292,M,36.772,M,1.2,0439*65
[2021-02-23 10:04:39.917] $GNGGA,010439.30,3714.00161820,N,13701.48577459,E,4,12,0.8,99.295,M,36.772,M,1.3,0439*63
[2021-02-23 10:04:40.026] $GNGGA,010439.40,3714.00161713,N,13701.48577374,E,4,12,0.8,99.292,M,36.772,M,1.4,0439*63
[2021-02-23 10:04:40.120] $GNGGA,010439.50,3714.00161868,N,13701.48577276,E,4,12,0.8,99.289,M,36.772,M,1.5,0439*69
[2021-02-23 10:04:40.229] $GNGGA,010439.60,3714.00162039,N,13701.48577342,E,4,12,0.8,99.291,M,36.772,M,1.6,0439*69
[2021-02-23 10:04:40.323] $GNGGA,010439.70,3714.00162005,N,13701.48577234,E,4,12,0.8,99.289,M,36.772,M,1.7,0439*6F
[2021-02-23 10:04:40.432] $GNGGA,010439.80,3714.00161776,N,13701.48576725,E,4,12,0.8,99.293,M,36.772,M,1.8,0439*60
[2021-02-23 10:04:40.511] $GNGGA,010439.90,3714.00161507,N,13701.48576689,E,4,12,0.8,99.290,M,36.772,M,1.9,0439*60
[2021-02-23 10:04:40.636] $GNGGA,010440.00,3714.00161555,N,13701.48576445,E,4,12,0.9,99.288,M,36.772,M,1.0,0439*63
[2021-02-23 10:04:40.714] $GNGGA,010440.10,3714.00161728,N,13701.48576721,E,4,12,0.9,99.295,M,36.772,M,1.1,0439*66
[2021-02-23 10:04:40.823] $GNGGA,010440.20,3714.00161999,N,13701.48576859,E,4,12,0.9,99.296,M,36.772,M,1.2,0439*61
[2021-02-23 10:04:40.917] $GNGGA,010440.30,3714.00162013,N,13701.48577097,E,4,12,0.9,99.297,M,36.772,M,1.3,0439*63
[2021-02-23 10:04:41.026] $GNGGA,010440.40,3714.00162078,N,13701.48577068,E,4,12,0.9,99.291,M,36.772,M,1.4,0439*68
